{"last_updated":1728763735,"ttl":60,"version":"2.2","data":{"bikes":[{"bike_id":"36aeb9a0-146e-4853-b3de-3536c8a71bcb","system_id":"levelo_inurba_marseille","lat":43.30885,"lon":5.372,"is_reserved":false,"is_disabled":false,"rental_uris":{"android":"levelo://app?vid=36aeb9a0-146e-4853-b3de-3536c8a71bcb","ios":"levelo://app?vid=36aeb9a0-146e-4853-b3de-3536c8a71bcb"},"vehicle_type_id":"4","last_reported":1728763735,"current_range_meters":39200,"station_id":"ce4bguh2rcd13ifvqckg","pricing_plan_id":"cebpf4jnsgd1na2vs0mg"},{"bike_id":"a88cc3d5-4214-4799-a463-c01d33dbb23e","system_id":"levelo_inurba_marseille","lat":43.25008,"lon":5.38913,"is_reserved":false,"is_disabled":false,"rental_uris":{"android":"levelo://app?vid=a88cc3d5-4214-4799-a463-c01d33dbb23e","ios":"levelo://app?vid=a88cc3d5-4214-4799-a463-c01d33dbb23e"},"vehicle_type_id":"4","last_reported":1728763735,"current_range_meters":20000,"station_id":"ce4bhgp2rcd13ifvqfd0","pricing_plan_id":"cebpf4jnsgd1na2vs0mg"},{"bike_id":"8a36bb65-dd05-437f-adaf-66c35c91f8ff","system_id":"levelo_inurba_marseille","lat":43.24167,"lon":5.36405,"is_reserved":false,"is_disabled":false,"rental_uris":{"android":"levelo://app?vid=8a36bb65-dd05-437f-adaf-66c35c91f8ff","ios":"levelo://app?vid=8a36bb65-dd05-437f-adaf-66c35c91f8ff"},"vehicle_type_id":"4","last_reported":1728763735,"current_range_meters":38000,"station_id":"cpo36qri1sfpv3e86is0","pricing_plan_id":"cebpf4jnsgd1na2vs0mg"},{"bike_id":"635303c4-fb7b-4aa3-bf5c-c9508e4d9073","system_id":"levelo_inurba_marseille","lat":43.30541,"lon":5.36545,"is_reserved":false,"is_disabled":false,"rental_uris":{"android":"levelo://app?vid=635303c4-fb7b-4aa3-bf5c-c9508e4d9073","ios":"levelo://app?vid=635303c4-fb7b-4aa3-bf5c-c9508e4d9073"},"vehicle_type_id":"4","last_reported":1728763735,"current_range_meters":7200,"station_id":"ce4bgs12rcd13ifvqcag","pricing_plan_id":"cebpf4jnsgd1na2vs0mg"},{"bike_id":"3c6bf718-7ffc-488f-a36b-6561a39c542d","system_id":"levelo_inurba_marseille","lat":43.28928,"lon":5.3841,"is_reserved":false,"is_disabled":false,"rental_uris":{"android":"levelo://app?vid=3c6bf718-7ffc-488f-a36b-6561a39c542d","ios":"levelo://app?vid=3c6bf718-7ffc-488f-a36b-6561a39c542d"},"vehicle_type_id":"4","last_reported":1728763735,"current_range_meters":36000,"station_id":"ce4bh612rcd13ifvqe6g","pricing_plan_id":"cebpf4jnsgd1na2vs0mg"},{"bike_id":"480c36bc-dd66-41df-b09a-76735c76211b","system_id":"levelo_inurba_marseille","lat":43.27993,"lon":5.41665,"is_reserved":false,"is_disabled":false,"rental_uris":{"android":"levelo://app?vid=480c36bc-dd66-41df-b09a-76735c76211b","ios":"levelo://app?vid=480c36bc-dd66-41df-b09a-76735c76211b"},"vehicle_type_id":"4","last_reported":1728763735,"current_range_meters":38800,"station_id":"ce4bho12rcd13ifvqh1g","pricing_plan_id":"cebpf4jnsgd1na2vs0mg"},{"bike_id":"1dae633f-4c9d-4ac0-b2a6-1648e6545bd4","system_id":"levelo_inurba_marseille","lat":43.29844,"lon":5.3628,"is_reserved":false,"is_disabled":false,"rental_uris":{"android":"levelo://app?vid=1dae633f-4c9d-4ac0-b2a6-1648e6545bd4","ios":"levelo://app?vid=1dae633f-4c9d-4ac0-b2a6-1648e6545bd4"},"vehicle_type_id":"4","last_reported":1728763735,"current_range_meters":38800,"station_id":"ce4bgpp2rcd13ifvqc3g","pricing_plan_id":"cebpf4jnsgd1na2vs0mg"},{"bike_id":"e4df68f4-a27d-4949-a0d7-dab74056138b","system_id":"levelo_inurba_marseille","lat":43.29521,"lon":5.38546,"is_reserved":false,"is_disabled":false,"rental_uris":{"android":"levelo://app?vid=e4df68f4-a27d-4949-a0d7-dab74056138b","ios":"levelo://app?vid=e4df68f4-a27d-4949-a0d7-dab74056138b"},"vehicle_type_id":"4","last_reported":1728763735,"current_range_meters":38000,"station_id":"ce4bgih2rcd13ifvqba0","pricing_plan_id":"cebpf4jnsgd1na2vs0mg"},{"bike_id":"3ef42292-5f8b-43cb-a0ec-0de8543cadff","system_id":"levelo_inurba_marseille","lat":43.33025,"lon":5.39036,"is_reserved":false,"is_disabled":false,"rental_uris":{"android":"levelo://app?vid=3ef42292-5f8b-43cb-a0ec-0de8543cadff","ios":"levelo://app?vid=3ef42292-5f8b-43cb-a0ec-0de8543cadff"},"vehicle_type_id":"4","last_reported":1728763735,"current_range_meters":39200,"station_id":"ce4bhr92rcd13ifvqhrg","pricing_plan_id":"cebpf4jnsgd1na2vs0mg"},{"bike_id":"e49be7dd-1e95-4af1-8431-31f4173ce85d","system_id":"levelo_inurba_marseille","lat":43.32111,"lon":5.36764,"is_reserved":false,"is_disabled":false,"rental_uris":{"android":"levelo://app?vid=e49be7dd-1e95-4af1-8431-31f4173ce85d","ios":"levelo://app?vid=e49be7dd-1e95-4af1-8431-31f4173ce85d"},"vehicle_type_id":"4","last_reported":1728763735,"current_range_meters":38800,"station_id":"ce4bhrh2rcd13ifvqhug","pricing_plan_id":"cebpf4jnsgd1na2vs0mg"},{"bike_id":"6143dcf9-c681-4212-af02-af18735f4829","system_id":"levelo_inurba_marseille","lat":43.28417,"lon":5.37518,"is_reserved":false,"is_disabled":false,"rental_uris":{"android":"levelo://app?vid=6143dcf9-c681-4212-af02-af18735f4829","ios":"levelo://app?vid=6143dcf9-c681-4212-af02-af18735f4829"},"vehicle_type_id":"4","last_reported":1728763735,"current_range_meters":38800,"station_id":"ce4bh412rcd13ifvqds0","pricing_plan_id":"cebpf4jnsgd1na2vs0mg"},{"bike_id":"61432fa4-e69a-43e1-a752-60da459a1e2e","system_id":"levelo_inurba_marseille","lat":43.33724,"lon":5.39188,"is_reserved":false,"is_disabled":false,"rental_uris":{"android":"levelo://app?vid=61432fa4-e69a-43e1-a752-60da459a1e2e","ios":"levelo://app?vid=61432fa4-e69a-43e1-a752-60da459a1e2e"},"vehicle_type_id":"4","last_reported":1728763735,"current_range_meters":36000,"station_id":"ce4bhr92rcd13ifvqhsg","pricing_plan_id":"cebpf4jnsgd1na2vs0mg"},{"bike_id":"6dfa1c15-62e5-4156-9ffa-4e5064dfd4c4","system_id":"levelo_inurba_marseille","lat":43.25112,"lon":5.40322,"is_reserved":false,"is_disabled":false,"rental_uris":{"android":"levelo://app?vid=6dfa1c15-62e5-4156-9ffa-4e5064dfd4c4","ios":"levelo://app?vid=6dfa1c15-62e5-4156-9ffa-4e5064dfd4c4"},"vehicle_type_id":"4","last_reported":1728763735,"current_range_meters":30400,"station_id":"ce4bhlh2rcd13ifvqgig","pricing_plan_id":"cebpf4jnsgd1na2vs0mg"},{"bike_id":"b424ba4d-d1b3-4e4e-85df-0ef7cbd1234b","system_id":"levelo_inurba_marseille","lat":43.2984,"lon":5.36266,"is_reserved":false,"is_disabled":false,"rental_uris":{"android":"levelo://app?vid=b424ba4d-d1b3-4e4e-85df-0ef7cbd1234b","ios":"levelo://app?vid=b424ba4d-d1b3-4e4e-85df-0ef7cbd1234b"},"vehicle_type_id":"4","last_reported":1728763735,"current_range_meters":20800,"station_id":"ce4bgpp2rcd13ifvqc3g","pricing_plan_id":"cebpf4jnsgd1na2vs0mg"},{"bike_id":"1ac86634-ba8a-4ebb-a178-a73d44c52506","system_id":"levelo_inurba_marseille","lat":43.29533,"lon":5.38547,"is_reserved":false,"is_disabled":false,"rental_uris":{"android":"levelo://app?vid=1ac86634-ba8a-4ebb-a178-a73d44c52506","ios":"levelo://app?vid=1ac86634-ba8a-4ebb-a178-a73d44c52506"},"vehicle_type_id":"4","last_reported":1728763735,"current_range_meters":40000,"station_id":"ce4bgih2rcd13ifvqba0","pricing_plan_id":"cebpf4jnsgd1na2vs0mg"},{"bike_id":"1e08b1f5-0336-4407-a88e-651f67e1a657","system_id":"levelo_inurba_marseille","lat":43.2706,"lon":5.4026,"is_reserved":false,"is_disabled":false,"rental_uris":{"android":"levelo://app?vid=1e08b1f5-0336-4407-a88e-651f67e1a657","ios":"levelo://app?vid=1e08b1f5-0336-4407-a88e-651f67e1a657"},"vehicle_type_id":"4","last_reported":1728763735,"current_range_meters":30800,"station_id":"ce4bhk92rcd13ifvqgc0","pricing_plan_id":"cebpf4jnsgd1na2vs0mg"},{"bike_id":"631c6f7d-ee02-44f0-9a1e-edfcde33330b","system_id":"levelo_inurba_marseille","lat":43.3019,"lon":5.36637,"is_reserved":false,"is_disabled":false,"rental_uris":{"android":"levelo://app?vid=631c6f7d-ee02-44f0-9a1e-edfcde33330b","ios":"levelo://app?vid=631c6f7d-ee02-44f0-9a1e-edfcde33330b"},"vehicle_type_id":"4","last_reported":1728763735,"current_range_meters":36400,"station_id":"ce4bgrh2rcd13ifvqc8g","pricing_plan_id":"cebpf4jnsgd1na2vs0mg"},{"bike_id":"83257cb4-5cf7-45fa-83ee-fe44d379ee85","system_id":"levelo_inurba_marseille","lat":43.24548,"lon":5.39519,"is_reserved":false,"is_disabled":false,"rental_uris":{"android":"levelo://app?vid=83257cb4-5cf7-45fa-83ee-fe44d379ee85","ios":"levelo://app?vid=83257cb4-5cf7-45fa-83ee-fe44d379ee85"},"vehicle_type_id":"4","last_reported":1728763735,"current_range_meters":28000,"station_id":"ce4bhlp2rcd13ifvqgjg","pricing_plan_id":"cebpf4jnsgd1na2vs0mg"},{"bike_id":"c5c33660-077d-4f97-b2f0-40691ac09116","system_id":"levelo_inurba_marseille","lat":43.24393,"lon":5.3707,"is_reserved":false,"is_disabled":false,"rental_uris":{"android":"levelo://app?vid=c5c33660-077d-4f97-b2f0-40691ac09116","ios":"levelo://app?vid=c5c33660-077d-4f97-b2f0-40691ac09116"},"vehicle_type_id":"4","last_reported":1728763735,"current_range_meters":36800,"station_id":"ce4bhhh2rcd13ifvqfk0","pricing_plan_id":"cebpf4jnsgd1na2vs0mg"},{"bike_id":"931d1f9c-4cb2-40a2-a856-914a1c55fcf3","system_id":"levelo_inurba_marseille","lat":43.24567,"lon":5.41661,"is_reserved":false,"is_disabled":false,"rental_uris":{"android":"levelo://app?vid=931d1f9c-4cb2-40a2-a856-914a1c55fcf3","ios":"levelo://app?vid=931d1f9c-4cb2-40a2-a856-914a1c55fcf3"},"vehicle_type_id":"4","last_reported":1728763735,"current_range_meters":9600,"station_id":"","pricing_plan_id":"cebpf4jnsgd1na2vs0mg"},{"bike_id":"36ca0ca8-90a4-490c-8d77-4000acac3807","system_id":"levelo_inurba_marseille","lat":43.28441,"lon":5.39199,"is_reserved":false,"is_disabled":false,"rental_uris":{"android":"levelo://app?vid=36ca0ca8-90a4-490c-8d77-4000acac3807","ios":"levelo://app?vid=36ca0ca8-90a4-490c-8d77-4000acac3807"},"vehicle_type_id":"4","last_reported":1728763735,"current_range_meters":8400,"station_id":"ce4bhoh2rcd13ifvqh5g","pricing_plan_id":"cebpf4jnsgd1na2vs0mg"},{"bike_id":"0921d8f3-33c9-4091-ac98-53c85dd28a45","system_id":"levelo_inurba_marseille","lat":43.271032,"lon":5.422631,"is_reserved":false,"is_disabled":false,"rental_uris":{"android":"levelo://app?vid=0921d8f3-33c9-4091-ac98-53c85dd28a45","ios":"levelo://app?vid=0921d8f3-33c9-4091-ac98-53c85dd28a45"},"vehicle_type_id":"4","last_reported":1728763735,"current_range_meters":27200,"station_id":"ce4bhk92rcd13ifvqgb0","pricing_plan_id":"cebpf4jnsgd1na2vs0mg"},{"bike_id":"b239e39a-0d4f-4edd-87b1-8e40d3daeaca","system_id":"levelo_inurba_marseille","lat":43.29563,"lon":5.37505,"is_reserved":false,"is_disabled":false,"rental_uris":{"android":"levelo://app?vid=b239e39a-0d4f-4edd-87b1-8e40d3daeaca","ios":"levelo://app?vid=b239e39a-0d4f-4edd-87b1-8e40d3daeaca"},"vehicle_type_id":"4","last_reported":1728763735,"current_range_meters":17200,"station_id":"ce4bgh92rcd13ifvqb50","pricing_plan_id":"cebpf4jnsgd1na2vs0mg"},{"bike_id":"5a7002b1-d89a-43cb-9ea2-ac0cfc153051","system_id":"levelo_inurba_marseille","lat":43.29839,"lon":5.36276,"is_reserved":false,"is_disabled":false,"rental_uris":{"android":"levelo://app?vid=5a7002b1-d89a-43cb-9ea2-ac0cfc153051","ios":"levelo://app?vid=5a7002b1-d89a-43cb-9ea2-ac0cfc153051"},"vehicle_type_id":"4","last_reported":1728763735,"current_range_meters":17200,"station_id":"ce4bgpp2rcd13ifvqc3g","pricing_plan_id":"cebpf4jnsgd1na2vs0mg"},{"bike_id":"8af20607-32f8-434d-b6d0-aaa914005a4c","system_id":"levelo_inurba_marseille","lat":43.29843,"lon":5.36282,"is_reserved":false,"is_disabled":false,"rental_uris":{"android":"levelo://app?vid=8af20607-32f8-434d-b6d0-aaa914005a4c","ios":"levelo://app?vid=8af20607-32f8-434d-b6d0-aaa914005a4c"},"vehicle_type_id":"4","last_reported":1728763735,"current_range_meters":32000,"station_id":"ce4bgpp2rcd13ifvqc3g","pricing_plan_id":"cebpf4jnsgd1na2vs0mg"},{"bike_id":"c4015b68-d99c-4e60-9211-7512a632fa47","system_id":"levelo_inurba_marseille","lat":43.30094,"lon":5.39071,"is_reserved":false,"is_disabled":false,"rental_uris":{"android":"levelo://app?vid=c4015b68-d99c-4e60-9211-7512a632fa47","ios":"levelo://app?vid=c4015b68-d99c-4e60-9211-7512a632fa47"},"vehicle_type_id":"4","last_reported":1728763735,"current_range_meters":38800,"station_id":"ce4bh192rcd13ifvqdb0","pricing_plan_id":"cebpf4jnsgd1na2vs0mg"},{"bike_id":"a4fabc59-6348-4eb9-83e9-6ea2ff71cce2","system_id":"levelo_inurba_marseille","lat":43.28836,"lon":5.35844,"is_reserved":false,"is_disabled":false,"rental_uris":{"android":"levelo://app?vid=a4fabc59-6348-4eb9-83e9-6ea2ff71cce2","ios":"levelo://app?vid=a4fabc59-6348-4eb9-83e9-6ea2ff71cce2"},"vehicle_type_id":"4","last_reported":1728763735,"current_range_meters":16000,"station_id":"ce4bhb12rcd13ifvqem0","pricing_plan_id":"cebpf4jnsgd1na2vs0mg"},{"bike_id":"867f3f40-5931-445f-8081-385466db43ab","system_id":"levelo_inurba_marseille","lat":43.29837,"lon":5.36269,"is_reserved":false,"is_disabled":false,"rental_uris":{"android":"levelo://app?vid=867f3f40-5931-445f-8081-385466db43ab","ios":"levelo://app?vid=867f3f40-5931-445f-8081-385466db43ab"},"vehicle_type_id":"4","last_reported":1728763735,"current_range_meters":39200,"station_id":"ce4bgpp2rcd13ifvqc3g","pricing_plan_id":"cebpf4jnsgd1na2vs0mg"},{"bike_id":"0de0711e-04df-48ec-9be5-aa95798b911c","system_id":"levelo_inurba_marseille","lat":43.28929,"lon":5.36633,"is_reserved":false,"is_disabled":false,"rental_uris":{"android":"levelo://app?vid=0de0711e-04df-48ec-9be5-aa95798b911c","ios":"levelo://app?vid=0de0711e-04df-48ec-9be5-aa95798b911c"},"vehicle_type_id":"4","last_reported":1728763735,"current_range_meters":4800,"station_id":"ce4bhap2rcd13ifvqek0","pricing_plan_id":"cebpf4jnsgd1na2vs0mg"},{"bike_id":"6b2daff3-9851-4dff-9081-e0ec010599e4","system_id":"levelo_inurba_marseille","lat":43.314515,"lon":5.37384,"is_reserved":false,"is_disabled":false,"rental_uris":{"android":"levelo://app?vid=6b2daff3-9851-4dff-9081-e0ec010599e4","ios":"levelo://app?vid=6b2daff3-9851-4dff-9081-e0ec010599e4"},"vehicle_type_id":"4","last_reported":1728763735,"current_range_meters":35600,"station_id":"","pricing_plan_id":"cebpf4jnsgd1na2vs0mg"},{"bike_id":"94c4912e-eac6-4ca2-ae8f-ac2fad25a3fd","system_id":"levelo_inurba_marseille","lat":43.25114,"lon":5.40318,"is_reserved":false,"is_disabled":false,"rental_uris":{"android":"levelo://app?vid=94c4912e-eac6-4ca2-ae8f-ac2fad25a3fd","ios":"levelo://app?vid=94c4912e-eac6-4ca2-ae8f-ac2fad25a3fd"},"vehicle_type_id":"4","last_reported":1728763735,"current_range_meters":18800,"station_id":"ce4bhlh2rcd13ifvqgig","pricing_plan_id":"cebpf4jnsgd1na2vs0mg"},{"bike_id":"f8fd929e-ef12-4998-8e1d-12522bd05de2","system_id":"levelo_inurba_marseille","lat":43.33023,"lon":5.39052,"is_reserved":false,"is_disabled":false,"rental_uris":{"android":"levelo://app?vid=f8fd929e-ef12-4998-8e1d-12522bd05de2","ios":"levelo://app?vid=f8fd929e-ef12-4998-8e1d-12522bd05de2"},"vehicle_type_id":"4","last_reported":1728763735,"current_range_meters":6400,"station_id":"ce4bhr92rcd13ifvqhrg","pricing_plan_id":"cebpf4jnsgd1na2vs0mg"},{"bike_id":"d432596f-4dce-47fb-95fe-139e821b1909","system_id":"levelo_inurba_marseille","lat":43.25001,"lon":5.38932,"is_reserved":false,"is_disabled":false,"rental_uris":{"android":"levelo://app?vid=d432596f-4dce-47fb-95fe-139e821b1909","ios":"levelo://app?vid=d432596f-4dce-47fb-95fe-139e821b1909"},"vehicle_type_id":"4","last_reported":1728763735,"current_range_meters":26800,"station_id":"ce4bhgp2rcd13ifvqfd0","pricing_plan_id":"cebpf4jnsgd1na2vs0mg"},{"bike_id":"3d56fd43-7f3a-478f-a81b-fba7289193d9","system_id":"levelo_inurba_marseille","lat":43.27992,"lon":5.41657,"is_reserved":false,"is_disabled":false,"rental_uris":{"android":"levelo://app?vid=3d56fd43-7f3a-478f-a81b-fba7289193d9","ios":"levelo://app?vid=3d56fd43-7f3a-478f-a81b-fba7289193d9"},"vehicle_type_id":"4","last_reported":1728763735,"current_range_meters":23200,"station_id":"ce4bho12rcd13ifvqh1g","pricing_plan_id":"cebpf4jnsgd1na2vs0mg"},{"bike_id":"02e1481a-a724-416f-babc-a5a03c42f92e","system_id":"levelo_inurba_marseille","lat":43.2979,"lon":5.40398,"is_reserved":false,"is_disabled":false,"rental_uris":{"android":"levelo://app?vid=02e1481a-a724-416f-babc-a5a03c42f92e","ios":"levelo://app?vid=02e1481a-a724-416f-babc-a5a03c42f92e"},"vehicle_type_id":"4","last_reported":1728763735,"current_range_meters":14400,"station_id":"ce4bh112rcd13ifvqd90","pricing_plan_id":"cebpf4jnsgd1na2vs0mg"},{"bike_id":"9bf9bb69-745f-4c8e-b951-fb86c724c409","system_id":"levelo_inurba_marseille","lat":43.299,"lon":5.37468,"is_reserved":false,"is_disabled":false,"rental_uris":{"android":"levelo://app?vid=9bf9bb69-745f-4c8e-b951-fb86c724c409","ios":"levelo://app?vid=9bf9bb69-745f-4c8e-b951-fb86c724c409"},"vehicle_type_id":"4","last_reported":1728763735,"current_range_meters":38400,"station_id":"ce4bgjh2rcd13ifvqbg0","pricing_plan_id":"cebpf4jnsgd1na2vs0mg"},{"bike_id":"fa08456f-0316-46ca-b497-6c7d63a7f841","system_id":"levelo_inurba_marseille","lat":43.23198,"lon":5.35555,"is_reserved":false,"is_disabled":false,"rental_uris":{"android":"levelo://app?vid=fa08456f-0316-46ca-b497-6c7d63a7f841","ios":"levelo://app?vid=fa08456f-0316-46ca-b497-6c7d63a7f841"},"vehicle_type_id":"4","last_reported":1728763735,"current_range_meters":37600,"station_id":"ce4bhu92rcd13ifvqi70","pricing_plan_id":"cebpf4jnsgd1na2vs0mg"},{"bike_id":"49701106-1235-46d2-a0f2-61528ce7f46a","system_id":"levelo_inurba_marseille","lat":43.29619,"lon":5.37168,"is_reserved":false,"is_disabled":false,"rental_uris":{"android":"levelo://app?vid=49701106-1235-46d2-a0f2-61528ce7f46a","ios":"levelo://app?vid=49701106-1235-46d2-a0f2-61528ce7f46a"},"vehicle_type_id":"4","last_reported":1728763735,"current_range_meters":38800,"station_id":"ce4bgnh2rcd13ifvqc0g","pricing_plan_id":"cebpf4jnsgd1na2vs0mg"},{"bike_id":"005c4b3d-def2-4fe0-91c0-aa2f130dc69c","system_id":"levelo_inurba_marseille","lat":43.2988,"lon":5.38907,"is_reserved":false,"is_disabled":false,"rental_uris":{"android":"levelo://app?vid=005c4b3d-def2-4fe0-91c0-aa2f130dc69c","ios":"levelo://app?vid=005c4b3d-def2-4fe0-91c0-aa2f130dc69c"},"vehicle_type_id":"4","last_reported":1728763735,"current_range_meters":21600,"station_id":"ce4bh392rcd13ifvqdl0","pricing_plan_id":"cebpf4jnsgd1na2vs0mg"},{"bike_id":"a3b49518-2e43-47d4-a639-24f651b3cd5b","system_id":"levelo_inurba_marseille","lat":43.29245,"lon":5.37789,"is_reserved":false,"is_disabled":false,"rental_uris":{"android":"levelo://app?vid=a3b49518-2e43-47d4-a639-24f651b3cd5b","ios":"levelo://app?vid=a3b49518-2e43-47d4-a639-24f651b3cd5b"},"vehicle_type_id":"4","last_reported":1728763735,"current_range_meters":27600,"station_id":"ce4bgr92rcd13ifvqc7g","pricing_plan_id":"cebpf4jnsgd1na2vs0mg"},{"bike_id":"86851483-6460-4f2a-8d92-b3b47e5c55aa","system_id":"levelo_inurba_marseille","lat":43.239571,"lon":5.366315,"is_reserved":false,"is_disabled":false,"rental_uris":{"android":"levelo://app?vid=86851483-6460-4f2a-8d92-b3b47e5c55aa","ios":"levelo://app?vid=86851483-6460-4f2a-8d92-b3b47e5c55aa"},"vehicle_type_id":"4","last_reported":1728763735,"current_range_meters":39200,"station_id":"ce4bhi12rcd13ifvqfp0","pricing_plan_id":"cebpf4jnsgd1na2vs0mg"},{"bike_id":"900d410e-a263-4441-80a1-af67345a66d2","system_id":"levelo_inurba_marseille","lat":43.24395,"lon":5.37062,"is_reserved":false,"is_disabled":false,"rental_uris":{"android":"levelo://app?vid=900d410e-a263-4441-80a1-af67345a66d2","ios":"levelo://app?vid=900d410e-a263-4441-80a1-af67345a66d2"},"vehicle_type_id":"4","last_reported":1728763735,"current_range_meters":20400,"station_id":"ce4bhhh2rcd13ifvqfk0","pricing_plan_id":"cebpf4jnsgd1na2vs0mg"},{"bike_id":"4d1b0fcc-0e44-4e6e-8666-7657efed80b0","system_id":"levelo_inurba_marseille","lat":43.32476,"lon":5.36565,"is_reserved":false,"is_disabled":false,"rental_uris":{"android":"levelo://app?vid=4d1b0fcc-0e44-4e6e-8666-7657efed80b0","ios":"levelo://app?vid=4d1b0fcc-0e44-4e6e-8666-7657efed80b0"},"vehicle_type_id":"4","last_reported":1728763735,"current_range_meters":4400,"station_id":"ce4bhs12rcd13ifvqhvg","pricing_plan_id":"cebpf4jnsgd1na2vs0mg"},{"bike_id":"adef4576-6a57-406e-b2c2-a1554aa88567","system_id":"levelo_inurba_marseille","lat":43.280243,"lon":5.394037,"is_reserved":false,"is_disabled":false,"rental_uris":{"android":"levelo://app?vid=adef4576-6a57-406e-b2c2-a1554aa88567","ios":"levelo://app?vid=adef4576-6a57-406e-b2c2-a1554aa88567"},"vehicle_type_id":"4","last_reported":1728763735,"current_range_meters":19600,"station_id":"","pricing_plan_id":"cebpf4jnsgd1na2vs0mg"},{"bike_id":"334eb7c5-e537-4478-984a-f14151edc3e5","system_id":"levelo_inurba_marseille","lat":43.31278,"lon":5.40163,"is_reserved":false,"is_disabled":false,"rental_uris":{"android":"levelo://app?vid=334eb7c5-e537-4478-984a-f14151edc3e5","ios":"levelo://app?vid=334eb7c5-e537-4478-984a-f14151edc3e5"},"vehicle_type_id":"4","last_reported":1728763735,"current_range_meters":38800,"station_id":"ce4bh092rcd13ifvqd30","pricing_plan_id":"cebpf4jnsgd1na2vs0mg"},{"bike_id":"ee3d77b2-c4c3-417a-8170-d8edb7edeab8","system_id":"levelo_inurba_marseille","lat":43.22934,"lon":5.35381,"is_reserved":false,"is_disabled":false,"rental_uris":{"android":"levelo://app?vid=ee3d77b2-c4c3-417a-8170-d8edb7edeab8","ios":"levelo://app?vid=ee3d77b2-c4c3-417a-8170-d8edb7edeab8"},"vehicle_type_id":"4","last_reported":1728763735,"current_range_meters":10000,"station_id":"cpo3532slgdg3j2ikp40","pricing_plan_id":"cebpf4jnsgd1na2vs0mg"},{"bike_id":"144d3da5-8eef-4a2f-b055-3e88b902df06","system_id":"levelo_inurba_marseille","lat":43.28475,"lon":5.38406,"is_reserved":false,"is_disabled":false,"rental_uris":{"android":"levelo://app?vid=144d3da5-8eef-4a2f-b055-3e88b902df06","ios":"levelo://app?vid=144d3da5-8eef-4a2f-b055-3e88b902df06"},"vehicle_type_id":"4","last_reported":1728763735,"current_range_meters":8400,"station_id":"ce4bh512rcd13ifvqe3g","pricing_plan_id":"cebpf4jnsgd1na2vs0mg"},{"bike_id":"861b5ca1-a0af-4d3b-a763-98dfcbdf66ec","system_id":"levelo_inurba_marseille","lat":43.29592,"lon":5.38107,"is_reserved":false,"is_disabled":false,"rental_uris":{"android":"levelo://app?vid=861b5ca1-a0af-4d3b-a763-98dfcbdf66ec","ios":"levelo://app?vid=861b5ca1-a0af-4d3b-a763-98dfcbdf66ec"},"vehicle_type_id":"4","last_reported":1728763735,"current_range_meters":22400,"station_id":"ce4bgl12rcd13ifvqbo0","pricing_plan_id":"cebpf4jnsgd1na2vs0mg"},{"bike_id":"67958920-36de-4f6e-9456-bc4aa9d17976","system_id":"levelo_inurba_marseille","lat":43.28275,"lon":5.35075,"is_reserved":false,"is_disabled":false,"rental_uris":{"android":"levelo://app?vid=67958920-36de-4f6e-9456-bc4aa9d17976","ios":"levelo://app?vid=67958920-36de-4f6e-9456-bc4aa9d17976"},"vehicle_type_id":"4","last_reported":1728763735,"current_range_meters":27200,"station_id":"ce4bhbp2rcd13ifvqerg","pricing_plan_id":"cebpf4jnsgd1na2vs0mg"},{"bike_id":"dcfb6b26-fe17-42b0-a221-8cb79caa6339","system_id":"levelo_inurba_marseille","lat":43.30421,"lon":5.39734,"is_reserved":false,"is_disabled":false,"rental_uris":{"android":"levelo://app?vid=dcfb6b26-fe17-42b0-a221-8cb79caa6339","ios":"levelo://app?vid=dcfb6b26-fe17-42b0-a221-8cb79caa6339"},"vehicle_type_id":"4","last_reported":1728763735,"current_range_meters":9600,"station_id":"ce4bh092rcd13ifvqd20","pricing_plan_id":"cebpf4jnsgd1na2vs0mg"},{"bike_id":"fe343dc0-883c-41b8-8795-a9cdb3d5231e","system_id":"levelo_inurba_marseille","lat":43.29531,"lon":5.38539,"is_reserved":false,"is_disabled":false,"rental_uris":{"android":"levelo://app?vid=fe343dc0-883c-41b8-8795-a9cdb3d5231e","ios":"levelo://app?vid=fe343dc0-883c-41b8-8795-a9cdb3d5231e"},"vehicle_type_id":"4","last_reported":1728763735,"current_range_meters":36800,"station_id":"ce4bgih2rcd13ifvqba0","pricing_plan_id":"cebpf4jnsgd1na2vs0mg"},{"bike_id":"bc0f52d5-4b8d-4288-a3f2-8a743f110fe6","system_id":"levelo_inurba_marseille","lat":43.26565,"lon":5.39019,"is_reserved":false,"is_disabled":false,"rental_uris":{"android":"levelo://app?vid=bc0f52d5-4b8d-4288-a3f2-8a743f110fe6","ios":"levelo://app?vid=bc0f52d5-4b8d-4288-a3f2-8a743f110fe6"},"vehicle_type_id":"4","last_reported":1728763735,"current_range_meters":12800,"station_id":"ce4bhe12rcd13ifvqf30","pricing_plan_id":"cebpf4jnsgd1na2vs0mg"},{"bike_id":"5dbc7dcc-9d48-4fd7-8ea7-69f4e7ca2466","system_id":"levelo_inurba_marseille","lat":43.26551,"lon":5.37286,"is_reserved":false,"is_disabled":false,"rental_uris":{"android":"levelo://app?vid=5dbc7dcc-9d48-4fd7-8ea7-69f4e7ca2466","ios":"levelo://app?vid=5dbc7dcc-9d48-4fd7-8ea7-69f4e7ca2466"},"vehicle_type_id":"4","last_reported":1728763735,"current_range_meters":38800,"station_id":"ce4bhg12rcd13ifvqf70","pricing_plan_id":"cebpf4jnsgd1na2vs0mg"},{"bike_id":"8d3873ee-d371-4bff-aa37-38d85dc3e1a7","system_id":"levelo_inurba_marseille","lat":43.29912,"lon":5.37467,"is_reserved":false,"is_disabled":false,"rental_uris":{"android":"levelo://app?vid=8d3873ee-d371-4bff-aa37-38d85dc3e1a7","ios":"levelo://app?vid=8d3873ee-d371-4bff-aa37-38d85dc3e1a7"},"vehicle_type_id":"4","last_reported":1728763735,"current_range_meters":38400,"station_id":"ce4bgjh2rcd13ifvqbg0","pricing_plan_id":"cebpf4jnsgd1na2vs0mg"},{"bike_id":"caac0ae9-97a5-4abe-bfc2-b67d3e720f3d","system_id":"levelo_inurba_marseille","lat":43.2962,"lon":5.3717,"is_reserved":false,"is_disabled":false,"rental_uris":{"android":"levelo://app?vid=caac0ae9-97a5-4abe-bfc2-b67d3e720f3d","ios":"levelo://app?vid=caac0ae9-97a5-4abe-bfc2-b67d3e720f3d"},"vehicle_type_id":"4","last_reported":1728763735,"current_range_meters":28000,"station_id":"ce4bgnh2rcd13ifvqc0g","pricing_plan_id":"cebpf4jnsgd1na2vs0mg"},{"bike_id":"d3ab60d7-df3b-452e-9646-033cc80c89d5","system_id":"levelo_inurba_marseille","lat":43.29031,"lon":5.38644,"is_reserved":false,"is_disabled":false,"rental_uris":{"android":"levelo://app?vid=d3ab60d7-df3b-452e-9646-033cc80c89d5","ios":"levelo://app?vid=d3ab60d7-df3b-452e-9646-033cc80c89d5"},"vehicle_type_id":"4","last_reported":1728763735,"current_range_meters":33600,"station_id":"ce4bh4p2rcd13ifvqe0g","pricing_plan_id":"cebpf4jnsgd1na2vs0mg"},{"bike_id":"a751214b-619f-4483-a2f5-200322f27979","system_id":"levelo_inurba_marseille","lat":43.29841,"lon":5.36266,"is_reserved":false,"is_disabled":false,"rental_uris":{"android":"levelo://app?vid=a751214b-619f-4483-a2f5-200322f27979","ios":"levelo://app?vid=a751214b-619f-4483-a2f5-200322f27979"},"vehicle_type_id":"4","last_reported":1728763735,"current_range_meters":15200,"station_id":"ce4bgpp2rcd13ifvqc3g","pricing_plan_id":"cebpf4jnsgd1na2vs0mg"},{"bike_id":"144b37c8-ac3c-44ca-9240-777b458ed9d1","system_id":"levelo_inurba_marseille","lat":43.29564,"lon":5.3761,"is_reserved":false,"is_disabled":false,"rental_uris":{"android":"levelo://app?vid=144b37c8-ac3c-44ca-9240-777b458ed9d1","ios":"levelo://app?vid=144b37c8-ac3c-44ca-9240-777b458ed9d1"},"vehicle_type_id":"4","last_reported":1728763735,"current_range_meters":24000,"station_id":"","pricing_plan_id":"cebpf4jnsgd1na2vs0mg"},{"bike_id":"b0a4bc20-af92-462d-9868-86a197f8a4c8","system_id":"levelo_inurba_marseille","lat":43.24803,"lon":5.37456,"is_reserved":false,"is_disabled":false,"rental_uris":{"android":"levelo://app?vid=b0a4bc20-af92-462d-9868-86a197f8a4c8","ios":"levelo://app?vid=b0a4bc20-af92-462d-9868-86a197f8a4c8"},"vehicle_type_id":"4","last_reported":1728763735,"current_range_meters":25600,"station_id":"ce4bhgh2rcd13ifvqfb0","pricing_plan_id":"cebpf4jnsgd1na2vs0mg"},{"bike_id":"7192b706-cb4e-4cee-90e9-9e93e065a345","system_id":"levelo_inurba_marseille","lat":43.27569,"lon":5.38419,"is_reserved":false,"is_disabled":false,"rental_uris":{"android":"levelo://app?vid=7192b706-cb4e-4cee-90e9-9e93e065a345","ios":"levelo://app?vid=7192b706-cb4e-4cee-90e9-9e93e065a345"},"vehicle_type_id":"4","last_reported":1728763735,"current_range_meters":22400,"station_id":"ce4bhh92rcd13ifvqfi0","pricing_plan_id":"cebpf4jnsgd1na2vs0mg"},{"bike_id":"8dfd46c8-cc7c-46a3-b888-98ac91e67d26","system_id":"levelo_inurba_marseille","lat":43.2979,"lon":5.37103,"is_reserved":false,"is_disabled":false,"rental_uris":{"android":"levelo://app?vid=8dfd46c8-cc7c-46a3-b888-98ac91e67d26","ios":"levelo://app?vid=8dfd46c8-cc7c-46a3-b888-98ac91e67d26"},"vehicle_type_id":"4","last_reported":1728763735,"current_range_meters":29600,"station_id":"ce4bgop2rcd13ifvqc1g","pricing_plan_id":"cebpf4jnsgd1na2vs0mg"},{"bike_id":"69f7383e-424b-4d52-addf-dd31703940cb","system_id":"levelo_inurba_marseille","lat":43.31494,"lon":5.373,"is_reserved":false,"is_disabled":false,"rental_uris":{"android":"levelo://app?vid=69f7383e-424b-4d52-addf-dd31703940cb","ios":"levelo://app?vid=69f7383e-424b-4d52-addf-dd31703940cb"},"vehicle_type_id":"4","last_reported":1728763735,"current_range_meters":9600,"station_id":"ce4bgt12rcd13ifvqcd0","pricing_plan_id":"cebpf4jnsgd1na2vs0mg"},{"bike_id":"da9b31ee-43b4-4389-85de-211de3ba1c9a","system_id":"levelo_inurba_marseille","lat":43.24649,"lon":5.38891,"is_reserved":false,"is_disabled":false,"rental_uris":{"android":"levelo://app?vid=da9b31ee-43b4-4389-85de-211de3ba1c9a","ios":"levelo://app?vid=da9b31ee-43b4-4389-85de-211de3ba1c9a"},"vehicle_type_id":"4","last_reported":1728763735,"current_range_meters":27200,"station_id":"ce4bhg12rcd13ifvqf60","pricing_plan_id":"cebpf4jnsgd1na2vs0mg"},{"bike_id":"809e790a-b23d-4e1c-93f4-b9991f67e670","system_id":"levelo_inurba_marseille","lat":43.23964,"lon":5.36629,"is_reserved":false,"is_disabled":false,"rental_uris":{"android":"levelo://app?vid=809e790a-b23d-4e1c-93f4-b9991f67e670","ios":"levelo://app?vid=809e790a-b23d-4e1c-93f4-b9991f67e670"},"vehicle_type_id":"4","last_reported":1728763735,"current_range_meters":32400,"station_id":"ce4bhi12rcd13ifvqfp0","pricing_plan_id":"cebpf4jnsgd1na2vs0mg"},{"bike_id":"baf8ed53-e2c2-4ad3-aaa7-cc53b8bdc41d","system_id":"levelo_inurba_marseille","lat":43.30931,"lon":5.40138,"is_reserved":false,"is_disabled":false,"rental_uris":{"android":"levelo://app?vid=baf8ed53-e2c2-4ad3-aaa7-cc53b8bdc41d","ios":"levelo://app?vid=baf8ed53-e2c2-4ad3-aaa7-cc53b8bdc41d"},"vehicle_type_id":"4","last_reported":1728763735,"current_range_meters":28000,"station_id":"ce4bgvp2rcd13ifvqct0","pricing_plan_id":"cebpf4jnsgd1na2vs0mg"},{"bike_id":"3545951b-894d-4495-afdf-84cb7b3b25b3","system_id":"levelo_inurba_marseille","lat":43.23195,"lon":5.35555,"is_reserved":false,"is_disabled":false,"rental_uris":{"android":"levelo://app?vid=3545951b-894d-4495-afdf-84cb7b3b25b3","ios":"levelo://app?vid=3545951b-894d-4495-afdf-84cb7b3b25b3"},"vehicle_type_id":"4","last_reported":1728763735,"current_range_meters":33600,"station_id":"ce4bhu92rcd13ifvqi70","pricing_plan_id":"cebpf4jnsgd1na2vs0mg"},{"bike_id":"94b5b3e5-1466-4cd8-b5b3-d5cbebabce80","system_id":"levelo_inurba_marseille","lat":43.23965,"lon":5.36632,"is_reserved":false,"is_disabled":false,"rental_uris":{"android":"levelo://app?vid=94b5b3e5-1466-4cd8-b5b3-d5cbebabce80","ios":"levelo://app?vid=94b5b3e5-1466-4cd8-b5b3-d5cbebabce80"},"vehicle_type_id":"4","last_reported":1728763735,"current_range_meters":10800,"station_id":"ce4bhi12rcd13ifvqfp0","pricing_plan_id":"cebpf4jnsgd1na2vs0mg"},{"bike_id":"1e0ba4c2-c2b3-495c-b6a3-283edf3c2c86","system_id":"levelo_inurba_marseille","lat":43.299774,"lon":5.365418,"is_reserved":false,"is_disabled":false,"rental_uris":{"android":"levelo://app?vid=1e0ba4c2-c2b3-495c-b6a3-283edf3c2c86","ios":"levelo://app?vid=1e0ba4c2-c2b3-495c-b6a3-283edf3c2c86"},"vehicle_type_id":"4","last_reported":1728763735,"current_range_meters":26800,"station_id":"ce4bgm92rcd13ifvqbr0","pricing_plan_id":"cebpf4jnsgd1na2vs0mg"},{"bike_id":"6e86af6b-7805-47df-8017-4b4f14ccb8fc","system_id":"levelo_inurba_marseille","lat":43.2941,"lon":5.38624,"is_reserved":false,"is_disabled":false,"rental_uris":{"android":"levelo://app?vid=6e86af6b-7805-47df-8017-4b4f14ccb8fc","ios":"levelo://app?vid=6e86af6b-7805-47df-8017-4b4f14ccb8fc"},"vehicle_type_id":"4","last_reported":1728763735,"current_range_meters":38400,"station_id":"ce4bh2h2rcd13ifvqdh0","pricing_plan_id":"cebpf4jnsgd1na2vs0mg"},{"bike_id":"f5234c39-2e7e-4f2b-8b4a-598b7e713295","system_id":"levelo_inurba_marseille","lat":43.29874,"lon":5.38907,"is_reserved":false,"is_disabled":false,"rental_uris":{"android":"levelo://app?vid=f5234c39-2e7e-4f2b-8b4a-598b7e713295","ios":"levelo://app?vid=f5234c39-2e7e-4f2b-8b4a-598b7e713295"},"vehicle_type_id":"4","last_reported":1728763735,"current_range_meters":31200,"station_id":"ce4bh392rcd13ifvqdl0","pricing_plan_id":"cebpf4jnsgd1na2vs0mg"},{"bike_id":"4d1e075e-d4ce-43df-a44b-e93f3cf0bc95","system_id":"levelo_inurba_marseille","lat":43.30952,"lon":5.39035,"is_reserved":false,"is_disabled":false,"rental_uris":{"android":"levelo://app?vid=4d1e075e-d4ce-43df-a44b-e93f3cf0bc95","ios":"levelo://app?vid=4d1e075e-d4ce-43df-a44b-e93f3cf0bc95"},"vehicle_type_id":"4","last_reported":1728763735,"current_range_meters":38000,"station_id":"ce4bgup2rcd13ifvqco0","pricing_plan_id":"cebpf4jnsgd1na2vs0mg"},{"bike_id":"9fef0946-5148-40fa-a211-ad8e9d215927","system_id":"levelo_inurba_marseille","lat":43.29574,"lon":5.37493,"is_reserved":false,"is_disabled":false,"rental_uris":{"android":"levelo://app?vid=9fef0946-5148-40fa-a211-ad8e9d215927","ios":"levelo://app?vid=9fef0946-5148-40fa-a211-ad8e9d215927"},"vehicle_type_id":"4","last_reported":1728763735,"current_range_meters":22000,"station_id":"ce4bgh92rcd13ifvqb50","pricing_plan_id":"cebpf4jnsgd1na2vs0mg"},{"bike_id":"2fd3fc85-901e-4125-9eb8-61951126a742","system_id":"levelo_inurba_marseille","lat":43.24076,"lon":5.37756,"is_reserved":false,"is_disabled":false,"rental_uris":{"android":"levelo://app?vid=2fd3fc85-901e-4125-9eb8-61951126a742","ios":"levelo://app?vid=2fd3fc85-901e-4125-9eb8-61951126a742"},"vehicle_type_id":"4","last_reported":1728763735,"current_range_meters":12800,"station_id":"ce4bhnp2rcd13ifvqgvg","pricing_plan_id":"cebpf4jnsgd1na2vs0mg"},{"bike_id":"2e4332d3-2239-45a2-8c0f-08f6cf4189b8","system_id":"levelo_inurba_marseille","lat":43.28709,"lon":5.37383,"is_reserved":false,"is_disabled":false,"rental_uris":{"android":"levelo://app?vid=2e4332d3-2239-45a2-8c0f-08f6cf4189b8","ios":"levelo://app?vid=2e4332d3-2239-45a2-8c0f-08f6cf4189b8"},"vehicle_type_id":"4","last_reported":1728763735,"current_range_meters":11600,"station_id":"ce4bh3p2rcd13ifvqdq0","pricing_plan_id":"cebpf4jnsgd1na2vs0mg"},{"bike_id":"e95182c2-7f32-4f64-b570-84fab9051048","system_id":"levelo_inurba_marseille","lat":43.28362,"lon":5.3862,"is_reserved":false,"is_disabled":false,"rental_uris":{"android":"levelo://app?vid=e95182c2-7f32-4f64-b570-84fab9051048","ios":"levelo://app?vid=e95182c2-7f32-4f64-b570-84fab9051048"},"vehicle_type_id":"4","last_reported":1728763735,"current_range_meters":20800,"station_id":"ce4bh492rcd13ifvqdvg","pricing_plan_id":"cebpf4jnsgd1na2vs0mg"},{"bike_id":"4ef1648c-c9ae-408b-9de7-b24322c6ea92","system_id":"levelo_inurba_marseille","lat":43.248,"lon":5.37455,"is_reserved":false,"is_disabled":false,"rental_uris":{"android":"levelo://app?vid=4ef1648c-c9ae-408b-9de7-b24322c6ea92","ios":"levelo://app?vid=4ef1648c-c9ae-408b-9de7-b24322c6ea92"},"vehicle_type_id":"4","last_reported":1728763735,"current_range_meters":28800,"station_id":"ce4bhgh2rcd13ifvqfb0","pricing_plan_id":"cebpf4jnsgd1na2vs0mg"},{"bike_id":"25ed2710-8c35-44e6-81fd-8fc7cf6b54a8","system_id":"levelo_inurba_marseille","lat":43.274948,"lon":5.424466,"is_reserved":false,"is_disabled":false,"rental_uris":{"android":"levelo://app?vid=25ed2710-8c35-44e6-81fd-8fc7cf6b54a8","ios":"levelo://app?vid=25ed2710-8c35-44e6-81fd-8fc7cf6b54a8"},"vehicle_type_id":"4","last_reported":1728763735,"current_range_meters":24400,"station_id":"ce4bhn92rcd13ifvqgrg","pricing_plan_id":"cebpf4jnsgd1na2vs0mg"},{"bike_id":"d19606bd-d60f-48b9-800d-392237277cb7","system_id":"levelo_inurba_marseille","lat":43.29062,"lon":5.37174,"is_reserved":false,"is_disabled":false,"rental_uris":{"android":"levelo://app?vid=d19606bd-d60f-48b9-800d-392237277cb7","ios":"levelo://app?vid=d19606bd-d60f-48b9-800d-392237277cb7"},"vehicle_type_id":"4","last_reported":1728763735,"current_range_meters":36800,"station_id":"ce4bh5p2rcd13ifvqe4g","pricing_plan_id":"cebpf4jnsgd1na2vs0mg"},{"bike_id":"2114f7ff-483e-4059-9d88-4aa497a89314","system_id":"levelo_inurba_marseille","lat":43.25085,"lon":5.39525,"is_reserved":false,"is_disabled":false,"rental_uris":{"android":"levelo://app?vid=2114f7ff-483e-4059-9d88-4aa497a89314","ios":"levelo://app?vid=2114f7ff-483e-4059-9d88-4aa497a89314"},"vehicle_type_id":"4","last_reported":1728763735,"current_range_meters":16000,"station_id":"ce4bhm12rcd13ifvqgkg","pricing_plan_id":"cebpf4jnsgd1na2vs0mg"},{"bike_id":"ee789adc-9b88-48d2-8524-82153746a61e","system_id":"levelo_inurba_marseille","lat":43.28705,"lon":5.37396,"is_reserved":false,"is_disabled":false,"rental_uris":{"android":"levelo://app?vid=ee789adc-9b88-48d2-8524-82153746a61e","ios":"levelo://app?vid=ee789adc-9b88-48d2-8524-82153746a61e"},"vehicle_type_id":"4","last_reported":1728763735,"current_range_meters":38800,"station_id":"ce4bh3p2rcd13ifvqdq0","pricing_plan_id":"cebpf4jnsgd1na2vs0mg"},{"bike_id":"252cdcdf-aa5e-4041-b08e-25e35421dd4a","system_id":"levelo_inurba_marseille","lat":43.29848,"lon":5.36283,"is_reserved":false,"is_disabled":false,"rental_uris":{"android":"levelo://app?vid=252cdcdf-aa5e-4041-b08e-25e35421dd4a","ios":"levelo://app?vid=252cdcdf-aa5e-4041-b08e-25e35421dd4a"},"vehicle_type_id":"4","last_reported":1728763735,"current_range_meters":38800,"station_id":"ce4bgpp2rcd13ifvqc3g","pricing_plan_id":"cebpf4jnsgd1na2vs0mg"},{"bike_id":"5b44fa4d-c4e5-4f4f-ac5e-c4ccd0c3b018","system_id":"levelo_inurba_marseille","lat":43.283783,"lon":5.386206,"is_reserved":false,"is_disabled":false,"rental_uris":{"android":"levelo://app?vid=5b44fa4d-c4e5-4f4f-ac5e-c4ccd0c3b018","ios":"levelo://app?vid=5b44fa4d-c4e5-4f4f-ac5e-c4ccd0c3b018"},"vehicle_type_id":"4","last_reported":1728763735,"current_range_meters":22400,"station_id":"ce4bh492rcd13ifvqdvg","pricing_plan_id":"cebpf4jnsgd1na2vs0mg"},{"bike_id":"9aa2f93e-9889-4ce2-89fd-6fe75430764b","system_id":"levelo_inurba_marseille","lat":43.29844,"lon":5.36285,"is_reserved":false,"is_disabled":false,"rental_uris":{"android":"levelo://app?vid=9aa2f93e-9889-4ce2-89fd-6fe75430764b","ios":"levelo://app?vid=9aa2f93e-9889-4ce2-89fd-6fe75430764b"},"vehicle_type_id":"4","last_reported":1728763735,"current_range_meters":12800,"station_id":"ce4bgpp2rcd13ifvqc3g","pricing_plan_id":"cebpf4jnsgd1na2vs0mg"},{"bike_id":"6142951f-0fc9-4c1d-bcce-dca531fb600c","system_id":"levelo_inurba_marseille","lat":43.2952,"lon":5.39045,"is_reserved":false,"is_disabled":false,"rental_uris":{"android":"levelo://app?vid=6142951f-0fc9-4c1d-bcce-dca531fb600c","ios":"levelo://app?vid=6142951f-0fc9-4c1d-bcce-dca531fb600c"},"vehicle_type_id":"4","last_reported":1728763735,"current_range_meters":39200,"station_id":"ce4bh3p2rcd13ifvqdp0","pricing_plan_id":"cebpf4jnsgd1na2vs0mg"},{"bike_id":"0e93c01b-9e71-4227-9295-5a4a2f7a0689","system_id":"levelo_inurba_marseille","lat":43.32658,"lon":5.40992,"is_reserved":false,"is_disabled":false,"rental_uris":{"android":"levelo://app?vid=0e93c01b-9e71-4227-9295-5a4a2f7a0689","ios":"levelo://app?vid=0e93c01b-9e71-4227-9295-5a4a2f7a0689"},"vehicle_type_id":"4","last_reported":1728763735,"current_range_meters":30000,"station_id":"ce4bhpp2rcd13ifvqhgg","pricing_plan_id":"cebpf4jnsgd1na2vs0mg"},{"bike_id":"8a7c759e-bec8-4fd9-a13f-5d45080127dc","system_id":"levelo_inurba_marseille","lat":43.29852,"lon":5.36288,"is_reserved":false,"is_disabled":false,"rental_uris":{"android":"levelo://app?vid=8a7c759e-bec8-4fd9-a13f-5d45080127dc","ios":"levelo://app?vid=8a7c759e-bec8-4fd9-a13f-5d45080127dc"},"vehicle_type_id":"4","last_reported":1728763735,"current_range_meters":38800,"station_id":"ce4bgpp2rcd13ifvqc3g","pricing_plan_id":"cebpf4jnsgd1na2vs0mg"},{"bike_id":"12c16baa-fd96-4fd7-b545-6dd516b485e8","system_id":"levelo_inurba_marseille","lat":43.23175,"lon":5.3999,"is_reserved":false,"is_disabled":false,"rental_uris":{"android":"levelo://app?vid=12c16baa-fd96-4fd7-b545-6dd516b485e8","ios":"levelo://app?vid=12c16baa-fd96-4fd7-b545-6dd516b485e8"},"vehicle_type_id":"4","last_reported":1728763735,"current_range_meters":14800,"station_id":"ce4bhn12rcd13ifvqgqg","pricing_plan_id":"cebpf4jnsgd1na2vs0mg"},{"bike_id":"bb241cd0-3e84-4cf0-ab2e-874c4f938eff","system_id":"levelo_inurba_marseille","lat":43.3175,"lon":5.39018,"is_reserved":false,"is_disabled":false,"rental_uris":{"android":"levelo://app?vid=bb241cd0-3e84-4cf0-ab2e-874c4f938eff","ios":"levelo://app?vid=bb241cd0-3e84-4cf0-ab2e-874c4f938eff"},"vehicle_type_id":"4","last_reported":1728763735,"current_range_meters":10800,"station_id":"ce4bhqp2rcd13ifvqhng","pricing_plan_id":"cebpf4jnsgd1na2vs0mg"},{"bike_id":"e3cd8953-9e5a-44ad-a5cd-debf49a539ae","system_id":"levelo_inurba_marseille","lat":43.21254,"lon":5.3545,"is_reserved":false,"is_disabled":false,"rental_uris":{"android":"levelo://app?vid=e3cd8953-9e5a-44ad-a5cd-debf49a539ae","ios":"levelo://app?vid=e3cd8953-9e5a-44ad-a5cd-debf49a539ae"},"vehicle_type_id":"4","last_reported":1728763735,"current_range_meters":24800,"station_id":"","pricing_plan_id":"cebpf4jnsgd1na2vs0mg"},{"bike_id":"47d3d04e-9827-45c2-be83-981d774d4732","system_id":"levelo_inurba_marseille","lat":43.28101,"lon":5.37834,"is_reserved":false,"is_disabled":false,"rental_uris":{"android":"levelo://app?vid=47d3d04e-9827-45c2-be83-981d774d4732","ios":"levelo://app?vid=47d3d04e-9827-45c2-be83-981d774d4732"},"vehicle_type_id":"4","last_reported":1728763735,"current_range_meters":24400,"station_id":"ce4bha12rcd13ifvqee0","pricing_plan_id":"cebpf4jnsgd1na2vs0mg"},{"bike_id":"b579b157-0f46-4c15-8f0b-48bf917cf1ec","system_id":"levelo_inurba_marseille","lat":43.30244,"lon":5.40053,"is_reserved":false,"is_disabled":false,"rental_uris":{"android":"levelo://app?vid=b579b157-0f46-4c15-8f0b-48bf917cf1ec","ios":"levelo://app?vid=b579b157-0f46-4c15-8f0b-48bf917cf1ec"},"vehicle_type_id":"4","last_reported":1728763735,"current_range_meters":39200,"station_id":"ce4bgvh2rcd13ifvqcs0","pricing_plan_id":"cebpf4jnsgd1na2vs0mg"},{"bike_id":"744d7d46-a030-452d-827a-600610e2a098","system_id":"levelo_inurba_marseille","lat":43.23186,"lon":5.39995,"is_reserved":false,"is_disabled":false,"rental_uris":{"android":"levelo://app?vid=744d7d46-a030-452d-827a-600610e2a098","ios":"levelo://app?vid=744d7d46-a030-452d-827a-600610e2a098"},"vehicle_type_id":"4","last_reported":1728763735,"current_range_meters":37600,"station_id":"ce4bhn12rcd13ifvqgqg","pricing_plan_id":"cebpf4jnsgd1na2vs0mg"},{"bike_id":"98f23933-0743-4813-895e-8d2629e680e6","system_id":"levelo_inurba_marseille","lat":43.27992,"lon":5.41664,"is_reserved":false,"is_disabled":false,"rental_uris":{"android":"levelo://app?vid=98f23933-0743-4813-895e-8d2629e680e6","ios":"levelo://app?vid=98f23933-0743-4813-895e-8d2629e680e6"},"vehicle_type_id":"4","last_reported":1728763735,"current_range_meters":6000,"station_id":"ce4bho12rcd13ifvqh1g","pricing_plan_id":"cebpf4jnsgd1na2vs0mg"},{"bike_id":"fd301c4f-88d0-470b-8444-02e732c4a052","system_id":"levelo_inurba_marseille","lat":43.24968,"lon":5.38094,"is_reserved":false,"is_disabled":false,"rental_uris":{"android":"levelo://app?vid=fd301c4f-88d0-470b-8444-02e732c4a052","ios":"levelo://app?vid=fd301c4f-88d0-470b-8444-02e732c4a052"},"vehicle_type_id":"4","last_reported":1728763735,"current_range_meters":27200,"station_id":"","pricing_plan_id":"cebpf4jnsgd1na2vs0mg"},{"bike_id":"21e15127-e097-43fb-85cf-f1ea6e768fe5","system_id":"levelo_inurba_marseille","lat":43.30889,"lon":5.37197,"is_reserved":false,"is_disabled":false,"rental_uris":{"android":"levelo://app?vid=21e15127-e097-43fb-85cf-f1ea6e768fe5","ios":"levelo://app?vid=21e15127-e097-43fb-85cf-f1ea6e768fe5"},"vehicle_type_id":"4","last_reported":1728763735,"current_range_meters":38800,"station_id":"ce4bguh2rcd13ifvqckg","pricing_plan_id":"cebpf4jnsgd1na2vs0mg"},{"bike_id":"ef92b26f-eee8-468a-ad57-c2b22a98d64b","system_id":"levelo_inurba_marseille","lat":43.30781,"lon":5.37653,"is_reserved":false,"is_disabled":false,"rental_uris":{"android":"levelo://app?vid=ef92b26f-eee8-468a-ad57-c2b22a98d64b","ios":"levelo://app?vid=ef92b26f-eee8-468a-ad57-c2b22a98d64b"},"vehicle_type_id":"4","last_reported":1728763735,"current_range_meters":6000,"station_id":"ce4bgv92rcd13ifvqcq0","pricing_plan_id":"cebpf4jnsgd1na2vs0mg"},{"bike_id":"54887b4f-fee3-474b-abbd-7336ddf1ae33","system_id":"levelo_inurba_marseille","lat":43.31689,"lon":5.40469,"is_reserved":false,"is_disabled":false,"rental_uris":{"android":"levelo://app?vid=54887b4f-fee3-474b-abbd-7336ddf1ae33","ios":"levelo://app?vid=54887b4f-fee3-474b-abbd-7336ddf1ae33"},"vehicle_type_id":"4","last_reported":1728763735,"current_range_meters":18000,"station_id":"ce4bh012rcd13ifvqd00","pricing_plan_id":"cebpf4jnsgd1na2vs0mg"},{"bike_id":"82b1ae91-5e6e-449f-97f5-199f0d9609fc","system_id":"levelo_inurba_marseille","lat":43.29849,"lon":5.36274,"is_reserved":false,"is_disabled":false,"rental_uris":{"android":"levelo://app?vid=82b1ae91-5e6e-449f-97f5-199f0d9609fc","ios":"levelo://app?vid=82b1ae91-5e6e-449f-97f5-199f0d9609fc"},"vehicle_type_id":"4","last_reported":1728763735,"current_range_meters":30800,"station_id":"ce4bgpp2rcd13ifvqc3g","pricing_plan_id":"cebpf4jnsgd1na2vs0mg"},{"bike_id":"1a90ad3a-447a-4014-8cf5-1bb8f629a10e","system_id":"levelo_inurba_marseille","lat":43.29584,"lon":5.36744,"is_reserved":false,"is_disabled":false,"rental_uris":{"android":"levelo://app?vid=1a90ad3a-447a-4014-8cf5-1bb8f629a10e","ios":"levelo://app?vid=1a90ad3a-447a-4014-8cf5-1bb8f629a10e"},"vehicle_type_id":"4","last_reported":1728763735,"current_range_meters":27200,"station_id":"ce4bgph2rcd13ifvqc2g","pricing_plan_id":"cebpf4jnsgd1na2vs0mg"},{"bike_id":"92c1af36-5649-40f5-84ed-a7b062884571","system_id":"levelo_inurba_marseille","lat":43.23966,"lon":5.36635,"is_reserved":false,"is_disabled":false,"rental_uris":{"android":"levelo://app?vid=92c1af36-5649-40f5-84ed-a7b062884571","ios":"levelo://app?vid=92c1af36-5649-40f5-84ed-a7b062884571"},"vehicle_type_id":"4","last_reported":1728763735,"current_range_meters":32800,"station_id":"ce4bhi12rcd13ifvqfp0","pricing_plan_id":"cebpf4jnsgd1na2vs0mg"},{"bike_id":"4b7b58cc-57ee-4f53-adac-2ae4d87181e7","system_id":"levelo_inurba_marseille","lat":43.23151,"lon":5.43705,"is_reserved":false,"is_disabled":false,"rental_uris":{"android":"levelo://app?vid=4b7b58cc-57ee-4f53-adac-2ae4d87181e7","ios":"levelo://app?vid=4b7b58cc-57ee-4f53-adac-2ae4d87181e7"},"vehicle_type_id":"4","last_reported":1728763735,"current_range_meters":37600,"station_id":"ce4bhmp2rcd13ifvqgog","pricing_plan_id":"cebpf4jnsgd1na2vs0mg"},{"bike_id":"6cb5b02c-2401-484a-8b7d-b4d2106d6b08","system_id":"levelo_inurba_marseille","lat":43.2319,"lon":5.35557,"is_reserved":false,"is_disabled":false,"rental_uris":{"android":"levelo://app?vid=6cb5b02c-2401-484a-8b7d-b4d2106d6b08","ios":"levelo://app?vid=6cb5b02c-2401-484a-8b7d-b4d2106d6b08"},"vehicle_type_id":"4","last_reported":1728763735,"current_range_meters":30400,"station_id":"ce4bhu92rcd13ifvqi70","pricing_plan_id":"cebpf4jnsgd1na2vs0mg"},{"bike_id":"ea203679-8246-41bb-bc64-80edd7e095b0","system_id":"levelo_inurba_marseille","lat":43.3302,"lon":5.39043,"is_reserved":false,"is_disabled":false,"rental_uris":{"android":"levelo://app?vid=ea203679-8246-41bb-bc64-80edd7e095b0","ios":"levelo://app?vid=ea203679-8246-41bb-bc64-80edd7e095b0"},"vehicle_type_id":"4","last_reported":1728763735,"current_range_meters":20000,"station_id":"ce4bhr92rcd13ifvqhrg","pricing_plan_id":"cebpf4jnsgd1na2vs0mg"},{"bike_id":"f7dd1dc7-fa4b-4758-aac5-4419d54d56ad","system_id":"levelo_inurba_marseille","lat":43.31755,"lon":5.39016,"is_reserved":false,"is_disabled":false,"rental_uris":{"android":"levelo://app?vid=f7dd1dc7-fa4b-4758-aac5-4419d54d56ad","ios":"levelo://app?vid=f7dd1dc7-fa4b-4758-aac5-4419d54d56ad"},"vehicle_type_id":"4","last_reported":1728763735,"current_range_meters":38800,"station_id":"ce4bhqp2rcd13ifvqhng","pricing_plan_id":"cebpf4jnsgd1na2vs0mg"},{"bike_id":"c88cdfb0-4bf9-4a8c-8ce2-b63c2598193b","system_id":"levelo_inurba_marseille","lat":43.29581,"lon":5.36742,"is_reserved":false,"is_disabled":false,"rental_uris":{"android":"levelo://app?vid=c88cdfb0-4bf9-4a8c-8ce2-b63c2598193b","ios":"levelo://app?vid=c88cdfb0-4bf9-4a8c-8ce2-b63c2598193b"},"vehicle_type_id":"4","last_reported":1728763735,"current_range_meters":36000,"station_id":"ce4bgph2rcd13ifvqc2g","pricing_plan_id":"cebpf4jnsgd1na2vs0mg"},{"bike_id":"722f38b4-43d3-4d62-993a-aba6e907d3eb","system_id":"levelo_inurba_marseille","lat":43.29844,"lon":5.36288,"is_reserved":false,"is_disabled":false,"rental_uris":{"android":"levelo://app?vid=722f38b4-43d3-4d62-993a-aba6e907d3eb","ios":"levelo://app?vid=722f38b4-43d3-4d62-993a-aba6e907d3eb"},"vehicle_type_id":"4","last_reported":1728763735,"current_range_meters":36800,"station_id":"ce4bgpp2rcd13ifvqc3g","pricing_plan_id":"cebpf4jnsgd1na2vs0mg"},{"bike_id":"a8bdbf8d-b15f-49e7-ab22-db3b431ba59d","system_id":"levelo_inurba_marseille","lat":43.27073,"lon":5.42277,"is_reserved":false,"is_disabled":false,"rental_uris":{"android":"levelo://app?vid=a8bdbf8d-b15f-49e7-ab22-db3b431ba59d","ios":"levelo://app?vid=a8bdbf8d-b15f-49e7-ab22-db3b431ba59d"},"vehicle_type_id":"4","last_reported":1728763735,"current_range_meters":38400,"station_id":"ce4bhk92rcd13ifvqgb0","pricing_plan_id":"cebpf4jnsgd1na2vs0mg"},{"bike_id":"aec15fb4-7893-4e71-a2c1-231985cb572d","system_id":"levelo_inurba_marseille","lat":43.29432,"lon":5.3861,"is_reserved":false,"is_disabled":false,"rental_uris":{"android":"levelo://app?vid=aec15fb4-7893-4e71-a2c1-231985cb572d","ios":"levelo://app?vid=aec15fb4-7893-4e71-a2c1-231985cb572d"},"vehicle_type_id":"4","last_reported":1728763735,"current_range_meters":22000,"station_id":"ce4bh2h2rcd13ifvqdh0","pricing_plan_id":"cebpf4jnsgd1na2vs0mg"},{"bike_id":"1e1db74b-e0ad-4703-8494-dae9477cf279","system_id":"levelo_inurba_marseille","lat":43.2857,"lon":5.39493,"is_reserved":false,"is_disabled":false,"rental_uris":{"android":"levelo://app?vid=1e1db74b-e0ad-4703-8494-dae9477cf279","ios":"levelo://app?vid=1e1db74b-e0ad-4703-8494-dae9477cf279"},"vehicle_type_id":"4","last_reported":1728763735,"current_range_meters":39200,"station_id":"ce4bh292rcd13ifvqdg0","pricing_plan_id":"cebpf4jnsgd1na2vs0mg"},{"bike_id":"9f83e5ce-da23-425f-a4a3-58fab8fd16c2","system_id":"levelo_inurba_marseille","lat":43.28924,"lon":5.38395,"is_reserved":false,"is_disabled":false,"rental_uris":{"android":"levelo://app?vid=9f83e5ce-da23-425f-a4a3-58fab8fd16c2","ios":"levelo://app?vid=9f83e5ce-da23-425f-a4a3-58fab8fd16c2"},"vehicle_type_id":"4","last_reported":1728763735,"current_range_meters":20400,"station_id":"ce4bh612rcd13ifvqe6g","pricing_plan_id":"cebpf4jnsgd1na2vs0mg"},{"bike_id":"dec436c1-d01a-4e4e-a66d-a687a7901d68","system_id":"levelo_inurba_marseille","lat":43.25108,"lon":5.40321,"is_reserved":false,"is_disabled":false,"rental_uris":{"android":"levelo://app?vid=dec436c1-d01a-4e4e-a66d-a687a7901d68","ios":"levelo://app?vid=dec436c1-d01a-4e4e-a66d-a687a7901d68"},"vehicle_type_id":"4","last_reported":1728763735,"current_range_meters":38400,"station_id":"ce4bhlh2rcd13ifvqgig","pricing_plan_id":"cebpf4jnsgd1na2vs0mg"},{"bike_id":"6e4baea9-b633-4d83-925a-8ebe02091531","system_id":"levelo_inurba_marseille","lat":43.28152,"lon":5.42646,"is_reserved":false,"is_disabled":false,"rental_uris":{"android":"levelo://app?vid=6e4baea9-b633-4d83-925a-8ebe02091531","ios":"levelo://app?vid=6e4baea9-b633-4d83-925a-8ebe02091531"},"vehicle_type_id":"4","last_reported":1728763735,"current_range_meters":15200,"station_id":"ce4bhnh2rcd13ifvqgug","pricing_plan_id":"cebpf4jnsgd1na2vs0mg"},{"bike_id":"accb871e-a6d6-4416-b0e7-cca548384eeb","system_id":"levelo_inurba_marseille","lat":43.26552,"lon":5.37294,"is_reserved":false,"is_disabled":false,"rental_uris":{"android":"levelo://app?vid=accb871e-a6d6-4416-b0e7-cca548384eeb","ios":"levelo://app?vid=accb871e-a6d6-4416-b0e7-cca548384eeb"},"vehicle_type_id":"4","last_reported":1728763735,"current_range_meters":36400,"station_id":"ce4bhg12rcd13ifvqf70","pricing_plan_id":"cebpf4jnsgd1na2vs0mg"},{"bike_id":"a0961866-181a-45c4-af10-4a56acdf00af","system_id":"levelo_inurba_marseille","lat":43.29848,"lon":5.36287,"is_reserved":false,"is_disabled":false,"rental_uris":{"android":"levelo://app?vid=a0961866-181a-45c4-af10-4a56acdf00af","ios":"levelo://app?vid=a0961866-181a-45c4-af10-4a56acdf00af"},"vehicle_type_id":"4","last_reported":1728763735,"current_range_meters":35600,"station_id":"ce4bgpp2rcd13ifvqc3g","pricing_plan_id":"cebpf4jnsgd1na2vs0mg"},{"bike_id":"3007dc77-68fe-48f0-9c9f-7319b5e9fc9b","system_id":"levelo_inurba_marseille","lat":43.28269,"lon":5.35074,"is_reserved":false,"is_disabled":false,"rental_uris":{"android":"levelo://app?vid=3007dc77-68fe-48f0-9c9f-7319b5e9fc9b","ios":"levelo://app?vid=3007dc77-68fe-48f0-9c9f-7319b5e9fc9b"},"vehicle_type_id":"4","last_reported":1728763735,"current_range_meters":20000,"station_id":"ce4bhbp2rcd13ifvqerg","pricing_plan_id":"cebpf4jnsgd1na2vs0mg"},{"bike_id":"536c0bad-7e57-4170-840c-971627b71a7f","system_id":"levelo_inurba_marseille","lat":43.25862,"lon":5.39899,"is_reserved":false,"is_disabled":false,"rental_uris":{"android":"levelo://app?vid=536c0bad-7e57-4170-840c-971627b71a7f","ios":"levelo://app?vid=536c0bad-7e57-4170-840c-971627b71a7f"},"vehicle_type_id":"4","last_reported":1728763735,"current_range_meters":36800,"station_id":"ce4bhl92rcd13ifvqghg","pricing_plan_id":"cebpf4jnsgd1na2vs0mg"},{"bike_id":"48ec983a-9fa7-4a67-ad9f-7172ae3d130d","system_id":"levelo_inurba_marseille","lat":43.2962,"lon":5.37175,"is_reserved":false,"is_disabled":false,"rental_uris":{"android":"levelo://app?vid=48ec983a-9fa7-4a67-ad9f-7172ae3d130d","ios":"levelo://app?vid=48ec983a-9fa7-4a67-ad9f-7172ae3d130d"},"vehicle_type_id":"4","last_reported":1728763735,"current_range_meters":35600,"station_id":"ce4bgnh2rcd13ifvqc0g","pricing_plan_id":"cebpf4jnsgd1na2vs0mg"},{"bike_id":"25e59862-8a09-482d-b3a5-7138deb4afc5","system_id":"levelo_inurba_marseille","lat":43.2306,"lon":5.35493,"is_reserved":false,"is_disabled":false,"rental_uris":{"android":"levelo://app?vid=25e59862-8a09-482d-b3a5-7138deb4afc5","ios":"levelo://app?vid=25e59862-8a09-482d-b3a5-7138deb4afc5"},"vehicle_type_id":"4","last_reported":1728763735,"current_range_meters":8400,"station_id":"cpo3342slgdg3j2ifvpg","pricing_plan_id":"cebpf4jnsgd1na2vs0mg"},{"bike_id":"fb11f262-0a66-49be-9298-46884b98ece9","system_id":"levelo_inurba_marseille","lat":43.2962,"lon":5.37172,"is_reserved":false,"is_disabled":false,"rental_uris":{"android":"levelo://app?vid=fb11f262-0a66-49be-9298-46884b98ece9","ios":"levelo://app?vid=fb11f262-0a66-49be-9298-46884b98ece9"},"vehicle_type_id":"4","last_reported":1728763735,"current_range_meters":11600,"station_id":"ce4bgnh2rcd13ifvqc0g","pricing_plan_id":"cebpf4jnsgd1na2vs0mg"},{"bike_id":"1fbbafd8-9267-4a5a-b4f5-f6f4f76efcac","system_id":"levelo_inurba_marseille","lat":43.30591,"lon":5.39359,"is_reserved":false,"is_disabled":false,"rental_uris":{"android":"levelo://app?vid=1fbbafd8-9267-4a5a-b4f5-f6f4f76efcac","ios":"levelo://app?vid=1fbbafd8-9267-4a5a-b4f5-f6f4f76efcac"},"vehicle_type_id":"4","last_reported":1728763735,"current_range_meters":36400,"station_id":"ce4bh0p2rcd13ifvqd80","pricing_plan_id":"cebpf4jnsgd1na2vs0mg"},{"bike_id":"b933402b-d1ca-49a8-bbf7-fb19281d941c","system_id":"levelo_inurba_marseille","lat":43.2319,"lon":5.35558,"is_reserved":false,"is_disabled":false,"rental_uris":{"android":"levelo://app?vid=b933402b-d1ca-49a8-bbf7-fb19281d941c","ios":"levelo://app?vid=b933402b-d1ca-49a8-bbf7-fb19281d941c"},"vehicle_type_id":"4","last_reported":1728763735,"current_range_meters":19200,"station_id":"ce4bhu92rcd13ifvqi70","pricing_plan_id":"cebpf4jnsgd1na2vs0mg"},{"bike_id":"b9ed1c40-760d-4fde-8ff9-d37179cc042a","system_id":"levelo_inurba_marseille","lat":43.254763,"lon":5.376552,"is_reserved":false,"is_disabled":false,"rental_uris":{"android":"levelo://app?vid=b9ed1c40-760d-4fde-8ff9-d37179cc042a","ios":"levelo://app?vid=b9ed1c40-760d-4fde-8ff9-d37179cc042a"},"vehicle_type_id":"4","last_reported":1728763735,"current_range_meters":25600,"station_id":"ce4bhh12rcd13ifvqff0","pricing_plan_id":"cebpf4jnsgd1na2vs0mg"},{"bike_id":"1282fdea-34d4-43e0-b31c-86a3e15b6777","system_id":"levelo_inurba_marseille","lat":43.30182,"lon":5.36619,"is_reserved":false,"is_disabled":false,"rental_uris":{"android":"levelo://app?vid=1282fdea-34d4-43e0-b31c-86a3e15b6777","ios":"levelo://app?vid=1282fdea-34d4-43e0-b31c-86a3e15b6777"},"vehicle_type_id":"4","last_reported":1728763735,"current_range_meters":18800,"station_id":"ce4bgrh2rcd13ifvqc8g","pricing_plan_id":"cebpf4jnsgd1na2vs0mg"},{"bike_id":"d751b74f-afbb-4075-ac46-9547555eee0f","system_id":"levelo_inurba_marseille","lat":43.3236,"lon":5.38885,"is_reserved":false,"is_disabled":false,"rental_uris":{"android":"levelo://app?vid=d751b74f-afbb-4075-ac46-9547555eee0f","ios":"levelo://app?vid=d751b74f-afbb-4075-ac46-9547555eee0f"},"vehicle_type_id":"4","last_reported":1728763735,"current_range_meters":19200,"station_id":"ce4bhqp2rcd13ifvqhog","pricing_plan_id":"cebpf4jnsgd1na2vs0mg"},{"bike_id":"91906349-a737-434d-8a23-fe1add9c9c35","system_id":"levelo_inurba_marseille","lat":43.3054,"lon":5.38428,"is_reserved":false,"is_disabled":false,"rental_uris":{"android":"levelo://app?vid=91906349-a737-434d-8a23-fe1add9c9c35","ios":"levelo://app?vid=91906349-a737-434d-8a23-fe1add9c9c35"},"vehicle_type_id":"4","last_reported":1728763735,"current_range_meters":38400,"station_id":"ce4bgg92rcd13ifvqb30","pricing_plan_id":"cebpf4jnsgd1na2vs0mg"},{"bike_id":"51f915da-9be3-478d-a119-dc331c6cf5fd","system_id":"levelo_inurba_marseille","lat":43.30136,"lon":5.37417,"is_reserved":false,"is_disabled":false,"rental_uris":{"android":"levelo://app?vid=51f915da-9be3-478d-a119-dc331c6cf5fd","ios":"levelo://app?vid=51f915da-9be3-478d-a119-dc331c6cf5fd"},"vehicle_type_id":"4","last_reported":1728763735,"current_range_meters":36400,"station_id":"ce4bgs92rcd13ifvqcc0","pricing_plan_id":"cebpf4jnsgd1na2vs0mg"},{"bike_id":"dd488bb6-2002-40e1-9ea4-29c41547f763","system_id":"levelo_inurba_marseille","lat":43.28378,"lon":5.38642,"is_reserved":false,"is_disabled":false,"rental_uris":{"android":"levelo://app?vid=dd488bb6-2002-40e1-9ea4-29c41547f763","ios":"levelo://app?vid=dd488bb6-2002-40e1-9ea4-29c41547f763"},"vehicle_type_id":"4","last_reported":1728763735,"current_range_meters":38800,"station_id":"ce4bh492rcd13ifvqdvg","pricing_plan_id":"cebpf4jnsgd1na2vs0mg"},{"bike_id":"acbe997b-a9be-49ac-ad5e-d0e8fdd650d9","system_id":"levelo_inurba_marseille","lat":43.27841,"lon":5.39204,"is_reserved":false,"is_disabled":false,"rental_uris":{"android":"levelo://app?vid=acbe997b-a9be-49ac-ad5e-d0e8fdd650d9","ios":"levelo://app?vid=acbe997b-a9be-49ac-ad5e-d0e8fdd650d9"},"vehicle_type_id":"4","last_reported":1728763735,"current_range_meters":32800,"station_id":"ce4bhjp2rcd13ifvqga0","pricing_plan_id":"cebpf4jnsgd1na2vs0mg"},{"bike_id":"d4dd7cf9-d2df-48fc-b6ef-9e07f0daf7e4","system_id":"levelo_inurba_marseille","lat":43.2984,"lon":5.36279,"is_reserved":false,"is_disabled":false,"rental_uris":{"android":"levelo://app?vid=d4dd7cf9-d2df-48fc-b6ef-9e07f0daf7e4","ios":"levelo://app?vid=d4dd7cf9-d2df-48fc-b6ef-9e07f0daf7e4"},"vehicle_type_id":"4","last_reported":1728763735,"current_range_meters":32800,"station_id":"ce4bgpp2rcd13ifvqc3g","pricing_plan_id":"cebpf4jnsgd1na2vs0mg"},{"bike_id":"b5d71fcf-1dfb-4999-9499-f7f170ca339c","system_id":"levelo_inurba_marseille","lat":43.29846,"lon":5.36292,"is_reserved":false,"is_disabled":false,"rental_uris":{"android":"levelo://app?vid=b5d71fcf-1dfb-4999-9499-f7f170ca339c","ios":"levelo://app?vid=b5d71fcf-1dfb-4999-9499-f7f170ca339c"},"vehicle_type_id":"4","last_reported":1728763735,"current_range_meters":28400,"station_id":"ce4bgpp2rcd13ifvqc3g","pricing_plan_id":"cebpf4jnsgd1na2vs0mg"},{"bike_id":"922be445-130b-423a-97a6-dbeed6eb1c41","system_id":"levelo_inurba_marseille","lat":43.31701,"lon":5.37755,"is_reserved":false,"is_disabled":false,"rental_uris":{"android":"levelo://app?vid=922be445-130b-423a-97a6-dbeed6eb1c41","ios":"levelo://app?vid=922be445-130b-423a-97a6-dbeed6eb1c41"},"vehicle_type_id":"4","last_reported":1728763735,"current_range_meters":37600,"station_id":"ce4bgth2rcd13ifvqch0","pricing_plan_id":"cebpf4jnsgd1na2vs0mg"},{"bike_id":"6ff31e22-dbdf-494f-8326-d5712a233c5a","system_id":"levelo_inurba_marseille","lat":43.25824,"lon":5.39436,"is_reserved":false,"is_disabled":false,"rental_uris":{"android":"levelo://app?vid=6ff31e22-dbdf-494f-8326-d5712a233c5a","ios":"levelo://app?vid=6ff31e22-dbdf-494f-8326-d5712a233c5a"},"vehicle_type_id":"4","last_reported":1728763735,"current_range_meters":16000,"station_id":"ce4bhip2rcd13ifvqft0","pricing_plan_id":"cebpf4jnsgd1na2vs0mg"},{"bike_id":"4fff3cf8-c6ac-4933-8f5b-9ee3a18d0c00","system_id":"levelo_inurba_marseille","lat":43.2827,"lon":5.35074,"is_reserved":false,"is_disabled":false,"rental_uris":{"android":"levelo://app?vid=4fff3cf8-c6ac-4933-8f5b-9ee3a18d0c00","ios":"levelo://app?vid=4fff3cf8-c6ac-4933-8f5b-9ee3a18d0c00"},"vehicle_type_id":"4","last_reported":1728763735,"current_range_meters":12000,"station_id":"ce4bhbp2rcd13ifvqerg","pricing_plan_id":"cebpf4jnsgd1na2vs0mg"},{"bike_id":"fa62411a-1791-4ab3-a3bd-706ae41e9bcf","system_id":"levelo_inurba_marseille","lat":43.29617,"lon":5.37153,"is_reserved":false,"is_disabled":false,"rental_uris":{"android":"levelo://app?vid=fa62411a-1791-4ab3-a3bd-706ae41e9bcf","ios":"levelo://app?vid=fa62411a-1791-4ab3-a3bd-706ae41e9bcf"},"vehicle_type_id":"4","last_reported":1728763735,"current_range_meters":37600,"station_id":"ce4bgnh2rcd13ifvqc0g","pricing_plan_id":"cebpf4jnsgd1na2vs0mg"},{"bike_id":"e4f0f21e-0c3d-4d74-b01c-3addb8ce8acf","system_id":"levelo_inurba_marseille","lat":43.28339,"lon":5.38111,"is_reserved":false,"is_disabled":false,"rental_uris":{"android":"levelo://app?vid=e4f0f21e-0c3d-4d74-b01c-3addb8ce8acf","ios":"levelo://app?vid=e4f0f21e-0c3d-4d74-b01c-3addb8ce8acf"},"vehicle_type_id":"4","last_reported":1728763735,"current_range_meters":6400,"station_id":"ce4bh412rcd13ifvqdr0","pricing_plan_id":"cebpf4jnsgd1na2vs0mg"},{"bike_id":"e6336660-e5d0-4336-aab6-9e2081b4b551","system_id":"levelo_inurba_marseille","lat":43.33731,"lon":5.39189,"is_reserved":false,"is_disabled":false,"rental_uris":{"android":"levelo://app?vid=e6336660-e5d0-4336-aab6-9e2081b4b551","ios":"levelo://app?vid=e6336660-e5d0-4336-aab6-9e2081b4b551"},"vehicle_type_id":"4","last_reported":1728763735,"current_range_meters":22400,"station_id":"ce4bhr92rcd13ifvqhsg","pricing_plan_id":"cebpf4jnsgd1na2vs0mg"},{"bike_id":"0672d024-7512-458f-bdf1-a190412d36c0","system_id":"levelo_inurba_marseille","lat":43.28481,"lon":5.3842,"is_reserved":false,"is_disabled":false,"rental_uris":{"android":"levelo://app?vid=0672d024-7512-458f-bdf1-a190412d36c0","ios":"levelo://app?vid=0672d024-7512-458f-bdf1-a190412d36c0"},"vehicle_type_id":"4","last_reported":1728763735,"current_range_meters":38800,"station_id":"ce4bh512rcd13ifvqe3g","pricing_plan_id":"cebpf4jnsgd1na2vs0mg"},{"bike_id":"ab47664c-0450-4138-b005-9b8e1b8810bd","system_id":"levelo_inurba_marseille","lat":43.29577,"lon":5.36743,"is_reserved":false,"is_disabled":false,"rental_uris":{"android":"levelo://app?vid=ab47664c-0450-4138-b005-9b8e1b8810bd","ios":"levelo://app?vid=ab47664c-0450-4138-b005-9b8e1b8810bd"},"vehicle_type_id":"4","last_reported":1728763735,"current_range_meters":40000,"station_id":"ce4bgph2rcd13ifvqc2g","pricing_plan_id":"cebpf4jnsgd1na2vs0mg"},{"bike_id":"55c086ac-0c28-459c-8615-b229534a617d","system_id":"levelo_inurba_marseille","lat":43.28936,"lon":5.36638,"is_reserved":false,"is_disabled":false,"rental_uris":{"android":"levelo://app?vid=55c086ac-0c28-459c-8615-b229534a617d","ios":"levelo://app?vid=55c086ac-0c28-459c-8615-b229534a617d"},"vehicle_type_id":"4","last_reported":1728763735,"current_range_meters":24400,"station_id":"ce4bhap2rcd13ifvqek0","pricing_plan_id":"cebpf4jnsgd1na2vs0mg"},{"bike_id":"5dbc5d6e-0757-4e53-b3b9-b9a9912e24c3","system_id":"levelo_inurba_marseille","lat":43.27492,"lon":5.42449,"is_reserved":false,"is_disabled":false,"rental_uris":{"android":"levelo://app?vid=5dbc5d6e-0757-4e53-b3b9-b9a9912e24c3","ios":"levelo://app?vid=5dbc5d6e-0757-4e53-b3b9-b9a9912e24c3"},"vehicle_type_id":"4","last_reported":1728763735,"current_range_meters":27600,"station_id":"ce4bhn92rcd13ifvqgrg","pricing_plan_id":"cebpf4jnsgd1na2vs0mg"},{"bike_id":"b2e9e370-9210-49f2-a2bc-03587913b57f","system_id":"levelo_inurba_marseille","lat":43.3248,"lon":5.3656,"is_reserved":false,"is_disabled":false,"rental_uris":{"android":"levelo://app?vid=b2e9e370-9210-49f2-a2bc-03587913b57f","ios":"levelo://app?vid=b2e9e370-9210-49f2-a2bc-03587913b57f"},"vehicle_type_id":"4","last_reported":1728763735,"current_range_meters":38800,"station_id":"ce4bhs12rcd13ifvqhvg","pricing_plan_id":"cebpf4jnsgd1na2vs0mg"},{"bike_id":"55582e1e-1cd8-4e96-933c-025471d1c473","system_id":"levelo_inurba_marseille","lat":43.26932,"lon":5.38926,"is_reserved":false,"is_disabled":false,"rental_uris":{"android":"levelo://app?vid=55582e1e-1cd8-4e96-933c-025471d1c473","ios":"levelo://app?vid=55582e1e-1cd8-4e96-933c-025471d1c473"},"vehicle_type_id":"4","last_reported":1728763735,"current_range_meters":9600,"station_id":"ce4bhhh2rcd13ifvqfl0","pricing_plan_id":"cebpf4jnsgd1na2vs0mg"},{"bike_id":"959e4fa3-7477-4e8f-929d-073effc704a7","system_id":"levelo_inurba_marseille","lat":43.28646,"lon":5.36349,"is_reserved":false,"is_disabled":false,"rental_uris":{"android":"levelo://app?vid=959e4fa3-7477-4e8f-929d-073effc704a7","ios":"levelo://app?vid=959e4fa3-7477-4e8f-929d-073effc704a7"},"vehicle_type_id":"4","last_reported":1728763735,"current_range_meters":36400,"station_id":"ce4bhah2rcd13ifvqej0","pricing_plan_id":"cebpf4jnsgd1na2vs0mg"},{"bike_id":"e1f9486c-3843-42a6-aacd-4c828c67520a","system_id":"levelo_inurba_marseille","lat":43.23048,"lon":5.35499,"is_reserved":false,"is_disabled":false,"rental_uris":{"android":"levelo://app?vid=e1f9486c-3843-42a6-aacd-4c828c67520a","ios":"levelo://app?vid=e1f9486c-3843-42a6-aacd-4c828c67520a"},"vehicle_type_id":"4","last_reported":1728763735,"current_range_meters":35200,"station_id":"cpo3342slgdg3j2ifvpg","pricing_plan_id":"cebpf4jnsgd1na2vs0mg"},{"bike_id":"917f3d9e-93a3-436b-b3d9-0e12b7256939","system_id":"levelo_inurba_marseille","lat":43.29793,"lon":5.38102,"is_reserved":false,"is_disabled":false,"rental_uris":{"android":"levelo://app?vid=917f3d9e-93a3-436b-b3d9-0e12b7256939","ios":"levelo://app?vid=917f3d9e-93a3-436b-b3d9-0e12b7256939"},"vehicle_type_id":"4","last_reported":1728763735,"current_range_meters":36800,"station_id":"ce4bgip2rcd13ifvqbb0","pricing_plan_id":"cebpf4jnsgd1na2vs0mg"},{"bike_id":"17f0a58b-fa96-470d-a1b0-89c2a0c2bfbe","system_id":"levelo_inurba_marseille","lat":43.23196,"lon":5.35554,"is_reserved":false,"is_disabled":false,"rental_uris":{"android":"levelo://app?vid=17f0a58b-fa96-470d-a1b0-89c2a0c2bfbe","ios":"levelo://app?vid=17f0a58b-fa96-470d-a1b0-89c2a0c2bfbe"},"vehicle_type_id":"4","last_reported":1728763735,"current_range_meters":22000,"station_id":"ce4bhu92rcd13ifvqi70","pricing_plan_id":"cebpf4jnsgd1na2vs0mg"},{"bike_id":"7fe02b9f-dfc0-473a-a115-eaa3ed976c47","system_id":"levelo_inurba_marseille","lat":43.305255,"lon":5.373405,"is_reserved":false,"is_disabled":false,"rental_uris":{"android":"levelo://app?vid=7fe02b9f-dfc0-473a-a115-eaa3ed976c47","ios":"levelo://app?vid=7fe02b9f-dfc0-473a-a115-eaa3ed976c47"},"vehicle_type_id":"4","last_reported":1728763735,"current_range_meters":26000,"station_id":"ce4bgqh2rcd13ifvqc4g","pricing_plan_id":"cebpf4jnsgd1na2vs0mg"},{"bike_id":"0bc267ec-3010-421e-ba98-64c106d64919","system_id":"levelo_inurba_marseille","lat":43.25115,"lon":5.40321,"is_reserved":false,"is_disabled":false,"rental_uris":{"android":"levelo://app?vid=0bc267ec-3010-421e-ba98-64c106d64919","ios":"levelo://app?vid=0bc267ec-3010-421e-ba98-64c106d64919"},"vehicle_type_id":"4","last_reported":1728763735,"current_range_meters":25200,"station_id":"ce4bhlh2rcd13ifvqgig","pricing_plan_id":"cebpf4jnsgd1na2vs0mg"},{"bike_id":"0383fd16-e9b8-4410-b536-493a9708d1c6","system_id":"levelo_inurba_marseille","lat":43.33018,"lon":5.39047,"is_reserved":false,"is_disabled":false,"rental_uris":{"android":"levelo://app?vid=0383fd16-e9b8-4410-b536-493a9708d1c6","ios":"levelo://app?vid=0383fd16-e9b8-4410-b536-493a9708d1c6"},"vehicle_type_id":"4","last_reported":1728763735,"current_range_meters":26800,"station_id":"ce4bhr92rcd13ifvqhrg","pricing_plan_id":"cebpf4jnsgd1na2vs0mg"},{"bike_id":"b25409bc-df4d-476a-893e-c6a5838692b2","system_id":"levelo_inurba_marseille","lat":43.23188,"lon":5.35561,"is_reserved":false,"is_disabled":false,"rental_uris":{"android":"levelo://app?vid=b25409bc-df4d-476a-893e-c6a5838692b2","ios":"levelo://app?vid=b25409bc-df4d-476a-893e-c6a5838692b2"},"vehicle_type_id":"4","last_reported":1728763735,"current_range_meters":38800,"station_id":"ce4bhu92rcd13ifvqi70","pricing_plan_id":"cebpf4jnsgd1na2vs0mg"},{"bike_id":"d6be0b73-241e-4c41-924a-1d2b0019131c","system_id":"levelo_inurba_marseille","lat":43.27944,"lon":5.41048,"is_reserved":false,"is_disabled":false,"rental_uris":{"android":"levelo://app?vid=d6be0b73-241e-4c41-924a-1d2b0019131c","ios":"levelo://app?vid=d6be0b73-241e-4c41-924a-1d2b0019131c"},"vehicle_type_id":"4","last_reported":1728763735,"current_range_meters":36400,"station_id":"ce4bhnp2rcd13ifvqh0g","pricing_plan_id":"cebpf4jnsgd1na2vs0mg"},{"bike_id":"0c0ab791-5f38-4bb5-8c56-3c1ab5a31ead","system_id":"levelo_inurba_marseille","lat":43.32564,"lon":5.38923,"is_reserved":false,"is_disabled":false,"rental_uris":{"android":"levelo://app?vid=0c0ab791-5f38-4bb5-8c56-3c1ab5a31ead","ios":"levelo://app?vid=0c0ab791-5f38-4bb5-8c56-3c1ab5a31ead"},"vehicle_type_id":"4","last_reported":1728763735,"current_range_meters":2800,"station_id":"","pricing_plan_id":"cebpf4jnsgd1na2vs0mg"},{"bike_id":"8fb2b431-bcb9-46ba-80fb-e26e84592fc5","system_id":"levelo_inurba_marseille","lat":43.23189,"lon":5.35551,"is_reserved":false,"is_disabled":false,"rental_uris":{"android":"levelo://app?vid=8fb2b431-bcb9-46ba-80fb-e26e84592fc5","ios":"levelo://app?vid=8fb2b431-bcb9-46ba-80fb-e26e84592fc5"},"vehicle_type_id":"4","last_reported":1728763735,"current_range_meters":30000,"station_id":"ce4bhu92rcd13ifvqi70","pricing_plan_id":"cebpf4jnsgd1na2vs0mg"},{"bike_id":"a3f8df2e-2fed-42f1-8b01-11375bb65951","system_id":"levelo_inurba_marseille","lat":43.2985,"lon":5.36288,"is_reserved":false,"is_disabled":false,"rental_uris":{"android":"levelo://app?vid=a3f8df2e-2fed-42f1-8b01-11375bb65951","ios":"levelo://app?vid=a3f8df2e-2fed-42f1-8b01-11375bb65951"},"vehicle_type_id":"4","last_reported":1728763735,"current_range_meters":11200,"station_id":"ce4bgpp2rcd13ifvqc3g","pricing_plan_id":"cebpf4jnsgd1na2vs0mg"},{"bike_id":"e2f25126-29b7-4581-a4fe-9e458716fb1d","system_id":"levelo_inurba_marseille","lat":43.23958,"lon":5.36631,"is_reserved":false,"is_disabled":false,"rental_uris":{"android":"levelo://app?vid=e2f25126-29b7-4581-a4fe-9e458716fb1d","ios":"levelo://app?vid=e2f25126-29b7-4581-a4fe-9e458716fb1d"},"vehicle_type_id":"4","last_reported":1728763735,"current_range_meters":27200,"station_id":"ce4bhi12rcd13ifvqfp0","pricing_plan_id":"cebpf4jnsgd1na2vs0mg"},{"bike_id":"9618e8a3-f91b-4b1b-92c4-574ba1518dfa","system_id":"levelo_inurba_marseille","lat":43.28446,"lon":5.39203,"is_reserved":false,"is_disabled":false,"rental_uris":{"android":"levelo://app?vid=9618e8a3-f91b-4b1b-92c4-574ba1518dfa","ios":"levelo://app?vid=9618e8a3-f91b-4b1b-92c4-574ba1518dfa"},"vehicle_type_id":"4","last_reported":1728763735,"current_range_meters":30800,"station_id":"ce4bhoh2rcd13ifvqh5g","pricing_plan_id":"cebpf4jnsgd1na2vs0mg"},{"bike_id":"a5f1b4f4-bc5f-484d-9b8b-f53646c11223","system_id":"levelo_inurba_marseille","lat":43.29844,"lon":5.36285,"is_reserved":false,"is_disabled":false,"rental_uris":{"android":"levelo://app?vid=a5f1b4f4-bc5f-484d-9b8b-f53646c11223","ios":"levelo://app?vid=a5f1b4f4-bc5f-484d-9b8b-f53646c11223"},"vehicle_type_id":"4","last_reported":1728763735,"current_range_meters":24000,"station_id":"ce4bgpp2rcd13ifvqc3g","pricing_plan_id":"cebpf4jnsgd1na2vs0mg"},{"bike_id":"9326ae13-0e31-466e-9dd6-e7e382c6bf3a","system_id":"levelo_inurba_marseille","lat":43.27555,"lon":5.38441,"is_reserved":false,"is_disabled":false,"rental_uris":{"android":"levelo://app?vid=9326ae13-0e31-466e-9dd6-e7e382c6bf3a","ios":"levelo://app?vid=9326ae13-0e31-466e-9dd6-e7e382c6bf3a"},"vehicle_type_id":"4","last_reported":1728763735,"current_range_meters":39200,"station_id":"ce4bhh92rcd13ifvqfi0","pricing_plan_id":"cebpf4jnsgd1na2vs0mg"},{"bike_id":"972e1e50-2e1e-454f-8635-5ea35f00e6a7","system_id":"levelo_inurba_marseille","lat":43.30464,"lon":5.40178,"is_reserved":false,"is_disabled":false,"rental_uris":{"android":"levelo://app?vid=972e1e50-2e1e-454f-8635-5ea35f00e6a7","ios":"levelo://app?vid=972e1e50-2e1e-454f-8635-5ea35f00e6a7"},"vehicle_type_id":"4","last_reported":1728763735,"current_range_meters":36400,"station_id":"","pricing_plan_id":"cebpf4jnsgd1na2vs0mg"},{"bike_id":"efb2bcd1-c567-4d4b-8d3b-8a3d113eedad","system_id":"levelo_inurba_marseille","lat":43.29842,"lon":5.3628,"is_reserved":false,"is_disabled":false,"rental_uris":{"android":"levelo://app?vid=efb2bcd1-c567-4d4b-8d3b-8a3d113eedad","ios":"levelo://app?vid=efb2bcd1-c567-4d4b-8d3b-8a3d113eedad"},"vehicle_type_id":"4","last_reported":1728763735,"current_range_meters":13600,"station_id":"ce4bgpp2rcd13ifvqc3g","pricing_plan_id":"cebpf4jnsgd1na2vs0mg"},{"bike_id":"509c75f1-6dee-4835-b593-0a35aaec2b07","system_id":"levelo_inurba_marseille","lat":43.308908,"lon":5.396482,"is_reserved":false,"is_disabled":false,"rental_uris":{"android":"levelo://app?vid=509c75f1-6dee-4835-b593-0a35aaec2b07","ios":"levelo://app?vid=509c75f1-6dee-4835-b593-0a35aaec2b07"},"vehicle_type_id":"4","last_reported":1728763735,"current_range_meters":20800,"station_id":"ce4bh012rcd13ifvqcv0","pricing_plan_id":"cebpf4jnsgd1na2vs0mg"},{"bike_id":"6963dbc6-5f23-47b5-84ab-13ad5cff71e2","system_id":"levelo_inurba_marseille","lat":43.30939,"lon":5.4015,"is_reserved":false,"is_disabled":false,"rental_uris":{"android":"levelo://app?vid=6963dbc6-5f23-47b5-84ab-13ad5cff71e2","ios":"levelo://app?vid=6963dbc6-5f23-47b5-84ab-13ad5cff71e2"},"vehicle_type_id":"4","last_reported":1728763735,"current_range_meters":38800,"station_id":"ce4bgvp2rcd13ifvqct0","pricing_plan_id":"cebpf4jnsgd1na2vs0mg"},{"bike_id":"8019261c-0002-4fd7-a929-313968ea2c77","system_id":"levelo_inurba_marseille","lat":43.24539,"lon":5.39524,"is_reserved":false,"is_disabled":false,"rental_uris":{"android":"levelo://app?vid=8019261c-0002-4fd7-a929-313968ea2c77","ios":"levelo://app?vid=8019261c-0002-4fd7-a929-313968ea2c77"},"vehicle_type_id":"4","last_reported":1728763735,"current_range_meters":12400,"station_id":"ce4bhlp2rcd13ifvqgjg","pricing_plan_id":"cebpf4jnsgd1na2vs0mg"},{"bike_id":"6f6aa75e-2312-4bd3-bf06-df20614f1ef1","system_id":"levelo_inurba_marseille","lat":43.23189,"lon":5.39989,"is_reserved":false,"is_disabled":false,"rental_uris":{"android":"levelo://app?vid=6f6aa75e-2312-4bd3-bf06-df20614f1ef1","ios":"levelo://app?vid=6f6aa75e-2312-4bd3-bf06-df20614f1ef1"},"vehicle_type_id":"4","last_reported":1728763735,"current_range_meters":8000,"station_id":"ce4bhn12rcd13ifvqgqg","pricing_plan_id":"cebpf4jnsgd1na2vs0mg"},{"bike_id":"e6049eb7-a913-4c30-b891-92576278de4c","system_id":"levelo_inurba_marseille","lat":43.24803,"lon":5.37451,"is_reserved":false,"is_disabled":false,"rental_uris":{"android":"levelo://app?vid=e6049eb7-a913-4c30-b891-92576278de4c","ios":"levelo://app?vid=e6049eb7-a913-4c30-b891-92576278de4c"},"vehicle_type_id":"4","last_reported":1728763735,"current_range_meters":32000,"station_id":"ce4bhgh2rcd13ifvqfb0","pricing_plan_id":"cebpf4jnsgd1na2vs0mg"},{"bike_id":"5b9033c7-8cad-414a-8d29-f05fdaafacd5","system_id":"levelo_inurba_marseille","lat":43.24664,"lon":5.38161,"is_reserved":false,"is_disabled":false,"rental_uris":{"android":"levelo://app?vid=5b9033c7-8cad-414a-8d29-f05fdaafacd5","ios":"levelo://app?vid=5b9033c7-8cad-414a-8d29-f05fdaafacd5"},"vehicle_type_id":"4","last_reported":1728763735,"current_range_meters":28400,"station_id":"ce4bhih2rcd13ifvqfr0","pricing_plan_id":"cebpf4jnsgd1na2vs0mg"},{"bike_id":"2cab328f-e74b-4693-a3ca-014b2ef34f87","system_id":"levelo_inurba_marseille","lat":43.30293,"lon":5.39211,"is_reserved":false,"is_disabled":false,"rental_uris":{"android":"levelo://app?vid=2cab328f-e74b-4693-a3ca-014b2ef34f87","ios":"levelo://app?vid=2cab328f-e74b-4693-a3ca-014b2ef34f87"},"vehicle_type_id":"4","last_reported":1728763735,"current_range_meters":31200,"station_id":"ce4bgkh2rcd13ifvqbk0","pricing_plan_id":"cebpf4jnsgd1na2vs0mg"},{"bike_id":"5a94b4b9-d430-47fb-9ca8-ac46a3d24520","system_id":"levelo_inurba_marseille","lat":43.28439,"lon":5.39196,"is_reserved":false,"is_disabled":false,"rental_uris":{"android":"levelo://app?vid=5a94b4b9-d430-47fb-9ca8-ac46a3d24520","ios":"levelo://app?vid=5a94b4b9-d430-47fb-9ca8-ac46a3d24520"},"vehicle_type_id":"4","last_reported":1728763735,"current_range_meters":18000,"station_id":"ce4bhoh2rcd13ifvqh5g","pricing_plan_id":"cebpf4jnsgd1na2vs0mg"},{"bike_id":"19e0e40e-63be-4804-b3b8-2787230e9bca","system_id":"levelo_inurba_marseille","lat":43.29622,"lon":5.37164,"is_reserved":false,"is_disabled":false,"rental_uris":{"android":"levelo://app?vid=19e0e40e-63be-4804-b3b8-2787230e9bca","ios":"levelo://app?vid=19e0e40e-63be-4804-b3b8-2787230e9bca"},"vehicle_type_id":"4","last_reported":1728763735,"current_range_meters":39200,"station_id":"ce4bgnh2rcd13ifvqc0g","pricing_plan_id":"cebpf4jnsgd1na2vs0mg"},{"bike_id":"b9a64df2-122d-44d5-b6d8-c291946ea5f0","system_id":"levelo_inurba_marseille","lat":43.29222,"lon":5.36078,"is_reserved":false,"is_disabled":false,"rental_uris":{"android":"levelo://app?vid=b9a64df2-122d-44d5-b6d8-c291946ea5f0","ios":"levelo://app?vid=b9a64df2-122d-44d5-b6d8-c291946ea5f0"},"vehicle_type_id":"4","last_reported":1728763735,"current_range_meters":30000,"station_id":"ce4bhbh2rcd13ifvqeqg","pricing_plan_id":"cebpf4jnsgd1na2vs0mg"},{"bike_id":"0ee7d86d-c4c6-4acb-8f1a-814fc6a69ce1","system_id":"levelo_inurba_marseille","lat":43.29849,"lon":5.36279,"is_reserved":false,"is_disabled":false,"rental_uris":{"android":"levelo://app?vid=0ee7d86d-c4c6-4acb-8f1a-814fc6a69ce1","ios":"levelo://app?vid=0ee7d86d-c4c6-4acb-8f1a-814fc6a69ce1"},"vehicle_type_id":"4","last_reported":1728763735,"current_range_meters":25600,"station_id":"ce4bgpp2rcd13ifvqc3g","pricing_plan_id":"cebpf4jnsgd1na2vs0mg"},{"bike_id":"3b2db9ff-b15e-434c-9484-230a465d9fe5","system_id":"levelo_inurba_marseille","lat":43.29843,"lon":5.36276,"is_reserved":false,"is_disabled":false,"rental_uris":{"android":"levelo://app?vid=3b2db9ff-b15e-434c-9484-230a465d9fe5","ios":"levelo://app?vid=3b2db9ff-b15e-434c-9484-230a465d9fe5"},"vehicle_type_id":"4","last_reported":1728763735,"current_range_meters":27200,"station_id":"ce4bgpp2rcd13ifvqc3g","pricing_plan_id":"cebpf4jnsgd1na2vs0mg"},{"bike_id":"a4217625-26b1-46c3-83cf-a9b3a5d673ce","system_id":"levelo_inurba_marseille","lat":43.31066,"lon":5.36887,"is_reserved":false,"is_disabled":false,"rental_uris":{"android":"levelo://app?vid=a4217625-26b1-46c3-83cf-a9b3a5d673ce","ios":"levelo://app?vid=a4217625-26b1-46c3-83cf-a9b3a5d673ce"},"vehicle_type_id":"4","last_reported":1728763735,"current_range_meters":34000,"station_id":"","pricing_plan_id":"cebpf4jnsgd1na2vs0mg"},{"bike_id":"d0bd3e91-81ba-405f-b7e3-a682fce6aab6","system_id":"levelo_inurba_marseille","lat":43.23187,"lon":5.39987,"is_reserved":false,"is_disabled":false,"rental_uris":{"android":"levelo://app?vid=d0bd3e91-81ba-405f-b7e3-a682fce6aab6","ios":"levelo://app?vid=d0bd3e91-81ba-405f-b7e3-a682fce6aab6"},"vehicle_type_id":"4","last_reported":1728763735,"current_range_meters":33200,"station_id":"ce4bhn12rcd13ifvqgqg","pricing_plan_id":"cebpf4jnsgd1na2vs0mg"},{"bike_id":"236f02df-e06e-49b1-a320-7a02f3708c7e","system_id":"levelo_inurba_marseille","lat":43.29568,"lon":5.39986,"is_reserved":false,"is_disabled":false,"rental_uris":{"android":"levelo://app?vid=236f02df-e06e-49b1-a320-7a02f3708c7e","ios":"levelo://app?vid=236f02df-e06e-49b1-a320-7a02f3708c7e"},"vehicle_type_id":"4","last_reported":1728763735,"current_range_meters":14000,"station_id":"ce4bh312rcd13ifvqdj0","pricing_plan_id":"cebpf4jnsgd1na2vs0mg"},{"bike_id":"e53d9dac-6d16-4334-ad56-d0d38fcf4eb7","system_id":"levelo_inurba_marseille","lat":43.2797,"lon":5.41838,"is_reserved":false,"is_disabled":false,"rental_uris":{"android":"levelo://app?vid=e53d9dac-6d16-4334-ad56-d0d38fcf4eb7","ios":"levelo://app?vid=e53d9dac-6d16-4334-ad56-d0d38fcf4eb7"},"vehicle_type_id":"4","last_reported":1728763735,"current_range_meters":27600,"station_id":"","pricing_plan_id":"cebpf4jnsgd1na2vs0mg"},{"bike_id":"36797601-66ca-4ea0-a328-6b0b4f9d95bc","system_id":"levelo_inurba_marseille","lat":43.29521,"lon":5.3904,"is_reserved":false,"is_disabled":false,"rental_uris":{"android":"levelo://app?vid=36797601-66ca-4ea0-a328-6b0b4f9d95bc","ios":"levelo://app?vid=36797601-66ca-4ea0-a328-6b0b4f9d95bc"},"vehicle_type_id":"4","last_reported":1728763735,"current_range_meters":39200,"station_id":"ce4bh3p2rcd13ifvqdp0","pricing_plan_id":"cebpf4jnsgd1na2vs0mg"},{"bike_id":"3fb0b7aa-5417-46e4-a111-4a706fec7cd6","system_id":"levelo_inurba_marseille","lat":43.26545,"lon":5.37286,"is_reserved":false,"is_disabled":false,"rental_uris":{"android":"levelo://app?vid=3fb0b7aa-5417-46e4-a111-4a706fec7cd6","ios":"levelo://app?vid=3fb0b7aa-5417-46e4-a111-4a706fec7cd6"},"vehicle_type_id":"4","last_reported":1728763735,"current_range_meters":36000,"station_id":"ce4bhg12rcd13ifvqf70","pricing_plan_id":"cebpf4jnsgd1na2vs0mg"},{"bike_id":"5ab70f1b-3f2c-4f8b-a0cc-cdba02fd83d4","system_id":"levelo_inurba_marseille","lat":43.3248,"lon":5.3656,"is_reserved":false,"is_disabled":false,"rental_uris":{"android":"levelo://app?vid=5ab70f1b-3f2c-4f8b-a0cc-cdba02fd83d4","ios":"levelo://app?vid=5ab70f1b-3f2c-4f8b-a0cc-cdba02fd83d4"},"vehicle_type_id":"4","last_reported":1728763735,"current_range_meters":35600,"station_id":"ce4bhs12rcd13ifvqhvg","pricing_plan_id":"cebpf4jnsgd1na2vs0mg"},{"bike_id":"bf2f6596-59c3-4eac-9b3e-cb4bcbe3218a","system_id":"levelo_inurba_marseille","lat":43.30546,"lon":5.38424,"is_reserved":false,"is_disabled":false,"rental_uris":{"android":"levelo://app?vid=bf2f6596-59c3-4eac-9b3e-cb4bcbe3218a","ios":"levelo://app?vid=bf2f6596-59c3-4eac-9b3e-cb4bcbe3218a"},"vehicle_type_id":"4","last_reported":1728763735,"current_range_meters":35200,"station_id":"ce4bgg92rcd13ifvqb30","pricing_plan_id":"cebpf4jnsgd1na2vs0mg"},{"bike_id":"2c8e1432-02d3-44c6-a50c-97ad77b90c88","system_id":"levelo_inurba_marseille","lat":43.25865,"lon":5.39904,"is_reserved":false,"is_disabled":false,"rental_uris":{"android":"levelo://app?vid=2c8e1432-02d3-44c6-a50c-97ad77b90c88","ios":"levelo://app?vid=2c8e1432-02d3-44c6-a50c-97ad77b90c88"},"vehicle_type_id":"4","last_reported":1728763735,"current_range_meters":39200,"station_id":"ce4bhl92rcd13ifvqghg","pricing_plan_id":"cebpf4jnsgd1na2vs0mg"},{"bike_id":"050f873d-7804-4cea-883a-fc18bfb38f65","system_id":"levelo_inurba_marseille","lat":43.2955,"lon":5.42286,"is_reserved":false,"is_disabled":false,"rental_uris":{"android":"levelo://app?vid=050f873d-7804-4cea-883a-fc18bfb38f65","ios":"levelo://app?vid=050f873d-7804-4cea-883a-fc18bfb38f65"},"vehicle_type_id":"4","last_reported":1728763735,"current_range_meters":23200,"station_id":"ce4bhph2rcd13ifvqhdg","pricing_plan_id":"cebpf4jnsgd1na2vs0mg"},{"bike_id":"2c4c4fdd-4be3-40ba-ae9f-53b1d6165fc5","system_id":"levelo_inurba_marseille","lat":43.28844,"lon":5.35839,"is_reserved":false,"is_disabled":false,"rental_uris":{"android":"levelo://app?vid=2c4c4fdd-4be3-40ba-ae9f-53b1d6165fc5","ios":"levelo://app?vid=2c4c4fdd-4be3-40ba-ae9f-53b1d6165fc5"},"vehicle_type_id":"4","last_reported":1728763735,"current_range_meters":9600,"station_id":"ce4bhb12rcd13ifvqem0","pricing_plan_id":"cebpf4jnsgd1na2vs0mg"},{"bike_id":"4caf24b3-7f65-430f-a3c0-c3268694432d","system_id":"levelo_inurba_marseille","lat":43.286133,"lon":5.351,"is_reserved":false,"is_disabled":false,"rental_uris":{"android":"levelo://app?vid=4caf24b3-7f65-430f-a3c0-c3268694432d","ios":"levelo://app?vid=4caf24b3-7f65-430f-a3c0-c3268694432d"},"vehicle_type_id":"4","last_reported":1728763735,"current_range_meters":38000,"station_id":"ce4bhch2rcd13ifvqeug","pricing_plan_id":"cebpf4jnsgd1na2vs0mg"},{"bike_id":"a8f59645-00fa-494a-80b5-caffd01a6a16","system_id":"levelo_inurba_marseille","lat":43.29415,"lon":5.38624,"is_reserved":false,"is_disabled":false,"rental_uris":{"android":"levelo://app?vid=a8f59645-00fa-494a-80b5-caffd01a6a16","ios":"levelo://app?vid=a8f59645-00fa-494a-80b5-caffd01a6a16"},"vehicle_type_id":"4","last_reported":1728763735,"current_range_meters":27600,"station_id":"ce4bh2h2rcd13ifvqdh0","pricing_plan_id":"cebpf4jnsgd1na2vs0mg"},{"bike_id":"9de4c5f9-f930-417d-af98-6aa3427f20ae","system_id":"levelo_inurba_marseille","lat":43.29838,"lon":5.36273,"is_reserved":false,"is_disabled":false,"rental_uris":{"android":"levelo://app?vid=9de4c5f9-f930-417d-af98-6aa3427f20ae","ios":"levelo://app?vid=9de4c5f9-f930-417d-af98-6aa3427f20ae"},"vehicle_type_id":"4","last_reported":1728763735,"current_range_meters":22400,"station_id":"ce4bgpp2rcd13ifvqc3g","pricing_plan_id":"cebpf4jnsgd1na2vs0mg"},{"bike_id":"9756ca90-d307-416a-8feb-0d90648d1279","system_id":"levelo_inurba_marseille","lat":43.25497,"lon":5.3765,"is_reserved":false,"is_disabled":false,"rental_uris":{"android":"levelo://app?vid=9756ca90-d307-416a-8feb-0d90648d1279","ios":"levelo://app?vid=9756ca90-d307-416a-8feb-0d90648d1279"},"vehicle_type_id":"4","last_reported":1728763735,"current_range_meters":11200,"station_id":"ce4bhh12rcd13ifvqff0","pricing_plan_id":"cebpf4jnsgd1na2vs0mg"},{"bike_id":"b3aaaef3-1ecf-4a7a-b3bb-79a6e0c2b54e","system_id":"levelo_inurba_marseille","lat":43.28419,"lon":5.37502,"is_reserved":false,"is_disabled":false,"rental_uris":{"android":"levelo://app?vid=b3aaaef3-1ecf-4a7a-b3bb-79a6e0c2b54e","ios":"levelo://app?vid=b3aaaef3-1ecf-4a7a-b3bb-79a6e0c2b54e"},"vehicle_type_id":"4","last_reported":1728763735,"current_range_meters":30000,"station_id":"ce4bh412rcd13ifvqds0","pricing_plan_id":"cebpf4jnsgd1na2vs0mg"},{"bike_id":"49316722-f5ca-469e-b328-cdeaebfb0c7f","system_id":"levelo_inurba_marseille","lat":43.2395,"lon":5.36634,"is_reserved":false,"is_disabled":false,"rental_uris":{"android":"levelo://app?vid=49316722-f5ca-469e-b328-cdeaebfb0c7f","ios":"levelo://app?vid=49316722-f5ca-469e-b328-cdeaebfb0c7f"},"vehicle_type_id":"4","last_reported":1728763735,"current_range_meters":8800,"station_id":"ce4bhi12rcd13ifvqfp0","pricing_plan_id":"cebpf4jnsgd1na2vs0mg"},{"bike_id":"7b67a5df-d3cd-42d7-8c86-cc44184bc473","system_id":"levelo_inurba_marseille","lat":43.30175,"lon":5.36627,"is_reserved":false,"is_disabled":false,"rental_uris":{"android":"levelo://app?vid=7b67a5df-d3cd-42d7-8c86-cc44184bc473","ios":"levelo://app?vid=7b67a5df-d3cd-42d7-8c86-cc44184bc473"},"vehicle_type_id":"4","last_reported":1728763735,"current_range_meters":11200,"station_id":"ce4bgrh2rcd13ifvqc8g","pricing_plan_id":"cebpf4jnsgd1na2vs0mg"},{"bike_id":"dff85f0c-3e81-4b25-9ea0-07a1975f8b42","system_id":"levelo_inurba_marseille","lat":43.30539,"lon":5.38431,"is_reserved":false,"is_disabled":false,"rental_uris":{"android":"levelo://app?vid=dff85f0c-3e81-4b25-9ea0-07a1975f8b42","ios":"levelo://app?vid=dff85f0c-3e81-4b25-9ea0-07a1975f8b42"},"vehicle_type_id":"4","last_reported":1728763735,"current_range_meters":16400,"station_id":"ce4bgg92rcd13ifvqb30","pricing_plan_id":"cebpf4jnsgd1na2vs0mg"},{"bike_id":"6f293a4d-a266-4acc-a5c1-9b333dce3c85","system_id":"levelo_inurba_marseille","lat":43.25824,"lon":5.39435,"is_reserved":false,"is_disabled":false,"rental_uris":{"android":"levelo://app?vid=6f293a4d-a266-4acc-a5c1-9b333dce3c85","ios":"levelo://app?vid=6f293a4d-a266-4acc-a5c1-9b333dce3c85"},"vehicle_type_id":"4","last_reported":1728763735,"current_range_meters":38000,"station_id":"ce4bhip2rcd13ifvqft0","pricing_plan_id":"cebpf4jnsgd1na2vs0mg"},{"bike_id":"0b6d5d30-dba2-414a-b0f1-6523d269c5bc","system_id":"levelo_inurba_marseille","lat":43.254987,"lon":5.376325,"is_reserved":false,"is_disabled":false,"rental_uris":{"android":"levelo://app?vid=0b6d5d30-dba2-414a-b0f1-6523d269c5bc","ios":"levelo://app?vid=0b6d5d30-dba2-414a-b0f1-6523d269c5bc"},"vehicle_type_id":"4","last_reported":1728763735,"current_range_meters":38800,"station_id":"ce4bhh12rcd13ifvqff0","pricing_plan_id":"cebpf4jnsgd1na2vs0mg"},{"bike_id":"c12cb0d6-db93-4418-b913-57eec8fad5ea","system_id":"levelo_inurba_marseille","lat":43.2795,"lon":5.41046,"is_reserved":false,"is_disabled":false,"rental_uris":{"android":"levelo://app?vid=c12cb0d6-db93-4418-b913-57eec8fad5ea","ios":"levelo://app?vid=c12cb0d6-db93-4418-b913-57eec8fad5ea"},"vehicle_type_id":"4","last_reported":1728763735,"current_range_meters":19600,"station_id":"ce4bhnp2rcd13ifvqh0g","pricing_plan_id":"cebpf4jnsgd1na2vs0mg"},{"bike_id":"aad69708-28ac-43e6-945e-619f5a7c6bfd","system_id":"levelo_inurba_marseille","lat":43.33781,"lon":5.37443,"is_reserved":false,"is_disabled":false,"rental_uris":{"android":"levelo://app?vid=aad69708-28ac-43e6-945e-619f5a7c6bfd","ios":"levelo://app?vid=aad69708-28ac-43e6-945e-619f5a7c6bfd"},"vehicle_type_id":"4","last_reported":1728763735,"current_range_meters":36400,"station_id":"","pricing_plan_id":"cebpf4jnsgd1na2vs0mg"},{"bike_id":"5893f3dd-d2b3-4843-b482-b04d8c5fd667","system_id":"levelo_inurba_marseille","lat":43.29872,"lon":5.38902,"is_reserved":false,"is_disabled":false,"rental_uris":{"android":"levelo://app?vid=5893f3dd-d2b3-4843-b482-b04d8c5fd667","ios":"levelo://app?vid=5893f3dd-d2b3-4843-b482-b04d8c5fd667"},"vehicle_type_id":"4","last_reported":1728763735,"current_range_meters":26000,"station_id":"ce4bh392rcd13ifvqdl0","pricing_plan_id":"cebpf4jnsgd1na2vs0mg"},{"bike_id":"39a458cd-b171-4db4-845e-1b09793c026f","system_id":"levelo_inurba_marseille","lat":43.292572,"lon":5.384441,"is_reserved":false,"is_disabled":false,"rental_uris":{"android":"levelo://app?vid=39a458cd-b171-4db4-845e-1b09793c026f","ios":"levelo://app?vid=39a458cd-b171-4db4-845e-1b09793c026f"},"vehicle_type_id":"4","last_reported":1728763735,"current_range_meters":8000,"station_id":"ce4bh692rcd13ifvqea0","pricing_plan_id":"cebpf4jnsgd1na2vs0mg"},{"bike_id":"f2515695-34ba-4d3c-836c-63e7485c3bf9","system_id":"levelo_inurba_marseille","lat":43.28477,"lon":5.38549,"is_reserved":false,"is_disabled":false,"rental_uris":{"android":"levelo://app?vid=f2515695-34ba-4d3c-836c-63e7485c3bf9","ios":"levelo://app?vid=f2515695-34ba-4d3c-836c-63e7485c3bf9"},"vehicle_type_id":"4","last_reported":1728763735,"current_range_meters":22400,"station_id":"ce4bh8p2rcd13ifvqeb0","pricing_plan_id":"cebpf4jnsgd1na2vs0mg"},{"bike_id":"51e3b945-7963-447b-9621-5dac09ee7143","system_id":"levelo_inurba_marseille","lat":43.31171,"lon":5.38721,"is_reserved":false,"is_disabled":false,"rental_uris":{"android":"levelo://app?vid=51e3b945-7963-447b-9621-5dac09ee7143","ios":"levelo://app?vid=51e3b945-7963-447b-9621-5dac09ee7143"},"vehicle_type_id":"4","last_reported":1728763735,"current_range_meters":7200,"station_id":"ce4bgv12rcd13ifvqcp0","pricing_plan_id":"cebpf4jnsgd1na2vs0mg"},{"bike_id":"71cf7286-1207-48ea-9905-84e8b1d59926","system_id":"levelo_inurba_marseille","lat":43.23153,"lon":5.43695,"is_reserved":false,"is_disabled":false,"rental_uris":{"android":"levelo://app?vid=71cf7286-1207-48ea-9905-84e8b1d59926","ios":"levelo://app?vid=71cf7286-1207-48ea-9905-84e8b1d59926"},"vehicle_type_id":"4","last_reported":1728763735,"current_range_meters":36400,"station_id":"ce4bhmp2rcd13ifvqgog","pricing_plan_id":"cebpf4jnsgd1na2vs0mg"},{"bike_id":"1692b592-5122-4076-8bed-311c36f51fa1","system_id":"levelo_inurba_marseille","lat":43.272061,"lon":5.391805,"is_reserved":false,"is_disabled":false,"rental_uris":{"android":"levelo://app?vid=1692b592-5122-4076-8bed-311c36f51fa1","ios":"levelo://app?vid=1692b592-5122-4076-8bed-311c36f51fa1"},"vehicle_type_id":"4","last_reported":1728763735,"current_range_meters":17600,"station_id":"ce4bhhp2rcd13ifvqfm0","pricing_plan_id":"cebpf4jnsgd1na2vs0mg"},{"bike_id":"7996ba8a-261a-4f8f-966d-b91d9fb2cb46","system_id":"levelo_inurba_marseille","lat":43.25496,"lon":5.37654,"is_reserved":false,"is_disabled":false,"rental_uris":{"android":"levelo://app?vid=7996ba8a-261a-4f8f-966d-b91d9fb2cb46","ios":"levelo://app?vid=7996ba8a-261a-4f8f-966d-b91d9fb2cb46"},"vehicle_type_id":"4","last_reported":1728763735,"current_range_meters":20400,"station_id":"ce4bhh12rcd13ifvqff0","pricing_plan_id":"cebpf4jnsgd1na2vs0mg"},{"bike_id":"29b7aa05-1133-4f6f-9837-c8ddf5a12815","system_id":"levelo_inurba_marseille","lat":43.29712,"lon":5.36614,"is_reserved":false,"is_disabled":false,"rental_uris":{"android":"levelo://app?vid=29b7aa05-1133-4f6f-9837-c8ddf5a12815","ios":"levelo://app?vid=29b7aa05-1133-4f6f-9837-c8ddf5a12815"},"vehicle_type_id":"4","last_reported":1728763735,"current_range_meters":37600,"station_id":"ce4bgn12rcd13ifvqbt0","pricing_plan_id":"cebpf4jnsgd1na2vs0mg"},{"bike_id":"dbc68946-c891-4683-a222-612ae931f5b8","system_id":"levelo_inurba_marseille","lat":43.2784,"lon":5.39207,"is_reserved":false,"is_disabled":false,"rental_uris":{"android":"levelo://app?vid=dbc68946-c891-4683-a222-612ae931f5b8","ios":"levelo://app?vid=dbc68946-c891-4683-a222-612ae931f5b8"},"vehicle_type_id":"4","last_reported":1728763735,"current_range_meters":35200,"station_id":"ce4bhjp2rcd13ifvqga0","pricing_plan_id":"cebpf4jnsgd1na2vs0mg"},{"bike_id":"983a3bc7-456f-4166-9514-ff8fd66e833c","system_id":"levelo_inurba_marseille","lat":43.25111,"lon":5.40325,"is_reserved":false,"is_disabled":false,"rental_uris":{"android":"levelo://app?vid=983a3bc7-456f-4166-9514-ff8fd66e833c","ios":"levelo://app?vid=983a3bc7-456f-4166-9514-ff8fd66e833c"},"vehicle_type_id":"4","last_reported":1728763735,"current_range_meters":9600,"station_id":"ce4bhlh2rcd13ifvqgig","pricing_plan_id":"cebpf4jnsgd1na2vs0mg"},{"bike_id":"8509fa5d-c6d9-4cb2-b4b1-4f2065b2666e","system_id":"levelo_inurba_marseille","lat":43.28337,"lon":5.4106,"is_reserved":false,"is_disabled":false,"rental_uris":{"android":"levelo://app?vid=8509fa5d-c6d9-4cb2-b4b1-4f2065b2666e","ios":"levelo://app?vid=8509fa5d-c6d9-4cb2-b4b1-4f2065b2666e"},"vehicle_type_id":"4","last_reported":1728763735,"current_range_meters":4400,"station_id":"","pricing_plan_id":"cebpf4jnsgd1na2vs0mg"},{"bike_id":"b658904b-2364-4060-8ac4-2a820d96e078","system_id":"levelo_inurba_marseille","lat":43.244937,"lon":5.375173,"is_reserved":false,"is_disabled":false,"rental_uris":{"android":"levelo://app?vid=b658904b-2364-4060-8ac4-2a820d96e078","ios":"levelo://app?vid=b658904b-2364-4060-8ac4-2a820d96e078"},"vehicle_type_id":"4","last_reported":1728763735,"current_range_meters":34800,"station_id":"ce4bhgh2rcd13ifvqfb0","pricing_plan_id":"cebpf4jnsgd1na2vs0mg"},{"bike_id":"d52707ef-5937-430d-9a84-8174de3461ff","system_id":"levelo_inurba_marseille","lat":43.30653,"lon":5.40071,"is_reserved":false,"is_disabled":false,"rental_uris":{"android":"levelo://app?vid=d52707ef-5937-430d-9a84-8174de3461ff","ios":"levelo://app?vid=d52707ef-5937-430d-9a84-8174de3461ff"},"vehicle_type_id":"4","last_reported":1728763735,"current_range_meters":39200,"station_id":"ce4bh112rcd13ifvqda0","pricing_plan_id":"cebpf4jnsgd1na2vs0mg"},{"bike_id":"d1822047-b0bb-483d-a419-c2f300fb3ac6","system_id":"levelo_inurba_marseille","lat":43.24065,"lon":5.37764,"is_reserved":false,"is_disabled":false,"rental_uris":{"android":"levelo://app?vid=d1822047-b0bb-483d-a419-c2f300fb3ac6","ios":"levelo://app?vid=d1822047-b0bb-483d-a419-c2f300fb3ac6"},"vehicle_type_id":"4","last_reported":1728763735,"current_range_meters":24400,"station_id":"ce4bhnp2rcd13ifvqgvg","pricing_plan_id":"cebpf4jnsgd1na2vs0mg"},{"bike_id":"c0e29e78-e844-43dc-82cf-cd7be6a3fb82","system_id":"levelo_inurba_marseille","lat":43.29874,"lon":5.38907,"is_reserved":false,"is_disabled":false,"rental_uris":{"android":"levelo://app?vid=c0e29e78-e844-43dc-82cf-cd7be6a3fb82","ios":"levelo://app?vid=c0e29e78-e844-43dc-82cf-cd7be6a3fb82"},"vehicle_type_id":"4","last_reported":1728763735,"current_range_meters":9600,"station_id":"ce4bh392rcd13ifvqdl0","pricing_plan_id":"cebpf4jnsgd1na2vs0mg"},{"bike_id":"27311a75-ebb6-43d6-9fb5-f3ba72a10e0e","system_id":"levelo_inurba_marseille","lat":43.29899,"lon":5.43662,"is_reserved":false,"is_disabled":false,"rental_uris":{"android":"levelo://app?vid=27311a75-ebb6-43d6-9fb5-f3ba72a10e0e","ios":"levelo://app?vid=27311a75-ebb6-43d6-9fb5-f3ba72a10e0e"},"vehicle_type_id":"4","last_reported":1728763735,"current_range_meters":21600,"station_id":"ce4bhpp2rcd13ifvqhfg","pricing_plan_id":"cebpf4jnsgd1na2vs0mg"},{"bike_id":"9738c8f5-2a3a-4897-803e-ba246d4a3ee0","system_id":"levelo_inurba_marseille","lat":43.30295,"lon":5.39213,"is_reserved":false,"is_disabled":false,"rental_uris":{"android":"levelo://app?vid=9738c8f5-2a3a-4897-803e-ba246d4a3ee0","ios":"levelo://app?vid=9738c8f5-2a3a-4897-803e-ba246d4a3ee0"},"vehicle_type_id":"4","last_reported":1728763735,"current_range_meters":16000,"station_id":"ce4bgkh2rcd13ifvqbk0","pricing_plan_id":"cebpf4jnsgd1na2vs0mg"},{"bike_id":"fe07c979-2278-4b88-973e-c948f69290dd","system_id":"levelo_inurba_marseille","lat":43.31691,"lon":5.40465,"is_reserved":false,"is_disabled":false,"rental_uris":{"android":"levelo://app?vid=fe07c979-2278-4b88-973e-c948f69290dd","ios":"levelo://app?vid=fe07c979-2278-4b88-973e-c948f69290dd"},"vehicle_type_id":"4","last_reported":1728763735,"current_range_meters":16400,"station_id":"ce4bh012rcd13ifvqd00","pricing_plan_id":"cebpf4jnsgd1na2vs0mg"},{"bike_id":"5ce9b128-8e40-4353-aa78-1ce7983698b7","system_id":"levelo_inurba_marseille","lat":43.26932,"lon":5.38913,"is_reserved":false,"is_disabled":false,"rental_uris":{"android":"levelo://app?vid=5ce9b128-8e40-4353-aa78-1ce7983698b7","ios":"levelo://app?vid=5ce9b128-8e40-4353-aa78-1ce7983698b7"},"vehicle_type_id":"4","last_reported":1728763735,"current_range_meters":30000,"station_id":"ce4bhhh2rcd13ifvqfl0","pricing_plan_id":"cebpf4jnsgd1na2vs0mg"},{"bike_id":"3f545a06-6534-4e83-b947-2fcea7907e57","system_id":"levelo_inurba_marseille","lat":43.23961,"lon":5.36624,"is_reserved":false,"is_disabled":false,"rental_uris":{"android":"levelo://app?vid=3f545a06-6534-4e83-b947-2fcea7907e57","ios":"levelo://app?vid=3f545a06-6534-4e83-b947-2fcea7907e57"},"vehicle_type_id":"4","last_reported":1728763735,"current_range_meters":31200,"station_id":"ce4bhi12rcd13ifvqfp0","pricing_plan_id":"cebpf4jnsgd1na2vs0mg"},{"bike_id":"9f4cb140-7c13-4cb5-a901-0bf122f1e0f8","system_id":"levelo_inurba_marseille","lat":43.29872,"lon":5.38908,"is_reserved":false,"is_disabled":false,"rental_uris":{"android":"levelo://app?vid=9f4cb140-7c13-4cb5-a901-0bf122f1e0f8","ios":"levelo://app?vid=9f4cb140-7c13-4cb5-a901-0bf122f1e0f8"},"vehicle_type_id":"4","last_reported":1728763735,"current_range_meters":16800,"station_id":"ce4bh392rcd13ifvqdl0","pricing_plan_id":"cebpf4jnsgd1na2vs0mg"},{"bike_id":"ab47c648-03a5-4081-be41-c02507d824f1","system_id":"levelo_inurba_marseille","lat":43.25577,"lon":5.38242,"is_reserved":false,"is_disabled":false,"rental_uris":{"android":"levelo://app?vid=ab47c648-03a5-4081-be41-c02507d824f1","ios":"levelo://app?vid=ab47c648-03a5-4081-be41-c02507d824f1"},"vehicle_type_id":"4","last_reported":1728763735,"current_range_meters":25600,"station_id":"ce4bhih2rcd13ifvqfs0","pricing_plan_id":"cebpf4jnsgd1na2vs0mg"},{"bike_id":"7a86ccf0-8763-43b0-b3ca-0d5a2df7225d","system_id":"levelo_inurba_marseille","lat":43.28413,"lon":5.37515,"is_reserved":false,"is_disabled":false,"rental_uris":{"android":"levelo://app?vid=7a86ccf0-8763-43b0-b3ca-0d5a2df7225d","ios":"levelo://app?vid=7a86ccf0-8763-43b0-b3ca-0d5a2df7225d"},"vehicle_type_id":"4","last_reported":1728763735,"current_range_meters":25600,"station_id":"ce4bh412rcd13ifvqds0","pricing_plan_id":"cebpf4jnsgd1na2vs0mg"},{"bike_id":"d5c3a35d-709f-4c43-b5e7-7ce16ada8cc1","system_id":"levelo_inurba_marseille","lat":43.29846,"lon":5.36281,"is_reserved":false,"is_disabled":false,"rental_uris":{"android":"levelo://app?vid=d5c3a35d-709f-4c43-b5e7-7ce16ada8cc1","ios":"levelo://app?vid=d5c3a35d-709f-4c43-b5e7-7ce16ada8cc1"},"vehicle_type_id":"4","last_reported":1728763735,"current_range_meters":9200,"station_id":"ce4bgpp2rcd13ifvqc3g","pricing_plan_id":"cebpf4jnsgd1na2vs0mg"},