{"last_updated":1762956742,"ttl":60,"version":"2.2","data":{"bikes":[{"bike_id":"d7db12ce-11cc-4c98-8751-ac59baa5d7aa","system_id":"levelo_inurba_marseille","lat":43.337444,"lon":5.374475,"is_reserved":false,"is_disabled":false,"rental_uris":{"android":"levelo://app?vid=d7db12ce-11cc-4c98-8751-ac59baa5d7aa","ios":"levelo://app?vid=d7db12ce-11cc-4c98-8751-ac59baa5d7aa"},"vehicle_type_id":"4","last_reported":1762956742,"current_range_meters":0,"station_id":"","pricing_plan_id":"cebpf4jnsgd1na2vs0mg"},{"bike_id":"dda51fad-acd3-4973-ad11-a95f03457b54","system_id":"levelo_inurba_marseille","lat":43.30131,"lon":5.39821,"is_reserved":false,"is_disabled":false,"rental_uris":{"android":"levelo://app?vid=dda51fad-acd3-4973-ad11-a95f03457b54","ios":"levelo://app?vid=dda51fad-acd3-4973-ad11-a95f03457b54"},"vehicle_type_id":"4","last_reported":1762956742,"current_range_meters":2800,"station_id":"ce4bh0h2rcd13ifvqd40","pricing_plan_id":"cebpf4jnsgd1na2vs0mg"},{"bike_id":"8d9b83cf-f367-44ce-93c0-76ed33d181d2","system_id":"levelo_inurba_marseille","lat":43.30294,"lon":5.36928,"is_reserved":false,"is_disabled":true,"rental_uris":{"android":"levelo://app?vid=8d9b83cf-f367-44ce-93c0-76ed33d181d2","ios":"levelo://app?vid=8d9b83cf-f367-44ce-93c0-76ed33d181d2"},"vehicle_type_id":"4","last_reported":1762956742,"current_range_meters":2800,"station_id":"ce4bgqh2rcd13ifvqc5g","pricing_plan_id":"cebpf4jnsgd1na2vs0mg"},{"bike_id":"d54e1bcc-b477-40d6-b639-f6295eb19f8c","system_id":"levelo_inurba_marseille","lat":43.2986,"lon":5.39729,"is_reserved":false,"is_disabled":false,"rental_uris":{"android":"levelo://app?vid=d54e1bcc-b477-40d6-b639-f6295eb19f8c","ios":"levelo://app?vid=d54e1bcc-b477-40d6-b639-f6295eb19f8c"},"vehicle_type_id":"4","last_reported":1762956742,"current_range_meters":3200,"station_id":"ce4bh0h2rcd13ifvqd50","pricing_plan_id":"cebpf4jnsgd1na2vs0mg"},{"bike_id":"b2be4fa2-44ee-40dc-acc7-1755c74f1c5d","system_id":"levelo_inurba_marseille","lat":43.297454,"lon":5.411133,"is_reserved":false,"is_disabled":false,"rental_uris":{"android":"levelo://app?vid=b2be4fa2-44ee-40dc-acc7-1755c74f1c5d","ios":"levelo://app?vid=b2be4fa2-44ee-40dc-acc7-1755c74f1c5d"},"vehicle_type_id":"4","last_reported":1762956742,"current_range_meters":3200,"station_id":"","pricing_plan_id":"cebpf4jnsgd1na2vs0mg"},{"bike_id":"01fb9492-e2e8-4884-8a32-a18ccb361beb","system_id":"levelo_inurba_marseille","lat":43.27377,"lon":5.3625,"is_reserved":false,"is_disabled":false,"rental_uris":{"android":"levelo://app?vid=01fb9492-e2e8-4884-8a32-a18ccb361beb","ios":"levelo://app?vid=01fb9492-e2e8-4884-8a32-a18ccb361beb"},"vehicle_type_id":"4","last_reported":1762956742,"current_range_meters":3600,"station_id":"ce4bhbh2rcd13ifvqeo0","pricing_plan_id":"cebpf4jnsgd1na2vs0mg"},{"bike_id":"349b2ad9-adea-4dd9-9ac9-fffb121b5424","system_id":"levelo_inurba_marseille","lat":43.29892,"lon":5.37537,"is_reserved":false,"is_disabled":false,"rental_uris":{"android":"levelo://app?vid=349b2ad9-adea-4dd9-9ac9-fffb121b5424","ios":"levelo://app?vid=349b2ad9-adea-4dd9-9ac9-fffb121b5424"},"vehicle_type_id":"4","last_reported":1762956742,"current_range_meters":4000,"station_id":"","pricing_plan_id":"cebpf4jnsgd1na2vs0mg"},{"bike_id":"70331a06-cf1f-45eb-824c-493ce5a30b68","system_id":"levelo_inurba_marseille","lat":43.28927,"lon":5.38404,"is_reserved":false,"is_disabled":false,"rental_uris":{"android":"levelo://app?vid=70331a06-cf1f-45eb-824c-493ce5a30b68","ios":"levelo://app?vid=70331a06-cf1f-45eb-824c-493ce5a30b68"},"vehicle_type_id":"4","last_reported":1762956742,"current_range_meters":4000,"station_id":"ce4bh612rcd13ifvqe6g","pricing_plan_id":"cebpf4jnsgd1na2vs0mg"},{"bike_id":"70fe7071-7bff-4cbc-a9e6-2b1abf4d02d4","system_id":"levelo_inurba_marseille","lat":43.27059,"lon":5.38317,"is_reserved":false,"is_disabled":false,"rental_uris":{"android":"levelo://app?vid=70fe7071-7bff-4cbc-a9e6-2b1abf4d02d4","ios":"levelo://app?vid=70fe7071-7bff-4cbc-a9e6-2b1abf4d02d4"},"vehicle_type_id":"4","last_reported":1762956742,"current_range_meters":4000,"station_id":"st_d3n2fo6cfp8s73cte1j0","pricing_plan_id":"cebpf4jnsgd1na2vs0mg"},{"bike_id":"50c0d68d-30c4-4609-baf7-f21bf03a7683","system_id":"levelo_inurba_marseille","lat":43.274967,"lon":5.384491,"is_reserved":false,"is_disabled":false,"rental_uris":{"android":"levelo://app?vid=50c0d68d-30c4-4609-baf7-f21bf03a7683","ios":"levelo://app?vid=50c0d68d-30c4-4609-baf7-f21bf03a7683"},"vehicle_type_id":"4","last_reported":1762956742,"current_range_meters":4000,"station_id":"ce4bhh92rcd13ifvqfi0","pricing_plan_id":"cebpf4jnsgd1na2vs0mg"},{"bike_id":"62da84d0-7b33-4437-9377-83a424aee13a","system_id":"levelo_inurba_marseille","lat":43.308021,"lon":5.43532,"is_reserved":false,"is_disabled":false,"rental_uris":{"android":"levelo://app?vid=62da84d0-7b33-4437-9377-83a424aee13a","ios":"levelo://app?vid=62da84d0-7b33-4437-9377-83a424aee13a"},"vehicle_type_id":"4","last_reported":1762956742,"current_range_meters":4400,"station_id":"","pricing_plan_id":"cebpf4jnsgd1na2vs0mg"},{"bike_id":"767c5881-e6bd-43c6-9d36-bebaf00ca485","system_id":"levelo_inurba_marseille","lat":43.21194,"lon":5.350762,"is_reserved":false,"is_disabled":false,"rental_uris":{"android":"levelo://app?vid=767c5881-e6bd-43c6-9d36-bebaf00ca485","ios":"levelo://app?vid=767c5881-e6bd-43c6-9d36-bebaf00ca485"},"vehicle_type_id":"4","last_reported":1762956742,"current_range_meters":4800,"station_id":"","pricing_plan_id":"cebpf4jnsgd1na2vs0mg"},{"bike_id":"72244cd1-34fa-4e6d-95c7-1af25c4feb31","system_id":"levelo_inurba_marseille","lat":43.3053,"lon":5.36725,"is_reserved":false,"is_disabled":false,"rental_uris":{"android":"levelo://app?vid=72244cd1-34fa-4e6d-95c7-1af25c4feb31","ios":"levelo://app?vid=72244cd1-34fa-4e6d-95c7-1af25c4feb31"},"vehicle_type_id":"4","last_reported":1762956742,"current_range_meters":4800,"station_id":"ce4bgrp2rcd13ifvqc9g","pricing_plan_id":"cebpf4jnsgd1na2vs0mg"},{"bike_id":"2fd8be53-e476-4744-bd05-a38b1d37e6b5","system_id":"levelo_inurba_marseille","lat":43.28597,"lon":5.37081,"is_reserved":false,"is_disabled":false,"rental_uris":{"android":"levelo://app?vid=2fd8be53-e476-4744-bd05-a38b1d37e6b5","ios":"levelo://app?vid=2fd8be53-e476-4744-bd05-a38b1d37e6b5"},"vehicle_type_id":"4","last_reported":1762956742,"current_range_meters":4800,"station_id":"ce4bht12rcd13ifvqi60","pricing_plan_id":"cebpf4jnsgd1na2vs0mg"},{"bike_id":"c620c9fc-398f-4dca-8fdd-2b652311235d","system_id":"levelo_inurba_marseille","lat":43.21208,"lon":5.35085,"is_reserved":false,"is_disabled":true,"rental_uris":{"android":"levelo://app?vid=c620c9fc-398f-4dca-8fdd-2b652311235d","ios":"levelo://app?vid=c620c9fc-398f-4dca-8fdd-2b652311235d"},"vehicle_type_id":"4","last_reported":1762956742,"current_range_meters":4800,"station_id":"st_cvj6sg6p6f1abm77japg","pricing_plan_id":"cebpf4jnsgd1na2vs0mg"},{"bike_id":"571e56d3-1595-4c04-800b-172fe524d7f6","system_id":"levelo_inurba_marseille","lat":43.24998,"lon":5.38937,"is_reserved":false,"is_disabled":false,"rental_uris":{"android":"levelo://app?vid=571e56d3-1595-4c04-800b-172fe524d7f6","ios":"levelo://app?vid=571e56d3-1595-4c04-800b-172fe524d7f6"},"vehicle_type_id":"4","last_reported":1762956742,"current_range_meters":4800,"station_id":"ce4bhgp2rcd13ifvqfd0","pricing_plan_id":"cebpf4jnsgd1na2vs0mg"},{"bike_id":"5953695e-21b3-4843-84a2-02bd65e9ada9","system_id":"levelo_inurba_marseille","lat":43.29787,"lon":5.38097,"is_reserved":false,"is_disabled":false,"rental_uris":{"android":"levelo://app?vid=5953695e-21b3-4843-84a2-02bd65e9ada9","ios":"levelo://app?vid=5953695e-21b3-4843-84a2-02bd65e9ada9"},"vehicle_type_id":"4","last_reported":1762956742,"current_range_meters":4800,"station_id":"ce4bgip2rcd13ifvqbb0","pricing_plan_id":"cebpf4jnsgd1na2vs0mg"},{"bike_id":"375d4787-7c30-41c9-90f9-ec9402419854","system_id":"levelo_inurba_marseille","lat":43.2558,"lon":5.38239,"is_reserved":false,"is_disabled":false,"rental_uris":{"android":"levelo://app?vid=375d4787-7c30-41c9-90f9-ec9402419854","ios":"levelo://app?vid=375d4787-7c30-41c9-90f9-ec9402419854"},"vehicle_type_id":"4","last_reported":1762956742,"current_range_meters":4800,"station_id":"ce4bhih2rcd13ifvqfs0","pricing_plan_id":"cebpf4jnsgd1na2vs0mg"},{"bike_id":"0655422c-ed00-4a14-8564-fa2884d487df","system_id":"levelo_inurba_marseille","lat":43.27601,"lon":5.36126,"is_reserved":false,"is_disabled":false,"rental_uris":{"android":"levelo://app?vid=0655422c-ed00-4a14-8564-fa2884d487df","ios":"levelo://app?vid=0655422c-ed00-4a14-8564-fa2884d487df"},"vehicle_type_id":"4","last_reported":1762956742,"current_range_meters":4800,"station_id":"ce4bgj92rcd13ifvqbe0","pricing_plan_id":"cebpf4jnsgd1na2vs0mg"},{"bike_id":"85a2b4a5-dfa1-4bef-9549-9470149879c1","system_id":"levelo_inurba_marseille","lat":43.28698,"lon":5.39982,"is_reserved":false,"is_disabled":false,"rental_uris":{"android":"levelo://app?vid=85a2b4a5-dfa1-4bef-9549-9470149879c1","ios":"levelo://app?vid=85a2b4a5-dfa1-4bef-9549-9470149879c1"},"vehicle_type_id":"4","last_reported":1762956742,"current_range_meters":4800,"station_id":"ce4bho92rcd13ifvqh3g","pricing_plan_id":"cebpf4jnsgd1na2vs0mg"},{"bike_id":"16352e7f-c034-4ef1-8a6e-b54abc767aa3","system_id":"levelo_inurba_marseille","lat":43.312293,"lon":5.381027,"is_reserved":false,"is_disabled":false,"rental_uris":{"android":"levelo://app?vid=16352e7f-c034-4ef1-8a6e-b54abc767aa3","ios":"levelo://app?vid=16352e7f-c034-4ef1-8a6e-b54abc767aa3"},"vehicle_type_id":"4","last_reported":1762956742,"current_range_meters":5600,"station_id":"","pricing_plan_id":"cebpf4jnsgd1na2vs0mg"},{"bike_id":"d7026fc3-a346-49bd-8209-179291ba2736","system_id":"levelo_inurba_marseille","lat":43.29878,"lon":5.38417,"is_reserved":false,"is_disabled":false,"rental_uris":{"android":"levelo://app?vid=d7026fc3-a346-49bd-8209-179291ba2736","ios":"levelo://app?vid=d7026fc3-a346-49bd-8209-179291ba2736"},"vehicle_type_id":"4","last_reported":1762956742,"current_range_meters":5600,"station_id":"","pricing_plan_id":"cebpf4jnsgd1na2vs0mg"},{"bike_id":"f576a472-224e-40fe-a74a-63b1575dd917","system_id":"levelo_inurba_marseille","lat":43.24406,"lon":5.37053,"is_reserved":false,"is_disabled":false,"rental_uris":{"android":"levelo://app?vid=f576a472-224e-40fe-a74a-63b1575dd917","ios":"levelo://app?vid=f576a472-224e-40fe-a74a-63b1575dd917"},"vehicle_type_id":"4","last_reported":1762956742,"current_range_meters":6000,"station_id":"ce4bhhh2rcd13ifvqfk0","pricing_plan_id":"cebpf4jnsgd1na2vs0mg"},{"bike_id":"6938319e-d0ab-4226-bc82-ddb9bbbec775","system_id":"levelo_inurba_marseille","lat":43.28469,"lon":5.35894,"is_reserved":false,"is_disabled":false,"rental_uris":{"android":"levelo://app?vid=6938319e-d0ab-4226-bc82-ddb9bbbec775","ios":"levelo://app?vid=6938319e-d0ab-4226-bc82-ddb9bbbec775"},"vehicle_type_id":"4","last_reported":1762956742,"current_range_meters":6000,"station_id":"ce4bhah2rcd13ifvqei0","pricing_plan_id":"cebpf4jnsgd1na2vs0mg"},{"bike_id":"f6d319fd-d8a0-4e79-87c6-a91a0cdf60cf","system_id":"levelo_inurba_marseille","lat":43.2937,"lon":5.3784,"is_reserved":false,"is_disabled":false,"rental_uris":{"android":"levelo://app?vid=f6d319fd-d8a0-4e79-87c6-a91a0cdf60cf","ios":"levelo://app?vid=f6d319fd-d8a0-4e79-87c6-a91a0cdf60cf"},"vehicle_type_id":"4","last_reported":1762956742,"current_range_meters":6400,"station_id":"ce4bgjh2rcd13ifvqbf0","pricing_plan_id":"cebpf4jnsgd1na2vs0mg"},{"bike_id":"3a2c2c98-461e-4909-851a-ece390442693","system_id":"levelo_inurba_marseille","lat":43.27325,"lon":5.39089,"is_reserved":false,"is_disabled":false,"rental_uris":{"android":"levelo://app?vid=3a2c2c98-461e-4909-851a-ece390442693","ios":"levelo://app?vid=3a2c2c98-461e-4909-851a-ece390442693"},"vehicle_type_id":"4","last_reported":1762956742,"current_range_meters":6400,"station_id":"ce4bhgp2rcd13ifvqfe0","pricing_plan_id":"cebpf4jnsgd1na2vs0mg"},{"bike_id":"eaab881b-5831-469a-a634-656fd8d070aa","system_id":"levelo_inurba_marseille","lat":43.31133,"lon":5.37778,"is_reserved":false,"is_disabled":false,"rental_uris":{"android":"levelo://app?vid=eaab881b-5831-469a-a634-656fd8d070aa","ios":"levelo://app?vid=eaab881b-5831-469a-a634-656fd8d070aa"},"vehicle_type_id":"4","last_reported":1762956742,"current_range_meters":6400,"station_id":"ce4bgt92rcd13ifvqcg0","pricing_plan_id":"cebpf4jnsgd1na2vs0mg"},{"bike_id":"4c2f3f45-534a-4472-b762-710880ee11ac","system_id":"levelo_inurba_marseille","lat":43.299721,"lon":5.366081,"is_reserved":false,"is_disabled":false,"rental_uris":{"android":"levelo://app?vid=4c2f3f45-534a-4472-b762-710880ee11ac","ios":"levelo://app?vid=4c2f3f45-534a-4472-b762-710880ee11ac"},"vehicle_type_id":"4","last_reported":1762956742,"current_range_meters":6400,"station_id":"ce4bgm92rcd13ifvqbr0","pricing_plan_id":"cebpf4jnsgd1na2vs0mg"},{"bike_id":"e0467342-2ee8-4c36-aeb9-27d25d94ead5","system_id":"levelo_inurba_marseille","lat":43.28124,"lon":5.42681,"is_reserved":false,"is_disabled":true,"rental_uris":{"android":"levelo://app?vid=e0467342-2ee8-4c36-aeb9-27d25d94ead5","ios":"levelo://app?vid=e0467342-2ee8-4c36-aeb9-27d25d94ead5"},"vehicle_type_id":"4","last_reported":1762956742,"current_range_meters":6400,"station_id":"ce4bhnh2rcd13ifvqgug","pricing_plan_id":"cebpf4jnsgd1na2vs0mg"},{"bike_id":"6a5e76f6-56de-4a62-8f3b-a05f01f56411","system_id":"levelo_inurba_marseille","lat":43.211975,"lon":5.350733,"is_reserved":false,"is_disabled":false,"rental_uris":{"android":"levelo://app?vid=6a5e76f6-56de-4a62-8f3b-a05f01f56411","ios":"levelo://app?vid=6a5e76f6-56de-4a62-8f3b-a05f01f56411"},"vehicle_type_id":"4","last_reported":1762956742,"current_range_meters":6400,"station_id":"","pricing_plan_id":"cebpf4jnsgd1na2vs0mg"},{"bike_id":"21f2edd7-9ee8-4ea5-b358-b073654ccd02","system_id":"levelo_inurba_marseille","lat":43.30904,"lon":5.36852,"is_reserved":false,"is_disabled":false,"rental_uris":{"android":"levelo://app?vid=21f2edd7-9ee8-4ea5-b358-b073654ccd02","ios":"levelo://app?vid=21f2edd7-9ee8-4ea5-b358-b073654ccd02"},"vehicle_type_id":"4","last_reported":1762956742,"current_range_meters":6400,"station_id":"ce4bgn92rcd13ifvqbvg","pricing_plan_id":"cebpf4jnsgd1na2vs0mg"},{"bike_id":"e50f9b25-d03d-4ce0-9b95-8a7f0f02c56f","system_id":"levelo_inurba_marseille","lat":43.26218,"lon":5.37878,"is_reserved":false,"is_disabled":false,"rental_uris":{"android":"levelo://app?vid=e50f9b25-d03d-4ce0-9b95-8a7f0f02c56f","ios":"levelo://app?vid=e50f9b25-d03d-4ce0-9b95-8a7f0f02c56f"},"vehicle_type_id":"4","last_reported":1762956742,"current_range_meters":6800,"station_id":"ce4bhjp2rcd13ifvqg90","pricing_plan_id":"cebpf4jnsgd1na2vs0mg"},{"bike_id":"f210c5d9-e6c9-4a47-a92c-7d32d99c058f","system_id":"levelo_inurba_marseille","lat":43.303512,"lon":5.39697,"is_reserved":false,"is_disabled":false,"rental_uris":{"android":"levelo://app?vid=f210c5d9-e6c9-4a47-a92c-7d32d99c058f","ios":"levelo://app?vid=f210c5d9-e6c9-4a47-a92c-7d32d99c058f"},"vehicle_type_id":"4","last_reported":1762956742,"current_range_meters":6800,"station_id":"","pricing_plan_id":"cebpf4jnsgd1na2vs0mg"},{"bike_id":"9aab732d-99d8-458a-aff5-1ef833353481","system_id":"levelo_inurba_marseille","lat":43.298357,"lon":5.377727,"is_reserved":false,"is_disabled":false,"rental_uris":{"android":"levelo://app?vid=9aab732d-99d8-458a-aff5-1ef833353481","ios":"levelo://app?vid=9aab732d-99d8-458a-aff5-1ef833353481"},"vehicle_type_id":"4","last_reported":1762956742,"current_range_meters":6800,"station_id":"","pricing_plan_id":"cebpf4jnsgd1na2vs0mg"},{"bike_id":"41d6d5fe-80cb-45c2-a7e2-350c26cae9f6","system_id":"levelo_inurba_marseille","lat":43.27367,"lon":5.36258,"is_reserved":false,"is_disabled":false,"rental_uris":{"android":"levelo://app?vid=41d6d5fe-80cb-45c2-a7e2-350c26cae9f6","ios":"levelo://app?vid=41d6d5fe-80cb-45c2-a7e2-350c26cae9f6"},"vehicle_type_id":"4","last_reported":1762956742,"current_range_meters":6800,"station_id":"ce4bhbh2rcd13ifvqeo0","pricing_plan_id":"cebpf4jnsgd1na2vs0mg"},{"bike_id":"861892f2-0af0-40fe-b698-191d9906341b","system_id":"levelo_inurba_marseille","lat":43.30871,"lon":5.37216,"is_reserved":false,"is_disabled":true,"rental_uris":{"android":"levelo://app?vid=861892f2-0af0-40fe-b698-191d9906341b","ios":"levelo://app?vid=861892f2-0af0-40fe-b698-191d9906341b"},"vehicle_type_id":"4","last_reported":1762956742,"current_range_meters":6800,"station_id":"ce4bguh2rcd13ifvqckg","pricing_plan_id":"cebpf4jnsgd1na2vs0mg"},{"bike_id":"699d08a4-7aed-4e0b-87e7-d381084455c2","system_id":"levelo_inurba_marseille","lat":43.30896,"lon":5.3719,"is_reserved":false,"is_disabled":false,"rental_uris":{"android":"levelo://app?vid=699d08a4-7aed-4e0b-87e7-d381084455c2","ios":"levelo://app?vid=699d08a4-7aed-4e0b-87e7-d381084455c2"},"vehicle_type_id":"4","last_reported":1762956742,"current_range_meters":6800,"station_id":"ce4bguh2rcd13ifvqckg","pricing_plan_id":"cebpf4jnsgd1na2vs0mg"},{"bike_id":"1bef32cb-7d1e-4303-a020-1532c28fd3d9","system_id":"levelo_inurba_marseille","lat":43.2954,"lon":5.42265,"is_reserved":false,"is_disabled":false,"rental_uris":{"android":"levelo://app?vid=1bef32cb-7d1e-4303-a020-1532c28fd3d9","ios":"levelo://app?vid=1bef32cb-7d1e-4303-a020-1532c28fd3d9"},"vehicle_type_id":"4","last_reported":1762956742,"current_range_meters":6800,"station_id":"ce4bhph2rcd13ifvqhdg","pricing_plan_id":"cebpf4jnsgd1na2vs0mg"},{"bike_id":"439fa26c-db68-4c12-9c91-564c5871e978","system_id":"levelo_inurba_marseille","lat":43.27366,"lon":5.3902,"is_reserved":false,"is_disabled":false,"rental_uris":{"android":"levelo://app?vid=439fa26c-db68-4c12-9c91-564c5871e978","ios":"levelo://app?vid=439fa26c-db68-4c12-9c91-564c5871e978"},"vehicle_type_id":"4","last_reported":1762956742,"current_range_meters":6800,"station_id":"","pricing_plan_id":"cebpf4jnsgd1na2vs0mg"},{"bike_id":"62a14efb-5f7a-4e0d-bbfa-d4a60d07f475","system_id":"levelo_inurba_marseille","lat":43.29775,"lon":5.37271,"is_reserved":false,"is_disabled":false,"rental_uris":{"android":"levelo://app?vid=62a14efb-5f7a-4e0d-bbfa-d4a60d07f475","ios":"levelo://app?vid=62a14efb-5f7a-4e0d-bbfa-d4a60d07f475"},"vehicle_type_id":"4","last_reported":1762956742,"current_range_meters":7200,"station_id":"","pricing_plan_id":"cebpf4jnsgd1na2vs0mg"},{"bike_id":"e0ed7929-20a1-4d5c-ab67-3994c5a84870","system_id":"levelo_inurba_marseille","lat":43.252316,"lon":5.406327,"is_reserved":false,"is_disabled":false,"rental_uris":{"android":"levelo://app?vid=e0ed7929-20a1-4d5c-ab67-3994c5a84870","ios":"levelo://app?vid=e0ed7929-20a1-4d5c-ab67-3994c5a84870"},"vehicle_type_id":"4","last_reported":1762956742,"current_range_meters":7200,"station_id":"","pricing_plan_id":"cebpf4jnsgd1na2vs0mg"},{"bike_id":"5af83a53-3440-42b1-8d5b-93d9bcd90018","system_id":"levelo_inurba_marseille","lat":43.29531,"lon":5.38547,"is_reserved":false,"is_disabled":false,"rental_uris":{"android":"levelo://app?vid=5af83a53-3440-42b1-8d5b-93d9bcd90018","ios":"levelo://app?vid=5af83a53-3440-42b1-8d5b-93d9bcd90018"},"vehicle_type_id":"4","last_reported":1762956742,"current_range_meters":7200,"station_id":"ce4bgih2rcd13ifvqba0","pricing_plan_id":"cebpf4jnsgd1na2vs0mg"},{"bike_id":"b1912dc6-562a-409a-b346-1626d61f3a69","system_id":"levelo_inurba_marseille","lat":43.25579,"lon":5.38251,"is_reserved":false,"is_disabled":true,"rental_uris":{"android":"levelo://app?vid=b1912dc6-562a-409a-b346-1626d61f3a69","ios":"levelo://app?vid=b1912dc6-562a-409a-b346-1626d61f3a69"},"vehicle_type_id":"4","last_reported":1762956742,"current_range_meters":7200,"station_id":"ce4bhih2rcd13ifvqfs0","pricing_plan_id":"cebpf4jnsgd1na2vs0mg"},{"bike_id":"710d8b56-4a94-47be-be3f-72aae1e2053a","system_id":"levelo_inurba_marseille","lat":43.27957,"lon":5.38718,"is_reserved":false,"is_disabled":false,"rental_uris":{"android":"levelo://app?vid=710d8b56-4a94-47be-be3f-72aae1e2053a","ios":"levelo://app?vid=710d8b56-4a94-47be-be3f-72aae1e2053a"},"vehicle_type_id":"4","last_reported":1762956742,"current_range_meters":8000,"station_id":"ce4bhg12rcd13ifvqf80","pricing_plan_id":"cebpf4jnsgd1na2vs0mg"},{"bike_id":"020a5504-0ac7-4772-82ee-29ce00917790","system_id":"levelo_inurba_marseille","lat":43.24984,"lon":5.38948,"is_reserved":false,"is_disabled":false,"rental_uris":{"android":"levelo://app?vid=020a5504-0ac7-4772-82ee-29ce00917790","ios":"levelo://app?vid=020a5504-0ac7-4772-82ee-29ce00917790"},"vehicle_type_id":"4","last_reported":1762956742,"current_range_meters":8000,"station_id":"ce4bhgp2rcd13ifvqfd0","pricing_plan_id":"cebpf4jnsgd1na2vs0mg"},{"bike_id":"5079af5d-8f39-4459-bd43-91e770c5d45c","system_id":"levelo_inurba_marseille","lat":43.28465,"lon":5.35888,"is_reserved":false,"is_disabled":false,"rental_uris":{"android":"levelo://app?vid=5079af5d-8f39-4459-bd43-91e770c5d45c","ios":"levelo://app?vid=5079af5d-8f39-4459-bd43-91e770c5d45c"},"vehicle_type_id":"4","last_reported":1762956742,"current_range_meters":8000,"station_id":"ce4bhah2rcd13ifvqei0","pricing_plan_id":"cebpf4jnsgd1na2vs0mg"},{"bike_id":"af3a26a4-727e-4ca7-88f1-e7d99feef1d1","system_id":"levelo_inurba_marseille","lat":43.29087,"lon":5.38126,"is_reserved":false,"is_disabled":false,"rental_uris":{"android":"levelo://app?vid=af3a26a4-727e-4ca7-88f1-e7d99feef1d1","ios":"levelo://app?vid=af3a26a4-727e-4ca7-88f1-e7d99feef1d1"},"vehicle_type_id":"4","last_reported":1762956742,"current_range_meters":8400,"station_id":"ce4bh512rcd13ifvqe2g","pricing_plan_id":"cebpf4jnsgd1na2vs0mg"},{"bike_id":"b119a7cc-36bf-4020-9e18-2db8659dd504","system_id":"levelo_inurba_marseille","lat":43.29621,"lon":5.37718,"is_reserved":false,"is_disabled":false,"rental_uris":{"android":"levelo://app?vid=b119a7cc-36bf-4020-9e18-2db8659dd504","ios":"levelo://app?vid=b119a7cc-36bf-4020-9e18-2db8659dd504"},"vehicle_type_id":"4","last_reported":1762956742,"current_range_meters":8400,"station_id":"","pricing_plan_id":"cebpf4jnsgd1na2vs0mg"},{"bike_id":"a2a87607-16d9-4b95-8647-3f4522acb4ec","system_id":"levelo_inurba_marseille","lat":43.29624,"lon":5.4059,"is_reserved":false,"is_disabled":false,"rental_uris":{"android":"levelo://app?vid=a2a87607-16d9-4b95-8647-3f4522acb4ec","ios":"levelo://app?vid=a2a87607-16d9-4b95-8647-3f4522acb4ec"},"vehicle_type_id":"4","last_reported":1762956742,"current_range_meters":8400,"station_id":"ce4bh0h2rcd13ifvqd60","pricing_plan_id":"cebpf4jnsgd1na2vs0mg"},{"bike_id":"c80c1c01-368c-46ce-95fa-baee6c258882","system_id":"levelo_inurba_marseille","lat":43.29894,"lon":5.43654,"is_reserved":false,"is_disabled":false,"rental_uris":{"android":"levelo://app?vid=c80c1c01-368c-46ce-95fa-baee6c258882","ios":"levelo://app?vid=c80c1c01-368c-46ce-95fa-baee6c258882"},"vehicle_type_id":"4","last_reported":1762956742,"current_range_meters":8400,"station_id":"ce4bhpp2rcd13ifvqhfg","pricing_plan_id":"cebpf4jnsgd1na2vs0mg"},{"bike_id":"bb673b1f-1f54-493f-92ad-48c99ddd3b6a","system_id":"levelo_inurba_marseille","lat":43.21201,"lon":5.35073,"is_reserved":false,"is_disabled":false,"rental_uris":{"android":"levelo://app?vid=bb673b1f-1f54-493f-92ad-48c99ddd3b6a","ios":"levelo://app?vid=bb673b1f-1f54-493f-92ad-48c99ddd3b6a"},"vehicle_type_id":"4","last_reported":1762956742,"current_range_meters":8400,"station_id":"","pricing_plan_id":"cebpf4jnsgd1na2vs0mg"},{"bike_id":"afbc1d64-1ce0-41a9-b4fd-3942900b6e13","system_id":"levelo_inurba_marseille","lat":43.27321,"lon":5.39078,"is_reserved":false,"is_disabled":false,"rental_uris":{"android":"levelo://app?vid=afbc1d64-1ce0-41a9-b4fd-3942900b6e13","ios":"levelo://app?vid=afbc1d64-1ce0-41a9-b4fd-3942900b6e13"},"vehicle_type_id":"4","last_reported":1762956742,"current_range_meters":8800,"station_id":"ce4bhgp2rcd13ifvqfe0","pricing_plan_id":"cebpf4jnsgd1na2vs0mg"},{"bike_id":"7e6ab43e-3527-4892-a681-7b417ef922f3","system_id":"levelo_inurba_marseille","lat":43.21752,"lon":5.3461,"is_reserved":false,"is_disabled":false,"rental_uris":{"android":"levelo://app?vid=7e6ab43e-3527-4892-a681-7b417ef922f3","ios":"levelo://app?vid=7e6ab43e-3527-4892-a681-7b417ef922f3"},"vehicle_type_id":"4","last_reported":1762956742,"current_range_meters":8800,"station_id":"st_cvj6r9ubvosntc0bgbag","pricing_plan_id":"cebpf4jnsgd1na2vs0mg"},{"bike_id":"1cdf63c3-8c53-47ff-93d6-5a627b43d332","system_id":"levelo_inurba_marseille","lat":43.28474,"lon":5.38422,"is_reserved":false,"is_disabled":false,"rental_uris":{"android":"levelo://app?vid=1cdf63c3-8c53-47ff-93d6-5a627b43d332","ios":"levelo://app?vid=1cdf63c3-8c53-47ff-93d6-5a627b43d332"},"vehicle_type_id":"4","last_reported":1762956742,"current_range_meters":8800,"station_id":"ce4bh512rcd13ifvqe3g","pricing_plan_id":"cebpf4jnsgd1na2vs0mg"},{"bike_id":"07cdd6c0-c821-469a-9a6b-e067fa27bb41","system_id":"levelo_inurba_marseille","lat":43.211951,"lon":5.350744,"is_reserved":false,"is_disabled":true,"rental_uris":{"android":"levelo://app?vid=07cdd6c0-c821-469a-9a6b-e067fa27bb41","ios":"levelo://app?vid=07cdd6c0-c821-469a-9a6b-e067fa27bb41"},"vehicle_type_id":"4","last_reported":1762956742,"current_range_meters":8800,"station_id":"","pricing_plan_id":"cebpf4jnsgd1na2vs0mg"},{"bike_id":"70bffdbe-3b81-49b7-8846-df5bf256346b","system_id":"levelo_inurba_marseille","lat":43.262105,"lon":5.379328,"is_reserved":false,"is_disabled":false,"rental_uris":{"android":"levelo://app?vid=70bffdbe-3b81-49b7-8846-df5bf256346b","ios":"levelo://app?vid=70bffdbe-3b81-49b7-8846-df5bf256346b"},"vehicle_type_id":"4","last_reported":1762956742,"current_range_meters":8800,"station_id":"","pricing_plan_id":"cebpf4jnsgd1na2vs0mg"},{"bike_id":"5875ac89-919f-46f9-9f3c-297df49d6285","system_id":"levelo_inurba_marseille","lat":43.282649,"lon":5.350651,"is_reserved":false,"is_disabled":false,"rental_uris":{"android":"levelo://app?vid=5875ac89-919f-46f9-9f3c-297df49d6285","ios":"levelo://app?vid=5875ac89-919f-46f9-9f3c-297df49d6285"},"vehicle_type_id":"4","last_reported":1762956742,"current_range_meters":9200,"station_id":"ce4bhbp2rcd13ifvqerg","pricing_plan_id":"cebpf4jnsgd1na2vs0mg"},{"bike_id":"84aade2c-4b39-4bce-814f-cfa3d6ed46f7","system_id":"levelo_inurba_marseille","lat":43.28474,"lon":5.48383,"is_reserved":false,"is_disabled":false,"rental_uris":{"android":"levelo://app?vid=84aade2c-4b39-4bce-814f-cfa3d6ed46f7","ios":"levelo://app?vid=84aade2c-4b39-4bce-814f-cfa3d6ed46f7"},"vehicle_type_id":"4","last_reported":1762956742,"current_range_meters":9200,"station_id":"st_d3svhcjqgbts73a3dn0g","pricing_plan_id":"cebpf4jnsgd1na2vs0mg"},{"bike_id":"fa5b70d2-c912-4f4e-8598-0515d0cf39fd","system_id":"levelo_inurba_marseille","lat":43.3123,"lon":5.3685,"is_reserved":false,"is_disabled":false,"rental_uris":{"android":"levelo://app?vid=fa5b70d2-c912-4f4e-8598-0515d0cf39fd","ios":"levelo://app?vid=fa5b70d2-c912-4f4e-8598-0515d0cf39fd"},"vehicle_type_id":"4","last_reported":1762956742,"current_range_meters":9200,"station_id":"ce4bgl92rcd13ifvqbq0","pricing_plan_id":"cebpf4jnsgd1na2vs0mg"},{"bike_id":"9601fc3b-e1d9-41ee-85f1-70a2daf9b471","system_id":"levelo_inurba_marseille","lat":43.29555,"lon":5.42292,"is_reserved":false,"is_disabled":false,"rental_uris":{"android":"levelo://app?vid=9601fc3b-e1d9-41ee-85f1-70a2daf9b471","ios":"levelo://app?vid=9601fc3b-e1d9-41ee-85f1-70a2daf9b471"},"vehicle_type_id":"4","last_reported":1762956742,"current_range_meters":9200,"station_id":"ce4bhph2rcd13ifvqhdg","pricing_plan_id":"cebpf4jnsgd1na2vs0mg"},{"bike_id":"3d867c63-f86c-42b5-b7a0-686ce137de9a","system_id":"levelo_inurba_marseille","lat":43.29841,"lon":5.36271,"is_reserved":false,"is_disabled":false,"rental_uris":{"android":"levelo://app?vid=3d867c63-f86c-42b5-b7a0-686ce137de9a","ios":"levelo://app?vid=3d867c63-f86c-42b5-b7a0-686ce137de9a"},"vehicle_type_id":"4","last_reported":1762956742,"current_range_meters":9200,"station_id":"ce4bgpp2rcd13ifvqc3g","pricing_plan_id":"cebpf4jnsgd1na2vs0mg"},{"bike_id":"f2f1e21f-7a3e-4ef4-b353-395fba2d2f43","system_id":"levelo_inurba_marseille","lat":43.211868,"lon":5.350808,"is_reserved":false,"is_disabled":false,"rental_uris":{"android":"levelo://app?vid=f2f1e21f-7a3e-4ef4-b353-395fba2d2f43","ios":"levelo://app?vid=f2f1e21f-7a3e-4ef4-b353-395fba2d2f43"},"vehicle_type_id":"4","last_reported":1762956742,"current_range_meters":9200,"station_id":"","pricing_plan_id":"cebpf4jnsgd1na2vs0mg"},{"bike_id":"f6134463-5782-4e59-875e-fa5ebcfbb229","system_id":"levelo_inurba_marseille","lat":43.28475,"lon":5.38423,"is_reserved":false,"is_disabled":true,"rental_uris":{"android":"levelo://app?vid=f6134463-5782-4e59-875e-fa5ebcfbb229","ios":"levelo://app?vid=f6134463-5782-4e59-875e-fa5ebcfbb229"},"vehicle_type_id":"4","last_reported":1762956742,"current_range_meters":9600,"station_id":"ce4bh512rcd13ifvqe3g","pricing_plan_id":"cebpf4jnsgd1na2vs0mg"},{"bike_id":"79d44819-85f1-4b1c-a1d6-e9540f2b8d23","system_id":"levelo_inurba_marseille","lat":43.27013,"lon":5.4034,"is_reserved":false,"is_disabled":false,"rental_uris":{"android":"levelo://app?vid=79d44819-85f1-4b1c-a1d6-e9540f2b8d23","ios":"levelo://app?vid=79d44819-85f1-4b1c-a1d6-e9540f2b8d23"},"vehicle_type_id":"4","last_reported":1762956742,"current_range_meters":9600,"station_id":"ce4bhk92rcd13ifvqgc0","pricing_plan_id":"cebpf4jnsgd1na2vs0mg"},{"bike_id":"393ebba5-f26f-4f5b-ba37-0d7b5bd9041d","system_id":"levelo_inurba_marseille","lat":43.21738,"lon":5.34629,"is_reserved":false,"is_disabled":false,"rental_uris":{"android":"levelo://app?vid=393ebba5-f26f-4f5b-ba37-0d7b5bd9041d","ios":"levelo://app?vid=393ebba5-f26f-4f5b-ba37-0d7b5bd9041d"},"vehicle_type_id":"4","last_reported":1762956742,"current_range_meters":9600,"station_id":"st_cvj6r9ubvosntc0bgbag","pricing_plan_id":"cebpf4jnsgd1na2vs0mg"},{"bike_id":"b98a0d3d-a965-4a48-adfb-c3f30c0e37bf","system_id":"levelo_inurba_marseille","lat":43.32484,"lon":5.36568,"is_reserved":false,"is_disabled":false,"rental_uris":{"android":"levelo://app?vid=b98a0d3d-a965-4a48-adfb-c3f30c0e37bf","ios":"levelo://app?vid=b98a0d3d-a965-4a48-adfb-c3f30c0e37bf"},"vehicle_type_id":"4","last_reported":1762956742,"current_range_meters":10000,"station_id":"ce4bhs12rcd13ifvqhvg","pricing_plan_id":"cebpf4jnsgd1na2vs0mg"},{"bike_id":"589be681-6f6f-46cf-bc7b-069ad4f326eb","system_id":"levelo_inurba_marseille","lat":43.32477,"lon":5.36573,"is_reserved":false,"is_disabled":false,"rental_uris":{"android":"levelo://app?vid=589be681-6f6f-46cf-bc7b-069ad4f326eb","ios":"levelo://app?vid=589be681-6f6f-46cf-bc7b-069ad4f326eb"},"vehicle_type_id":"4","last_reported":1762956742,"current_range_meters":10000,"station_id":"ce4bhs12rcd13ifvqhvg","pricing_plan_id":"cebpf4jnsgd1na2vs0mg"},{"bike_id":"c47023ab-2905-4a00-af93-ffd0b768cdc9","system_id":"levelo_inurba_marseille","lat":43.288706,"lon":5.425161,"is_reserved":false,"is_disabled":false,"rental_uris":{"android":"levelo://app?vid=c47023ab-2905-4a00-af93-ffd0b768cdc9","ios":"levelo://app?vid=c47023ab-2905-4a00-af93-ffd0b768cdc9"},"vehicle_type_id":"4","last_reported":1762956742,"current_range_meters":10000,"station_id":"st_d3b462108ojc7389ooeg","pricing_plan_id":"cebpf4jnsgd1na2vs0mg"},{"bike_id":"89f0910d-8724-46e5-8620-6ac60363bb91","system_id":"levelo_inurba_marseille","lat":43.315015,"lon":5.373113,"is_reserved":false,"is_disabled":false,"rental_uris":{"android":"levelo://app?vid=89f0910d-8724-46e5-8620-6ac60363bb91","ios":"levelo://app?vid=89f0910d-8724-46e5-8620-6ac60363bb91"},"vehicle_type_id":"4","last_reported":1762956742,"current_range_meters":10000,"station_id":"ce4bgt12rcd13ifvqcd0","pricing_plan_id":"cebpf4jnsgd1na2vs0mg"},{"bike_id":"35879002-14a8-49e2-b035-6faedfd1cfe6","system_id":"levelo_inurba_marseille","lat":43.246322,"lon":5.43143,"is_reserved":false,"is_disabled":false,"rental_uris":{"android":"levelo://app?vid=35879002-14a8-49e2-b035-6faedfd1cfe6","ios":"levelo://app?vid=35879002-14a8-49e2-b035-6faedfd1cfe6"},"vehicle_type_id":"4","last_reported":1762956742,"current_range_meters":10000,"station_id":"st_d2m6c4gdas8pm72e190g","pricing_plan_id":"cebpf4jnsgd1na2vs0mg"},{"bike_id":"5fc13484-20ac-45da-aadb-73a428aace65","system_id":"levelo_inurba_marseille","lat":43.29635,"lon":5.37705,"is_reserved":false,"is_disabled":false,"rental_uris":{"android":"levelo://app?vid=5fc13484-20ac-45da-aadb-73a428aace65","ios":"levelo://app?vid=5fc13484-20ac-45da-aadb-73a428aace65"},"vehicle_type_id":"4","last_reported":1762956742,"current_range_meters":10000,"station_id":"ce4bgi92rcd13ifvqb90","pricing_plan_id":"cebpf4jnsgd1na2vs0mg"},{"bike_id":"81d2a7ad-c42e-463d-8aa0-8a891e3a222c","system_id":"levelo_inurba_marseille","lat":43.27933,"lon":5.39591,"is_reserved":false,"is_disabled":false,"rental_uris":{"android":"levelo://app?vid=81d2a7ad-c42e-463d-8aa0-8a891e3a222c","ios":"levelo://app?vid=81d2a7ad-c42e-463d-8aa0-8a891e3a222c"},"vehicle_type_id":"4","last_reported":1762956742,"current_range_meters":10000,"station_id":"ce4bhf92rcd13ifvqf40","pricing_plan_id":"cebpf4jnsgd1na2vs0mg"},{"bike_id":"18afe671-ebde-4e8b-b73c-4d7f687fa6e5","system_id":"levelo_inurba_marseille","lat":43.301403,"lon":5.374257,"is_reserved":false,"is_disabled":false,"rental_uris":{"android":"levelo://app?vid=18afe671-ebde-4e8b-b73c-4d7f687fa6e5","ios":"levelo://app?vid=18afe671-ebde-4e8b-b73c-4d7f687fa6e5"},"vehicle_type_id":"4","last_reported":1762956742,"current_range_meters":10800,"station_id":"ce4bgs92rcd13ifvqcc0","pricing_plan_id":"cebpf4jnsgd1na2vs0mg"},{"bike_id":"268c0f06-a6a6-4316-a447-fa9a5c248bab","system_id":"levelo_inurba_marseille","lat":43.29923,"lon":5.36553,"is_reserved":false,"is_disabled":false,"rental_uris":{"android":"levelo://app?vid=268c0f06-a6a6-4316-a447-fa9a5c248bab","ios":"levelo://app?vid=268c0f06-a6a6-4316-a447-fa9a5c248bab"},"vehicle_type_id":"4","last_reported":1762956742,"current_range_meters":10800,"station_id":"ce4bgm92rcd13ifvqbr0","pricing_plan_id":"cebpf4jnsgd1na2vs0mg"},{"bike_id":"56eef425-c8cb-4530-9d40-eed0def84266","system_id":"levelo_inurba_marseille","lat":43.27617,"lon":5.36106,"is_reserved":false,"is_disabled":false,"rental_uris":{"android":"levelo://app?vid=56eef425-c8cb-4530-9d40-eed0def84266","ios":"levelo://app?vid=56eef425-c8cb-4530-9d40-eed0def84266"},"vehicle_type_id":"4","last_reported":1762956742,"current_range_meters":10800,"station_id":"ce4bgj92rcd13ifvqbe0","pricing_plan_id":"cebpf4jnsgd1na2vs0mg"},{"bike_id":"8d187270-fcc8-4dbf-a507-f413d224dc25","system_id":"levelo_inurba_marseille","lat":43.2781,"lon":5.40714,"is_reserved":false,"is_disabled":false,"rental_uris":{"android":"levelo://app?vid=8d187270-fcc8-4dbf-a507-f413d224dc25","ios":"levelo://app?vid=8d187270-fcc8-4dbf-a507-f413d224dc25"},"vehicle_type_id":"4","last_reported":1762956742,"current_range_meters":10800,"station_id":"ce4bhnh2rcd13ifvqgtg","pricing_plan_id":"cebpf4jnsgd1na2vs0mg"},{"bike_id":"50b661f0-112f-4780-95bd-167a8c61a238","system_id":"levelo_inurba_marseille","lat":43.21225,"lon":5.35037,"is_reserved":false,"is_disabled":true,"rental_uris":{"android":"levelo://app?vid=50b661f0-112f-4780-95bd-167a8c61a238","ios":"levelo://app?vid=50b661f0-112f-4780-95bd-167a8c61a238"},"vehicle_type_id":"4","last_reported":1762956742,"current_range_meters":10800,"station_id":"","pricing_plan_id":"cebpf4jnsgd1na2vs0mg"},{"bike_id":"6aabd8a9-51dc-4958-b7c6-f232dc50aaad","system_id":"levelo_inurba_marseille","lat":43.29913,"lon":5.37452,"is_reserved":false,"is_disabled":false,"rental_uris":{"android":"levelo://app?vid=6aabd8a9-51dc-4958-b7c6-f232dc50aaad","ios":"levelo://app?vid=6aabd8a9-51dc-4958-b7c6-f232dc50aaad"},"vehicle_type_id":"4","last_reported":1762956742,"current_range_meters":11200,"station_id":"ce4bgjh2rcd13ifvqbg0","pricing_plan_id":"cebpf4jnsgd1na2vs0mg"},{"bike_id":"6a1bbd9a-1834-4786-ac90-86f1ad97d770","system_id":"levelo_inurba_marseille","lat":43.28906,"lon":5.36405,"is_reserved":false,"is_disabled":false,"rental_uris":{"android":"levelo://app?vid=6a1bbd9a-1834-4786-ac90-86f1ad97d770","ios":"levelo://app?vid=6a1bbd9a-1834-4786-ac90-86f1ad97d770"},"vehicle_type_id":"4","last_reported":1762956742,"current_range_meters":11200,"station_id":"ce4bhc92rcd13ifvqetg","pricing_plan_id":"cebpf4jnsgd1na2vs0mg"},{"bike_id":"5d0cd353-2ade-41db-909a-6d2928cb8b0e","system_id":"levelo_inurba_marseille","lat":43.26566,"lon":5.39009,"is_reserved":false,"is_disabled":false,"rental_uris":{"android":"levelo://app?vid=5d0cd353-2ade-41db-909a-6d2928cb8b0e","ios":"levelo://app?vid=5d0cd353-2ade-41db-909a-6d2928cb8b0e"},"vehicle_type_id":"4","last_reported":1762956742,"current_range_meters":11200,"station_id":"ce4bhe12rcd13ifvqf30","pricing_plan_id":"cebpf4jnsgd1na2vs0mg"},{"bike_id":"a3ea3393-5c59-4456-9a3c-b2344bef646b","system_id":"levelo_inurba_marseille","lat":43.24644,"lon":5.3889,"is_reserved":false,"is_disabled":false,"rental_uris":{"android":"levelo://app?vid=a3ea3393-5c59-4456-9a3c-b2344bef646b","ios":"levelo://app?vid=a3ea3393-5c59-4456-9a3c-b2344bef646b"},"vehicle_type_id":"4","last_reported":1762956742,"current_range_meters":11200,"station_id":"ce4bhg12rcd13ifvqf60","pricing_plan_id":"cebpf4jnsgd1na2vs0mg"},{"bike_id":"93691148-d580-4c99-a1f7-c22d822c6fdb","system_id":"levelo_inurba_marseille","lat":43.21193,"lon":5.35097,"is_reserved":false,"is_disabled":false,"rental_uris":{"android":"levelo://app?vid=93691148-d580-4c99-a1f7-c22d822c6fdb","ios":"levelo://app?vid=93691148-d580-4c99-a1f7-c22d822c6fdb"},"vehicle_type_id":"4","last_reported":1762956742,"current_range_meters":11200,"station_id":"st_cvj6sg6p6f1abm77japg","pricing_plan_id":"cebpf4jnsgd1na2vs0mg"},{"bike_id":"739d5c2a-d247-441c-a745-7b553a1fcfb1","system_id":"levelo_inurba_marseille","lat":43.26939,"lon":5.40256,"is_reserved":false,"is_disabled":false,"rental_uris":{"android":"levelo://app?vid=739d5c2a-d247-441c-a745-7b553a1fcfb1","ios":"levelo://app?vid=739d5c2a-d247-441c-a745-7b553a1fcfb1"},"vehicle_type_id":"4","last_reported":1762956742,"current_range_meters":11200,"station_id":"cjm6bp8fraef2m0cb0m0","pricing_plan_id":"cebpf4jnsgd1na2vs0mg"},{"bike_id":"01e8cce2-ff84-43ff-914a-c0c695f60ca4","system_id":"levelo_inurba_marseille","lat":43.294285,"lon":5.380355,"is_reserved":false,"is_disabled":false,"rental_uris":{"android":"levelo://app?vid=01e8cce2-ff84-43ff-914a-c0c695f60ca4","ios":"levelo://app?vid=01e8cce2-ff84-43ff-914a-c0c695f60ca4"},"vehicle_type_id":"4","last_reported":1762956742,"current_range_meters":11600,"station_id":"","pricing_plan_id":"cebpf4jnsgd1na2vs0mg"},{"bike_id":"f09b69fd-4220-4b51-8365-9a85828617f1","system_id":"levelo_inurba_marseille","lat":43.330268,"lon":5.390397,"is_reserved":false,"is_disabled":false,"rental_uris":{"android":"levelo://app?vid=f09b69fd-4220-4b51-8365-9a85828617f1","ios":"levelo://app?vid=f09b69fd-4220-4b51-8365-9a85828617f1"},"vehicle_type_id":"4","last_reported":1762956742,"current_range_meters":11600,"station_id":"ce4bhr92rcd13ifvqhrg","pricing_plan_id":"cebpf4jnsgd1na2vs0mg"},{"bike_id":"a6e7861c-1bee-4b79-b940-119944ef8904","system_id":"levelo_inurba_marseille","lat":43.29537,"lon":5.38548,"is_reserved":false,"is_disabled":false,"rental_uris":{"android":"levelo://app?vid=a6e7861c-1bee-4b79-b940-119944ef8904","ios":"levelo://app?vid=a6e7861c-1bee-4b79-b940-119944ef8904"},"vehicle_type_id":"4","last_reported":1762956742,"current_range_meters":11600,"station_id":"ce4bgih2rcd13ifvqba0","pricing_plan_id":"cebpf4jnsgd1na2vs0mg"},{"bike_id":"f2f93da8-7791-426c-b831-dff7cb7c2bdc","system_id":"levelo_inurba_marseille","lat":43.31688,"lon":5.40472,"is_reserved":false,"is_disabled":false,"rental_uris":{"android":"levelo://app?vid=f2f93da8-7791-426c-b831-dff7cb7c2bdc","ios":"levelo://app?vid=f2f93da8-7791-426c-b831-dff7cb7c2bdc"},"vehicle_type_id":"4","last_reported":1762956742,"current_range_meters":11600,"station_id":"ce4bh012rcd13ifvqd00","pricing_plan_id":"cebpf4jnsgd1na2vs0mg"},{"bike_id":"fd7c6ec7-7561-4d3c-96f8-ffa6d008b3a4","system_id":"levelo_inurba_marseille","lat":43.29576,"lon":5.36741,"is_reserved":false,"is_disabled":false,"rental_uris":{"android":"levelo://app?vid=fd7c6ec7-7561-4d3c-96f8-ffa6d008b3a4","ios":"levelo://app?vid=fd7c6ec7-7561-4d3c-96f8-ffa6d008b3a4"},"vehicle_type_id":"4","last_reported":1762956742,"current_range_meters":11600,"station_id":"ce4bgph2rcd13ifvqc2g","pricing_plan_id":"cebpf4jnsgd1na2vs0mg"},{"bike_id":"a0c41a69-8787-4b8a-b5b6-7a0a1131dbb4","system_id":"levelo_inurba_marseille","lat":43.28037,"lon":5.36952,"is_reserved":false,"is_disabled":false,"rental_uris":{"android":"levelo://app?vid=a0c41a69-8787-4b8a-b5b6-7a0a1131dbb4","ios":"levelo://app?vid=a0c41a69-8787-4b8a-b5b6-7a0a1131dbb4"},"vehicle_type_id":"4","last_reported":1762956742,"current_range_meters":12000,"station_id":"ce4bha12rcd13ifvqef0","pricing_plan_id":"cebpf4jnsgd1na2vs0mg"},{"bike_id":"d7971bd0-efd8-4170-ab00-6fabad286b99","system_id":"levelo_inurba_marseille","lat":43.25096,"lon":5.39488,"is_reserved":false,"is_disabled":false,"rental_uris":{"android":"levelo://app?vid=d7971bd0-efd8-4170-ab00-6fabad286b99","ios":"levelo://app?vid=d7971bd0-efd8-4170-ab00-6fabad286b99"},"vehicle_type_id":"4","last_reported":1762956742,"current_range_meters":12000,"station_id":"ce4bhm12rcd13ifvqgkg","pricing_plan_id":"cebpf4jnsgd1na2vs0mg"},{"bike_id":"5804ac99-3bd4-4091-bff1-7487e9285e0c","system_id":"levelo_inurba_marseille","lat":43.292,"lon":5.37585,"is_reserved":false,"is_disabled":false,"rental_uris":{"android":"levelo://app?vid=5804ac99-3bd4-4091-bff1-7487e9285e0c","ios":"levelo://app?vid=5804ac99-3bd4-4091-bff1-7487e9285e0c"},"vehicle_type_id":"4","last_reported":1762956742,"current_range_meters":12000,"station_id":"","pricing_plan_id":"cebpf4jnsgd1na2vs0mg"},{"bike_id":"7a6efffc-b1c0-4289-890f-bbd315578f09","system_id":"levelo_inurba_marseille","lat":43.29529,"lon":5.38547,"is_reserved":false,"is_disabled":false,"rental_uris":{"android":"levelo://app?vid=7a6efffc-b1c0-4289-890f-bbd315578f09","ios":"levelo://app?vid=7a6efffc-b1c0-4289-890f-bbd315578f09"},"vehicle_type_id":"4","last_reported":1762956742,"current_range_meters":12000,"station_id":"ce4bgih2rcd13ifvqba0","pricing_plan_id":"cebpf4jnsgd1na2vs0mg"},{"bike_id":"97150dc4-71e5-4187-8a3a-2188c13f6fe1","system_id":"levelo_inurba_marseille","lat":43.23752,"lon":5.36653,"is_reserved":false,"is_disabled":false,"rental_uris":{"android":"levelo://app?vid=97150dc4-71e5-4187-8a3a-2188c13f6fe1","ios":"levelo://app?vid=97150dc4-71e5-4187-8a3a-2188c13f6fe1"},"vehicle_type_id":"4","last_reported":1762956742,"current_range_meters":12000,"station_id":"st_d3nk18o9ro0c73en2l3g","pricing_plan_id":"cebpf4jnsgd1na2vs0mg"},{"bike_id":"138acbc8-a44a-45ec-9d4e-f41258a8778e","system_id":"levelo_inurba_marseille","lat":43.298143,"lon":5.440711,"is_reserved":false,"is_disabled":false,"rental_uris":{"android":"levelo://app?vid=138acbc8-a44a-45ec-9d4e-f41258a8778e","ios":"levelo://app?vid=138acbc8-a44a-45ec-9d4e-f41258a8778e"},"vehicle_type_id":"4","last_reported":1762956742,"current_range_meters":12000,"station_id":"st_d3jp68qikq2c7381ktn0","pricing_plan_id":"cebpf4jnsgd1na2vs0mg"},{"bike_id":"4ceb17b0-0bd4-43c8-aec8-9de52f60eb93","system_id":"levelo_inurba_marseille","lat":43.27611,"lon":5.36118,"is_reserved":false,"is_disabled":false,"rental_uris":{"android":"levelo://app?vid=4ceb17b0-0bd4-43c8-aec8-9de52f60eb93","ios":"levelo://app?vid=4ceb17b0-0bd4-43c8-aec8-9de52f60eb93"},"vehicle_type_id":"4","last_reported":1762956742,"current_range_meters":12000,"station_id":"ce4bgj92rcd13ifvqbe0","pricing_plan_id":"cebpf4jnsgd1na2vs0mg"},{"bike_id":"661b9560-a944-4e8c-975e-fe8dbd3b5ef7","system_id":"levelo_inurba_marseille","lat":43.283295,"lon":5.350259,"is_reserved":false,"is_disabled":false,"rental_uris":{"android":"levelo://app?vid=661b9560-a944-4e8c-975e-fe8dbd3b5ef7","ios":"levelo://app?vid=661b9560-a944-4e8c-975e-fe8dbd3b5ef7"},"vehicle_type_id":"4","last_reported":1762956742,"current_range_meters":12000,"station_id":"ce4bhbp2rcd13ifvqerg","pricing_plan_id":"cebpf4jnsgd1na2vs0mg"},{"bike_id":"6993ad6f-0211-4c7f-a570-b4aff6df0c55","system_id":"levelo_inurba_marseille","lat":43.286991,"lon":5.373785,"is_reserved":false,"is_disabled":false,"rental_uris":{"android":"levelo://app?vid=6993ad6f-0211-4c7f-a570-b4aff6df0c55","ios":"levelo://app?vid=6993ad6f-0211-4c7f-a570-b4aff6df0c55"},"vehicle_type_id":"4","last_reported":1762956742,"current_range_meters":12400,"station_id":"ce4bh3p2rcd13ifvqdq0","pricing_plan_id":"cebpf4jnsgd1na2vs0mg"},{"bike_id":"8b027115-1a9e-4312-923f-dbf5aec10ee4","system_id":"levelo_inurba_marseille","lat":43.30254,"lon":5.36502,"is_reserved":false,"is_disabled":false,"rental_uris":{"android":"levelo://app?vid=8b027115-1a9e-4312-923f-dbf5aec10ee4","ios":"levelo://app?vid=8b027115-1a9e-4312-923f-dbf5aec10ee4"},"vehicle_type_id":"4","last_reported":1762956742,"current_range_meters":12400,"station_id":"","pricing_plan_id":"cebpf4jnsgd1na2vs0mg"},{"bike_id":"48c95a84-06f3-4bb3-9acc-81b49637fcb2","system_id":"levelo_inurba_marseille","lat":43.29383,"lon":5.37835,"is_reserved":false,"is_disabled":false,"rental_uris":{"android":"levelo://app?vid=48c95a84-06f3-4bb3-9acc-81b49637fcb2","ios":"levelo://app?vid=48c95a84-06f3-4bb3-9acc-81b49637fcb2"},"vehicle_type_id":"4","last_reported":1762956742,"current_range_meters":12800,"station_id":"ce4bgjh2rcd13ifvqbf0","pricing_plan_id":"cebpf4jnsgd1na2vs0mg"},{"bike_id":"fa8a2148-3f9e-4c8c-bf67-3bc1d94b237a","system_id":"levelo_inurba_marseille","lat":43.278377,"lon":5.39201,"is_reserved":false,"is_disabled":false,"rental_uris":{"android":"levelo://app?vid=fa8a2148-3f9e-4c8c-bf67-3bc1d94b237a","ios":"levelo://app?vid=fa8a2148-3f9e-4c8c-bf67-3bc1d94b237a"},"vehicle_type_id":"4","last_reported":1762956742,"current_range_meters":12800,"station_id":"ce4bhjp2rcd13ifvqga0","pricing_plan_id":"cebpf4jnsgd1na2vs0mg"},{"bike_id":"ce8d6303-da34-4d14-a464-40994f9e2f21","system_id":"levelo_inurba_marseille","lat":43.21196,"lon":5.35073,"is_reserved":false,"is_disabled":true,"rental_uris":{"android":"levelo://app?vid=ce8d6303-da34-4d14-a464-40994f9e2f21","ios":"levelo://app?vid=ce8d6303-da34-4d14-a464-40994f9e2f21"},"vehicle_type_id":"4","last_reported":1762956742,"current_range_meters":12800,"station_id":"st_cvj6sg6p6f1abm77japg","pricing_plan_id":"cebpf4jnsgd1na2vs0mg"},{"bike_id":"841cb1e3-d7ff-4e82-a83c-eaf5e87abdbe","system_id":"levelo_inurba_marseille","lat":43.25577,"lon":5.38253,"is_reserved":false,"is_disabled":false,"rental_uris":{"android":"levelo://app?vid=841cb1e3-d7ff-4e82-a83c-eaf5e87abdbe","ios":"levelo://app?vid=841cb1e3-d7ff-4e82-a83c-eaf5e87abdbe"},"vehicle_type_id":"4","last_reported":1762956742,"current_range_meters":12800,"station_id":"ce4bhih2rcd13ifvqfs0","pricing_plan_id":"cebpf4jnsgd1na2vs0mg"},{"bike_id":"665dd648-39fc-471a-9ff8-da7af6cb6638","system_id":"levelo_inurba_marseille","lat":43.26816,"lon":5.402675,"is_reserved":false,"is_disabled":false,"rental_uris":{"android":"levelo://app?vid=665dd648-39fc-471a-9ff8-da7af6cb6638","ios":"levelo://app?vid=665dd648-39fc-471a-9ff8-da7af6cb6638"},"vehicle_type_id":"4","last_reported":1762956742,"current_range_meters":12800,"station_id":"ce501612rcd8frsf0b60","pricing_plan_id":"cebpf4jnsgd1na2vs0mg"},{"bike_id":"7f836998-8ee7-45de-8592-6246146dae5b","system_id":"levelo_inurba_marseille","lat":43.30594,"lon":5.37236,"is_reserved":false,"is_disabled":false,"rental_uris":{"android":"levelo://app?vid=7f836998-8ee7-45de-8592-6246146dae5b","ios":"levelo://app?vid=7f836998-8ee7-45de-8592-6246146dae5b"},"vehicle_type_id":"4","last_reported":1762956742,"current_range_meters":13600,"station_id":"ce4bgqh2rcd13ifvqc4g","pricing_plan_id":"cebpf4jnsgd1na2vs0mg"},{"bike_id":"5e6e0c2c-5aff-425c-b9f5-69ee0b364303","system_id":"levelo_inurba_marseille","lat":43.23197,"lon":5.35544,"is_reserved":false,"is_disabled":false,"rental_uris":{"android":"levelo://app?vid=5e6e0c2c-5aff-425c-b9f5-69ee0b364303","ios":"levelo://app?vid=5e6e0c2c-5aff-425c-b9f5-69ee0b364303"},"vehicle_type_id":"4","last_reported":1762956742,"current_range_meters":13600,"station_id":"ce4bhu92rcd13ifvqi70","pricing_plan_id":"cebpf4jnsgd1na2vs0mg"},{"bike_id":"f0413c71-e0c3-427b-98cb-cdf950c219e3","system_id":"levelo_inurba_marseille","lat":43.31015,"lon":5.40092,"is_reserved":false,"is_disabled":false,"rental_uris":{"android":"levelo://app?vid=f0413c71-e0c3-427b-98cb-cdf950c219e3","ios":"levelo://app?vid=f0413c71-e0c3-427b-98cb-cdf950c219e3"},"vehicle_type_id":"4","last_reported":1762956742,"current_range_meters":13600,"station_id":"","pricing_plan_id":"cebpf4jnsgd1na2vs0mg"},{"bike_id":"9cdfde93-2a48-4f51-9356-45d652fec7bd","system_id":"levelo_inurba_marseille","lat":43.2962,"lon":5.37718,"is_reserved":false,"is_disabled":false,"rental_uris":{"android":"levelo://app?vid=9cdfde93-2a48-4f51-9356-45d652fec7bd","ios":"levelo://app?vid=9cdfde93-2a48-4f51-9356-45d652fec7bd"},"vehicle_type_id":"4","last_reported":1762956742,"current_range_meters":13600,"station_id":"ce4bgi92rcd13ifvqb90","pricing_plan_id":"cebpf4jnsgd1na2vs0mg"},{"bike_id":"72af7301-17a8-43a4-84c3-7077a9f4a252","system_id":"levelo_inurba_marseille","lat":43.2656,"lon":5.40333,"is_reserved":false,"is_disabled":false,"rental_uris":{"android":"levelo://app?vid=72af7301-17a8-43a4-84c3-7077a9f4a252","ios":"levelo://app?vid=72af7301-17a8-43a4-84c3-7077a9f4a252"},"vehicle_type_id":"4","last_reported":1762956742,"current_range_meters":13600,"station_id":"ce4bhmp2rcd13ifvqgng","pricing_plan_id":"cebpf4jnsgd1na2vs0mg"},{"bike_id":"23cf5617-2a8e-4b86-b9b4-9b049dde7593","system_id":"levelo_inurba_marseille","lat":43.32352,"lon":5.36765,"is_reserved":false,"is_disabled":false,"rental_uris":{"android":"levelo://app?vid=23cf5617-2a8e-4b86-b9b4-9b049dde7593","ios":"levelo://app?vid=23cf5617-2a8e-4b86-b9b4-9b049dde7593"},"vehicle_type_id":"4","last_reported":1762956742,"current_range_meters":14000,"station_id":"ce4bhsh2rcd13ifvqi2g","pricing_plan_id":"cebpf4jnsgd1na2vs0mg"},{"bike_id":"5ed48720-7574-4d36-8385-43ec3a2037fe","system_id":"levelo_inurba_marseille","lat":43.29486,"lon":5.43309,"is_reserved":false,"is_disabled":false,"rental_uris":{"android":"levelo://app?vid=5ed48720-7574-4d36-8385-43ec3a2037fe","ios":"levelo://app?vid=5ed48720-7574-4d36-8385-43ec3a2037fe"},"vehicle_type_id":"4","last_reported":1762956742,"current_range_meters":14000,"station_id":"st_d3j5ugp08ojc73fj9d10","pricing_plan_id":"cebpf4jnsgd1na2vs0mg"},{"bike_id":"e13b78db-2231-48a0-b9e0-a153f32a43f4","system_id":"levelo_inurba_marseille","lat":43.23059,"lon":5.35492,"is_reserved":false,"is_disabled":false,"rental_uris":{"android":"levelo://app?vid=e13b78db-2231-48a0-b9e0-a153f32a43f4","ios":"levelo://app?vid=e13b78db-2231-48a0-b9e0-a153f32a43f4"},"vehicle_type_id":"4","last_reported":1762956742,"current_range_meters":14000,"station_id":"cpo3342slgdg3j2ifvpg","pricing_plan_id":"cebpf4jnsgd1na2vs0mg"},{"bike_id":"d1562a83-9286-4173-9603-a08c676d773a","system_id":"levelo_inurba_marseille","lat":43.21187,"lon":5.35073,"is_reserved":false,"is_disabled":false,"rental_uris":{"android":"levelo://app?vid=d1562a83-9286-4173-9603-a08c676d773a","ios":"levelo://app?vid=d1562a83-9286-4173-9603-a08c676d773a"},"vehicle_type_id":"4","last_reported":1762956742,"current_range_meters":14000,"station_id":"st_cvj6sg6p6f1abm77japg","pricing_plan_id":"cebpf4jnsgd1na2vs0mg"},{"bike_id":"f19a854d-96e9-4cf0-92aa-d357813dc143","system_id":"levelo_inurba_marseille","lat":43.284762,"lon":5.384248,"is_reserved":false,"is_disabled":true,"rental_uris":{"android":"levelo://app?vid=f19a854d-96e9-4cf0-92aa-d357813dc143","ios":"levelo://app?vid=f19a854d-96e9-4cf0-92aa-d357813dc143"},"vehicle_type_id":"4","last_reported":1762956742,"current_range_meters":14000,"station_id":"ce4bh512rcd13ifvqe3g","pricing_plan_id":"cebpf4jnsgd1na2vs0mg"},{"bike_id":"0528378f-1b50-41df-b328-6686306ee922","system_id":"levelo_inurba_marseille","lat":43.21614,"lon":5.34456,"is_reserved":false,"is_disabled":false,"rental_uris":{"android":"levelo://app?vid=0528378f-1b50-41df-b328-6686306ee922","ios":"levelo://app?vid=0528378f-1b50-41df-b328-6686306ee922"},"vehicle_type_id":"4","last_reported":1762956742,"current_range_meters":14000,"station_id":"","pricing_plan_id":"cebpf4jnsgd1na2vs0mg"},{"bike_id":"d0234a82-c555-4bca-adf0-27014fa584ad","system_id":"levelo_inurba_marseille","lat":43.29931,"lon":5.36538,"is_reserved":false,"is_disabled":false,"rental_uris":{"android":"levelo://app?vid=d0234a82-c555-4bca-adf0-27014fa584ad","ios":"levelo://app?vid=d0234a82-c555-4bca-adf0-27014fa584ad"},"vehicle_type_id":"4","last_reported":1762956742,"current_range_meters":14000,"station_id":"ce4bgm92rcd13ifvqbr0","pricing_plan_id":"cebpf4jnsgd1na2vs0mg"},{"bike_id":"457c3593-f893-4ae4-aa10-29e78cefe7e0","system_id":"levelo_inurba_marseille","lat":43.23192,"lon":5.35556,"is_reserved":false,"is_disabled":false,"rental_uris":{"android":"levelo://app?vid=457c3593-f893-4ae4-aa10-29e78cefe7e0","ios":"levelo://app?vid=457c3593-f893-4ae4-aa10-29e78cefe7e0"},"vehicle_type_id":"4","last_reported":1762956742,"current_range_meters":14000,"station_id":"ce4bhu92rcd13ifvqi70","pricing_plan_id":"cebpf4jnsgd1na2vs0mg"},{"bike_id":"cf7a0880-8b6f-4029-9bfe-a57cd8cf9ccc","system_id":"levelo_inurba_marseille","lat":43.285716,"lon":5.39497,"is_reserved":false,"is_disabled":false,"rental_uris":{"android":"levelo://app?vid=cf7a0880-8b6f-4029-9bfe-a57cd8cf9ccc","ios":"levelo://app?vid=cf7a0880-8b6f-4029-9bfe-a57cd8cf9ccc"},"vehicle_type_id":"4","last_reported":1762956742,"current_range_meters":14000,"station_id":"ce4bh292rcd13ifvqdg0","pricing_plan_id":"cebpf4jnsgd1na2vs0mg"},{"bike_id":"780adc66-59bc-49dd-92ff-e5114a71be12","system_id":"levelo_inurba_marseille","lat":43.27815,"lon":5.39213,"is_reserved":false,"is_disabled":false,"rental_uris":{"android":"levelo://app?vid=780adc66-59bc-49dd-92ff-e5114a71be12","ios":"levelo://app?vid=780adc66-59bc-49dd-92ff-e5114a71be12"},"vehicle_type_id":"4","last_reported":1762956742,"current_range_meters":14000,"station_id":"ce4bhjp2rcd13ifvqga0","pricing_plan_id":"cebpf4jnsgd1na2vs0mg"},{"bike_id":"7cd3fc91-8b4e-4cc9-a97a-8aec9cd4160c","system_id":"levelo_inurba_marseille","lat":43.29858,"lon":5.3722,"is_reserved":false,"is_disabled":true,"rental_uris":{"android":"levelo://app?vid=7cd3fc91-8b4e-4cc9-a97a-8aec9cd4160c","ios":"levelo://app?vid=7cd3fc91-8b4e-4cc9-a97a-8aec9cd4160c"},"vehicle_type_id":"4","last_reported":1762956742,"current_range_meters":14400,"station_id":"","pricing_plan_id":"cebpf4jnsgd1na2vs0mg"},{"bike_id":"2f34f274-c8fc-492e-838a-720f2d384a9c","system_id":"levelo_inurba_marseille","lat":43.29987,"lon":5.37178,"is_reserved":false,"is_disabled":false,"rental_uris":{"android":"levelo://app?vid=2f34f274-c8fc-492e-838a-720f2d384a9c","ios":"levelo://app?vid=2f34f274-c8fc-492e-838a-720f2d384a9c"},"vehicle_type_id":"4","last_reported":1762956742,"current_range_meters":14400,"station_id":"ce4bgr92rcd13ifvqc7g","pricing_plan_id":"cebpf4jnsgd1na2vs0mg"},{"bike_id":"14f28c32-c9f5-43f6-94d5-b64199a21777","system_id":"levelo_inurba_marseille","lat":43.23154,"lon":5.43707,"is_reserved":false,"is_disabled":false,"rental_uris":{"android":"levelo://app?vid=14f28c32-c9f5-43f6-94d5-b64199a21777","ios":"levelo://app?vid=14f28c32-c9f5-43f6-94d5-b64199a21777"},"vehicle_type_id":"4","last_reported":1762956742,"current_range_meters":14400,"station_id":"ce4bhmp2rcd13ifvqgog","pricing_plan_id":"cebpf4jnsgd1na2vs0mg"},{"bike_id":"e3df63a1-f3d2-4d82-8bf6-df212c4e8b69","system_id":"levelo_inurba_marseille","lat":43.28479,"lon":5.48405,"is_reserved":false,"is_disabled":false,"rental_uris":{"android":"levelo://app?vid=e3df63a1-f3d2-4d82-8bf6-df212c4e8b69","ios":"levelo://app?vid=e3df63a1-f3d2-4d82-8bf6-df212c4e8b69"},"vehicle_type_id":"4","last_reported":1762956742,"current_range_meters":14400,"station_id":"st_d3svhcjqgbts73a3dn0g","pricing_plan_id":"cebpf4jnsgd1na2vs0mg"},{"bike_id":"800217f6-4b91-4e1e-8b71-9866a079579d","system_id":"levelo_inurba_marseille","lat":43.23787,"lon":5.36635,"is_reserved":false,"is_disabled":false,"rental_uris":{"android":"levelo://app?vid=800217f6-4b91-4e1e-8b71-9866a079579d","ios":"levelo://app?vid=800217f6-4b91-4e1e-8b71-9866a079579d"},"vehicle_type_id":"4","last_reported":1762956742,"current_range_meters":14400,"station_id":"st_d3nk18o9ro0c73en2l3g","pricing_plan_id":"cebpf4jnsgd1na2vs0mg"},{"bike_id":"a24d1ed3-7d2a-4935-9058-4a4ebef3dc61","system_id":"levelo_inurba_marseille","lat":43.2655,"lon":5.37282,"is_reserved":false,"is_disabled":false,"rental_uris":{"android":"levelo://app?vid=a24d1ed3-7d2a-4935-9058-4a4ebef3dc61","ios":"levelo://app?vid=a24d1ed3-7d2a-4935-9058-4a4ebef3dc61"},"vehicle_type_id":"4","last_reported":1762956742,"current_range_meters":14400,"station_id":"ce4bhg12rcd13ifvqf70","pricing_plan_id":"cebpf4jnsgd1na2vs0mg"},{"bike_id":"25503e73-0931-4585-a0d9-d54ef91bda61","system_id":"levelo_inurba_marseille","lat":43.29185,"lon":5.39322,"is_reserved":false,"is_disabled":false,"rental_uris":{"android":"levelo://app?vid=25503e73-0931-4585-a0d9-d54ef91bda61","ios":"levelo://app?vid=25503e73-0931-4585-a0d9-d54ef91bda61"},"vehicle_type_id":"4","last_reported":1762956742,"current_range_meters":14400,"station_id":"ce4bh192rcd13ifvqdd0","pricing_plan_id":"cebpf4jnsgd1na2vs0mg"},{"bike_id":"5fa969a1-d098-4cb4-b10c-c4dcc7c82e11","system_id":"levelo_inurba_marseille","lat":43.32028,"lon":5.41581,"is_reserved":false,"is_disabled":false,"rental_uris":{"android":"levelo://app?vid=5fa969a1-d098-4cb4-b10c-c4dcc7c82e11","ios":"levelo://app?vid=5fa969a1-d098-4cb4-b10c-c4dcc7c82e11"},"vehicle_type_id":"4","last_reported":1762956742,"current_range_meters":14400,"station_id":"ce4bhq92rcd13ifvqhkg","pricing_plan_id":"cebpf4jnsgd1na2vs0mg"},{"bike_id":"3e9427b7-a28e-43eb-b57c-0cd637ed4284","system_id":"levelo_inurba_marseille","lat":43.23149,"lon":5.43714,"is_reserved":false,"is_disabled":false,"rental_uris":{"android":"levelo://app?vid=3e9427b7-a28e-43eb-b57c-0cd637ed4284","ios":"levelo://app?vid=3e9427b7-a28e-43eb-b57c-0cd637ed4284"},"vehicle_type_id":"4","last_reported":1762956742,"current_range_meters":14400,"station_id":"ce4bhmp2rcd13ifvqgog","pricing_plan_id":"cebpf4jnsgd1na2vs0mg"},{"bike_id":"c32a49ee-76d4-48ba-b397-49e60fa82e4b","system_id":"levelo_inurba_marseille","lat":43.31717,"lon":5.40452,"is_reserved":false,"is_disabled":false,"rental_uris":{"android":"levelo://app?vid=c32a49ee-76d4-48ba-b397-49e60fa82e4b","ios":"levelo://app?vid=c32a49ee-76d4-48ba-b397-49e60fa82e4b"},"vehicle_type_id":"4","last_reported":1762956742,"current_range_meters":14800,"station_id":"ce4bh012rcd13ifvqd00","pricing_plan_id":"cebpf4jnsgd1na2vs0mg"},{"bike_id":"7405fff1-54cb-4441-8d3b-98a0b2f0eb43","system_id":"levelo_inurba_marseille","lat":43.273281,"lon":5.390523,"is_reserved":false,"is_disabled":false,"rental_uris":{"android":"levelo://app?vid=7405fff1-54cb-4441-8d3b-98a0b2f0eb43","ios":"levelo://app?vid=7405fff1-54cb-4441-8d3b-98a0b2f0eb43"},"vehicle_type_id":"4","last_reported":1762956742,"current_range_meters":14800,"station_id":"","pricing_plan_id":"cebpf4jnsgd1na2vs0mg"},{"bike_id":"c01ee74c-0907-4ca7-82d0-a92efd488ad9","system_id":"levelo_inurba_marseille","lat":43.2256,"lon":5.41637,"is_reserved":false,"is_disabled":false,"rental_uris":{"android":"levelo://app?vid=c01ee74c-0907-4ca7-82d0-a92efd488ad9","ios":"levelo://app?vid=c01ee74c-0907-4ca7-82d0-a92efd488ad9"},"vehicle_type_id":"4","last_reported":1762956742,"current_range_meters":14800,"station_id":"st_d2o4gvlbi1j2169b742g","pricing_plan_id":"cebpf4jnsgd1na2vs0mg"},{"bike_id":"43c6d4f4-65ec-4561-8ba2-64011e219694","system_id":"levelo_inurba_marseille","lat":43.287194,"lon":5.360788,"is_reserved":false,"is_disabled":false,"rental_uris":{"android":"levelo://app?vid=43c6d4f4-65ec-4561-8ba2-64011e219694","ios":"levelo://app?vid=43c6d4f4-65ec-4561-8ba2-64011e219694"},"vehicle_type_id":"4","last_reported":1762956742,"current_range_meters":14800,"station_id":"cki0cbj6b192h4jlfktg","pricing_plan_id":"cebpf4jnsgd1na2vs0mg"},{"bike_id":"04952684-07f6-4571-9164-66b5ba12e565","system_id":"levelo_inurba_marseille","lat":43.27061,"lon":5.40256,"is_reserved":false,"is_disabled":false,"rental_uris":{"android":"levelo://app?vid=04952684-07f6-4571-9164-66b5ba12e565","ios":"levelo://app?vid=04952684-07f6-4571-9164-66b5ba12e565"},"vehicle_type_id":"4","last_reported":1762956742,"current_range_meters":14800,"station_id":"ce4bhk92rcd13ifvqgc0","pricing_plan_id":"cebpf4jnsgd1na2vs0mg"},{"bike_id":"210e7d48-c12d-44ce-bb0e-3e1ebd1fb6a3","system_id":"levelo_inurba_marseille","lat":43.24988,"lon":5.38939,"is_reserved":false,"is_disabled":false,"rental_uris":{"android":"levelo://app?vid=210e7d48-c12d-44ce-bb0e-3e1ebd1fb6a3","ios":"levelo://app?vid=210e7d48-c12d-44ce-bb0e-3e1ebd1fb6a3"},"vehicle_type_id":"4","last_reported":1762956742,"current_range_meters":14800,"station_id":"ce4bhgp2rcd13ifvqfd0","pricing_plan_id":"cebpf4jnsgd1na2vs0mg"},{"bike_id":"c1f8e541-38be-4580-b77e-dd0c0d487782","system_id":"levelo_inurba_marseille","lat":43.31889,"lon":5.40738,"is_reserved":false,"is_disabled":false,"rental_uris":{"android":"levelo://app?vid=c1f8e541-38be-4580-b77e-dd0c0d487782","ios":"levelo://app?vid=c1f8e541-38be-4580-b77e-dd0c0d487782"},"vehicle_type_id":"4","last_reported":1762956742,"current_range_meters":14800,"station_id":"ce4bhq12rcd13ifvqhig","pricing_plan_id":"cebpf4jnsgd1na2vs0mg"},{"bike_id":"6dc8b84f-81c9-44ce-ba2d-d57b9ad31bcd","system_id":"levelo_inurba_marseille","lat":43.29933,"lon":5.36557,"is_reserved":false,"is_disabled":false,"rental_uris":{"android":"levelo://app?vid=6dc8b84f-81c9-44ce-ba2d-d57b9ad31bcd","ios":"levelo://app?vid=6dc8b84f-81c9-44ce-ba2d-d57b9ad31bcd"},"vehicle_type_id":"4","last_reported":1762956742,"current_range_meters":15200,"station_id":"ce4bgm92rcd13ifvqbr0","pricing_plan_id":"cebpf4jnsgd1na2vs0mg"},{"bike_id":"01571923-980e-446a-ba2d-4d18a11dfcdd","system_id":"levelo_inurba_marseille","lat":43.247893,"lon":5.374739,"is_reserved":false,"is_disabled":false,"rental_uris":{"android":"levelo://app?vid=01571923-980e-446a-ba2d-4d18a11dfcdd","ios":"levelo://app?vid=01571923-980e-446a-ba2d-4d18a11dfcdd"},"vehicle_type_id":"4","last_reported":1762956742,"current_range_meters":15200,"station_id":"","pricing_plan_id":"cebpf4jnsgd1na2vs0mg"},{"bike_id":"3551fb74-c082-497c-a7ce-4fc293128f71","system_id":"levelo_inurba_marseille","lat":43.22933,"lon":5.35378,"is_reserved":false,"is_disabled":false,"rental_uris":{"android":"levelo://app?vid=3551fb74-c082-497c-a7ce-4fc293128f71","ios":"levelo://app?vid=3551fb74-c082-497c-a7ce-4fc293128f71"},"vehicle_type_id":"4","last_reported":1762956742,"current_range_meters":15200,"station_id":"cpo3532slgdg3j2ikp40","pricing_plan_id":"cebpf4jnsgd1na2vs0mg"},{"bike_id":"5e35dfc2-607e-491c-bb4d-847a523e57c7","system_id":"levelo_inurba_marseille","lat":43.28438,"lon":5.39198,"is_reserved":false,"is_disabled":false,"rental_uris":{"android":"levelo://app?vid=5e35dfc2-607e-491c-bb4d-847a523e57c7","ios":"levelo://app?vid=5e35dfc2-607e-491c-bb4d-847a523e57c7"},"vehicle_type_id":"4","last_reported":1762956742,"current_range_meters":15200,"station_id":"ce4bhoh2rcd13ifvqh5g","pricing_plan_id":"cebpf4jnsgd1na2vs0mg"},{"bike_id":"e8ae9154-04f3-4461-8276-0739d1e853ea","system_id":"levelo_inurba_marseille","lat":43.26569,"lon":5.3901,"is_reserved":false,"is_disabled":false,"rental_uris":{"android":"levelo://app?vid=e8ae9154-04f3-4461-8276-0739d1e853ea","ios":"levelo://app?vid=e8ae9154-04f3-4461-8276-0739d1e853ea"},"vehicle_type_id":"4","last_reported":1762956742,"current_range_meters":15200,"station_id":"ce4bhe12rcd13ifvqf30","pricing_plan_id":"cebpf4jnsgd1na2vs0mg"},{"bike_id":"9f77fce6-b576-455d-a43d-b1e175676c28","system_id":"levelo_inurba_marseille","lat":43.33773,"lon":5.37473,"is_reserved":false,"is_disabled":false,"rental_uris":{"android":"levelo://app?vid=9f77fce6-b576-455d-a43d-b1e175676c28","ios":"levelo://app?vid=9f77fce6-b576-455d-a43d-b1e175676c28"},"vehicle_type_id":"4","last_reported":1762956742,"current_range_meters":15200,"station_id":"","pricing_plan_id":"cebpf4jnsgd1na2vs0mg"},{"bike_id":"60e7fa8d-04e1-4bde-9e50-96c18d1e42a2","system_id":"levelo_inurba_marseille","lat":43.33149,"lon":5.36515,"is_reserved":false,"is_disabled":false,"rental_uris":{"android":"levelo://app?vid=60e7fa8d-04e1-4bde-9e50-96c18d1e42a2","ios":"levelo://app?vid=60e7fa8d-04e1-4bde-9e50-96c18d1e42a2"},"vehicle_type_id":"4","last_reported":1762956742,"current_range_meters":15200,"station_id":"","pricing_plan_id":"cebpf4jnsgd1na2vs0mg"},{"bike_id":"3277b8f7-a7c0-46e4-bfb4-ecaf8e5a96b2","system_id":"levelo_inurba_marseille","lat":43.2957,"lon":5.37499,"is_reserved":false,"is_disabled":false,"rental_uris":{"android":"levelo://app?vid=3277b8f7-a7c0-46e4-bfb4-ecaf8e5a96b2","ios":"levelo://app?vid=3277b8f7-a7c0-46e4-bfb4-ecaf8e5a96b2"},"vehicle_type_id":"4","last_reported":1762956742,"current_range_meters":16000,"station_id":"ce4bgh92rcd13ifvqb50","pricing_plan_id":"cebpf4jnsgd1na2vs0mg"},{"bike_id":"a26712ac-c4dc-4d7c-9767-877ec57b4780","system_id":"levelo_inurba_marseille","lat":43.28476,"lon":5.48414,"is_reserved":false,"is_disabled":false,"rental_uris":{"android":"levelo://app?vid=a26712ac-c4dc-4d7c-9767-877ec57b4780","ios":"levelo://app?vid=a26712ac-c4dc-4d7c-9767-877ec57b4780"},"vehicle_type_id":"4","last_reported":1762956742,"current_range_meters":16000,"station_id":"st_d3svhcjqgbts73a3dn0g","pricing_plan_id":"cebpf4jnsgd1na2vs0mg"},{"bike_id":"c4d99a60-56bc-4f6e-96c8-b59c44660d79","system_id":"levelo_inurba_marseille","lat":43.24648,"lon":5.38892,"is_reserved":false,"is_disabled":false,"rental_uris":{"android":"levelo://app?vid=c4d99a60-56bc-4f6e-96c8-b59c44660d79","ios":"levelo://app?vid=c4d99a60-56bc-4f6e-96c8-b59c44660d79"},"vehicle_type_id":"4","last_reported":1762956742,"current_range_meters":16000,"station_id":"ce4bhg12rcd13ifvqf60","pricing_plan_id":"cebpf4jnsgd1na2vs0mg"},{"bike_id":"fd3bc958-4321-401c-a774-6c4276dba134","system_id":"levelo_inurba_marseille","lat":43.249936,"lon":5.389426,"is_reserved":false,"is_disabled":false,"rental_uris":{"android":"levelo://app?vid=fd3bc958-4321-401c-a774-6c4276dba134","ios":"levelo://app?vid=fd3bc958-4321-401c-a774-6c4276dba134"},"vehicle_type_id":"4","last_reported":1762956742,"current_range_meters":16000,"station_id":"ce4bhgp2rcd13ifvqfd0","pricing_plan_id":"cebpf4jnsgd1na2vs0mg"},{"bike_id":"1b0b7981-696f-4ec5-932c-764cd2899c70","system_id":"levelo_inurba_marseille","lat":43.28477,"lon":5.48397,"is_reserved":false,"is_disabled":false,"rental_uris":{"android":"levelo://app?vid=1b0b7981-696f-4ec5-932c-764cd2899c70","ios":"levelo://app?vid=1b0b7981-696f-4ec5-932c-764cd2899c70"},"vehicle_type_id":"4","last_reported":1762956742,"current_range_meters":16000,"station_id":"","pricing_plan_id":"cebpf4jnsgd1na2vs0mg"},{"bike_id":"9a8ec229-2a02-411c-921b-0d94ee2289e6","system_id":"levelo_inurba_marseille","lat":43.305463,"lon":5.36721,"is_reserved":false,"is_disabled":false,"rental_uris":{"android":"levelo://app?vid=9a8ec229-2a02-411c-921b-0d94ee2289e6","ios":"levelo://app?vid=9a8ec229-2a02-411c-921b-0d94ee2289e6"},"vehicle_type_id":"4","last_reported":1762956742,"current_range_meters":16000,"station_id":"ce4bgrp2rcd13ifvqc9g","pricing_plan_id":"cebpf4jnsgd1na2vs0mg"},{"bike_id":"3210e757-4d1e-4efd-83c1-043a34b9a756","system_id":"levelo_inurba_marseille","lat":43.2418,"lon":5.39726,"is_reserved":false,"is_disabled":false,"rental_uris":{"android":"levelo://app?vid=3210e757-4d1e-4efd-83c1-043a34b9a756","ios":"levelo://app?vid=3210e757-4d1e-4efd-83c1-043a34b9a756"},"vehicle_type_id":"4","last_reported":1762956742,"current_range_meters":16000,"station_id":"ce4bhn12rcd13ifvqgpg","pricing_plan_id":"cebpf4jnsgd1na2vs0mg"},{"bike_id":"2a2ec83a-2b84-4bf4-b19a-cd864bece9fd","system_id":"levelo_inurba_marseille","lat":43.246387,"lon":5.431387,"is_reserved":false,"is_disabled":false,"rental_uris":{"android":"levelo://app?vid=2a2ec83a-2b84-4bf4-b19a-cd864bece9fd","ios":"levelo://app?vid=2a2ec83a-2b84-4bf4-b19a-cd864bece9fd"},"vehicle_type_id":"4","last_reported":1762956742,"current_range_meters":16000,"station_id":"st_d2m6c4gdas8pm72e190g","pricing_plan_id":"cebpf4jnsgd1na2vs0mg"},{"bike_id":"4ebaaa12-741a-414d-964a-cdc245182e3d","system_id":"levelo_inurba_marseille","lat":43.309541,"lon":5.390361,"is_reserved":false,"is_disabled":false,"rental_uris":{"android":"levelo://app?vid=4ebaaa12-741a-414d-964a-cdc245182e3d","ios":"levelo://app?vid=4ebaaa12-741a-414d-964a-cdc245182e3d"},"vehicle_type_id":"4","last_reported":1762956742,"current_range_meters":16000,"station_id":"ce4bgup2rcd13ifvqco0","pricing_plan_id":"cebpf4jnsgd1na2vs0mg"},{"bike_id":"52d4b8ef-bd3b-4594-9933-6de587b7e338","system_id":"levelo_inurba_marseille","lat":43.229256,"lon":5.353735,"is_reserved":false,"is_disabled":false,"rental_uris":{"android":"levelo://app?vid=52d4b8ef-bd3b-4594-9933-6de587b7e338","ios":"levelo://app?vid=52d4b8ef-bd3b-4594-9933-6de587b7e338"},"vehicle_type_id":"4","last_reported":1762956742,"current_range_meters":16400,"station_id":"cpo3532slgdg3j2ikp40","pricing_plan_id":"cebpf4jnsgd1na2vs0mg"},{"bike_id":"5f4af480-3175-4691-b7b0-2fb7d215707c","system_id":"levelo_inurba_marseille","lat":43.292801,"lon":5.368508,"is_reserved":false,"is_disabled":false,"rental_uris":{"android":"levelo://app?vid=5f4af480-3175-4691-b7b0-2fb7d215707c","ios":"levelo://app?vid=5f4af480-3175-4691-b7b0-2fb7d215707c"},"vehicle_type_id":"4","last_reported":1762956742,"current_range_meters":16400,"station_id":"","pricing_plan_id":"cebpf4jnsgd1na2vs0mg"},{"bike_id":"63f48172-b098-4c29-8e4e-a412a60568dc","system_id":"levelo_inurba_marseille","lat":43.32537,"lon":5.41433,"is_reserved":false,"is_disabled":false,"rental_uris":{"android":"levelo://app?vid=63f48172-b098-4c29-8e4e-a412a60568dc","ios":"levelo://app?vid=63f48172-b098-4c29-8e4e-a412a60568dc"},"vehicle_type_id":"4","last_reported":1762956742,"current_range_meters":16800,"station_id":"ce4bhq12rcd13ifvqhhg","pricing_plan_id":"cebpf4jnsgd1na2vs0mg"},{"bike_id":"a76ed384-8adb-4855-8ea9-608b64e9d92b","system_id":"levelo_inurba_marseille","lat":43.32284,"lon":5.36977,"is_reserved":false,"is_disabled":false,"rental_uris":{"android":"levelo://app?vid=a76ed384-8adb-4855-8ea9-608b64e9d92b","ios":"levelo://app?vid=a76ed384-8adb-4855-8ea9-608b64e9d92b"},"vehicle_type_id":"4","last_reported":1762956742,"current_range_meters":16800,"station_id":"","pricing_plan_id":"cebpf4jnsgd1na2vs0mg"},{"bike_id":"e0940536-8e97-445f-9fc3-1d0cc2c2fe80","system_id":"levelo_inurba_marseille","lat":43.337444,"lon":5.374475,"is_reserved":false,"is_disabled":false,"rental_uris":{"android":"levelo://app?vid=e0940536-8e97-445f-9fc3-1d0cc2c2fe80","ios":"levelo://app?vid=e0940536-8e97-445f-9fc3-1d0cc2c2fe80"},"vehicle_type_id":"4","last_reported":1762956742,"current_range_meters":16800,"station_id":"","pricing_plan_id":"cebpf4jnsgd1na2vs0mg"},{"bike_id":"87b2ef88-27d3-45ad-b375-3418795e8580","system_id":"levelo_inurba_marseille","lat":43.21744,"lon":5.34605,"is_reserved":false,"is_disabled":false,"rental_uris":{"android":"levelo://app?vid=87b2ef88-27d3-45ad-b375-3418795e8580","ios":"levelo://app?vid=87b2ef88-27d3-45ad-b375-3418795e8580"},"vehicle_type_id":"4","last_reported":1762956742,"current_range_meters":16800,"station_id":"st_cvj6r9ubvosntc0bgbag","pricing_plan_id":"cebpf4jnsgd1na2vs0mg"},{"bike_id":"f345188e-bd4e-4211-a481-2ed7c2712a7b","system_id":"levelo_inurba_marseille","lat":43.2175,"lon":5.34603,"is_reserved":false,"is_disabled":false,"rental_uris":{"android":"levelo://app?vid=f345188e-bd4e-4211-a481-2ed7c2712a7b","ios":"levelo://app?vid=f345188e-bd4e-4211-a481-2ed7c2712a7b"},"vehicle_type_id":"4","last_reported":1762956742,"current_range_meters":16800,"station_id":"st_cvj6r9ubvosntc0bgbag","pricing_plan_id":"cebpf4jnsgd1na2vs0mg"},{"bike_id":"ef3787f7-4815-49ad-b8f4-4132eb78b8f9","system_id":"levelo_inurba_marseille","lat":43.305372,"lon":5.365349,"is_reserved":false,"is_disabled":false,"rental_uris":{"android":"levelo://app?vid=ef3787f7-4815-49ad-b8f4-4132eb78b8f9","ios":"levelo://app?vid=ef3787f7-4815-49ad-b8f4-4132eb78b8f9"},"vehicle_type_id":"4","last_reported":1762956742,"current_range_meters":17200,"station_id":"ce4bgs12rcd13ifvqcag","pricing_plan_id":"cebpf4jnsgd1na2vs0mg"},{"bike_id":"8369aa72-98f1-43e6-a29f-5802aaa9979e","system_id":"levelo_inurba_marseille","lat":43.28035,"lon":5.36944,"is_reserved":false,"is_disabled":false,"rental_uris":{"android":"levelo://app?vid=8369aa72-98f1-43e6-a29f-5802aaa9979e","ios":"levelo://app?vid=8369aa72-98f1-43e6-a29f-5802aaa9979e"},"vehicle_type_id":"4","last_reported":1762956742,"current_range_meters":17200,"station_id":"ce4bha12rcd13ifvqef0","pricing_plan_id":"cebpf4jnsgd1na2vs0mg"},{"bike_id":"23f9c78c-ca0a-48be-8a9d-156c748920c2","system_id":"levelo_inurba_marseille","lat":43.27917,"lon":5.41044,"is_reserved":false,"is_disabled":false,"rental_uris":{"android":"levelo://app?vid=23f9c78c-ca0a-48be-8a9d-156c748920c2","ios":"levelo://app?vid=23f9c78c-ca0a-48be-8a9d-156c748920c2"},"vehicle_type_id":"4","last_reported":1762956742,"current_range_meters":17200,"station_id":"ce4bhnp2rcd13ifvqh0g","pricing_plan_id":"cebpf4jnsgd1na2vs0mg"},{"bike_id":"3ebfd771-15f9-440d-a339-6b112e22528e","system_id":"levelo_inurba_marseille","lat":43.317123,"lon":5.437073,"is_reserved":false,"is_disabled":false,"rental_uris":{"android":"levelo://app?vid=3ebfd771-15f9-440d-a339-6b112e22528e","ios":"levelo://app?vid=3ebfd771-15f9-440d-a339-6b112e22528e"},"vehicle_type_id":"4","last_reported":1762956742,"current_range_meters":17200,"station_id":"ce4bhp92rcd13ifvqhcg","pricing_plan_id":"cebpf4jnsgd1na2vs0mg"},{"bike_id":"9f257429-210e-4187-b310-fa3b4c5c3978","system_id":"levelo_inurba_marseille","lat":43.27329,"lon":5.40131,"is_reserved":false,"is_disabled":false,"rental_uris":{"android":"levelo://app?vid=9f257429-210e-4187-b310-fa3b4c5c3978","ios":"levelo://app?vid=9f257429-210e-4187-b310-fa3b4c5c3978"},"vehicle_type_id":"4","last_reported":1762956742,"current_range_meters":17200,"station_id":"","pricing_plan_id":"cebpf4jnsgd1na2vs0mg"},{"bike_id":"98d9ed27-1c51-4232-bb05-142a9e7f98db","system_id":"levelo_inurba_marseille","lat":43.31072,"lon":5.38368,"is_reserved":false,"is_disabled":true,"rental_uris":{"android":"levelo://app?vid=98d9ed27-1c51-4232-bb05-142a9e7f98db","ios":"levelo://app?vid=98d9ed27-1c51-4232-bb05-142a9e7f98db"},"vehicle_type_id":"4","last_reported":1762956742,"current_range_meters":17200,"station_id":"ce4bgv92rcd13ifvqcr0","pricing_plan_id":"cebpf4jnsgd1na2vs0mg"},{"bike_id":"7c1fb98d-3688-454d-b542-b5ecc52bd3e9","system_id":"levelo_inurba_marseille","lat":43.29719,"lon":5.368484,"is_reserved":false,"is_disabled":false,"rental_uris":{"android":"levelo://app?vid=7c1fb98d-3688-454d-b542-b5ecc52bd3e9","ios":"levelo://app?vid=7c1fb98d-3688-454d-b542-b5ecc52bd3e9"},"vehicle_type_id":"4","last_reported":1762956742,"current_range_meters":17200,"station_id":"ce4bgn12rcd13ifvqbt0","pricing_plan_id":"cebpf4jnsgd1na2vs0mg"},{"bike_id":"b973542d-88ff-4253-9b4e-a75517007190","system_id":"levelo_inurba_marseille","lat":43.29685,"lon":5.3757,"is_reserved":false,"is_disabled":false,"rental_uris":{"android":"levelo://app?vid=b973542d-88ff-4253-9b4e-a75517007190","ios":"levelo://app?vid=b973542d-88ff-4253-9b4e-a75517007190"},"vehicle_type_id":"4","last_reported":1762956742,"current_range_meters":17200,"station_id":"","pricing_plan_id":"cebpf4jnsgd1na2vs0mg"},{"bike_id":"88b4c155-9101-4e9e-8590-f64c73e53e30","system_id":"levelo_inurba_marseille","lat":43.27615,"lon":5.36103,"is_reserved":false,"is_disabled":false,"rental_uris":{"android":"levelo://app?vid=88b4c155-9101-4e9e-8590-f64c73e53e30","ios":"levelo://app?vid=88b4c155-9101-4e9e-8590-f64c73e53e30"},"vehicle_type_id":"4","last_reported":1762956742,"current_range_meters":17200,"station_id":"ce4bgj92rcd13ifvqbe0","pricing_plan_id":"cebpf4jnsgd1na2vs0mg"},{"bike_id":"c9a41f20-861a-4d32-91b1-292791b535f8","system_id":"levelo_inurba_marseille","lat":43.30537,"lon":5.36572,"is_reserved":false,"is_disabled":false,"rental_uris":{"android":"levelo://app?vid=c9a41f20-861a-4d32-91b1-292791b535f8","ios":"levelo://app?vid=c9a41f20-861a-4d32-91b1-292791b535f8"},"vehicle_type_id":"4","last_reported":1762956742,"current_range_meters":17600,"station_id":"ce4bgs12rcd13ifvqcag","pricing_plan_id":"cebpf4jnsgd1na2vs0mg"},{"bike_id":"702c9c35-d255-4669-a076-c93b47e35494","system_id":"levelo_inurba_marseille","lat":43.32528,"lon":5.41469,"is_reserved":false,"is_disabled":false,"rental_uris":{"android":"levelo://app?vid=702c9c35-d255-4669-a076-c93b47e35494","ios":"levelo://app?vid=702c9c35-d255-4669-a076-c93b47e35494"},"vehicle_type_id":"4","last_reported":1762956742,"current_range_meters":17600,"station_id":"ce4bhq12rcd13ifvqhhg","pricing_plan_id":"cebpf4jnsgd1na2vs0mg"},{"bike_id":"225316d1-feb8-4645-8ab2-c0ab8da6ef2a","system_id":"levelo_inurba_marseille","lat":43.25127,"lon":5.40305,"is_reserved":false,"is_disabled":false,"rental_uris":{"android":"levelo://app?vid=225316d1-feb8-4645-8ab2-c0ab8da6ef2a","ios":"levelo://app?vid=225316d1-feb8-4645-8ab2-c0ab8da6ef2a"},"vehicle_type_id":"4","last_reported":1762956742,"current_range_meters":17600,"station_id":"ce4bhlh2rcd13ifvqgig","pricing_plan_id":"cebpf4jnsgd1na2vs0mg"},{"bike_id":"306d1340-c6ed-4a54-9325-24f0c57c278f","system_id":"levelo_inurba_marseille","lat":43.31485,"lon":5.37313,"is_reserved":false,"is_disabled":false,"rental_uris":{"android":"levelo://app?vid=306d1340-c6ed-4a54-9325-24f0c57c278f","ios":"levelo://app?vid=306d1340-c6ed-4a54-9325-24f0c57c278f"},"vehicle_type_id":"4","last_reported":1762956742,"current_range_meters":17600,"station_id":"ce4bgt12rcd13ifvqcd0","pricing_plan_id":"cebpf4jnsgd1na2vs0mg"},{"bike_id":"ec582d78-ef61-4e40-8a29-0ebbd6b7acdb","system_id":"levelo_inurba_marseille","lat":43.31214,"lon":5.36877,"is_reserved":false,"is_disabled":false,"rental_uris":{"android":"levelo://app?vid=ec582d78-ef61-4e40-8a29-0ebbd6b7acdb","ios":"levelo://app?vid=ec582d78-ef61-4e40-8a29-0ebbd6b7acdb"},"vehicle_type_id":"4","last_reported":1762956742,"current_range_meters":17600,"station_id":"ce4bgl92rcd13ifvqbq0","pricing_plan_id":"cebpf4jnsgd1na2vs0mg"},{"bike_id":"5e31c7d8-3f5b-43e0-9a64-04fd6cacf51c","system_id":"levelo_inurba_marseille","lat":43.30908,"lon":5.36846,"is_reserved":false,"is_disabled":false,"rental_uris":{"android":"levelo://app?vid=5e31c7d8-3f5b-43e0-9a64-04fd6cacf51c","ios":"levelo://app?vid=5e31c7d8-3f5b-43e0-9a64-04fd6cacf51c"},"vehicle_type_id":"4","last_reported":1762956742,"current_range_meters":17600,"station_id":"ce4bgn92rcd13ifvqbvg","pricing_plan_id":"cebpf4jnsgd1na2vs0mg"},{"bike_id":"1a30bf3e-69de-4de5-8bbe-376e03f6db03","system_id":"levelo_inurba_marseille","lat":43.28663,"lon":5.36358,"is_reserved":false,"is_disabled":false,"rental_uris":{"android":"levelo://app?vid=1a30bf3e-69de-4de5-8bbe-376e03f6db03","ios":"levelo://app?vid=1a30bf3e-69de-4de5-8bbe-376e03f6db03"},"vehicle_type_id":"4","last_reported":1762956742,"current_range_meters":17600,"station_id":"ce4bhah2rcd13ifvqej0","pricing_plan_id":"cebpf4jnsgd1na2vs0mg"},{"bike_id":"4f27c235-11df-4df2-bfdf-8938c3d9c6ba","system_id":"levelo_inurba_marseille","lat":43.33779,"lon":5.37411,"is_reserved":false,"is_disabled":false,"rental_uris":{"android":"levelo://app?vid=4f27c235-11df-4df2-bfdf-8938c3d9c6ba","ios":"levelo://app?vid=4f27c235-11df-4df2-bfdf-8938c3d9c6ba"},"vehicle_type_id":"4","last_reported":1762956742,"current_range_meters":17600,"station_id":"","pricing_plan_id":"cebpf4jnsgd1na2vs0mg"},{"bike_id":"e690290b-b188-4bf4-9457-b92ed6970cb4","system_id":"levelo_inurba_marseille","lat":43.21191,"lon":5.35091,"is_reserved":false,"is_disabled":true,"rental_uris":{"android":"levelo://app?vid=e690290b-b188-4bf4-9457-b92ed6970cb4","ios":"levelo://app?vid=e690290b-b188-4bf4-9457-b92ed6970cb4"},"vehicle_type_id":"4","last_reported":1762956742,"current_range_meters":17600,"station_id":"st_cvj6sg6p6f1abm77japg","pricing_plan_id":"cebpf4jnsgd1na2vs0mg"},{"bike_id":"2380415b-651d-4cb4-9936-c30499ae6b46","system_id":"levelo_inurba_marseille","lat":43.217448,"lon":5.346074,"is_reserved":false,"is_disabled":true,"rental_uris":{"android":"levelo://app?vid=2380415b-651d-4cb4-9936-c30499ae6b46","ios":"levelo://app?vid=2380415b-651d-4cb4-9936-c30499ae6b46"},"vehicle_type_id":"4","last_reported":1762956742,"current_range_meters":17600,"station_id":"","pricing_plan_id":"cebpf4jnsgd1na2vs0mg"},{"bike_id":"1826021c-78d5-4bf7-9950-ab922f7cd7e0","system_id":"levelo_inurba_marseille","lat":43.3235,"lon":5.36732,"is_reserved":false,"is_disabled":false,"rental_uris":{"android":"levelo://app?vid=1826021c-78d5-4bf7-9950-ab922f7cd7e0","ios":"levelo://app?vid=1826021c-78d5-4bf7-9950-ab922f7cd7e0"},"vehicle_type_id":"4","last_reported":1762956742,"current_range_meters":18000,"station_id":"ce4bhsh2rcd13ifvqi2g","pricing_plan_id":"cebpf4jnsgd1na2vs0mg"},{"bike_id":"8fd55e53-be61-44d2-b076-f7df406ab515","system_id":"levelo_inurba_marseille","lat":43.305407,"lon":5.365541,"is_reserved":false,"is_disabled":false,"rental_uris":{"android":"levelo://app?vid=8fd55e53-be61-44d2-b076-f7df406ab515","ios":"levelo://app?vid=8fd55e53-be61-44d2-b076-f7df406ab515"},"vehicle_type_id":"4","last_reported":1762956742,"current_range_meters":18000,"station_id":"ce4bgs12rcd13ifvqcag","pricing_plan_id":"cebpf4jnsgd1na2vs0mg"},{"bike_id":"e2a7d982-d002-4482-859a-1dcfe7b5c54a","system_id":"levelo_inurba_marseille","lat":43.27916,"lon":5.41059,"is_reserved":false,"is_disabled":false,"rental_uris":{"android":"levelo://app?vid=e2a7d982-d002-4482-859a-1dcfe7b5c54a","ios":"levelo://app?vid=e2a7d982-d002-4482-859a-1dcfe7b5c54a"},"vehicle_type_id":"4","last_reported":1762956742,"current_range_meters":18000,"station_id":"ce4bhnp2rcd13ifvqh0g","pricing_plan_id":"cebpf4jnsgd1na2vs0mg"},{"bike_id":"f8e6e762-325b-438f-b1fa-404b7b624a44","system_id":"levelo_inurba_marseille","lat":43.25724,"lon":5.4111,"is_reserved":false,"is_disabled":false,"rental_uris":{"android":"levelo://app?vid=f8e6e762-325b-438f-b1fa-404b7b624a44","ios":"levelo://app?vid=f8e6e762-325b-438f-b1fa-404b7b624a44"},"vehicle_type_id":"4","last_reported":1762956742,"current_range_meters":18000,"station_id":"ce4bhkp2rcd13ifvqgd0","pricing_plan_id":"cebpf4jnsgd1na2vs0mg"},{"bike_id":"a68809aa-d0e6-461c-a5e6-8fdb1f2108c8","system_id":"levelo_inurba_marseille","lat":43.28294,"lon":5.35064,"is_reserved":false,"is_disabled":false,"rental_uris":{"android":"levelo://app?vid=a68809aa-d0e6-461c-a5e6-8fdb1f2108c8","ios":"levelo://app?vid=a68809aa-d0e6-461c-a5e6-8fdb1f2108c8"},"vehicle_type_id":"4","last_reported":1762956742,"current_range_meters":18000,"station_id":"ce4bhbp2rcd13ifvqerg","pricing_plan_id":"cebpf4jnsgd1na2vs0mg"},{"bike_id":"c83b5c1b-edab-4bfb-a2f2-d3468c55c2ba","system_id":"levelo_inurba_marseille","lat":43.29155,"lon":5.44873,"is_reserved":false,"is_disabled":false,"rental_uris":{"android":"levelo://app?vid=c83b5c1b-edab-4bfb-a2f2-d3468c55c2ba","ios":"levelo://app?vid=c83b5c1b-edab-4bfb-a2f2-d3468c55c2ba"},"vehicle_type_id":"4","last_reported":1762956742,"current_range_meters":18800,"station_id":"","pricing_plan_id":"cebpf4jnsgd1na2vs0mg"},{"bike_id":"21305870-e2f8-4c1e-9524-0c8018904895","system_id":"levelo_inurba_marseille","lat":43.29921,"lon":5.3747,"is_reserved":false,"is_disabled":false,"rental_uris":{"android":"levelo://app?vid=21305870-e2f8-4c1e-9524-0c8018904895","ios":"levelo://app?vid=21305870-e2f8-4c1e-9524-0c8018904895"},"vehicle_type_id":"4","last_reported":1762956742,"current_range_meters":18800,"station_id":"ce4bgjh2rcd13ifvqbg0","pricing_plan_id":"cebpf4jnsgd1na2vs0mg"},{"bike_id":"0d050f3d-e82f-49c6-8e93-2cd9d8370d52","system_id":"levelo_inurba_marseille","lat":43.30536,"lon":5.365534,"is_reserved":false,"is_disabled":false,"rental_uris":{"android":"levelo://app?vid=0d050f3d-e82f-49c6-8e93-2cd9d8370d52","ios":"levelo://app?vid=0d050f3d-e82f-49c6-8e93-2cd9d8370d52"},"vehicle_type_id":"4","last_reported":1762956742,"current_range_meters":18800,"station_id":"ce4bgs12rcd13ifvqcag","pricing_plan_id":"cebpf4jnsgd1na2vs0mg"},{"bike_id":"3f3db3e0-8786-462c-9790-1156703a5fd2","system_id":"levelo_inurba_marseille","lat":43.229281,"lon":5.353865,"is_reserved":false,"is_disabled":false,"rental_uris":{"android":"levelo://app?vid=3f3db3e0-8786-462c-9790-1156703a5fd2","ios":"levelo://app?vid=3f3db3e0-8786-462c-9790-1156703a5fd2"},"vehicle_type_id":"4","last_reported":1762956742,"current_range_meters":18800,"station_id":"cpo3532slgdg3j2ikp40","pricing_plan_id":"cebpf4jnsgd1na2vs0mg"},{"bike_id":"2996db98-0e13-44d9-8a5e-417832519060","system_id":"levelo_inurba_marseille","lat":43.29541,"lon":5.4229,"is_reserved":false,"is_disabled":false,"rental_uris":{"android":"levelo://app?vid=2996db98-0e13-44d9-8a5e-417832519060","ios":"levelo://app?vid=2996db98-0e13-44d9-8a5e-417832519060"},"vehicle_type_id":"4","last_reported":1762956742,"current_range_meters":18800,"station_id":"ce4bhph2rcd13ifvqhdg","pricing_plan_id":"cebpf4jnsgd1na2vs0mg"},{"bike_id":"48812cf1-d406-4ddc-ac37-09889e751308","system_id":"levelo_inurba_marseille","lat":43.32098,"lon":5.36805,"is_reserved":false,"is_disabled":false,"rental_uris":{"android":"levelo://app?vid=48812cf1-d406-4ddc-ac37-09889e751308","ios":"levelo://app?vid=48812cf1-d406-4ddc-ac37-09889e751308"},"vehicle_type_id":"4","last_reported":1762956742,"current_range_meters":18800,"station_id":"ce4bhrh2rcd13ifvqhug","pricing_plan_id":"cebpf4jnsgd1na2vs0mg"},{"bike_id":"5baf5c97-0f2e-4921-baa4-5b466d912321","system_id":"levelo_inurba_marseille","lat":43.23157,"lon":5.43703,"is_reserved":false,"is_disabled":false,"rental_uris":{"android":"levelo://app?vid=5baf5c97-0f2e-4921-baa4-5b466d912321","ios":"levelo://app?vid=5baf5c97-0f2e-4921-baa4-5b466d912321"},"vehicle_type_id":"4","last_reported":1762956742,"current_range_meters":18800,"station_id":"ce4bhmp2rcd13ifvqgog","pricing_plan_id":"cebpf4jnsgd1na2vs0mg"},{"bike_id":"8854e0f8-2621-48f8-a7a2-28e46986f037","system_id":"levelo_inurba_marseille","lat":43.27665,"lon":5.38884,"is_reserved":false,"is_disabled":false,"rental_uris":{"android":"levelo://app?vid=8854e0f8-2621-48f8-a7a2-28e46986f037","ios":"levelo://app?vid=8854e0f8-2621-48f8-a7a2-28e46986f037"},"vehicle_type_id":"4","last_reported":1762956742,"current_range_meters":18800,"station_id":"ce4bhi12rcd13ifvqfo0","pricing_plan_id":"cebpf4jnsgd1na2vs0mg"},{"bike_id":"907c60b5-95ce-427d-ae5e-9153d3b68966","system_id":"levelo_inurba_marseille","lat":43.283386,"lon":5.350281,"is_reserved":false,"is_disabled":false,"rental_uris":{"android":"levelo://app?vid=907c60b5-95ce-427d-ae5e-9153d3b68966","ios":"levelo://app?vid=907c60b5-95ce-427d-ae5e-9153d3b68966"},"vehicle_type_id":"4","last_reported":1762956742,"current_range_meters":19200,"station_id":"","pricing_plan_id":"cebpf4jnsgd1na2vs0mg"},{"bike_id":"8fb42f02-18ff-415d-aad4-9898ce515f3f","system_id":"levelo_inurba_marseille","lat":43.23155,"lon":5.4372,"is_reserved":false,"is_disabled":false,"rental_uris":{"android":"levelo://app?vid=8fb42f02-18ff-415d-aad4-9898ce515f3f","ios":"levelo://app?vid=8fb42f02-18ff-415d-aad4-9898ce515f3f"},"vehicle_type_id":"4","last_reported":1762956742,"current_range_meters":19200,"station_id":"ce4bhmp2rcd13ifvqgog","pricing_plan_id":"cebpf4jnsgd1na2vs0mg"},{"bike_id":"fbbbd21e-827d-4012-9a04-5e64f73afc68","system_id":"levelo_inurba_marseille","lat":43.30281,"lon":5.37708,"is_reserved":false,"is_disabled":false,"rental_uris":{"android":"levelo://app?vid=fbbbd21e-827d-4012-9a04-5e64f73afc68","ios":"levelo://app?vid=fbbbd21e-827d-4012-9a04-5e64f73afc68"},"vehicle_type_id":"4","last_reported":1762956742,"current_range_meters":19200,"station_id":"ce4bguh2rcd13ifvqcj0","pricing_plan_id":"cebpf4jnsgd1na2vs0mg"},{"bike_id":"33112738-bd15-41d4-aae1-465688929b4c","system_id":"levelo_inurba_marseille","lat":43.30676,"lon":5.39527,"is_reserved":false,"is_disabled":false,"rental_uris":{"android":"levelo://app?vid=33112738-bd15-41d4-aae1-465688929b4c","ios":"levelo://app?vid=33112738-bd15-41d4-aae1-465688929b4c"},"vehicle_type_id":"4","last_reported":1762956742,"current_range_meters":19200,"station_id":"","pricing_plan_id":"cebpf4jnsgd1na2vs0mg"},{"bike_id":"af54c478-9567-441c-8802-eb3d7c9ad5d5","system_id":"levelo_inurba_marseille","lat":43.30002,"lon":5.38896,"is_reserved":false,"is_disabled":false,"rental_uris":{"android":"levelo://app?vid=af54c478-9567-441c-8802-eb3d7c9ad5d5","ios":"levelo://app?vid=af54c478-9567-441c-8802-eb3d7c9ad5d5"},"vehicle_type_id":"4","last_reported":1762956742,"current_range_meters":19200,"station_id":"","pricing_plan_id":"cebpf4jnsgd1na2vs0mg"},{"bike_id":"7cbbc2fb-70fd-4359-bcfa-13236dd902ab","system_id":"levelo_inurba_marseille","lat":43.279145,"lon":5.395719,"is_reserved":false,"is_disabled":false,"rental_uris":{"android":"levelo://app?vid=7cbbc2fb-70fd-4359-bcfa-13236dd902ab","ios":"levelo://app?vid=7cbbc2fb-70fd-4359-bcfa-13236dd902ab"},"vehicle_type_id":"4","last_reported":1762956742,"current_range_meters":19200,"station_id":"ce4bhf92rcd13ifvqf40","pricing_plan_id":"cebpf4jnsgd1na2vs0mg"},{"bike_id":"30b41e82-9b75-44bc-b241-bf93939ebc74","system_id":"levelo_inurba_marseille","lat":43.28864,"lon":5.42516,"is_reserved":false,"is_disabled":false,"rental_uris":{"android":"levelo://app?vid=30b41e82-9b75-44bc-b241-bf93939ebc74","ios":"levelo://app?vid=30b41e82-9b75-44bc-b241-bf93939ebc74"},"vehicle_type_id":"4","last_reported":1762956742,"current_range_meters":19200,"station_id":"st_d3b462108ojc7389ooeg","pricing_plan_id":"cebpf4jnsgd1na2vs0mg"},{"bike_id":"79a0ef25-540d-4b3c-a810-865cc17db84c","system_id":"levelo_inurba_marseille","lat":43.28465,"lon":5.35889,"is_reserved":false,"is_disabled":false,"rental_uris":{"android":"levelo://app?vid=79a0ef25-540d-4b3c-a810-865cc17db84c","ios":"levelo://app?vid=79a0ef25-540d-4b3c-a810-865cc17db84c"},"vehicle_type_id":"4","last_reported":1762956742,"current_range_meters":19200,"station_id":"ce4bhah2rcd13ifvqei0","pricing_plan_id":"cebpf4jnsgd1na2vs0mg"},{"bike_id":"cc0f8ca4-ae33-432c-aefe-5c00c9e85faf","system_id":"levelo_inurba_marseille","lat":43.28857,"lon":5.42515,"is_reserved":false,"is_disabled":false,"rental_uris":{"android":"levelo://app?vid=cc0f8ca4-ae33-432c-aefe-5c00c9e85faf","ios":"levelo://app?vid=cc0f8ca4-ae33-432c-aefe-5c00c9e85faf"},"vehicle_type_id":"4","last_reported":1762956742,"current_range_meters":19200,"station_id":"st_d3b462108ojc7389ooeg","pricing_plan_id":"cebpf4jnsgd1na2vs0mg"},{"bike_id":"867402a0-403e-4fa2-8eea-e8306fc78376","system_id":"levelo_inurba_marseille","lat":43.28215,"lon":5.39054,"is_reserved":false,"is_disabled":false,"rental_uris":{"android":"levelo://app?vid=867402a0-403e-4fa2-8eea-e8306fc78376","ios":"levelo://app?vid=867402a0-403e-4fa2-8eea-e8306fc78376"},"vehicle_type_id":"4","last_reported":1762956742,"current_range_meters":19200,"station_id":"ce4bhn92rcd13ifvqgsg","pricing_plan_id":"cebpf4jnsgd1na2vs0mg"},{"bike_id":"4930e871-eeac-40ca-b4ee-36ddc8ee3366","system_id":"levelo_inurba_marseille","lat":43.23198,"lon":5.35532,"is_reserved":false,"is_disabled":false,"rental_uris":{"android":"levelo://app?vid=4930e871-eeac-40ca-b4ee-36ddc8ee3366","ios":"levelo://app?vid=4930e871-eeac-40ca-b4ee-36ddc8ee3366"},"vehicle_type_id":"4","last_reported":1762956742,"current_range_meters":19200,"station_id":"ce4bhu92rcd13ifvqi70","pricing_plan_id":"cebpf4jnsgd1na2vs0mg"},{"bike_id":"7a1ef263-c216-402e-bafc-92d8214c104a","system_id":"levelo_inurba_marseille","lat":43.337444,"lon":5.374475,"is_reserved":false,"is_disabled":false,"rental_uris":{"android":"levelo://app?vid=7a1ef263-c216-402e-bafc-92d8214c104a","ios":"levelo://app?vid=7a1ef263-c216-402e-bafc-92d8214c104a"},"vehicle_type_id":"4","last_reported":1762956742,"current_range_meters":19600,"station_id":"","pricing_plan_id":"cebpf4jnsgd1na2vs0mg"},{"bike_id":"ab17ac4f-a279-4845-bb73-3855c94bea23","system_id":"levelo_inurba_marseille","lat":43.30525,"lon":5.36554,"is_reserved":false,"is_disabled":false,"rental_uris":{"android":"levelo://app?vid=ab17ac4f-a279-4845-bb73-3855c94bea23","ios":"levelo://app?vid=ab17ac4f-a279-4845-bb73-3855c94bea23"},"vehicle_type_id":"4","last_reported":1762956742,"current_range_meters":19600,"station_id":"ce4bgs12rcd13ifvqcag","pricing_plan_id":"cebpf4jnsgd1na2vs0mg"},{"bike_id":"89f28ec1-2608-49c7-be6b-4391096987d3","system_id":"levelo_inurba_marseille","lat":43.27176,"lon":5.40997,"is_reserved":false,"is_disabled":false,"rental_uris":{"android":"levelo://app?vid=89f28ec1-2608-49c7-be6b-4391096987d3","ios":"levelo://app?vid=89f28ec1-2608-49c7-be6b-4391096987d3"},"vehicle_type_id":"4","last_reported":1762956742,"current_range_meters":19600,"station_id":"ce4bhl12rcd13ifvqgf0","pricing_plan_id":"cebpf4jnsgd1na2vs0mg"},{"bike_id":"f9f36748-9764-48ce-be89-00c313effd75","system_id":"levelo_inurba_marseille","lat":43.335457,"lon":5.37447,"is_reserved":false,"is_disabled":false,"rental_uris":{"android":"levelo://app?vid=f9f36748-9764-48ce-be89-00c313effd75","ios":"levelo://app?vid=f9f36748-9764-48ce-be89-00c313effd75"},"vehicle_type_id":"4","last_reported":1762956742,"current_range_meters":19600,"station_id":"st_d46tts09ee8s73dlu43g","pricing_plan_id":"cebpf4jnsgd1na2vs0mg"},{"bike_id":"a0b16e07-7067-4bb6-927d-a5ecdd96094a","system_id":"levelo_inurba_marseille","lat":43.30539,"lon":5.36528,"is_reserved":false,"is_disabled":false,"rental_uris":{"android":"levelo://app?vid=a0b16e07-7067-4bb6-927d-a5ecdd96094a","ios":"levelo://app?vid=a0b16e07-7067-4bb6-927d-a5ecdd96094a"},"vehicle_type_id":"4","last_reported":1762956742,"current_range_meters":19600,"station_id":"ce4bgs12rcd13ifvqcag","pricing_plan_id":"cebpf4jnsgd1na2vs0mg"},{"bike_id":"49441bdb-42ce-40ff-bc19-6a1251d2031e","system_id":"levelo_inurba_marseille","lat":43.26803,"lon":5.4027,"is_reserved":false,"is_disabled":false,"rental_uris":{"android":"levelo://app?vid=49441bdb-42ce-40ff-bc19-6a1251d2031e","ios":"levelo://app?vid=49441bdb-42ce-40ff-bc19-6a1251d2031e"},"vehicle_type_id":"4","last_reported":1762956742,"current_range_meters":19600,"station_id":"ce501612rcd8frsf0b60","pricing_plan_id":"cebpf4jnsgd1na2vs0mg"},{"bike_id":"06eb574a-64cf-47d8-af69-ac973ce42a77","system_id":"levelo_inurba_marseille","lat":43.25581,"lon":5.38229,"is_reserved":false,"is_disabled":false,"rental_uris":{"android":"levelo://app?vid=06eb574a-64cf-47d8-af69-ac973ce42a77","ios":"levelo://app?vid=06eb574a-64cf-47d8-af69-ac973ce42a77"},"vehicle_type_id":"4","last_reported":1762956742,"current_range_meters":20000,"station_id":"ce4bhih2rcd13ifvqfs0","pricing_plan_id":"cebpf4jnsgd1na2vs0mg"},{"bike_id":"1cd94639-ec8b-4901-a526-c1b3a8882626","system_id":"levelo_inurba_marseille","lat":43.21744,"lon":5.34603,"is_reserved":false,"is_disabled":false,"rental_uris":{"android":"levelo://app?vid=1cd94639-ec8b-4901-a526-c1b3a8882626","ios":"levelo://app?vid=1cd94639-ec8b-4901-a526-c1b3a8882626"},"vehicle_type_id":"4","last_reported":1762956742,"current_range_meters":20000,"station_id":"st_cvj6r9ubvosntc0bgbag","pricing_plan_id":"cebpf4jnsgd1na2vs0mg"},{"bike_id":"b568d2c3-d20b-47ec-9444-65b9d0adcc4c","system_id":"levelo_inurba_marseille","lat":43.31262,"lon":5.36803,"is_reserved":false,"is_disabled":false,"rental_uris":{"android":"levelo://app?vid=b568d2c3-d20b-47ec-9444-65b9d0adcc4c","ios":"levelo://app?vid=b568d2c3-d20b-47ec-9444-65b9d0adcc4c"},"vehicle_type_id":"4","last_reported":1762956742,"current_range_meters":20000,"station_id":"","pricing_plan_id":"cebpf4jnsgd1na2vs0mg"},{"bike_id":"391c3d89-50ac-43cb-8a56-a96ab0bc2aa5","system_id":"levelo_inurba_marseille","lat":43.2559,"lon":5.3822,"is_reserved":false,"is_disabled":false,"rental_uris":{"android":"levelo://app?vid=391c3d89-50ac-43cb-8a56-a96ab0bc2aa5","ios":"levelo://app?vid=391c3d89-50ac-43cb-8a56-a96ab0bc2aa5"},"vehicle_type_id":"4","last_reported":1762956742,"current_range_meters":20000,"station_id":"ce4bhih2rcd13ifvqfs0","pricing_plan_id":"cebpf4jnsgd1na2vs0mg"},{"bike_id":"fc49e022-916b-4364-8aae-868a9613aae0","system_id":"levelo_inurba_marseille","lat":43.278135,"lon":5.407115,"is_reserved":false,"is_disabled":false,"rental_uris":{"android":"levelo://app?vid=fc49e022-916b-4364-8aae-868a9613aae0","ios":"levelo://app?vid=fc49e022-916b-4364-8aae-868a9613aae0"},"vehicle_type_id":"4","last_reported":1762956742,"current_range_meters":20000,"station_id":"ce4bhnh2rcd13ifvqgtg","pricing_plan_id":"cebpf4jnsgd1na2vs0mg"},{"bike_id":"d50db5b2-722f-4c3f-a48a-a8e4b60c0e9c","system_id":"levelo_inurba_marseille","lat":43.24675,"lon":5.38158,"is_reserved":false,"is_disabled":false,"rental_uris":{"android":"levelo://app?vid=d50db5b2-722f-4c3f-a48a-a8e4b60c0e9c","ios":"levelo://app?vid=d50db5b2-722f-4c3f-a48a-a8e4b60c0e9c"},"vehicle_type_id":"4","last_reported":1762956742,"current_range_meters":20000,"station_id":"ce4bhih2rcd13ifvqfr0","pricing_plan_id":"cebpf4jnsgd1na2vs0mg"},{"bike_id":"d2a70951-ec60-4026-bd54-ab9535dc265a","system_id":"levelo_inurba_marseille","lat":43.23153,"lon":5.43716,"is_reserved":false,"is_disabled":false,"rental_uris":{"android":"levelo://app?vid=d2a70951-ec60-4026-bd54-ab9535dc265a","ios":"levelo://app?vid=d2a70951-ec60-4026-bd54-ab9535dc265a"},"vehicle_type_id":"4","last_reported":1762956742,"current_range_meters":20000,"station_id":"ce4bhmp2rcd13ifvqgog","pricing_plan_id":"cebpf4jnsgd1na2vs0mg"},{"bike_id":"3d9ecbd2-3a7b-49f6-9333-c9b065aa9e25","system_id":"levelo_inurba_marseille","lat":43.25708,"lon":5.41112,"is_reserved":false,"is_disabled":false,"rental_uris":{"android":"levelo://app?vid=3d9ecbd2-3a7b-49f6-9333-c9b065aa9e25","ios":"levelo://app?vid=3d9ecbd2-3a7b-49f6-9333-c9b065aa9e25"},"vehicle_type_id":"4","last_reported":1762956742,"current_range_meters":20000,"station_id":"ce4bhkp2rcd13ifvqgd0","pricing_plan_id":"cebpf4jnsgd1na2vs0mg"},{"bike_id":"8ef0cb56-0e71-41d9-b275-806b91d57c45","system_id":"levelo_inurba_marseille","lat":43.31715,"lon":5.42401,"is_reserved":false,"is_disabled":false,"rental_uris":{"android":"levelo://app?vid=8ef0cb56-0e71-41d9-b275-806b91d57c45","ios":"levelo://app?vid=8ef0cb56-0e71-41d9-b275-806b91d57c45"},"vehicle_type_id":"4","last_reported":1762956742,"current_range_meters":20000,"station_id":"ce4bhp92rcd13ifvqhbg","pricing_plan_id":"cebpf4jnsgd1na2vs0mg"},{"bike_id":"7760fa93-ed4c-47d8-af88-9c67277e6b43","system_id":"levelo_inurba_marseille","lat":43.30811,"lon":5.38156,"is_reserved":false,"is_disabled":false,"rental_uris":{"android":"levelo://app?vid=7760fa93-ed4c-47d8-af88-9c67277e6b43","ios":"levelo://app?vid=7760fa93-ed4c-47d8-af88-9c67277e6b43"},"vehicle_type_id":"4","last_reported":1762956742,"current_range_meters":20000,"station_id":"ce4bgt12rcd13ifvqce0","pricing_plan_id":"cebpf4jnsgd1na2vs0mg"},{"bike_id":"c9de4135-db25-44b6-a69e-f545ebfb7117","system_id":"levelo_inurba_marseille","lat":43.27326,"lon":5.3907,"is_reserved":false,"is_disabled":false,"rental_uris":{"android":"levelo://app?vid=c9de4135-db25-44b6-a69e-f545ebfb7117","ios":"levelo://app?vid=c9de4135-db25-44b6-a69e-f545ebfb7117"},"vehicle_type_id":"4","last_reported":1762956742,"current_range_meters":20400,"station_id":"ce4bhgp2rcd13ifvqfe0","pricing_plan_id":"cebpf4jnsgd1na2vs0mg"},{"bike_id":"76647ca2-7b67-413c-b97c-5f22f5808d46","system_id":"levelo_inurba_marseille","lat":43.29975,"lon":5.3718,"is_reserved":false,"is_disabled":false,"rental_uris":{"android":"levelo://app?vid=76647ca2-7b67-413c-b97c-5f22f5808d46","ios":"levelo://app?vid=76647ca2-7b67-413c-b97c-5f22f5808d46"},"vehicle_type_id":"4","last_reported":1762956742,"current_range_meters":20400,"station_id":"ce4bgr92rcd13ifvqc7g","pricing_plan_id":"cebpf4jnsgd1na2vs0mg"},{"bike_id":"463a2222-cf92-4007-943d-15872b32f98e","system_id":"levelo_inurba_marseille","lat":43.26518,"lon":5.39032,"is_reserved":false,"is_disabled":true,"rental_uris":{"android":"levelo://app?vid=463a2222-cf92-4007-943d-15872b32f98e","ios":"levelo://app?vid=463a2222-cf92-4007-943d-15872b32f98e"},"vehicle_type_id":"4","last_reported":1762956742,"current_range_meters":20400,"station_id":"ce4bhe12rcd13ifvqf30","pricing_plan_id":"cebpf4jnsgd1na2vs0mg"},{"bike_id":"6fd01c86-4389-4391-976f-7c0a073c4252","system_id":"levelo_inurba_marseille","lat":43.28417,"lon":5.3498,"is_reserved":false,"is_disabled":false,"rental_uris":{"android":"levelo://app?vid=6fd01c86-4389-4391-976f-7c0a073c4252","ios":"levelo://app?vid=6fd01c86-4389-4391-976f-7c0a073c4252"},"vehicle_type_id":"4","last_reported":1762956742,"current_range_meters":20400,"station_id":"ce4bhbh2rcd13ifvqepg","pricing_plan_id":"cebpf4jnsgd1na2vs0mg"},