{"last_updated":1778280241,"ttl":60,"version":"2.2","data":{"bikes":[{"bike_id":"abf7ac8f-7bde-48a6-ac65-f746d6d3287d","system_id":"levelo_inurba_marseille","lat":43.2706,"lon":5.3875,"is_reserved":false,"is_disabled":false,"rental_uris":{"android":"levelo://app?vid=abf7ac8f-7bde-48a6-ac65-f746d6d3287d","ios":"levelo://app?vid=abf7ac8f-7bde-48a6-ac65-f746d6d3287d"},"vehicle_type_id":"4","last_reported":1778280242,"current_range_meters":2800,"station_id":"","pricing_plan_id":"cebpf4jnsgd1na2vs0mg"},{"bike_id":"fd21a914-87ce-4797-b59d-c89581bcda04","system_id":"levelo_inurba_marseille","lat":43.30609,"lon":5.43009,"is_reserved":false,"is_disabled":false,"rental_uris":{"android":"levelo://app?vid=fd21a914-87ce-4797-b59d-c89581bcda04","ios":"levelo://app?vid=fd21a914-87ce-4797-b59d-c89581bcda04"},"vehicle_type_id":"4","last_reported":1778280242,"current_range_meters":2800,"station_id":"","pricing_plan_id":"cebpf4jnsgd1na2vs0mg"},{"bike_id":"da0359eb-771b-4da3-8076-d03c95d36ca9","system_id":"levelo_inurba_marseille","lat":43.26883,"lon":5.36868,"is_reserved":false,"is_disabled":false,"rental_uris":{"android":"levelo://app?vid=da0359eb-771b-4da3-8076-d03c95d36ca9","ios":"levelo://app?vid=da0359eb-771b-4da3-8076-d03c95d36ca9"},"vehicle_type_id":"4","last_reported":1778280242,"current_range_meters":2800,"station_id":"","pricing_plan_id":"cebpf4jnsgd1na2vs0mg"},{"bike_id":"8092cdff-94c6-41a3-892c-47b089d25121","system_id":"levelo_inurba_marseille","lat":43.31288,"lon":5.41658,"is_reserved":false,"is_disabled":false,"rental_uris":{"android":"levelo://app?vid=8092cdff-94c6-41a3-892c-47b089d25121","ios":"levelo://app?vid=8092cdff-94c6-41a3-892c-47b089d25121"},"vehicle_type_id":"4","last_reported":1778280242,"current_range_meters":2800,"station_id":"","pricing_plan_id":"cebpf4jnsgd1na2vs0mg"},{"bike_id":"1eb1412a-e5bb-4a66-8e0d-ac1e5a33e6fe","system_id":"levelo_inurba_marseille","lat":43.25503,"lon":5.37644,"is_reserved":false,"is_disabled":true,"rental_uris":{"android":"levelo://app?vid=1eb1412a-e5bb-4a66-8e0d-ac1e5a33e6fe","ios":"levelo://app?vid=1eb1412a-e5bb-4a66-8e0d-ac1e5a33e6fe"},"vehicle_type_id":"4","last_reported":1778280242,"current_range_meters":2800,"station_id":"ce4bhh12rcd13ifvqff0","pricing_plan_id":"cebpf4jnsgd1na2vs0mg"},{"bike_id":"68042ed3-2899-44e5-be96-db2ed15455e6","system_id":"levelo_inurba_marseille","lat":43.27935,"lon":5.41035,"is_reserved":false,"is_disabled":false,"rental_uris":{"android":"levelo://app?vid=68042ed3-2899-44e5-be96-db2ed15455e6","ios":"levelo://app?vid=68042ed3-2899-44e5-be96-db2ed15455e6"},"vehicle_type_id":"4","last_reported":1778280242,"current_range_meters":3200,"station_id":"ce4bhnp2rcd13ifvqh0g","pricing_plan_id":"cebpf4jnsgd1na2vs0mg"},{"bike_id":"d1965583-dcb5-4292-81a2-e52d5f84ef92","system_id":"levelo_inurba_marseille","lat":43.27364,"lon":5.36237,"is_reserved":false,"is_disabled":true,"rental_uris":{"android":"levelo://app?vid=d1965583-dcb5-4292-81a2-e52d5f84ef92","ios":"levelo://app?vid=d1965583-dcb5-4292-81a2-e52d5f84ef92"},"vehicle_type_id":"4","last_reported":1778280242,"current_range_meters":3200,"station_id":"ce4bhbh2rcd13ifvqeo0","pricing_plan_id":"cebpf4jnsgd1na2vs0mg"},{"bike_id":"b5668d4b-3344-4040-8830-5fbdb8dd1859","system_id":"levelo_inurba_marseille","lat":43.27195,"lon":5.39096,"is_reserved":false,"is_disabled":false,"rental_uris":{"android":"levelo://app?vid=b5668d4b-3344-4040-8830-5fbdb8dd1859","ios":"levelo://app?vid=b5668d4b-3344-4040-8830-5fbdb8dd1859"},"vehicle_type_id":"4","last_reported":1778280242,"current_range_meters":3200,"station_id":"","pricing_plan_id":"cebpf4jnsgd1na2vs0mg"},{"bike_id":"9c98ee12-bcf5-4849-9f6e-2d72d58f327b","system_id":"levelo_inurba_marseille","lat":43.23048,"lon":5.35474,"is_reserved":false,"is_disabled":true,"rental_uris":{"android":"levelo://app?vid=9c98ee12-bcf5-4849-9f6e-2d72d58f327b","ios":"levelo://app?vid=9c98ee12-bcf5-4849-9f6e-2d72d58f327b"},"vehicle_type_id":"4","last_reported":1778280242,"current_range_meters":3200,"station_id":"cpo3342slgdg3j2ifvpg","pricing_plan_id":"cebpf4jnsgd1na2vs0mg"},{"bike_id":"177be99c-05ba-463e-91f6-7bffbded8276","system_id":"levelo_inurba_marseille","lat":43.29579,"lon":5.36741,"is_reserved":false,"is_disabled":true,"rental_uris":{"android":"levelo://app?vid=177be99c-05ba-463e-91f6-7bffbded8276","ios":"levelo://app?vid=177be99c-05ba-463e-91f6-7bffbded8276"},"vehicle_type_id":"4","last_reported":1778280242,"current_range_meters":3200,"station_id":"ce4bgph2rcd13ifvqc2g","pricing_plan_id":"cebpf4jnsgd1na2vs0mg"},{"bike_id":"c21715f7-94af-4eec-9ebd-466e92890cb6","system_id":"levelo_inurba_marseille","lat":43.26558,"lon":5.390463,"is_reserved":false,"is_disabled":false,"rental_uris":{"android":"levelo://app?vid=c21715f7-94af-4eec-9ebd-466e92890cb6","ios":"levelo://app?vid=c21715f7-94af-4eec-9ebd-466e92890cb6"},"vehicle_type_id":"4","last_reported":1778280242,"current_range_meters":3200,"station_id":"ce4bhe12rcd13ifvqf30","pricing_plan_id":"cebpf4jnsgd1na2vs0mg"},{"bike_id":"eb2d00c4-5eee-4f74-8af9-14e5029fda21","system_id":"levelo_inurba_marseille","lat":43.30209,"lon":5.38044,"is_reserved":false,"is_disabled":true,"rental_uris":{"android":"levelo://app?vid=eb2d00c4-5eee-4f74-8af9-14e5029fda21","ios":"levelo://app?vid=eb2d00c4-5eee-4f74-8af9-14e5029fda21"},"vehicle_type_id":"4","last_reported":1778280242,"current_range_meters":3600,"station_id":"","pricing_plan_id":"cebpf4jnsgd1na2vs0mg"},{"bike_id":"34be596a-bf82-477b-a07e-6719d261a47e","system_id":"levelo_inurba_marseille","lat":43.25091,"lon":5.39508,"is_reserved":false,"is_disabled":false,"rental_uris":{"android":"levelo://app?vid=34be596a-bf82-477b-a07e-6719d261a47e","ios":"levelo://app?vid=34be596a-bf82-477b-a07e-6719d261a47e"},"vehicle_type_id":"4","last_reported":1778280242,"current_range_meters":3600,"station_id":"ce4bhm12rcd13ifvqgkg","pricing_plan_id":"cebpf4jnsgd1na2vs0mg"},{"bike_id":"dd7e2a16-55c8-4796-8974-0afa585e1160","system_id":"levelo_inurba_marseille","lat":43.2549,"lon":5.37646,"is_reserved":false,"is_disabled":true,"rental_uris":{"android":"levelo://app?vid=dd7e2a16-55c8-4796-8974-0afa585e1160","ios":"levelo://app?vid=dd7e2a16-55c8-4796-8974-0afa585e1160"},"vehicle_type_id":"4","last_reported":1778280242,"current_range_meters":3600,"station_id":"ce4bhh12rcd13ifvqff0","pricing_plan_id":"cebpf4jnsgd1na2vs0mg"},{"bike_id":"b800ad74-3b4b-45c8-ae12-e10270cb2914","system_id":"levelo_inurba_marseille","lat":43.27954,"lon":5.38754,"is_reserved":false,"is_disabled":false,"rental_uris":{"android":"levelo://app?vid=b800ad74-3b4b-45c8-ae12-e10270cb2914","ios":"levelo://app?vid=b800ad74-3b4b-45c8-ae12-e10270cb2914"},"vehicle_type_id":"4","last_reported":1778280242,"current_range_meters":3600,"station_id":"ce4bhg12rcd13ifvqf80","pricing_plan_id":"cebpf4jnsgd1na2vs0mg"},{"bike_id":"b7747a29-4ab9-4600-99c2-c1555eceffb1","system_id":"levelo_inurba_marseille","lat":43.30921,"lon":5.38253,"is_reserved":false,"is_disabled":false,"rental_uris":{"android":"levelo://app?vid=b7747a29-4ab9-4600-99c2-c1555eceffb1","ios":"levelo://app?vid=b7747a29-4ab9-4600-99c2-c1555eceffb1"},"vehicle_type_id":"4","last_reported":1778280242,"current_range_meters":3600,"station_id":"","pricing_plan_id":"cebpf4jnsgd1na2vs0mg"},{"bike_id":"6246a765-b778-462f-b922-b84d59bc552c","system_id":"levelo_inurba_marseille","lat":43.24393,"lon":5.37091,"is_reserved":false,"is_disabled":false,"rental_uris":{"android":"levelo://app?vid=6246a765-b778-462f-b922-b84d59bc552c","ios":"levelo://app?vid=6246a765-b778-462f-b922-b84d59bc552c"},"vehicle_type_id":"4","last_reported":1778280242,"current_range_meters":3600,"station_id":"ce4bhhh2rcd13ifvqfk0","pricing_plan_id":"cebpf4jnsgd1na2vs0mg"},{"bike_id":"d44cc199-235c-403d-ae58-3d4a17f3de38","system_id":"levelo_inurba_marseille","lat":43.27679,"lon":5.38858,"is_reserved":false,"is_disabled":false,"rental_uris":{"android":"levelo://app?vid=d44cc199-235c-403d-ae58-3d4a17f3de38","ios":"levelo://app?vid=d44cc199-235c-403d-ae58-3d4a17f3de38"},"vehicle_type_id":"4","last_reported":1778280242,"current_range_meters":3600,"station_id":"ce4bhi12rcd13ifvqfo0","pricing_plan_id":"cebpf4jnsgd1na2vs0mg"},{"bike_id":"f8430446-7d85-46a8-8125-34f5eb0c4b59","system_id":"levelo_inurba_marseille","lat":43.24809,"lon":5.37465,"is_reserved":false,"is_disabled":false,"rental_uris":{"android":"levelo://app?vid=f8430446-7d85-46a8-8125-34f5eb0c4b59","ios":"levelo://app?vid=f8430446-7d85-46a8-8125-34f5eb0c4b59"},"vehicle_type_id":"4","last_reported":1778280242,"current_range_meters":4000,"station_id":"ce4bhgh2rcd13ifvqfb0","pricing_plan_id":"cebpf4jnsgd1na2vs0mg"},{"bike_id":"78603c2e-11b9-4397-9e69-0d2887e5cdd7","system_id":"levelo_inurba_marseille","lat":43.3316,"lon":5.37677,"is_reserved":false,"is_disabled":false,"rental_uris":{"android":"levelo://app?vid=78603c2e-11b9-4397-9e69-0d2887e5cdd7","ios":"levelo://app?vid=78603c2e-11b9-4397-9e69-0d2887e5cdd7"},"vehicle_type_id":"4","last_reported":1778280242,"current_range_meters":4000,"station_id":"st_d46cu089ee8s73dldbu0","pricing_plan_id":"cebpf4jnsgd1na2vs0mg"},{"bike_id":"78df139b-7ece-40c9-97a8-bcf0eed69b17","system_id":"levelo_inurba_marseille","lat":43.29889,"lon":5.43663,"is_reserved":false,"is_disabled":false,"rental_uris":{"android":"levelo://app?vid=78df139b-7ece-40c9-97a8-bcf0eed69b17","ios":"levelo://app?vid=78df139b-7ece-40c9-97a8-bcf0eed69b17"},"vehicle_type_id":"4","last_reported":1778280242,"current_range_meters":4000,"station_id":"ce4bhpp2rcd13ifvqhfg","pricing_plan_id":"cebpf4jnsgd1na2vs0mg"},{"bike_id":"7ebded6a-b44e-4b27-9624-d27cf666a3c2","system_id":"levelo_inurba_marseille","lat":43.26178,"lon":5.37044,"is_reserved":false,"is_disabled":false,"rental_uris":{"android":"levelo://app?vid=7ebded6a-b44e-4b27-9624-d27cf666a3c2","ios":"levelo://app?vid=7ebded6a-b44e-4b27-9624-d27cf666a3c2"},"vehicle_type_id":"4","last_reported":1778280242,"current_range_meters":4000,"station_id":"","pricing_plan_id":"cebpf4jnsgd1na2vs0mg"},{"bike_id":"acda420d-c0c2-4021-b9df-ca6acbade99f","system_id":"levelo_inurba_marseille","lat":43.28943,"lon":5.39628,"is_reserved":false,"is_disabled":true,"rental_uris":{"android":"levelo://app?vid=acda420d-c0c2-4021-b9df-ca6acbade99f","ios":"levelo://app?vid=acda420d-c0c2-4021-b9df-ca6acbade99f"},"vehicle_type_id":"4","last_reported":1778280242,"current_range_meters":4000,"station_id":"ce4bh3h2rcd13ifvqdn0","pricing_plan_id":"cebpf4jnsgd1na2vs0mg"},{"bike_id":"1ddc1113-73b7-4315-8e19-72e8d59e47ee","system_id":"levelo_inurba_marseille","lat":43.30106,"lon":5.38401,"is_reserved":false,"is_disabled":false,"rental_uris":{"android":"levelo://app?vid=1ddc1113-73b7-4315-8e19-72e8d59e47ee","ios":"levelo://app?vid=1ddc1113-73b7-4315-8e19-72e8d59e47ee"},"vehicle_type_id":"4","last_reported":1778280242,"current_range_meters":4000,"station_id":"","pricing_plan_id":"cebpf4jnsgd1na2vs0mg"},{"bike_id":"26808864-edd9-48ef-b4f9-6a35d8d7c7ef","system_id":"levelo_inurba_marseille","lat":43.23965,"lon":5.36631,"is_reserved":false,"is_disabled":true,"rental_uris":{"android":"levelo://app?vid=26808864-edd9-48ef-b4f9-6a35d8d7c7ef","ios":"levelo://app?vid=26808864-edd9-48ef-b4f9-6a35d8d7c7ef"},"vehicle_type_id":"4","last_reported":1778280242,"current_range_meters":4000,"station_id":"ce4bhi12rcd13ifvqfp0","pricing_plan_id":"cebpf4jnsgd1na2vs0mg"},{"bike_id":"21488885-1ab9-4af5-9460-511b7d08c308","system_id":"levelo_inurba_marseille","lat":43.298534,"lon":5.362977,"is_reserved":false,"is_disabled":false,"rental_uris":{"android":"levelo://app?vid=21488885-1ab9-4af5-9460-511b7d08c308","ios":"levelo://app?vid=21488885-1ab9-4af5-9460-511b7d08c308"},"vehicle_type_id":"4","last_reported":1778280242,"current_range_meters":4000,"station_id":"ce4bgpp2rcd13ifvqc3g","pricing_plan_id":"cebpf4jnsgd1na2vs0mg"},{"bike_id":"22540de7-8630-43e4-a5f4-94906185db58","system_id":"levelo_inurba_marseille","lat":43.28613,"lon":5.35099,"is_reserved":false,"is_disabled":true,"rental_uris":{"android":"levelo://app?vid=22540de7-8630-43e4-a5f4-94906185db58","ios":"levelo://app?vid=22540de7-8630-43e4-a5f4-94906185db58"},"vehicle_type_id":"4","last_reported":1778280242,"current_range_meters":4000,"station_id":"ce4bhch2rcd13ifvqeug","pricing_plan_id":"cebpf4jnsgd1na2vs0mg"},{"bike_id":"ae15c2d1-b79c-472a-aa23-dbd2b063bdad","system_id":"levelo_inurba_marseille","lat":43.25262,"lon":5.39299,"is_reserved":false,"is_disabled":false,"rental_uris":{"android":"levelo://app?vid=ae15c2d1-b79c-472a-aa23-dbd2b063bdad","ios":"levelo://app?vid=ae15c2d1-b79c-472a-aa23-dbd2b063bdad"},"vehicle_type_id":"4","last_reported":1778280242,"current_range_meters":4000,"station_id":"","pricing_plan_id":"cebpf4jnsgd1na2vs0mg"},{"bike_id":"7ac272f1-93d7-437e-a7ad-9515e3c575bb","system_id":"levelo_inurba_marseille","lat":43.29255,"lon":5.35724,"is_reserved":false,"is_disabled":false,"rental_uris":{"android":"levelo://app?vid=7ac272f1-93d7-437e-a7ad-9515e3c575bb","ios":"levelo://app?vid=7ac272f1-93d7-437e-a7ad-9515e3c575bb"},"vehicle_type_id":"4","last_reported":1778280242,"current_range_meters":4000,"station_id":"","pricing_plan_id":"cebpf4jnsgd1na2vs0mg"},{"bike_id":"839dd660-f7f5-4436-a4be-05214ace9f90","system_id":"levelo_inurba_marseille","lat":43.25859,"lon":5.3989,"is_reserved":false,"is_disabled":false,"rental_uris":{"android":"levelo://app?vid=839dd660-f7f5-4436-a4be-05214ace9f90","ios":"levelo://app?vid=839dd660-f7f5-4436-a4be-05214ace9f90"},"vehicle_type_id":"4","last_reported":1778280242,"current_range_meters":4000,"station_id":"ce4bhl92rcd13ifvqghg","pricing_plan_id":"cebpf4jnsgd1na2vs0mg"},{"bike_id":"c78d9508-e0d9-4d89-b6f2-b6434c1e71b6","system_id":"levelo_inurba_marseille","lat":43.2794,"lon":5.41045,"is_reserved":false,"is_disabled":false,"rental_uris":{"android":"levelo://app?vid=c78d9508-e0d9-4d89-b6f2-b6434c1e71b6","ios":"levelo://app?vid=c78d9508-e0d9-4d89-b6f2-b6434c1e71b6"},"vehicle_type_id":"4","last_reported":1778280242,"current_range_meters":4000,"station_id":"ce4bhnp2rcd13ifvqh0g","pricing_plan_id":"cebpf4jnsgd1na2vs0mg"},{"bike_id":"7477da53-5a0d-4da5-9640-2f25a4fd1dca","system_id":"levelo_inurba_marseille","lat":43.30425,"lon":5.39737,"is_reserved":false,"is_disabled":false,"rental_uris":{"android":"levelo://app?vid=7477da53-5a0d-4da5-9640-2f25a4fd1dca","ios":"levelo://app?vid=7477da53-5a0d-4da5-9640-2f25a4fd1dca"},"vehicle_type_id":"4","last_reported":1778280242,"current_range_meters":4000,"station_id":"ce4bh092rcd13ifvqd20","pricing_plan_id":"cebpf4jnsgd1na2vs0mg"},{"bike_id":"c8cfc10f-ea34-4155-ac7f-9b531f0b9b22","system_id":"levelo_inurba_marseille","lat":43.26384,"lon":5.42272,"is_reserved":false,"is_disabled":false,"rental_uris":{"android":"levelo://app?vid=c8cfc10f-ea34-4155-ac7f-9b531f0b9b22","ios":"levelo://app?vid=c8cfc10f-ea34-4155-ac7f-9b531f0b9b22"},"vehicle_type_id":"4","last_reported":1778280242,"current_range_meters":4000,"station_id":"","pricing_plan_id":"cebpf4jnsgd1na2vs0mg"},{"bike_id":"79528d5b-05a7-48e7-9ccf-eb3dcf2a91b1","system_id":"levelo_inurba_marseille","lat":43.26189,"lon":5.37453,"is_reserved":false,"is_disabled":true,"rental_uris":{"android":"levelo://app?vid=79528d5b-05a7-48e7-9ccf-eb3dcf2a91b1","ios":"levelo://app?vid=79528d5b-05a7-48e7-9ccf-eb3dcf2a91b1"},"vehicle_type_id":"4","last_reported":1778280242,"current_range_meters":4400,"station_id":"ce4bhgp2rcd13ifvqfc0","pricing_plan_id":"cebpf4jnsgd1na2vs0mg"},{"bike_id":"74554dcd-7251-4ce2-ab05-9023df6c8413","system_id":"levelo_inurba_marseille","lat":43.28872,"lon":5.42512,"is_reserved":false,"is_disabled":false,"rental_uris":{"android":"levelo://app?vid=74554dcd-7251-4ce2-ab05-9023df6c8413","ios":"levelo://app?vid=74554dcd-7251-4ce2-ab05-9023df6c8413"},"vehicle_type_id":"4","last_reported":1778280242,"current_range_meters":4400,"station_id":"st_d3b462108ojc7389ooeg","pricing_plan_id":"cebpf4jnsgd1na2vs0mg"},{"bike_id":"be4270c6-aac0-474c-8ec5-e008fdfb68dd","system_id":"levelo_inurba_marseille","lat":43.2464,"lon":5.38901,"is_reserved":false,"is_disabled":false,"rental_uris":{"android":"levelo://app?vid=be4270c6-aac0-474c-8ec5-e008fdfb68dd","ios":"levelo://app?vid=be4270c6-aac0-474c-8ec5-e008fdfb68dd"},"vehicle_type_id":"4","last_reported":1778280242,"current_range_meters":4400,"station_id":"ce4bhg12rcd13ifvqf60","pricing_plan_id":"cebpf4jnsgd1na2vs0mg"},{"bike_id":"aea1a9e6-2a9b-4cba-bf25-1488f9d8a686","system_id":"levelo_inurba_marseille","lat":43.32484,"lon":5.38306,"is_reserved":false,"is_disabled":false,"rental_uris":{"android":"levelo://app?vid=aea1a9e6-2a9b-4cba-bf25-1488f9d8a686","ios":"levelo://app?vid=aea1a9e6-2a9b-4cba-bf25-1488f9d8a686"},"vehicle_type_id":"4","last_reported":1778280242,"current_range_meters":4400,"station_id":"st_d4asgbiv49dc73anf9m0","pricing_plan_id":"cebpf4jnsgd1na2vs0mg"},{"bike_id":"54bdac41-dc50-4afe-87cf-607065949d9b","system_id":"levelo_inurba_marseille","lat":43.2987,"lon":5.38886,"is_reserved":false,"is_disabled":true,"rental_uris":{"android":"levelo://app?vid=54bdac41-dc50-4afe-87cf-607065949d9b","ios":"levelo://app?vid=54bdac41-dc50-4afe-87cf-607065949d9b"},"vehicle_type_id":"4","last_reported":1778280242,"current_range_meters":4400,"station_id":"ce4bh392rcd13ifvqdl0","pricing_plan_id":"cebpf4jnsgd1na2vs0mg"},{"bike_id":"8d410676-d39c-4ad0-80a6-19831c64da18","system_id":"levelo_inurba_marseille","lat":43.24646,"lon":5.38876,"is_reserved":false,"is_disabled":false,"rental_uris":{"android":"levelo://app?vid=8d410676-d39c-4ad0-80a6-19831c64da18","ios":"levelo://app?vid=8d410676-d39c-4ad0-80a6-19831c64da18"},"vehicle_type_id":"4","last_reported":1778280242,"current_range_meters":4400,"station_id":"ce4bhg12rcd13ifvqf60","pricing_plan_id":"cebpf4jnsgd1na2vs0mg"},{"bike_id":"79a19373-22a0-4ce0-b42b-1e3723f89e81","system_id":"levelo_inurba_marseille","lat":43.30379,"lon":5.42422,"is_reserved":false,"is_disabled":false,"rental_uris":{"android":"levelo://app?vid=79a19373-22a0-4ce0-b42b-1e3723f89e81","ios":"levelo://app?vid=79a19373-22a0-4ce0-b42b-1e3723f89e81"},"vehicle_type_id":"4","last_reported":1778280242,"current_range_meters":4400,"station_id":"","pricing_plan_id":"cebpf4jnsgd1na2vs0mg"},{"bike_id":"3576c2a2-2c20-40e0-8316-6d5558e51c8a","system_id":"levelo_inurba_marseille","lat":43.241761,"lon":5.397136,"is_reserved":false,"is_disabled":false,"rental_uris":{"android":"levelo://app?vid=3576c2a2-2c20-40e0-8316-6d5558e51c8a","ios":"levelo://app?vid=3576c2a2-2c20-40e0-8316-6d5558e51c8a"},"vehicle_type_id":"4","last_reported":1778280242,"current_range_meters":4400,"station_id":"ce4bhn12rcd13ifvqgpg","pricing_plan_id":"cebpf4jnsgd1na2vs0mg"},{"bike_id":"78bfcf6a-8002-47c3-bd0a-fd7693c617bf","system_id":"levelo_inurba_marseille","lat":43.26581,"lon":5.38995,"is_reserved":false,"is_disabled":false,"rental_uris":{"android":"levelo://app?vid=78bfcf6a-8002-47c3-bd0a-fd7693c617bf","ios":"levelo://app?vid=78bfcf6a-8002-47c3-bd0a-fd7693c617bf"},"vehicle_type_id":"4","last_reported":1778280242,"current_range_meters":4400,"station_id":"ce4bhe12rcd13ifvqf30","pricing_plan_id":"cebpf4jnsgd1na2vs0mg"},{"bike_id":"4292e8ce-e1a6-4a8f-a403-35f7f77e0e07","system_id":"levelo_inurba_marseille","lat":43.28399,"lon":5.37502,"is_reserved":false,"is_disabled":false,"rental_uris":{"android":"levelo://app?vid=4292e8ce-e1a6-4a8f-a403-35f7f77e0e07","ios":"levelo://app?vid=4292e8ce-e1a6-4a8f-a403-35f7f77e0e07"},"vehicle_type_id":"4","last_reported":1778280242,"current_range_meters":4400,"station_id":"ce4bh412rcd13ifvqds0","pricing_plan_id":"cebpf4jnsgd1na2vs0mg"},{"bike_id":"7497997a-c42f-48f3-a3fe-f3617cf534f3","system_id":"levelo_inurba_marseille","lat":43.25328,"lon":5.42167,"is_reserved":false,"is_disabled":false,"rental_uris":{"android":"levelo://app?vid=7497997a-c42f-48f3-a3fe-f3617cf534f3","ios":"levelo://app?vid=7497997a-c42f-48f3-a3fe-f3617cf534f3"},"vehicle_type_id":"4","last_reported":1778280242,"current_range_meters":4400,"station_id":"st_d2m65c5bi1j21697t3ng","pricing_plan_id":"cebpf4jnsgd1na2vs0mg"},{"bike_id":"e496bba4-6404-450f-ac28-ee183ac27f52","system_id":"levelo_inurba_marseille","lat":43.31176,"lon":5.36781,"is_reserved":false,"is_disabled":false,"rental_uris":{"android":"levelo://app?vid=e496bba4-6404-450f-ac28-ee183ac27f52","ios":"levelo://app?vid=e496bba4-6404-450f-ac28-ee183ac27f52"},"vehicle_type_id":"4","last_reported":1778280242,"current_range_meters":4400,"station_id":"ce4bgl92rcd13ifvqbq0","pricing_plan_id":"cebpf4jnsgd1na2vs0mg"},{"bike_id":"139fafbd-1b7e-43be-b9c7-de867d9ec84e","system_id":"levelo_inurba_marseille","lat":43.23087,"lon":5.39927,"is_reserved":false,"is_disabled":false,"rental_uris":{"android":"levelo://app?vid=139fafbd-1b7e-43be-b9c7-de867d9ec84e","ios":"levelo://app?vid=139fafbd-1b7e-43be-b9c7-de867d9ec84e"},"vehicle_type_id":"4","last_reported":1778280242,"current_range_meters":4400,"station_id":"","pricing_plan_id":"cebpf4jnsgd1na2vs0mg"},{"bike_id":"bc7689e6-08ad-4ce6-b101-ffff1b93ca0c","system_id":"levelo_inurba_marseille","lat":43.29237,"lon":5.3713,"is_reserved":false,"is_disabled":false,"rental_uris":{"android":"levelo://app?vid=bc7689e6-08ad-4ce6-b101-ffff1b93ca0c","ios":"levelo://app?vid=bc7689e6-08ad-4ce6-b101-ffff1b93ca0c"},"vehicle_type_id":"4","last_reported":1778280242,"current_range_meters":4800,"station_id":"","pricing_plan_id":"cebpf4jnsgd1na2vs0mg"},{"bike_id":"66adbe4b-0003-4013-9210-7b62817bc7b4","system_id":"levelo_inurba_marseille","lat":43.29868,"lon":5.38896,"is_reserved":false,"is_disabled":false,"rental_uris":{"android":"levelo://app?vid=66adbe4b-0003-4013-9210-7b62817bc7b4","ios":"levelo://app?vid=66adbe4b-0003-4013-9210-7b62817bc7b4"},"vehicle_type_id":"4","last_reported":1778280242,"current_range_meters":4800,"station_id":"ce4bh392rcd13ifvqdl0","pricing_plan_id":"cebpf4jnsgd1na2vs0mg"},{"bike_id":"e028b17e-094a-4eac-adf4-cd5de2ec26e1","system_id":"levelo_inurba_marseille","lat":43.28572,"lon":5.39505,"is_reserved":false,"is_disabled":false,"rental_uris":{"android":"levelo://app?vid=e028b17e-094a-4eac-adf4-cd5de2ec26e1","ios":"levelo://app?vid=e028b17e-094a-4eac-adf4-cd5de2ec26e1"},"vehicle_type_id":"4","last_reported":1778280242,"current_range_meters":4800,"station_id":"ce4bh292rcd13ifvqdg0","pricing_plan_id":"cebpf4jnsgd1na2vs0mg"},{"bike_id":"43b9c369-eec7-4801-b65c-0c3b3c87bd4f","system_id":"levelo_inurba_marseille","lat":43.33535,"lon":5.37495,"is_reserved":false,"is_disabled":false,"rental_uris":{"android":"levelo://app?vid=43b9c369-eec7-4801-b65c-0c3b3c87bd4f","ios":"levelo://app?vid=43b9c369-eec7-4801-b65c-0c3b3c87bd4f"},"vehicle_type_id":"4","last_reported":1778280242,"current_range_meters":4800,"station_id":"st_d46tts09ee8s73dlu43g","pricing_plan_id":"cebpf4jnsgd1na2vs0mg"},{"bike_id":"3c448e94-09fa-4e14-bfed-9eae4cc96d57","system_id":"levelo_inurba_marseille","lat":43.31434,"lon":5.37389,"is_reserved":false,"is_disabled":false,"rental_uris":{"android":"levelo://app?vid=3c448e94-09fa-4e14-bfed-9eae4cc96d57","ios":"levelo://app?vid=3c448e94-09fa-4e14-bfed-9eae4cc96d57"},"vehicle_type_id":"4","last_reported":1778280242,"current_range_meters":4800,"station_id":"","pricing_plan_id":"cebpf4jnsgd1na2vs0mg"},{"bike_id":"1665fbae-02f4-4e8c-bead-d536eda825bb","system_id":"levelo_inurba_marseille","lat":43.29844,"lon":5.36277,"is_reserved":false,"is_disabled":false,"rental_uris":{"android":"levelo://app?vid=1665fbae-02f4-4e8c-bead-d536eda825bb","ios":"levelo://app?vid=1665fbae-02f4-4e8c-bead-d536eda825bb"},"vehicle_type_id":"4","last_reported":1778280242,"current_range_meters":4800,"station_id":"ce4bgpp2rcd13ifvqc3g","pricing_plan_id":"cebpf4jnsgd1na2vs0mg"},{"bike_id":"29c47587-f18b-42f0-8cfc-38dfdf722184","system_id":"levelo_inurba_marseille","lat":43.29926,"lon":5.3824,"is_reserved":false,"is_disabled":false,"rental_uris":{"android":"levelo://app?vid=29c47587-f18b-42f0-8cfc-38dfdf722184","ios":"levelo://app?vid=29c47587-f18b-42f0-8cfc-38dfdf722184"},"vehicle_type_id":"4","last_reported":1778280242,"current_range_meters":4800,"station_id":"","pricing_plan_id":"cebpf4jnsgd1na2vs0mg"},{"bike_id":"c59e1bd6-ece3-4e94-9308-3c08876ef280","system_id":"levelo_inurba_marseille","lat":43.26493,"lon":5.38945,"is_reserved":false,"is_disabled":false,"rental_uris":{"android":"levelo://app?vid=c59e1bd6-ece3-4e94-9308-3c08876ef280","ios":"levelo://app?vid=c59e1bd6-ece3-4e94-9308-3c08876ef280"},"vehicle_type_id":"4","last_reported":1778280242,"current_range_meters":4800,"station_id":"","pricing_plan_id":"cebpf4jnsgd1na2vs0mg"},{"bike_id":"3122ba5c-241c-4b18-a8de-67da515b61a7","system_id":"levelo_inurba_marseille","lat":43.25581,"lon":5.38216,"is_reserved":false,"is_disabled":true,"rental_uris":{"android":"levelo://app?vid=3122ba5c-241c-4b18-a8de-67da515b61a7","ios":"levelo://app?vid=3122ba5c-241c-4b18-a8de-67da515b61a7"},"vehicle_type_id":"4","last_reported":1778280242,"current_range_meters":4800,"station_id":"ce4bhih2rcd13ifvqfs0","pricing_plan_id":"cebpf4jnsgd1na2vs0mg"},{"bike_id":"5a7eaf8d-4931-47c6-9dbc-044311c78588","system_id":"levelo_inurba_marseille","lat":43.2174,"lon":5.34589,"is_reserved":false,"is_disabled":false,"rental_uris":{"android":"levelo://app?vid=5a7eaf8d-4931-47c6-9dbc-044311c78588","ios":"levelo://app?vid=5a7eaf8d-4931-47c6-9dbc-044311c78588"},"vehicle_type_id":"4","last_reported":1778280242,"current_range_meters":4800,"station_id":"st_cvj6r9ubvosntc0bgbag","pricing_plan_id":"cebpf4jnsgd1na2vs0mg"},{"bike_id":"e9033d6b-705a-47b0-b186-9265504ed314","system_id":"levelo_inurba_marseille","lat":43.337444,"lon":5.374475,"is_reserved":false,"is_disabled":false,"rental_uris":{"android":"levelo://app?vid=e9033d6b-705a-47b0-b186-9265504ed314","ios":"levelo://app?vid=e9033d6b-705a-47b0-b186-9265504ed314"},"vehicle_type_id":"4","last_reported":1778280242,"current_range_meters":4800,"station_id":"ce4bhh92rcd13ifvqfj0","pricing_plan_id":"cebpf4jnsgd1na2vs0mg"},{"bike_id":"d29fcc99-ea09-486d-9541-3278f80f2d05","system_id":"levelo_inurba_marseille","lat":43.28856,"lon":5.42518,"is_reserved":false,"is_disabled":false,"rental_uris":{"android":"levelo://app?vid=d29fcc99-ea09-486d-9541-3278f80f2d05","ios":"levelo://app?vid=d29fcc99-ea09-486d-9541-3278f80f2d05"},"vehicle_type_id":"4","last_reported":1778280242,"current_range_meters":4800,"station_id":"st_d3b462108ojc7389ooeg","pricing_plan_id":"cebpf4jnsgd1na2vs0mg"},{"bike_id":"8cd38efa-d08a-454a-b907-b2a17c95ddcb","system_id":"levelo_inurba_marseille","lat":43.30204,"lon":5.36606,"is_reserved":false,"is_disabled":false,"rental_uris":{"android":"levelo://app?vid=8cd38efa-d08a-454a-b907-b2a17c95ddcb","ios":"levelo://app?vid=8cd38efa-d08a-454a-b907-b2a17c95ddcb"},"vehicle_type_id":"4","last_reported":1778280242,"current_range_meters":5600,"station_id":"ce4bgrh2rcd13ifvqc8g","pricing_plan_id":"cebpf4jnsgd1na2vs0mg"},{"bike_id":"89513982-8e0f-49a9-85aa-89f0a8805cf8","system_id":"levelo_inurba_marseille","lat":43.27314,"lon":5.39051,"is_reserved":false,"is_disabled":false,"rental_uris":{"android":"levelo://app?vid=89513982-8e0f-49a9-85aa-89f0a8805cf8","ios":"levelo://app?vid=89513982-8e0f-49a9-85aa-89f0a8805cf8"},"vehicle_type_id":"4","last_reported":1778280242,"current_range_meters":5600,"station_id":"ce4bhgp2rcd13ifvqfe0","pricing_plan_id":"cebpf4jnsgd1na2vs0mg"},{"bike_id":"a46bc289-ee30-43b9-a582-f84154664881","system_id":"levelo_inurba_marseille","lat":43.29971,"lon":5.38467,"is_reserved":false,"is_disabled":false,"rental_uris":{"android":"levelo://app?vid=a46bc289-ee30-43b9-a582-f84154664881","ios":"levelo://app?vid=a46bc289-ee30-43b9-a582-f84154664881"},"vehicle_type_id":"4","last_reported":1778280242,"current_range_meters":5600,"station_id":"ce4bgj92rcd13ifvqbd0","pricing_plan_id":"cebpf4jnsgd1na2vs0mg"},{"bike_id":"ac5248c1-4fa9-4b63-9686-5ac601b0f9b1","system_id":"levelo_inurba_marseille","lat":43.29909,"lon":5.37811,"is_reserved":false,"is_disabled":false,"rental_uris":{"android":"levelo://app?vid=ac5248c1-4fa9-4b63-9686-5ac601b0f9b1","ios":"levelo://app?vid=ac5248c1-4fa9-4b63-9686-5ac601b0f9b1"},"vehicle_type_id":"4","last_reported":1778280242,"current_range_meters":5600,"station_id":"","pricing_plan_id":"cebpf4jnsgd1na2vs0mg"},{"bike_id":"f9765471-797c-4251-b388-a11b5bbe30f0","system_id":"levelo_inurba_marseille","lat":43.33518,"lon":5.37474,"is_reserved":false,"is_disabled":false,"rental_uris":{"android":"levelo://app?vid=f9765471-797c-4251-b388-a11b5bbe30f0","ios":"levelo://app?vid=f9765471-797c-4251-b388-a11b5bbe30f0"},"vehicle_type_id":"4","last_reported":1778280242,"current_range_meters":5600,"station_id":"st_d46tts09ee8s73dlu43g","pricing_plan_id":"cebpf4jnsgd1na2vs0mg"},{"bike_id":"78216b7a-e2cc-4e1a-a8a8-a8a2a337ad91","system_id":"levelo_inurba_marseille","lat":43.29216,"lon":5.40735,"is_reserved":false,"is_disabled":false,"rental_uris":{"android":"levelo://app?vid=78216b7a-e2cc-4e1a-a8a8-a8a2a337ad91","ios":"levelo://app?vid=78216b7a-e2cc-4e1a-a8a8-a8a2a337ad91"},"vehicle_type_id":"4","last_reported":1778280242,"current_range_meters":5600,"station_id":"","pricing_plan_id":"cebpf4jnsgd1na2vs0mg"},{"bike_id":"3056c84a-f614-437e-b41b-b1adbc616cfd","system_id":"levelo_inurba_marseille","lat":43.31916,"lon":5.3681,"is_reserved":false,"is_disabled":false,"rental_uris":{"android":"levelo://app?vid=3056c84a-f614-437e-b41b-b1adbc616cfd","ios":"levelo://app?vid=3056c84a-f614-437e-b41b-b1adbc616cfd"},"vehicle_type_id":"4","last_reported":1778280242,"current_range_meters":5600,"station_id":"st_d6o2h0d0559c73evc1b0","pricing_plan_id":"cebpf4jnsgd1na2vs0mg"},{"bike_id":"bc4dd8e3-cbe0-4f07-a20e-5f98922252e8","system_id":"levelo_inurba_marseille","lat":43.25088,"lon":5.3951,"is_reserved":false,"is_disabled":false,"rental_uris":{"android":"levelo://app?vid=bc4dd8e3-cbe0-4f07-a20e-5f98922252e8","ios":"levelo://app?vid=bc4dd8e3-cbe0-4f07-a20e-5f98922252e8"},"vehicle_type_id":"4","last_reported":1778280242,"current_range_meters":5600,"station_id":"ce4bhm12rcd13ifvqgkg","pricing_plan_id":"cebpf4jnsgd1na2vs0mg"},{"bike_id":"e744fd51-d53a-4993-92a1-3a6752e7a33c","system_id":"levelo_inurba_marseille","lat":43.32115,"lon":5.36788,"is_reserved":false,"is_disabled":false,"rental_uris":{"android":"levelo://app?vid=e744fd51-d53a-4993-92a1-3a6752e7a33c","ios":"levelo://app?vid=e744fd51-d53a-4993-92a1-3a6752e7a33c"},"vehicle_type_id":"4","last_reported":1778280242,"current_range_meters":5600,"station_id":"ce4bhrh2rcd13ifvqhug","pricing_plan_id":"cebpf4jnsgd1na2vs0mg"},{"bike_id":"0da4e297-632d-4596-b2f8-61beaff0fbb5","system_id":"levelo_inurba_marseille","lat":43.29628,"lon":5.38089,"is_reserved":false,"is_disabled":false,"rental_uris":{"android":"levelo://app?vid=0da4e297-632d-4596-b2f8-61beaff0fbb5","ios":"levelo://app?vid=0da4e297-632d-4596-b2f8-61beaff0fbb5"},"vehicle_type_id":"4","last_reported":1778280242,"current_range_meters":5600,"station_id":"ce4bgl12rcd13ifvqbo0","pricing_plan_id":"cebpf4jnsgd1na2vs0mg"},{"bike_id":"22c05c13-b66f-4268-b504-4d6db8ed7f51","system_id":"levelo_inurba_marseille","lat":43.29722,"lon":5.36607,"is_reserved":false,"is_disabled":false,"rental_uris":{"android":"levelo://app?vid=22c05c13-b66f-4268-b504-4d6db8ed7f51","ios":"levelo://app?vid=22c05c13-b66f-4268-b504-4d6db8ed7f51"},"vehicle_type_id":"4","last_reported":1778280242,"current_range_meters":5600,"station_id":"ce4bgn12rcd13ifvqbt0","pricing_plan_id":"cebpf4jnsgd1na2vs0mg"},{"bike_id":"fad0501a-5f07-42f4-a714-6b2d69abf03e","system_id":"levelo_inurba_marseille","lat":43.24546,"lon":5.3952,"is_reserved":false,"is_disabled":false,"rental_uris":{"android":"levelo://app?vid=fad0501a-5f07-42f4-a714-6b2d69abf03e","ios":"levelo://app?vid=fad0501a-5f07-42f4-a714-6b2d69abf03e"},"vehicle_type_id":"4","last_reported":1778280242,"current_range_meters":5600,"station_id":"ce4bhlp2rcd13ifvqgjg","pricing_plan_id":"cebpf4jnsgd1na2vs0mg"},{"bike_id":"758c8ce9-535b-4800-93d7-846bd85146e6","system_id":"levelo_inurba_marseille","lat":43.24948,"lon":5.40492,"is_reserved":false,"is_disabled":false,"rental_uris":{"android":"levelo://app?vid=758c8ce9-535b-4800-93d7-846bd85146e6","ios":"levelo://app?vid=758c8ce9-535b-4800-93d7-846bd85146e6"},"vehicle_type_id":"4","last_reported":1778280242,"current_range_meters":5600,"station_id":"st_d2ngiaodas8pm72gd1h0","pricing_plan_id":"cebpf4jnsgd1na2vs0mg"},{"bike_id":"4914e9ad-2671-4a20-a60d-4fb13fede2c7","system_id":"levelo_inurba_marseille","lat":43.26561,"lon":5.37296,"is_reserved":false,"is_disabled":false,"rental_uris":{"android":"levelo://app?vid=4914e9ad-2671-4a20-a60d-4fb13fede2c7","ios":"levelo://app?vid=4914e9ad-2671-4a20-a60d-4fb13fede2c7"},"vehicle_type_id":"4","last_reported":1778280242,"current_range_meters":6000,"station_id":"ce4bhg12rcd13ifvqf70","pricing_plan_id":"cebpf4jnsgd1na2vs0mg"},{"bike_id":"1443c9f0-139b-4d04-8945-c2db5286a83d","system_id":"levelo_inurba_marseille","lat":43.30607,"lon":5.3718,"is_reserved":false,"is_disabled":false,"rental_uris":{"android":"levelo://app?vid=1443c9f0-139b-4d04-8945-c2db5286a83d","ios":"levelo://app?vid=1443c9f0-139b-4d04-8945-c2db5286a83d"},"vehicle_type_id":"4","last_reported":1778280242,"current_range_meters":6000,"station_id":"ce4bgqh2rcd13ifvqc4g","pricing_plan_id":"cebpf4jnsgd1na2vs0mg"},{"bike_id":"1709f6c4-df38-4392-a22b-79877bea9f71","system_id":"levelo_inurba_marseille","lat":43.26244,"lon":5.39147,"is_reserved":false,"is_disabled":false,"rental_uris":{"android":"levelo://app?vid=1709f6c4-df38-4392-a22b-79877bea9f71","ios":"levelo://app?vid=1709f6c4-df38-4392-a22b-79877bea9f71"},"vehicle_type_id":"4","last_reported":1778280242,"current_range_meters":6000,"station_id":"","pricing_plan_id":"cebpf4jnsgd1na2vs0mg"},{"bike_id":"5f06a8a1-2ff5-4ac3-a16d-8044e5eff3c8","system_id":"levelo_inurba_marseille","lat":43.23425,"lon":5.3593,"is_reserved":false,"is_disabled":false,"rental_uris":{"android":"levelo://app?vid=5f06a8a1-2ff5-4ac3-a16d-8044e5eff3c8","ios":"levelo://app?vid=5f06a8a1-2ff5-4ac3-a16d-8044e5eff3c8"},"vehicle_type_id":"4","last_reported":1778280242,"current_range_meters":6000,"station_id":"","pricing_plan_id":"cebpf4jnsgd1na2vs0mg"},{"bike_id":"ff4d1d92-3c09-4393-bd19-a95497791c85","system_id":"levelo_inurba_marseille","lat":43.26564,"lon":5.38978,"is_reserved":false,"is_disabled":false,"rental_uris":{"android":"levelo://app?vid=ff4d1d92-3c09-4393-bd19-a95497791c85","ios":"levelo://app?vid=ff4d1d92-3c09-4393-bd19-a95497791c85"},"vehicle_type_id":"4","last_reported":1778280242,"current_range_meters":6000,"station_id":"ce4bhe12rcd13ifvqf30","pricing_plan_id":"cebpf4jnsgd1na2vs0mg"},{"bike_id":"b5222300-2948-4a44-97d7-1d2453cfc7ea","system_id":"levelo_inurba_marseille","lat":43.24393,"lon":5.37043,"is_reserved":false,"is_disabled":false,"rental_uris":{"android":"levelo://app?vid=b5222300-2948-4a44-97d7-1d2453cfc7ea","ios":"levelo://app?vid=b5222300-2948-4a44-97d7-1d2453cfc7ea"},"vehicle_type_id":"4","last_reported":1778280242,"current_range_meters":6000,"station_id":"ce4bhhh2rcd13ifvqfk0","pricing_plan_id":"cebpf4jnsgd1na2vs0mg"},{"bike_id":"28591a20-c550-4108-9263-49d1bdca52ed","system_id":"levelo_inurba_marseille","lat":43.28472,"lon":5.48396,"is_reserved":false,"is_disabled":false,"rental_uris":{"android":"levelo://app?vid=28591a20-c550-4108-9263-49d1bdca52ed","ios":"levelo://app?vid=28591a20-c550-4108-9263-49d1bdca52ed"},"vehicle_type_id":"4","last_reported":1778280242,"current_range_meters":6000,"station_id":"","pricing_plan_id":"cebpf4jnsgd1na2vs0mg"},{"bike_id":"06ab7e03-6cc1-4519-8625-3652421fe315","system_id":"levelo_inurba_marseille","lat":43.33164,"lon":5.37682,"is_reserved":false,"is_disabled":false,"rental_uris":{"android":"levelo://app?vid=06ab7e03-6cc1-4519-8625-3652421fe315","ios":"levelo://app?vid=06ab7e03-6cc1-4519-8625-3652421fe315"},"vehicle_type_id":"4","last_reported":1778280242,"current_range_meters":6000,"station_id":"st_d46cu089ee8s73dldbu0","pricing_plan_id":"cebpf4jnsgd1na2vs0mg"},{"bike_id":"9a3140d6-e3fa-492e-8460-9c6f22636700","system_id":"levelo_inurba_marseille","lat":43.31364,"lon":5.39961,"is_reserved":false,"is_disabled":false,"rental_uris":{"android":"levelo://app?vid=9a3140d6-e3fa-492e-8460-9c6f22636700","ios":"levelo://app?vid=9a3140d6-e3fa-492e-8460-9c6f22636700"},"vehicle_type_id":"4","last_reported":1778280242,"current_range_meters":6000,"station_id":"","pricing_plan_id":"cebpf4jnsgd1na2vs0mg"},{"bike_id":"940c94d8-ff98-4e0f-9908-14dde4b31f90","system_id":"levelo_inurba_marseille","lat":43.30811,"lon":5.38077,"is_reserved":false,"is_disabled":false,"rental_uris":{"android":"levelo://app?vid=940c94d8-ff98-4e0f-9908-14dde4b31f90","ios":"levelo://app?vid=940c94d8-ff98-4e0f-9908-14dde4b31f90"},"vehicle_type_id":"4","last_reported":1778280242,"current_range_meters":6000,"station_id":"","pricing_plan_id":"cebpf4jnsgd1na2vs0mg"},{"bike_id":"9f135140-bc51-471a-99ba-2c149cd74964","system_id":"levelo_inurba_marseille","lat":43.245407,"lon":5.395292,"is_reserved":false,"is_disabled":false,"rental_uris":{"android":"levelo://app?vid=9f135140-bc51-471a-99ba-2c149cd74964","ios":"levelo://app?vid=9f135140-bc51-471a-99ba-2c149cd74964"},"vehicle_type_id":"4","last_reported":1778280242,"current_range_meters":6000,"station_id":"ce4bhlp2rcd13ifvqgjg","pricing_plan_id":"cebpf4jnsgd1na2vs0mg"},{"bike_id":"b2294491-b091-4f21-a219-0d82de5f39e6","system_id":"levelo_inurba_marseille","lat":43.28921,"lon":5.36643,"is_reserved":false,"is_disabled":false,"rental_uris":{"android":"levelo://app?vid=b2294491-b091-4f21-a219-0d82de5f39e6","ios":"levelo://app?vid=b2294491-b091-4f21-a219-0d82de5f39e6"},"vehicle_type_id":"4","last_reported":1778280242,"current_range_meters":6000,"station_id":"ce4bhap2rcd13ifvqek0","pricing_plan_id":"cebpf4jnsgd1na2vs0mg"},{"bike_id":"7d6e83f9-235f-4895-aea5-62b0c5201dff","system_id":"levelo_inurba_marseille","lat":43.29882,"lon":5.37481,"is_reserved":false,"is_disabled":false,"rental_uris":{"android":"levelo://app?vid=7d6e83f9-235f-4895-aea5-62b0c5201dff","ios":"levelo://app?vid=7d6e83f9-235f-4895-aea5-62b0c5201dff"},"vehicle_type_id":"4","last_reported":1778280242,"current_range_meters":6000,"station_id":"ce4bgjh2rcd13ifvqbg0","pricing_plan_id":"cebpf4jnsgd1na2vs0mg"},{"bike_id":"7acef615-ded1-4a91-bd13-01545b30be8b","system_id":"levelo_inurba_marseille","lat":43.30791,"lon":5.38157,"is_reserved":false,"is_disabled":false,"rental_uris":{"android":"levelo://app?vid=7acef615-ded1-4a91-bd13-01545b30be8b","ios":"levelo://app?vid=7acef615-ded1-4a91-bd13-01545b30be8b"},"vehicle_type_id":"4","last_reported":1778280242,"current_range_meters":6000,"station_id":"ce4bgt12rcd13ifvqce0","pricing_plan_id":"cebpf4jnsgd1na2vs0mg"},{"bike_id":"8cd9cdae-ca50-4160-9401-a463368603f2","system_id":"levelo_inurba_marseille","lat":43.31321,"lon":5.39685,"is_reserved":false,"is_disabled":false,"rental_uris":{"android":"levelo://app?vid=8cd9cdae-ca50-4160-9401-a463368603f2","ios":"levelo://app?vid=8cd9cdae-ca50-4160-9401-a463368603f2"},"vehicle_type_id":"4","last_reported":1778280242,"current_range_meters":6000,"station_id":"ce4bgvp2rcd13ifvqcu0","pricing_plan_id":"cebpf4jnsgd1na2vs0mg"},{"bike_id":"732c0c1a-7580-499b-b696-db1b4d6a345c","system_id":"levelo_inurba_marseille","lat":43.31482,"lon":5.37309,"is_reserved":false,"is_disabled":false,"rental_uris":{"android":"levelo://app?vid=732c0c1a-7580-499b-b696-db1b4d6a345c","ios":"levelo://app?vid=732c0c1a-7580-499b-b696-db1b4d6a345c"},"vehicle_type_id":"4","last_reported":1778280242,"current_range_meters":6000,"station_id":"ce4bgt12rcd13ifvqcd0","pricing_plan_id":"cebpf4jnsgd1na2vs0mg"},{"bike_id":"c81f80a9-bccf-42c4-90d3-496a1498aeb7","system_id":"levelo_inurba_marseille","lat":43.25999,"lon":5.37587,"is_reserved":false,"is_disabled":true,"rental_uris":{"android":"levelo://app?vid=c81f80a9-bccf-42c4-90d3-496a1498aeb7","ios":"levelo://app?vid=c81f80a9-bccf-42c4-90d3-496a1498aeb7"},"vehicle_type_id":"4","last_reported":1778280242,"current_range_meters":6000,"station_id":"ce4bhgh2rcd13ifvqfa0","pricing_plan_id":"cebpf4jnsgd1na2vs0mg"},{"bike_id":"8bd3ae88-471d-4238-9dfc-c1af1fca006a","system_id":"levelo_inurba_marseille","lat":43.29259,"lon":5.38396,"is_reserved":false,"is_disabled":true,"rental_uris":{"android":"levelo://app?vid=8bd3ae88-471d-4238-9dfc-c1af1fca006a","ios":"levelo://app?vid=8bd3ae88-471d-4238-9dfc-c1af1fca006a"},"vehicle_type_id":"4","last_reported":1778280242,"current_range_meters":6000,"station_id":"ce4bh692rcd13ifvqea0","pricing_plan_id":"cebpf4jnsgd1na2vs0mg"},{"bike_id":"c8e7cc73-0f54-4a06-af4d-0fc5105b4b7c","system_id":"levelo_inurba_marseille","lat":43.29269,"lon":5.38445,"is_reserved":false,"is_disabled":false,"rental_uris":{"android":"levelo://app?vid=c8e7cc73-0f54-4a06-af4d-0fc5105b4b7c","ios":"levelo://app?vid=c8e7cc73-0f54-4a06-af4d-0fc5105b4b7c"},"vehicle_type_id":"4","last_reported":1778280242,"current_range_meters":6000,"station_id":"ce4bh692rcd13ifvqea0","pricing_plan_id":"cebpf4jnsgd1na2vs0mg"},{"bike_id":"271e283d-2f8c-4648-a622-26b7eba777d8","system_id":"levelo_inurba_marseille","lat":43.24813,"lon":5.37476,"is_reserved":false,"is_disabled":false,"rental_uris":{"android":"levelo://app?vid=271e283d-2f8c-4648-a622-26b7eba777d8","ios":"levelo://app?vid=271e283d-2f8c-4648-a622-26b7eba777d8"},"vehicle_type_id":"4","last_reported":1778280242,"current_range_meters":6400,"station_id":"ce4bhgh2rcd13ifvqfb0","pricing_plan_id":"cebpf4jnsgd1na2vs0mg"},{"bike_id":"d85df8c4-2a4c-4a0f-b116-b1d1c40ce681","system_id":"levelo_inurba_marseille","lat":43.265394,"lon":5.372973,"is_reserved":false,"is_disabled":false,"rental_uris":{"android":"levelo://app?vid=d85df8c4-2a4c-4a0f-b116-b1d1c40ce681","ios":"levelo://app?vid=d85df8c4-2a4c-4a0f-b116-b1d1c40ce681"},"vehicle_type_id":"4","last_reported":1778280242,"current_range_meters":6400,"station_id":"ce4bhg12rcd13ifvqf70","pricing_plan_id":"cebpf4jnsgd1na2vs0mg"},{"bike_id":"7575dabc-59d0-4ac0-9318-7276c02df642","system_id":"levelo_inurba_marseille","lat":43.29517,"lon":5.38678,"is_reserved":false,"is_disabled":false,"rental_uris":{"android":"levelo://app?vid=7575dabc-59d0-4ac0-9318-7276c02df642","ios":"levelo://app?vid=7575dabc-59d0-4ac0-9318-7276c02df642"},"vehicle_type_id":"4","last_reported":1778280242,"current_range_meters":6400,"station_id":"","pricing_plan_id":"cebpf4jnsgd1na2vs0mg"},{"bike_id":"8e64fb11-1048-46b7-865b-8d66caeb939f","system_id":"levelo_inurba_marseille","lat":43.30318,"lon":5.40436,"is_reserved":false,"is_disabled":false,"rental_uris":{"android":"levelo://app?vid=8e64fb11-1048-46b7-865b-8d66caeb939f","ios":"levelo://app?vid=8e64fb11-1048-46b7-865b-8d66caeb939f"},"vehicle_type_id":"4","last_reported":1778280242,"current_range_meters":6400,"station_id":"ce4bh012rcd13ifvqd10","pricing_plan_id":"cebpf4jnsgd1na2vs0mg"},{"bike_id":"c8ac96d0-ef16-4c8c-a940-b886f6e1a598","system_id":"levelo_inurba_marseille","lat":43.29022,"lon":5.38641,"is_reserved":false,"is_disabled":false,"rental_uris":{"android":"levelo://app?vid=c8ac96d0-ef16-4c8c-a940-b886f6e1a598","ios":"levelo://app?vid=c8ac96d0-ef16-4c8c-a940-b886f6e1a598"},"vehicle_type_id":"4","last_reported":1778280242,"current_range_meters":6400,"station_id":"ce4bh4p2rcd13ifvqe0g","pricing_plan_id":"cebpf4jnsgd1na2vs0mg"},{"bike_id":"4b65741e-5ed9-4da8-8620-3a00f88659d6","system_id":"levelo_inurba_marseille","lat":43.28463,"lon":5.48393,"is_reserved":false,"is_disabled":false,"rental_uris":{"android":"levelo://app?vid=4b65741e-5ed9-4da8-8620-3a00f88659d6","ios":"levelo://app?vid=4b65741e-5ed9-4da8-8620-3a00f88659d6"},"vehicle_type_id":"4","last_reported":1778280242,"current_range_meters":6400,"station_id":"","pricing_plan_id":"cebpf4jnsgd1na2vs0mg"},{"bike_id":"ecf8475b-66a3-408d-95ac-5693ffb1c353","system_id":"levelo_inurba_marseille","lat":43.29284,"lon":5.40115,"is_reserved":false,"is_disabled":false,"rental_uris":{"android":"levelo://app?vid=ecf8475b-66a3-408d-95ac-5693ffb1c353","ios":"levelo://app?vid=ecf8475b-66a3-408d-95ac-5693ffb1c353"},"vehicle_type_id":"4","last_reported":1778280242,"current_range_meters":6400,"station_id":"ce4bh312rcd13ifvqdk0","pricing_plan_id":"cebpf4jnsgd1na2vs0mg"},{"bike_id":"00f07616-d550-4224-bad4-4b031ab0edc8","system_id":"levelo_inurba_marseille","lat":43.24751,"lon":5.40124,"is_reserved":false,"is_disabled":false,"rental_uris":{"android":"levelo://app?vid=00f07616-d550-4224-bad4-4b031ab0edc8","ios":"levelo://app?vid=00f07616-d550-4224-bad4-4b031ab0edc8"},"vehicle_type_id":"4","last_reported":1778280242,"current_range_meters":6400,"station_id":"","pricing_plan_id":"cebpf4jnsgd1na2vs0mg"},{"bike_id":"3529ab88-c139-4f1b-9bd8-eff637a56844","system_id":"levelo_inurba_marseille","lat":43.25405,"lon":5.41471,"is_reserved":false,"is_disabled":false,"rental_uris":{"android":"levelo://app?vid=3529ab88-c139-4f1b-9bd8-eff637a56844","ios":"levelo://app?vid=3529ab88-c139-4f1b-9bd8-eff637a56844"},"vehicle_type_id":"4","last_reported":1778280242,"current_range_meters":6400,"station_id":"","pricing_plan_id":"cebpf4jnsgd1na2vs0mg"},{"bike_id":"621ef308-33a9-4a52-9e82-b4966d1a8f8d","system_id":"levelo_inurba_marseille","lat":43.28715,"lon":5.39994,"is_reserved":false,"is_disabled":true,"rental_uris":{"android":"levelo://app?vid=621ef308-33a9-4a52-9e82-b4966d1a8f8d","ios":"levelo://app?vid=621ef308-33a9-4a52-9e82-b4966d1a8f8d"},"vehicle_type_id":"4","last_reported":1778280242,"current_range_meters":6400,"station_id":"ce4bho92rcd13ifvqh3g","pricing_plan_id":"cebpf4jnsgd1na2vs0mg"},{"bike_id":"13b1bcc7-e9d8-48b8-a72f-6d1f9d17e51d","system_id":"levelo_inurba_marseille","lat":43.24915,"lon":5.38936,"is_reserved":false,"is_disabled":false,"rental_uris":{"android":"levelo://app?vid=13b1bcc7-e9d8-48b8-a72f-6d1f9d17e51d","ios":"levelo://app?vid=13b1bcc7-e9d8-48b8-a72f-6d1f9d17e51d"},"vehicle_type_id":"4","last_reported":1778280242,"current_range_meters":6400,"station_id":"","pricing_plan_id":"cebpf4jnsgd1na2vs0mg"},{"bike_id":"bfb0916e-2b00-499b-8dce-6828f49a497a","system_id":"levelo_inurba_marseille","lat":43.2509,"lon":5.39515,"is_reserved":false,"is_disabled":false,"rental_uris":{"android":"levelo://app?vid=bfb0916e-2b00-499b-8dce-6828f49a497a","ios":"levelo://app?vid=bfb0916e-2b00-499b-8dce-6828f49a497a"},"vehicle_type_id":"4","last_reported":1778280242,"current_range_meters":6400,"station_id":"ce4bhm12rcd13ifvqgkg","pricing_plan_id":"cebpf4jnsgd1na2vs0mg"},{"bike_id":"8576c9e8-20ea-40d5-9760-e2f8685ea7e7","system_id":"levelo_inurba_marseille","lat":43.29274,"lon":5.38425,"is_reserved":false,"is_disabled":false,"rental_uris":{"android":"levelo://app?vid=8576c9e8-20ea-40d5-9760-e2f8685ea7e7","ios":"levelo://app?vid=8576c9e8-20ea-40d5-9760-e2f8685ea7e7"},"vehicle_type_id":"4","last_reported":1778280242,"current_range_meters":6400,"station_id":"ce4bh692rcd13ifvqea0","pricing_plan_id":"cebpf4jnsgd1na2vs0mg"},{"bike_id":"e8b1e16d-8120-4289-bd8d-f5e10e7fd582","system_id":"levelo_inurba_marseille","lat":43.30935,"lon":5.40156,"is_reserved":false,"is_disabled":false,"rental_uris":{"android":"levelo://app?vid=e8b1e16d-8120-4289-bd8d-f5e10e7fd582","ios":"levelo://app?vid=e8b1e16d-8120-4289-bd8d-f5e10e7fd582"},"vehicle_type_id":"4","last_reported":1778280242,"current_range_meters":6400,"station_id":"ce4bgvp2rcd13ifvqct0","pricing_plan_id":"cebpf4jnsgd1na2vs0mg"},{"bike_id":"98bef945-3165-4b80-9af1-9bac2a9ad948","system_id":"levelo_inurba_marseille","lat":43.24068,"lon":5.377603,"is_reserved":false,"is_disabled":false,"rental_uris":{"android":"levelo://app?vid=98bef945-3165-4b80-9af1-9bac2a9ad948","ios":"levelo://app?vid=98bef945-3165-4b80-9af1-9bac2a9ad948"},"vehicle_type_id":"4","last_reported":1778280242,"current_range_meters":6400,"station_id":"ce4bhnp2rcd13ifvqgvg","pricing_plan_id":"cebpf4jnsgd1na2vs0mg"},{"bike_id":"48a3f40b-b41c-45ee-82b8-00b871da13dc","system_id":"levelo_inurba_marseille","lat":43.2655,"lon":5.40308,"is_reserved":false,"is_disabled":false,"rental_uris":{"android":"levelo://app?vid=48a3f40b-b41c-45ee-82b8-00b871da13dc","ios":"levelo://app?vid=48a3f40b-b41c-45ee-82b8-00b871da13dc"},"vehicle_type_id":"4","last_reported":1778280242,"current_range_meters":6800,"station_id":"ce4bhmp2rcd13ifvqgng","pricing_plan_id":"cebpf4jnsgd1na2vs0mg"},{"bike_id":"f986817d-6392-43f8-9ac4-27c0873d810e","system_id":"levelo_inurba_marseille","lat":43.24798,"lon":5.37448,"is_reserved":false,"is_disabled":false,"rental_uris":{"android":"levelo://app?vid=f986817d-6392-43f8-9ac4-27c0873d810e","ios":"levelo://app?vid=f986817d-6392-43f8-9ac4-27c0873d810e"},"vehicle_type_id":"4","last_reported":1778280242,"current_range_meters":6800,"station_id":"ce4bhgh2rcd13ifvqfb0","pricing_plan_id":"cebpf4jnsgd1na2vs0mg"},{"bike_id":"2d481886-24a4-4408-b5ca-dbcf1d0905ba","system_id":"levelo_inurba_marseille","lat":43.27835,"lon":5.39211,"is_reserved":false,"is_disabled":false,"rental_uris":{"android":"levelo://app?vid=2d481886-24a4-4408-b5ca-dbcf1d0905ba","ios":"levelo://app?vid=2d481886-24a4-4408-b5ca-dbcf1d0905ba"},"vehicle_type_id":"4","last_reported":1778280242,"current_range_meters":6800,"station_id":"ce4bhjp2rcd13ifvqga0","pricing_plan_id":"cebpf4jnsgd1na2vs0mg"},{"bike_id":"e84a663b-feb3-4e68-ae50-be27e6b7d8af","system_id":"levelo_inurba_marseille","lat":43.29614,"lon":5.38103,"is_reserved":false,"is_disabled":false,"rental_uris":{"android":"levelo://app?vid=e84a663b-feb3-4e68-ae50-be27e6b7d8af","ios":"levelo://app?vid=e84a663b-feb3-4e68-ae50-be27e6b7d8af"},"vehicle_type_id":"4","last_reported":1778280242,"current_range_meters":6800,"station_id":"ce4bgl12rcd13ifvqbo0","pricing_plan_id":"cebpf4jnsgd1na2vs0mg"},{"bike_id":"894cda9e-9123-496e-85d4-3eb0f38b46f7","system_id":"levelo_inurba_marseille","lat":43.29879,"lon":5.39723,"is_reserved":false,"is_disabled":false,"rental_uris":{"android":"levelo://app?vid=894cda9e-9123-496e-85d4-3eb0f38b46f7","ios":"levelo://app?vid=894cda9e-9123-496e-85d4-3eb0f38b46f7"},"vehicle_type_id":"4","last_reported":1778280242,"current_range_meters":6800,"station_id":"ce4bh0h2rcd13ifvqd50","pricing_plan_id":"cebpf4jnsgd1na2vs0mg"},{"bike_id":"ce6d5dbc-0b80-4f3a-abfd-d46149cf65d1","system_id":"levelo_inurba_marseille","lat":43.29897,"lon":5.37444,"is_reserved":false,"is_disabled":false,"rental_uris":{"android":"levelo://app?vid=ce6d5dbc-0b80-4f3a-abfd-d46149cf65d1","ios":"levelo://app?vid=ce6d5dbc-0b80-4f3a-abfd-d46149cf65d1"},"vehicle_type_id":"4","last_reported":1778280242,"current_range_meters":6800,"station_id":"ce4bgjh2rcd13ifvqbg0","pricing_plan_id":"cebpf4jnsgd1na2vs0mg"},{"bike_id":"41e09a29-bc98-4c8d-8179-b4a7f97453af","system_id":"levelo_inurba_marseille","lat":43.32937,"lon":5.42647,"is_reserved":false,"is_disabled":false,"rental_uris":{"android":"levelo://app?vid=41e09a29-bc98-4c8d-8179-b4a7f97453af","ios":"levelo://app?vid=41e09a29-bc98-4c8d-8179-b4a7f97453af"},"vehicle_type_id":"4","last_reported":1778280242,"current_range_meters":6800,"station_id":"","pricing_plan_id":"cebpf4jnsgd1na2vs0mg"},{"bike_id":"37998d8c-8065-4b38-b75b-e58f03489059","system_id":"levelo_inurba_marseille","lat":43.29793,"lon":5.37059,"is_reserved":false,"is_disabled":true,"rental_uris":{"android":"levelo://app?vid=37998d8c-8065-4b38-b75b-e58f03489059","ios":"levelo://app?vid=37998d8c-8065-4b38-b75b-e58f03489059"},"vehicle_type_id":"4","last_reported":1778280242,"current_range_meters":6800,"station_id":"ce4bgop2rcd13ifvqc1g","pricing_plan_id":"cebpf4jnsgd1na2vs0mg"},{"bike_id":"a35ae0e4-76a9-41eb-9a5e-26ec5e80290c","system_id":"levelo_inurba_marseille","lat":43.28717,"lon":5.36062,"is_reserved":false,"is_disabled":true,"rental_uris":{"android":"levelo://app?vid=a35ae0e4-76a9-41eb-9a5e-26ec5e80290c","ios":"levelo://app?vid=a35ae0e4-76a9-41eb-9a5e-26ec5e80290c"},"vehicle_type_id":"4","last_reported":1778280242,"current_range_meters":6800,"station_id":"cki0cbj6b192h4jlfktg","pricing_plan_id":"cebpf4jnsgd1na2vs0mg"},{"bike_id":"8eea14e8-81f9-450a-9f42-646e56a018e2","system_id":"levelo_inurba_marseille","lat":43.28866,"lon":5.42525,"is_reserved":false,"is_disabled":true,"rental_uris":{"android":"levelo://app?vid=8eea14e8-81f9-450a-9f42-646e56a018e2","ios":"levelo://app?vid=8eea14e8-81f9-450a-9f42-646e56a018e2"},"vehicle_type_id":"4","last_reported":1778280242,"current_range_meters":6800,"station_id":"st_d3b462108ojc7389ooeg","pricing_plan_id":"cebpf4jnsgd1na2vs0mg"},{"bike_id":"41d53ae5-1716-409e-a7b8-e1c887974fee","system_id":"levelo_inurba_marseille","lat":43.30297,"lon":5.36898,"is_reserved":false,"is_disabled":false,"rental_uris":{"android":"levelo://app?vid=41d53ae5-1716-409e-a7b8-e1c887974fee","ios":"levelo://app?vid=41d53ae5-1716-409e-a7b8-e1c887974fee"},"vehicle_type_id":"4","last_reported":1778280242,"current_range_meters":6800,"station_id":"ce4bgqh2rcd13ifvqc5g","pricing_plan_id":"cebpf4jnsgd1na2vs0mg"},{"bike_id":"5b17b337-4e55-486b-b310-212b10614e57","system_id":"levelo_inurba_marseille","lat":43.32299,"lon":5.36651,"is_reserved":false,"is_disabled":false,"rental_uris":{"android":"levelo://app?vid=5b17b337-4e55-486b-b310-212b10614e57","ios":"levelo://app?vid=5b17b337-4e55-486b-b310-212b10614e57"},"vehicle_type_id":"4","last_reported":1778280242,"current_range_meters":6800,"station_id":"","pricing_plan_id":"cebpf4jnsgd1na2vs0mg"},{"bike_id":"c98331c2-38ef-4684-ad8e-ccd8810effee","system_id":"levelo_inurba_marseille","lat":43.31113,"lon":5.37776,"is_reserved":false,"is_disabled":false,"rental_uris":{"android":"levelo://app?vid=c98331c2-38ef-4684-ad8e-ccd8810effee","ios":"levelo://app?vid=c98331c2-38ef-4684-ad8e-ccd8810effee"},"vehicle_type_id":"4","last_reported":1778280242,"current_range_meters":6800,"station_id":"ce4bgt92rcd13ifvqcg0","pricing_plan_id":"cebpf4jnsgd1na2vs0mg"},{"bike_id":"b5622673-ca18-43ad-8c54-f6790dd6d5ec","system_id":"levelo_inurba_marseille","lat":43.30694,"lon":5.37073,"is_reserved":false,"is_disabled":false,"rental_uris":{"android":"levelo://app?vid=b5622673-ca18-43ad-8c54-f6790dd6d5ec","ios":"levelo://app?vid=b5622673-ca18-43ad-8c54-f6790dd6d5ec"},"vehicle_type_id":"4","last_reported":1778280242,"current_range_meters":6800,"station_id":"","pricing_plan_id":"cebpf4jnsgd1na2vs0mg"},{"bike_id":"c1a97594-c328-414c-a4af-a7778a5a6311","system_id":"levelo_inurba_marseille","lat":43.27331,"lon":5.3906,"is_reserved":false,"is_disabled":false,"rental_uris":{"android":"levelo://app?vid=c1a97594-c328-414c-a4af-a7778a5a6311","ios":"levelo://app?vid=c1a97594-c328-414c-a4af-a7778a5a6311"},"vehicle_type_id":"4","last_reported":1778280242,"current_range_meters":6800,"station_id":"ce4bhgp2rcd13ifvqfe0","pricing_plan_id":"cebpf4jnsgd1na2vs0mg"},{"bike_id":"4adab041-9f44-4793-9f5f-5a30aefef920","system_id":"levelo_inurba_marseille","lat":43.28599,"lon":5.39848,"is_reserved":false,"is_disabled":false,"rental_uris":{"android":"levelo://app?vid=4adab041-9f44-4793-9f5f-5a30aefef920","ios":"levelo://app?vid=4adab041-9f44-4793-9f5f-5a30aefef920"},"vehicle_type_id":"4","last_reported":1778280242,"current_range_meters":6800,"station_id":"st_d4a7ka997mjs738ck50g","pricing_plan_id":"cebpf4jnsgd1na2vs0mg"},{"bike_id":"a1519436-19c1-429e-984e-3339bca9e7af","system_id":"levelo_inurba_marseille","lat":43.29012,"lon":5.38628,"is_reserved":false,"is_disabled":false,"rental_uris":{"android":"levelo://app?vid=a1519436-19c1-429e-984e-3339bca9e7af","ios":"levelo://app?vid=a1519436-19c1-429e-984e-3339bca9e7af"},"vehicle_type_id":"4","last_reported":1778280242,"current_range_meters":6800,"station_id":"ce4bh4p2rcd13ifvqe0g","pricing_plan_id":"cebpf4jnsgd1na2vs0mg"},{"bike_id":"cbc65248-03cc-4144-a0cb-baf3e5a8f89e","system_id":"levelo_inurba_marseille","lat":43.29833,"lon":5.39698,"is_reserved":false,"is_disabled":false,"rental_uris":{"android":"levelo://app?vid=cbc65248-03cc-4144-a0cb-baf3e5a8f89e","ios":"levelo://app?vid=cbc65248-03cc-4144-a0cb-baf3e5a8f89e"},"vehicle_type_id":"4","last_reported":1778280242,"current_range_meters":6800,"station_id":"ce4bh0h2rcd13ifvqd50","pricing_plan_id":"cebpf4jnsgd1na2vs0mg"},{"bike_id":"2eff6c3c-b3c7-4f79-9177-294eb1d510e0","system_id":"levelo_inurba_marseille","lat":43.21178,"lon":5.35011,"is_reserved":false,"is_disabled":false,"rental_uris":{"android":"levelo://app?vid=2eff6c3c-b3c7-4f79-9177-294eb1d510e0","ios":"levelo://app?vid=2eff6c3c-b3c7-4f79-9177-294eb1d510e0"},"vehicle_type_id":"4","last_reported":1778280242,"current_range_meters":6800,"station_id":"","pricing_plan_id":"cebpf4jnsgd1na2vs0mg"},{"bike_id":"feecb4be-b14f-4f21-b0cd-b401783be40f","system_id":"levelo_inurba_marseille","lat":43.27936,"lon":5.4105,"is_reserved":false,"is_disabled":false,"rental_uris":{"android":"levelo://app?vid=feecb4be-b14f-4f21-b0cd-b401783be40f","ios":"levelo://app?vid=feecb4be-b14f-4f21-b0cd-b401783be40f"},"vehicle_type_id":"4","last_reported":1778280242,"current_range_meters":6800,"station_id":"ce4bhnp2rcd13ifvqh0g","pricing_plan_id":"cebpf4jnsgd1na2vs0mg"},{"bike_id":"338578b3-d500-4475-89bc-43f6d832f4c5","system_id":"levelo_inurba_marseille","lat":43.248064,"lon":5.374581,"is_reserved":false,"is_disabled":false,"rental_uris":{"android":"levelo://app?vid=338578b3-d500-4475-89bc-43f6d832f4c5","ios":"levelo://app?vid=338578b3-d500-4475-89bc-43f6d832f4c5"},"vehicle_type_id":"4","last_reported":1778280242,"current_range_meters":7200,"station_id":"ce4bhgh2rcd13ifvqfb0","pricing_plan_id":"cebpf4jnsgd1na2vs0mg"},{"bike_id":"05ea95a4-cd67-4fc1-a218-6926df79c21d","system_id":"levelo_inurba_marseille","lat":43.31083,"lon":5.37818,"is_reserved":false,"is_disabled":false,"rental_uris":{"android":"levelo://app?vid=05ea95a4-cd67-4fc1-a218-6926df79c21d","ios":"levelo://app?vid=05ea95a4-cd67-4fc1-a218-6926df79c21d"},"vehicle_type_id":"4","last_reported":1778280242,"current_range_meters":7200,"station_id":"","pricing_plan_id":"cebpf4jnsgd1na2vs0mg"},{"bike_id":"8ce2f59a-c064-48f7-99d1-c1f6d8b2f7e2","system_id":"levelo_inurba_marseille","lat":43.29479,"lon":5.43294,"is_reserved":false,"is_disabled":false,"rental_uris":{"android":"levelo://app?vid=8ce2f59a-c064-48f7-99d1-c1f6d8b2f7e2","ios":"levelo://app?vid=8ce2f59a-c064-48f7-99d1-c1f6d8b2f7e2"},"vehicle_type_id":"4","last_reported":1778280242,"current_range_meters":7200,"station_id":"st_d3j5ugp08ojc73fj9d10","pricing_plan_id":"cebpf4jnsgd1na2vs0mg"},{"bike_id":"7c56137a-05b5-47d0-b192-873a2f490371","system_id":"levelo_inurba_marseille","lat":43.24385,"lon":5.37051,"is_reserved":false,"is_disabled":false,"rental_uris":{"android":"levelo://app?vid=7c56137a-05b5-47d0-b192-873a2f490371","ios":"levelo://app?vid=7c56137a-05b5-47d0-b192-873a2f490371"},"vehicle_type_id":"4","last_reported":1778280242,"current_range_meters":7200,"station_id":"ce4bhhh2rcd13ifvqfk0","pricing_plan_id":"cebpf4jnsgd1na2vs0mg"},{"bike_id":"82f907ec-863d-443b-9a33-e018df21131b","system_id":"levelo_inurba_marseille","lat":43.27941,"lon":5.38681,"is_reserved":false,"is_disabled":false,"rental_uris":{"android":"levelo://app?vid=82f907ec-863d-443b-9a33-e018df21131b","ios":"levelo://app?vid=82f907ec-863d-443b-9a33-e018df21131b"},"vehicle_type_id":"4","last_reported":1778280242,"current_range_meters":7200,"station_id":"ce4bhg12rcd13ifvqf80","pricing_plan_id":"cebpf4jnsgd1na2vs0mg"},{"bike_id":"025be5e0-0c74-454f-99f9-781faca9cdbe","system_id":"levelo_inurba_marseille","lat":43.29773,"lon":5.38105,"is_reserved":false,"is_disabled":true,"rental_uris":{"android":"levelo://app?vid=025be5e0-0c74-454f-99f9-781faca9cdbe","ios":"levelo://app?vid=025be5e0-0c74-454f-99f9-781faca9cdbe"},"vehicle_type_id":"4","last_reported":1778280242,"current_range_meters":7200,"station_id":"ce4bgip2rcd13ifvqbb0","pricing_plan_id":"cebpf4jnsgd1na2vs0mg"},{"bike_id":"7b416787-800a-4e18-b782-4ef145ce6930","system_id":"levelo_inurba_marseille","lat":43.27974,"lon":5.38724,"is_reserved":false,"is_disabled":false,"rental_uris":{"android":"levelo://app?vid=7b416787-800a-4e18-b782-4ef145ce6930","ios":"levelo://app?vid=7b416787-800a-4e18-b782-4ef145ce6930"},"vehicle_type_id":"4","last_reported":1778280242,"current_range_meters":7200,"station_id":"ce4bhg12rcd13ifvqf80","pricing_plan_id":"cebpf4jnsgd1na2vs0mg"},{"bike_id":"89c7237b-c678-4fba-a9b7-0825b89a0cde","system_id":"levelo_inurba_marseille","lat":43.29534,"lon":5.38539,"is_reserved":false,"is_disabled":false,"rental_uris":{"android":"levelo://app?vid=89c7237b-c678-4fba-a9b7-0825b89a0cde","ios":"levelo://app?vid=89c7237b-c678-4fba-a9b7-0825b89a0cde"},"vehicle_type_id":"4","last_reported":1778280242,"current_range_meters":7200,"station_id":"ce4bgih2rcd13ifvqba0","pricing_plan_id":"cebpf4jnsgd1na2vs0mg"},{"bike_id":"fe33cc1b-973a-4526-9664-2fa5496a4cb0","system_id":"levelo_inurba_marseille","lat":43.29562,"lon":5.40688,"is_reserved":false,"is_disabled":false,"rental_uris":{"android":"levelo://app?vid=fe33cc1b-973a-4526-9664-2fa5496a4cb0","ios":"levelo://app?vid=fe33cc1b-973a-4526-9664-2fa5496a4cb0"},"vehicle_type_id":"4","last_reported":1778280242,"current_range_meters":7200,"station_id":"","pricing_plan_id":"cebpf4jnsgd1na2vs0mg"},{"bike_id":"6052b460-2ae9-4384-970a-feb21203acee","system_id":"levelo_inurba_marseille","lat":43.29928,"lon":5.37465,"is_reserved":false,"is_disabled":false,"rental_uris":{"android":"levelo://app?vid=6052b460-2ae9-4384-970a-feb21203acee","ios":"levelo://app?vid=6052b460-2ae9-4384-970a-feb21203acee"},"vehicle_type_id":"4","last_reported":1778280242,"current_range_meters":7200,"station_id":"ce4bgjh2rcd13ifvqbg0","pricing_plan_id":"cebpf4jnsgd1na2vs0mg"},{"bike_id":"9091060c-4cba-4c31-9803-bad920e5f577","system_id":"levelo_inurba_marseille","lat":43.29891,"lon":5.38928,"is_reserved":false,"is_disabled":true,"rental_uris":{"android":"levelo://app?vid=9091060c-4cba-4c31-9803-bad920e5f577","ios":"levelo://app?vid=9091060c-4cba-4c31-9803-bad920e5f577"},"vehicle_type_id":"4","last_reported":1778280242,"current_range_meters":7200,"station_id":"ce4bh392rcd13ifvqdl0","pricing_plan_id":"cebpf4jnsgd1na2vs0mg"},{"bike_id":"fa833790-fea7-4b87-ab01-22a9071ab066","system_id":"levelo_inurba_marseille","lat":43.28477,"lon":5.48393,"is_reserved":false,"is_disabled":false,"rental_uris":{"android":"levelo://app?vid=fa833790-fea7-4b87-ab01-22a9071ab066","ios":"levelo://app?vid=fa833790-fea7-4b87-ab01-22a9071ab066"},"vehicle_type_id":"4","last_reported":1778280242,"current_range_meters":7200,"station_id":"st_d3svhcjqgbts73a3dn0g","pricing_plan_id":"cebpf4jnsgd1na2vs0mg"},{"bike_id":"347e765c-cbc7-4548-a801-cb1066b51431","system_id":"levelo_inurba_marseille","lat":43.29259,"lon":5.38434,"is_reserved":false,"is_disabled":false,"rental_uris":{"android":"levelo://app?vid=347e765c-cbc7-4548-a801-cb1066b51431","ios":"levelo://app?vid=347e765c-cbc7-4548-a801-cb1066b51431"},"vehicle_type_id":"4","last_reported":1778280242,"current_range_meters":7200,"station_id":"ce4bh692rcd13ifvqea0","pricing_plan_id":"cebpf4jnsgd1na2vs0mg"},{"bike_id":"95489a07-b280-4aea-935b-70fc8cc33653","system_id":"levelo_inurba_marseille","lat":43.21744,"lon":5.34588,"is_reserved":false,"is_disabled":true,"rental_uris":{"android":"levelo://app?vid=95489a07-b280-4aea-935b-70fc8cc33653","ios":"levelo://app?vid=95489a07-b280-4aea-935b-70fc8cc33653"},"vehicle_type_id":"4","last_reported":1778280242,"current_range_meters":7200,"station_id":"st_cvj6r9ubvosntc0bgbag","pricing_plan_id":"cebpf4jnsgd1na2vs0mg"},{"bike_id":"f5470709-275a-45ed-ae74-6dd1b6c0893d","system_id":"levelo_inurba_marseille","lat":43.30429,"lon":5.38893,"is_reserved":false,"is_disabled":false,"rental_uris":{"android":"levelo://app?vid=f5470709-275a-45ed-ae74-6dd1b6c0893d","ios":"levelo://app?vid=f5470709-275a-45ed-ae74-6dd1b6c0893d"},"vehicle_type_id":"4","last_reported":1778280242,"current_range_meters":7200,"station_id":"ce4bgk12rcd13ifvqbi0","pricing_plan_id":"cebpf4jnsgd1na2vs0mg"},{"bike_id":"5fc85a70-cd51-491b-a363-a46b0850da15","system_id":"levelo_inurba_marseille","lat":43.32909,"lon":5.36688,"is_reserved":false,"is_disabled":false,"rental_uris":{"android":"levelo://app?vid=5fc85a70-cd51-491b-a363-a46b0850da15","ios":"levelo://app?vid=5fc85a70-cd51-491b-a363-a46b0850da15"},"vehicle_type_id":"4","last_reported":1778280242,"current_range_meters":7200,"station_id":"","pricing_plan_id":"cebpf4jnsgd1na2vs0mg"},{"bike_id":"053ae27e-1b5e-47ed-8998-f72bfcfe9e14","system_id":"levelo_inurba_marseille","lat":43.29525,"lon":5.39389,"is_reserved":false,"is_disabled":false,"rental_uris":{"android":"levelo://app?vid=053ae27e-1b5e-47ed-8998-f72bfcfe9e14","ios":"levelo://app?vid=053ae27e-1b5e-47ed-8998-f72bfcfe9e14"},"vehicle_type_id":"4","last_reported":1778280242,"current_range_meters":7200,"station_id":"ce4bh292rcd13ifvqdf0","pricing_plan_id":"cebpf4jnsgd1na2vs0mg"},{"bike_id":"bb4b3322-aad0-4702-8d83-edab1e43b4da","system_id":"levelo_inurba_marseille","lat":43.29251,"lon":5.37621,"is_reserved":false,"is_disabled":false,"rental_uris":{"android":"levelo://app?vid=bb4b3322-aad0-4702-8d83-edab1e43b4da","ios":"levelo://app?vid=bb4b3322-aad0-4702-8d83-edab1e43b4da"},"vehicle_type_id":"4","last_reported":1778280242,"current_range_meters":7200,"station_id":"ce4bgi12rcd13ifvqb80","pricing_plan_id":"cebpf4jnsgd1na2vs0mg"},{"bike_id":"4ee78646-fefd-4446-9cad-30077bd1d04f","system_id":"levelo_inurba_marseille","lat":43.30239,"lon":5.39944,"is_reserved":false,"is_disabled":true,"rental_uris":{"android":"levelo://app?vid=4ee78646-fefd-4446-9cad-30077bd1d04f","ios":"levelo://app?vid=4ee78646-fefd-4446-9cad-30077bd1d04f"},"vehicle_type_id":"4","last_reported":1778280242,"current_range_meters":7200,"station_id":"","pricing_plan_id":"cebpf4jnsgd1na2vs0mg"},{"bike_id":"c0537e4f-b6e6-4613-829c-d3ab2e31740e","system_id":"levelo_inurba_marseille","lat":43.27074,"lon":5.42274,"is_reserved":false,"is_disabled":false,"rental_uris":{"android":"levelo://app?vid=c0537e4f-b6e6-4613-829c-d3ab2e31740e","ios":"levelo://app?vid=c0537e4f-b6e6-4613-829c-d3ab2e31740e"},"vehicle_type_id":"4","last_reported":1778280242,"current_range_meters":7200,"station_id":"ce4bhk92rcd13ifvqgb0","pricing_plan_id":"cebpf4jnsgd1na2vs0mg"},{"bike_id":"f1341701-ce72-4914-bad3-31e4950fc2b5","system_id":"levelo_inurba_marseille","lat":43.29023,"lon":5.3813,"is_reserved":false,"is_disabled":true,"rental_uris":{"android":"levelo://app?vid=f1341701-ce72-4914-bad3-31e4950fc2b5","ios":"levelo://app?vid=f1341701-ce72-4914-bad3-31e4950fc2b5"},"vehicle_type_id":"4","last_reported":1778280242,"current_range_meters":7200,"station_id":"ce4bh4p2rcd13ifvqe1g","pricing_plan_id":"cebpf4jnsgd1na2vs0mg"},{"bike_id":"12633ac5-c16f-4db3-80b2-9ed2ef625bfd","system_id":"levelo_inurba_marseille","lat":43.29036,"lon":5.39942,"is_reserved":false,"is_disabled":false,"rental_uris":{"android":"levelo://app?vid=12633ac5-c16f-4db3-80b2-9ed2ef625bfd","ios":"levelo://app?vid=12633ac5-c16f-4db3-80b2-9ed2ef625bfd"},"vehicle_type_id":"4","last_reported":1778280242,"current_range_meters":7200,"station_id":"ce4bh392rcd13ifvqdm0","pricing_plan_id":"cebpf4jnsgd1na2vs0mg"},{"bike_id":"0bc66aaf-5baf-4527-9d78-345db4e62b37","system_id":"levelo_inurba_marseille","lat":43.27493,"lon":5.41591,"is_reserved":false,"is_disabled":false,"rental_uris":{"android":"levelo://app?vid=0bc66aaf-5baf-4527-9d78-345db4e62b37","ios":"levelo://app?vid=0bc66aaf-5baf-4527-9d78-345db4e62b37"},"vehicle_type_id":"4","last_reported":1778280242,"current_range_meters":7200,"station_id":"st_d6im8g6chgec73a5pndg","pricing_plan_id":"cebpf4jnsgd1na2vs0mg"},{"bike_id":"ba1a84df-99bc-4f91-b102-9b8b01f50ffc","system_id":"levelo_inurba_marseille","lat":43.31882,"lon":5.36805,"is_reserved":false,"is_disabled":false,"rental_uris":{"android":"levelo://app?vid=ba1a84df-99bc-4f91-b102-9b8b01f50ffc","ios":"levelo://app?vid=ba1a84df-99bc-4f91-b102-9b8b01f50ffc"},"vehicle_type_id":"4","last_reported":1778280242,"current_range_meters":8000,"station_id":"st_d6o2h0d0559c73evc1b0","pricing_plan_id":"cebpf4jnsgd1na2vs0mg"},{"bike_id":"6fe4ba82-0048-4e70-941c-4452870ef26d","system_id":"levelo_inurba_marseille","lat":43.248,"lon":5.37445,"is_reserved":false,"is_disabled":false,"rental_uris":{"android":"levelo://app?vid=6fe4ba82-0048-4e70-941c-4452870ef26d","ios":"levelo://app?vid=6fe4ba82-0048-4e70-941c-4452870ef26d"},"vehicle_type_id":"4","last_reported":1778280242,"current_range_meters":8000,"station_id":"ce4bhgh2rcd13ifvqfb0","pricing_plan_id":"cebpf4jnsgd1na2vs0mg"},{"bike_id":"240f83cd-e330-45fb-9f58-4a13270cfff0","system_id":"levelo_inurba_marseille","lat":43.28147,"lon":5.42619,"is_reserved":false,"is_disabled":false,"rental_uris":{"android":"levelo://app?vid=240f83cd-e330-45fb-9f58-4a13270cfff0","ios":"levelo://app?vid=240f83cd-e330-45fb-9f58-4a13270cfff0"},"vehicle_type_id":"4","last_reported":1778280242,"current_range_meters":8000,"station_id":"ce4bhnh2rcd13ifvqgug","pricing_plan_id":"cebpf4jnsgd1na2vs0mg"},{"bike_id":"09f03c71-3135-488b-aa1b-16f1834011a9","system_id":"levelo_inurba_marseille","lat":43.29198,"lon":5.35677,"is_reserved":false,"is_disabled":false,"rental_uris":{"android":"levelo://app?vid=09f03c71-3135-488b-aa1b-16f1834011a9","ios":"levelo://app?vid=09f03c71-3135-488b-aa1b-16f1834011a9"},"vehicle_type_id":"4","last_reported":1778280242,"current_range_meters":8000,"station_id":"","pricing_plan_id":"cebpf4jnsgd1na2vs0mg"},{"bike_id":"e9603e54-ff6b-4fae-9e9b-b17dd395cbe4","system_id":"levelo_inurba_marseille","lat":43.26354,"lon":5.39917,"is_reserved":false,"is_disabled":false,"rental_uris":{"android":"levelo://app?vid=e9603e54-ff6b-4fae-9e9b-b17dd395cbe4","ios":"levelo://app?vid=e9603e54-ff6b-4fae-9e9b-b17dd395cbe4"},"vehicle_type_id":"4","last_reported":1778280242,"current_range_meters":8000,"station_id":"","pricing_plan_id":"cebpf4jnsgd1na2vs0mg"},{"bike_id":"653dd9b4-832c-496d-94a2-4bc0d2c78a7d","system_id":"levelo_inurba_marseille","lat":43.31221,"lon":5.36899,"is_reserved":false,"is_disabled":false,"rental_uris":{"android":"levelo://app?vid=653dd9b4-832c-496d-94a2-4bc0d2c78a7d","ios":"levelo://app?vid=653dd9b4-832c-496d-94a2-4bc0d2c78a7d"},"vehicle_type_id":"4","last_reported":1778280242,"current_range_meters":8000,"station_id":"ce4bgl92rcd13ifvqbq0","pricing_plan_id":"cebpf4jnsgd1na2vs0mg"},{"bike_id":"612f85bb-15f5-4854-a20e-391e53ce825c","system_id":"levelo_inurba_marseille","lat":43.30956,"lon":5.39059,"is_reserved":false,"is_disabled":false,"rental_uris":{"android":"levelo://app?vid=612f85bb-15f5-4854-a20e-391e53ce825c","ios":"levelo://app?vid=612f85bb-15f5-4854-a20e-391e53ce825c"},"vehicle_type_id":"4","last_reported":1778280242,"current_range_meters":8000,"station_id":"ce4bgup2rcd13ifvqco0","pricing_plan_id":"cebpf4jnsgd1na2vs0mg"},{"bike_id":"9bab0edf-ec8d-417b-879a-09472d29680b","system_id":"levelo_inurba_marseille","lat":43.266825,"lon":5.382769,"is_reserved":false,"is_disabled":false,"rental_uris":{"android":"levelo://app?vid=9bab0edf-ec8d-417b-879a-09472d29680b","ios":"levelo://app?vid=9bab0edf-ec8d-417b-879a-09472d29680b"},"vehicle_type_id":"4","last_reported":1778280242,"current_range_meters":8000,"station_id":"ce4bhg92rcd13ifvqf90","pricing_plan_id":"cebpf4jnsgd1na2vs0mg"},{"bike_id":"c90e6cae-dbe6-402b-9a31-659b3311ab55","system_id":"levelo_inurba_marseille","lat":43.28097,"lon":5.37838,"is_reserved":false,"is_disabled":false,"rental_uris":{"android":"levelo://app?vid=c90e6cae-dbe6-402b-9a31-659b3311ab55","ios":"levelo://app?vid=c90e6cae-dbe6-402b-9a31-659b3311ab55"},"vehicle_type_id":"4","last_reported":1778280242,"current_range_meters":8000,"station_id":"ce4bha12rcd13ifvqee0","pricing_plan_id":"cebpf4jnsgd1na2vs0mg"},{"bike_id":"9d19633a-09dc-421b-9646-d96c48669e07","system_id":"levelo_inurba_marseille","lat":43.24173,"lon":5.39709,"is_reserved":false,"is_disabled":false,"rental_uris":{"android":"levelo://app?vid=9d19633a-09dc-421b-9646-d96c48669e07","ios":"levelo://app?vid=9d19633a-09dc-421b-9646-d96c48669e07"},"vehicle_type_id":"4","last_reported":1778280242,"current_range_meters":8000,"station_id":"ce4bhn12rcd13ifvqgpg","pricing_plan_id":"cebpf4jnsgd1na2vs0mg"},{"bike_id":"429fe4ea-ae33-4879-9df7-cab771d175e9","system_id":"levelo_inurba_marseille","lat":43.29529,"lon":5.38518,"is_reserved":false,"is_disabled":false,"rental_uris":{"android":"levelo://app?vid=429fe4ea-ae33-4879-9df7-cab771d175e9","ios":"levelo://app?vid=429fe4ea-ae33-4879-9df7-cab771d175e9"},"vehicle_type_id":"4","last_reported":1778280242,"current_range_meters":8000,"station_id":"ce4bgih2rcd13ifvqba0","pricing_plan_id":"cebpf4jnsgd1na2vs0mg"},{"bike_id":"bdd7e5e6-a507-4b27-9760-4ad4469a7c6c","system_id":"levelo_inurba_marseille","lat":43.299253,"lon":5.374698,"is_reserved":false,"is_disabled":false,"rental_uris":{"android":"levelo://app?vid=bdd7e5e6-a507-4b27-9760-4ad4469a7c6c","ios":"levelo://app?vid=bdd7e5e6-a507-4b27-9760-4ad4469a7c6c"},"vehicle_type_id":"4","last_reported":1778280242,"current_range_meters":8000,"station_id":"ce4bgjh2rcd13ifvqbg0","pricing_plan_id":"cebpf4jnsgd1na2vs0mg"},{"bike_id":"e8461b56-9af7-4d44-a288-92e063783260","system_id":"levelo_inurba_marseille","lat":43.26231,"lon":5.40467,"is_reserved":false,"is_disabled":false,"rental_uris":{"android":"levelo://app?vid=e8461b56-9af7-4d44-a288-92e063783260","ios":"levelo://app?vid=e8461b56-9af7-4d44-a288-92e063783260"},"vehicle_type_id":"4","last_reported":1778280242,"current_range_meters":8000,"station_id":"ce4bhmh2rcd13ifvqgmg","pricing_plan_id":"cebpf4jnsgd1na2vs0mg"},{"bike_id":"f3687cea-c17d-49b9-8b6e-102d03658f03","system_id":"levelo_inurba_marseille","lat":43.30885,"lon":5.39644,"is_reserved":false,"is_disabled":false,"rental_uris":{"android":"levelo://app?vid=f3687cea-c17d-49b9-8b6e-102d03658f03","ios":"levelo://app?vid=f3687cea-c17d-49b9-8b6e-102d03658f03"},"vehicle_type_id":"4","last_reported":1778280242,"current_range_meters":8000,"station_id":"ce4bh012rcd13ifvqcv0","pricing_plan_id":"cebpf4jnsgd1na2vs0mg"},{"bike_id":"c9a05d32-1b12-4e3d-b636-7cd0bfcad14a","system_id":"levelo_inurba_marseille","lat":43.29547,"lon":5.38504,"is_reserved":false,"is_disabled":false,"rental_uris":{"android":"levelo://app?vid=c9a05d32-1b12-4e3d-b636-7cd0bfcad14a","ios":"levelo://app?vid=c9a05d32-1b12-4e3d-b636-7cd0bfcad14a"},"vehicle_type_id":"4","last_reported":1778280242,"current_range_meters":8000,"station_id":"ce4bgih2rcd13ifvqba0","pricing_plan_id":"cebpf4jnsgd1na2vs0mg"},{"bike_id":"a2255690-14bf-4d7c-b2f6-ffd493bfffd8","system_id":"levelo_inurba_marseille","lat":43.24156,"lon":5.36385,"is_reserved":false,"is_disabled":false,"rental_uris":{"android":"levelo://app?vid=a2255690-14bf-4d7c-b2f6-ffd493bfffd8","ios":"levelo://app?vid=a2255690-14bf-4d7c-b2f6-ffd493bfffd8"},"vehicle_type_id":"4","last_reported":1778280242,"current_range_meters":8400,"station_id":"cpo36qri1sfpv3e86is0","pricing_plan_id":"cebpf4jnsgd1na2vs0mg"},{"bike_id":"eee51eae-5aaa-4a90-b6bb-0ee2250819e2","system_id":"levelo_inurba_marseille","lat":43.27892,"lon":5.38721,"is_reserved":false,"is_disabled":false,"rental_uris":{"android":"levelo://app?vid=eee51eae-5aaa-4a90-b6bb-0ee2250819e2","ios":"levelo://app?vid=eee51eae-5aaa-4a90-b6bb-0ee2250819e2"},"vehicle_type_id":"4","last_reported":1778280242,"current_range_meters":8400,"station_id":"","pricing_plan_id":"cebpf4jnsgd1na2vs0mg"},{"bike_id":"36d7ac39-7acb-4d8d-bbd5-51e07f70143a","system_id":"levelo_inurba_marseille","lat":43.29278,"lon":5.38436,"is_reserved":false,"is_disabled":false,"rental_uris":{"android":"levelo://app?vid=36d7ac39-7acb-4d8d-bbd5-51e07f70143a","ios":"levelo://app?vid=36d7ac39-7acb-4d8d-bbd5-51e07f70143a"},"vehicle_type_id":"4","last_reported":1778280242,"current_range_meters":8400,"station_id":"ce4bh692rcd13ifvqea0","pricing_plan_id":"cebpf4jnsgd1na2vs0mg"},{"bike_id":"36bf5966-883a-4820-975e-e8801ce08727","system_id":"levelo_inurba_marseille","lat":43.29317,"lon":5.37143,"is_reserved":false,"is_disabled":false,"rental_uris":{"android":"levelo://app?vid=36bf5966-883a-4820-975e-e8801ce08727","ios":"levelo://app?vid=36bf5966-883a-4820-975e-e8801ce08727"},"vehicle_type_id":"4","last_reported":1778280242,"current_range_meters":8400,"station_id":"ce4bgh92rcd13ifvqb40","pricing_plan_id":"cebpf4jnsgd1na2vs0mg"},{"bike_id":"0a6c38d4-1e0f-45e0-9aba-29b1d9d56d92","system_id":"levelo_inurba_marseille","lat":43.29528,"lon":5.38541,"is_reserved":false,"is_disabled":false,"rental_uris":{"android":"levelo://app?vid=0a6c38d4-1e0f-45e0-9aba-29b1d9d56d92","ios":"levelo://app?vid=0a6c38d4-1e0f-45e0-9aba-29b1d9d56d92"},"vehicle_type_id":"4","last_reported":1778280242,"current_range_meters":8400,"station_id":"ce4bgih2rcd13ifvqba0","pricing_plan_id":"cebpf4jnsgd1na2vs0mg"},{"bike_id":"8fdbe986-716a-4dce-a50d-3af695e9688c","system_id":"levelo_inurba_marseille","lat":43.33531,"lon":5.37474,"is_reserved":false,"is_disabled":false,"rental_uris":{"android":"levelo://app?vid=8fdbe986-716a-4dce-a50d-3af695e9688c","ios":"levelo://app?vid=8fdbe986-716a-4dce-a50d-3af695e9688c"},"vehicle_type_id":"4","last_reported":1778280242,"current_range_meters":8400,"station_id":"st_d46tts09ee8s73dlu43g","pricing_plan_id":"cebpf4jnsgd1na2vs0mg"},{"bike_id":"1a8c1511-a5c4-4f88-9446-0c157bdbb297","system_id":"levelo_inurba_marseille","lat":43.30622,"lon":5.37171,"is_reserved":false,"is_disabled":false,"rental_uris":{"android":"levelo://app?vid=1a8c1511-a5c4-4f88-9446-0c157bdbb297","ios":"levelo://app?vid=1a8c1511-a5c4-4f88-9446-0c157bdbb297"},"vehicle_type_id":"4","last_reported":1778280242,"current_range_meters":8400,"station_id":"ce4bgqh2rcd13ifvqc4g","pricing_plan_id":"cebpf4jnsgd1na2vs0mg"},{"bike_id":"f03e9416-653d-45fd-aba7-c2ee459eb1bb","system_id":"levelo_inurba_marseille","lat":43.33522,"lon":5.37485,"is_reserved":false,"is_disabled":false,"rental_uris":{"android":"levelo://app?vid=f03e9416-653d-45fd-aba7-c2ee459eb1bb","ios":"levelo://app?vid=f03e9416-653d-45fd-aba7-c2ee459eb1bb"},"vehicle_type_id":"4","last_reported":1778280242,"current_range_meters":8400,"station_id":"st_d46tts09ee8s73dlu43g","pricing_plan_id":"cebpf4jnsgd1na2vs0mg"},{"bike_id":"fe719e21-ec18-4bb4-81a4-fa2c0ee31e9b","system_id":"levelo_inurba_marseille","lat":43.30817,"lon":5.38144,"is_reserved":false,"is_disabled":false,"rental_uris":{"android":"levelo://app?vid=fe719e21-ec18-4bb4-81a4-fa2c0ee31e9b","ios":"levelo://app?vid=fe719e21-ec18-4bb4-81a4-fa2c0ee31e9b"},"vehicle_type_id":"4","last_reported":1778280242,"current_range_meters":8400,"station_id":"ce4bgt12rcd13ifvqce0","pricing_plan_id":"cebpf4jnsgd1na2vs0mg"},{"bike_id":"80e2235b-988e-4a5b-a650-af1510311759","system_id":"levelo_inurba_marseille","lat":43.292675,"lon":5.384346,"is_reserved":false,"is_disabled":false,"rental_uris":{"android":"levelo://app?vid=80e2235b-988e-4a5b-a650-af1510311759","ios":"levelo://app?vid=80e2235b-988e-4a5b-a650-af1510311759"},"vehicle_type_id":"4","last_reported":1778280242,"current_range_meters":8400,"station_id":"ce4bh692rcd13ifvqea0","pricing_plan_id":"cebpf4jnsgd1na2vs0mg"},{"bike_id":"9d6e5803-f86e-480f-8608-b1264f61154e","system_id":"levelo_inurba_marseille","lat":43.32096,"lon":5.36744,"is_reserved":false,"is_disabled":false,"rental_uris":{"android":"levelo://app?vid=9d6e5803-f86e-480f-8608-b1264f61154e","ios":"levelo://app?vid=9d6e5803-f86e-480f-8608-b1264f61154e"},"vehicle_type_id":"4","last_reported":1778280242,"current_range_meters":8400,"station_id":"ce4bhrh2rcd13ifvqhug","pricing_plan_id":"cebpf4jnsgd1na2vs0mg"},{"bike_id":"5dda00a1-f787-488a-aa64-058079c40c64","system_id":"levelo_inurba_marseille","lat":43.269467,"lon":5.393522,"is_reserved":false,"is_disabled":false,"rental_uris":{"android":"levelo://app?vid=5dda00a1-f787-488a-aa64-058079c40c64","ios":"levelo://app?vid=5dda00a1-f787-488a-aa64-058079c40c64"},"vehicle_type_id":"4","last_reported":1778280242,"current_range_meters":8400,"station_id":"","pricing_plan_id":"cebpf4jnsgd1na2vs0mg"},{"bike_id":"2bfeb872-3b6a-44bd-aaf4-d49eee479e56","system_id":"levelo_inurba_marseille","lat":43.21745,"lon":5.34606,"is_reserved":false,"is_disabled":true,"rental_uris":{"android":"levelo://app?vid=2bfeb872-3b6a-44bd-aaf4-d49eee479e56","ios":"levelo://app?vid=2bfeb872-3b6a-44bd-aaf4-d49eee479e56"},"vehicle_type_id":"4","last_reported":1778280242,"current_range_meters":8400,"station_id":"st_cvj6r9ubvosntc0bgbag","pricing_plan_id":"cebpf4jnsgd1na2vs0mg"},{"bike_id":"7026d306-6ecf-4826-ba3d-c6c15fdac4aa","system_id":"levelo_inurba_marseille","lat":43.24814,"lon":5.37445,"is_reserved":false,"is_disabled":false,"rental_uris":{"android":"levelo://app?vid=7026d306-6ecf-4826-ba3d-c6c15fdac4aa","ios":"levelo://app?vid=7026d306-6ecf-4826-ba3d-c6c15fdac4aa"},"vehicle_type_id":"4","last_reported":1778280242,"current_range_meters":8400,"station_id":"ce4bhgh2rcd13ifvqfb0","pricing_plan_id":"cebpf4jnsgd1na2vs0mg"},{"bike_id":"f88200db-f570-4c28-8698-1bfd0c95997d","system_id":"levelo_inurba_marseille","lat":43.30795,"lon":5.38148,"is_reserved":false,"is_disabled":false,"rental_uris":{"android":"levelo://app?vid=f88200db-f570-4c28-8698-1bfd0c95997d","ios":"levelo://app?vid=f88200db-f570-4c28-8698-1bfd0c95997d"},"vehicle_type_id":"4","last_reported":1778280242,"current_range_meters":8400,"station_id":"ce4bgt12rcd13ifvqce0","pricing_plan_id":"cebpf4jnsgd1na2vs0mg"},{"bike_id":"2d4086a4-858c-483d-b34b-ed85e093cb96","system_id":"levelo_inurba_marseille","lat":43.30196,"lon":5.38157,"is_reserved":false,"is_disabled":false,"rental_uris":{"android":"levelo://app?vid=2d4086a4-858c-483d-b34b-ed85e093cb96","ios":"levelo://app?vid=2d4086a4-858c-483d-b34b-ed85e093cb96"},"vehicle_type_id":"4","last_reported":1778280242,"current_range_meters":8400,"station_id":"","pricing_plan_id":"cebpf4jnsgd1na2vs0mg"},{"bike_id":"1a4fa4b1-8940-43a5-91ef-f44a5b312a97","system_id":"levelo_inurba_marseille","lat":43.24659,"lon":5.38148,"is_reserved":false,"is_disabled":false,"rental_uris":{"android":"levelo://app?vid=1a4fa4b1-8940-43a5-91ef-f44a5b312a97","ios":"levelo://app?vid=1a4fa4b1-8940-43a5-91ef-f44a5b312a97"},"vehicle_type_id":"4","last_reported":1778280242,"current_range_meters":8400,"station_id":"ce4bhih2rcd13ifvqfr0","pricing_plan_id":"cebpf4jnsgd1na2vs0mg"},{"bike_id":"883057af-47fc-4b0e-a410-abb84409aee1","system_id":"levelo_inurba_marseille","lat":43.29257,"lon":5.38441,"is_reserved":false,"is_disabled":false,"rental_uris":{"android":"levelo://app?vid=883057af-47fc-4b0e-a410-abb84409aee1","ios":"levelo://app?vid=883057af-47fc-4b0e-a410-abb84409aee1"},"vehicle_type_id":"4","last_reported":1778280242,"current_range_meters":8400,"station_id":"ce4bh692rcd13ifvqea0","pricing_plan_id":"cebpf4jnsgd1na2vs0mg"},{"bike_id":"7be5a619-6337-4915-af49-6fd71d2ed6c5","system_id":"levelo_inurba_marseille","lat":43.29435,"lon":5.39754,"is_reserved":false,"is_disabled":false,"rental_uris":{"android":"levelo://app?vid=7be5a619-6337-4915-af49-6fd71d2ed6c5","ios":"levelo://app?vid=7be5a619-6337-4915-af49-6fd71d2ed6c5"},"vehicle_type_id":"4","last_reported":1778280242,"current_range_meters":8400,"station_id":"ce4bh3h2rcd13ifvqdo0","pricing_plan_id":"cebpf4jnsgd1na2vs0mg"},{"bike_id":"fa2a685f-c06a-4cac-9e95-6c5ef127ef62","system_id":"levelo_inurba_marseille","lat":43.3135,"lon":5.38476,"is_reserved":false,"is_disabled":false,"rental_uris":{"android":"levelo://app?vid=fa2a685f-c06a-4cac-9e95-6c5ef127ef62","ios":"levelo://app?vid=fa2a685f-c06a-4cac-9e95-6c5ef127ef62"},"vehicle_type_id":"4","last_reported":1778280242,"current_range_meters":8400,"station_id":"ce4bgt92rcd13ifvqcf0","pricing_plan_id":"cebpf4jnsgd1na2vs0mg"},{"bike_id":"ba9999b1-4282-4f46-9032-3a0c9b4ec963","system_id":"levelo_inurba_marseille","lat":43.24882,"lon":5.4178,"is_reserved":false,"is_disabled":false,"rental_uris":{"android":"levelo://app?vid=ba9999b1-4282-4f46-9032-3a0c9b4ec963","ios":"levelo://app?vid=ba9999b1-4282-4f46-9032-3a0c9b4ec963"},"vehicle_type_id":"4","last_reported":1778280242,"current_range_meters":8400,"station_id":"","pricing_plan_id":"cebpf4jnsgd1na2vs0mg"},{"bike_id":"c440543a-fc70-44c0-b21f-aa93407f1be5","system_id":"levelo_inurba_marseille","lat":43.34178,"lon":5.40936,"is_reserved":false,"is_disabled":false,"rental_uris":{"android":"levelo://app?vid=c440543a-fc70-44c0-b21f-aa93407f1be5","ios":"levelo://app?vid=c440543a-fc70-44c0-b21f-aa93407f1be5"},"vehicle_type_id":"4","last_reported":1778280242,"current_range_meters":8400,"station_id":"","pricing_plan_id":"cebpf4jnsgd1na2vs0mg"},{"bike_id":"48f460bf-a506-4ac0-8337-530ebbfaf540","system_id":"levelo_inurba_marseille","lat":43.31162,"lon":5.38691,"is_reserved":false,"is_disabled":false,"rental_uris":{"android":"levelo://app?vid=48f460bf-a506-4ac0-8337-530ebbfaf540","ios":"levelo://app?vid=48f460bf-a506-4ac0-8337-530ebbfaf540"},"vehicle_type_id":"4","last_reported":1778280242,"current_range_meters":8400,"station_id":"ce4bgv12rcd13ifvqcp0","pricing_plan_id":"cebpf4jnsgd1na2vs0mg"},{"bike_id":"5861de8b-ad8f-4983-9a9b-9a3073928c9b","system_id":"levelo_inurba_marseille","lat":43.25864,"lon":5.3991,"is_reserved":false,"is_disabled":false,"rental_uris":{"android":"levelo://app?vid=5861de8b-ad8f-4983-9a9b-9a3073928c9b","ios":"levelo://app?vid=5861de8b-ad8f-4983-9a9b-9a3073928c9b"},"vehicle_type_id":"4","last_reported":1778280242,"current_range_meters":8400,"station_id":"ce4bhl92rcd13ifvqghg","pricing_plan_id":"cebpf4jnsgd1na2vs0mg"},{"bike_id":"bfa74098-47c7-47b1-a79b-5692a6814bb8","system_id":"levelo_inurba_marseille","lat":43.24729,"lon":5.40105,"is_reserved":false,"is_disabled":false,"rental_uris":{"android":"levelo://app?vid=bfa74098-47c7-47b1-a79b-5692a6814bb8","ios":"levelo://app?vid=bfa74098-47c7-47b1-a79b-5692a6814bb8"},"vehicle_type_id":"4","last_reported":1778280242,"current_range_meters":8400,"station_id":"","pricing_plan_id":"cebpf4jnsgd1na2vs0mg"},{"bike_id":"a0c19b63-2c1f-4c1e-983a-5581ff0a42a8","system_id":"levelo_inurba_marseille","lat":43.29293,"lon":5.44544,"is_reserved":false,"is_disabled":false,"rental_uris":{"android":"levelo://app?vid=a0c19b63-2c1f-4c1e-983a-5581ff0a42a8","ios":"levelo://app?vid=a0c19b63-2c1f-4c1e-983a-5581ff0a42a8"},"vehicle_type_id":"4","last_reported":1778280242,"current_range_meters":8400,"station_id":"","pricing_plan_id":"cebpf4jnsgd1na2vs0mg"},{"bike_id":"ef4c0d2f-d37c-409b-be4c-7cceaa4aabfa","system_id":"levelo_inurba_marseille","lat":43.2851,"lon":5.48364,"is_reserved":false,"is_disabled":false,"rental_uris":{"android":"levelo://app?vid=ef4c0d2f-d37c-409b-be4c-7cceaa4aabfa","ios":"levelo://app?vid=ef4c0d2f-d37c-409b-be4c-7cceaa4aabfa"},"vehicle_type_id":"4","last_reported":1778280242,"current_range_meters":8800,"station_id":"st_d3svhcjqgbts73a3dn0g","pricing_plan_id":"cebpf4jnsgd1na2vs0mg"},{"bike_id":"72d42090-5bb1-42d2-8258-66748f74b226","system_id":"levelo_inurba_marseille","lat":43.28929,"lon":5.39635,"is_reserved":false,"is_disabled":true,"rental_uris":{"android":"levelo://app?vid=72d42090-5bb1-42d2-8258-66748f74b226","ios":"levelo://app?vid=72d42090-5bb1-42d2-8258-66748f74b226"},"vehicle_type_id":"4","last_reported":1778280242,"current_range_meters":8800,"station_id":"ce4bh3h2rcd13ifvqdn0","pricing_plan_id":"cebpf4jnsgd1na2vs0mg"},{"bike_id":"e6bd8138-3d56-4ae6-9878-8794caa087c5","system_id":"levelo_inurba_marseille","lat":43.24462,"lon":5.42543,"is_reserved":false,"is_disabled":false,"rental_uris":{"android":"levelo://app?vid=e6bd8138-3d56-4ae6-9878-8794caa087c5","ios":"levelo://app?vid=e6bd8138-3d56-4ae6-9878-8794caa087c5"},"vehicle_type_id":"4","last_reported":1778280242,"current_range_meters":8800,"station_id":"st_d4a3vfp97mjs738cd8kg","pricing_plan_id":"cebpf4jnsgd1na2vs0mg"},{"bike_id":"798dd442-ecce-41be-b4b9-436ee7f8a467","system_id":"levelo_inurba_marseille","lat":43.272094,"lon":5.390291,"is_reserved":false,"is_disabled":false,"rental_uris":{"android":"levelo://app?vid=798dd442-ecce-41be-b4b9-436ee7f8a467","ios":"levelo://app?vid=798dd442-ecce-41be-b4b9-436ee7f8a467"},"vehicle_type_id":"4","last_reported":1778280242,"current_range_meters":8800,"station_id":"ce4bhhp2rcd13ifvqfm0","pricing_plan_id":"cebpf4jnsgd1na2vs0mg"},{"bike_id":"89e60c09-d607-4c05-88a7-ef49c882e139","system_id":"levelo_inurba_marseille","lat":43.24168,"lon":5.36392,"is_reserved":false,"is_disabled":false,"rental_uris":{"android":"levelo://app?vid=89e60c09-d607-4c05-88a7-ef49c882e139","ios":"levelo://app?vid=89e60c09-d607-4c05-88a7-ef49c882e139"},"vehicle_type_id":"4","last_reported":1778280242,"current_range_meters":8800,"station_id":"cpo36qri1sfpv3e86is0","pricing_plan_id":"cebpf4jnsgd1na2vs0mg"},{"bike_id":"1a3393ee-0896-40ae-8691-33c129c4d16a","system_id":"levelo_inurba_marseille","lat":43.31248,"lon":5.38442,"is_reserved":false,"is_disabled":false,"rental_uris":{"android":"levelo://app?vid=1a3393ee-0896-40ae-8691-33c129c4d16a","ios":"levelo://app?vid=1a3393ee-0896-40ae-8691-33c129c4d16a"},"vehicle_type_id":"4","last_reported":1778280242,"current_range_meters":8800,"station_id":"","pricing_plan_id":"cebpf4jnsgd1na2vs0mg"},{"bike_id":"06750813-80e5-4eb6-b50a-57ffe9fa6b8b","system_id":"levelo_inurba_marseille","lat":43.25578,"lon":5.38236,"is_reserved":false,"is_disabled":true,"rental_uris":{"android":"levelo://app?vid=06750813-80e5-4eb6-b50a-57ffe9fa6b8b","ios":"levelo://app?vid=06750813-80e5-4eb6-b50a-57ffe9fa6b8b"},"vehicle_type_id":"4","last_reported":1778280242,"current_range_meters":8800,"station_id":"ce4bhih2rcd13ifvqfs0","pricing_plan_id":"cebpf4jnsgd1na2vs0mg"},{"bike_id":"f539bb17-16cf-4505-8a99-d64e79a69d9e","system_id":"levelo_inurba_marseille","lat":43.32116,"lon":5.36754,"is_reserved":false,"is_disabled":false,"rental_uris":{"android":"levelo://app?vid=f539bb17-16cf-4505-8a99-d64e79a69d9e","ios":"levelo://app?vid=f539bb17-16cf-4505-8a99-d64e79a69d9e"},"vehicle_type_id":"4","last_reported":1778280242,"current_range_meters":8800,"station_id":"ce4bhrh2rcd13ifvqhug","pricing_plan_id":"cebpf4jnsgd1na2vs0mg"},{"bike_id":"a30008ae-a2df-4129-8ea6-0f377536b8ba","system_id":"levelo_inurba_marseille","lat":43.32109,"lon":5.36796,"is_reserved":false,"is_disabled":false,"rental_uris":{"android":"levelo://app?vid=a30008ae-a2df-4129-8ea6-0f377536b8ba","ios":"levelo://app?vid=a30008ae-a2df-4129-8ea6-0f377536b8ba"},"vehicle_type_id":"4","last_reported":1778280242,"current_range_meters":8800,"station_id":"ce4bhrh2rcd13ifvqhug","pricing_plan_id":"cebpf4jnsgd1na2vs0mg"},{"bike_id":"446a901d-bbac-4d0d-abe3-676e1901d57c","system_id":"levelo_inurba_marseille","lat":43.29268,"lon":5.38408,"is_reserved":false,"is_disabled":false,"rental_uris":{"android":"levelo://app?vid=446a901d-bbac-4d0d-abe3-676e1901d57c","ios":"levelo://app?vid=446a901d-bbac-4d0d-abe3-676e1901d57c"},"vehicle_type_id":"4","last_reported":1778280242,"current_range_meters":8800,"station_id":"ce4bh692rcd13ifvqea0","pricing_plan_id":"cebpf4jnsgd1na2vs0mg"},{"bike_id":"ac669cf6-3802-49e7-8567-a514ce79081d","system_id":"levelo_inurba_marseille","lat":43.2914,"lon":5.38518,"is_reserved":false,"is_disabled":false,"rental_uris":{"android":"levelo://app?vid=ac669cf6-3802-49e7-8567-a514ce79081d","ios":"levelo://app?vid=ac669cf6-3802-49e7-8567-a514ce79081d"},"vehicle_type_id":"4","last_reported":1778280242,"current_range_meters":8800,"station_id":"","pricing_plan_id":"cebpf4jnsgd1na2vs0mg"},{"bike_id":"07829fdc-c599-44a2-8a5d-d38b8b9f7bb8","system_id":"levelo_inurba_marseille","lat":43.30363,"lon":5.42495,"is_reserved":false,"is_disabled":true,"rental_uris":{"android":"levelo://app?vid=07829fdc-c599-44a2-8a5d-d38b8b9f7bb8","ios":"levelo://app?vid=07829fdc-c599-44a2-8a5d-d38b8b9f7bb8"},"vehicle_type_id":"4","last_reported":1778280242,"current_range_meters":8800,"station_id":"ce4bhoh2rcd13ifvqh6g","pricing_plan_id":"cebpf4jnsgd1na2vs0mg"},{"bike_id":"496ef005-3b28-4f89-8627-d41c73f67f06","system_id":"levelo_inurba_marseille","lat":43.31695,"lon":5.40468,"is_reserved":false,"is_disabled":false,"rental_uris":{"android":"levelo://app?vid=496ef005-3b28-4f89-8627-d41c73f67f06","ios":"levelo://app?vid=496ef005-3b28-4f89-8627-d41c73f67f06"},"vehicle_type_id":"4","last_reported":1778280242,"current_range_meters":8800,"station_id":"ce4bh012rcd13ifvqd00","pricing_plan_id":"cebpf4jnsgd1na2vs0mg"},{"bike_id":"0788dff0-790e-4e84-a5a2-7246ec93ff44","system_id":"levelo_inurba_marseille","lat":43.30443,"lon":5.38887,"is_reserved":false,"is_disabled":false,"rental_uris":{"android":"levelo://app?vid=0788dff0-790e-4e84-a5a2-7246ec93ff44","ios":"levelo://app?vid=0788dff0-790e-4e84-a5a2-7246ec93ff44"},"vehicle_type_id":"4","last_reported":1778280242,"current_range_meters":8800,"station_id":"ce4bgk12rcd13ifvqbi0","pricing_plan_id":"cebpf4jnsgd1na2vs0mg"},{"bike_id":"c228d5ae-4d72-480c-ba93-a939a90da1de","system_id":"levelo_inurba_marseille","lat":43.24663,"lon":5.3816,"is_reserved":false,"is_disabled":false,"rental_uris":{"android":"levelo://app?vid=c228d5ae-4d72-480c-ba93-a939a90da1de","ios":"levelo://app?vid=c228d5ae-4d72-480c-ba93-a939a90da1de"},"vehicle_type_id":"4","last_reported":1778280242,"current_range_meters":8800,"station_id":"ce4bhih2rcd13ifvqfr0","pricing_plan_id":"cebpf4jnsgd1na2vs0mg"},{"bike_id":"1261a57e-b9db-4e44-b05c-c17513cf7550","system_id":"levelo_inurba_marseille","lat":43.27062,"lon":5.42274,"is_reserved":false,"is_disabled":false,"rental_uris":{"android":"levelo://app?vid=1261a57e-b9db-4e44-b05c-c17513cf7550","ios":"levelo://app?vid=1261a57e-b9db-4e44-b05c-c17513cf7550"},"vehicle_type_id":"4","last_reported":1778280242,"current_range_meters":8800,"station_id":"ce4bhk92rcd13ifvqgb0","pricing_plan_id":"cebpf4jnsgd1na2vs0mg"},{"bike_id":"627ea465-4e71-4046-a508-023e31352421","system_id":"levelo_inurba_marseille","lat":43.25068,"lon":5.40495,"is_reserved":false,"is_disabled":false,"rental_uris":{"android":"levelo://app?vid=627ea465-4e71-4046-a508-023e31352421","ios":"levelo://app?vid=627ea465-4e71-4046-a508-023e31352421"},"vehicle_type_id":"4","last_reported":1778280242,"current_range_meters":8800,"station_id":"","pricing_plan_id":"cebpf4jnsgd1na2vs0mg"},{"bike_id":"0115bc04-39b2-4d9a-ad7f-a19da4d1923c","system_id":"levelo_inurba_marseille","lat":43.24642,"lon":5.38863,"is_reserved":false,"is_disabled":false,"rental_uris":{"android":"levelo://app?vid=0115bc04-39b2-4d9a-ad7f-a19da4d1923c","ios":"levelo://app?vid=0115bc04-39b2-4d9a-ad7f-a19da4d1923c"},"vehicle_type_id":"4","last_reported":1778280242,"current_range_meters":8800,"station_id":"ce4bhg12rcd13ifvqf60","pricing_plan_id":"cebpf4jnsgd1na2vs0mg"},{"bike_id":"ffe0cb96-af34-4cc2-8ffa-153f35a471f1","system_id":"levelo_inurba_marseille","lat":43.28867,"lon":5.42548,"is_reserved":false,"is_disabled":false,"rental_uris":{"android":"levelo://app?vid=ffe0cb96-af34-4cc2-8ffa-153f35a471f1","ios":"levelo://app?vid=ffe0cb96-af34-4cc2-8ffa-153f35a471f1"},"vehicle_type_id":"4","last_reported":1778280242,"current_range_meters":8800,"station_id":"st_d3b462108ojc7389ooeg","pricing_plan_id":"cebpf4jnsgd1na2vs0mg"},{"bike_id":"0c7d2fbb-13a2-4b84-b36b-3bb945348f14","system_id":"levelo_inurba_marseille","lat":43.28417,"lon":5.37521,"is_reserved":false,"is_disabled":true,"rental_uris":{"android":"levelo://app?vid=0c7d2fbb-13a2-4b84-b36b-3bb945348f14","ios":"levelo://app?vid=0c7d2fbb-13a2-4b84-b36b-3bb945348f14"},"vehicle_type_id":"4","last_reported":1778280242,"current_range_meters":8800,"station_id":"ce4bh412rcd13ifvqds0","pricing_plan_id":"cebpf4jnsgd1na2vs0mg"},{"bike_id":"60c211e6-e18d-4b70-b2b5-f2ecacf6f011","system_id":"levelo_inurba_marseille","lat":43.28711,"lon":5.3998,"is_reserved":false,"is_disabled":false,"rental_uris":{"android":"levelo://app?vid=60c211e6-e18d-4b70-b2b5-f2ecacf6f011","ios":"levelo://app?vid=60c211e6-e18d-4b70-b2b5-f2ecacf6f011"},"vehicle_type_id":"4","last_reported":1778280242,"current_range_meters":9200,"station_id":"ce4bho92rcd13ifvqh3g","pricing_plan_id":"cebpf4jnsgd1na2vs0mg"},{"bike_id":"59e4a1ef-cde3-435c-ac35-1590f3c40ae5","system_id":"levelo_inurba_marseille","lat":43.24638,"lon":5.38887,"is_reserved":false,"is_disabled":false,"rental_uris":{"android":"levelo://app?vid=59e4a1ef-cde3-435c-ac35-1590f3c40ae5","ios":"levelo://app?vid=59e4a1ef-cde3-435c-ac35-1590f3c40ae5"},"vehicle_type_id":"4","last_reported":1778280242,"current_range_meters":9200,"station_id":"ce4bhg12rcd13ifvqf60","pricing_plan_id":"cebpf4jnsgd1na2vs0mg"},{"bike_id":"f6cd1f40-16c5-432d-8a50-dae9a4c5a7ed","system_id":"levelo_inurba_marseille","lat":43.28103,"lon":5.37834,"is_reserved":false,"is_disabled":false,"rental_uris":{"android":"levelo://app?vid=f6cd1f40-16c5-432d-8a50-dae9a4c5a7ed","ios":"levelo://app?vid=f6cd1f40-16c5-432d-8a50-dae9a4c5a7ed"},"vehicle_type_id":"4","last_reported":1778280242,"current_range_meters":9200,"station_id":"ce4bha12rcd13ifvqee0","pricing_plan_id":"cebpf4jnsgd1na2vs0mg"},{"bike_id":"799a7949-9d1a-4b53-8d07-a66fdf531119","system_id":"levelo_inurba_marseille","lat":43.2706,"lon":5.40246,"is_reserved":false,"is_disabled":false,"rental_uris":{"android":"levelo://app?vid=799a7949-9d1a-4b53-8d07-a66fdf531119","ios":"levelo://app?vid=799a7949-9d1a-4b53-8d07-a66fdf531119"},"vehicle_type_id":"4","last_reported":1778280242,"current_range_meters":9200,"station_id":"ce4bhk92rcd13ifvqgc0","pricing_plan_id":"cebpf4jnsgd1na2vs0mg"},{"bike_id":"432c89d1-620e-4292-8dbf-6ebb3657e025","system_id":"levelo_inurba_marseille","lat":43.31472,"lon":5.39109,"is_reserved":false,"is_disabled":true,"rental_uris":{"android":"levelo://app?vid=432c89d1-620e-4292-8dbf-6ebb3657e025","ios":"levelo://app?vid=432c89d1-620e-4292-8dbf-6ebb3657e025"},"vehicle_type_id":"4","last_reported":1778280242,"current_range_meters":9200,"station_id":"","pricing_plan_id":"cebpf4jnsgd1na2vs0mg"},{"bike_id":"407e9612-ad93-4d7c-a713-0ff1764d5034","system_id":"levelo_inurba_marseille","lat":43.3138,"lon":5.41449,"is_reserved":false,"is_disabled":false,"rental_uris":{"android":"levelo://app?vid=407e9612-ad93-4d7c-a713-0ff1764d5034","ios":"levelo://app?vid=407e9612-ad93-4d7c-a713-0ff1764d5034"},"vehicle_type_id":"4","last_reported":1778280242,"current_range_meters":9200,"station_id":"","pricing_plan_id":"cebpf4jnsgd1na2vs0mg"},{"bike_id":"8455e077-2d5f-491b-a899-41902956f844","system_id":"levelo_inurba_marseille","lat":43.28389,"lon":5.37445,"is_reserved":false,"is_disabled":false,"rental_uris":{"android":"levelo://app?vid=8455e077-2d5f-491b-a899-41902956f844","ios":"levelo://app?vid=8455e077-2d5f-491b-a899-41902956f844"},"vehicle_type_id":"4","last_reported":1778280242,"current_range_meters":9200,"station_id":"","pricing_plan_id":"cebpf4jnsgd1na2vs0mg"},{"bike_id":"d5bdbfda-d77a-487c-9d60-4df45b251bd1","system_id":"levelo_inurba_marseille","lat":43.30189,"lon":5.3662,"is_reserved":false,"is_disabled":false,"rental_uris":{"android":"levelo://app?vid=d5bdbfda-d77a-487c-9d60-4df45b251bd1","ios":"levelo://app?vid=d5bdbfda-d77a-487c-9d60-4df45b251bd1"},"vehicle_type_id":"4","last_reported":1778280242,"current_range_meters":9200,"station_id":"ce4bgrh2rcd13ifvqc8g","pricing_plan_id":"cebpf4jnsgd1na2vs0mg"},{"bike_id":"c1b768b5-78ad-4562-8b11-acf628f13106","system_id":"levelo_inurba_marseille","lat":43.27998,"lon":5.44216,"is_reserved":false,"is_disabled":false,"rental_uris":{"android":"levelo://app?vid=c1b768b5-78ad-4562-8b11-acf628f13106","ios":"levelo://app?vid=c1b768b5-78ad-4562-8b11-acf628f13106"},"vehicle_type_id":"4","last_reported":1778280242,"current_range_meters":9200,"station_id":"","pricing_plan_id":"cebpf4jnsgd1na2vs0mg"},{"bike_id":"c9dd145b-8439-44a4-9bbc-e68559a9bdd7","system_id":"levelo_inurba_marseille","lat":43.31242,"lon":5.38948,"is_reserved":false,"is_disabled":false,"rental_uris":{"android":"levelo://app?vid=c9dd145b-8439-44a4-9bbc-e68559a9bdd7","ios":"levelo://app?vid=c9dd145b-8439-44a4-9bbc-e68559a9bdd7"},"vehicle_type_id":"4","last_reported":1778280242,"current_range_meters":9200,"station_id":"","pricing_plan_id":"cebpf4jnsgd1na2vs0mg"},{"bike_id":"080915f6-df4c-4af9-8ea4-57ab55674d2e","system_id":"levelo_inurba_marseille","lat":43.29927,"lon":5.37479,"is_reserved":false,"is_disabled":false,"rental_uris":{"android":"levelo://app?vid=080915f6-df4c-4af9-8ea4-57ab55674d2e","ios":"levelo://app?vid=080915f6-df4c-4af9-8ea4-57ab55674d2e"},"vehicle_type_id":"4","last_reported":1778280242,"current_range_meters":9200,"station_id":"ce4bgjh2rcd13ifvqbg0","pricing_plan_id":"cebpf4jnsgd1na2vs0mg"},{"bike_id":"bb14baeb-3016-4cc2-93fa-30395fb0af59","system_id":"levelo_inurba_marseille","lat":43.26781,"lon":5.39425,"is_reserved":false,"is_disabled":true,"rental_uris":{"android":"levelo://app?vid=bb14baeb-3016-4cc2-93fa-30395fb0af59","ios":"levelo://app?vid=bb14baeb-3016-4cc2-93fa-30395fb0af59"},"vehicle_type_id":"4","last_reported":1778280242,"current_range_meters":9200,"station_id":"ce4bhh12rcd13ifvqfg0","pricing_plan_id":"cebpf4jnsgd1na2vs0mg"},