{"last_updated":1703059674,"ttl":30,"version":"2.2","data":{"bikes":[{"bike_id":"06200de9-b54a-4d19-839e-e15513ea2dc5","system_id":"levelo_inurba_marseille","lat":43.31341,"lon":5.367098,"is_reserved":false,"is_disabled":false,"rental_uris":{"android":"levelo://app?vid=06200de9-b54a-4d19-839e-e15513ea2dc5","ios":"levelo://app?vid=06200de9-b54a-4d19-839e-e15513ea2dc5"},"vehicle_type_id":"4","last_reported":1703059674,"current_range_meters":23200,"station_id":"ce4bgr92rcd13ifvqc6g","pricing_plan_id":"free"},{"bike_id":"c5e2906e-a12b-49a2-9196-ab926cf8a9a4","system_id":"levelo_inurba_marseille","lat":43.31341,"lon":5.367098,"is_reserved":false,"is_disabled":false,"rental_uris":{"android":"levelo://app?vid=c5e2906e-a12b-49a2-9196-ab926cf8a9a4","ios":"levelo://app?vid=c5e2906e-a12b-49a2-9196-ab926cf8a9a4"},"vehicle_type_id":"4","last_reported":1703059674,"current_range_meters":22800,"station_id":"ce4bgr92rcd13ifvqc6g","pricing_plan_id":"free"},{"bike_id":"86521b66-fd6f-4efd-8e38-0fbeb1b6ed02","system_id":"levelo_inurba_marseille","lat":43.313391,"lon":5.36706,"is_reserved":false,"is_disabled":false,"rental_uris":{"android":"levelo://app?vid=86521b66-fd6f-4efd-8e38-0fbeb1b6ed02","ios":"levelo://app?vid=86521b66-fd6f-4efd-8e38-0fbeb1b6ed02"},"vehicle_type_id":"4","last_reported":1703059674,"current_range_meters":24000,"station_id":"ce4bgr92rcd13ifvqc6g","pricing_plan_id":"free"},{"bike_id":"5bf53713-9015-41ac-a733-030d364b249e","system_id":"levelo_inurba_marseille","lat":43.313391,"lon":5.36706,"is_reserved":false,"is_disabled":false,"rental_uris":{"android":"levelo://app?vid=5bf53713-9015-41ac-a733-030d364b249e","ios":"levelo://app?vid=5bf53713-9015-41ac-a733-030d364b249e"},"vehicle_type_id":"4","last_reported":1703059674,"current_range_meters":9600,"station_id":"ce4bgr92rcd13ifvqc6g","pricing_plan_id":"free"},{"bike_id":"b02f8698-ab43-4514-915c-7ac2039754d7","system_id":"levelo_inurba_marseille","lat":43.313391,"lon":5.36706,"is_reserved":false,"is_disabled":false,"rental_uris":{"android":"levelo://app?vid=b02f8698-ab43-4514-915c-7ac2039754d7","ios":"levelo://app?vid=b02f8698-ab43-4514-915c-7ac2039754d7"},"vehicle_type_id":"4","last_reported":1703059674,"current_range_meters":0,"station_id":"ce4bgr92rcd13ifvqc6g","pricing_plan_id":"free"},{"bike_id":"dc02301a-e25b-4088-96c9-2c95bbdc42aa","system_id":"levelo_inurba_marseille","lat":43.31341,"lon":5.367098,"is_reserved":false,"is_disabled":false,"rental_uris":{"android":"levelo://app?vid=dc02301a-e25b-4088-96c9-2c95bbdc42aa","ios":"levelo://app?vid=dc02301a-e25b-4088-96c9-2c95bbdc42aa"},"vehicle_type_id":"4","last_reported":1703059674,"current_range_meters":31600,"station_id":"ce4bgr92rcd13ifvqc6g","pricing_plan_id":"free"},{"bike_id":"c85993cf-56a9-4974-93ef-b2f2282f54b8","system_id":"levelo_inurba_marseille","lat":43.313391,"lon":5.36706,"is_reserved":false,"is_disabled":false,"rental_uris":{"android":"levelo://app?vid=c85993cf-56a9-4974-93ef-b2f2282f54b8","ios":"levelo://app?vid=c85993cf-56a9-4974-93ef-b2f2282f54b8"},"vehicle_type_id":"4","last_reported":1703059674,"current_range_meters":19200,"station_id":"ce4bgr92rcd13ifvqc6g","pricing_plan_id":"free"},{"bike_id":"9d52a925-323b-4a5e-9c24-9e0718f8c66b","system_id":"levelo_inurba_marseille","lat":43.313391,"lon":5.36706,"is_reserved":false,"is_disabled":false,"rental_uris":{"android":"levelo://app?vid=9d52a925-323b-4a5e-9c24-9e0718f8c66b","ios":"levelo://app?vid=9d52a925-323b-4a5e-9c24-9e0718f8c66b"},"vehicle_type_id":"4","last_reported":1703059674,"current_range_meters":31600,"station_id":"ce4bgr92rcd13ifvqc6g","pricing_plan_id":"free"},{"bike_id":"5581df76-9eaa-4cb1-9e64-a029de783903","system_id":"levelo_inurba_marseille","lat":43.31341,"lon":5.367098,"is_reserved":false,"is_disabled":false,"rental_uris":{"android":"levelo://app?vid=5581df76-9eaa-4cb1-9e64-a029de783903","ios":"levelo://app?vid=5581df76-9eaa-4cb1-9e64-a029de783903"},"vehicle_type_id":"4","last_reported":1703059674,"current_range_meters":12400,"station_id":"ce4bgr92rcd13ifvqc6g","pricing_plan_id":"free"},{"bike_id":"15c7edea-86ab-4b62-9286-30eaeca9bae0","system_id":"levelo_inurba_marseille","lat":43.31341,"lon":5.367098,"is_reserved":false,"is_disabled":false,"rental_uris":{"android":"levelo://app?vid=15c7edea-86ab-4b62-9286-30eaeca9bae0","ios":"levelo://app?vid=15c7edea-86ab-4b62-9286-30eaeca9bae0"},"vehicle_type_id":"4","last_reported":1703059674,"current_range_meters":31600,"station_id":"ce4bgr92rcd13ifvqc6g","pricing_plan_id":"free"},{"bike_id":"385c4116-b7eb-4dc1-8ab8-4cd9cad30c5b","system_id":"levelo_inurba_marseille","lat":43.31341,"lon":5.367098,"is_reserved":false,"is_disabled":false,"rental_uris":{"android":"levelo://app?vid=385c4116-b7eb-4dc1-8ab8-4cd9cad30c5b","ios":"levelo://app?vid=385c4116-b7eb-4dc1-8ab8-4cd9cad30c5b"},"vehicle_type_id":"4","last_reported":1703059674,"current_range_meters":30800,"station_id":"ce4bgr92rcd13ifvqc6g","pricing_plan_id":"free"},{"bike_id":"cdc1f6b5-253b-459c-867e-da6142322fdc","system_id":"levelo_inurba_marseille","lat":43.312239,"lon":5.368562,"is_reserved":false,"is_disabled":false,"rental_uris":{"android":"levelo://app?vid=cdc1f6b5-253b-459c-867e-da6142322fdc","ios":"levelo://app?vid=cdc1f6b5-253b-459c-867e-da6142322fdc"},"vehicle_type_id":"4","last_reported":1703059674,"current_range_meters":12400,"station_id":"ce4bgl92rcd13ifvqbq0","pricing_plan_id":"free"},{"bike_id":"a8d5ba16-71a6-42eb-bd87-f3fc28468325","system_id":"levelo_inurba_marseille","lat":43.312239,"lon":5.368562,"is_reserved":false,"is_disabled":false,"rental_uris":{"android":"levelo://app?vid=a8d5ba16-71a6-42eb-bd87-f3fc28468325","ios":"levelo://app?vid=a8d5ba16-71a6-42eb-bd87-f3fc28468325"},"vehicle_type_id":"4","last_reported":1703059674,"current_range_meters":29600,"station_id":"ce4bgl92rcd13ifvqbq0","pricing_plan_id":"free"},{"bike_id":"71695d16-2724-44d4-aaec-bf4108e95c6c","system_id":"levelo_inurba_marseille","lat":43.309076,"lon":5.368465,"is_reserved":false,"is_disabled":false,"rental_uris":{"android":"levelo://app?vid=71695d16-2724-44d4-aaec-bf4108e95c6c","ios":"levelo://app?vid=71695d16-2724-44d4-aaec-bf4108e95c6c"},"vehicle_type_id":"4","last_reported":1703059674,"current_range_meters":28400,"station_id":"ce4bgn92rcd13ifvqbvg","pricing_plan_id":"free"},{"bike_id":"4aff95af-45e2-49b1-83fe-ad7f5fa6667c","system_id":"levelo_inurba_marseille","lat":43.309076,"lon":5.368465,"is_reserved":false,"is_disabled":false,"rental_uris":{"android":"levelo://app?vid=4aff95af-45e2-49b1-83fe-ad7f5fa6667c","ios":"levelo://app?vid=4aff95af-45e2-49b1-83fe-ad7f5fa6667c"},"vehicle_type_id":"4","last_reported":1703059674,"current_range_meters":30000,"station_id":"ce4bgn92rcd13ifvqbvg","pricing_plan_id":"free"},{"bike_id":"af2242c6-3cfa-458c-8de6-984c2026785d","system_id":"levelo_inurba_marseille","lat":43.309076,"lon":5.368465,"is_reserved":false,"is_disabled":false,"rental_uris":{"android":"levelo://app?vid=af2242c6-3cfa-458c-8de6-984c2026785d","ios":"levelo://app?vid=af2242c6-3cfa-458c-8de6-984c2026785d"},"vehicle_type_id":"4","last_reported":1703059674,"current_range_meters":18400,"station_id":"ce4bgn92rcd13ifvqbvg","pricing_plan_id":"free"},{"bike_id":"19d7187c-8b68-43b4-a011-e2111c86d3f4","system_id":"levelo_inurba_marseille","lat":43.309076,"lon":5.368465,"is_reserved":false,"is_disabled":false,"rental_uris":{"android":"levelo://app?vid=19d7187c-8b68-43b4-a011-e2111c86d3f4","ios":"levelo://app?vid=19d7187c-8b68-43b4-a011-e2111c86d3f4"},"vehicle_type_id":"4","last_reported":1703059674,"current_range_meters":28000,"station_id":"ce4bgn92rcd13ifvqbvg","pricing_plan_id":"free"},{"bike_id":"a5d97441-69da-47a7-befc-8b0468dc5882","system_id":"levelo_inurba_marseille","lat":43.309076,"lon":5.368465,"is_reserved":false,"is_disabled":false,"rental_uris":{"android":"levelo://app?vid=a5d97441-69da-47a7-befc-8b0468dc5882","ios":"levelo://app?vid=a5d97441-69da-47a7-befc-8b0468dc5882"},"vehicle_type_id":"4","last_reported":1703059674,"current_range_meters":24000,"station_id":"ce4bgn92rcd13ifvqbvg","pricing_plan_id":"free"},{"bike_id":"2f56c98a-7acf-4b16-8227-fc48d3fc49d3","system_id":"levelo_inurba_marseille","lat":43.309074,"lon":5.368468,"is_reserved":false,"is_disabled":false,"rental_uris":{"android":"levelo://app?vid=2f56c98a-7acf-4b16-8227-fc48d3fc49d3","ios":"levelo://app?vid=2f56c98a-7acf-4b16-8227-fc48d3fc49d3"},"vehicle_type_id":"4","last_reported":1703059674,"current_range_meters":20400,"station_id":"","pricing_plan_id":"free"},{"bike_id":"86a11bf0-cb85-4e66-820f-6dc45e8d354e","system_id":"levelo_inurba_marseille","lat":43.309076,"lon":5.368465,"is_reserved":false,"is_disabled":false,"rental_uris":{"android":"levelo://app?vid=86a11bf0-cb85-4e66-820f-6dc45e8d354e","ios":"levelo://app?vid=86a11bf0-cb85-4e66-820f-6dc45e8d354e"},"vehicle_type_id":"4","last_reported":1703059674,"current_range_meters":28400,"station_id":"ce4bgn92rcd13ifvqbvg","pricing_plan_id":"free"},{"bike_id":"06059804-a84b-48ac-999b-28379326fec5","system_id":"levelo_inurba_marseille","lat":43.309076,"lon":5.368465,"is_reserved":false,"is_disabled":false,"rental_uris":{"android":"levelo://app?vid=06059804-a84b-48ac-999b-28379326fec5","ios":"levelo://app?vid=06059804-a84b-48ac-999b-28379326fec5"},"vehicle_type_id":"4","last_reported":1703059674,"current_range_meters":29600,"station_id":"ce4bgn92rcd13ifvqbvg","pricing_plan_id":"free"},{"bike_id":"bf7bf10f-53c3-468c-92ad-fab9731bc205","system_id":"levelo_inurba_marseille","lat":43.309076,"lon":5.368465,"is_reserved":false,"is_disabled":false,"rental_uris":{"android":"levelo://app?vid=bf7bf10f-53c3-468c-92ad-fab9731bc205","ios":"levelo://app?vid=bf7bf10f-53c3-468c-92ad-fab9731bc205"},"vehicle_type_id":"4","last_reported":1703059674,"current_range_meters":27600,"station_id":"ce4bgn92rcd13ifvqbvg","pricing_plan_id":"free"},{"bike_id":"4657fffc-ee94-4a82-ac10-6b95d387b3a3","system_id":"levelo_inurba_marseille","lat":43.309076,"lon":5.368465,"is_reserved":false,"is_disabled":false,"rental_uris":{"android":"levelo://app?vid=4657fffc-ee94-4a82-ac10-6b95d387b3a3","ios":"levelo://app?vid=4657fffc-ee94-4a82-ac10-6b95d387b3a3"},"vehicle_type_id":"4","last_reported":1703059674,"current_range_meters":29200,"station_id":"ce4bgn92rcd13ifvqbvg","pricing_plan_id":"free"},{"bike_id":"f102ec20-f63e-4f17-a402-2996ed87870c","system_id":"levelo_inurba_marseille","lat":43.309076,"lon":5.368465,"is_reserved":false,"is_disabled":false,"rental_uris":{"android":"levelo://app?vid=f102ec20-f63e-4f17-a402-2996ed87870c","ios":"levelo://app?vid=f102ec20-f63e-4f17-a402-2996ed87870c"},"vehicle_type_id":"4","last_reported":1703059674,"current_range_meters":18400,"station_id":"ce4bgn92rcd13ifvqbvg","pricing_plan_id":"free"},{"bike_id":"1c9c2674-9e54-4819-b17d-e04022c180db","system_id":"levelo_inurba_marseille","lat":43.309076,"lon":5.368465,"is_reserved":false,"is_disabled":false,"rental_uris":{"android":"levelo://app?vid=1c9c2674-9e54-4819-b17d-e04022c180db","ios":"levelo://app?vid=1c9c2674-9e54-4819-b17d-e04022c180db"},"vehicle_type_id":"4","last_reported":1703059674,"current_range_meters":30800,"station_id":"ce4bgn92rcd13ifvqbvg","pricing_plan_id":"free"},{"bike_id":"3c9c6e5a-e9b6-48f6-83bf-05f293c07807","system_id":"levelo_inurba_marseille","lat":43.314811,"lon":5.373103,"is_reserved":false,"is_disabled":false,"rental_uris":{"android":"levelo://app?vid=3c9c6e5a-e9b6-48f6-83bf-05f293c07807","ios":"levelo://app?vid=3c9c6e5a-e9b6-48f6-83bf-05f293c07807"},"vehicle_type_id":"4","last_reported":1703059674,"current_range_meters":22800,"station_id":"ce4bgt12rcd13ifvqcd0","pricing_plan_id":"free"},{"bike_id":"e82e2aa1-1d6e-4f70-ac47-e250fe3ab983","system_id":"levelo_inurba_marseille","lat":43.314811,"lon":5.373104,"is_reserved":false,"is_disabled":false,"rental_uris":{"android":"levelo://app?vid=e82e2aa1-1d6e-4f70-ac47-e250fe3ab983","ios":"levelo://app?vid=e82e2aa1-1d6e-4f70-ac47-e250fe3ab983"},"vehicle_type_id":"4","last_reported":1703059674,"current_range_meters":31200,"station_id":"ce4bgt12rcd13ifvqcd0","pricing_plan_id":"free"},{"bike_id":"1bb9e1b9-32ab-4955-b587-b606b998f38f","system_id":"levelo_inurba_marseille","lat":43.309039,"lon":5.371797,"is_reserved":false,"is_disabled":false,"rental_uris":{"android":"levelo://app?vid=1bb9e1b9-32ab-4955-b587-b606b998f38f","ios":"levelo://app?vid=1bb9e1b9-32ab-4955-b587-b606b998f38f"},"vehicle_type_id":"4","last_reported":1703059674,"current_range_meters":4800,"station_id":"ce4bguh2rcd13ifvqckg","pricing_plan_id":"free"},{"bike_id":"4c8338e3-bd48-4f1f-82ef-5ed083c8eae7","system_id":"levelo_inurba_marseille","lat":43.305368,"lon":5.367343,"is_reserved":false,"is_disabled":false,"rental_uris":{"android":"levelo://app?vid=4c8338e3-bd48-4f1f-82ef-5ed083c8eae7","ios":"levelo://app?vid=4c8338e3-bd48-4f1f-82ef-5ed083c8eae7"},"vehicle_type_id":"4","last_reported":1703059674,"current_range_meters":12400,"station_id":"ce4bgrp2rcd13ifvqc9g","pricing_plan_id":"free"},{"bike_id":"21a87b11-b34e-4ac9-b840-399e42220625","system_id":"levelo_inurba_marseille","lat":43.305706,"lon":5.365654,"is_reserved":false,"is_disabled":false,"rental_uris":{"android":"levelo://app?vid=21a87b11-b34e-4ac9-b840-399e42220625","ios":"levelo://app?vid=21a87b11-b34e-4ac9-b840-399e42220625"},"vehicle_type_id":"4","last_reported":1703059674,"current_range_meters":26400,"station_id":"ce4bgs12rcd13ifvqcag","pricing_plan_id":"free"},{"bike_id":"c9709d59-d019-4fda-86d2-75d48039f15a","system_id":"levelo_inurba_marseille","lat":43.305368,"lon":5.367343,"is_reserved":false,"is_disabled":false,"rental_uris":{"android":"levelo://app?vid=c9709d59-d019-4fda-86d2-75d48039f15a","ios":"levelo://app?vid=c9709d59-d019-4fda-86d2-75d48039f15a"},"vehicle_type_id":"4","last_reported":1703059674,"current_range_meters":22000,"station_id":"ce4bgrp2rcd13ifvqc9g","pricing_plan_id":"free"},{"bike_id":"b8d5b48e-95a4-4f1f-b78a-470bb9c5a65b","system_id":"levelo_inurba_marseille","lat":43.305368,"lon":5.367343,"is_reserved":false,"is_disabled":false,"rental_uris":{"android":"levelo://app?vid=b8d5b48e-95a4-4f1f-b78a-470bb9c5a65b","ios":"levelo://app?vid=b8d5b48e-95a4-4f1f-b78a-470bb9c5a65b"},"vehicle_type_id":"4","last_reported":1703059674,"current_range_meters":22800,"station_id":"ce4bgrp2rcd13ifvqc9g","pricing_plan_id":"free"},{"bike_id":"af934bb9-4450-4abc-a2fc-577eba17fcaf","system_id":"levelo_inurba_marseille","lat":43.305714,"lon":5.365633,"is_reserved":false,"is_disabled":false,"rental_uris":{"android":"levelo://app?vid=af934bb9-4450-4abc-a2fc-577eba17fcaf","ios":"levelo://app?vid=af934bb9-4450-4abc-a2fc-577eba17fcaf"},"vehicle_type_id":"4","last_reported":1703059674,"current_range_meters":21200,"station_id":"ce4bgs12rcd13ifvqcag","pricing_plan_id":"free"},{"bike_id":"227b19b3-a278-4dea-99dc-5c91f230706c","system_id":"levelo_inurba_marseille","lat":43.305706,"lon":5.365654,"is_reserved":false,"is_disabled":false,"rental_uris":{"android":"levelo://app?vid=227b19b3-a278-4dea-99dc-5c91f230706c","ios":"levelo://app?vid=227b19b3-a278-4dea-99dc-5c91f230706c"},"vehicle_type_id":"4","last_reported":1703059674,"current_range_meters":16800,"station_id":"ce4bgs12rcd13ifvqcag","pricing_plan_id":"free"},{"bike_id":"6cd8b37d-a2ef-49bd-9daa-481faf21e029","system_id":"levelo_inurba_marseille","lat":43.305368,"lon":5.367343,"is_reserved":false,"is_disabled":false,"rental_uris":{"android":"levelo://app?vid=6cd8b37d-a2ef-49bd-9daa-481faf21e029","ios":"levelo://app?vid=6cd8b37d-a2ef-49bd-9daa-481faf21e029"},"vehicle_type_id":"4","last_reported":1703059674,"current_range_meters":10400,"station_id":"ce4bgrp2rcd13ifvqc9g","pricing_plan_id":"free"},{"bike_id":"fcf54c51-05e3-4f0e-b866-95757e00cd2b","system_id":"levelo_inurba_marseille","lat":43.305706,"lon":5.365654,"is_reserved":false,"is_disabled":false,"rental_uris":{"android":"levelo://app?vid=fcf54c51-05e3-4f0e-b866-95757e00cd2b","ios":"levelo://app?vid=fcf54c51-05e3-4f0e-b866-95757e00cd2b"},"vehicle_type_id":"4","last_reported":1703059674,"current_range_meters":22400,"station_id":"ce4bgs12rcd13ifvqcag","pricing_plan_id":"free"},{"bike_id":"37b31663-8b2b-4239-be58-1641bed9f242","system_id":"levelo_inurba_marseille","lat":43.305368,"lon":5.367343,"is_reserved":false,"is_disabled":false,"rental_uris":{"android":"levelo://app?vid=37b31663-8b2b-4239-be58-1641bed9f242","ios":"levelo://app?vid=37b31663-8b2b-4239-be58-1641bed9f242"},"vehicle_type_id":"4","last_reported":1703059674,"current_range_meters":15600,"station_id":"ce4bgrp2rcd13ifvqc9g","pricing_plan_id":"free"},{"bike_id":"3e9cade6-c977-4838-93dd-bd5a4cee1b7d","system_id":"levelo_inurba_marseille","lat":43.305989,"lon":5.37225,"is_reserved":false,"is_disabled":false,"rental_uris":{"android":"levelo://app?vid=3e9cade6-c977-4838-93dd-bd5a4cee1b7d","ios":"levelo://app?vid=3e9cade6-c977-4838-93dd-bd5a4cee1b7d"},"vehicle_type_id":"4","last_reported":1703059674,"current_range_meters":25200,"station_id":"ce4bgqh2rcd13ifvqc4g","pricing_plan_id":"free"},{"bike_id":"09ef1d4b-9a7f-4034-97ca-3432a2898ca5","system_id":"levelo_inurba_marseille","lat":43.307945,"lon":5.376487,"is_reserved":false,"is_disabled":false,"rental_uris":{"android":"levelo://app?vid=09ef1d4b-9a7f-4034-97ca-3432a2898ca5","ios":"levelo://app?vid=09ef1d4b-9a7f-4034-97ca-3432a2898ca5"},"vehicle_type_id":"4","last_reported":1703059674,"current_range_meters":10400,"station_id":"ce4bgv92rcd13ifvqcq0","pricing_plan_id":"free"},{"bike_id":"434ac7bc-c4ee-4178-8066-57cd65d9dfc7","system_id":"levelo_inurba_marseille","lat":43.31241,"lon":5.37972,"is_reserved":false,"is_disabled":false,"rental_uris":{"android":"levelo://app?vid=434ac7bc-c4ee-4178-8066-57cd65d9dfc7","ios":"levelo://app?vid=434ac7bc-c4ee-4178-8066-57cd65d9dfc7"},"vehicle_type_id":"4","last_reported":1703059674,"current_range_meters":0,"station_id":"","pricing_plan_id":"free"},{"bike_id":"0e0da16e-93fb-474f-9bc2-bb6099bb8597","system_id":"levelo_inurba_marseille","lat":43.303046,"lon":5.368981,"is_reserved":false,"is_disabled":false,"rental_uris":{"android":"levelo://app?vid=0e0da16e-93fb-474f-9bc2-bb6099bb8597","ios":"levelo://app?vid=0e0da16e-93fb-474f-9bc2-bb6099bb8597"},"vehicle_type_id":"4","last_reported":1703059674,"current_range_meters":27600,"station_id":"ce4bgqh2rcd13ifvqc5g","pricing_plan_id":"free"},{"bike_id":"8a811a95-0dee-4f43-895c-d950d7970268","system_id":"levelo_inurba_marseille","lat":43.303046,"lon":5.368981,"is_reserved":false,"is_disabled":false,"rental_uris":{"android":"levelo://app?vid=8a811a95-0dee-4f43-895c-d950d7970268","ios":"levelo://app?vid=8a811a95-0dee-4f43-895c-d950d7970268"},"vehicle_type_id":"4","last_reported":1703059674,"current_range_meters":14400,"station_id":"ce4bgqh2rcd13ifvqc5g","pricing_plan_id":"free"},{"bike_id":"164924a8-20c2-47e7-9ea3-c56093c0b037","system_id":"levelo_inurba_marseille","lat":43.30304,"lon":5.369,"is_reserved":false,"is_disabled":false,"rental_uris":{"android":"levelo://app?vid=164924a8-20c2-47e7-9ea3-c56093c0b037","ios":"levelo://app?vid=164924a8-20c2-47e7-9ea3-c56093c0b037"},"vehicle_type_id":"4","last_reported":1703059674,"current_range_meters":19200,"station_id":"ce4bgqh2rcd13ifvqc5g","pricing_plan_id":"free"},{"bike_id":"7d647eab-c99b-4f14-8de4-2f9abdd7dc86","system_id":"levelo_inurba_marseille","lat":43.301939,"lon":5.366286,"is_reserved":false,"is_disabled":false,"rental_uris":{"android":"levelo://app?vid=7d647eab-c99b-4f14-8de4-2f9abdd7dc86","ios":"levelo://app?vid=7d647eab-c99b-4f14-8de4-2f9abdd7dc86"},"vehicle_type_id":"4","last_reported":1703059674,"current_range_meters":29200,"station_id":"ce4bgrh2rcd13ifvqc8g","pricing_plan_id":"free"},{"bike_id":"e517e29b-779e-4f92-bf96-4bccc8ca8c31","system_id":"levelo_inurba_marseille","lat":43.301939,"lon":5.366286,"is_reserved":false,"is_disabled":false,"rental_uris":{"android":"levelo://app?vid=e517e29b-779e-4f92-bf96-4bccc8ca8c31","ios":"levelo://app?vid=e517e29b-779e-4f92-bf96-4bccc8ca8c31"},"vehicle_type_id":"4","last_reported":1703059674,"current_range_meters":12400,"station_id":"ce4bgrh2rcd13ifvqc8g","pricing_plan_id":"free"},{"bike_id":"e8d55c0f-e4ec-453f-9f3f-9de85d9165b8","system_id":"levelo_inurba_marseille","lat":43.308012,"lon":5.381511,"is_reserved":false,"is_disabled":false,"rental_uris":{"android":"levelo://app?vid=e8d55c0f-e4ec-453f-9f3f-9de85d9165b8","ios":"levelo://app?vid=e8d55c0f-e4ec-453f-9f3f-9de85d9165b8"},"vehicle_type_id":"4","last_reported":1703059674,"current_range_meters":14000,"station_id":"ce4bgt12rcd13ifvqce0","pricing_plan_id":"free"},{"bike_id":"7fddfc4f-206c-4e86-8408-0e4bcbcdcf14","system_id":"levelo_inurba_marseille","lat":43.304606,"lon":5.379026,"is_reserved":false,"is_disabled":false,"rental_uris":{"android":"levelo://app?vid=7fddfc4f-206c-4e86-8408-0e4bcbcdcf14","ios":"levelo://app?vid=7fddfc4f-206c-4e86-8408-0e4bcbcdcf14"},"vehicle_type_id":"4","last_reported":1703059674,"current_range_meters":25200,"station_id":"ce4bgup2rcd13ifvqcn0","pricing_plan_id":"free"},{"bike_id":"2520fffd-7b09-4574-8ea4-661062ae60e5","system_id":"levelo_inurba_marseille","lat":43.304606,"lon":5.379026,"is_reserved":false,"is_disabled":false,"rental_uris":{"android":"levelo://app?vid=2520fffd-7b09-4574-8ea4-661062ae60e5","ios":"levelo://app?vid=2520fffd-7b09-4574-8ea4-661062ae60e5"},"vehicle_type_id":"4","last_reported":1703059674,"current_range_meters":28400,"station_id":"ce4bgup2rcd13ifvqcn0","pricing_plan_id":"free"},{"bike_id":"4feb90d1-403f-4ae4-8dfa-eda8ac00e2a5","system_id":"levelo_inurba_marseille","lat":43.301429,"lon":5.37413,"is_reserved":false,"is_disabled":false,"rental_uris":{"android":"levelo://app?vid=4feb90d1-403f-4ae4-8dfa-eda8ac00e2a5","ios":"levelo://app?vid=4feb90d1-403f-4ae4-8dfa-eda8ac00e2a5"},"vehicle_type_id":"4","last_reported":1703059674,"current_range_meters":7600,"station_id":"ce4bgs92rcd13ifvqcc0","pricing_plan_id":"free"},{"bike_id":"4a296b37-05ae-4749-a0be-d1b2b72d0c88","system_id":"levelo_inurba_marseille","lat":43.30143,"lon":5.37413,"is_reserved":false,"is_disabled":false,"rental_uris":{"android":"levelo://app?vid=4a296b37-05ae-4749-a0be-d1b2b72d0c88","ios":"levelo://app?vid=4a296b37-05ae-4749-a0be-d1b2b72d0c88"},"vehicle_type_id":"4","last_reported":1703059674,"current_range_meters":20800,"station_id":"ce4bgs92rcd13ifvqcc0","pricing_plan_id":"free"},{"bike_id":"af681f99-a3d2-4a1b-8e10-951564585982","system_id":"levelo_inurba_marseille","lat":43.30143,"lon":5.37413,"is_reserved":false,"is_disabled":false,"rental_uris":{"android":"levelo://app?vid=af681f99-a3d2-4a1b-8e10-951564585982","ios":"levelo://app?vid=af681f99-a3d2-4a1b-8e10-951564585982"},"vehicle_type_id":"4","last_reported":1703059674,"current_range_meters":16800,"station_id":"ce4bgs92rcd13ifvqcc0","pricing_plan_id":"free"},{"bike_id":"e08eb783-5fa9-424c-9e68-1e1a6a57ebf4","system_id":"levelo_inurba_marseille","lat":43.30144,"lon":5.3742,"is_reserved":false,"is_disabled":false,"rental_uris":{"android":"levelo://app?vid=e08eb783-5fa9-424c-9e68-1e1a6a57ebf4","ios":"levelo://app?vid=e08eb783-5fa9-424c-9e68-1e1a6a57ebf4"},"vehicle_type_id":"4","last_reported":1703059674,"current_range_meters":21200,"station_id":"ce4bgs92rcd13ifvqcc0","pricing_plan_id":"free"},{"bike_id":"98076a06-f854-49e2-a860-e446b3deb246","system_id":"levelo_inurba_marseille","lat":43.30143,"lon":5.37413,"is_reserved":false,"is_disabled":false,"rental_uris":{"android":"levelo://app?vid=98076a06-f854-49e2-a860-e446b3deb246","ios":"levelo://app?vid=98076a06-f854-49e2-a860-e446b3deb246"},"vehicle_type_id":"4","last_reported":1703059674,"current_range_meters":18400,"station_id":"ce4bgs92rcd13ifvqcc0","pricing_plan_id":"free"},{"bike_id":"d4b5636f-86db-4775-bc13-3b867ad7aa44","system_id":"levelo_inurba_marseille","lat":43.30143,"lon":5.3742,"is_reserved":false,"is_disabled":false,"rental_uris":{"android":"levelo://app?vid=d4b5636f-86db-4775-bc13-3b867ad7aa44","ios":"levelo://app?vid=d4b5636f-86db-4775-bc13-3b867ad7aa44"},"vehicle_type_id":"4","last_reported":1703059674,"current_range_meters":2000,"station_id":"ce4bgs92rcd13ifvqcc0","pricing_plan_id":"free"},{"bike_id":"28e6ef66-93b9-4fe7-9561-b03094f4e31d","system_id":"levelo_inurba_marseille","lat":43.32,"lon":5.38151,"is_reserved":false,"is_disabled":false,"rental_uris":{"android":"levelo://app?vid=28e6ef66-93b9-4fe7-9561-b03094f4e31d","ios":"levelo://app?vid=28e6ef66-93b9-4fe7-9561-b03094f4e31d"},"vehicle_type_id":"4","last_reported":1703059674,"current_range_meters":0,"station_id":"ce4bhr12rcd13ifvqhpg","pricing_plan_id":"free"},{"bike_id":"5a28df3d-a607-4118-a3d2-309ff0bb131b","system_id":"levelo_inurba_marseille","lat":43.313571,"lon":5.384829,"is_reserved":false,"is_disabled":false,"rental_uris":{"android":"levelo://app?vid=5a28df3d-a607-4118-a3d2-309ff0bb131b","ios":"levelo://app?vid=5a28df3d-a607-4118-a3d2-309ff0bb131b"},"vehicle_type_id":"4","last_reported":1703059674,"current_range_meters":30800,"station_id":"ce4bgt92rcd13ifvqcf0","pricing_plan_id":"free"},{"bike_id":"f7c959f6-e962-4256-86df-458913a778e3","system_id":"levelo_inurba_marseille","lat":43.313571,"lon":5.384829,"is_reserved":false,"is_disabled":false,"rental_uris":{"android":"levelo://app?vid=f7c959f6-e962-4256-86df-458913a778e3","ios":"levelo://app?vid=f7c959f6-e962-4256-86df-458913a778e3"},"vehicle_type_id":"4","last_reported":1703059674,"current_range_meters":22000,"station_id":"ce4bgt92rcd13ifvqcf0","pricing_plan_id":"free"},{"bike_id":"e30dc010-e34f-433e-ba01-97323efa1d7a","system_id":"levelo_inurba_marseille","lat":43.313571,"lon":5.384829,"is_reserved":false,"is_disabled":false,"rental_uris":{"android":"levelo://app?vid=e30dc010-e34f-433e-ba01-97323efa1d7a","ios":"levelo://app?vid=e30dc010-e34f-433e-ba01-97323efa1d7a"},"vehicle_type_id":"4","last_reported":1703059674,"current_range_meters":16000,"station_id":"ce4bgt92rcd13ifvqcf0","pricing_plan_id":"free"},{"bike_id":"8fae39fe-f351-4775-bf17-ce9800288018","system_id":"levelo_inurba_marseille","lat":43.313571,"lon":5.384829,"is_reserved":false,"is_disabled":false,"rental_uris":{"android":"levelo://app?vid=8fae39fe-f351-4775-bf17-ce9800288018","ios":"levelo://app?vid=8fae39fe-f351-4775-bf17-ce9800288018"},"vehicle_type_id":"4","last_reported":1703059674,"current_range_meters":30400,"station_id":"ce4bgt92rcd13ifvqcf0","pricing_plan_id":"free"},{"bike_id":"93e3f275-51de-4ff5-beb2-171840114c6c","system_id":"levelo_inurba_marseille","lat":43.313571,"lon":5.384829,"is_reserved":false,"is_disabled":false,"rental_uris":{"android":"levelo://app?vid=93e3f275-51de-4ff5-beb2-171840114c6c","ios":"levelo://app?vid=93e3f275-51de-4ff5-beb2-171840114c6c"},"vehicle_type_id":"4","last_reported":1703059674,"current_range_meters":18000,"station_id":"ce4bgt92rcd13ifvqcf0","pricing_plan_id":"free"},{"bike_id":"70eb36af-de42-4fb1-a432-324b2faa8d96","system_id":"levelo_inurba_marseille","lat":43.313571,"lon":5.384829,"is_reserved":false,"is_disabled":false,"rental_uris":{"android":"levelo://app?vid=70eb36af-de42-4fb1-a432-324b2faa8d96","ios":"levelo://app?vid=70eb36af-de42-4fb1-a432-324b2faa8d96"},"vehicle_type_id":"4","last_reported":1703059674,"current_range_meters":21600,"station_id":"ce4bgt92rcd13ifvqcf0","pricing_plan_id":"free"},{"bike_id":"1d405565-81fe-483d-b06d-9ddd014114e3","system_id":"levelo_inurba_marseille","lat":43.313571,"lon":5.384829,"is_reserved":false,"is_disabled":false,"rental_uris":{"android":"levelo://app?vid=1d405565-81fe-483d-b06d-9ddd014114e3","ios":"levelo://app?vid=1d405565-81fe-483d-b06d-9ddd014114e3"},"vehicle_type_id":"4","last_reported":1703059674,"current_range_meters":32000,"station_id":"ce4bgt92rcd13ifvqcf0","pricing_plan_id":"free"},{"bike_id":"01ee7429-cfde-4b62-856f-75cf388216af","system_id":"levelo_inurba_marseille","lat":43.313571,"lon":5.384829,"is_reserved":false,"is_disabled":false,"rental_uris":{"android":"levelo://app?vid=01ee7429-cfde-4b62-856f-75cf388216af","ios":"levelo://app?vid=01ee7429-cfde-4b62-856f-75cf388216af"},"vehicle_type_id":"4","last_reported":1703059674,"current_range_meters":29200,"station_id":"ce4bgt92rcd13ifvqcf0","pricing_plan_id":"free"},{"bike_id":"95630a1a-2ad7-4a94-8c62-c8ae7b5974b5","system_id":"levelo_inurba_marseille","lat":43.298433,"lon":5.362774,"is_reserved":false,"is_disabled":false,"rental_uris":{"android":"levelo://app?vid=95630a1a-2ad7-4a94-8c62-c8ae7b5974b5","ios":"levelo://app?vid=95630a1a-2ad7-4a94-8c62-c8ae7b5974b5"},"vehicle_type_id":"4","last_reported":1703059674,"current_range_meters":16400,"station_id":"ce4bgpp2rcd13ifvqc3g","pricing_plan_id":"free"},{"bike_id":"61542fa8-47d6-477d-982e-5c877f40eba4","system_id":"levelo_inurba_marseille","lat":43.299243,"lon":5.374807,"is_reserved":false,"is_disabled":false,"rental_uris":{"android":"levelo://app?vid=61542fa8-47d6-477d-982e-5c877f40eba4","ios":"levelo://app?vid=61542fa8-47d6-477d-982e-5c877f40eba4"},"vehicle_type_id":"4","last_reported":1703059674,"current_range_meters":22000,"station_id":"ce4bgjh2rcd13ifvqbg0","pricing_plan_id":"free"},{"bike_id":"90195e9d-d361-4ef2-9d39-88e9da3fbcad","system_id":"levelo_inurba_marseille","lat":43.298433,"lon":5.362774,"is_reserved":false,"is_disabled":false,"rental_uris":{"android":"levelo://app?vid=90195e9d-d361-4ef2-9d39-88e9da3fbcad","ios":"levelo://app?vid=90195e9d-d361-4ef2-9d39-88e9da3fbcad"},"vehicle_type_id":"4","last_reported":1703059674,"current_range_meters":22800,"station_id":"ce4bgpp2rcd13ifvqc3g","pricing_plan_id":"free"},{"bike_id":"ca0834b0-077b-48e5-8d61-d563b65c06e3","system_id":"levelo_inurba_marseille","lat":43.305514,"lon":5.38448,"is_reserved":false,"is_disabled":false,"rental_uris":{"android":"levelo://app?vid=ca0834b0-077b-48e5-8d61-d563b65c06e3","ios":"levelo://app?vid=ca0834b0-077b-48e5-8d61-d563b65c06e3"},"vehicle_type_id":"4","last_reported":1703059674,"current_range_meters":0,"station_id":"ce4bgg92rcd13ifvqb30","pricing_plan_id":"free"},{"bike_id":"8867c2d7-f6b4-4050-8448-6bae24a286c8","system_id":"levelo_inurba_marseille","lat":43.305368,"lon":5.367343,"is_reserved":false,"is_disabled":false,"rental_uris":{"android":"levelo://app?vid=8867c2d7-f6b4-4050-8448-6bae24a286c8","ios":"levelo://app?vid=8867c2d7-f6b4-4050-8448-6bae24a286c8"},"vehicle_type_id":"4","last_reported":1703059674,"current_range_meters":25600,"station_id":"ce4bgrp2rcd13ifvqc9g","pricing_plan_id":"free"},{"bike_id":"d5c4ec1d-7af9-400f-8d7f-14d63d7b01be","system_id":"levelo_inurba_marseille","lat":43.2978,"lon":5.37098,"is_reserved":false,"is_disabled":false,"rental_uris":{"android":"levelo://app?vid=d5c4ec1d-7af9-400f-8d7f-14d63d7b01be","ios":"levelo://app?vid=d5c4ec1d-7af9-400f-8d7f-14d63d7b01be"},"vehicle_type_id":"4","last_reported":1703059674,"current_range_meters":0,"station_id":"ce4bgop2rcd13ifvqc1g","pricing_plan_id":"free"},{"bike_id":"04742fce-b899-4dfe-ab52-a05d5116e83a","system_id":"levelo_inurba_marseille","lat":43.322872,"lon":5.382756,"is_reserved":false,"is_disabled":false,"rental_uris":{"android":"levelo://app?vid=04742fce-b899-4dfe-ab52-a05d5116e83a","ios":"levelo://app?vid=04742fce-b899-4dfe-ab52-a05d5116e83a"},"vehicle_type_id":"4","last_reported":1703059674,"current_range_meters":29600,"station_id":"ce4bhr12rcd13ifvqhqg","pricing_plan_id":"free"},{"bike_id":"c22e4b9f-ba20-4a7c-a7c8-fd0a73d903e0","system_id":"levelo_inurba_marseille","lat":43.328289,"lon":5.366784,"is_reserved":false,"is_disabled":false,"rental_uris":{"android":"levelo://app?vid=c22e4b9f-ba20-4a7c-a7c8-fd0a73d903e0","ios":"levelo://app?vid=c22e4b9f-ba20-4a7c-a7c8-fd0a73d903e0"},"vehicle_type_id":"4","last_reported":1703059674,"current_range_meters":24000,"station_id":"ce4bhs92rcd13ifvqi0g","pricing_plan_id":"free"},{"bike_id":"eb8ebe7d-6983-4780-997c-9447c3c0c6e2","system_id":"levelo_inurba_marseille","lat":43.32829,"lon":5.36685,"is_reserved":false,"is_disabled":false,"rental_uris":{"android":"levelo://app?vid=eb8ebe7d-6983-4780-997c-9447c3c0c6e2","ios":"levelo://app?vid=eb8ebe7d-6983-4780-997c-9447c3c0c6e2"},"vehicle_type_id":"4","last_reported":1703059674,"current_range_meters":29600,"station_id":"ce4bhs92rcd13ifvqi0g","pricing_plan_id":"free"},{"bike_id":"8c92c247-ad80-4a8b-9361-acf9feb8ba41","system_id":"levelo_inurba_marseille","lat":43.328302,"lon":5.366917,"is_reserved":false,"is_disabled":false,"rental_uris":{"android":"levelo://app?vid=8c92c247-ad80-4a8b-9361-acf9feb8ba41","ios":"levelo://app?vid=8c92c247-ad80-4a8b-9361-acf9feb8ba41"},"vehicle_type_id":"4","last_reported":1703059674,"current_range_meters":18000,"station_id":"ce4bhs92rcd13ifvqi0g","pricing_plan_id":"free"},{"bike_id":"cb97846c-9508-4ec4-82fd-1a637ef7dd90","system_id":"levelo_inurba_marseille","lat":43.32831,"lon":5.36673,"is_reserved":false,"is_disabled":false,"rental_uris":{"android":"levelo://app?vid=cb97846c-9508-4ec4-82fd-1a637ef7dd90","ios":"levelo://app?vid=cb97846c-9508-4ec4-82fd-1a637ef7dd90"},"vehicle_type_id":"4","last_reported":1703059674,"current_range_meters":2400,"station_id":"ce4bhs92rcd13ifvqi0g","pricing_plan_id":"free"},{"bike_id":"48ebe570-3797-4c11-9550-8036b565ccb1","system_id":"levelo_inurba_marseille","lat":43.328317,"lon":5.366782,"is_reserved":false,"is_disabled":false,"rental_uris":{"android":"levelo://app?vid=48ebe570-3797-4c11-9550-8036b565ccb1","ios":"levelo://app?vid=48ebe570-3797-4c11-9550-8036b565ccb1"},"vehicle_type_id":"4","last_reported":1703059674,"current_range_meters":28800,"station_id":"ce4bhs92rcd13ifvqi0g","pricing_plan_id":"free"},{"bike_id":"3f4a7c0a-9bb3-46c1-bd5c-d0138c78b4a3","system_id":"levelo_inurba_marseille","lat":43.32832,"lon":5.36684,"is_reserved":false,"is_disabled":false,"rental_uris":{"android":"levelo://app?vid=3f4a7c0a-9bb3-46c1-bd5c-d0138c78b4a3","ios":"levelo://app?vid=3f4a7c0a-9bb3-46c1-bd5c-d0138c78b4a3"},"vehicle_type_id":"4","last_reported":1703059674,"current_range_meters":5600,"station_id":"ce4bhs92rcd13ifvqi0g","pricing_plan_id":"free"},{"bike_id":"c12df297-168e-4ca3-95d9-a300ff1ffbd9","system_id":"levelo_inurba_marseille","lat":43.328371,"lon":5.366909,"is_reserved":false,"is_disabled":false,"rental_uris":{"android":"levelo://app?vid=c12df297-168e-4ca3-95d9-a300ff1ffbd9","ios":"levelo://app?vid=c12df297-168e-4ca3-95d9-a300ff1ffbd9"},"vehicle_type_id":"4","last_reported":1703059674,"current_range_meters":30800,"station_id":"ce4bhs92rcd13ifvqi0g","pricing_plan_id":"free"},{"bike_id":"2a8a59a2-86cc-48a9-8714-ae0edcb4d489","system_id":"levelo_inurba_marseille","lat":43.32833,"lon":5.36683,"is_reserved":false,"is_disabled":false,"rental_uris":{"android":"levelo://app?vid=2a8a59a2-86cc-48a9-8714-ae0edcb4d489","ios":"levelo://app?vid=2a8a59a2-86cc-48a9-8714-ae0edcb4d489"},"vehicle_type_id":"4","last_reported":1703059674,"current_range_meters":4000,"station_id":"ce4bhs92rcd13ifvqi0g","pricing_plan_id":"free"},{"bike_id":"8ae19b2c-3abe-4d96-9b91-4687555d1f8c","system_id":"levelo_inurba_marseille","lat":43.29601,"lon":5.36993,"is_reserved":false,"is_disabled":false,"rental_uris":{"android":"levelo://app?vid=8ae19b2c-3abe-4d96-9b91-4687555d1f8c","ios":"levelo://app?vid=8ae19b2c-3abe-4d96-9b91-4687555d1f8c"},"vehicle_type_id":"4","last_reported":1703059674,"current_range_meters":23200,"station_id":"","pricing_plan_id":"free"},{"bike_id":"39eb075f-ed05-42de-98f7-5f3c374f8852","system_id":"levelo_inurba_marseille","lat":43.29573,"lon":5.367355,"is_reserved":false,"is_disabled":false,"rental_uris":{"android":"levelo://app?vid=39eb075f-ed05-42de-98f7-5f3c374f8852","ios":"levelo://app?vid=39eb075f-ed05-42de-98f7-5f3c374f8852"},"vehicle_type_id":"4","last_reported":1703059674,"current_range_meters":30800,"station_id":"ce4bgph2rcd13ifvqc2g","pricing_plan_id":"free"},{"bike_id":"2e7324e7-a0c5-4a8c-a57d-6e64d5ab940e","system_id":"levelo_inurba_marseille","lat":43.309589,"lon":5.390258,"is_reserved":false,"is_disabled":false,"rental_uris":{"android":"levelo://app?vid=2e7324e7-a0c5-4a8c-a57d-6e64d5ab940e","ios":"levelo://app?vid=2e7324e7-a0c5-4a8c-a57d-6e64d5ab940e"},"vehicle_type_id":"4","last_reported":1703059674,"current_range_meters":26400,"station_id":"ce4bgup2rcd13ifvqco0","pricing_plan_id":"free"},{"bike_id":"6946ae17-1ab0-4f5d-a14b-192c59b4c343","system_id":"levelo_inurba_marseille","lat":43.309589,"lon":5.390258,"is_reserved":false,"is_disabled":false,"rental_uris":{"android":"levelo://app?vid=6946ae17-1ab0-4f5d-a14b-192c59b4c343","ios":"levelo://app?vid=6946ae17-1ab0-4f5d-a14b-192c59b4c343"},"vehicle_type_id":"4","last_reported":1703059674,"current_range_meters":16400,"station_id":"ce4bgup2rcd13ifvqco0","pricing_plan_id":"free"},{"bike_id":"6d4d2f50-6812-4a7c-90d6-0af0a9759caf","system_id":"levelo_inurba_marseille","lat":43.3095,"lon":5.39031,"is_reserved":false,"is_disabled":false,"rental_uris":{"android":"levelo://app?vid=6d4d2f50-6812-4a7c-90d6-0af0a9759caf","ios":"levelo://app?vid=6d4d2f50-6812-4a7c-90d6-0af0a9759caf"},"vehicle_type_id":"4","last_reported":1703059674,"current_range_meters":24800,"station_id":"ce4bgup2rcd13ifvqco0","pricing_plan_id":"free"},{"bike_id":"8c4fa6df-927a-41b1-8fb1-9dac069dd028","system_id":"levelo_inurba_marseille","lat":43.317557,"lon":5.390173,"is_reserved":false,"is_disabled":false,"rental_uris":{"android":"levelo://app?vid=8c4fa6df-927a-41b1-8fb1-9dac069dd028","ios":"levelo://app?vid=8c4fa6df-927a-41b1-8fb1-9dac069dd028"},"vehicle_type_id":"4","last_reported":1703059674,"current_range_meters":30800,"station_id":"ce4bhqp2rcd13ifvqhng","pricing_plan_id":"free"},{"bike_id":"939f6c81-520f-4b72-b8b8-dd895100f9cb","system_id":"levelo_inurba_marseille","lat":43.295748,"lon":5.37522,"is_reserved":false,"is_disabled":false,"rental_uris":{"android":"levelo://app?vid=939f6c81-520f-4b72-b8b8-dd895100f9cb","ios":"levelo://app?vid=939f6c81-520f-4b72-b8b8-dd895100f9cb"},"vehicle_type_id":"4","last_reported":1703059674,"current_range_meters":29200,"station_id":"ce4bgh92rcd13ifvqb50","pricing_plan_id":"free"},{"bike_id":"bea58ccd-6de7-40ac-bfbc-22ebbaa8710d","system_id":"levelo_inurba_marseille","lat":43.295748,"lon":5.37522,"is_reserved":false,"is_disabled":false,"rental_uris":{"android":"levelo://app?vid=bea58ccd-6de7-40ac-bfbc-22ebbaa8710d","ios":"levelo://app?vid=bea58ccd-6de7-40ac-bfbc-22ebbaa8710d"},"vehicle_type_id":"4","last_reported":1703059674,"current_range_meters":8000,"station_id":"ce4bgh92rcd13ifvqb50","pricing_plan_id":"free"},{"bike_id":"8b457b50-3aad-448c-b644-4753680f6bb7","system_id":"levelo_inurba_marseille","lat":43.295748,"lon":5.37522,"is_reserved":false,"is_disabled":false,"rental_uris":{"android":"levelo://app?vid=8b457b50-3aad-448c-b644-4753680f6bb7","ios":"levelo://app?vid=8b457b50-3aad-448c-b644-4753680f6bb7"},"vehicle_type_id":"4","last_reported":1703059674,"current_range_meters":22000,"station_id":"ce4bgh92rcd13ifvqb50","pricing_plan_id":"free"},{"bike_id":"21ce5c40-22d7-422b-bc79-46575a355304","system_id":"levelo_inurba_marseille","lat":43.29787,"lon":5.38098,"is_reserved":false,"is_disabled":false,"rental_uris":{"android":"levelo://app?vid=21ce5c40-22d7-422b-bc79-46575a355304","ios":"levelo://app?vid=21ce5c40-22d7-422b-bc79-46575a355304"},"vehicle_type_id":"4","last_reported":1703059674,"current_range_meters":0,"station_id":"ce4bgip2rcd13ifvqbb0","pricing_plan_id":"free"},{"bike_id":"ec7fe619-4917-4bd7-9d86-d4eadf6cbc7d","system_id":"levelo_inurba_marseille","lat":43.295748,"lon":5.37522,"is_reserved":false,"is_disabled":false,"rental_uris":{"android":"levelo://app?vid=ec7fe619-4917-4bd7-9d86-d4eadf6cbc7d","ios":"levelo://app?vid=ec7fe619-4917-4bd7-9d86-d4eadf6cbc7d"},"vehicle_type_id":"4","last_reported":1703059674,"current_range_meters":14000,"station_id":"ce4bgh92rcd13ifvqb50","pricing_plan_id":"free"},{"bike_id":"da5ac4c1-a080-44a4-907d-a41f4c534583","system_id":"levelo_inurba_marseille","lat":43.295748,"lon":5.37522,"is_reserved":false,"is_disabled":false,"rental_uris":{"android":"levelo://app?vid=da5ac4c1-a080-44a4-907d-a41f4c534583","ios":"levelo://app?vid=da5ac4c1-a080-44a4-907d-a41f4c534583"},"vehicle_type_id":"4","last_reported":1703059674,"current_range_meters":0,"station_id":"ce4bgh92rcd13ifvqb50","pricing_plan_id":"free"},{"bike_id":"5f58ead5-6894-4d24-a1fe-7f230890259e","system_id":"levelo_inurba_marseille","lat":43.296263,"lon":5.377094,"is_reserved":false,"is_disabled":false,"rental_uris":{"android":"levelo://app?vid=5f58ead5-6894-4d24-a1fe-7f230890259e","ios":"levelo://app?vid=5f58ead5-6894-4d24-a1fe-7f230890259e"},"vehicle_type_id":"4","last_reported":1703059674,"current_range_meters":16800,"station_id":"ce4bgi92rcd13ifvqb90","pricing_plan_id":"free"},{"bike_id":"04297a3c-9b92-4aa1-8d7d-876824b6c366","system_id":"levelo_inurba_marseille","lat":43.296263,"lon":5.377094,"is_reserved":false,"is_disabled":false,"rental_uris":{"android":"levelo://app?vid=04297a3c-9b92-4aa1-8d7d-876824b6c366","ios":"levelo://app?vid=04297a3c-9b92-4aa1-8d7d-876824b6c366"},"vehicle_type_id":"4","last_reported":1703059674,"current_range_meters":30800,"station_id":"ce4bgi92rcd13ifvqb90","pricing_plan_id":"free"},{"bike_id":"3d1d3c26-3eee-4f46-8b83-98834acf6735","system_id":"levelo_inurba_marseille","lat":43.32367,"lon":5.38874,"is_reserved":false,"is_disabled":false,"rental_uris":{"android":"levelo://app?vid=3d1d3c26-3eee-4f46-8b83-98834acf6735","ios":"levelo://app?vid=3d1d3c26-3eee-4f46-8b83-98834acf6735"},"vehicle_type_id":"4","last_reported":1703059674,"current_range_meters":11200,"station_id":"ce4bhqp2rcd13ifvqhog","pricing_plan_id":"free"},{"bike_id":"4025df96-c433-4b2b-8127-ea9eea2f2ac4","system_id":"levelo_inurba_marseille","lat":43.29602,"lon":5.381084,"is_reserved":false,"is_disabled":false,"rental_uris":{"android":"levelo://app?vid=4025df96-c433-4b2b-8127-ea9eea2f2ac4","ios":"levelo://app?vid=4025df96-c433-4b2b-8127-ea9eea2f2ac4"},"vehicle_type_id":"4","last_reported":1703059674,"current_range_meters":15200,"station_id":"ce4bgl12rcd13ifvqbo0","pricing_plan_id":"free"},{"bike_id":"1f87895e-159e-4fa1-a7a7-46ac3c93d9b2","system_id":"levelo_inurba_marseille","lat":43.292749,"lon":5.368402,"is_reserved":false,"is_disabled":false,"rental_uris":{"android":"levelo://app?vid=1f87895e-159e-4fa1-a7a7-46ac3c93d9b2","ios":"levelo://app?vid=1f87895e-159e-4fa1-a7a7-46ac3c93d9b2"},"vehicle_type_id":"4","last_reported":1703059674,"current_range_meters":0,"station_id":"ce4bhbp2rcd13ifvqesg","pricing_plan_id":"free"},{"bike_id":"62816f85-8453-452d-8291-af8d15964591","system_id":"levelo_inurba_marseille","lat":43.293009,"lon":5.374584,"is_reserved":false,"is_disabled":false,"rental_uris":{"android":"levelo://app?vid=62816f85-8453-452d-8291-af8d15964591","ios":"levelo://app?vid=62816f85-8453-452d-8291-af8d15964591"},"vehicle_type_id":"4","last_reported":1703059674,"current_range_meters":18400,"station_id":"ce4bgi12rcd13ifvqb70","pricing_plan_id":"free"},{"bike_id":"b15f0f47-b461-4726-8e04-c7effe1406e3","system_id":"levelo_inurba_marseille","lat":43.305994,"lon":5.393687,"is_reserved":false,"is_disabled":false,"rental_uris":{"android":"levelo://app?vid=b15f0f47-b461-4726-8e04-c7effe1406e3","ios":"levelo://app?vid=b15f0f47-b461-4726-8e04-c7effe1406e3"},"vehicle_type_id":"4","last_reported":1703059674,"current_range_meters":0,"station_id":"ce4bh0p2rcd13ifvqd80","pricing_plan_id":"free"},{"bike_id":"64701d36-06ce-45ef-b4c1-4a0309705669","system_id":"levelo_inurba_marseille","lat":43.2936,"lon":5.37835,"is_reserved":false,"is_disabled":false,"rental_uris":{"android":"levelo://app?vid=64701d36-06ce-45ef-b4c1-4a0309705669","ios":"levelo://app?vid=64701d36-06ce-45ef-b4c1-4a0309705669"},"vehicle_type_id":"4","last_reported":1703059674,"current_range_meters":29600,"station_id":"ce4bgjh2rcd13ifvqbf0","pricing_plan_id":"free"},{"bike_id":"cd0eaa9b-a5ab-46d5-8cd0-66af3df728b6","system_id":"levelo_inurba_marseille","lat":43.2936,"lon":5.37835,"is_reserved":false,"is_disabled":false,"rental_uris":{"android":"levelo://app?vid=cd0eaa9b-a5ab-46d5-8cd0-66af3df728b6","ios":"levelo://app?vid=cd0eaa9b-a5ab-46d5-8cd0-66af3df728b6"},"vehicle_type_id":"4","last_reported":1703059674,"current_range_meters":29600,"station_id":"ce4bgjh2rcd13ifvqbf0","pricing_plan_id":"free"},{"bike_id":"07d28e41-cd55-4e15-9b08-191c793331d9","system_id":"levelo_inurba_marseille","lat":43.2936,"lon":5.37835,"is_reserved":false,"is_disabled":false,"rental_uris":{"android":"levelo://app?vid=07d28e41-cd55-4e15-9b08-191c793331d9","ios":"levelo://app?vid=07d28e41-cd55-4e15-9b08-191c793331d9"},"vehicle_type_id":"4","last_reported":1703059674,"current_range_meters":18400,"station_id":"ce4bgjh2rcd13ifvqbf0","pricing_plan_id":"free"},{"bike_id":"72fea0fc-1450-4821-819d-e24503c014b6","system_id":"levelo_inurba_marseille","lat":43.2936,"lon":5.37835,"is_reserved":false,"is_disabled":false,"rental_uris":{"android":"levelo://app?vid=72fea0fc-1450-4821-819d-e24503c014b6","ios":"levelo://app?vid=72fea0fc-1450-4821-819d-e24503c014b6"},"vehicle_type_id":"4","last_reported":1703059674,"current_range_meters":25600,"station_id":"ce4bgjh2rcd13ifvqbf0","pricing_plan_id":"free"},{"bike_id":"7e339665-9ffa-4fa0-b56e-7538e45b27ae","system_id":"levelo_inurba_marseille","lat":43.300961,"lon":5.390836,"is_reserved":false,"is_disabled":false,"rental_uris":{"android":"levelo://app?vid=7e339665-9ffa-4fa0-b56e-7538e45b27ae","ios":"levelo://app?vid=7e339665-9ffa-4fa0-b56e-7538e45b27ae"},"vehicle_type_id":"4","last_reported":1703059674,"current_range_meters":25600,"station_id":"","pricing_plan_id":"free"},{"bike_id":"3f93e709-53c4-4945-867d-319bae2df98c","system_id":"levelo_inurba_marseille","lat":43.293009,"lon":5.374584,"is_reserved":false,"is_disabled":false,"rental_uris":{"android":"levelo://app?vid=3f93e709-53c4-4945-867d-319bae2df98c","ios":"levelo://app?vid=3f93e709-53c4-4945-867d-319bae2df98c"},"vehicle_type_id":"4","last_reported":1703059674,"current_range_meters":27200,"station_id":"ce4bgi12rcd13ifvqb70","pricing_plan_id":"free"},{"bike_id":"d334c886-b6e8-48a8-b49b-94a4bc9d2b2e","system_id":"levelo_inurba_marseille","lat":43.29271,"lon":5.37626,"is_reserved":false,"is_disabled":false,"rental_uris":{"android":"levelo://app?vid=d334c886-b6e8-48a8-b49b-94a4bc9d2b2e","ios":"levelo://app?vid=d334c886-b6e8-48a8-b49b-94a4bc9d2b2e"},"vehicle_type_id":"4","last_reported":1703059674,"current_range_meters":30400,"station_id":"","pricing_plan_id":"free"},{"bike_id":"67dbc710-e248-4701-92da-b94e6f063a32","system_id":"levelo_inurba_marseille","lat":43.32297,"lon":5.39239,"is_reserved":false,"is_disabled":false,"rental_uris":{"android":"levelo://app?vid=67dbc710-e248-4701-92da-b94e6f063a32","ios":"levelo://app?vid=67dbc710-e248-4701-92da-b94e6f063a32"},"vehicle_type_id":"4","last_reported":1703059674,"current_range_meters":5200,"station_id":"","pricing_plan_id":"free"},{"bike_id":"7806c5bf-8c43-47f1-b234-444625e320a3","system_id":"levelo_inurba_marseille","lat":43.291671,"lon":5.371575,"is_reserved":false,"is_disabled":false,"rental_uris":{"android":"levelo://app?vid=7806c5bf-8c43-47f1-b234-444625e320a3","ios":"levelo://app?vid=7806c5bf-8c43-47f1-b234-444625e320a3"},"vehicle_type_id":"4","last_reported":1703059674,"current_range_meters":24400,"station_id":"ce4bha92rcd13ifvqeh0","pricing_plan_id":"free"},{"bike_id":"f1138bb6-db73-42ae-bd92-104e314d74ae","system_id":"levelo_inurba_marseille","lat":43.291675,"lon":5.371583,"is_reserved":false,"is_disabled":false,"rental_uris":{"android":"levelo://app?vid=f1138bb6-db73-42ae-bd92-104e314d74ae","ios":"levelo://app?vid=f1138bb6-db73-42ae-bd92-104e314d74ae"},"vehicle_type_id":"4","last_reported":1703059674,"current_range_meters":27600,"station_id":"ce4bha92rcd13ifvqeh0","pricing_plan_id":"free"},{"bike_id":"2c8e2edc-d25a-4b92-b653-d16f59f864db","system_id":"levelo_inurba_marseille","lat":43.313291,"lon":5.396838,"is_reserved":false,"is_disabled":false,"rental_uris":{"android":"levelo://app?vid=2c8e2edc-d25a-4b92-b653-d16f59f864db","ios":"levelo://app?vid=2c8e2edc-d25a-4b92-b653-d16f59f864db"},"vehicle_type_id":"4","last_reported":1703059674,"current_range_meters":22000,"station_id":"ce4bgvp2rcd13ifvqcu0","pricing_plan_id":"free"},{"bike_id":"e15462b4-361c-4aab-afbb-4b4e588f5a5b","system_id":"levelo_inurba_marseille","lat":43.290779,"lon":5.371482,"is_reserved":false,"is_disabled":false,"rental_uris":{"android":"levelo://app?vid=e15462b4-361c-4aab-afbb-4b4e588f5a5b","ios":"levelo://app?vid=e15462b4-361c-4aab-afbb-4b4e588f5a5b"},"vehicle_type_id":"4","last_reported":1703059674,"current_range_meters":30400,"station_id":"ce4bh5p2rcd13ifvqe4g","pricing_plan_id":"free"},{"bike_id":"d14460ed-123f-414f-a089-5eb6d69dfed6","system_id":"levelo_inurba_marseille","lat":43.290341,"lon":5.359201,"is_reserved":false,"is_disabled":false,"rental_uris":{"android":"levelo://app?vid=d14460ed-123f-414f-a089-5eb6d69dfed6","ios":"levelo://app?vid=d14460ed-123f-414f-a089-5eb6d69dfed6"},"vehicle_type_id":"4","last_reported":1703059674,"current_range_meters":17200,"station_id":"ce4bha92rcd13ifvqeg0","pricing_plan_id":"free"},{"bike_id":"0dc0f3d6-2a03-4a1b-9664-1248c0ca80fa","system_id":"levelo_inurba_marseille","lat":43.290327,"lon":5.375711,"is_reserved":false,"is_disabled":false,"rental_uris":{"android":"levelo://app?vid=0dc0f3d6-2a03-4a1b-9664-1248c0ca80fa","ios":"levelo://app?vid=0dc0f3d6-2a03-4a1b-9664-1248c0ca80fa"},"vehicle_type_id":"4","last_reported":1703059674,"current_range_meters":12800,"station_id":"ce4bh692rcd13ifvqe90","pricing_plan_id":"free"},{"bike_id":"48a60efd-1704-45a9-9fe9-3ab9e08bbce5","system_id":"levelo_inurba_marseille","lat":43.289468,"lon":5.363719,"is_reserved":false,"is_disabled":false,"rental_uris":{"android":"levelo://app?vid=48a60efd-1704-45a9-9fe9-3ab9e08bbce5","ios":"levelo://app?vid=48a60efd-1704-45a9-9fe9-3ab9e08bbce5"},"vehicle_type_id":"4","last_reported":1703059674,"current_range_meters":22400,"station_id":"ce4bhc92rcd13ifvqetg","pricing_plan_id":"free"},{"bike_id":"6fe29290-57d4-48a6-b563-ef7aa867c773","system_id":"levelo_inurba_marseille","lat":43.289468,"lon":5.363719,"is_reserved":false,"is_disabled":false,"rental_uris":{"android":"levelo://app?vid=6fe29290-57d4-48a6-b563-ef7aa867c773","ios":"levelo://app?vid=6fe29290-57d4-48a6-b563-ef7aa867c773"},"vehicle_type_id":"4","last_reported":1703059674,"current_range_meters":23600,"station_id":"ce4bhc92rcd13ifvqetg","pricing_plan_id":"free"},{"bike_id":"3caeda44-95a4-4e8f-a060-53c96da302eb","system_id":"levelo_inurba_marseille","lat":43.289743,"lon":5.378304,"is_reserved":false,"is_disabled":false,"rental_uris":{"android":"levelo://app?vid=3caeda44-95a4-4e8f-a060-53c96da302eb","ios":"levelo://app?vid=3caeda44-95a4-4e8f-a060-53c96da302eb"},"vehicle_type_id":"4","last_reported":1703059674,"current_range_meters":25600,"station_id":"ce4bh9p2rcd13ifvqed0","pricing_plan_id":"free"},{"bike_id":"8711ad31-f8ec-4fc8-b4e5-b83acb0c4175","system_id":"levelo_inurba_marseille","lat":43.289743,"lon":5.378304,"is_reserved":false,"is_disabled":false,"rental_uris":{"android":"levelo://app?vid=8711ad31-f8ec-4fc8-b4e5-b83acb0c4175","ios":"levelo://app?vid=8711ad31-f8ec-4fc8-b4e5-b83acb0c4175"},"vehicle_type_id":"4","last_reported":1703059674,"current_range_meters":0,"station_id":"ce4bh9p2rcd13ifvqed0","pricing_plan_id":"free"},{"bike_id":"531acb0d-50cf-4b4b-9a21-72fe54ee97f3","system_id":"levelo_inurba_marseille","lat":43.289741,"lon":5.378306,"is_reserved":false,"is_disabled":false,"rental_uris":{"android":"levelo://app?vid=531acb0d-50cf-4b4b-9a21-72fe54ee97f3","ios":"levelo://app?vid=531acb0d-50cf-4b4b-9a21-72fe54ee97f3"},"vehicle_type_id":"4","last_reported":1703059674,"current_range_meters":29600,"station_id":"ce4bh9p2rcd13ifvqed0","pricing_plan_id":"free"},{"bike_id":"a32fdc35-01a2-4691-9875-2e2ec48890c9","system_id":"levelo_inurba_marseille","lat":43.289741,"lon":5.378306,"is_reserved":false,"is_disabled":false,"rental_uris":{"android":"levelo://app?vid=a32fdc35-01a2-4691-9875-2e2ec48890c9","ios":"levelo://app?vid=a32fdc35-01a2-4691-9875-2e2ec48890c9"},"vehicle_type_id":"4","last_reported":1703059674,"current_range_meters":27600,"station_id":"ce4bh9p2rcd13ifvqed0","pricing_plan_id":"free"},{"bike_id":"3bffe08d-bac1-4a5b-9f32-28e40fb776f6","system_id":"levelo_inurba_marseille","lat":43.28856,"lon":5.358371,"is_reserved":false,"is_disabled":false,"rental_uris":{"android":"levelo://app?vid=3bffe08d-bac1-4a5b-9f32-28e40fb776f6","ios":"levelo://app?vid=3bffe08d-bac1-4a5b-9f32-28e40fb776f6"},"vehicle_type_id":"4","last_reported":1703059674,"current_range_meters":23600,"station_id":"ce4bhb12rcd13ifvqem0","pricing_plan_id":"free"},{"bike_id":"e325d832-2f8b-4eb7-843f-bbcb2531b63e","system_id":"levelo_inurba_marseille","lat":43.312609,"lon":5.401662,"is_reserved":false,"is_disabled":false,"rental_uris":{"android":"levelo://app?vid=e325d832-2f8b-4eb7-843f-bbcb2531b63e","ios":"levelo://app?vid=e325d832-2f8b-4eb7-843f-bbcb2531b63e"},"vehicle_type_id":"4","last_reported":1703059674,"current_range_meters":30400,"station_id":"ce4bh092rcd13ifvqd30","pricing_plan_id":"free"},{"bike_id":"8253abcd-b52e-4650-a2af-38e920e76174","system_id":"levelo_inurba_marseille","lat":43.3374,"lon":5.3745,"is_reserved":false,"is_disabled":false,"rental_uris":{"android":"levelo://app?vid=8253abcd-b52e-4650-a2af-38e920e76174","ios":"levelo://app?vid=8253abcd-b52e-4650-a2af-38e920e76174"},"vehicle_type_id":"4","last_reported":1703059674,"current_range_meters":29600,"station_id":"","pricing_plan_id":"free"},{"bike_id":"efc8b483-666b-48da-afa0-0447382868fd","system_id":"levelo_inurba_marseille","lat":43.337451,"lon":5.374746,"is_reserved":false,"is_disabled":false,"rental_uris":{"android":"levelo://app?vid=efc8b483-666b-48da-afa0-0447382868fd","ios":"levelo://app?vid=efc8b483-666b-48da-afa0-0447382868fd"},"vehicle_type_id":"4","last_reported":1703059674,"current_range_meters":28000,"station_id":"","pricing_plan_id":"free"},{"bike_id":"d64b345a-ab76-464c-b19e-7cdd51407aa2","system_id":"levelo_inurba_marseille","lat":43.337576,"lon":5.374431,"is_reserved":false,"is_disabled":false,"rental_uris":{"android":"levelo://app?vid=d64b345a-ab76-464c-b19e-7cdd51407aa2","ios":"levelo://app?vid=d64b345a-ab76-464c-b19e-7cdd51407aa2"},"vehicle_type_id":"4","last_reported":1703059674,"current_range_meters":29600,"station_id":"","pricing_plan_id":"free"},{"bike_id":"403c1361-abc8-4268-a3c9-bcc5633b980b","system_id":"levelo_inurba_marseille","lat":43.33759,"lon":5.37455,"is_reserved":false,"is_disabled":false,"rental_uris":{"android":"levelo://app?vid=403c1361-abc8-4268-a3c9-bcc5633b980b","ios":"levelo://app?vid=403c1361-abc8-4268-a3c9-bcc5633b980b"},"vehicle_type_id":"4","last_reported":1703059674,"current_range_meters":17600,"station_id":"","pricing_plan_id":"free"},{"bike_id":"f4f6fe7b-fa14-404e-9cca-82dbbca8c8a6","system_id":"levelo_inurba_marseille","lat":43.295279,"lon":5.375048,"is_reserved":false,"is_disabled":false,"rental_uris":{"android":"levelo://app?vid=f4f6fe7b-fa14-404e-9cca-82dbbca8c8a6","ios":"levelo://app?vid=f4f6fe7b-fa14-404e-9cca-82dbbca8c8a6"},"vehicle_type_id":"4","last_reported":1703059674,"current_range_meters":29600,"station_id":"ce4bgkp2rcd13ifvqbmg","pricing_plan_id":"free"},{"bike_id":"bb121074-6add-44c4-999b-731676fd654c","system_id":"levelo_inurba_marseille","lat":43.3377,"lon":5.3748,"is_reserved":false,"is_disabled":false,"rental_uris":{"android":"levelo://app?vid=bb121074-6add-44c4-999b-731676fd654c","ios":"levelo://app?vid=bb121074-6add-44c4-999b-731676fd654c"},"vehicle_type_id":"4","last_reported":1703059674,"current_range_meters":28400,"station_id":"","pricing_plan_id":"free"},{"bike_id":"7d698038-433d-440c-a2a7-db255263c76c","system_id":"levelo_inurba_marseille","lat":43.301117,"lon":5.398795,"is_reserved":false,"is_disabled":false,"rental_uris":{"android":"levelo://app?vid=7d698038-433d-440c-a2a7-db255263c76c","ios":"levelo://app?vid=7d698038-433d-440c-a2a7-db255263c76c"},"vehicle_type_id":"4","last_reported":1703059674,"current_range_meters":30800,"station_id":"ce4bh0h2rcd13ifvqd40","pricing_plan_id":"free"},{"bike_id":"3609f89c-3889-45c6-9aaa-45f614634c53","system_id":"levelo_inurba_marseille","lat":43.287214,"lon":5.36088,"is_reserved":false,"is_disabled":false,"rental_uris":{"android":"levelo://app?vid=3609f89c-3889-45c6-9aaa-45f614634c53","ios":"levelo://app?vid=3609f89c-3889-45c6-9aaa-45f614634c53"},"vehicle_type_id":"4","last_reported":1703059674,"current_range_meters":0,"station_id":"cki0cbj6b192h4jlfktg","pricing_plan_id":"free"},{"bike_id":"a5ab0f6e-cb1e-43c6-8bca-1c02e17f1b90","system_id":"levelo_inurba_marseille","lat":43.286039,"lon":5.370679,"is_reserved":false,"is_disabled":false,"rental_uris":{"android":"levelo://app?vid=a5ab0f6e-cb1e-43c6-8bca-1c02e17f1b90","ios":"levelo://app?vid=a5ab0f6e-cb1e-43c6-8bca-1c02e17f1b90"},"vehicle_type_id":"4","last_reported":1703059674,"current_range_meters":28000,"station_id":"ce4bht12rcd13ifvqi60","pricing_plan_id":"free"},{"bike_id":"5956510c-7aca-462f-ac69-38806c678e0f","system_id":"levelo_inurba_marseille","lat":43.316828,"lon":5.404723,"is_reserved":false,"is_disabled":false,"rental_uris":{"android":"levelo://app?vid=5956510c-7aca-462f-ac69-38806c678e0f","ios":"levelo://app?vid=5956510c-7aca-462f-ac69-38806c678e0f"},"vehicle_type_id":"4","last_reported":1703059674,"current_range_meters":6800,"station_id":"ce4bh012rcd13ifvqd00","pricing_plan_id":"free"},{"bike_id":"a7d34633-5b13-4764-a6d1-75df57d573cb","system_id":"levelo_inurba_marseille","lat":43.316828,"lon":5.404723,"is_reserved":false,"is_disabled":false,"rental_uris":{"android":"levelo://app?vid=a7d34633-5b13-4764-a6d1-75df57d573cb","ios":"levelo://app?vid=a7d34633-5b13-4764-a6d1-75df57d573cb"},"vehicle_type_id":"4","last_reported":1703059674,"current_range_meters":16400,"station_id":"ce4bh012rcd13ifvqd00","pricing_plan_id":"free"},{"bike_id":"ec5229eb-b685-42e8-aff1-279f3eaf24bd","system_id":"levelo_inurba_marseille","lat":43.285856,"lon":5.350771,"is_reserved":false,"is_disabled":false,"rental_uris":{"android":"levelo://app?vid=ec5229eb-b685-42e8-aff1-279f3eaf24bd","ios":"levelo://app?vid=ec5229eb-b685-42e8-aff1-279f3eaf24bd"},"vehicle_type_id":"4","last_reported":1703059674,"current_range_meters":22000,"station_id":"ce4bhch2rcd13ifvqeug","pricing_plan_id":"free"},{"bike_id":"ace1346c-5ab9-4148-b62a-ee1c81554ecd","system_id":"levelo_inurba_marseille","lat":43.294314,"lon":5.397498,"is_reserved":false,"is_disabled":false,"rental_uris":{"android":"levelo://app?vid=ace1346c-5ab9-4148-b62a-ee1c81554ecd","ios":"levelo://app?vid=ace1346c-5ab9-4148-b62a-ee1c81554ecd"},"vehicle_type_id":"4","last_reported":1703059674,"current_range_meters":24400,"station_id":"ce4bh3h2rcd13ifvqdo0","pricing_plan_id":"free"},{"bike_id":"a039f58f-7696-4207-8e90-b523b689b22d","system_id":"levelo_inurba_marseille","lat":43.294314,"lon":5.397498,"is_reserved":false,"is_disabled":false,"rental_uris":{"android":"levelo://app?vid=a039f58f-7696-4207-8e90-b523b689b22d","ios":"levelo://app?vid=a039f58f-7696-4207-8e90-b523b689b22d"},"vehicle_type_id":"4","last_reported":1703059674,"current_range_meters":26400,"station_id":"ce4bh3h2rcd13ifvqdo0","pricing_plan_id":"free"},{"bike_id":"8538e6dd-dbef-4a5a-a119-9a857fd021ad","system_id":"levelo_inurba_marseille","lat":43.33218,"lon":5.397067,"is_reserved":false,"is_disabled":false,"rental_uris":{"android":"levelo://app?vid=8538e6dd-dbef-4a5a-a119-9a857fd021ad","ios":"levelo://app?vid=8538e6dd-dbef-4a5a-a119-9a857fd021ad"},"vehicle_type_id":"4","last_reported":1703059674,"current_range_meters":0,"station_id":"","pricing_plan_id":"free"},{"bike_id":"a2b04bd1-84f2-4255-b880-0b737bd172e1","system_id":"levelo_inurba_marseille","lat":43.295713,"lon":5.399639,"is_reserved":false,"is_disabled":false,"rental_uris":{"android":"levelo://app?vid=a2b04bd1-84f2-4255-b880-0b737bd172e1","ios":"levelo://app?vid=a2b04bd1-84f2-4255-b880-0b737bd172e1"},"vehicle_type_id":"4","last_reported":1703059674,"current_range_meters":20800,"station_id":"ce4bh312rcd13ifvqdj0","pricing_plan_id":"free"},{"bike_id":"db2a63b9-6234-4e51-aa4e-e45a94655d38","system_id":"levelo_inurba_marseille","lat":43.295713,"lon":5.399639,"is_reserved":false,"is_disabled":false,"rental_uris":{"android":"levelo://app?vid=db2a63b9-6234-4e51-aa4e-e45a94655d38","ios":"levelo://app?vid=db2a63b9-6234-4e51-aa4e-e45a94655d38"},"vehicle_type_id":"4","last_reported":1703059674,"current_range_meters":16000,"station_id":"ce4bh312rcd13ifvqdj0","pricing_plan_id":"free"},{"bike_id":"4514386d-a64e-41d7-b0ce-8c56abbf3d80","system_id":"levelo_inurba_marseille","lat":43.286595,"lon":5.386795,"is_reserved":false,"is_disabled":false,"rental_uris":{"android":"levelo://app?vid=4514386d-a64e-41d7-b0ce-8c56abbf3d80","ios":"levelo://app?vid=4514386d-a64e-41d7-b0ce-8c56abbf3d80"},"vehicle_type_id":"4","last_reported":1703059674,"current_range_meters":19200,"station_id":"ce4bh492rcd13ifvqdug","pricing_plan_id":"free"},{"bike_id":"0e6bbc92-cec6-497f-ad89-d75d7e889db3","system_id":"levelo_inurba_marseille","lat":43.33717,"lon":5.391857,"is_reserved":false,"is_disabled":false,"rental_uris":{"android":"levelo://app?vid=0e6bbc92-cec6-497f-ad89-d75d7e889db3","ios":"levelo://app?vid=0e6bbc92-cec6-497f-ad89-d75d7e889db3"},"vehicle_type_id":"4","last_reported":1703059674,"current_range_meters":28800,"station_id":"ce4bhr92rcd13ifvqhsg","pricing_plan_id":"free"},{"bike_id":"ba39ecb4-b984-477f-87cf-fcce02f73044","system_id":"levelo_inurba_marseille","lat":43.323464,"lon":5.406297,"is_reserved":false,"is_disabled":false,"rental_uris":{"android":"levelo://app?vid=ba39ecb4-b984-477f-87cf-fcce02f73044","ios":"levelo://app?vid=ba39ecb4-b984-477f-87cf-fcce02f73044"},"vehicle_type_id":"4","last_reported":1703059674,"current_range_meters":22000,"station_id":"ce4bhq92rcd13ifvqhjg","pricing_plan_id":"free"},{"bike_id":"69705908-4b6a-4709-a265-798e5697b8bf","system_id":"levelo_inurba_marseille","lat":43.323464,"lon":5.406297,"is_reserved":false,"is_disabled":false,"rental_uris":{"android":"levelo://app?vid=69705908-4b6a-4709-a265-798e5697b8bf","ios":"levelo://app?vid=69705908-4b6a-4709-a265-798e5697b8bf"},"vehicle_type_id":"4","last_reported":1703059674,"current_range_meters":32000,"station_id":"ce4bhq92rcd13ifvqhjg","pricing_plan_id":"free"},{"bike_id":"48c26f68-8e4e-48e8-9d62-a6e759f89761","system_id":"levelo_inurba_marseille","lat":43.323464,"lon":5.406297,"is_reserved":false,"is_disabled":false,"rental_uris":{"android":"levelo://app?vid=48c26f68-8e4e-48e8-9d62-a6e759f89761","ios":"levelo://app?vid=48c26f68-8e4e-48e8-9d62-a6e759f89761"},"vehicle_type_id":"4","last_reported":1703059674,"current_range_meters":6000,"station_id":"ce4bhq92rcd13ifvqhjg","pricing_plan_id":"free"},{"bike_id":"ea81e82b-fe35-4817-a347-93a87cd7ed7e","system_id":"levelo_inurba_marseille","lat":43.284787,"lon":5.384116,"is_reserved":false,"is_disabled":false,"rental_uris":{"android":"levelo://app?vid=ea81e82b-fe35-4817-a347-93a87cd7ed7e","ios":"levelo://app?vid=ea81e82b-fe35-4817-a347-93a87cd7ed7e"},"vehicle_type_id":"4","last_reported":1703059674,"current_range_meters":24400,"station_id":"ce4bh512rcd13ifvqe3g","pricing_plan_id":"free"},{"bike_id":"1f4a91ad-9e27-4727-8c23-86138d3098dd","system_id":"levelo_inurba_marseille","lat":43.283494,"lon":5.380945,"is_reserved":false,"is_disabled":false,"rental_uris":{"android":"levelo://app?vid=1f4a91ad-9e27-4727-8c23-86138d3098dd","ios":"levelo://app?vid=1f4a91ad-9e27-4727-8c23-86138d3098dd"},"vehicle_type_id":"4","last_reported":1703059674,"current_range_meters":26000,"station_id":"ce4bh412rcd13ifvqdr0","pricing_plan_id":"free"},{"bike_id":"3659e6fb-cc1b-4afb-a145-8c2043c8a252","system_id":"levelo_inurba_marseille","lat":43.283494,"lon":5.380945,"is_reserved":false,"is_disabled":false,"rental_uris":{"android":"levelo://app?vid=3659e6fb-cc1b-4afb-a145-8c2043c8a252","ios":"levelo://app?vid=3659e6fb-cc1b-4afb-a145-8c2043c8a252"},"vehicle_type_id":"4","last_reported":1703059674,"current_range_meters":22000,"station_id":"ce4bh412rcd13ifvqdr0","pricing_plan_id":"free"},{"bike_id":"b30b4287-5c16-4334-981c-465c24c05d06","system_id":"levelo_inurba_marseille","lat":43.288386,"lon":5.393189,"is_reserved":false,"is_disabled":false,"rental_uris":{"android":"levelo://app?vid=b30b4287-5c16-4334-981c-465c24c05d06","ios":"levelo://app?vid=b30b4287-5c16-4334-981c-465c24c05d06"},"vehicle_type_id":"4","last_reported":1703059674,"current_range_meters":24800,"station_id":"ce4bh2p2rcd13ifvqdi0","pricing_plan_id":"free"},{"bike_id":"93149546-b8fe-4f4c-8569-13fc229684a1","system_id":"levelo_inurba_marseille","lat":43.28414,"lon":5.3858,"is_reserved":false,"is_disabled":false,"rental_uris":{"android":"levelo://app?vid=93149546-b8fe-4f4c-8569-13fc229684a1","ios":"levelo://app?vid=93149546-b8fe-4f4c-8569-13fc229684a1"},"vehicle_type_id":"4","last_reported":1703059674,"current_range_meters":0,"station_id":"","pricing_plan_id":"free"},{"bike_id":"40847e16-e97b-42e1-a958-6f1908be2bf8","system_id":"levelo_inurba_marseille","lat":43.292724,"lon":5.401131,"is_reserved":false,"is_disabled":false,"rental_uris":{"android":"levelo://app?vid=40847e16-e97b-42e1-a958-6f1908be2bf8","ios":"levelo://app?vid=40847e16-e97b-42e1-a958-6f1908be2bf8"},"vehicle_type_id":"4","last_reported":1703059674,"current_range_meters":5600,"station_id":"ce4bh312rcd13ifvqdk0","pricing_plan_id":"free"},{"bike_id":"7a9c501a-a88f-4b20-a3be-0f05afe0b8e1","system_id":"levelo_inurba_marseille","lat":43.282696,"lon":5.350741,"is_reserved":false,"is_disabled":false,"rental_uris":{"android":"levelo://app?vid=7a9c501a-a88f-4b20-a3be-0f05afe0b8e1","ios":"levelo://app?vid=7a9c501a-a88f-4b20-a3be-0f05afe0b8e1"},"vehicle_type_id":"4","last_reported":1703059674,"current_range_meters":23600,"station_id":"ce4bhbp2rcd13ifvqerg","pricing_plan_id":"free"},{"bike_id":"ee3cae8c-a36b-4219-a5be-9ae177099b06","system_id":"levelo_inurba_marseille","lat":43.282689,"lon":5.350696,"is_reserved":false,"is_disabled":false,"rental_uris":{"android":"levelo://app?vid=ee3cae8c-a36b-4219-a5be-9ae177099b06","ios":"levelo://app?vid=ee3cae8c-a36b-4219-a5be-9ae177099b06"},"vehicle_type_id":"4","last_reported":1703059674,"current_range_meters":0,"station_id":"ce4bhbp2rcd13ifvqerg","pricing_plan_id":"free"},{"bike_id":"2fe4c2f8-c94b-46f7-b569-e5e3379780c6","system_id":"levelo_inurba_marseille","lat":43.282754,"lon":5.350519,"is_reserved":false,"is_disabled":false,"rental_uris":{"android":"levelo://app?vid=2fe4c2f8-c94b-46f7-b569-e5e3379780c6","ios":"levelo://app?vid=2fe4c2f8-c94b-46f7-b569-e5e3379780c6"},"vehicle_type_id":"4","last_reported":1703059674,"current_range_meters":26800,"station_id":"ce4bhbp2rcd13ifvqerg","pricing_plan_id":"free"},{"bike_id":"7415b361-4875-4231-90b5-c9caee2a9d88","system_id":"levelo_inurba_marseille","lat":43.282754,"lon":5.350519,"is_reserved":false,"is_disabled":false,"rental_uris":{"android":"levelo://app?vid=7415b361-4875-4231-90b5-c9caee2a9d88","ios":"levelo://app?vid=7415b361-4875-4231-90b5-c9caee2a9d88"},"vehicle_type_id":"4","last_reported":1703059674,"current_range_meters":23600,"station_id":"ce4bhbp2rcd13ifvqerg","pricing_plan_id":"free"},{"bike_id":"8787f213-9f40-4871-b5d9-3c56e6119455","system_id":"levelo_inurba_marseille","lat":43.295279,"lon":5.375048,"is_reserved":false,"is_disabled":false,"rental_uris":{"android":"levelo://app?vid=8787f213-9f40-4871-b5d9-3c56e6119455","ios":"levelo://app?vid=8787f213-9f40-4871-b5d9-3c56e6119455"},"vehicle_type_id":"4","last_reported":1703059674,"current_range_meters":20000,"station_id":"ce4bgkp2rcd13ifvqbmg","pricing_plan_id":"free"},{"bike_id":"ab40f06c-58ff-41bb-ac8e-cb66dbce0d4c","system_id":"levelo_inurba_marseille","lat":43.285742,"lon":5.395004,"is_reserved":false,"is_disabled":false,"rental_uris":{"android":"levelo://app?vid=ab40f06c-58ff-41bb-ac8e-cb66dbce0d4c","ios":"levelo://app?vid=ab40f06c-58ff-41bb-ac8e-cb66dbce0d4c"},"vehicle_type_id":"4","last_reported":1703059674,"current_range_meters":22800,"station_id":"ce4bh292rcd13ifvqdg0","pricing_plan_id":"free"},{"bike_id":"dff73551-36cc-49c0-b1df-9396c5826617","system_id":"levelo_inurba_marseille","lat":43.326605,"lon":5.409903,"is_reserved":false,"is_disabled":false,"rental_uris":{"android":"levelo://app?vid=dff73551-36cc-49c0-b1df-9396c5826617","ios":"levelo://app?vid=dff73551-36cc-49c0-b1df-9396c5826617"},"vehicle_type_id":"4","last_reported":1703059674,"current_range_meters":30000,"station_id":"ce4bhpp2rcd13ifvqhgg","pricing_plan_id":"free"},{"bike_id":"ba8ccf0d-1720-4419-8ea4-e40b7c0c1f2d","system_id":"levelo_inurba_marseille","lat":43.304188,"lon":5.412904,"is_reserved":false,"is_disabled":false,"rental_uris":{"android":"levelo://app?vid=ba8ccf0d-1720-4419-8ea4-e40b7c0c1f2d","ios":"levelo://app?vid=ba8ccf0d-1720-4419-8ea4-e40b7c0c1f2d"},"vehicle_type_id":"4","last_reported":1703059674,"current_range_meters":4800,"station_id":"ce4bhop2rcd13ifvqh8g","pricing_plan_id":"free"},{"bike_id":"d876af96-5744-47cb-86eb-5a0ecfae3873","system_id":"levelo_inurba_marseille","lat":43.304188,"lon":5.412904,"is_reserved":false,"is_disabled":false,"rental_uris":{"android":"levelo://app?vid=d876af96-5744-47cb-86eb-5a0ecfae3873","ios":"levelo://app?vid=d876af96-5744-47cb-86eb-5a0ecfae3873"},"vehicle_type_id":"4","last_reported":1703059674,"current_range_meters":32000,"station_id":"ce4bhop2rcd13ifvqh8g","pricing_plan_id":"free"},{"bike_id":"11af8c0c-f130-426a-bd52-51e7a92e1866","system_id":"levelo_inurba_marseille","lat":43.304188,"lon":5.412904,"is_reserved":false,"is_disabled":false,"rental_uris":{"android":"levelo://app?vid=11af8c0c-f130-426a-bd52-51e7a92e1866","ios":"levelo://app?vid=11af8c0c-f130-426a-bd52-51e7a92e1866"},"vehicle_type_id":"4","last_reported":1703059674,"current_range_meters":20800,"station_id":"ce4bhop2rcd13ifvqh8g","pricing_plan_id":"free"},{"bike_id":"cb0668d4-d46c-4efe-a7e0-185ebe495ab4","system_id":"levelo_inurba_marseille","lat":43.280555,"lon":5.389213,"is_reserved":false,"is_disabled":false,"rental_uris":{"android":"levelo://app?vid=cb0668d4-d46c-4efe-a7e0-185ebe495ab4","ios":"levelo://app?vid=cb0668d4-d46c-4efe-a7e0-185ebe495ab4"},"vehicle_type_id":"4","last_reported":1703059674,"current_range_meters":8400,"station_id":"","pricing_plan_id":"free"},{"bike_id":"5fda31ff-aa93-4835-bb41-9d2ac94a1a68","system_id":"levelo_inurba_marseille","lat":43.279742,"lon":5.38744,"is_reserved":false,"is_disabled":false,"rental_uris":{"android":"levelo://app?vid=5fda31ff-aa93-4835-bb41-9d2ac94a1a68","ios":"levelo://app?vid=5fda31ff-aa93-4835-bb41-9d2ac94a1a68"},"vehicle_type_id":"4","last_reported":1703059674,"current_range_meters":28400,"station_id":"ce4bhg12rcd13ifvqf80","pricing_plan_id":"free"},{"bike_id":"57d0dbc7-d639-49dc-b967-7050d0ba0ae5","system_id":"levelo_inurba_marseille","lat":43.32059,"lon":5.41551,"is_reserved":false,"is_disabled":false,"rental_uris":{"android":"levelo://app?vid=57d0dbc7-d639-49dc-b967-7050d0ba0ae5","ios":"levelo://app?vid=57d0dbc7-d639-49dc-b967-7050d0ba0ae5"},"vehicle_type_id":"4","last_reported":1703059674,"current_range_meters":30000,"station_id":"ce4bhq92rcd13ifvqhkg","pricing_plan_id":"free"},{"bike_id":"43222f69-2e16-4ba8-8634-20790177e194","system_id":"levelo_inurba_marseille","lat":43.279742,"lon":5.38744,"is_reserved":false,"is_disabled":false,"rental_uris":{"android":"levelo://app?vid=43222f69-2e16-4ba8-8634-20790177e194","ios":"levelo://app?vid=43222f69-2e16-4ba8-8634-20790177e194"},"vehicle_type_id":"4","last_reported":1703059674,"current_range_meters":26400,"station_id":"ce4bhg12rcd13ifvqf80","pricing_plan_id":"free"},{"bike_id":"226af74f-7eae-4caa-be3a-24ee3e02fc14","system_id":"levelo_inurba_marseille","lat":43.320045,"lon":5.415046,"is_reserved":false,"is_disabled":false,"rental_uris":{"android":"levelo://app?vid=226af74f-7eae-4caa-be3a-24ee3e02fc14","ios":"levelo://app?vid=226af74f-7eae-4caa-be3a-24ee3e02fc14"},"vehicle_type_id":"4","last_reported":1703059674,"current_range_meters":28400,"station_id":"ce4bhq92rcd13ifvqhkg","pricing_plan_id":"free"},{"bike_id":"869d9bfc-d88b-4084-b1cc-3830ccf3d31c","system_id":"levelo_inurba_marseille","lat":43.325243,"lon":5.414326,"is_reserved":false,"is_disabled":false,"rental_uris":{"android":"levelo://app?vid=869d9bfc-d88b-4084-b1cc-3830ccf3d31c","ios":"levelo://app?vid=869d9bfc-d88b-4084-b1cc-3830ccf3d31c"},"vehicle_type_id":"4","last_reported":1703059674,"current_range_meters":26400,"station_id":"ce4bhq12rcd13ifvqhhg","pricing_plan_id":"free"},{"bike_id":"436f8b28-2f3e-44be-8cc9-e3ebf856e4bd","system_id":"levelo_inurba_marseille","lat":43.325233,"lon":5.414318,"is_reserved":false,"is_disabled":false,"rental_uris":{"android":"levelo://app?vid=436f8b28-2f3e-44be-8cc9-e3ebf856e4bd","ios":"levelo://app?vid=436f8b28-2f3e-44be-8cc9-e3ebf856e4bd"},"vehicle_type_id":"4","last_reported":1703059674,"current_range_meters":6400,"station_id":"ce4bhq12rcd13ifvqhhg","pricing_plan_id":"free"},{"bike_id":"30969f41-666e-4fa7-98fc-9a50f431d74c","system_id":"levelo_inurba_marseille","lat":43.325233,"lon":5.414318,"is_reserved":false,"is_disabled":false,"rental_uris":{"android":"levelo://app?vid=30969f41-666e-4fa7-98fc-9a50f431d74c","ios":"levelo://app?vid=30969f41-666e-4fa7-98fc-9a50f431d74c"},"vehicle_type_id":"4","last_reported":1703059674,"current_range_meters":5600,"station_id":"ce4bhq12rcd13ifvqhhg","pricing_plan_id":"free"},{"bike_id":"6f33ed31-2cf3-4c0d-986d-ea050982e803","system_id":"levelo_inurba_marseille","lat":43.325243,"lon":5.414326,"is_reserved":false,"is_disabled":false,"rental_uris":{"android":"levelo://app?vid=6f33ed31-2cf3-4c0d-986d-ea050982e803","ios":"levelo://app?vid=6f33ed31-2cf3-4c0d-986d-ea050982e803"},"vehicle_type_id":"4","last_reported":1703059674,"current_range_meters":31200,"station_id":"ce4bhq12rcd13ifvqhhg","pricing_plan_id":"free"},{"bike_id":"1b4f30bd-f4bc-4a72-a741-107ee15699dd","system_id":"levelo_inurba_marseille","lat":43.286039,"lon":5.370681,"is_reserved":false,"is_disabled":false,"rental_uris":{"android":"levelo://app?vid=1b4f30bd-f4bc-4a72-a741-107ee15699dd","ios":"levelo://app?vid=1b4f30bd-f4bc-4a72-a741-107ee15699dd"},"vehicle_type_id":"4","last_reported":1703059674,"current_range_meters":22400,"station_id":"ce4bht12rcd13ifvqi60","pricing_plan_id":"free"},{"bike_id":"112e8372-ad9e-4b07-afab-061a205fdae9","system_id":"levelo_inurba_marseille","lat":43.280784,"lon":5.396622,"is_reserved":false,"is_disabled":false,"rental_uris":{"android":"levelo://app?vid=112e8372-ad9e-4b07-afab-061a205fdae9","ios":"levelo://app?vid=112e8372-ad9e-4b07-afab-061a205fdae9"},"vehicle_type_id":"4","last_reported":1703059674,"current_range_meters":20000,"station_id":"ce4bho12rcd13ifvqh2g","pricing_plan_id":"free"},{"bike_id":"c1d748db-f68c-4271-a026-3613d0168b40","system_id":"levelo_inurba_marseille","lat":43.303837,"lon":5.418724,"is_reserved":false,"is_disabled":false,"rental_uris":{"android":"levelo://app?vid=c1d748db-f68c-4271-a026-3613d0168b40","ios":"levelo://app?vid=c1d748db-f68c-4271-a026-3613d0168b40"},"vehicle_type_id":"4","last_reported":1703059674,"current_range_meters":30400,"station_id":"ce4bhop2rcd13ifvqh7g","pricing_plan_id":"free"},{"bike_id":"90b4cfcf-a872-4fc4-9669-668cb5b2d8f5","system_id":"levelo_inurba_marseille","lat":43.303837,"lon":5.418724,"is_reserved":false,"is_disabled":false,"rental_uris":{"android":"levelo://app?vid=90b4cfcf-a872-4fc4-9669-668cb5b2d8f5","ios":"levelo://app?vid=90b4cfcf-a872-4fc4-9669-668cb5b2d8f5"},"vehicle_type_id":"4","last_reported":1703059674,"current_range_meters":20800,"station_id":"ce4bhop2rcd13ifvqh7g","pricing_plan_id":"free"},{"bike_id":"a453e506-6946-4623-9512-82735d696064","system_id":"levelo_inurba_marseille","lat":43.273609,"lon":5.362708,"is_reserved":false,"is_disabled":false,"rental_uris":{"android":"levelo://app?vid=a453e506-6946-4623-9512-82735d696064","ios":"levelo://app?vid=a453e506-6946-4623-9512-82735d696064"},"vehicle_type_id":"4","last_reported":1703059674,"current_range_meters":28400,"station_id":"ce4bhbh2rcd13ifvqeo0","pricing_plan_id":"free"},{"bike_id":"1d93ec60-73c7-436f-95e3-d922d6bfe355","system_id":"levelo_inurba_marseille","lat":43.336134,"lon":5.410341,"is_reserved":false,"is_disabled":false,"rental_uris":{"android":"levelo://app?vid=1d93ec60-73c7-436f-95e3-d922d6bfe355","ios":"levelo://app?vid=1d93ec60-73c7-436f-95e3-d922d6bfe355"},"vehicle_type_id":"4","last_reported":1703059674,"current_range_meters":17600,"station_id":"ce4bhqh2rcd13ifvqhmg","pricing_plan_id":"free"},{"bike_id":"1fb16d4d-fd06-4bcc-b2bc-a93332653bb1","system_id":"levelo_inurba_marseille","lat":43.336148,"lon":5.410349,"is_reserved":false,"is_disabled":false,"rental_uris":{"android":"levelo://app?vid=1fb16d4d-fd06-4bcc-b2bc-a93332653bb1","ios":"levelo://app?vid=1fb16d4d-fd06-4bcc-b2bc-a93332653bb1"},"vehicle_type_id":"4","last_reported":1703059674,"current_range_meters":24000,"station_id":"ce4bhqh2rcd13ifvqhmg","pricing_plan_id":"free"},{"bike_id":"6aeb72c6-7795-421e-8c99-8e89a08bfac6","system_id":"levelo_inurba_marseille","lat":43.317121,"lon":5.423936,"is_reserved":false,"is_disabled":false,"rental_uris":{"android":"levelo://app?vid=6aeb72c6-7795-421e-8c99-8e89a08bfac6","ios":"levelo://app?vid=6aeb72c6-7795-421e-8c99-8e89a08bfac6"},"vehicle_type_id":"4","last_reported":1703059674,"current_range_meters":30400,"station_id":"ce4bhp92rcd13ifvqhbg","pricing_plan_id":"free"},{"bike_id":"f563a6d3-213c-44ad-8944-e6ba2371f2bb","system_id":"levelo_inurba_marseille","lat":43.310785,"lon":5.424305,"is_reserved":false,"is_disabled":false,"rental_uris":{"android":"levelo://app?vid=f563a6d3-213c-44ad-8944-e6ba2371f2bb","ios":"levelo://app?vid=f563a6d3-213c-44ad-8944-e6ba2371f2bb"},"vehicle_type_id":"4","last_reported":1703059674,"current_range_meters":800,"station_id":"ce4bhp92rcd13ifvqhag","pricing_plan_id":"free"},{"bike_id":"a5be1e0a-9870-48c1-b934-a7e079d58b9c","system_id":"levelo_inurba_marseille","lat":43.310785,"lon":5.424305,"is_reserved":false,"is_disabled":false,"rental_uris":{"android":"levelo://app?vid=a5be1e0a-9870-48c1-b934-a7e079d58b9c","ios":"levelo://app?vid=a5be1e0a-9870-48c1-b934-a7e079d58b9c"},"vehicle_type_id":"4","last_reported":1703059674,"current_range_meters":5600,"station_id":"ce4bhp92rcd13ifvqhag","pricing_plan_id":"free"},{"bike_id":"a186b623-a02e-4b49-b9f8-d08ed118be67","system_id":"levelo_inurba_marseille","lat":43.310785,"lon":5.424305,"is_reserved":false,"is_disabled":false,"rental_uris":{"android":"levelo://app?vid=a186b623-a02e-4b49-b9f8-d08ed118be67","ios":"levelo://app?vid=a186b623-a02e-4b49-b9f8-d08ed118be67"},"vehicle_type_id":"4","last_reported":1703059674,"current_range_meters":28800,"station_id":"ce4bhp92rcd13ifvqhag","pricing_plan_id":"free"},{"bike_id":"061ded04-92b0-4ac8-810c-8041c4969c76","system_id":"levelo_inurba_marseille","lat":43.340804,"lon":5.410219,"is_reserved":false,"is_disabled":false,"rental_uris":{"android":"levelo://app?vid=061ded04-92b0-4ac8-810c-8041c4969c76","ios":"levelo://app?vid=061ded04-92b0-4ac8-810c-8041c4969c76"},"vehicle_type_id":"4","last_reported":1703059674,"current_range_meters":30000,"station_id":"ce4bhqh2rcd13ifvqhlg","pricing_plan_id":"free"},{"bike_id":"974dc7db-ff3c-4554-8964-132f9db52d9b","system_id":"levelo_inurba_marseille","lat":43.276092,"lon":5.395289,"is_reserved":false,"is_disabled":false,"rental_uris":{"android":"levelo://app?vid=974dc7db-ff3c-4554-8964-132f9db52d9b","ios":"levelo://app?vid=974dc7db-ff3c-4554-8964-132f9db52d9b"},"vehicle_type_id":"4","last_reported":1703059674,"current_range_meters":4400,"station_id":"","pricing_plan_id":"free"},{"bike_id":"f61273f1-fb01-47e3-91fc-38dcc0745003","system_id":"levelo_inurba_marseille","lat":43.274099,"lon":5.394019,"is_reserved":false,"is_disabled":false,"rental_uris":{"android":"levelo://app?vid=f61273f1-fb01-47e3-91fc-38dcc0745003","ios":"levelo://app?vid=f61273f1-fb01-47e3-91fc-38dcc0745003"},"vehicle_type_id":"4","last_reported":1703059674,"current_range_meters":21200,"station_id":"ce4bhdp2rcd13ifvqf20","pricing_plan_id":"free"},{"bike_id":"fc279eb2-eb29-46f4-ad46-59a8192e0b15","system_id":"levelo_inurba_marseille","lat":43.273129,"lon":5.390725,"is_reserved":false,"is_disabled":false,"rental_uris":{"android":"levelo://app?vid=fc279eb2-eb29-46f4-ad46-59a8192e0b15","ios":"levelo://app?vid=fc279eb2-eb29-46f4-ad46-59a8192e0b15"},"vehicle_type_id":"4","last_reported":1703059674,"current_range_meters":31600,"station_id":"ce4bhgp2rcd13ifvqfe0","pricing_plan_id":"free"},{"bike_id":"4e072d17-e83e-42e4-8405-0e02653547e0","system_id":"levelo_inurba_marseille","lat":43.273129,"lon":5.390725,"is_reserved":false,"is_disabled":false,"rental_uris":{"android":"levelo://app?vid=4e072d17-e83e-42e4-8405-0e02653547e0","ios":"levelo://app?vid=4e072d17-e83e-42e4-8405-0e02653547e0"},"vehicle_type_id":"4","last_reported":1703059674,"current_range_meters":20000,"station_id":"ce4bhgp2rcd13ifvqfe0","pricing_plan_id":"free"},{"bike_id":"382db5d5-d965-4c2d-a0d4-045593f21784","system_id":"levelo_inurba_marseille","lat":43.273129,"lon":5.390725,"is_reserved":false,"is_disabled":false,"rental_uris":{"android":"levelo://app?vid=382db5d5-d965-4c2d-a0d4-045593f21784","ios":"levelo://app?vid=382db5d5-d965-4c2d-a0d4-045593f21784"},"vehicle_type_id":"4","last_reported":1703059674,"current_range_meters":23200,"station_id":"ce4bhgp2rcd13ifvqfe0","pricing_plan_id":"free"},{"bike_id":"20d24d8f-e0a6-4c49-afb4-dfd01309b431","system_id":"levelo_inurba_marseille","lat":43.304096,"lon":5.425385,"is_reserved":false,"is_disabled":false,"rental_uris":{"android":"levelo://app?vid=20d24d8f-e0a6-4c49-afb4-dfd01309b431","ios":"levelo://app?vid=20d24d8f-e0a6-4c49-afb4-dfd01309b431"},"vehicle_type_id":"4","last_reported":1703059674,"current_range_meters":24000,"station_id":"ce4bhoh2rcd13ifvqh6g","pricing_plan_id":"free"},{"bike_id":"74ad3ea7-7faf-459c-94a5-6416f79bac0d","system_id":"levelo_inurba_marseille","lat":43.304096,"lon":5.425385,"is_reserved":false,"is_disabled":false,"rental_uris":{"android":"levelo://app?vid=74ad3ea7-7faf-459c-94a5-6416f79bac0d","ios":"levelo://app?vid=74ad3ea7-7faf-459c-94a5-6416f79bac0d"},"vehicle_type_id":"4","last_reported":1703059674,"current_range_meters":28000,"station_id":"ce4bhoh2rcd13ifvqh6g","pricing_plan_id":"free"},{"bike_id":"cc6f4ccb-a02c-4c62-8f36-93c11fae1473","system_id":"levelo_inurba_marseille","lat":43.304096,"lon":5.425385,"is_reserved":false,"is_disabled":false,"rental_uris":{"android":"levelo://app?vid=cc6f4ccb-a02c-4c62-8f36-93c11fae1473","ios":"levelo://app?vid=cc6f4ccb-a02c-4c62-8f36-93c11fae1473"},"vehicle_type_id":"4","last_reported":1703059674,"current_range_meters":1200,"station_id":"ce4bhoh2rcd13ifvqh6g","pricing_plan_id":"free"},{"bike_id":"0676b1a1-a1d9-43b8-b094-1492c8f80da3","system_id":"levelo_inurba_marseille","lat":43.2715,"lon":5.386795,"is_reserved":false,"is_disabled":false,"rental_uris":{"android":"levelo://app?vid=0676b1a1-a1d9-43b8-b094-1492c8f80da3","ios":"levelo://app?vid=0676b1a1-a1d9-43b8-b094-1492c8f80da3"},"vehicle_type_id":"4","last_reported":1703059674,"current_range_meters":20000,"station_id":"ce4bhh92rcd13ifvqfh0","pricing_plan_id":"free"},{"bike_id":"4e49c857-db9f-478b-81dc-a84c4cb61ae4","system_id":"levelo_inurba_marseille","lat":43.295523,"lon":5.422926,"is_reserved":false,"is_disabled":false,"rental_uris":{"android":"levelo://app?vid=4e49c857-db9f-478b-81dc-a84c4cb61ae4","ios":"levelo://app?vid=4e49c857-db9f-478b-81dc-a84c4cb61ae4"},"vehicle_type_id":"4","last_reported":1703059674,"current_range_meters":27200,"station_id":"ce4bhph2rcd13ifvqhdg","pricing_plan_id":"free"},{"bike_id":"ca314493-3848-477b-95b3-e1722a7aef04","system_id":"levelo_inurba_marseille","lat":43.295164,"lon":5.422649,"is_reserved":false,"is_disabled":false,"rental_uris":{"android":"levelo://app?vid=ca314493-3848-477b-95b3-e1722a7aef04","ios":"levelo://app?vid=ca314493-3848-477b-95b3-e1722a7aef04"},"vehicle_type_id":"4","last_reported":1703059674,"current_range_meters":12000,"station_id":"ce4bhph2rcd13ifvqhdg","pricing_plan_id":"free"},{"bike_id":"5219db9d-6748-4e3f-b95f-30eb61f4979d","system_id":"levelo_inurba_marseille","lat":43.27188,"lon":5.39224,"is_reserved":false,"is_disabled":false,"rental_uris":{"android":"levelo://app?vid=5219db9d-6748-4e3f-b95f-30eb61f4979d","ios":"levelo://app?vid=5219db9d-6748-4e3f-b95f-30eb61f4979d"},"vehicle_type_id":"4","last_reported":1703059674,"current_range_meters":7200,"station_id":"ce4bhhp2rcd13ifvqfm0","pricing_plan_id":"free"},{"bike_id":"86ba771b-8036-4328-8521-cd352f9677c5","system_id":"levelo_inurba_marseille","lat":43.27812,"lon":5.40707,"is_reserved":false,"is_disabled":false,"rental_uris":{"android":"levelo://app?vid=86ba771b-8036-4328-8521-cd352f9677c5","ios":"levelo://app?vid=86ba771b-8036-4328-8521-cd352f9677c5"},"vehicle_type_id":"4","last_reported":1703059674,"current_range_meters":0,"station_id":"ce4bhnh2rcd13ifvqgtg","pricing_plan_id":"free"},{"bike_id":"06232609-f273-42b9-b6ad-260e03376307","system_id":"levelo_inurba_marseille","lat":43.269467,"lon":5.386439,"is_reserved":false,"is_disabled":false,"rental_uris":{"android":"levelo://app?vid=06232609-f273-42b9-b6ad-260e03376307","ios":"levelo://app?vid=06232609-f273-42b9-b6ad-260e03376307"},"vehicle_type_id":"4","last_reported":1703059674,"current_range_meters":26000,"station_id":"ce4bhh92rcd13ifvqfh0","pricing_plan_id":"free"},{"bike_id":"9277261b-cc94-495b-b82e-75b0a9f4cc4c","system_id":"levelo_inurba_marseille","lat":43.269467,"lon":5.386439,"is_reserved":false,"is_disabled":false,"rental_uris":{"android":"levelo://app?vid=9277261b-cc94-495b-b82e-75b0a9f4cc4c","ios":"levelo://app?vid=9277261b-cc94-495b-b82e-75b0a9f4cc4c"},"vehicle_type_id":"4","last_reported":1703059674,"current_range_meters":13600,"station_id":"ce4bhh92rcd13ifvqfh0","pricing_plan_id":"free"},{"bike_id":"78298fa7-85ee-4118-a05f-7c086a5c60b5","system_id":"levelo_inurba_marseille","lat":43.26929,"lon":5.38916,"is_reserved":false,"is_disabled":false,"rental_uris":{"android":"levelo://app?vid=78298fa7-85ee-4118-a05f-7c086a5c60b5","ios":"levelo://app?vid=78298fa7-85ee-4118-a05f-7c086a5c60b5"},"vehicle_type_id":"4","last_reported":1703059674,"current_range_meters":26000,"station_id":"ce4bhhh2rcd13ifvqfl0","pricing_plan_id":"free"},{"bike_id":"ceff0ee1-8ef2-464c-b836-96b31bb342aa","system_id":"levelo_inurba_marseille","lat":43.26681,"lon":5.382694,"is_reserved":false,"is_disabled":false,"rental_uris":{"android":"levelo://app?vid=ceff0ee1-8ef2-464c-b836-96b31bb342aa","ios":"levelo://app?vid=ceff0ee1-8ef2-464c-b836-96b31bb342aa"},"vehicle_type_id":"4","last_reported":1703059674,"current_range_meters":7200,"station_id":"ce4bhg92rcd13ifvqf90","pricing_plan_id":"free"},{"bike_id":"5b45b761-4839-4efd-91aa-210f7a11b582","system_id":"levelo_inurba_marseille","lat":43.26681,"lon":5.382694,"is_reserved":false,"is_disabled":false,"rental_uris":{"android":"levelo://app?vid=5b45b761-4839-4efd-91aa-210f7a11b582","ios":"levelo://app?vid=5b45b761-4839-4efd-91aa-210f7a11b582"},"vehicle_type_id":"4","last_reported":1703059674,"current_range_meters":28800,"station_id":"ce4bhg92rcd13ifvqf90","pricing_plan_id":"free"},{"bike_id":"737ee436-98f5-467c-99b6-4bc4aee938b8","system_id":"levelo_inurba_marseille","lat":43.26681,"lon":5.382694,"is_reserved":false,"is_disabled":false,"rental_uris":{"android":"levelo://app?vid=737ee436-98f5-467c-99b6-4bc4aee938b8","ios":"levelo://app?vid=737ee436-98f5-467c-99b6-4bc4aee938b8"},"vehicle_type_id":"4","last_reported":1703059674,"current_range_meters":14800,"station_id":"ce4bhg92rcd13ifvqf90","pricing_plan_id":"free"},{"bike_id":"e388aba6-4ee6-4fa1-8053-04490a12388c","system_id":"levelo_inurba_marseille","lat":43.26681,"lon":5.382694,"is_reserved":false,"is_disabled":false,"rental_uris":{"android":"levelo://app?vid=e388aba6-4ee6-4fa1-8053-04490a12388c","ios":"levelo://app?vid=e388aba6-4ee6-4fa1-8053-04490a12388c"},"vehicle_type_id":"4","last_reported":1703059674,"current_range_meters":28400,"station_id":"ce4bhg92rcd13ifvqf90","pricing_plan_id":"free"},{"bike_id":"eb9a43a9-eb2e-4e0d-bbab-497f17c61f38","system_id":"levelo_inurba_marseille","lat":43.26681,"lon":5.382694,"is_reserved":false,"is_disabled":false,"rental_uris":{"android":"levelo://app?vid=eb9a43a9-eb2e-4e0d-bbab-497f17c61f38","ios":"levelo://app?vid=eb9a43a9-eb2e-4e0d-bbab-497f17c61f38"},"vehicle_type_id":"4","last_reported":1703059674,"current_range_meters":29600,"station_id":"ce4bhg92rcd13ifvqf90","pricing_plan_id":"free"},{"bike_id":"09e167d9-1e43-44cd-bb41-c920384897db","system_id":"levelo_inurba_marseille","lat":43.26681,"lon":5.382694,"is_reserved":false,"is_disabled":false,"rental_uris":{"android":"levelo://app?vid=09e167d9-1e43-44cd-bb41-c920384897db","ios":"levelo://app?vid=09e167d9-1e43-44cd-bb41-c920384897db"},"vehicle_type_id":"4","last_reported":1703059674,"current_range_meters":29200,"station_id":"ce4bhg92rcd13ifvqf90","pricing_plan_id":"free"},{"bike_id":"645c7307-be30-4ea3-b9ba-658e7b2a1180","system_id":"levelo_inurba_marseille","lat":43.265714,"lon":5.372891,"is_reserved":false,"is_disabled":false,"rental_uris":{"android":"levelo://app?vid=645c7307-be30-4ea3-b9ba-658e7b2a1180","ios":"levelo://app?vid=645c7307-be30-4ea3-b9ba-658e7b2a1180"},"vehicle_type_id":"4","last_reported":1703059674,"current_range_meters":20000,"station_id":"ce4bhg12rcd13ifvqf70","pricing_plan_id":"free"},{"bike_id":"bff86de4-20fc-4d8b-ad9c-4ba419fa426f","system_id":"levelo_inurba_marseille","lat":43.265714,"lon":5.372891,"is_reserved":false,"is_disabled":false,"rental_uris":{"android":"levelo://app?vid=bff86de4-20fc-4d8b-ad9c-4ba419fa426f","ios":"levelo://app?vid=bff86de4-20fc-4d8b-ad9c-4ba419fa426f"},"vehicle_type_id":"4","last_reported":1703059674,"current_range_meters":27600,"station_id":"ce4bhg12rcd13ifvqf70","pricing_plan_id":"free"},{"bike_id":"02c55a47-17fb-4a62-ae38-c5e925a326f0","system_id":"levelo_inurba_marseille","lat":43.26466,"lon":5.36907,"is_reserved":false,"is_disabled":false,"rental_uris":{"android":"levelo://app?vid=02c55a47-17fb-4a62-ae38-c5e925a326f0","ios":"levelo://app?vid=02c55a47-17fb-4a62-ae38-c5e925a326f0"},"vehicle_type_id":"4","last_reported":1703059674,"current_range_meters":8400,"station_id":"","pricing_plan_id":"free"},{"bike_id":"5d6c9c5f-a22a-4f35-9ad5-c2cca2410b0d","system_id":"levelo_inurba_marseille","lat":43.265569,"lon":5.390047,"is_reserved":false,"is_disabled":false,"rental_uris":{"android":"levelo://app?vid=5d6c9c5f-a22a-4f35-9ad5-c2cca2410b0d","ios":"levelo://app?vid=5d6c9c5f-a22a-4f35-9ad5-c2cca2410b0d"},"vehicle_type_id":"4","last_reported":1703059674,"current_range_meters":11600,"station_id":"ce4bhe12rcd13ifvqf30","pricing_plan_id":"free"},{"bike_id":"9259c489-cbec-44bf-a48a-67a51409fea6","system_id":"levelo_inurba_marseille","lat":43.308051,"lon":5.43527,"is_reserved":false,"is_disabled":false,"rental_uris":{"android":"levelo://app?vid=9259c489-cbec-44bf-a48a-67a51409fea6","ios":"levelo://app?vid=9259c489-cbec-44bf-a48a-67a51409fea6"},"vehicle_type_id":"4","last_reported":1703059674,"current_range_meters":0,"station_id":"ce4bhph2rcd13ifvqheg","pricing_plan_id":"free"},{"bike_id":"c24988ba-0089-45d3-844a-c8dcb6388cc1","system_id":"levelo_inurba_marseille","lat":43.265571,"lon":5.390032,"is_reserved":false,"is_disabled":false,"rental_uris":{"android":"levelo://app?vid=c24988ba-0089-45d3-844a-c8dcb6388cc1","ios":"levelo://app?vid=c24988ba-0089-45d3-844a-c8dcb6388cc1"},"vehicle_type_id":"4","last_reported":1703059674,"current_range_meters":29200,"station_id":"ce4bhe12rcd13ifvqf30","pricing_plan_id":"free"},{"bike_id":"66acbebd-06cf-4535-b19e-b1ad02a2c4b9","system_id":"levelo_inurba_marseille","lat":43.26949,"lon":5.40262,"is_reserved":false,"is_disabled":false,"rental_uris":{"android":"levelo://app?vid=66acbebd-06cf-4535-b19e-b1ad02a2c4b9","ios":"levelo://app?vid=66acbebd-06cf-4535-b19e-b1ad02a2c4b9"},"vehicle_type_id":"4","last_reported":1703059674,"current_range_meters":21600,"station_id":"cjm6bp8fraef2m0cb0m0","pricing_plan_id":"free"},{"bike_id":"115d0a5d-31fb-4ee2-a4f2-6df133f32c7e","system_id":"levelo_inurba_marseille","lat":43.26949,"lon":5.40262,"is_reserved":false,"is_disabled":false,"rental_uris":{"android":"levelo://app?vid=115d0a5d-31fb-4ee2-a4f2-6df133f32c7e","ios":"levelo://app?vid=115d0a5d-31fb-4ee2-a4f2-6df133f32c7e"},"vehicle_type_id":"4","last_reported":1703059674,"current_range_meters":14400,"station_id":"cjm6bp8fraef2m0cb0m0","pricing_plan_id":"free"},{"bike_id":"2935b89d-3131-47ca-bc2d-e678e39066e8","system_id":"levelo_inurba_marseille","lat":43.317104,"lon":5.436818,"is_reserved":false,"is_disabled":false,"rental_uris":{"android":"levelo://app?vid=2935b89d-3131-47ca-bc2d-e678e39066e8","ios":"levelo://app?vid=2935b89d-3131-47ca-bc2d-e678e39066e8"},"vehicle_type_id":"4","last_reported":1703059674,"current_range_meters":32000,"station_id":"ce4bhp92rcd13ifvqhcg","pricing_plan_id":"free"},{"bike_id":"8e180a3b-3993-43d3-a094-9d9f7f8ee14a","system_id":"levelo_inurba_marseille","lat":43.317104,"lon":5.436818,"is_reserved":false,"is_disabled":false,"rental_uris":{"android":"levelo://app?vid=8e180a3b-3993-43d3-a094-9d9f7f8ee14a","ios":"levelo://app?vid=8e180a3b-3993-43d3-a094-9d9f7f8ee14a"},"vehicle_type_id":"4","last_reported":1703059674,"current_range_meters":26400,"station_id":"ce4bhp92rcd13ifvqhcg","pricing_plan_id":"free"},{"bike_id":"a1737239-074a-48ff-925e-03345e784648","system_id":"levelo_inurba_marseille","lat":43.271388,"lon":5.409269,"is_reserved":false,"is_disabled":false,"rental_uris":{"android":"levelo://app?vid=a1737239-074a-48ff-925e-03345e784648","ios":"levelo://app?vid=a1737239-074a-48ff-925e-03345e784648"},"vehicle_type_id":"4","last_reported":1703059674,"current_range_meters":32000,"station_id":"ce4bhl12rcd13ifvqgf0","pricing_plan_id":"free"},{"bike_id":"6db845f7-a0d8-4498-9983-65971254c0bf","system_id":"levelo_inurba_marseille","lat":43.26202,"lon":5.379299,"is_reserved":false,"is_disabled":false,"rental_uris":{"android":"levelo://app?vid=6db845f7-a0d8-4498-9983-65971254c0bf","ios":"levelo://app?vid=6db845f7-a0d8-4498-9983-65971254c0bf"},"vehicle_type_id":"4","last_reported":1703059674,"current_range_meters":31200,"station_id":"ce4bhjp2rcd13ifvqg90","pricing_plan_id":"free"},{"bike_id":"b68d8b4f-876b-4a79-aa6f-f8dbf9961b59","system_id":"levelo_inurba_marseille","lat":43.271388,"lon":5.409269,"is_reserved":false,"is_disabled":false,"rental_uris":{"android":"levelo://app?vid=b68d8b4f-876b-4a79-aa6f-f8dbf9961b59","ios":"levelo://app?vid=b68d8b4f-876b-4a79-aa6f-f8dbf9961b59"},"vehicle_type_id":"4","last_reported":1703059674,"current_range_meters":6400,"station_id":"ce4bhl12rcd13ifvqgf0","pricing_plan_id":"free"},{"bike_id":"6dc4f97f-18b6-40e5-a88e-eaadff8f47ae","system_id":"levelo_inurba_marseille","lat":43.2479,"lon":5.374457,"is_reserved":false,"is_disabled":false,"rental_uris":{"android":"levelo://app?vid=6dc4f97f-18b6-40e5-a88e-eaadff8f47ae","ios":"levelo://app?vid=6dc4f97f-18b6-40e5-a88e-eaadff8f47ae"},"vehicle_type_id":"4","last_reported":1703059674,"current_range_meters":25200,"station_id":"ce4bhgh2rcd13ifvqfb0","pricing_plan_id":"free"},{"bike_id":"26fc4576-442e-4443-bb0b-6506185b2806","system_id":"levelo_inurba_marseille","lat":43.281548,"lon":5.42643,"is_reserved":false,"is_disabled":false,"rental_uris":{"android":"levelo://app?vid=26fc4576-442e-4443-bb0b-6506185b2806","ios":"levelo://app?vid=26fc4576-442e-4443-bb0b-6506185b2806"},"vehicle_type_id":"4","last_reported":1703059674,"current_range_meters":24800,"station_id":"ce4bhnh2rcd13ifvqgug","pricing_plan_id":"free"},{"bike_id":"8b37efb2-d584-4683-923d-4c071a17ef43","system_id":"levelo_inurba_marseille","lat":43.281548,"lon":5.42643,"is_reserved":false,"is_disabled":false,"rental_uris":{"android":"levelo://app?vid=8b37efb2-d584-4683-923d-4c071a17ef43","ios":"levelo://app?vid=8b37efb2-d584-4683-923d-4c071a17ef43"},"vehicle_type_id":"4","last_reported":1703059674,"current_range_meters":16800,"station_id":"ce4bhnh2rcd13ifvqgug","pricing_plan_id":"free"},{"bike_id":"471704bc-e596-46d9-a15c-fa339e971728","system_id":"levelo_inurba_marseille","lat":43.281548,"lon":5.42643,"is_reserved":false,"is_disabled":false,"rental_uris":{"android":"levelo://app?vid=471704bc-e596-46d9-a15c-fa339e971728","ios":"levelo://app?vid=471704bc-e596-46d9-a15c-fa339e971728"},"vehicle_type_id":"4","last_reported":1703059674,"current_range_meters":25200,"station_id":"ce4bhnh2rcd13ifvqgug","pricing_plan_id":"free"},{"bike_id":"9813e35e-0432-47c0-aea0-77b90f04d4ab","system_id":"levelo_inurba_marseille","lat":43.281548,"lon":5.42643,"is_reserved":false,"is_disabled":false,"rental_uris":{"android":"levelo://app?vid=9813e35e-0432-47c0-aea0-77b90f04d4ab","ios":"levelo://app?vid=9813e35e-0432-47c0-aea0-77b90f04d4ab"},"vehicle_type_id":"4","last_reported":1703059674,"current_range_meters":31600,"station_id":"ce4bhnh2rcd13ifvqgug","pricing_plan_id":"free"},{"bike_id":"00f8273d-4682-4e65-962c-ee6ea9bd1a5b","system_id":"levelo_inurba_marseille","lat":43.281548,"lon":5.42643,"is_reserved":false,"is_disabled":false,"rental_uris":{"android":"levelo://app?vid=00f8273d-4682-4e65-962c-ee6ea9bd1a5b","ios":"levelo://app?vid=00f8273d-4682-4e65-962c-ee6ea9bd1a5b"},"vehicle_type_id":"4","last_reported":1703059674,"current_range_meters":26800,"station_id":"ce4bhnh2rcd13ifvqgug","pricing_plan_id":"free"},{"bike_id":"c19ec7be-7ef0-4212-b41f-5bdcd0c24469","system_id":"levelo_inurba_marseille","lat":43.281548,"lon":5.42643,"is_reserved":false,"is_disabled":false,"rental_uris":{"android":"levelo://app?vid=c19ec7be-7ef0-4212-b41f-5bdcd0c24469","ios":"levelo://app?vid=c19ec7be-7ef0-4212-b41f-5bdcd0c24469"},"vehicle_type_id":"4","last_reported":1703059674,"current_range_meters":25600,"station_id":"ce4bhnh2rcd13ifvqgug","pricing_plan_id":"free"},{"bike_id":"242a9ead-89d4-4832-bbda-e6a6ad06bccf","system_id":"levelo_inurba_marseille","lat":43.2607,"lon":5.393983,"is_reserved":false,"is_disabled":false,"rental_uris":{"android":"levelo://app?vid=242a9ead-89d4-4832-bbda-e6a6ad06bccf","ios":"levelo://app?vid=242a9ead-89d4-4832-bbda-e6a6ad06bccf"},"vehicle_type_id":"4","last_reported":1703059674,"current_range_meters":11600,"station_id":"ce4bhh92rcd13ifvqfj0","pricing_plan_id":"free"},{"bike_id":"d3649ec2-1ebf-4f9c-be7b-62da3a5b4ed8","system_id":"levelo_inurba_marseille","lat":43.275028,"lon":5.424534,"is_reserved":false,"is_disabled":false,"rental_uris":{"android":"levelo://app?vid=d3649ec2-1ebf-4f9c-be7b-62da3a5b4ed8","ios":"levelo://app?vid=d3649ec2-1ebf-4f9c-be7b-62da3a5b4ed8"},"vehicle_type_id":"4","last_reported":1703059674,"current_range_meters":25600,"station_id":"ce4bhn92rcd13ifvqgrg","pricing_plan_id":"free"},{"bike_id":"3c959548-c43f-4e1b-95bc-c6b2df3d9e8a","system_id":"levelo_inurba_marseille","lat":43.275028,"lon":5.424534,"is_reserved":false,"is_disabled":false,"rental_uris":{"android":"levelo://app?vid=3c959548-c43f-4e1b-95bc-c6b2df3d9e8a","ios":"levelo://app?vid=3c959548-c43f-4e1b-95bc-c6b2df3d9e8a"},"vehicle_type_id":"4","last_reported":1703059674,"current_range_meters":22800,"station_id":"ce4bhn92rcd13ifvqgrg","pricing_plan_id":"free"},{"bike_id":"6c2ea656-a101-4d49-968c-62d008e61659","system_id":"levelo_inurba_marseille","lat":43.275028,"lon":5.424534,"is_reserved":false,"is_disabled":false,"rental_uris":{"android":"levelo://app?vid=6c2ea656-a101-4d49-968c-62d008e61659","ios":"levelo://app?vid=6c2ea656-a101-4d49-968c-62d008e61659"},"vehicle_type_id":"4","last_reported":1703059674,"current_range_meters":23200,"station_id":"ce4bhn92rcd13ifvqgrg","pricing_plan_id":"free"},{"bike_id":"e80f6d1f-251f-49b5-b365-7323e73f574b","system_id":"levelo_inurba_marseille","lat":43.27499,"lon":5.42448,"is_reserved":false,"is_disabled":false,"rental_uris":{"android":"levelo://app?vid=e80f6d1f-251f-49b5-b365-7323e73f574b","ios":"levelo://app?vid=e80f6d1f-251f-49b5-b365-7323e73f574b"},"vehicle_type_id":"4","last_reported":1703059674,"current_range_meters":12400,"station_id":"ce4bhn92rcd13ifvqgrg","pricing_plan_id":"free"},{"bike_id":"e661db45-04c8-421c-83a9-60d211cae479","system_id":"levelo_inurba_marseille","lat":43.27497,"lon":5.42446,"is_reserved":false,"is_disabled":false,"rental_uris":{"android":"levelo://app?vid=e661db45-04c8-421c-83a9-60d211cae479","ios":"levelo://app?vid=e661db45-04c8-421c-83a9-60d211cae479"},"vehicle_type_id":"4","last_reported":1703059674,"current_range_meters":12800,"station_id":"ce4bhn92rcd13ifvqgrg","pricing_plan_id":"free"},{"bike_id":"07e635df-75f2-40e9-bb31-f5cdf7d9c882","system_id":"levelo_inurba_marseille","lat":43.275028,"lon":5.424534,"is_reserved":false,"is_disabled":false,"rental_uris":{"android":"levelo://app?vid=07e635df-75f2-40e9-bb31-f5cdf7d9c882","ios":"levelo://app?vid=07e635df-75f2-40e9-bb31-f5cdf7d9c882"},