{"last_updated":1706492421,"ttl":30,"version":"2.2","data":{"bikes":[{"bike_id":"26eb7c4c-d820-4609-a57f-4739d1caec33","system_id":"levelo_inurba_marseille","lat":43.31341,"lon":5.367098,"is_reserved":false,"is_disabled":false,"rental_uris":{"android":"levelo://app?vid=26eb7c4c-d820-4609-a57f-4739d1caec33","ios":"levelo://app?vid=26eb7c4c-d820-4609-a57f-4739d1caec33"},"vehicle_type_id":"4","last_reported":1706492421,"current_range_meters":28000,"station_id":"ce4bgr92rcd13ifvqc6g","pricing_plan_id":"free"},{"bike_id":"1c96df42-530b-42db-aca0-49b72ed889fd","system_id":"levelo_inurba_marseille","lat":43.312306,"lon":5.368561,"is_reserved":false,"is_disabled":false,"rental_uris":{"android":"levelo://app?vid=1c96df42-530b-42db-aca0-49b72ed889fd","ios":"levelo://app?vid=1c96df42-530b-42db-aca0-49b72ed889fd"},"vehicle_type_id":"4","last_reported":1706492421,"current_range_meters":14400,"station_id":"ce4bgl92rcd13ifvqbq0","pricing_plan_id":"free"},{"bike_id":"7dd3ff27-4e87-4cff-859a-d94a428d0541","system_id":"levelo_inurba_marseille","lat":43.312234,"lon":5.368529,"is_reserved":false,"is_disabled":false,"rental_uris":{"android":"levelo://app?vid=7dd3ff27-4e87-4cff-859a-d94a428d0541","ios":"levelo://app?vid=7dd3ff27-4e87-4cff-859a-d94a428d0541"},"vehicle_type_id":"4","last_reported":1706492421,"current_range_meters":18000,"station_id":"ce4bgl92rcd13ifvqbq0","pricing_plan_id":"free"},{"bike_id":"b11e82af-1d64-487c-b045-d20421ae8f74","system_id":"levelo_inurba_marseille","lat":43.312239,"lon":5.368562,"is_reserved":false,"is_disabled":false,"rental_uris":{"android":"levelo://app?vid=b11e82af-1d64-487c-b045-d20421ae8f74","ios":"levelo://app?vid=b11e82af-1d64-487c-b045-d20421ae8f74"},"vehicle_type_id":"4","last_reported":1706492421,"current_range_meters":28800,"station_id":"ce4bgl92rcd13ifvqbq0","pricing_plan_id":"free"},{"bike_id":"5f75ef5e-b528-4cf6-9273-62364931bfd9","system_id":"levelo_inurba_marseille","lat":43.314811,"lon":5.373103,"is_reserved":false,"is_disabled":false,"rental_uris":{"android":"levelo://app?vid=5f75ef5e-b528-4cf6-9273-62364931bfd9","ios":"levelo://app?vid=5f75ef5e-b528-4cf6-9273-62364931bfd9"},"vehicle_type_id":"4","last_reported":1706492421,"current_range_meters":17200,"station_id":"ce4bgt12rcd13ifvqcd0","pricing_plan_id":"free"},{"bike_id":"8040038f-ead1-4e1f-af7e-b77da665c6b7","system_id":"levelo_inurba_marseille","lat":43.314811,"lon":5.373103,"is_reserved":false,"is_disabled":false,"rental_uris":{"android":"levelo://app?vid=8040038f-ead1-4e1f-af7e-b77da665c6b7","ios":"levelo://app?vid=8040038f-ead1-4e1f-af7e-b77da665c6b7"},"vehicle_type_id":"4","last_reported":1706492421,"current_range_meters":26400,"station_id":"ce4bgt12rcd13ifvqcd0","pricing_plan_id":"free"},{"bike_id":"11ae9944-fd03-43f1-b3c4-d8fd3b08f8e5","system_id":"levelo_inurba_marseille","lat":43.309039,"lon":5.371797,"is_reserved":false,"is_disabled":false,"rental_uris":{"android":"levelo://app?vid=11ae9944-fd03-43f1-b3c4-d8fd3b08f8e5","ios":"levelo://app?vid=11ae9944-fd03-43f1-b3c4-d8fd3b08f8e5"},"vehicle_type_id":"4","last_reported":1706492421,"current_range_meters":26800,"station_id":"ce4bguh2rcd13ifvqckg","pricing_plan_id":"free"},{"bike_id":"4e2ecbec-e27e-4f11-aa38-13b7ed55f7f7","system_id":"levelo_inurba_marseille","lat":43.30883,"lon":5.37192,"is_reserved":false,"is_disabled":false,"rental_uris":{"android":"levelo://app?vid=4e2ecbec-e27e-4f11-aa38-13b7ed55f7f7","ios":"levelo://app?vid=4e2ecbec-e27e-4f11-aa38-13b7ed55f7f7"},"vehicle_type_id":"4","last_reported":1706492421,"current_range_meters":2800,"station_id":"ce4bguh2rcd13ifvqckg","pricing_plan_id":"free"},{"bike_id":"f45d0fa1-881e-4b4a-ac4a-5f2ce6908786","system_id":"levelo_inurba_marseille","lat":43.286595,"lon":5.386795,"is_reserved":false,"is_disabled":false,"rental_uris":{"android":"levelo://app?vid=f45d0fa1-881e-4b4a-ac4a-5f2ce6908786","ios":"levelo://app?vid=f45d0fa1-881e-4b4a-ac4a-5f2ce6908786"},"vehicle_type_id":"4","last_reported":1706492421,"current_range_meters":5600,"station_id":"ce4bh492rcd13ifvqdug","pricing_plan_id":"free"},{"bike_id":"ac42197e-48fe-475e-82a5-998808537a0b","system_id":"levelo_inurba_marseille","lat":43.305368,"lon":5.367343,"is_reserved":false,"is_disabled":false,"rental_uris":{"android":"levelo://app?vid=ac42197e-48fe-475e-82a5-998808537a0b","ios":"levelo://app?vid=ac42197e-48fe-475e-82a5-998808537a0b"},"vehicle_type_id":"4","last_reported":1706492421,"current_range_meters":18400,"station_id":"ce4bgrp2rcd13ifvqc9g","pricing_plan_id":"free"},{"bike_id":"65fcea18-2c9e-4c80-adca-9f94b3ce8427","system_id":"levelo_inurba_marseille","lat":43.311131,"lon":5.377651,"is_reserved":false,"is_disabled":false,"rental_uris":{"android":"levelo://app?vid=65fcea18-2c9e-4c80-adca-9f94b3ce8427","ios":"levelo://app?vid=65fcea18-2c9e-4c80-adca-9f94b3ce8427"},"vehicle_type_id":"4","last_reported":1706492421,"current_range_meters":6000,"station_id":"ce4bgt92rcd13ifvqcg0","pricing_plan_id":"free"},{"bike_id":"1f2fd27f-f0fe-486c-9c82-4d84389ae04c","system_id":"levelo_inurba_marseille","lat":43.311131,"lon":5.377651,"is_reserved":false,"is_disabled":false,"rental_uris":{"android":"levelo://app?vid=1f2fd27f-f0fe-486c-9c82-4d84389ae04c","ios":"levelo://app?vid=1f2fd27f-f0fe-486c-9c82-4d84389ae04c"},"vehicle_type_id":"4","last_reported":1706492421,"current_range_meters":7600,"station_id":"ce4bgt92rcd13ifvqcg0","pricing_plan_id":"free"},{"bike_id":"009493b7-2cd7-41b3-863f-154e2f5a6c25","system_id":"levelo_inurba_marseille","lat":43.311125,"lon":5.377624,"is_reserved":false,"is_disabled":false,"rental_uris":{"android":"levelo://app?vid=009493b7-2cd7-41b3-863f-154e2f5a6c25","ios":"levelo://app?vid=009493b7-2cd7-41b3-863f-154e2f5a6c25"},"vehicle_type_id":"4","last_reported":1706492421,"current_range_meters":26800,"station_id":"ce4bgt92rcd13ifvqcg0","pricing_plan_id":"free"},{"bike_id":"4ff1286d-1af9-4ea2-ba65-55c4d50f59d2","system_id":"levelo_inurba_marseille","lat":43.311131,"lon":5.377651,"is_reserved":false,"is_disabled":false,"rental_uris":{"android":"levelo://app?vid=4ff1286d-1af9-4ea2-ba65-55c4d50f59d2","ios":"levelo://app?vid=4ff1286d-1af9-4ea2-ba65-55c4d50f59d2"},"vehicle_type_id":"4","last_reported":1706492421,"current_range_meters":22400,"station_id":"ce4bgt92rcd13ifvqcg0","pricing_plan_id":"free"},{"bike_id":"0109a761-4993-4b24-a6c6-f8cac2ed3b5b","system_id":"levelo_inurba_marseille","lat":43.307945,"lon":5.376487,"is_reserved":false,"is_disabled":false,"rental_uris":{"android":"levelo://app?vid=0109a761-4993-4b24-a6c6-f8cac2ed3b5b","ios":"levelo://app?vid=0109a761-4993-4b24-a6c6-f8cac2ed3b5b"},"vehicle_type_id":"4","last_reported":1706492421,"current_range_meters":28400,"station_id":"ce4bgv92rcd13ifvqcq0","pricing_plan_id":"free"},{"bike_id":"8990f13d-1eee-4eeb-894e-4dc3317c5549","system_id":"levelo_inurba_marseille","lat":43.307945,"lon":5.376487,"is_reserved":false,"is_disabled":false,"rental_uris":{"android":"levelo://app?vid=8990f13d-1eee-4eeb-894e-4dc3317c5549","ios":"levelo://app?vid=8990f13d-1eee-4eeb-894e-4dc3317c5549"},"vehicle_type_id":"4","last_reported":1706492421,"current_range_meters":28800,"station_id":"ce4bgv92rcd13ifvqcq0","pricing_plan_id":"free"},{"bike_id":"5cfbbe76-9ff6-4072-aef3-9073f8131974","system_id":"levelo_inurba_marseille","lat":43.317075,"lon":5.377367,"is_reserved":false,"is_disabled":false,"rental_uris":{"android":"levelo://app?vid=5cfbbe76-9ff6-4072-aef3-9073f8131974","ios":"levelo://app?vid=5cfbbe76-9ff6-4072-aef3-9073f8131974"},"vehicle_type_id":"4","last_reported":1706492421,"current_range_meters":26400,"station_id":"ce4bgth2rcd13ifvqch0","pricing_plan_id":"free"},{"bike_id":"a73d90e2-d356-4f45-8c2c-c20caabab39d","system_id":"levelo_inurba_marseille","lat":43.317075,"lon":5.377367,"is_reserved":false,"is_disabled":false,"rental_uris":{"android":"levelo://app?vid=a73d90e2-d356-4f45-8c2c-c20caabab39d","ios":"levelo://app?vid=a73d90e2-d356-4f45-8c2c-c20caabab39d"},"vehicle_type_id":"4","last_reported":1706492421,"current_range_meters":3600,"station_id":"ce4bgth2rcd13ifvqch0","pricing_plan_id":"free"},{"bike_id":"6617cf7a-ab76-4fb4-ba60-7a1c6edbfca3","system_id":"levelo_inurba_marseille","lat":43.303046,"lon":5.368981,"is_reserved":false,"is_disabled":false,"rental_uris":{"android":"levelo://app?vid=6617cf7a-ab76-4fb4-ba60-7a1c6edbfca3","ios":"levelo://app?vid=6617cf7a-ab76-4fb4-ba60-7a1c6edbfca3"},"vehicle_type_id":"4","last_reported":1706492421,"current_range_meters":26400,"station_id":"ce4bgqh2rcd13ifvqc5g","pricing_plan_id":"free"},{"bike_id":"b83daeb9-a39c-4884-86e2-16a37c651f7f","system_id":"levelo_inurba_marseille","lat":43.31999,"lon":5.37626,"is_reserved":false,"is_disabled":false,"rental_uris":{"android":"levelo://app?vid=b83daeb9-a39c-4884-86e2-16a37c651f7f","ios":"levelo://app?vid=b83daeb9-a39c-4884-86e2-16a37c651f7f"},"vehicle_type_id":"4","last_reported":1706492421,"current_range_meters":3600,"station_id":"","pricing_plan_id":"free"},{"bike_id":"8d33dfa5-b21c-4793-abd9-67d093c9b10e","system_id":"levelo_inurba_marseille","lat":43.31535,"lon":5.38027,"is_reserved":false,"is_disabled":false,"rental_uris":{"android":"levelo://app?vid=8d33dfa5-b21c-4793-abd9-67d093c9b10e","ios":"levelo://app?vid=8d33dfa5-b21c-4793-abd9-67d093c9b10e"},"vehicle_type_id":"4","last_reported":1706492421,"current_range_meters":11200,"station_id":"ce4bhsp2rcd13ifvqi50","pricing_plan_id":"free"},{"bike_id":"dbbe92d2-890e-477b-b56f-772147ba4556","system_id":"levelo_inurba_marseille","lat":43.315341,"lon":5.380309,"is_reserved":false,"is_disabled":false,"rental_uris":{"android":"levelo://app?vid=dbbe92d2-890e-477b-b56f-772147ba4556","ios":"levelo://app?vid=dbbe92d2-890e-477b-b56f-772147ba4556"},"vehicle_type_id":"4","last_reported":1706492421,"current_range_meters":11200,"station_id":"ce4bhsp2rcd13ifvqi50","pricing_plan_id":"free"},{"bike_id":"756cff0e-6121-4b00-a2dd-c5e2ac9055a8","system_id":"levelo_inurba_marseille","lat":43.315311,"lon":5.380405,"is_reserved":false,"is_disabled":false,"rental_uris":{"android":"levelo://app?vid=756cff0e-6121-4b00-a2dd-c5e2ac9055a8","ios":"levelo://app?vid=756cff0e-6121-4b00-a2dd-c5e2ac9055a8"},"vehicle_type_id":"4","last_reported":1706492421,"current_range_meters":0,"station_id":"ce4bhsp2rcd13ifvqi50","pricing_plan_id":"free"},{"bike_id":"00cdb401-bab2-4bd1-b0b6-e5f6cfa01af6","system_id":"levelo_inurba_marseille","lat":43.31537,"lon":5.38039,"is_reserved":false,"is_disabled":false,"rental_uris":{"android":"levelo://app?vid=00cdb401-bab2-4bd1-b0b6-e5f6cfa01af6","ios":"levelo://app?vid=00cdb401-bab2-4bd1-b0b6-e5f6cfa01af6"},"vehicle_type_id":"4","last_reported":1706492421,"current_range_meters":4800,"station_id":"ce4bhsp2rcd13ifvqi50","pricing_plan_id":"free"},{"bike_id":"6d0ba78e-71d0-4664-bf2b-846fb74a6476","system_id":"levelo_inurba_marseille","lat":43.324771,"lon":5.36557,"is_reserved":false,"is_disabled":false,"rental_uris":{"android":"levelo://app?vid=6d0ba78e-71d0-4664-bf2b-846fb74a6476","ios":"levelo://app?vid=6d0ba78e-71d0-4664-bf2b-846fb74a6476"},"vehicle_type_id":"4","last_reported":1706492421,"current_range_meters":5200,"station_id":"ce4bhs12rcd13ifvqhvg","pricing_plan_id":"free"},{"bike_id":"dc00bdf8-dc57-4b02-8d44-8ea4906debe3","system_id":"levelo_inurba_marseille","lat":43.324771,"lon":5.36557,"is_reserved":false,"is_disabled":false,"rental_uris":{"android":"levelo://app?vid=dc00bdf8-dc57-4b02-8d44-8ea4906debe3","ios":"levelo://app?vid=dc00bdf8-dc57-4b02-8d44-8ea4906debe3"},"vehicle_type_id":"4","last_reported":1706492421,"current_range_meters":15600,"station_id":"ce4bhs12rcd13ifvqhvg","pricing_plan_id":"free"},{"bike_id":"1dd95eb2-cc52-4a61-bd2b-a11ff28fec96","system_id":"levelo_inurba_marseille","lat":43.324771,"lon":5.36557,"is_reserved":false,"is_disabled":false,"rental_uris":{"android":"levelo://app?vid=1dd95eb2-cc52-4a61-bd2b-a11ff28fec96","ios":"levelo://app?vid=1dd95eb2-cc52-4a61-bd2b-a11ff28fec96"},"vehicle_type_id":"4","last_reported":1706492421,"current_range_meters":0,"station_id":"ce4bhs12rcd13ifvqhvg","pricing_plan_id":"free"},{"bike_id":"4c4b8ab9-5ef1-420c-9390-c3e236e87d90","system_id":"levelo_inurba_marseille","lat":43.324771,"lon":5.36557,"is_reserved":false,"is_disabled":false,"rental_uris":{"android":"levelo://app?vid=4c4b8ab9-5ef1-420c-9390-c3e236e87d90","ios":"levelo://app?vid=4c4b8ab9-5ef1-420c-9390-c3e236e87d90"},"vehicle_type_id":"4","last_reported":1706492421,"current_range_meters":4000,"station_id":"ce4bhs12rcd13ifvqhvg","pricing_plan_id":"free"},{"bike_id":"a5e57287-81c2-44e9-bec6-ba322bd34a93","system_id":"levelo_inurba_marseille","lat":43.301429,"lon":5.37413,"is_reserved":false,"is_disabled":false,"rental_uris":{"android":"levelo://app?vid=a5e57287-81c2-44e9-bec6-ba322bd34a93","ios":"levelo://app?vid=a5e57287-81c2-44e9-bec6-ba322bd34a93"},"vehicle_type_id":"4","last_reported":1706492421,"current_range_meters":4400,"station_id":"ce4bgs92rcd13ifvqcc0","pricing_plan_id":"free"},{"bike_id":"4e8e7e9f-0e12-415e-9f8a-232c8717aa9d","system_id":"levelo_inurba_marseille","lat":43.319959,"lon":5.381437,"is_reserved":false,"is_disabled":false,"rental_uris":{"android":"levelo://app?vid=4e8e7e9f-0e12-415e-9f8a-232c8717aa9d","ios":"levelo://app?vid=4e8e7e9f-0e12-415e-9f8a-232c8717aa9d"},"vehicle_type_id":"4","last_reported":1706492421,"current_range_meters":20000,"station_id":"ce4bhr12rcd13ifvqhpg","pricing_plan_id":"free"},{"bike_id":"acd7eb2c-0bb1-42e5-bf7f-a8f5398a02cc","system_id":"levelo_inurba_marseille","lat":43.319979,"lon":5.381605,"is_reserved":false,"is_disabled":false,"rental_uris":{"android":"levelo://app?vid=acd7eb2c-0bb1-42e5-bf7f-a8f5398a02cc","ios":"levelo://app?vid=acd7eb2c-0bb1-42e5-bf7f-a8f5398a02cc"},"vehicle_type_id":"4","last_reported":1706492421,"current_range_meters":16800,"station_id":"ce4bhr12rcd13ifvqhpg","pricing_plan_id":"free"},{"bike_id":"d56573fe-23aa-4d9a-85cd-9096ff569fcf","system_id":"levelo_inurba_marseille","lat":43.313571,"lon":5.384829,"is_reserved":false,"is_disabled":false,"rental_uris":{"android":"levelo://app?vid=d56573fe-23aa-4d9a-85cd-9096ff569fcf","ios":"levelo://app?vid=d56573fe-23aa-4d9a-85cd-9096ff569fcf"},"vehicle_type_id":"4","last_reported":1706492421,"current_range_meters":21200,"station_id":"ce4bgt92rcd13ifvqcf0","pricing_plan_id":"free"},{"bike_id":"8c4d320f-9288-4fa1-8cf7-52b2826987ad","system_id":"levelo_inurba_marseille","lat":43.313571,"lon":5.384829,"is_reserved":false,"is_disabled":false,"rental_uris":{"android":"levelo://app?vid=8c4d320f-9288-4fa1-8cf7-52b2826987ad","ios":"levelo://app?vid=8c4d320f-9288-4fa1-8cf7-52b2826987ad"},"vehicle_type_id":"4","last_reported":1706492421,"current_range_meters":13600,"station_id":"ce4bgt92rcd13ifvqcf0","pricing_plan_id":"free"},{"bike_id":"11471d48-14f9-4828-a86e-9895d354d186","system_id":"levelo_inurba_marseille","lat":43.313571,"lon":5.384829,"is_reserved":false,"is_disabled":false,"rental_uris":{"android":"levelo://app?vid=11471d48-14f9-4828-a86e-9895d354d186","ios":"levelo://app?vid=11471d48-14f9-4828-a86e-9895d354d186"},"vehicle_type_id":"4","last_reported":1706492421,"current_range_meters":30400,"station_id":"ce4bgt92rcd13ifvqcf0","pricing_plan_id":"free"},{"bike_id":"5fbcfd35-47c8-4b8a-8a5a-fcb38d1e3a21","system_id":"levelo_inurba_marseille","lat":43.313571,"lon":5.384829,"is_reserved":false,"is_disabled":false,"rental_uris":{"android":"levelo://app?vid=5fbcfd35-47c8-4b8a-8a5a-fcb38d1e3a21","ios":"levelo://app?vid=5fbcfd35-47c8-4b8a-8a5a-fcb38d1e3a21"},"vehicle_type_id":"4","last_reported":1706492421,"current_range_meters":28800,"station_id":"ce4bgt92rcd13ifvqcf0","pricing_plan_id":"free"},{"bike_id":"a281e1a5-5d82-4073-b40a-c01a79b602d0","system_id":"levelo_inurba_marseille","lat":43.313571,"lon":5.384829,"is_reserved":false,"is_disabled":false,"rental_uris":{"android":"levelo://app?vid=a281e1a5-5d82-4073-b40a-c01a79b602d0","ios":"levelo://app?vid=a281e1a5-5d82-4073-b40a-c01a79b602d0"},"vehicle_type_id":"4","last_reported":1706492421,"current_range_meters":31200,"station_id":"ce4bgt92rcd13ifvqcf0","pricing_plan_id":"free"},{"bike_id":"337a80ca-365b-479b-8391-8579ffbf3daf","system_id":"levelo_inurba_marseille","lat":43.313571,"lon":5.384829,"is_reserved":false,"is_disabled":false,"rental_uris":{"android":"levelo://app?vid=337a80ca-365b-479b-8391-8579ffbf3daf","ios":"levelo://app?vid=337a80ca-365b-479b-8391-8579ffbf3daf"},"vehicle_type_id":"4","last_reported":1706492421,"current_range_meters":24800,"station_id":"ce4bgt92rcd13ifvqcf0","pricing_plan_id":"free"},{"bike_id":"aeb569eb-9003-46ad-b80d-259362cf5d33","system_id":"levelo_inurba_marseille","lat":43.313571,"lon":5.384829,"is_reserved":false,"is_disabled":false,"rental_uris":{"android":"levelo://app?vid=aeb569eb-9003-46ad-b80d-259362cf5d33","ios":"levelo://app?vid=aeb569eb-9003-46ad-b80d-259362cf5d33"},"vehicle_type_id":"4","last_reported":1706492421,"current_range_meters":0,"station_id":"ce4bgt92rcd13ifvqcf0","pricing_plan_id":"free"},{"bike_id":"16c74e17-7800-4bbf-8452-1bc8b49f2b5e","system_id":"levelo_inurba_marseille","lat":43.299222,"lon":5.365554,"is_reserved":false,"is_disabled":false,"rental_uris":{"android":"levelo://app?vid=16c74e17-7800-4bbf-8452-1bc8b49f2b5e","ios":"levelo://app?vid=16c74e17-7800-4bbf-8452-1bc8b49f2b5e"},"vehicle_type_id":"4","last_reported":1706492421,"current_range_meters":6400,"station_id":"ce4bgm92rcd13ifvqbr0","pricing_plan_id":"free"},{"bike_id":"20cf79a4-f9ac-44f4-8ba4-89f1f44ffd1b","system_id":"levelo_inurba_marseille","lat":43.299222,"lon":5.365554,"is_reserved":false,"is_disabled":false,"rental_uris":{"android":"levelo://app?vid=20cf79a4-f9ac-44f4-8ba4-89f1f44ffd1b","ios":"levelo://app?vid=20cf79a4-f9ac-44f4-8ba4-89f1f44ffd1b"},"vehicle_type_id":"4","last_reported":1706492421,"current_range_meters":11600,"station_id":"ce4bgm92rcd13ifvqbr0","pricing_plan_id":"free"},{"bike_id":"ba1723d7-4acf-4f6c-9da3-91b2335146d3","system_id":"levelo_inurba_marseille","lat":43.299222,"lon":5.365554,"is_reserved":false,"is_disabled":false,"rental_uris":{"android":"levelo://app?vid=ba1723d7-4acf-4f6c-9da3-91b2335146d3","ios":"levelo://app?vid=ba1723d7-4acf-4f6c-9da3-91b2335146d3"},"vehicle_type_id":"4","last_reported":1706492421,"current_range_meters":0,"station_id":"ce4bgm92rcd13ifvqbr0","pricing_plan_id":"free"},{"bike_id":"a9439343-6c28-4766-87b0-79b2783e220a","system_id":"levelo_inurba_marseille","lat":43.299222,"lon":5.365554,"is_reserved":false,"is_disabled":false,"rental_uris":{"android":"levelo://app?vid=a9439343-6c28-4766-87b0-79b2783e220a","ios":"levelo://app?vid=a9439343-6c28-4766-87b0-79b2783e220a"},"vehicle_type_id":"4","last_reported":1706492421,"current_range_meters":18000,"station_id":"ce4bgm92rcd13ifvqbr0","pricing_plan_id":"free"},{"bike_id":"d24e151a-5142-4f41-83c9-4071fa49bb55","system_id":"levelo_inurba_marseille","lat":43.298433,"lon":5.362774,"is_reserved":false,"is_disabled":false,"rental_uris":{"android":"levelo://app?vid=d24e151a-5142-4f41-83c9-4071fa49bb55","ios":"levelo://app?vid=d24e151a-5142-4f41-83c9-4071fa49bb55"},"vehicle_type_id":"4","last_reported":1706492421,"current_range_meters":25600,"station_id":"ce4bgpp2rcd13ifvqc3g","pricing_plan_id":"free"},{"bike_id":"f90e70e4-419f-43dd-b3ad-b4419fe01609","system_id":"levelo_inurba_marseille","lat":43.311722,"lon":5.387247,"is_reserved":false,"is_disabled":false,"rental_uris":{"android":"levelo://app?vid=f90e70e4-419f-43dd-b3ad-b4419fe01609","ios":"levelo://app?vid=f90e70e4-419f-43dd-b3ad-b4419fe01609"},"vehicle_type_id":"4","last_reported":1706492421,"current_range_meters":15200,"station_id":"ce4bgv12rcd13ifvqcp0","pricing_plan_id":"free"},{"bike_id":"dc76f9e1-0d5b-4adf-bd2e-4b6f55189ece","system_id":"levelo_inurba_marseille","lat":43.299243,"lon":5.374807,"is_reserved":false,"is_disabled":false,"rental_uris":{"android":"levelo://app?vid=dc76f9e1-0d5b-4adf-bd2e-4b6f55189ece","ios":"levelo://app?vid=dc76f9e1-0d5b-4adf-bd2e-4b6f55189ece"},"vehicle_type_id":"4","last_reported":1706492421,"current_range_meters":24400,"station_id":"ce4bgjh2rcd13ifvqbg0","pricing_plan_id":"free"},{"bike_id":"083cd750-ad93-4761-bc99-24bbf7ed80f8","system_id":"levelo_inurba_marseille","lat":43.311722,"lon":5.387247,"is_reserved":false,"is_disabled":false,"rental_uris":{"android":"levelo://app?vid=083cd750-ad93-4761-bc99-24bbf7ed80f8","ios":"levelo://app?vid=083cd750-ad93-4761-bc99-24bbf7ed80f8"},"vehicle_type_id":"4","last_reported":1706492421,"current_range_meters":25200,"station_id":"ce4bgv12rcd13ifvqcp0","pricing_plan_id":"free"},{"bike_id":"3e4f1e64-11b6-4148-83d2-fc08c3b27a1e","system_id":"levelo_inurba_marseille","lat":43.311722,"lon":5.387247,"is_reserved":false,"is_disabled":false,"rental_uris":{"android":"levelo://app?vid=3e4f1e64-11b6-4148-83d2-fc08c3b27a1e","ios":"levelo://app?vid=3e4f1e64-11b6-4148-83d2-fc08c3b27a1e"},"vehicle_type_id":"4","last_reported":1706492421,"current_range_meters":7200,"station_id":"ce4bgv12rcd13ifvqcp0","pricing_plan_id":"free"},{"bike_id":"aaee45e4-19c3-4660-9cb1-0e24fdfb73c5","system_id":"levelo_inurba_marseille","lat":43.311722,"lon":5.387247,"is_reserved":false,"is_disabled":false,"rental_uris":{"android":"levelo://app?vid=aaee45e4-19c3-4660-9cb1-0e24fdfb73c5","ios":"levelo://app?vid=aaee45e4-19c3-4660-9cb1-0e24fdfb73c5"},"vehicle_type_id":"4","last_reported":1706492421,"current_range_meters":31600,"station_id":"ce4bgv12rcd13ifvqcp0","pricing_plan_id":"free"},{"bike_id":"3ee4bb9b-4098-4879-be69-e0d141d4917d","system_id":"levelo_inurba_marseille","lat":43.311722,"lon":5.387247,"is_reserved":false,"is_disabled":false,"rental_uris":{"android":"levelo://app?vid=3ee4bb9b-4098-4879-be69-e0d141d4917d","ios":"levelo://app?vid=3ee4bb9b-4098-4879-be69-e0d141d4917d"},"vehicle_type_id":"4","last_reported":1706492421,"current_range_meters":25200,"station_id":"ce4bgv12rcd13ifvqcp0","pricing_plan_id":"free"},{"bike_id":"dd5e1ecf-c170-4124-b596-2e69ad71a59f","system_id":"levelo_inurba_marseille","lat":43.311722,"lon":5.387247,"is_reserved":false,"is_disabled":false,"rental_uris":{"android":"levelo://app?vid=dd5e1ecf-c170-4124-b596-2e69ad71a59f","ios":"levelo://app?vid=dd5e1ecf-c170-4124-b596-2e69ad71a59f"},"vehicle_type_id":"4","last_reported":1706492421,"current_range_meters":16800,"station_id":"ce4bgv12rcd13ifvqcp0","pricing_plan_id":"free"},{"bike_id":"ef052ffe-e968-4eb8-b923-680910b4c6c0","system_id":"levelo_inurba_marseille","lat":43.322872,"lon":5.382756,"is_reserved":false,"is_disabled":false,"rental_uris":{"android":"levelo://app?vid=ef052ffe-e968-4eb8-b923-680910b4c6c0","ios":"levelo://app?vid=ef052ffe-e968-4eb8-b923-680910b4c6c0"},"vehicle_type_id":"4","last_reported":1706492421,"current_range_meters":24400,"station_id":"ce4bhr12rcd13ifvqhqg","pricing_plan_id":"free"},{"bike_id":"e1539f0d-02e3-46ca-8fd2-b115fd55a782","system_id":"levelo_inurba_marseille","lat":43.322872,"lon":5.382756,"is_reserved":false,"is_disabled":false,"rental_uris":{"android":"levelo://app?vid=e1539f0d-02e3-46ca-8fd2-b115fd55a782","ios":"levelo://app?vid=e1539f0d-02e3-46ca-8fd2-b115fd55a782"},"vehicle_type_id":"4","last_reported":1706492421,"current_range_meters":22400,"station_id":"ce4bhr12rcd13ifvqhqg","pricing_plan_id":"free"},{"bike_id":"1c9d37d0-9c22-419e-afa7-1697cb75aab3","system_id":"levelo_inurba_marseille","lat":43.328371,"lon":5.366909,"is_reserved":false,"is_disabled":false,"rental_uris":{"android":"levelo://app?vid=1c9d37d0-9c22-419e-afa7-1697cb75aab3","ios":"levelo://app?vid=1c9d37d0-9c22-419e-afa7-1697cb75aab3"},"vehicle_type_id":"4","last_reported":1706492421,"current_range_meters":20800,"station_id":"ce4bhs92rcd13ifvqi0g","pricing_plan_id":"free"},{"bike_id":"56953579-fbe3-4046-98ed-c2b1ef384c1f","system_id":"levelo_inurba_marseille","lat":43.328274,"lon":5.366735,"is_reserved":false,"is_disabled":false,"rental_uris":{"android":"levelo://app?vid=56953579-fbe3-4046-98ed-c2b1ef384c1f","ios":"levelo://app?vid=56953579-fbe3-4046-98ed-c2b1ef384c1f"},"vehicle_type_id":"4","last_reported":1706492421,"current_range_meters":400,"station_id":"ce4bhs92rcd13ifvqi0g","pricing_plan_id":"free"},{"bike_id":"48cda5da-da5e-49fd-902b-b8e6785cd50d","system_id":"levelo_inurba_marseille","lat":43.297163,"lon":5.365866,"is_reserved":false,"is_disabled":false,"rental_uris":{"android":"levelo://app?vid=48cda5da-da5e-49fd-902b-b8e6785cd50d","ios":"levelo://app?vid=48cda5da-da5e-49fd-902b-b8e6785cd50d"},"vehicle_type_id":"4","last_reported":1706492421,"current_range_meters":21600,"station_id":"ce4bgn12rcd13ifvqbt0","pricing_plan_id":"free"},{"bike_id":"da669c02-ed5d-4764-a763-a0425441c3dd","system_id":"levelo_inurba_marseille","lat":43.328371,"lon":5.366909,"is_reserved":false,"is_disabled":false,"rental_uris":{"android":"levelo://app?vid=da669c02-ed5d-4764-a763-a0425441c3dd","ios":"levelo://app?vid=da669c02-ed5d-4764-a763-a0425441c3dd"},"vehicle_type_id":"4","last_reported":1706492421,"current_range_meters":24800,"station_id":"ce4bhs92rcd13ifvqi0g","pricing_plan_id":"free"},{"bike_id":"db73ec12-3cbd-4f9f-99d6-1b1f50d83759","system_id":"levelo_inurba_marseille","lat":43.297163,"lon":5.365866,"is_reserved":false,"is_disabled":false,"rental_uris":{"android":"levelo://app?vid=db73ec12-3cbd-4f9f-99d6-1b1f50d83759","ios":"levelo://app?vid=db73ec12-3cbd-4f9f-99d6-1b1f50d83759"},"vehicle_type_id":"4","last_reported":1706492421,"current_range_meters":25600,"station_id":"ce4bgn12rcd13ifvqbt0","pricing_plan_id":"free"},{"bike_id":"3578a85d-9574-417e-8ce1-d28572d3bec5","system_id":"levelo_inurba_marseille","lat":43.29622,"lon":5.37148,"is_reserved":false,"is_disabled":false,"rental_uris":{"android":"levelo://app?vid=3578a85d-9574-417e-8ce1-d28572d3bec5","ios":"levelo://app?vid=3578a85d-9574-417e-8ce1-d28572d3bec5"},"vehicle_type_id":"4","last_reported":1706492421,"current_range_meters":0,"station_id":"ce4bgk12rcd13ifvqbj0","pricing_plan_id":"free"},{"bike_id":"fec6285e-728b-490f-a9de-092306543875","system_id":"levelo_inurba_marseille","lat":43.309589,"lon":5.390258,"is_reserved":false,"is_disabled":false,"rental_uris":{"android":"levelo://app?vid=fec6285e-728b-490f-a9de-092306543875","ios":"levelo://app?vid=fec6285e-728b-490f-a9de-092306543875"},"vehicle_type_id":"4","last_reported":1706492421,"current_range_meters":26400,"station_id":"ce4bgup2rcd13ifvqco0","pricing_plan_id":"free"},{"bike_id":"249b1bfc-f9ba-40fb-a868-4a047a23e45c","system_id":"levelo_inurba_marseille","lat":43.317557,"lon":5.390173,"is_reserved":false,"is_disabled":false,"rental_uris":{"android":"levelo://app?vid=249b1bfc-f9ba-40fb-a868-4a047a23e45c","ios":"levelo://app?vid=249b1bfc-f9ba-40fb-a868-4a047a23e45c"},"vehicle_type_id":"4","last_reported":1706492421,"current_range_meters":25600,"station_id":"ce4bhqp2rcd13ifvqhng","pricing_plan_id":"free"},{"bike_id":"cdec058d-f548-49b4-85cd-d147ee073dde","system_id":"levelo_inurba_marseille","lat":43.317557,"lon":5.390173,"is_reserved":false,"is_disabled":false,"rental_uris":{"android":"levelo://app?vid=cdec058d-f548-49b4-85cd-d147ee073dde","ios":"levelo://app?vid=cdec058d-f548-49b4-85cd-d147ee073dde"},"vehicle_type_id":"4","last_reported":1706492421,"current_range_meters":27200,"station_id":"ce4bhqp2rcd13ifvqhng","pricing_plan_id":"free"},{"bike_id":"2508cd57-aefe-4170-b2ea-af2f40d52923","system_id":"levelo_inurba_marseille","lat":43.304274,"lon":5.388873,"is_reserved":false,"is_disabled":false,"rental_uris":{"android":"levelo://app?vid=2508cd57-aefe-4170-b2ea-af2f40d52923","ios":"levelo://app?vid=2508cd57-aefe-4170-b2ea-af2f40d52923"},"vehicle_type_id":"4","last_reported":1706492421,"current_range_meters":17200,"station_id":"ce4bgk12rcd13ifvqbi0","pricing_plan_id":"free"},{"bike_id":"3327c0a9-31b2-428a-9917-c7eac8ec328c","system_id":"levelo_inurba_marseille","lat":43.304274,"lon":5.388873,"is_reserved":false,"is_disabled":false,"rental_uris":{"android":"levelo://app?vid=3327c0a9-31b2-428a-9917-c7eac8ec328c","ios":"levelo://app?vid=3327c0a9-31b2-428a-9917-c7eac8ec328c"},"vehicle_type_id":"4","last_reported":1706492421,"current_range_meters":24000,"station_id":"ce4bgk12rcd13ifvqbi0","pricing_plan_id":"free"},{"bike_id":"40c96e83-9f2f-423c-abdd-26777d4f3acd","system_id":"levelo_inurba_marseille","lat":43.304274,"lon":5.388873,"is_reserved":false,"is_disabled":false,"rental_uris":{"android":"levelo://app?vid=40c96e83-9f2f-423c-abdd-26777d4f3acd","ios":"levelo://app?vid=40c96e83-9f2f-423c-abdd-26777d4f3acd"},"vehicle_type_id":"4","last_reported":1706492421,"current_range_meters":15200,"station_id":"ce4bgk12rcd13ifvqbi0","pricing_plan_id":"free"},{"bike_id":"a103be07-ec1c-4c0d-9c9e-d61ef9c7de95","system_id":"levelo_inurba_marseille","lat":43.304278,"lon":5.388868,"is_reserved":false,"is_disabled":false,"rental_uris":{"android":"levelo://app?vid=a103be07-ec1c-4c0d-9c9e-d61ef9c7de95","ios":"levelo://app?vid=a103be07-ec1c-4c0d-9c9e-d61ef9c7de95"},"vehicle_type_id":"4","last_reported":1706492421,"current_range_meters":28800,"station_id":"ce4bgk12rcd13ifvqbi0","pricing_plan_id":"free"},{"bike_id":"6a9e8e8c-748f-4c61-971e-f7003c2c3b3b","system_id":"levelo_inurba_marseille","lat":43.304278,"lon":5.388868,"is_reserved":false,"is_disabled":false,"rental_uris":{"android":"levelo://app?vid=6a9e8e8c-748f-4c61-971e-f7003c2c3b3b","ios":"levelo://app?vid=6a9e8e8c-748f-4c61-971e-f7003c2c3b3b"},"vehicle_type_id":"4","last_reported":1706492421,"current_range_meters":24400,"station_id":"ce4bgk12rcd13ifvqbi0","pricing_plan_id":"free"},{"bike_id":"d68e21e0-f101-4fe4-adad-3edc99116a12","system_id":"levelo_inurba_marseille","lat":43.32367,"lon":5.388836,"is_reserved":false,"is_disabled":false,"rental_uris":{"android":"levelo://app?vid=d68e21e0-f101-4fe4-adad-3edc99116a12","ios":"levelo://app?vid=d68e21e0-f101-4fe4-adad-3edc99116a12"},"vehicle_type_id":"4","last_reported":1706492421,"current_range_meters":16800,"station_id":"ce4bhqp2rcd13ifvqhog","pricing_plan_id":"free"},{"bike_id":"521513b5-ce9a-48ab-8990-ed8ed7a741d0","system_id":"levelo_inurba_marseille","lat":43.32367,"lon":5.388836,"is_reserved":false,"is_disabled":false,"rental_uris":{"android":"levelo://app?vid=521513b5-ce9a-48ab-8990-ed8ed7a741d0","ios":"levelo://app?vid=521513b5-ce9a-48ab-8990-ed8ed7a741d0"},"vehicle_type_id":"4","last_reported":1706492421,"current_range_meters":22800,"station_id":"ce4bhqp2rcd13ifvqhog","pricing_plan_id":"free"},{"bike_id":"64310429-5ccb-4003-b3e4-08adbdbb29de","system_id":"levelo_inurba_marseille","lat":43.305994,"lon":5.393687,"is_reserved":false,"is_disabled":false,"rental_uris":{"android":"levelo://app?vid=64310429-5ccb-4003-b3e4-08adbdbb29de","ios":"levelo://app?vid=64310429-5ccb-4003-b3e4-08adbdbb29de"},"vehicle_type_id":"4","last_reported":1706492421,"current_range_meters":6400,"station_id":"ce4bh0p2rcd13ifvqd80","pricing_plan_id":"free"},{"bike_id":"ac476103-53ca-483d-a217-ac7d4dbb0042","system_id":"levelo_inurba_marseille","lat":43.305994,"lon":5.393687,"is_reserved":false,"is_disabled":false,"rental_uris":{"android":"levelo://app?vid=ac476103-53ca-483d-a217-ac7d4dbb0042","ios":"levelo://app?vid=ac476103-53ca-483d-a217-ac7d4dbb0042"},"vehicle_type_id":"4","last_reported":1706492421,"current_range_meters":12800,"station_id":"ce4bh0p2rcd13ifvqd80","pricing_plan_id":"free"},{"bike_id":"fe54985d-5b83-4f8e-a188-8ee0a816fd87","system_id":"levelo_inurba_marseille","lat":43.305994,"lon":5.393687,"is_reserved":false,"is_disabled":false,"rental_uris":{"android":"levelo://app?vid=fe54985d-5b83-4f8e-a188-8ee0a816fd87","ios":"levelo://app?vid=fe54985d-5b83-4f8e-a188-8ee0a816fd87"},"vehicle_type_id":"4","last_reported":1706492421,"current_range_meters":28000,"station_id":"ce4bh0p2rcd13ifvqd80","pricing_plan_id":"free"},{"bike_id":"349f3892-700f-42c4-a8b4-63ac5550fb48","system_id":"levelo_inurba_marseille","lat":43.305994,"lon":5.393687,"is_reserved":false,"is_disabled":false,"rental_uris":{"android":"levelo://app?vid=349f3892-700f-42c4-a8b4-63ac5550fb48","ios":"levelo://app?vid=349f3892-700f-42c4-a8b4-63ac5550fb48"},"vehicle_type_id":"4","last_reported":1706492421,"current_range_meters":25600,"station_id":"ce4bh0p2rcd13ifvqd80","pricing_plan_id":"free"},{"bike_id":"a8a23b16-6123-48f0-b642-94a5b13ff8f2","system_id":"levelo_inurba_marseille","lat":43.302992,"lon":5.392136,"is_reserved":false,"is_disabled":false,"rental_uris":{"android":"levelo://app?vid=a8a23b16-6123-48f0-b642-94a5b13ff8f2","ios":"levelo://app?vid=a8a23b16-6123-48f0-b642-94a5b13ff8f2"},"vehicle_type_id":"4","last_reported":1706492421,"current_range_meters":21200,"station_id":"ce4bgkh2rcd13ifvqbk0","pricing_plan_id":"free"},{"bike_id":"b42c37f3-1faa-4e66-a798-9953853eeb1d","system_id":"levelo_inurba_marseille","lat":43.303002,"lon":5.392142,"is_reserved":false,"is_disabled":false,"rental_uris":{"android":"levelo://app?vid=b42c37f3-1faa-4e66-a798-9953853eeb1d","ios":"levelo://app?vid=b42c37f3-1faa-4e66-a798-9953853eeb1d"},"vehicle_type_id":"4","last_reported":1706492421,"current_range_meters":0,"station_id":"ce4bgkh2rcd13ifvqbk0","pricing_plan_id":"free"},{"bike_id":"5e889d2f-e1d3-4118-96f2-ccf0e39137a2","system_id":"levelo_inurba_marseille","lat":43.302992,"lon":5.392136,"is_reserved":false,"is_disabled":false,"rental_uris":{"android":"levelo://app?vid=5e889d2f-e1d3-4118-96f2-ccf0e39137a2","ios":"levelo://app?vid=5e889d2f-e1d3-4118-96f2-ccf0e39137a2"},"vehicle_type_id":"4","last_reported":1706492421,"current_range_meters":29600,"station_id":"ce4bgkh2rcd13ifvqbk0","pricing_plan_id":"free"},{"bike_id":"458f29ce-eb0b-482f-b4c1-0b9a313a50bf","system_id":"levelo_inurba_marseille","lat":43.2936,"lon":5.37835,"is_reserved":false,"is_disabled":false,"rental_uris":{"android":"levelo://app?vid=458f29ce-eb0b-482f-b4c1-0b9a313a50bf","ios":"levelo://app?vid=458f29ce-eb0b-482f-b4c1-0b9a313a50bf"},"vehicle_type_id":"4","last_reported":1706492421,"current_range_meters":18800,"station_id":"ce4bgjh2rcd13ifvqbf0","pricing_plan_id":"free"},{"bike_id":"a764beb5-7f1e-498b-985f-83c49cce25d7","system_id":"levelo_inurba_marseille","lat":43.300852,"lon":5.390859,"is_reserved":false,"is_disabled":false,"rental_uris":{"android":"levelo://app?vid=a764beb5-7f1e-498b-985f-83c49cce25d7","ios":"levelo://app?vid=a764beb5-7f1e-498b-985f-83c49cce25d7"},"vehicle_type_id":"4","last_reported":1706492421,"current_range_meters":28000,"station_id":"ce4bh192rcd13ifvqdb0","pricing_plan_id":"free"},{"bike_id":"132b0cb1-c2fa-4b68-afa2-941219582eda","system_id":"levelo_inurba_marseille","lat":43.30085,"lon":5.390856,"is_reserved":false,"is_disabled":false,"rental_uris":{"android":"levelo://app?vid=132b0cb1-c2fa-4b68-afa2-941219582eda","ios":"levelo://app?vid=132b0cb1-c2fa-4b68-afa2-941219582eda"},"vehicle_type_id":"4","last_reported":1706492421,"current_range_meters":23200,"station_id":"ce4bh192rcd13ifvqdb0","pricing_plan_id":"free"},{"bike_id":"a7cbbdfe-9e93-4dc3-9267-0aff76a4a8c6","system_id":"levelo_inurba_marseille","lat":43.309038,"lon":5.396546,"is_reserved":false,"is_disabled":false,"rental_uris":{"android":"levelo://app?vid=a7cbbdfe-9e93-4dc3-9267-0aff76a4a8c6","ios":"levelo://app?vid=a7cbbdfe-9e93-4dc3-9267-0aff76a4a8c6"},"vehicle_type_id":"4","last_reported":1706492421,"current_range_meters":18800,"station_id":"ce4bh012rcd13ifvqcv0","pricing_plan_id":"free"},{"bike_id":"0297216c-f343-4c23-86db-4f41ad3199ed","system_id":"levelo_inurba_marseille","lat":43.313291,"lon":5.396838,"is_reserved":false,"is_disabled":false,"rental_uris":{"android":"levelo://app?vid=0297216c-f343-4c23-86db-4f41ad3199ed","ios":"levelo://app?vid=0297216c-f343-4c23-86db-4f41ad3199ed"},"vehicle_type_id":"4","last_reported":1706492421,"current_range_meters":31200,"station_id":"ce4bgvp2rcd13ifvqcu0","pricing_plan_id":"free"},{"bike_id":"01e00602-cc09-4bf4-884e-dfe9b4427536","system_id":"levelo_inurba_marseille","lat":43.313291,"lon":5.396838,"is_reserved":false,"is_disabled":false,"rental_uris":{"android":"levelo://app?vid=01e00602-cc09-4bf4-884e-dfe9b4427536","ios":"levelo://app?vid=01e00602-cc09-4bf4-884e-dfe9b4427536"},"vehicle_type_id":"4","last_reported":1706492421,"current_range_meters":9200,"station_id":"ce4bgvp2rcd13ifvqcu0","pricing_plan_id":"free"},{"bike_id":"b1f01d87-29a9-4e90-81c5-0f25f813dabf","system_id":"levelo_inurba_marseille","lat":43.313291,"lon":5.396838,"is_reserved":false,"is_disabled":false,"rental_uris":{"android":"levelo://app?vid=b1f01d87-29a9-4e90-81c5-0f25f813dabf","ios":"levelo://app?vid=b1f01d87-29a9-4e90-81c5-0f25f813dabf"},"vehicle_type_id":"4","last_reported":1706492421,"current_range_meters":26800,"station_id":"ce4bgvp2rcd13ifvqcu0","pricing_plan_id":"free"},{"bike_id":"360ae2f7-8bcb-471b-929d-3d8eedbf87b7","system_id":"levelo_inurba_marseille","lat":43.313291,"lon":5.396838,"is_reserved":false,"is_disabled":false,"rental_uris":{"android":"levelo://app?vid=360ae2f7-8bcb-471b-929d-3d8eedbf87b7","ios":"levelo://app?vid=360ae2f7-8bcb-471b-929d-3d8eedbf87b7"},"vehicle_type_id":"4","last_reported":1706492421,"current_range_meters":10400,"station_id":"ce4bgvp2rcd13ifvqcu0","pricing_plan_id":"free"},{"bike_id":"e6f7d19c-ab25-421e-a600-73601eb6516b","system_id":"levelo_inurba_marseille","lat":43.309038,"lon":5.396546,"is_reserved":false,"is_disabled":false,"rental_uris":{"android":"levelo://app?vid=e6f7d19c-ab25-421e-a600-73601eb6516b","ios":"levelo://app?vid=e6f7d19c-ab25-421e-a600-73601eb6516b"},"vehicle_type_id":"4","last_reported":1706492421,"current_range_meters":0,"station_id":"ce4bh012rcd13ifvqcv0","pricing_plan_id":"free"},{"bike_id":"8cd28602-12a3-4baf-970f-6aceec501a48","system_id":"levelo_inurba_marseille","lat":43.302008,"lon":5.394694,"is_reserved":false,"is_disabled":false,"rental_uris":{"android":"levelo://app?vid=8cd28602-12a3-4baf-970f-6aceec501a48","ios":"levelo://app?vid=8cd28602-12a3-4baf-970f-6aceec501a48"},"vehicle_type_id":"4","last_reported":1706492421,"current_range_meters":26400,"station_id":"ce4bh0p2rcd13ifvqd70","pricing_plan_id":"free"},{"bike_id":"f11fb805-017d-4a11-a051-6eaf4f93cf52","system_id":"levelo_inurba_marseille","lat":43.290624,"lon":5.359245,"is_reserved":false,"is_disabled":false,"rental_uris":{"android":"levelo://app?vid=f11fb805-017d-4a11-a051-6eaf4f93cf52","ios":"levelo://app?vid=f11fb805-017d-4a11-a051-6eaf4f93cf52"},"vehicle_type_id":"4","last_reported":1706492421,"current_range_meters":31600,"station_id":"ce4bha92rcd13ifvqeg0","pricing_plan_id":"free"},{"bike_id":"763d5da0-58de-4279-b626-8bdace45b5e8","system_id":"levelo_inurba_marseille","lat":43.290624,"lon":5.359245,"is_reserved":false,"is_disabled":false,"rental_uris":{"android":"levelo://app?vid=763d5da0-58de-4279-b626-8bdace45b5e8","ios":"levelo://app?vid=763d5da0-58de-4279-b626-8bdace45b5e8"},"vehicle_type_id":"4","last_reported":1706492421,"current_range_meters":8400,"station_id":"ce4bha92rcd13ifvqeg0","pricing_plan_id":"free"},{"bike_id":"99652a86-1a6b-4f4a-b8f0-34efd26065e0","system_id":"levelo_inurba_marseille","lat":43.289468,"lon":5.363719,"is_reserved":false,"is_disabled":false,"rental_uris":{"android":"levelo://app?vid=99652a86-1a6b-4f4a-b8f0-34efd26065e0","ios":"levelo://app?vid=99652a86-1a6b-4f4a-b8f0-34efd26065e0"},"vehicle_type_id":"4","last_reported":1706492421,"current_range_meters":24400,"station_id":"ce4bhc92rcd13ifvqetg","pricing_plan_id":"free"},{"bike_id":"cd7119c1-22fd-4cc3-a0dd-1a49e512dec3","system_id":"levelo_inurba_marseille","lat":43.289184,"lon":5.366408,"is_reserved":false,"is_disabled":false,"rental_uris":{"android":"levelo://app?vid=cd7119c1-22fd-4cc3-a0dd-1a49e512dec3","ios":"levelo://app?vid=cd7119c1-22fd-4cc3-a0dd-1a49e512dec3"},"vehicle_type_id":"4","last_reported":1706492421,"current_range_meters":26400,"station_id":"ce4bhap2rcd13ifvqek0","pricing_plan_id":"free"},{"bike_id":"d4b082de-229a-4a6a-8409-df34abf576c7","system_id":"levelo_inurba_marseille","lat":43.289184,"lon":5.366408,"is_reserved":false,"is_disabled":false,"rental_uris":{"android":"levelo://app?vid=d4b082de-229a-4a6a-8409-df34abf576c7","ios":"levelo://app?vid=d4b082de-229a-4a6a-8409-df34abf576c7"},"vehicle_type_id":"4","last_reported":1706492421,"current_range_meters":25600,"station_id":"ce4bhap2rcd13ifvqek0","pricing_plan_id":"free"},{"bike_id":"127569a6-4958-40e4-8857-88c7bd849270","system_id":"levelo_inurba_marseille","lat":43.289468,"lon":5.363719,"is_reserved":false,"is_disabled":false,"rental_uris":{"android":"levelo://app?vid=127569a6-4958-40e4-8857-88c7bd849270","ios":"levelo://app?vid=127569a6-4958-40e4-8857-88c7bd849270"},"vehicle_type_id":"4","last_reported":1706492421,"current_range_meters":28800,"station_id":"ce4bhc92rcd13ifvqetg","pricing_plan_id":"free"},{"bike_id":"586e5e8f-3a81-4c60-87f7-cb21e47c4b87","system_id":"levelo_inurba_marseille","lat":43.29004,"lon":5.35611,"is_reserved":false,"is_disabled":false,"rental_uris":{"android":"levelo://app?vid=586e5e8f-3a81-4c60-87f7-cb21e47c4b87","ios":"levelo://app?vid=586e5e8f-3a81-4c60-87f7-cb21e47c4b87"},"vehicle_type_id":"4","last_reported":1706492421,"current_range_meters":13600,"station_id":"ce4bhb92rcd13ifvqen0","pricing_plan_id":"free"},{"bike_id":"b7706dd7-3786-4087-8965-0886b169ac4e","system_id":"levelo_inurba_marseille","lat":43.297815,"lon":5.393548,"is_reserved":false,"is_disabled":false,"rental_uris":{"android":"levelo://app?vid=b7706dd7-3786-4087-8965-0886b169ac4e","ios":"levelo://app?vid=b7706dd7-3786-4087-8965-0886b169ac4e"},"vehicle_type_id":"4","last_reported":1706492421,"current_range_meters":17200,"station_id":"chh1huq6cuj3fo74tm60","pricing_plan_id":"free"},{"bike_id":"76d49076-bcdf-4a95-9b83-3b5bf0859c26","system_id":"levelo_inurba_marseille","lat":43.297852,"lon":5.393428,"is_reserved":false,"is_disabled":false,"rental_uris":{"android":"levelo://app?vid=76d49076-bcdf-4a95-9b83-3b5bf0859c26","ios":"levelo://app?vid=76d49076-bcdf-4a95-9b83-3b5bf0859c26"},"vehicle_type_id":"4","last_reported":1706492421,"current_range_meters":21200,"station_id":"chh1huq6cuj3fo74tm60","pricing_plan_id":"free"},{"bike_id":"7ceb8c1c-8f73-44bd-ab93-ddbadd8c1874","system_id":"levelo_inurba_marseille","lat":43.29782,"lon":5.39341,"is_reserved":false,"is_disabled":false,"rental_uris":{"android":"levelo://app?vid=7ceb8c1c-8f73-44bd-ab93-ddbadd8c1874","ios":"levelo://app?vid=7ceb8c1c-8f73-44bd-ab93-ddbadd8c1874"},"vehicle_type_id":"4","last_reported":1706492421,"current_range_meters":26800,"station_id":"chh1huq6cuj3fo74tm60","pricing_plan_id":"free"},{"bike_id":"b7397a09-ad1e-4f4b-bd87-9cd57aa4c0e9","system_id":"levelo_inurba_marseille","lat":43.330442,"lon":5.389148,"is_reserved":false,"is_disabled":false,"rental_uris":{"android":"levelo://app?vid=b7397a09-ad1e-4f4b-bd87-9cd57aa4c0e9","ios":"levelo://app?vid=b7397a09-ad1e-4f4b-bd87-9cd57aa4c0e9"},"vehicle_type_id":"4","last_reported":1706492421,"current_range_meters":10400,"station_id":"ce4bhr92rcd13ifvqhrg","pricing_plan_id":"free"},{"bike_id":"8c01f223-829f-4d41-a107-8db41a76a15f","system_id":"levelo_inurba_marseille","lat":43.295169,"lon":5.390426,"is_reserved":false,"is_disabled":false,"rental_uris":{"android":"levelo://app?vid=8c01f223-829f-4d41-a107-8db41a76a15f","ios":"levelo://app?vid=8c01f223-829f-4d41-a107-8db41a76a15f"},"vehicle_type_id":"4","last_reported":1706492421,"current_range_meters":27200,"station_id":"ce4bh3p2rcd13ifvqdp0","pricing_plan_id":"free"},{"bike_id":"c3bf1cbd-fa56-4133-ad88-853fc6f0eea3","system_id":"levelo_inurba_marseille","lat":43.330442,"lon":5.389148,"is_reserved":false,"is_disabled":false,"rental_uris":{"android":"levelo://app?vid=c3bf1cbd-fa56-4133-ad88-853fc6f0eea3","ios":"levelo://app?vid=c3bf1cbd-fa56-4133-ad88-853fc6f0eea3"},"vehicle_type_id":"4","last_reported":1706492421,"current_range_meters":0,"station_id":"ce4bhr92rcd13ifvqhrg","pricing_plan_id":"free"},{"bike_id":"df97485f-1606-4d96-b1b7-6ce9de85ba64","system_id":"levelo_inurba_marseille","lat":43.312609,"lon":5.401662,"is_reserved":false,"is_disabled":false,"rental_uris":{"android":"levelo://app?vid=df97485f-1606-4d96-b1b7-6ce9de85ba64","ios":"levelo://app?vid=df97485f-1606-4d96-b1b7-6ce9de85ba64"},"vehicle_type_id":"4","last_reported":1706492421,"current_range_meters":26800,"station_id":"ce4bh092rcd13ifvqd30","pricing_plan_id":"free"},{"bike_id":"cf5f845d-29c6-4edb-b231-80f45feea0a3","system_id":"levelo_inurba_marseille","lat":43.30934,"lon":5.40134,"is_reserved":false,"is_disabled":false,"rental_uris":{"android":"levelo://app?vid=cf5f845d-29c6-4edb-b231-80f45feea0a3","ios":"levelo://app?vid=cf5f845d-29c6-4edb-b231-80f45feea0a3"},"vehicle_type_id":"4","last_reported":1706492421,"current_range_meters":18400,"station_id":"ce4bgvp2rcd13ifvqct0","pricing_plan_id":"free"},{"bike_id":"641acafc-e1d9-454e-966d-027e7a65bf62","system_id":"levelo_inurba_marseille","lat":43.309371,"lon":5.401449,"is_reserved":false,"is_disabled":false,"rental_uris":{"android":"levelo://app?vid=641acafc-e1d9-454e-966d-027e7a65bf62","ios":"levelo://app?vid=641acafc-e1d9-454e-966d-027e7a65bf62"},"vehicle_type_id":"4","last_reported":1706492421,"current_range_meters":29600,"station_id":"ce4bgvp2rcd13ifvqct0","pricing_plan_id":"free"},{"bike_id":"68c035f9-41db-4e88-a135-5477a81376b4","system_id":"levelo_inurba_marseille","lat":43.312609,"lon":5.401662,"is_reserved":false,"is_disabled":false,"rental_uris":{"android":"levelo://app?vid=68c035f9-41db-4e88-a135-5477a81376b4","ios":"levelo://app?vid=68c035f9-41db-4e88-a135-5477a81376b4"},"vehicle_type_id":"4","last_reported":1706492421,"current_range_meters":28000,"station_id":"ce4bh092rcd13ifvqd30","pricing_plan_id":"free"},{"bike_id":"d59dce29-c78e-4d7f-a644-e872d290fe08","system_id":"levelo_inurba_marseille","lat":43.31277,"lon":5.40169,"is_reserved":false,"is_disabled":false,"rental_uris":{"android":"levelo://app?vid=d59dce29-c78e-4d7f-a644-e872d290fe08","ios":"levelo://app?vid=d59dce29-c78e-4d7f-a644-e872d290fe08"},"vehicle_type_id":"4","last_reported":1706492421,"current_range_meters":12800,"station_id":"ce4bh092rcd13ifvqd30","pricing_plan_id":"free"},{"bike_id":"0f2c1b5b-2255-427d-8e1c-a2e4920df7dd","system_id":"levelo_inurba_marseille","lat":43.337428,"lon":5.374501,"is_reserved":false,"is_disabled":false,"rental_uris":{"android":"levelo://app?vid=0f2c1b5b-2255-427d-8e1c-a2e4920df7dd","ios":"levelo://app?vid=0f2c1b5b-2255-427d-8e1c-a2e4920df7dd"},"vehicle_type_id":"4","last_reported":1706492421,"current_range_meters":24800,"station_id":"","pricing_plan_id":"free"},{"bike_id":"2178f92b-8a8c-49f3-9594-f0b2241dd5aa","system_id":"levelo_inurba_marseille","lat":43.312609,"lon":5.401662,"is_reserved":false,"is_disabled":false,"rental_uris":{"android":"levelo://app?vid=2178f92b-8a8c-49f3-9594-f0b2241dd5aa","ios":"levelo://app?vid=2178f92b-8a8c-49f3-9594-f0b2241dd5aa"},"vehicle_type_id":"4","last_reported":1706492421,"current_range_meters":20000,"station_id":"ce4bh092rcd13ifvqd30","pricing_plan_id":"free"},{"bike_id":"2bd5ec1a-deb8-442a-952a-4e955d8788c5","system_id":"levelo_inurba_marseille","lat":43.309285,"lon":5.401427,"is_reserved":false,"is_disabled":false,"rental_uris":{"android":"levelo://app?vid=2bd5ec1a-deb8-442a-952a-4e955d8788c5","ios":"levelo://app?vid=2bd5ec1a-deb8-442a-952a-4e955d8788c5"},"vehicle_type_id":"4","last_reported":1706492421,"current_range_meters":1200,"station_id":"ce4bgvp2rcd13ifvqct0","pricing_plan_id":"free"},{"bike_id":"fcfa15fe-6695-474b-8f30-dc941c73b131","system_id":"levelo_inurba_marseille","lat":43.309359,"lon":5.401449,"is_reserved":false,"is_disabled":false,"rental_uris":{"android":"levelo://app?vid=fcfa15fe-6695-474b-8f30-dc941c73b131","ios":"levelo://app?vid=fcfa15fe-6695-474b-8f30-dc941c73b131"},"vehicle_type_id":"4","last_reported":1706492421,"current_range_meters":2800,"station_id":"ce4bgvp2rcd13ifvqct0","pricing_plan_id":"free"},{"bike_id":"c9864add-387a-46e9-8a0c-a5d968f62227","system_id":"levelo_inurba_marseille","lat":43.309371,"lon":5.401449,"is_reserved":false,"is_disabled":false,"rental_uris":{"android":"levelo://app?vid=c9864add-387a-46e9-8a0c-a5d968f62227","ios":"levelo://app?vid=c9864add-387a-46e9-8a0c-a5d968f62227"},"vehicle_type_id":"4","last_reported":1706492421,"current_range_meters":24400,"station_id":"ce4bgvp2rcd13ifvqct0","pricing_plan_id":"free"},{"bike_id":"a563cdbf-78b8-441c-8dce-8da1c3325b92","system_id":"levelo_inurba_marseille","lat":43.337517,"lon":5.374543,"is_reserved":false,"is_disabled":false,"rental_uris":{"android":"levelo://app?vid=a563cdbf-78b8-441c-8dce-8da1c3325b92","ios":"levelo://app?vid=a563cdbf-78b8-441c-8dce-8da1c3325b92"},"vehicle_type_id":"4","last_reported":1706492421,"current_range_meters":18000,"station_id":"","pricing_plan_id":"free"},{"bike_id":"b7f12eab-e0a6-499e-87ec-2b4381c4602a","system_id":"levelo_inurba_marseille","lat":43.337544,"lon":5.374554,"is_reserved":false,"is_disabled":false,"rental_uris":{"android":"levelo://app?vid=b7f12eab-e0a6-499e-87ec-2b4381c4602a","ios":"levelo://app?vid=b7f12eab-e0a6-499e-87ec-2b4381c4602a"},"vehicle_type_id":"4","last_reported":1706492421,"current_range_meters":24000,"station_id":"","pricing_plan_id":"free"},{"bike_id":"2fe24097-b1c2-4583-ba1f-cf8501171a4c","system_id":"levelo_inurba_marseille","lat":43.337553,"lon":5.37488,"is_reserved":false,"is_disabled":false,"rental_uris":{"android":"levelo://app?vid=2fe24097-b1c2-4583-ba1f-cf8501171a4c","ios":"levelo://app?vid=2fe24097-b1c2-4583-ba1f-cf8501171a4c"},"vehicle_type_id":"4","last_reported":1706492421,"current_range_meters":9200,"station_id":"","pricing_plan_id":"free"},{"bike_id":"b7d3b81d-d85a-44b5-a0c7-8f9c9f74639e","system_id":"levelo_inurba_marseille","lat":43.33765,"lon":5.374672,"is_reserved":false,"is_disabled":false,"rental_uris":{"android":"levelo://app?vid=b7d3b81d-d85a-44b5-a0c7-8f9c9f74639e","ios":"levelo://app?vid=b7d3b81d-d85a-44b5-a0c7-8f9c9f74639e"},"vehicle_type_id":"4","last_reported":1706492421,"current_range_meters":24800,"station_id":"","pricing_plan_id":"free"},{"bike_id":"1facbbf3-baac-42f8-85eb-cb1e36f3e4b9","system_id":"levelo_inurba_marseille","lat":43.337681,"lon":5.374907,"is_reserved":false,"is_disabled":false,"rental_uris":{"android":"levelo://app?vid=1facbbf3-baac-42f8-85eb-cb1e36f3e4b9","ios":"levelo://app?vid=1facbbf3-baac-42f8-85eb-cb1e36f3e4b9"},"vehicle_type_id":"4","last_reported":1706492421,"current_range_meters":11600,"station_id":"","pricing_plan_id":"free"},{"bike_id":"eba6ef58-29d1-4196-9a1a-4f81035ff91b","system_id":"levelo_inurba_marseille","lat":43.30602,"lon":5.40099,"is_reserved":false,"is_disabled":false,"rental_uris":{"android":"levelo://app?vid=eba6ef58-29d1-4196-9a1a-4f81035ff91b","ios":"levelo://app?vid=eba6ef58-29d1-4196-9a1a-4f81035ff91b"},"vehicle_type_id":"4","last_reported":1706492421,"current_range_meters":22800,"station_id":"ce4bh112rcd13ifvqda0","pricing_plan_id":"free"},{"bike_id":"58fb4389-db25-47ef-b931-36558fc28c1d","system_id":"levelo_inurba_marseille","lat":43.28727,"lon":5.36078,"is_reserved":false,"is_disabled":false,"rental_uris":{"android":"levelo://app?vid=58fb4389-db25-47ef-b931-36558fc28c1d","ios":"levelo://app?vid=58fb4389-db25-47ef-b931-36558fc28c1d"},"vehicle_type_id":"4","last_reported":1706492421,"current_range_meters":23200,"station_id":"cki0cbj6b192h4jlfktg","pricing_plan_id":"free"},{"bike_id":"7a5e519d-41a6-414b-b6ed-0a86694e3771","system_id":"levelo_inurba_marseille","lat":43.28727,"lon":5.36078,"is_reserved":false,"is_disabled":false,"rental_uris":{"android":"levelo://app?vid=7a5e519d-41a6-414b-b6ed-0a86694e3771","ios":"levelo://app?vid=7a5e519d-41a6-414b-b6ed-0a86694e3771"},"vehicle_type_id":"4","last_reported":1706492421,"current_range_meters":31200,"station_id":"cki0cbj6b192h4jlfktg","pricing_plan_id":"free"},{"bike_id":"522d42eb-9b29-48d8-bd56-5615cefbb5c8","system_id":"levelo_inurba_marseille","lat":43.304643,"lon":5.40063,"is_reserved":false,"is_disabled":false,"rental_uris":{"android":"levelo://app?vid=522d42eb-9b29-48d8-bd56-5615cefbb5c8","ios":"levelo://app?vid=522d42eb-9b29-48d8-bd56-5615cefbb5c8"},"vehicle_type_id":"4","last_reported":1706492421,"current_range_meters":16400,"station_id":"","pricing_plan_id":"free"},{"bike_id":"d5410c4e-fb18-4c74-ac61-facbed0ecda6","system_id":"levelo_inurba_marseille","lat":43.301358,"lon":5.398794,"is_reserved":false,"is_disabled":false,"rental_uris":{"android":"levelo://app?vid=d5410c4e-fb18-4c74-ac61-facbed0ecda6","ios":"levelo://app?vid=d5410c4e-fb18-4c74-ac61-facbed0ecda6"},"vehicle_type_id":"4","last_reported":1706492421,"current_range_meters":23200,"station_id":"ce4bh0h2rcd13ifvqd40","pricing_plan_id":"free"},{"bike_id":"958047b0-4f22-4cb0-9cc9-81ca133d4db3","system_id":"levelo_inurba_marseille","lat":43.301454,"lon":5.398872,"is_reserved":false,"is_disabled":false,"rental_uris":{"android":"levelo://app?vid=958047b0-4f22-4cb0-9cc9-81ca133d4db3","ios":"levelo://app?vid=958047b0-4f22-4cb0-9cc9-81ca133d4db3"},"vehicle_type_id":"4","last_reported":1706492421,"current_range_meters":12400,"station_id":"ce4bh0h2rcd13ifvqd40","pricing_plan_id":"free"},{"bike_id":"096c3de9-ae8b-477b-bfa6-b8387bbd7320","system_id":"levelo_inurba_marseille","lat":43.28727,"lon":5.36078,"is_reserved":false,"is_disabled":false,"rental_uris":{"android":"levelo://app?vid=096c3de9-ae8b-477b-bfa6-b8387bbd7320","ios":"levelo://app?vid=096c3de9-ae8b-477b-bfa6-b8387bbd7320"},"vehicle_type_id":"4","last_reported":1706492421,"current_range_meters":18800,"station_id":"cki0cbj6b192h4jlfktg","pricing_plan_id":"free"},{"bike_id":"4526c5a3-58e3-4b33-bef7-119d0c9b1850","system_id":"levelo_inurba_marseille","lat":43.28727,"lon":5.36078,"is_reserved":false,"is_disabled":false,"rental_uris":{"android":"levelo://app?vid=4526c5a3-58e3-4b33-bef7-119d0c9b1850","ios":"levelo://app?vid=4526c5a3-58e3-4b33-bef7-119d0c9b1850"},"vehicle_type_id":"4","last_reported":1706492421,"current_range_meters":23200,"station_id":"cki0cbj6b192h4jlfktg","pricing_plan_id":"free"},{"bike_id":"94c712f0-2471-4cbf-b779-4b1642f80194","system_id":"levelo_inurba_marseille","lat":43.286961,"lon":5.373785,"is_reserved":false,"is_disabled":false,"rental_uris":{"android":"levelo://app?vid=94c712f0-2471-4cbf-b779-4b1642f80194","ios":"levelo://app?vid=94c712f0-2471-4cbf-b779-4b1642f80194"},"vehicle_type_id":"4","last_reported":1706492421,"current_range_meters":19600,"station_id":"ce4bh3p2rcd13ifvqdq0","pricing_plan_id":"free"},{"bike_id":"f7d0a52c-5f99-4a0a-966d-b6ecb2f9473f","system_id":"levelo_inurba_marseille","lat":43.286591,"lon":5.363346,"is_reserved":false,"is_disabled":false,"rental_uris":{"android":"levelo://app?vid=f7d0a52c-5f99-4a0a-966d-b6ecb2f9473f","ios":"levelo://app?vid=f7d0a52c-5f99-4a0a-966d-b6ecb2f9473f"},"vehicle_type_id":"4","last_reported":1706492421,"current_range_meters":24400,"station_id":"ce4bhah2rcd13ifvqej0","pricing_plan_id":"free"},{"bike_id":"111e9c3b-9d64-40ba-a838-427b7e448896","system_id":"levelo_inurba_marseille","lat":43.298681,"lon":5.397225,"is_reserved":false,"is_disabled":false,"rental_uris":{"android":"levelo://app?vid=111e9c3b-9d64-40ba-a838-427b7e448896","ios":"levelo://app?vid=111e9c3b-9d64-40ba-a838-427b7e448896"},"vehicle_type_id":"4","last_reported":1706492421,"current_range_meters":400,"station_id":"ce4bh0h2rcd13ifvqd50","pricing_plan_id":"free"},{"bike_id":"94e643cb-8463-4417-a2ec-d66404e804cc","system_id":"levelo_inurba_marseille","lat":43.286593,"lon":5.363346,"is_reserved":false,"is_disabled":false,"rental_uris":{"android":"levelo://app?vid=94e643cb-8463-4417-a2ec-d66404e804cc","ios":"levelo://app?vid=94e643cb-8463-4417-a2ec-d66404e804cc"},"vehicle_type_id":"4","last_reported":1706492421,"current_range_meters":24400,"station_id":"ce4bhah2rcd13ifvqej0","pricing_plan_id":"free"},{"bike_id":"44383bee-c4d1-4698-b237-49da6c63e49e","system_id":"levelo_inurba_marseille","lat":43.286593,"lon":5.363346,"is_reserved":false,"is_disabled":false,"rental_uris":{"android":"levelo://app?vid=44383bee-c4d1-4698-b237-49da6c63e49e","ios":"levelo://app?vid=44383bee-c4d1-4698-b237-49da6c63e49e"},"vehicle_type_id":"4","last_reported":1706492421,"current_range_meters":27600,"station_id":"ce4bhah2rcd13ifvqej0","pricing_plan_id":"free"},{"bike_id":"85439f9d-13b5-48c6-8b96-17b743a98f3f","system_id":"levelo_inurba_marseille","lat":43.286961,"lon":5.373785,"is_reserved":false,"is_disabled":false,"rental_uris":{"android":"levelo://app?vid=85439f9d-13b5-48c6-8b96-17b743a98f3f","ios":"levelo://app?vid=85439f9d-13b5-48c6-8b96-17b743a98f3f"},"vehicle_type_id":"4","last_reported":1706492421,"current_range_meters":25200,"station_id":"ce4bh3p2rcd13ifvqdq0","pricing_plan_id":"free"},{"bike_id":"2fd6249d-582f-4c1a-80e9-eed91193e373","system_id":"levelo_inurba_marseille","lat":43.298681,"lon":5.397225,"is_reserved":false,"is_disabled":false,"rental_uris":{"android":"levelo://app?vid=2fd6249d-582f-4c1a-80e9-eed91193e373","ios":"levelo://app?vid=2fd6249d-582f-4c1a-80e9-eed91193e373"},"vehicle_type_id":"4","last_reported":1706492421,"current_range_meters":31600,"station_id":"ce4bh0h2rcd13ifvqd50","pricing_plan_id":"free"},{"bike_id":"377ef3f8-d218-4c95-b8ac-ee69a75c2f73","system_id":"levelo_inurba_marseille","lat":43.286961,"lon":5.373785,"is_reserved":false,"is_disabled":false,"rental_uris":{"android":"levelo://app?vid=377ef3f8-d218-4c95-b8ac-ee69a75c2f73","ios":"levelo://app?vid=377ef3f8-d218-4c95-b8ac-ee69a75c2f73"},"vehicle_type_id":"4","last_reported":1706492421,"current_range_meters":6400,"station_id":"ce4bh3p2rcd13ifvqdq0","pricing_plan_id":"free"},{"bike_id":"c45b9770-f7c1-4c27-915a-3532ed7c69b4","system_id":"levelo_inurba_marseille","lat":43.295196,"lon":5.39397,"is_reserved":false,"is_disabled":false,"rental_uris":{"android":"levelo://app?vid=c45b9770-f7c1-4c27-915a-3532ed7c69b4","ios":"levelo://app?vid=c45b9770-f7c1-4c27-915a-3532ed7c69b4"},"vehicle_type_id":"4","last_reported":1706492421,"current_range_meters":16800,"station_id":"ce4bh292rcd13ifvqdf0","pricing_plan_id":"free"},{"bike_id":"e53f57ab-1997-4b3f-8e51-35dcbe9c367d","system_id":"levelo_inurba_marseille","lat":43.295196,"lon":5.39397,"is_reserved":false,"is_disabled":false,"rental_uris":{"android":"levelo://app?vid=e53f57ab-1997-4b3f-8e51-35dcbe9c367d","ios":"levelo://app?vid=e53f57ab-1997-4b3f-8e51-35dcbe9c367d"},"vehicle_type_id":"4","last_reported":1706492421,"current_range_meters":18800,"station_id":"ce4bh292rcd13ifvqdf0","pricing_plan_id":"free"},{"bike_id":"d76ea027-a9b2-43d9-ae1a-67a481894785","system_id":"levelo_inurba_marseille","lat":43.295196,"lon":5.39397,"is_reserved":false,"is_disabled":false,"rental_uris":{"android":"levelo://app?vid=d76ea027-a9b2-43d9-ae1a-67a481894785","ios":"levelo://app?vid=d76ea027-a9b2-43d9-ae1a-67a481894785"},"vehicle_type_id":"4","last_reported":1706492421,"current_range_meters":21600,"station_id":"ce4bh292rcd13ifvqdf0","pricing_plan_id":"free"},{"bike_id":"0a23d37a-82e0-4ccf-beda-96f1d97ce758","system_id":"levelo_inurba_marseille","lat":43.30257,"lon":5.40055,"is_reserved":false,"is_disabled":false,"rental_uris":{"android":"levelo://app?vid=0a23d37a-82e0-4ccf-beda-96f1d97ce758","ios":"levelo://app?vid=0a23d37a-82e0-4ccf-beda-96f1d97ce758"},"vehicle_type_id":"4","last_reported":1706492421,"current_range_meters":6800,"station_id":"ce4bgvh2rcd13ifvqcs0","pricing_plan_id":"free"},{"bike_id":"183bb1c1-398f-466c-b05d-327ac4efc436","system_id":"levelo_inurba_marseille","lat":43.302511,"lon":5.400653,"is_reserved":false,"is_disabled":false,"rental_uris":{"android":"levelo://app?vid=183bb1c1-398f-466c-b05d-327ac4efc436","ios":"levelo://app?vid=183bb1c1-398f-466c-b05d-327ac4efc436"},"vehicle_type_id":"4","last_reported":1706492421,"current_range_meters":9200,"station_id":"ce4bgth2rcd13ifvqch0","pricing_plan_id":"free"},{"bike_id":"5e2d929a-def3-4ff4-8ba5-8cac24210f21","system_id":"levelo_inurba_marseille","lat":43.302633,"lon":5.400758,"is_reserved":false,"is_disabled":false,"rental_uris":{"android":"levelo://app?vid=5e2d929a-def3-4ff4-8ba5-8cac24210f21","ios":"levelo://app?vid=5e2d929a-def3-4ff4-8ba5-8cac24210f21"},"vehicle_type_id":"4","last_reported":1706492421,"current_range_meters":20800,"station_id":"ce4bgvh2rcd13ifvqcs0","pricing_plan_id":"free"},{"bike_id":"16c44f57-a586-411e-b85b-4c7755c62483","system_id":"levelo_inurba_marseille","lat":43.302569,"lon":5.400779,"is_reserved":false,"is_disabled":false,"rental_uris":{"android":"levelo://app?vid=16c44f57-a586-411e-b85b-4c7755c62483","ios":"levelo://app?vid=16c44f57-a586-411e-b85b-4c7755c62483"},"vehicle_type_id":"4","last_reported":1706492421,"current_range_meters":22000,"station_id":"ce4bgvh2rcd13ifvqcs0","pricing_plan_id":"free"},{"bike_id":"c186c9c7-dfbe-4eda-9b9d-956d82fe1b01","system_id":"levelo_inurba_marseille","lat":43.302512,"lon":5.400781,"is_reserved":false,"is_disabled":false,"rental_uris":{"android":"levelo://app?vid=c186c9c7-dfbe-4eda-9b9d-956d82fe1b01","ios":"levelo://app?vid=c186c9c7-dfbe-4eda-9b9d-956d82fe1b01"},"vehicle_type_id":"4","last_reported":1706492421,"current_range_meters":6000,"station_id":"ce4bgvh2rcd13ifvqcs0","pricing_plan_id":"free"},{"bike_id":"ab8c78d8-9395-4afe-b308-2e591173c381","system_id":"levelo_inurba_marseille","lat":43.286039,"lon":5.370679,"is_reserved":false,"is_disabled":false,"rental_uris":{"android":"levelo://app?vid=ab8c78d8-9395-4afe-b308-2e591173c381","ios":"levelo://app?vid=ab8c78d8-9395-4afe-b308-2e591173c381"},"vehicle_type_id":"4","last_reported":1706492421,"current_range_meters":26400,"station_id":"ce4bht12rcd13ifvqi60","pricing_plan_id":"free"},{"bike_id":"fa41fefc-ca37-48ce-9af2-0c9f5f131c38","system_id":"levelo_inurba_marseille","lat":43.291994,"lon":5.392907,"is_reserved":false,"is_disabled":false,"rental_uris":{"android":"levelo://app?vid=fa41fefc-ca37-48ce-9af2-0c9f5f131c38","ios":"levelo://app?vid=fa41fefc-ca37-48ce-9af2-0c9f5f131c38"},"vehicle_type_id":"4","last_reported":1706492421,"current_range_meters":29200,"station_id":"ce4bh192rcd13ifvqdd0","pricing_plan_id":"free"},{"bike_id":"a57b6e86-c39a-492f-9de0-2450e11239f2","system_id":"levelo_inurba_marseille","lat":43.291994,"lon":5.392907,"is_reserved":false,"is_disabled":false,"rental_uris":{"android":"levelo://app?vid=a57b6e86-c39a-492f-9de0-2450e11239f2","ios":"levelo://app?vid=a57b6e86-c39a-492f-9de0-2450e11239f2"},"vehicle_type_id":"4","last_reported":1706492421,"current_range_meters":30000,"station_id":"ce4bh192rcd13ifvqdd0","pricing_plan_id":"free"},{"bike_id":"33226beb-0913-4a8d-92d7-dbf952bd2dac","system_id":"levelo_inurba_marseille","lat":43.284538,"lon":5.358657,"is_reserved":false,"is_disabled":false,"rental_uris":{"android":"levelo://app?vid=33226beb-0913-4a8d-92d7-dbf952bd2dac","ios":"levelo://app?vid=33226beb-0913-4a8d-92d7-dbf952bd2dac"},"vehicle_type_id":"4","last_reported":1706492421,"current_range_meters":30000,"station_id":"ce4bhah2rcd13ifvqei0","pricing_plan_id":"free"},{"bike_id":"c4f853f8-612e-4d8c-a862-ee54ae74bfd2","system_id":"levelo_inurba_marseille","lat":43.284538,"lon":5.358657,"is_reserved":false,"is_disabled":false,"rental_uris":{"android":"levelo://app?vid=c4f853f8-612e-4d8c-a862-ee54ae74bfd2","ios":"levelo://app?vid=c4f853f8-612e-4d8c-a862-ee54ae74bfd2"},"vehicle_type_id":"4","last_reported":1706492421,"current_range_meters":30000,"station_id":"ce4bhah2rcd13ifvqei0","pricing_plan_id":"free"},{"bike_id":"f29266fc-0acf-4248-a99e-69e2ac19b4ca","system_id":"levelo_inurba_marseille","lat":43.284534,"lon":5.358662,"is_reserved":false,"is_disabled":false,"rental_uris":{"android":"levelo://app?vid=f29266fc-0acf-4248-a99e-69e2ac19b4ca","ios":"levelo://app?vid=f29266fc-0acf-4248-a99e-69e2ac19b4ca"},"vehicle_type_id":"4","last_reported":1706492421,"current_range_meters":26000,"station_id":"ce4bhah2rcd13ifvqei0","pricing_plan_id":"free"},{"bike_id":"29dea693-6583-4cf6-b7fd-120e8590f8f7","system_id":"levelo_inurba_marseille","lat":43.294314,"lon":5.397498,"is_reserved":false,"is_disabled":false,"rental_uris":{"android":"levelo://app?vid=29dea693-6583-4cf6-b7fd-120e8590f8f7","ios":"levelo://app?vid=29dea693-6583-4cf6-b7fd-120e8590f8f7"},"vehicle_type_id":"4","last_reported":1706492421,"current_range_meters":23200,"station_id":"ce4bh3h2rcd13ifvqdo0","pricing_plan_id":"free"},{"bike_id":"f0d68e98-b7d9-4436-a817-67a72da8d1b6","system_id":"levelo_inurba_marseille","lat":43.28619,"lon":5.35106,"is_reserved":false,"is_disabled":false,"rental_uris":{"android":"levelo://app?vid=f0d68e98-b7d9-4436-a817-67a72da8d1b6","ios":"levelo://app?vid=f0d68e98-b7d9-4436-a817-67a72da8d1b6"},"vehicle_type_id":"4","last_reported":1706492421,"current_range_meters":5200,"station_id":"ce4bhch2rcd13ifvqeug","pricing_plan_id":"free"},{"bike_id":"13c2de7b-78cc-467c-ac0b-7bc779d9cb45","system_id":"levelo_inurba_marseille","lat":43.285856,"lon":5.350771,"is_reserved":false,"is_disabled":false,"rental_uris":{"android":"levelo://app?vid=13c2de7b-78cc-467c-ac0b-7bc779d9cb45","ios":"levelo://app?vid=13c2de7b-78cc-467c-ac0b-7bc779d9cb45"},"vehicle_type_id":"4","last_reported":1706492421,"current_range_meters":16800,"station_id":"ce4bhch2rcd13ifvqeug","pricing_plan_id":"free"},{"bike_id":"7ae54cdd-a080-4b45-8252-3e084b51a035","system_id":"levelo_inurba_marseille","lat":43.28614,"lon":5.35105,"is_reserved":false,"is_disabled":false,"rental_uris":{"android":"levelo://app?vid=7ae54cdd-a080-4b45-8252-3e084b51a035","ios":"levelo://app?vid=7ae54cdd-a080-4b45-8252-3e084b51a035"},"vehicle_type_id":"4","last_reported":1706492421,"current_range_meters":18000,"station_id":"ce4bhch2rcd13ifvqeug","pricing_plan_id":"free"},{"bike_id":"e9570744-b9a9-4e2d-9be7-4e2bbca86e4e","system_id":"levelo_inurba_marseille","lat":43.283998,"lon":5.375062,"is_reserved":false,"is_disabled":false,"rental_uris":{"android":"levelo://app?vid=e9570744-b9a9-4e2d-9be7-4e2bbca86e4e","ios":"levelo://app?vid=e9570744-b9a9-4e2d-9be7-4e2bbca86e4e"},"vehicle_type_id":"4","last_reported":1706492421,"current_range_meters":1200,"station_id":"ce4bh412rcd13ifvqds0","pricing_plan_id":"free"},{"bike_id":"f3681578-820d-419c-a4f4-554b7b6156ff","system_id":"levelo_inurba_marseille","lat":43.28411,"lon":5.37527,"is_reserved":false,"is_disabled":false,"rental_uris":{"android":"levelo://app?vid=f3681578-820d-419c-a4f4-554b7b6156ff","ios":"levelo://app?vid=f3681578-820d-419c-a4f4-554b7b6156ff"},"vehicle_type_id":"4","last_reported":1706492421,"current_range_meters":5200,"station_id":"ce4bh412rcd13ifvqds0","pricing_plan_id":"free"},{"bike_id":"9f4709db-5de1-40f0-b586-69efe05d7225","system_id":"levelo_inurba_marseille","lat":43.29571,"lon":5.39971,"is_reserved":false,"is_disabled":false,"rental_uris":{"android":"levelo://app?vid=9f4709db-5de1-40f0-b586-69efe05d7225","ios":"levelo://app?vid=9f4709db-5de1-40f0-b586-69efe05d7225"},"vehicle_type_id":"4","last_reported":1706492421,"current_range_meters":21600,"station_id":"ce4bh312rcd13ifvqdj0","pricing_plan_id":"free"},{"bike_id":"fb779912-5eee-4de5-9cda-129e87a03ae6","system_id":"levelo_inurba_marseille","lat":43.295713,"lon":5.399639,"is_reserved":false,"is_disabled":false,"rental_uris":{"android":"levelo://app?vid=fb779912-5eee-4de5-9cda-129e87a03ae6","ios":"levelo://app?vid=fb779912-5eee-4de5-9cda-129e87a03ae6"},"vehicle_type_id":"4","last_reported":1706492421,"current_range_meters":16400,"station_id":"ce4bh312rcd13ifvqdj0","pricing_plan_id":"free"},{"bike_id":"9e32d4f5-bec5-467e-877e-ca5ed99f8349","system_id":"levelo_inurba_marseille","lat":43.286595,"lon":5.386795,"is_reserved":false,"is_disabled":false,"rental_uris":{"android":"levelo://app?vid=9e32d4f5-bec5-467e-877e-ca5ed99f8349","ios":"levelo://app?vid=9e32d4f5-bec5-467e-877e-ca5ed99f8349"},"vehicle_type_id":"4","last_reported":1706492421,"current_range_meters":25600,"station_id":"ce4bh492rcd13ifvqdug","pricing_plan_id":"free"},{"bike_id":"50b1af7f-697c-456a-b2c0-aaf507c51a13","system_id":"levelo_inurba_marseille","lat":43.33717,"lon":5.391857,"is_reserved":false,"is_disabled":false,"rental_uris":{"android":"levelo://app?vid=50b1af7f-697c-456a-b2c0-aaf507c51a13","ios":"levelo://app?vid=50b1af7f-697c-456a-b2c0-aaf507c51a13"},"vehicle_type_id":"4","last_reported":1706492421,"current_range_meters":27200,"station_id":"ce4bhr92rcd13ifvqhsg","pricing_plan_id":"free"},{"bike_id":"966dc777-e017-4bae-b924-de46490d2c46","system_id":"levelo_inurba_marseille","lat":43.337168,"lon":5.391825,"is_reserved":false,"is_disabled":false,"rental_uris":{"android":"levelo://app?vid=966dc777-e017-4bae-b924-de46490d2c46","ios":"levelo://app?vid=966dc777-e017-4bae-b924-de46490d2c46"},"vehicle_type_id":"4","last_reported":1706492421,"current_range_meters":28400,"station_id":"ce4bhr92rcd13ifvqhsg","pricing_plan_id":"free"},{"bike_id":"b30fc09e-7622-438b-b1e1-1dacc67cfd78","system_id":"levelo_inurba_marseille","lat":43.284793,"lon":5.384113,"is_reserved":false,"is_disabled":false,"rental_uris":{"android":"levelo://app?vid=b30fc09e-7622-438b-b1e1-1dacc67cfd78","ios":"levelo://app?vid=b30fc09e-7622-438b-b1e1-1dacc67cfd78"},"vehicle_type_id":"4","last_reported":1706492421,"current_range_meters":24800,"station_id":"ce4bh512rcd13ifvqe3g","pricing_plan_id":"free"},{"bike_id":"b54b7ccb-67fe-4a0e-81e9-4812322ca73d","system_id":"levelo_inurba_marseille","lat":43.284793,"lon":5.384113,"is_reserved":false,"is_disabled":false,"rental_uris":{"android":"levelo://app?vid=b54b7ccb-67fe-4a0e-81e9-4812322ca73d","ios":"levelo://app?vid=b54b7ccb-67fe-4a0e-81e9-4812322ca73d"},"vehicle_type_id":"4","last_reported":1706492421,"current_range_meters":0,"station_id":"ce4bh512rcd13ifvqe3g","pricing_plan_id":"free"},{"bike_id":"8fc53198-51a9-40b0-8b16-139828f2e09a","system_id":"levelo_inurba_marseille","lat":43.284793,"lon":5.384113,"is_reserved":false,"is_disabled":false,"rental_uris":{"android":"levelo://app?vid=8fc53198-51a9-40b0-8b16-139828f2e09a","ios":"levelo://app?vid=8fc53198-51a9-40b0-8b16-139828f2e09a"},"vehicle_type_id":"4","last_reported":1706492421,"current_range_meters":29200,"station_id":"ce4bh512rcd13ifvqe3g","pricing_plan_id":"free"},{"bike_id":"d163f320-db40-43f5-8761-e1c44cb0ecff","system_id":"levelo_inurba_marseille","lat":43.284787,"lon":5.384116,"is_reserved":false,"is_disabled":false,"rental_uris":{"android":"levelo://app?vid=d163f320-db40-43f5-8761-e1c44cb0ecff","ios":"levelo://app?vid=d163f320-db40-43f5-8761-e1c44cb0ecff"},"vehicle_type_id":"4","last_reported":1706492421,"current_range_meters":20000,"station_id":"ce4bh512rcd13ifvqe3g","pricing_plan_id":"free"},{"bike_id":"0c9f6633-515f-4ffb-8e03-29b2745e08a2","system_id":"levelo_inurba_marseille","lat":43.284786,"lon":5.384194,"is_reserved":false,"is_disabled":false,"rental_uris":{"android":"levelo://app?vid=0c9f6633-515f-4ffb-8e03-29b2745e08a2","ios":"levelo://app?vid=0c9f6633-515f-4ffb-8e03-29b2745e08a2"},"vehicle_type_id":"4","last_reported":1706492421,"current_range_meters":0,"station_id":"ce4bh512rcd13ifvqe3g","pricing_plan_id":"free"},{"bike_id":"2f583741-816b-45f5-9434-b412602bbadc","system_id":"levelo_inurba_marseille","lat":43.284787,"lon":5.384116,"is_reserved":false,"is_disabled":false,"rental_uris":{"android":"levelo://app?vid=2f583741-816b-45f5-9434-b412602bbadc","ios":"levelo://app?vid=2f583741-816b-45f5-9434-b412602bbadc"},"vehicle_type_id":"4","last_reported":1706492421,"current_range_meters":1200,"station_id":"ce4bh512rcd13ifvqe3g","pricing_plan_id":"free"},{"bike_id":"105c5cb9-9b27-498c-b745-9d0bea142788","system_id":"levelo_inurba_marseille","lat":43.297946,"lon":5.404063,"is_reserved":false,"is_disabled":false,"rental_uris":{"android":"levelo://app?vid=105c5cb9-9b27-498c-b745-9d0bea142788","ios":"levelo://app?vid=105c5cb9-9b27-498c-b745-9d0bea142788"},"vehicle_type_id":"4","last_reported":1706492421,"current_range_meters":30800,"station_id":"ce4bh112rcd13ifvqd90","pricing_plan_id":"free"},{"bike_id":"4978a748-4f6e-445e-af8e-de15ff37630f","system_id":"levelo_inurba_marseille","lat":43.29798,"lon":5.40398,"is_reserved":false,"is_disabled":false,"rental_uris":{"android":"levelo://app?vid=4978a748-4f6e-445e-af8e-de15ff37630f","ios":"levelo://app?vid=4978a748-4f6e-445e-af8e-de15ff37630f"},"vehicle_type_id":"4","last_reported":1706492421,"current_range_meters":16000,"station_id":"ce4bh112rcd13ifvqd90","pricing_plan_id":"free"},{"bike_id":"e55b9a05-46d9-46c3-8c81-5de0ae3ad1d6","system_id":"levelo_inurba_marseille","lat":43.297946,"lon":5.404063,"is_reserved":false,"is_disabled":false,"rental_uris":{"android":"levelo://app?vid=e55b9a05-46d9-46c3-8c81-5de0ae3ad1d6","ios":"levelo://app?vid=e55b9a05-46d9-46c3-8c81-5de0ae3ad1d6"},"vehicle_type_id":"4","last_reported":1706492421,"current_range_meters":18000,"station_id":"ce4bh112rcd13ifvqd90","pricing_plan_id":"free"},{"bike_id":"e9f20afa-4867-403d-a92b-3715f6e0d2ed","system_id":"levelo_inurba_marseille","lat":43.297964,"lon":5.40404,"is_reserved":false,"is_disabled":false,"rental_uris":{"android":"levelo://app?vid=e9f20afa-4867-403d-a92b-3715f6e0d2ed","ios":"levelo://app?vid=e9f20afa-4867-403d-a92b-3715f6e0d2ed"},"vehicle_type_id":"4","last_reported":1706492421,"current_range_meters":400,"station_id":"ce4bh112rcd13ifvqd90","pricing_plan_id":"free"},{"bike_id":"dbbe26be-f1a3-445d-82a6-d55ca8e842b7","system_id":"levelo_inurba_marseille","lat":43.297946,"lon":5.404063,"is_reserved":false,"is_disabled":false,"rental_uris":{"android":"levelo://app?vid=dbbe26be-f1a3-445d-82a6-d55ca8e842b7","ios":"levelo://app?vid=dbbe26be-f1a3-445d-82a6-d55ca8e842b7"},"vehicle_type_id":"4","last_reported":1706492421,"current_range_meters":7600,"station_id":"ce4bh112rcd13ifvqd90","pricing_plan_id":"free"},{"bike_id":"21c5a5da-f12f-4e86-ad8a-e9abdab4cc93","system_id":"levelo_inurba_marseille","lat":43.288497,"lon":5.393089,"is_reserved":false,"is_disabled":false,"rental_uris":{"android":"levelo://app?vid=21c5a5da-f12f-4e86-ad8a-e9abdab4cc93","ios":"levelo://app?vid=21c5a5da-f12f-4e86-ad8a-e9abdab4cc93"},"vehicle_type_id":"4","last_reported":1706492421,"current_range_meters":0,"station_id":"ce4bh2p2rcd13ifvqdi0","pricing_plan_id":"free"},{"bike_id":"dd3137ee-b574-4e59-be5c-b89271c62efc","system_id":"levelo_inurba_marseille","lat":43.283494,"lon":5.380945,"is_reserved":false,"is_disabled":false,"rental_uris":{"android":"levelo://app?vid=dd3137ee-b574-4e59-be5c-b89271c62efc","ios":"levelo://app?vid=dd3137ee-b574-4e59-be5c-b89271c62efc"},"vehicle_type_id":"4","last_reported":1706492421,"current_range_meters":27200,"station_id":"ce4bh412rcd13ifvqdr0","pricing_plan_id":"free"},{"bike_id":"d020c4c0-5a74-48cf-8002-4648c21e4b40","system_id":"levelo_inurba_marseille","lat":43.283478,"lon":5.381015,"is_reserved":false,"is_disabled":false,"rental_uris":{"android":"levelo://app?vid=d020c4c0-5a74-48cf-8002-4648c21e4b40","ios":"levelo://app?vid=d020c4c0-5a74-48cf-8002-4648c21e4b40"},"vehicle_type_id":"4","last_reported":1706492421,"current_range_meters":0,"station_id":"ce4bh412rcd13ifvqdr0","pricing_plan_id":"free"},{"bike_id":"7b5ff3c6-eeff-493f-adcc-a2b2d0b055e6","system_id":"levelo_inurba_marseille","lat":43.289363,"lon":5.396322,"is_reserved":false,"is_disabled":false,"rental_uris":{"android":"levelo://app?vid=7b5ff3c6-eeff-493f-adcc-a2b2d0b055e6","ios":"levelo://app?vid=7b5ff3c6-eeff-493f-adcc-a2b2d0b055e6"},"vehicle_type_id":"4","last_reported":1706492421,"current_range_meters":0,"station_id":"ce4bh3h2rcd13ifvqdn0","pricing_plan_id":"free"},{"bike_id":"73cd8cf0-bed9-43b6-a70f-c3f2d03c695c","system_id":"levelo_inurba_marseille","lat":43.289363,"lon":5.396322,"is_reserved":false,"is_disabled":false,"rental_uris":{"android":"levelo://app?vid=73cd8cf0-bed9-43b6-a70f-c3f2d03c695c","ios":"levelo://app?vid=73cd8cf0-bed9-43b6-a70f-c3f2d03c695c"},"vehicle_type_id":"4","last_reported":1706492421,"current_range_meters":31600,"station_id":"ce4bh3h2rcd13ifvqdn0","pricing_plan_id":"free"},{"bike_id":"0b9f59f3-a542-4c08-a711-1fb0b04187df","system_id":"levelo_inurba_marseille","lat":43.289363,"lon":5.396322,"is_reserved":false,"is_disabled":false,"rental_uris":{"android":"levelo://app?vid=0b9f59f3-a542-4c08-a711-1fb0b04187df","ios":"levelo://app?vid=0b9f59f3-a542-4c08-a711-1fb0b04187df"},"vehicle_type_id":"4","last_reported":1706492421,"current_range_meters":1200,"station_id":"ce4bh3h2rcd13ifvqdn0","pricing_plan_id":"free"},{"bike_id":"b41bcd76-cb12-4b33-95cd-9444d1e23578","system_id":"levelo_inurba_marseille","lat":43.293556,"lon":5.401561,"is_reserved":false,"is_disabled":false,"rental_uris":{"android":"levelo://app?vid=b41bcd76-cb12-4b33-95cd-9444d1e23578","ios":"levelo://app?vid=b41bcd76-cb12-4b33-95cd-9444d1e23578"},"vehicle_type_id":"4","last_reported":1706492421,"current_range_meters":4000,"station_id":"","pricing_plan_id":"free"},{"bike_id":"6d191f29-0d73-4ff1-8c43-c6f61b09ce5e","system_id":"levelo_inurba_marseille","lat":43.33717,"lon":5.391857,"is_reserved":false,"is_disabled":false,"rental_uris":{"android":"levelo://app?vid=6d191f29-0d73-4ff1-8c43-c6f61b09ce5e","ios":"levelo://app?vid=6d191f29-0d73-4ff1-8c43-c6f61b09ce5e"},"vehicle_type_id":"4","last_reported":1706492421,"current_range_meters":23600,"station_id":"ce4bhr92rcd13ifvqhsg","pricing_plan_id":"free"},{"bike_id":"cd1e5479-bbef-4304-805e-6ea14a75fc64","system_id":"levelo_inurba_marseille","lat":43.292724,"lon":5.401131,"is_reserved":false,"is_disabled":false,"rental_uris":{"android":"levelo://app?vid=cd1e5479-bbef-4304-805e-6ea14a75fc64","ios":"levelo://app?vid=cd1e5479-bbef-4304-805e-6ea14a75fc64"},"vehicle_type_id":"4","last_reported":1706492421,"current_range_meters":30000,"station_id":"ce4bh312rcd13ifvqdk0","pricing_plan_id":"free"},{"bike_id":"974f9241-a4ff-4893-b64d-4bbcdd93d318","system_id":"levelo_inurba_marseille","lat":43.292724,"lon":5.401131,"is_reserved":false,"is_disabled":false,"rental_uris":{"android":"levelo://app?vid=974f9241-a4ff-4893-b64d-4bbcdd93d318","ios":"levelo://app?vid=974f9241-a4ff-4893-b64d-4bbcdd93d318"},"vehicle_type_id":"4","last_reported":1706492421,"current_range_meters":6000,"station_id":"ce4bh312rcd13ifvqdk0","pricing_plan_id":"free"},{"bike_id":"5293dfea-e2fb-44a8-bc35-6dd8ed6d6e89","system_id":"levelo_inurba_marseille","lat":43.292724,"lon":5.401131,"is_reserved":false,"is_disabled":false,"rental_uris":{"android":"levelo://app?vid=5293dfea-e2fb-44a8-bc35-6dd8ed6d6e89","ios":"levelo://app?vid=5293dfea-e2fb-44a8-bc35-6dd8ed6d6e89"},"vehicle_type_id":"4","last_reported":1706492421,"current_range_meters":28400,"station_id":"ce4bh312rcd13ifvqdk0","pricing_plan_id":"free"},{"bike_id":"78495cb0-0f15-49dc-9fd3-d8685a3a16e3","system_id":"levelo_inurba_marseille","lat":43.282717,"lon":5.350724,"is_reserved":false,"is_disabled":false,"rental_uris":{"android":"levelo://app?vid=78495cb0-0f15-49dc-9fd3-d8685a3a16e3","ios":"levelo://app?vid=78495cb0-0f15-49dc-9fd3-d8685a3a16e3"},"vehicle_type_id":"4","last_reported":1706492421,"current_range_meters":0,"station_id":"ce4bhbp2rcd13ifvqerg","pricing_plan_id":"free"},{"bike_id":"691c7b8a-189c-4630-9d44-c5bbbb1e84e9","system_id":"levelo_inurba_marseille","lat":43.28039,"lon":5.369297,"is_reserved":false,"is_disabled":false,"rental_uris":{"android":"levelo://app?vid=691c7b8a-189c-4630-9d44-c5bbbb1e84e9","ios":"levelo://app?vid=691c7b8a-189c-4630-9d44-c5bbbb1e84e9"},"vehicle_type_id":"4","last_reported":1706492421,"current_range_meters":4400,"station_id":"ce4bha12rcd13ifvqef0","pricing_plan_id":"free"},{"bike_id":"4daef16f-a81e-4042-ac05-8ea3d1dc7d72","system_id":"levelo_inurba_marseille","lat":43.28039,"lon":5.369297,"is_reserved":false,"is_disabled":false,"rental_uris":{"android":"levelo://app?vid=4daef16f-a81e-4042-ac05-8ea3d1dc7d72","ios":"levelo://app?vid=4daef16f-a81e-4042-ac05-8ea3d1dc7d72"},"vehicle_type_id":"4","last_reported":1706492421,"current_range_meters":18800,"station_id":"ce4bha12rcd13ifvqef0","pricing_plan_id":"free"},{"bike_id":"bf9ed574-e30d-4a10-8da6-63d6e69cd454","system_id":"levelo_inurba_marseille","lat":43.28039,"lon":5.369297,"is_reserved":false,"is_disabled":false,"rental_uris":{"android":"levelo://app?vid=bf9ed574-e30d-4a10-8da6-63d6e69cd454","ios":"levelo://app?vid=bf9ed574-e30d-4a10-8da6-63d6e69cd454"},"vehicle_type_id":"4","last_reported":1706492421,"current_range_meters":31200,"station_id":"ce4bha12rcd13ifvqef0","pricing_plan_id":"free"},{"bike_id":"d852d65c-f343-4830-9835-77cbd74a39b0","system_id":"levelo_inurba_marseille","lat":43.290412,"lon":5.399633,"is_reserved":false,"is_disabled":false,"rental_uris":{"android":"levelo://app?vid=d852d65c-f343-4830-9835-77cbd74a39b0","ios":"levelo://app?vid=d852d65c-f343-4830-9835-77cbd74a39b0"},"vehicle_type_id":"4","last_reported":1706492421,"current_range_meters":4400,"station_id":"ce4bh392rcd13ifvqdm0","pricing_plan_id":"free"},{"bike_id":"15e1bd66-ab98-423e-9c25-75b4378a8677","system_id":"levelo_inurba_marseille","lat":43.281044,"lon":5.378308,"is_reserved":false,"is_disabled":false,"rental_uris":{"android":"levelo://app?vid=15e1bd66-ab98-423e-9c25-75b4378a8677","ios":"levelo://app?vid=15e1bd66-ab98-423e-9c25-75b4378a8677"},"vehicle_type_id":"4","last_reported":1706492421,"current_range_meters":20000,"station_id":"ce4bha12rcd13ifvqee0","pricing_plan_id":"free"},{"bike_id":"3deb0238-d67a-4e2a-9fc0-e02c13638bb3","system_id":"levelo_inurba_marseille","lat":43.281044,"lon":5.378308,"is_reserved":false,"is_disabled":false,"rental_uris":{"android":"levelo://app?vid=3deb0238-d67a-4e2a-9fc0-e02c13638bb3","ios":"levelo://app?vid=3deb0238-d67a-4e2a-9fc0-e02c13638bb3"},"vehicle_type_id":"4","last_reported":1706492421,"current_range_meters":29600,"station_id":"ce4bha12rcd13ifvqee0","pricing_plan_id":"free"},{"bike_id":"f46f8720-88d9-4826-b1ab-3cc31cd8d987","system_id":"levelo_inurba_marseille","lat":43.296263,"lon":5.40601,"is_reserved":false,"is_disabled":false,"rental_uris":{"android":"levelo://app?vid=f46f8720-88d9-4826-b1ab-3cc31cd8d987","ios":"levelo://app?vid=f46f8720-88d9-4826-b1ab-3cc31cd8d987"},"vehicle_type_id":"4","last_reported":1706492421,"current_range_meters":26400,"station_id":"ce4bh0h2rcd13ifvqd60","pricing_plan_id":"free"},{"bike_id":"72e137fd-0e6b-44b5-bce8-0ab39f08b120","system_id":"levelo_inurba_marseille","lat":43.281044,"lon":5.378308,"is_reserved":false,"is_disabled":false,"rental_uris":{"android":"levelo://app?vid=72e137fd-0e6b-44b5-bce8-0ab39f08b120","ios":"levelo://app?vid=72e137fd-0e6b-44b5-bce8-0ab39f08b120"},"vehicle_type_id":"4","last_reported":1706492421,"current_range_meters":24800,"station_id":"ce4bha12rcd13ifvqee0","pricing_plan_id":"free"},{"bike_id":"163c4c8d-eed8-49ab-bef2-abac36eeb54a","system_id":"levelo_inurba_marseille","lat":43.281044,"lon":5.378308,"is_reserved":false,"is_disabled":false,"rental_uris":{"android":"levelo://app?vid=163c4c8d-eed8-49ab-bef2-abac36eeb54a","ios":"levelo://app?vid=163c4c8d-eed8-49ab-bef2-abac36eeb54a"},"vehicle_type_id":"4","last_reported":1706492421,"current_range_meters":17200,"station_id":"ce4bha12rcd13ifvqee0","pricing_plan_id":"free"},{"bike_id":"ab3db00c-e8f9-47b9-a334-9ae608f7ecb5","system_id":"levelo_inurba_marseille","lat":43.284462,"lon":5.392121,"is_reserved":false,"is_disabled":false,"rental_uris":{"android":"levelo://app?vid=ab3db00c-e8f9-47b9-a334-9ae608f7ecb5","ios":"levelo://app?vid=ab3db00c-e8f9-47b9-a334-9ae608f7ecb5"},"vehicle_type_id":"4","last_reported":1706492421,"current_range_meters":31600,"station_id":"ce4bhoh2rcd13ifvqh5g","pricing_plan_id":"free"},{"bike_id":"13e8d3dc-27c8-4c6a-b6e9-ce88c6250eac","system_id":"levelo_inurba_marseille","lat":43.284462,"lon":5.392121,"is_reserved":false,"is_disabled":false,"rental_uris":{"android":"levelo://app?vid=13e8d3dc-27c8-4c6a-b6e9-ce88c6250eac","ios":"levelo://app?vid=13e8d3dc-27c8-4c6a-b6e9-ce88c6250eac"},"vehicle_type_id":"4","last_reported":1706492421,"current_range_meters":30000,"station_id":"ce4bhoh2rcd13ifvqh5g","pricing_plan_id":"free"},{"bike_id":"2a68e42e-0ef5-4f56-a4d5-f6a9cea89320","system_id":"levelo_inurba_marseille","lat":43.285742,"lon":5.395004,"is_reserved":false,"is_disabled":false,"rental_uris":{"android":"levelo://app?vid=2a68e42e-0ef5-4f56-a4d5-f6a9cea89320","ios":"levelo://app?vid=2a68e42e-0ef5-4f56-a4d5-f6a9cea89320"},"vehicle_type_id":"4","last_reported":1706492421,"current_range_meters":27200,"station_id":"ce4bh292rcd13ifvqdg0","pricing_plan_id":"free"},{"bike_id":"58795cb8-9f55-4c41-8cbf-c945205fb07f","system_id":"levelo_inurba_marseille","lat":43.285742,"lon":5.395004,"is_reserved":false,"is_disabled":false,"rental_uris":{"android":"levelo://app?vid=58795cb8-9f55-4c41-8cbf-c945205fb07f","ios":"levelo://app?vid=58795cb8-9f55-4c41-8cbf-c945205fb07f"},"vehicle_type_id":"4","last_reported":1706492421,"current_range_meters":31200,"station_id":"ce4bh292rcd13ifvqdg0","pricing_plan_id":"free"},{"bike_id":"80966bfb-0318-4e4b-899c-2c9acb98d16b","system_id":"levelo_inurba_marseille","lat":43.28573,"lon":5.394992,"is_reserved":false,"is_disabled":false,"rental_uris":{"android":"levelo://app?vid=80966bfb-0318-4e4b-899c-2c9acb98d16b","ios":"levelo://app?vid=80966bfb-0318-4e4b-899c-2c9acb98d16b"},"vehicle_type_id":"4","last_reported":1706492421,"current_range_meters":29600,"station_id":"ce4bh292rcd13ifvqdg0","pricing_plan_id":"free"},{"bike_id":"b3d40290-9798-4c2d-af98-1803995b6535","system_id":"levelo_inurba_marseille","lat":43.285742,"lon":5.395004,"is_reserved":false,"is_disabled":false,"rental_uris":{"android":"levelo://app?vid=b3d40290-9798-4c2d-af98-1803995b6535","ios":"levelo://app?vid=b3d40290-9798-4c2d-af98-1803995b6535"},"vehicle_type_id":"4","last_reported":1706492421,"current_range_meters":26800,"station_id":"ce4bh292rcd13ifvqdg0","pricing_plan_id":"free"},{"bike_id":"ce359fb6-e3d5-45fc-9e26-757bf9375f27","system_id":"levelo_inurba_marseille","lat":43.326605,"lon":5.409903,"is_reserved":false,"is_disabled":false,"rental_uris":{"android":"levelo://app?vid=ce359fb6-e3d5-45fc-9e26-757bf9375f27","ios":"levelo://app?vid=ce359fb6-e3d5-45fc-9e26-757bf9375f27"},"vehicle_type_id":"4","last_reported":1706492421,"current_range_meters":19600,"station_id":"ce4bhpp2rcd13ifvqhgg","pricing_plan_id":"free"},{"bike_id":"490774a6-4917-468e-ac2f-aabcb381f604","system_id":"levelo_inurba_marseille","lat":43.326605,"lon":5.409903,"is_reserved":false,"is_disabled":false,"rental_uris":{"android":"levelo://app?vid=490774a6-4917-468e-ac2f-aabcb381f604","ios":"levelo://app?vid=490774a6-4917-468e-ac2f-aabcb381f604"},"vehicle_type_id":"4","last_reported":1706492421,"current_range_meters":27600,"station_id":"ce4bhpp2rcd13ifvqhgg","pricing_plan_id":"free"},{"bike_id":"1ef7e5cd-4a9d-40ba-94a2-53d89c749181","system_id":"levelo_inurba_marseille","lat":43.326605,"lon":5.409903,"is_reserved":false,"is_disabled":false,"rental_uris":{"android":"levelo://app?vid=1ef7e5cd-4a9d-40ba-94a2-53d89c749181","ios":"levelo://app?vid=1ef7e5cd-4a9d-40ba-94a2-53d89c749181"},"vehicle_type_id":"4","last_reported":1706492421,"current_range_meters":27200,"station_id":"ce4bhpp2rcd13ifvqhgg","pricing_plan_id":"free"},{"bike_id":"84edcbc8-c947-4ac5-b2a3-fea22b50369d","system_id":"levelo_inurba_marseille","lat":43.304188,"lon":5.412904,"is_reserved":false,"is_disabled":false,"rental_uris":{"android":"levelo://app?vid=84edcbc8-c947-4ac5-b2a3-fea22b50369d","ios":"levelo://app?vid=84edcbc8-c947-4ac5-b2a3-fea22b50369d"},"vehicle_type_id":"4","last_reported":1706492421,"current_range_meters":24800,"station_id":"ce4bhop2rcd13ifvqh8g","pricing_plan_id":"free"},{"bike_id":"ae19e9bc-810e-410c-9212-5a661388c0ea","system_id":"levelo_inurba_marseille","lat":43.287154,"lon":5.399979,"is_reserved":false,"is_disabled":false,"rental_uris":{"android":"levelo://app?vid=ae19e9bc-810e-410c-9212-5a661388c0ea","ios":"levelo://app?vid=ae19e9bc-810e-410c-9212-5a661388c0ea"},"vehicle_type_id":"4","last_reported":1706492421,"current_range_meters":13600,"station_id":"ce4bho92rcd13ifvqh3g","pricing_plan_id":"free"},{"bike_id":"684716ab-5d4c-48e1-be1c-7c9cf7237758","system_id":"levelo_inurba_marseille","lat":43.287154,"lon":5.399979,"is_reserved":false,"is_disabled":false,"rental_uris":{"android":"levelo://app?vid=684716ab-5d4c-48e1-be1c-7c9cf7237758","ios":"levelo://app?vid=684716ab-5d4c-48e1-be1c-7c9cf7237758"},"vehicle_type_id":"4","last_reported":1706492421,"current_range_meters":14000,"station_id":"ce4bho92rcd13ifvqh3g","pricing_plan_id":"free"},{"bike_id":"4b204381-b06f-44ef-a759-e6d51acebe55","system_id":"levelo_inurba_marseille","lat":43.287154,"lon":5.399979,"is_reserved":false,"is_disabled":false,"rental_uris":{"android":"levelo://app?vid=4b204381-b06f-44ef-a759-e6d51acebe55","ios":"levelo://app?vid=4b204381-b06f-44ef-a759-e6d51acebe55"},"vehicle_type_id":"4","last_reported":1706492421,"current_range_meters":14000,"station_id":"ce4bho92rcd13ifvqh3g","pricing_plan_id":"free"},{"bike_id":"a539d426-9e55-4e9c-b7bf-13cd28eecf36","system_id":"levelo_inurba_marseille","lat":43.27819,"lon":5.35483,"is_reserved":false,"is_disabled":false,"rental_uris":{"android":"levelo://app?vid=a539d426-9e55-4e9c-b7bf-13cd28eecf36","ios":"levelo://app?vid=a539d426-9e55-4e9c-b7bf-13cd28eecf36"},"vehicle_type_id":"4","last_reported":1706492421,"current_range_meters":6400,"station_id":"","pricing_plan_id":"free"},{"bike_id":"3098cb83-d902-4514-be0c-185886c9f3a7","system_id":"levelo_inurba_marseille","lat":43.299577,"lon":5.413277,"is_reserved":false,"is_disabled":false,"rental_uris":{"android":"levelo://app?vid=3098cb83-d902-4514-be0c-185886c9f3a7","ios":"levelo://app?vid=3098cb83-d902-4514-be0c-185886c9f3a7"},"vehicle_type_id":"4","last_reported":1706492421,"current_range_meters":29200,"station_id":"ce4bhp12rcd13ifvqh9g","pricing_plan_id":"free"},{"bike_id":"0abc37af-af73-40f3-b304-9fc02323df0a","system_id":"levelo_inurba_marseille","lat":43.279742,"lon":5.38744,"is_reserved":false,"is_disabled":false,"rental_uris":{"android":"levelo://app?vid=0abc37af-af73-40f3-b304-9fc02323df0a","ios":"levelo://app?vid=0abc37af-af73-40f3-b304-9fc02323df0a"},"vehicle_type_id":"4","last_reported":1706492421,"current_range_meters":28400,"station_id":"ce4bhg12rcd13ifvqf80","pricing_plan_id":"free"},{"bike_id":"8bdd05ee-2d17-4b1a-914f-ace4b52c6789","system_id":"levelo_inurba_marseille","lat":43.292569,"lon":5.409107,"is_reserved":false,"is_disabled":false,"rental_uris":{"android":"levelo://app?vid=8bdd05ee-2d17-4b1a-914f-ace4b52c6789","ios":"levelo://app?vid=8bdd05ee-2d17-4b1a-914f-ace4b52c6789"},"vehicle_type_id":"4","last_reported":1706492421,"current_range_meters":27200,"station_id":"ce4bh192rcd13ifvqdc0","pricing_plan_id":"free"},{"bike_id":"d331017a-c714-4ae7-b42e-d129345f28a8","system_id":"levelo_inurba_marseille","lat":43.292569,"lon":5.409107,"is_reserved":false,"is_disabled":false,"rental_uris":{"android":"levelo://app?vid=d331017a-c714-4ae7-b42e-d129345f28a8","ios":"levelo://app?vid=d331017a-c714-4ae7-b42e-d129345f28a8"},"vehicle_type_id":"4","last_reported":1706492421,"current_range_meters":20800,"station_id":"ce4bh192rcd13ifvqdc0","pricing_plan_id":"free"},{"bike_id":"70e23eb7-b854-44a8-b1fd-e894422b1cba","system_id":"levelo_inurba_marseille","lat":43.292571,"lon":5.409107,"is_reserved":false,"is_disabled":false,"rental_uris":{"android":"levelo://app?vid=70e23eb7-b854-44a8-b1fd-e894422b1cba","ios":"levelo://app?vid=70e23eb7-b854-44a8-b1fd-e894422b1cba"},"vehicle_type_id":"4","last_reported":1706492421,"current_range_meters":30000,"station_id":"ce4bh192rcd13ifvqdc0","pricing_plan_id":"free"},{"bike_id":"a41ae808-4eee-4985-bc8a-d09a9154c012","system_id":"levelo_inurba_marseille","lat":43.325233,"lon":5.414318,"is_reserved":false,"is_disabled":false,"rental_uris":{"android":"levelo://app?vid=a41ae808-4eee-4985-bc8a-d09a9154c012","ios":"levelo://app?vid=a41ae808-4eee-4985-bc8a-d09a9154c012"},"vehicle_type_id":"4","last_reported":1706492421,"current_range_meters":22000,"station_id":"ce4bhq12rcd13ifvqhhg","pricing_plan_id":"free"},{"bike_id":"e7218d62-7ac0-49da-8e89-131756f5795c","system_id":"levelo_inurba_marseille","lat":43.303837,"lon":5.418724,"is_reserved":false,"is_disabled":false,"rental_uris":{"android":"levelo://app?vid=e7218d62-7ac0-49da-8e89-131756f5795c","ios":"levelo://app?vid=e7218d62-7ac0-49da-8e89-131756f5795c"},"vehicle_type_id":"4","last_reported":1706492421,"current_range_meters":27600,"station_id":"ce4bhop2rcd13ifvqh7g","pricing_plan_id":"free"},{"bike_id":"7dd58b13-e97f-49f5-b40f-29d7542e0ff8","system_id":"levelo_inurba_marseille","lat":43.303837,"lon":5.418724,"is_reserved":false,"is_disabled":false,"rental_uris":{"android":"levelo://app?vid=7dd58b13-e97f-49f5-b40f-29d7542e0ff8","ios":"levelo://app?vid=7dd58b13-e97f-49f5-b40f-29d7542e0ff8"},"vehicle_type_id":"4","last_reported":1706492421,"current_range_meters":26800,"station_id":"ce4bhop2rcd13ifvqh7g","pricing_plan_id":"free"},{"bike_id":"143aac9d-d5e8-4d21-bc2a-0a3a63c765c0","system_id":"levelo_inurba_marseille","lat":43.27838,"lon":5.39204,"is_reserved":false,"is_disabled":false,"rental_uris":{"android":"levelo://app?vid=143aac9d-d5e8-4d21-bc2a-0a3a63c765c0","ios":"levelo://app?vid=143aac9d-d5e8-4d21-bc2a-0a3a63c765c0"},"vehicle_type_id":"4","last_reported":1706492421,"current_range_meters":2400,"station_id":"ce4bhjp2rcd13ifvqga0","pricing_plan_id":"free"},{"bike_id":"a21ba42d-6d86-4b50-a826-fe88e9fd009d","system_id":"levelo_inurba_marseille","lat":43.273609,"lon":5.362708,"is_reserved":false,"is_disabled":false,"rental_uris":{"android":"levelo://app?vid=a21ba42d-6d86-4b50-a826-fe88e9fd009d","ios":"levelo://app?vid=a21ba42d-6d86-4b50-a826-fe88e9fd009d"},"vehicle_type_id":"4","last_reported":1706492421,"current_range_meters":24000,"station_id":"ce4bhbh2rcd13ifvqeo0","pricing_plan_id":"free"},{"bike_id":"e584ceda-a7f2-4b2b-8ea9-cd7dab83b65d","system_id":"levelo_inurba_marseille","lat":43.336134,"lon":5.410341,"is_reserved":false,"is_disabled":false,"rental_uris":{"android":"levelo://app?vid=e584ceda-a7f2-4b2b-8ea9-cd7dab83b65d","ios":"levelo://app?vid=e584ceda-a7f2-4b2b-8ea9-cd7dab83b65d"},"vehicle_type_id":"4","last_reported":1706492421,"current_range_meters":23600,"station_id":"ce4bhqh2rcd13ifvqhmg","pricing_plan_id":"free"},{"bike_id":"44141814-ee4e-484f-8bee-ea81f48f0550","system_id":"levelo_inurba_marseille","lat":43.275625,"lon":5.384392,"is_reserved":false,"is_disabled":false,"rental_uris":{"android":"levelo://app?vid=44141814-ee4e-484f-8bee-ea81f48f0550","ios":"levelo://app?vid=44141814-ee4e-484f-8bee-ea81f48f0550"},"vehicle_type_id":"4","last_reported":1706492421,"current_range_meters":30000,"station_id":"ce4bhh92rcd13ifvqfi0","pricing_plan_id":"free"},{"bike_id":"447b3785-12b0-46da-a297-728b04251308","system_id":"levelo_inurba_marseille","lat":43.273609,"lon":5.362708,"is_reserved":false,"is_disabled":false,"rental_uris":{"android":"levelo://app?vid=447b3785-12b0-46da-a297-728b04251308","ios":"levelo://app?vid=447b3785-12b0-46da-a297-728b04251308"},"vehicle_type_id":"4","last_reported":1706492421,"current_range_meters":30000,"station_id":"ce4bhbh2rcd13ifvqeo0","pricing_plan_id":"free"},{"bike_id":"683f5e07-8574-43b4-b819-f0fdbd7dba25","system_id":"levelo_inurba_marseille","lat":43.275625,"lon":5.384392,"is_reserved":false,"is_disabled":false,"rental_uris":{"android":"levelo://app?vid=683f5e07-8574-43b4-b819-f0fdbd7dba25","ios":"levelo://app?vid=683f5e07-8574-43b4-b819-f0fdbd7dba25"},"vehicle_type_id":"4","last_reported":1706492421,"current_range_meters":13600,"station_id":"ce4bhh92rcd13ifvqfi0","pricing_plan_id":"free"},{"bike_id":"31a88d23-66a1-461e-a710-d3546c070e40","system_id":"levelo_inurba_marseille","lat":43.275625,"lon":5.384392,"is_reserved":false,"is_disabled":false,"rental_uris":{"android":"levelo://app?vid=31a88d23-66a1-461e-a710-d3546c070e40","ios":"levelo://app?vid=31a88d23-66a1-461e-a710-d3546c070e40"},"vehicle_type_id":"4","last_reported":1706492421,"current_range_meters":21600,"station_id":"ce4bhh92rcd13ifvqfi0","pricing_plan_id":"free"},{"bike_id":"cfde2b63-8d5a-44f6-a9fc-1ce3f5cb9e91","system_id":"levelo_inurba_marseille","lat":43.335957,"lon":5.4104,"is_reserved":false,"is_disabled":false,"rental_uris":{"android":"levelo://app?vid=cfde2b63-8d5a-44f6-a9fc-1ce3f5cb9e91","ios":"levelo://app?vid=cfde2b63-8d5a-44f6-a9fc-1ce3f5cb9e91"},"vehicle_type_id":"4","last_reported":1706492421,"current_range_meters":0,"station_id":"ce4bhqh2rcd13ifvqhmg","pricing_plan_id":"free"},{"bike_id":"3336023a-035b-45bf-ba53-9391a7d059a7","system_id":"levelo_inurba_marseille","lat":43.336134,"lon":5.410341,"is_reserved":false,"is_disabled":false,"rental_uris":{"android":"levelo://app?vid=3336023a-035b-45bf-ba53-9391a7d059a7","ios":"levelo://app?vid=3336023a-035b-45bf-ba53-9391a7d059a7"},"vehicle_type_id":"4","last_reported":1706492421,"current_range_meters":21600,"station_id":"ce4bhqh2rcd13ifvqhmg","pricing_plan_id":"free"},{"bike_id":"ddac5cfb-b0bf-4958-b753-ac44d49803a7","system_id":"levelo_inurba_marseille","lat":43.336134,"lon":5.410341,"is_reserved":false,"is_disabled":false,"rental_uris":{"android":"levelo://app?vid=ddac5cfb-b0bf-4958-b753-ac44d49803a7","ios":"levelo://app?vid=ddac5cfb-b0bf-4958-b753-ac44d49803a7"},"vehicle_type_id":"4","last_reported":1706492421,"current_range_meters":27600,"station_id":"ce4bhqh2rcd13ifvqhmg","pricing_plan_id":"free"},{"bike_id":"f6b23bc3-1a76-4992-a0ca-da24604791b9","system_id":"levelo_inurba_marseille","lat":43.336134,"lon":5.410341,"is_reserved":false,"is_disabled":false,"rental_uris":{"android":"levelo://app?vid=f6b23bc3-1a76-4992-a0ca-da24604791b9","ios":"levelo://app?vid=f6b23bc3-1a76-4992-a0ca-da24604791b9"},"vehicle_type_id":"4","last_reported":1706492421,"current_range_meters":25200,"station_id":"ce4bhqh2rcd13ifvqhmg","pricing_plan_id":"free"},{"bike_id":"d2f3cba8-1d07-416e-8e40-bd40ca4877cd","system_id":"levelo_inurba_marseille","lat":43.276771,"lon":5.388799,"is_reserved":false,"is_disabled":false,"rental_uris":{"android":"levelo://app?vid=d2f3cba8-1d07-416e-8e40-bd40ca4877cd","ios":"levelo://app?vid=d2f3cba8-1d07-416e-8e40-bd40ca4877cd"},"vehicle_type_id":"4","last_reported":1706492421,"current_range_meters":24000,"station_id":"ce4bhi12rcd13ifvqfo0","pricing_plan_id":"free"},{"bike_id":"3e9aa8c8-15ed-4f6a-90f1-b2b525f51d5b","system_id":"levelo_inurba_marseille","lat":43.279952,"lon":5.400085,"is_reserved":false,"is_disabled":false,"rental_uris":{"android":"levelo://app?vid=3e9aa8c8-15ed-4f6a-90f1-b2b525f51d5b","ios":"levelo://app?vid=3e9aa8c8-15ed-4f6a-90f1-b2b525f51d5b"},"vehicle_type_id":"4","last_reported":1706492421,"current_range_meters":30000,"station_id":"ce4bho92rcd13ifvqh4g","pricing_plan_id":"free"},{"bike_id":"6f46a34b-d5d1-4592-8607-98eec5146735","system_id":"levelo_inurba_marseille","lat":43.283678,"lon":5.407112,"is_reserved":false,"is_disabled":false,"rental_uris":{"android":"levelo://app?vid=6f46a34b-d5d1-4592-8607-98eec5146735","ios":"levelo://app?vid=6f46a34b-d5d1-4592-8607-98eec5146735"},"vehicle_type_id":"4","last_reported":1706492421,"current_range_meters":400,"station_id":"","pricing_plan_id":"free"},{"bike_id":"87c998a4-b27c-4b57-8568-42f4629803bf","system_id":"levelo_inurba_marseille","lat":43.27624,"lon":5.39465,"is_reserved":false,"is_disabled":false,"rental_uris":{"android":"levelo://app?vid=87c998a4-b27c-4b57-8568-42f4629803bf","ios":"levelo://app?vid=87c998a4-b27c-4b57-8568-42f4629803bf"},"vehicle_type_id":"4","last_reported":1706492421,"current_range_meters":10000,"station_id":"","pricing_plan_id":"free"},{"bike_id":"42177f98-49cb-4f87-9945-e0369f359c5c","system_id":"levelo_inurba_marseille","lat":43.310785,"lon":5.424305,"is_reserved":false,"is_disabled":false,"rental_uris":{"android":"levelo://app?vid=42177f98-49cb-4f87-9945-e0369f359c5c","ios":"levelo://app?vid=42177f98-49cb-4f87-9945-e0369f359c5c"},"vehicle_type_id":"4","last_reported":1706492421,"current_range_meters":14800,"station_id":"ce4bhp92rcd13ifvqhag","pricing_plan_id":"free"},{"bike_id":"29caaa5e-af6d-4893-8d5b-f2eb34c0d565","system_id":"levelo_inurba_marseille","lat":43.340804,"lon":5.410219,"is_reserved":false,"is_disabled":false,"rental_uris":{"android":"levelo://app?vid=29caaa5e-af6d-4893-8d5b-f2eb34c0d565","ios":"levelo://app?vid=29caaa5e-af6d-4893-8d5b-f2eb34c0d565"},"vehicle_type_id":"4","last_reported":1706492421,"current_range_meters":30000,"station_id":"ce4bhqh2rcd13ifvqhlg","pricing_plan_id":"free"},{"bike_id":"de994ca2-6a4e-45a1-a1d8-5826b8cc855b","system_id":"levelo_inurba_marseille","lat":43.340804,"lon":5.410219,"is_reserved":false,"is_disabled":false,"rental_uris":{"android":"levelo://app?vid=de994ca2-6a4e-45a1-a1d8-5826b8cc855b","ios":"levelo://app?vid=de994ca2-6a4e-45a1-a1d8-5826b8cc855b"},"vehicle_type_id":"4","last_reported":1706492421,"current_range_meters":23200,"station_id":"ce4bhqh2rcd13ifvqhlg","pricing_plan_id":"free"},