{"last_updated":1748354974,"ttl":60,"version":"2.2","data":{"bikes":[{"bike_id":"8bb5725e-b21c-4b51-bcc4-f2c095d28e48","system_id":"levelo_inurba_marseille","lat":43.29538,"lon":5.39383,"is_reserved":false,"is_disabled":false,"rental_uris":{"android":"levelo://app?vid=8bb5725e-b21c-4b51-bcc4-f2c095d28e48","ios":"levelo://app?vid=8bb5725e-b21c-4b51-bcc4-f2c095d28e48"},"vehicle_type_id":"4","last_reported":1748354974,"current_range_meters":2000,"station_id":"ce4bh292rcd13ifvqdf0","pricing_plan_id":"cebpf4jnsgd1na2vs0mg"},{"bike_id":"1f055a4b-621e-478c-8c4a-43a56e0ff762","system_id":"levelo_inurba_marseille","lat":43.22908,"lon":5.35427,"is_reserved":false,"is_disabled":false,"rental_uris":{"android":"levelo://app?vid=1f055a4b-621e-478c-8c4a-43a56e0ff762","ios":"levelo://app?vid=1f055a4b-621e-478c-8c4a-43a56e0ff762"},"vehicle_type_id":"4","last_reported":1748354974,"current_range_meters":2800,"station_id":"cpo3532slgdg3j2ikp40","pricing_plan_id":"cebpf4jnsgd1na2vs0mg"},{"bike_id":"d828965c-04fc-4c26-aad4-f979be5c505d","system_id":"levelo_inurba_marseille","lat":43.31319,"lon":5.39696,"is_reserved":false,"is_disabled":false,"rental_uris":{"android":"levelo://app?vid=d828965c-04fc-4c26-aad4-f979be5c505d","ios":"levelo://app?vid=d828965c-04fc-4c26-aad4-f979be5c505d"},"vehicle_type_id":"4","last_reported":1748354974,"current_range_meters":2800,"station_id":"ce4bgvp2rcd13ifvqcu0","pricing_plan_id":"cebpf4jnsgd1na2vs0mg"},{"bike_id":"36bc4eae-6090-4d8e-b1a0-194eadad677d","system_id":"levelo_inurba_marseille","lat":43.30661,"lon":5.38134,"is_reserved":false,"is_disabled":false,"rental_uris":{"android":"levelo://app?vid=36bc4eae-6090-4d8e-b1a0-194eadad677d","ios":"levelo://app?vid=36bc4eae-6090-4d8e-b1a0-194eadad677d"},"vehicle_type_id":"4","last_reported":1748354974,"current_range_meters":2800,"station_id":"","pricing_plan_id":"cebpf4jnsgd1na2vs0mg"},{"bike_id":"ab485184-dee6-4278-8ed8-78cb97c31dd5","system_id":"levelo_inurba_marseille","lat":43.2921,"lon":5.35824,"is_reserved":false,"is_disabled":false,"rental_uris":{"android":"levelo://app?vid=ab485184-dee6-4278-8ed8-78cb97c31dd5","ios":"levelo://app?vid=ab485184-dee6-4278-8ed8-78cb97c31dd5"},"vehicle_type_id":"4","last_reported":1748354974,"current_range_meters":3200,"station_id":"","pricing_plan_id":"cebpf4jnsgd1na2vs0mg"},{"bike_id":"d9bd945a-965c-4778-adee-a47b08f16ef8","system_id":"levelo_inurba_marseille","lat":43.2856,"lon":5.39513,"is_reserved":false,"is_disabled":false,"rental_uris":{"android":"levelo://app?vid=d9bd945a-965c-4778-adee-a47b08f16ef8","ios":"levelo://app?vid=d9bd945a-965c-4778-adee-a47b08f16ef8"},"vehicle_type_id":"4","last_reported":1748354974,"current_range_meters":3200,"station_id":"ce4bh292rcd13ifvqdg0","pricing_plan_id":"cebpf4jnsgd1na2vs0mg"},{"bike_id":"ee617531-7300-4958-baa3-db4f90ad5721","system_id":"levelo_inurba_marseille","lat":43.25822,"lon":5.39437,"is_reserved":false,"is_disabled":false,"rental_uris":{"android":"levelo://app?vid=ee617531-7300-4958-baa3-db4f90ad5721","ios":"levelo://app?vid=ee617531-7300-4958-baa3-db4f90ad5721"},"vehicle_type_id":"4","last_reported":1748354974,"current_range_meters":3200,"station_id":"ce4bhip2rcd13ifvqft0","pricing_plan_id":"cebpf4jnsgd1na2vs0mg"},{"bike_id":"54d87015-4b01-48ab-afe9-86a02647542c","system_id":"levelo_inurba_marseille","lat":43.24383,"lon":5.37074,"is_reserved":false,"is_disabled":false,"rental_uris":{"android":"levelo://app?vid=54d87015-4b01-48ab-afe9-86a02647542c","ios":"levelo://app?vid=54d87015-4b01-48ab-afe9-86a02647542c"},"vehicle_type_id":"4","last_reported":1748354974,"current_range_meters":3200,"station_id":"ce4bhhh2rcd13ifvqfk0","pricing_plan_id":"cebpf4jnsgd1na2vs0mg"},{"bike_id":"b17a3f8c-68b0-410e-ad56-eb95bdf00a75","system_id":"levelo_inurba_marseille","lat":43.29442,"lon":5.39739,"is_reserved":false,"is_disabled":false,"rental_uris":{"android":"levelo://app?vid=b17a3f8c-68b0-410e-ad56-eb95bdf00a75","ios":"levelo://app?vid=b17a3f8c-68b0-410e-ad56-eb95bdf00a75"},"vehicle_type_id":"4","last_reported":1748354974,"current_range_meters":3200,"station_id":"ce4bh3h2rcd13ifvqdo0","pricing_plan_id":"cebpf4jnsgd1na2vs0mg"},{"bike_id":"893cf55e-c3ea-446c-a217-b7619e8fdebf","system_id":"levelo_inurba_marseille","lat":43.29253,"lon":5.4091,"is_reserved":false,"is_disabled":false,"rental_uris":{"android":"levelo://app?vid=893cf55e-c3ea-446c-a217-b7619e8fdebf","ios":"levelo://app?vid=893cf55e-c3ea-446c-a217-b7619e8fdebf"},"vehicle_type_id":"4","last_reported":1748354974,"current_range_meters":3200,"station_id":"ce4bh192rcd13ifvqdc0","pricing_plan_id":"cebpf4jnsgd1na2vs0mg"},{"bike_id":"dae36e2c-606d-4f57-937a-b141927cf0df","system_id":"levelo_inurba_marseille","lat":43.28467,"lon":5.38531,"is_reserved":false,"is_disabled":false,"rental_uris":{"android":"levelo://app?vid=dae36e2c-606d-4f57-937a-b141927cf0df","ios":"levelo://app?vid=dae36e2c-606d-4f57-937a-b141927cf0df"},"vehicle_type_id":"4","last_reported":1748354974,"current_range_meters":2800,"station_id":"ce4bh8p2rcd13ifvqeb0","pricing_plan_id":"cebpf4jnsgd1na2vs0mg"},{"bike_id":"96fe2ffe-7232-41af-937a-baac01d71c42","system_id":"levelo_inurba_marseille","lat":43.28705,"lon":5.39969,"is_reserved":false,"is_disabled":false,"rental_uris":{"android":"levelo://app?vid=96fe2ffe-7232-41af-937a-baac01d71c42","ios":"levelo://app?vid=96fe2ffe-7232-41af-937a-baac01d71c42"},"vehicle_type_id":"4","last_reported":1748354974,"current_range_meters":3600,"station_id":"ce4bho92rcd13ifvqh3g","pricing_plan_id":"cebpf4jnsgd1na2vs0mg"},{"bike_id":"e9496718-b841-4999-823d-28c5bee5d6f1","system_id":"levelo_inurba_marseille","lat":43.26539,"lon":5.39011,"is_reserved":false,"is_disabled":false,"rental_uris":{"android":"levelo://app?vid=e9496718-b841-4999-823d-28c5bee5d6f1","ios":"levelo://app?vid=e9496718-b841-4999-823d-28c5bee5d6f1"},"vehicle_type_id":"4","last_reported":1748354974,"current_range_meters":3600,"station_id":"ce4bhe12rcd13ifvqf30","pricing_plan_id":"cebpf4jnsgd1na2vs0mg"},{"bike_id":"f492556c-f7c9-49ef-879b-6b9889cadb77","system_id":"levelo_inurba_marseille","lat":43.317283,"lon":5.437936,"is_reserved":false,"is_disabled":false,"rental_uris":{"android":"levelo://app?vid=f492556c-f7c9-49ef-879b-6b9889cadb77","ios":"levelo://app?vid=f492556c-f7c9-49ef-879b-6b9889cadb77"},"vehicle_type_id":"4","last_reported":1748354974,"current_range_meters":3600,"station_id":"ce4bhp92rcd13ifvqhcg","pricing_plan_id":"cebpf4jnsgd1na2vs0mg"},{"bike_id":"013b29b5-910d-4547-b953-a122dcc791ff","system_id":"levelo_inurba_marseille","lat":43.24671,"lon":5.38169,"is_reserved":false,"is_disabled":false,"rental_uris":{"android":"levelo://app?vid=013b29b5-910d-4547-b953-a122dcc791ff","ios":"levelo://app?vid=013b29b5-910d-4547-b953-a122dcc791ff"},"vehicle_type_id":"4","last_reported":1748354974,"current_range_meters":3600,"station_id":"ce4bhih2rcd13ifvqfr0","pricing_plan_id":"cebpf4jnsgd1na2vs0mg"},{"bike_id":"2b6a7037-8cef-4d2d-a099-22df4ff71809","system_id":"levelo_inurba_marseille","lat":43.24802,"lon":5.37463,"is_reserved":false,"is_disabled":false,"rental_uris":{"android":"levelo://app?vid=2b6a7037-8cef-4d2d-a099-22df4ff71809","ios":"levelo://app?vid=2b6a7037-8cef-4d2d-a099-22df4ff71809"},"vehicle_type_id":"4","last_reported":1748354974,"current_range_meters":4000,"station_id":"ce4bhgh2rcd13ifvqfb0","pricing_plan_id":"cebpf4jnsgd1na2vs0mg"},{"bike_id":"7cd081d3-ebb7-41d6-a2e9-6649f70f11d2","system_id":"levelo_inurba_marseille","lat":43.273807,"lon":5.362353,"is_reserved":false,"is_disabled":false,"rental_uris":{"android":"levelo://app?vid=7cd081d3-ebb7-41d6-a2e9-6649f70f11d2","ios":"levelo://app?vid=7cd081d3-ebb7-41d6-a2e9-6649f70f11d2"},"vehicle_type_id":"4","last_reported":1748354974,"current_range_meters":4000,"station_id":"ce4bhbh2rcd13ifvqeo0","pricing_plan_id":"cebpf4jnsgd1na2vs0mg"},{"bike_id":"4ba6a2fc-1d0b-4aa6-8fa5-49331b1e75f0","system_id":"levelo_inurba_marseille","lat":43.23191,"lon":5.39986,"is_reserved":false,"is_disabled":false,"rental_uris":{"android":"levelo://app?vid=4ba6a2fc-1d0b-4aa6-8fa5-49331b1e75f0","ios":"levelo://app?vid=4ba6a2fc-1d0b-4aa6-8fa5-49331b1e75f0"},"vehicle_type_id":"4","last_reported":1748354974,"current_range_meters":4000,"station_id":"ce4bhn12rcd13ifvqgqg","pricing_plan_id":"cebpf4jnsgd1na2vs0mg"},{"bike_id":"d82f563f-9115-4c79-b574-653640ac311a","system_id":"levelo_inurba_marseille","lat":43.28446,"lon":5.39147,"is_reserved":false,"is_disabled":false,"rental_uris":{"android":"levelo://app?vid=d82f563f-9115-4c79-b574-653640ac311a","ios":"levelo://app?vid=d82f563f-9115-4c79-b574-653640ac311a"},"vehicle_type_id":"4","last_reported":1748354974,"current_range_meters":4000,"station_id":"ce4bhoh2rcd13ifvqh5g","pricing_plan_id":"cebpf4jnsgd1na2vs0mg"},{"bike_id":"2d06e484-8fd8-4f07-85df-da21123c7a64","system_id":"levelo_inurba_marseille","lat":43.28154,"lon":5.42645,"is_reserved":false,"is_disabled":false,"rental_uris":{"android":"levelo://app?vid=2d06e484-8fd8-4f07-85df-da21123c7a64","ios":"levelo://app?vid=2d06e484-8fd8-4f07-85df-da21123c7a64"},"vehicle_type_id":"4","last_reported":1748354974,"current_range_meters":6400,"station_id":"ce4bhnh2rcd13ifvqgug","pricing_plan_id":"cebpf4jnsgd1na2vs0mg"},{"bike_id":"9dba8239-6956-4394-b88b-f67913567de3","system_id":"levelo_inurba_marseille","lat":43.265672,"lon":5.403245,"is_reserved":false,"is_disabled":false,"rental_uris":{"android":"levelo://app?vid=9dba8239-6956-4394-b88b-f67913567de3","ios":"levelo://app?vid=9dba8239-6956-4394-b88b-f67913567de3"},"vehicle_type_id":"4","last_reported":1748354974,"current_range_meters":4400,"station_id":"","pricing_plan_id":"cebpf4jnsgd1na2vs0mg"},{"bike_id":"4627c2bb-d813-4aa3-85e0-6c3aaba16171","system_id":"levelo_inurba_marseille","lat":43.27911,"lon":5.38018,"is_reserved":false,"is_disabled":false,"rental_uris":{"android":"levelo://app?vid=4627c2bb-d813-4aa3-85e0-6c3aaba16171","ios":"levelo://app?vid=4627c2bb-d813-4aa3-85e0-6c3aaba16171"},"vehicle_type_id":"4","last_reported":1748354974,"current_range_meters":4400,"station_id":"ce4bhf92rcd13ifvqf50","pricing_plan_id":"cebpf4jnsgd1na2vs0mg"},{"bike_id":"a4aef2b9-b7e8-4e2d-8340-592d28bc6c85","system_id":"levelo_inurba_marseille","lat":43.337654,"lon":5.37434,"is_reserved":false,"is_disabled":false,"rental_uris":{"android":"levelo://app?vid=a4aef2b9-b7e8-4e2d-8340-592d28bc6c85","ios":"levelo://app?vid=a4aef2b9-b7e8-4e2d-8340-592d28bc6c85"},"vehicle_type_id":"4","last_reported":1748354974,"current_range_meters":4800,"station_id":"","pricing_plan_id":"cebpf4jnsgd1na2vs0mg"},{"bike_id":"fc56555b-396d-4667-b896-0ad86036e39e","system_id":"levelo_inurba_marseille","lat":43.259109,"lon":5.38037,"is_reserved":false,"is_disabled":false,"rental_uris":{"android":"levelo://app?vid=fc56555b-396d-4667-b896-0ad86036e39e","ios":"levelo://app?vid=fc56555b-396d-4667-b896-0ad86036e39e"},"vehicle_type_id":"4","last_reported":1748354974,"current_range_meters":5600,"station_id":"","pricing_plan_id":"cebpf4jnsgd1na2vs0mg"},{"bike_id":"cca23434-1324-4d3a-aaa0-82b1c7cdb067","system_id":"levelo_inurba_marseille","lat":43.273129,"lon":5.39075,"is_reserved":false,"is_disabled":false,"rental_uris":{"android":"levelo://app?vid=cca23434-1324-4d3a-aaa0-82b1c7cdb067","ios":"levelo://app?vid=cca23434-1324-4d3a-aaa0-82b1c7cdb067"},"vehicle_type_id":"4","last_reported":1748354974,"current_range_meters":5600,"station_id":"ce4bhi12rcd13ifvqfo0","pricing_plan_id":"cebpf4jnsgd1na2vs0mg"},{"bike_id":"56851527-d1e3-4284-9757-3a8a51067fa4","system_id":"levelo_inurba_marseille","lat":43.24558,"lon":5.3953,"is_reserved":false,"is_disabled":false,"rental_uris":{"android":"levelo://app?vid=56851527-d1e3-4284-9757-3a8a51067fa4","ios":"levelo://app?vid=56851527-d1e3-4284-9757-3a8a51067fa4"},"vehicle_type_id":"4","last_reported":1748354974,"current_range_meters":5600,"station_id":"ce4bhlp2rcd13ifvqgjg","pricing_plan_id":"cebpf4jnsgd1na2vs0mg"},{"bike_id":"69fcf712-0aa4-488a-973d-118687d3f7f4","system_id":"levelo_inurba_marseille","lat":43.25579,"lon":5.38258,"is_reserved":false,"is_disabled":false,"rental_uris":{"android":"levelo://app?vid=69fcf712-0aa4-488a-973d-118687d3f7f4","ios":"levelo://app?vid=69fcf712-0aa4-488a-973d-118687d3f7f4"},"vehicle_type_id":"4","last_reported":1748354974,"current_range_meters":5600,"station_id":"ce4bhih2rcd13ifvqfs0","pricing_plan_id":"cebpf4jnsgd1na2vs0mg"},{"bike_id":"5261db34-4801-4413-9e0e-32b78eefdd43","system_id":"levelo_inurba_marseille","lat":43.26557,"lon":5.37292,"is_reserved":false,"is_disabled":false,"rental_uris":{"android":"levelo://app?vid=5261db34-4801-4413-9e0e-32b78eefdd43","ios":"levelo://app?vid=5261db34-4801-4413-9e0e-32b78eefdd43"},"vehicle_type_id":"4","last_reported":1748354974,"current_range_meters":6000,"station_id":"ce4bhg12rcd13ifvqf70","pricing_plan_id":"cebpf4jnsgd1na2vs0mg"},{"bike_id":"a3fdfab4-cb8b-4639-a8f9-ac99f398c758","system_id":"levelo_inurba_marseille","lat":43.2418,"lon":5.36388,"is_reserved":false,"is_disabled":false,"rental_uris":{"android":"levelo://app?vid=a3fdfab4-cb8b-4639-a8f9-ac99f398c758","ios":"levelo://app?vid=a3fdfab4-cb8b-4639-a8f9-ac99f398c758"},"vehicle_type_id":"4","last_reported":1748354974,"current_range_meters":6000,"station_id":"cpo36qri1sfpv3e86is0","pricing_plan_id":"cebpf4jnsgd1na2vs0mg"},{"bike_id":"b744080c-dd77-486d-9609-00c9cf60c1ad","system_id":"levelo_inurba_marseille","lat":43.2362,"lon":5.39234,"is_reserved":false,"is_disabled":false,"rental_uris":{"android":"levelo://app?vid=b744080c-dd77-486d-9609-00c9cf60c1ad","ios":"levelo://app?vid=b744080c-dd77-486d-9609-00c9cf60c1ad"},"vehicle_type_id":"4","last_reported":1748354974,"current_range_meters":6000,"station_id":"","pricing_plan_id":"cebpf4jnsgd1na2vs0mg"},{"bike_id":"485e665f-8d99-4a2c-ae4d-0c731c643c28","system_id":"levelo_inurba_marseille","lat":43.28616,"lon":5.35111,"is_reserved":false,"is_disabled":false,"rental_uris":{"android":"levelo://app?vid=485e665f-8d99-4a2c-ae4d-0c731c643c28","ios":"levelo://app?vid=485e665f-8d99-4a2c-ae4d-0c731c643c28"},"vehicle_type_id":"4","last_reported":1748354974,"current_range_meters":6000,"station_id":"ce4bhch2rcd13ifvqeug","pricing_plan_id":"cebpf4jnsgd1na2vs0mg"},{"bike_id":"058f29fb-4783-4853-99cd-54ab1041bc45","system_id":"levelo_inurba_marseille","lat":43.2847,"lon":5.38413,"is_reserved":false,"is_disabled":true,"rental_uris":{"android":"levelo://app?vid=058f29fb-4783-4853-99cd-54ab1041bc45","ios":"levelo://app?vid=058f29fb-4783-4853-99cd-54ab1041bc45"},"vehicle_type_id":"4","last_reported":1748354974,"current_range_meters":6000,"station_id":"ce4bh512rcd13ifvqe3g","pricing_plan_id":"cebpf4jnsgd1na2vs0mg"},{"bike_id":"ad0fd1aa-c804-438c-9251-a5058f125ac5","system_id":"levelo_inurba_marseille","lat":43.28154,"lon":5.42638,"is_reserved":false,"is_disabled":false,"rental_uris":{"android":"levelo://app?vid=ad0fd1aa-c804-438c-9251-a5058f125ac5","ios":"levelo://app?vid=ad0fd1aa-c804-438c-9251-a5058f125ac5"},"vehicle_type_id":"4","last_reported":1748354974,"current_range_meters":6000,"station_id":"ce4bhnh2rcd13ifvqgug","pricing_plan_id":"cebpf4jnsgd1na2vs0mg"},{"bike_id":"001abf6b-3bca-4620-b25e-6bf939a15d94","system_id":"levelo_inurba_marseille","lat":43.27211,"lon":5.39176,"is_reserved":false,"is_disabled":false,"rental_uris":{"android":"levelo://app?vid=001abf6b-3bca-4620-b25e-6bf939a15d94","ios":"levelo://app?vid=001abf6b-3bca-4620-b25e-6bf939a15d94"},"vehicle_type_id":"4","last_reported":1748354974,"current_range_meters":6400,"station_id":"ce4bhhp2rcd13ifvqfm0","pricing_plan_id":"cebpf4jnsgd1na2vs0mg"},{"bike_id":"2b73315a-ee87-4d8e-8a09-44cb343862e1","system_id":"levelo_inurba_marseille","lat":43.27983,"lon":5.41664,"is_reserved":false,"is_disabled":false,"rental_uris":{"android":"levelo://app?vid=2b73315a-ee87-4d8e-8a09-44cb343862e1","ios":"levelo://app?vid=2b73315a-ee87-4d8e-8a09-44cb343862e1"},"vehicle_type_id":"4","last_reported":1748354974,"current_range_meters":6400,"station_id":"ce4bho12rcd13ifvqh1g","pricing_plan_id":"cebpf4jnsgd1na2vs0mg"},{"bike_id":"23df891a-24a2-4e9a-973f-6292b5e5684c","system_id":"levelo_inurba_marseille","lat":43.30884,"lon":5.37194,"is_reserved":false,"is_disabled":false,"rental_uris":{"android":"levelo://app?vid=23df891a-24a2-4e9a-973f-6292b5e5684c","ios":"levelo://app?vid=23df891a-24a2-4e9a-973f-6292b5e5684c"},"vehicle_type_id":"4","last_reported":1748354974,"current_range_meters":6400,"station_id":"ce4bguh2rcd13ifvqckg","pricing_plan_id":"cebpf4jnsgd1na2vs0mg"},{"bike_id":"2abe0ceb-be8e-471e-b5ff-76be6ee12e3f","system_id":"levelo_inurba_marseille","lat":43.32337,"lon":5.40626,"is_reserved":false,"is_disabled":false,"rental_uris":{"android":"levelo://app?vid=2abe0ceb-be8e-471e-b5ff-76be6ee12e3f","ios":"levelo://app?vid=2abe0ceb-be8e-471e-b5ff-76be6ee12e3f"},"vehicle_type_id":"4","last_reported":1748354974,"current_range_meters":6400,"station_id":"ce4bhq92rcd13ifvqhjg","pricing_plan_id":"cebpf4jnsgd1na2vs0mg"},{"bike_id":"2ec3c1ab-f731-420e-be73-810c4409ee8e","system_id":"levelo_inurba_marseille","lat":43.31759,"lon":5.39014,"is_reserved":false,"is_disabled":false,"rental_uris":{"android":"levelo://app?vid=2ec3c1ab-f731-420e-be73-810c4409ee8e","ios":"levelo://app?vid=2ec3c1ab-f731-420e-be73-810c4409ee8e"},"vehicle_type_id":"4","last_reported":1748354974,"current_range_meters":7200,"station_id":"ce4bhqp2rcd13ifvqhng","pricing_plan_id":"cebpf4jnsgd1na2vs0mg"},{"bike_id":"3f82d8af-847a-422f-be11-992b7a909081","system_id":"levelo_inurba_marseille","lat":43.27909,"lon":5.38024,"is_reserved":false,"is_disabled":false,"rental_uris":{"android":"levelo://app?vid=3f82d8af-847a-422f-be11-992b7a909081","ios":"levelo://app?vid=3f82d8af-847a-422f-be11-992b7a909081"},"vehicle_type_id":"4","last_reported":1748354974,"current_range_meters":6400,"station_id":"ce4bhf92rcd13ifvqf50","pricing_plan_id":"cebpf4jnsgd1na2vs0mg"},{"bike_id":"7a31138f-ccca-43c9-9821-055e78e46230","system_id":"levelo_inurba_marseille","lat":43.326562,"lon":5.409954,"is_reserved":false,"is_disabled":false,"rental_uris":{"android":"levelo://app?vid=7a31138f-ccca-43c9-9821-055e78e46230","ios":"levelo://app?vid=7a31138f-ccca-43c9-9821-055e78e46230"},"vehicle_type_id":"4","last_reported":1748354974,"current_range_meters":6800,"station_id":"ce4bhpp2rcd13ifvqhgg","pricing_plan_id":"cebpf4jnsgd1na2vs0mg"},{"bike_id":"15895a4c-6504-4c01-aecb-996f77f1a3b5","system_id":"levelo_inurba_marseille","lat":43.32107,"lon":5.36764,"is_reserved":false,"is_disabled":false,"rental_uris":{"android":"levelo://app?vid=15895a4c-6504-4c01-aecb-996f77f1a3b5","ios":"levelo://app?vid=15895a4c-6504-4c01-aecb-996f77f1a3b5"},"vehicle_type_id":"4","last_reported":1748354974,"current_range_meters":6800,"station_id":"ce4bhrh2rcd13ifvqhug","pricing_plan_id":"cebpf4jnsgd1na2vs0mg"},{"bike_id":"aed03d0a-eaa6-4d76-b5c9-e69467d8c7a2","system_id":"levelo_inurba_marseille","lat":43.255087,"lon":5.376443,"is_reserved":false,"is_disabled":false,"rental_uris":{"android":"levelo://app?vid=aed03d0a-eaa6-4d76-b5c9-e69467d8c7a2","ios":"levelo://app?vid=aed03d0a-eaa6-4d76-b5c9-e69467d8c7a2"},"vehicle_type_id":"4","last_reported":1748354974,"current_range_meters":6800,"station_id":"ce4bhh12rcd13ifvqff0","pricing_plan_id":"cebpf4jnsgd1na2vs0mg"},{"bike_id":"7c2b9150-67fa-4061-96d1-32b028d3f90f","system_id":"levelo_inurba_marseille","lat":43.283517,"lon":5.381011,"is_reserved":false,"is_disabled":false,"rental_uris":{"android":"levelo://app?vid=7c2b9150-67fa-4061-96d1-32b028d3f90f","ios":"levelo://app?vid=7c2b9150-67fa-4061-96d1-32b028d3f90f"},"vehicle_type_id":"4","last_reported":1748354974,"current_range_meters":7200,"station_id":"ce4bh412rcd13ifvqdr0","pricing_plan_id":"cebpf4jnsgd1na2vs0mg"},{"bike_id":"f75f54c8-e305-4e91-ae97-0ba20e04c7fd","system_id":"levelo_inurba_marseille","lat":43.29032,"lon":5.38138,"is_reserved":false,"is_disabled":false,"rental_uris":{"android":"levelo://app?vid=f75f54c8-e305-4e91-ae97-0ba20e04c7fd","ios":"levelo://app?vid=f75f54c8-e305-4e91-ae97-0ba20e04c7fd"},"vehicle_type_id":"4","last_reported":1748354974,"current_range_meters":7200,"station_id":"ce4bh4p2rcd13ifvqe1g","pricing_plan_id":"cebpf4jnsgd1na2vs0mg"},{"bike_id":"179f87c5-653e-4929-8615-1f36854f464c","system_id":"levelo_inurba_marseille","lat":43.28149,"lon":5.42646,"is_reserved":false,"is_disabled":false,"rental_uris":{"android":"levelo://app?vid=179f87c5-653e-4929-8615-1f36854f464c","ios":"levelo://app?vid=179f87c5-653e-4929-8615-1f36854f464c"},"vehicle_type_id":"4","last_reported":1748354974,"current_range_meters":7200,"station_id":"ce4bhnh2rcd13ifvqgug","pricing_plan_id":"cebpf4jnsgd1na2vs0mg"},{"bike_id":"05b92379-4b47-4e4b-8d66-cf9a0dea4304","system_id":"levelo_inurba_marseille","lat":43.31356,"lon":5.38499,"is_reserved":false,"is_disabled":false,"rental_uris":{"android":"levelo://app?vid=05b92379-4b47-4e4b-8d66-cf9a0dea4304","ios":"levelo://app?vid=05b92379-4b47-4e4b-8d66-cf9a0dea4304"},"vehicle_type_id":"4","last_reported":1748354974,"current_range_meters":7200,"station_id":"ce4bgt92rcd13ifvqcf0","pricing_plan_id":"cebpf4jnsgd1na2vs0mg"},{"bike_id":"d7856b08-f389-43aa-b6bf-e150a34681d9","system_id":"levelo_inurba_marseille","lat":43.31397,"lon":5.36669,"is_reserved":false,"is_disabled":false,"rental_uris":{"android":"levelo://app?vid=d7856b08-f389-43aa-b6bf-e150a34681d9","ios":"levelo://app?vid=d7856b08-f389-43aa-b6bf-e150a34681d9"},"vehicle_type_id":"4","last_reported":1748354974,"current_range_meters":7200,"station_id":"ce4bgr92rcd13ifvqc6g","pricing_plan_id":"cebpf4jnsgd1na2vs0mg"},{"bike_id":"a29a2708-797f-4e9a-9f1a-17352bf6f3db","system_id":"levelo_inurba_marseille","lat":43.27321,"lon":5.39084,"is_reserved":false,"is_disabled":true,"rental_uris":{"android":"levelo://app?vid=a29a2708-797f-4e9a-9f1a-17352bf6f3db","ios":"levelo://app?vid=a29a2708-797f-4e9a-9f1a-17352bf6f3db"},"vehicle_type_id":"4","last_reported":1748354974,"current_range_meters":7200,"station_id":"ce4bhgp2rcd13ifvqfe0","pricing_plan_id":"cebpf4jnsgd1na2vs0mg"},{"bike_id":"61660e79-af3a-46ef-8e57-36f181158d33","system_id":"levelo_inurba_marseille","lat":43.27565,"lon":5.38412,"is_reserved":false,"is_disabled":false,"rental_uris":{"android":"levelo://app?vid=61660e79-af3a-46ef-8e57-36f181158d33","ios":"levelo://app?vid=61660e79-af3a-46ef-8e57-36f181158d33"},"vehicle_type_id":"4","last_reported":1748354974,"current_range_meters":7200,"station_id":"ce4bhh92rcd13ifvqfi0","pricing_plan_id":"cebpf4jnsgd1na2vs0mg"},{"bike_id":"39b9e6f9-7f50-4c15-865f-e83796dd4da6","system_id":"levelo_inurba_marseille","lat":43.28658,"lon":5.36355,"is_reserved":false,"is_disabled":false,"rental_uris":{"android":"levelo://app?vid=39b9e6f9-7f50-4c15-865f-e83796dd4da6","ios":"levelo://app?vid=39b9e6f9-7f50-4c15-865f-e83796dd4da6"},"vehicle_type_id":"4","last_reported":1748354974,"current_range_meters":7200,"station_id":"ce4bhah2rcd13ifvqej0","pricing_plan_id":"cebpf4jnsgd1na2vs0mg"},{"bike_id":"1f1e65b6-4104-4b52-9062-ec946f84a21f","system_id":"levelo_inurba_marseille","lat":43.30308,"lon":5.39225,"is_reserved":false,"is_disabled":false,"rental_uris":{"android":"levelo://app?vid=1f1e65b6-4104-4b52-9062-ec946f84a21f","ios":"levelo://app?vid=1f1e65b6-4104-4b52-9062-ec946f84a21f"},"vehicle_type_id":"4","last_reported":1748354974,"current_range_meters":7200,"station_id":"ce4bgkh2rcd13ifvqbk0","pricing_plan_id":"cebpf4jnsgd1na2vs0mg"},{"bike_id":"bab09bb9-a7b0-44e5-9221-5afc8fc0cf0d","system_id":"levelo_inurba_marseille","lat":43.29196,"lon":5.35812,"is_reserved":false,"is_disabled":false,"rental_uris":{"android":"levelo://app?vid=bab09bb9-a7b0-44e5-9221-5afc8fc0cf0d","ios":"levelo://app?vid=bab09bb9-a7b0-44e5-9221-5afc8fc0cf0d"},"vehicle_type_id":"4","last_reported":1748354974,"current_range_meters":8000,"station_id":"ce4bhb12rcd13ifvqel0","pricing_plan_id":"cebpf4jnsgd1na2vs0mg"},{"bike_id":"3df0a723-70f1-45cf-bff9-5628e9d27574","system_id":"levelo_inurba_marseille","lat":43.22934,"lon":5.35376,"is_reserved":false,"is_disabled":false,"rental_uris":{"android":"levelo://app?vid=3df0a723-70f1-45cf-bff9-5628e9d27574","ios":"levelo://app?vid=3df0a723-70f1-45cf-bff9-5628e9d27574"},"vehicle_type_id":"4","last_reported":1748354974,"current_range_meters":8000,"station_id":"cpo3532slgdg3j2ikp40","pricing_plan_id":"cebpf4jnsgd1na2vs0mg"},{"bike_id":"f3c3b5f7-75cf-4913-b2f1-34713927867b","system_id":"levelo_inurba_marseille","lat":43.254969,"lon":5.37649,"is_reserved":false,"is_disabled":false,"rental_uris":{"android":"levelo://app?vid=f3c3b5f7-75cf-4913-b2f1-34713927867b","ios":"levelo://app?vid=f3c3b5f7-75cf-4913-b2f1-34713927867b"},"vehicle_type_id":"4","last_reported":1748354974,"current_range_meters":8000,"station_id":"","pricing_plan_id":"cebpf4jnsgd1na2vs0mg"},{"bike_id":"4de9b7e5-eeb0-4157-a33c-ea0bec568ecd","system_id":"levelo_inurba_marseille","lat":43.26208,"lon":5.37922,"is_reserved":false,"is_disabled":false,"rental_uris":{"android":"levelo://app?vid=4de9b7e5-eeb0-4157-a33c-ea0bec568ecd","ios":"levelo://app?vid=4de9b7e5-eeb0-4157-a33c-ea0bec568ecd"},"vehicle_type_id":"4","last_reported":1748354974,"current_range_meters":8000,"station_id":"ce4bhjp2rcd13ifvqg90","pricing_plan_id":"cebpf4jnsgd1na2vs0mg"},{"bike_id":"26c28625-45f4-4437-9931-f359f8a7c449","system_id":"levelo_inurba_marseille","lat":43.23966,"lon":5.36637,"is_reserved":false,"is_disabled":false,"rental_uris":{"android":"levelo://app?vid=26c28625-45f4-4437-9931-f359f8a7c449","ios":"levelo://app?vid=26c28625-45f4-4437-9931-f359f8a7c449"},"vehicle_type_id":"4","last_reported":1748354974,"current_range_meters":8000,"station_id":"","pricing_plan_id":"cebpf4jnsgd1na2vs0mg"},{"bike_id":"f25ae143-f5b0-4cab-ba02-a78d6593b0ef","system_id":"levelo_inurba_marseille","lat":43.29009,"lon":5.35607,"is_reserved":false,"is_disabled":false,"rental_uris":{"android":"levelo://app?vid=f25ae143-f5b0-4cab-ba02-a78d6593b0ef","ios":"levelo://app?vid=f25ae143-f5b0-4cab-ba02-a78d6593b0ef"},"vehicle_type_id":"4","last_reported":1748354974,"current_range_meters":8000,"station_id":"ce4bhb92rcd13ifvqen0","pricing_plan_id":"cebpf4jnsgd1na2vs0mg"},{"bike_id":"6e37d84b-0136-4bd4-a1ae-bc58fa2f7419","system_id":"levelo_inurba_marseille","lat":43.31511,"lon":5.37321,"is_reserved":false,"is_disabled":false,"rental_uris":{"android":"levelo://app?vid=6e37d84b-0136-4bd4-a1ae-bc58fa2f7419","ios":"levelo://app?vid=6e37d84b-0136-4bd4-a1ae-bc58fa2f7419"},"vehicle_type_id":"4","last_reported":1748354974,"current_range_meters":8400,"station_id":"ce4bgt12rcd13ifvqcd0","pricing_plan_id":"cebpf4jnsgd1na2vs0mg"},{"bike_id":"29f218b9-4c4f-4816-82c7-a3288a8a8839","system_id":"levelo_inurba_marseille","lat":43.27207,"lon":5.39186,"is_reserved":false,"is_disabled":false,"rental_uris":{"android":"levelo://app?vid=29f218b9-4c4f-4816-82c7-a3288a8a8839","ios":"levelo://app?vid=29f218b9-4c4f-4816-82c7-a3288a8a8839"},"vehicle_type_id":"4","last_reported":1748354974,"current_range_meters":8400,"station_id":"ce4bhhp2rcd13ifvqfm0","pricing_plan_id":"cebpf4jnsgd1na2vs0mg"},{"bike_id":"cc65ad4d-5718-4383-afca-9c928467e44c","system_id":"levelo_inurba_marseille","lat":43.26555,"lon":5.37285,"is_reserved":false,"is_disabled":false,"rental_uris":{"android":"levelo://app?vid=cc65ad4d-5718-4383-afca-9c928467e44c","ios":"levelo://app?vid=cc65ad4d-5718-4383-afca-9c928467e44c"},"vehicle_type_id":"4","last_reported":1748354974,"current_range_meters":8400,"station_id":"ce4bhg12rcd13ifvqf70","pricing_plan_id":"cebpf4jnsgd1na2vs0mg"},{"bike_id":"4a6c8a6f-6035-4063-a5a8-5d7ce586525e","system_id":"levelo_inurba_marseille","lat":43.29256,"lon":5.40907,"is_reserved":false,"is_disabled":false,"rental_uris":{"android":"levelo://app?vid=4a6c8a6f-6035-4063-a5a8-5d7ce586525e","ios":"levelo://app?vid=4a6c8a6f-6035-4063-a5a8-5d7ce586525e"},"vehicle_type_id":"4","last_reported":1748354974,"current_range_meters":7200,"station_id":"ce4bh192rcd13ifvqdc0","pricing_plan_id":"cebpf4jnsgd1na2vs0mg"},{"bike_id":"7085502e-94c9-474c-ad97-bbb1b9eceab0","system_id":"levelo_inurba_marseille","lat":43.29091,"lon":5.38129,"is_reserved":false,"is_disabled":false,"rental_uris":{"android":"levelo://app?vid=7085502e-94c9-474c-ad97-bbb1b9eceab0","ios":"levelo://app?vid=7085502e-94c9-474c-ad97-bbb1b9eceab0"},"vehicle_type_id":"4","last_reported":1748354974,"current_range_meters":10800,"station_id":"ce4bh512rcd13ifvqe2g","pricing_plan_id":"cebpf4jnsgd1na2vs0mg"},{"bike_id":"e7a027c7-3e3f-4c11-ad32-d320b53aa84c","system_id":"levelo_inurba_marseille","lat":43.29014,"lon":5.3814,"is_reserved":false,"is_disabled":false,"rental_uris":{"android":"levelo://app?vid=e7a027c7-3e3f-4c11-ad32-d320b53aa84c","ios":"levelo://app?vid=e7a027c7-3e3f-4c11-ad32-d320b53aa84c"},"vehicle_type_id":"4","last_reported":1748354974,"current_range_meters":8800,"station_id":"ce4bh4p2rcd13ifvqe1g","pricing_plan_id":"cebpf4jnsgd1na2vs0mg"},{"bike_id":"ae6e6868-2635-4f49-b7c1-b03759c58ec7","system_id":"levelo_inurba_marseille","lat":43.27275,"lon":5.41598,"is_reserved":false,"is_disabled":false,"rental_uris":{"android":"levelo://app?vid=ae6e6868-2635-4f49-b7c1-b03759c58ec7","ios":"levelo://app?vid=ae6e6868-2635-4f49-b7c1-b03759c58ec7"},"vehicle_type_id":"4","last_reported":1748354974,"current_range_meters":8800,"station_id":"","pricing_plan_id":"cebpf4jnsgd1na2vs0mg"},{"bike_id":"190276b7-abec-40ca-8fb7-fb32baddf1e4","system_id":"levelo_inurba_marseille","lat":43.28279,"lon":5.35076,"is_reserved":false,"is_disabled":false,"rental_uris":{"android":"levelo://app?vid=190276b7-abec-40ca-8fb7-fb32baddf1e4","ios":"levelo://app?vid=190276b7-abec-40ca-8fb7-fb32baddf1e4"},"vehicle_type_id":"4","last_reported":1748354974,"current_range_meters":8800,"station_id":"ce4bhbp2rcd13ifvqerg","pricing_plan_id":"cebpf4jnsgd1na2vs0mg"},{"bike_id":"c22ab93c-1115-423e-9a3c-3248f30c0355","system_id":"levelo_inurba_marseille","lat":43.24184,"lon":5.39728,"is_reserved":false,"is_disabled":false,"rental_uris":{"android":"levelo://app?vid=c22ab93c-1115-423e-9a3c-3248f30c0355","ios":"levelo://app?vid=c22ab93c-1115-423e-9a3c-3248f30c0355"},"vehicle_type_id":"4","last_reported":1748354974,"current_range_meters":8800,"station_id":"ce4bhn12rcd13ifvqgpg","pricing_plan_id":"cebpf4jnsgd1na2vs0mg"},{"bike_id":"f6a291c8-009c-4799-858f-3d0684b35fea","system_id":"levelo_inurba_marseille","lat":43.2315,"lon":5.43727,"is_reserved":false,"is_disabled":false,"rental_uris":{"android":"levelo://app?vid=f6a291c8-009c-4799-858f-3d0684b35fea","ios":"levelo://app?vid=f6a291c8-009c-4799-858f-3d0684b35fea"},"vehicle_type_id":"4","last_reported":1748354974,"current_range_meters":8800,"station_id":"ce4bhmp2rcd13ifvqgog","pricing_plan_id":"cebpf4jnsgd1na2vs0mg"},{"bike_id":"71a52a98-d5e8-48cb-a065-472ee11c9e85","system_id":"levelo_inurba_marseille","lat":43.24168,"lon":5.36394,"is_reserved":false,"is_disabled":false,"rental_uris":{"android":"levelo://app?vid=71a52a98-d5e8-48cb-a065-472ee11c9e85","ios":"levelo://app?vid=71a52a98-d5e8-48cb-a065-472ee11c9e85"},"vehicle_type_id":"4","last_reported":1748354974,"current_range_meters":8800,"station_id":"cpo36qri1sfpv3e86is0","pricing_plan_id":"cebpf4jnsgd1na2vs0mg"},{"bike_id":"96479421-6d03-48b9-b32e-c212271c064b","system_id":"levelo_inurba_marseille","lat":43.29259,"lon":5.37627,"is_reserved":false,"is_disabled":false,"rental_uris":{"android":"levelo://app?vid=96479421-6d03-48b9-b32e-c212271c064b","ios":"levelo://app?vid=96479421-6d03-48b9-b32e-c212271c064b"},"vehicle_type_id":"4","last_reported":1748354974,"current_range_meters":8800,"station_id":"ce4bgi12rcd13ifvqb80","pricing_plan_id":"cebpf4jnsgd1na2vs0mg"},{"bike_id":"93bae3fe-9007-4845-9a5c-60dbd4d0c9d6","system_id":"levelo_inurba_marseille","lat":43.24181,"lon":5.39733,"is_reserved":false,"is_disabled":false,"rental_uris":{"android":"levelo://app?vid=93bae3fe-9007-4845-9a5c-60dbd4d0c9d6","ios":"levelo://app?vid=93bae3fe-9007-4845-9a5c-60dbd4d0c9d6"},"vehicle_type_id":"4","last_reported":1748354974,"current_range_meters":8800,"station_id":"ce4bhn12rcd13ifvqgpg","pricing_plan_id":"cebpf4jnsgd1na2vs0mg"},{"bike_id":"2c9680e9-7ab3-4f14-9779-60f642f52539","system_id":"levelo_inurba_marseille","lat":43.3093,"lon":5.4015,"is_reserved":false,"is_disabled":false,"rental_uris":{"android":"levelo://app?vid=2c9680e9-7ab3-4f14-9779-60f642f52539","ios":"levelo://app?vid=2c9680e9-7ab3-4f14-9779-60f642f52539"},"vehicle_type_id":"4","last_reported":1748354974,"current_range_meters":8800,"station_id":"ce4bgvp2rcd13ifvqct0","pricing_plan_id":"cebpf4jnsgd1na2vs0mg"},{"bike_id":"179e670b-338a-4c35-90c1-db1256311ade","system_id":"levelo_inurba_marseille","lat":43.25831,"lon":5.39391,"is_reserved":false,"is_disabled":false,"rental_uris":{"android":"levelo://app?vid=179e670b-338a-4c35-90c1-db1256311ade","ios":"levelo://app?vid=179e670b-338a-4c35-90c1-db1256311ade"},"vehicle_type_id":"4","last_reported":1748354974,"current_range_meters":8800,"station_id":"ce4bhip2rcd13ifvqft0","pricing_plan_id":"cebpf4jnsgd1na2vs0mg"},{"bike_id":"fecd11f4-03be-42cd-97e0-11d97cc416b2","system_id":"levelo_inurba_marseille","lat":43.307514,"lon":5.387408,"is_reserved":false,"is_disabled":false,"rental_uris":{"android":"levelo://app?vid=fecd11f4-03be-42cd-97e0-11d97cc416b2","ios":"levelo://app?vid=fecd11f4-03be-42cd-97e0-11d97cc416b2"},"vehicle_type_id":"4","last_reported":1748354974,"current_range_meters":8800,"station_id":"ce4bgv12rcd13ifvqcp0","pricing_plan_id":"cebpf4jnsgd1na2vs0mg"},{"bike_id":"9c8ab5ff-7a98-4cff-9fc1-ebfa4504dbaf","system_id":"levelo_inurba_marseille","lat":43.31519,"lon":5.37284,"is_reserved":false,"is_disabled":false,"rental_uris":{"android":"levelo://app?vid=9c8ab5ff-7a98-4cff-9fc1-ebfa4504dbaf","ios":"levelo://app?vid=9c8ab5ff-7a98-4cff-9fc1-ebfa4504dbaf"},"vehicle_type_id":"4","last_reported":1748354974,"current_range_meters":9200,"station_id":"ce4bgt12rcd13ifvqcd0","pricing_plan_id":"cebpf4jnsgd1na2vs0mg"},{"bike_id":"1a0998e5-8bb9-474f-a827-53cad24c9e8f","system_id":"levelo_inurba_marseille","lat":43.32036,"lon":5.44951,"is_reserved":false,"is_disabled":false,"rental_uris":{"android":"levelo://app?vid=1a0998e5-8bb9-474f-a827-53cad24c9e8f","ios":"levelo://app?vid=1a0998e5-8bb9-474f-a827-53cad24c9e8f"},"vehicle_type_id":"4","last_reported":1748354974,"current_range_meters":9200,"station_id":"","pricing_plan_id":"cebpf4jnsgd1na2vs0mg"},{"bike_id":"9a794a58-6d3d-4a3f-8c19-519cffc564ef","system_id":"levelo_inurba_marseille","lat":43.26063,"lon":5.39392,"is_reserved":false,"is_disabled":false,"rental_uris":{"android":"levelo://app?vid=9a794a58-6d3d-4a3f-8c19-519cffc564ef","ios":"levelo://app?vid=9a794a58-6d3d-4a3f-8c19-519cffc564ef"},"vehicle_type_id":"4","last_reported":1748354974,"current_range_meters":9200,"station_id":"ce4bhh92rcd13ifvqfj0","pricing_plan_id":"cebpf4jnsgd1na2vs0mg"},{"bike_id":"42726cfe-87f3-4ec7-9b51-eee15f0eb05a","system_id":"levelo_inurba_marseille","lat":43.24664,"lon":5.38167,"is_reserved":false,"is_disabled":false,"rental_uris":{"android":"levelo://app?vid=42726cfe-87f3-4ec7-9b51-eee15f0eb05a","ios":"levelo://app?vid=42726cfe-87f3-4ec7-9b51-eee15f0eb05a"},"vehicle_type_id":"4","last_reported":1748354974,"current_range_meters":9200,"station_id":"ce4bhih2rcd13ifvqfr0","pricing_plan_id":"cebpf4jnsgd1na2vs0mg"},{"bike_id":"d4b9bdc7-705a-489f-b62e-36c8e01c9b06","system_id":"levelo_inurba_marseille","lat":43.27672,"lon":5.38897,"is_reserved":false,"is_disabled":false,"rental_uris":{"android":"levelo://app?vid=d4b9bdc7-705a-489f-b62e-36c8e01c9b06","ios":"levelo://app?vid=d4b9bdc7-705a-489f-b62e-36c8e01c9b06"},"vehicle_type_id":"4","last_reported":1748354974,"current_range_meters":9200,"station_id":"ce4bhi12rcd13ifvqfo0","pricing_plan_id":"cebpf4jnsgd1na2vs0mg"},{"bike_id":"7e823e3b-1b92-4735-8533-dc1341b80eaf","system_id":"levelo_inurba_marseille","lat":43.230561,"lon":5.354918,"is_reserved":false,"is_disabled":true,"rental_uris":{"android":"levelo://app?vid=7e823e3b-1b92-4735-8533-dc1341b80eaf","ios":"levelo://app?vid=7e823e3b-1b92-4735-8533-dc1341b80eaf"},"vehicle_type_id":"4","last_reported":1748354974,"current_range_meters":9200,"station_id":"cpo3342slgdg3j2ifvpg","pricing_plan_id":"cebpf4jnsgd1na2vs0mg"},{"bike_id":"19d2420d-6934-47ed-bd13-3997559b9b5c","system_id":"levelo_inurba_marseille","lat":43.304705,"lon":5.379009,"is_reserved":false,"is_disabled":false,"rental_uris":{"android":"levelo://app?vid=19d2420d-6934-47ed-bd13-3997559b9b5c","ios":"levelo://app?vid=19d2420d-6934-47ed-bd13-3997559b9b5c"},"vehicle_type_id":"4","last_reported":1748354974,"current_range_meters":9600,"station_id":"ce4bgup2rcd13ifvqcn0","pricing_plan_id":"cebpf4jnsgd1na2vs0mg"},{"bike_id":"500c6bc6-b802-470d-a62b-6fe2f05c8a25","system_id":"levelo_inurba_marseille","lat":43.29373,"lon":5.37818,"is_reserved":false,"is_disabled":false,"rental_uris":{"android":"levelo://app?vid=500c6bc6-b802-470d-a62b-6fe2f05c8a25","ios":"levelo://app?vid=500c6bc6-b802-470d-a62b-6fe2f05c8a25"},"vehicle_type_id":"4","last_reported":1748354974,"current_range_meters":9600,"station_id":"ce4bgjh2rcd13ifvqbf0","pricing_plan_id":"cebpf4jnsgd1na2vs0mg"},{"bike_id":"66cd71e0-1eb2-44ce-a576-c1d7a6ee7f9d","system_id":"levelo_inurba_marseille","lat":43.29907,"lon":5.37473,"is_reserved":false,"is_disabled":false,"rental_uris":{"android":"levelo://app?vid=66cd71e0-1eb2-44ce-a576-c1d7a6ee7f9d","ios":"levelo://app?vid=66cd71e0-1eb2-44ce-a576-c1d7a6ee7f9d"},"vehicle_type_id":"4","last_reported":1748354974,"current_range_meters":6000,"station_id":"ce4bgjh2rcd13ifvqbg0","pricing_plan_id":"cebpf4jnsgd1na2vs0mg"},{"bike_id":"de7de93d-7329-426c-a55a-9e1f5b37f3bc","system_id":"levelo_inurba_marseille","lat":43.30193,"lon":5.37455,"is_reserved":false,"is_disabled":false,"rental_uris":{"android":"levelo://app?vid=de7de93d-7329-426c-a55a-9e1f5b37f3bc","ios":"levelo://app?vid=de7de93d-7329-426c-a55a-9e1f5b37f3bc"},"vehicle_type_id":"4","last_reported":1748354974,"current_range_meters":9600,"station_id":"","pricing_plan_id":"cebpf4jnsgd1na2vs0mg"},{"bike_id":"1c36f614-cdfc-404e-8b3f-5c134ae5169d","system_id":"levelo_inurba_marseille","lat":43.28413,"lon":5.37525,"is_reserved":false,"is_disabled":false,"rental_uris":{"android":"levelo://app?vid=1c36f614-cdfc-404e-8b3f-5c134ae5169d","ios":"levelo://app?vid=1c36f614-cdfc-404e-8b3f-5c134ae5169d"},"vehicle_type_id":"4","last_reported":1748354974,"current_range_meters":9600,"station_id":"ce4bh412rcd13ifvqds0","pricing_plan_id":"cebpf4jnsgd1na2vs0mg"},{"bike_id":"4256ce60-3f6a-49fd-8d9f-2049e61e8483","system_id":"levelo_inurba_marseille","lat":43.28273,"lon":5.35074,"is_reserved":false,"is_disabled":false,"rental_uris":{"android":"levelo://app?vid=4256ce60-3f6a-49fd-8d9f-2049e61e8483","ios":"levelo://app?vid=4256ce60-3f6a-49fd-8d9f-2049e61e8483"},"vehicle_type_id":"4","last_reported":1748354974,"current_range_meters":10000,"station_id":"ce4bhbp2rcd13ifvqerg","pricing_plan_id":"cebpf4jnsgd1na2vs0mg"},{"bike_id":"6ef27e84-462a-46f9-afe5-e09b209cc7f0","system_id":"levelo_inurba_marseille","lat":43.33114,"lon":5.362046,"is_reserved":false,"is_disabled":false,"rental_uris":{"android":"levelo://app?vid=6ef27e84-462a-46f9-afe5-e09b209cc7f0","ios":"levelo://app?vid=6ef27e84-462a-46f9-afe5-e09b209cc7f0"},"vehicle_type_id":"4","last_reported":1748354974,"current_range_meters":10000,"station_id":"","pricing_plan_id":"cebpf4jnsgd1na2vs0mg"},{"bike_id":"cd431521-2266-4f45-ac9a-95e56b6903c9","system_id":"levelo_inurba_marseille","lat":43.24189,"lon":5.39742,"is_reserved":false,"is_disabled":false,"rental_uris":{"android":"levelo://app?vid=cd431521-2266-4f45-ac9a-95e56b6903c9","ios":"levelo://app?vid=cd431521-2266-4f45-ac9a-95e56b6903c9"},"vehicle_type_id":"4","last_reported":1748354974,"current_range_meters":10000,"station_id":"ce4bhn12rcd13ifvqgpg","pricing_plan_id":"cebpf4jnsgd1na2vs0mg"},{"bike_id":"4b764d62-5035-42bb-ada7-7817db7fa65c","system_id":"levelo_inurba_marseille","lat":43.28612,"lon":5.35106,"is_reserved":false,"is_disabled":false,"rental_uris":{"android":"levelo://app?vid=4b764d62-5035-42bb-ada7-7817db7fa65c","ios":"levelo://app?vid=4b764d62-5035-42bb-ada7-7817db7fa65c"},"vehicle_type_id":"4","last_reported":1748354974,"current_range_meters":10000,"station_id":"ce4bhch2rcd13ifvqeug","pricing_plan_id":"cebpf4jnsgd1na2vs0mg"},{"bike_id":"b7eade52-7641-4211-a930-e750892c8e5f","system_id":"levelo_inurba_marseille","lat":43.31226,"lon":5.36855,"is_reserved":false,"is_disabled":false,"rental_uris":{"android":"levelo://app?vid=b7eade52-7641-4211-a930-e750892c8e5f","ios":"levelo://app?vid=b7eade52-7641-4211-a930-e750892c8e5f"},"vehicle_type_id":"4","last_reported":1748354974,"current_range_meters":10000,"station_id":"ce4bgl92rcd13ifvqbq0","pricing_plan_id":"cebpf4jnsgd1na2vs0mg"},{"bike_id":"52b5b118-122f-4853-96dc-c2da0a1b15ff","system_id":"levelo_inurba_marseille","lat":43.30539,"lon":5.36533,"is_reserved":false,"is_disabled":false,"rental_uris":{"android":"levelo://app?vid=52b5b118-122f-4853-96dc-c2da0a1b15ff","ios":"levelo://app?vid=52b5b118-122f-4853-96dc-c2da0a1b15ff"},"vehicle_type_id":"4","last_reported":1748354974,"current_range_meters":10800,"station_id":"ce4bgs12rcd13ifvqcag","pricing_plan_id":"cebpf4jnsgd1na2vs0mg"},{"bike_id":"e6c65de3-7d92-4979-809c-6677188473c0","system_id":"levelo_inurba_marseille","lat":43.337598,"lon":5.374632,"is_reserved":false,"is_disabled":false,"rental_uris":{"android":"levelo://app?vid=e6c65de3-7d92-4979-809c-6677188473c0","ios":"levelo://app?vid=e6c65de3-7d92-4979-809c-6677188473c0"},"vehicle_type_id":"4","last_reported":1748354974,"current_range_meters":10800,"station_id":"","pricing_plan_id":"cebpf4jnsgd1na2vs0mg"},{"bike_id":"df4117c0-9f6f-452a-ac57-62defae140ef","system_id":"levelo_inurba_marseille","lat":43.242,"lon":5.39707,"is_reserved":false,"is_disabled":false,"rental_uris":{"android":"levelo://app?vid=df4117c0-9f6f-452a-ac57-62defae140ef","ios":"levelo://app?vid=df4117c0-9f6f-452a-ac57-62defae140ef"},"vehicle_type_id":"4","last_reported":1748354974,"current_range_meters":10800,"station_id":"ce4bhn12rcd13ifvqgpg","pricing_plan_id":"cebpf4jnsgd1na2vs0mg"},{"bike_id":"5f9391d7-2924-464d-abdc-d40ada4b1c07","system_id":"levelo_inurba_marseille","lat":43.30146,"lon":5.37383,"is_reserved":false,"is_disabled":false,"rental_uris":{"android":"levelo://app?vid=5f9391d7-2924-464d-abdc-d40ada4b1c07","ios":"levelo://app?vid=5f9391d7-2924-464d-abdc-d40ada4b1c07"},"vehicle_type_id":"4","last_reported":1748354974,"current_range_meters":10800,"station_id":"ce4bgs92rcd13ifvqcc0","pricing_plan_id":"cebpf4jnsgd1na2vs0mg"},{"bike_id":"1238a7f5-0807-4862-ae93-6d2d2306e305","system_id":"levelo_inurba_marseille","lat":43.26787,"lon":5.39415,"is_reserved":false,"is_disabled":false,"rental_uris":{"android":"levelo://app?vid=1238a7f5-0807-4862-ae93-6d2d2306e305","ios":"levelo://app?vid=1238a7f5-0807-4862-ae93-6d2d2306e305"},"vehicle_type_id":"4","last_reported":1748354974,"current_range_meters":10800,"station_id":"ce4bhh12rcd13ifvqfg0","pricing_plan_id":"cebpf4jnsgd1na2vs0mg"},{"bike_id":"e147c21b-f71f-4eb0-9354-70420d517e54","system_id":"levelo_inurba_marseille","lat":43.29787,"lon":5.38099,"is_reserved":false,"is_disabled":false,"rental_uris":{"android":"levelo://app?vid=e147c21b-f71f-4eb0-9354-70420d517e54","ios":"levelo://app?vid=e147c21b-f71f-4eb0-9354-70420d517e54"},"vehicle_type_id":"4","last_reported":1748354974,"current_range_meters":10800,"station_id":"ce4bgip2rcd13ifvqbb0","pricing_plan_id":"cebpf4jnsgd1na2vs0mg"},{"bike_id":"fbe3ea93-07f3-40b1-837d-9cc1cb2ad872","system_id":"levelo_inurba_marseille","lat":43.313577,"lon":5.367126,"is_reserved":false,"is_disabled":false,"rental_uris":{"android":"levelo://app?vid=fbe3ea93-07f3-40b1-837d-9cc1cb2ad872","ios":"levelo://app?vid=fbe3ea93-07f3-40b1-837d-9cc1cb2ad872"},"vehicle_type_id":"4","last_reported":1748354974,"current_range_meters":10800,"station_id":"ce4bgr92rcd13ifvqc6g","pricing_plan_id":"cebpf4jnsgd1na2vs0mg"},{"bike_id":"2a046dee-b3af-48c9-9659-b7d30ba20af5","system_id":"levelo_inurba_marseille","lat":43.24333,"lon":5.37992,"is_reserved":false,"is_disabled":false,"rental_uris":{"android":"levelo://app?vid=2a046dee-b3af-48c9-9659-b7d30ba20af5","ios":"levelo://app?vid=2a046dee-b3af-48c9-9659-b7d30ba20af5"},"vehicle_type_id":"4","last_reported":1748354974,"current_range_meters":10800,"station_id":"","pricing_plan_id":"cebpf4jnsgd1na2vs0mg"},{"bike_id":"d83e089f-2a40-4aff-8d7c-bf1a2a2bd08a","system_id":"levelo_inurba_marseille","lat":43.23957,"lon":5.36658,"is_reserved":false,"is_disabled":false,"rental_uris":{"android":"levelo://app?vid=d83e089f-2a40-4aff-8d7c-bf1a2a2bd08a","ios":"levelo://app?vid=d83e089f-2a40-4aff-8d7c-bf1a2a2bd08a"},"vehicle_type_id":"4","last_reported":1748354974,"current_range_meters":10000,"station_id":"ce4bhi12rcd13ifvqfp0","pricing_plan_id":"cebpf4jnsgd1na2vs0mg"},{"bike_id":"644063da-e312-4ab1-9e7f-09b75a858b33","system_id":"levelo_inurba_marseille","lat":43.28416,"lon":5.34986,"is_reserved":false,"is_disabled":false,"rental_uris":{"android":"levelo://app?vid=644063da-e312-4ab1-9e7f-09b75a858b33","ios":"levelo://app?vid=644063da-e312-4ab1-9e7f-09b75a858b33"},"vehicle_type_id":"4","last_reported":1748354974,"current_range_meters":10800,"station_id":"ce4bhbh2rcd13ifvqepg","pricing_plan_id":"cebpf4jnsgd1na2vs0mg"},{"bike_id":"9b6c9552-a196-40f9-8224-d6ae3a481172","system_id":"levelo_inurba_marseille","lat":43.295653,"lon":5.375267,"is_reserved":false,"is_disabled":false,"rental_uris":{"android":"levelo://app?vid=9b6c9552-a196-40f9-8224-d6ae3a481172","ios":"levelo://app?vid=9b6c9552-a196-40f9-8224-d6ae3a481172"},"vehicle_type_id":"4","last_reported":1748354974,"current_range_meters":10800,"station_id":"ce4bgh92rcd13ifvqb50","pricing_plan_id":"cebpf4jnsgd1na2vs0mg"},{"bike_id":"707e7389-2b7b-4964-a3fc-b3e452aabdc9","system_id":"levelo_inurba_marseille","lat":43.24696,"lon":5.38153,"is_reserved":false,"is_disabled":false,"rental_uris":{"android":"levelo://app?vid=707e7389-2b7b-4964-a3fc-b3e452aabdc9","ios":"levelo://app?vid=707e7389-2b7b-4964-a3fc-b3e452aabdc9"},"vehicle_type_id":"4","last_reported":1748354974,"current_range_meters":10800,"station_id":"ce4bhih2rcd13ifvqfr0","pricing_plan_id":"cebpf4jnsgd1na2vs0mg"},{"bike_id":"3f855aa9-a03a-4d28-bbc8-2f3b26d07315","system_id":"levelo_inurba_marseille","lat":43.22937,"lon":5.35358,"is_reserved":false,"is_disabled":false,"rental_uris":{"android":"levelo://app?vid=3f855aa9-a03a-4d28-bbc8-2f3b26d07315","ios":"levelo://app?vid=3f855aa9-a03a-4d28-bbc8-2f3b26d07315"},"vehicle_type_id":"4","last_reported":1748354974,"current_range_meters":10800,"station_id":"cpo3532slgdg3j2ikp40","pricing_plan_id":"cebpf4jnsgd1na2vs0mg"},{"bike_id":"d1906da6-5b1d-4f04-aee2-db651e02f89c","system_id":"levelo_inurba_marseille","lat":43.26685,"lon":5.38271,"is_reserved":false,"is_disabled":false,"rental_uris":{"android":"levelo://app?vid=d1906da6-5b1d-4f04-aee2-db651e02f89c","ios":"levelo://app?vid=d1906da6-5b1d-4f04-aee2-db651e02f89c"},"vehicle_type_id":"4","last_reported":1748354974,"current_range_meters":11200,"station_id":"ce4bhg92rcd13ifvqf90","pricing_plan_id":"cebpf4jnsgd1na2vs0mg"},{"bike_id":"35657823-8cda-44f5-a555-1f769cf1fe31","system_id":"levelo_inurba_marseille","lat":43.27178,"lon":5.41009,"is_reserved":false,"is_disabled":false,"rental_uris":{"android":"levelo://app?vid=35657823-8cda-44f5-a555-1f769cf1fe31","ios":"levelo://app?vid=35657823-8cda-44f5-a555-1f769cf1fe31"},"vehicle_type_id":"4","last_reported":1748354974,"current_range_meters":11200,"station_id":"ce4bhl12rcd13ifvqgf0","pricing_plan_id":"cebpf4jnsgd1na2vs0mg"},{"bike_id":"ffd09ddd-4e1f-4553-8186-886f07daa232","system_id":"levelo_inurba_marseille","lat":43.29612,"lon":5.37165,"is_reserved":false,"is_disabled":false,"rental_uris":{"android":"levelo://app?vid=ffd09ddd-4e1f-4553-8186-886f07daa232","ios":"levelo://app?vid=ffd09ddd-4e1f-4553-8186-886f07daa232"},"vehicle_type_id":"4","last_reported":1748354974,"current_range_meters":11200,"station_id":"ce4bgnh2rcd13ifvqc0g","pricing_plan_id":"cebpf4jnsgd1na2vs0mg"},{"bike_id":"2a9b9f6f-e086-4a48-b343-0410abb19aae","system_id":"levelo_inurba_marseille","lat":43.25936,"lon":5.40912,"is_reserved":false,"is_disabled":false,"rental_uris":{"android":"levelo://app?vid=2a9b9f6f-e086-4a48-b343-0410abb19aae","ios":"levelo://app?vid=2a9b9f6f-e086-4a48-b343-0410abb19aae"},"vehicle_type_id":"4","last_reported":1748354974,"current_range_meters":11600,"station_id":"ce4bhm92rcd13ifvqglg","pricing_plan_id":"cebpf4jnsgd1na2vs0mg"},{"bike_id":"6ef97e20-8618-477d-a728-51282fd80a1a","system_id":"levelo_inurba_marseille","lat":43.26199,"lon":5.37455,"is_reserved":false,"is_disabled":false,"rental_uris":{"android":"levelo://app?vid=6ef97e20-8618-477d-a728-51282fd80a1a","ios":"levelo://app?vid=6ef97e20-8618-477d-a728-51282fd80a1a"},"vehicle_type_id":"4","last_reported":1748354974,"current_range_meters":11600,"station_id":"ce4bhgp2rcd13ifvqfc0","pricing_plan_id":"cebpf4jnsgd1na2vs0mg"},{"bike_id":"acf36cb4-d623-4d6b-b4ca-ebe6206aa64c","system_id":"levelo_inurba_marseille","lat":43.2838,"lon":5.37419,"is_reserved":false,"is_disabled":false,"rental_uris":{"android":"levelo://app?vid=acf36cb4-d623-4d6b-b4ca-ebe6206aa64c","ios":"levelo://app?vid=acf36cb4-d623-4d6b-b4ca-ebe6206aa64c"},"vehicle_type_id":"4","last_reported":1748354974,"current_range_meters":11600,"station_id":"ce4bh412rcd13ifvqds0","pricing_plan_id":"cebpf4jnsgd1na2vs0mg"},{"bike_id":"bfd38741-547c-4c3d-9773-6e7bcba676a5","system_id":"levelo_inurba_marseille","lat":43.285765,"lon":5.394965,"is_reserved":false,"is_disabled":false,"rental_uris":{"android":"levelo://app?vid=bfd38741-547c-4c3d-9773-6e7bcba676a5","ios":"levelo://app?vid=bfd38741-547c-4c3d-9773-6e7bcba676a5"},"vehicle_type_id":"4","last_reported":1748354974,"current_range_meters":11600,"station_id":"ce4bh292rcd13ifvqdg0","pricing_plan_id":"cebpf4jnsgd1na2vs0mg"},{"bike_id":"ad8fd623-ed22-4ca6-9e71-3fb6461cc546","system_id":"levelo_inurba_marseille","lat":43.27379,"lon":5.36256,"is_reserved":false,"is_disabled":false,"rental_uris":{"android":"levelo://app?vid=ad8fd623-ed22-4ca6-9e71-3fb6461cc546","ios":"levelo://app?vid=ad8fd623-ed22-4ca6-9e71-3fb6461cc546"},"vehicle_type_id":"4","last_reported":1748354974,"current_range_meters":11600,"station_id":"ce4bhbh2rcd13ifvqeo0","pricing_plan_id":"cebpf4jnsgd1na2vs0mg"},{"bike_id":"4a2dbe82-d714-4998-850d-b5bae31c19ec","system_id":"levelo_inurba_marseille","lat":43.27378,"lon":5.36251,"is_reserved":false,"is_disabled":false,"rental_uris":{"android":"levelo://app?vid=4a2dbe82-d714-4998-850d-b5bae31c19ec","ios":"levelo://app?vid=4a2dbe82-d714-4998-850d-b5bae31c19ec"},"vehicle_type_id":"4","last_reported":1748354974,"current_range_meters":11600,"station_id":"ce4bhbh2rcd13ifvqeo0","pricing_plan_id":"cebpf4jnsgd1na2vs0mg"},{"bike_id":"53ffd3ea-f692-44b6-9cfc-403912fa6392","system_id":"levelo_inurba_marseille","lat":43.25087,"lon":5.39526,"is_reserved":false,"is_disabled":false,"rental_uris":{"android":"levelo://app?vid=53ffd3ea-f692-44b6-9cfc-403912fa6392","ios":"levelo://app?vid=53ffd3ea-f692-44b6-9cfc-403912fa6392"},"vehicle_type_id":"4","last_reported":1748354974,"current_range_meters":11600,"station_id":"ce4bhm12rcd13ifvqgkg","pricing_plan_id":"cebpf4jnsgd1na2vs0mg"},{"bike_id":"17b0d8ff-aa28-408b-9628-4a545be2c769","system_id":"levelo_inurba_marseille","lat":43.31876,"lon":5.3812,"is_reserved":false,"is_disabled":false,"rental_uris":{"android":"levelo://app?vid=17b0d8ff-aa28-408b-9628-4a545be2c769","ios":"levelo://app?vid=17b0d8ff-aa28-408b-9628-4a545be2c769"},"vehicle_type_id":"4","last_reported":1748354974,"current_range_meters":11600,"station_id":"","pricing_plan_id":"cebpf4jnsgd1na2vs0mg"},{"bike_id":"6b482028-512e-4dbe-b943-3138dd0f6f46","system_id":"levelo_inurba_marseille","lat":43.29683,"lon":5.36895,"is_reserved":false,"is_disabled":false,"rental_uris":{"android":"levelo://app?vid=6b482028-512e-4dbe-b943-3138dd0f6f46","ios":"levelo://app?vid=6b482028-512e-4dbe-b943-3138dd0f6f46"},"vehicle_type_id":"4","last_reported":1748354974,"current_range_meters":11600,"station_id":"","pricing_plan_id":"cebpf4jnsgd1na2vs0mg"},{"bike_id":"7dd85e95-ee5f-43ea-a9fe-4259e05a5795","system_id":"levelo_inurba_marseille","lat":43.28266,"lon":5.35059,"is_reserved":false,"is_disabled":false,"rental_uris":{"android":"levelo://app?vid=7dd85e95-ee5f-43ea-a9fe-4259e05a5795","ios":"levelo://app?vid=7dd85e95-ee5f-43ea-a9fe-4259e05a5795"},"vehicle_type_id":"4","last_reported":1748354974,"current_range_meters":12000,"station_id":"ce4bhbp2rcd13ifvqerg","pricing_plan_id":"cebpf4jnsgd1na2vs0mg"},{"bike_id":"8200e79e-af1e-4bec-9bd8-dc15f914ac29","system_id":"levelo_inurba_marseille","lat":43.26784,"lon":5.39411,"is_reserved":false,"is_disabled":false,"rental_uris":{"android":"levelo://app?vid=8200e79e-af1e-4bec-9bd8-dc15f914ac29","ios":"levelo://app?vid=8200e79e-af1e-4bec-9bd8-dc15f914ac29"},"vehicle_type_id":"4","last_reported":1748354974,"current_range_meters":12000,"station_id":"ce4bhh12rcd13ifvqfg0","pricing_plan_id":"cebpf4jnsgd1na2vs0mg"},{"bike_id":"400be29c-158f-4ae5-8a01-670fe68dbf7b","system_id":"levelo_inurba_marseille","lat":43.24172,"lon":5.36413,"is_reserved":false,"is_disabled":false,"rental_uris":{"android":"levelo://app?vid=400be29c-158f-4ae5-8a01-670fe68dbf7b","ios":"levelo://app?vid=400be29c-158f-4ae5-8a01-670fe68dbf7b"},"vehicle_type_id":"4","last_reported":1748354974,"current_range_meters":12000,"station_id":"cpo36qri1sfpv3e86is0","pricing_plan_id":"cebpf4jnsgd1na2vs0mg"},{"bike_id":"26cefabb-6a16-41aa-96ef-b636f51d675a","system_id":"levelo_inurba_marseille","lat":43.231461,"lon":5.437106,"is_reserved":false,"is_disabled":false,"rental_uris":{"android":"levelo://app?vid=26cefabb-6a16-41aa-96ef-b636f51d675a","ios":"levelo://app?vid=26cefabb-6a16-41aa-96ef-b636f51d675a"},"vehicle_type_id":"4","last_reported":1748354974,"current_range_meters":12000,"station_id":"ce4bhmp2rcd13ifvqgog","pricing_plan_id":"cebpf4jnsgd1na2vs0mg"},{"bike_id":"149723d7-ed48-419a-b879-2ba3af29e606","system_id":"levelo_inurba_marseille","lat":43.24387,"lon":5.37057,"is_reserved":false,"is_disabled":false,"rental_uris":{"android":"levelo://app?vid=149723d7-ed48-419a-b879-2ba3af29e606","ios":"levelo://app?vid=149723d7-ed48-419a-b879-2ba3af29e606"},"vehicle_type_id":"4","last_reported":1748354974,"current_range_meters":12000,"station_id":"ce4bhhh2rcd13ifvqfk0","pricing_plan_id":"cebpf4jnsgd1na2vs0mg"},{"bike_id":"051dd74a-f3b8-4171-a105-7f58deed8f88","system_id":"levelo_inurba_marseille","lat":43.26208,"lon":5.37437,"is_reserved":false,"is_disabled":false,"rental_uris":{"android":"levelo://app?vid=051dd74a-f3b8-4171-a105-7f58deed8f88","ios":"levelo://app?vid=051dd74a-f3b8-4171-a105-7f58deed8f88"},"vehicle_type_id":"4","last_reported":1748354974,"current_range_meters":12000,"station_id":"ce4bhgp2rcd13ifvqfc0","pricing_plan_id":"cebpf4jnsgd1na2vs0mg"},{"bike_id":"a3a1e2f8-c082-4657-9cf8-ceb282e14a71","system_id":"levelo_inurba_marseille","lat":43.231977,"lon":5.399947,"is_reserved":false,"is_disabled":false,"rental_uris":{"android":"levelo://app?vid=a3a1e2f8-c082-4657-9cf8-ceb282e14a71","ios":"levelo://app?vid=a3a1e2f8-c082-4657-9cf8-ceb282e14a71"},"vehicle_type_id":"4","last_reported":1748354974,"current_range_meters":12000,"station_id":"ce4bhn12rcd13ifvqgqg","pricing_plan_id":"cebpf4jnsgd1na2vs0mg"},{"bike_id":"cc45c8fd-628c-4e5f-bf0d-e5438cb3321a","system_id":"levelo_inurba_marseille","lat":43.2862,"lon":5.35111,"is_reserved":false,"is_disabled":false,"rental_uris":{"android":"levelo://app?vid=cc45c8fd-628c-4e5f-bf0d-e5438cb3321a","ios":"levelo://app?vid=cc45c8fd-628c-4e5f-bf0d-e5438cb3321a"},"vehicle_type_id":"4","last_reported":1748354974,"current_range_meters":12400,"station_id":"","pricing_plan_id":"cebpf4jnsgd1na2vs0mg"},{"bike_id":"dae3fc33-4b95-47d2-a716-b028de3acbc1","system_id":"levelo_inurba_marseille","lat":43.28621,"lon":5.3511,"is_reserved":false,"is_disabled":false,"rental_uris":{"android":"levelo://app?vid=dae3fc33-4b95-47d2-a716-b028de3acbc1","ios":"levelo://app?vid=dae3fc33-4b95-47d2-a716-b028de3acbc1"},"vehicle_type_id":"4","last_reported":1748354974,"current_range_meters":12400,"station_id":"ce4bhch2rcd13ifvqeug","pricing_plan_id":"cebpf4jnsgd1na2vs0mg"},{"bike_id":"ceb81090-b40e-47dd-bc35-8598d269ef58","system_id":"levelo_inurba_marseille","lat":43.26663,"lon":5.38431,"is_reserved":false,"is_disabled":false,"rental_uris":{"android":"levelo://app?vid=ceb81090-b40e-47dd-bc35-8598d269ef58","ios":"levelo://app?vid=ceb81090-b40e-47dd-bc35-8598d269ef58"},"vehicle_type_id":"4","last_reported":1748354974,"current_range_meters":12400,"station_id":"","pricing_plan_id":"cebpf4jnsgd1na2vs0mg"},{"bike_id":"0ec433e5-135e-4004-9e64-66773878e6e4","system_id":"levelo_inurba_marseille","lat":43.30188,"lon":5.36629,"is_reserved":false,"is_disabled":false,"rental_uris":{"android":"levelo://app?vid=0ec433e5-135e-4004-9e64-66773878e6e4","ios":"levelo://app?vid=0ec433e5-135e-4004-9e64-66773878e6e4"},"vehicle_type_id":"4","last_reported":1748354974,"current_range_meters":12400,"station_id":"ce4bgrh2rcd13ifvqc8g","pricing_plan_id":"cebpf4jnsgd1na2vs0mg"},{"bike_id":"e5c82b4c-e30f-487a-ae65-76f66da567ea","system_id":"levelo_inurba_marseille","lat":43.3238,"lon":5.36736,"is_reserved":false,"is_disabled":false,"rental_uris":{"android":"levelo://app?vid=e5c82b4c-e30f-487a-ae65-76f66da567ea","ios":"levelo://app?vid=e5c82b4c-e30f-487a-ae65-76f66da567ea"},"vehicle_type_id":"4","last_reported":1748354974,"current_range_meters":12400,"station_id":"ce4bhsh2rcd13ifvqi2g","pricing_plan_id":"cebpf4jnsgd1na2vs0mg"},{"bike_id":"fd9dfc07-934e-4488-b917-6cbeeee6ac1e","system_id":"levelo_inurba_marseille","lat":43.24648,"lon":5.38916,"is_reserved":false,"is_disabled":false,"rental_uris":{"android":"levelo://app?vid=fd9dfc07-934e-4488-b917-6cbeeee6ac1e","ios":"levelo://app?vid=fd9dfc07-934e-4488-b917-6cbeeee6ac1e"},"vehicle_type_id":"4","last_reported":1748354974,"current_range_meters":12800,"station_id":"ce4bhg12rcd13ifvqf60","pricing_plan_id":"cebpf4jnsgd1na2vs0mg"},{"bike_id":"32a2585a-2721-48f1-9be2-519c980b10dd","system_id":"levelo_inurba_marseille","lat":43.26213,"lon":5.37912,"is_reserved":false,"is_disabled":false,"rental_uris":{"android":"levelo://app?vid=32a2585a-2721-48f1-9be2-519c980b10dd","ios":"levelo://app?vid=32a2585a-2721-48f1-9be2-519c980b10dd"},"vehicle_type_id":"4","last_reported":1748354974,"current_range_meters":12800,"station_id":"ce4bhjp2rcd13ifvqg90","pricing_plan_id":"cebpf4jnsgd1na2vs0mg"},{"bike_id":"6d2977b8-b405-496c-bf31-3eacba5c9601","system_id":"levelo_inurba_marseille","lat":43.28426,"lon":5.34975,"is_reserved":false,"is_disabled":false,"rental_uris":{"android":"levelo://app?vid=6d2977b8-b405-496c-bf31-3eacba5c9601","ios":"levelo://app?vid=6d2977b8-b405-496c-bf31-3eacba5c9601"},"vehicle_type_id":"4","last_reported":1748354974,"current_range_meters":12800,"station_id":"ce4bhbh2rcd13ifvqepg","pricing_plan_id":"cebpf4jnsgd1na2vs0mg"},{"bike_id":"1d763b1b-89c2-4e2e-8dc7-43ef2a963ccf","system_id":"levelo_inurba_marseille","lat":43.28264,"lon":5.35058,"is_reserved":false,"is_disabled":false,"rental_uris":{"android":"levelo://app?vid=1d763b1b-89c2-4e2e-8dc7-43ef2a963ccf","ios":"levelo://app?vid=1d763b1b-89c2-4e2e-8dc7-43ef2a963ccf"},"vehicle_type_id":"4","last_reported":1748354974,"current_range_meters":12800,"station_id":"ce4bhbp2rcd13ifvqerg","pricing_plan_id":"cebpf4jnsgd1na2vs0mg"},{"bike_id":"03a878d5-7464-43c2-bb12-8804355fff55","system_id":"levelo_inurba_marseille","lat":43.25573,"lon":5.38258,"is_reserved":false,"is_disabled":false,"rental_uris":{"android":"levelo://app?vid=03a878d5-7464-43c2-bb12-8804355fff55","ios":"levelo://app?vid=03a878d5-7464-43c2-bb12-8804355fff55"},"vehicle_type_id":"4","last_reported":1748354974,"current_range_meters":12800,"station_id":"ce4bhih2rcd13ifvqfs0","pricing_plan_id":"cebpf4jnsgd1na2vs0mg"},{"bike_id":"e4accec2-6d1f-4e02-8d1a-140f5d54f8f2","system_id":"levelo_inurba_marseille","lat":43.28223,"lon":5.39066,"is_reserved":false,"is_disabled":false,"rental_uris":{"android":"levelo://app?vid=e4accec2-6d1f-4e02-8d1a-140f5d54f8f2","ios":"levelo://app?vid=e4accec2-6d1f-4e02-8d1a-140f5d54f8f2"},"vehicle_type_id":"4","last_reported":1748354974,"current_range_meters":12800,"station_id":"","pricing_plan_id":"cebpf4jnsgd1na2vs0mg"},{"bike_id":"a40588ee-00f9-4620-a7e7-03b577ebbb6e","system_id":"levelo_inurba_marseille","lat":43.23201,"lon":5.39989,"is_reserved":false,"is_disabled":false,"rental_uris":{"android":"levelo://app?vid=a40588ee-00f9-4620-a7e7-03b577ebbb6e","ios":"levelo://app?vid=a40588ee-00f9-4620-a7e7-03b577ebbb6e"},"vehicle_type_id":"4","last_reported":1748354974,"current_range_meters":12800,"station_id":"ce4bhn12rcd13ifvqgqg","pricing_plan_id":"cebpf4jnsgd1na2vs0mg"},{"bike_id":"064e6fa0-0d7c-4ec8-b1ad-7f69178c75b7","system_id":"levelo_inurba_marseille","lat":43.29899,"lon":5.43669,"is_reserved":false,"is_disabled":false,"rental_uris":{"android":"levelo://app?vid=064e6fa0-0d7c-4ec8-b1ad-7f69178c75b7","ios":"levelo://app?vid=064e6fa0-0d7c-4ec8-b1ad-7f69178c75b7"},"vehicle_type_id":"4","last_reported":1748354974,"current_range_meters":12800,"station_id":"ce4bhpp2rcd13ifvqhfg","pricing_plan_id":"cebpf4jnsgd1na2vs0mg"},{"bike_id":"6c8e5756-ec7d-4b29-922e-61d18e89d3e2","system_id":"levelo_inurba_marseille","lat":43.27839,"lon":5.39208,"is_reserved":false,"is_disabled":false,"rental_uris":{"android":"levelo://app?vid=6c8e5756-ec7d-4b29-922e-61d18e89d3e2","ios":"levelo://app?vid=6c8e5756-ec7d-4b29-922e-61d18e89d3e2"},"vehicle_type_id":"4","last_reported":1748354974,"current_range_meters":12800,"station_id":"ce4bhjp2rcd13ifvqga0","pricing_plan_id":"cebpf4jnsgd1na2vs0mg"},{"bike_id":"c405c3e9-f4a6-441f-bdb5-5d36c5ba1e97","system_id":"levelo_inurba_marseille","lat":43.28155,"lon":5.42647,"is_reserved":false,"is_disabled":false,"rental_uris":{"android":"levelo://app?vid=c405c3e9-f4a6-441f-bdb5-5d36c5ba1e97","ios":"levelo://app?vid=c405c3e9-f4a6-441f-bdb5-5d36c5ba1e97"},"vehicle_type_id":"4","last_reported":1748354974,"current_range_meters":12800,"station_id":"ce4bhnh2rcd13ifvqgug","pricing_plan_id":"cebpf4jnsgd1na2vs0mg"},{"bike_id":"1fbd130b-cb94-49d6-9bd3-bb418fe725b4","system_id":"levelo_inurba_marseille","lat":43.28425,"lon":5.34979,"is_reserved":false,"is_disabled":false,"rental_uris":{"android":"levelo://app?vid=1fbd130b-cb94-49d6-9bd3-bb418fe725b4","ios":"levelo://app?vid=1fbd130b-cb94-49d6-9bd3-bb418fe725b4"},"vehicle_type_id":"4","last_reported":1748354974,"current_range_meters":13600,"station_id":"ce4bhbh2rcd13ifvqepg","pricing_plan_id":"cebpf4jnsgd1na2vs0mg"},{"bike_id":"0a34896a-ecf4-4133-b259-48302d8209b0","system_id":"levelo_inurba_marseille","lat":43.2669,"lon":5.38265,"is_reserved":false,"is_disabled":false,"rental_uris":{"android":"levelo://app?vid=0a34896a-ecf4-4133-b259-48302d8209b0","ios":"levelo://app?vid=0a34896a-ecf4-4133-b259-48302d8209b0"},"vehicle_type_id":"4","last_reported":1748354974,"current_range_meters":13600,"station_id":"ce4bhg92rcd13ifvqf90","pricing_plan_id":"cebpf4jnsgd1na2vs0mg"},{"bike_id":"51d4e892-a069-4021-9c81-6ed4a34f6998","system_id":"levelo_inurba_marseille","lat":43.2318,"lon":5.39991,"is_reserved":false,"is_disabled":false,"rental_uris":{"android":"levelo://app?vid=51d4e892-a069-4021-9c81-6ed4a34f6998","ios":"levelo://app?vid=51d4e892-a069-4021-9c81-6ed4a34f6998"},"vehicle_type_id":"4","last_reported":1748354974,"current_range_meters":13600,"station_id":"ce4bhn12rcd13ifvqgqg","pricing_plan_id":"cebpf4jnsgd1na2vs0mg"},{"bike_id":"027996d9-c458-4fe9-9def-7a537508c67a","system_id":"levelo_inurba_marseille","lat":43.26551,"lon":5.37287,"is_reserved":false,"is_disabled":false,"rental_uris":{"android":"levelo://app?vid=027996d9-c458-4fe9-9def-7a537508c67a","ios":"levelo://app?vid=027996d9-c458-4fe9-9def-7a537508c67a"},"vehicle_type_id":"4","last_reported":1748354974,"current_range_meters":14000,"station_id":"ce4bhg12rcd13ifvqf70","pricing_plan_id":"cebpf4jnsgd1na2vs0mg"},{"bike_id":"c359ce31-503c-4864-81a4-8b7ff30ded70","system_id":"levelo_inurba_marseille","lat":43.32527,"lon":5.36368,"is_reserved":false,"is_disabled":false,"rental_uris":{"android":"levelo://app?vid=c359ce31-503c-4864-81a4-8b7ff30ded70","ios":"levelo://app?vid=c359ce31-503c-4864-81a4-8b7ff30ded70"},"vehicle_type_id":"4","last_reported":1748354974,"current_range_meters":14000,"station_id":"","pricing_plan_id":"cebpf4jnsgd1na2vs0mg"},{"bike_id":"56303e41-2b27-4d35-8ea7-4c7f6f219c1a","system_id":"levelo_inurba_marseille","lat":43.21787,"lon":5.346,"is_reserved":false,"is_disabled":false,"rental_uris":{"android":"levelo://app?vid=56303e41-2b27-4d35-8ea7-4c7f6f219c1a","ios":"levelo://app?vid=56303e41-2b27-4d35-8ea7-4c7f6f219c1a"},"vehicle_type_id":"4","last_reported":1748354974,"current_range_meters":14000,"station_id":"","pricing_plan_id":"cebpf4jnsgd1na2vs0mg"},{"bike_id":"2447e726-02f2-4707-a232-a209224dd9ad","system_id":"levelo_inurba_marseille","lat":43.33029,"lon":5.39059,"is_reserved":false,"is_disabled":false,"rental_uris":{"android":"levelo://app?vid=2447e726-02f2-4707-a232-a209224dd9ad","ios":"levelo://app?vid=2447e726-02f2-4707-a232-a209224dd9ad"},"vehicle_type_id":"4","last_reported":1748354974,"current_range_meters":14000,"station_id":"ce4bhr92rcd13ifvqhrg","pricing_plan_id":"cebpf4jnsgd1na2vs0mg"},{"bike_id":"5a5d3cd9-43c9-4580-afc1-94b3cc3c8454","system_id":"levelo_inurba_marseille","lat":43.23143,"lon":5.43742,"is_reserved":false,"is_disabled":false,"rental_uris":{"android":"levelo://app?vid=5a5d3cd9-43c9-4580-afc1-94b3cc3c8454","ios":"levelo://app?vid=5a5d3cd9-43c9-4580-afc1-94b3cc3c8454"},"vehicle_type_id":"4","last_reported":1748354974,"current_range_meters":14000,"station_id":"ce4bhmp2rcd13ifvqgog","pricing_plan_id":"cebpf4jnsgd1na2vs0mg"},{"bike_id":"84f20522-6fe9-4131-aa99-7e652947bcde","system_id":"levelo_inurba_marseille","lat":43.28407,"lon":5.34998,"is_reserved":false,"is_disabled":false,"rental_uris":{"android":"levelo://app?vid=84f20522-6fe9-4131-aa99-7e652947bcde","ios":"levelo://app?vid=84f20522-6fe9-4131-aa99-7e652947bcde"},"vehicle_type_id":"4","last_reported":1748354974,"current_range_meters":14000,"station_id":"ce4bhbh2rcd13ifvqepg","pricing_plan_id":"cebpf4jnsgd1na2vs0mg"},{"bike_id":"01fb0934-c8b9-4fd3-a118-fc6aab7694f9","system_id":"levelo_inurba_marseille","lat":43.3054,"lon":5.36541,"is_reserved":false,"is_disabled":false,"rental_uris":{"android":"levelo://app?vid=01fb0934-c8b9-4fd3-a118-fc6aab7694f9","ios":"levelo://app?vid=01fb0934-c8b9-4fd3-a118-fc6aab7694f9"},"vehicle_type_id":"4","last_reported":1748354974,"current_range_meters":14000,"station_id":"ce4bgs12rcd13ifvqcag","pricing_plan_id":"cebpf4jnsgd1na2vs0mg"},{"bike_id":"2bde55d3-c490-45d6-ae0a-579e0f905c47","system_id":"levelo_inurba_marseille","lat":43.30152,"lon":5.38061,"is_reserved":false,"is_disabled":false,"rental_uris":{"android":"levelo://app?vid=2bde55d3-c490-45d6-ae0a-579e0f905c47","ios":"levelo://app?vid=2bde55d3-c490-45d6-ae0a-579e0f905c47"},"vehicle_type_id":"4","last_reported":1748354974,"current_range_meters":15200,"station_id":"ce4bgjp2rcd13ifvqbh0","pricing_plan_id":"cebpf4jnsgd1na2vs0mg"},{"bike_id":"a2fe296d-d241-4766-bb90-b3b60fefbe75","system_id":"levelo_inurba_marseille","lat":43.30926,"lon":5.40147,"is_reserved":false,"is_disabled":false,"rental_uris":{"android":"levelo://app?vid=a2fe296d-d241-4766-bb90-b3b60fefbe75","ios":"levelo://app?vid=a2fe296d-d241-4766-bb90-b3b60fefbe75"},"vehicle_type_id":"4","last_reported":1748354974,"current_range_meters":14400,"station_id":"ce4bgvp2rcd13ifvqct0","pricing_plan_id":"cebpf4jnsgd1na2vs0mg"},{"bike_id":"36b14c82-9062-4f29-b3ad-31a6b1058616","system_id":"levelo_inurba_marseille","lat":43.32269,"lon":5.38278,"is_reserved":false,"is_disabled":false,"rental_uris":{"android":"levelo://app?vid=36b14c82-9062-4f29-b3ad-31a6b1058616","ios":"levelo://app?vid=36b14c82-9062-4f29-b3ad-31a6b1058616"},"vehicle_type_id":"4","last_reported":1748354974,"current_range_meters":14400,"station_id":"ce4bhr12rcd13ifvqhqg","pricing_plan_id":"cebpf4jnsgd1na2vs0mg"},{"bike_id":"f1344b95-4890-4bd8-be3b-7f6fe2a94f56","system_id":"levelo_inurba_marseille","lat":43.30609,"lon":5.36623,"is_reserved":false,"is_disabled":false,"rental_uris":{"android":"levelo://app?vid=f1344b95-4890-4bd8-be3b-7f6fe2a94f56","ios":"levelo://app?vid=f1344b95-4890-4bd8-be3b-7f6fe2a94f56"},"vehicle_type_id":"4","last_reported":1748354974,"current_range_meters":14400,"station_id":"ce4bgs12rcd13ifvqcag","pricing_plan_id":"cebpf4jnsgd1na2vs0mg"},{"bike_id":"cc391400-7d4c-4261-8004-e9968eddac7e","system_id":"levelo_inurba_marseille","lat":43.29032,"lon":5.37555,"is_reserved":false,"is_disabled":true,"rental_uris":{"android":"levelo://app?vid=cc391400-7d4c-4261-8004-e9968eddac7e","ios":"levelo://app?vid=cc391400-7d4c-4261-8004-e9968eddac7e"},"vehicle_type_id":"4","last_reported":1748354974,"current_range_meters":14400,"station_id":"ce4bh692rcd13ifvqe90","pricing_plan_id":"cebpf4jnsgd1na2vs0mg"},{"bike_id":"90f99f1a-9947-42d6-a60c-ea7ac8b59af8","system_id":"levelo_inurba_marseille","lat":43.301163,"lon":5.387978,"is_reserved":false,"is_disabled":false,"rental_uris":{"android":"levelo://app?vid=90f99f1a-9947-42d6-a60c-ea7ac8b59af8","ios":"levelo://app?vid=90f99f1a-9947-42d6-a60c-ea7ac8b59af8"},"vehicle_type_id":"4","last_reported":1748354974,"current_range_meters":14400,"station_id":"","pricing_plan_id":"cebpf4jnsgd1na2vs0mg"},{"bike_id":"33f9a5a8-8980-4b56-83ed-84a00daa4b9d","system_id":"levelo_inurba_marseille","lat":43.28706,"lon":5.37389,"is_reserved":false,"is_disabled":false,"rental_uris":{"android":"levelo://app?vid=33f9a5a8-8980-4b56-83ed-84a00daa4b9d","ios":"levelo://app?vid=33f9a5a8-8980-4b56-83ed-84a00daa4b9d"},"vehicle_type_id":"4","last_reported":1748354974,"current_range_meters":14400,"station_id":"ce4bh3p2rcd13ifvqdq0","pricing_plan_id":"cebpf4jnsgd1na2vs0mg"},{"bike_id":"e5c41bcc-15b4-4856-a15a-1d642ce07776","system_id":"levelo_inurba_marseille","lat":43.2986,"lon":5.36246,"is_reserved":false,"is_disabled":false,"rental_uris":{"android":"levelo://app?vid=e5c41bcc-15b4-4856-a15a-1d642ce07776","ios":"levelo://app?vid=e5c41bcc-15b4-4856-a15a-1d642ce07776"},"vehicle_type_id":"4","last_reported":1748354974,"current_range_meters":14400,"station_id":"ce4bgpp2rcd13ifvqc3g","pricing_plan_id":"cebpf4jnsgd1na2vs0mg"},{"bike_id":"afbd8533-25b2-43b2-afe9-93be4134588b","system_id":"levelo_inurba_marseille","lat":43.29279,"lon":5.36838,"is_reserved":false,"is_disabled":false,"rental_uris":{"android":"levelo://app?vid=afbd8533-25b2-43b2-afe9-93be4134588b","ios":"levelo://app?vid=afbd8533-25b2-43b2-afe9-93be4134588b"},"vehicle_type_id":"4","last_reported":1748354974,"current_range_meters":14400,"station_id":"ce4bhbp2rcd13ifvqesg","pricing_plan_id":"cebpf4jnsgd1na2vs0mg"},{"bike_id":"b294dae3-da1f-442e-af34-3c338c9366fe","system_id":"levelo_inurba_marseille","lat":43.315,"lon":5.37286,"is_reserved":false,"is_disabled":false,"rental_uris":{"android":"levelo://app?vid=b294dae3-da1f-442e-af34-3c338c9366fe","ios":"levelo://app?vid=b294dae3-da1f-442e-af34-3c338c9366fe"},"vehicle_type_id":"4","last_reported":1748354974,"current_range_meters":14400,"station_id":"ce4bgt12rcd13ifvqcd0","pricing_plan_id":"cebpf4jnsgd1na2vs0mg"},{"bike_id":"daa8a49f-122c-4d26-bdef-9f4f3e827bca","system_id":"levelo_inurba_marseille","lat":43.28413,"lon":5.34992,"is_reserved":false,"is_disabled":false,"rental_uris":{"android":"levelo://app?vid=daa8a49f-122c-4d26-bdef-9f4f3e827bca","ios":"levelo://app?vid=daa8a49f-122c-4d26-bdef-9f4f3e827bca"},"vehicle_type_id":"4","last_reported":1748354974,"current_range_meters":14400,"station_id":"ce4bhbh2rcd13ifvqepg","pricing_plan_id":"cebpf4jnsgd1na2vs0mg"},{"bike_id":"8f6147ed-c20e-4209-958f-c17f5baf332e","system_id":"levelo_inurba_marseille","lat":43.28619,"lon":5.35102,"is_reserved":false,"is_disabled":false,"rental_uris":{"android":"levelo://app?vid=8f6147ed-c20e-4209-958f-c17f5baf332e","ios":"levelo://app?vid=8f6147ed-c20e-4209-958f-c17f5baf332e"},"vehicle_type_id":"4","last_reported":1748354974,"current_range_meters":14800,"station_id":"ce4bhch2rcd13ifvqeug","pricing_plan_id":"cebpf4jnsgd1na2vs0mg"},{"bike_id":"e572f301-b2c7-42f5-af5c-379ca5457f2b","system_id":"levelo_inurba_marseille","lat":43.22952,"lon":5.35347,"is_reserved":false,"is_disabled":false,"rental_uris":{"android":"levelo://app?vid=e572f301-b2c7-42f5-af5c-379ca5457f2b","ios":"levelo://app?vid=e572f301-b2c7-42f5-af5c-379ca5457f2b"},"vehicle_type_id":"4","last_reported":1748354974,"current_range_meters":14800,"station_id":"cpo3532slgdg3j2ikp40","pricing_plan_id":"cebpf4jnsgd1na2vs0mg"},{"bike_id":"1d20f33f-ebbc-4bfa-b2e9-8fb08c0a976f","system_id":"levelo_inurba_marseille","lat":43.23966,"lon":5.36632,"is_reserved":false,"is_disabled":false,"rental_uris":{"android":"levelo://app?vid=1d20f33f-ebbc-4bfa-b2e9-8fb08c0a976f","ios":"levelo://app?vid=1d20f33f-ebbc-4bfa-b2e9-8fb08c0a976f"},"vehicle_type_id":"4","last_reported":1748354974,"current_range_meters":14800,"station_id":"ce4bhi12rcd13ifvqfp0","pricing_plan_id":"cebpf4jnsgd1na2vs0mg"},{"bike_id":"8b8f4ddc-5f2d-41ad-9613-91a528fd4361","system_id":"levelo_inurba_marseille","lat":43.22942,"lon":5.35349,"is_reserved":false,"is_disabled":false,"rental_uris":{"android":"levelo://app?vid=8b8f4ddc-5f2d-41ad-9613-91a528fd4361","ios":"levelo://app?vid=8b8f4ddc-5f2d-41ad-9613-91a528fd4361"},"vehicle_type_id":"4","last_reported":1748354974,"current_range_meters":14800,"station_id":"cpo3532slgdg3j2ikp40","pricing_plan_id":"cebpf4jnsgd1na2vs0mg"},{"bike_id":"7d644362-2701-4137-aac7-822704820d27","system_id":"levelo_inurba_marseille","lat":43.317474,"lon":5.39014,"is_reserved":false,"is_disabled":true,"rental_uris":{"android":"levelo://app?vid=7d644362-2701-4137-aac7-822704820d27","ios":"levelo://app?vid=7d644362-2701-4137-aac7-822704820d27"},"vehicle_type_id":"4","last_reported":1748354974,"current_range_meters":14800,"station_id":"ce4bhqp2rcd13ifvqhng","pricing_plan_id":"cebpf4jnsgd1na2vs0mg"},{"bike_id":"fe885166-e704-4450-ad4d-cb7b1b3aa6c7","system_id":"levelo_inurba_marseille","lat":43.28417,"lon":5.34995,"is_reserved":false,"is_disabled":false,"rental_uris":{"android":"levelo://app?vid=fe885166-e704-4450-ad4d-cb7b1b3aa6c7","ios":"levelo://app?vid=fe885166-e704-4450-ad4d-cb7b1b3aa6c7"},"vehicle_type_id":"4","last_reported":1748354974,"current_range_meters":14800,"station_id":"ce4bhbh2rcd13ifvqepg","pricing_plan_id":"cebpf4jnsgd1na2vs0mg"},{"bike_id":"27ee8171-4406-4686-8278-59f0d6a2baf7","system_id":"levelo_inurba_marseille","lat":43.28678,"lon":5.38642,"is_reserved":false,"is_disabled":false,"rental_uris":{"android":"levelo://app?vid=27ee8171-4406-4686-8278-59f0d6a2baf7","ios":"levelo://app?vid=27ee8171-4406-4686-8278-59f0d6a2baf7"},"vehicle_type_id":"4","last_reported":1748354974,"current_range_meters":14800,"station_id":"ce4bh492rcd13ifvqdug","pricing_plan_id":"cebpf4jnsgd1na2vs0mg"},{"bike_id":"4807cc62-6a9b-4bb6-9a64-b3c1da7dd454","system_id":"levelo_inurba_marseille","lat":43.30564,"lon":5.36521,"is_reserved":false,"is_disabled":false,"rental_uris":{"android":"levelo://app?vid=4807cc62-6a9b-4bb6-9a64-b3c1da7dd454","ios":"levelo://app?vid=4807cc62-6a9b-4bb6-9a64-b3c1da7dd454"},"vehicle_type_id":"4","last_reported":1748354974,"current_range_meters":15200,"station_id":"ce4bgs12rcd13ifvqcag","pricing_plan_id":"cebpf4jnsgd1na2vs0mg"},{"bike_id":"bbc97a4b-58a8-4746-8ba7-dad11d13a917","system_id":"levelo_inurba_marseille","lat":43.287812,"lon":5.366677,"is_reserved":false,"is_disabled":false,"rental_uris":{"android":"levelo://app?vid=bbc97a4b-58a8-4746-8ba7-dad11d13a917","ios":"levelo://app?vid=bbc97a4b-58a8-4746-8ba7-dad11d13a917"},"vehicle_type_id":"4","last_reported":1748354974,"current_range_meters":15200,"station_id":"ce4bha12rcd13ifvqef0","pricing_plan_id":"cebpf4jnsgd1na2vs0mg"},{"bike_id":"772cc209-a89d-4fbb-8675-46faf4ece56b","system_id":"levelo_inurba_marseille","lat":43.28268,"lon":5.35063,"is_reserved":false,"is_disabled":false,"rental_uris":{"android":"levelo://app?vid=772cc209-a89d-4fbb-8675-46faf4ece56b","ios":"levelo://app?vid=772cc209-a89d-4fbb-8675-46faf4ece56b"},"vehicle_type_id":"4","last_reported":1748354974,"current_range_meters":15200,"station_id":"ce4bhbp2rcd13ifvqerg","pricing_plan_id":"cebpf4jnsgd1na2vs0mg"},{"bike_id":"69ac8acb-6816-4e3d-b61e-e01a1548e4df","system_id":"levelo_inurba_marseille","lat":43.23137,"lon":5.43707,"is_reserved":false,"is_disabled":false,"rental_uris":{"android":"levelo://app?vid=69ac8acb-6816-4e3d-b61e-e01a1548e4df","ios":"levelo://app?vid=69ac8acb-6816-4e3d-b61e-e01a1548e4df"},"vehicle_type_id":"4","last_reported":1748354974,"current_range_meters":15200,"station_id":"ce4bhmp2rcd13ifvqgog","pricing_plan_id":"cebpf4jnsgd1na2vs0mg"},{"bike_id":"b9feece3-8db7-4d9c-b5c4-3d592ac61b90","system_id":"levelo_inurba_marseille","lat":43.291848,"lon":5.358085,"is_reserved":false,"is_disabled":false,"rental_uris":{"android":"levelo://app?vid=b9feece3-8db7-4d9c-b5c4-3d592ac61b90","ios":"levelo://app?vid=b9feece3-8db7-4d9c-b5c4-3d592ac61b90"},"vehicle_type_id":"4","last_reported":1748354974,"current_range_meters":15200,"station_id":"","pricing_plan_id":"cebpf4jnsgd1na2vs0mg"},{"bike_id":"69c0fd55-cd72-4f90-a33e-0ecbe62d3f06","system_id":"levelo_inurba_marseille","lat":43.28411,"lon":5.34987,"is_reserved":false,"is_disabled":false,"rental_uris":{"android":"levelo://app?vid=69c0fd55-cd72-4f90-a33e-0ecbe62d3f06","ios":"levelo://app?vid=69c0fd55-cd72-4f90-a33e-0ecbe62d3f06"},"vehicle_type_id":"4","last_reported":1748354974,"current_range_meters":16000,"station_id":"ce4bhbh2rcd13ifvqepg","pricing_plan_id":"cebpf4jnsgd1na2vs0mg"},{"bike_id":"5a621852-4b0d-47fa-9514-efb82e08741c","system_id":"levelo_inurba_marseille","lat":43.21192,"lon":5.35079,"is_reserved":false,"is_disabled":true,"rental_uris":{"android":"levelo://app?vid=5a621852-4b0d-47fa-9514-efb82e08741c","ios":"levelo://app?vid=5a621852-4b0d-47fa-9514-efb82e08741c"},"vehicle_type_id":"4","last_reported":1748354974,"current_range_meters":16000,"station_id":"","pricing_plan_id":"cebpf4jnsgd1na2vs0mg"},{"bike_id":"f0a6f4c2-a5d1-4409-9936-6579ee56c062","system_id":"levelo_inurba_marseille","lat":43.29581,"lon":5.36738,"is_reserved":false,"is_disabled":false,"rental_uris":{"android":"levelo://app?vid=f0a6f4c2-a5d1-4409-9936-6579ee56c062","ios":"levelo://app?vid=f0a6f4c2-a5d1-4409-9936-6579ee56c062"},"vehicle_type_id":"4","last_reported":1748354974,"current_range_meters":16000,"station_id":"","pricing_plan_id":"cebpf4jnsgd1na2vs0mg"},{"bike_id":"652c25bc-0239-4629-b980-249f4e931461","system_id":"levelo_inurba_marseille","lat":43.23958,"lon":5.36639,"is_reserved":false,"is_disabled":false,"rental_uris":{"android":"levelo://app?vid=652c25bc-0239-4629-b980-249f4e931461","ios":"levelo://app?vid=652c25bc-0239-4629-b980-249f4e931461"},"vehicle_type_id":"4","last_reported":1748354974,"current_range_meters":16000,"station_id":"ce4bhi12rcd13ifvqfp0","pricing_plan_id":"cebpf4jnsgd1na2vs0mg"},{"bike_id":"42d53f6c-06bb-429f-b0b0-1252e0903514","system_id":"levelo_inurba_marseille","lat":43.28268,"lon":5.35062,"is_reserved":false,"is_disabled":false,"rental_uris":{"android":"levelo://app?vid=42d53f6c-06bb-429f-b0b0-1252e0903514","ios":"levelo://app?vid=42d53f6c-06bb-429f-b0b0-1252e0903514"},"vehicle_type_id":"4","last_reported":1748354974,"current_range_meters":16000,"station_id":"ce4bhbp2rcd13ifvqerg","pricing_plan_id":"cebpf4jnsgd1na2vs0mg"},{"bike_id":"d1b04229-5ae5-4d40-af12-6abd6d26145d","system_id":"levelo_inurba_marseille","lat":43.25828,"lon":5.39466,"is_reserved":false,"is_disabled":false,"rental_uris":{"android":"levelo://app?vid=d1b04229-5ae5-4d40-af12-6abd6d26145d","ios":"levelo://app?vid=d1b04229-5ae5-4d40-af12-6abd6d26145d"},"vehicle_type_id":"4","last_reported":1748354974,"current_range_meters":16000,"station_id":"ce4bhip2rcd13ifvqft0","pricing_plan_id":"cebpf4jnsgd1na2vs0mg"},{"bike_id":"46f1e1a2-421d-4288-9b19-22918bc7cc7f","system_id":"levelo_inurba_marseille","lat":43.23195,"lon":5.35553,"is_reserved":false,"is_disabled":false,"rental_uris":{"android":"levelo://app?vid=46f1e1a2-421d-4288-9b19-22918bc7cc7f","ios":"levelo://app?vid=46f1e1a2-421d-4288-9b19-22918bc7cc7f"},"vehicle_type_id":"4","last_reported":1748354974,"current_range_meters":16000,"station_id":"ce4bhu92rcd13ifvqi70","pricing_plan_id":"cebpf4jnsgd1na2vs0mg"},{"bike_id":"b87aac56-5d07-4480-a589-3b33f7758cbc","system_id":"levelo_inurba_marseille","lat":43.28615,"lon":5.35103,"is_reserved":false,"is_disabled":false,"rental_uris":{"android":"levelo://app?vid=b87aac56-5d07-4480-a589-3b33f7758cbc","ios":"levelo://app?vid=b87aac56-5d07-4480-a589-3b33f7758cbc"},"vehicle_type_id":"4","last_reported":1748354974,"current_range_meters":16400,"station_id":"ce4bhch2rcd13ifvqeug","pricing_plan_id":"cebpf4jnsgd1na2vs0mg"},{"bike_id":"66eb36b8-4c25-454c-96dd-d396fba70f60","system_id":"levelo_inurba_marseille","lat":43.3089,"lon":5.39647,"is_reserved":false,"is_disabled":false,"rental_uris":{"android":"levelo://app?vid=66eb36b8-4c25-454c-96dd-d396fba70f60","ios":"levelo://app?vid=66eb36b8-4c25-454c-96dd-d396fba70f60"},"vehicle_type_id":"4","last_reported":1748354974,"current_range_meters":12800,"station_id":"ce4bh012rcd13ifvqcv0","pricing_plan_id":"cebpf4jnsgd1na2vs0mg"},{"bike_id":"e7148af7-a139-4f3c-868b-37affcabd2f7","system_id":"levelo_inurba_marseille","lat":43.23963,"lon":5.36631,"is_reserved":false,"is_disabled":false,"rental_uris":{"android":"levelo://app?vid=e7148af7-a139-4f3c-868b-37affcabd2f7","ios":"levelo://app?vid=e7148af7-a139-4f3c-868b-37affcabd2f7"},"vehicle_type_id":"4","last_reported":1748354974,"current_range_meters":16000,"station_id":"ce4bhi12rcd13ifvqfp0","pricing_plan_id":"cebpf4jnsgd1na2vs0mg"},{"bike_id":"934beb04-3c17-4943-950f-591d49d309e2","system_id":"levelo_inurba_marseille","lat":43.239536,"lon":5.366605,"is_reserved":false,"is_disabled":false,"rental_uris":{"android":"levelo://app?vid=934beb04-3c17-4943-950f-591d49d309e2","ios":"levelo://app?vid=934beb04-3c17-4943-950f-591d49d309e2"},"vehicle_type_id":"4","last_reported":1748354974,"current_range_meters":16000,"station_id":"ce4bhi12rcd13ifvqfp0","pricing_plan_id":"cebpf4jnsgd1na2vs0mg"},{"bike_id":"b1cb4a3b-12aa-42a2-90d4-50624b5927ac","system_id":"levelo_inurba_marseille","lat":43.30124,"lon":5.37417,"is_reserved":false,"is_disabled":false,"rental_uris":{"android":"levelo://app?vid=b1cb4a3b-12aa-42a2-90d4-50624b5927ac","ios":"levelo://app?vid=b1cb4a3b-12aa-42a2-90d4-50624b5927ac"},"vehicle_type_id":"4","last_reported":1748354974,"current_range_meters":16400,"station_id":"ce4bgs92rcd13ifvqcc0","pricing_plan_id":"cebpf4jnsgd1na2vs0mg"},{"bike_id":"0f5374e3-ade9-4839-9224-f355b5e70b2e","system_id":"levelo_inurba_marseille","lat":43.297277,"lon":5.376853,"is_reserved":false,"is_disabled":false,"rental_uris":{"android":"levelo://app?vid=0f5374e3-ade9-4839-9224-f355b5e70b2e","ios":"levelo://app?vid=0f5374e3-ade9-4839-9224-f355b5e70b2e"},"vehicle_type_id":"4","last_reported":1748354974,"current_range_meters":16400,"station_id":"ce4bgkh2rcd13ifvqbl0","pricing_plan_id":"cebpf4jnsgd1na2vs0mg"},{"bike_id":"e823f0aa-87c8-42b6-807e-fdea56928c8e","system_id":"levelo_inurba_marseille","lat":43.31259,"lon":5.3701,"is_reserved":false,"is_disabled":false,"rental_uris":{"android":"levelo://app?vid=e823f0aa-87c8-42b6-807e-fdea56928c8e","ios":"levelo://app?vid=e823f0aa-87c8-42b6-807e-fdea56928c8e"},"vehicle_type_id":"4","last_reported":1748354974,"current_range_meters":16400,"station_id":"","pricing_plan_id":"cebpf4jnsgd1na2vs0mg"},{"bike_id":"f9497d8a-7a6b-4c55-bdc6-1f7f83f95b9a","system_id":"levelo_inurba_marseille","lat":43.29035,"lon":5.3756,"is_reserved":false,"is_disabled":false,"rental_uris":{"android":"levelo://app?vid=f9497d8a-7a6b-4c55-bdc6-1f7f83f95b9a","ios":"levelo://app?vid=f9497d8a-7a6b-4c55-bdc6-1f7f83f95b9a"},"vehicle_type_id":"4","last_reported":1748354974,"current_range_meters":16400,"station_id":"ce4bh692rcd13ifvqe90","pricing_plan_id":"cebpf4jnsgd1na2vs0mg"},{"bike_id":"920be628-8bb6-4abf-8cd2-9431b9177f5a","system_id":"levelo_inurba_marseille","lat":43.23151,"lon":5.43743,"is_reserved":false,"is_disabled":false,"rental_uris":{"android":"levelo://app?vid=920be628-8bb6-4abf-8cd2-9431b9177f5a","ios":"levelo://app?vid=920be628-8bb6-4abf-8cd2-9431b9177f5a"},"vehicle_type_id":"4","last_reported":1748354974,"current_range_meters":16400,"station_id":"ce4bhmp2rcd13ifvqgog","pricing_plan_id":"cebpf4jnsgd1na2vs0mg"},{"bike_id":"4eb67d38-fc5c-4252-b077-a80464f0020a","system_id":"levelo_inurba_marseille","lat":43.3054,"lon":5.36546,"is_reserved":false,"is_disabled":false,"rental_uris":{"android":"levelo://app?vid=4eb67d38-fc5c-4252-b077-a80464f0020a","ios":"levelo://app?vid=4eb67d38-fc5c-4252-b077-a80464f0020a"},"vehicle_type_id":"4","last_reported":1748354974,"current_range_meters":16400,"station_id":"ce4bgs12rcd13ifvqcag","pricing_plan_id":"cebpf4jnsgd1na2vs0mg"},{"bike_id":"0feb5fc7-c1f1-435d-b268-924592d7b8a0","system_id":"levelo_inurba_marseille","lat":43.3056,"lon":5.36674,"is_reserved":false,"is_disabled":false,"rental_uris":{"android":"levelo://app?vid=0feb5fc7-c1f1-435d-b268-924592d7b8a0","ios":"levelo://app?vid=0feb5fc7-c1f1-435d-b268-924592d7b8a0"},"vehicle_type_id":"4","last_reported":1748354974,"current_range_meters":16400,"station_id":"ce4bgrp2rcd13ifvqc9g","pricing_plan_id":"cebpf4jnsgd1na2vs0mg"},{"bike_id":"11fca954-d860-45d2-a94a-ad37d14c6016","system_id":"levelo_inurba_marseille","lat":43.28614,"lon":5.3511,"is_reserved":false,"is_disabled":false,"rental_uris":{"android":"levelo://app?vid=11fca954-d860-45d2-a94a-ad37d14c6016","ios":"levelo://app?vid=11fca954-d860-45d2-a94a-ad37d14c6016"},"vehicle_type_id":"4","last_reported":1748354974,"current_range_meters":14800,"station_id":"ce4bhch2rcd13ifvqeug","pricing_plan_id":"cebpf4jnsgd1na2vs0mg"},{"bike_id":"d837a34b-abf8-49d5-8916-abf5684e8546","system_id":"levelo_inurba_marseille","lat":43.29778,"lon":5.39312,"is_reserved":false,"is_disabled":false,"rental_uris":{"android":"levelo://app?vid=d837a34b-abf8-49d5-8916-abf5684e8546","ios":"levelo://app?vid=d837a34b-abf8-49d5-8916-abf5684e8546"},"vehicle_type_id":"4","last_reported":1748354974,"current_range_meters":16800,"station_id":"","pricing_plan_id":"cebpf4jnsgd1na2vs0mg"},{"bike_id":"12919875-9aa7-480a-8bf8-5c538078633a","system_id":"levelo_inurba_marseille","lat":43.28619,"lon":5.35103,"is_reserved":false,"is_disabled":false,"rental_uris":{"android":"levelo://app?vid=12919875-9aa7-480a-8bf8-5c538078633a","ios":"levelo://app?vid=12919875-9aa7-480a-8bf8-5c538078633a"},"vehicle_type_id":"4","last_reported":1748354974,"current_range_meters":16400,"station_id":"ce4bhch2rcd13ifvqeug","pricing_plan_id":"cebpf4jnsgd1na2vs0mg"},{"bike_id":"5ce6d10e-f316-4150-815e-29bc2adbf91d","system_id":"levelo_inurba_marseille","lat":43.30322,"lon":5.4043,"is_reserved":false,"is_disabled":false,"rental_uris":{"android":"levelo://app?vid=5ce6d10e-f316-4150-815e-29bc2adbf91d","ios":"levelo://app?vid=5ce6d10e-f316-4150-815e-29bc2adbf91d"},"vehicle_type_id":"4","last_reported":1748354974,"current_range_meters":16400,"station_id":"ce4bh012rcd13ifvqd10","pricing_plan_id":"cebpf4jnsgd1na2vs0mg"},{"bike_id":"134c70cc-46f1-414c-ba60-b99ba2b4a992","system_id":"levelo_inurba_marseille","lat":43.34815,"lon":5.35125,"is_reserved":false,"is_disabled":false,"rental_uris":{"android":"levelo://app?vid=134c70cc-46f1-414c-ba60-b99ba2b4a992","ios":"levelo://app?vid=134c70cc-46f1-414c-ba60-b99ba2b4a992"},"vehicle_type_id":"4","last_reported":1748354974,"current_range_meters":16400,"station_id":"","pricing_plan_id":"cebpf4jnsgd1na2vs0mg"},{"bike_id":"57b93429-ead7-474a-9118-46311b07448d","system_id":"levelo_inurba_marseille","lat":43.30756,"lon":5.36809,"is_reserved":false,"is_disabled":false,"rental_uris":{"android":"levelo://app?vid=57b93429-ead7-474a-9118-46311b07448d","ios":"levelo://app?vid=57b93429-ead7-474a-9118-46311b07448d"},"vehicle_type_id":"4","last_reported":1748354974,"current_range_meters":16800,"station_id":"","pricing_plan_id":"cebpf4jnsgd1na2vs0mg"},{"bike_id":"c293fd3e-7650-4caf-9a2d-3f44d9300657","system_id":"levelo_inurba_marseille","lat":43.26211,"lon":5.37434,"is_reserved":false,"is_disabled":false,"rental_uris":{"android":"levelo://app?vid=c293fd3e-7650-4caf-9a2d-3f44d9300657","ios":"levelo://app?vid=c293fd3e-7650-4caf-9a2d-3f44d9300657"},"vehicle_type_id":"4","last_reported":1748354974,"current_range_meters":16800,"station_id":"ce4bhgp2rcd13ifvqfc0","pricing_plan_id":"cebpf4jnsgd1na2vs0mg"},{"bike_id":"db534f2e-558f-4938-a255-680044c6e0fa","system_id":"levelo_inurba_marseille","lat":43.24387,"lon":5.370531,"is_reserved":false,"is_disabled":false,"rental_uris":{"android":"levelo://app?vid=db534f2e-558f-4938-a255-680044c6e0fa","ios":"levelo://app?vid=db534f2e-558f-4938-a255-680044c6e0fa"},"vehicle_type_id":"4","last_reported":1748354974,"current_range_meters":16800,"station_id":"ce4bhhh2rcd13ifvqfk0","pricing_plan_id":"cebpf4jnsgd1na2vs0mg"},{"bike_id":"1dafdf51-656d-4975-819b-79ae74d93918","system_id":"levelo_inurba_marseille","lat":43.231613,"lon":5.436873,"is_reserved":false,"is_disabled":false,"rental_uris":{"android":"levelo://app?vid=1dafdf51-656d-4975-819b-79ae74d93918","ios":"levelo://app?vid=1dafdf51-656d-4975-819b-79ae74d93918"},"vehicle_type_id":"4","last_reported":1748354974,"current_range_meters":16800,"station_id":"ce4bhmp2rcd13ifvqgog","pricing_plan_id":"cebpf4jnsgd1na2vs0mg"},{"bike_id":"b3a14d16-45ac-4204-8d88-3a2acecc260d","system_id":"levelo_inurba_marseille","lat":43.28423,"lon":5.34995,"is_reserved":false,"is_disabled":false,"rental_uris":{"android":"levelo://app?vid=b3a14d16-45ac-4204-8d88-3a2acecc260d","ios":"levelo://app?vid=b3a14d16-45ac-4204-8d88-3a2acecc260d"},"vehicle_type_id":"4","last_reported":1748354974,"current_range_meters":16800,"station_id":"ce4bhbh2rcd13ifvqepg","pricing_plan_id":"cebpf4jnsgd1na2vs0mg"},{"bike_id":"36d7f1e8-83a6-4cf0-a3da-a84ce71950e9","system_id":"levelo_inurba_marseille","lat":43.28039,"lon":5.36952,"is_reserved":false,"is_disabled":false,"rental_uris":{"android":"levelo://app?vid=36d7f1e8-83a6-4cf0-a3da-a84ce71950e9","ios":"levelo://app?vid=36d7f1e8-83a6-4cf0-a3da-a84ce71950e9"},"vehicle_type_id":"4","last_reported":1748354974,"current_range_meters":16800,"station_id":"ce4bha12rcd13ifvqef0","pricing_plan_id":"cebpf4jnsgd1na2vs0mg"},{"bike_id":"b4a36e5e-245a-41cc-a9cf-03d5c03f3457","system_id":"levelo_inurba_marseille","lat":43.2314,"lon":5.43736,"is_reserved":false,"is_disabled":false,"rental_uris":{"android":"levelo://app?vid=b4a36e5e-245a-41cc-a9cf-03d5c03f3457","ios":"levelo://app?vid=b4a36e5e-245a-41cc-a9cf-03d5c03f3457"},"vehicle_type_id":"4","last_reported":1748354974,"current_range_meters":16800,"station_id":"ce4bhmp2rcd13ifvqgog","pricing_plan_id":"cebpf4jnsgd1na2vs0mg"},{"bike_id":"add0afc6-ce23-48fa-abd6-53be749ccd54","system_id":"levelo_inurba_marseille","lat":43.28225,"lon":5.39076,"is_reserved":false,"is_disabled":false,"rental_uris":{"android":"levelo://app?vid=add0afc6-ce23-48fa-abd6-53be749ccd54","ios":"levelo://app?vid=add0afc6-ce23-48fa-abd6-53be749ccd54"},"vehicle_type_id":"4","last_reported":1748354974,"current_range_meters":16800,"station_id":"","pricing_plan_id":"cebpf4jnsgd1na2vs0mg"},{"bike_id":"e8264270-6e82-48a0-9de5-a3f73f59db95","system_id":"levelo_inurba_marseille","lat":43.231897,"lon":5.399787,"is_reserved":false,"is_disabled":false,"rental_uris":{"android":"levelo://app?vid=e8264270-6e82-48a0-9de5-a3f73f59db95","ios":"levelo://app?vid=e8264270-6e82-48a0-9de5-a3f73f59db95"},"vehicle_type_id":"4","last_reported":1748354974,"current_range_meters":16800,"station_id":"ce4bhn12rcd13ifvqgqg","pricing_plan_id":"cebpf4jnsgd1na2vs0mg"},{"bike_id":"53b5a3f4-731c-4f3e-ae19-9a2d7c970ad3","system_id":"levelo_inurba_marseille","lat":43.31229,"lon":5.36878,"is_reserved":false,"is_disabled":false,"rental_uris":{"android":"levelo://app?vid=53b5a3f4-731c-4f3e-ae19-9a2d7c970ad3","ios":"levelo://app?vid=53b5a3f4-731c-4f3e-ae19-9a2d7c970ad3"},"vehicle_type_id":"4","last_reported":1748354974,"current_range_meters":17200,"station_id":"ce4bgl92rcd13ifvqbq0","pricing_plan_id":"cebpf4jnsgd1na2vs0mg"},{"bike_id":"a199a483-40d4-4321-a5cf-52c860074d36","system_id":"levelo_inurba_marseille","lat":43.231873,"lon":5.399785,"is_reserved":false,"is_disabled":false,"rental_uris":{"android":"levelo://app?vid=a199a483-40d4-4321-a5cf-52c860074d36","ios":"levelo://app?vid=a199a483-40d4-4321-a5cf-52c860074d36"},"vehicle_type_id":"4","last_reported":1748354974,"current_range_meters":17200,"station_id":"ce4bhn12rcd13ifvqgqg","pricing_plan_id":"cebpf4jnsgd1na2vs0mg"},{"bike_id":"329a6f0a-1f73-4e11-92f5-cd0525da8dd9","system_id":"levelo_inurba_marseille","lat":43.30163,"lon":5.37439,"is_reserved":false,"is_disabled":false,"rental_uris":{"android":"levelo://app?vid=329a6f0a-1f73-4e11-92f5-cd0525da8dd9","ios":"levelo://app?vid=329a6f0a-1f73-4e11-92f5-cd0525da8dd9"},"vehicle_type_id":"4","last_reported":1748354974,"current_range_meters":17200,"station_id":"ce4bgs92rcd13ifvqcc0","pricing_plan_id":"cebpf4jnsgd1na2vs0mg"},{"bike_id":"f79df32b-8fec-488f-90bb-0c6036227f2d","system_id":"levelo_inurba_marseille","lat":43.28418,"lon":5.34978,"is_reserved":false,"is_disabled":false,"rental_uris":{"android":"levelo://app?vid=f79df32b-8fec-488f-90bb-0c6036227f2d","ios":"levelo://app?vid=f79df32b-8fec-488f-90bb-0c6036227f2d"},"vehicle_type_id":"4","last_reported":1748354974,"current_range_meters":17200,"station_id":"ce4bhbh2rcd13ifvqepg","pricing_plan_id":"cebpf4jnsgd1na2vs0mg"},{"bike_id":"2c81d0fb-a660-4cd9-8324-46d837cab276","system_id":"levelo_inurba_marseille","lat":43.216614,"lon":5.346015,"is_reserved":false,"is_disabled":false,"rental_uris":{"android":"levelo://app?vid=2c81d0fb-a660-4cd9-8324-46d837cab276","ios":"levelo://app?vid=2c81d0fb-a660-4cd9-8324-46d837cab276"},"vehicle_type_id":"4","last_reported":1748354974,"current_range_meters":17200,"station_id":"st_cvj6r9ubvosntc0bgbag","pricing_plan_id":"cebpf4jnsgd1na2vs0mg"},{"bike_id":"f2e739c7-09cd-449f-bf20-66085640b0d0","system_id":"levelo_inurba_marseille","lat":43.314859,"lon":5.373039,"is_reserved":false,"is_disabled":false,"rental_uris":{"android":"levelo://app?vid=f2e739c7-09cd-449f-bf20-66085640b0d0","ios":"levelo://app?vid=f2e739c7-09cd-449f-bf20-66085640b0d0"},"vehicle_type_id":"4","last_reported":1748354974,"current_range_meters":17200,"station_id":"ce4bgt12rcd13ifvqcd0","pricing_plan_id":"cebpf4jnsgd1na2vs0mg"},{"bike_id":"55ea50a0-faa8-42b0-812e-aa23d1b50f58","system_id":"levelo_inurba_marseille","lat":43.28408,"lon":5.34976,"is_reserved":false,"is_disabled":false,"rental_uris":{"android":"levelo://app?vid=55ea50a0-faa8-42b0-812e-aa23d1b50f58","ios":"levelo://app?vid=55ea50a0-faa8-42b0-812e-aa23d1b50f58"},"vehicle_type_id":"4","last_reported":1748354974,"current_range_meters":17200,"station_id":"ce4bhbh2rcd13ifvqepg","pricing_plan_id":"cebpf4jnsgd1na2vs0mg"},{"bike_id":"98cbf70d-d9f6-4b71-bf03-63425172bed7","system_id":"levelo_inurba_marseille","lat":43.23161,"lon":5.43747,"is_reserved":false,"is_disabled":false,"rental_uris":{"android":"levelo://app?vid=98cbf70d-d9f6-4b71-bf03-63425172bed7","ios":"levelo://app?vid=98cbf70d-d9f6-4b71-bf03-63425172bed7"},"vehicle_type_id":"4","last_reported":1748354974,"current_range_meters":17200,"station_id":"ce4bhmp2rcd13ifvqgog","pricing_plan_id":"cebpf4jnsgd1na2vs0mg"},{"bike_id":"799d75e0-088b-4441-bd94-28f251fa8a3d","system_id":"levelo_inurba_marseille","lat":43.23133,"lon":5.43757,"is_reserved":false,"is_disabled":false,"rental_uris":{"android":"levelo://app?vid=799d75e0-088b-4441-bd94-28f251fa8a3d","ios":"levelo://app?vid=799d75e0-088b-4441-bd94-28f251fa8a3d"},"vehicle_type_id":"4","last_reported":1748354974,"current_range_meters":17600,"station_id":"ce4bhmp2rcd13ifvqgog","pricing_plan_id":"cebpf4jnsgd1na2vs0mg"},{"bike_id":"694826cd-19a1-499c-af7c-83a7fd9a0111","system_id":"levelo_inurba_marseille","lat":43.286222,"lon":5.351153,"is_reserved":false,"is_disabled":false,"rental_uris":{"android":"levelo://app?vid=694826cd-19a1-499c-af7c-83a7fd9a0111","ios":"levelo://app?vid=694826cd-19a1-499c-af7c-83a7fd9a0111"},"vehicle_type_id":"4","last_reported":1748354974,"current_range_meters":17600,"station_id":"ce4bhch2rcd13ifvqeug","pricing_plan_id":"cebpf4jnsgd1na2vs0mg"},{"bike_id":"dde48ba7-14c0-4d94-b0cb-cf6edbcb19b4","system_id":"levelo_inurba_marseille","lat":43.24664,"lon":5.38162,"is_reserved":false,"is_disabled":false,"rental_uris":{"android":"levelo://app?vid=dde48ba7-14c0-4d94-b0cb-cf6edbcb19b4","ios":"levelo://app?vid=dde48ba7-14c0-4d94-b0cb-cf6edbcb19b4"},"vehicle_type_id":"4","last_reported":1748354974,"current_range_meters":17600,"station_id":"ce4bhih2rcd13ifvqfr0","pricing_plan_id":"cebpf4jnsgd1na2vs0mg"},{"bike_id":"ce815cda-2cde-4fb9-9477-ce1e701131e7","system_id":"levelo_inurba_marseille","lat":43.29022,"lon":5.38644,"is_reserved":false,"is_disabled":false,"rental_uris":{"android":"levelo://app?vid=ce815cda-2cde-4fb9-9477-ce1e701131e7","ios":"levelo://app?vid=ce815cda-2cde-4fb9-9477-ce1e701131e7"},"vehicle_type_id":"4","last_reported":1748354974,"current_range_meters":17600,"station_id":"ce4bh4p2rcd13ifvqe0g","pricing_plan_id":"cebpf4jnsgd1na2vs0mg"},{"bike_id":"fc374944-cd63-4d3d-8efa-ce3bae07a3c1","system_id":"levelo_inurba_marseille","lat":43.31356,"lon":5.36738,"is_reserved":false,"is_disabled":false,"rental_uris":{"android":"levelo://app?vid=fc374944-cd63-4d3d-8efa-ce3bae07a3c1","ios":"levelo://app?vid=fc374944-cd63-4d3d-8efa-ce3bae07a3c1"},"vehicle_type_id":"4","last_reported":1748354974,"current_range_meters":17600,"station_id":"ce4bgr92rcd13ifvqc6g","pricing_plan_id":"cebpf4jnsgd1na2vs0mg"},{"bike_id":"f2fc1692-01b9-4b02-8b2c-252289992f8e","system_id":"levelo_inurba_marseille","lat":43.28417,"lon":5.3499,"is_reserved":false,"is_disabled":false,"rental_uris":{"android":"levelo://app?vid=f2fc1692-01b9-4b02-8b2c-252289992f8e","ios":"levelo://app?vid=f2fc1692-01b9-4b02-8b2c-252289992f8e"},"vehicle_type_id":"4","last_reported":1748354974,"current_range_meters":17600,"station_id":"ce4bhbh2rcd13ifvqepg","pricing_plan_id":"cebpf4jnsgd1na2vs0mg"},{"bike_id":"8d3086e2-eadb-4f69-9eb8-499596174de7","system_id":"levelo_inurba_marseille","lat":43.29529,"lon":5.39398,"is_reserved":false,"is_disabled":false,"rental_uris":{"android":"levelo://app?vid=8d3086e2-eadb-4f69-9eb8-499596174de7","ios":"levelo://app?vid=8d3086e2-eadb-4f69-9eb8-499596174de7"},"vehicle_type_id":"4","last_reported":1748354974,"current_range_meters":17600,"station_id":"ce4bh292rcd13ifvqdf0","pricing_plan_id":"cebpf4jnsgd1na2vs0mg"},{"bike_id":"ed165672-9d9e-4ba7-ad6d-80d0e9db44ba","system_id":"levelo_inurba_marseille","lat":43.28415,"lon":5.3499,"is_reserved":false,"is_disabled":false,"rental_uris":{"android":"levelo://app?vid=ed165672-9d9e-4ba7-ad6d-80d0e9db44ba","ios":"levelo://app?vid=ed165672-9d9e-4ba7-ad6d-80d0e9db44ba"},"vehicle_type_id":"4","last_reported":1748354974,"current_range_meters":17600,"station_id":"ce4bhbh2rcd13ifvqepg","pricing_plan_id":"cebpf4jnsgd1na2vs0mg"},{"bike_id":"35928a30-845b-48a0-bb22-02594def4037","system_id":"levelo_inurba_marseille","lat":43.29574,"lon":5.39971,"is_reserved":false,"is_disabled":false,"rental_uris":{"android":"levelo://app?vid=35928a30-845b-48a0-bb22-02594def4037","ios":"levelo://app?vid=35928a30-845b-48a0-bb22-02594def4037"},"vehicle_type_id":"4","last_reported":1748354974,"current_range_meters":17600,"station_id":"ce4bh312rcd13ifvqdj0","pricing_plan_id":"cebpf4jnsgd1na2vs0mg"},{"bike_id":"edc4b93f-a730-41c4-a6f4-9855f7478447","system_id":"levelo_inurba_marseille","lat":43.31397,"lon":5.36708,"is_reserved":false,"is_disabled":false,"rental_uris":{"android":"levelo://app?vid=edc4b93f-a730-41c4-a6f4-9855f7478447","ios":"levelo://app?vid=edc4b93f-a730-41c4-a6f4-9855f7478447"},"vehicle_type_id":"4","last_reported":1748354974,"current_range_meters":17600,"station_id":"","pricing_plan_id":"cebpf4jnsgd1na2vs0mg"},{"bike_id":"6063dae3-6292-4606-94f3-085ff12a2cd6","system_id":"levelo_inurba_marseille","lat":43.31159,"lon":5.38726,"is_reserved":false,"is_disabled":false,"rental_uris":{"android":"levelo://app?vid=6063dae3-6292-4606-94f3-085ff12a2cd6","ios":"levelo://app?vid=6063dae3-6292-4606-94f3-085ff12a2cd6"},"vehicle_type_id":"4","last_reported":1748354974,"current_range_meters":17600,"station_id":"ce4bgv12rcd13ifvqcp0","pricing_plan_id":"cebpf4jnsgd1na2vs0mg"},