{"last_updated":1762621663,"ttl":60,"version":"2.2","data":{"bikes":[{"bike_id":"dec8ff4d-f915-414d-8380-26c45f08cbb8","system_id":"levelo_inurba_marseille","lat":43.28526,"lon":5.38513,"is_reserved":false,"is_disabled":false,"rental_uris":{"android":"levelo://app?vid=dec8ff4d-f915-414d-8380-26c45f08cbb8","ios":"levelo://app?vid=dec8ff4d-f915-414d-8380-26c45f08cbb8"},"vehicle_type_id":"4","last_reported":1762621663,"current_range_meters":2800,"station_id":"","pricing_plan_id":"cebpf4jnsgd1na2vs0mg"},{"bike_id":"d9e3d1f7-f637-4483-90ec-9306784b807c","system_id":"levelo_inurba_marseille","lat":43.295383,"lon":5.38566,"is_reserved":false,"is_disabled":false,"rental_uris":{"android":"levelo://app?vid=d9e3d1f7-f637-4483-90ec-9306784b807c","ios":"levelo://app?vid=d9e3d1f7-f637-4483-90ec-9306784b807c"},"vehicle_type_id":"4","last_reported":1762621663,"current_range_meters":2800,"station_id":"ce4bgih2rcd13ifvqba0","pricing_plan_id":"cebpf4jnsgd1na2vs0mg"},{"bike_id":"aa073d3c-91f3-4920-9d1e-90bf82850b1e","system_id":"levelo_inurba_marseille","lat":43.33788,"lon":5.37431,"is_reserved":false,"is_disabled":false,"rental_uris":{"android":"levelo://app?vid=aa073d3c-91f3-4920-9d1e-90bf82850b1e","ios":"levelo://app?vid=aa073d3c-91f3-4920-9d1e-90bf82850b1e"},"vehicle_type_id":"4","last_reported":1762621663,"current_range_meters":2800,"station_id":"","pricing_plan_id":"cebpf4jnsgd1na2vs0mg"},{"bike_id":"7e9fe8bc-735a-40e1-a167-53c57c12e261","system_id":"levelo_inurba_marseille","lat":43.2407,"lon":5.37765,"is_reserved":false,"is_disabled":false,"rental_uris":{"android":"levelo://app?vid=7e9fe8bc-735a-40e1-a167-53c57c12e261","ios":"levelo://app?vid=7e9fe8bc-735a-40e1-a167-53c57c12e261"},"vehicle_type_id":"4","last_reported":1762621663,"current_range_meters":2800,"station_id":"ce4bhnp2rcd13ifvqgvg","pricing_plan_id":"cebpf4jnsgd1na2vs0mg"},{"bike_id":"beab1287-51f8-435d-9562-3cf200a16db9","system_id":"levelo_inurba_marseille","lat":43.30137,"lon":5.3806,"is_reserved":false,"is_disabled":false,"rental_uris":{"android":"levelo://app?vid=beab1287-51f8-435d-9562-3cf200a16db9","ios":"levelo://app?vid=beab1287-51f8-435d-9562-3cf200a16db9"},"vehicle_type_id":"4","last_reported":1762621663,"current_range_meters":3200,"station_id":"ce4bgjp2rcd13ifvqbh0","pricing_plan_id":"cebpf4jnsgd1na2vs0mg"},{"bike_id":"723c85b5-69bc-4ce6-b2a3-6e2d6eefe678","system_id":"levelo_inurba_marseille","lat":43.29191,"lon":5.35802,"is_reserved":false,"is_disabled":false,"rental_uris":{"android":"levelo://app?vid=723c85b5-69bc-4ce6-b2a3-6e2d6eefe678","ios":"levelo://app?vid=723c85b5-69bc-4ce6-b2a3-6e2d6eefe678"},"vehicle_type_id":"4","last_reported":1762621663,"current_range_meters":3200,"station_id":"ce4bhb12rcd13ifvqel0","pricing_plan_id":"cebpf4jnsgd1na2vs0mg"},{"bike_id":"865bce76-77d5-45b5-91a6-aac54f9b22c5","system_id":"levelo_inurba_marseille","lat":43.30147,"lon":5.38083,"is_reserved":false,"is_disabled":false,"rental_uris":{"android":"levelo://app?vid=865bce76-77d5-45b5-91a6-aac54f9b22c5","ios":"levelo://app?vid=865bce76-77d5-45b5-91a6-aac54f9b22c5"},"vehicle_type_id":"4","last_reported":1762621663,"current_range_meters":3200,"station_id":"ce4bgjp2rcd13ifvqbh0","pricing_plan_id":"cebpf4jnsgd1na2vs0mg"},{"bike_id":"e59ada71-046c-4180-8996-28565cd90c98","system_id":"levelo_inurba_marseille","lat":43.26036,"lon":5.37545,"is_reserved":false,"is_disabled":false,"rental_uris":{"android":"levelo://app?vid=e59ada71-046c-4180-8996-28565cd90c98","ios":"levelo://app?vid=e59ada71-046c-4180-8996-28565cd90c98"},"vehicle_type_id":"4","last_reported":1762621663,"current_range_meters":3200,"station_id":"ce4bhgh2rcd13ifvqfa0","pricing_plan_id":"cebpf4jnsgd1na2vs0mg"},{"bike_id":"1c6bc4d8-4da5-45ff-af52-f68cec0dacd6","system_id":"levelo_inurba_marseille","lat":43.30366,"lon":5.41315,"is_reserved":false,"is_disabled":false,"rental_uris":{"android":"levelo://app?vid=1c6bc4d8-4da5-45ff-af52-f68cec0dacd6","ios":"levelo://app?vid=1c6bc4d8-4da5-45ff-af52-f68cec0dacd6"},"vehicle_type_id":"4","last_reported":1762621663,"current_range_meters":3200,"station_id":"ce4bhop2rcd13ifvqh8g","pricing_plan_id":"cebpf4jnsgd1na2vs0mg"},{"bike_id":"2ea3af52-6f50-4025-be8b-d7a98789650c","system_id":"levelo_inurba_marseille","lat":43.297044,"lon":5.376988,"is_reserved":false,"is_disabled":false,"rental_uris":{"android":"levelo://app?vid=2ea3af52-6f50-4025-be8b-d7a98789650c","ios":"levelo://app?vid=2ea3af52-6f50-4025-be8b-d7a98789650c"},"vehicle_type_id":"4","last_reported":1762621663,"current_range_meters":3200,"station_id":"ce4bgkh2rcd13ifvqbl0","pricing_plan_id":"cebpf4jnsgd1na2vs0mg"},{"bike_id":"f6ca3376-6c37-4f5b-8212-007c073cf046","system_id":"levelo_inurba_marseille","lat":43.225537,"lon":5.416236,"is_reserved":false,"is_disabled":true,"rental_uris":{"android":"levelo://app?vid=f6ca3376-6c37-4f5b-8212-007c073cf046","ios":"levelo://app?vid=f6ca3376-6c37-4f5b-8212-007c073cf046"},"vehicle_type_id":"4","last_reported":1762621663,"current_range_meters":3600,"station_id":"st_d2o4gvlbi1j2169b742g","pricing_plan_id":"cebpf4jnsgd1na2vs0mg"},{"bike_id":"f59776fe-66b6-4d0c-89f0-0a82f6df8b32","system_id":"levelo_inurba_marseille","lat":43.30593,"lon":5.39355,"is_reserved":false,"is_disabled":false,"rental_uris":{"android":"levelo://app?vid=f59776fe-66b6-4d0c-89f0-0a82f6df8b32","ios":"levelo://app?vid=f59776fe-66b6-4d0c-89f0-0a82f6df8b32"},"vehicle_type_id":"4","last_reported":1762621663,"current_range_meters":3600,"station_id":"ce4bh0p2rcd13ifvqd80","pricing_plan_id":"cebpf4jnsgd1na2vs0mg"},{"bike_id":"5de08339-f5ec-40d6-8927-25525c11a7ce","system_id":"levelo_inurba_marseille","lat":43.262014,"lon":5.374453,"is_reserved":false,"is_disabled":false,"rental_uris":{"android":"levelo://app?vid=5de08339-f5ec-40d6-8927-25525c11a7ce","ios":"levelo://app?vid=5de08339-f5ec-40d6-8927-25525c11a7ce"},"vehicle_type_id":"4","last_reported":1762621663,"current_range_meters":3600,"station_id":"st_d2o4gvlbi1j2169b742g","pricing_plan_id":"cebpf4jnsgd1na2vs0mg"},{"bike_id":"32c4054d-c111-4f1c-b188-9138aed42210","system_id":"levelo_inurba_marseille","lat":43.31977,"lon":5.41582,"is_reserved":false,"is_disabled":false,"rental_uris":{"android":"levelo://app?vid=32c4054d-c111-4f1c-b188-9138aed42210","ios":"levelo://app?vid=32c4054d-c111-4f1c-b188-9138aed42210"},"vehicle_type_id":"4","last_reported":1762621663,"current_range_meters":3600,"station_id":"","pricing_plan_id":"cebpf4jnsgd1na2vs0mg"},{"bike_id":"4a0c9a85-81c5-4736-8a17-541f7d175f15","system_id":"levelo_inurba_marseille","lat":43.25583,"lon":5.38248,"is_reserved":false,"is_disabled":false,"rental_uris":{"android":"levelo://app?vid=4a0c9a85-81c5-4736-8a17-541f7d175f15","ios":"levelo://app?vid=4a0c9a85-81c5-4736-8a17-541f7d175f15"},"vehicle_type_id":"4","last_reported":1762621663,"current_range_meters":3600,"station_id":"ce4bhih2rcd13ifvqfs0","pricing_plan_id":"cebpf4jnsgd1na2vs0mg"},{"bike_id":"59b31ef2-3fe3-46e5-b5a5-685f264695ce","system_id":"levelo_inurba_marseille","lat":43.28448,"lon":5.48394,"is_reserved":false,"is_disabled":false,"rental_uris":{"android":"levelo://app?vid=59b31ef2-3fe3-46e5-b5a5-685f264695ce","ios":"levelo://app?vid=59b31ef2-3fe3-46e5-b5a5-685f264695ce"},"vehicle_type_id":"4","last_reported":1762621663,"current_range_meters":3600,"station_id":"","pricing_plan_id":"cebpf4jnsgd1na2vs0mg"},{"bike_id":"57f49a47-ced0-4522-82e5-9f6aa74301fb","system_id":"levelo_inurba_marseille","lat":43.29796,"lon":5.40402,"is_reserved":false,"is_disabled":false,"rental_uris":{"android":"levelo://app?vid=57f49a47-ced0-4522-82e5-9f6aa74301fb","ios":"levelo://app?vid=57f49a47-ced0-4522-82e5-9f6aa74301fb"},"vehicle_type_id":"4","last_reported":1762621663,"current_range_meters":3600,"station_id":"ce4bh112rcd13ifvqd90","pricing_plan_id":"cebpf4jnsgd1na2vs0mg"},{"bike_id":"96317163-1527-41a4-99b2-55433059ba0f","system_id":"levelo_inurba_marseille","lat":43.28938,"lon":5.39634,"is_reserved":false,"is_disabled":false,"rental_uris":{"android":"levelo://app?vid=96317163-1527-41a4-99b2-55433059ba0f","ios":"levelo://app?vid=96317163-1527-41a4-99b2-55433059ba0f"},"vehicle_type_id":"4","last_reported":1762621663,"current_range_meters":3600,"station_id":"ce4bh3h2rcd13ifvqdn0","pricing_plan_id":"cebpf4jnsgd1na2vs0mg"},{"bike_id":"0239642e-630b-4e76-84e1-b922887a83aa","system_id":"levelo_inurba_marseille","lat":43.29694,"lon":5.36597,"is_reserved":false,"is_disabled":false,"rental_uris":{"android":"levelo://app?vid=0239642e-630b-4e76-84e1-b922887a83aa","ios":"levelo://app?vid=0239642e-630b-4e76-84e1-b922887a83aa"},"vehicle_type_id":"4","last_reported":1762621663,"current_range_meters":3600,"station_id":"ce4bgn12rcd13ifvqbt0","pricing_plan_id":"cebpf4jnsgd1na2vs0mg"},{"bike_id":"05c639a2-6660-40ed-a12f-85b485fe188e","system_id":"levelo_inurba_marseille","lat":43.29213,"lon":5.35774,"is_reserved":false,"is_disabled":false,"rental_uris":{"android":"levelo://app?vid=05c639a2-6660-40ed-a12f-85b485fe188e","ios":"levelo://app?vid=05c639a2-6660-40ed-a12f-85b485fe188e"},"vehicle_type_id":"4","last_reported":1762621663,"current_range_meters":4000,"station_id":"ce4bhb12rcd13ifvqel0","pricing_plan_id":"cebpf4jnsgd1na2vs0mg"},{"bike_id":"fc64196e-f5b8-40a4-92bd-70119de39cc9","system_id":"levelo_inurba_marseille","lat":43.30153,"lon":5.38096,"is_reserved":false,"is_disabled":false,"rental_uris":{"android":"levelo://app?vid=fc64196e-f5b8-40a4-92bd-70119de39cc9","ios":"levelo://app?vid=fc64196e-f5b8-40a4-92bd-70119de39cc9"},"vehicle_type_id":"4","last_reported":1762621663,"current_range_meters":4000,"station_id":"ce4bgjp2rcd13ifvqbh0","pricing_plan_id":"cebpf4jnsgd1na2vs0mg"},{"bike_id":"152dc96a-1568-4177-b651-4b950d2a0e73","system_id":"levelo_inurba_marseille","lat":43.32683,"lon":5.39207,"is_reserved":false,"is_disabled":false,"rental_uris":{"android":"levelo://app?vid=152dc96a-1568-4177-b651-4b950d2a0e73","ios":"levelo://app?vid=152dc96a-1568-4177-b651-4b950d2a0e73"},"vehicle_type_id":"4","last_reported":1762621663,"current_range_meters":4000,"station_id":"","pricing_plan_id":"cebpf4jnsgd1na2vs0mg"},{"bike_id":"eb3775e1-641e-4c85-9953-26cc13238a79","system_id":"levelo_inurba_marseille","lat":43.29093,"lon":5.38151,"is_reserved":false,"is_disabled":false,"rental_uris":{"android":"levelo://app?vid=eb3775e1-641e-4c85-9953-26cc13238a79","ios":"levelo://app?vid=eb3775e1-641e-4c85-9953-26cc13238a79"},"vehicle_type_id":"4","last_reported":1762621663,"current_range_meters":4000,"station_id":"ce4bh512rcd13ifvqe2g","pricing_plan_id":"cebpf4jnsgd1na2vs0mg"},{"bike_id":"e774e600-3d8a-4b13-a1e6-9aa67ac84e1b","system_id":"levelo_inurba_marseille","lat":43.25916,"lon":5.40866,"is_reserved":false,"is_disabled":false,"rental_uris":{"android":"levelo://app?vid=e774e600-3d8a-4b13-a1e6-9aa67ac84e1b","ios":"levelo://app?vid=e774e600-3d8a-4b13-a1e6-9aa67ac84e1b"},"vehicle_type_id":"4","last_reported":1762621663,"current_range_meters":4000,"station_id":"ce4bhm92rcd13ifvqglg","pricing_plan_id":"cebpf4jnsgd1na2vs0mg"},{"bike_id":"1e2feac4-29c5-41b8-9862-854de9034345","system_id":"levelo_inurba_marseille","lat":43.29918,"lon":5.36516,"is_reserved":false,"is_disabled":false,"rental_uris":{"android":"levelo://app?vid=1e2feac4-29c5-41b8-9862-854de9034345","ios":"levelo://app?vid=1e2feac4-29c5-41b8-9862-854de9034345"},"vehicle_type_id":"4","last_reported":1762621663,"current_range_meters":4000,"station_id":"ce4bgm92rcd13ifvqbr0","pricing_plan_id":"cebpf4jnsgd1na2vs0mg"},{"bike_id":"ab3a4d6b-b442-44b9-8f02-c1c222f445ba","system_id":"levelo_inurba_marseille","lat":43.27508,"lon":5.39256,"is_reserved":false,"is_disabled":false,"rental_uris":{"android":"levelo://app?vid=ab3a4d6b-b442-44b9-8f02-c1c222f445ba","ios":"levelo://app?vid=ab3a4d6b-b442-44b9-8f02-c1c222f445ba"},"vehicle_type_id":"4","last_reported":1762621663,"current_range_meters":4400,"station_id":"","pricing_plan_id":"cebpf4jnsgd1na2vs0mg"},{"bike_id":"45691200-53ad-4020-ab62-df86eb83e3c1","system_id":"levelo_inurba_marseille","lat":43.297882,"lon":5.380905,"is_reserved":false,"is_disabled":false,"rental_uris":{"android":"levelo://app?vid=45691200-53ad-4020-ab62-df86eb83e3c1","ios":"levelo://app?vid=45691200-53ad-4020-ab62-df86eb83e3c1"},"vehicle_type_id":"4","last_reported":1762621663,"current_range_meters":4400,"station_id":"ce4bgip2rcd13ifvqbb0","pricing_plan_id":"cebpf4jnsgd1na2vs0mg"},{"bike_id":"75bc333b-dfc1-46da-a386-e67c86771450","system_id":"levelo_inurba_marseille","lat":43.30154,"lon":5.38591,"is_reserved":false,"is_disabled":false,"rental_uris":{"android":"levelo://app?vid=75bc333b-dfc1-46da-a386-e67c86771450","ios":"levelo://app?vid=75bc333b-dfc1-46da-a386-e67c86771450"},"vehicle_type_id":"4","last_reported":1762621663,"current_range_meters":4400,"station_id":"","pricing_plan_id":"cebpf4jnsgd1na2vs0mg"},{"bike_id":"5b32eeb9-5034-4392-9ae9-5f173a700529","system_id":"levelo_inurba_marseille","lat":43.29634,"lon":5.40589,"is_reserved":false,"is_disabled":false,"rental_uris":{"android":"levelo://app?vid=5b32eeb9-5034-4392-9ae9-5f173a700529","ios":"levelo://app?vid=5b32eeb9-5034-4392-9ae9-5f173a700529"},"vehicle_type_id":"4","last_reported":1762621663,"current_range_meters":4400,"station_id":"ce4bh0h2rcd13ifvqd60","pricing_plan_id":"cebpf4jnsgd1na2vs0mg"},{"bike_id":"b34c3f2b-5362-4078-a92f-7b2e4f13f313","system_id":"levelo_inurba_marseille","lat":43.297904,"lon":5.393524,"is_reserved":false,"is_disabled":false,"rental_uris":{"android":"levelo://app?vid=b34c3f2b-5362-4078-a92f-7b2e4f13f313","ios":"levelo://app?vid=b34c3f2b-5362-4078-a92f-7b2e4f13f313"},"vehicle_type_id":"4","last_reported":1762621663,"current_range_meters":4400,"station_id":"chh1huq6cuj3fo74tm60","pricing_plan_id":"cebpf4jnsgd1na2vs0mg"},{"bike_id":"7dd18923-10f6-4227-a5cb-f728b895fcfe","system_id":"levelo_inurba_marseille","lat":43.22934,"lon":5.3538,"is_reserved":false,"is_disabled":false,"rental_uris":{"android":"levelo://app?vid=7dd18923-10f6-4227-a5cb-f728b895fcfe","ios":"levelo://app?vid=7dd18923-10f6-4227-a5cb-f728b895fcfe"},"vehicle_type_id":"4","last_reported":1762621663,"current_range_meters":4800,"station_id":"cpo3532slgdg3j2ikp40","pricing_plan_id":"cebpf4jnsgd1na2vs0mg"},{"bike_id":"6ecea3c9-b9c3-4818-8bf1-9e80e5ed6857","system_id":"levelo_inurba_marseille","lat":43.26571,"lon":5.39038,"is_reserved":false,"is_disabled":false,"rental_uris":{"android":"levelo://app?vid=6ecea3c9-b9c3-4818-8bf1-9e80e5ed6857","ios":"levelo://app?vid=6ecea3c9-b9c3-4818-8bf1-9e80e5ed6857"},"vehicle_type_id":"4","last_reported":1762621663,"current_range_meters":4800,"station_id":"ce4bhe12rcd13ifvqf30","pricing_plan_id":"cebpf4jnsgd1na2vs0mg"},{"bike_id":"b38965a7-f484-42f1-9a51-99e4b9b01eda","system_id":"levelo_inurba_marseille","lat":43.28027,"lon":5.36957,"is_reserved":false,"is_disabled":false,"rental_uris":{"android":"levelo://app?vid=b38965a7-f484-42f1-9a51-99e4b9b01eda","ios":"levelo://app?vid=b38965a7-f484-42f1-9a51-99e4b9b01eda"},"vehicle_type_id":"4","last_reported":1762621663,"current_range_meters":4800,"station_id":"ce4bha12rcd13ifvqef0","pricing_plan_id":"cebpf4jnsgd1na2vs0mg"},{"bike_id":"acdc7342-c1a6-4a70-b129-b9cf7ad80643","system_id":"levelo_inurba_marseille","lat":43.211946,"lon":5.350845,"is_reserved":false,"is_disabled":false,"rental_uris":{"android":"levelo://app?vid=acdc7342-c1a6-4a70-b129-b9cf7ad80643","ios":"levelo://app?vid=acdc7342-c1a6-4a70-b129-b9cf7ad80643"},"vehicle_type_id":"4","last_reported":1762621663,"current_range_meters":4800,"station_id":"st_cvj6sg6p6f1abm77japg","pricing_plan_id":"cebpf4jnsgd1na2vs0mg"},{"bike_id":"964c6a1d-247c-49b9-bc4d-13e9e5309efe","system_id":"levelo_inurba_marseille","lat":43.30796,"lon":5.43524,"is_reserved":false,"is_disabled":false,"rental_uris":{"android":"levelo://app?vid=964c6a1d-247c-49b9-bc4d-13e9e5309efe","ios":"levelo://app?vid=964c6a1d-247c-49b9-bc4d-13e9e5309efe"},"vehicle_type_id":"4","last_reported":1762621663,"current_range_meters":4800,"station_id":"","pricing_plan_id":"cebpf4jnsgd1na2vs0mg"},{"bike_id":"02fa157b-0bcc-402a-9cd5-b983206b6de5","system_id":"levelo_inurba_marseille","lat":43.25516,"lon":5.37654,"is_reserved":false,"is_disabled":false,"rental_uris":{"android":"levelo://app?vid=02fa157b-0bcc-402a-9cd5-b983206b6de5","ios":"levelo://app?vid=02fa157b-0bcc-402a-9cd5-b983206b6de5"},"vehicle_type_id":"4","last_reported":1762621663,"current_range_meters":4800,"station_id":"ce4bhh12rcd13ifvqff0","pricing_plan_id":"cebpf4jnsgd1na2vs0mg"},{"bike_id":"5b98d579-5d9e-4fea-93b7-a7307fb6f858","system_id":"levelo_inurba_marseille","lat":43.23801,"lon":5.36622,"is_reserved":false,"is_disabled":false,"rental_uris":{"android":"levelo://app?vid=5b98d579-5d9e-4fea-93b7-a7307fb6f858","ios":"levelo://app?vid=5b98d579-5d9e-4fea-93b7-a7307fb6f858"},"vehicle_type_id":"4","last_reported":1762621663,"current_range_meters":5600,"station_id":"","pricing_plan_id":"cebpf4jnsgd1na2vs0mg"},{"bike_id":"ef2fe57e-ecba-4765-96d3-8349654ec56e","system_id":"levelo_inurba_marseille","lat":43.32935,"lon":5.36402,"is_reserved":false,"is_disabled":false,"rental_uris":{"android":"levelo://app?vid=ef2fe57e-ecba-4765-96d3-8349654ec56e","ios":"levelo://app?vid=ef2fe57e-ecba-4765-96d3-8349654ec56e"},"vehicle_type_id":"4","last_reported":1762621663,"current_range_meters":5600,"station_id":"","pricing_plan_id":"cebpf4jnsgd1na2vs0mg"},{"bike_id":"805f5ea9-3590-4114-8475-7ec5ec32d039","system_id":"levelo_inurba_marseille","lat":43.23178,"lon":5.39992,"is_reserved":false,"is_disabled":false,"rental_uris":{"android":"levelo://app?vid=805f5ea9-3590-4114-8475-7ec5ec32d039","ios":"levelo://app?vid=805f5ea9-3590-4114-8475-7ec5ec32d039"},"vehicle_type_id":"4","last_reported":1762621663,"current_range_meters":5600,"station_id":"ce4bhn12rcd13ifvqgqg","pricing_plan_id":"cebpf4jnsgd1na2vs0mg"},{"bike_id":"fdc80613-d968-491f-853b-ef4e8e78377d","system_id":"levelo_inurba_marseille","lat":43.27336,"lon":5.39125,"is_reserved":false,"is_disabled":false,"rental_uris":{"android":"levelo://app?vid=fdc80613-d968-491f-853b-ef4e8e78377d","ios":"levelo://app?vid=fdc80613-d968-491f-853b-ef4e8e78377d"},"vehicle_type_id":"4","last_reported":1762621663,"current_range_meters":5600,"station_id":"ce4bhgp2rcd13ifvqfe0","pricing_plan_id":"cebpf4jnsgd1na2vs0mg"},{"bike_id":"aab53555-1358-41ff-93c1-cb21594cbd16","system_id":"levelo_inurba_marseille","lat":43.31755,"lon":5.39017,"is_reserved":false,"is_disabled":false,"rental_uris":{"android":"levelo://app?vid=aab53555-1358-41ff-93c1-cb21594cbd16","ios":"levelo://app?vid=aab53555-1358-41ff-93c1-cb21594cbd16"},"vehicle_type_id":"4","last_reported":1762621663,"current_range_meters":5600,"station_id":"ce4bhqp2rcd13ifvqhng","pricing_plan_id":"cebpf4jnsgd1na2vs0mg"},{"bike_id":"30d8fad0-b359-483b-8b6b-1430c712d4de","system_id":"levelo_inurba_marseille","lat":43.28095,"lon":5.37837,"is_reserved":false,"is_disabled":false,"rental_uris":{"android":"levelo://app?vid=30d8fad0-b359-483b-8b6b-1430c712d4de","ios":"levelo://app?vid=30d8fad0-b359-483b-8b6b-1430c712d4de"},"vehicle_type_id":"4","last_reported":1762621663,"current_range_meters":6000,"station_id":"ce4bha12rcd13ifvqee0","pricing_plan_id":"cebpf4jnsgd1na2vs0mg"},{"bike_id":"376bb0e3-f86e-46de-9a9e-2ff8fc7d19ac","system_id":"levelo_inurba_marseille","lat":43.26921,"lon":5.38927,"is_reserved":false,"is_disabled":false,"rental_uris":{"android":"levelo://app?vid=376bb0e3-f86e-46de-9a9e-2ff8fc7d19ac","ios":"levelo://app?vid=376bb0e3-f86e-46de-9a9e-2ff8fc7d19ac"},"vehicle_type_id":"4","last_reported":1762621663,"current_range_meters":6000,"station_id":"ce4bhhh2rcd13ifvqfl0","pricing_plan_id":"cebpf4jnsgd1na2vs0mg"},{"bike_id":"dd8a25ea-c45c-47d3-b665-139c21e678ee","system_id":"levelo_inurba_marseille","lat":43.29522,"lon":5.38549,"is_reserved":false,"is_disabled":false,"rental_uris":{"android":"levelo://app?vid=dd8a25ea-c45c-47d3-b665-139c21e678ee","ios":"levelo://app?vid=dd8a25ea-c45c-47d3-b665-139c21e678ee"},"vehicle_type_id":"4","last_reported":1762621663,"current_range_meters":6000,"station_id":"ce4bgih2rcd13ifvqba0","pricing_plan_id":"cebpf4jnsgd1na2vs0mg"},{"bike_id":"810516a5-a739-4c15-81eb-a0d1288a5cc9","system_id":"levelo_inurba_marseille","lat":43.292876,"lon":5.374754,"is_reserved":false,"is_disabled":false,"rental_uris":{"android":"levelo://app?vid=810516a5-a739-4c15-81eb-a0d1288a5cc9","ios":"levelo://app?vid=810516a5-a739-4c15-81eb-a0d1288a5cc9"},"vehicle_type_id":"4","last_reported":1762621663,"current_range_meters":6000,"station_id":"ce4bgi12rcd13ifvqb70","pricing_plan_id":"cebpf4jnsgd1na2vs0mg"},{"bike_id":"4896f32d-e062-4e03-a882-5e61bc1cf611","system_id":"levelo_inurba_marseille","lat":43.28489,"lon":5.38425,"is_reserved":false,"is_disabled":false,"rental_uris":{"android":"levelo://app?vid=4896f32d-e062-4e03-a882-5e61bc1cf611","ios":"levelo://app?vid=4896f32d-e062-4e03-a882-5e61bc1cf611"},"vehicle_type_id":"4","last_reported":1762621663,"current_range_meters":6000,"station_id":"ce4bh512rcd13ifvqe3g","pricing_plan_id":"cebpf4jnsgd1na2vs0mg"},{"bike_id":"c9ce8e92-6d7c-4696-a5fe-25f13b2ddeec","system_id":"levelo_inurba_marseille","lat":43.298525,"lon":5.362835,"is_reserved":false,"is_disabled":false,"rental_uris":{"android":"levelo://app?vid=c9ce8e92-6d7c-4696-a5fe-25f13b2ddeec","ios":"levelo://app?vid=c9ce8e92-6d7c-4696-a5fe-25f13b2ddeec"},"vehicle_type_id":"4","last_reported":1762621663,"current_range_meters":6000,"station_id":"ce4bgpp2rcd13ifvqc3g","pricing_plan_id":"cebpf4jnsgd1na2vs0mg"},{"bike_id":"5d63f2aa-8446-4f1d-92da-1e2d5b4a6cc8","system_id":"levelo_inurba_marseille","lat":43.296642,"lon":5.377618,"is_reserved":false,"is_disabled":false,"rental_uris":{"android":"levelo://app?vid=5d63f2aa-8446-4f1d-92da-1e2d5b4a6cc8","ios":"levelo://app?vid=5d63f2aa-8446-4f1d-92da-1e2d5b4a6cc8"},"vehicle_type_id":"4","last_reported":1762621663,"current_range_meters":6400,"station_id":"","pricing_plan_id":"cebpf4jnsgd1na2vs0mg"},{"bike_id":"711b5184-06a1-46c6-b1ad-270408b914a4","system_id":"levelo_inurba_marseille","lat":43.30002,"lon":5.40979,"is_reserved":false,"is_disabled":false,"rental_uris":{"android":"levelo://app?vid=711b5184-06a1-46c6-b1ad-270408b914a4","ios":"levelo://app?vid=711b5184-06a1-46c6-b1ad-270408b914a4"},"vehicle_type_id":"4","last_reported":1762621663,"current_range_meters":6400,"station_id":"","pricing_plan_id":"cebpf4jnsgd1na2vs0mg"},{"bike_id":"41861e19-8080-4817-881a-260f16890325","system_id":"levelo_inurba_marseille","lat":43.24652,"lon":5.38893,"is_reserved":false,"is_disabled":false,"rental_uris":{"android":"levelo://app?vid=41861e19-8080-4817-881a-260f16890325","ios":"levelo://app?vid=41861e19-8080-4817-881a-260f16890325"},"vehicle_type_id":"4","last_reported":1762621663,"current_range_meters":6400,"station_id":"ce4bhg12rcd13ifvqf60","pricing_plan_id":"cebpf4jnsgd1na2vs0mg"},{"bike_id":"6580beb2-f281-473f-9ef4-7b331653ef2e","system_id":"levelo_inurba_marseille","lat":43.29125,"lon":5.40788,"is_reserved":false,"is_disabled":false,"rental_uris":{"android":"levelo://app?vid=6580beb2-f281-473f-9ef4-7b331653ef2e","ios":"levelo://app?vid=6580beb2-f281-473f-9ef4-7b331653ef2e"},"vehicle_type_id":"4","last_reported":1762621663,"current_range_meters":6400,"station_id":"","pricing_plan_id":"cebpf4jnsgd1na2vs0mg"},{"bike_id":"6666035b-4e84-4848-820a-92aecf4b286f","system_id":"levelo_inurba_marseille","lat":43.28963,"lon":5.37823,"is_reserved":false,"is_disabled":false,"rental_uris":{"android":"levelo://app?vid=6666035b-4e84-4848-820a-92aecf4b286f","ios":"levelo://app?vid=6666035b-4e84-4848-820a-92aecf4b286f"},"vehicle_type_id":"4","last_reported":1762621663,"current_range_meters":6400,"station_id":"ce4bh9p2rcd13ifvqed0","pricing_plan_id":"cebpf4jnsgd1na2vs0mg"},{"bike_id":"e8fcd78a-49c1-48f3-9a8c-fd7a5123f311","system_id":"levelo_inurba_marseille","lat":43.286804,"lon":5.374105,"is_reserved":false,"is_disabled":false,"rental_uris":{"android":"levelo://app?vid=e8fcd78a-49c1-48f3-9a8c-fd7a5123f311","ios":"levelo://app?vid=e8fcd78a-49c1-48f3-9a8c-fd7a5123f311"},"vehicle_type_id":"4","last_reported":1762621663,"current_range_meters":6400,"station_id":"ce4bh3p2rcd13ifvqdq0","pricing_plan_id":"cebpf4jnsgd1na2vs0mg"},{"bike_id":"f436f6ac-9909-4313-93e7-74bf0fe46028","system_id":"levelo_inurba_marseille","lat":43.28656,"lon":5.36358,"is_reserved":false,"is_disabled":false,"rental_uris":{"android":"levelo://app?vid=f436f6ac-9909-4313-93e7-74bf0fe46028","ios":"levelo://app?vid=f436f6ac-9909-4313-93e7-74bf0fe46028"},"vehicle_type_id":"4","last_reported":1762621663,"current_range_meters":6400,"station_id":"ce4bhah2rcd13ifvqej0","pricing_plan_id":"cebpf4jnsgd1na2vs0mg"},{"bike_id":"1339f695-13ed-434e-b8a1-ecbc533627c7","system_id":"levelo_inurba_marseille","lat":43.29617,"lon":5.37719,"is_reserved":false,"is_disabled":false,"rental_uris":{"android":"levelo://app?vid=1339f695-13ed-434e-b8a1-ecbc533627c7","ios":"levelo://app?vid=1339f695-13ed-434e-b8a1-ecbc533627c7"},"vehicle_type_id":"4","last_reported":1762621663,"current_range_meters":6400,"station_id":"ce4bgi92rcd13ifvqb90","pricing_plan_id":"cebpf4jnsgd1na2vs0mg"},{"bike_id":"c687f5b8-73fc-4bba-bdba-8dae557f7ae6","system_id":"levelo_inurba_marseille","lat":43.2738,"lon":5.36267,"is_reserved":false,"is_disabled":true,"rental_uris":{"android":"levelo://app?vid=c687f5b8-73fc-4bba-bdba-8dae557f7ae6","ios":"levelo://app?vid=c687f5b8-73fc-4bba-bdba-8dae557f7ae6"},"vehicle_type_id":"4","last_reported":1762621663,"current_range_meters":6800,"station_id":"ce4bhbh2rcd13ifvqeo0","pricing_plan_id":"cebpf4jnsgd1na2vs0mg"},{"bike_id":"dbb8657a-d237-4fe8-94d8-4cb917e0fe22","system_id":"levelo_inurba_marseille","lat":43.29623,"lon":5.37723,"is_reserved":false,"is_disabled":false,"rental_uris":{"android":"levelo://app?vid=dbb8657a-d237-4fe8-94d8-4cb917e0fe22","ios":"levelo://app?vid=dbb8657a-d237-4fe8-94d8-4cb917e0fe22"},"vehicle_type_id":"4","last_reported":1762621663,"current_range_meters":6800,"station_id":"ce4bgi92rcd13ifvqb90","pricing_plan_id":"cebpf4jnsgd1na2vs0mg"},{"bike_id":"b05048b6-3636-4628-97b9-678771374061","system_id":"levelo_inurba_marseille","lat":43.31324,"lon":5.37353,"is_reserved":false,"is_disabled":false,"rental_uris":{"android":"levelo://app?vid=b05048b6-3636-4628-97b9-678771374061","ios":"levelo://app?vid=b05048b6-3636-4628-97b9-678771374061"},"vehicle_type_id":"4","last_reported":1762621663,"current_range_meters":6800,"station_id":"","pricing_plan_id":"cebpf4jnsgd1na2vs0mg"},{"bike_id":"e76eb9d9-fc49-408d-9881-9be595fe2bf8","system_id":"levelo_inurba_marseille","lat":43.3188,"lon":5.40738,"is_reserved":false,"is_disabled":false,"rental_uris":{"android":"levelo://app?vid=e76eb9d9-fc49-408d-9881-9be595fe2bf8","ios":"levelo://app?vid=e76eb9d9-fc49-408d-9881-9be595fe2bf8"},"vehicle_type_id":"4","last_reported":1762621663,"current_range_meters":6800,"station_id":"ce4bhq12rcd13ifvqhig","pricing_plan_id":"cebpf4jnsgd1na2vs0mg"},{"bike_id":"8633ada8-7d21-4e69-b351-cd1184091d92","system_id":"levelo_inurba_marseille","lat":43.28608,"lon":5.37068,"is_reserved":false,"is_disabled":false,"rental_uris":{"android":"levelo://app?vid=8633ada8-7d21-4e69-b351-cd1184091d92","ios":"levelo://app?vid=8633ada8-7d21-4e69-b351-cd1184091d92"},"vehicle_type_id":"4","last_reported":1762621663,"current_range_meters":6800,"station_id":"ce4bht12rcd13ifvqi60","pricing_plan_id":"cebpf4jnsgd1na2vs0mg"},{"bike_id":"556f8ce7-7a74-4884-901d-3918da7da7b2","system_id":"levelo_inurba_marseille","lat":43.29056,"lon":5.37159,"is_reserved":false,"is_disabled":false,"rental_uris":{"android":"levelo://app?vid=556f8ce7-7a74-4884-901d-3918da7da7b2","ios":"levelo://app?vid=556f8ce7-7a74-4884-901d-3918da7da7b2"},"vehicle_type_id":"4","last_reported":1762621663,"current_range_meters":6800,"station_id":"ce4bh5p2rcd13ifvqe4g","pricing_plan_id":"cebpf4jnsgd1na2vs0mg"},{"bike_id":"348bf609-07f6-4ffc-add0-6df7615d023f","system_id":"levelo_inurba_marseille","lat":43.337669,"lon":5.37438,"is_reserved":false,"is_disabled":false,"rental_uris":{"android":"levelo://app?vid=348bf609-07f6-4ffc-add0-6df7615d023f","ios":"levelo://app?vid=348bf609-07f6-4ffc-add0-6df7615d023f"},"vehicle_type_id":"4","last_reported":1762621663,"current_range_meters":6800,"station_id":"","pricing_plan_id":"cebpf4jnsgd1na2vs0mg"},{"bike_id":"c03bd52b-534b-4ae1-bb73-924e391fe2f5","system_id":"levelo_inurba_marseille","lat":43.25519,"lon":5.37672,"is_reserved":false,"is_disabled":true,"rental_uris":{"android":"levelo://app?vid=c03bd52b-534b-4ae1-bb73-924e391fe2f5","ios":"levelo://app?vid=c03bd52b-534b-4ae1-bb73-924e391fe2f5"},"vehicle_type_id":"4","last_reported":1762621663,"current_range_meters":7200,"station_id":"ce4bhh12rcd13ifvqff0","pricing_plan_id":"cebpf4jnsgd1na2vs0mg"},{"bike_id":"7d8dd7c0-e2b8-4f95-964d-a0c7b2352b50","system_id":"levelo_inurba_marseille","lat":43.26198,"lon":5.37448,"is_reserved":false,"is_disabled":false,"rental_uris":{"android":"levelo://app?vid=7d8dd7c0-e2b8-4f95-964d-a0c7b2352b50","ios":"levelo://app?vid=7d8dd7c0-e2b8-4f95-964d-a0c7b2352b50"},"vehicle_type_id":"4","last_reported":1762621663,"current_range_meters":7200,"station_id":"ce4bhgp2rcd13ifvqfc0","pricing_plan_id":"cebpf4jnsgd1na2vs0mg"},{"bike_id":"34c14480-831b-41a9-b30b-a1e8f994a110","system_id":"levelo_inurba_marseille","lat":43.3084,"lon":5.37152,"is_reserved":false,"is_disabled":false,"rental_uris":{"android":"levelo://app?vid=34c14480-831b-41a9-b30b-a1e8f994a110","ios":"levelo://app?vid=34c14480-831b-41a9-b30b-a1e8f994a110"},"vehicle_type_id":"4","last_reported":1762621663,"current_range_meters":7200,"station_id":"","pricing_plan_id":"cebpf4jnsgd1na2vs0mg"},{"bike_id":"7d74f096-4f38-4c7b-9c2e-240b92573ea4","system_id":"levelo_inurba_marseille","lat":43.29935,"lon":5.36555,"is_reserved":false,"is_disabled":false,"rental_uris":{"android":"levelo://app?vid=7d74f096-4f38-4c7b-9c2e-240b92573ea4","ios":"levelo://app?vid=7d74f096-4f38-4c7b-9c2e-240b92573ea4"},"vehicle_type_id":"4","last_reported":1762621663,"current_range_meters":7200,"station_id":"ce4bgm92rcd13ifvqbr0","pricing_plan_id":"cebpf4jnsgd1na2vs0mg"},{"bike_id":"7c392732-2900-41fd-8c6d-e5b49cdf67b5","system_id":"levelo_inurba_marseille","lat":43.29708,"lon":5.38258,"is_reserved":false,"is_disabled":false,"rental_uris":{"android":"levelo://app?vid=7c392732-2900-41fd-8c6d-e5b49cdf67b5","ios":"levelo://app?vid=7c392732-2900-41fd-8c6d-e5b49cdf67b5"},"vehicle_type_id":"4","last_reported":1762621663,"current_range_meters":7200,"station_id":"","pricing_plan_id":"cebpf4jnsgd1na2vs0mg"},{"bike_id":"f0535eef-fbd9-4f4e-b430-2ad9d1bdc303","system_id":"levelo_inurba_marseille","lat":43.27918,"lon":5.39581,"is_reserved":false,"is_disabled":false,"rental_uris":{"android":"levelo://app?vid=f0535eef-fbd9-4f4e-b430-2ad9d1bdc303","ios":"levelo://app?vid=f0535eef-fbd9-4f4e-b430-2ad9d1bdc303"},"vehicle_type_id":"4","last_reported":1762621663,"current_range_meters":7200,"station_id":"ce4bhf92rcd13ifvqf40","pricing_plan_id":"cebpf4jnsgd1na2vs0mg"},{"bike_id":"6783fb41-e9d0-4392-84f0-a8fd53bfedd4","system_id":"levelo_inurba_marseille","lat":43.31708,"lon":5.37753,"is_reserved":false,"is_disabled":false,"rental_uris":{"android":"levelo://app?vid=6783fb41-e9d0-4392-84f0-a8fd53bfedd4","ios":"levelo://app?vid=6783fb41-e9d0-4392-84f0-a8fd53bfedd4"},"vehicle_type_id":"4","last_reported":1762621663,"current_range_meters":7200,"station_id":"ce4bgth2rcd13ifvqch0","pricing_plan_id":"cebpf4jnsgd1na2vs0mg"},{"bike_id":"bad93078-b484-4873-a1ce-359b2e630abc","system_id":"levelo_inurba_marseille","lat":43.29373,"lon":5.38445,"is_reserved":false,"is_disabled":false,"rental_uris":{"android":"levelo://app?vid=bad93078-b484-4873-a1ce-359b2e630abc","ios":"levelo://app?vid=bad93078-b484-4873-a1ce-359b2e630abc"},"vehicle_type_id":"4","last_reported":1762621663,"current_range_meters":7200,"station_id":"","pricing_plan_id":"cebpf4jnsgd1na2vs0mg"},{"bike_id":"12c8e24f-1363-42e7-bf73-a0747f648734","system_id":"levelo_inurba_marseille","lat":43.29903,"lon":5.38139,"is_reserved":false,"is_disabled":false,"rental_uris":{"android":"levelo://app?vid=12c8e24f-1363-42e7-bf73-a0747f648734","ios":"levelo://app?vid=12c8e24f-1363-42e7-bf73-a0747f648734"},"vehicle_type_id":"4","last_reported":1762621663,"current_range_meters":7200,"station_id":"ce4bgj12rcd13ifvqbc0","pricing_plan_id":"cebpf4jnsgd1na2vs0mg"},{"bike_id":"78bd5f74-b07f-4aac-b566-26ecec6fd5df","system_id":"levelo_inurba_marseille","lat":43.30687,"lon":5.38042,"is_reserved":false,"is_disabled":false,"rental_uris":{"android":"levelo://app?vid=78bd5f74-b07f-4aac-b566-26ecec6fd5df","ios":"levelo://app?vid=78bd5f74-b07f-4aac-b566-26ecec6fd5df"},"vehicle_type_id":"4","last_reported":1762621663,"current_range_meters":7200,"station_id":"","pricing_plan_id":"cebpf4jnsgd1na2vs0mg"},{"bike_id":"5bee8f0f-57fe-4257-a72a-04a4967570b5","system_id":"levelo_inurba_marseille","lat":43.3003,"lon":5.37741,"is_reserved":false,"is_disabled":false,"rental_uris":{"android":"levelo://app?vid=5bee8f0f-57fe-4257-a72a-04a4967570b5","ios":"levelo://app?vid=5bee8f0f-57fe-4257-a72a-04a4967570b5"},"vehicle_type_id":"4","last_reported":1762621663,"current_range_meters":7200,"station_id":"","pricing_plan_id":"cebpf4jnsgd1na2vs0mg"},{"bike_id":"656dfd0e-69e0-4541-b479-2b4109df7b3e","system_id":"levelo_inurba_marseille","lat":43.26783,"lon":5.39424,"is_reserved":false,"is_disabled":false,"rental_uris":{"android":"levelo://app?vid=656dfd0e-69e0-4541-b479-2b4109df7b3e","ios":"levelo://app?vid=656dfd0e-69e0-4541-b479-2b4109df7b3e"},"vehicle_type_id":"4","last_reported":1762621663,"current_range_meters":8000,"station_id":"ce4bhh12rcd13ifvqfg0","pricing_plan_id":"cebpf4jnsgd1na2vs0mg"},{"bike_id":"5c17ed12-8897-4f84-bbfc-85419a7f8038","system_id":"levelo_inurba_marseille","lat":43.27133,"lon":5.3943,"is_reserved":false,"is_disabled":false,"rental_uris":{"android":"levelo://app?vid=5c17ed12-8897-4f84-bbfc-85419a7f8038","ios":"levelo://app?vid=5c17ed12-8897-4f84-bbfc-85419a7f8038"},"vehicle_type_id":"4","last_reported":1762621663,"current_range_meters":8000,"station_id":"","pricing_plan_id":"cebpf4jnsgd1na2vs0mg"},{"bike_id":"66766d0f-6d76-4d0a-bb58-676fcbcc80fb","system_id":"levelo_inurba_marseille","lat":43.28465,"lon":5.38443,"is_reserved":false,"is_disabled":false,"rental_uris":{"android":"levelo://app?vid=66766d0f-6d76-4d0a-bb58-676fcbcc80fb","ios":"levelo://app?vid=66766d0f-6d76-4d0a-bb58-676fcbcc80fb"},"vehicle_type_id":"4","last_reported":1762621663,"current_range_meters":8000,"station_id":"ce4bh512rcd13ifvqe3g","pricing_plan_id":"cebpf4jnsgd1na2vs0mg"},{"bike_id":"78b24805-7b6b-4846-a0fc-6ed1f781cc5b","system_id":"levelo_inurba_marseille","lat":43.28725,"lon":5.36089,"is_reserved":false,"is_disabled":false,"rental_uris":{"android":"levelo://app?vid=78b24805-7b6b-4846-a0fc-6ed1f781cc5b","ios":"levelo://app?vid=78b24805-7b6b-4846-a0fc-6ed1f781cc5b"},"vehicle_type_id":"4","last_reported":1762621663,"current_range_meters":8000,"station_id":"cki0cbj6b192h4jlfktg","pricing_plan_id":"cebpf4jnsgd1na2vs0mg"},{"bike_id":"f5c5adc3-fe1c-4943-80e8-a37554d52cc0","system_id":"levelo_inurba_marseille","lat":43.27905,"lon":5.3801,"is_reserved":false,"is_disabled":false,"rental_uris":{"android":"levelo://app?vid=f5c5adc3-fe1c-4943-80e8-a37554d52cc0","ios":"levelo://app?vid=f5c5adc3-fe1c-4943-80e8-a37554d52cc0"},"vehicle_type_id":"4","last_reported":1762621663,"current_range_meters":8000,"station_id":"ce4bhf92rcd13ifvqf50","pricing_plan_id":"cebpf4jnsgd1na2vs0mg"},{"bike_id":"1561d0e7-125c-4679-b599-c89ce2ad56fa","system_id":"levelo_inurba_marseille","lat":43.26216,"lon":5.37432,"is_reserved":false,"is_disabled":false,"rental_uris":{"android":"levelo://app?vid=1561d0e7-125c-4679-b599-c89ce2ad56fa","ios":"levelo://app?vid=1561d0e7-125c-4679-b599-c89ce2ad56fa"},"vehicle_type_id":"4","last_reported":1762621663,"current_range_meters":8000,"station_id":"ce4bhgp2rcd13ifvqfc0","pricing_plan_id":"cebpf4jnsgd1na2vs0mg"},{"bike_id":"6d1f87d8-a63c-43f8-8b87-9009b17fa7fd","system_id":"levelo_inurba_marseille","lat":43.27918,"lon":5.39579,"is_reserved":false,"is_disabled":false,"rental_uris":{"android":"levelo://app?vid=6d1f87d8-a63c-43f8-8b87-9009b17fa7fd","ios":"levelo://app?vid=6d1f87d8-a63c-43f8-8b87-9009b17fa7fd"},"vehicle_type_id":"4","last_reported":1762621663,"current_range_meters":8000,"station_id":"ce4bhf92rcd13ifvqf40","pricing_plan_id":"cebpf4jnsgd1na2vs0mg"},{"bike_id":"2c87f651-2469-4d7d-9a2e-0f08354f4d26","system_id":"levelo_inurba_marseille","lat":43.24958,"lon":5.40492,"is_reserved":false,"is_disabled":false,"rental_uris":{"android":"levelo://app?vid=2c87f651-2469-4d7d-9a2e-0f08354f4d26","ios":"levelo://app?vid=2c87f651-2469-4d7d-9a2e-0f08354f4d26"},"vehicle_type_id":"4","last_reported":1762621663,"current_range_meters":8000,"station_id":"st_d2ngiaodas8pm72gd1h0","pricing_plan_id":"cebpf4jnsgd1na2vs0mg"},{"bike_id":"825bc821-4b66-4a15-933a-c81df21e4ae4","system_id":"levelo_inurba_marseille","lat":43.26035,"lon":5.37547,"is_reserved":false,"is_disabled":false,"rental_uris":{"android":"levelo://app?vid=825bc821-4b66-4a15-933a-c81df21e4ae4","ios":"levelo://app?vid=825bc821-4b66-4a15-933a-c81df21e4ae4"},"vehicle_type_id":"4","last_reported":1762621663,"current_range_meters":8000,"station_id":"ce4bhgh2rcd13ifvqfa0","pricing_plan_id":"cebpf4jnsgd1na2vs0mg"},{"bike_id":"289e0b0a-6e62-48e4-9988-535ba079667e","system_id":"levelo_inurba_marseille","lat":43.23149,"lon":5.43727,"is_reserved":false,"is_disabled":false,"rental_uris":{"android":"levelo://app?vid=289e0b0a-6e62-48e4-9988-535ba079667e","ios":"levelo://app?vid=289e0b0a-6e62-48e4-9988-535ba079667e"},"vehicle_type_id":"4","last_reported":1762621663,"current_range_meters":8400,"station_id":"ce4bhmp2rcd13ifvqgog","pricing_plan_id":"cebpf4jnsgd1na2vs0mg"},{"bike_id":"22918fb7-a391-4f35-8c21-8eb60e2ab03f","system_id":"levelo_inurba_marseille","lat":43.22551,"lon":5.41635,"is_reserved":false,"is_disabled":false,"rental_uris":{"android":"levelo://app?vid=22918fb7-a391-4f35-8c21-8eb60e2ab03f","ios":"levelo://app?vid=22918fb7-a391-4f35-8c21-8eb60e2ab03f"},"vehicle_type_id":"4","last_reported":1762621663,"current_range_meters":8400,"station_id":"st_d2o4gvlbi1j2169b742g","pricing_plan_id":"cebpf4jnsgd1na2vs0mg"},{"bike_id":"a0ea519d-554f-42a0-93a3-d4c181552c78","system_id":"levelo_inurba_marseille","lat":43.31275,"lon":5.37766,"is_reserved":false,"is_disabled":false,"rental_uris":{"android":"levelo://app?vid=a0ea519d-554f-42a0-93a3-d4c181552c78","ios":"levelo://app?vid=a0ea519d-554f-42a0-93a3-d4c181552c78"},"vehicle_type_id":"4","last_reported":1762621663,"current_range_meters":8400,"station_id":"","pricing_plan_id":"cebpf4jnsgd1na2vs0mg"},{"bike_id":"3a6b939b-8483-4a00-8652-d825cdd856d7","system_id":"levelo_inurba_marseille","lat":43.22546,"lon":5.41627,"is_reserved":false,"is_disabled":false,"rental_uris":{"android":"levelo://app?vid=3a6b939b-8483-4a00-8652-d825cdd856d7","ios":"levelo://app?vid=3a6b939b-8483-4a00-8652-d825cdd856d7"},"vehicle_type_id":"4","last_reported":1762621663,"current_range_meters":8400,"station_id":"st_d2o4gvlbi1j2169b742g","pricing_plan_id":"cebpf4jnsgd1na2vs0mg"},{"bike_id":"b476681b-1f2e-402b-b7b1-eb9a542736fc","system_id":"levelo_inurba_marseille","lat":43.30424,"lon":5.4128,"is_reserved":false,"is_disabled":false,"rental_uris":{"android":"levelo://app?vid=b476681b-1f2e-402b-b7b1-eb9a542736fc","ios":"levelo://app?vid=b476681b-1f2e-402b-b7b1-eb9a542736fc"},"vehicle_type_id":"4","last_reported":1762621663,"current_range_meters":8400,"station_id":"ce4bhop2rcd13ifvqh8g","pricing_plan_id":"cebpf4jnsgd1na2vs0mg"},{"bike_id":"f3cb72a2-d461-4ff5-a6f7-11d5c106a5cb","system_id":"levelo_inurba_marseille","lat":43.24944,"lon":5.40489,"is_reserved":false,"is_disabled":false,"rental_uris":{"android":"levelo://app?vid=f3cb72a2-d461-4ff5-a6f7-11d5c106a5cb","ios":"levelo://app?vid=f3cb72a2-d461-4ff5-a6f7-11d5c106a5cb"},"vehicle_type_id":"4","last_reported":1762621663,"current_range_meters":8400,"station_id":"st_d2ngiaodas8pm72gd1h0","pricing_plan_id":"cebpf4jnsgd1na2vs0mg"},{"bike_id":"8a301587-41c5-4445-b8ff-9d101a82ed94","system_id":"levelo_inurba_marseille","lat":43.292982,"lon":5.374715,"is_reserved":false,"is_disabled":false,"rental_uris":{"android":"levelo://app?vid=8a301587-41c5-4445-b8ff-9d101a82ed94","ios":"levelo://app?vid=8a301587-41c5-4445-b8ff-9d101a82ed94"},"vehicle_type_id":"4","last_reported":1762621663,"current_range_meters":8800,"station_id":"ce4bgi12rcd13ifvqb70","pricing_plan_id":"cebpf4jnsgd1na2vs0mg"},{"bike_id":"45b7313b-a2e9-4ca4-a8d5-6047147ced9f","system_id":"levelo_inurba_marseille","lat":43.296236,"lon":5.377159,"is_reserved":false,"is_disabled":false,"rental_uris":{"android":"levelo://app?vid=45b7313b-a2e9-4ca4-a8d5-6047147ced9f","ios":"levelo://app?vid=45b7313b-a2e9-4ca4-a8d5-6047147ced9f"},"vehicle_type_id":"4","last_reported":1762621663,"current_range_meters":8800,"station_id":"ce4bgi92rcd13ifvqb90","pricing_plan_id":"cebpf4jnsgd1na2vs0mg"},{"bike_id":"7251439b-7fee-4423-83ad-8a0dbd1ea6cd","system_id":"levelo_inurba_marseille","lat":43.24085,"lon":5.37737,"is_reserved":false,"is_disabled":false,"rental_uris":{"android":"levelo://app?vid=7251439b-7fee-4423-83ad-8a0dbd1ea6cd","ios":"levelo://app?vid=7251439b-7fee-4423-83ad-8a0dbd1ea6cd"},"vehicle_type_id":"4","last_reported":1762621663,"current_range_meters":8800,"station_id":"ce4bhnp2rcd13ifvqgvg","pricing_plan_id":"cebpf4jnsgd1na2vs0mg"},{"bike_id":"fb84fe8a-c9d3-4d7f-8274-17e457ad311c","system_id":"levelo_inurba_marseille","lat":43.25113,"lon":5.40322,"is_reserved":false,"is_disabled":false,"rental_uris":{"android":"levelo://app?vid=fb84fe8a-c9d3-4d7f-8274-17e457ad311c","ios":"levelo://app?vid=fb84fe8a-c9d3-4d7f-8274-17e457ad311c"},"vehicle_type_id":"4","last_reported":1762621663,"current_range_meters":8800,"station_id":"ce4bhlh2rcd13ifvqgig","pricing_plan_id":"cebpf4jnsgd1na2vs0mg"},{"bike_id":"310115a0-7bf2-4a4a-9d53-56bf6918e4d0","system_id":"levelo_inurba_marseille","lat":43.28474,"lon":5.48407,"is_reserved":false,"is_disabled":false,"rental_uris":{"android":"levelo://app?vid=310115a0-7bf2-4a4a-9d53-56bf6918e4d0","ios":"levelo://app?vid=310115a0-7bf2-4a4a-9d53-56bf6918e4d0"},"vehicle_type_id":"4","last_reported":1762621663,"current_range_meters":9200,"station_id":"st_d3svhcjqgbts73a3dn0g","pricing_plan_id":"cebpf4jnsgd1na2vs0mg"},{"bike_id":"51745a51-50e9-47ca-ad15-16aec392764a","system_id":"levelo_inurba_marseille","lat":43.30791,"lon":5.43526,"is_reserved":false,"is_disabled":false,"rental_uris":{"android":"levelo://app?vid=51745a51-50e9-47ca-ad15-16aec392764a","ios":"levelo://app?vid=51745a51-50e9-47ca-ad15-16aec392764a"},"vehicle_type_id":"4","last_reported":1762621663,"current_range_meters":9200,"station_id":"","pricing_plan_id":"cebpf4jnsgd1na2vs0mg"},{"bike_id":"65a47fe6-93b4-4e8a-a49e-068913cc3c72","system_id":"levelo_inurba_marseille","lat":43.28228,"lon":5.39076,"is_reserved":false,"is_disabled":false,"rental_uris":{"android":"levelo://app?vid=65a47fe6-93b4-4e8a-a49e-068913cc3c72","ios":"levelo://app?vid=65a47fe6-93b4-4e8a-a49e-068913cc3c72"},"vehicle_type_id":"4","last_reported":1762621663,"current_range_meters":9200,"station_id":"ce4bhn92rcd13ifvqgsg","pricing_plan_id":"cebpf4jnsgd1na2vs0mg"},{"bike_id":"81fba564-5a80-4ca2-a4fa-72b9642af774","system_id":"levelo_inurba_marseille","lat":43.27316,"lon":5.39103,"is_reserved":false,"is_disabled":false,"rental_uris":{"android":"levelo://app?vid=81fba564-5a80-4ca2-a4fa-72b9642af774","ios":"levelo://app?vid=81fba564-5a80-4ca2-a4fa-72b9642af774"},"vehicle_type_id":"4","last_reported":1762621663,"current_range_meters":9200,"station_id":"ce4bhgp2rcd13ifvqfe0","pricing_plan_id":"cebpf4jnsgd1na2vs0mg"},{"bike_id":"dc1162a6-80dd-48cf-abcc-ac280fb03f7a","system_id":"levelo_inurba_marseille","lat":43.28662,"lon":5.36361,"is_reserved":false,"is_disabled":false,"rental_uris":{"android":"levelo://app?vid=dc1162a6-80dd-48cf-abcc-ac280fb03f7a","ios":"levelo://app?vid=dc1162a6-80dd-48cf-abcc-ac280fb03f7a"},"vehicle_type_id":"4","last_reported":1762621663,"current_range_meters":9200,"station_id":"ce4bhah2rcd13ifvqej0","pricing_plan_id":"cebpf4jnsgd1na2vs0mg"},{"bike_id":"5be14db4-2b06-429f-96c7-68255232d8cf","system_id":"levelo_inurba_marseille","lat":43.297096,"lon":5.366177,"is_reserved":false,"is_disabled":false,"rental_uris":{"android":"levelo://app?vid=5be14db4-2b06-429f-96c7-68255232d8cf","ios":"levelo://app?vid=5be14db4-2b06-429f-96c7-68255232d8cf"},"vehicle_type_id":"4","last_reported":1762621663,"current_range_meters":9200,"station_id":"","pricing_plan_id":"cebpf4jnsgd1na2vs0mg"},{"bike_id":"ff4d1ab0-08e2-477d-ae0f-54cfd9cc5baa","system_id":"levelo_inurba_marseille","lat":43.26564,"lon":5.40327,"is_reserved":false,"is_disabled":false,"rental_uris":{"android":"levelo://app?vid=ff4d1ab0-08e2-477d-ae0f-54cfd9cc5baa","ios":"levelo://app?vid=ff4d1ab0-08e2-477d-ae0f-54cfd9cc5baa"},"vehicle_type_id":"4","last_reported":1762621663,"current_range_meters":9200,"station_id":"ce4bhmp2rcd13ifvqgng","pricing_plan_id":"cebpf4jnsgd1na2vs0mg"},{"bike_id":"d2c70b52-3bf4-4f3c-9da4-77acbdd484c8","system_id":"levelo_inurba_marseille","lat":43.311127,"lon":5.378068,"is_reserved":false,"is_disabled":false,"rental_uris":{"android":"levelo://app?vid=d2c70b52-3bf4-4f3c-9da4-77acbdd484c8","ios":"levelo://app?vid=d2c70b52-3bf4-4f3c-9da4-77acbdd484c8"},"vehicle_type_id":"4","last_reported":1762621663,"current_range_meters":9200,"station_id":"ce4bgt92rcd13ifvqcg0","pricing_plan_id":"cebpf4jnsgd1na2vs0mg"},{"bike_id":"cbf030bc-3ef7-4f8f-9ab9-5c7b4ebe1ab0","system_id":"levelo_inurba_marseille","lat":43.26222,"lon":5.40463,"is_reserved":false,"is_disabled":false,"rental_uris":{"android":"levelo://app?vid=cbf030bc-3ef7-4f8f-9ab9-5c7b4ebe1ab0","ios":"levelo://app?vid=cbf030bc-3ef7-4f8f-9ab9-5c7b4ebe1ab0"},"vehicle_type_id":"4","last_reported":1762621663,"current_range_meters":9200,"station_id":"ce4bhmh2rcd13ifvqgmg","pricing_plan_id":"cebpf4jnsgd1na2vs0mg"},{"bike_id":"d13f7aac-3326-47eb-8c83-0485dd333747","system_id":"levelo_inurba_marseille","lat":43.30479,"lon":5.39277,"is_reserved":false,"is_disabled":false,"rental_uris":{"android":"levelo://app?vid=d13f7aac-3326-47eb-8c83-0485dd333747","ios":"levelo://app?vid=d13f7aac-3326-47eb-8c83-0485dd333747"},"vehicle_type_id":"4","last_reported":1762621663,"current_range_meters":9200,"station_id":"","pricing_plan_id":"cebpf4jnsgd1na2vs0mg"},{"bike_id":"a41ff71b-c0bd-4ca5-98a0-a668b4fca1e9","system_id":"levelo_inurba_marseille","lat":43.30597,"lon":5.37235,"is_reserved":false,"is_disabled":false,"rental_uris":{"android":"levelo://app?vid=a41ff71b-c0bd-4ca5-98a0-a668b4fca1e9","ios":"levelo://app?vid=a41ff71b-c0bd-4ca5-98a0-a668b4fca1e9"},"vehicle_type_id":"4","last_reported":1762621663,"current_range_meters":9600,"station_id":"ce4bgqh2rcd13ifvqc4g","pricing_plan_id":"cebpf4jnsgd1na2vs0mg"},{"bike_id":"9af0687b-3e79-4e11-b844-dd239618aeba","system_id":"levelo_inurba_marseille","lat":43.28862,"lon":5.42536,"is_reserved":false,"is_disabled":false,"rental_uris":{"android":"levelo://app?vid=9af0687b-3e79-4e11-b844-dd239618aeba","ios":"levelo://app?vid=9af0687b-3e79-4e11-b844-dd239618aeba"},"vehicle_type_id":"4","last_reported":1762621663,"current_range_meters":9600,"station_id":"st_d3b462108ojc7389ooeg","pricing_plan_id":"cebpf4jnsgd1na2vs0mg"},{"bike_id":"26aad628-bd01-4664-890e-ba85447bad9f","system_id":"levelo_inurba_marseille","lat":43.303332,"lon":5.40429,"is_reserved":false,"is_disabled":true,"rental_uris":{"android":"levelo://app?vid=26aad628-bd01-4664-890e-ba85447bad9f","ios":"levelo://app?vid=26aad628-bd01-4664-890e-ba85447bad9f"},"vehicle_type_id":"4","last_reported":1762621663,"current_range_meters":9600,"station_id":"ce4bh012rcd13ifvqd10","pricing_plan_id":"cebpf4jnsgd1na2vs0mg"},{"bike_id":"46748178-17b8-4dc8-80b3-39159ff743e0","system_id":"levelo_inurba_marseille","lat":43.30049,"lon":5.38356,"is_reserved":false,"is_disabled":false,"rental_uris":{"android":"levelo://app?vid=46748178-17b8-4dc8-80b3-39159ff743e0","ios":"levelo://app?vid=46748178-17b8-4dc8-80b3-39159ff743e0"},"vehicle_type_id":"4","last_reported":1762621663,"current_range_meters":9600,"station_id":"","pricing_plan_id":"cebpf4jnsgd1na2vs0mg"},{"bike_id":"9d001bd6-2c50-4fe0-987b-f4c0aee9f670","system_id":"levelo_inurba_marseille","lat":43.30133,"lon":5.38407,"is_reserved":false,"is_disabled":false,"rental_uris":{"android":"levelo://app?vid=9d001bd6-2c50-4fe0-987b-f4c0aee9f670","ios":"levelo://app?vid=9d001bd6-2c50-4fe0-987b-f4c0aee9f670"},"vehicle_type_id":"4","last_reported":1762621663,"current_range_meters":9600,"station_id":"","pricing_plan_id":"cebpf4jnsgd1na2vs0mg"},{"bike_id":"26e1ee93-5f93-4b11-abf7-14ebdf40b022","system_id":"levelo_inurba_marseille","lat":43.28561,"lon":5.39507,"is_reserved":false,"is_disabled":false,"rental_uris":{"android":"levelo://app?vid=26e1ee93-5f93-4b11-abf7-14ebdf40b022","ios":"levelo://app?vid=26e1ee93-5f93-4b11-abf7-14ebdf40b022"},"vehicle_type_id":"4","last_reported":1762621663,"current_range_meters":9600,"station_id":"ce4bh292rcd13ifvqdg0","pricing_plan_id":"cebpf4jnsgd1na2vs0mg"},{"bike_id":"630f766b-c013-41b2-8d00-d79c01ea4a8e","system_id":"levelo_inurba_marseille","lat":43.23055,"lon":5.35492,"is_reserved":false,"is_disabled":false,"rental_uris":{"android":"levelo://app?vid=630f766b-c013-41b2-8d00-d79c01ea4a8e","ios":"levelo://app?vid=630f766b-c013-41b2-8d00-d79c01ea4a8e"},"vehicle_type_id":"4","last_reported":1762621663,"current_range_meters":9600,"station_id":"","pricing_plan_id":"cebpf4jnsgd1na2vs0mg"},{"bike_id":"857c64b4-11ae-44c7-a9ff-de0387d9fbce","system_id":"levelo_inurba_marseille","lat":43.2873,"lon":5.36095,"is_reserved":false,"is_disabled":false,"rental_uris":{"android":"levelo://app?vid=857c64b4-11ae-44c7-a9ff-de0387d9fbce","ios":"levelo://app?vid=857c64b4-11ae-44c7-a9ff-de0387d9fbce"},"vehicle_type_id":"4","last_reported":1762621663,"current_range_meters":10000,"station_id":"cki0cbj6b192h4jlfktg","pricing_plan_id":"cebpf4jnsgd1na2vs0mg"},{"bike_id":"8f7ca0cb-d088-4e21-9662-2ab4874d81ef","system_id":"levelo_inurba_marseille","lat":43.24667,"lon":5.38178,"is_reserved":false,"is_disabled":true,"rental_uris":{"android":"levelo://app?vid=8f7ca0cb-d088-4e21-9662-2ab4874d81ef","ios":"levelo://app?vid=8f7ca0cb-d088-4e21-9662-2ab4874d81ef"},"vehicle_type_id":"4","last_reported":1762621663,"current_range_meters":10000,"station_id":"ce4bhih2rcd13ifvqfr0","pricing_plan_id":"cebpf4jnsgd1na2vs0mg"},{"bike_id":"7bc7294c-cc67-47f3-a84a-80d34a6e7670","system_id":"levelo_inurba_marseille","lat":43.23965,"lon":5.36633,"is_reserved":false,"is_disabled":false,"rental_uris":{"android":"levelo://app?vid=7bc7294c-cc67-47f3-a84a-80d34a6e7670","ios":"levelo://app?vid=7bc7294c-cc67-47f3-a84a-80d34a6e7670"},"vehicle_type_id":"4","last_reported":1762621663,"current_range_meters":10000,"station_id":"ce4bhi12rcd13ifvqfp0","pricing_plan_id":"cebpf4jnsgd1na2vs0mg"},{"bike_id":"76204fe3-009f-4623-923b-9db607b38b80","system_id":"levelo_inurba_marseille","lat":43.31172,"lon":5.38713,"is_reserved":false,"is_disabled":false,"rental_uris":{"android":"levelo://app?vid=76204fe3-009f-4623-923b-9db607b38b80","ios":"levelo://app?vid=76204fe3-009f-4623-923b-9db607b38b80"},"vehicle_type_id":"4","last_reported":1762621663,"current_range_meters":10000,"station_id":"ce4bgv12rcd13ifvqcp0","pricing_plan_id":"cebpf4jnsgd1na2vs0mg"},{"bike_id":"b64d955b-f82f-4e1b-9ea5-3bb8a13fe1b9","system_id":"levelo_inurba_marseille","lat":43.30333,"lon":5.41886,"is_reserved":false,"is_disabled":false,"rental_uris":{"android":"levelo://app?vid=b64d955b-f82f-4e1b-9ea5-3bb8a13fe1b9","ios":"levelo://app?vid=b64d955b-f82f-4e1b-9ea5-3bb8a13fe1b9"},"vehicle_type_id":"4","last_reported":1762621663,"current_range_meters":10000,"station_id":"ce4bhop2rcd13ifvqh7g","pricing_plan_id":"cebpf4jnsgd1na2vs0mg"},{"bike_id":"b98c59d1-12c0-4a03-b198-cf728a9bdad0","system_id":"levelo_inurba_marseille","lat":43.29322,"lon":5.37155,"is_reserved":false,"is_disabled":false,"rental_uris":{"android":"levelo://app?vid=b98c59d1-12c0-4a03-b198-cf728a9bdad0","ios":"levelo://app?vid=b98c59d1-12c0-4a03-b198-cf728a9bdad0"},"vehicle_type_id":"4","last_reported":1762621663,"current_range_meters":10800,"station_id":"","pricing_plan_id":"cebpf4jnsgd1na2vs0mg"},{"bike_id":"ce9a4c1e-9fbc-422c-82de-f3c1c5440309","system_id":"levelo_inurba_marseille","lat":43.29539,"lon":5.38551,"is_reserved":false,"is_disabled":false,"rental_uris":{"android":"levelo://app?vid=ce9a4c1e-9fbc-422c-82de-f3c1c5440309","ios":"levelo://app?vid=ce9a4c1e-9fbc-422c-82de-f3c1c5440309"},"vehicle_type_id":"4","last_reported":1762621663,"current_range_meters":10800,"station_id":"ce4bgih2rcd13ifvqba0","pricing_plan_id":"cebpf4jnsgd1na2vs0mg"},{"bike_id":"6ff95486-ffed-4717-ab87-555580e0ad79","system_id":"levelo_inurba_marseille","lat":43.30494,"lon":5.37896,"is_reserved":false,"is_disabled":false,"rental_uris":{"android":"levelo://app?vid=6ff95486-ffed-4717-ab87-555580e0ad79","ios":"levelo://app?vid=6ff95486-ffed-4717-ab87-555580e0ad79"},"vehicle_type_id":"4","last_reported":1762621663,"current_range_meters":10800,"station_id":"ce4bgup2rcd13ifvqcn0","pricing_plan_id":"cebpf4jnsgd1na2vs0mg"},{"bike_id":"bb1991b3-9c7c-4b65-a1f1-4a246d5c5ed6","system_id":"levelo_inurba_marseille","lat":43.24655,"lon":5.38859,"is_reserved":false,"is_disabled":false,"rental_uris":{"android":"levelo://app?vid=bb1991b3-9c7c-4b65-a1f1-4a246d5c5ed6","ios":"levelo://app?vid=bb1991b3-9c7c-4b65-a1f1-4a246d5c5ed6"},"vehicle_type_id":"4","last_reported":1762621663,"current_range_meters":10800,"station_id":"ce4bhg12rcd13ifvqf60","pricing_plan_id":"cebpf4jnsgd1na2vs0mg"},{"bike_id":"01eeeacf-f033-4b49-9a9d-b6a7331ec6c1","system_id":"levelo_inurba_marseille","lat":43.299265,"lon":5.374788,"is_reserved":false,"is_disabled":false,"rental_uris":{"android":"levelo://app?vid=01eeeacf-f033-4b49-9a9d-b6a7331ec6c1","ios":"levelo://app?vid=01eeeacf-f033-4b49-9a9d-b6a7331ec6c1"},"vehicle_type_id":"4","last_reported":1762621663,"current_range_meters":10800,"station_id":"ce4bgjh2rcd13ifvqbg0","pricing_plan_id":"cebpf4jnsgd1na2vs0mg"},{"bike_id":"5261ed5b-8b3a-49df-b726-2805b58b9f49","system_id":"levelo_inurba_marseille","lat":43.308801,"lon":5.396557,"is_reserved":false,"is_disabled":false,"rental_uris":{"android":"levelo://app?vid=5261ed5b-8b3a-49df-b726-2805b58b9f49","ios":"levelo://app?vid=5261ed5b-8b3a-49df-b726-2805b58b9f49"},"vehicle_type_id":"4","last_reported":1762621663,"current_range_meters":10800,"station_id":"ce4bgvp2rcd13ifvqcu0","pricing_plan_id":"cebpf4jnsgd1na2vs0mg"},{"bike_id":"e95f4fbf-e18a-4764-9d1e-413b96476e00","system_id":"levelo_inurba_marseille","lat":43.23137,"lon":5.43733,"is_reserved":false,"is_disabled":false,"rental_uris":{"android":"levelo://app?vid=e95f4fbf-e18a-4764-9d1e-413b96476e00","ios":"levelo://app?vid=e95f4fbf-e18a-4764-9d1e-413b96476e00"},"vehicle_type_id":"4","last_reported":1762621663,"current_range_meters":10800,"station_id":"ce4bhmp2rcd13ifvqgog","pricing_plan_id":"cebpf4jnsgd1na2vs0mg"},{"bike_id":"3e962922-b6b3-4475-944e-d2477172307f","system_id":"levelo_inurba_marseille","lat":43.26776,"lon":5.39425,"is_reserved":false,"is_disabled":false,"rental_uris":{"android":"levelo://app?vid=3e962922-b6b3-4475-944e-d2477172307f","ios":"levelo://app?vid=3e962922-b6b3-4475-944e-d2477172307f"},"vehicle_type_id":"4","last_reported":1762621663,"current_range_meters":10800,"station_id":"ce4bhh12rcd13ifvqfg0","pricing_plan_id":"cebpf4jnsgd1na2vs0mg"},{"bike_id":"186d1cfa-4bd8-4fe2-842b-b43df0f009eb","system_id":"levelo_inurba_marseille","lat":43.27325,"lon":5.39082,"is_reserved":false,"is_disabled":false,"rental_uris":{"android":"levelo://app?vid=186d1cfa-4bd8-4fe2-842b-b43df0f009eb","ios":"levelo://app?vid=186d1cfa-4bd8-4fe2-842b-b43df0f009eb"},"vehicle_type_id":"4","last_reported":1762621663,"current_range_meters":10800,"station_id":"ce4bhgp2rcd13ifvqfe0","pricing_plan_id":"cebpf4jnsgd1na2vs0mg"},{"bike_id":"06593175-4f55-4c26-aa1d-46c35aa595df","system_id":"levelo_inurba_marseille","lat":43.3073,"lon":5.42443,"is_reserved":false,"is_disabled":false,"rental_uris":{"android":"levelo://app?vid=06593175-4f55-4c26-aa1d-46c35aa595df","ios":"levelo://app?vid=06593175-4f55-4c26-aa1d-46c35aa595df"},"vehicle_type_id":"4","last_reported":1762621663,"current_range_meters":10800,"station_id":"st_cvj6ca6bvosntc0bfgr0","pricing_plan_id":"cebpf4jnsgd1na2vs0mg"},{"bike_id":"a4b610ef-5dc5-47fb-9228-87e17fe490d3","system_id":"levelo_inurba_marseille","lat":43.27071,"lon":5.42291,"is_reserved":false,"is_disabled":true,"rental_uris":{"android":"levelo://app?vid=a4b610ef-5dc5-47fb-9228-87e17fe490d3","ios":"levelo://app?vid=a4b610ef-5dc5-47fb-9228-87e17fe490d3"},"vehicle_type_id":"4","last_reported":1762621663,"current_range_meters":10800,"station_id":"ce4bhk92rcd13ifvqgb0","pricing_plan_id":"cebpf4jnsgd1na2vs0mg"},{"bike_id":"750b1689-d4fc-41ad-9a9c-519b14732063","system_id":"levelo_inurba_marseille","lat":43.28701,"lon":5.39983,"is_reserved":false,"is_disabled":false,"rental_uris":{"android":"levelo://app?vid=750b1689-d4fc-41ad-9a9c-519b14732063","ios":"levelo://app?vid=750b1689-d4fc-41ad-9a9c-519b14732063"},"vehicle_type_id":"4","last_reported":1762621663,"current_range_meters":10800,"station_id":"ce4bho92rcd13ifvqh3g","pricing_plan_id":"cebpf4jnsgd1na2vs0mg"},{"bike_id":"d2b94925-5b7c-4340-b3e6-52211ccec51d","system_id":"levelo_inurba_marseille","lat":43.28663,"lon":5.3636,"is_reserved":false,"is_disabled":false,"rental_uris":{"android":"levelo://app?vid=d2b94925-5b7c-4340-b3e6-52211ccec51d","ios":"levelo://app?vid=d2b94925-5b7c-4340-b3e6-52211ccec51d"},"vehicle_type_id":"4","last_reported":1762621663,"current_range_meters":10800,"station_id":"ce4bhah2rcd13ifvqej0","pricing_plan_id":"cebpf4jnsgd1na2vs0mg"},{"bike_id":"3b294fa9-3f9f-4381-a2a8-e3592d375a68","system_id":"levelo_inurba_marseille","lat":43.26689,"lon":5.397,"is_reserved":false,"is_disabled":false,"rental_uris":{"android":"levelo://app?vid=3b294fa9-3f9f-4381-a2a8-e3592d375a68","ios":"levelo://app?vid=3b294fa9-3f9f-4381-a2a8-e3592d375a68"},"vehicle_type_id":"4","last_reported":1762621663,"current_range_meters":10800,"station_id":"","pricing_plan_id":"cebpf4jnsgd1na2vs0mg"},{"bike_id":"382f597e-181c-4839-b1de-04339df9aa55","system_id":"levelo_inurba_marseille","lat":43.26805,"lon":5.4027,"is_reserved":false,"is_disabled":true,"rental_uris":{"android":"levelo://app?vid=382f597e-181c-4839-b1de-04339df9aa55","ios":"levelo://app?vid=382f597e-181c-4839-b1de-04339df9aa55"},"vehicle_type_id":"4","last_reported":1762621663,"current_range_meters":11200,"station_id":"ce501612rcd8frsf0b60","pricing_plan_id":"cebpf4jnsgd1na2vs0mg"},{"bike_id":"20bb4fb4-f5e0-4edf-8f37-43a6be3e962c","system_id":"levelo_inurba_marseille","lat":43.3133,"lon":5.39685,"is_reserved":false,"is_disabled":false,"rental_uris":{"android":"levelo://app?vid=20bb4fb4-f5e0-4edf-8f37-43a6be3e962c","ios":"levelo://app?vid=20bb4fb4-f5e0-4edf-8f37-43a6be3e962c"},"vehicle_type_id":"4","last_reported":1762621663,"current_range_meters":11200,"station_id":"ce4bgvp2rcd13ifvqcu0","pricing_plan_id":"cebpf4jnsgd1na2vs0mg"},{"bike_id":"d510b29d-06c6-4a67-8cee-2182097a14e2","system_id":"levelo_inurba_marseille","lat":43.29265,"lon":5.37619,"is_reserved":false,"is_disabled":true,"rental_uris":{"android":"levelo://app?vid=d510b29d-06c6-4a67-8cee-2182097a14e2","ios":"levelo://app?vid=d510b29d-06c6-4a67-8cee-2182097a14e2"},"vehicle_type_id":"4","last_reported":1762621663,"current_range_meters":11200,"station_id":"ce4bgi12rcd13ifvqb80","pricing_plan_id":"cebpf4jnsgd1na2vs0mg"},{"bike_id":"527ab2a7-e396-4f61-bda8-00ea0b48492a","system_id":"levelo_inurba_marseille","lat":43.28077,"lon":5.39673,"is_reserved":false,"is_disabled":false,"rental_uris":{"android":"levelo://app?vid=527ab2a7-e396-4f61-bda8-00ea0b48492a","ios":"levelo://app?vid=527ab2a7-e396-4f61-bda8-00ea0b48492a"},"vehicle_type_id":"4","last_reported":1762621663,"current_range_meters":11200,"station_id":"ce4bho12rcd13ifvqh2g","pricing_plan_id":"cebpf4jnsgd1na2vs0mg"},{"bike_id":"53044255-bc5b-4109-a3e1-31204c4bed1a","system_id":"levelo_inurba_marseille","lat":43.23146,"lon":5.4372,"is_reserved":false,"is_disabled":false,"rental_uris":{"android":"levelo://app?vid=53044255-bc5b-4109-a3e1-31204c4bed1a","ios":"levelo://app?vid=53044255-bc5b-4109-a3e1-31204c4bed1a"},"vehicle_type_id":"4","last_reported":1762621663,"current_range_meters":11200,"station_id":"ce4bhmp2rcd13ifvqgog","pricing_plan_id":"cebpf4jnsgd1na2vs0mg"},{"bike_id":"08800a7f-3058-4ed0-a60f-c12bee9e25dd","system_id":"levelo_inurba_marseille","lat":43.24643,"lon":5.43151,"is_reserved":false,"is_disabled":false,"rental_uris":{"android":"levelo://app?vid=08800a7f-3058-4ed0-a60f-c12bee9e25dd","ios":"levelo://app?vid=08800a7f-3058-4ed0-a60f-c12bee9e25dd"},"vehicle_type_id":"4","last_reported":1762621663,"current_range_meters":11600,"station_id":"st_d2m6c4gdas8pm72e190g","pricing_plan_id":"cebpf4jnsgd1na2vs0mg"},{"bike_id":"ad96e6a9-697f-4cbc-ab0e-acea2cc2ff89","system_id":"levelo_inurba_marseille","lat":43.29254,"lon":5.38273,"is_reserved":false,"is_disabled":false,"rental_uris":{"android":"levelo://app?vid=ad96e6a9-697f-4cbc-ab0e-acea2cc2ff89","ios":"levelo://app?vid=ad96e6a9-697f-4cbc-ab0e-acea2cc2ff89"},"vehicle_type_id":"4","last_reported":1762621663,"current_range_meters":11600,"station_id":"","pricing_plan_id":"cebpf4jnsgd1na2vs0mg"},{"bike_id":"47f1dac3-b427-462f-8e65-12346655ae7f","system_id":"levelo_inurba_marseille","lat":43.30543,"lon":5.36542,"is_reserved":false,"is_disabled":false,"rental_uris":{"android":"levelo://app?vid=47f1dac3-b427-462f-8e65-12346655ae7f","ios":"levelo://app?vid=47f1dac3-b427-462f-8e65-12346655ae7f"},"vehicle_type_id":"4","last_reported":1762621663,"current_range_meters":11600,"station_id":"ce4bgs12rcd13ifvqcag","pricing_plan_id":"cebpf4jnsgd1na2vs0mg"},{"bike_id":"832a344a-e2f2-4766-8c92-afbcdb65e9ee","system_id":"levelo_inurba_marseille","lat":43.30461,"lon":5.37905,"is_reserved":false,"is_disabled":false,"rental_uris":{"android":"levelo://app?vid=832a344a-e2f2-4766-8c92-afbcdb65e9ee","ios":"levelo://app?vid=832a344a-e2f2-4766-8c92-afbcdb65e9ee"},"vehicle_type_id":"4","last_reported":1762621663,"current_range_meters":11600,"station_id":"ce4bgup2rcd13ifvqcn0","pricing_plan_id":"cebpf4jnsgd1na2vs0mg"},{"bike_id":"84277ba0-86b2-4489-9f85-1187bc2fec67","system_id":"levelo_inurba_marseille","lat":43.3228,"lon":5.38275,"is_reserved":false,"is_disabled":false,"rental_uris":{"android":"levelo://app?vid=84277ba0-86b2-4489-9f85-1187bc2fec67","ios":"levelo://app?vid=84277ba0-86b2-4489-9f85-1187bc2fec67"},"vehicle_type_id":"4","last_reported":1762621663,"current_range_meters":11600,"station_id":"ce4bhr12rcd13ifvqhqg","pricing_plan_id":"cebpf4jnsgd1na2vs0mg"},{"bike_id":"38f3c0ae-b0be-4f5a-b8bf-033f3b34f269","system_id":"levelo_inurba_marseille","lat":43.28535,"lon":5.44102,"is_reserved":false,"is_disabled":false,"rental_uris":{"android":"levelo://app?vid=38f3c0ae-b0be-4f5a-b8bf-033f3b34f269","ios":"levelo://app?vid=38f3c0ae-b0be-4f5a-b8bf-033f3b34f269"},"vehicle_type_id":"4","last_reported":1762621663,"current_range_meters":11600,"station_id":"st_d3j3df2ikq2c7380ej80","pricing_plan_id":"cebpf4jnsgd1na2vs0mg"},{"bike_id":"c6b4bdd2-6278-4fb3-8465-2b3e82a13f63","system_id":"levelo_inurba_marseille","lat":43.30948,"lon":5.39037,"is_reserved":false,"is_disabled":false,"rental_uris":{"android":"levelo://app?vid=c6b4bdd2-6278-4fb3-8465-2b3e82a13f63","ios":"levelo://app?vid=c6b4bdd2-6278-4fb3-8465-2b3e82a13f63"},"vehicle_type_id":"4","last_reported":1762621663,"current_range_meters":11600,"station_id":"ce4bgup2rcd13ifvqco0","pricing_plan_id":"cebpf4jnsgd1na2vs0mg"},{"bike_id":"54fa92af-5541-4137-afea-d36fade5cb4b","system_id":"levelo_inurba_marseille","lat":43.246163,"lon":5.431542,"is_reserved":false,"is_disabled":false,"rental_uris":{"android":"levelo://app?vid=54fa92af-5541-4137-afea-d36fade5cb4b","ios":"levelo://app?vid=54fa92af-5541-4137-afea-d36fade5cb4b"},"vehicle_type_id":"4","last_reported":1762621663,"current_range_meters":11600,"station_id":"st_d2m6c4gdas8pm72e190g","pricing_plan_id":"cebpf4jnsgd1na2vs0mg"},{"bike_id":"692f32bd-8324-4132-84b7-a727dcad828a","system_id":"levelo_inurba_marseille","lat":43.27323,"lon":5.39088,"is_reserved":false,"is_disabled":false,"rental_uris":{"android":"levelo://app?vid=692f32bd-8324-4132-84b7-a727dcad828a","ios":"levelo://app?vid=692f32bd-8324-4132-84b7-a727dcad828a"},"vehicle_type_id":"4","last_reported":1762621663,"current_range_meters":11600,"station_id":"ce4bhgp2rcd13ifvqfe0","pricing_plan_id":"cebpf4jnsgd1na2vs0mg"},{"bike_id":"42568764-9907-48a7-96ef-3041b6aa4ab5","system_id":"levelo_inurba_marseille","lat":43.27328,"lon":5.39061,"is_reserved":false,"is_disabled":false,"rental_uris":{"android":"levelo://app?vid=42568764-9907-48a7-96ef-3041b6aa4ab5","ios":"levelo://app?vid=42568764-9907-48a7-96ef-3041b6aa4ab5"},"vehicle_type_id":"4","last_reported":1762621663,"current_range_meters":11600,"station_id":"ce4bhgp2rcd13ifvqfe0","pricing_plan_id":"cebpf4jnsgd1na2vs0mg"},{"bike_id":"61e10b2e-8b61-4b73-938b-52a41b80ae7c","system_id":"levelo_inurba_marseille","lat":43.27072,"lon":5.42286,"is_reserved":false,"is_disabled":false,"rental_uris":{"android":"levelo://app?vid=61e10b2e-8b61-4b73-938b-52a41b80ae7c","ios":"levelo://app?vid=61e10b2e-8b61-4b73-938b-52a41b80ae7c"},"vehicle_type_id":"4","last_reported":1762621663,"current_range_meters":11600,"station_id":"ce4bhk92rcd13ifvqgb0","pricing_plan_id":"cebpf4jnsgd1na2vs0mg"},{"bike_id":"b25a2132-adaf-487a-8113-76549929411b","system_id":"levelo_inurba_marseille","lat":43.29936,"lon":5.36546,"is_reserved":false,"is_disabled":false,"rental_uris":{"android":"levelo://app?vid=b25a2132-adaf-487a-8113-76549929411b","ios":"levelo://app?vid=b25a2132-adaf-487a-8113-76549929411b"},"vehicle_type_id":"4","last_reported":1762621663,"current_range_meters":11600,"station_id":"ce4bgm92rcd13ifvqbr0","pricing_plan_id":"cebpf4jnsgd1na2vs0mg"},{"bike_id":"f41c1291-31b4-43cf-9a0c-971fcb4052e5","system_id":"levelo_inurba_marseille","lat":43.26567,"lon":5.39018,"is_reserved":false,"is_disabled":false,"rental_uris":{"android":"levelo://app?vid=f41c1291-31b4-43cf-9a0c-971fcb4052e5","ios":"levelo://app?vid=f41c1291-31b4-43cf-9a0c-971fcb4052e5"},"vehicle_type_id":"4","last_reported":1762621663,"current_range_meters":11600,"station_id":"ce4bhe12rcd13ifvqf30","pricing_plan_id":"cebpf4jnsgd1na2vs0mg"},{"bike_id":"9e2f7aa7-c8b5-4cb9-8c65-afa6e509f91c","system_id":"levelo_inurba_marseille","lat":43.274343,"lon":5.393983,"is_reserved":false,"is_disabled":false,"rental_uris":{"android":"levelo://app?vid=9e2f7aa7-c8b5-4cb9-8c65-afa6e509f91c","ios":"levelo://app?vid=9e2f7aa7-c8b5-4cb9-8c65-afa6e509f91c"},"vehicle_type_id":"4","last_reported":1762621663,"current_range_meters":11600,"station_id":"ce4bhdp2rcd13ifvqf20","pricing_plan_id":"cebpf4jnsgd1na2vs0mg"},{"bike_id":"12d91eea-0c5b-47e1-a51c-909808e652b7","system_id":"levelo_inurba_marseille","lat":43.271955,"lon":5.409845,"is_reserved":false,"is_disabled":false,"rental_uris":{"android":"levelo://app?vid=12d91eea-0c5b-47e1-a51c-909808e652b7","ios":"levelo://app?vid=12d91eea-0c5b-47e1-a51c-909808e652b7"},"vehicle_type_id":"4","last_reported":1762621663,"current_range_meters":11600,"station_id":"ce4bhl12rcd13ifvqgf0","pricing_plan_id":"cebpf4jnsgd1na2vs0mg"},{"bike_id":"8b452a22-b211-4c95-9c72-8551598391ca","system_id":"levelo_inurba_marseille","lat":43.27179,"lon":5.39177,"is_reserved":false,"is_disabled":false,"rental_uris":{"android":"levelo://app?vid=8b452a22-b211-4c95-9c72-8551598391ca","ios":"levelo://app?vid=8b452a22-b211-4c95-9c72-8551598391ca"},"vehicle_type_id":"4","last_reported":1762621663,"current_range_meters":12000,"station_id":"ce4bhhp2rcd13ifvqfm0","pricing_plan_id":"cebpf4jnsgd1na2vs0mg"},{"bike_id":"95565d88-4e0c-4b5d-b6d1-9a4c73bcb1f1","system_id":"levelo_inurba_marseille","lat":43.33765,"lon":5.3745,"is_reserved":false,"is_disabled":false,"rental_uris":{"android":"levelo://app?vid=95565d88-4e0c-4b5d-b6d1-9a4c73bcb1f1","ios":"levelo://app?vid=95565d88-4e0c-4b5d-b6d1-9a4c73bcb1f1"},"vehicle_type_id":"4","last_reported":1762621663,"current_range_meters":12000,"station_id":"","pricing_plan_id":"cebpf4jnsgd1na2vs0mg"},{"bike_id":"089c964c-69ce-40b7-9360-22aef57397d9","system_id":"levelo_inurba_marseille","lat":43.31277,"lon":5.4017,"is_reserved":false,"is_disabled":false,"rental_uris":{"android":"levelo://app?vid=089c964c-69ce-40b7-9360-22aef57397d9","ios":"levelo://app?vid=089c964c-69ce-40b7-9360-22aef57397d9"},"vehicle_type_id":"4","last_reported":1762621663,"current_range_meters":12400,"station_id":"ce4bh092rcd13ifvqd30","pricing_plan_id":"cebpf4jnsgd1na2vs0mg"},{"bike_id":"6ba0f1d1-5706-4a14-b89f-505a4c6aa756","system_id":"levelo_inurba_marseille","lat":43.29474,"lon":5.43303,"is_reserved":false,"is_disabled":false,"rental_uris":{"android":"levelo://app?vid=6ba0f1d1-5706-4a14-b89f-505a4c6aa756","ios":"levelo://app?vid=6ba0f1d1-5706-4a14-b89f-505a4c6aa756"},"vehicle_type_id":"4","last_reported":1762621663,"current_range_meters":12400,"station_id":"st_d3j5ugp08ojc73fj9d10","pricing_plan_id":"cebpf4jnsgd1na2vs0mg"},{"bike_id":"abbbb7be-2df2-470a-8453-2a130d26d2d5","system_id":"levelo_inurba_marseille","lat":43.26052,"lon":5.39402,"is_reserved":false,"is_disabled":false,"rental_uris":{"android":"levelo://app?vid=abbbb7be-2df2-470a-8453-2a130d26d2d5","ios":"levelo://app?vid=abbbb7be-2df2-470a-8453-2a130d26d2d5"},"vehicle_type_id":"4","last_reported":1762621663,"current_range_meters":12400,"station_id":"ce4bhh92rcd13ifvqfj0","pricing_plan_id":"cebpf4jnsgd1na2vs0mg"},{"bike_id":"67e4d7a0-6dcb-473a-a102-990c940a4453","system_id":"levelo_inurba_marseille","lat":43.23961,"lon":5.36633,"is_reserved":false,"is_disabled":false,"rental_uris":{"android":"levelo://app?vid=67e4d7a0-6dcb-473a-a102-990c940a4453","ios":"levelo://app?vid=67e4d7a0-6dcb-473a-a102-990c940a4453"},"vehicle_type_id":"4","last_reported":1762621663,"current_range_meters":12400,"station_id":"ce4bhi12rcd13ifvqfp0","pricing_plan_id":"cebpf4jnsgd1na2vs0mg"},{"bike_id":"2a523606-dafe-4a9b-9637-4428b31bc721","system_id":"levelo_inurba_marseille","lat":43.29573,"lon":5.37517,"is_reserved":false,"is_disabled":false,"rental_uris":{"android":"levelo://app?vid=2a523606-dafe-4a9b-9637-4428b31bc721","ios":"levelo://app?vid=2a523606-dafe-4a9b-9637-4428b31bc721"},"vehicle_type_id":"4","last_reported":1762621663,"current_range_meters":12400,"station_id":"ce4bgh92rcd13ifvqb50","pricing_plan_id":"cebpf4jnsgd1na2vs0mg"},{"bike_id":"e27049fc-7ad0-464d-8555-6b3bfe30ca1d","system_id":"levelo_inurba_marseille","lat":43.23783,"lon":5.3663,"is_reserved":false,"is_disabled":false,"rental_uris":{"android":"levelo://app?vid=e27049fc-7ad0-464d-8555-6b3bfe30ca1d","ios":"levelo://app?vid=e27049fc-7ad0-464d-8555-6b3bfe30ca1d"},"vehicle_type_id":"4","last_reported":1762621663,"current_range_meters":12400,"station_id":"st_d3nk18o9ro0c73en2l3g","pricing_plan_id":"cebpf4jnsgd1na2vs0mg"},{"bike_id":"e07d899a-9d62-46ff-bd81-507bc53eb1c2","system_id":"levelo_inurba_marseille","lat":43.22935,"lon":5.3538,"is_reserved":false,"is_disabled":false,"rental_uris":{"android":"levelo://app?vid=e07d899a-9d62-46ff-bd81-507bc53eb1c2","ios":"levelo://app?vid=e07d899a-9d62-46ff-bd81-507bc53eb1c2"},"vehicle_type_id":"4","last_reported":1762621663,"current_range_meters":12800,"station_id":"cpo3532slgdg3j2ikp40","pricing_plan_id":"cebpf4jnsgd1na2vs0mg"},{"bike_id":"36bc2984-33ac-4084-b78f-0b3f538f22be","system_id":"levelo_inurba_marseille","lat":43.231476,"lon":5.437186,"is_reserved":false,"is_disabled":false,"rental_uris":{"android":"levelo://app?vid=36bc2984-33ac-4084-b78f-0b3f538f22be","ios":"levelo://app?vid=36bc2984-33ac-4084-b78f-0b3f538f22be"},"vehicle_type_id":"4","last_reported":1762621663,"current_range_meters":12800,"station_id":"ce4bhmp2rcd13ifvqgog","pricing_plan_id":"cebpf4jnsgd1na2vs0mg"},{"bike_id":"44d8d34e-3638-4d76-91a5-a2dd7075369e","system_id":"levelo_inurba_marseille","lat":43.30143,"lon":5.38074,"is_reserved":false,"is_disabled":false,"rental_uris":{"android":"levelo://app?vid=44d8d34e-3638-4d76-91a5-a2dd7075369e","ios":"levelo://app?vid=44d8d34e-3638-4d76-91a5-a2dd7075369e"},"vehicle_type_id":"4","last_reported":1762621663,"current_range_meters":12800,"station_id":"ce4bgjp2rcd13ifvqbh0","pricing_plan_id":"cebpf4jnsgd1na2vs0mg"},{"bike_id":"0b37b69f-4d88-45a5-bb59-8daa184f4232","system_id":"levelo_inurba_marseille","lat":43.29847,"lon":5.3629,"is_reserved":false,"is_disabled":false,"rental_uris":{"android":"levelo://app?vid=0b37b69f-4d88-45a5-bb59-8daa184f4232","ios":"levelo://app?vid=0b37b69f-4d88-45a5-bb59-8daa184f4232"},"vehicle_type_id":"4","last_reported":1762621663,"current_range_meters":12800,"station_id":"ce4bgpp2rcd13ifvqc3g","pricing_plan_id":"cebpf4jnsgd1na2vs0mg"},{"bike_id":"b8a55bae-8c50-4d73-b3fe-36ed3aed46b8","system_id":"levelo_inurba_marseille","lat":43.27171,"lon":5.40991,"is_reserved":false,"is_disabled":false,"rental_uris":{"android":"levelo://app?vid=b8a55bae-8c50-4d73-b3fe-36ed3aed46b8","ios":"levelo://app?vid=b8a55bae-8c50-4d73-b3fe-36ed3aed46b8"},"vehicle_type_id":"4","last_reported":1762621663,"current_range_meters":12800,"station_id":"ce4bhl12rcd13ifvqgf0","pricing_plan_id":"cebpf4jnsgd1na2vs0mg"},{"bike_id":"665a5ba2-246e-4ac7-a969-6694219b1452","system_id":"levelo_inurba_marseille","lat":43.28856,"lon":5.35837,"is_reserved":false,"is_disabled":true,"rental_uris":{"android":"levelo://app?vid=665a5ba2-246e-4ac7-a969-6694219b1452","ios":"levelo://app?vid=665a5ba2-246e-4ac7-a969-6694219b1452"},"vehicle_type_id":"4","last_reported":1762621663,"current_range_meters":12800,"station_id":"ce4bhb12rcd13ifvqem0","pricing_plan_id":"cebpf4jnsgd1na2vs0mg"},{"bike_id":"2e3d1463-e87f-40a4-a4f8-c7d9dc3966ca","system_id":"levelo_inurba_marseille","lat":43.3053,"lon":5.36549,"is_reserved":false,"is_disabled":false,"rental_uris":{"android":"levelo://app?vid=2e3d1463-e87f-40a4-a4f8-c7d9dc3966ca","ios":"levelo://app?vid=2e3d1463-e87f-40a4-a4f8-c7d9dc3966ca"},"vehicle_type_id":"4","last_reported":1762621663,"current_range_meters":12800,"station_id":"ce4bgs12rcd13ifvqcag","pricing_plan_id":"cebpf4jnsgd1na2vs0mg"},{"bike_id":"1cb3caa2-a6c2-4318-965f-70da959eb0b9","system_id":"levelo_inurba_marseille","lat":43.29932,"lon":5.36545,"is_reserved":false,"is_disabled":false,"rental_uris":{"android":"levelo://app?vid=1cb3caa2-a6c2-4318-965f-70da959eb0b9","ios":"levelo://app?vid=1cb3caa2-a6c2-4318-965f-70da959eb0b9"},"vehicle_type_id":"4","last_reported":1762621663,"current_range_meters":12800,"station_id":"ce4bgm92rcd13ifvqbr0","pricing_plan_id":"cebpf4jnsgd1na2vs0mg"},{"bike_id":"f6cef8d5-8fe8-4923-948c-afab7026b14f","system_id":"levelo_inurba_marseille","lat":43.29771,"lon":5.393592,"is_reserved":false,"is_disabled":false,"rental_uris":{"android":"levelo://app?vid=f6cef8d5-8fe8-4923-948c-afab7026b14f","ios":"levelo://app?vid=f6cef8d5-8fe8-4923-948c-afab7026b14f"},"vehicle_type_id":"4","last_reported":1762621663,"current_range_meters":12800,"station_id":"chh1huq6cuj3fo74tm60","pricing_plan_id":"cebpf4jnsgd1na2vs0mg"},{"bike_id":"d0b5feab-4e16-49e5-9d4a-c8741c92807f","system_id":"levelo_inurba_marseille","lat":43.29029,"lon":5.38648,"is_reserved":false,"is_disabled":false,"rental_uris":{"android":"levelo://app?vid=d0b5feab-4e16-49e5-9d4a-c8741c92807f","ios":"levelo://app?vid=d0b5feab-4e16-49e5-9d4a-c8741c92807f"},"vehicle_type_id":"4","last_reported":1762621663,"current_range_meters":12800,"station_id":"ce4bh4p2rcd13ifvqe0g","pricing_plan_id":"cebpf4jnsgd1na2vs0mg"},{"bike_id":"d2991a60-dcfa-4252-8f9d-bfff4b1dc433","system_id":"levelo_inurba_marseille","lat":43.31084,"lon":5.37149,"is_reserved":false,"is_disabled":false,"rental_uris":{"android":"levelo://app?vid=d2991a60-dcfa-4252-8f9d-bfff4b1dc433","ios":"levelo://app?vid=d2991a60-dcfa-4252-8f9d-bfff4b1dc433"},"vehicle_type_id":"4","last_reported":1762621663,"current_range_meters":12800,"station_id":"","pricing_plan_id":"cebpf4jnsgd1na2vs0mg"},{"bike_id":"4bce02cb-bdba-488a-a39f-eae80d4c7da8","system_id":"levelo_inurba_marseille","lat":43.28214,"lon":5.39064,"is_reserved":false,"is_disabled":true,"rental_uris":{"android":"levelo://app?vid=4bce02cb-bdba-488a-a39f-eae80d4c7da8","ios":"levelo://app?vid=4bce02cb-bdba-488a-a39f-eae80d4c7da8"},"vehicle_type_id":"4","last_reported":1762621663,"current_range_meters":12800,"station_id":"ce4bhn92rcd13ifvqgsg","pricing_plan_id":"cebpf4jnsgd1na2vs0mg"},{"bike_id":"31800347-6952-4e4c-aa3f-f865647b86c9","system_id":"levelo_inurba_marseille","lat":43.29527,"lon":5.38535,"is_reserved":false,"is_disabled":false,"rental_uris":{"android":"levelo://app?vid=31800347-6952-4e4c-aa3f-f865647b86c9","ios":"levelo://app?vid=31800347-6952-4e4c-aa3f-f865647b86c9"},"vehicle_type_id":"4","last_reported":1762621663,"current_range_meters":13600,"station_id":"ce4bgih2rcd13ifvqba0","pricing_plan_id":"cebpf4jnsgd1na2vs0mg"},{"bike_id":"a3bee058-85ae-4e5b-9de5-1e079b82023f","system_id":"levelo_inurba_marseille","lat":43.30786,"lon":5.37644,"is_reserved":false,"is_disabled":false,"rental_uris":{"android":"levelo://app?vid=a3bee058-85ae-4e5b-9de5-1e079b82023f","ios":"levelo://app?vid=a3bee058-85ae-4e5b-9de5-1e079b82023f"},"vehicle_type_id":"4","last_reported":1762621663,"current_range_meters":13600,"station_id":"ce4bgv92rcd13ifvqcq0","pricing_plan_id":"cebpf4jnsgd1na2vs0mg"},{"bike_id":"968e9c29-84ee-4827-bcab-ac08bc4ab6d5","system_id":"levelo_inurba_marseille","lat":43.2928,"lon":5.36856,"is_reserved":false,"is_disabled":true,"rental_uris":{"android":"levelo://app?vid=968e9c29-84ee-4827-bcab-ac08bc4ab6d5","ios":"levelo://app?vid=968e9c29-84ee-4827-bcab-ac08bc4ab6d5"},"vehicle_type_id":"4","last_reported":1762621663,"current_range_meters":13600,"station_id":"ce4bhbp2rcd13ifvqesg","pricing_plan_id":"cebpf4jnsgd1na2vs0mg"},{"bike_id":"7304ea05-1f78-41fe-8725-e76f079910b3","system_id":"levelo_inurba_marseille","lat":43.295274,"lon":5.385432,"is_reserved":false,"is_disabled":false,"rental_uris":{"android":"levelo://app?vid=7304ea05-1f78-41fe-8725-e76f079910b3","ios":"levelo://app?vid=7304ea05-1f78-41fe-8725-e76f079910b3"},"vehicle_type_id":"4","last_reported":1762621663,"current_range_meters":14000,"station_id":"ce4bgih2rcd13ifvqba0","pricing_plan_id":"cebpf4jnsgd1na2vs0mg"},{"bike_id":"825a1957-d327-49da-97b3-2485c79c40e7","system_id":"levelo_inurba_marseille","lat":43.21749,"lon":5.34606,"is_reserved":false,"is_disabled":true,"rental_uris":{"android":"levelo://app?vid=825a1957-d327-49da-97b3-2485c79c40e7","ios":"levelo://app?vid=825a1957-d327-49da-97b3-2485c79c40e7"},"vehicle_type_id":"4","last_reported":1762621663,"current_range_meters":14000,"station_id":"","pricing_plan_id":"cebpf4jnsgd1na2vs0mg"},{"bike_id":"3439a8cb-8214-4321-b614-d69fa7098072","system_id":"levelo_inurba_marseille","lat":43.31257,"lon":5.38949,"is_reserved":false,"is_disabled":false,"rental_uris":{"android":"levelo://app?vid=3439a8cb-8214-4321-b614-d69fa7098072","ios":"levelo://app?vid=3439a8cb-8214-4321-b614-d69fa7098072"},"vehicle_type_id":"4","last_reported":1762621663,"current_range_meters":14000,"station_id":"","pricing_plan_id":"cebpf4jnsgd1na2vs0mg"},{"bike_id":"c4c33822-419a-4bd9-90c8-d9464a407a06","system_id":"levelo_inurba_marseille","lat":43.25499,"lon":5.37652,"is_reserved":false,"is_disabled":false,"rental_uris":{"android":"levelo://app?vid=c4c33822-419a-4bd9-90c8-d9464a407a06","ios":"levelo://app?vid=c4c33822-419a-4bd9-90c8-d9464a407a06"},"vehicle_type_id":"4","last_reported":1762621663,"current_range_meters":14000,"station_id":"ce4bhh12rcd13ifvqff0","pricing_plan_id":"cebpf4jnsgd1na2vs0mg"},{"bike_id":"2b39083a-86c0-441d-8d3b-bf7dbad83db7","system_id":"levelo_inurba_marseille","lat":43.2978,"lon":5.39344,"is_reserved":false,"is_disabled":false,"rental_uris":{"android":"levelo://app?vid=2b39083a-86c0-441d-8d3b-bf7dbad83db7","ios":"levelo://app?vid=2b39083a-86c0-441d-8d3b-bf7dbad83db7"},"vehicle_type_id":"4","last_reported":1762621663,"current_range_meters":14000,"station_id":"chh1huq6cuj3fo74tm60","pricing_plan_id":"cebpf4jnsgd1na2vs0mg"},{"bike_id":"60209b82-f1fb-4fee-8b12-f869dd15efef","system_id":"levelo_inurba_marseille","lat":43.2293,"lon":5.35386,"is_reserved":false,"is_disabled":false,"rental_uris":{"android":"levelo://app?vid=60209b82-f1fb-4fee-8b12-f869dd15efef","ios":"levelo://app?vid=60209b82-f1fb-4fee-8b12-f869dd15efef"},"vehicle_type_id":"4","last_reported":1762621663,"current_range_meters":14000,"station_id":"cpo3532slgdg3j2ikp40","pricing_plan_id":"cebpf4jnsgd1na2vs0mg"},{"bike_id":"e2f4434e-346e-40e7-9f07-eb66f977a4e8","system_id":"levelo_inurba_marseille","lat":43.269244,"lon":5.388959,"is_reserved":false,"is_disabled":false,"rental_uris":{"android":"levelo://app?vid=e2f4434e-346e-40e7-9f07-eb66f977a4e8","ios":"levelo://app?vid=e2f4434e-346e-40e7-9f07-eb66f977a4e8"},"vehicle_type_id":"4","last_reported":1762621663,"current_range_meters":14000,"station_id":"ce4bhhh2rcd13ifvqfl0","pricing_plan_id":"cebpf4jnsgd1na2vs0mg"},{"bike_id":"037eab91-54d8-4be1-a55c-ab0b526da207","system_id":"levelo_inurba_marseille","lat":43.309521,"lon":5.390289,"is_reserved":false,"is_disabled":false,"rental_uris":{"android":"levelo://app?vid=037eab91-54d8-4be1-a55c-ab0b526da207","ios":"levelo://app?vid=037eab91-54d8-4be1-a55c-ab0b526da207"},"vehicle_type_id":"4","last_reported":1762621663,"current_range_meters":14400,"station_id":"ce4bgup2rcd13ifvqco0","pricing_plan_id":"cebpf4jnsgd1na2vs0mg"},{"bike_id":"fb67872b-1bf6-4cf3-bc5c-8bcc75ad9207","system_id":"levelo_inurba_marseille","lat":43.28415,"lon":5.37516,"is_reserved":false,"is_disabled":false,"rental_uris":{"android":"levelo://app?vid=fb67872b-1bf6-4cf3-bc5c-8bcc75ad9207","ios":"levelo://app?vid=fb67872b-1bf6-4cf3-bc5c-8bcc75ad9207"},"vehicle_type_id":"4","last_reported":1762621663,"current_range_meters":14400,"station_id":"ce4bh412rcd13ifvqds0","pricing_plan_id":"cebpf4jnsgd1na2vs0mg"},{"bike_id":"c7efacfc-4322-49f0-a528-5a1c32b2fe7e","system_id":"levelo_inurba_marseille","lat":43.26791,"lon":5.39418,"is_reserved":false,"is_disabled":false,"rental_uris":{"android":"levelo://app?vid=c7efacfc-4322-49f0-a528-5a1c32b2fe7e","ios":"levelo://app?vid=c7efacfc-4322-49f0-a528-5a1c32b2fe7e"},"vehicle_type_id":"4","last_reported":1762621663,"current_range_meters":14400,"station_id":"ce4bhh12rcd13ifvqfg0","pricing_plan_id":"cebpf4jnsgd1na2vs0mg"},{"bike_id":"0fa04464-e263-4a9a-b896-997133abf63c","system_id":"levelo_inurba_marseille","lat":43.27062,"lon":5.42285,"is_reserved":false,"is_disabled":false,"rental_uris":{"android":"levelo://app?vid=0fa04464-e263-4a9a-b896-997133abf63c","ios":"levelo://app?vid=0fa04464-e263-4a9a-b896-997133abf63c"},"vehicle_type_id":"4","last_reported":1762621663,"current_range_meters":14400,"station_id":"ce4bhk92rcd13ifvqgb0","pricing_plan_id":"cebpf4jnsgd1na2vs0mg"},{"bike_id":"25fd7d6d-bc1d-48dc-b741-729fe0e49332","system_id":"levelo_inurba_marseille","lat":43.25326,"lon":5.4217,"is_reserved":false,"is_disabled":false,"rental_uris":{"android":"levelo://app?vid=25fd7d6d-bc1d-48dc-b741-729fe0e49332","ios":"levelo://app?vid=25fd7d6d-bc1d-48dc-b741-729fe0e49332"},"vehicle_type_id":"4","last_reported":1762621663,"current_range_meters":14400,"station_id":"st_d2m65c5bi1j21697t3ng","pricing_plan_id":"cebpf4jnsgd1na2vs0mg"},{"bike_id":"cc026b77-c207-4a4e-88f0-347002b1c4ba","system_id":"levelo_inurba_marseille","lat":43.29781,"lon":5.39336,"is_reserved":false,"is_disabled":false,"rental_uris":{"android":"levelo://app?vid=cc026b77-c207-4a4e-88f0-347002b1c4ba","ios":"levelo://app?vid=cc026b77-c207-4a4e-88f0-347002b1c4ba"},"vehicle_type_id":"4","last_reported":1762621663,"current_range_meters":14400,"station_id":"chh1huq6cuj3fo74tm60","pricing_plan_id":"cebpf4jnsgd1na2vs0mg"},{"bike_id":"3ce95d68-5481-4cc2-bde8-c7cad581c403","system_id":"levelo_inurba_marseille","lat":43.28908,"lon":5.38436,"is_reserved":false,"is_disabled":false,"rental_uris":{"android":"levelo://app?vid=3ce95d68-5481-4cc2-bde8-c7cad581c403","ios":"levelo://app?vid=3ce95d68-5481-4cc2-bde8-c7cad581c403"},"vehicle_type_id":"4","last_reported":1762621663,"current_range_meters":14400,"station_id":"ce4bh612rcd13ifvqe6g","pricing_plan_id":"cebpf4jnsgd1na2vs0mg"},{"bike_id":"fdfdde80-7f98-4492-a263-3964ecfbbb45","system_id":"levelo_inurba_marseille","lat":43.28268,"lon":5.35075,"is_reserved":false,"is_disabled":true,"rental_uris":{"android":"levelo://app?vid=fdfdde80-7f98-4492-a263-3964ecfbbb45","ios":"levelo://app?vid=fdfdde80-7f98-4492-a263-3964ecfbbb45"},"vehicle_type_id":"4","last_reported":1762621663,"current_range_meters":14400,"station_id":"ce4bhbp2rcd13ifvqerg","pricing_plan_id":"cebpf4jnsgd1na2vs0mg"},{"bike_id":"2385aed4-a678-4325-adef-a56a1d85cdd2","system_id":"levelo_inurba_marseille","lat":43.23153,"lon":5.43726,"is_reserved":false,"is_disabled":false,"rental_uris":{"android":"levelo://app?vid=2385aed4-a678-4325-adef-a56a1d85cdd2","ios":"levelo://app?vid=2385aed4-a678-4325-adef-a56a1d85cdd2"},"vehicle_type_id":"4","last_reported":1762621663,"current_range_meters":14400,"station_id":"ce4bhmp2rcd13ifvqgog","pricing_plan_id":"cebpf4jnsgd1na2vs0mg"},{"bike_id":"c26c7c5e-541a-42b9-b1d4-3fb2c1cb3b30","system_id":"levelo_inurba_marseille","lat":43.29526,"lon":5.38548,"is_reserved":false,"is_disabled":false,"rental_uris":{"android":"levelo://app?vid=c26c7c5e-541a-42b9-b1d4-3fb2c1cb3b30","ios":"levelo://app?vid=c26c7c5e-541a-42b9-b1d4-3fb2c1cb3b30"},"vehicle_type_id":"4","last_reported":1762621663,"current_range_meters":14400,"station_id":"ce4bgih2rcd13ifvqba0","pricing_plan_id":"cebpf4jnsgd1na2vs0mg"},{"bike_id":"1250ed9d-f6cb-4469-b9ba-5e889b3a013f","system_id":"levelo_inurba_marseille","lat":43.231555,"lon":5.437035,"is_reserved":false,"is_disabled":false,"rental_uris":{"android":"levelo://app?vid=1250ed9d-f6cb-4469-b9ba-5e889b3a013f","ios":"levelo://app?vid=1250ed9d-f6cb-4469-b9ba-5e889b3a013f"},"vehicle_type_id":"4","last_reported":1762621663,"current_range_meters":14400,"station_id":"","pricing_plan_id":"cebpf4jnsgd1na2vs0mg"},{"bike_id":"77b9bf29-6d51-44bc-a2fc-031c25dcf83f","system_id":"levelo_inurba_marseille","lat":43.24181,"lon":5.39724,"is_reserved":false,"is_disabled":false,"rental_uris":{"android":"levelo://app?vid=77b9bf29-6d51-44bc-a2fc-031c25dcf83f","ios":"levelo://app?vid=77b9bf29-6d51-44bc-a2fc-031c25dcf83f"},"vehicle_type_id":"4","last_reported":1762621663,"current_range_meters":14400,"station_id":"ce4bhn12rcd13ifvqgpg","pricing_plan_id":"cebpf4jnsgd1na2vs0mg"},{"bike_id":"21dcb4e2-bef4-415f-aa59-cd0b9e2cb07b","system_id":"levelo_inurba_marseille","lat":43.22818,"lon":5.43487,"is_reserved":false,"is_disabled":false,"rental_uris":{"android":"levelo://app?vid=21dcb4e2-bef4-415f-aa59-cd0b9e2cb07b","ios":"levelo://app?vid=21dcb4e2-bef4-415f-aa59-cd0b9e2cb07b"},"vehicle_type_id":"4","last_reported":1762621663,"current_range_meters":14400,"station_id":"","pricing_plan_id":"cebpf4jnsgd1na2vs0mg"},{"bike_id":"7307f6d9-f522-4b13-b156-dfb00ddb9cf9","system_id":"levelo_inurba_marseille","lat":43.3092,"lon":5.36856,"is_reserved":false,"is_disabled":false,"rental_uris":{"android":"levelo://app?vid=7307f6d9-f522-4b13-b156-dfb00ddb9cf9","ios":"levelo://app?vid=7307f6d9-f522-4b13-b156-dfb00ddb9cf9"},"vehicle_type_id":"4","last_reported":1762621663,"current_range_meters":14800,"station_id":"ce4bgn92rcd13ifvqbvg","pricing_plan_id":"cebpf4jnsgd1na2vs0mg"},{"bike_id":"9a795c3e-b6d3-49e7-bfa5-7e6b1eb2046a","system_id":"levelo_inurba_marseille","lat":43.21751,"lon":5.34599,"is_reserved":false,"is_disabled":false,"rental_uris":{"android":"levelo://app?vid=9a795c3e-b6d3-49e7-bfa5-7e6b1eb2046a","ios":"levelo://app?vid=9a795c3e-b6d3-49e7-bfa5-7e6b1eb2046a"},"vehicle_type_id":"4","last_reported":1762621663,"current_range_meters":14800,"station_id":"st_cvj6r9ubvosntc0bgbag","pricing_plan_id":"cebpf4jnsgd1na2vs0mg"},{"bike_id":"8a00544c-9f37-4d6a-8780-bbacc6b31f54","system_id":"levelo_inurba_marseille","lat":43.25724,"lon":5.41109,"is_reserved":false,"is_disabled":false,"rental_uris":{"android":"levelo://app?vid=8a00544c-9f37-4d6a-8780-bbacc6b31f54","ios":"levelo://app?vid=8a00544c-9f37-4d6a-8780-bbacc6b31f54"},"vehicle_type_id":"4","last_reported":1762621663,"current_range_meters":14800,"station_id":"ce4bhkp2rcd13ifvqgd0","pricing_plan_id":"cebpf4jnsgd1na2vs0mg"},{"bike_id":"24c98bf5-b9ce-48c0-9b09-bc52ca8a925c","system_id":"levelo_inurba_marseille","lat":43.29803,"lon":5.38105,"is_reserved":false,"is_disabled":false,"rental_uris":{"android":"levelo://app?vid=24c98bf5-b9ce-48c0-9b09-bc52ca8a925c","ios":"levelo://app?vid=24c98bf5-b9ce-48c0-9b09-bc52ca8a925c"},"vehicle_type_id":"4","last_reported":1762621663,"current_range_meters":14800,"station_id":"ce4bgip2rcd13ifvqbb0","pricing_plan_id":"cebpf4jnsgd1na2vs0mg"},{"bike_id":"959c16bd-03fa-4b25-a477-7ec149aa70ba","system_id":"levelo_inurba_marseille","lat":43.31441,"lon":5.3706,"is_reserved":false,"is_disabled":false,"rental_uris":{"android":"levelo://app?vid=959c16bd-03fa-4b25-a477-7ec149aa70ba","ios":"levelo://app?vid=959c16bd-03fa-4b25-a477-7ec149aa70ba"},"vehicle_type_id":"4","last_reported":1762621663,"current_range_meters":14800,"station_id":"","pricing_plan_id":"cebpf4jnsgd1na2vs0mg"},{"bike_id":"9fbbdf56-42c5-4be9-8cdc-797d939458b1","system_id":"levelo_inurba_marseille","lat":43.25113,"lon":5.40323,"is_reserved":false,"is_disabled":false,"rental_uris":{"android":"levelo://app?vid=9fbbdf56-42c5-4be9-8cdc-797d939458b1","ios":"levelo://app?vid=9fbbdf56-42c5-4be9-8cdc-797d939458b1"},"vehicle_type_id":"4","last_reported":1762621663,"current_range_meters":15200,"station_id":"ce4bhlh2rcd13ifvqgig","pricing_plan_id":"cebpf4jnsgd1na2vs0mg"},{"bike_id":"bfa1ff24-e42f-4f0e-8f49-51117bf23821","system_id":"levelo_inurba_marseille","lat":43.256367,"lon":5.39394,"is_reserved":false,"is_disabled":false,"rental_uris":{"android":"levelo://app?vid=bfa1ff24-e42f-4f0e-8f49-51117bf23821","ios":"levelo://app?vid=bfa1ff24-e42f-4f0e-8f49-51117bf23821"},"vehicle_type_id":"4","last_reported":1762621663,"current_range_meters":15200,"station_id":"","pricing_plan_id":"cebpf4jnsgd1na2vs0mg"},{"bike_id":"53529ee7-fa79-4bfe-8ac3-2ffb63a46b11","system_id":"levelo_inurba_marseille","lat":43.31787,"lon":5.38833,"is_reserved":false,"is_disabled":false,"rental_uris":{"android":"levelo://app?vid=53529ee7-fa79-4bfe-8ac3-2ffb63a46b11","ios":"levelo://app?vid=53529ee7-fa79-4bfe-8ac3-2ffb63a46b11"},"vehicle_type_id":"4","last_reported":1762621663,"current_range_meters":15200,"station_id":"","pricing_plan_id":"cebpf4jnsgd1na2vs0mg"},{"bike_id":"ef5d2d18-91f9-4c41-8eef-aca9314803aa","system_id":"levelo_inurba_marseille","lat":43.29936,"lon":5.36539,"is_reserved":false,"is_disabled":false,"rental_uris":{"android":"levelo://app?vid=ef5d2d18-91f9-4c41-8eef-aca9314803aa","ios":"levelo://app?vid=ef5d2d18-91f9-4c41-8eef-aca9314803aa"},"vehicle_type_id":"4","last_reported":1762621663,"current_range_meters":15200,"station_id":"ce4bgm92rcd13ifvqbr0","pricing_plan_id":"cebpf4jnsgd1na2vs0mg"},{"bike_id":"186f06b7-9a2a-4013-92c3-74ac21b89f0d","system_id":"levelo_inurba_marseille","lat":43.29331,"lon":5.38507,"is_reserved":false,"is_disabled":false,"rental_uris":{"android":"levelo://app?vid=186f06b7-9a2a-4013-92c3-74ac21b89f0d","ios":"levelo://app?vid=186f06b7-9a2a-4013-92c3-74ac21b89f0d"},"vehicle_type_id":"4","last_reported":1762621663,"current_range_meters":15200,"station_id":"","pricing_plan_id":"cebpf4jnsgd1na2vs0mg"},{"bike_id":"06b572d6-d95a-4f1a-9a9a-b316897ad6d5","system_id":"levelo_inurba_marseille","lat":43.29545,"lon":5.3752,"is_reserved":false,"is_disabled":false,"rental_uris":{"android":"levelo://app?vid=06b572d6-d95a-4f1a-9a9a-b316897ad6d5","ios":"levelo://app?vid=06b572d6-d95a-4f1a-9a9a-b316897ad6d5"},"vehicle_type_id":"4","last_reported":1762621663,"current_range_meters":15200,"station_id":"ce4bgkp2rcd13ifvqbmg","pricing_plan_id":"cebpf4jnsgd1na2vs0mg"},{"bike_id":"e0578c36-c89a-4a73-abc7-9215285c6b6b","system_id":"levelo_inurba_marseille","lat":43.303503,"lon":5.418725,"is_reserved":false,"is_disabled":false,"rental_uris":{"android":"levelo://app?vid=e0578c36-c89a-4a73-abc7-9215285c6b6b","ios":"levelo://app?vid=e0578c36-c89a-4a73-abc7-9215285c6b6b"},"vehicle_type_id":"4","last_reported":1762621663,"current_range_meters":15200,"station_id":"ce4bhop2rcd13ifvqh7g","pricing_plan_id":"cebpf4jnsgd1na2vs0mg"},{"bike_id":"83c183c7-cb32-44d9-ab98-b65df0b5ca8b","system_id":"levelo_inurba_marseille","lat":43.26946,"lon":5.38637,"is_reserved":false,"is_disabled":false,"rental_uris":{"android":"levelo://app?vid=83c183c7-cb32-44d9-ab98-b65df0b5ca8b","ios":"levelo://app?vid=83c183c7-cb32-44d9-ab98-b65df0b5ca8b"},"vehicle_type_id":"4","last_reported":1762621663,"current_range_meters":15200,"station_id":"ce4bhh92rcd13ifvqfh0","pricing_plan_id":"cebpf4jnsgd1na2vs0mg"},{"bike_id":"c52e3d72-dff0-41a3-b094-15513164ab09","system_id":"levelo_inurba_marseille","lat":43.26786,"lon":5.39418,"is_reserved":false,"is_disabled":false,"rental_uris":{"android":"levelo://app?vid=c52e3d72-dff0-41a3-b094-15513164ab09","ios":"levelo://app?vid=c52e3d72-dff0-41a3-b094-15513164ab09"},"vehicle_type_id":"4","last_reported":1762621663,"current_range_meters":15200,"station_id":"ce4bhh12rcd13ifvqfg0","pricing_plan_id":"cebpf4jnsgd1na2vs0mg"},{"bike_id":"16e92c81-f9bf-4049-a0df-a21857156c26","system_id":"levelo_inurba_marseille","lat":43.28608,"lon":5.37072,"is_reserved":false,"is_disabled":false,"rental_uris":{"android":"levelo://app?vid=16e92c81-f9bf-4049-a0df-a21857156c26","ios":"levelo://app?vid=16e92c81-f9bf-4049-a0df-a21857156c26"},"vehicle_type_id":"4","last_reported":1762621663,"current_range_meters":16000,"station_id":"ce4bht12rcd13ifvqi60","pricing_plan_id":"cebpf4jnsgd1na2vs0mg"},{"bike_id":"42f1d31d-b0b5-48f8-b88c-a2adae506543","system_id":"levelo_inurba_marseille","lat":43.29818,"lon":5.44067,"is_reserved":false,"is_disabled":false,"rental_uris":{"android":"levelo://app?vid=42f1d31d-b0b5-48f8-b88c-a2adae506543","ios":"levelo://app?vid=42f1d31d-b0b5-48f8-b88c-a2adae506543"},"vehicle_type_id":"4","last_reported":1762621663,"current_range_meters":16000,"station_id":"st_d3jp68qikq2c7381ktn0","pricing_plan_id":"cebpf4jnsgd1na2vs0mg"},{"bike_id":"c73c5513-728d-4700-9395-e31e4399cd51","system_id":"levelo_inurba_marseille","lat":43.29222,"lon":5.40284,"is_reserved":false,"is_disabled":false,"rental_uris":{"android":"levelo://app?vid=c73c5513-728d-4700-9395-e31e4399cd51","ios":"levelo://app?vid=c73c5513-728d-4700-9395-e31e4399cd51"},"vehicle_type_id":"4","last_reported":1762621663,"current_range_meters":16000,"station_id":"","pricing_plan_id":"cebpf4jnsgd1na2vs0mg"},{"bike_id":"15db09df-59b0-446a-87c5-e354a3319258","system_id":"levelo_inurba_marseille","lat":43.28478,"lon":5.48394,"is_reserved":false,"is_disabled":false,"rental_uris":{"android":"levelo://app?vid=15db09df-59b0-446a-87c5-e354a3319258","ios":"levelo://app?vid=15db09df-59b0-446a-87c5-e354a3319258"},"vehicle_type_id":"4","last_reported":1762621663,"current_range_meters":16000,"station_id":"","pricing_plan_id":"cebpf4jnsgd1na2vs0mg"},{"bike_id":"95c2a582-1eba-4ebc-bdda-a353604dc20d","system_id":"levelo_inurba_marseille","lat":43.31259,"lon":5.36885,"is_reserved":false,"is_disabled":false,"rental_uris":{"android":"levelo://app?vid=95c2a582-1eba-4ebc-bdda-a353604dc20d","ios":"levelo://app?vid=95c2a582-1eba-4ebc-bdda-a353604dc20d"},"vehicle_type_id":"4","last_reported":1762621663,"current_range_meters":16000,"station_id":"ce4bgl92rcd13ifvqbq0","pricing_plan_id":"cebpf4jnsgd1na2vs0mg"},{"bike_id":"6270acb0-cd0e-44dd-82c7-1997b5e300d7","system_id":"levelo_inurba_marseille","lat":43.29025,"lon":5.38651,"is_reserved":false,"is_disabled":false,"rental_uris":{"android":"levelo://app?vid=6270acb0-cd0e-44dd-82c7-1997b5e300d7","ios":"levelo://app?vid=6270acb0-cd0e-44dd-82c7-1997b5e300d7"},"vehicle_type_id":"4","last_reported":1762621663,"current_range_meters":16000,"station_id":"ce4bh4p2rcd13ifvqe0g","pricing_plan_id":"cebpf4jnsgd1na2vs0mg"},{"bike_id":"54bd85fc-5918-4dd1-870a-d7fa8d5c3e91","system_id":"levelo_inurba_marseille","lat":43.28355,"lon":5.38118,"is_reserved":false,"is_disabled":false,"rental_uris":{"android":"levelo://app?vid=54bd85fc-5918-4dd1-870a-d7fa8d5c3e91","ios":"levelo://app?vid=54bd85fc-5918-4dd1-870a-d7fa8d5c3e91"},"vehicle_type_id":"4","last_reported":1762621663,"current_range_meters":16000,"station_id":"ce4bh412rcd13ifvqdr0","pricing_plan_id":"cebpf4jnsgd1na2vs0mg"},{"bike_id":"04af0b3e-6dc4-4294-95b0-8ba5be0ab9a1","system_id":"levelo_inurba_marseille","lat":43.298,"lon":5.38097,"is_reserved":false,"is_disabled":false,"rental_uris":{"android":"levelo://app?vid=04af0b3e-6dc4-4294-95b0-8ba5be0ab9a1","ios":"levelo://app?vid=04af0b3e-6dc4-4294-95b0-8ba5be0ab9a1"},"vehicle_type_id":"4","last_reported":1762621663,"current_range_meters":16400,"station_id":"ce4bgip2rcd13ifvqbb0","pricing_plan_id":"cebpf4jnsgd1na2vs0mg"},{"bike_id":"b1173766-61c9-4e70-a21f-3dab020dcf6b","system_id":"levelo_inurba_marseille","lat":43.30507,"lon":5.36536,"is_reserved":false,"is_disabled":false,"rental_uris":{"android":"levelo://app?vid=b1173766-61c9-4e70-a21f-3dab020dcf6b","ios":"levelo://app?vid=b1173766-61c9-4e70-a21f-3dab020dcf6b"},"vehicle_type_id":"4","last_reported":1762621663,"current_range_meters":16400,"station_id":"","pricing_plan_id":"cebpf4jnsgd1na2vs0mg"},{"bike_id":"0aced166-b6b9-4109-93a4-6f8be3194744","system_id":"levelo_inurba_marseille","lat":43.27427,"lon":5.394,"is_reserved":false,"is_disabled":false,"rental_uris":{"android":"levelo://app?vid=0aced166-b6b9-4109-93a4-6f8be3194744","ios":"levelo://app?vid=0aced166-b6b9-4109-93a4-6f8be3194744"},"vehicle_type_id":"4","last_reported":1762621663,"current_range_meters":16400,"station_id":"ce4bhdp2rcd13ifvqf20","pricing_plan_id":"cebpf4jnsgd1na2vs0mg"},{"bike_id":"1a85bd73-f6c9-483d-ac28-5d95b6775d78","system_id":"levelo_inurba_marseille","lat":43.28702,"lon":5.37958,"is_reserved":false,"is_disabled":true,"rental_uris":{"android":"levelo://app?vid=1a85bd73-f6c9-483d-ac28-5d95b6775d78","ios":"levelo://app?vid=1a85bd73-f6c9-483d-ac28-5d95b6775d78"},"vehicle_type_id":"4","last_reported":1762621663,"current_range_meters":16400,"station_id":"ce4bh9p2rcd13ifvqec0","pricing_plan_id":"cebpf4jnsgd1na2vs0mg"},{"bike_id":"6ca580b9-ae87-4e9b-a62c-4e0f6a07370c","system_id":"levelo_inurba_marseille","lat":43.21191,"lon":5.35073,"is_reserved":false,"is_disabled":false,"rental_uris":{"android":"levelo://app?vid=6ca580b9-ae87-4e9b-a62c-4e0f6a07370c","ios":"levelo://app?vid=6ca580b9-ae87-4e9b-a62c-4e0f6a07370c"},"vehicle_type_id":"4","last_reported":1762621663,"current_range_meters":16400,"station_id":"st_cvj6sg6p6f1abm77japg","pricing_plan_id":"cebpf4jnsgd1na2vs0mg"},{"bike_id":"d1cbe8b1-b39b-4e6a-b4e1-914b6f778fce","system_id":"levelo_inurba_marseille","lat":43.31579,"lon":5.38825,"is_reserved":false,"is_disabled":true,"rental_uris":{"android":"levelo://app?vid=d1cbe8b1-b39b-4e6a-b4e1-914b6f778fce","ios":"levelo://app?vid=d1cbe8b1-b39b-4e6a-b4e1-914b6f778fce"},"vehicle_type_id":"4","last_reported":1762621663,"current_range_meters":16400,"station_id":"","pricing_plan_id":"cebpf4jnsgd1na2vs0mg"},{"bike_id":"91ad5081-b9a2-489e-aa4e-fc4766805800","system_id":"levelo_inurba_marseille","lat":43.29712,"lon":5.36607,"is_reserved":false,"is_disabled":false,"rental_uris":{"android":"levelo://app?vid=91ad5081-b9a2-489e-aa4e-fc4766805800","ios":"levelo://app?vid=91ad5081-b9a2-489e-aa4e-fc4766805800"},"vehicle_type_id":"4","last_reported":1762621663,"current_range_meters":16400,"station_id":"ce4bgn12rcd13ifvqbt0","pricing_plan_id":"cebpf4jnsgd1na2vs0mg"},{"bike_id":"082499b8-2ae9-45ed-be7c-c9c9c81378d4","system_id":"levelo_inurba_marseille","lat":43.321,"lon":5.36777,"is_reserved":false,"is_disabled":false,"rental_uris":{"android":"levelo://app?vid=082499b8-2ae9-45ed-be7c-c9c9c81378d4","ios":"levelo://app?vid=082499b8-2ae9-45ed-be7c-c9c9c81378d4"},"vehicle_type_id":"4","last_reported":1762621663,"current_range_meters":16400,"station_id":"ce4bhrh2rcd13ifvqhug","pricing_plan_id":"cebpf4jnsgd1na2vs0mg"},{"bike_id":"bc5d9993-0fba-4e46-aba3-9b34bdaa0231","system_id":"levelo_inurba_marseille","lat":43.29532,"lon":5.38544,"is_reserved":false,"is_disabled":false,"rental_uris":{"android":"levelo://app?vid=bc5d9993-0fba-4e46-aba3-9b34bdaa0231","ios":"levelo://app?vid=bc5d9993-0fba-4e46-aba3-9b34bdaa0231"},