{"last_updated":1693044360,"ttl":30,"version":"2.2","data":{"bikes":[{"bike_id":"31154d0b-5653-4072-86b8-ded84158bd9c","system_id":"levelo_inurba_marseille","lat":43.31341,"lon":5.367098,"is_reserved":false,"is_disabled":false,"rental_uris":{"android":"levelo://app?vid=31154d0b-5653-4072-86b8-ded84158bd9c","ios":"levelo://app?vid=31154d0b-5653-4072-86b8-ded84158bd9c"},"vehicle_type_id":"4","last_reported":1693044360,"current_range_meters":30000,"station_id":"ce4bgr92rcd13ifvqc6g","pricing_plan_id":"free"},{"bike_id":"fb0e914d-18b9-404a-9b62-176fbc5fd81b","system_id":"levelo_inurba_marseille","lat":43.31341,"lon":5.367098,"is_reserved":false,"is_disabled":false,"rental_uris":{"android":"levelo://app?vid=fb0e914d-18b9-404a-9b62-176fbc5fd81b","ios":"levelo://app?vid=fb0e914d-18b9-404a-9b62-176fbc5fd81b"},"vehicle_type_id":"4","last_reported":1693044360,"current_range_meters":30800,"station_id":"ce4bgr92rcd13ifvqc6g","pricing_plan_id":"free"},{"bike_id":"200bb941-7b54-46bf-bef0-86333e42f27f","system_id":"levelo_inurba_marseille","lat":43.313391,"lon":5.36706,"is_reserved":false,"is_disabled":false,"rental_uris":{"android":"levelo://app?vid=200bb941-7b54-46bf-bef0-86333e42f27f","ios":"levelo://app?vid=200bb941-7b54-46bf-bef0-86333e42f27f"},"vehicle_type_id":"4","last_reported":1693044360,"current_range_meters":31200,"station_id":"ce4bgr92rcd13ifvqc6g","pricing_plan_id":"free"},{"bike_id":"6e05c03b-75ad-4325-9e03-dbbbcdcfdee5","system_id":"levelo_inurba_marseille","lat":43.31341,"lon":5.367098,"is_reserved":false,"is_disabled":false,"rental_uris":{"android":"levelo://app?vid=6e05c03b-75ad-4325-9e03-dbbbcdcfdee5","ios":"levelo://app?vid=6e05c03b-75ad-4325-9e03-dbbbcdcfdee5"},"vehicle_type_id":"4","last_reported":1693044360,"current_range_meters":29600,"station_id":"ce4bgr92rcd13ifvqc6g","pricing_plan_id":"free"},{"bike_id":"d61257e3-c39c-4dbc-99d5-bc4be6d4ad9d","system_id":"levelo_inurba_marseille","lat":43.31341,"lon":5.367098,"is_reserved":false,"is_disabled":false,"rental_uris":{"android":"levelo://app?vid=d61257e3-c39c-4dbc-99d5-bc4be6d4ad9d","ios":"levelo://app?vid=d61257e3-c39c-4dbc-99d5-bc4be6d4ad9d"},"vehicle_type_id":"4","last_reported":1693044360,"current_range_meters":31200,"station_id":"ce4bgr92rcd13ifvqc6g","pricing_plan_id":"free"},{"bike_id":"51b4e1b2-c6cd-492e-98aa-5ff5498d44ea","system_id":"levelo_inurba_marseille","lat":43.312239,"lon":5.368562,"is_reserved":false,"is_disabled":false,"rental_uris":{"android":"levelo://app?vid=51b4e1b2-c6cd-492e-98aa-5ff5498d44ea","ios":"levelo://app?vid=51b4e1b2-c6cd-492e-98aa-5ff5498d44ea"},"vehicle_type_id":"4","last_reported":1693044360,"current_range_meters":29200,"station_id":"ce4bgl92rcd13ifvqbq0","pricing_plan_id":"free"},{"bike_id":"f22ca441-4e4e-4660-b824-b2f46943e54d","system_id":"levelo_inurba_marseille","lat":43.312239,"lon":5.368562,"is_reserved":false,"is_disabled":false,"rental_uris":{"android":"levelo://app?vid=f22ca441-4e4e-4660-b824-b2f46943e54d","ios":"levelo://app?vid=f22ca441-4e4e-4660-b824-b2f46943e54d"},"vehicle_type_id":"4","last_reported":1693044360,"current_range_meters":31200,"station_id":"ce4bgl92rcd13ifvqbq0","pricing_plan_id":"free"},{"bike_id":"65674239-bfb7-4928-84de-b7277febf7c2","system_id":"levelo_inurba_marseille","lat":43.312239,"lon":5.368562,"is_reserved":false,"is_disabled":false,"rental_uris":{"android":"levelo://app?vid=65674239-bfb7-4928-84de-b7277febf7c2","ios":"levelo://app?vid=65674239-bfb7-4928-84de-b7277febf7c2"},"vehicle_type_id":"4","last_reported":1693044360,"current_range_meters":31200,"station_id":"ce4bgl92rcd13ifvqbq0","pricing_plan_id":"free"},{"bike_id":"25750603-5d85-4e79-911e-5f0b6de1cbe1","system_id":"levelo_inurba_marseille","lat":43.31219,"lon":5.36879,"is_reserved":false,"is_disabled":false,"rental_uris":{"android":"levelo://app?vid=25750603-5d85-4e79-911e-5f0b6de1cbe1","ios":"levelo://app?vid=25750603-5d85-4e79-911e-5f0b6de1cbe1"},"vehicle_type_id":"4","last_reported":1693044360,"current_range_meters":9200,"station_id":"ce4bgl92rcd13ifvqbq0","pricing_plan_id":"free"},{"bike_id":"e14ec9d5-d5cf-414c-848b-61b46f36236c","system_id":"levelo_inurba_marseille","lat":43.309076,"lon":5.368465,"is_reserved":false,"is_disabled":false,"rental_uris":{"android":"levelo://app?vid=e14ec9d5-d5cf-414c-848b-61b46f36236c","ios":"levelo://app?vid=e14ec9d5-d5cf-414c-848b-61b46f36236c"},"vehicle_type_id":"4","last_reported":1693044360,"current_range_meters":20400,"station_id":"ce4bgn92rcd13ifvqbvg","pricing_plan_id":"free"},{"bike_id":"e3c4aad0-7b99-4a09-ad94-863437ff0df5","system_id":"levelo_inurba_marseille","lat":43.31402,"lon":5.37255,"is_reserved":false,"is_disabled":false,"rental_uris":{"android":"levelo://app?vid=e3c4aad0-7b99-4a09-ad94-863437ff0df5","ios":"levelo://app?vid=e3c4aad0-7b99-4a09-ad94-863437ff0df5"},"vehicle_type_id":"4","last_reported":1693044360,"current_range_meters":9200,"station_id":"","pricing_plan_id":"free"},{"bike_id":"d2be997d-44d2-40a5-bb20-02aeaaf65fa5","system_id":"levelo_inurba_marseille","lat":43.314811,"lon":5.373103,"is_reserved":false,"is_disabled":false,"rental_uris":{"android":"levelo://app?vid=d2be997d-44d2-40a5-bb20-02aeaaf65fa5","ios":"levelo://app?vid=d2be997d-44d2-40a5-bb20-02aeaaf65fa5"},"vehicle_type_id":"4","last_reported":1693044360,"current_range_meters":31200,"station_id":"ce4bgt12rcd13ifvqcd0","pricing_plan_id":"free"},{"bike_id":"1dea0c27-1839-4328-9a31-4d03283e05a5","system_id":"levelo_inurba_marseille","lat":43.314811,"lon":5.373103,"is_reserved":false,"is_disabled":false,"rental_uris":{"android":"levelo://app?vid=1dea0c27-1839-4328-9a31-4d03283e05a5","ios":"levelo://app?vid=1dea0c27-1839-4328-9a31-4d03283e05a5"},"vehicle_type_id":"4","last_reported":1693044360,"current_range_meters":26800,"station_id":"ce4bgt12rcd13ifvqcd0","pricing_plan_id":"free"},{"bike_id":"18ca499c-c5ed-4f9a-abe3-3185707d9bf8","system_id":"levelo_inurba_marseille","lat":43.305712,"lon":5.365641,"is_reserved":false,"is_disabled":false,"rental_uris":{"android":"levelo://app?vid=18ca499c-c5ed-4f9a-abe3-3185707d9bf8","ios":"levelo://app?vid=18ca499c-c5ed-4f9a-abe3-3185707d9bf8"},"vehicle_type_id":"4","last_reported":1693044360,"current_range_meters":5200,"station_id":"ce4bgs12rcd13ifvqcag","pricing_plan_id":"free"},{"bike_id":"2d09fa01-1c26-45be-9128-93aac1a3c90b","system_id":"levelo_inurba_marseille","lat":43.305489,"lon":5.365578,"is_reserved":false,"is_disabled":false,"rental_uris":{"android":"levelo://app?vid=2d09fa01-1c26-45be-9128-93aac1a3c90b","ios":"levelo://app?vid=2d09fa01-1c26-45be-9128-93aac1a3c90b"},"vehicle_type_id":"4","last_reported":1693044360,"current_range_meters":20800,"station_id":"ce4bgs12rcd13ifvqcag","pricing_plan_id":"free"},{"bike_id":"9b3eb33d-9ee8-47ed-b6a5-a98ae4c3ad2f","system_id":"levelo_inurba_marseille","lat":43.30539,"lon":5.36709,"is_reserved":false,"is_disabled":false,"rental_uris":{"android":"levelo://app?vid=9b3eb33d-9ee8-47ed-b6a5-a98ae4c3ad2f","ios":"levelo://app?vid=9b3eb33d-9ee8-47ed-b6a5-a98ae4c3ad2f"},"vehicle_type_id":"4","last_reported":1693044360,"current_range_meters":26800,"station_id":"ce4bgrp2rcd13ifvqc9g","pricing_plan_id":"free"},{"bike_id":"552ba3e5-68ac-4246-8644-edffb5dce737","system_id":"levelo_inurba_marseille","lat":43.30535,"lon":5.36693,"is_reserved":false,"is_disabled":false,"rental_uris":{"android":"levelo://app?vid=552ba3e5-68ac-4246-8644-edffb5dce737","ios":"levelo://app?vid=552ba3e5-68ac-4246-8644-edffb5dce737"},"vehicle_type_id":"4","last_reported":1693044360,"current_range_meters":16000,"station_id":"ce4bgrp2rcd13ifvqc9g","pricing_plan_id":"free"},{"bike_id":"85e2371f-5540-420a-95d9-d6aad4461061","system_id":"levelo_inurba_marseille","lat":43.305714,"lon":5.365633,"is_reserved":false,"is_disabled":false,"rental_uris":{"android":"levelo://app?vid=85e2371f-5540-420a-95d9-d6aad4461061","ios":"levelo://app?vid=85e2371f-5540-420a-95d9-d6aad4461061"},"vehicle_type_id":"4","last_reported":1693044360,"current_range_meters":22800,"station_id":"ce4bgs12rcd13ifvqcag","pricing_plan_id":"free"},{"bike_id":"269d7fa9-95fe-4250-8734-f86ea3959d80","system_id":"levelo_inurba_marseille","lat":43.30535,"lon":5.36546,"is_reserved":false,"is_disabled":false,"rental_uris":{"android":"levelo://app?vid=269d7fa9-95fe-4250-8734-f86ea3959d80","ios":"levelo://app?vid=269d7fa9-95fe-4250-8734-f86ea3959d80"},"vehicle_type_id":"4","last_reported":1693044360,"current_range_meters":31200,"station_id":"ce4bgs12rcd13ifvqcag","pricing_plan_id":"free"},{"bike_id":"4030450c-3efa-4b5a-9fe5-cec4a6eb86b1","system_id":"levelo_inurba_marseille","lat":43.306131,"lon":5.372365,"is_reserved":false,"is_disabled":false,"rental_uris":{"android":"levelo://app?vid=4030450c-3efa-4b5a-9fe5-cec4a6eb86b1","ios":"levelo://app?vid=4030450c-3efa-4b5a-9fe5-cec4a6eb86b1"},"vehicle_type_id":"4","last_reported":1693044360,"current_range_meters":27200,"station_id":"ce4bgqh2rcd13ifvqc4g","pricing_plan_id":"free"},{"bike_id":"a07172c9-4196-4508-904a-6d5b4822b9e4","system_id":"levelo_inurba_marseille","lat":43.311125,"lon":5.377624,"is_reserved":false,"is_disabled":false,"rental_uris":{"android":"levelo://app?vid=a07172c9-4196-4508-904a-6d5b4822b9e4","ios":"levelo://app?vid=a07172c9-4196-4508-904a-6d5b4822b9e4"},"vehicle_type_id":"4","last_reported":1693044360,"current_range_meters":20000,"station_id":"ce4bgt92rcd13ifvqcg0","pricing_plan_id":"free"},{"bike_id":"3e43159f-42fa-4b72-9034-b1c47534ddeb","system_id":"levelo_inurba_marseille","lat":43.30304,"lon":5.368987,"is_reserved":false,"is_disabled":false,"rental_uris":{"android":"levelo://app?vid=3e43159f-42fa-4b72-9034-b1c47534ddeb","ios":"levelo://app?vid=3e43159f-42fa-4b72-9034-b1c47534ddeb"},"vehicle_type_id":"4","last_reported":1693044360,"current_range_meters":18000,"station_id":"ce4bgqh2rcd13ifvqc5g","pricing_plan_id":"free"},{"bike_id":"86a888e4-6839-439f-bb02-3f2f8c352573","system_id":"levelo_inurba_marseille","lat":43.31527,"lon":5.38035,"is_reserved":false,"is_disabled":false,"rental_uris":{"android":"levelo://app?vid=86a888e4-6839-439f-bb02-3f2f8c352573","ios":"levelo://app?vid=86a888e4-6839-439f-bb02-3f2f8c352573"},"vehicle_type_id":"4","last_reported":1693044360,"current_range_meters":18400,"station_id":"ce4bhsp2rcd13ifvqi50","pricing_plan_id":"free"},{"bike_id":"dd6e0f01-b9fe-4d80-8a11-068e21cb2d23","system_id":"levelo_inurba_marseille","lat":43.315293,"lon":5.380349,"is_reserved":false,"is_disabled":false,"rental_uris":{"android":"levelo://app?vid=dd6e0f01-b9fe-4d80-8a11-068e21cb2d23","ios":"levelo://app?vid=dd6e0f01-b9fe-4d80-8a11-068e21cb2d23"},"vehicle_type_id":"4","last_reported":1693044360,"current_range_meters":22000,"station_id":"ce4bhsp2rcd13ifvqi50","pricing_plan_id":"free"},{"bike_id":"d732eed9-e3d9-483c-b5d5-ea5c2b438a39","system_id":"levelo_inurba_marseille","lat":43.315293,"lon":5.380349,"is_reserved":false,"is_disabled":false,"rental_uris":{"android":"levelo://app?vid=d732eed9-e3d9-483c-b5d5-ea5c2b438a39","ios":"levelo://app?vid=d732eed9-e3d9-483c-b5d5-ea5c2b438a39"},"vehicle_type_id":"4","last_reported":1693044360,"current_range_meters":31200,"station_id":"ce4bhsp2rcd13ifvqi50","pricing_plan_id":"free"},{"bike_id":"64c5d631-5e66-4530-819d-44719b516a7e","system_id":"levelo_inurba_marseille","lat":43.301835,"lon":5.366087,"is_reserved":false,"is_disabled":false,"rental_uris":{"android":"levelo://app?vid=64c5d631-5e66-4530-819d-44719b516a7e","ios":"levelo://app?vid=64c5d631-5e66-4530-819d-44719b516a7e"},"vehicle_type_id":"4","last_reported":1693044360,"current_range_meters":31200,"station_id":"ce4bgrh2rcd13ifvqc8g","pricing_plan_id":"free"},{"bike_id":"13784a4a-8a00-41d0-aa90-6c0494af843a","system_id":"levelo_inurba_marseille","lat":43.301939,"lon":5.366286,"is_reserved":false,"is_disabled":false,"rental_uris":{"android":"levelo://app?vid=13784a4a-8a00-41d0-aa90-6c0494af843a","ios":"levelo://app?vid=13784a4a-8a00-41d0-aa90-6c0494af843a"},"vehicle_type_id":"4","last_reported":1693044360,"current_range_meters":22000,"station_id":"ce4bgrh2rcd13ifvqc8g","pricing_plan_id":"free"},{"bike_id":"484a4b0b-508a-46aa-86b7-1a969fcd9af6","system_id":"levelo_inurba_marseille","lat":43.30476,"lon":5.37905,"is_reserved":false,"is_disabled":false,"rental_uris":{"android":"levelo://app?vid=484a4b0b-508a-46aa-86b7-1a969fcd9af6","ios":"levelo://app?vid=484a4b0b-508a-46aa-86b7-1a969fcd9af6"},"vehicle_type_id":"4","last_reported":1693044360,"current_range_meters":14400,"station_id":"ce4bgup2rcd13ifvqcn0","pricing_plan_id":"free"},{"bike_id":"653d65b0-c0dc-4666-9cf5-cb25d9a2b279","system_id":"levelo_inurba_marseille","lat":43.304606,"lon":5.379026,"is_reserved":false,"is_disabled":false,"rental_uris":{"android":"levelo://app?vid=653d65b0-c0dc-4666-9cf5-cb25d9a2b279","ios":"levelo://app?vid=653d65b0-c0dc-4666-9cf5-cb25d9a2b279"},"vehicle_type_id":"4","last_reported":1693044360,"current_range_meters":31600,"station_id":"ce4bgup2rcd13ifvqcn0","pricing_plan_id":"free"},{"bike_id":"7ec93667-05b3-4819-a26b-ef508078e93c","system_id":"levelo_inurba_marseille","lat":43.304606,"lon":5.379026,"is_reserved":false,"is_disabled":false,"rental_uris":{"android":"levelo://app?vid=7ec93667-05b3-4819-a26b-ef508078e93c","ios":"levelo://app?vid=7ec93667-05b3-4819-a26b-ef508078e93c"},"vehicle_type_id":"4","last_reported":1693044360,"current_range_meters":29600,"station_id":"ce4bgup2rcd13ifvqcn0","pricing_plan_id":"free"},{"bike_id":"3aa6221e-ce52-4b89-a385-3f2250624aef","system_id":"levelo_inurba_marseille","lat":43.304606,"lon":5.379026,"is_reserved":false,"is_disabled":false,"rental_uris":{"android":"levelo://app?vid=3aa6221e-ce52-4b89-a385-3f2250624aef","ios":"levelo://app?vid=3aa6221e-ce52-4b89-a385-3f2250624aef"},"vehicle_type_id":"4","last_reported":1693044360,"current_range_meters":31600,"station_id":"ce4bgup2rcd13ifvqcn0","pricing_plan_id":"free"},{"bike_id":"b69a09e8-57d7-4899-aa4d-05fc91c5c1fb","system_id":"levelo_inurba_marseille","lat":43.304606,"lon":5.379026,"is_reserved":false,"is_disabled":false,"rental_uris":{"android":"levelo://app?vid=b69a09e8-57d7-4899-aa4d-05fc91c5c1fb","ios":"levelo://app?vid=b69a09e8-57d7-4899-aa4d-05fc91c5c1fb"},"vehicle_type_id":"4","last_reported":1693044360,"current_range_meters":24800,"station_id":"ce4bgup2rcd13ifvqcn0","pricing_plan_id":"free"},{"bike_id":"73ce547d-5ac6-4c63-8d5d-b6aca1fd6977","system_id":"levelo_inurba_marseille","lat":43.304606,"lon":5.379026,"is_reserved":false,"is_disabled":false,"rental_uris":{"android":"levelo://app?vid=73ce547d-5ac6-4c63-8d5d-b6aca1fd6977","ios":"levelo://app?vid=73ce547d-5ac6-4c63-8d5d-b6aca1fd6977"},"vehicle_type_id":"4","last_reported":1693044360,"current_range_meters":31200,"station_id":"ce4bgup2rcd13ifvqcn0","pricing_plan_id":"free"},{"bike_id":"c026a056-8cae-4684-b6c4-c37d3d09473a","system_id":"levelo_inurba_marseille","lat":43.304606,"lon":5.379026,"is_reserved":false,"is_disabled":false,"rental_uris":{"android":"levelo://app?vid=c026a056-8cae-4684-b6c4-c37d3d09473a","ios":"levelo://app?vid=c026a056-8cae-4684-b6c4-c37d3d09473a"},"vehicle_type_id":"4","last_reported":1693044360,"current_range_meters":13200,"station_id":"ce4bgup2rcd13ifvqcn0","pricing_plan_id":"free"},{"bike_id":"ca32b152-30d5-4569-9105-ab064953b7e8","system_id":"levelo_inurba_marseille","lat":43.304606,"lon":5.379026,"is_reserved":false,"is_disabled":false,"rental_uris":{"android":"levelo://app?vid=ca32b152-30d5-4569-9105-ab064953b7e8","ios":"levelo://app?vid=ca32b152-30d5-4569-9105-ab064953b7e8"},"vehicle_type_id":"4","last_reported":1693044360,"current_range_meters":31200,"station_id":"ce4bgup2rcd13ifvqcn0","pricing_plan_id":"free"},{"bike_id":"25d0e0fb-d66a-4715-a2d8-f8501aa2b290","system_id":"levelo_inurba_marseille","lat":43.304606,"lon":5.379026,"is_reserved":false,"is_disabled":false,"rental_uris":{"android":"levelo://app?vid=25d0e0fb-d66a-4715-a2d8-f8501aa2b290","ios":"levelo://app?vid=25d0e0fb-d66a-4715-a2d8-f8501aa2b290"},"vehicle_type_id":"4","last_reported":1693044360,"current_range_meters":31600,"station_id":"ce4bgup2rcd13ifvqcn0","pricing_plan_id":"free"},{"bike_id":"45950b0b-b495-4fb7-b28b-fadb1a10b5f4","system_id":"levelo_inurba_marseille","lat":43.304606,"lon":5.379026,"is_reserved":false,"is_disabled":false,"rental_uris":{"android":"levelo://app?vid=45950b0b-b495-4fb7-b28b-fadb1a10b5f4","ios":"levelo://app?vid=45950b0b-b495-4fb7-b28b-fadb1a10b5f4"},"vehicle_type_id":"4","last_reported":1693044360,"current_range_meters":31200,"station_id":"ce4bgup2rcd13ifvqcn0","pricing_plan_id":"free"},{"bike_id":"2da4a174-f4d2-4a32-9c94-67a876f323b0","system_id":"levelo_inurba_marseille","lat":43.304606,"lon":5.379026,"is_reserved":false,"is_disabled":false,"rental_uris":{"android":"levelo://app?vid=2da4a174-f4d2-4a32-9c94-67a876f323b0","ios":"levelo://app?vid=2da4a174-f4d2-4a32-9c94-67a876f323b0"},"vehicle_type_id":"4","last_reported":1693044360,"current_range_meters":31200,"station_id":"ce4bgup2rcd13ifvqcn0","pricing_plan_id":"free"},{"bike_id":"83bf2feb-a6d7-4f83-9411-c11fef41df48","system_id":"levelo_inurba_marseille","lat":43.30462,"lon":5.37905,"is_reserved":false,"is_disabled":false,"rental_uris":{"android":"levelo://app?vid=83bf2feb-a6d7-4f83-9411-c11fef41df48","ios":"levelo://app?vid=83bf2feb-a6d7-4f83-9411-c11fef41df48"},"vehicle_type_id":"4","last_reported":1693044360,"current_range_meters":17600,"station_id":"ce4bgup2rcd13ifvqcn0","pricing_plan_id":"free"},{"bike_id":"c118604a-40bb-48fb-9b48-6e24e7da47ce","system_id":"levelo_inurba_marseille","lat":43.30459,"lon":5.37902,"is_reserved":false,"is_disabled":false,"rental_uris":{"android":"levelo://app?vid=c118604a-40bb-48fb-9b48-6e24e7da47ce","ios":"levelo://app?vid=c118604a-40bb-48fb-9b48-6e24e7da47ce"},"vehicle_type_id":"4","last_reported":1693044360,"current_range_meters":26000,"station_id":"ce4bgup2rcd13ifvqcn0","pricing_plan_id":"free"},{"bike_id":"988fca20-331b-435c-81be-93e19a147053","system_id":"levelo_inurba_marseille","lat":43.304606,"lon":5.379026,"is_reserved":false,"is_disabled":false,"rental_uris":{"android":"levelo://app?vid=988fca20-331b-435c-81be-93e19a147053","ios":"levelo://app?vid=988fca20-331b-435c-81be-93e19a147053"},"vehicle_type_id":"4","last_reported":1693044360,"current_range_meters":32000,"station_id":"ce4bgup2rcd13ifvqcn0","pricing_plan_id":"free"},{"bike_id":"1f06e49d-0442-407c-b853-741a8f131382","system_id":"levelo_inurba_marseille","lat":43.304606,"lon":5.379026,"is_reserved":false,"is_disabled":false,"rental_uris":{"android":"levelo://app?vid=1f06e49d-0442-407c-b853-741a8f131382","ios":"levelo://app?vid=1f06e49d-0442-407c-b853-741a8f131382"},"vehicle_type_id":"4","last_reported":1693044360,"current_range_meters":31200,"station_id":"ce4bgup2rcd13ifvqcn0","pricing_plan_id":"free"},{"bike_id":"629b84d9-95c3-4f53-90ac-7f16b18e3e53","system_id":"levelo_inurba_marseille","lat":43.304606,"lon":5.379026,"is_reserved":false,"is_disabled":false,"rental_uris":{"android":"levelo://app?vid=629b84d9-95c3-4f53-90ac-7f16b18e3e53","ios":"levelo://app?vid=629b84d9-95c3-4f53-90ac-7f16b18e3e53"},"vehicle_type_id":"4","last_reported":1693044360,"current_range_meters":26400,"station_id":"ce4bgup2rcd13ifvqcn0","pricing_plan_id":"free"},{"bike_id":"7cf42f96-4043-485d-a0d4-1abc5c11f92a","system_id":"levelo_inurba_marseille","lat":43.304606,"lon":5.379026,"is_reserved":false,"is_disabled":false,"rental_uris":{"android":"levelo://app?vid=7cf42f96-4043-485d-a0d4-1abc5c11f92a","ios":"levelo://app?vid=7cf42f96-4043-485d-a0d4-1abc5c11f92a"},"vehicle_type_id":"4","last_reported":1693044360,"current_range_meters":22400,"station_id":"ce4bgup2rcd13ifvqcn0","pricing_plan_id":"free"},{"bike_id":"7f3223a0-dbe2-40ec-9652-4264252e4e74","system_id":"levelo_inurba_marseille","lat":43.304606,"lon":5.379026,"is_reserved":false,"is_disabled":false,"rental_uris":{"android":"levelo://app?vid=7f3223a0-dbe2-40ec-9652-4264252e4e74","ios":"levelo://app?vid=7f3223a0-dbe2-40ec-9652-4264252e4e74"},"vehicle_type_id":"4","last_reported":1693044360,"current_range_meters":31600,"station_id":"ce4bgup2rcd13ifvqcn0","pricing_plan_id":"free"},{"bike_id":"93a4d4c7-06d9-4bd8-b9c1-d058c74393e8","system_id":"levelo_inurba_marseille","lat":43.304606,"lon":5.379026,"is_reserved":false,"is_disabled":false,"rental_uris":{"android":"levelo://app?vid=93a4d4c7-06d9-4bd8-b9c1-d058c74393e8","ios":"levelo://app?vid=93a4d4c7-06d9-4bd8-b9c1-d058c74393e8"},"vehicle_type_id":"4","last_reported":1693044360,"current_range_meters":24400,"station_id":"ce4bgup2rcd13ifvqcn0","pricing_plan_id":"free"},{"bike_id":"e3116188-6e52-4226-9322-fa8298491331","system_id":"levelo_inurba_marseille","lat":43.302784,"lon":5.377158,"is_reserved":false,"is_disabled":false,"rental_uris":{"android":"levelo://app?vid=e3116188-6e52-4226-9322-fa8298491331","ios":"levelo://app?vid=e3116188-6e52-4226-9322-fa8298491331"},"vehicle_type_id":"4","last_reported":1693044360,"current_range_meters":15200,"station_id":"ce4bguh2rcd13ifvqcj0","pricing_plan_id":"free"},{"bike_id":"59315421-0e57-476b-a9a1-5c76524c6e9c","system_id":"levelo_inurba_marseille","lat":43.302784,"lon":5.377158,"is_reserved":false,"is_disabled":false,"rental_uris":{"android":"levelo://app?vid=59315421-0e57-476b-a9a1-5c76524c6e9c","ios":"levelo://app?vid=59315421-0e57-476b-a9a1-5c76524c6e9c"},"vehicle_type_id":"4","last_reported":1693044360,"current_range_meters":30400,"station_id":"ce4bguh2rcd13ifvqcj0","pricing_plan_id":"free"},{"bike_id":"4bb30914-7ca5-4850-ad06-5a2762b81aa5","system_id":"levelo_inurba_marseille","lat":43.302784,"lon":5.377158,"is_reserved":false,"is_disabled":false,"rental_uris":{"android":"levelo://app?vid=4bb30914-7ca5-4850-ad06-5a2762b81aa5","ios":"levelo://app?vid=4bb30914-7ca5-4850-ad06-5a2762b81aa5"},"vehicle_type_id":"4","last_reported":1693044360,"current_range_meters":31600,"station_id":"ce4bguh2rcd13ifvqcj0","pricing_plan_id":"free"},{"bike_id":"887ba86a-9742-4793-aee7-d7bb5284e94f","system_id":"levelo_inurba_marseille","lat":43.302784,"lon":5.377158,"is_reserved":false,"is_disabled":false,"rental_uris":{"android":"levelo://app?vid=887ba86a-9742-4793-aee7-d7bb5284e94f","ios":"levelo://app?vid=887ba86a-9742-4793-aee7-d7bb5284e94f"},"vehicle_type_id":"4","last_reported":1693044360,"current_range_meters":27200,"station_id":"ce4bguh2rcd13ifvqcj0","pricing_plan_id":"free"},{"bike_id":"2863e736-ee89-4d65-a41a-47b9db7de000","system_id":"levelo_inurba_marseille","lat":43.302784,"lon":5.377158,"is_reserved":false,"is_disabled":false,"rental_uris":{"android":"levelo://app?vid=2863e736-ee89-4d65-a41a-47b9db7de000","ios":"levelo://app?vid=2863e736-ee89-4d65-a41a-47b9db7de000"},"vehicle_type_id":"4","last_reported":1693044360,"current_range_meters":21200,"station_id":"ce4bguh2rcd13ifvqcj0","pricing_plan_id":"free"},{"bike_id":"d3613e71-aa23-4c38-a31d-6defd07f8659","system_id":"levelo_inurba_marseille","lat":43.299411,"lon":5.365614,"is_reserved":false,"is_disabled":false,"rental_uris":{"android":"levelo://app?vid=d3613e71-aa23-4c38-a31d-6defd07f8659","ios":"levelo://app?vid=d3613e71-aa23-4c38-a31d-6defd07f8659"},"vehicle_type_id":"4","last_reported":1693044360,"current_range_meters":16000,"station_id":"","pricing_plan_id":"free"},{"bike_id":"eb1cde00-afbc-421e-93dd-c2081bc44363","system_id":"levelo_inurba_marseille","lat":43.29982,"lon":5.37183,"is_reserved":false,"is_disabled":false,"rental_uris":{"android":"levelo://app?vid=eb1cde00-afbc-421e-93dd-c2081bc44363","ios":"levelo://app?vid=eb1cde00-afbc-421e-93dd-c2081bc44363"},"vehicle_type_id":"4","last_reported":1693044360,"current_range_meters":20400,"station_id":"ce4bgr92rcd13ifvqc7g","pricing_plan_id":"free"},{"bike_id":"ea628102-f413-4421-a451-01c3055a1ca3","system_id":"levelo_inurba_marseille","lat":43.305364,"lon":5.384119,"is_reserved":false,"is_disabled":false,"rental_uris":{"android":"levelo://app?vid=ea628102-f413-4421-a451-01c3055a1ca3","ios":"levelo://app?vid=ea628102-f413-4421-a451-01c3055a1ca3"},"vehicle_type_id":"4","last_reported":1693044360,"current_range_meters":23600,"station_id":"ce4bgg92rcd13ifvqb30","pricing_plan_id":"free"},{"bike_id":"646b7941-3e27-4625-bfe4-260968d73818","system_id":"levelo_inurba_marseille","lat":43.305364,"lon":5.384119,"is_reserved":false,"is_disabled":false,"rental_uris":{"android":"levelo://app?vid=646b7941-3e27-4625-bfe4-260968d73818","ios":"levelo://app?vid=646b7941-3e27-4625-bfe4-260968d73818"},"vehicle_type_id":"4","last_reported":1693044360,"current_range_meters":11200,"station_id":"ce4bgg92rcd13ifvqb30","pricing_plan_id":"free"},{"bike_id":"ddca67ea-8049-446b-846e-495b9603c6e7","system_id":"levelo_inurba_marseille","lat":43.299243,"lon":5.37481,"is_reserved":false,"is_disabled":false,"rental_uris":{"android":"levelo://app?vid=ddca67ea-8049-446b-846e-495b9603c6e7","ios":"levelo://app?vid=ddca67ea-8049-446b-846e-495b9603c6e7"},"vehicle_type_id":"4","last_reported":1693044360,"current_range_meters":30800,"station_id":"ce4bgjh2rcd13ifvqbg0","pricing_plan_id":"free"},{"bike_id":"1a821393-4587-4af5-98cc-aa4471943463","system_id":"levelo_inurba_marseille","lat":43.298433,"lon":5.362774,"is_reserved":false,"is_disabled":false,"rental_uris":{"android":"levelo://app?vid=1a821393-4587-4af5-98cc-aa4471943463","ios":"levelo://app?vid=1a821393-4587-4af5-98cc-aa4471943463"},"vehicle_type_id":"4","last_reported":1693044360,"current_range_meters":31200,"station_id":"ce4bgpp2rcd13ifvqc3g","pricing_plan_id":"free"},{"bike_id":"41edb59a-e53f-434f-9d7a-edbe57f5a425","system_id":"levelo_inurba_marseille","lat":43.298433,"lon":5.362774,"is_reserved":false,"is_disabled":false,"rental_uris":{"android":"levelo://app?vid=41edb59a-e53f-434f-9d7a-edbe57f5a425","ios":"levelo://app?vid=41edb59a-e53f-434f-9d7a-edbe57f5a425"},"vehicle_type_id":"4","last_reported":1693044360,"current_range_meters":23600,"station_id":"ce4bgpp2rcd13ifvqc3g","pricing_plan_id":"free"},{"bike_id":"d33833fc-1832-4a43-8c70-5bbddc275d7d","system_id":"levelo_inurba_marseille","lat":43.29911,"lon":5.37472,"is_reserved":false,"is_disabled":false,"rental_uris":{"android":"levelo://app?vid=d33833fc-1832-4a43-8c70-5bbddc275d7d","ios":"levelo://app?vid=d33833fc-1832-4a43-8c70-5bbddc275d7d"},"vehicle_type_id":"4","last_reported":1693044360,"current_range_meters":31200,"station_id":"ce4bgjh2rcd13ifvqbg0","pricing_plan_id":"free"},{"bike_id":"2f9e2def-2173-4eb4-a460-9a385f59debe","system_id":"levelo_inurba_marseille","lat":43.299243,"lon":5.37481,"is_reserved":false,"is_disabled":false,"rental_uris":{"android":"levelo://app?vid=2f9e2def-2173-4eb4-a460-9a385f59debe","ios":"levelo://app?vid=2f9e2def-2173-4eb4-a460-9a385f59debe"},"vehicle_type_id":"4","last_reported":1693044360,"current_range_meters":31200,"station_id":"ce4bgjh2rcd13ifvqbg0","pricing_plan_id":"free"},{"bike_id":"74bb8e6c-4d66-4dad-992e-bd7bea15b2f1","system_id":"levelo_inurba_marseille","lat":43.311648,"lon":5.387257,"is_reserved":false,"is_disabled":false,"rental_uris":{"android":"levelo://app?vid=74bb8e6c-4d66-4dad-992e-bd7bea15b2f1","ios":"levelo://app?vid=74bb8e6c-4d66-4dad-992e-bd7bea15b2f1"},"vehicle_type_id":"4","last_reported":1693044360,"current_range_meters":0,"station_id":"ce4bgv12rcd13ifvqcp0","pricing_plan_id":"free"},{"bike_id":"35eec3a1-aa54-4990-8eb4-78e6c0dd24d0","system_id":"levelo_inurba_marseille","lat":43.299243,"lon":5.374807,"is_reserved":false,"is_disabled":false,"rental_uris":{"android":"levelo://app?vid=35eec3a1-aa54-4990-8eb4-78e6c0dd24d0","ios":"levelo://app?vid=35eec3a1-aa54-4990-8eb4-78e6c0dd24d0"},"vehicle_type_id":"4","last_reported":1693044360,"current_range_meters":29600,"station_id":"ce4bgjh2rcd13ifvqbg0","pricing_plan_id":"free"},{"bike_id":"698d3f9a-637e-4a55-af61-2db61b16ce05","system_id":"levelo_inurba_marseille","lat":43.297774,"lon":5.370875,"is_reserved":false,"is_disabled":false,"rental_uris":{"android":"levelo://app?vid=698d3f9a-637e-4a55-af61-2db61b16ce05","ios":"levelo://app?vid=698d3f9a-637e-4a55-af61-2db61b16ce05"},"vehicle_type_id":"4","last_reported":1693044360,"current_range_meters":5600,"station_id":"ce4bgop2rcd13ifvqc1g","pricing_plan_id":"free"},{"bike_id":"ff13a729-a3be-460c-91c8-08b0c45017da","system_id":"levelo_inurba_marseille","lat":43.3282,"lon":5.36684,"is_reserved":false,"is_disabled":false,"rental_uris":{"android":"levelo://app?vid=ff13a729-a3be-460c-91c8-08b0c45017da","ios":"levelo://app?vid=ff13a729-a3be-460c-91c8-08b0c45017da"},"vehicle_type_id":"4","last_reported":1693044360,"current_range_meters":25600,"station_id":"ce4bhs92rcd13ifvqi0g","pricing_plan_id":"free"},{"bike_id":"68586394-f91a-426a-b749-687244ad71e7","system_id":"levelo_inurba_marseille","lat":43.328371,"lon":5.366909,"is_reserved":false,"is_disabled":false,"rental_uris":{"android":"levelo://app?vid=68586394-f91a-426a-b749-687244ad71e7","ios":"levelo://app?vid=68586394-f91a-426a-b749-687244ad71e7"},"vehicle_type_id":"4","last_reported":1693044360,"current_range_meters":26800,"station_id":"ce4bhs92rcd13ifvqi0g","pricing_plan_id":"free"},{"bike_id":"cd446b24-0605-47e8-a42c-868f9f929a8b","system_id":"levelo_inurba_marseille","lat":43.32822,"lon":5.3667,"is_reserved":false,"is_disabled":false,"rental_uris":{"android":"levelo://app?vid=cd446b24-0605-47e8-a42c-868f9f929a8b","ios":"levelo://app?vid=cd446b24-0605-47e8-a42c-868f9f929a8b"},"vehicle_type_id":"4","last_reported":1693044360,"current_range_meters":11600,"station_id":"ce4bhs92rcd13ifvqi0g","pricing_plan_id":"free"},{"bike_id":"af3c4ca4-7799-495c-8104-f6474edf014b","system_id":"levelo_inurba_marseille","lat":43.32823,"lon":5.36685,"is_reserved":false,"is_disabled":false,"rental_uris":{"android":"levelo://app?vid=af3c4ca4-7799-495c-8104-f6474edf014b","ios":"levelo://app?vid=af3c4ca4-7799-495c-8104-f6474edf014b"},"vehicle_type_id":"4","last_reported":1693044360,"current_range_meters":24800,"station_id":"ce4bhs92rcd13ifvqi0g","pricing_plan_id":"free"},{"bike_id":"7713fce6-61f5-48dd-a139-0a91fcbcc973","system_id":"levelo_inurba_marseille","lat":43.328371,"lon":5.366909,"is_reserved":false,"is_disabled":false,"rental_uris":{"android":"levelo://app?vid=7713fce6-61f5-48dd-a139-0a91fcbcc973","ios":"levelo://app?vid=7713fce6-61f5-48dd-a139-0a91fcbcc973"},"vehicle_type_id":"4","last_reported":1693044360,"current_range_meters":3200,"station_id":"ce4bhs92rcd13ifvqi0g","pricing_plan_id":"free"},{"bike_id":"a619eb84-5645-4729-933a-7451ede5da1f","system_id":"levelo_inurba_marseille","lat":43.32826,"lon":5.36675,"is_reserved":false,"is_disabled":false,"rental_uris":{"android":"levelo://app?vid=a619eb84-5645-4729-933a-7451ede5da1f","ios":"levelo://app?vid=a619eb84-5645-4729-933a-7451ede5da1f"},"vehicle_type_id":"4","last_reported":1693044360,"current_range_meters":0,"station_id":"ce4bhs92rcd13ifvqi0g","pricing_plan_id":"free"},{"bike_id":"2ddc5d1c-4a62-4d0b-b125-a6c57642f6bb","system_id":"levelo_inurba_marseille","lat":43.328371,"lon":5.366909,"is_reserved":false,"is_disabled":false,"rental_uris":{"android":"levelo://app?vid=2ddc5d1c-4a62-4d0b-b125-a6c57642f6bb","ios":"levelo://app?vid=2ddc5d1c-4a62-4d0b-b125-a6c57642f6bb"},"vehicle_type_id":"4","last_reported":1693044360,"current_range_meters":27200,"station_id":"ce4bhs92rcd13ifvqi0g","pricing_plan_id":"free"},{"bike_id":"de38cd29-7482-42fd-acae-359271fd06ec","system_id":"levelo_inurba_marseille","lat":43.32827,"lon":5.36676,"is_reserved":false,"is_disabled":false,"rental_uris":{"android":"levelo://app?vid=de38cd29-7482-42fd-acae-359271fd06ec","ios":"levelo://app?vid=de38cd29-7482-42fd-acae-359271fd06ec"},"vehicle_type_id":"4","last_reported":1693044360,"current_range_meters":18400,"station_id":"ce4bhs92rcd13ifvqi0g","pricing_plan_id":"free"},{"bike_id":"ef00f862-a014-448e-a272-2d8aeebbd1fb","system_id":"levelo_inurba_marseille","lat":43.32828,"lon":5.36685,"is_reserved":false,"is_disabled":false,"rental_uris":{"android":"levelo://app?vid=ef00f862-a014-448e-a272-2d8aeebbd1fb","ios":"levelo://app?vid=ef00f862-a014-448e-a272-2d8aeebbd1fb"},"vehicle_type_id":"4","last_reported":1693044360,"current_range_meters":17200,"station_id":"ce4bhs92rcd13ifvqi0g","pricing_plan_id":"free"},{"bike_id":"88dd6925-52f3-4ca8-b806-f16b4ecdf8a1","system_id":"levelo_inurba_marseille","lat":43.32828,"lon":5.36677,"is_reserved":false,"is_disabled":false,"rental_uris":{"android":"levelo://app?vid=88dd6925-52f3-4ca8-b806-f16b4ecdf8a1","ios":"levelo://app?vid=88dd6925-52f3-4ca8-b806-f16b4ecdf8a1"},"vehicle_type_id":"4","last_reported":1693044360,"current_range_meters":28800,"station_id":"ce4bhs92rcd13ifvqi0g","pricing_plan_id":"free"},{"bike_id":"b2a6fc0b-fe04-43b7-8835-223f314ba282","system_id":"levelo_inurba_marseille","lat":43.32829,"lon":5.366933,"is_reserved":false,"is_disabled":false,"rental_uris":{"android":"levelo://app?vid=b2a6fc0b-fe04-43b7-8835-223f314ba282","ios":"levelo://app?vid=b2a6fc0b-fe04-43b7-8835-223f314ba282"},"vehicle_type_id":"4","last_reported":1693044360,"current_range_meters":19600,"station_id":"ce4bhs92rcd13ifvqi0g","pricing_plan_id":"free"},{"bike_id":"704c0286-52b4-4880-abba-175a138f0784","system_id":"levelo_inurba_marseille","lat":43.32831,"lon":5.36672,"is_reserved":false,"is_disabled":false,"rental_uris":{"android":"levelo://app?vid=704c0286-52b4-4880-abba-175a138f0784","ios":"levelo://app?vid=704c0286-52b4-4880-abba-175a138f0784"},"vehicle_type_id":"4","last_reported":1693044360,"current_range_meters":23600,"station_id":"ce4bhs92rcd13ifvqi0g","pricing_plan_id":"free"},{"bike_id":"dd789220-e7b5-42c1-b9dc-dc4243148021","system_id":"levelo_inurba_marseille","lat":43.297163,"lon":5.365866,"is_reserved":false,"is_disabled":false,"rental_uris":{"android":"levelo://app?vid=dd789220-e7b5-42c1-b9dc-dc4243148021","ios":"levelo://app?vid=dd789220-e7b5-42c1-b9dc-dc4243148021"},"vehicle_type_id":"4","last_reported":1693044360,"current_range_meters":31200,"station_id":"ce4bgn12rcd13ifvqbt0","pricing_plan_id":"free"},{"bike_id":"bd0bd295-6ecc-40c4-a4d0-89f645593756","system_id":"levelo_inurba_marseille","lat":43.297163,"lon":5.365866,"is_reserved":false,"is_disabled":false,"rental_uris":{"android":"levelo://app?vid=bd0bd295-6ecc-40c4-a4d0-89f645593756","ios":"levelo://app?vid=bd0bd295-6ecc-40c4-a4d0-89f645593756"},"vehicle_type_id":"4","last_reported":1693044360,"current_range_meters":21200,"station_id":"ce4bgn12rcd13ifvqbt0","pricing_plan_id":"free"},{"bike_id":"1487ceb7-c6f1-4cbb-972a-973c44a087ca","system_id":"levelo_inurba_marseille","lat":43.29591,"lon":5.36738,"is_reserved":false,"is_disabled":false,"rental_uris":{"android":"levelo://app?vid=1487ceb7-c6f1-4cbb-972a-973c44a087ca","ios":"levelo://app?vid=1487ceb7-c6f1-4cbb-972a-973c44a087ca"},"vehicle_type_id":"4","last_reported":1693044360,"current_range_meters":28000,"station_id":"","pricing_plan_id":"free"},{"bike_id":"4379b014-1c48-4664-8300-581ab586131b","system_id":"levelo_inurba_marseille","lat":43.29618,"lon":5.37148,"is_reserved":false,"is_disabled":false,"rental_uris":{"android":"levelo://app?vid=4379b014-1c48-4664-8300-581ab586131b","ios":"levelo://app?vid=4379b014-1c48-4664-8300-581ab586131b"},"vehicle_type_id":"4","last_reported":1693044360,"current_range_meters":1600,"station_id":"","pricing_plan_id":"free"},{"bike_id":"88c89130-856d-47a7-9033-0d64dd9d90bb","system_id":"levelo_inurba_marseille","lat":43.296131,"lon":5.370791,"is_reserved":false,"is_disabled":false,"rental_uris":{"android":"levelo://app?vid=88c89130-856d-47a7-9033-0d64dd9d90bb","ios":"levelo://app?vid=88c89130-856d-47a7-9033-0d64dd9d90bb"},"vehicle_type_id":"4","last_reported":1693044360,"current_range_meters":19600,"station_id":"ce4bgnh2rcd13ifvqc0g","pricing_plan_id":"free"},{"bike_id":"ab31a5fc-c12b-4bcf-8500-fbb9fffc82bb","system_id":"levelo_inurba_marseille","lat":43.296129,"lon":5.370777,"is_reserved":false,"is_disabled":false,"rental_uris":{"android":"levelo://app?vid=ab31a5fc-c12b-4bcf-8500-fbb9fffc82bb","ios":"levelo://app?vid=ab31a5fc-c12b-4bcf-8500-fbb9fffc82bb"},"vehicle_type_id":"4","last_reported":1693044360,"current_range_meters":30000,"station_id":"ce4bgnh2rcd13ifvqc0g","pricing_plan_id":"free"},{"bike_id":"f67d4550-c31e-4c51-9c97-51462e467944","system_id":"levelo_inurba_marseille","lat":43.29573,"lon":5.367355,"is_reserved":false,"is_disabled":false,"rental_uris":{"android":"levelo://app?vid=f67d4550-c31e-4c51-9c97-51462e467944","ios":"levelo://app?vid=f67d4550-c31e-4c51-9c97-51462e467944"},"vehicle_type_id":"4","last_reported":1693044360,"current_range_meters":22800,"station_id":"ce4bgph2rcd13ifvqc2g","pricing_plan_id":"free"},{"bike_id":"d3139180-8ba9-4c91-b6e4-8baae3c22113","system_id":"levelo_inurba_marseille","lat":43.296131,"lon":5.370791,"is_reserved":false,"is_disabled":false,"rental_uris":{"android":"levelo://app?vid=d3139180-8ba9-4c91-b6e4-8baae3c22113","ios":"levelo://app?vid=d3139180-8ba9-4c91-b6e4-8baae3c22113"},"vehicle_type_id":"4","last_reported":1693044360,"current_range_meters":31200,"station_id":"ce4bgnh2rcd13ifvqc0g","pricing_plan_id":"free"},{"bike_id":"faf6e054-08c1-49e2-a955-fb188a16f7c9","system_id":"levelo_inurba_marseille","lat":43.29573,"lon":5.367355,"is_reserved":false,"is_disabled":false,"rental_uris":{"android":"levelo://app?vid=faf6e054-08c1-49e2-a955-fb188a16f7c9","ios":"levelo://app?vid=faf6e054-08c1-49e2-a955-fb188a16f7c9"},"vehicle_type_id":"4","last_reported":1693044360,"current_range_meters":10000,"station_id":"ce4bgph2rcd13ifvqc2g","pricing_plan_id":"free"},{"bike_id":"65d934c8-ea94-404c-b991-a012f59c0b64","system_id":"levelo_inurba_marseille","lat":43.296129,"lon":5.370777,"is_reserved":false,"is_disabled":false,"rental_uris":{"android":"levelo://app?vid=65d934c8-ea94-404c-b991-a012f59c0b64","ios":"levelo://app?vid=65d934c8-ea94-404c-b991-a012f59c0b64"},"vehicle_type_id":"4","last_reported":1693044360,"current_range_meters":28000,"station_id":"ce4bgnh2rcd13ifvqc0g","pricing_plan_id":"free"},{"bike_id":"73039ee4-19e6-447f-a380-fdb656d062ad","system_id":"levelo_inurba_marseille","lat":43.296921,"lon":5.376579,"is_reserved":false,"is_disabled":false,"rental_uris":{"android":"levelo://app?vid=73039ee4-19e6-447f-a380-fdb656d062ad","ios":"levelo://app?vid=73039ee4-19e6-447f-a380-fdb656d062ad"},"vehicle_type_id":"4","last_reported":1693044360,"current_range_meters":9200,"station_id":"ce4bgkh2rcd13ifvqbl0","pricing_plan_id":"free"},{"bike_id":"ac1a4b97-44c3-42c2-997a-158402542301","system_id":"levelo_inurba_marseille","lat":43.299028,"lon":5.381509,"is_reserved":false,"is_disabled":false,"rental_uris":{"android":"levelo://app?vid=ac1a4b97-44c3-42c2-997a-158402542301","ios":"levelo://app?vid=ac1a4b97-44c3-42c2-997a-158402542301"},"vehicle_type_id":"4","last_reported":1693044360,"current_range_meters":28000,"station_id":"ce4bgj12rcd13ifvqbc0","pricing_plan_id":"free"},{"bike_id":"b7db2dc8-e493-427d-ae97-f27c67c106a3","system_id":"levelo_inurba_marseille","lat":43.296921,"lon":5.376579,"is_reserved":false,"is_disabled":false,"rental_uris":{"android":"levelo://app?vid=b7db2dc8-e493-427d-ae97-f27c67c106a3","ios":"levelo://app?vid=b7db2dc8-e493-427d-ae97-f27c67c106a3"},"vehicle_type_id":"4","last_reported":1693044360,"current_range_meters":30400,"station_id":"ce4bgkh2rcd13ifvqbl0","pricing_plan_id":"free"},{"bike_id":"e3992a7c-a802-4f70-8132-a7956c831bfb","system_id":"levelo_inurba_marseille","lat":43.31754,"lon":5.390186,"is_reserved":false,"is_disabled":false,"rental_uris":{"android":"levelo://app?vid=e3992a7c-a802-4f70-8132-a7956c831bfb","ios":"levelo://app?vid=e3992a7c-a802-4f70-8132-a7956c831bfb"},"vehicle_type_id":"4","last_reported":1693044360,"current_range_meters":31600,"station_id":"ce4bhqp2rcd13ifvqhng","pricing_plan_id":"free"},{"bike_id":"2c93ce6f-c5e1-4ec9-9941-ebb7469bb8f2","system_id":"levelo_inurba_marseille","lat":43.31752,"lon":5.39026,"is_reserved":false,"is_disabled":false,"rental_uris":{"android":"levelo://app?vid=2c93ce6f-c5e1-4ec9-9941-ebb7469bb8f2","ios":"levelo://app?vid=2c93ce6f-c5e1-4ec9-9941-ebb7469bb8f2"},"vehicle_type_id":"4","last_reported":1693044360,"current_range_meters":31200,"station_id":"ce4bhqp2rcd13ifvqhng","pricing_plan_id":"free"},{"bike_id":"4051108e-2686-4caf-9863-df3175131b9f","system_id":"levelo_inurba_marseille","lat":43.29573,"lon":5.37493,"is_reserved":false,"is_disabled":false,"rental_uris":{"android":"levelo://app?vid=4051108e-2686-4caf-9863-df3175131b9f","ios":"levelo://app?vid=4051108e-2686-4caf-9863-df3175131b9f"},"vehicle_type_id":"4","last_reported":1693044360,"current_range_meters":25200,"station_id":"ce4bgh92rcd13ifvqb50","pricing_plan_id":"free"},{"bike_id":"41cb940d-4962-4bca-97fa-6332419ee6e0","system_id":"levelo_inurba_marseille","lat":43.30448,"lon":5.38889,"is_reserved":false,"is_disabled":false,"rental_uris":{"android":"levelo://app?vid=41cb940d-4962-4bca-97fa-6332419ee6e0","ios":"levelo://app?vid=41cb940d-4962-4bca-97fa-6332419ee6e0"},"vehicle_type_id":"4","last_reported":1693044360,"current_range_meters":30800,"station_id":"ce4bgk12rcd13ifvqbi0","pricing_plan_id":"free"},{"bike_id":"bca18c21-4290-4f31-b436-62d34e546ca7","system_id":"levelo_inurba_marseille","lat":43.304278,"lon":5.388868,"is_reserved":false,"is_disabled":false,"rental_uris":{"android":"levelo://app?vid=bca18c21-4290-4f31-b436-62d34e546ca7","ios":"levelo://app?vid=bca18c21-4290-4f31-b436-62d34e546ca7"},"vehicle_type_id":"4","last_reported":1693044360,"current_range_meters":22800,"station_id":"ce4bgk12rcd13ifvqbi0","pricing_plan_id":"free"},{"bike_id":"10bbe20d-41bb-4cc2-9e57-4586c6367490","system_id":"levelo_inurba_marseille","lat":43.295748,"lon":5.37522,"is_reserved":false,"is_disabled":false,"rental_uris":{"android":"levelo://app?vid=10bbe20d-41bb-4cc2-9e57-4586c6367490","ios":"levelo://app?vid=10bbe20d-41bb-4cc2-9e57-4586c6367490"},"vehicle_type_id":"4","last_reported":1693044360,"current_range_meters":26800,"station_id":"ce4bgh92rcd13ifvqb50","pricing_plan_id":"free"},{"bike_id":"fe2871d6-827e-47b7-8549-2c9ebe336ac3","system_id":"levelo_inurba_marseille","lat":43.295748,"lon":5.37522,"is_reserved":false,"is_disabled":false,"rental_uris":{"android":"levelo://app?vid=fe2871d6-827e-47b7-8549-2c9ebe336ac3","ios":"levelo://app?vid=fe2871d6-827e-47b7-8549-2c9ebe336ac3"},"vehicle_type_id":"4","last_reported":1693044360,"current_range_meters":28800,"station_id":"ce4bgh92rcd13ifvqb50","pricing_plan_id":"free"},{"bike_id":"09fe66d5-e5c7-46f4-a5f8-17ec031efa85","system_id":"levelo_inurba_marseille","lat":43.295748,"lon":5.37522,"is_reserved":false,"is_disabled":false,"rental_uris":{"android":"levelo://app?vid=09fe66d5-e5c7-46f4-a5f8-17ec031efa85","ios":"levelo://app?vid=09fe66d5-e5c7-46f4-a5f8-17ec031efa85"},"vehicle_type_id":"4","last_reported":1693044360,"current_range_meters":24800,"station_id":"ce4bgh92rcd13ifvqb50","pricing_plan_id":"free"},{"bike_id":"952a19e7-6602-41c3-942f-79cfb514366f","system_id":"levelo_inurba_marseille","lat":43.296277,"lon":5.377108,"is_reserved":false,"is_disabled":false,"rental_uris":{"android":"levelo://app?vid=952a19e7-6602-41c3-942f-79cfb514366f","ios":"levelo://app?vid=952a19e7-6602-41c3-942f-79cfb514366f"},"vehicle_type_id":"4","last_reported":1693044360,"current_range_meters":28400,"station_id":"ce4bgi92rcd13ifvqb90","pricing_plan_id":"free"},{"bike_id":"a7060e35-9385-44dc-8052-78e33eb2aaa4","system_id":"levelo_inurba_marseille","lat":43.296263,"lon":5.377094,"is_reserved":false,"is_disabled":false,"rental_uris":{"android":"levelo://app?vid=a7060e35-9385-44dc-8052-78e33eb2aaa4","ios":"levelo://app?vid=a7060e35-9385-44dc-8052-78e33eb2aaa4"},"vehicle_type_id":"4","last_reported":1693044360,"current_range_meters":27200,"station_id":"ce4bgi92rcd13ifvqb90","pricing_plan_id":"free"},{"bike_id":"329b52da-6179-4119-8885-76b50cbdc2a9","system_id":"levelo_inurba_marseille","lat":43.299707,"lon":5.384859,"is_reserved":false,"is_disabled":false,"rental_uris":{"android":"levelo://app?vid=329b52da-6179-4119-8885-76b50cbdc2a9","ios":"levelo://app?vid=329b52da-6179-4119-8885-76b50cbdc2a9"},"vehicle_type_id":"4","last_reported":1693044360,"current_range_meters":22800,"station_id":"ce4bgj92rcd13ifvqbd0","pricing_plan_id":"free"},{"bike_id":"8527444c-b5e7-4e1c-bcd3-bd67f0229e8a","system_id":"levelo_inurba_marseille","lat":43.299717,"lon":5.384845,"is_reserved":false,"is_disabled":false,"rental_uris":{"android":"levelo://app?vid=8527444c-b5e7-4e1c-bcd3-bd67f0229e8a","ios":"levelo://app?vid=8527444c-b5e7-4e1c-bcd3-bd67f0229e8a"},"vehicle_type_id":"4","last_reported":1693044360,"current_range_meters":28800,"station_id":"ce4bgj92rcd13ifvqbd0","pricing_plan_id":"free"},{"bike_id":"8a707c19-5b5b-4242-80a8-3ce0999f3573","system_id":"levelo_inurba_marseille","lat":43.295279,"lon":5.375048,"is_reserved":false,"is_disabled":false,"rental_uris":{"android":"levelo://app?vid=8a707c19-5b5b-4242-80a8-3ce0999f3573","ios":"levelo://app?vid=8a707c19-5b5b-4242-80a8-3ce0999f3573"},"vehicle_type_id":"4","last_reported":1693044360,"current_range_meters":21600,"station_id":"ce4bgkp2rcd13ifvqbmg","pricing_plan_id":"free"},{"bike_id":"7b61c15c-5f18-43a1-9244-b67dc484383f","system_id":"levelo_inurba_marseille","lat":43.295114,"lon":5.375037,"is_reserved":false,"is_disabled":false,"rental_uris":{"android":"levelo://app?vid=7b61c15c-5f18-43a1-9244-b67dc484383f","ios":"levelo://app?vid=7b61c15c-5f18-43a1-9244-b67dc484383f"},"vehicle_type_id":"4","last_reported":1693044360,"current_range_meters":17200,"station_id":"","pricing_plan_id":"free"},{"bike_id":"7b694443-f8bd-415b-8543-e7ff248e2b5f","system_id":"levelo_inurba_marseille","lat":43.32363,"lon":5.38879,"is_reserved":false,"is_disabled":false,"rental_uris":{"android":"levelo://app?vid=7b694443-f8bd-415b-8543-e7ff248e2b5f","ios":"levelo://app?vid=7b694443-f8bd-415b-8543-e7ff248e2b5f"},"vehicle_type_id":"4","last_reported":1693044360,"current_range_meters":14400,"station_id":"ce4bhqp2rcd13ifvqhog","pricing_plan_id":"free"},{"bike_id":"514ca00a-d016-4131-9208-4817414c4b7f","system_id":"levelo_inurba_marseille","lat":43.32363,"lon":5.3888,"is_reserved":false,"is_disabled":false,"rental_uris":{"android":"levelo://app?vid=514ca00a-d016-4131-9208-4817414c4b7f","ios":"levelo://app?vid=514ca00a-d016-4131-9208-4817414c4b7f"},"vehicle_type_id":"4","last_reported":1693044360,"current_range_meters":24000,"station_id":"ce4bhqp2rcd13ifvqhog","pricing_plan_id":"free"},{"bike_id":"b0f47d06-37d2-49aa-ba2e-56cc94f01827","system_id":"levelo_inurba_marseille","lat":43.32365,"lon":5.38879,"is_reserved":false,"is_disabled":false,"rental_uris":{"android":"levelo://app?vid=b0f47d06-37d2-49aa-ba2e-56cc94f01827","ios":"levelo://app?vid=b0f47d06-37d2-49aa-ba2e-56cc94f01827"},"vehicle_type_id":"4","last_reported":1693044360,"current_range_meters":19600,"station_id":"ce4bhqp2rcd13ifvqhog","pricing_plan_id":"free"},{"bike_id":"d851b9dc-f8cd-46fd-b1bc-03f8a45b07fb","system_id":"levelo_inurba_marseille","lat":43.32366,"lon":5.38879,"is_reserved":false,"is_disabled":false,"rental_uris":{"android":"levelo://app?vid=d851b9dc-f8cd-46fd-b1bc-03f8a45b07fb","ios":"levelo://app?vid=d851b9dc-f8cd-46fd-b1bc-03f8a45b07fb"},"vehicle_type_id":"4","last_reported":1693044360,"current_range_meters":23600,"station_id":"ce4bhqp2rcd13ifvqhog","pricing_plan_id":"free"},{"bike_id":"9b6e6802-328a-45e4-9ebb-e0074e2fbfb1","system_id":"levelo_inurba_marseille","lat":43.32356,"lon":5.38889,"is_reserved":false,"is_disabled":false,"rental_uris":{"android":"levelo://app?vid=9b6e6802-328a-45e4-9ebb-e0074e2fbfb1","ios":"levelo://app?vid=9b6e6802-328a-45e4-9ebb-e0074e2fbfb1"},"vehicle_type_id":"4","last_reported":1693044360,"current_range_meters":31200,"station_id":"ce4bhqp2rcd13ifvqhog","pricing_plan_id":"free"},{"bike_id":"00883cd9-a56a-4720-bb55-237d0136a4a1","system_id":"levelo_inurba_marseille","lat":43.32364,"lon":5.38884,"is_reserved":false,"is_disabled":false,"rental_uris":{"android":"levelo://app?vid=00883cd9-a56a-4720-bb55-237d0136a4a1","ios":"levelo://app?vid=00883cd9-a56a-4720-bb55-237d0136a4a1"},"vehicle_type_id":"4","last_reported":1693044360,"current_range_meters":17600,"station_id":"ce4bhqp2rcd13ifvqhog","pricing_plan_id":"free"},{"bike_id":"f910f113-d32f-4a8b-a00f-a96762bf6fc9","system_id":"levelo_inurba_marseille","lat":43.32367,"lon":5.388836,"is_reserved":false,"is_disabled":false,"rental_uris":{"android":"levelo://app?vid=f910f113-d32f-4a8b-a00f-a96762bf6fc9","ios":"levelo://app?vid=f910f113-d32f-4a8b-a00f-a96762bf6fc9"},"vehicle_type_id":"4","last_reported":1693044360,"current_range_meters":26800,"station_id":"ce4bhqp2rcd13ifvqhog","pricing_plan_id":"free"},{"bike_id":"41407177-acad-4597-905d-de8d34a075b1","system_id":"levelo_inurba_marseille","lat":43.32353,"lon":5.38905,"is_reserved":false,"is_disabled":false,"rental_uris":{"android":"levelo://app?vid=41407177-acad-4597-905d-de8d34a075b1","ios":"levelo://app?vid=41407177-acad-4597-905d-de8d34a075b1"},"vehicle_type_id":"4","last_reported":1693044360,"current_range_meters":29600,"station_id":"ce4bhqp2rcd13ifvqhog","pricing_plan_id":"free"},{"bike_id":"c1a05019-2ab5-46a6-8f4a-d2d54df34d39","system_id":"levelo_inurba_marseille","lat":43.32357,"lon":5.38902,"is_reserved":false,"is_disabled":false,"rental_uris":{"android":"levelo://app?vid=c1a05019-2ab5-46a6-8f4a-d2d54df34d39","ios":"levelo://app?vid=c1a05019-2ab5-46a6-8f4a-d2d54df34d39"},"vehicle_type_id":"4","last_reported":1693044360,"current_range_meters":20400,"station_id":"ce4bhqp2rcd13ifvqhog","pricing_plan_id":"free"},{"bike_id":"6533c646-1091-4458-9ef2-bc9d36dce22d","system_id":"levelo_inurba_marseille","lat":43.29296,"lon":5.37439,"is_reserved":false,"is_disabled":false,"rental_uris":{"android":"levelo://app?vid=6533c646-1091-4458-9ef2-bc9d36dce22d","ios":"levelo://app?vid=6533c646-1091-4458-9ef2-bc9d36dce22d"},"vehicle_type_id":"4","last_reported":1693044360,"current_range_meters":30000,"station_id":"ce4bgi12rcd13ifvqb70","pricing_plan_id":"free"},{"bike_id":"38fef587-7cc5-4800-b069-87b8f296a10a","system_id":"levelo_inurba_marseille","lat":43.293009,"lon":5.374584,"is_reserved":false,"is_disabled":false,"rental_uris":{"android":"levelo://app?vid=38fef587-7cc5-4800-b069-87b8f296a10a","ios":"levelo://app?vid=38fef587-7cc5-4800-b069-87b8f296a10a"},"vehicle_type_id":"4","last_reported":1693044360,"current_range_meters":31200,"station_id":"ce4bgi12rcd13ifvqb70","pricing_plan_id":"free"},{"bike_id":"ac7d310d-b282-4be2-9f3b-47eaa1b6fb0f","system_id":"levelo_inurba_marseille","lat":43.302992,"lon":5.392136,"is_reserved":false,"is_disabled":false,"rental_uris":{"android":"levelo://app?vid=ac7d310d-b282-4be2-9f3b-47eaa1b6fb0f","ios":"levelo://app?vid=ac7d310d-b282-4be2-9f3b-47eaa1b6fb0f"},"vehicle_type_id":"4","last_reported":1693044360,"current_range_meters":22800,"station_id":"ce4bgkh2rcd13ifvqbk0","pricing_plan_id":"free"},{"bike_id":"0724f352-a262-45b7-9b71-9a09ff17d945","system_id":"levelo_inurba_marseille","lat":43.302992,"lon":5.392136,"is_reserved":false,"is_disabled":false,"rental_uris":{"android":"levelo://app?vid=0724f352-a262-45b7-9b71-9a09ff17d945","ios":"levelo://app?vid=0724f352-a262-45b7-9b71-9a09ff17d945"},"vehicle_type_id":"4","last_reported":1693044360,"current_range_meters":13200,"station_id":"ce4bgkh2rcd13ifvqbk0","pricing_plan_id":"free"},{"bike_id":"9b4b2dac-e13b-422c-8097-21af8bbce61b","system_id":"levelo_inurba_marseille","lat":43.2936,"lon":5.37835,"is_reserved":false,"is_disabled":false,"rental_uris":{"android":"levelo://app?vid=9b4b2dac-e13b-422c-8097-21af8bbce61b","ios":"levelo://app?vid=9b4b2dac-e13b-422c-8097-21af8bbce61b"},"vehicle_type_id":"4","last_reported":1693044360,"current_range_meters":23200,"station_id":"ce4bgjh2rcd13ifvqbf0","pricing_plan_id":"free"},{"bike_id":"abd437e0-211f-40f7-8b25-3f73184a4881","system_id":"levelo_inurba_marseille","lat":43.2936,"lon":5.37835,"is_reserved":false,"is_disabled":false,"rental_uris":{"android":"levelo://app?vid=abd437e0-211f-40f7-8b25-3f73184a4881","ios":"levelo://app?vid=abd437e0-211f-40f7-8b25-3f73184a4881"},"vehicle_type_id":"4","last_reported":1693044360,"current_range_meters":25200,"station_id":"ce4bgjh2rcd13ifvqbf0","pricing_plan_id":"free"},{"bike_id":"59d4a7cc-c4d8-47e1-a63f-2e26b5d209c3","system_id":"levelo_inurba_marseille","lat":43.2936,"lon":5.37835,"is_reserved":false,"is_disabled":false,"rental_uris":{"android":"levelo://app?vid=59d4a7cc-c4d8-47e1-a63f-2e26b5d209c3","ios":"levelo://app?vid=59d4a7cc-c4d8-47e1-a63f-2e26b5d209c3"},"vehicle_type_id":"4","last_reported":1693044360,"current_range_meters":30000,"station_id":"ce4bgjh2rcd13ifvqbf0","pricing_plan_id":"free"},{"bike_id":"94d28389-3c95-4807-a1c9-35b581fabeba","system_id":"levelo_inurba_marseille","lat":43.2936,"lon":5.37835,"is_reserved":false,"is_disabled":false,"rental_uris":{"android":"levelo://app?vid=94d28389-3c95-4807-a1c9-35b581fabeba","ios":"levelo://app?vid=94d28389-3c95-4807-a1c9-35b581fabeba"},"vehicle_type_id":"4","last_reported":1693044360,"current_range_meters":26000,"station_id":"ce4bgjh2rcd13ifvqbf0","pricing_plan_id":"free"},{"bike_id":"a8a635c4-c71e-4777-99bc-b3aaedd843e1","system_id":"levelo_inurba_marseille","lat":43.30085,"lon":5.390856,"is_reserved":false,"is_disabled":false,"rental_uris":{"android":"levelo://app?vid=a8a635c4-c71e-4777-99bc-b3aaedd843e1","ios":"levelo://app?vid=a8a635c4-c71e-4777-99bc-b3aaedd843e1"},"vehicle_type_id":"4","last_reported":1693044360,"current_range_meters":30800,"station_id":"ce4bh192rcd13ifvqdb0","pricing_plan_id":"free"},{"bike_id":"4f0fc80b-a7f2-479a-83e0-f5611e414e80","system_id":"levelo_inurba_marseille","lat":43.2479,"lon":5.374457,"is_reserved":false,"is_disabled":false,"rental_uris":{"android":"levelo://app?vid=4f0fc80b-a7f2-479a-83e0-f5611e414e80","ios":"levelo://app?vid=4f0fc80b-a7f2-479a-83e0-f5611e414e80"},"vehicle_type_id":"4","last_reported":1693044360,"current_range_meters":27200,"station_id":"ce4bhgh2rcd13ifvqfb0","pricing_plan_id":"free"},{"bike_id":"f68daf4d-b1c4-4b3c-80fe-c447dc499e9b","system_id":"levelo_inurba_marseille","lat":43.298764,"lon":5.388973,"is_reserved":false,"is_disabled":false,"rental_uris":{"android":"levelo://app?vid=f68daf4d-b1c4-4b3c-80fe-c447dc499e9b","ios":"levelo://app?vid=f68daf4d-b1c4-4b3c-80fe-c447dc499e9b"},"vehicle_type_id":"4","last_reported":1693044360,"current_range_meters":29600,"station_id":"ce4bh392rcd13ifvqdl0","pricing_plan_id":"free"},{"bike_id":"834e0a65-6ca3-4825-b5c6-eb4312f6430a","system_id":"levelo_inurba_marseille","lat":43.292663,"lon":5.376389,"is_reserved":false,"is_disabled":false,"rental_uris":{"android":"levelo://app?vid=834e0a65-6ca3-4825-b5c6-eb4312f6430a","ios":"levelo://app?vid=834e0a65-6ca3-4825-b5c6-eb4312f6430a"},"vehicle_type_id":"4","last_reported":1693044360,"current_range_meters":17600,"station_id":"ce4bgi12rcd13ifvqb80","pricing_plan_id":"free"},{"bike_id":"132ee0fb-ede9-4cfb-adbc-02e2c1596442","system_id":"levelo_inurba_marseille","lat":43.292663,"lon":5.376389,"is_reserved":false,"is_disabled":false,"rental_uris":{"android":"levelo://app?vid=132ee0fb-ede9-4cfb-adbc-02e2c1596442","ios":"levelo://app?vid=132ee0fb-ede9-4cfb-adbc-02e2c1596442"},"vehicle_type_id":"4","last_reported":1693044360,"current_range_meters":1200,"station_id":"ce4bgi12rcd13ifvqb80","pricing_plan_id":"free"},{"bike_id":"5a21480a-cf71-4071-8962-63e3edb6cbbf","system_id":"levelo_inurba_marseille","lat":43.292663,"lon":5.376389,"is_reserved":false,"is_disabled":false,"rental_uris":{"android":"levelo://app?vid=5a21480a-cf71-4071-8962-63e3edb6cbbf","ios":"levelo://app?vid=5a21480a-cf71-4071-8962-63e3edb6cbbf"},"vehicle_type_id":"4","last_reported":1693044360,"current_range_meters":23200,"station_id":"ce4bgi12rcd13ifvqb80","pricing_plan_id":"free"},{"bike_id":"345c82ed-cb3f-41c6-a93d-17778491a180","system_id":"levelo_inurba_marseille","lat":43.292663,"lon":5.376389,"is_reserved":false,"is_disabled":false,"rental_uris":{"android":"levelo://app?vid=345c82ed-cb3f-41c6-a93d-17778491a180","ios":"levelo://app?vid=345c82ed-cb3f-41c6-a93d-17778491a180"},"vehicle_type_id":"4","last_reported":1693044360,"current_range_meters":12000,"station_id":"ce4bgi12rcd13ifvqb80","pricing_plan_id":"free"},{"bike_id":"c003eb9a-91b3-4848-8a33-a2a940d9528a","system_id":"levelo_inurba_marseille","lat":43.291671,"lon":5.371575,"is_reserved":false,"is_disabled":false,"rental_uris":{"android":"levelo://app?vid=c003eb9a-91b3-4848-8a33-a2a940d9528a","ios":"levelo://app?vid=c003eb9a-91b3-4848-8a33-a2a940d9528a"},"vehicle_type_id":"4","last_reported":1693044360,"current_range_meters":30400,"station_id":"ce4bha92rcd13ifvqeh0","pricing_plan_id":"free"},{"bike_id":"d9d6de30-4e19-4d30-96b2-cc4b4da11b22","system_id":"levelo_inurba_marseille","lat":43.292663,"lon":5.376389,"is_reserved":false,"is_disabled":false,"rental_uris":{"android":"levelo://app?vid=d9d6de30-4e19-4d30-96b2-cc4b4da11b22","ios":"levelo://app?vid=d9d6de30-4e19-4d30-96b2-cc4b4da11b22"},"vehicle_type_id":"4","last_reported":1693044360,"current_range_meters":18800,"station_id":"ce4bgi12rcd13ifvqb80","pricing_plan_id":"free"},{"bike_id":"6e5242dd-7ee8-4931-a864-953becf9027a","system_id":"levelo_inurba_marseille","lat":43.291675,"lon":5.371583,"is_reserved":false,"is_disabled":false,"rental_uris":{"android":"levelo://app?vid=6e5242dd-7ee8-4931-a864-953becf9027a","ios":"levelo://app?vid=6e5242dd-7ee8-4931-a864-953becf9027a"},"vehicle_type_id":"4","last_reported":1693044360,"current_range_meters":30400,"station_id":"ce4bha92rcd13ifvqeh0","pricing_plan_id":"free"},{"bike_id":"7bf13f36-3d55-45a0-bf6b-6680a5fe6a0a","system_id":"levelo_inurba_marseille","lat":43.313291,"lon":5.396838,"is_reserved":false,"is_disabled":false,"rental_uris":{"android":"levelo://app?vid=7bf13f36-3d55-45a0-bf6b-6680a5fe6a0a","ios":"levelo://app?vid=7bf13f36-3d55-45a0-bf6b-6680a5fe6a0a"},"vehicle_type_id":"4","last_reported":1693044360,"current_range_meters":30400,"station_id":"ce4bgvp2rcd13ifvqcu0","pricing_plan_id":"free"},{"bike_id":"63136877-e4a9-4333-a839-3686199cb733","system_id":"levelo_inurba_marseille","lat":43.31326,"lon":5.39696,"is_reserved":false,"is_disabled":false,"rental_uris":{"android":"levelo://app?vid=63136877-e4a9-4333-a839-3686199cb733","ios":"levelo://app?vid=63136877-e4a9-4333-a839-3686199cb733"},"vehicle_type_id":"4","last_reported":1693044360,"current_range_meters":24000,"station_id":"ce4bgvp2rcd13ifvqcu0","pricing_plan_id":"free"},{"bike_id":"9f94c2f2-a60e-4e05-89d4-67c40703c3ec","system_id":"levelo_inurba_marseille","lat":43.28942,"lon":5.36625,"is_reserved":false,"is_disabled":false,"rental_uris":{"android":"levelo://app?vid=9f94c2f2-a60e-4e05-89d4-67c40703c3ec","ios":"levelo://app?vid=9f94c2f2-a60e-4e05-89d4-67c40703c3ec"},"vehicle_type_id":"4","last_reported":1693044360,"current_range_meters":28000,"station_id":"ce4bhap2rcd13ifvqek0","pricing_plan_id":"free"},{"bike_id":"f9dfea78-b366-4232-bc67-6b20f237f1c0","system_id":"levelo_inurba_marseille","lat":43.294073,"lon":5.386187,"is_reserved":false,"is_disabled":false,"rental_uris":{"android":"levelo://app?vid=f9dfea78-b366-4232-bc67-6b20f237f1c0","ios":"levelo://app?vid=f9dfea78-b366-4232-bc67-6b20f237f1c0"},"vehicle_type_id":"4","last_reported":1693044360,"current_range_meters":14400,"station_id":"ce4bh2h2rcd13ifvqdh0","pricing_plan_id":"free"},{"bike_id":"2f93318d-a393-4e93-88c9-60d3ec241b0e","system_id":"levelo_inurba_marseille","lat":43.289184,"lon":5.366408,"is_reserved":false,"is_disabled":false,"rental_uris":{"android":"levelo://app?vid=2f93318d-a393-4e93-88c9-60d3ec241b0e","ios":"levelo://app?vid=2f93318d-a393-4e93-88c9-60d3ec241b0e"},"vehicle_type_id":"4","last_reported":1693044360,"current_range_meters":31200,"station_id":"ce4bhap2rcd13ifvqek0","pricing_plan_id":"free"},{"bike_id":"c42bb354-20a5-4130-8712-146fcd4d77e6","system_id":"levelo_inurba_marseille","lat":43.30425,"lon":5.39745,"is_reserved":false,"is_disabled":false,"rental_uris":{"android":"levelo://app?vid=c42bb354-20a5-4130-8712-146fcd4d77e6","ios":"levelo://app?vid=c42bb354-20a5-4130-8712-146fcd4d77e6"},"vehicle_type_id":"4","last_reported":1693044360,"current_range_meters":28400,"station_id":"ce4bh092rcd13ifvqd20","pricing_plan_id":"free"},{"bike_id":"f10717b1-2d8e-45e1-9f93-7c87584a474a","system_id":"levelo_inurba_marseille","lat":43.33037,"lon":5.38917,"is_reserved":false,"is_disabled":false,"rental_uris":{"android":"levelo://app?vid=f10717b1-2d8e-45e1-9f93-7c87584a474a","ios":"levelo://app?vid=f10717b1-2d8e-45e1-9f93-7c87584a474a"},"vehicle_type_id":"4","last_reported":1693044360,"current_range_meters":30400,"station_id":"ce4bhr92rcd13ifvqhrg","pricing_plan_id":"free"},{"bike_id":"4531ab91-caee-4490-8282-10ae023708a1","system_id":"levelo_inurba_marseille","lat":43.3304,"lon":5.38916,"is_reserved":false,"is_disabled":false,"rental_uris":{"android":"levelo://app?vid=4531ab91-caee-4490-8282-10ae023708a1","ios":"levelo://app?vid=4531ab91-caee-4490-8282-10ae023708a1"},"vehicle_type_id":"4","last_reported":1693044360,"current_range_meters":8400,"station_id":"ce4bhr92rcd13ifvqhrg","pricing_plan_id":"free"},{"bike_id":"242a25a0-05f5-409b-9960-55e3c4942f42","system_id":"levelo_inurba_marseille","lat":43.33038,"lon":5.38919,"is_reserved":false,"is_disabled":false,"rental_uris":{"android":"levelo://app?vid=242a25a0-05f5-409b-9960-55e3c4942f42","ios":"levelo://app?vid=242a25a0-05f5-409b-9960-55e3c4942f42"},"vehicle_type_id":"4","last_reported":1693044360,"current_range_meters":18800,"station_id":"ce4bhr92rcd13ifvqhrg","pricing_plan_id":"free"},{"bike_id":"e2c265c4-53bc-4afc-8c91-c8654d181f86","system_id":"levelo_inurba_marseille","lat":43.3304,"lon":5.38917,"is_reserved":false,"is_disabled":false,"rental_uris":{"android":"levelo://app?vid=e2c265c4-53bc-4afc-8c91-c8654d181f86","ios":"levelo://app?vid=e2c265c4-53bc-4afc-8c91-c8654d181f86"},"vehicle_type_id":"4","last_reported":1693044360,"current_range_meters":19200,"station_id":"ce4bhr92rcd13ifvqhrg","pricing_plan_id":"free"},{"bike_id":"73e30c8d-1fec-42fa-994e-db63cd20ad16","system_id":"levelo_inurba_marseille","lat":43.33039,"lon":5.38919,"is_reserved":false,"is_disabled":false,"rental_uris":{"android":"levelo://app?vid=73e30c8d-1fec-42fa-994e-db63cd20ad16","ios":"levelo://app?vid=73e30c8d-1fec-42fa-994e-db63cd20ad16"},"vehicle_type_id":"4","last_reported":1693044360,"current_range_meters":10800,"station_id":"ce4bhr92rcd13ifvqhrg","pricing_plan_id":"free"},{"bike_id":"b29b42a3-3ad5-4024-8614-a62760665da0","system_id":"levelo_inurba_marseille","lat":43.3304,"lon":5.38919,"is_reserved":false,"is_disabled":false,"rental_uris":{"android":"levelo://app?vid=b29b42a3-3ad5-4024-8614-a62760665da0","ios":"levelo://app?vid=b29b42a3-3ad5-4024-8614-a62760665da0"},"vehicle_type_id":"4","last_reported":1693044360,"current_range_meters":25600,"station_id":"ce4bhr92rcd13ifvqhrg","pricing_plan_id":"free"},{"bike_id":"1c07e25f-84db-4513-bedb-11b97c6ec9b6","system_id":"levelo_inurba_marseille","lat":43.33044,"lon":5.38914,"is_reserved":false,"is_disabled":false,"rental_uris":{"android":"levelo://app?vid=1c07e25f-84db-4513-bedb-11b97c6ec9b6","ios":"levelo://app?vid=1c07e25f-84db-4513-bedb-11b97c6ec9b6"},"vehicle_type_id":"4","last_reported":1693044360,"current_range_meters":25200,"station_id":"ce4bhr92rcd13ifvqhrg","pricing_plan_id":"free"},{"bike_id":"2162d794-f7ce-4c9d-bb4a-b79528b23c0f","system_id":"levelo_inurba_marseille","lat":43.33052,"lon":5.38913,"is_reserved":false,"is_disabled":false,"rental_uris":{"android":"levelo://app?vid=2162d794-f7ce-4c9d-bb4a-b79528b23c0f","ios":"levelo://app?vid=2162d794-f7ce-4c9d-bb4a-b79528b23c0f"},"vehicle_type_id":"4","last_reported":1693044360,"current_range_meters":31200,"station_id":"ce4bhr92rcd13ifvqhrg","pricing_plan_id":"free"},{"bike_id":"d1e2a8c6-cb80-475a-9faf-8af782caa028","system_id":"levelo_inurba_marseille","lat":43.290104,"lon":5.356111,"is_reserved":false,"is_disabled":false,"rental_uris":{"android":"levelo://app?vid=d1e2a8c6-cb80-475a-9faf-8af782caa028","ios":"levelo://app?vid=d1e2a8c6-cb80-475a-9faf-8af782caa028"},"vehicle_type_id":"4","last_reported":1693044360,"current_range_meters":22400,"station_id":"ce4bhb92rcd13ifvqen0","pricing_plan_id":"free"},{"bike_id":"f354a379-ded6-4447-9b64-b61d96dedaa7","system_id":"levelo_inurba_marseille","lat":43.290104,"lon":5.356111,"is_reserved":false,"is_disabled":false,"rental_uris":{"android":"levelo://app?vid=f354a379-ded6-4447-9b64-b61d96dedaa7","ios":"levelo://app?vid=f354a379-ded6-4447-9b64-b61d96dedaa7"},"vehicle_type_id":"4","last_reported":1693044360,"current_range_meters":8400,"station_id":"ce4bhb92rcd13ifvqen0","pricing_plan_id":"free"},{"bike_id":"1a5fe049-59ee-4616-bbcb-6b811a3f2a8c","system_id":"levelo_inurba_marseille","lat":43.290104,"lon":5.356111,"is_reserved":false,"is_disabled":false,"rental_uris":{"android":"levelo://app?vid=1a5fe049-59ee-4616-bbcb-6b811a3f2a8c","ios":"levelo://app?vid=1a5fe049-59ee-4616-bbcb-6b811a3f2a8c"},"vehicle_type_id":"4","last_reported":1693044360,"current_range_meters":29200,"station_id":"ce4bhb92rcd13ifvqen0","pricing_plan_id":"free"},{"bike_id":"a4df99ce-0488-49dd-a888-94686f562e88","system_id":"levelo_inurba_marseille","lat":43.290104,"lon":5.356111,"is_reserved":false,"is_disabled":false,"rental_uris":{"android":"levelo://app?vid=a4df99ce-0488-49dd-a888-94686f562e88","ios":"levelo://app?vid=a4df99ce-0488-49dd-a888-94686f562e88"},"vehicle_type_id":"4","last_reported":1693044360,"current_range_meters":29600,"station_id":"ce4bhb92rcd13ifvqen0","pricing_plan_id":"free"},{"bike_id":"1895038e-acdb-4d35-aa35-e1291f23a30a","system_id":"levelo_inurba_marseille","lat":43.290103,"lon":5.356114,"is_reserved":false,"is_disabled":false,"rental_uris":{"android":"levelo://app?vid=1895038e-acdb-4d35-aa35-e1291f23a30a","ios":"levelo://app?vid=1895038e-acdb-4d35-aa35-e1291f23a30a"},"vehicle_type_id":"4","last_reported":1693044360,"current_range_meters":31200,"station_id":"ce4bhb92rcd13ifvqen0","pricing_plan_id":"free"},{"bike_id":"6093d433-f9d6-48fe-897b-a1be7c29ef34","system_id":"levelo_inurba_marseille","lat":43.28998,"lon":5.35613,"is_reserved":false,"is_disabled":false,"rental_uris":{"android":"levelo://app?vid=6093d433-f9d6-48fe-897b-a1be7c29ef34","ios":"levelo://app?vid=6093d433-f9d6-48fe-897b-a1be7c29ef34"},"vehicle_type_id":"4","last_reported":1693044360,"current_range_meters":30400,"station_id":"ce4bhb92rcd13ifvqen0","pricing_plan_id":"free"},{"bike_id":"33c438e7-68c0-4027-a9cb-67be0a156313","system_id":"levelo_inurba_marseille","lat":43.2901,"lon":5.381269,"is_reserved":false,"is_disabled":false,"rental_uris":{"android":"levelo://app?vid=33c438e7-68c0-4027-a9cb-67be0a156313","ios":"levelo://app?vid=33c438e7-68c0-4027-a9cb-67be0a156313"},"vehicle_type_id":"4","last_reported":1693044360,"current_range_meters":8800,"station_id":"ce4bh4p2rcd13ifvqe1g","pricing_plan_id":"free"},{"bike_id":"0169431d-b2df-4266-9ab9-686e21ea08dd","system_id":"levelo_inurba_marseille","lat":43.30925,"lon":5.40139,"is_reserved":false,"is_disabled":false,"rental_uris":{"android":"levelo://app?vid=0169431d-b2df-4266-9ab9-686e21ea08dd","ios":"levelo://app?vid=0169431d-b2df-4266-9ab9-686e21ea08dd"},"vehicle_type_id":"4","last_reported":1693044360,"current_range_meters":27200,"station_id":"ce4bgvp2rcd13ifvqct0","pricing_plan_id":"free"},{"bike_id":"18a3f515-fa17-46cf-9e78-42d4f55dc083","system_id":"levelo_inurba_marseille","lat":43.30917,"lon":5.40144,"is_reserved":false,"is_disabled":false,"rental_uris":{"android":"levelo://app?vid=18a3f515-fa17-46cf-9e78-42d4f55dc083","ios":"levelo://app?vid=18a3f515-fa17-46cf-9e78-42d4f55dc083"},"vehicle_type_id":"4","last_reported":1693044360,"current_range_meters":30000,"station_id":"ce4bgvp2rcd13ifvqct0","pricing_plan_id":"free"},{"bike_id":"be86bb7a-799c-463d-bbd6-918c521cbeea","system_id":"levelo_inurba_marseille","lat":43.301117,"lon":5.398795,"is_reserved":false,"is_disabled":false,"rental_uris":{"android":"levelo://app?vid=be86bb7a-799c-463d-bbd6-918c521cbeea","ios":"levelo://app?vid=be86bb7a-799c-463d-bbd6-918c521cbeea"},"vehicle_type_id":"4","last_reported":1693044360,"current_range_meters":14800,"station_id":"ce4bh0h2rcd13ifvqd40","pricing_plan_id":"free"},{"bike_id":"58e6bd1a-67bc-45d0-9778-f379de10ffd8","system_id":"levelo_inurba_marseille","lat":43.28698,"lon":5.37298,"is_reserved":false,"is_disabled":false,"rental_uris":{"android":"levelo://app?vid=58e6bd1a-67bc-45d0-9778-f379de10ffd8","ios":"levelo://app?vid=58e6bd1a-67bc-45d0-9778-f379de10ffd8"},"vehicle_type_id":"4","last_reported":1693044360,"current_range_meters":23200,"station_id":"","pricing_plan_id":"free"},{"bike_id":"39364cdd-6747-4e37-840e-82723e684683","system_id":"levelo_inurba_marseille","lat":43.298681,"lon":5.397225,"is_reserved":false,"is_disabled":false,"rental_uris":{"android":"levelo://app?vid=39364cdd-6747-4e37-840e-82723e684683","ios":"levelo://app?vid=39364cdd-6747-4e37-840e-82723e684683"},"vehicle_type_id":"4","last_reported":1693044360,"current_range_meters":30000,"station_id":"ce4bh0h2rcd13ifvqd50","pricing_plan_id":"free"},{"bike_id":"2534bd16-4fbd-4a57-8501-f3fe6cd67b79","system_id":"levelo_inurba_marseille","lat":43.286591,"lon":5.363346,"is_reserved":false,"is_disabled":false,"rental_uris":{"android":"levelo://app?vid=2534bd16-4fbd-4a57-8501-f3fe6cd67b79","ios":"levelo://app?vid=2534bd16-4fbd-4a57-8501-f3fe6cd67b79"},"vehicle_type_id":"4","last_reported":1693044360,"current_range_meters":9200,"station_id":"ce4bhah2rcd13ifvqej0","pricing_plan_id":"free"},{"bike_id":"75199276-b705-4ad7-b6a9-49aeaa84628a","system_id":"levelo_inurba_marseille","lat":43.286591,"lon":5.363346,"is_reserved":false,"is_disabled":false,"rental_uris":{"android":"levelo://app?vid=75199276-b705-4ad7-b6a9-49aeaa84628a","ios":"levelo://app?vid=75199276-b705-4ad7-b6a9-49aeaa84628a"},"vehicle_type_id":"4","last_reported":1693044360,"current_range_meters":30400,"station_id":"ce4bhah2rcd13ifvqej0","pricing_plan_id":"free"},{"bike_id":"2365150f-73ab-4507-aea4-76016e6109c8","system_id":"levelo_inurba_marseille","lat":43.286593,"lon":5.363346,"is_reserved":false,"is_disabled":false,"rental_uris":{"android":"levelo://app?vid=2365150f-73ab-4507-aea4-76016e6109c8","ios":"levelo://app?vid=2365150f-73ab-4507-aea4-76016e6109c8"},"vehicle_type_id":"4","last_reported":1693044360,"current_range_meters":30000,"station_id":"ce4bhah2rcd13ifvqej0","pricing_plan_id":"free"},{"bike_id":"60dc19e4-b5b1-4a06-b924-28ccb072f594","system_id":"levelo_inurba_marseille","lat":43.298681,"lon":5.397225,"is_reserved":false,"is_disabled":false,"rental_uris":{"android":"levelo://app?vid=60dc19e4-b5b1-4a06-b924-28ccb072f594","ios":"levelo://app?vid=60dc19e4-b5b1-4a06-b924-28ccb072f594"},"vehicle_type_id":"4","last_reported":1693044360,"current_range_meters":4000,"station_id":"ce4bh0h2rcd13ifvqd50","pricing_plan_id":"free"},{"bike_id":"33a70750-866f-4932-b1a4-d3ec9e8ba5ac","system_id":"levelo_inurba_marseille","lat":43.302759,"lon":5.400793,"is_reserved":false,"is_disabled":false,"rental_uris":{"android":"levelo://app?vid=33a70750-866f-4932-b1a4-d3ec9e8ba5ac","ios":"levelo://app?vid=33a70750-866f-4932-b1a4-d3ec9e8ba5ac"},"vehicle_type_id":"4","last_reported":1693044360,"current_range_meters":25600,"station_id":"ce4bgvh2rcd13ifvqcs0","pricing_plan_id":"free"},{"bike_id":"a66ec122-d97b-4730-8120-a2f7a586170a","system_id":"levelo_inurba_marseille","lat":43.302759,"lon":5.400793,"is_reserved":false,"is_disabled":false,"rental_uris":{"android":"levelo://app?vid=a66ec122-d97b-4730-8120-a2f7a586170a","ios":"levelo://app?vid=a66ec122-d97b-4730-8120-a2f7a586170a"},"vehicle_type_id":"4","last_reported":1693044360,"current_range_meters":26800,"station_id":"ce4bgvh2rcd13ifvqcs0","pricing_plan_id":"free"},{"bike_id":"d336bba2-c61d-4d54-915c-a5894a335242","system_id":"levelo_inurba_marseille","lat":43.302759,"lon":5.400793,"is_reserved":false,"is_disabled":false,"rental_uris":{"android":"levelo://app?vid=d336bba2-c61d-4d54-915c-a5894a335242","ios":"levelo://app?vid=d336bba2-c61d-4d54-915c-a5894a335242"},"vehicle_type_id":"4","last_reported":1693044360,"current_range_meters":24400,"station_id":"ce4bgvh2rcd13ifvqcs0","pricing_plan_id":"free"},{"bike_id":"074f0d72-38ea-4195-8473-823b07db885e","system_id":"levelo_inurba_marseille","lat":43.302759,"lon":5.400793,"is_reserved":false,"is_disabled":false,"rental_uris":{"android":"levelo://app?vid=074f0d72-38ea-4195-8473-823b07db885e","ios":"levelo://app?vid=074f0d72-38ea-4195-8473-823b07db885e"},"vehicle_type_id":"4","last_reported":1693044360,"current_range_meters":27200,"station_id":"ce4bgvh2rcd13ifvqcs0","pricing_plan_id":"free"},{"bike_id":"0567be89-47a1-4da4-b94e-95024b98de9f","system_id":"levelo_inurba_marseille","lat":43.286039,"lon":5.370679,"is_reserved":false,"is_disabled":false,"rental_uris":{"android":"levelo://app?vid=0567be89-47a1-4da4-b94e-95024b98de9f","ios":"levelo://app?vid=0567be89-47a1-4da4-b94e-95024b98de9f"},"vehicle_type_id":"4","last_reported":1693044360,"current_range_meters":14000,"station_id":"ce4bht12rcd13ifvqi60","pricing_plan_id":"free"},{"bike_id":"fa51d77c-00e2-48cd-919c-e9265fdc1dc8","system_id":"levelo_inurba_marseille","lat":43.28808,"lon":5.35233,"is_reserved":false,"is_disabled":false,"rental_uris":{"android":"levelo://app?vid=fa51d77c-00e2-48cd-919c-e9265fdc1dc8","ios":"levelo://app?vid=fa51d77c-00e2-48cd-919c-e9265fdc1dc8"},"vehicle_type_id":"4","last_reported":1693044360,"current_range_meters":24800,"station_id":"","pricing_plan_id":"free"},{"bike_id":"d895817e-f0e8-4628-9a18-71a146fd0fbe","system_id":"levelo_inurba_marseille","lat":43.286039,"lon":5.370679,"is_reserved":false,"is_disabled":false,"rental_uris":{"android":"levelo://app?vid=d895817e-f0e8-4628-9a18-71a146fd0fbe","ios":"levelo://app?vid=d895817e-f0e8-4628-9a18-71a146fd0fbe"},"vehicle_type_id":"4","last_reported":1693044360,"current_range_meters":14400,"station_id":"ce4bht12rcd13ifvqi60","pricing_plan_id":"free"},{"bike_id":"a660c9a0-5d39-4dce-8e76-1c1ee1926189","system_id":"levelo_inurba_marseille","lat":43.316517,"lon":5.404375,"is_reserved":false,"is_disabled":false,"rental_uris":{"android":"levelo://app?vid=a660c9a0-5d39-4dce-8e76-1c1ee1926189","ios":"levelo://app?vid=a660c9a0-5d39-4dce-8e76-1c1ee1926189"},"vehicle_type_id":"4","last_reported":1693044360,"current_range_meters":19200,"station_id":"ce4bh012rcd13ifvqd00","pricing_plan_id":"free"},{"bike_id":"77415f3f-2e98-4e77-910a-8429f969a068","system_id":"levelo_inurba_marseille","lat":43.31647,"lon":5.40435,"is_reserved":false,"is_disabled":false,"rental_uris":{"android":"levelo://app?vid=77415f3f-2e98-4e77-910a-8429f969a068","ios":"levelo://app?vid=77415f3f-2e98-4e77-910a-8429f969a068"},"vehicle_type_id":"4","last_reported":1693044360,"current_range_meters":26400,"station_id":"ce4bh012rcd13ifvqd00","pricing_plan_id":"free"},{"bike_id":"7da9e437-1e79-4b5f-9ab0-65254ac17dd7","system_id":"levelo_inurba_marseille","lat":43.31646,"lon":5.40436,"is_reserved":false,"is_disabled":false,"rental_uris":{"android":"levelo://app?vid=7da9e437-1e79-4b5f-9ab0-65254ac17dd7","ios":"levelo://app?vid=7da9e437-1e79-4b5f-9ab0-65254ac17dd7"},"vehicle_type_id":"4","last_reported":1693044360,"current_range_meters":14000,"station_id":"ce4bh012rcd13ifvqd00","pricing_plan_id":"free"},{"bike_id":"529f5f65-12b9-48b1-8a40-2e8fbef979a3","system_id":"levelo_inurba_marseille","lat":43.291994,"lon":5.392907,"is_reserved":false,"is_disabled":false,"rental_uris":{"android":"levelo://app?vid=529f5f65-12b9-48b1-8a40-2e8fbef979a3","ios":"levelo://app?vid=529f5f65-12b9-48b1-8a40-2e8fbef979a3"},"vehicle_type_id":"4","last_reported":1693044360,"current_range_meters":7600,"station_id":"ce4bh192rcd13ifvqdd0","pricing_plan_id":"free"},{"bike_id":"d1ad9a98-a23f-474c-8e22-6b6bd9114798","system_id":"levelo_inurba_marseille","lat":43.291994,"lon":5.392907,"is_reserved":false,"is_disabled":false,"rental_uris":{"android":"levelo://app?vid=d1ad9a98-a23f-474c-8e22-6b6bd9114798","ios":"levelo://app?vid=d1ad9a98-a23f-474c-8e22-6b6bd9114798"},"vehicle_type_id":"4","last_reported":1693044360,"current_range_meters":21200,"station_id":"ce4bh192rcd13ifvqdd0","pricing_plan_id":"free"},{"bike_id":"c575ecde-5c2e-41de-8c1f-35bdd00ff4dd","system_id":"levelo_inurba_marseille","lat":43.284534,"lon":5.358662,"is_reserved":false,"is_disabled":false,"rental_uris":{"android":"levelo://app?vid=c575ecde-5c2e-41de-8c1f-35bdd00ff4dd","ios":"levelo://app?vid=c575ecde-5c2e-41de-8c1f-35bdd00ff4dd"},"vehicle_type_id":"4","last_reported":1693044360,"current_range_meters":22800,"station_id":"ce4bhah2rcd13ifvqei0","pricing_plan_id":"free"},{"bike_id":"36c2cc0d-850b-4a00-9e41-36a121008ad4","system_id":"levelo_inurba_marseille","lat":43.28622,"lon":5.35096,"is_reserved":false,"is_disabled":false,"rental_uris":{"android":"levelo://app?vid=36c2cc0d-850b-4a00-9e41-36a121008ad4","ios":"levelo://app?vid=36c2cc0d-850b-4a00-9e41-36a121008ad4"},"vehicle_type_id":"4","last_reported":1693044360,"current_range_meters":21200,"station_id":"ce4bhch2rcd13ifvqeug","pricing_plan_id":"free"},{"bike_id":"f15d4327-7a4b-425e-bc76-884c2ca0ab98","system_id":"levelo_inurba_marseille","lat":43.285856,"lon":5.350771,"is_reserved":false,"is_disabled":false,"rental_uris":{"android":"levelo://app?vid=f15d4327-7a4b-425e-bc76-884c2ca0ab98","ios":"levelo://app?vid=f15d4327-7a4b-425e-bc76-884c2ca0ab98"},"vehicle_type_id":"4","last_reported":1693044360,"current_range_meters":14000,"station_id":"ce4bhch2rcd13ifvqeug","pricing_plan_id":"free"},{"bike_id":"769a030f-5005-46b0-ad12-5159ad300e97","system_id":"levelo_inurba_marseille","lat":43.2861,"lon":5.35103,"is_reserved":false,"is_disabled":false,"rental_uris":{"android":"levelo://app?vid=769a030f-5005-46b0-ad12-5159ad300e97","ios":"levelo://app?vid=769a030f-5005-46b0-ad12-5159ad300e97"},"vehicle_type_id":"4","last_reported":1693044360,"current_range_meters":8800,"station_id":"ce4bhch2rcd13ifvqeug","pricing_plan_id":"free"},{"bike_id":"e2edb243-6572-4482-84b1-e32348b850db","system_id":"levelo_inurba_marseille","lat":43.28611,"lon":5.35099,"is_reserved":false,"is_disabled":false,"rental_uris":{"android":"levelo://app?vid=e2edb243-6572-4482-84b1-e32348b850db","ios":"levelo://app?vid=e2edb243-6572-4482-84b1-e32348b850db"},"vehicle_type_id":"4","last_reported":1693044360,"current_range_meters":27200,"station_id":"ce4bhch2rcd13ifvqeug","pricing_plan_id":"free"},{"bike_id":"2363d3b5-6c15-401a-a59c-ee80bd4af927","system_id":"levelo_inurba_marseille","lat":43.28415,"lon":5.37522,"is_reserved":false,"is_disabled":false,"rental_uris":{"android":"levelo://app?vid=2363d3b5-6c15-401a-a59c-ee80bd4af927","ios":"levelo://app?vid=2363d3b5-6c15-401a-a59c-ee80bd4af927"},"vehicle_type_id":"4","last_reported":1693044360,"current_range_meters":0,"station_id":"ce4bh412rcd13ifvqds0","pricing_plan_id":"free"},{"bike_id":"163a7ec0-d04b-46a5-a455-7c06814d8c2f","system_id":"levelo_inurba_marseille","lat":43.28407,"lon":5.375,"is_reserved":false,"is_disabled":false,"rental_uris":{"android":"levelo://app?vid=163a7ec0-d04b-46a5-a455-7c06814d8c2f","ios":"levelo://app?vid=163a7ec0-d04b-46a5-a455-7c06814d8c2f"},"vehicle_type_id":"4","last_reported":1693044360,"current_range_meters":27200,"station_id":"ce4bh412rcd13ifvqds0","pricing_plan_id":"free"},{"bike_id":"e12c3732-b0b1-4a29-a6c9-01b03f311994","system_id":"levelo_inurba_marseille","lat":43.28407,"lon":5.37505,"is_reserved":false,"is_disabled":false,"rental_uris":{"android":"levelo://app?vid=e12c3732-b0b1-4a29-a6c9-01b03f311994","ios":"levelo://app?vid=e12c3732-b0b1-4a29-a6c9-01b03f311994"},"vehicle_type_id":"4","last_reported":1693044360,"current_range_meters":4000,"station_id":"ce4bh412rcd13ifvqds0","pricing_plan_id":"free"},{"bike_id":"db10aabe-be77-4b00-a0ef-e2dcb76ee332","system_id":"levelo_inurba_marseille","lat":43.31875,"lon":5.40742,"is_reserved":false,"is_disabled":false,"rental_uris":{"android":"levelo://app?vid=db10aabe-be77-4b00-a0ef-e2dcb76ee332","ios":"levelo://app?vid=db10aabe-be77-4b00-a0ef-e2dcb76ee332"},"vehicle_type_id":"4","last_reported":1693044360,"current_range_meters":14800,"station_id":"ce4bhq12rcd13ifvqhig","pricing_plan_id":"free"},{"bike_id":"c0c4c218-b364-44eb-b7aa-3832e45d3cf5","system_id":"levelo_inurba_marseille","lat":43.31875,"lon":5.40747,"is_reserved":false,"is_disabled":false,"rental_uris":{"android":"levelo://app?vid=c0c4c218-b364-44eb-b7aa-3832e45d3cf5","ios":"levelo://app?vid=c0c4c218-b364-44eb-b7aa-3832e45d3cf5"},"vehicle_type_id":"4","last_reported":1693044360,"current_range_meters":11200,"station_id":"ce4bhq12rcd13ifvqhig","pricing_plan_id":"free"},{"bike_id":"261eaadf-6347-42f2-b9c2-72bd0b4a7c63","system_id":"levelo_inurba_marseille","lat":43.337168,"lon":5.391825,"is_reserved":false,"is_disabled":false,"rental_uris":{"android":"levelo://app?vid=261eaadf-6347-42f2-b9c2-72bd0b4a7c63","ios":"levelo://app?vid=261eaadf-6347-42f2-b9c2-72bd0b4a7c63"},"vehicle_type_id":"4","last_reported":1693044360,"current_range_meters":30800,"station_id":"ce4bhr92rcd13ifvqhsg","pricing_plan_id":"free"},{"bike_id":"531d6e23-0278-4a54-a610-21397a86f1a4","system_id":"levelo_inurba_marseille","lat":43.337168,"lon":5.391825,"is_reserved":false,"is_disabled":false,"rental_uris":{"android":"levelo://app?vid=531d6e23-0278-4a54-a610-21397a86f1a4","ios":"levelo://app?vid=531d6e23-0278-4a54-a610-21397a86f1a4"},"vehicle_type_id":"4","last_reported":1693044360,"current_range_meters":25600,"station_id":"ce4bhr92rcd13ifvqhsg","pricing_plan_id":"free"},{"bike_id":"cb01a8a3-0d33-478d-bbe8-f8f6720769cc","system_id":"levelo_inurba_marseille","lat":43.33717,"lon":5.39176,"is_reserved":false,"is_disabled":false,"rental_uris":{"android":"levelo://app?vid=cb01a8a3-0d33-478d-bbe8-f8f6720769cc","ios":"levelo://app?vid=cb01a8a3-0d33-478d-bbe8-f8f6720769cc"},"vehicle_type_id":"4","last_reported":1693044360,"current_range_meters":23600,"station_id":"ce4bhr92rcd13ifvqhsg","pricing_plan_id":"free"},{"bike_id":"fbafa583-df2f-4beb-bbab-161640a3afd5","system_id":"levelo_inurba_marseille","lat":43.337168,"lon":5.391825,"is_reserved":false,"is_disabled":false,"rental_uris":{"android":"levelo://app?vid=fbafa583-df2f-4beb-bbab-161640a3afd5","ios":"levelo://app?vid=fbafa583-df2f-4beb-bbab-161640a3afd5"},"vehicle_type_id":"4","last_reported":1693044360,"current_range_meters":16000,"station_id":"ce4bhr92rcd13ifvqhsg","pricing_plan_id":"free"},{"bike_id":"180b8d82-e769-43df-afb4-0eaef17259b0","system_id":"levelo_inurba_marseille","lat":43.33719,"lon":5.39179,"is_reserved":false,"is_disabled":false,"rental_uris":{"android":"levelo://app?vid=180b8d82-e769-43df-afb4-0eaef17259b0","ios":"levelo://app?vid=180b8d82-e769-43df-afb4-0eaef17259b0"},"vehicle_type_id":"4","last_reported":1693044360,"current_range_meters":18000,"station_id":"ce4bhr92rcd13ifvqhsg","pricing_plan_id":"free"},{"bike_id":"b34de932-316d-4d62-9822-80e90d7f18c8","system_id":"levelo_inurba_marseille","lat":43.33719,"lon":5.39182,"is_reserved":false,"is_disabled":false,"rental_uris":{"android":"levelo://app?vid=b34de932-316d-4d62-9822-80e90d7f18c8","ios":"levelo://app?vid=b34de932-316d-4d62-9822-80e90d7f18c8"},"vehicle_type_id":"4","last_reported":1693044360,"current_range_meters":23600,"station_id":"ce4bhr92rcd13ifvqhsg","pricing_plan_id":"free"},{"bike_id":"62456cc1-e569-4b64-8586-a8c45ea5695c","system_id":"levelo_inurba_marseille","lat":43.337202,"lon":5.391822,"is_reserved":false,"is_disabled":false,"rental_uris":{"android":"levelo://app?vid=62456cc1-e569-4b64-8586-a8c45ea5695c","ios":"levelo://app?vid=62456cc1-e569-4b64-8586-a8c45ea5695c"},"vehicle_type_id":"4","last_reported":1693044360,"current_range_meters":26800,"station_id":"","pricing_plan_id":"free"},{"bike_id":"7e4b49c2-f4de-4644-9176-19b326f1db26","system_id":"levelo_inurba_marseille","lat":43.33717,"lon":5.391857,"is_reserved":false,"is_disabled":false,"rental_uris":{"android":"levelo://app?vid=7e4b49c2-f4de-4644-9176-19b326f1db26","ios":"levelo://app?vid=7e4b49c2-f4de-4644-9176-19b326f1db26"},"vehicle_type_id":"4","last_reported":1693044360,"current_range_meters":24800,"station_id":"ce4bhr92rcd13ifvqhsg","pricing_plan_id":"free"},{"bike_id":"3c19029e-841a-4a21-86aa-855fc1c10a79","system_id":"levelo_inurba_marseille","lat":43.284793,"lon":5.384113,"is_reserved":false,"is_disabled":false,"rental_uris":{"android":"levelo://app?vid=3c19029e-841a-4a21-86aa-855fc1c10a79","ios":"levelo://app?vid=3c19029e-841a-4a21-86aa-855fc1c10a79"},"vehicle_type_id":"4","last_reported":1693044360,"current_range_meters":27600,"station_id":"ce4bh512rcd13ifvqe3g","pricing_plan_id":"free"},{"bike_id":"b9178fa1-3d9f-472a-a834-0e7c633bb4af","system_id":"levelo_inurba_marseille","lat":43.33717,"lon":5.391857,"is_reserved":false,"is_disabled":false,"rental_uris":{"android":"levelo://app?vid=b9178fa1-3d9f-472a-a834-0e7c633bb4af","ios":"levelo://app?vid=b9178fa1-3d9f-472a-a834-0e7c633bb4af"},"vehicle_type_id":"4","last_reported":1693044360,"current_range_meters":12000,"station_id":"ce4bhr92rcd13ifvqhsg","pricing_plan_id":"free"},{"bike_id":"8cb8b9ac-f92f-4005-a82f-bdc8f7ec6c02","system_id":"levelo_inurba_marseille","lat":43.33726,"lon":5.39184,"is_reserved":false,"is_disabled":false,"rental_uris":{"android":"levelo://app?vid=8cb8b9ac-f92f-4005-a82f-bdc8f7ec6c02","ios":"levelo://app?vid=8cb8b9ac-f92f-4005-a82f-bdc8f7ec6c02"},"vehicle_type_id":"4","last_reported":1693044360,"current_range_meters":16800,"station_id":"ce4bhr92rcd13ifvqhsg","pricing_plan_id":"free"},{"bike_id":"28042fad-1a68-44e2-900a-47ea7ad00d0a","system_id":"levelo_inurba_marseille","lat":43.284793,"lon":5.384113,"is_reserved":false,"is_disabled":false,"rental_uris":{"android":"levelo://app?vid=28042fad-1a68-44e2-900a-47ea7ad00d0a","ios":"levelo://app?vid=28042fad-1a68-44e2-900a-47ea7ad00d0a"},"vehicle_type_id":"4","last_reported":1693044360,"current_range_meters":5600,"station_id":"ce4bh512rcd13ifvqe3g","pricing_plan_id":"free"},{"bike_id":"b1e16ac2-d4d1-4641-a9d5-e682249f5118","system_id":"levelo_inurba_marseille","lat":43.29799,"lon":5.40392,"is_reserved":false,"is_disabled":false,"rental_uris":{"android":"levelo://app?vid=b1e16ac2-d4d1-4641-a9d5-e682249f5118","ios":"levelo://app?vid=b1e16ac2-d4d1-4641-a9d5-e682249f5118"},"vehicle_type_id":"4","last_reported":1693044360,"current_range_meters":25200,"station_id":"ce4bh112rcd13ifvqd90","pricing_plan_id":"free"},{"bike_id":"c6cd06bf-1267-498c-93e6-57ac8bb06223","system_id":"levelo_inurba_marseille","lat":43.29796,"lon":5.40398,"is_reserved":false,"is_disabled":false,"rental_uris":{"android":"levelo://app?vid=c6cd06bf-1267-498c-93e6-57ac8bb06223","ios":"levelo://app?vid=c6cd06bf-1267-498c-93e6-57ac8bb06223"},"vehicle_type_id":"4","last_reported":1693044360,"current_range_meters":22000,"station_id":"ce4bh112rcd13ifvqd90","pricing_plan_id":"free"},{"bike_id":"81207e02-e329-4cea-9b6c-33ba9c0267d2","system_id":"levelo_inurba_marseille","lat":43.284787,"lon":5.384116,"is_reserved":false,"is_disabled":false,"rental_uris":{"android":"levelo://app?vid=81207e02-e329-4cea-9b6c-33ba9c0267d2","ios":"levelo://app?vid=81207e02-e329-4cea-9b6c-33ba9c0267d2"},"vehicle_type_id":"4","last_reported":1693044360,"current_range_meters":31200,"station_id":"ce4bh512rcd13ifvqe3g","pricing_plan_id":"free"},{"bike_id":"8f1bb7ca-fcdd-4904-84f5-ac3f2d2671e6","system_id":"levelo_inurba_marseille","lat":43.32549,"lon":5.40548,"is_reserved":false,"is_disabled":false,"rental_uris":{"android":"levelo://app?vid=8f1bb7ca-fcdd-4904-84f5-ac3f2d2671e6","ios":"levelo://app?vid=8f1bb7ca-fcdd-4904-84f5-ac3f2d2671e6"},"vehicle_type_id":"4","last_reported":1693044360,"current_range_meters":7600,"station_id":"","pricing_plan_id":"free"},{"bike_id":"414290bd-353b-41b2-bd9a-1d3c2c5739df","system_id":"levelo_inurba_marseille","lat":43.284793,"lon":5.384113,"is_reserved":false,"is_disabled":false,"rental_uris":{"android":"levelo://app?vid=414290bd-353b-41b2-bd9a-1d3c2c5739df","ios":"levelo://app?vid=414290bd-353b-41b2-bd9a-1d3c2c5739df"},"vehicle_type_id":"4","last_reported":1693044360,"current_range_meters":30000,"station_id":"ce4bh512rcd13ifvqe3g","pricing_plan_id":"free"},{"bike_id":"5a443bd5-876f-468e-8a1b-17472202dcf3","system_id":"levelo_inurba_marseille","lat":43.29788,"lon":5.4042,"is_reserved":false,"is_disabled":false,"rental_uris":{"android":"levelo://app?vid=5a443bd5-876f-468e-8a1b-17472202dcf3","ios":"levelo://app?vid=5a443bd5-876f-468e-8a1b-17472202dcf3"},"vehicle_type_id":"4","last_reported":1693044360,"current_range_meters":5200,"station_id":"ce4bh112rcd13ifvqd90","pricing_plan_id":"free"},{"bike_id":"5ea04bc7-19e6-4506-9587-a6b7f0236886","system_id":"levelo_inurba_marseille","lat":43.28839,"lon":5.3932,"is_reserved":false,"is_disabled":false,"rental_uris":{"android":"levelo://app?vid=5ea04bc7-19e6-4506-9587-a6b7f0236886","ios":"levelo://app?vid=5ea04bc7-19e6-4506-9587-a6b7f0236886"},"vehicle_type_id":"4","last_reported":1693044360,"current_range_meters":12400,"station_id":"","pricing_plan_id":"free"},{"bike_id":"23dad490-572a-4b6f-8858-af2c7d24e6bd","system_id":"levelo_inurba_marseille","lat":43.284284,"lon":5.349726,"is_reserved":false,"is_disabled":false,"rental_uris":{"android":"levelo://app?vid=23dad490-572a-4b6f-8858-af2c7d24e6bd","ios":"levelo://app?vid=23dad490-572a-4b6f-8858-af2c7d24e6bd"},"vehicle_type_id":"4","last_reported":1693044360,"current_range_meters":28000,"station_id":"ce4bhbh2rcd13ifvqepg","pricing_plan_id":"free"},{"bike_id":"b7cce1d8-04f5-40c4-a443-d796d9efeded","system_id":"levelo_inurba_marseille","lat":43.28425,"lon":5.34976,"is_reserved":false,"is_disabled":false,"rental_uris":{"android":"levelo://app?vid=b7cce1d8-04f5-40c4-a443-d796d9efeded","ios":"levelo://app?vid=b7cce1d8-04f5-40c4-a443-d796d9efeded"},"vehicle_type_id":"4","last_reported":1693044360,"current_range_meters":6800,"station_id":"ce4bhbh2rcd13ifvqepg","pricing_plan_id":"free"},{"bike_id":"dca3aacb-d898-4318-81f7-95be9c764464","system_id":"levelo_inurba_marseille","lat":43.284219,"lon":5.3497,"is_reserved":false,"is_disabled":false,"rental_uris":{"android":"levelo://app?vid=dca3aacb-d898-4318-81f7-95be9c764464","ios":"levelo://app?vid=dca3aacb-d898-4318-81f7-95be9c764464"},"vehicle_type_id":"4","last_reported":1693044360,"current_range_meters":22400,"station_id":"ce4bhbh2rcd13ifvqepg","pricing_plan_id":"free"},{"bike_id":"4faf0224-da6e-45de-bbcd-b0b7cf9a062e","system_id":"levelo_inurba_marseille","lat":43.284219,"lon":5.3497,"is_reserved":false,"is_disabled":false,"rental_uris":{"android":"levelo://app?vid=4faf0224-da6e-45de-bbcd-b0b7cf9a062e","ios":"levelo://app?vid=4faf0224-da6e-45de-bbcd-b0b7cf9a062e"},"vehicle_type_id":"4","last_reported":1693044360,"current_range_meters":31200,"station_id":"ce4bhbh2rcd13ifvqepg","pricing_plan_id":"free"},{"bike_id":"feb7f929-0cd1-4d6e-b834-b0b148f5a66a","system_id":"levelo_inurba_marseille","lat":43.284219,"lon":5.3497,"is_reserved":false,"is_disabled":false,"rental_uris":{"android":"levelo://app?vid=feb7f929-0cd1-4d6e-b834-b0b148f5a66a","ios":"levelo://app?vid=feb7f929-0cd1-4d6e-b834-b0b148f5a66a"},"vehicle_type_id":"4","last_reported":1693044360,"current_range_meters":17200,"station_id":"ce4bhbh2rcd13ifvqepg","pricing_plan_id":"free"},{"bike_id":"4c5855a0-2062-4c2f-8de9-9e5459bafa05","system_id":"levelo_inurba_marseille","lat":43.284219,"lon":5.3497,"is_reserved":false,"is_disabled":false,"rental_uris":{"android":"levelo://app?vid=4c5855a0-2062-4c2f-8de9-9e5459bafa05","ios":"levelo://app?vid=4c5855a0-2062-4c2f-8de9-9e5459bafa05"},"vehicle_type_id":"4","last_reported":1693044360,"current_range_meters":15600,"station_id":"ce4bhbh2rcd13ifvqepg","pricing_plan_id":"free"},{"bike_id":"2651e694-13b2-4573-bcde-e9c44d7cf289","system_id":"levelo_inurba_marseille","lat":43.2842,"lon":5.34972,"is_reserved":false,"is_disabled":false,"rental_uris":{"android":"levelo://app?vid=2651e694-13b2-4573-bcde-e9c44d7cf289","ios":"levelo://app?vid=2651e694-13b2-4573-bcde-e9c44d7cf289"},"vehicle_type_id":"4","last_reported":1693044360,"current_range_meters":22000,"station_id":"ce4bhbh2rcd13ifvqepg","pricing_plan_id":"free"},{"bike_id":"124797f3-6b8d-4c4d-a93f-52441d51a049","system_id":"levelo_inurba_marseille","lat":43.284219,"lon":5.3497,"is_reserved":false,"is_disabled":false,"rental_uris":{"android":"levelo://app?vid=124797f3-6b8d-4c4d-a93f-52441d51a049","ios":"levelo://app?vid=124797f3-6b8d-4c4d-a93f-52441d51a049"},"vehicle_type_id":"4","last_reported":1693044360,"current_range_meters":20400,"station_id":"ce4bhbh2rcd13ifvqepg","pricing_plan_id":"free"},{"bike_id":"b1fd103e-a6c8-46f4-ad8e-28f7d93c20b2","system_id":"levelo_inurba_marseille","lat":43.28416,"lon":5.3498,"is_reserved":false,"is_disabled":false,"rental_uris":{"android":"levelo://app?vid=b1fd103e-a6c8-46f4-ad8e-28f7d93c20b2","ios":"levelo://app?vid=b1fd103e-a6c8-46f4-ad8e-28f7d93c20b2"},"vehicle_type_id":"4","last_reported":1693044360,"current_range_meters":29200,"station_id":"ce4bhbh2rcd13ifvqepg","pricing_plan_id":"free"},{"bike_id":"d2f55048-2148-4894-9c84-b00f7ea80f20","system_id":"levelo_inurba_marseille","lat":43.284219,"lon":5.3497,"is_reserved":false,"is_disabled":false,"rental_uris":{"android":"levelo://app?vid=d2f55048-2148-4894-9c84-b00f7ea80f20","ios":"levelo://app?vid=d2f55048-2148-4894-9c84-b00f7ea80f20"},"vehicle_type_id":"4","last_reported":1693044360,"current_range_meters":30400,"station_id":"ce4bhbh2rcd13ifvqepg","pricing_plan_id":"free"},{"bike_id":"b06bf0d8-c6ae-4a65-bd28-67e12bb84c99","system_id":"levelo_inurba_marseille","lat":43.284219,"lon":5.3497,"is_reserved":false,"is_disabled":false,"rental_uris":{"android":"levelo://app?vid=b06bf0d8-c6ae-4a65-bd28-67e12bb84c99","ios":"levelo://app?vid=b06bf0d8-c6ae-4a65-bd28-67e12bb84c99"},"vehicle_type_id":"4","last_reported":1693044360,"current_range_meters":31200,"station_id":"ce4bhbh2rcd13ifvqepg","pricing_plan_id":"free"},{"bike_id":"822b00ef-b660-4af0-97f2-62ef4bfe71c7","system_id":"levelo_inurba_marseille","lat":43.284219,"lon":5.3497,"is_reserved":false,"is_disabled":false,"rental_uris":{"android":"levelo://app?vid=822b00ef-b660-4af0-97f2-62ef4bfe71c7","ios":"levelo://app?vid=822b00ef-b660-4af0-97f2-62ef4bfe71c7"},"vehicle_type_id":"4","last_reported":1693044360,"current_range_meters":20800,"station_id":"ce4bhbh2rcd13ifvqepg","pricing_plan_id":"free"},{"bike_id":"0b164d58-4528-4145-9b64-d1fc9787ba5a","system_id":"levelo_inurba_marseille","lat":43.284219,"lon":5.3497,"is_reserved":false,"is_disabled":false,"rental_uris":{"android":"levelo://app?vid=0b164d58-4528-4145-9b64-d1fc9787ba5a","ios":"levelo://app?vid=0b164d58-4528-4145-9b64-d1fc9787ba5a"},"vehicle_type_id":"4","last_reported":1693044360,"current_range_meters":31200,"station_id":"ce4bhbh2rcd13ifvqepg","pricing_plan_id":"free"},{"bike_id":"9597f5e3-e206-48bb-b3b9-d82dd810cca2","system_id":"levelo_inurba_marseille","lat":43.284217,"lon":5.349697,"is_reserved":false,"is_disabled":false,"rental_uris":{"android":"levelo://app?vid=9597f5e3-e206-48bb-b3b9-d82dd810cca2","ios":"levelo://app?vid=9597f5e3-e206-48bb-b3b9-d82dd810cca2"},"vehicle_type_id":"4","last_reported":1693044360,"current_range_meters":25600,"station_id":"ce4bhbh2rcd13ifvqepg","pricing_plan_id":"free"},{"bike_id":"495ab350-a2c7-4d22-ab93-7b7a7173e761","system_id":"levelo_inurba_marseille","lat":43.28412,"lon":5.34977,"is_reserved":false,"is_disabled":false,"rental_uris":{"android":"levelo://app?vid=495ab350-a2c7-4d22-ab93-7b7a7173e761","ios":"levelo://app?vid=495ab350-a2c7-4d22-ab93-7b7a7173e761"},"vehicle_type_id":"4","last_reported":1693044360,"current_range_meters":25200,"station_id":"ce4bhbh2rcd13ifvqepg","pricing_plan_id":"free"},{"bike_id":"a5ba01a7-ebb3-46dd-abed-3fc647e56acc","system_id":"levelo_inurba_marseille","lat":43.284217,"lon":5.349697,"is_reserved":false,"is_disabled":false,"rental_uris":{"android":"levelo://app?vid=a5ba01a7-ebb3-46dd-abed-3fc647e56acc","ios":"levelo://app?vid=a5ba01a7-ebb3-46dd-abed-3fc647e56acc"},"vehicle_type_id":"4","last_reported":1693044360,"current_range_meters":21200,"station_id":"ce4bhbh2rcd13ifvqepg","pricing_plan_id":"free"},{"bike_id":"e69ca5da-710c-47d4-85b8-7934bc769c29","system_id":"levelo_inurba_marseille","lat":43.284219,"lon":5.3497,"is_reserved":false,"is_disabled":false,"rental_uris":{"android":"levelo://app?vid=e69ca5da-710c-47d4-85b8-7934bc769c29","ios":"levelo://app?vid=e69ca5da-710c-47d4-85b8-7934bc769c29"},"vehicle_type_id":"4","last_reported":1693044360,"current_range_meters":5600,"station_id":"ce4bhbh2rcd13ifvqepg","pricing_plan_id":"free"},{"bike_id":"f50aca5f-cf5b-4020-925f-826a2e34874f","system_id":"levelo_inurba_marseille","lat":43.289363,"lon":5.396322,"is_reserved":false,"is_disabled":false,"rental_uris":{"android":"levelo://app?vid=f50aca5f-cf5b-4020-925f-826a2e34874f","ios":"levelo://app?vid=f50aca5f-cf5b-4020-925f-826a2e34874f"},"vehicle_type_id":"4","last_reported":1693044360,"current_range_meters":30800,"station_id":"ce4bh3h2rcd13ifvqdn0","pricing_plan_id":"free"},{"bike_id":"4da77a93-aa41-4078-a088-fb54bfa3b9b5","system_id":"levelo_inurba_marseille","lat":43.282754,"lon":5.350519,"is_reserved":false,"is_disabled":false,"rental_uris":{"android":"levelo://app?vid=4da77a93-aa41-4078-a088-fb54bfa3b9b5","ios":"levelo://app?vid=4da77a93-aa41-4078-a088-fb54bfa3b9b5"},"vehicle_type_id":"4","last_reported":1693044360,"current_range_meters":30000,"station_id":"ce4bhbp2rcd13ifvqerg","pricing_plan_id":"free"},{"bike_id":"1781c7f0-92b9-4402-bdb4-cda5cbe741e8","system_id":"levelo_inurba_marseille","lat":43.2827,"lon":5.35069,"is_reserved":false,"is_disabled":false,"rental_uris":{"android":"levelo://app?vid=1781c7f0-92b9-4402-bdb4-cda5cbe741e8","ios":"levelo://app?vid=1781c7f0-92b9-4402-bdb4-cda5cbe741e8"},"vehicle_type_id":"4","last_reported":1693044360,"current_range_meters":6000,"station_id":"ce4bhbp2rcd13ifvqerg","pricing_plan_id":"free"},{"bike_id":"fb19adb7-78ea-431f-85af-778daa72ad64","system_id":"levelo_inurba_marseille","lat":43.28269,"lon":5.35064,"is_reserved":false,"is_disabled":false,"rental_uris":{"android":"levelo://app?vid=fb19adb7-78ea-431f-85af-778daa72ad64","ios":"levelo://app?vid=fb19adb7-78ea-431f-85af-778daa72ad64"},"vehicle_type_id":"4","last_reported":1693044360,"current_range_meters":16800,"station_id":"ce4bhbp2rcd13ifvqerg","pricing_plan_id":"free"},{"bike_id":"9eecdd84-04c8-4f68-a087-2888c83ee6b0","system_id":"levelo_inurba_marseille","lat":43.282754,"lon":5.350519,"is_reserved":false,"is_disabled":false,"rental_uris":{"android":"levelo://app?vid=9eecdd84-04c8-4f68-a087-2888c83ee6b0","ios":"levelo://app?vid=9eecdd84-04c8-4f68-a087-2888c83ee6b0"},"vehicle_type_id":"4","last_reported":1693044360,"current_range_meters":31200,"station_id":"ce4bhbp2rcd13ifvqerg","pricing_plan_id":"free"},{"bike_id":"dd67999b-3c50-40cd-abc3-2ecca4eb6cd4","system_id":"levelo_inurba_marseille","lat":43.28262,"lon":5.3507,"is_reserved":false,"is_disabled":false,"rental_uris":{"android":"levelo://app?vid=dd67999b-3c50-40cd-abc3-2ecca4eb6cd4","ios":"levelo://app?vid=dd67999b-3c50-40cd-abc3-2ecca4eb6cd4"},"vehicle_type_id":"4","last_reported":1693044360,"current_range_meters":11600,"station_id":"ce4bhbp2rcd13ifvqerg","pricing_plan_id":"free"},{"bike_id":"74c33e45-ff9a-4c80-a021-bfd2d5550bcb","system_id":"levelo_inurba_marseille","lat":43.282744,"lon":5.350533,"is_reserved":false,"is_disabled":false,"rental_uris":{"android":"levelo://app?vid=74c33e45-ff9a-4c80-a021-bfd2d5550bcb","ios":"levelo://app?vid=74c33e45-ff9a-4c80-a021-bfd2d5550bcb"},"vehicle_type_id":"4","last_reported":1693044360,"current_range_meters":28000,"station_id":"ce4bhbp2rcd13ifvqerg","pricing_plan_id":"free"},{"bike_id":"3c9a7da5-ec76-43a9-9978-f862c4af4eb0","system_id":"levelo_inurba_marseille","lat":43.282744,"lon":5.350533,"is_reserved":false,"is_disabled":false,"rental_uris":{"android":"levelo://app?vid=3c9a7da5-ec76-43a9-9978-f862c4af4eb0","ios":"levelo://app?vid=3c9a7da5-ec76-43a9-9978-f862c4af4eb0"},"vehicle_type_id":"4","last_reported":1693044360,"current_range_meters":30400,"station_id":"ce4bhbp2rcd13ifvqerg","pricing_plan_id":"free"},{"bike_id":"ec7e0b4d-2790-4114-880a-8ff5f4cd5b2a","system_id":"levelo_inurba_marseille","lat":43.280382,"lon":5.369291,"is_reserved":false,"is_disabled":false,"rental_uris":{"android":"levelo://app?vid=ec7e0b4d-2790-4114-880a-8ff5f4cd5b2a","ios":"levelo://app?vid=ec7e0b4d-2790-4114-880a-8ff5f4cd5b2a"},"vehicle_type_id":"4","last_reported":1693044360,"current_range_meters":18800,"station_id":"ce4bha12rcd13ifvqef0","pricing_plan_id":"free"},