{"last_updated":1737108552,"ttl":60,"version":"2.2","data":{"bikes":[{"bike_id":"bf61f872-c7c0-4fc9-a695-cd372fc44eec","system_id":"levelo_inurba_marseille","lat":43.29627,"lon":5.37755,"is_reserved":false,"is_disabled":false,"rental_uris":{"android":"levelo://app?vid=bf61f872-c7c0-4fc9-a695-cd372fc44eec","ios":"levelo://app?vid=bf61f872-c7c0-4fc9-a695-cd372fc44eec"},"vehicle_type_id":"4","last_reported":1737108552,"current_range_meters":38800,"station_id":"ce4bgi92rcd13ifvqb90","pricing_plan_id":"cebpf4jnsgd1na2vs0mg"},{"bike_id":"e5286821-3788-4028-9a69-b47d06f8b759","system_id":"levelo_inurba_marseille","lat":43.30233,"lon":5.40083,"is_reserved":false,"is_disabled":false,"rental_uris":{"android":"levelo://app?vid=e5286821-3788-4028-9a69-b47d06f8b759","ios":"levelo://app?vid=e5286821-3788-4028-9a69-b47d06f8b759"},"vehicle_type_id":"4","last_reported":1737108552,"current_range_meters":8000,"station_id":"ce4bgvh2rcd13ifvqcs0","pricing_plan_id":"cebpf4jnsgd1na2vs0mg"},{"bike_id":"fef9d69f-eb11-4ee8-adea-2d8ab5ebd976","system_id":"levelo_inurba_marseille","lat":43.27488,"lon":5.42452,"is_reserved":false,"is_disabled":false,"rental_uris":{"android":"levelo://app?vid=fef9d69f-eb11-4ee8-adea-2d8ab5ebd976","ios":"levelo://app?vid=fef9d69f-eb11-4ee8-adea-2d8ab5ebd976"},"vehicle_type_id":"4","last_reported":1737108552,"current_range_meters":33600,"station_id":"ce4bhn92rcd13ifvqgrg","pricing_plan_id":"cebpf4jnsgd1na2vs0mg"},{"bike_id":"753ccb49-949e-4f76-bbe4-861c2515eec4","system_id":"levelo_inurba_marseille","lat":43.2992,"lon":5.37478,"is_reserved":false,"is_disabled":false,"rental_uris":{"android":"levelo://app?vid=753ccb49-949e-4f76-bbe4-861c2515eec4","ios":"levelo://app?vid=753ccb49-949e-4f76-bbe4-861c2515eec4"},"vehicle_type_id":"4","last_reported":1737108552,"current_range_meters":38800,"station_id":"ce4bgjh2rcd13ifvqbg0","pricing_plan_id":"cebpf4jnsgd1na2vs0mg"},{"bike_id":"a39c946b-f215-435b-b58f-d6dc4c7b0aaf","system_id":"levelo_inurba_marseille","lat":43.28161,"lon":5.42658,"is_reserved":false,"is_disabled":true,"rental_uris":{"android":"levelo://app?vid=a39c946b-f215-435b-b58f-d6dc4c7b0aaf","ios":"levelo://app?vid=a39c946b-f215-435b-b58f-d6dc4c7b0aaf"},"vehicle_type_id":"4","last_reported":1737108552,"current_range_meters":35200,"station_id":"ce4bhnh2rcd13ifvqgug","pricing_plan_id":"cebpf4jnsgd1na2vs0mg"},{"bike_id":"0b3db7fa-f56f-431e-9413-b99a7fab1950","system_id":"levelo_inurba_marseille","lat":43.29267,"lon":5.368477,"is_reserved":false,"is_disabled":false,"rental_uris":{"android":"levelo://app?vid=0b3db7fa-f56f-431e-9413-b99a7fab1950","ios":"levelo://app?vid=0b3db7fa-f56f-431e-9413-b99a7fab1950"},"vehicle_type_id":"4","last_reported":1737108552,"current_range_meters":34000,"station_id":"ce4bhbp2rcd13ifvqesg","pricing_plan_id":"cebpf4jnsgd1na2vs0mg"},{"bike_id":"391cf486-142c-4be0-bb26-f8b8acd9896a","system_id":"levelo_inurba_marseille","lat":43.29044,"lon":5.39964,"is_reserved":false,"is_disabled":false,"rental_uris":{"android":"levelo://app?vid=391cf486-142c-4be0-bb26-f8b8acd9896a","ios":"levelo://app?vid=391cf486-142c-4be0-bb26-f8b8acd9896a"},"vehicle_type_id":"4","last_reported":1737108552,"current_range_meters":23200,"station_id":"ce4bh392rcd13ifvqdm0","pricing_plan_id":"cebpf4jnsgd1na2vs0mg"},{"bike_id":"fe6ec55a-ba9f-49fc-8068-19090423fd05","system_id":"levelo_inurba_marseille","lat":43.23963,"lon":5.36631,"is_reserved":false,"is_disabled":false,"rental_uris":{"android":"levelo://app?vid=fe6ec55a-ba9f-49fc-8068-19090423fd05","ios":"levelo://app?vid=fe6ec55a-ba9f-49fc-8068-19090423fd05"},"vehicle_type_id":"4","last_reported":1737108552,"current_range_meters":24000,"station_id":"ce4bhi12rcd13ifvqfp0","pricing_plan_id":"cebpf4jnsgd1na2vs0mg"},{"bike_id":"352789ba-5de3-4f6e-84a8-32c41d59996f","system_id":"levelo_inurba_marseille","lat":43.30261,"lon":5.37718,"is_reserved":false,"is_disabled":false,"rental_uris":{"android":"levelo://app?vid=352789ba-5de3-4f6e-84a8-32c41d59996f","ios":"levelo://app?vid=352789ba-5de3-4f6e-84a8-32c41d59996f"},"vehicle_type_id":"4","last_reported":1737108552,"current_range_meters":24400,"station_id":"ce4bguh2rcd13ifvqcj0","pricing_plan_id":"cebpf4jnsgd1na2vs0mg"},{"bike_id":"736aa54d-b902-4630-8a90-71e7dee03587","system_id":"levelo_inurba_marseille","lat":43.26059,"lon":5.394,"is_reserved":false,"is_disabled":false,"rental_uris":{"android":"levelo://app?vid=736aa54d-b902-4630-8a90-71e7dee03587","ios":"levelo://app?vid=736aa54d-b902-4630-8a90-71e7dee03587"},"vehicle_type_id":"4","last_reported":1737108552,"current_range_meters":38400,"station_id":"ce4bhh92rcd13ifvqfj0","pricing_plan_id":"cebpf4jnsgd1na2vs0mg"},{"bike_id":"a4cea0cb-baac-4ddb-a6b2-572f0d25b4ba","system_id":"levelo_inurba_marseille","lat":43.3095,"lon":5.39049,"is_reserved":false,"is_disabled":false,"rental_uris":{"android":"levelo://app?vid=a4cea0cb-baac-4ddb-a6b2-572f0d25b4ba","ios":"levelo://app?vid=a4cea0cb-baac-4ddb-a6b2-572f0d25b4ba"},"vehicle_type_id":"4","last_reported":1737108552,"current_range_meters":13600,"station_id":"ce4bgup2rcd13ifvqco0","pricing_plan_id":"cebpf4jnsgd1na2vs0mg"},{"bike_id":"75af83de-4768-4db0-966d-e644eadea2da","system_id":"levelo_inurba_marseille","lat":43.24982,"lon":5.38947,"is_reserved":false,"is_disabled":false,"rental_uris":{"android":"levelo://app?vid=75af83de-4768-4db0-966d-e644eadea2da","ios":"levelo://app?vid=75af83de-4768-4db0-966d-e644eadea2da"},"vehicle_type_id":"4","last_reported":1737108552,"current_range_meters":23200,"station_id":"ce4bhgp2rcd13ifvqfd0","pricing_plan_id":"cebpf4jnsgd1na2vs0mg"},{"bike_id":"9564712b-78a3-4ed3-8291-2e2ae6c0de18","system_id":"levelo_inurba_marseille","lat":43.30522,"lon":5.36548,"is_reserved":false,"is_disabled":false,"rental_uris":{"android":"levelo://app?vid=9564712b-78a3-4ed3-8291-2e2ae6c0de18","ios":"levelo://app?vid=9564712b-78a3-4ed3-8291-2e2ae6c0de18"},"vehicle_type_id":"4","last_reported":1737108552,"current_range_meters":38800,"station_id":"ce4bgs12rcd13ifvqcag","pricing_plan_id":"cebpf4jnsgd1na2vs0mg"},{"bike_id":"ec628bb1-7486-496e-9453-1f0ffdb389fc","system_id":"levelo_inurba_marseille","lat":43.26947,"lon":5.38638,"is_reserved":false,"is_disabled":false,"rental_uris":{"android":"levelo://app?vid=ec628bb1-7486-496e-9453-1f0ffdb389fc","ios":"levelo://app?vid=ec628bb1-7486-496e-9453-1f0ffdb389fc"},"vehicle_type_id":"4","last_reported":1737108552,"current_range_meters":36400,"station_id":"ce4bhh92rcd13ifvqfh0","pricing_plan_id":"cebpf4jnsgd1na2vs0mg"},{"bike_id":"c1c86519-f5cc-47e9-b005-50914b54ad15","system_id":"levelo_inurba_marseille","lat":43.29012,"lon":5.37587,"is_reserved":false,"is_disabled":false,"rental_uris":{"android":"levelo://app?vid=c1c86519-f5cc-47e9-b005-50914b54ad15","ios":"levelo://app?vid=c1c86519-f5cc-47e9-b005-50914b54ad15"},"vehicle_type_id":"4","last_reported":1737108552,"current_range_meters":38400,"station_id":"ce4bh692rcd13ifvqe90","pricing_plan_id":"cebpf4jnsgd1na2vs0mg"},{"bike_id":"ab67834a-26d7-4518-8349-5d073114b8c1","system_id":"levelo_inurba_marseille","lat":43.30278,"lon":5.37727,"is_reserved":false,"is_disabled":false,"rental_uris":{"android":"levelo://app?vid=ab67834a-26d7-4518-8349-5d073114b8c1","ios":"levelo://app?vid=ab67834a-26d7-4518-8349-5d073114b8c1"},"vehicle_type_id":"4","last_reported":1737108552,"current_range_meters":36800,"station_id":"ce4bguh2rcd13ifvqcj0","pricing_plan_id":"cebpf4jnsgd1na2vs0mg"},{"bike_id":"7f02950a-6af8-4077-8bd4-f17cb739a40e","system_id":"levelo_inurba_marseille","lat":43.27064,"lon":5.42279,"is_reserved":false,"is_disabled":false,"rental_uris":{"android":"levelo://app?vid=7f02950a-6af8-4077-8bd4-f17cb739a40e","ios":"levelo://app?vid=7f02950a-6af8-4077-8bd4-f17cb739a40e"},"vehicle_type_id":"4","last_reported":1737108552,"current_range_meters":16800,"station_id":"ce4bhk92rcd13ifvqgb0","pricing_plan_id":"cebpf4jnsgd1na2vs0mg"},{"bike_id":"d0790979-642c-4578-9799-6dcaf9a868a4","system_id":"levelo_inurba_marseille","lat":43.30522,"lon":5.36536,"is_reserved":false,"is_disabled":false,"rental_uris":{"android":"levelo://app?vid=d0790979-642c-4578-9799-6dcaf9a868a4","ios":"levelo://app?vid=d0790979-642c-4578-9799-6dcaf9a868a4"},"vehicle_type_id":"4","last_reported":1737108552,"current_range_meters":36400,"station_id":"ce4bgs12rcd13ifvqcag","pricing_plan_id":"cebpf4jnsgd1na2vs0mg"},{"bike_id":"4c641f70-5b8d-4281-a1a7-59dd680ce73d","system_id":"levelo_inurba_marseille","lat":43.31399,"lon":5.3666,"is_reserved":false,"is_disabled":false,"rental_uris":{"android":"levelo://app?vid=4c641f70-5b8d-4281-a1a7-59dd680ce73d","ios":"levelo://app?vid=4c641f70-5b8d-4281-a1a7-59dd680ce73d"},"vehicle_type_id":"4","last_reported":1737108552,"current_range_meters":38800,"station_id":"ce4bgr92rcd13ifvqc6g","pricing_plan_id":"cebpf4jnsgd1na2vs0mg"},{"bike_id":"e173ad86-c1af-446f-b053-2c886638ed46","system_id":"levelo_inurba_marseille","lat":43.29572,"lon":5.3751,"is_reserved":false,"is_disabled":false,"rental_uris":{"android":"levelo://app?vid=e173ad86-c1af-446f-b053-2c886638ed46","ios":"levelo://app?vid=e173ad86-c1af-446f-b053-2c886638ed46"},"vehicle_type_id":"4","last_reported":1737108552,"current_range_meters":38800,"station_id":"ce4bgh92rcd13ifvqb50","pricing_plan_id":"cebpf4jnsgd1na2vs0mg"},{"bike_id":"d6e5cc89-ff9c-45cb-a683-4f6c11bb548b","system_id":"levelo_inurba_marseille","lat":43.28446,"lon":5.3921,"is_reserved":false,"is_disabled":false,"rental_uris":{"android":"levelo://app?vid=d6e5cc89-ff9c-45cb-a683-4f6c11bb548b","ios":"levelo://app?vid=d6e5cc89-ff9c-45cb-a683-4f6c11bb548b"},"vehicle_type_id":"4","last_reported":1737108552,"current_range_meters":33200,"station_id":"ce4bhoh2rcd13ifvqh5g","pricing_plan_id":"cebpf4jnsgd1na2vs0mg"},{"bike_id":"8b50e9d9-fde9-4331-a426-ca87591cde83","system_id":"levelo_inurba_marseille","lat":43.31704,"lon":5.37778,"is_reserved":false,"is_disabled":false,"rental_uris":{"android":"levelo://app?vid=8b50e9d9-fde9-4331-a426-ca87591cde83","ios":"levelo://app?vid=8b50e9d9-fde9-4331-a426-ca87591cde83"},"vehicle_type_id":"4","last_reported":1737108552,"current_range_meters":20400,"station_id":"ce4bgth2rcd13ifvqch0","pricing_plan_id":"cebpf4jnsgd1na2vs0mg"},{"bike_id":"e04049e7-2716-4433-bca0-88346a635364","system_id":"levelo_inurba_marseille","lat":43.29577,"lon":5.36725,"is_reserved":false,"is_disabled":false,"rental_uris":{"android":"levelo://app?vid=e04049e7-2716-4433-bca0-88346a635364","ios":"levelo://app?vid=e04049e7-2716-4433-bca0-88346a635364"},"vehicle_type_id":"4","last_reported":1737108552,"current_range_meters":38400,"station_id":"ce4bgph2rcd13ifvqc2g","pricing_plan_id":"cebpf4jnsgd1na2vs0mg"},{"bike_id":"085a8c52-8b5f-474b-8062-33a4233a26a4","system_id":"levelo_inurba_marseille","lat":43.26923,"lon":5.38667,"is_reserved":false,"is_disabled":false,"rental_uris":{"android":"levelo://app?vid=085a8c52-8b5f-474b-8062-33a4233a26a4","ios":"levelo://app?vid=085a8c52-8b5f-474b-8062-33a4233a26a4"},"vehicle_type_id":"4","last_reported":1737108552,"current_range_meters":38400,"station_id":"ce4bhh92rcd13ifvqfh0","pricing_plan_id":"cebpf4jnsgd1na2vs0mg"},{"bike_id":"c4fc9679-1008-473b-9e9b-26f1ed62312e","system_id":"levelo_inurba_marseille","lat":43.22959,"lon":5.35427,"is_reserved":false,"is_disabled":false,"rental_uris":{"android":"levelo://app?vid=c4fc9679-1008-473b-9e9b-26f1ed62312e","ios":"levelo://app?vid=c4fc9679-1008-473b-9e9b-26f1ed62312e"},"vehicle_type_id":"4","last_reported":1737108552,"current_range_meters":18800,"station_id":"","pricing_plan_id":"cebpf4jnsgd1na2vs0mg"},{"bike_id":"302e26a6-84a3-4e55-8f1e-f41d9d5a4c8c","system_id":"levelo_inurba_marseille","lat":43.28349,"lon":5.38108,"is_reserved":false,"is_disabled":false,"rental_uris":{"android":"levelo://app?vid=302e26a6-84a3-4e55-8f1e-f41d9d5a4c8c","ios":"levelo://app?vid=302e26a6-84a3-4e55-8f1e-f41d9d5a4c8c"},"vehicle_type_id":"4","last_reported":1737108552,"current_range_meters":32400,"station_id":"ce4bh412rcd13ifvqdr0","pricing_plan_id":"cebpf4jnsgd1na2vs0mg"},{"bike_id":"b1920697-5fee-4327-8d3c-4c5ded6c448a","system_id":"levelo_inurba_marseille","lat":43.29605,"lon":5.37725,"is_reserved":false,"is_disabled":false,"rental_uris":{"android":"levelo://app?vid=b1920697-5fee-4327-8d3c-4c5ded6c448a","ios":"levelo://app?vid=b1920697-5fee-4327-8d3c-4c5ded6c448a"},"vehicle_type_id":"4","last_reported":1737108552,"current_range_meters":38400,"station_id":"ce4bgi92rcd13ifvqb90","pricing_plan_id":"cebpf4jnsgd1na2vs0mg"},{"bike_id":"d2a859b8-3f91-4b5b-89f4-40a6a11a76b6","system_id":"levelo_inurba_marseille","lat":43.24063,"lon":5.37767,"is_reserved":false,"is_disabled":false,"rental_uris":{"android":"levelo://app?vid=d2a859b8-3f91-4b5b-89f4-40a6a11a76b6","ios":"levelo://app?vid=d2a859b8-3f91-4b5b-89f4-40a6a11a76b6"},"vehicle_type_id":"4","last_reported":1737108552,"current_range_meters":38800,"station_id":"ce4bhnp2rcd13ifvqgvg","pricing_plan_id":"cebpf4jnsgd1na2vs0mg"},{"bike_id":"e1946575-3ecd-46f3-b0df-b2f21711c5a7","system_id":"levelo_inurba_marseille","lat":43.29178,"lon":5.37138,"is_reserved":false,"is_disabled":true,"rental_uris":{"android":"levelo://app?vid=e1946575-3ecd-46f3-b0df-b2f21711c5a7","ios":"levelo://app?vid=e1946575-3ecd-46f3-b0df-b2f21711c5a7"},"vehicle_type_id":"4","last_reported":1737108552,"current_range_meters":34800,"station_id":"ce4bha92rcd13ifvqeh0","pricing_plan_id":"cebpf4jnsgd1na2vs0mg"},{"bike_id":"1b617085-74cb-4784-a5dd-128208a078f4","system_id":"levelo_inurba_marseille","lat":43.31404,"lon":5.36674,"is_reserved":false,"is_disabled":false,"rental_uris":{"android":"levelo://app?vid=1b617085-74cb-4784-a5dd-128208a078f4","ios":"levelo://app?vid=1b617085-74cb-4784-a5dd-128208a078f4"},"vehicle_type_id":"4","last_reported":1737108552,"current_range_meters":38800,"station_id":"ce4bgr92rcd13ifvqc6g","pricing_plan_id":"cebpf4jnsgd1na2vs0mg"},{"bike_id":"7bff6b70-c347-452a-86fc-ce3998f9f599","system_id":"levelo_inurba_marseille","lat":43.24067,"lon":5.37747,"is_reserved":false,"is_disabled":false,"rental_uris":{"android":"levelo://app?vid=7bff6b70-c347-452a-86fc-ce3998f9f599","ios":"levelo://app?vid=7bff6b70-c347-452a-86fc-ce3998f9f599"},"vehicle_type_id":"4","last_reported":1737108552,"current_range_meters":27600,"station_id":"ce4bhnp2rcd13ifvqgvg","pricing_plan_id":"cebpf4jnsgd1na2vs0mg"},{"bike_id":"3eea301d-5da0-4573-aa60-e81ee559e113","system_id":"levelo_inurba_marseille","lat":43.27498,"lon":5.42449,"is_reserved":false,"is_disabled":false,"rental_uris":{"android":"levelo://app?vid=3eea301d-5da0-4573-aa60-e81ee559e113","ios":"levelo://app?vid=3eea301d-5da0-4573-aa60-e81ee559e113"},"vehicle_type_id":"4","last_reported":1737108552,"current_range_meters":23200,"station_id":"ce4bhn92rcd13ifvqgrg","pricing_plan_id":"cebpf4jnsgd1na2vs0mg"},{"bike_id":"017e8f80-df95-465a-8d42-b37cd001e8aa","system_id":"levelo_inurba_marseille","lat":43.31354,"lon":5.36663,"is_reserved":false,"is_disabled":false,"rental_uris":{"android":"levelo://app?vid=017e8f80-df95-465a-8d42-b37cd001e8aa","ios":"levelo://app?vid=017e8f80-df95-465a-8d42-b37cd001e8aa"},"vehicle_type_id":"4","last_reported":1737108552,"current_range_meters":38400,"station_id":"ce4bgr92rcd13ifvqc6g","pricing_plan_id":"cebpf4jnsgd1na2vs0mg"},{"bike_id":"e758cbbe-9653-4cc9-961a-fdfdcffebd3d","system_id":"levelo_inurba_marseille","lat":43.30419,"lon":5.3974,"is_reserved":false,"is_disabled":false,"rental_uris":{"android":"levelo://app?vid=e758cbbe-9653-4cc9-961a-fdfdcffebd3d","ios":"levelo://app?vid=e758cbbe-9653-4cc9-961a-fdfdcffebd3d"},"vehicle_type_id":"4","last_reported":1737108552,"current_range_meters":16400,"station_id":"ce4bh092rcd13ifvqd20","pricing_plan_id":"cebpf4jnsgd1na2vs0mg"},{"bike_id":"66065961-8f66-46c8-be70-f9092a8345b6","system_id":"levelo_inurba_marseille","lat":43.29091,"lon":5.38157,"is_reserved":false,"is_disabled":false,"rental_uris":{"android":"levelo://app?vid=66065961-8f66-46c8-be70-f9092a8345b6","ios":"levelo://app?vid=66065961-8f66-46c8-be70-f9092a8345b6"},"vehicle_type_id":"4","last_reported":1737108552,"current_range_meters":36400,"station_id":"ce4bh512rcd13ifvqe2g","pricing_plan_id":"cebpf4jnsgd1na2vs0mg"},{"bike_id":"a8513bfd-4fd3-4342-a553-667ab2f2734a","system_id":"levelo_inurba_marseille","lat":43.31492,"lon":5.37274,"is_reserved":false,"is_disabled":false,"rental_uris":{"android":"levelo://app?vid=a8513bfd-4fd3-4342-a553-667ab2f2734a","ios":"levelo://app?vid=a8513bfd-4fd3-4342-a553-667ab2f2734a"},"vehicle_type_id":"4","last_reported":1737108552,"current_range_meters":29600,"station_id":"ce4bgt12rcd13ifvqcd0","pricing_plan_id":"cebpf4jnsgd1na2vs0mg"},{"bike_id":"7ddbdcc7-9159-4005-b875-ec2d7fc85593","system_id":"levelo_inurba_marseille","lat":43.30154,"lon":5.38099,"is_reserved":false,"is_disabled":false,"rental_uris":{"android":"levelo://app?vid=7ddbdcc7-9159-4005-b875-ec2d7fc85593","ios":"levelo://app?vid=7ddbdcc7-9159-4005-b875-ec2d7fc85593"},"vehicle_type_id":"4","last_reported":1737108552,"current_range_meters":38400,"station_id":"ce4bgjp2rcd13ifvqbh0","pricing_plan_id":"cebpf4jnsgd1na2vs0mg"},{"bike_id":"336f0e98-7182-4f38-84c4-96b508a6f7ef","system_id":"levelo_inurba_marseille","lat":43.30421,"lon":5.39748,"is_reserved":false,"is_disabled":false,"rental_uris":{"android":"levelo://app?vid=336f0e98-7182-4f38-84c4-96b508a6f7ef","ios":"levelo://app?vid=336f0e98-7182-4f38-84c4-96b508a6f7ef"},"vehicle_type_id":"4","last_reported":1737108552,"current_range_meters":13600,"station_id":"ce4bh092rcd13ifvqd20","pricing_plan_id":"cebpf4jnsgd1na2vs0mg"},{"bike_id":"66ec8711-3dbc-48f7-b091-25773ac6b77c","system_id":"levelo_inurba_marseille","lat":43.28123,"lon":5.44196,"is_reserved":false,"is_disabled":true,"rental_uris":{"android":"levelo://app?vid=66ec8711-3dbc-48f7-b091-25773ac6b77c","ios":"levelo://app?vid=66ec8711-3dbc-48f7-b091-25773ac6b77c"},"vehicle_type_id":"4","last_reported":1737108552,"current_range_meters":0,"station_id":"","pricing_plan_id":"cebpf4jnsgd1na2vs0mg"},{"bike_id":"8e6b34b1-09d8-4268-a365-e43071a71869","system_id":"levelo_inurba_marseille","lat":43.2749,"lon":5.42459,"is_reserved":false,"is_disabled":false,"rental_uris":{"android":"levelo://app?vid=8e6b34b1-09d8-4268-a365-e43071a71869","ios":"levelo://app?vid=8e6b34b1-09d8-4268-a365-e43071a71869"},"vehicle_type_id":"4","last_reported":1737108552,"current_range_meters":6800,"station_id":"ce4bhn92rcd13ifvqgrg","pricing_plan_id":"cebpf4jnsgd1na2vs0mg"},{"bike_id":"7e25d448-626b-4f11-934a-f8911b1b0c6c","system_id":"levelo_inurba_marseille","lat":43.251,"lon":5.40329,"is_reserved":false,"is_disabled":false,"rental_uris":{"android":"levelo://app?vid=7e25d448-626b-4f11-934a-f8911b1b0c6c","ios":"levelo://app?vid=7e25d448-626b-4f11-934a-f8911b1b0c6c"},"vehicle_type_id":"4","last_reported":1737108552,"current_range_meters":37600,"station_id":"ce4bhlh2rcd13ifvqgig","pricing_plan_id":"cebpf4jnsgd1na2vs0mg"},{"bike_id":"d185996c-e9f6-41dd-8dd9-81acc7e1c6b3","system_id":"levelo_inurba_marseille","lat":43.26947,"lon":5.38902,"is_reserved":false,"is_disabled":false,"rental_uris":{"android":"levelo://app?vid=d185996c-e9f6-41dd-8dd9-81acc7e1c6b3","ios":"levelo://app?vid=d185996c-e9f6-41dd-8dd9-81acc7e1c6b3"},"vehicle_type_id":"4","last_reported":1737108552,"current_range_meters":38000,"station_id":"ce4bhhh2rcd13ifvqfl0","pricing_plan_id":"cebpf4jnsgd1na2vs0mg"},{"bike_id":"9ed5135d-1c03-481e-bcba-4c421bcc8f03","system_id":"levelo_inurba_marseille","lat":43.26948,"lon":5.38648,"is_reserved":false,"is_disabled":false,"rental_uris":{"android":"levelo://app?vid=9ed5135d-1c03-481e-bcba-4c421bcc8f03","ios":"levelo://app?vid=9ed5135d-1c03-481e-bcba-4c421bcc8f03"},"vehicle_type_id":"4","last_reported":1737108552,"current_range_meters":38800,"station_id":"ce4bhh92rcd13ifvqfh0","pricing_plan_id":"cebpf4jnsgd1na2vs0mg"},{"bike_id":"e94f5751-3760-4f03-84d5-5ceb919334c8","system_id":"levelo_inurba_marseille","lat":43.25117,"lon":5.40319,"is_reserved":false,"is_disabled":false,"rental_uris":{"android":"levelo://app?vid=e94f5751-3760-4f03-84d5-5ceb919334c8","ios":"levelo://app?vid=e94f5751-3760-4f03-84d5-5ceb919334c8"},"vehicle_type_id":"4","last_reported":1737108552,"current_range_meters":12400,"station_id":"ce4bhlh2rcd13ifvqgig","pricing_plan_id":"cebpf4jnsgd1na2vs0mg"},{"bike_id":"954b17d3-0d50-4d1d-9755-857bdc284020","system_id":"levelo_inurba_marseille","lat":43.28149,"lon":5.42631,"is_reserved":false,"is_disabled":false,"rental_uris":{"android":"levelo://app?vid=954b17d3-0d50-4d1d-9755-857bdc284020","ios":"levelo://app?vid=954b17d3-0d50-4d1d-9755-857bdc284020"},"vehicle_type_id":"4","last_reported":1737108552,"current_range_meters":28000,"station_id":"ce4bhnh2rcd13ifvqgug","pricing_plan_id":"cebpf4jnsgd1na2vs0mg"},{"bike_id":"13a5846c-aa9c-4132-934d-f4361eefab88","system_id":"levelo_inurba_marseille","lat":43.27492,"lon":5.42451,"is_reserved":false,"is_disabled":false,"rental_uris":{"android":"levelo://app?vid=13a5846c-aa9c-4132-934d-f4361eefab88","ios":"levelo://app?vid=13a5846c-aa9c-4132-934d-f4361eefab88"},"vehicle_type_id":"4","last_reported":1737108552,"current_range_meters":25600,"station_id":"ce4bhn92rcd13ifvqgrg","pricing_plan_id":"cebpf4jnsgd1na2vs0mg"},{"bike_id":"4d4fb849-358e-4e69-8f06-e8383debd841","system_id":"levelo_inurba_marseille","lat":43.291003,"lon":5.381427,"is_reserved":false,"is_disabled":false,"rental_uris":{"android":"levelo://app?vid=4d4fb849-358e-4e69-8f06-e8383debd841","ios":"levelo://app?vid=4d4fb849-358e-4e69-8f06-e8383debd841"},"vehicle_type_id":"4","last_reported":1737108552,"current_range_meters":38000,"station_id":"ce4bh512rcd13ifvqe2g","pricing_plan_id":"cebpf4jnsgd1na2vs0mg"},{"bike_id":"0321cd6b-aaff-46d7-aacd-a1fa403e5c50","system_id":"levelo_inurba_marseille","lat":43.331,"lon":5.38225,"is_reserved":false,"is_disabled":true,"rental_uris":{"android":"levelo://app?vid=0321cd6b-aaff-46d7-aacd-a1fa403e5c50","ios":"levelo://app?vid=0321cd6b-aaff-46d7-aacd-a1fa403e5c50"},"vehicle_type_id":"4","last_reported":1737108552,"current_range_meters":2000,"station_id":"","pricing_plan_id":"cebpf4jnsgd1na2vs0mg"},{"bike_id":"91900ac4-47c8-4400-a455-eba2ccf2e7e7","system_id":"levelo_inurba_marseille","lat":43.29625,"lon":5.37149,"is_reserved":false,"is_disabled":false,"rental_uris":{"android":"levelo://app?vid=91900ac4-47c8-4400-a455-eba2ccf2e7e7","ios":"levelo://app?vid=91900ac4-47c8-4400-a455-eba2ccf2e7e7"},"vehicle_type_id":"4","last_reported":1737108552,"current_range_meters":38800,"station_id":"ce4bgnh2rcd13ifvqc0g","pricing_plan_id":"cebpf4jnsgd1na2vs0mg"},{"bike_id":"1d363b0b-7b5a-4a5a-bd2f-9bf076208f41","system_id":"levelo_inurba_marseille","lat":43.29968,"lon":5.38497,"is_reserved":false,"is_disabled":false,"rental_uris":{"android":"levelo://app?vid=1d363b0b-7b5a-4a5a-bd2f-9bf076208f41","ios":"levelo://app?vid=1d363b0b-7b5a-4a5a-bd2f-9bf076208f41"},"vehicle_type_id":"4","last_reported":1737108552,"current_range_meters":38400,"station_id":"ce4bgj92rcd13ifvqbd0","pricing_plan_id":"cebpf4jnsgd1na2vs0mg"},{"bike_id":"569f3824-2521-4c24-85a1-4ab6d6b08add","system_id":"levelo_inurba_marseille","lat":43.29527,"lon":5.37502,"is_reserved":false,"is_disabled":false,"rental_uris":{"android":"levelo://app?vid=569f3824-2521-4c24-85a1-4ab6d6b08add","ios":"levelo://app?vid=569f3824-2521-4c24-85a1-4ab6d6b08add"},"vehicle_type_id":"4","last_reported":1737108552,"current_range_meters":7200,"station_id":"ce4bgkp2rcd13ifvqbmg","pricing_plan_id":"cebpf4jnsgd1na2vs0mg"},{"bike_id":"f49bbacb-e58b-4943-bbd1-f99a8960938f","system_id":"levelo_inurba_marseille","lat":43.2404,"lon":5.3778,"is_reserved":false,"is_disabled":false,"rental_uris":{"android":"levelo://app?vid=f49bbacb-e58b-4943-bbd1-f99a8960938f","ios":"levelo://app?vid=f49bbacb-e58b-4943-bbd1-f99a8960938f"},"vehicle_type_id":"4","last_reported":1737108552,"current_range_meters":15200,"station_id":"ce4bhnp2rcd13ifvqgvg","pricing_plan_id":"cebpf4jnsgd1na2vs0mg"},{"bike_id":"4d21a537-3816-432c-8aec-6acfffac2e27","system_id":"levelo_inurba_marseille","lat":43.31894,"lon":5.40732,"is_reserved":false,"is_disabled":false,"rental_uris":{"android":"levelo://app?vid=4d21a537-3816-432c-8aec-6acfffac2e27","ios":"levelo://app?vid=4d21a537-3816-432c-8aec-6acfffac2e27"},"vehicle_type_id":"4","last_reported":1737108552,"current_range_meters":36800,"station_id":"ce4bhq12rcd13ifvqhig","pricing_plan_id":"cebpf4jnsgd1na2vs0mg"},{"bike_id":"ce297257-1342-40f1-9aa7-5236d054c916","system_id":"levelo_inurba_marseille","lat":43.2827,"lon":5.35078,"is_reserved":false,"is_disabled":false,"rental_uris":{"android":"levelo://app?vid=ce297257-1342-40f1-9aa7-5236d054c916","ios":"levelo://app?vid=ce297257-1342-40f1-9aa7-5236d054c916"},"vehicle_type_id":"4","last_reported":1737108552,"current_range_meters":38800,"station_id":"ce4bhbp2rcd13ifvqerg","pricing_plan_id":"cebpf4jnsgd1na2vs0mg"},{"bike_id":"fa53afd0-c3c0-46c2-be7e-d056eb14f6b8","system_id":"levelo_inurba_marseille","lat":43.26061,"lon":5.39412,"is_reserved":false,"is_disabled":false,"rental_uris":{"android":"levelo://app?vid=fa53afd0-c3c0-46c2-be7e-d056eb14f6b8","ios":"levelo://app?vid=fa53afd0-c3c0-46c2-be7e-d056eb14f6b8"},"vehicle_type_id":"4","last_reported":1737108552,"current_range_meters":36800,"station_id":"ce4bhh92rcd13ifvqfj0","pricing_plan_id":"cebpf4jnsgd1na2vs0mg"},{"bike_id":"9d83d881-f930-40f7-9f50-d3683ac69753","system_id":"levelo_inurba_marseille","lat":43.33603,"lon":5.41029,"is_reserved":false,"is_disabled":false,"rental_uris":{"android":"levelo://app?vid=9d83d881-f930-40f7-9f50-d3683ac69753","ios":"levelo://app?vid=9d83d881-f930-40f7-9f50-d3683ac69753"},"vehicle_type_id":"4","last_reported":1737108552,"current_range_meters":10800,"station_id":"ce4bhqh2rcd13ifvqhmg","pricing_plan_id":"cebpf4jnsgd1na2vs0mg"},{"bike_id":"a504e3e9-d965-42b1-a0b3-e500ac85b333","system_id":"levelo_inurba_marseille","lat":43.3031,"lon":5.36909,"is_reserved":false,"is_disabled":false,"rental_uris":{"android":"levelo://app?vid=a504e3e9-d965-42b1-a0b3-e500ac85b333","ios":"levelo://app?vid=a504e3e9-d965-42b1-a0b3-e500ac85b333"},"vehicle_type_id":"4","last_reported":1737108552,"current_range_meters":38800,"station_id":"ce4bgqh2rcd13ifvqc5g","pricing_plan_id":"cebpf4jnsgd1na2vs0mg"},{"bike_id":"3d6936a1-966d-40c2-b6f7-230fdc254069","system_id":"levelo_inurba_marseille","lat":43.30591,"lon":5.39354,"is_reserved":false,"is_disabled":false,"rental_uris":{"android":"levelo://app?vid=3d6936a1-966d-40c2-b6f7-230fdc254069","ios":"levelo://app?vid=3d6936a1-966d-40c2-b6f7-230fdc254069"},"vehicle_type_id":"4","last_reported":1737108552,"current_range_meters":38800,"station_id":"ce4bh0p2rcd13ifvqd80","pricing_plan_id":"cebpf4jnsgd1na2vs0mg"},{"bike_id":"4f37ba27-94af-469b-96f7-4e677c5b4155","system_id":"levelo_inurba_marseille","lat":43.23149,"lon":5.43711,"is_reserved":false,"is_disabled":false,"rental_uris":{"android":"levelo://app?vid=4f37ba27-94af-469b-96f7-4e677c5b4155","ios":"levelo://app?vid=4f37ba27-94af-469b-96f7-4e677c5b4155"},"vehicle_type_id":"4","last_reported":1737108552,"current_range_meters":12000,"station_id":"ce4bhmp2rcd13ifvqgog","pricing_plan_id":"cebpf4jnsgd1na2vs0mg"},{"bike_id":"4d1588c9-64ed-41be-b140-0319498e7791","system_id":"levelo_inurba_marseille","lat":43.29417,"lon":5.38629,"is_reserved":false,"is_disabled":true,"rental_uris":{"android":"levelo://app?vid=4d1588c9-64ed-41be-b140-0319498e7791","ios":"levelo://app?vid=4d1588c9-64ed-41be-b140-0319498e7791"},"vehicle_type_id":"4","last_reported":1737108552,"current_range_meters":38800,"station_id":"ce4bh2h2rcd13ifvqdh0","pricing_plan_id":"cebpf4jnsgd1na2vs0mg"},{"bike_id":"c2cfe7ed-6f5d-483c-9df9-dab23b34d5e6","system_id":"levelo_inurba_marseille","lat":43.28376,"lon":5.38772,"is_reserved":false,"is_disabled":false,"rental_uris":{"android":"levelo://app?vid=c2cfe7ed-6f5d-483c-9df9-dab23b34d5e6","ios":"levelo://app?vid=c2cfe7ed-6f5d-483c-9df9-dab23b34d5e6"},"vehicle_type_id":"4","last_reported":1737108552,"current_range_meters":22400,"station_id":"","pricing_plan_id":"cebpf4jnsgd1na2vs0mg"},{"bike_id":"2f5d5213-6da7-4219-9896-e576b8f889e5","system_id":"levelo_inurba_marseille","lat":43.29257,"lon":5.40909,"is_reserved":false,"is_disabled":false,"rental_uris":{"android":"levelo://app?vid=2f5d5213-6da7-4219-9896-e576b8f889e5","ios":"levelo://app?vid=2f5d5213-6da7-4219-9896-e576b8f889e5"},"vehicle_type_id":"4","last_reported":1737108552,"current_range_meters":36400,"station_id":"ce4bh192rcd13ifvqdc0","pricing_plan_id":"cebpf4jnsgd1na2vs0mg"},{"bike_id":"d1862250-c49b-4fd7-98c4-e6bf2e57b9d5","system_id":"levelo_inurba_marseille","lat":43.26945,"lon":5.38624,"is_reserved":false,"is_disabled":false,"rental_uris":{"android":"levelo://app?vid=d1862250-c49b-4fd7-98c4-e6bf2e57b9d5","ios":"levelo://app?vid=d1862250-c49b-4fd7-98c4-e6bf2e57b9d5"},"vehicle_type_id":"4","last_reported":1737108552,"current_range_meters":28000,"station_id":"ce4bhh92rcd13ifvqfh0","pricing_plan_id":"cebpf4jnsgd1na2vs0mg"},{"bike_id":"45782423-ed10-4589-9a98-4c4f7bdbf4c0","system_id":"levelo_inurba_marseille","lat":43.29799,"lon":5.38126,"is_reserved":false,"is_disabled":true,"rental_uris":{"android":"levelo://app?vid=45782423-ed10-4589-9a98-4c4f7bdbf4c0","ios":"levelo://app?vid=45782423-ed10-4589-9a98-4c4f7bdbf4c0"},"vehicle_type_id":"4","last_reported":1737108552,"current_range_meters":25600,"station_id":"ce4bgip2rcd13ifvqbb0","pricing_plan_id":"cebpf4jnsgd1na2vs0mg"},{"bike_id":"828b8c74-d900-47e9-8b84-104166dc348c","system_id":"levelo_inurba_marseille","lat":43.29375,"lon":5.37855,"is_reserved":false,"is_disabled":false,"rental_uris":{"android":"levelo://app?vid=828b8c74-d900-47e9-8b84-104166dc348c","ios":"levelo://app?vid=828b8c74-d900-47e9-8b84-104166dc348c"},"vehicle_type_id":"4","last_reported":1737108552,"current_range_meters":38800,"station_id":"ce4bgjh2rcd13ifvqbf0","pricing_plan_id":"cebpf4jnsgd1na2vs0mg"},{"bike_id":"f835befa-e0c4-4cbe-a2f0-932b8650c0b0","system_id":"levelo_inurba_marseille","lat":43.23181,"lon":5.39998,"is_reserved":false,"is_disabled":false,"rental_uris":{"android":"levelo://app?vid=f835befa-e0c4-4cbe-a2f0-932b8650c0b0","ios":"levelo://app?vid=f835befa-e0c4-4cbe-a2f0-932b8650c0b0"},"vehicle_type_id":"4","last_reported":1737108552,"current_range_meters":12400,"station_id":"ce4bhn12rcd13ifvqgqg","pricing_plan_id":"cebpf4jnsgd1na2vs0mg"},{"bike_id":"41b0b4ec-7526-4290-96f9-44cbe4cd1ada","system_id":"levelo_inurba_marseille","lat":43.26773,"lon":5.39426,"is_reserved":false,"is_disabled":false,"rental_uris":{"android":"levelo://app?vid=41b0b4ec-7526-4290-96f9-44cbe4cd1ada","ios":"levelo://app?vid=41b0b4ec-7526-4290-96f9-44cbe4cd1ada"},"vehicle_type_id":"4","last_reported":1737108552,"current_range_meters":17600,"station_id":"ce4bhh12rcd13ifvqfg0","pricing_plan_id":"cebpf4jnsgd1na2vs0mg"},{"bike_id":"6ea4d259-06b8-4e0f-9494-4eae2040b46d","system_id":"levelo_inurba_marseille","lat":43.24179,"lon":5.39724,"is_reserved":false,"is_disabled":false,"rental_uris":{"android":"levelo://app?vid=6ea4d259-06b8-4e0f-9494-4eae2040b46d","ios":"levelo://app?vid=6ea4d259-06b8-4e0f-9494-4eae2040b46d"},"vehicle_type_id":"4","last_reported":1737108552,"current_range_meters":28000,"station_id":"ce4bhn12rcd13ifvqgpg","pricing_plan_id":"cebpf4jnsgd1na2vs0mg"},{"bike_id":"dc37a599-8cf5-4591-921f-fff8fa3a6a8e","system_id":"levelo_inurba_marseille","lat":43.28414,"lon":5.34978,"is_reserved":false,"is_disabled":false,"rental_uris":{"android":"levelo://app?vid=dc37a599-8cf5-4591-921f-fff8fa3a6a8e","ios":"levelo://app?vid=dc37a599-8cf5-4591-921f-fff8fa3a6a8e"},"vehicle_type_id":"4","last_reported":1737108552,"current_range_meters":25200,"station_id":"ce4bhbh2rcd13ifvqepg","pricing_plan_id":"cebpf4jnsgd1na2vs0mg"},{"bike_id":"1e081522-133c-445b-9bc5-833fa6b07c64","system_id":"levelo_inurba_marseille","lat":43.27214,"lon":5.39177,"is_reserved":false,"is_disabled":false,"rental_uris":{"android":"levelo://app?vid=1e081522-133c-445b-9bc5-833fa6b07c64","ios":"levelo://app?vid=1e081522-133c-445b-9bc5-833fa6b07c64"},"vehicle_type_id":"4","last_reported":1737108552,"current_range_meters":24400,"station_id":"ce4bhhp2rcd13ifvqfm0","pricing_plan_id":"cebpf4jnsgd1na2vs0mg"},{"bike_id":"7f00d6fe-0ac6-487b-b78d-f454f06bb422","system_id":"levelo_inurba_marseille","lat":43.32562,"lon":5.41423,"is_reserved":false,"is_disabled":false,"rental_uris":{"android":"levelo://app?vid=7f00d6fe-0ac6-487b-b78d-f454f06bb422","ios":"levelo://app?vid=7f00d6fe-0ac6-487b-b78d-f454f06bb422"},"vehicle_type_id":"4","last_reported":1737108552,"current_range_meters":24400,"station_id":"ce4bhq12rcd13ifvqhhg","pricing_plan_id":"cebpf4jnsgd1na2vs0mg"},{"bike_id":"2c839bfc-228b-4afd-9c45-0e54b8f36672","system_id":"levelo_inurba_marseille","lat":43.24648,"lon":5.38915,"is_reserved":false,"is_disabled":false,"rental_uris":{"android":"levelo://app?vid=2c839bfc-228b-4afd-9c45-0e54b8f36672","ios":"levelo://app?vid=2c839bfc-228b-4afd-9c45-0e54b8f36672"},"vehicle_type_id":"4","last_reported":1737108552,"current_range_meters":38800,"station_id":"ce4bhg12rcd13ifvqf60","pricing_plan_id":"cebpf4jnsgd1na2vs0mg"},{"bike_id":"35bacf61-442e-4f08-b164-1d627f5b24e1","system_id":"levelo_inurba_marseille","lat":43.32548,"lon":5.41458,"is_reserved":false,"is_disabled":false,"rental_uris":{"android":"levelo://app?vid=35bacf61-442e-4f08-b164-1d627f5b24e1","ios":"levelo://app?vid=35bacf61-442e-4f08-b164-1d627f5b24e1"},"vehicle_type_id":"4","last_reported":1737108552,"current_range_meters":14800,"station_id":"ce4bhq12rcd13ifvqhhg","pricing_plan_id":"cebpf4jnsgd1na2vs0mg"},{"bike_id":"8d27bf26-c6df-4bb5-95e0-568b98a6ece5","system_id":"levelo_inurba_marseille","lat":43.337444,"lon":5.374475,"is_reserved":false,"is_disabled":false,"rental_uris":{"android":"levelo://app?vid=8d27bf26-c6df-4bb5-95e0-568b98a6ece5","ios":"levelo://app?vid=8d27bf26-c6df-4bb5-95e0-568b98a6ece5"},"vehicle_type_id":"4","last_reported":1737108552,"current_range_meters":25600,"station_id":"","pricing_plan_id":"cebpf4jnsgd1na2vs0mg"},{"bike_id":"4a814b76-0e5f-484f-bcdd-b8c1e114479c","system_id":"levelo_inurba_marseille","lat":43.26947,"lon":5.3864,"is_reserved":false,"is_disabled":false,"rental_uris":{"android":"levelo://app?vid=4a814b76-0e5f-484f-bcdd-b8c1e114479c","ios":"levelo://app?vid=4a814b76-0e5f-484f-bcdd-b8c1e114479c"},"vehicle_type_id":"4","last_reported":1737108552,"current_range_meters":14400,"station_id":"ce4bhh92rcd13ifvqfh0","pricing_plan_id":"cebpf4jnsgd1na2vs0mg"},{"bike_id":"357eaeda-fef2-41f2-9ad0-621ae2cc5c09","system_id":"levelo_inurba_marseille","lat":43.33756,"lon":5.37487,"is_reserved":false,"is_disabled":false,"rental_uris":{"android":"levelo://app?vid=357eaeda-fef2-41f2-9ad0-621ae2cc5c09","ios":"levelo://app?vid=357eaeda-fef2-41f2-9ad0-621ae2cc5c09"},"vehicle_type_id":"4","last_reported":1737108552,"current_range_meters":36000,"station_id":"","pricing_plan_id":"cebpf4jnsgd1na2vs0mg"},{"bike_id":"fed11d0f-977e-443b-a693-d5ff6345bfde","system_id":"levelo_inurba_marseille","lat":43.24072,"lon":5.37784,"is_reserved":false,"is_disabled":false,"rental_uris":{"android":"levelo://app?vid=fed11d0f-977e-443b-a693-d5ff6345bfde","ios":"levelo://app?vid=fed11d0f-977e-443b-a693-d5ff6345bfde"},"vehicle_type_id":"4","last_reported":1737108552,"current_range_meters":26800,"station_id":"ce4bhnp2rcd13ifvqgvg","pricing_plan_id":"cebpf4jnsgd1na2vs0mg"},{"bike_id":"1605fa7e-27a5-4ded-980c-ff128b56af6a","system_id":"levelo_inurba_marseille","lat":43.27171,"lon":5.41,"is_reserved":false,"is_disabled":false,"rental_uris":{"android":"levelo://app?vid=1605fa7e-27a5-4ded-980c-ff128b56af6a","ios":"levelo://app?vid=1605fa7e-27a5-4ded-980c-ff128b56af6a"},"vehicle_type_id":"4","last_reported":1737108552,"current_range_meters":38000,"station_id":"ce4bhl12rcd13ifvqgf0","pricing_plan_id":"cebpf4jnsgd1na2vs0mg"},{"bike_id":"7c7fb340-91d3-481f-bef7-3c012bdf7da2","system_id":"levelo_inurba_marseille","lat":43.27999,"lon":5.41673,"is_reserved":false,"is_disabled":true,"rental_uris":{"android":"levelo://app?vid=7c7fb340-91d3-481f-bef7-3c012bdf7da2","ios":"levelo://app?vid=7c7fb340-91d3-481f-bef7-3c012bdf7da2"},"vehicle_type_id":"4","last_reported":1737108552,"current_range_meters":36800,"station_id":"ce4bho12rcd13ifvqh1g","pricing_plan_id":"cebpf4jnsgd1na2vs0mg"},{"bike_id":"c9b5ecc4-bcc3-4b80-bf48-277d304394c4","system_id":"levelo_inurba_marseille","lat":43.29797,"lon":5.381,"is_reserved":false,"is_disabled":false,"rental_uris":{"android":"levelo://app?vid=c9b5ecc4-bcc3-4b80-bf48-277d304394c4","ios":"levelo://app?vid=c9b5ecc4-bcc3-4b80-bf48-277d304394c4"},"vehicle_type_id":"4","last_reported":1737108552,"current_range_meters":38000,"station_id":"ce4bgip2rcd13ifvqbb0","pricing_plan_id":"cebpf4jnsgd1na2vs0mg"},{"bike_id":"beb934a8-669e-45c0-a57b-432659c27ac4","system_id":"levelo_inurba_marseille","lat":43.30649,"lon":5.40078,"is_reserved":false,"is_disabled":false,"rental_uris":{"android":"levelo://app?vid=beb934a8-669e-45c0-a57b-432659c27ac4","ios":"levelo://app?vid=beb934a8-669e-45c0-a57b-432659c27ac4"},"vehicle_type_id":"4","last_reported":1737108552,"current_range_meters":9600,"station_id":"ce4bh112rcd13ifvqda0","pricing_plan_id":"cebpf4jnsgd1na2vs0mg"},{"bike_id":"222cb133-5b42-4b57-8acc-6982b2c8d4d0","system_id":"levelo_inurba_marseille","lat":43.33596,"lon":5.41001,"is_reserved":false,"is_disabled":false,"rental_uris":{"android":"levelo://app?vid=222cb133-5b42-4b57-8acc-6982b2c8d4d0","ios":"levelo://app?vid=222cb133-5b42-4b57-8acc-6982b2c8d4d0"},"vehicle_type_id":"4","last_reported":1737108552,"current_range_meters":27200,"station_id":"ce4bhqh2rcd13ifvqhmg","pricing_plan_id":"cebpf4jnsgd1na2vs0mg"},{"bike_id":"726d4d95-3596-4dcd-a0ae-7ee43e499334","system_id":"levelo_inurba_marseille","lat":43.259276,"lon":5.409094,"is_reserved":false,"is_disabled":false,"rental_uris":{"android":"levelo://app?vid=726d4d95-3596-4dcd-a0ae-7ee43e499334","ios":"levelo://app?vid=726d4d95-3596-4dcd-a0ae-7ee43e499334"},"vehicle_type_id":"4","last_reported":1737108552,"current_range_meters":16400,"station_id":"ce4bhm92rcd13ifvqglg","pricing_plan_id":"cebpf4jnsgd1na2vs0mg"},{"bike_id":"0f736ebc-b87e-42e4-bd96-a6e49d99dc0b","system_id":"levelo_inurba_marseille","lat":43.2928,"lon":5.36868,"is_reserved":false,"is_disabled":true,"rental_uris":{"android":"levelo://app?vid=0f736ebc-b87e-42e4-bd96-a6e49d99dc0b","ios":"levelo://app?vid=0f736ebc-b87e-42e4-bd96-a6e49d99dc0b"},"vehicle_type_id":"4","last_reported":1737108552,"current_range_meters":38800,"station_id":"ce4bhbp2rcd13ifvqesg","pricing_plan_id":"cebpf4jnsgd1na2vs0mg"},{"bike_id":"ec8be0e3-134b-434c-976b-554f0cad09bd","system_id":"levelo_inurba_marseille","lat":43.30093,"lon":5.391,"is_reserved":false,"is_disabled":false,"rental_uris":{"android":"levelo://app?vid=ec8be0e3-134b-434c-976b-554f0cad09bd","ios":"levelo://app?vid=ec8be0e3-134b-434c-976b-554f0cad09bd"},"vehicle_type_id":"4","last_reported":1737108552,"current_range_meters":30400,"station_id":"ce4bh192rcd13ifvqdb0","pricing_plan_id":"cebpf4jnsgd1na2vs0mg"},{"bike_id":"560354f9-70fe-4b4e-947b-45f30068f5aa","system_id":"levelo_inurba_marseille","lat":43.29289,"lon":5.40955,"is_reserved":false,"is_disabled":false,"rental_uris":{"android":"levelo://app?vid=560354f9-70fe-4b4e-947b-45f30068f5aa","ios":"levelo://app?vid=560354f9-70fe-4b4e-947b-45f30068f5aa"},"vehicle_type_id":"4","last_reported":1737108552,"current_range_meters":20800,"station_id":"","pricing_plan_id":"cebpf4jnsgd1na2vs0mg"},{"bike_id":"ca3154b0-750e-4c64-8e75-fc83b6c8b5fb","system_id":"levelo_inurba_marseille","lat":43.240727,"lon":5.377567,"is_reserved":false,"is_disabled":false,"rental_uris":{"android":"levelo://app?vid=ca3154b0-750e-4c64-8e75-fc83b6c8b5fb","ios":"levelo://app?vid=ca3154b0-750e-4c64-8e75-fc83b6c8b5fb"},"vehicle_type_id":"4","last_reported":1737108552,"current_range_meters":38800,"station_id":"ce4bhnp2rcd13ifvqgvg","pricing_plan_id":"cebpf4jnsgd1na2vs0mg"},{"bike_id":"94688445-fffa-45d6-a9e0-7a288617c48e","system_id":"levelo_inurba_marseille","lat":43.30122,"lon":5.37407,"is_reserved":false,"is_disabled":false,"rental_uris":{"android":"levelo://app?vid=94688445-fffa-45d6-a9e0-7a288617c48e","ios":"levelo://app?vid=94688445-fffa-45d6-a9e0-7a288617c48e"},"vehicle_type_id":"4","last_reported":1737108552,"current_range_meters":38400,"station_id":"ce4bgs92rcd13ifvqcc0","pricing_plan_id":"cebpf4jnsgd1na2vs0mg"},{"bike_id":"e6d52744-fcef-4b04-b3e0-4aafb92377b1","system_id":"levelo_inurba_marseille","lat":43.30537,"lon":5.36706,"is_reserved":false,"is_disabled":true,"rental_uris":{"android":"levelo://app?vid=e6d52744-fcef-4b04-b3e0-4aafb92377b1","ios":"levelo://app?vid=e6d52744-fcef-4b04-b3e0-4aafb92377b1"},"vehicle_type_id":"4","last_reported":1737108552,"current_range_meters":32800,"station_id":"ce4bgrp2rcd13ifvqc9g","pricing_plan_id":"cebpf4jnsgd1na2vs0mg"},{"bike_id":"078fa2d8-b6e2-4689-814d-1564c1917c5d","system_id":"levelo_inurba_marseille","lat":43.24081,"lon":5.37734,"is_reserved":false,"is_disabled":false,"rental_uris":{"android":"levelo://app?vid=078fa2d8-b6e2-4689-814d-1564c1917c5d","ios":"levelo://app?vid=078fa2d8-b6e2-4689-814d-1564c1917c5d"},"vehicle_type_id":"4","last_reported":1737108552,"current_range_meters":38000,"station_id":"ce4bhnp2rcd13ifvqgvg","pricing_plan_id":"cebpf4jnsgd1na2vs0mg"},{"bike_id":"9be957d2-26d1-49a4-9f85-b06ee3432064","system_id":"levelo_inurba_marseille","lat":43.33718,"lon":5.39209,"is_reserved":false,"is_disabled":false,"rental_uris":{"android":"levelo://app?vid=9be957d2-26d1-49a4-9f85-b06ee3432064","ios":"levelo://app?vid=9be957d2-26d1-49a4-9f85-b06ee3432064"},"vehicle_type_id":"4","last_reported":1737108552,"current_range_meters":30400,"station_id":"ce4bhr92rcd13ifvqhsg","pricing_plan_id":"cebpf4jnsgd1na2vs0mg"},{"bike_id":"38be1b2a-968d-40a2-a170-de6b0175bb31","system_id":"levelo_inurba_marseille","lat":43.30547,"lon":5.36551,"is_reserved":false,"is_disabled":false,"rental_uris":{"android":"levelo://app?vid=38be1b2a-968d-40a2-a170-de6b0175bb31","ios":"levelo://app?vid=38be1b2a-968d-40a2-a170-de6b0175bb31"},"vehicle_type_id":"4","last_reported":1737108552,"current_range_meters":36800,"station_id":"ce4bgs12rcd13ifvqcag","pricing_plan_id":"cebpf4jnsgd1na2vs0mg"},{"bike_id":"ece2ae38-fa22-411a-b4b6-2bec87a39b75","system_id":"levelo_inurba_marseille","lat":43.32542,"lon":5.41443,"is_reserved":false,"is_disabled":false,"rental_uris":{"android":"levelo://app?vid=ece2ae38-fa22-411a-b4b6-2bec87a39b75","ios":"levelo://app?vid=ece2ae38-fa22-411a-b4b6-2bec87a39b75"},"vehicle_type_id":"4","last_reported":1737108552,"current_range_meters":38800,"station_id":"ce4bhq12rcd13ifvqhhg","pricing_plan_id":"cebpf4jnsgd1na2vs0mg"},{"bike_id":"83c8d078-ef35-4953-badf-b92a41702d66","system_id":"levelo_inurba_marseille","lat":43.29422,"lon":5.38625,"is_reserved":false,"is_disabled":true,"rental_uris":{"android":"levelo://app?vid=83c8d078-ef35-4953-badf-b92a41702d66","ios":"levelo://app?vid=83c8d078-ef35-4953-badf-b92a41702d66"},"vehicle_type_id":"4","last_reported":1737108552,"current_range_meters":0,"station_id":"ce4bh2h2rcd13ifvqdh0","pricing_plan_id":"cebpf4jnsgd1na2vs0mg"},{"bike_id":"4a4bdb5d-7f2d-4b22-a0dd-b6ee22b2db6e","system_id":"levelo_inurba_marseille","lat":43.25087,"lon":5.39522,"is_reserved":false,"is_disabled":false,"rental_uris":{"android":"levelo://app?vid=4a4bdb5d-7f2d-4b22-a0dd-b6ee22b2db6e","ios":"levelo://app?vid=4a4bdb5d-7f2d-4b22-a0dd-b6ee22b2db6e"},"vehicle_type_id":"4","last_reported":1737108552,"current_range_meters":37600,"station_id":"ce4bhm12rcd13ifvqgkg","pricing_plan_id":"cebpf4jnsgd1na2vs0mg"},{"bike_id":"54c1e63d-d24e-4bce-967d-d4910659067e","system_id":"levelo_inurba_marseille","lat":43.30132,"lon":5.3879,"is_reserved":false,"is_disabled":false,"rental_uris":{"android":"levelo://app?vid=54c1e63d-d24e-4bce-967d-d4910659067e","ios":"levelo://app?vid=54c1e63d-d24e-4bce-967d-d4910659067e"},"vehicle_type_id":"4","last_reported":1737108552,"current_range_meters":20400,"station_id":"ce4bhoh2rcd13ifvqh6g","pricing_plan_id":"cebpf4jnsgd1na2vs0mg"},{"bike_id":"6691d7b5-893f-49fd-babf-60f7317b3915","system_id":"levelo_inurba_marseille","lat":43.31903,"lon":5.40741,"is_reserved":false,"is_disabled":false,"rental_uris":{"android":"levelo://app?vid=6691d7b5-893f-49fd-babf-60f7317b3915","ios":"levelo://app?vid=6691d7b5-893f-49fd-babf-60f7317b3915"},"vehicle_type_id":"4","last_reported":1737108552,"current_range_meters":33600,"station_id":"ce4bhq12rcd13ifvqhig","pricing_plan_id":"cebpf4jnsgd1na2vs0mg"},{"bike_id":"40e1a1cf-6140-4eba-aac0-88613aef0f2c","system_id":"levelo_inurba_marseille","lat":43.29281,"lon":5.38444,"is_reserved":false,"is_disabled":false,"rental_uris":{"android":"levelo://app?vid=40e1a1cf-6140-4eba-aac0-88613aef0f2c","ios":"levelo://app?vid=40e1a1cf-6140-4eba-aac0-88613aef0f2c"},"vehicle_type_id":"4","last_reported":1737108552,"current_range_meters":38800,"station_id":"ce4bh692rcd13ifvqea0","pricing_plan_id":"cebpf4jnsgd1na2vs0mg"},{"bike_id":"2f3b82ec-c7a6-4384-9798-4ccc92cf585a","system_id":"levelo_inurba_marseille","lat":43.26191,"lon":5.3745,"is_reserved":false,"is_disabled":false,"rental_uris":{"android":"levelo://app?vid=2f3b82ec-c7a6-4384-9798-4ccc92cf585a","ios":"levelo://app?vid=2f3b82ec-c7a6-4384-9798-4ccc92cf585a"},"vehicle_type_id":"4","last_reported":1737108552,"current_range_meters":36000,"station_id":"ce4bhgp2rcd13ifvqfc0","pricing_plan_id":"cebpf4jnsgd1na2vs0mg"},{"bike_id":"f15d7b9c-0557-427f-a960-54b96f453060","system_id":"levelo_inurba_marseille","lat":43.29004,"lon":5.35609,"is_reserved":false,"is_disabled":false,"rental_uris":{"android":"levelo://app?vid=f15d7b9c-0557-427f-a960-54b96f453060","ios":"levelo://app?vid=f15d7b9c-0557-427f-a960-54b96f453060"},"vehicle_type_id":"4","last_reported":1737108552,"current_range_meters":38800,"station_id":"ce4bhb92rcd13ifvqen0","pricing_plan_id":"cebpf4jnsgd1na2vs0mg"},{"bike_id":"3c4f19bb-577e-42bf-a10c-96628d8413bc","system_id":"levelo_inurba_marseille","lat":43.24801,"lon":5.3746,"is_reserved":false,"is_disabled":false,"rental_uris":{"android":"levelo://app?vid=3c4f19bb-577e-42bf-a10c-96628d8413bc","ios":"levelo://app?vid=3c4f19bb-577e-42bf-a10c-96628d8413bc"},"vehicle_type_id":"4","last_reported":1737108552,"current_range_meters":22800,"station_id":"ce4bhgh2rcd13ifvqfb0","pricing_plan_id":"cebpf4jnsgd1na2vs0mg"},{"bike_id":"ceaa1458-83a9-43c8-aed6-e72ea07fb43a","system_id":"levelo_inurba_marseille","lat":43.31555,"lon":5.38914,"is_reserved":false,"is_disabled":false,"rental_uris":{"android":"levelo://app?vid=ceaa1458-83a9-43c8-aed6-e72ea07fb43a","ios":"levelo://app?vid=ceaa1458-83a9-43c8-aed6-e72ea07fb43a"},"vehicle_type_id":"4","last_reported":1737108552,"current_range_meters":10000,"station_id":"","pricing_plan_id":"cebpf4jnsgd1na2vs0mg"},{"bike_id":"c7b548c0-92b1-4b91-b606-2d963bec61ed","system_id":"levelo_inurba_marseille","lat":43.27494,"lon":5.42458,"is_reserved":false,"is_disabled":false,"rental_uris":{"android":"levelo://app?vid=c7b548c0-92b1-4b91-b606-2d963bec61ed","ios":"levelo://app?vid=c7b548c0-92b1-4b91-b606-2d963bec61ed"},"vehicle_type_id":"4","last_reported":1737108552,"current_range_meters":16000,"station_id":"ce4bhn92rcd13ifvqgrg","pricing_plan_id":"cebpf4jnsgd1na2vs0mg"},{"bike_id":"227e2104-9342-467a-bb13-dc81a29065f7","system_id":"levelo_inurba_marseille","lat":43.284835,"lon":5.389458,"is_reserved":false,"is_disabled":false,"rental_uris":{"android":"levelo://app?vid=227e2104-9342-467a-bb13-dc81a29065f7","ios":"levelo://app?vid=227e2104-9342-467a-bb13-dc81a29065f7"},"vehicle_type_id":"4","last_reported":1737108552,"current_range_meters":27600,"station_id":"","pricing_plan_id":"cebpf4jnsgd1na2vs0mg"},{"bike_id":"96079ccc-a631-4f64-a10d-ab996eee58dc","system_id":"levelo_inurba_marseille","lat":43.30136,"lon":5.38785,"is_reserved":false,"is_disabled":false,"rental_uris":{"android":"levelo://app?vid=96079ccc-a631-4f64-a10d-ab996eee58dc","ios":"levelo://app?vid=96079ccc-a631-4f64-a10d-ab996eee58dc"},"vehicle_type_id":"4","last_reported":1737108552,"current_range_meters":38800,"station_id":"ce4bhoh2rcd13ifvqh6g","pricing_plan_id":"cebpf4jnsgd1na2vs0mg"},{"bike_id":"3339d4ef-942b-4f32-8f56-d42c69a5b73f","system_id":"levelo_inurba_marseille","lat":43.2938,"lon":5.37854,"is_reserved":false,"is_disabled":false,"rental_uris":{"android":"levelo://app?vid=3339d4ef-942b-4f32-8f56-d42c69a5b73f","ios":"levelo://app?vid=3339d4ef-942b-4f32-8f56-d42c69a5b73f"},"vehicle_type_id":"4","last_reported":1737108552,"current_range_meters":23200,"station_id":"ce4bgjh2rcd13ifvqbf0","pricing_plan_id":"cebpf4jnsgd1na2vs0mg"},{"bike_id":"516e6204-9dad-4554-93fc-892569dbc06c","system_id":"levelo_inurba_marseille","lat":43.29042,"lon":5.40157,"is_reserved":false,"is_disabled":false,"rental_uris":{"android":"levelo://app?vid=516e6204-9dad-4554-93fc-892569dbc06c","ios":"levelo://app?vid=516e6204-9dad-4554-93fc-892569dbc06c"},"vehicle_type_id":"4","last_reported":1737108552,"current_range_meters":36800,"station_id":"","pricing_plan_id":"cebpf4jnsgd1na2vs0mg"},{"bike_id":"33b9daa8-650f-4e97-b8f8-0947c5972927","system_id":"levelo_inurba_marseille","lat":43.325351,"lon":5.414664,"is_reserved":false,"is_disabled":false,"rental_uris":{"android":"levelo://app?vid=33b9daa8-650f-4e97-b8f8-0947c5972927","ios":"levelo://app?vid=33b9daa8-650f-4e97-b8f8-0947c5972927"},"vehicle_type_id":"4","last_reported":1737108552,"current_range_meters":26000,"station_id":"ce4bhq12rcd13ifvqhhg","pricing_plan_id":"cebpf4jnsgd1na2vs0mg"},{"bike_id":"c4803fef-55d0-4454-9be6-3ef47edfaec0","system_id":"levelo_inurba_marseille","lat":43.29038,"lon":5.40007,"is_reserved":false,"is_disabled":false,"rental_uris":{"android":"levelo://app?vid=c4803fef-55d0-4454-9be6-3ef47edfaec0","ios":"levelo://app?vid=c4803fef-55d0-4454-9be6-3ef47edfaec0"},"vehicle_type_id":"4","last_reported":1737108552,"current_range_meters":38800,"station_id":"ce4bh392rcd13ifvqdm0","pricing_plan_id":"cebpf4jnsgd1na2vs0mg"},{"bike_id":"52967bef-3ac3-43d5-807a-9cfd1e60392e","system_id":"levelo_inurba_marseille","lat":43.26941,"lon":5.38643,"is_reserved":false,"is_disabled":false,"rental_uris":{"android":"levelo://app?vid=52967bef-3ac3-43d5-807a-9cfd1e60392e","ios":"levelo://app?vid=52967bef-3ac3-43d5-807a-9cfd1e60392e"},"vehicle_type_id":"4","last_reported":1737108552,"current_range_meters":38800,"station_id":"ce4bhh92rcd13ifvqfh0","pricing_plan_id":"cebpf4jnsgd1na2vs0mg"},{"bike_id":"06847a7c-81a3-47a7-969a-ce10f7980e65","system_id":"levelo_inurba_marseille","lat":43.231485,"lon":5.4372,"is_reserved":false,"is_disabled":true,"rental_uris":{"android":"levelo://app?vid=06847a7c-81a3-47a7-969a-ce10f7980e65","ios":"levelo://app?vid=06847a7c-81a3-47a7-969a-ce10f7980e65"},"vehicle_type_id":"4","last_reported":1737108552,"current_range_meters":34800,"station_id":"ce4bhmp2rcd13ifvqgog","pricing_plan_id":"cebpf4jnsgd1na2vs0mg"},{"bike_id":"61478a87-30f0-49fb-bc83-f40e90c542c7","system_id":"levelo_inurba_marseille","lat":43.30126,"lon":5.37441,"is_reserved":false,"is_disabled":false,"rental_uris":{"android":"levelo://app?vid=61478a87-30f0-49fb-bc83-f40e90c542c7","ios":"levelo://app?vid=61478a87-30f0-49fb-bc83-f40e90c542c7"},"vehicle_type_id":"4","last_reported":1737108552,"current_range_meters":24000,"station_id":"ce4bgs92rcd13ifvqcc0","pricing_plan_id":"cebpf4jnsgd1na2vs0mg"},{"bike_id":"dba50726-c652-4a8f-a6c1-ee0c531ef3c3","system_id":"levelo_inurba_marseille","lat":43.29264,"lon":5.36861,"is_reserved":false,"is_disabled":false,"rental_uris":{"android":"levelo://app?vid=dba50726-c652-4a8f-a6c1-ee0c531ef3c3","ios":"levelo://app?vid=dba50726-c652-4a8f-a6c1-ee0c531ef3c3"},"vehicle_type_id":"4","last_reported":1737108552,"current_range_meters":18800,"station_id":"ce4bhbp2rcd13ifvqesg","pricing_plan_id":"cebpf4jnsgd1na2vs0mg"},{"bike_id":"10d4a44b-4ac4-4905-b7ec-86d014e96ec1","system_id":"levelo_inurba_marseille","lat":43.32487,"lon":5.3656,"is_reserved":false,"is_disabled":false,"rental_uris":{"android":"levelo://app?vid=10d4a44b-4ac4-4905-b7ec-86d014e96ec1","ios":"levelo://app?vid=10d4a44b-4ac4-4905-b7ec-86d014e96ec1"},"vehicle_type_id":"4","last_reported":1737108552,"current_range_meters":30400,"station_id":"ce4bhs12rcd13ifvqhvg","pricing_plan_id":"cebpf4jnsgd1na2vs0mg"},{"bike_id":"cba7e599-141a-43a0-bda9-8c38f559cacc","system_id":"levelo_inurba_marseille","lat":43.29375,"lon":5.37826,"is_reserved":false,"is_disabled":false,"rental_uris":{"android":"levelo://app?vid=cba7e599-141a-43a0-bda9-8c38f559cacc","ios":"levelo://app?vid=cba7e599-141a-43a0-bda9-8c38f559cacc"},"vehicle_type_id":"4","last_reported":1737108552,"current_range_meters":24400,"station_id":"ce4bgjh2rcd13ifvqbf0","pricing_plan_id":"cebpf4jnsgd1na2vs0mg"},{"bike_id":"021d07a5-a992-41ce-a4ee-452ea52382be","system_id":"levelo_inurba_marseille","lat":43.29253,"lon":5.3842,"is_reserved":false,"is_disabled":false,"rental_uris":{"android":"levelo://app?vid=021d07a5-a992-41ce-a4ee-452ea52382be","ios":"levelo://app?vid=021d07a5-a992-41ce-a4ee-452ea52382be"},"vehicle_type_id":"4","last_reported":1737108552,"current_range_meters":19600,"station_id":"ce4bh692rcd13ifvqea0","pricing_plan_id":"cebpf4jnsgd1na2vs0mg"},{"bike_id":"f0cdcecd-d7fa-49b2-aea1-a122944f7f6a","system_id":"levelo_inurba_marseille","lat":43.317152,"lon":5.377477,"is_reserved":false,"is_disabled":false,"rental_uris":{"android":"levelo://app?vid=f0cdcecd-d7fa-49b2-aea1-a122944f7f6a","ios":"levelo://app?vid=f0cdcecd-d7fa-49b2-aea1-a122944f7f6a"},"vehicle_type_id":"4","last_reported":1737108552,"current_range_meters":38800,"station_id":"ce4bgth2rcd13ifvqch0","pricing_plan_id":"cebpf4jnsgd1na2vs0mg"},{"bike_id":"67c549d5-ce81-408a-a146-d43915340e7f","system_id":"levelo_inurba_marseille","lat":43.33703,"lon":5.39211,"is_reserved":false,"is_disabled":false,"rental_uris":{"android":"levelo://app?vid=67c549d5-ce81-408a-a146-d43915340e7f","ios":"levelo://app?vid=67c549d5-ce81-408a-a146-d43915340e7f"},"vehicle_type_id":"4","last_reported":1737108552,"current_range_meters":38400,"station_id":"ce4bhr92rcd13ifvqhsg","pricing_plan_id":"cebpf4jnsgd1na2vs0mg"},{"bike_id":"efd05c32-4d50-4342-9945-bb25c7efcd6f","system_id":"levelo_inurba_marseille","lat":43.27943,"lon":5.38731,"is_reserved":false,"is_disabled":false,"rental_uris":{"android":"levelo://app?vid=efd05c32-4d50-4342-9945-bb25c7efcd6f","ios":"levelo://app?vid=efd05c32-4d50-4342-9945-bb25c7efcd6f"},"vehicle_type_id":"4","last_reported":1737108552,"current_range_meters":38800,"station_id":"ce4bhg12rcd13ifvqf80","pricing_plan_id":"cebpf4jnsgd1na2vs0mg"},{"bike_id":"eed87d1b-3d46-4f40-90af-7ac81f794b9d","system_id":"levelo_inurba_marseille","lat":43.28266,"lon":5.35064,"is_reserved":false,"is_disabled":false,"rental_uris":{"android":"levelo://app?vid=eed87d1b-3d46-4f40-90af-7ac81f794b9d","ios":"levelo://app?vid=eed87d1b-3d46-4f40-90af-7ac81f794b9d"},"vehicle_type_id":"4","last_reported":1737108552,"current_range_meters":37600,"station_id":"ce4bhbp2rcd13ifvqerg","pricing_plan_id":"cebpf4jnsgd1na2vs0mg"},{"bike_id":"954aed47-bd00-4595-8a0b-cfbfc5c3f431","system_id":"levelo_inurba_marseille","lat":43.26929,"lon":5.38917,"is_reserved":false,"is_disabled":false,"rental_uris":{"android":"levelo://app?vid=954aed47-bd00-4595-8a0b-cfbfc5c3f431","ios":"levelo://app?vid=954aed47-bd00-4595-8a0b-cfbfc5c3f431"},"vehicle_type_id":"4","last_reported":1737108552,"current_range_meters":37600,"station_id":"ce4bhhh2rcd13ifvqfl0","pricing_plan_id":"cebpf4jnsgd1na2vs0mg"},{"bike_id":"26b2b9d0-0f40-4411-b5b2-7f27a5b691d0","system_id":"levelo_inurba_marseille","lat":43.25017,"lon":5.3893,"is_reserved":false,"is_disabled":false,"rental_uris":{"android":"levelo://app?vid=26b2b9d0-0f40-4411-b5b2-7f27a5b691d0","ios":"levelo://app?vid=26b2b9d0-0f40-4411-b5b2-7f27a5b691d0"},"vehicle_type_id":"4","last_reported":1737108552,"current_range_meters":16800,"station_id":"ce4bhgp2rcd13ifvqfd0","pricing_plan_id":"cebpf4jnsgd1na2vs0mg"},{"bike_id":"0d77fce9-cfcb-4693-962c-890840a65109","system_id":"levelo_inurba_marseille","lat":43.29618,"lon":5.37733,"is_reserved":false,"is_disabled":false,"rental_uris":{"android":"levelo://app?vid=0d77fce9-cfcb-4693-962c-890840a65109","ios":"levelo://app?vid=0d77fce9-cfcb-4693-962c-890840a65109"},"vehicle_type_id":"4","last_reported":1737108552,"current_range_meters":30400,"station_id":"ce4bgi92rcd13ifvqb90","pricing_plan_id":"cebpf4jnsgd1na2vs0mg"},{"bike_id":"f21955f8-a46c-4890-be70-66409620de02","system_id":"levelo_inurba_marseille","lat":43.23183,"lon":5.39983,"is_reserved":false,"is_disabled":false,"rental_uris":{"android":"levelo://app?vid=f21955f8-a46c-4890-be70-66409620de02","ios":"levelo://app?vid=f21955f8-a46c-4890-be70-66409620de02"},"vehicle_type_id":"4","last_reported":1737108552,"current_range_meters":6800,"station_id":"ce4bhn12rcd13ifvqgqg","pricing_plan_id":"cebpf4jnsgd1na2vs0mg"},{"bike_id":"34709e64-d1c8-4538-88a5-33805792c0a5","system_id":"levelo_inurba_marseille","lat":43.25822,"lon":5.39433,"is_reserved":false,"is_disabled":false,"rental_uris":{"android":"levelo://app?vid=34709e64-d1c8-4538-88a5-33805792c0a5","ios":"levelo://app?vid=34709e64-d1c8-4538-88a5-33805792c0a5"},"vehicle_type_id":"4","last_reported":1737108552,"current_range_meters":38400,"station_id":"ce4bhip2rcd13ifvqft0","pricing_plan_id":"cebpf4jnsgd1na2vs0mg"},{"bike_id":"d4c5158e-511e-4c0e-af6f-6a3bbf5cc0e5","system_id":"levelo_inurba_marseille","lat":43.27064,"lon":5.42279,"is_reserved":false,"is_disabled":true,"rental_uris":{"android":"levelo://app?vid=d4c5158e-511e-4c0e-af6f-6a3bbf5cc0e5","ios":"levelo://app?vid=d4c5158e-511e-4c0e-af6f-6a3bbf5cc0e5"},"vehicle_type_id":"4","last_reported":1737108552,"current_range_meters":0,"station_id":"ce4bhk92rcd13ifvqgb0","pricing_plan_id":"cebpf4jnsgd1na2vs0mg"},{"bike_id":"abd30ffe-8285-44ab-ac2a-53be6498a2ea","system_id":"levelo_inurba_marseille","lat":43.27201,"lon":5.3917,"is_reserved":false,"is_disabled":false,"rental_uris":{"android":"levelo://app?vid=abd30ffe-8285-44ab-ac2a-53be6498a2ea","ios":"levelo://app?vid=abd30ffe-8285-44ab-ac2a-53be6498a2ea"},"vehicle_type_id":"4","last_reported":1737108552,"current_range_meters":28800,"station_id":"ce4bhhp2rcd13ifvqfm0","pricing_plan_id":"cebpf4jnsgd1na2vs0mg"},{"bike_id":"faad4747-6efd-41c2-96f3-dfd0165e7e75","system_id":"levelo_inurba_marseille","lat":43.29674,"lon":5.37287,"is_reserved":false,"is_disabled":false,"rental_uris":{"android":"levelo://app?vid=faad4747-6efd-41c2-96f3-dfd0165e7e75","ios":"levelo://app?vid=faad4747-6efd-41c2-96f3-dfd0165e7e75"},"vehicle_type_id":"4","last_reported":1737108552,"current_range_meters":38400,"station_id":"ce4bgk12rcd13ifvqbj0","pricing_plan_id":"cebpf4jnsgd1na2vs0mg"},{"bike_id":"58059c20-35ab-411a-9814-0374fc5d25fb","system_id":"levelo_inurba_marseille","lat":43.30542,"lon":5.36705,"is_reserved":false,"is_disabled":false,"rental_uris":{"android":"levelo://app?vid=58059c20-35ab-411a-9814-0374fc5d25fb","ios":"levelo://app?vid=58059c20-35ab-411a-9814-0374fc5d25fb"},"vehicle_type_id":"4","last_reported":1737108552,"current_range_meters":38800,"station_id":"ce4bgrp2rcd13ifvqc9g","pricing_plan_id":"cebpf4jnsgd1na2vs0mg"},{"bike_id":"3d0bb5c0-7066-448c-b9c2-0728f3c5eaa1","system_id":"levelo_inurba_marseille","lat":43.32491,"lon":5.36564,"is_reserved":false,"is_disabled":false,"rental_uris":{"android":"levelo://app?vid=3d0bb5c0-7066-448c-b9c2-0728f3c5eaa1","ios":"levelo://app?vid=3d0bb5c0-7066-448c-b9c2-0728f3c5eaa1"},"vehicle_type_id":"4","last_reported":1737108552,"current_range_meters":32000,"station_id":"ce4bhs12rcd13ifvqhvg","pricing_plan_id":"cebpf4jnsgd1na2vs0mg"},{"bike_id":"5dc88dba-495e-484f-9b04-2299461d7f8a","system_id":"levelo_inurba_marseille","lat":43.26056,"lon":5.39397,"is_reserved":false,"is_disabled":false,"rental_uris":{"android":"levelo://app?vid=5dc88dba-495e-484f-9b04-2299461d7f8a","ios":"levelo://app?vid=5dc88dba-495e-484f-9b04-2299461d7f8a"},"vehicle_type_id":"4","last_reported":1737108552,"current_range_meters":22800,"station_id":"ce4bhh92rcd13ifvqfj0","pricing_plan_id":"cebpf4jnsgd1na2vs0mg"},{"bike_id":"575187ad-6d10-426e-85b8-4268426275d2","system_id":"levelo_inurba_marseille","lat":43.27993,"lon":5.41645,"is_reserved":false,"is_disabled":false,"rental_uris":{"android":"levelo://app?vid=575187ad-6d10-426e-85b8-4268426275d2","ios":"levelo://app?vid=575187ad-6d10-426e-85b8-4268426275d2"},"vehicle_type_id":"4","last_reported":1737108552,"current_range_meters":17200,"station_id":"ce4bho12rcd13ifvqh1g","pricing_plan_id":"cebpf4jnsgd1na2vs0mg"},{"bike_id":"56b8e9bc-f750-4815-bc98-9098414d16db","system_id":"levelo_inurba_marseille","lat":43.23192,"lon":5.35556,"is_reserved":false,"is_disabled":true,"rental_uris":{"android":"levelo://app?vid=56b8e9bc-f750-4815-bc98-9098414d16db","ios":"levelo://app?vid=56b8e9bc-f750-4815-bc98-9098414d16db"},"vehicle_type_id":"4","last_reported":1737108552,"current_range_meters":0,"station_id":"ce4bhu92rcd13ifvqi70","pricing_plan_id":"cebpf4jnsgd1na2vs0mg"},{"bike_id":"7afc75e8-5d7c-4ba4-a0f2-3359809a76fc","system_id":"levelo_inurba_marseille","lat":43.25938,"lon":5.40903,"is_reserved":false,"is_disabled":false,"rental_uris":{"android":"levelo://app?vid=7afc75e8-5d7c-4ba4-a0f2-3359809a76fc","ios":"levelo://app?vid=7afc75e8-5d7c-4ba4-a0f2-3359809a76fc"},"vehicle_type_id":"4","last_reported":1737108552,"current_range_meters":18000,"station_id":"ce4bhm92rcd13ifvqglg","pricing_plan_id":"cebpf4jnsgd1na2vs0mg"},{"bike_id":"2f6bc572-8caf-463f-905a-9685ace0983f","system_id":"levelo_inurba_marseille","lat":43.28923,"lon":5.36634,"is_reserved":false,"is_disabled":false,"rental_uris":{"android":"levelo://app?vid=2f6bc572-8caf-463f-905a-9685ace0983f","ios":"levelo://app?vid=2f6bc572-8caf-463f-905a-9685ace0983f"},"vehicle_type_id":"4","last_reported":1737108552,"current_range_meters":33600,"station_id":"ce4bhap2rcd13ifvqek0","pricing_plan_id":"cebpf4jnsgd1na2vs0mg"},{"bike_id":"d7a710b0-adff-4c5c-bf44-f4013363962c","system_id":"levelo_inurba_marseille","lat":43.24684,"lon":5.39437,"is_reserved":false,"is_disabled":false,"rental_uris":{"android":"levelo://app?vid=d7a710b0-adff-4c5c-bf44-f4013363962c","ios":"levelo://app?vid=d7a710b0-adff-4c5c-bf44-f4013363962c"},"vehicle_type_id":"4","last_reported":1737108552,"current_range_meters":38000,"station_id":"","pricing_plan_id":"cebpf4jnsgd1na2vs0mg"},{"bike_id":"10d8d11d-3922-41e2-a19f-08b3631fac22","system_id":"levelo_inurba_marseille","lat":43.27314,"lon":5.39082,"is_reserved":false,"is_disabled":false,"rental_uris":{"android":"levelo://app?vid=10d8d11d-3922-41e2-a19f-08b3631fac22","ios":"levelo://app?vid=10d8d11d-3922-41e2-a19f-08b3631fac22"},"vehicle_type_id":"4","last_reported":1737108552,"current_range_meters":16400,"station_id":"ce4bhgp2rcd13ifvqfe0","pricing_plan_id":"cebpf4jnsgd1na2vs0mg"},{"bike_id":"90e69b3d-55be-4c48-a806-bcdf6e4f5ea3","system_id":"levelo_inurba_marseille","lat":43.29035,"lon":5.39946,"is_reserved":false,"is_disabled":false,"rental_uris":{"android":"levelo://app?vid=90e69b3d-55be-4c48-a806-bcdf6e4f5ea3","ios":"levelo://app?vid=90e69b3d-55be-4c48-a806-bcdf6e4f5ea3"},"vehicle_type_id":"4","last_reported":1737108552,"current_range_meters":23200,"station_id":"ce4bh392rcd13ifvqdm0","pricing_plan_id":"cebpf4jnsgd1na2vs0mg"},{"bike_id":"8ddbe622-c712-42df-873f-25cab8ae0c4c","system_id":"levelo_inurba_marseille","lat":43.28486,"lon":5.38558,"is_reserved":false,"is_disabled":false,"rental_uris":{"android":"levelo://app?vid=8ddbe622-c712-42df-873f-25cab8ae0c4c","ios":"levelo://app?vid=8ddbe622-c712-42df-873f-25cab8ae0c4c"},"vehicle_type_id":"4","last_reported":1737108552,"current_range_meters":10000,"station_id":"ce4bh8p2rcd13ifvqeb0","pricing_plan_id":"cebpf4jnsgd1na2vs0mg"},{"bike_id":"1b0abdf0-ebc9-477b-9a5c-20d604bc88e3","system_id":"levelo_inurba_marseille","lat":43.25068,"lon":5.39511,"is_reserved":false,"is_disabled":false,"rental_uris":{"android":"levelo://app?vid=1b0abdf0-ebc9-477b-9a5c-20d604bc88e3","ios":"levelo://app?vid=1b0abdf0-ebc9-477b-9a5c-20d604bc88e3"},"vehicle_type_id":"4","last_reported":1737108552,"current_range_meters":39200,"station_id":"ce4bhm12rcd13ifvqgkg","pricing_plan_id":"cebpf4jnsgd1na2vs0mg"},{"bike_id":"7497d04d-f5a5-4c5c-80db-3387d8d360fa","system_id":"levelo_inurba_marseille","lat":43.29044,"lon":5.3997,"is_reserved":false,"is_disabled":false,"rental_uris":{"android":"levelo://app?vid=7497d04d-f5a5-4c5c-80db-3387d8d360fa","ios":"levelo://app?vid=7497d04d-f5a5-4c5c-80db-3387d8d360fa"},"vehicle_type_id":"4","last_reported":1737108552,"current_range_meters":23200,"station_id":"ce4bh392rcd13ifvqdm0","pricing_plan_id":"cebpf4jnsgd1na2vs0mg"},{"bike_id":"8b2e9c5a-2669-4d9f-a63e-8e4368144447","system_id":"levelo_inurba_marseille","lat":43.29259,"lon":5.40896,"is_reserved":false,"is_disabled":false,"rental_uris":{"android":"levelo://app?vid=8b2e9c5a-2669-4d9f-a63e-8e4368144447","ios":"levelo://app?vid=8b2e9c5a-2669-4d9f-a63e-8e4368144447"},"vehicle_type_id":"4","last_reported":1737108552,"current_range_meters":26000,"station_id":"ce4bh192rcd13ifvqdc0","pricing_plan_id":"cebpf4jnsgd1na2vs0mg"},{"bike_id":"5d4c23b0-333e-4aba-98f6-c89fb76cfb71","system_id":"levelo_inurba_marseille","lat":43.33733,"lon":5.37475,"is_reserved":false,"is_disabled":false,"rental_uris":{"android":"levelo://app?vid=5d4c23b0-333e-4aba-98f6-c89fb76cfb71","ios":"levelo://app?vid=5d4c23b0-333e-4aba-98f6-c89fb76cfb71"},"vehicle_type_id":"4","last_reported":1737108552,"current_range_meters":38800,"station_id":"","pricing_plan_id":"cebpf4jnsgd1na2vs0mg"},{"bike_id":"22465212-93af-4e0b-b803-6ee82bba56d5","system_id":"levelo_inurba_marseille","lat":43.33758,"lon":5.37492,"is_reserved":false,"is_disabled":false,"rental_uris":{"android":"levelo://app?vid=22465212-93af-4e0b-b803-6ee82bba56d5","ios":"levelo://app?vid=22465212-93af-4e0b-b803-6ee82bba56d5"},"vehicle_type_id":"4","last_reported":1737108552,"current_range_meters":31200,"station_id":"","pricing_plan_id":"cebpf4jnsgd1na2vs0mg"},{"bike_id":"57d28b69-a629-4d00-8952-ad3637220644","system_id":"levelo_inurba_marseille","lat":43.29621,"lon":5.37168,"is_reserved":false,"is_disabled":true,"rental_uris":{"android":"levelo://app?vid=57d28b69-a629-4d00-8952-ad3637220644","ios":"levelo://app?vid=57d28b69-a629-4d00-8952-ad3637220644"},"vehicle_type_id":"4","last_reported":1737108552,"current_range_meters":0,"station_id":"ce4bgnh2rcd13ifvqc0g","pricing_plan_id":"cebpf4jnsgd1na2vs0mg"},{"bike_id":"979d7a5c-00ce-4dcf-a15c-0fc9c9e35c10","system_id":"levelo_inurba_marseille","lat":43.33797,"lon":5.37439,"is_reserved":false,"is_disabled":false,"rental_uris":{"android":"levelo://app?vid=979d7a5c-00ce-4dcf-a15c-0fc9c9e35c10","ios":"levelo://app?vid=979d7a5c-00ce-4dcf-a15c-0fc9c9e35c10"},"vehicle_type_id":"4","last_reported":1737108552,"current_range_meters":37600,"station_id":"","pricing_plan_id":"cebpf4jnsgd1na2vs0mg"},{"bike_id":"65738d62-b35b-4989-a509-3ac269e67ca5","system_id":"levelo_inurba_marseille","lat":43.30547,"lon":5.3672,"is_reserved":false,"is_disabled":false,"rental_uris":{"android":"levelo://app?vid=65738d62-b35b-4989-a509-3ac269e67ca5","ios":"levelo://app?vid=65738d62-b35b-4989-a509-3ac269e67ca5"},"vehicle_type_id":"4","last_reported":1737108552,"current_range_meters":38800,"station_id":"ce4bgrp2rcd13ifvqc9g","pricing_plan_id":"cebpf4jnsgd1na2vs0mg"},{"bike_id":"950bc21b-63fe-44c1-b3fa-5c243fc9e8a8","system_id":"levelo_inurba_marseille","lat":43.28263,"lon":5.35089,"is_reserved":false,"is_disabled":false,"rental_uris":{"android":"levelo://app?vid=950bc21b-63fe-44c1-b3fa-5c243fc9e8a8","ios":"levelo://app?vid=950bc21b-63fe-44c1-b3fa-5c243fc9e8a8"},"vehicle_type_id":"4","last_reported":1737108552,"current_range_meters":24400,"station_id":"ce4bhbp2rcd13ifvqerg","pricing_plan_id":"cebpf4jnsgd1na2vs0mg"},{"bike_id":"43f65e91-541f-44a2-a3d5-0abeb2a799fe","system_id":"levelo_inurba_marseille","lat":43.31758,"lon":5.3903,"is_reserved":false,"is_disabled":false,"rental_uris":{"android":"levelo://app?vid=43f65e91-541f-44a2-a3d5-0abeb2a799fe","ios":"levelo://app?vid=43f65e91-541f-44a2-a3d5-0abeb2a799fe"},"vehicle_type_id":"4","last_reported":1737108552,"current_range_meters":38400,"station_id":"ce4bhqp2rcd13ifvqhng","pricing_plan_id":"cebpf4jnsgd1na2vs0mg"},{"bike_id":"9e8455f8-512c-4e00-afc7-4d19a67ffd27","system_id":"levelo_inurba_marseille","lat":43.27937,"lon":5.41051,"is_reserved":false,"is_disabled":false,"rental_uris":{"android":"levelo://app?vid=9e8455f8-512c-4e00-afc7-4d19a67ffd27","ios":"levelo://app?vid=9e8455f8-512c-4e00-afc7-4d19a67ffd27"},"vehicle_type_id":"4","last_reported":1737108552,"current_range_meters":16400,"station_id":"ce4bhnp2rcd13ifvqh0g","pricing_plan_id":"cebpf4jnsgd1na2vs0mg"},{"bike_id":"9b3f5263-092a-42a3-985e-303e3ee0becf","system_id":"levelo_inurba_marseille","lat":43.26489,"lon":5.39589,"is_reserved":false,"is_disabled":false,"rental_uris":{"android":"levelo://app?vid=9b3f5263-092a-42a3-985e-303e3ee0becf","ios":"levelo://app?vid=9b3f5263-092a-42a3-985e-303e3ee0becf"},"vehicle_type_id":"4","last_reported":1737108552,"current_range_meters":38800,"station_id":"ce4bhi12rcd13ifvqfq0","pricing_plan_id":"cebpf4jnsgd1na2vs0mg"},{"bike_id":"ba3f556c-cf6a-4039-a072-0e6118db4c47","system_id":"levelo_inurba_marseille","lat":43.23149,"lon":5.4373,"is_reserved":false,"is_disabled":false,"rental_uris":{"android":"levelo://app?vid=ba3f556c-cf6a-4039-a072-0e6118db4c47","ios":"levelo://app?vid=ba3f556c-cf6a-4039-a072-0e6118db4c47"},"vehicle_type_id":"4","last_reported":1737108552,"current_range_meters":8800,"station_id":"ce4bhmp2rcd13ifvqgog","pricing_plan_id":"cebpf4jnsgd1na2vs0mg"},{"bike_id":"b126266b-2228-4a43-9222-e2ee66eb7535","system_id":"levelo_inurba_marseille","lat":43.29042,"lon":5.39988,"is_reserved":false,"is_disabled":false,"rental_uris":{"android":"levelo://app?vid=b126266b-2228-4a43-9222-e2ee66eb7535","ios":"levelo://app?vid=b126266b-2228-4a43-9222-e2ee66eb7535"},"vehicle_type_id":"4","last_reported":1737108552,"current_range_meters":37600,"station_id":"ce4bh392rcd13ifvqdm0","pricing_plan_id":"cebpf4jnsgd1na2vs0mg"},{"bike_id":"16764f9e-b1b9-4d6f-9dca-0161489fba20","system_id":"levelo_inurba_marseille","lat":43.30119,"lon":5.38108,"is_reserved":false,"is_disabled":false,"rental_uris":{"android":"levelo://app?vid=16764f9e-b1b9-4d6f-9dca-0161489fba20","ios":"levelo://app?vid=16764f9e-b1b9-4d6f-9dca-0161489fba20"},"vehicle_type_id":"4","last_reported":1737108552,"current_range_meters":28800,"station_id":"ce4bgjp2rcd13ifvqbh0","pricing_plan_id":"cebpf4jnsgd1na2vs0mg"},{"bike_id":"24bcc0cf-8c95-40af-8068-dc3c48d5cf59","system_id":"levelo_inurba_marseille","lat":43.33601,"lon":5.4103,"is_reserved":false,"is_disabled":false,"rental_uris":{"android":"levelo://app?vid=24bcc0cf-8c95-40af-8068-dc3c48d5cf59","ios":"levelo://app?vid=24bcc0cf-8c95-40af-8068-dc3c48d5cf59"},"vehicle_type_id":"4","last_reported":1737108552,"current_range_meters":38800,"station_id":"ce4bhqh2rcd13ifvqhmg","pricing_plan_id":"cebpf4jnsgd1na2vs0mg"},{"bike_id":"958bad98-e7f8-4cf9-aeee-24aa3dbc0e74","system_id":"levelo_inurba_marseille","lat":43.2846,"lon":5.38419,"is_reserved":false,"is_disabled":false,"rental_uris":{"android":"levelo://app?vid=958bad98-e7f8-4cf9-aeee-24aa3dbc0e74","ios":"levelo://app?vid=958bad98-e7f8-4cf9-aeee-24aa3dbc0e74"},"vehicle_type_id":"4","last_reported":1737108552,"current_range_meters":8000,"station_id":"ce4bh512rcd13ifvqe3g","pricing_plan_id":"cebpf4jnsgd1na2vs0mg"},{"bike_id":"6a7366d7-ed8c-4629-bf0c-70c2abcda36d","system_id":"levelo_inurba_marseille","lat":43.23184,"lon":5.35555,"is_reserved":false,"is_disabled":false,"rental_uris":{"android":"levelo://app?vid=6a7366d7-ed8c-4629-bf0c-70c2abcda36d","ios":"levelo://app?vid=6a7366d7-ed8c-4629-bf0c-70c2abcda36d"},"vehicle_type_id":"4","last_reported":1737108552,"current_range_meters":8400,"station_id":"ce4bhu92rcd13ifvqi70","pricing_plan_id":"cebpf4jnsgd1na2vs0mg"},{"bike_id":"e354da03-924f-4370-a6bd-3bd3c66ca100","system_id":"levelo_inurba_marseille","lat":43.24066,"lon":5.37767,"is_reserved":false,"is_disabled":false,"rental_uris":{"android":"levelo://app?vid=e354da03-924f-4370-a6bd-3bd3c66ca100","ios":"levelo://app?vid=e354da03-924f-4370-a6bd-3bd3c66ca100"},"vehicle_type_id":"4","last_reported":1737108552,"current_range_meters":38800,"station_id":"ce4bhnp2rcd13ifvqgvg","pricing_plan_id":"cebpf4jnsgd1na2vs0mg"},{"bike_id":"2d7f3353-743b-41e1-85f2-e32181d4ae48","system_id":"levelo_inurba_marseille","lat":43.31993,"lon":5.38163,"is_reserved":false,"is_disabled":false,"rental_uris":{"android":"levelo://app?vid=2d7f3353-743b-41e1-85f2-e32181d4ae48","ios":"levelo://app?vid=2d7f3353-743b-41e1-85f2-e32181d4ae48"},"vehicle_type_id":"4","last_reported":1737108552,"current_range_meters":28800,"station_id":"ce4bhr12rcd13ifvqhpg","pricing_plan_id":"cebpf4jnsgd1na2vs0mg"},{"bike_id":"573076c8-1172-47e5-b129-cb987286e5ee","system_id":"levelo_inurba_marseille","lat":43.27791,"lon":5.40738,"is_reserved":false,"is_disabled":false,"rental_uris":{"android":"levelo://app?vid=573076c8-1172-47e5-b129-cb987286e5ee","ios":"levelo://app?vid=573076c8-1172-47e5-b129-cb987286e5ee"},"vehicle_type_id":"4","last_reported":1737108552,"current_range_meters":38000,"station_id":"ce4bhnh2rcd13ifvqgtg","pricing_plan_id":"cebpf4jnsgd1na2vs0mg"},{"bike_id":"2886f512-9643-4230-b690-9c8b7d9190b9","system_id":"levelo_inurba_marseille","lat":43.30605,"lon":5.3723,"is_reserved":false,"is_disabled":false,"rental_uris":{"android":"levelo://app?vid=2886f512-9643-4230-b690-9c8b7d9190b9","ios":"levelo://app?vid=2886f512-9643-4230-b690-9c8b7d9190b9"},"vehicle_type_id":"4","last_reported":1737108552,"current_range_meters":14800,"station_id":"ce4bgqh2rcd13ifvqc4g","pricing_plan_id":"cebpf4jnsgd1na2vs0mg"},{"bike_id":"35deb437-7ef2-4ee7-9ea5-27ce0001ca7b","system_id":"levelo_inurba_marseille","lat":43.26078,"lon":5.39404,"is_reserved":false,"is_disabled":false,"rental_uris":{"android":"levelo://app?vid=35deb437-7ef2-4ee7-9ea5-27ce0001ca7b","ios":"levelo://app?vid=35deb437-7ef2-4ee7-9ea5-27ce0001ca7b"},"vehicle_type_id":"4","last_reported":1737108552,"current_range_meters":38800,"station_id":"ce4bhh92rcd13ifvqfj0","pricing_plan_id":"cebpf4jnsgd1na2vs0mg"},{"bike_id":"9d57abc3-ea43-43ec-8af5-ee074139083e","system_id":"levelo_inurba_marseille","lat":43.30951,"lon":5.39064,"is_reserved":false,"is_disabled":false,"rental_uris":{"android":"levelo://app?vid=9d57abc3-ea43-43ec-8af5-ee074139083e","ios":"levelo://app?vid=9d57abc3-ea43-43ec-8af5-ee074139083e"},"vehicle_type_id":"4","last_reported":1737108552,"current_range_meters":38800,"station_id":"ce4bgup2rcd13ifvqco0","pricing_plan_id":"cebpf4jnsgd1na2vs0mg"},{"bike_id":"1e716584-c21b-48a2-8d2e-36c0cf064d82","system_id":"levelo_inurba_marseille","lat":43.29193,"lon":5.35804,"is_reserved":false,"is_disabled":false,"rental_uris":{"android":"levelo://app?vid=1e716584-c21b-48a2-8d2e-36c0cf064d82","ios":"levelo://app?vid=1e716584-c21b-48a2-8d2e-36c0cf064d82"},"vehicle_type_id":"4","last_reported":1737108552,"current_range_meters":38800,"station_id":"ce4bhb12rcd13ifvqel0","pricing_plan_id":"cebpf4jnsgd1na2vs0mg"},{"bike_id":"59eb19e8-ea87-47b5-8de5-ded4ee428e44","system_id":"levelo_inurba_marseille","lat":43.26056,"lon":5.39402,"is_reserved":false,"is_disabled":false,"rental_uris":{"android":"levelo://app?vid=59eb19e8-ea87-47b5-8de5-ded4ee428e44","ios":"levelo://app?vid=59eb19e8-ea87-47b5-8de5-ded4ee428e44"},"vehicle_type_id":"4","last_reported":1737108552,"current_range_meters":29600,"station_id":"ce4bhh92rcd13ifvqfj0","pricing_plan_id":"cebpf4jnsgd1na2vs0mg"},{"bike_id":"6bdea331-32f7-46ff-a178-aa3ec9a6cbb8","system_id":"levelo_inurba_marseille","lat":43.31892,"lon":5.40727,"is_reserved":false,"is_disabled":false,"rental_uris":{"android":"levelo://app?vid=6bdea331-32f7-46ff-a178-aa3ec9a6cbb8","ios":"levelo://app?vid=6bdea331-32f7-46ff-a178-aa3ec9a6cbb8"},"vehicle_type_id":"4","last_reported":1737108552,"current_range_meters":14400,"station_id":"ce4bhq12rcd13ifvqhig","pricing_plan_id":"cebpf4jnsgd1na2vs0mg"},{"bike_id":"bf989edc-c671-4558-86c0-ca2a191ec8f3","system_id":"levelo_inurba_marseille","lat":43.32525,"lon":5.41463,"is_reserved":false,"is_disabled":false,"rental_uris":{"android":"levelo://app?vid=bf989edc-c671-4558-86c0-ca2a191ec8f3","ios":"levelo://app?vid=bf989edc-c671-4558-86c0-ca2a191ec8f3"},"vehicle_type_id":"4","last_reported":1737108552,"current_range_meters":36400,"station_id":"ce4bhq12rcd13ifvqhhg","pricing_plan_id":"cebpf4jnsgd1na2vs0mg"},{"bike_id":"503f40db-f7c5-4ce1-bf83-744d8dd98023","system_id":"levelo_inurba_marseille","lat":43.29972,"lon":5.37166,"is_reserved":false,"is_disabled":false,"rental_uris":{"android":"levelo://app?vid=503f40db-f7c5-4ce1-bf83-744d8dd98023","ios":"levelo://app?vid=503f40db-f7c5-4ce1-bf83-744d8dd98023"},"vehicle_type_id":"4","last_reported":1737108552,"current_range_meters":20400,"station_id":"ce4bgr92rcd13ifvqc7g","pricing_plan_id":"cebpf4jnsgd1na2vs0mg"},{"bike_id":"5d42a98e-bef8-43af-946e-751274f82d4c","system_id":"levelo_inurba_marseille","lat":43.236603,"lon":5.435971,"is_reserved":false,"is_disabled":true,"rental_uris":{"android":"levelo://app?vid=5d42a98e-bef8-43af-946e-751274f82d4c","ios":"levelo://app?vid=5d42a98e-bef8-43af-946e-751274f82d4c"},"vehicle_type_id":"4","last_reported":1737108552,"current_range_meters":28400,"station_id":"","pricing_plan_id":"cebpf4jnsgd1na2vs0mg"},{"bike_id":"8e98c992-410a-4d33-a381-8b1fda9fd6b1","system_id":"levelo_inurba_marseille","lat":43.25107,"lon":5.40327,"is_reserved":false,"is_disabled":false,"rental_uris":{"android":"levelo://app?vid=8e98c992-410a-4d33-a381-8b1fda9fd6b1","ios":"levelo://app?vid=8e98c992-410a-4d33-a381-8b1fda9fd6b1"},"vehicle_type_id":"4","last_reported":1737108552,"current_range_meters":21600,"station_id":"ce4bhlh2rcd13ifvqgig","pricing_plan_id":"cebpf4jnsgd1na2vs0mg"},{"bike_id":"10561a23-a6b3-43d9-a4da-938f77e97362","system_id":"levelo_inurba_marseille","lat":43.26205,"lon":5.3745,"is_reserved":false,"is_disabled":false,"rental_uris":{"android":"levelo://app?vid=10561a23-a6b3-43d9-a4da-938f77e97362","ios":"levelo://app?vid=10561a23-a6b3-43d9-a4da-938f77e97362"},"vehicle_type_id":"4","last_reported":1737108552,"current_range_meters":38000,"station_id":"ce4bhgp2rcd13ifvqfc0","pricing_plan_id":"cebpf4jnsgd1na2vs0mg"},{"bike_id":"1bc46916-ca74-498d-8d82-1e7f9a99ebb2","system_id":"levelo_inurba_marseille","lat":43.29045,"lon":5.39951,"is_reserved":false,"is_disabled":false,"rental_uris":{"android":"levelo://app?vid=1bc46916-ca74-498d-8d82-1e7f9a99ebb2","ios":"levelo://app?vid=1bc46916-ca74-498d-8d82-1e7f9a99ebb2"},"vehicle_type_id":"4","last_reported":1737108552,"current_range_meters":38800,"station_id":"ce4bh392rcd13ifvqdm0","pricing_plan_id":"cebpf4jnsgd1na2vs0mg"},{"bike_id":"9fe7c389-b3fc-46da-ba79-3b086092d461","system_id":"levelo_inurba_marseille","lat":43.30774,"lon":5.37652,"is_reserved":false,"is_disabled":false,"rental_uris":{"android":"levelo://app?vid=9fe7c389-b3fc-46da-ba79-3b086092d461","ios":"levelo://app?vid=9fe7c389-b3fc-46da-ba79-3b086092d461"},"vehicle_type_id":"4","last_reported":1737108552,"current_range_meters":35600,"station_id":"ce4bgv92rcd13ifvqcq0","pricing_plan_id":"cebpf4jnsgd1na2vs0mg"},{"bike_id":"3d04c407-e6ab-400c-a9ac-f7b3b2acdaa1","system_id":"levelo_inurba_marseille","lat":43.28484,"lon":5.38414,"is_reserved":false,"is_disabled":false,"rental_uris":{"android":"levelo://app?vid=3d04c407-e6ab-400c-a9ac-f7b3b2acdaa1","ios":"levelo://app?vid=3d04c407-e6ab-400c-a9ac-f7b3b2acdaa1"},"vehicle_type_id":"4","last_reported":1737108552,"current_range_meters":17200,"station_id":"ce4bh512rcd13ifvqe3g","pricing_plan_id":"cebpf4jnsgd1na2vs0mg"},{"bike_id":"8eca6891-282f-4f00-9432-07553d6fed7f","system_id":"levelo_inurba_marseille","lat":43.33012,"lon":5.39048,"is_reserved":false,"is_disabled":false,"rental_uris":{"android":"levelo://app?vid=8eca6891-282f-4f00-9432-07553d6fed7f","ios":"levelo://app?vid=8eca6891-282f-4f00-9432-07553d6fed7f"},"vehicle_type_id":"4","last_reported":1737108552,"current_range_meters":21600,"station_id":"ce4bhr92rcd13ifvqhrg","pricing_plan_id":"cebpf4jnsgd1na2vs0mg"},{"bike_id":"931e3968-6d09-488c-8fce-e4a6b5894e56","system_id":"levelo_inurba_marseille","lat":43.33602,"lon":5.4101,"is_reserved":false,"is_disabled":false,"rental_uris":{"android":"levelo://app?vid=931e3968-6d09-488c-8fce-e4a6b5894e56","ios":"levelo://app?vid=931e3968-6d09-488c-8fce-e4a6b5894e56"},"vehicle_type_id":"4","last_reported":1737108552,"current_range_meters":38800,"station_id":"ce4bhqh2rcd13ifvqhmg","pricing_plan_id":"cebpf4jnsgd1na2vs0mg"},{"bike_id":"2a6ab64b-e3fb-4698-9a6a-f78a3a1e741f","system_id":"levelo_inurba_marseille","lat":43.26683,"lon":5.3827,"is_reserved":false,"is_disabled":false,"rental_uris":{"android":"levelo://app?vid=2a6ab64b-e3fb-4698-9a6a-f78a3a1e741f","ios":"levelo://app?vid=2a6ab64b-e3fb-4698-9a6a-f78a3a1e741f"},"vehicle_type_id":"4","last_reported":1737108552,"current_range_meters":38800,"station_id":"ce4bhg92rcd13ifvqf90","pricing_plan_id":"cebpf4jnsgd1na2vs0mg"},{"bike_id":"19a22e17-c2a1-4599-98e0-e7f1f318d27c","system_id":"levelo_inurba_marseille","lat":43.30417,"lon":5.39744,"is_reserved":false,"is_disabled":false,"rental_uris":{"android":"levelo://app?vid=19a22e17-c2a1-4599-98e0-e7f1f318d27c","ios":"levelo://app?vid=19a22e17-c2a1-4599-98e0-e7f1f318d27c"},"vehicle_type_id":"4","last_reported":1737108552,"current_range_meters":34800,"station_id":"ce4bh092rcd13ifvqd20","pricing_plan_id":"cebpf4jnsgd1na2vs0mg"},{"bike_id":"5b3e2687-53f3-4872-aea9-c615e16029aa","system_id":"levelo_inurba_marseille","lat":43.309429,"lon":5.390368,"is_reserved":false,"is_disabled":false,"rental_uris":{"android":"levelo://app?vid=5b3e2687-53f3-4872-aea9-c615e16029aa","ios":"levelo://app?vid=5b3e2687-53f3-4872-aea9-c615e16029aa"},"vehicle_type_id":"4","last_reported":1737108552,"current_range_meters":38800,"station_id":"ce4bgup2rcd13ifvqco0","pricing_plan_id":"cebpf4jnsgd1na2vs0mg"},{"bike_id":"e0787909-909a-4c51-bfbe-adb28f26837d","system_id":"levelo_inurba_marseille","lat":43.239601,"lon":5.366308,"is_reserved":false,"is_disabled":false,"rental_uris":{"android":"levelo://app?vid=e0787909-909a-4c51-bfbe-adb28f26837d","ios":"levelo://app?vid=e0787909-909a-4c51-bfbe-adb28f26837d"},"vehicle_type_id":"4","last_reported":1737108552,"current_range_meters":28800,"station_id":"ce4bhi12rcd13ifvqfp0","pricing_plan_id":"cebpf4jnsgd1na2vs0mg"},{"bike_id":"08651aa7-3b96-4acf-818e-074b84f36b09","system_id":"levelo_inurba_marseille","lat":43.34152,"lon":5.40915,"is_reserved":false,"is_disabled":false,"rental_uris":{"android":"levelo://app?vid=08651aa7-3b96-4acf-818e-074b84f36b09","ios":"levelo://app?vid=08651aa7-3b96-4acf-818e-074b84f36b09"},"vehicle_type_id":"4","last_reported":1737108552,"current_range_meters":38800,"station_id":"ce4bhqh2rcd13ifvqhlg","pricing_plan_id":"cebpf4jnsgd1na2vs0mg"},{"bike_id":"f090ec06-f1c4-4720-82eb-b5855f40eb17","system_id":"levelo_inurba_marseille","lat":43.24175,"lon":5.39732,"is_reserved":false,"is_disabled":false,"rental_uris":{"android":"levelo://app?vid=f090ec06-f1c4-4720-82eb-b5855f40eb17","ios":"levelo://app?vid=f090ec06-f1c4-4720-82eb-b5855f40eb17"},"vehicle_type_id":"4","last_reported":1737108552,"current_range_meters":16000,"station_id":"ce4bhn12rcd13ifvqgpg","pricing_plan_id":"cebpf4jnsgd1na2vs0mg"},{"bike_id":"963ada89-2813-41bb-a83b-b411c2ffb6f5","system_id":"levelo_inurba_marseille","lat":43.25932,"lon":5.40911,"is_reserved":false,"is_disabled":false,"rental_uris":{"android":"levelo://app?vid=963ada89-2813-41bb-a83b-b411c2ffb6f5","ios":"levelo://app?vid=963ada89-2813-41bb-a83b-b411c2ffb6f5"},"vehicle_type_id":"4","last_reported":1737108552,"current_range_meters":16800,"station_id":"ce4bhm92rcd13ifvqglg","pricing_plan_id":"cebpf4jnsgd1na2vs0mg"},{"bike_id":"0d23080e-06c3-45fa-a0a0-35b9e701809a","system_id":"levelo_inurba_marseille","lat":43.29759,"lon":5.37102,"is_reserved":false,"is_disabled":false,"rental_uris":{"android":"levelo://app?vid=0d23080e-06c3-45fa-a0a0-35b9e701809a","ios":"levelo://app?vid=0d23080e-06c3-45fa-a0a0-35b9e701809a"},"vehicle_type_id":"4","last_reported":1737108552,"current_range_meters":38800,"station_id":"ce4bgop2rcd13ifvqc1g","pricing_plan_id":"cebpf4jnsgd1na2vs0mg"},{"bike_id":"7383474c-b45a-4438-837c-99d7ae866fe7","system_id":"levelo_inurba_marseille","lat":43.26048,"lon":5.39419,"is_reserved":false,"is_disabled":false,"rental_uris":{"android":"levelo://app?vid=7383474c-b45a-4438-837c-99d7ae866fe7","ios":"levelo://app?vid=7383474c-b45a-4438-837c-99d7ae866fe7"},"vehicle_type_id":"4","last_reported":1737108552,"current_range_meters":38800,"station_id":"ce4bhh92rcd13ifvqfj0","pricing_plan_id":"cebpf4jnsgd1na2vs0mg"},{"bike_id":"d3545d69-4e5e-4319-b5c6-c93b1341a9d3","system_id":"levelo_inurba_marseille","lat":43.26195,"lon":5.37928,"is_reserved":false,"is_disabled":false,"rental_uris":{"android":"levelo://app?vid=d3545d69-4e5e-4319-b5c6-c93b1341a9d3","ios":"levelo://app?vid=d3545d69-4e5e-4319-b5c6-c93b1341a9d3"},"vehicle_type_id":"4","last_reported":1737108552,"current_range_meters":38800,"station_id":"ce4bhjp2rcd13ifvqg90","pricing_plan_id":"cebpf4jnsgd1na2vs0mg"},{"bike_id":"dc88b6b1-eb03-4885-9794-761910451a48","system_id":"levelo_inurba_marseille","lat":43.231514,"lon":5.437091,"is_reserved":false,"is_disabled":false,"rental_uris":{"android":"levelo://app?vid=dc88b6b1-eb03-4885-9794-761910451a48","ios":"levelo://app?vid=dc88b6b1-eb03-4885-9794-761910451a48"},"vehicle_type_id":"4","last_reported":1737108552,"current_range_meters":37600,"station_id":"ce4bhmp2rcd13ifvqgog","pricing_plan_id":"cebpf4jnsgd1na2vs0mg"},{"bike_id":"41364a09-40e6-4848-9859-94a5c6c479e7","system_id":"levelo_inurba_marseille","lat":43.25933,"lon":5.40909,"is_reserved":false,"is_disabled":false,"rental_uris":{"android":"levelo://app?vid=41364a09-40e6-4848-9859-94a5c6c479e7","ios":"levelo://app?vid=41364a09-40e6-4848-9859-94a5c6c479e7"},"vehicle_type_id":"4","last_reported":1737108552,"current_range_meters":36800,"station_id":"ce4bhm92rcd13ifvqglg","pricing_plan_id":"cebpf4jnsgd1na2vs0mg"},{"bike_id":"0dd19019-f68e-4196-b969-e64a3d920187","system_id":"levelo_inurba_marseille","lat":43.30542,"lon":5.36708,"is_reserved":false,"is_disabled":false,"rental_uris":{"android":"levelo://app?vid=0dd19019-f68e-4196-b969-e64a3d920187","ios":"levelo://app?vid=0dd19019-f68e-4196-b969-e64a3d920187"},"vehicle_type_id":"4","last_reported":1737108552,"current_range_meters":30400,"station_id":"ce4bgrp2rcd13ifvqc9g","pricing_plan_id":"cebpf4jnsgd1na2vs0mg"},{"bike_id":"0116d5e4-3224-4531-967c-77620db57375","system_id":"levelo_inurba_marseille","lat":43.301513,"lon":5.374694,"is_reserved":false,"is_disabled":false,"rental_uris":{"android":"levelo://app?vid=0116d5e4-3224-4531-967c-77620db57375","ios":"levelo://app?vid=0116d5e4-3224-4531-967c-77620db57375"},"vehicle_type_id":"4","last_reported":1737108552,"current_range_meters":12800,"station_id":"ce4bguh2rcd13ifvqcj0","pricing_plan_id":"cebpf4jnsgd1na2vs0mg"},{"bike_id":"22ccf45d-452d-45b0-ab56-995b2e477ec6","system_id":"levelo_inurba_marseille","lat":43.31481,"lon":5.37284,"is_reserved":false,"is_disabled":false,"rental_uris":{"android":"levelo://app?vid=22ccf45d-452d-45b0-ab56-995b2e477ec6","ios":"levelo://app?vid=22ccf45d-452d-45b0-ab56-995b2e477ec6"},"vehicle_type_id":"4","last_reported":1737108552,"current_range_meters":8400,"station_id":"ce4bgt12rcd13ifvqcd0","pricing_plan_id":"cebpf4jnsgd1na2vs0mg"},{"bike_id":"44721705-52d0-4eba-b0b2-b41ea9586411","system_id":"levelo_inurba_marseille","lat":43.23189,"lon":5.35572,"is_reserved":false,"is_disabled":false,"rental_uris":{"android":"levelo://app?vid=44721705-52d0-4eba-b0b2-b41ea9586411","ios":"levelo://app?vid=44721705-52d0-4eba-b0b2-b41ea9586411"},"vehicle_type_id":"4","last_reported":1737108552,"current_range_meters":30400,"station_id":"ce4bhu92rcd13ifvqi70","pricing_plan_id":"cebpf4jnsgd1na2vs0mg"},{"bike_id":"bca8ca0e-e6bb-4c30-9c0f-003d202e822c","system_id":"levelo_inurba_marseille","lat":43.27308,"lon":5.3911,"is_reserved":false,"is_disabled":false,"rental_uris":{"android":"levelo://app?vid=bca8ca0e-e6bb-4c30-9c0f-003d202e822c","ios":"levelo://app?vid=bca8ca0e-e6bb-4c30-9c0f-003d202e822c"},"vehicle_type_id":"4","last_reported":1737108552,"current_range_meters":38800,"station_id":"ce4bhgp2rcd13ifvqfe0","pricing_plan_id":"cebpf4jnsgd1na2vs0mg"},{"bike_id":"fe4ca2de-39b1-4c54-a18c-5b9311dc9a5e","system_id":"levelo_inurba_marseille","lat":43.30532,"lon":5.36533,"is_reserved":false,"is_disabled":false,"rental_uris":{"android":"levelo://app?vid=fe4ca2de-39b1-4c54-a18c-5b9311dc9a5e","ios":"levelo://app?vid=fe4ca2de-39b1-4c54-a18c-5b9311dc9a5e"},"vehicle_type_id":"4","last_reported":1737108552,"current_range_meters":38800,"station_id":"ce4bgs12rcd13ifvqcag","pricing_plan_id":"cebpf4jnsgd1na2vs0mg"},{"bike_id":"7138f953-e5b4-4a72-b4e7-3913f820a576","system_id":"levelo_inurba_marseille","lat":43.2721,"lon":5.40989,"is_reserved":false,"is_disabled":false,"rental_uris":{"android":"levelo://app?vid=7138f953-e5b4-4a72-b4e7-3913f820a576","ios":"levelo://app?vid=7138f953-e5b4-4a72-b4e7-3913f820a576"},"vehicle_type_id":"4","last_reported":1737108552,"current_range_meters":38400,"station_id":"ce4bhl12rcd13ifvqgf0","pricing_plan_id":"cebpf4jnsgd1na2vs0mg"},{"bike_id":"1b6b7ffd-1198-465a-82b8-c33775fecaff","system_id":"levelo_inurba_marseille","lat":43.26193,"lon":5.37447,"is_reserved":false,"is_disabled":false,"rental_uris":{"android":"levelo://app?vid=1b6b7ffd-1198-465a-82b8-c33775fecaff","ios":"levelo://app?vid=1b6b7ffd-1198-465a-82b8-c33775fecaff"},"vehicle_type_id":"4","last_reported":1737108552,"current_range_meters":38800,"station_id":"ce4bhgp2rcd13ifvqfc0","pricing_plan_id":"cebpf4jnsgd1na2vs0mg"},{"bike_id":"1cb33b50-cfa2-4024-bca9-6a8271582b2e","system_id":"levelo_inurba_marseille","lat":43.29795,"lon":5.38098,"is_reserved":false,"is_disabled":false,"rental_uris":{"android":"levelo://app?vid=1cb33b50-cfa2-4024-bca9-6a8271582b2e","ios":"levelo://app?vid=1cb33b50-cfa2-4024-bca9-6a8271582b2e"},"vehicle_type_id":"4","last_reported":1737108552,"current_range_meters":27200,"station_id":"ce4bgip2rcd13ifvqbb0","pricing_plan_id":"cebpf4jnsgd1na2vs0mg"},{"bike_id":"3e669806-dbc2-4ed4-a074-c81594b7cb7c","system_id":"levelo_inurba_marseille","lat":43.29056,"lon":5.39976,"is_reserved":false,"is_disabled":false,"rental_uris":{"android":"levelo://app?vid=3e669806-dbc2-4ed4-a074-c81594b7cb7c","ios":"levelo://app?vid=3e669806-dbc2-4ed4-a074-c81594b7cb7c"},"vehicle_type_id":"4","last_reported":1737108552,"current_range_meters":38800,"station_id":"ce4bh392rcd13ifvqdm0","pricing_plan_id":"cebpf4jnsgd1na2vs0mg"},{"bike_id":"e1f9a0b5-1419-4e67-ab24-a72ee45dfd85","system_id":"levelo_inurba_marseille","lat":43.24164,"lon":5.36394,"is_reserved":false,"is_disabled":false,"rental_uris":{"android":"levelo://app?vid=e1f9a0b5-1419-4e67-ab24-a72ee45dfd85","ios":"levelo://app?vid=e1f9a0b5-1419-4e67-ab24-a72ee45dfd85"},"vehicle_type_id":"4","last_reported":1737108552,"current_range_meters":16800,"station_id":"cpo36qri1sfpv3e86is0","pricing_plan_id":"cebpf4jnsgd1na2vs0mg"},{"bike_id":"4abaf650-8bff-493a-9ebd-515093843552","system_id":"levelo_inurba_marseille","lat":43.27204,"lon":5.39195,"is_reserved":false,"is_disabled":false,"rental_uris":{"android":"levelo://app?vid=4abaf650-8bff-493a-9ebd-515093843552","ios":"levelo://app?vid=4abaf650-8bff-493a-9ebd-515093843552"},"vehicle_type_id":"4","last_reported":1737108552,"current_range_meters":34000,"station_id":"ce501612rcd8frsf0b60","pricing_plan_id":"cebpf4jnsgd1na2vs0mg"},{"bike_id":"f3c68b7c-e76b-4c4f-ba50-1c2bf4ba8f19","system_id":"levelo_inurba_marseille","lat":43.31357,"lon":5.38489,"is_reserved":false,"is_disabled":false,"rental_uris":{"android":"levelo://app?vid=f3c68b7c-e76b-4c4f-ba50-1c2bf4ba8f19","ios":"levelo://app?vid=f3c68b7c-e76b-4c4f-ba50-1c2bf4ba8f19"},"vehicle_type_id":"4","last_reported":1737108552,"current_range_meters":16400,"station_id":"ce4bgt92rcd13ifvqcf0","pricing_plan_id":"cebpf4jnsgd1na2vs0mg"},{"bike_id":"8f614e1f-84f3-4dcd-b94a-4b22991f6e04","system_id":"levelo_inurba_marseille","lat":43.29221,"lon":5.36071,"is_reserved":false,"is_disabled":true,"rental_uris":{"android":"levelo://app?vid=8f614e1f-84f3-4dcd-b94a-4b22991f6e04","ios":"levelo://app?vid=8f614e1f-84f3-4dcd-b94a-4b22991f6e04"},"vehicle_type_id":"4","last_reported":1737108552,"current_range_meters":24000,"station_id":"ce4bhbh2rcd13ifvqeqg","pricing_plan_id":"cebpf4jnsgd1na2vs0mg"},{"bike_id":"882e3c20-dd13-45c9-b2cc-b9e0e7c63a64","system_id":"levelo_inurba_marseille","lat":43.30511,"lon":5.36542,"is_reserved":false,"is_disabled":false,"rental_uris":{"android":"levelo://app?vid=882e3c20-dd13-45c9-b2cc-b9e0e7c63a64","ios":"levelo://app?vid=882e3c20-dd13-45c9-b2cc-b9e0e7c63a64"},"vehicle_type_id":"4","last_reported":1737108552,"current_range_meters":38800,"station_id":"ce4bgs12rcd13ifvqcag","pricing_plan_id":"cebpf4jnsgd1na2vs0mg"},{"bike_id":"c3de6877-1f6c-46f2-8ace-6b8834abcbb4","system_id":"levelo_inurba_marseille","lat":43.29071,"lon":5.3714,"is_reserved":false,"is_disabled":true,"rental_uris":{"android":"levelo://app?vid=c3de6877-1f6c-46f2-8ace-6b8834abcbb4","ios":"levelo://app?vid=c3de6877-1f6c-46f2-8ace-6b8834abcbb4"},"vehicle_type_id":"4","last_reported":1737108552,"current_range_meters":27200,"station_id":"ce4bh5p2rcd13ifvqe4g","pricing_plan_id":"cebpf4jnsgd1na2vs0mg"},{"bike_id":"6e220c80-72f8-4d3e-871d-c980ceb80b9d","system_id":"levelo_inurba_marseille","lat":43.26805,"lon":5.39419,"is_reserved":false,"is_disabled":false,"rental_uris":{"android":"levelo://app?vid=6e220c80-72f8-4d3e-871d-c980ceb80b9d","ios":"levelo://app?vid=6e220c80-72f8-4d3e-871d-c980ceb80b9d"},"vehicle_type_id":"4","last_reported":1737108552,"current_range_meters":5600,"station_id":"ce4bhh12rcd13ifvqfg0","pricing_plan_id":"cebpf4jnsgd1na2vs0mg"},{"bike_id":"c2304ced-bf00-48b6-8385-db52601b7ccc","system_id":"levelo_inurba_marseille","lat":43.24386,"lon":5.37061,"is_reserved":false,"is_disabled":false,"rental_uris":{"android":"levelo://app?vid=c2304ced-bf00-48b6-8385-db52601b7ccc","ios":"levelo://app?vid=c2304ced-bf00-48b6-8385-db52601b7ccc"},"vehicle_type_id":"4","last_reported":1737108552,"current_range_meters":27200,"station_id":"ce4bhhh2rcd13ifvqfk0","pricing_plan_id":"cebpf4jnsgd1na2vs0mg"},{"bike_id":"2aa98a8e-265a-4dfa-baae-3da013df4e11","system_id":"levelo_inurba_marseille","lat":43.27367,"lon":5.36253,"is_reserved":false,"is_disabled":false,"rental_uris":{"android":"levelo://app?vid=2aa98a8e-265a-4dfa-baae-3da013df4e11","ios":"levelo://app?vid=2aa98a8e-265a-4dfa-baae-3da013df4e11"},"vehicle_type_id":"4","last_reported":1737108552,"current_range_meters":11600,"station_id":"ce4bhbh2rcd13ifvqeo0","pricing_plan_id":"cebpf4jnsgd1na2vs0mg"},{"bike_id":"e0b58fdf-8c8f-454b-8926-2f8df7a5baaf","system_id":"levelo_inurba_marseille","lat":43.23623,"lon":5.39215,"is_reserved":false,"is_disabled":false,"rental_uris":{"android":"levelo://app?vid=e0b58fdf-8c8f-454b-8926-2f8df7a5baaf","ios":"levelo://app?vid=e0b58fdf-8c8f-454b-8926-2f8df7a5baaf"},"vehicle_type_id":"4","last_reported":1737108552,"current_range_meters":14400,"station_id":"","pricing_plan_id":"cebpf4jnsgd1na2vs0mg"},{"bike_id":"6cbf59e6-0bb3-4821-85b9-5e1365575a2a","system_id":"levelo_inurba_marseille","lat":43.25806,"lon":5.3942,"is_reserved":false,"is_disabled":false,"rental_uris":{"android":"levelo://app?vid=6cbf59e6-0bb3-4821-85b9-5e1365575a2a","ios":"levelo://app?vid=6cbf59e6-0bb3-4821-85b9-5e1365575a2a"},"vehicle_type_id":"4","last_reported":1737108552,"current_range_meters":38000,"station_id":"ce4bhip2rcd13ifvqft0","pricing_plan_id":"cebpf4jnsgd1na2vs0mg"},{"bike_id":"53d0db46-3b8c-4298-96d7-03a0d6fafab4","system_id":"levelo_inurba_marseille","lat":43.30551,"lon":5.36553,"is_reserved":false,"is_disabled":false,"rental_uris":{"android":"levelo://app?vid=53d0db46-3b8c-4298-96d7-03a0d6fafab4","ios":"levelo://app?vid=53d0db46-3b8c-4298-96d7-03a0d6fafab4"},"vehicle_type_id":"4","last_reported":1737108552,"current_range_meters":38400,"station_id":"ce4bgs12rcd13ifvqcag","pricing_plan_id":"cebpf4jnsgd1na2vs0mg"},{"bike_id":"9fd67735-0e42-4ea3-ba49-b3e72ffcfb28","system_id":"levelo_inurba_marseille","lat":43.305332,"lon":5.367032,"is_reserved":false,"is_disabled":false,"rental_uris":{"android":"levelo://app?vid=9fd67735-0e42-4ea3-ba49-b3e72ffcfb28","ios":"levelo://app?vid=9fd67735-0e42-4ea3-ba49-b3e72ffcfb28"},"vehicle_type_id":"4","last_reported":1737108552,"current_range_meters":39200,"station_id":"ce4bgrp2rcd13ifvqc9g","pricing_plan_id":"cebpf4jnsgd1na2vs0mg"},{"bike_id":"7d3c749d-4eb6-4ace-b278-8c043ec9d8f5","system_id":"levelo_inurba_marseille","lat":43.266998,"lon":5.372383,"is_reserved":false,"is_disabled":false,"rental_uris":{"android":"levelo://app?vid=7d3c749d-4eb6-4ace-b278-8c043ec9d8f5","ios":"levelo://app?vid=7d3c749d-4eb6-4ace-b278-8c043ec9d8f5"},"vehicle_type_id":"4","last_reported":1737108552,"current_range_meters":27600,"station_id":"ce4bhg12rcd13ifvqf70","pricing_plan_id":"cebpf4jnsgd1na2vs0mg"},{"bike_id":"f5863b18-13a1-4c6e-92de-5668ea912ad3","system_id":"levelo_inurba_marseille","lat":43.26219,"lon":5.4049,"is_reserved":false,"is_disabled":true,"rental_uris":{"android":"levelo://app?vid=f5863b18-13a1-4c6e-92de-5668ea912ad3","ios":"levelo://app?vid=f5863b18-13a1-4c6e-92de-5668ea912ad3"},"vehicle_type_id":"4","last_reported":1737108552,"current_range_meters":0,"station_id":"","pricing_plan_id":"cebpf4jnsgd1na2vs0mg"},{"bike_id":"bbf725a3-843a-42c1-8fd8-b53dad5cabfe","system_id":"levelo_inurba_marseille","lat":43.27206,"lon":5.39174,"is_reserved":false,"is_disabled":false,"rental_uris":{"android":"levelo://app?vid=bbf725a3-843a-42c1-8fd8-b53dad5cabfe","ios":"levelo://app?vid=bbf725a3-843a-42c1-8fd8-b53dad5cabfe"},"vehicle_type_id":"4","last_reported":1737108552,"current_range_meters":39200,"station_id":"ce4bhhp2rcd13ifvqfm0","pricing_plan_id":"cebpf4jnsgd1na2vs0mg"},{"bike_id":"a8fad254-19bb-48fe-801d-9e93d4767cef","system_id":"levelo_inurba_marseille","lat":43.31417,"lon":5.37398,"is_reserved":false,"is_disabled":true,"rental_uris":{"android":"levelo://app?vid=a8fad254-19bb-48fe-801d-9e93d4767cef","ios":"levelo://app?vid=a8fad254-19bb-48fe-801d-9e93d4767cef"},"vehicle_type_id":"4","last_reported":1737108552,"current_range_meters":0,"station_id":"","pricing_plan_id":"cebpf4jnsgd1na2vs0mg"},{"bike_id":"a7595b6a-cccc-4e99-a784-dc6b65610f55","system_id":"levelo_inurba_marseille","lat":43.29077,"lon":5.38158,"is_reserved":false,"is_disabled":false,"rental_uris":{"android":"levelo://app?vid=a7595b6a-cccc-4e99-a784-dc6b65610f55","ios":"levelo://app?vid=a7595b6a-cccc-4e99-a784-dc6b65610f55"},"vehicle_type_id":"4","last_reported":1737108552,"current_range_meters":8400,"station_id":"ce4bh512rcd13ifvqe2g","pricing_plan_id":"cebpf4jnsgd1na2vs0mg"},{"bike_id":"c1725ead-01c3-4f75-84f2-0e37ba1865ed","system_id":"levelo_inurba_marseille","lat":43.3249,"lon":5.36568,"is_reserved":false,"is_disabled":false,"rental_uris":{"android":"levelo://app?vid=c1725ead-01c3-4f75-84f2-0e37ba1865ed","ios":"levelo://app?vid=c1725ead-01c3-4f75-84f2-0e37ba1865ed"},"vehicle_type_id":"4","last_reported":1737108552,"current_range_meters":32000,"station_id":"ce4bhs12rcd13ifvqhvg","pricing_plan_id":"cebpf4jnsgd1na2vs0mg"},{"bike_id":"e5f71037-c3e2-4a5c-b185-51bcddd625d8","system_id":"levelo_inurba_marseille","lat":43.23049,"lon":5.35495,"is_reserved":false,"is_disabled":false,"rental_uris":{"android":"levelo://app?vid=e5f71037-c3e2-4a5c-b185-51bcddd625d8","ios":"levelo://app?vid=e5f71037-c3e2-4a5c-b185-51bcddd625d8"},"vehicle_type_id":"4","last_reported":1737108552,"current_range_meters":5600,"station_id":"cpo3342slgdg3j2ifvpg","pricing_plan_id":"cebpf4jnsgd1na2vs0mg"},{"bike_id":"46686b70-f375-4947-b209-2f4548c2edcf","system_id":"levelo_inurba_marseille","lat":43.28886,"lon":5.39449,"is_reserved":false,"is_disabled":true,"rental_uris":{"android":"levelo://app?vid=46686b70-f375-4947-b209-2f4548c2edcf","ios":"levelo://app?vid=46686b70-f375-4947-b209-2f4548c2edcf"},"vehicle_type_id":"4","last_reported":1737108552,"current_range_meters":0,"station_id":"","pricing_plan_id":"cebpf4jnsgd1na2vs0mg"},{"bike_id":"a6598479-da72-427b-98ef-dbfa1cde27d9","system_id":"levelo_inurba_marseille","lat":43.250953,"lon":5.39494,"is_reserved":false,"is_disabled":false,"rental_uris":{"android":"levelo://app?vid=a6598479-da72-427b-98ef-dbfa1cde27d9","ios":"levelo://app?vid=a6598479-da72-427b-98ef-dbfa1cde27d9"},