{"last_updated":1702066071,"ttl":30,"version":"2.2","data":{"bikes":[{"bike_id":"6e606b5a-9785-4a32-987f-9271e6bd673b","system_id":"levelo_inurba_marseille","lat":43.312239,"lon":5.368562,"is_reserved":false,"is_disabled":false,"rental_uris":{"android":"levelo://app?vid=6e606b5a-9785-4a32-987f-9271e6bd673b","ios":"levelo://app?vid=6e606b5a-9785-4a32-987f-9271e6bd673b"},"vehicle_type_id":"4","last_reported":1702066071,"current_range_meters":8000,"station_id":"ce4bgl92rcd13ifvqbq0","pricing_plan_id":"free"},{"bike_id":"63d782fe-1446-42cf-b0e8-562f813a9003","system_id":"levelo_inurba_marseille","lat":43.314811,"lon":5.373103,"is_reserved":false,"is_disabled":false,"rental_uris":{"android":"levelo://app?vid=63d782fe-1446-42cf-b0e8-562f813a9003","ios":"levelo://app?vid=63d782fe-1446-42cf-b0e8-562f813a9003"},"vehicle_type_id":"4","last_reported":1702066071,"current_range_meters":20800,"station_id":"ce4bgt12rcd13ifvqcd0","pricing_plan_id":"free"},{"bike_id":"2bd28858-a6f5-401d-9fe8-6c5471cd6abd","system_id":"levelo_inurba_marseille","lat":43.309039,"lon":5.371797,"is_reserved":false,"is_disabled":false,"rental_uris":{"android":"levelo://app?vid=2bd28858-a6f5-401d-9fe8-6c5471cd6abd","ios":"levelo://app?vid=2bd28858-a6f5-401d-9fe8-6c5471cd6abd"},"vehicle_type_id":"4","last_reported":1702066071,"current_range_meters":21600,"station_id":"ce4bguh2rcd13ifvqckg","pricing_plan_id":"free"},{"bike_id":"1cf3300a-e06d-4b7f-8477-f9553f7dee4d","system_id":"levelo_inurba_marseille","lat":43.311131,"lon":5.377651,"is_reserved":false,"is_disabled":false,"rental_uris":{"android":"levelo://app?vid=1cf3300a-e06d-4b7f-8477-f9553f7dee4d","ios":"levelo://app?vid=1cf3300a-e06d-4b7f-8477-f9553f7dee4d"},"vehicle_type_id":"4","last_reported":1702066071,"current_range_meters":18400,"station_id":"ce4bgt92rcd13ifvqcg0","pricing_plan_id":"free"},{"bike_id":"7b3173fd-532e-4fa7-8b3a-868ad37da620","system_id":"levelo_inurba_marseille","lat":43.31116,"lon":5.37759,"is_reserved":false,"is_disabled":false,"rental_uris":{"android":"levelo://app?vid=7b3173fd-532e-4fa7-8b3a-868ad37da620","ios":"levelo://app?vid=7b3173fd-532e-4fa7-8b3a-868ad37da620"},"vehicle_type_id":"4","last_reported":1702066071,"current_range_meters":0,"station_id":"ce4bgt92rcd13ifvqcg0","pricing_plan_id":"free"},{"bike_id":"2822fd74-0e44-4879-9f1e-e27ce9549055","system_id":"levelo_inurba_marseille","lat":43.307945,"lon":5.376487,"is_reserved":false,"is_disabled":false,"rental_uris":{"android":"levelo://app?vid=2822fd74-0e44-4879-9f1e-e27ce9549055","ios":"levelo://app?vid=2822fd74-0e44-4879-9f1e-e27ce9549055"},"vehicle_type_id":"4","last_reported":1702066071,"current_range_meters":26400,"station_id":"ce4bgv92rcd13ifvqcq0","pricing_plan_id":"free"},{"bike_id":"1ea60f58-75f7-4484-b705-1156df4b02ad","system_id":"levelo_inurba_marseille","lat":43.302817,"lon":5.373489,"is_reserved":false,"is_disabled":false,"rental_uris":{"android":"levelo://app?vid=1ea60f58-75f7-4484-b705-1156df4b02ad","ios":"levelo://app?vid=1ea60f58-75f7-4484-b705-1156df4b02ad"},"vehicle_type_id":"4","last_reported":1702066071,"current_range_meters":0,"station_id":"","pricing_plan_id":"free"},{"bike_id":"9490bd34-ef1c-4d74-8f90-577f6b207d95","system_id":"levelo_inurba_marseille","lat":43.308012,"lon":5.381511,"is_reserved":false,"is_disabled":false,"rental_uris":{"android":"levelo://app?vid=9490bd34-ef1c-4d74-8f90-577f6b207d95","ios":"levelo://app?vid=9490bd34-ef1c-4d74-8f90-577f6b207d95"},"vehicle_type_id":"4","last_reported":1702066071,"current_range_meters":5600,"station_id":"ce4bgt12rcd13ifvqce0","pricing_plan_id":"free"},{"bike_id":"b29a3c0b-bf37-41c8-ab30-d42659fe1035","system_id":"levelo_inurba_marseille","lat":43.30794,"lon":5.3815,"is_reserved":false,"is_disabled":false,"rental_uris":{"android":"levelo://app?vid=b29a3c0b-bf37-41c8-ab30-d42659fe1035","ios":"levelo://app?vid=b29a3c0b-bf37-41c8-ab30-d42659fe1035"},"vehicle_type_id":"4","last_reported":1702066071,"current_range_meters":21200,"station_id":"ce4bgt12rcd13ifvqce0","pricing_plan_id":"free"},{"bike_id":"e5f7cffa-3d5c-441e-adcb-f934b33ceb94","system_id":"levelo_inurba_marseille","lat":43.31977,"lon":5.38126,"is_reserved":false,"is_disabled":false,"rental_uris":{"android":"levelo://app?vid=e5f7cffa-3d5c-441e-adcb-f934b33ceb94","ios":"levelo://app?vid=e5f7cffa-3d5c-441e-adcb-f934b33ceb94"},"vehicle_type_id":"4","last_reported":1702066071,"current_range_meters":0,"station_id":"ce4bhr12rcd13ifvqhpg","pricing_plan_id":"free"},{"bike_id":"71b3e3f8-de2d-43f2-822c-8b17b053249c","system_id":"levelo_inurba_marseille","lat":43.305364,"lon":5.384119,"is_reserved":false,"is_disabled":false,"rental_uris":{"android":"levelo://app?vid=71b3e3f8-de2d-43f2-822c-8b17b053249c","ios":"levelo://app?vid=71b3e3f8-de2d-43f2-822c-8b17b053249c"},"vehicle_type_id":"4","last_reported":1702066071,"current_range_meters":26000,"station_id":"ce4bgg92rcd13ifvqb30","pricing_plan_id":"free"},{"bike_id":"38f1223e-a214-4eb0-9b54-a70de861d11b","system_id":"levelo_inurba_marseille","lat":43.32288,"lon":5.38256,"is_reserved":false,"is_disabled":false,"rental_uris":{"android":"levelo://app?vid=38f1223e-a214-4eb0-9b54-a70de861d11b","ios":"levelo://app?vid=38f1223e-a214-4eb0-9b54-a70de861d11b"},"vehicle_type_id":"4","last_reported":1702066071,"current_range_meters":26000,"station_id":"ce4bhr12rcd13ifvqhqg","pricing_plan_id":"free"},{"bike_id":"991448e4-6851-4d1a-aba1-4b6e7cd051db","system_id":"levelo_inurba_marseille","lat":43.32294,"lon":5.382583,"is_reserved":false,"is_disabled":false,"rental_uris":{"android":"levelo://app?vid=991448e4-6851-4d1a-aba1-4b6e7cd051db","ios":"levelo://app?vid=991448e4-6851-4d1a-aba1-4b6e7cd051db"},"vehicle_type_id":"4","last_reported":1702066071,"current_range_meters":21600,"station_id":"ce4bhr12rcd13ifvqhqg","pricing_plan_id":"free"},{"bike_id":"a80312d7-2035-41c9-b519-92db02a72c60","system_id":"levelo_inurba_marseille","lat":43.322872,"lon":5.382756,"is_reserved":false,"is_disabled":false,"rental_uris":{"android":"levelo://app?vid=a80312d7-2035-41c9-b519-92db02a72c60","ios":"levelo://app?vid=a80312d7-2035-41c9-b519-92db02a72c60"},"vehicle_type_id":"4","last_reported":1702066071,"current_range_meters":26000,"station_id":"ce4bhr12rcd13ifvqhqg","pricing_plan_id":"free"},{"bike_id":"7b04c468-d67d-486d-aa31-b467eddee7c0","system_id":"levelo_inurba_marseille","lat":43.323,"lon":5.3826,"is_reserved":false,"is_disabled":false,"rental_uris":{"android":"levelo://app?vid=7b04c468-d67d-486d-aa31-b467eddee7c0","ios":"levelo://app?vid=7b04c468-d67d-486d-aa31-b467eddee7c0"},"vehicle_type_id":"4","last_reported":1702066071,"current_range_meters":1200,"station_id":"ce4bhr12rcd13ifvqhqg","pricing_plan_id":"free"},{"bike_id":"6ac675f1-e0be-498c-ad2f-b742a949d4b0","system_id":"levelo_inurba_marseille","lat":43.298218,"lon":5.374416,"is_reserved":false,"is_disabled":false,"rental_uris":{"android":"levelo://app?vid=6ac675f1-e0be-498c-ad2f-b742a949d4b0","ios":"levelo://app?vid=6ac675f1-e0be-498c-ad2f-b742a949d4b0"},"vehicle_type_id":"4","last_reported":1702066071,"current_range_meters":4800,"station_id":"","pricing_plan_id":"free"},{"bike_id":"90a5106b-97e9-466b-8c22-cd263e3e59cb","system_id":"levelo_inurba_marseille","lat":43.308133,"lon":5.387687,"is_reserved":false,"is_disabled":false,"rental_uris":{"android":"levelo://app?vid=90a5106b-97e9-466b-8c22-cd263e3e59cb","ios":"levelo://app?vid=90a5106b-97e9-466b-8c22-cd263e3e59cb"},"vehicle_type_id":"4","last_reported":1702066071,"current_range_meters":0,"station_id":"","pricing_plan_id":"free"},{"bike_id":"92dc65d6-6823-4de3-93d4-056f738f090c","system_id":"levelo_inurba_marseille","lat":43.316538,"lon":5.38954,"is_reserved":false,"is_disabled":false,"rental_uris":{"android":"levelo://app?vid=92dc65d6-6823-4de3-93d4-056f738f090c","ios":"levelo://app?vid=92dc65d6-6823-4de3-93d4-056f738f090c"},"vehicle_type_id":"4","last_reported":1702066071,"current_range_meters":400,"station_id":"","pricing_plan_id":"free"},{"bike_id":"9d9c943f-9dfe-486e-8b2c-d2b303c05495","system_id":"levelo_inurba_marseille","lat":43.29573,"lon":5.367355,"is_reserved":false,"is_disabled":false,"rental_uris":{"android":"levelo://app?vid=9d9c943f-9dfe-486e-8b2c-d2b303c05495","ios":"levelo://app?vid=9d9c943f-9dfe-486e-8b2c-d2b303c05495"},"vehicle_type_id":"4","last_reported":1702066071,"current_range_meters":24000,"station_id":"ce4bgph2rcd13ifvqc2g","pricing_plan_id":"free"},{"bike_id":"246fa23b-c1f6-47a4-b1ec-47a4a9375d4c","system_id":"levelo_inurba_marseille","lat":43.309589,"lon":5.390258,"is_reserved":false,"is_disabled":false,"rental_uris":{"android":"levelo://app?vid=246fa23b-c1f6-47a4-b1ec-47a4a9375d4c","ios":"levelo://app?vid=246fa23b-c1f6-47a4-b1ec-47a4a9375d4c"},"vehicle_type_id":"4","last_reported":1702066071,"current_range_meters":13600,"station_id":"ce4bgup2rcd13ifvqco0","pricing_plan_id":"free"},{"bike_id":"3160977e-8b04-475d-804e-8e9feca874c8","system_id":"levelo_inurba_marseille","lat":43.296935,"lon":5.376544,"is_reserved":false,"is_disabled":false,"rental_uris":{"android":"levelo://app?vid=3160977e-8b04-475d-804e-8e9feca874c8","ios":"levelo://app?vid=3160977e-8b04-475d-804e-8e9feca874c8"},"vehicle_type_id":"4","last_reported":1702066071,"current_range_meters":16800,"station_id":"ce4bgkh2rcd13ifvqbl0","pricing_plan_id":"free"},{"bike_id":"7ac58408-1a0e-4b7b-9936-c3b1f6ffa1aa","system_id":"levelo_inurba_marseille","lat":43.299028,"lon":5.381509,"is_reserved":false,"is_disabled":false,"rental_uris":{"android":"levelo://app?vid=7ac58408-1a0e-4b7b-9936-c3b1f6ffa1aa","ios":"levelo://app?vid=7ac58408-1a0e-4b7b-9936-c3b1f6ffa1aa"},"vehicle_type_id":"4","last_reported":1702066071,"current_range_meters":9200,"station_id":"ce4bgj12rcd13ifvqbc0","pricing_plan_id":"free"},{"bike_id":"0c36b66f-c435-491f-9e1c-abd1cf7e6d7b","system_id":"levelo_inurba_marseille","lat":43.294779,"lon":5.375799,"is_reserved":false,"is_disabled":false,"rental_uris":{"android":"levelo://app?vid=0c36b66f-c435-491f-9e1c-abd1cf7e6d7b","ios":"levelo://app?vid=0c36b66f-c435-491f-9e1c-abd1cf7e6d7b"},"vehicle_type_id":"4","last_reported":1702066071,"current_range_meters":26400,"station_id":"","pricing_plan_id":"free"},{"bike_id":"5a1f6bc8-e270-4ee1-b3a7-8b734b52a9ea","system_id":"levelo_inurba_marseille","lat":43.32365,"lon":5.38882,"is_reserved":false,"is_disabled":false,"rental_uris":{"android":"levelo://app?vid=5a1f6bc8-e270-4ee1-b3a7-8b734b52a9ea","ios":"levelo://app?vid=5a1f6bc8-e270-4ee1-b3a7-8b734b52a9ea"},"vehicle_type_id":"4","last_reported":1702066071,"current_range_meters":17600,"station_id":"ce4bhqp2rcd13ifvqhog","pricing_plan_id":"free"},{"bike_id":"c988b46d-8a29-477d-b448-cae64455c145","system_id":"levelo_inurba_marseille","lat":43.32366,"lon":5.38882,"is_reserved":false,"is_disabled":false,"rental_uris":{"android":"levelo://app?vid=c988b46d-8a29-477d-b448-cae64455c145","ios":"levelo://app?vid=c988b46d-8a29-477d-b448-cae64455c145"},"vehicle_type_id":"4","last_reported":1702066071,"current_range_meters":15600,"station_id":"ce4bhqp2rcd13ifvqhog","pricing_plan_id":"free"},{"bike_id":"f49ece6b-44b6-411d-9b14-a67300f1b18c","system_id":"levelo_inurba_marseille","lat":43.292749,"lon":5.368402,"is_reserved":false,"is_disabled":false,"rental_uris":{"android":"levelo://app?vid=f49ece6b-44b6-411d-9b14-a67300f1b18c","ios":"levelo://app?vid=f49ece6b-44b6-411d-9b14-a67300f1b18c"},"vehicle_type_id":"4","last_reported":1702066071,"current_range_meters":14000,"station_id":"ce4bhbp2rcd13ifvqesg","pricing_plan_id":"free"},{"bike_id":"00180005-6fc4-410f-9548-21dc4395b3ea","system_id":"levelo_inurba_marseille","lat":43.294153,"lon":5.386305,"is_reserved":false,"is_disabled":false,"rental_uris":{"android":"levelo://app?vid=00180005-6fc4-410f-9548-21dc4395b3ea","ios":"levelo://app?vid=00180005-6fc4-410f-9548-21dc4395b3ea"},"vehicle_type_id":"4","last_reported":1702066071,"current_range_meters":0,"station_id":"ce4bh2h2rcd13ifvqdh0","pricing_plan_id":"free"},{"bike_id":"ffe8e861-9583-46be-9da3-462d5c1037ee","system_id":"levelo_inurba_marseille","lat":43.292877,"lon":5.374403,"is_reserved":false,"is_disabled":false,"rental_uris":{"android":"levelo://app?vid=ffe8e861-9583-46be-9da3-462d5c1037ee","ios":"levelo://app?vid=ffe8e861-9583-46be-9da3-462d5c1037ee"},"vehicle_type_id":"4","last_reported":1702066071,"current_range_meters":15200,"station_id":"ce4bgi12rcd13ifvqb70","pricing_plan_id":"free"},{"bike_id":"cebf1743-4f59-4f7f-ae3d-4999fd51bbfd","system_id":"levelo_inurba_marseille","lat":43.2936,"lon":5.37835,"is_reserved":false,"is_disabled":false,"rental_uris":{"android":"levelo://app?vid=cebf1743-4f59-4f7f-ae3d-4999fd51bbfd","ios":"levelo://app?vid=cebf1743-4f59-4f7f-ae3d-4999fd51bbfd"},"vehicle_type_id":"4","last_reported":1702066071,"current_range_meters":6800,"station_id":"ce4bgjh2rcd13ifvqbf0","pricing_plan_id":"free"},{"bike_id":"ec851c30-4882-46d5-8672-d8fd1b97e6be","system_id":"levelo_inurba_marseille","lat":43.29261,"lon":5.376178,"is_reserved":false,"is_disabled":false,"rental_uris":{"android":"levelo://app?vid=ec851c30-4882-46d5-8672-d8fd1b97e6be","ios":"levelo://app?vid=ec851c30-4882-46d5-8672-d8fd1b97e6be"},"vehicle_type_id":"4","last_reported":1702066071,"current_range_meters":1200,"station_id":"ce4bgi12rcd13ifvqb80","pricing_plan_id":"free"},{"bike_id":"0de6eb3b-bdc8-48be-87b3-69a659ec662b","system_id":"levelo_inurba_marseille","lat":43.292663,"lon":5.376389,"is_reserved":false,"is_disabled":false,"rental_uris":{"android":"levelo://app?vid=0de6eb3b-bdc8-48be-87b3-69a659ec662b","ios":"levelo://app?vid=0de6eb3b-bdc8-48be-87b3-69a659ec662b"},"vehicle_type_id":"4","last_reported":1702066071,"current_range_meters":4800,"station_id":"ce4bgi12rcd13ifvqb80","pricing_plan_id":"free"},{"bike_id":"fc225df2-b6ae-4216-9799-c81df640f0c1","system_id":"levelo_inurba_marseille","lat":43.29261,"lon":5.37635,"is_reserved":false,"is_disabled":false,"rental_uris":{"android":"levelo://app?vid=fc225df2-b6ae-4216-9799-c81df640f0c1","ios":"levelo://app?vid=fc225df2-b6ae-4216-9799-c81df640f0c1"},"vehicle_type_id":"4","last_reported":1702066071,"current_range_meters":0,"station_id":"ce4bgi12rcd13ifvqb80","pricing_plan_id":"free"},{"bike_id":"f54cce81-24e4-44b7-978b-713350a2404c","system_id":"levelo_inurba_marseille","lat":43.29878,"lon":5.38901,"is_reserved":false,"is_disabled":false,"rental_uris":{"android":"levelo://app?vid=f54cce81-24e4-44b7-978b-713350a2404c","ios":"levelo://app?vid=f54cce81-24e4-44b7-978b-713350a2404c"},"vehicle_type_id":"4","last_reported":1702066071,"current_range_meters":0,"station_id":"","pricing_plan_id":"free"},{"bike_id":"eb1606c2-fb77-4c2a-9590-95016d7aac6a","system_id":"levelo_inurba_marseille","lat":43.292663,"lon":5.376394,"is_reserved":false,"is_disabled":false,"rental_uris":{"android":"levelo://app?vid=eb1606c2-fb77-4c2a-9590-95016d7aac6a","ios":"levelo://app?vid=eb1606c2-fb77-4c2a-9590-95016d7aac6a"},"vehicle_type_id":"4","last_reported":1702066071,"current_range_meters":18400,"station_id":"ce4bgi12rcd13ifvqb80","pricing_plan_id":"free"},{"bike_id":"e8ad2825-ac31-46f5-ba0b-faf69dfdfa1d","system_id":"levelo_inurba_marseille","lat":43.313291,"lon":5.396838,"is_reserved":false,"is_disabled":false,"rental_uris":{"android":"levelo://app?vid=e8ad2825-ac31-46f5-ba0b-faf69dfdfa1d","ios":"levelo://app?vid=e8ad2825-ac31-46f5-ba0b-faf69dfdfa1d"},"vehicle_type_id":"4","last_reported":1702066071,"current_range_meters":5600,"station_id":"ce4bgvp2rcd13ifvqcu0","pricing_plan_id":"free"},{"bike_id":"8740a9b7-7f35-462f-ac3b-ba0cd903103d","system_id":"levelo_inurba_marseille","lat":43.309038,"lon":5.396546,"is_reserved":false,"is_disabled":false,"rental_uris":{"android":"levelo://app?vid=8740a9b7-7f35-462f-ac3b-ba0cd903103d","ios":"levelo://app?vid=8740a9b7-7f35-462f-ac3b-ba0cd903103d"},"vehicle_type_id":"4","last_reported":1702066071,"current_range_meters":6400,"station_id":"ce4bh012rcd13ifvqcv0","pricing_plan_id":"free"},{"bike_id":"54b9269a-a4fc-4c67-8b7d-f7faa397f746","system_id":"levelo_inurba_marseille","lat":43.313291,"lon":5.396838,"is_reserved":false,"is_disabled":false,"rental_uris":{"android":"levelo://app?vid=54b9269a-a4fc-4c67-8b7d-f7faa397f746","ios":"levelo://app?vid=54b9269a-a4fc-4c67-8b7d-f7faa397f746"},"vehicle_type_id":"4","last_reported":1702066071,"current_range_meters":0,"station_id":"ce4bgvp2rcd13ifvqcu0","pricing_plan_id":"free"},{"bike_id":"9003a963-c534-42ee-9575-67c4073546b3","system_id":"levelo_inurba_marseille","lat":43.29187,"lon":5.35797,"is_reserved":false,"is_disabled":false,"rental_uris":{"android":"levelo://app?vid=9003a963-c534-42ee-9575-67c4073546b3","ios":"levelo://app?vid=9003a963-c534-42ee-9575-67c4073546b3"},"vehicle_type_id":"4","last_reported":1702066071,"current_range_meters":19600,"station_id":"ce4bhb12rcd13ifvqel0","pricing_plan_id":"free"},{"bike_id":"88fddb97-317b-4b55-9970-be3ed61d0048","system_id":"levelo_inurba_marseille","lat":43.309047,"lon":5.396551,"is_reserved":false,"is_disabled":false,"rental_uris":{"android":"levelo://app?vid=88fddb97-317b-4b55-9970-be3ed61d0048","ios":"levelo://app?vid=88fddb97-317b-4b55-9970-be3ed61d0048"},"vehicle_type_id":"4","last_reported":1702066071,"current_range_meters":16800,"station_id":"ce4bh012rcd13ifvqcv0","pricing_plan_id":"free"},{"bike_id":"b68a56e1-6fec-4997-a4cb-9a1e718dd7ab","system_id":"levelo_inurba_marseille","lat":43.29529,"lon":5.385581,"is_reserved":false,"is_disabled":false,"rental_uris":{"android":"levelo://app?vid=b68a56e1-6fec-4997-a4cb-9a1e718dd7ab","ios":"levelo://app?vid=b68a56e1-6fec-4997-a4cb-9a1e718dd7ab"},"vehicle_type_id":"4","last_reported":1702066071,"current_range_meters":3200,"station_id":"ce4bgih2rcd13ifvqba0","pricing_plan_id":"free"},{"bike_id":"31f24fd9-d3e6-4d3b-a55a-3b7ab6848fed","system_id":"levelo_inurba_marseille","lat":43.29529,"lon":5.385581,"is_reserved":false,"is_disabled":false,"rental_uris":{"android":"levelo://app?vid=31f24fd9-d3e6-4d3b-a55a-3b7ab6848fed","ios":"levelo://app?vid=31f24fd9-d3e6-4d3b-a55a-3b7ab6848fed"},"vehicle_type_id":"4","last_reported":1702066071,"current_range_meters":16400,"station_id":"ce4bgih2rcd13ifvqba0","pricing_plan_id":"free"},{"bike_id":"3607d39d-8749-456f-b759-8cb37aedb069","system_id":"levelo_inurba_marseille","lat":43.30209,"lon":5.39465,"is_reserved":false,"is_disabled":false,"rental_uris":{"android":"levelo://app?vid=3607d39d-8749-456f-b759-8cb37aedb069","ios":"levelo://app?vid=3607d39d-8749-456f-b759-8cb37aedb069"},"vehicle_type_id":"4","last_reported":1702066071,"current_range_meters":25600,"station_id":"ce4bh0p2rcd13ifvqd70","pricing_plan_id":"free"},{"bike_id":"156b02e8-0bc6-4b3b-ac4b-a85bc914224a","system_id":"levelo_inurba_marseille","lat":43.290631,"lon":5.359244,"is_reserved":false,"is_disabled":false,"rental_uris":{"android":"levelo://app?vid=156b02e8-0bc6-4b3b-ac4b-a85bc914224a","ios":"levelo://app?vid=156b02e8-0bc6-4b3b-ac4b-a85bc914224a"},"vehicle_type_id":"4","last_reported":1702066071,"current_range_meters":15600,"station_id":"ce4bha92rcd13ifvqeg0","pricing_plan_id":"free"},{"bike_id":"ff25bdf6-f4f0-40e1-aae6-ae032aa52bf1","system_id":"levelo_inurba_marseille","lat":43.290631,"lon":5.359244,"is_reserved":false,"is_disabled":false,"rental_uris":{"android":"levelo://app?vid=ff25bdf6-f4f0-40e1-aae6-ae032aa52bf1","ios":"levelo://app?vid=ff25bdf6-f4f0-40e1-aae6-ae032aa52bf1"},"vehicle_type_id":"4","last_reported":1702066071,"current_range_meters":21200,"station_id":"ce4bha92rcd13ifvqeg0","pricing_plan_id":"free"},{"bike_id":"7ebba5e1-ea19-4060-bdc2-48fa98c6ba12","system_id":"levelo_inurba_marseille","lat":43.294153,"lon":5.386305,"is_reserved":false,"is_disabled":false,"rental_uris":{"android":"levelo://app?vid=7ebba5e1-ea19-4060-bdc2-48fa98c6ba12","ios":"levelo://app?vid=7ebba5e1-ea19-4060-bdc2-48fa98c6ba12"},"vehicle_type_id":"4","last_reported":1702066071,"current_range_meters":0,"station_id":"ce4bh2h2rcd13ifvqdh0","pricing_plan_id":"free"},{"bike_id":"68c2a0b1-6514-419e-a306-0bbd95f6c3e3","system_id":"levelo_inurba_marseille","lat":43.294153,"lon":5.386305,"is_reserved":false,"is_disabled":false,"rental_uris":{"android":"levelo://app?vid=68c2a0b1-6514-419e-a306-0bbd95f6c3e3","ios":"levelo://app?vid=68c2a0b1-6514-419e-a306-0bbd95f6c3e3"},"vehicle_type_id":"4","last_reported":1702066071,"current_range_meters":14400,"station_id":"ce4bh2h2rcd13ifvqdh0","pricing_plan_id":"free"},{"bike_id":"8b3d1761-a533-49ac-ba3d-9f74d4f7f778","system_id":"levelo_inurba_marseille","lat":43.294162,"lon":5.386292,"is_reserved":false,"is_disabled":false,"rental_uris":{"android":"levelo://app?vid=8b3d1761-a533-49ac-ba3d-9f74d4f7f778","ios":"levelo://app?vid=8b3d1761-a533-49ac-ba3d-9f74d4f7f778"},"vehicle_type_id":"4","last_reported":1702066071,"current_range_meters":10400,"station_id":"ce4bh2h2rcd13ifvqdh0","pricing_plan_id":"free"},{"bike_id":"239676f7-191b-4be7-ad20-52ac25e2761b","system_id":"levelo_inurba_marseille","lat":43.294153,"lon":5.386305,"is_reserved":false,"is_disabled":false,"rental_uris":{"android":"levelo://app?vid=239676f7-191b-4be7-ad20-52ac25e2761b","ios":"levelo://app?vid=239676f7-191b-4be7-ad20-52ac25e2761b"},"vehicle_type_id":"4","last_reported":1702066071,"current_range_meters":13600,"station_id":"ce4bh2h2rcd13ifvqdh0","pricing_plan_id":"free"},{"bike_id":"df41a4a3-20c7-4435-bf4b-8bb888547f80","system_id":"levelo_inurba_marseille","lat":43.28939,"lon":5.36639,"is_reserved":false,"is_disabled":false,"rental_uris":{"android":"levelo://app?vid=df41a4a3-20c7-4435-bf4b-8bb888547f80","ios":"levelo://app?vid=df41a4a3-20c7-4435-bf4b-8bb888547f80"},"vehicle_type_id":"4","last_reported":1702066071,"current_range_meters":17200,"station_id":"ce4bhap2rcd13ifvqek0","pricing_plan_id":"free"},{"bike_id":"a02a1b20-1fb1-4951-988a-77389649024d","system_id":"levelo_inurba_marseille","lat":43.289259,"lon":5.366364,"is_reserved":false,"is_disabled":false,"rental_uris":{"android":"levelo://app?vid=a02a1b20-1fb1-4951-988a-77389649024d","ios":"levelo://app?vid=a02a1b20-1fb1-4951-988a-77389649024d"},"vehicle_type_id":"4","last_reported":1702066071,"current_range_meters":14800,"station_id":"","pricing_plan_id":"free"},{"bike_id":"61f168ec-de1e-43de-9822-7f53ce76ee35","system_id":"levelo_inurba_marseille","lat":43.28933,"lon":5.36374,"is_reserved":false,"is_disabled":false,"rental_uris":{"android":"levelo://app?vid=61f168ec-de1e-43de-9822-7f53ce76ee35","ios":"levelo://app?vid=61f168ec-de1e-43de-9822-7f53ce76ee35"},"vehicle_type_id":"4","last_reported":1702066071,"current_range_meters":21200,"station_id":"ce4bhc92rcd13ifvqetg","pricing_plan_id":"free"},{"bike_id":"fd42d627-e5dc-491b-acad-e34e428a0b5c","system_id":"levelo_inurba_marseille","lat":43.292644,"lon":5.384257,"is_reserved":false,"is_disabled":false,"rental_uris":{"android":"levelo://app?vid=fd42d627-e5dc-491b-acad-e34e428a0b5c","ios":"levelo://app?vid=fd42d627-e5dc-491b-acad-e34e428a0b5c"},"vehicle_type_id":"4","last_reported":1702066071,"current_range_meters":8400,"station_id":"ce4bh692rcd13ifvqea0","pricing_plan_id":"free"},{"bike_id":"e22bbd5c-3249-46bb-bfc3-aeb6f2ee76fc","system_id":"levelo_inurba_marseille","lat":43.304274,"lon":5.397513,"is_reserved":false,"is_disabled":false,"rental_uris":{"android":"levelo://app?vid=e22bbd5c-3249-46bb-bfc3-aeb6f2ee76fc","ios":"levelo://app?vid=e22bbd5c-3249-46bb-bfc3-aeb6f2ee76fc"},"vehicle_type_id":"4","last_reported":1702066071,"current_range_meters":5200,"station_id":"ce4bh092rcd13ifvqd20","pricing_plan_id":"free"},{"bike_id":"d25e6f1b-bf28-4697-8663-54f49dfb54f7","system_id":"levelo_inurba_marseille","lat":43.292644,"lon":5.384257,"is_reserved":false,"is_disabled":false,"rental_uris":{"android":"levelo://app?vid=d25e6f1b-bf28-4697-8663-54f49dfb54f7","ios":"levelo://app?vid=d25e6f1b-bf28-4697-8663-54f49dfb54f7"},"vehicle_type_id":"4","last_reported":1702066071,"current_range_meters":0,"station_id":"ce4bh692rcd13ifvqea0","pricing_plan_id":"free"},{"bike_id":"c0763524-47cd-4818-80fc-1b29f8280dc8","system_id":"levelo_inurba_marseille","lat":43.326605,"lon":5.409903,"is_reserved":false,"is_disabled":false,"rental_uris":{"android":"levelo://app?vid=c0763524-47cd-4818-80fc-1b29f8280dc8","ios":"levelo://app?vid=c0763524-47cd-4818-80fc-1b29f8280dc8"},"vehicle_type_id":"4","last_reported":1702066071,"current_range_meters":26000,"station_id":"ce4bhpp2rcd13ifvqhgg","pricing_plan_id":"free"},{"bike_id":"e4eef4bf-ae58-467e-9cb8-c8952329e838","system_id":"levelo_inurba_marseille","lat":43.33042,"lon":5.38916,"is_reserved":false,"is_disabled":false,"rental_uris":{"android":"levelo://app?vid=e4eef4bf-ae58-467e-9cb8-c8952329e838","ios":"levelo://app?vid=e4eef4bf-ae58-467e-9cb8-c8952329e838"},"vehicle_type_id":"4","last_reported":1702066071,"current_range_meters":20000,"station_id":"ce4bhr92rcd13ifvqhrg","pricing_plan_id":"free"},{"bike_id":"a03ee93d-1a6a-4bb0-b91e-51235d478d91","system_id":"levelo_inurba_marseille","lat":43.33042,"lon":5.38921,"is_reserved":false,"is_disabled":false,"rental_uris":{"android":"levelo://app?vid=a03ee93d-1a6a-4bb0-b91e-51235d478d91","ios":"levelo://app?vid=a03ee93d-1a6a-4bb0-b91e-51235d478d91"},"vehicle_type_id":"4","last_reported":1702066071,"current_range_meters":13200,"station_id":"ce4bhr92rcd13ifvqhrg","pricing_plan_id":"free"},{"bike_id":"c1d5bb95-27c5-435a-a770-3e5c153950cf","system_id":"levelo_inurba_marseille","lat":43.33045,"lon":5.38917,"is_reserved":false,"is_disabled":false,"rental_uris":{"android":"levelo://app?vid=c1d5bb95-27c5-435a-a770-3e5c153950cf","ios":"levelo://app?vid=c1d5bb95-27c5-435a-a770-3e5c153950cf"},"vehicle_type_id":"4","last_reported":1702066071,"current_range_meters":21600,"station_id":"ce4bhr92rcd13ifvqhrg","pricing_plan_id":"free"},{"bike_id":"a99dd9b6-3fd7-4a31-8d24-a751688c73dc","system_id":"levelo_inurba_marseille","lat":43.33044,"lon":5.38919,"is_reserved":false,"is_disabled":false,"rental_uris":{"android":"levelo://app?vid=a99dd9b6-3fd7-4a31-8d24-a751688c73dc","ios":"levelo://app?vid=a99dd9b6-3fd7-4a31-8d24-a751688c73dc"},"vehicle_type_id":"4","last_reported":1702066071,"current_range_meters":3600,"station_id":"ce4bhr92rcd13ifvqhrg","pricing_plan_id":"free"},{"bike_id":"6287711c-c051-4131-8993-32de8ba8fa1e","system_id":"levelo_inurba_marseille","lat":43.290995,"lon":5.381361,"is_reserved":false,"is_disabled":false,"rental_uris":{"android":"levelo://app?vid=6287711c-c051-4131-8993-32de8ba8fa1e","ios":"levelo://app?vid=6287711c-c051-4131-8993-32de8ba8fa1e"},"vehicle_type_id":"4","last_reported":1702066071,"current_range_meters":0,"station_id":"ce4bh512rcd13ifvqe2g","pricing_plan_id":"free"},{"bike_id":"1186a314-2cea-49e9-a589-57005da1d5a8","system_id":"levelo_inurba_marseille","lat":43.29781,"lon":5.39321,"is_reserved":false,"is_disabled":false,"rental_uris":{"android":"levelo://app?vid=1186a314-2cea-49e9-a589-57005da1d5a8","ios":"levelo://app?vid=1186a314-2cea-49e9-a589-57005da1d5a8"},"vehicle_type_id":"4","last_reported":1702066071,"current_range_meters":0,"station_id":"chh1huq6cuj3fo74tm60","pricing_plan_id":"free"},{"bike_id":"92640e53-8d84-4d60-a095-556a5a6167d8","system_id":"levelo_inurba_marseille","lat":43.29771,"lon":5.39335,"is_reserved":false,"is_disabled":false,"rental_uris":{"android":"levelo://app?vid=92640e53-8d84-4d60-a095-556a5a6167d8","ios":"levelo://app?vid=92640e53-8d84-4d60-a095-556a5a6167d8"},"vehicle_type_id":"4","last_reported":1702066071,"current_range_meters":16000,"station_id":"chh1huq6cuj3fo74tm60","pricing_plan_id":"free"},{"bike_id":"655c775c-60a7-40c1-8161-80f2f2992d0b","system_id":"levelo_inurba_marseille","lat":43.297815,"lon":5.393548,"is_reserved":false,"is_disabled":false,"rental_uris":{"android":"levelo://app?vid=655c775c-60a7-40c1-8161-80f2f2992d0b","ios":"levelo://app?vid=655c775c-60a7-40c1-8161-80f2f2992d0b"},"vehicle_type_id":"4","last_reported":1702066071,"current_range_meters":12800,"station_id":"chh1huq6cuj3fo74tm60","pricing_plan_id":"free"},{"bike_id":"b9a6f9b7-17ab-40ca-ac5a-071e2741f645","system_id":"levelo_inurba_marseille","lat":43.29513,"lon":5.39036,"is_reserved":false,"is_disabled":false,"rental_uris":{"android":"levelo://app?vid=b9a6f9b7-17ab-40ca-ac5a-071e2741f645","ios":"levelo://app?vid=b9a6f9b7-17ab-40ca-ac5a-071e2741f645"},"vehicle_type_id":"4","last_reported":1702066071,"current_range_meters":0,"station_id":"ce4bh3p2rcd13ifvqdp0","pricing_plan_id":"free"},{"bike_id":"eb086e32-1761-40c2-a004-ac685400082a","system_id":"levelo_inurba_marseille","lat":43.28856,"lon":5.358371,"is_reserved":false,"is_disabled":false,"rental_uris":{"android":"levelo://app?vid=eb086e32-1761-40c2-a004-ac685400082a","ios":"levelo://app?vid=eb086e32-1761-40c2-a004-ac685400082a"},"vehicle_type_id":"4","last_reported":1702066071,"current_range_meters":16400,"station_id":"ce4bhb12rcd13ifvqem0","pricing_plan_id":"free"},{"bike_id":"8a7b8f85-cd9e-4310-80c5-1fccd0de5624","system_id":"levelo_inurba_marseille","lat":43.28849,"lon":5.35841,"is_reserved":false,"is_disabled":false,"rental_uris":{"android":"levelo://app?vid=8a7b8f85-cd9e-4310-80c5-1fccd0de5624","ios":"levelo://app?vid=8a7b8f85-cd9e-4310-80c5-1fccd0de5624"},"vehicle_type_id":"4","last_reported":1702066071,"current_range_meters":16800,"station_id":"ce4bhb12rcd13ifvqem0","pricing_plan_id":"free"},{"bike_id":"7c41cc07-f05e-4794-83eb-57a6c3332f36","system_id":"levelo_inurba_marseille","lat":43.33748,"lon":5.37467,"is_reserved":false,"is_disabled":false,"rental_uris":{"android":"levelo://app?vid=7c41cc07-f05e-4794-83eb-57a6c3332f36","ios":"levelo://app?vid=7c41cc07-f05e-4794-83eb-57a6c3332f36"},"vehicle_type_id":"4","last_reported":1702066071,"current_range_meters":29200,"station_id":"","pricing_plan_id":"free"},{"bike_id":"471b4678-35f1-474c-b8fc-35e042446a1e","system_id":"levelo_inurba_marseille","lat":43.337483,"lon":5.374727,"is_reserved":false,"is_disabled":false,"rental_uris":{"android":"levelo://app?vid=471b4678-35f1-474c-b8fc-35e042446a1e","ios":"levelo://app?vid=471b4678-35f1-474c-b8fc-35e042446a1e"},"vehicle_type_id":"4","last_reported":1702066071,"current_range_meters":29200,"station_id":"","pricing_plan_id":"free"},{"bike_id":"4b1cbf17-af61-4a46-9e9b-181f56dfaa5b","system_id":"levelo_inurba_marseille","lat":43.33755,"lon":5.37445,"is_reserved":false,"is_disabled":false,"rental_uris":{"android":"levelo://app?vid=4b1cbf17-af61-4a46-9e9b-181f56dfaa5b","ios":"levelo://app?vid=4b1cbf17-af61-4a46-9e9b-181f56dfaa5b"},"vehicle_type_id":"4","last_reported":1702066071,"current_range_meters":29600,"station_id":"","pricing_plan_id":"free"},{"bike_id":"4ddede62-896e-4b1b-9e03-1af2c08681a2","system_id":"levelo_inurba_marseille","lat":43.306412,"lon":5.401035,"is_reserved":false,"is_disabled":false,"rental_uris":{"android":"levelo://app?vid=4ddede62-896e-4b1b-9e03-1af2c08681a2","ios":"levelo://app?vid=4ddede62-896e-4b1b-9e03-1af2c08681a2"},"vehicle_type_id":"4","last_reported":1702066071,"current_range_meters":22400,"station_id":"ce4bh112rcd13ifvqda0","pricing_plan_id":"free"},{"bike_id":"3835bc65-c583-4677-873b-9f0fba92e3a7","system_id":"levelo_inurba_marseille","lat":43.33763,"lon":5.37458,"is_reserved":false,"is_disabled":false,"rental_uris":{"android":"levelo://app?vid=3835bc65-c583-4677-873b-9f0fba92e3a7","ios":"levelo://app?vid=3835bc65-c583-4677-873b-9f0fba92e3a7"},"vehicle_type_id":"4","last_reported":1702066071,"current_range_meters":13600,"station_id":"","pricing_plan_id":"free"},{"bike_id":"5dccf7dc-1d4f-4acc-87af-dcbf3c650519","system_id":"levelo_inurba_marseille","lat":43.28727,"lon":5.36078,"is_reserved":false,"is_disabled":false,"rental_uris":{"android":"levelo://app?vid=5dccf7dc-1d4f-4acc-87af-dcbf3c650519","ios":"levelo://app?vid=5dccf7dc-1d4f-4acc-87af-dcbf3c650519"},"vehicle_type_id":"4","last_reported":1702066071,"current_range_meters":18400,"station_id":"cki0cbj6b192h4jlfktg","pricing_plan_id":"free"},{"bike_id":"f9f63b3c-15da-414d-9b6e-d6ef35f9ae83","system_id":"levelo_inurba_marseille","lat":43.286591,"lon":5.363346,"is_reserved":false,"is_disabled":false,"rental_uris":{"android":"levelo://app?vid=f9f63b3c-15da-414d-9b6e-d6ef35f9ae83","ios":"levelo://app?vid=f9f63b3c-15da-414d-9b6e-d6ef35f9ae83"},"vehicle_type_id":"4","last_reported":1702066071,"current_range_meters":16400,"station_id":"ce4bhah2rcd13ifvqej0","pricing_plan_id":"free"},{"bike_id":"bdec88c2-82ca-42de-b092-27732686827c","system_id":"levelo_inurba_marseille","lat":43.298681,"lon":5.397225,"is_reserved":false,"is_disabled":false,"rental_uris":{"android":"levelo://app?vid=bdec88c2-82ca-42de-b092-27732686827c","ios":"levelo://app?vid=bdec88c2-82ca-42de-b092-27732686827c"},"vehicle_type_id":"4","last_reported":1702066071,"current_range_meters":14400,"station_id":"ce4bh0h2rcd13ifvqd50","pricing_plan_id":"free"},{"bike_id":"3012e9dd-cd34-4d8a-b13f-5f77af2b8af9","system_id":"levelo_inurba_marseille","lat":43.298681,"lon":5.397225,"is_reserved":false,"is_disabled":false,"rental_uris":{"android":"levelo://app?vid=3012e9dd-cd34-4d8a-b13f-5f77af2b8af9","ios":"levelo://app?vid=3012e9dd-cd34-4d8a-b13f-5f77af2b8af9"},"vehicle_type_id":"4","last_reported":1702066071,"current_range_meters":5600,"station_id":"ce4bh0h2rcd13ifvqd50","pricing_plan_id":"free"},{"bike_id":"0341b6bb-2608-48b5-847a-43ee278db4b5","system_id":"levelo_inurba_marseille","lat":43.298681,"lon":5.397225,"is_reserved":false,"is_disabled":false,"rental_uris":{"android":"levelo://app?vid=0341b6bb-2608-48b5-847a-43ee278db4b5","ios":"levelo://app?vid=0341b6bb-2608-48b5-847a-43ee278db4b5"},"vehicle_type_id":"4","last_reported":1702066071,"current_range_meters":22800,"station_id":"ce4bh0h2rcd13ifvqd50","pricing_plan_id":"free"},{"bike_id":"23db7b39-3f76-4bad-bd1b-f38b13f697d6","system_id":"levelo_inurba_marseille","lat":43.295196,"lon":5.39397,"is_reserved":false,"is_disabled":false,"rental_uris":{"android":"levelo://app?vid=23db7b39-3f76-4bad-bd1b-f38b13f697d6","ios":"levelo://app?vid=23db7b39-3f76-4bad-bd1b-f38b13f697d6"},"vehicle_type_id":"4","last_reported":1702066071,"current_range_meters":400,"station_id":"ce4bh292rcd13ifvqdf0","pricing_plan_id":"free"},{"bike_id":"1de222bf-cbeb-42c2-9539-a3eb411dd67d","system_id":"levelo_inurba_marseille","lat":43.289307,"lon":5.38406,"is_reserved":false,"is_disabled":false,"rental_uris":{"android":"levelo://app?vid=1de222bf-cbeb-42c2-9539-a3eb411dd67d","ios":"levelo://app?vid=1de222bf-cbeb-42c2-9539-a3eb411dd67d"},"vehicle_type_id":"4","last_reported":1702066071,"current_range_meters":14800,"station_id":"ce4bh612rcd13ifvqe6g","pricing_plan_id":"free"},{"bike_id":"b2ea1232-5487-4edc-a090-1092734b8680","system_id":"levelo_inurba_marseille","lat":43.289307,"lon":5.38406,"is_reserved":false,"is_disabled":false,"rental_uris":{"android":"levelo://app?vid=b2ea1232-5487-4edc-a090-1092734b8680","ios":"levelo://app?vid=b2ea1232-5487-4edc-a090-1092734b8680"},"vehicle_type_id":"4","last_reported":1702066071,"current_range_meters":22000,"station_id":"ce4bh612rcd13ifvqe6g","pricing_plan_id":"free"},{"bike_id":"35a08e7a-3db1-4357-9b58-b81e8b0ac90e","system_id":"levelo_inurba_marseille","lat":43.287185,"lon":5.379373,"is_reserved":false,"is_disabled":false,"rental_uris":{"android":"levelo://app?vid=35a08e7a-3db1-4357-9b58-b81e8b0ac90e","ios":"levelo://app?vid=35a08e7a-3db1-4357-9b58-b81e8b0ac90e"},"vehicle_type_id":"4","last_reported":1702066071,"current_range_meters":23200,"station_id":"ce4bh9p2rcd13ifvqec0","pricing_plan_id":"free"},{"bike_id":"48f75c4e-d88f-4240-b577-0ea2c311b056","system_id":"levelo_inurba_marseille","lat":43.28458,"lon":5.35894,"is_reserved":false,"is_disabled":false,"rental_uris":{"android":"levelo://app?vid=48f75c4e-d88f-4240-b577-0ea2c311b056","ios":"levelo://app?vid=48f75c4e-d88f-4240-b577-0ea2c311b056"},"vehicle_type_id":"4","last_reported":1702066071,"current_range_meters":7200,"station_id":"ce4bhah2rcd13ifvqei0","pricing_plan_id":"free"},{"bike_id":"efb5ef21-08cb-4e56-b40f-629b654d45e9","system_id":"levelo_inurba_marseille","lat":43.285856,"lon":5.350771,"is_reserved":false,"is_disabled":false,"rental_uris":{"android":"levelo://app?vid=efb5ef21-08cb-4e56-b40f-629b654d45e9","ios":"levelo://app?vid=efb5ef21-08cb-4e56-b40f-629b654d45e9"},"vehicle_type_id":"4","last_reported":1702066071,"current_range_meters":8000,"station_id":"ce4bhch2rcd13ifvqeug","pricing_plan_id":"free"},{"bike_id":"ff40c8df-16df-438b-83d5-9cbc49257fe4","system_id":"levelo_inurba_marseille","lat":43.28616,"lon":5.35102,"is_reserved":false,"is_disabled":false,"rental_uris":{"android":"levelo://app?vid=ff40c8df-16df-438b-83d5-9cbc49257fe4","ios":"levelo://app?vid=ff40c8df-16df-438b-83d5-9cbc49257fe4"},"vehicle_type_id":"4","last_reported":1702066071,"current_range_meters":4000,"station_id":"ce4bhch2rcd13ifvqeug","pricing_plan_id":"free"},{"bike_id":"fc75298f-98dc-43c8-9ac0-3baa025d364d","system_id":"levelo_inurba_marseille","lat":43.285856,"lon":5.350771,"is_reserved":false,"is_disabled":false,"rental_uris":{"android":"levelo://app?vid=fc75298f-98dc-43c8-9ac0-3baa025d364d","ios":"levelo://app?vid=fc75298f-98dc-43c8-9ac0-3baa025d364d"},"vehicle_type_id":"4","last_reported":1702066071,"current_range_meters":5200,"station_id":"ce4bhch2rcd13ifvqeug","pricing_plan_id":"free"},{"bike_id":"ac38080c-35de-432d-ad25-9109a4137b73","system_id":"levelo_inurba_marseille","lat":43.285856,"lon":5.350771,"is_reserved":false,"is_disabled":false,"rental_uris":{"android":"levelo://app?vid=ac38080c-35de-432d-ad25-9109a4137b73","ios":"levelo://app?vid=ac38080c-35de-432d-ad25-9109a4137b73"},"vehicle_type_id":"4","last_reported":1702066071,"current_range_meters":0,"station_id":"ce4bhch2rcd13ifvqeug","pricing_plan_id":"free"},{"bike_id":"96aa5ba6-4e1c-4604-a349-7bcdfb3420ba","system_id":"levelo_inurba_marseille","lat":43.283998,"lon":5.375062,"is_reserved":false,"is_disabled":false,"rental_uris":{"android":"levelo://app?vid=96aa5ba6-4e1c-4604-a349-7bcdfb3420ba","ios":"levelo://app?vid=96aa5ba6-4e1c-4604-a349-7bcdfb3420ba"},"vehicle_type_id":"4","last_reported":1702066071,"current_range_meters":16000,"station_id":"ce4bh412rcd13ifvqds0","pricing_plan_id":"free"},{"bike_id":"8cb0d7bd-8fd9-44d0-bd24-ed0b3b6a00a1","system_id":"levelo_inurba_marseille","lat":43.283998,"lon":5.375062,"is_reserved":false,"is_disabled":false,"rental_uris":{"android":"levelo://app?vid=8cb0d7bd-8fd9-44d0-bd24-ed0b3b6a00a1","ios":"levelo://app?vid=8cb0d7bd-8fd9-44d0-bd24-ed0b3b6a00a1"},"vehicle_type_id":"4","last_reported":1702066071,"current_range_meters":4800,"station_id":"ce4bh412rcd13ifvqds0","pricing_plan_id":"free"},{"bike_id":"e9fd7803-c1eb-45a4-b821-4e190e6d605a","system_id":"levelo_inurba_marseille","lat":43.295713,"lon":5.399639,"is_reserved":false,"is_disabled":false,"rental_uris":{"android":"levelo://app?vid=e9fd7803-c1eb-45a4-b821-4e190e6d605a","ios":"levelo://app?vid=e9fd7803-c1eb-45a4-b821-4e190e6d605a"},"vehicle_type_id":"4","last_reported":1702066071,"current_range_meters":26400,"station_id":"ce4bh312rcd13ifvqdj0","pricing_plan_id":"free"},{"bike_id":"3b44b279-4508-4e90-b4ff-6cbec8acfee3","system_id":"levelo_inurba_marseille","lat":43.28467,"lon":5.38053,"is_reserved":false,"is_disabled":false,"rental_uris":{"android":"levelo://app?vid=3b44b279-4508-4e90-b4ff-6cbec8acfee3","ios":"levelo://app?vid=3b44b279-4508-4e90-b4ff-6cbec8acfee3"},"vehicle_type_id":"4","last_reported":1702066071,"current_range_meters":19600,"station_id":"","pricing_plan_id":"free"},{"bike_id":"394e7ef0-8795-4b05-b68f-3db5b0a2f588","system_id":"levelo_inurba_marseille","lat":43.33717,"lon":5.391857,"is_reserved":false,"is_disabled":false,"rental_uris":{"android":"levelo://app?vid=394e7ef0-8795-4b05-b68f-3db5b0a2f588","ios":"levelo://app?vid=394e7ef0-8795-4b05-b68f-3db5b0a2f588"},"vehicle_type_id":"4","last_reported":1702066071,"current_range_meters":26800,"station_id":"ce4bhr92rcd13ifvqhsg","pricing_plan_id":"free"},{"bike_id":"efe9d2cc-d0eb-4e85-b313-6bf62b4d4d4c","system_id":"levelo_inurba_marseille","lat":43.33726,"lon":5.39193,"is_reserved":false,"is_disabled":false,"rental_uris":{"android":"levelo://app?vid=efe9d2cc-d0eb-4e85-b313-6bf62b4d4d4c","ios":"levelo://app?vid=efe9d2cc-d0eb-4e85-b313-6bf62b4d4d4c"},"vehicle_type_id":"4","last_reported":1702066071,"current_range_meters":2400,"station_id":"ce4bhr92rcd13ifvqhsg","pricing_plan_id":"free"},{"bike_id":"821d6aac-fe9a-4140-b012-f4acf1a423c9","system_id":"levelo_inurba_marseille","lat":43.284793,"lon":5.384113,"is_reserved":false,"is_disabled":false,"rental_uris":{"android":"levelo://app?vid=821d6aac-fe9a-4140-b012-f4acf1a423c9","ios":"levelo://app?vid=821d6aac-fe9a-4140-b012-f4acf1a423c9"},"vehicle_type_id":"4","last_reported":1702066071,"current_range_meters":8800,"station_id":"ce4bh512rcd13ifvqe3g","pricing_plan_id":"free"},{"bike_id":"7a7b210a-f03d-40ce-aca7-448ac7739566","system_id":"levelo_inurba_marseille","lat":43.297946,"lon":5.404063,"is_reserved":false,"is_disabled":false,"rental_uris":{"android":"levelo://app?vid=7a7b210a-f03d-40ce-aca7-448ac7739566","ios":"levelo://app?vid=7a7b210a-f03d-40ce-aca7-448ac7739566"},"vehicle_type_id":"4","last_reported":1702066071,"current_range_meters":16000,"station_id":"ce4bh112rcd13ifvqd90","pricing_plan_id":"free"},{"bike_id":"cd0a6c7b-b736-40e1-9d86-4dcb2e82c8f5","system_id":"levelo_inurba_marseille","lat":43.28038,"lon":5.36944,"is_reserved":false,"is_disabled":false,"rental_uris":{"android":"levelo://app?vid=cd0a6c7b-b736-40e1-9d86-4dcb2e82c8f5","ios":"levelo://app?vid=cd0a6c7b-b736-40e1-9d86-4dcb2e82c8f5"},"vehicle_type_id":"4","last_reported":1702066071,"current_range_meters":3600,"station_id":"ce4bha12rcd13ifvqef0","pricing_plan_id":"free"},{"bike_id":"dbaa8d01-05e0-4778-b647-6d4af5354590","system_id":"levelo_inurba_marseille","lat":43.280382,"lon":5.369291,"is_reserved":false,"is_disabled":false,"rental_uris":{"android":"levelo://app?vid=dbaa8d01-05e0-4778-b647-6d4af5354590","ios":"levelo://app?vid=dbaa8d01-05e0-4778-b647-6d4af5354590"},"vehicle_type_id":"4","last_reported":1702066071,"current_range_meters":0,"station_id":"ce4bha12rcd13ifvqef0","pricing_plan_id":"free"},{"bike_id":"1960662d-89be-4f6e-92ce-853ba381ace8","system_id":"levelo_inurba_marseille","lat":43.280382,"lon":5.369291,"is_reserved":false,"is_disabled":false,"rental_uris":{"android":"levelo://app?vid=1960662d-89be-4f6e-92ce-853ba381ace8","ios":"levelo://app?vid=1960662d-89be-4f6e-92ce-853ba381ace8"},"vehicle_type_id":"4","last_reported":1702066071,"current_range_meters":17200,"station_id":"ce4bha12rcd13ifvqef0","pricing_plan_id":"free"},{"bike_id":"7d6afa9a-2929-4189-ab76-6f7a34af73b3","system_id":"levelo_inurba_marseille","lat":43.280382,"lon":5.369291,"is_reserved":false,"is_disabled":false,"rental_uris":{"android":"levelo://app?vid=7d6afa9a-2929-4189-ab76-6f7a34af73b3","ios":"levelo://app?vid=7d6afa9a-2929-4189-ab76-6f7a34af73b3"},"vehicle_type_id":"4","last_reported":1702066071,"current_range_meters":16000,"station_id":"ce4bha12rcd13ifvqef0","pricing_plan_id":"free"},{"bike_id":"5378b60c-e983-4b80-8b5d-3bccb2447375","system_id":"levelo_inurba_marseille","lat":43.29038,"lon":5.39963,"is_reserved":false,"is_disabled":false,"rental_uris":{"android":"levelo://app?vid=5378b60c-e983-4b80-8b5d-3bccb2447375","ios":"levelo://app?vid=5378b60c-e983-4b80-8b5d-3bccb2447375"},"vehicle_type_id":"4","last_reported":1702066071,"current_range_meters":29200,"station_id":"ce4bh392rcd13ifvqdm0","pricing_plan_id":"free"},{"bike_id":"a943ae51-28d4-4acb-986a-2ba635e2533d","system_id":"levelo_inurba_marseille","lat":43.281044,"lon":5.378308,"is_reserved":false,"is_disabled":false,"rental_uris":{"android":"levelo://app?vid=a943ae51-28d4-4acb-986a-2ba635e2533d","ios":"levelo://app?vid=a943ae51-28d4-4acb-986a-2ba635e2533d"},"vehicle_type_id":"4","last_reported":1702066071,"current_range_meters":13200,"station_id":"ce4bha12rcd13ifvqee0","pricing_plan_id":"free"},{"bike_id":"4221fe45-d0ce-4a0b-818e-698d14b22957","system_id":"levelo_inurba_marseille","lat":43.281044,"lon":5.378308,"is_reserved":false,"is_disabled":false,"rental_uris":{"android":"levelo://app?vid=4221fe45-d0ce-4a0b-818e-698d14b22957","ios":"levelo://app?vid=4221fe45-d0ce-4a0b-818e-698d14b22957"},"vehicle_type_id":"4","last_reported":1702066071,"current_range_meters":3600,"station_id":"ce4bha12rcd13ifvqee0","pricing_plan_id":"free"},{"bike_id":"35a8030b-7cf1-472f-8d78-66cfbcc8d9cb","system_id":"levelo_inurba_marseille","lat":43.29041,"lon":5.399634,"is_reserved":false,"is_disabled":false,"rental_uris":{"android":"levelo://app?vid=35a8030b-7cf1-472f-8d78-66cfbcc8d9cb","ios":"levelo://app?vid=35a8030b-7cf1-472f-8d78-66cfbcc8d9cb"},"vehicle_type_id":"4","last_reported":1702066071,"current_range_meters":400,"station_id":"ce4bh392rcd13ifvqdm0","pricing_plan_id":"free"},{"bike_id":"993f6636-7178-4467-8ea7-32387afc05b7","system_id":"levelo_inurba_marseille","lat":43.281044,"lon":5.378308,"is_reserved":false,"is_disabled":false,"rental_uris":{"android":"levelo://app?vid=993f6636-7178-4467-8ea7-32387afc05b7","ios":"levelo://app?vid=993f6636-7178-4467-8ea7-32387afc05b7"},"vehicle_type_id":"4","last_reported":1702066071,"current_range_meters":6000,"station_id":"ce4bha12rcd13ifvqee0","pricing_plan_id":"free"},{"bike_id":"8feb032d-7075-486b-b0fd-366524b808b8","system_id":"levelo_inurba_marseille","lat":43.284462,"lon":5.392121,"is_reserved":false,"is_disabled":false,"rental_uris":{"android":"levelo://app?vid=8feb032d-7075-486b-b0fd-366524b808b8","ios":"levelo://app?vid=8feb032d-7075-486b-b0fd-366524b808b8"},"vehicle_type_id":"4","last_reported":1702066071,"current_range_meters":13200,"station_id":"ce4bhoh2rcd13ifvqh5g","pricing_plan_id":"free"},{"bike_id":"32437485-9dd2-4f97-8b2e-d1f6729cd54f","system_id":"levelo_inurba_marseille","lat":43.285742,"lon":5.395004,"is_reserved":false,"is_disabled":false,"rental_uris":{"android":"levelo://app?vid=32437485-9dd2-4f97-8b2e-d1f6729cd54f","ios":"levelo://app?vid=32437485-9dd2-4f97-8b2e-d1f6729cd54f"},"vehicle_type_id":"4","last_reported":1702066071,"current_range_meters":8800,"station_id":"ce4bh292rcd13ifvqdg0","pricing_plan_id":"free"},{"bike_id":"b26c8630-323c-4045-8811-b7bc791c08ad","system_id":"levelo_inurba_marseille","lat":43.277885,"lon":5.362505,"is_reserved":false,"is_disabled":false,"rental_uris":{"android":"levelo://app?vid=b26c8630-323c-4045-8811-b7bc791c08ad","ios":"levelo://app?vid=b26c8630-323c-4045-8811-b7bc791c08ad"},"vehicle_type_id":"4","last_reported":1702066071,"current_range_meters":26400,"station_id":"","pricing_plan_id":"free"},{"bike_id":"65c002a2-5a39-4ee9-bf1b-6b5b77e862f7","system_id":"levelo_inurba_marseille","lat":43.279087,"lon":5.380114,"is_reserved":false,"is_disabled":false,"rental_uris":{"android":"levelo://app?vid=65c002a2-5a39-4ee9-bf1b-6b5b77e862f7","ios":"levelo://app?vid=65c002a2-5a39-4ee9-bf1b-6b5b77e862f7"},"vehicle_type_id":"4","last_reported":1702066071,"current_range_meters":12800,"station_id":"ce4bhf92rcd13ifvqf50","pricing_plan_id":"free"},{"bike_id":"c9300a81-b1fd-4a08-8720-fafa0afdd979","system_id":"levelo_inurba_marseille","lat":43.287154,"lon":5.399979,"is_reserved":false,"is_disabled":false,"rental_uris":{"android":"levelo://app?vid=c9300a81-b1fd-4a08-8720-fafa0afdd979","ios":"levelo://app?vid=c9300a81-b1fd-4a08-8720-fafa0afdd979"},"vehicle_type_id":"4","last_reported":1702066071,"current_range_meters":3200,"station_id":"ce4bho92rcd13ifvqh3g","pricing_plan_id":"free"},{"bike_id":"5289868e-8c6f-43ab-be4e-8f7fe80e9b20","system_id":"levelo_inurba_marseille","lat":43.320045,"lon":5.415048,"is_reserved":false,"is_disabled":false,"rental_uris":{"android":"levelo://app?vid=5289868e-8c6f-43ab-be4e-8f7fe80e9b20","ios":"levelo://app?vid=5289868e-8c6f-43ab-be4e-8f7fe80e9b20"},"vehicle_type_id":"4","last_reported":1702066071,"current_range_meters":12800,"station_id":"ce4bhq92rcd13ifvqhkg","pricing_plan_id":"free"},{"bike_id":"808072ba-2557-491a-80b2-3a7d3b4e0e6a","system_id":"levelo_inurba_marseille","lat":43.280784,"lon":5.396622,"is_reserved":false,"is_disabled":false,"rental_uris":{"android":"levelo://app?vid=808072ba-2557-491a-80b2-3a7d3b4e0e6a","ios":"levelo://app?vid=808072ba-2557-491a-80b2-3a7d3b4e0e6a"},"vehicle_type_id":"4","last_reported":1702066071,"current_range_meters":26000,"station_id":"ce4bho12rcd13ifvqh2g","pricing_plan_id":"free"},{"bike_id":"d81229ad-7ea7-4266-8d19-5d7e02ab3041","system_id":"levelo_inurba_marseille","lat":43.280784,"lon":5.396622,"is_reserved":false,"is_disabled":false,"rental_uris":{"android":"levelo://app?vid=d81229ad-7ea7-4266-8d19-5d7e02ab3041","ios":"levelo://app?vid=d81229ad-7ea7-4266-8d19-5d7e02ab3041"},"vehicle_type_id":"4","last_reported":1702066071,"current_range_meters":28800,"station_id":"ce4bho12rcd13ifvqh2g","pricing_plan_id":"free"},{"bike_id":"a38aeb50-e61c-4175-8b6c-ea2617d6def1","system_id":"levelo_inurba_marseille","lat":43.33612,"lon":5.410321,"is_reserved":false,"is_disabled":false,"rental_uris":{"android":"levelo://app?vid=a38aeb50-e61c-4175-8b6c-ea2617d6def1","ios":"levelo://app?vid=a38aeb50-e61c-4175-8b6c-ea2617d6def1"},"vehicle_type_id":"4","last_reported":1702066071,"current_range_meters":4800,"station_id":"ce4bhqh2rcd13ifvqhmg","pricing_plan_id":"free"},{"bike_id":"008d40ec-f853-4ff5-bcbb-42c6be93699e","system_id":"levelo_inurba_marseille","lat":43.278401,"lon":5.392152,"is_reserved":false,"is_disabled":false,"rental_uris":{"android":"levelo://app?vid=008d40ec-f853-4ff5-bcbb-42c6be93699e","ios":"levelo://app?vid=008d40ec-f853-4ff5-bcbb-42c6be93699e"},"vehicle_type_id":"4","last_reported":1702066071,"current_range_meters":2000,"station_id":"ce4bhjp2rcd13ifvqga0","pricing_plan_id":"free"},{"bike_id":"dff23a10-2479-4ab2-9668-0b24c4a41422","system_id":"levelo_inurba_marseille","lat":43.301117,"lon":5.398795,"is_reserved":false,"is_disabled":false,"rental_uris":{"android":"levelo://app?vid=dff23a10-2479-4ab2-9668-0b24c4a41422","ios":"levelo://app?vid=dff23a10-2479-4ab2-9668-0b24c4a41422"},"vehicle_type_id":"4","last_reported":1702066071,"current_range_meters":4000,"station_id":"ce4bh0h2rcd13ifvqd40","pricing_plan_id":"free"},{"bike_id":"1f5dca12-6e84-4152-96c5-5eeac8088d5e","system_id":"levelo_inurba_marseille","lat":43.28004,"lon":5.40007,"is_reserved":false,"is_disabled":false,"rental_uris":{"android":"levelo://app?vid=1f5dca12-6e84-4152-96c5-5eeac8088d5e","ios":"levelo://app?vid=1f5dca12-6e84-4152-96c5-5eeac8088d5e"},"vehicle_type_id":"4","last_reported":1702066071,"current_range_meters":10400,"station_id":"ce4bho92rcd13ifvqh4g","pricing_plan_id":"free"},{"bike_id":"49eedf0f-10a6-4faa-a1bb-a8fca34629e4","system_id":"levelo_inurba_marseille","lat":43.28001,"lon":5.40005,"is_reserved":false,"is_disabled":false,"rental_uris":{"android":"levelo://app?vid=49eedf0f-10a6-4faa-a1bb-a8fca34629e4","ios":"levelo://app?vid=49eedf0f-10a6-4faa-a1bb-a8fca34629e4"},"vehicle_type_id":"4","last_reported":1702066071,"current_range_meters":4400,"station_id":"ce4bho92rcd13ifvqh4g","pricing_plan_id":"free"},{"bike_id":"4784749f-48f6-4429-9ad4-ed5b3f99fc4c","system_id":"levelo_inurba_marseille","lat":43.279975,"lon":5.40009,"is_reserved":false,"is_disabled":false,"rental_uris":{"android":"levelo://app?vid=4784749f-48f6-4429-9ad4-ed5b3f99fc4c","ios":"levelo://app?vid=4784749f-48f6-4429-9ad4-ed5b3f99fc4c"},"vehicle_type_id":"4","last_reported":1702066071,"current_range_meters":0,"station_id":"ce4bho92rcd13ifvqh4g","pricing_plan_id":"free"},{"bike_id":"f964f646-a5c9-4011-a751-1fce1e55f551","system_id":"levelo_inurba_marseille","lat":43.280004,"lon":5.400081,"is_reserved":false,"is_disabled":false,"rental_uris":{"android":"levelo://app?vid=f964f646-a5c9-4011-a751-1fce1e55f551","ios":"levelo://app?vid=f964f646-a5c9-4011-a751-1fce1e55f551"},"vehicle_type_id":"4","last_reported":1702066071,"current_range_meters":14400,"station_id":"ce4bho92rcd13ifvqh4g","pricing_plan_id":"free"},{"bike_id":"93ac8d39-8541-43a3-8880-e4c735dc8b4d","system_id":"levelo_inurba_marseille","lat":43.279975,"lon":5.40009,"is_reserved":false,"is_disabled":false,"rental_uris":{"android":"levelo://app?vid=93ac8d39-8541-43a3-8880-e4c735dc8b4d","ios":"levelo://app?vid=93ac8d39-8541-43a3-8880-e4c735dc8b4d"},"vehicle_type_id":"4","last_reported":1702066071,"current_range_meters":26400,"station_id":"ce4bho92rcd13ifvqh4g","pricing_plan_id":"free"},{"bike_id":"63bc7b72-799c-4f32-ba93-5cb29dbbe219","system_id":"levelo_inurba_marseille","lat":43.279975,"lon":5.40009,"is_reserved":false,"is_disabled":false,"rental_uris":{"android":"levelo://app?vid=63bc7b72-799c-4f32-ba93-5cb29dbbe219","ios":"levelo://app?vid=63bc7b72-799c-4f32-ba93-5cb29dbbe219"},"vehicle_type_id":"4","last_reported":1702066071,"current_range_meters":6000,"station_id":"ce4bho92rcd13ifvqh4g","pricing_plan_id":"free"},{"bike_id":"61f8a200-4aa1-4ea4-9752-71385a90cde7","system_id":"levelo_inurba_marseille","lat":43.279975,"lon":5.40009,"is_reserved":false,"is_disabled":false,"rental_uris":{"android":"levelo://app?vid=61f8a200-4aa1-4ea4-9752-71385a90cde7","ios":"levelo://app?vid=61f8a200-4aa1-4ea4-9752-71385a90cde7"},"vehicle_type_id":"4","last_reported":1702066071,"current_range_meters":16000,"station_id":"ce4bho92rcd13ifvqh4g","pricing_plan_id":"free"},{"bike_id":"51069f74-8655-4896-bc26-c9d98100d97c","system_id":"levelo_inurba_marseille","lat":43.279975,"lon":5.40009,"is_reserved":false,"is_disabled":false,"rental_uris":{"android":"levelo://app?vid=51069f74-8655-4896-bc26-c9d98100d97c","ios":"levelo://app?vid=51069f74-8655-4896-bc26-c9d98100d97c"},"vehicle_type_id":"4","last_reported":1702066071,"current_range_meters":19600,"station_id":"ce4bho92rcd13ifvqh4g","pricing_plan_id":"free"},{"bike_id":"ad7be816-4733-49ed-86f8-c55abb1687ae","system_id":"levelo_inurba_marseille","lat":43.279952,"lon":5.400085,"is_reserved":false,"is_disabled":false,"rental_uris":{"android":"levelo://app?vid=ad7be816-4733-49ed-86f8-c55abb1687ae","ios":"levelo://app?vid=ad7be816-4733-49ed-86f8-c55abb1687ae"},"vehicle_type_id":"4","last_reported":1702066071,"current_range_meters":11600,"station_id":"ce4bho92rcd13ifvqh4g","pricing_plan_id":"free"},{"bike_id":"f093167a-7b1c-4657-a857-543ec0c803d3","system_id":"levelo_inurba_marseille","lat":43.279952,"lon":5.400085,"is_reserved":false,"is_disabled":false,"rental_uris":{"android":"levelo://app?vid=f093167a-7b1c-4657-a857-543ec0c803d3","ios":"levelo://app?vid=f093167a-7b1c-4657-a857-543ec0c803d3"},"vehicle_type_id":"4","last_reported":1702066071,"current_range_meters":8400,"station_id":"ce4bho92rcd13ifvqh4g","pricing_plan_id":"free"},{"bike_id":"93226352-2010-4def-9d7a-564d481896ff","system_id":"levelo_inurba_marseille","lat":43.279976,"lon":5.40014,"is_reserved":false,"is_disabled":false,"rental_uris":{"android":"levelo://app?vid=93226352-2010-4def-9d7a-564d481896ff","ios":"levelo://app?vid=93226352-2010-4def-9d7a-564d481896ff"},"vehicle_type_id":"4","last_reported":1702066071,"current_range_meters":4000,"station_id":"","pricing_plan_id":"free"},{"bike_id":"e49d7e71-ca50-4ea8-a948-45bff29c0080","system_id":"levelo_inurba_marseille","lat":43.279975,"lon":5.40009,"is_reserved":false,"is_disabled":false,"rental_uris":{"android":"levelo://app?vid=e49d7e71-ca50-4ea8-a948-45bff29c0080","ios":"levelo://app?vid=e49d7e71-ca50-4ea8-a948-45bff29c0080"},"vehicle_type_id":"4","last_reported":1702066071,"current_range_meters":16000,"station_id":"ce4bho92rcd13ifvqh4g","pricing_plan_id":"free"},{"bike_id":"c58024d2-cabc-4012-868c-d0b5976a6bb0","system_id":"levelo_inurba_marseille","lat":43.317121,"lon":5.423936,"is_reserved":false,"is_disabled":false,"rental_uris":{"android":"levelo://app?vid=c58024d2-cabc-4012-868c-d0b5976a6bb0","ios":"levelo://app?vid=c58024d2-cabc-4012-868c-d0b5976a6bb0"},"vehicle_type_id":"4","last_reported":1702066071,"current_range_meters":28800,"station_id":"ce4bhp92rcd13ifvqhbg","pricing_plan_id":"free"},{"bike_id":"fc4bcc5b-5f4e-42a1-8cca-78d5c651475f","system_id":"levelo_inurba_marseille","lat":43.317121,"lon":5.423936,"is_reserved":false,"is_disabled":false,"rental_uris":{"android":"levelo://app?vid=fc4bcc5b-5f4e-42a1-8cca-78d5c651475f","ios":"levelo://app?vid=fc4bcc5b-5f4e-42a1-8cca-78d5c651475f"},"vehicle_type_id":"4","last_reported":1702066071,"current_range_meters":0,"station_id":"ce4bhp92rcd13ifvqhbg","pricing_plan_id":"free"},{"bike_id":"0f7a9644-c470-46e7-ae97-75a010349f8b","system_id":"levelo_inurba_marseille","lat":43.317121,"lon":5.423936,"is_reserved":false,"is_disabled":false,"rental_uris":{"android":"levelo://app?vid=0f7a9644-c470-46e7-ae97-75a010349f8b","ios":"levelo://app?vid=0f7a9644-c470-46e7-ae97-75a010349f8b"},"vehicle_type_id":"4","last_reported":1702066071,"current_range_meters":25600,"station_id":"ce4bhp92rcd13ifvqhbg","pricing_plan_id":"free"},{"bike_id":"2bf1bc61-40a7-4947-b63a-5c27ce37e646","system_id":"levelo_inurba_marseille","lat":43.310805,"lon":5.424302,"is_reserved":false,"is_disabled":false,"rental_uris":{"android":"levelo://app?vid=2bf1bc61-40a7-4947-b63a-5c27ce37e646","ios":"levelo://app?vid=2bf1bc61-40a7-4947-b63a-5c27ce37e646"},"vehicle_type_id":"4","last_reported":1702066071,"current_range_meters":14400,"station_id":"","pricing_plan_id":"free"},{"bike_id":"a7d7c71e-5575-4755-bfc1-6143967af57a","system_id":"levelo_inurba_marseille","lat":43.310785,"lon":5.424305,"is_reserved":false,"is_disabled":false,"rental_uris":{"android":"levelo://app?vid=a7d7c71e-5575-4755-bfc1-6143967af57a","ios":"levelo://app?vid=a7d7c71e-5575-4755-bfc1-6143967af57a"},"vehicle_type_id":"4","last_reported":1702066071,"current_range_meters":25200,"station_id":"ce4bhp92rcd13ifvqhag","pricing_plan_id":"free"},{"bike_id":"48e3df08-57dc-434d-a06c-f6f751cd351f","system_id":"levelo_inurba_marseille","lat":43.310785,"lon":5.424305,"is_reserved":false,"is_disabled":false,"rental_uris":{"android":"levelo://app?vid=48e3df08-57dc-434d-a06c-f6f751cd351f","ios":"levelo://app?vid=48e3df08-57dc-434d-a06c-f6f751cd351f"},"vehicle_type_id":"4","last_reported":1702066071,"current_range_meters":23200,"station_id":"ce4bhp92rcd13ifvqhag","pricing_plan_id":"free"},{"bike_id":"e6ff414d-6f05-44d2-b7c6-4a89a6fc64e2","system_id":"levelo_inurba_marseille","lat":43.310785,"lon":5.424305,"is_reserved":false,"is_disabled":false,"rental_uris":{"android":"levelo://app?vid=e6ff414d-6f05-44d2-b7c6-4a89a6fc64e2","ios":"levelo://app?vid=e6ff414d-6f05-44d2-b7c6-4a89a6fc64e2"},"vehicle_type_id":"4","last_reported":1702066071,"current_range_meters":7600,"station_id":"ce4bhp92rcd13ifvqhag","pricing_plan_id":"free"},{"bike_id":"129c9215-3406-45b6-ab91-7d5c8f1bc76b","system_id":"levelo_inurba_marseille","lat":43.310785,"lon":5.424305,"is_reserved":false,"is_disabled":false,"rental_uris":{"android":"levelo://app?vid=129c9215-3406-45b6-ab91-7d5c8f1bc76b","ios":"levelo://app?vid=129c9215-3406-45b6-ab91-7d5c8f1bc76b"},"vehicle_type_id":"4","last_reported":1702066071,"current_range_meters":30400,"station_id":"ce4bhp92rcd13ifvqhag","pricing_plan_id":"free"},{"bike_id":"80038031-3601-4c51-b66a-c6c9131d41d1","system_id":"levelo_inurba_marseille","lat":43.310785,"lon":5.424305,"is_reserved":false,"is_disabled":false,"rental_uris":{"android":"levelo://app?vid=80038031-3601-4c51-b66a-c6c9131d41d1","ios":"levelo://app?vid=80038031-3601-4c51-b66a-c6c9131d41d1"},"vehicle_type_id":"4","last_reported":1702066071,"current_range_meters":20000,"station_id":"ce4bhp92rcd13ifvqhag","pricing_plan_id":"free"},{"bike_id":"dd860398-f66c-4ee2-9bf8-6345305d0079","system_id":"levelo_inurba_marseille","lat":43.34353,"lon":5.40583,"is_reserved":false,"is_disabled":false,"rental_uris":{"android":"levelo://app?vid=dd860398-f66c-4ee2-9bf8-6345305d0079","ios":"levelo://app?vid=dd860398-f66c-4ee2-9bf8-6345305d0079"},"vehicle_type_id":"4","last_reported":1702066071,"current_range_meters":2000,"station_id":"","pricing_plan_id":"free"},{"bike_id":"3382fddf-23bf-43e2-9be0-1a0233fdea3a","system_id":"levelo_inurba_marseille","lat":43.310785,"lon":5.424305,"is_reserved":false,"is_disabled":false,"rental_uris":{"android":"levelo://app?vid=3382fddf-23bf-43e2-9be0-1a0233fdea3a","ios":"levelo://app?vid=3382fddf-23bf-43e2-9be0-1a0233fdea3a"},"vehicle_type_id":"4","last_reported":1702066071,"current_range_meters":31200,"station_id":"ce4bhp92rcd13ifvqhag","pricing_plan_id":"free"},{"bike_id":"63133364-316e-458e-b234-bbd4926c63fc","system_id":"levelo_inurba_marseille","lat":43.27583,"lon":5.39474,"is_reserved":false,"is_disabled":false,"rental_uris":{"android":"levelo://app?vid=63133364-316e-458e-b234-bbd4926c63fc","ios":"levelo://app?vid=63133364-316e-458e-b234-bbd4926c63fc"},"vehicle_type_id":"4","last_reported":1702066071,"current_range_meters":11600,"station_id":"","pricing_plan_id":"free"},{"bike_id":"4f9e48a0-eacd-4e63-bd3c-330b19e5c041","system_id":"levelo_inurba_marseille","lat":43.295511,"lon":5.422926,"is_reserved":false,"is_disabled":false,"rental_uris":{"android":"levelo://app?vid=4f9e48a0-eacd-4e63-bd3c-330b19e5c041","ios":"levelo://app?vid=4f9e48a0-eacd-4e63-bd3c-330b19e5c041"},"vehicle_type_id":"4","last_reported":1702066071,"current_range_meters":12800,"station_id":"ce4bhph2rcd13ifvqhdg","pricing_plan_id":"free"},{"bike_id":"5ed4ca3b-e38e-4196-acea-f278768787eb","system_id":"levelo_inurba_marseille","lat":43.295511,"lon":5.422926,"is_reserved":false,"is_disabled":false,"rental_uris":{"android":"levelo://app?vid=5ed4ca3b-e38e-4196-acea-f278768787eb","ios":"levelo://app?vid=5ed4ca3b-e38e-4196-acea-f278768787eb"},"vehicle_type_id":"4","last_reported":1702066071,"current_range_meters":11600,"station_id":"ce4bhph2rcd13ifvqhdg","pricing_plan_id":"free"},{"bike_id":"b0ace1ee-48c1-47ff-b8ca-0f59683651a4","system_id":"levelo_inurba_marseille","lat":43.295523,"lon":5.422926,"is_reserved":false,"is_disabled":false,"rental_uris":{"android":"levelo://app?vid=b0ace1ee-48c1-47ff-b8ca-0f59683651a4","ios":"levelo://app?vid=b0ace1ee-48c1-47ff-b8ca-0f59683651a4"},"vehicle_type_id":"4","last_reported":1702066071,"current_range_meters":29600,"station_id":"ce4bhph2rcd13ifvqhdg","pricing_plan_id":"free"},{"bike_id":"aed20910-2f26-49bf-9766-c6bdcb7981dd","system_id":"levelo_inurba_marseille","lat":43.295511,"lon":5.422926,"is_reserved":false,"is_disabled":false,"rental_uris":{"android":"levelo://app?vid=aed20910-2f26-49bf-9766-c6bdcb7981dd","ios":"levelo://app?vid=aed20910-2f26-49bf-9766-c6bdcb7981dd"},"vehicle_type_id":"4","last_reported":1702066071,"current_range_meters":3600,"station_id":"ce4bhph2rcd13ifvqhdg","pricing_plan_id":"free"},{"bike_id":"c026dcc6-6d44-4b22-968b-9772b02f8e1f","system_id":"levelo_inurba_marseille","lat":43.272116,"lon":5.391747,"is_reserved":false,"is_disabled":false,"rental_uris":{"android":"levelo://app?vid=c026dcc6-6d44-4b22-968b-9772b02f8e1f","ios":"levelo://app?vid=c026dcc6-6d44-4b22-968b-9772b02f8e1f"},"vehicle_type_id":"4","last_reported":1702066071,"current_range_meters":21600,"station_id":"ce4bhhp2rcd13ifvqfm0","pricing_plan_id":"free"},{"bike_id":"8f021145-48f8-459b-aef0-f8921e18b0a0","system_id":"levelo_inurba_marseille","lat":43.27214,"lon":5.3925,"is_reserved":false,"is_disabled":false,"rental_uris":{"android":"levelo://app?vid=8f021145-48f8-459b-aef0-f8921e18b0a0","ios":"levelo://app?vid=8f021145-48f8-459b-aef0-f8921e18b0a0"},"vehicle_type_id":"4","last_reported":1702066071,"current_range_meters":4400,"station_id":"","pricing_plan_id":"free"},{"bike_id":"084f8e20-8ae4-47d9-b114-5d3d9336ca9c","system_id":"levelo_inurba_marseille","lat":43.297946,"lon":5.404063,"is_reserved":false,"is_disabled":false,"rental_uris":{"android":"levelo://app?vid=084f8e20-8ae4-47d9-b114-5d3d9336ca9c","ios":"levelo://app?vid=084f8e20-8ae4-47d9-b114-5d3d9336ca9c"},"vehicle_type_id":"4","last_reported":1702066071,"current_range_meters":16400,"station_id":"ce4bh112rcd13ifvqd90","pricing_plan_id":"free"},{"bike_id":"c103b478-e4fe-4671-a366-d10af3e865c2","system_id":"levelo_inurba_marseille","lat":43.279465,"lon":5.410561,"is_reserved":false,"is_disabled":false,"rental_uris":{"android":"levelo://app?vid=c103b478-e4fe-4671-a366-d10af3e865c2","ios":"levelo://app?vid=c103b478-e4fe-4671-a366-d10af3e865c2"},"vehicle_type_id":"4","last_reported":1702066071,"current_range_meters":1200,"station_id":"ce4bhnp2rcd13ifvqh0g","pricing_plan_id":"free"},{"bike_id":"5934d825-14b1-42a1-9779-33d238710290","system_id":"levelo_inurba_marseille","lat":43.26681,"lon":5.382694,"is_reserved":false,"is_disabled":false,"rental_uris":{"android":"levelo://app?vid=5934d825-14b1-42a1-9779-33d238710290","ios":"levelo://app?vid=5934d825-14b1-42a1-9779-33d238710290"},"vehicle_type_id":"4","last_reported":1702066071,"current_range_meters":14400,"station_id":"ce4bhg92rcd13ifvqf90","pricing_plan_id":"free"},{"bike_id":"12001040-7707-4d86-9b54-664e00437e73","system_id":"levelo_inurba_marseille","lat":43.279881,"lon":5.416579,"is_reserved":false,"is_disabled":false,"rental_uris":{"android":"levelo://app?vid=12001040-7707-4d86-9b54-664e00437e73","ios":"levelo://app?vid=12001040-7707-4d86-9b54-664e00437e73"},"vehicle_type_id":"4","last_reported":1702066071,"current_range_meters":6000,"station_id":"ce4bho12rcd13ifvqh1g","pricing_plan_id":"free"},{"bike_id":"139d5a25-9461-4d96-8287-d16974f10fd8","system_id":"levelo_inurba_marseille","lat":43.27985,"lon":5.41659,"is_reserved":false,"is_disabled":false,"rental_uris":{"android":"levelo://app?vid=139d5a25-9461-4d96-8287-d16974f10fd8","ios":"levelo://app?vid=139d5a25-9461-4d96-8287-d16974f10fd8"},"vehicle_type_id":"4","last_reported":1702066071,"current_range_meters":6000,"station_id":"ce4bho12rcd13ifvqh1g","pricing_plan_id":"free"},{"bike_id":"7dea0dd0-1c2b-4105-a290-d55bb981ed2f","system_id":"levelo_inurba_marseille","lat":43.317104,"lon":5.436818,"is_reserved":false,"is_disabled":false,"rental_uris":{"android":"levelo://app?vid=7dea0dd0-1c2b-4105-a290-d55bb981ed2f","ios":"levelo://app?vid=7dea0dd0-1c2b-4105-a290-d55bb981ed2f"},"vehicle_type_id":"4","last_reported":1702066071,"current_range_meters":2000,"station_id":"ce4bhp92rcd13ifvqhcg","pricing_plan_id":"free"},{"bike_id":"26a316ce-cbd3-4799-8b70-99bfb6f0c11e","system_id":"levelo_inurba_marseille","lat":43.317104,"lon":5.436818,"is_reserved":false,"is_disabled":false,"rental_uris":{"android":"levelo://app?vid=26a316ce-cbd3-4799-8b70-99bfb6f0c11e","ios":"levelo://app?vid=26a316ce-cbd3-4799-8b70-99bfb6f0c11e"},"vehicle_type_id":"4","last_reported":1702066071,"current_range_meters":31200,"station_id":"ce4bhp92rcd13ifvqhcg","pricing_plan_id":"free"},{"bike_id":"10bd98e0-d0a2-4a25-a407-cc97034aa68c","system_id":"levelo_inurba_marseille","lat":43.3171,"lon":5.43701,"is_reserved":false,"is_disabled":false,"rental_uris":{"android":"levelo://app?vid=10bd98e0-d0a2-4a25-a407-cc97034aa68c","ios":"levelo://app?vid=10bd98e0-d0a2-4a25-a407-cc97034aa68c"},"vehicle_type_id":"4","last_reported":1702066071,"current_range_meters":11600,"station_id":"ce4bhp92rcd13ifvqhcg","pricing_plan_id":"free"},{"bike_id":"845e2a9a-ed30-4c21-9d40-21952560eea0","system_id":"levelo_inurba_marseille","lat":43.317104,"lon":5.436818,"is_reserved":false,"is_disabled":false,"rental_uris":{"android":"levelo://app?vid=845e2a9a-ed30-4c21-9d40-21952560eea0","ios":"levelo://app?vid=845e2a9a-ed30-4c21-9d40-21952560eea0"},"vehicle_type_id":"4","last_reported":1702066071,"current_range_meters":26000,"station_id":"ce4bhp92rcd13ifvqhcg","pricing_plan_id":"free"},{"bike_id":"6e703857-9603-4952-8898-0e1d4c0ec7de","system_id":"levelo_inurba_marseille","lat":43.261782,"lon":5.374515,"is_reserved":false,"is_disabled":false,"rental_uris":{"android":"levelo://app?vid=6e703857-9603-4952-8898-0e1d4c0ec7de","ios":"levelo://app?vid=6e703857-9603-4952-8898-0e1d4c0ec7de"},"vehicle_type_id":"4","last_reported":1702066071,"current_range_meters":6000,"station_id":"ce4bhgp2rcd13ifvqfc0","pricing_plan_id":"free"},{"bike_id":"2c28e409-64d2-48bf-b235-80e7348c2064","system_id":"levelo_inurba_marseille","lat":43.271368,"lon":5.40928,"is_reserved":false,"is_disabled":false,"rental_uris":{"android":"levelo://app?vid=2c28e409-64d2-48bf-b235-80e7348c2064","ios":"levelo://app?vid=2c28e409-64d2-48bf-b235-80e7348c2064"},"vehicle_type_id":"4","last_reported":1702066071,"current_range_meters":23600,"station_id":"ce4bhl12rcd13ifvqgf0","pricing_plan_id":"free"},{"bike_id":"668edf61-6960-468f-942e-6a5cc5a21a93","system_id":"levelo_inurba_marseille","lat":43.271388,"lon":5.409269,"is_reserved":false,"is_disabled":false,"rental_uris":{"android":"levelo://app?vid=668edf61-6960-468f-942e-6a5cc5a21a93","ios":"levelo://app?vid=668edf61-6960-468f-942e-6a5cc5a21a93"},"vehicle_type_id":"4","last_reported":1702066071,"current_range_meters":25200,"station_id":"ce4bhl12rcd13ifvqgf0","pricing_plan_id":"free"},{"bike_id":"c7243c68-1ec1-41a1-b9f1-d075e1e538d2","system_id":"levelo_inurba_marseille","lat":43.267959,"lon":5.402685,"is_reserved":false,"is_disabled":false,"rental_uris":{"android":"levelo://app?vid=c7243c68-1ec1-41a1-b9f1-d075e1e538d2","ios":"levelo://app?vid=c7243c68-1ec1-41a1-b9f1-d075e1e538d2"},"vehicle_type_id":"4","last_reported":1702066071,"current_range_meters":23200,"station_id":"ce501612rcd8frsf0b60","pricing_plan_id":"free"},{"bike_id":"6b17b896-99f2-456b-929e-df3811eeb274","system_id":"levelo_inurba_marseille","lat":43.298768,"lon":5.43643,"is_reserved":false,"is_disabled":false,"rental_uris":{"android":"levelo://app?vid=6b17b896-99f2-456b-929e-df3811eeb274","ios":"levelo://app?vid=6b17b896-99f2-456b-929e-df3811eeb274"},"vehicle_type_id":"4","last_reported":1702066071,"current_range_meters":29200,"station_id":"ce4bhpp2rcd13ifvqhfg","pricing_plan_id":"free"},{"bike_id":"5215ad78-0811-4492-88ee-04afc35bf3a5","system_id":"levelo_inurba_marseille","lat":43.298768,"lon":5.43643,"is_reserved":false,"is_disabled":false,"rental_uris":{"android":"levelo://app?vid=5215ad78-0811-4492-88ee-04afc35bf3a5","ios":"levelo://app?vid=5215ad78-0811-4492-88ee-04afc35bf3a5"},"vehicle_type_id":"4","last_reported":1702066071,"current_range_meters":32000,"station_id":"ce4bhpp2rcd13ifvqhfg","pricing_plan_id":"free"},{"bike_id":"4f68f183-a711-4386-a731-e8ea8e2f115e","system_id":"levelo_inurba_marseille","lat":43.298768,"lon":5.43643,"is_reserved":false,"is_disabled":false,"rental_uris":{"android":"levelo://app?vid=4f68f183-a711-4386-a731-e8ea8e2f115e","ios":"levelo://app?vid=4f68f183-a711-4386-a731-e8ea8e2f115e"},"vehicle_type_id":"4","last_reported":1702066071,"current_range_meters":26400,"station_id":"ce4bhpp2rcd13ifvqhfg","pricing_plan_id":"free"},{"bike_id":"ca4db8a8-5b98-4b78-bc3d-514f38028a3d","system_id":"levelo_inurba_marseille","lat":43.298768,"lon":5.43643,"is_reserved":false,"is_disabled":false,"rental_uris":{"android":"levelo://app?vid=ca4db8a8-5b98-4b78-bc3d-514f38028a3d","ios":"levelo://app?vid=ca4db8a8-5b98-4b78-bc3d-514f38028a3d"},"vehicle_type_id":"4","last_reported":1702066071,"current_range_meters":32000,"station_id":"ce4bhpp2rcd13ifvqhfg","pricing_plan_id":"free"},{"bike_id":"83e2018e-7127-4415-8bbf-2e347a9c6750","system_id":"levelo_inurba_marseille","lat":43.298931,"lon":5.436616,"is_reserved":false,"is_disabled":false,"rental_uris":{"android":"levelo://app?vid=83e2018e-7127-4415-8bbf-2e347a9c6750","ios":"levelo://app?vid=83e2018e-7127-4415-8bbf-2e347a9c6750"},"vehicle_type_id":"4","last_reported":1702066071,"current_range_meters":2000,"station_id":"ce4bhpp2rcd13ifvqhfg","pricing_plan_id":"free"},{"bike_id":"c16ba598-e268-423a-ba8d-6002d2a98117","system_id":"levelo_inurba_marseille","lat":43.298768,"lon":5.43643,"is_reserved":false,"is_disabled":false,"rental_uris":{"android":"levelo://app?vid=c16ba598-e268-423a-ba8d-6002d2a98117","ios":"levelo://app?vid=c16ba598-e268-423a-ba8d-6002d2a98117"},"vehicle_type_id":"4","last_reported":1702066071,"current_range_meters":21200,"station_id":"ce4bhpp2rcd13ifvqhfg","pricing_plan_id":"free"},{"bike_id":"f56607a5-8c0d-4214-a86e-b954d1fd309d","system_id":"levelo_inurba_marseille","lat":43.28151,"lon":5.42638,"is_reserved":false,"is_disabled":false,"rental_uris":{"android":"levelo://app?vid=f56607a5-8c0d-4214-a86e-b954d1fd309d","ios":"levelo://app?vid=f56607a5-8c0d-4214-a86e-b954d1fd309d"},"vehicle_type_id":"4","last_reported":1702066071,"current_range_meters":3200,"station_id":"ce4bhnh2rcd13ifvqgug","pricing_plan_id":"free"},{"bike_id":"86bc8df8-5e9a-4a89-b89e-a3cbca0f6c7b","system_id":"levelo_inurba_marseille","lat":43.281548,"lon":5.42643,"is_reserved":false,"is_disabled":false,"rental_uris":{"android":"levelo://app?vid=86bc8df8-5e9a-4a89-b89e-a3cbca0f6c7b","ios":"levelo://app?vid=86bc8df8-5e9a-4a89-b89e-a3cbca0f6c7b"},"vehicle_type_id":"4","last_reported":1702066071,"current_range_meters":18400,"station_id":"ce4bhnh2rcd13ifvqgug","pricing_plan_id":"free"},{"bike_id":"65cdecf0-10c8-452d-9fa2-2b508458e867","system_id":"levelo_inurba_marseille","lat":43.2607,"lon":5.393983,"is_reserved":false,"is_disabled":false,"rental_uris":{"android":"levelo://app?vid=65cdecf0-10c8-452d-9fa2-2b508458e867","ios":"levelo://app?vid=65cdecf0-10c8-452d-9fa2-2b508458e867"},"vehicle_type_id":"4","last_reported":1702066071,"current_range_meters":4400,"station_id":"ce4bhh92rcd13ifvqfj0","pricing_plan_id":"free"},{"bike_id":"f7e5428a-8f4f-4bc4-b905-f25bd3b0d37f","system_id":"levelo_inurba_marseille","lat":43.2607,"lon":5.393983,"is_reserved":false,"is_disabled":false,"rental_uris":{"android":"levelo://app?vid=f7e5428a-8f4f-4bc4-b905-f25bd3b0d37f","ios":"levelo://app?vid=f7e5428a-8f4f-4bc4-b905-f25bd3b0d37f"},"vehicle_type_id":"4","last_reported":1702066071,"current_range_meters":6800,"station_id":"ce4bhh92rcd13ifvqfj0","pricing_plan_id":"free"},{"bike_id":"000acef0-d2f9-45d3-985c-f854071a0283","system_id":"levelo_inurba_marseille","lat":43.275028,"lon":5.424534,"is_reserved":false,"is_disabled":false,"rental_uris":{"android":"levelo://app?vid=000acef0-d2f9-45d3-985c-f854071a0283","ios":"levelo://app?vid=000acef0-d2f9-45d3-985c-f854071a0283"},"vehicle_type_id":"4","last_reported":1702066071,"current_range_meters":27200,"station_id":"ce4bhn92rcd13ifvqgrg","pricing_plan_id":"free"},{"bike_id":"ca85992f-ca62-4604-8303-cae56285a00d","system_id":"levelo_inurba_marseille","lat":43.258224,"lon":5.394369,"is_reserved":false,"is_disabled":false,"rental_uris":{"android":"levelo://app?vid=ca85992f-ca62-4604-8303-cae56285a00d","ios":"levelo://app?vid=ca85992f-ca62-4604-8303-cae56285a00d"},"vehicle_type_id":"4","last_reported":1702066071,"current_range_meters":10800,"station_id":"ce4bhip2rcd13ifvqft0","pricing_plan_id":"free"},{"bike_id":"854a5dc0-28e8-4a66-8232-a6f3bec7a572","system_id":"levelo_inurba_marseille","lat":43.258224,"lon":5.394369,"is_reserved":false,"is_disabled":false,"rental_uris":{"android":"levelo://app?vid=854a5dc0-28e8-4a66-8232-a6f3bec7a572","ios":"levelo://app?vid=854a5dc0-28e8-4a66-8232-a6f3bec7a572"},"vehicle_type_id":"4","last_reported":1702066071,"current_range_meters":1600,"station_id":"ce4bhip2rcd13ifvqft0","pricing_plan_id":"free"},{"bike_id":"a78d5458-7f89-49f3-9e9c-277d880ae451","system_id":"levelo_inurba_marseille","lat":43.258224,"lon":5.394369,"is_reserved":false,"is_disabled":false,"rental_uris":{"android":"levelo://app?vid=a78d5458-7f89-49f3-9e9c-277d880ae451","ios":"levelo://app?vid=a78d5458-7f89-49f3-9e9c-277d880ae451"},"vehicle_type_id":"4","last_reported":1702066071,"current_range_meters":17600,"station_id":"ce4bhip2rcd13ifvqft0","pricing_plan_id":"free"},{"bike_id":"da69c03d-8b1e-42a8-b760-dd4ff8060f1e","system_id":"levelo_inurba_marseille","lat":43.254947,"lon":5.376454,"is_reserved":false,"is_disabled":false,"rental_uris":{"android":"levelo://app?vid=da69c03d-8b1e-42a8-b760-dd4ff8060f1e","ios":"levelo://app?vid=da69c03d-8b1e-42a8-b760-dd4ff8060f1e"},"vehicle_type_id":"4","last_reported":1702066071,"current_range_meters":26400,"station_id":"ce4bhh12rcd13ifvqff0","pricing_plan_id":"free"},{"bike_id":"6ba654fd-0962-4a10-910c-7ee49fa88cc1","system_id":"levelo_inurba_marseille","lat":43.270721,"lon":5.422764,"is_reserved":false,"is_disabled":false,"rental_uris":{"android":"levelo://app?vid=6ba654fd-0962-4a10-910c-7ee49fa88cc1","ios":"levelo://app?vid=6ba654fd-0962-4a10-910c-7ee49fa88cc1"},"vehicle_type_id":"4","last_reported":1702066071,"current_range_meters":4800,"station_id":"ce4bhk92rcd13ifvqgb0","pricing_plan_id":"free"},{"bike_id":"e01c1baa-ffdb-42d4-b18d-8656b48f0f38","system_id":"levelo_inurba_marseille","lat":43.258658,"lon":5.398935,"is_reserved":false,"is_disabled":false,"rental_uris":{"android":"levelo://app?vid=e01c1baa-ffdb-42d4-b18d-8656b48f0f38","ios":"levelo://app?vid=e01c1baa-ffdb-42d4-b18d-8656b48f0f38"},"vehicle_type_id":"4","last_reported":1702066071,"current_range_meters":4800,"station_id":"ce4bhl92rcd13ifvqghg","pricing_plan_id":"free"},{"bike_id":"6cfdd636-71b3-4041-830d-fd4fc1583f49","system_id":"levelo_inurba_marseille","lat":43.257079,"lon":5.411051,"is_reserved":false,"is_disabled":false,"rental_uris":{"android":"levelo://app?vid=6cfdd636-71b3-4041-830d-fd4fc1583f49","ios":"levelo://app?vid=6cfdd636-71b3-4041-830d-fd4fc1583f49"},"vehicle_type_id":"4","last_reported":1702066071,"current_range_meters":7600,"station_id":"ce4bhkp2rcd13ifvqgd0","pricing_plan_id":"free"},{"bike_id":"f8a7bf31-9d1a-49f5-bce1-a960e3b93f47","system_id":"levelo_inurba_marseille","lat":43.250009,"lon":5.389195,"is_reserved":false,"is_disabled":false,"rental_uris":{"android":"levelo://app?vid=f8a7bf31-9d1a-49f5-bce1-a960e3b93f47","ios":"levelo://app?vid=f8a7bf31-9d1a-49f5-bce1-a960e3b93f47"},"vehicle_type_id":"4","last_reported":1702066071,"current_range_meters":23200,"station_id":"ce4bhgp2rcd13ifvqfd0","pricing_plan_id":"free"},{"bike_id":"4bea3748-70d0-4f45-9e78-0d35b55884f7","system_id":"levelo_inurba_marseille","lat":43.250009,"lon":5.389195,"is_reserved":false,"is_disabled":false,"rental_uris":{"android":"levelo://app?vid=4bea3748-70d0-4f45-9e78-0d35b55884f7","ios":"levelo://app?vid=4bea3748-70d0-4f45-9e78-0d35b55884f7"},"vehicle_type_id":"4","last_reported":1702066071,"current_range_meters":2400,"station_id":"ce4bhgp2rcd13ifvqfd0","pricing_plan_id":"free"},{"bike_id":"b4dd9ddd-e6f8-4aa7-aeba-a309f73ed6f1","system_id":"levelo_inurba_marseille","lat":43.24805,"lon":5.3746,"is_reserved":false,"is_disabled":false,"rental_uris":{"android":"levelo://app?vid=b4dd9ddd-e6f8-4aa7-aeba-a309f73ed6f1","ios":"levelo://app?vid=b4dd9ddd-e6f8-4aa7-aeba-a309f73ed6f1"},"vehicle_type_id":"4","last_reported":1702066071,"current_range_meters":13600,"station_id":"ce4bhgh2rcd13ifvqfb0","pricing_plan_id":"free"},{"bike_id":"7d1ab110-4282-4e4e-89fe-f12a65b8b76b","system_id":"levelo_inurba_marseille","lat":43.25089,"lon":5.3951,"is_reserved":false,"is_disabled":false,"rental_uris":{"android":"levelo://app?vid=7d1ab110-4282-4e4e-89fe-f12a65b8b76b","ios":"levelo://app?vid=7d1ab110-4282-4e4e-89fe-f12a65b8b76b"},"vehicle_type_id":"4","last_reported":1702066071,"current_range_meters":20000,"station_id":"ce4bhm12rcd13ifvqgkg","pricing_plan_id":"free"},{"bike_id":"1374c76f-d6a2-4c6e-bccb-718d428b20a1","system_id":"levelo_inurba_marseille","lat":43.246461,"lon":5.389014,"is_reserved":false,"is_disabled":false,"rental_uris":{"android":"levelo://app?vid=1374c76f-d6a2-4c6e-bccb-718d428b20a1","ios":"levelo://app?vid=1374c76f-d6a2-4c6e-bccb-718d428b20a1"},"vehicle_type_id":"4","last_reported":1702066071,"current_range_meters":22000,"station_id":"ce4bhg12rcd13ifvqf60","pricing_plan_id":"free"},{"bike_id":"c3a9344b-4f78-4bee-85ba-fd646bf0d59a","system_id":"levelo_inurba_marseille","lat":43.246461,"lon":5.389014,"is_reserved":false,"is_disabled":false,"rental_uris":{"android":"levelo://app?vid=c3a9344b-4f78-4bee-85ba-fd646bf0d59a","ios":"levelo://app?vid=c3a9344b-4f78-4bee-85ba-fd646bf0d59a"},"vehicle_type_id":"4","last_reported":1702066071,"current_range_meters":16800,"station_id":"ce4bhg12rcd13ifvqf60","pricing_plan_id":"free"},{"bike_id":"6e3051cd-c13d-4c4b-87d7-89c9242161fe","system_id":"levelo_inurba_marseille","lat":43.24388,"lon":5.37062,"is_reserved":false,"is_disabled":false,"rental_uris":{"android":"levelo://app?vid=6e3051cd-c13d-4c4b-87d7-89c9242161fe","ios":"levelo://app?vid=6e3051cd-c13d-4c4b-87d7-89c9242161fe"},"vehicle_type_id":"4","last_reported":1702066071,"current_range_meters":25200,"station_id":"ce4bhhh2rcd13ifvqfk0","pricing_plan_id":"free"},{"bike_id":"758b9b65-b402-4179-b762-f5848163a69d","system_id":"levelo_inurba_marseille","lat":43.243873,"lon":5.370582,"is_reserved":false,"is_disabled":false,"rental_uris":{"android":"levelo://app?vid=758b9b65-b402-4179-b762-f5848163a69d","ios":"levelo://app?vid=758b9b65-b402-4179-b762-f5848163a69d"},"vehicle_type_id":"4","last_reported":1702066071,"current_range_meters":25200,"station_id":"","pricing_plan_id":"free"},{"bike_id":"9bdb7ab8-9ffd-4fd0-a254-22e705c6f751","system_id":"levelo_inurba_marseille","lat":43.243884,"lon":5.370736,"is_reserved":false,"is_disabled":false,"rental_uris":{"android":"levelo://app?vid=9bdb7ab8-9ffd-4fd0-a254-22e705c6f751","ios":"levelo://app?vid=9bdb7ab8-9ffd-4fd0-a254-22e705c6f751"},"vehicle_type_id":"4","last_reported":1702066071,"current_range_meters":26800,"station_id":"ce4bhhh2rcd13ifvqfk0","pricing_plan_id":"free"},{"bike_id":"3e830259-be13-485e-8ab1-b53d303bbe3f","system_id":"levelo_inurba_marseille","lat":43.243884,"lon":5.370737,"is_reserved":false,"is_disabled":false,"rental_uris":{"android":"levelo://app?vid=3e830259-be13-485e-8ab1-b53d303bbe3f","ios":"levelo://app?vid=3e830259-be13-485e-8ab1-b53d303bbe3f"},"vehicle_type_id":"4","last_reported":1702066071,"current_range_meters":18800,"station_id":"ce4bhhh2rcd13ifvqfk0","pricing_plan_id":"free"},{"bike_id":"b3705516-da65-4902-b345-4cc53e261fdf","system_id":"levelo_inurba_marseille","lat":43.2408,"lon":5.37759,"is_reserved":false,"is_disabled":false,"rental_uris":{"android":"levelo://app?vid=b3705516-da65-4902-b345-4cc53e261fdf","ios":"levelo://app?vid=b3705516-da65-4902-b345-4cc53e261fdf"},"vehicle_type_id":"4","last_reported":1702066071,"current_range_meters":20800,"station_id":"","pricing_plan_id":"free"},{"bike_id":"19de1d90-0ef7-4697-bd3a-3e98bd2bf2e7","system_id":"levelo_inurba_marseille","lat":43.239588,"lon":5.366238,"is_reserved":false,"is_disabled":false,"rental_uris":{"android":"levelo://app?vid=19de1d90-0ef7-4697-bd3a-3e98bd2bf2e7","ios":"levelo://app?vid=19de1d90-0ef7-4697-bd3a-3e98bd2bf2e7"},"vehicle_type_id":"4","last_reported":1702066071,"current_range_meters":31600,"station_id":"ce4bhi12rcd13ifvqfp0","pricing_plan_id":"free"},{"bike_id":"07f04f98-06c9-4309-b3fe-4415621f48f3","system_id":"levelo_inurba_marseille","lat":43.239588,"lon":5.366238,"is_reserved":false,"is_disabled":false,"rental_uris":{"android":"levelo://app?vid=07f04f98-06c9-4309-b3fe-4415621f48f3","ios":"levelo://app?vid=07f04f98-06c9-4309-b3fe-4415621f48f3"},"vehicle_type_id":"4","last_reported":1702066071,"current_range_meters":14000,"station_id":"ce4bhi12rcd13ifvqfp0","pricing_plan_id":"free"},{"bike_id":"93954539-37ab-42cb-8148-c6cd6174d0ce","system_id":"levelo_inurba_marseille","lat":43.239588,"lon":5.366238,"is_reserved":false,"is_disabled":false,"rental_uris":{"android":"levelo://app?vid=93954539-37ab-42cb-8148-c6cd6174d0ce","ios":"levelo://app?vid=93954539-37ab-42cb-8148-c6cd6174d0ce"},"vehicle_type_id":"4","last_reported":1702066071,"current_range_meters":31600,"station_id":"ce4bhi12rcd13ifvqfp0","pricing_plan_id":"free"},{"bike_id":"c044812f-23c8-40b9-9235-f3a1ed3758bf","system_id":"levelo_inurba_marseille","lat":43.239588,"lon":5.366238,"is_reserved":false,"is_disabled":false,"rental_uris":{"android":"levelo://app?vid=c044812f-23c8-40b9-9235-f3a1ed3758bf","ios":"levelo://app?vid=c044812f-23c8-40b9-9235-f3a1ed3758bf"},"vehicle_type_id":"4","last_reported":1702066071,"current_range_meters":18000,"station_id":"ce4bhi12rcd13ifvqfp0","pricing_plan_id":"free"},{"bike_id":"97560a92-af21-4d84-af2f-9a915168f03f","system_id":"levelo_inurba_marseille","lat":43.241782,"lon":5.397261,"is_reserved":false,"is_disabled":false,"rental_uris":{"android":"levelo://app?vid=97560a92-af21-4d84-af2f-9a915168f03f","ios":"levelo://app?vid=97560a92-af21-4d84-af2f-9a915168f03f"},"vehicle_type_id":"4","last_reported":1702066071,"current_range_meters":19200,"station_id":"ce4bhn12rcd13ifvqgpg","pricing_plan_id":"free"},{"bike_id":"1d8e9bd7-e6ff-447e-b845-0049da0206d3","system_id":"levelo_inurba_marseille","lat":43.231919,"lon":5.355532,"is_reserved":false,"is_disabled":false,"rental_uris":{"android":"levelo://app?vid=1d8e9bd7-e6ff-447e-b845-0049da0206d3","ios":"levelo://app?vid=1d8e9bd7-e6ff-447e-b845-0049da0206d3"},"vehicle_type_id":"4","last_reported":1702066071,"current_range_meters":6400,"station_id":"ce4bhu92rcd13ifvqi70","pricing_plan_id":"free"},{"bike_id":"c6004eb4-873a-4661-a0e7-ea9140f6bd61","system_id":"levelo_inurba_marseille","lat":43.231919,"lon":5.355532,"is_reserved":false,"is_disabled":false,"rental_uris":{"android":"levelo://app?vid=c6004eb4-873a-4661-a0e7-ea9140f6bd61","ios":"levelo://app?vid=c6004eb4-873a-4661-a0e7-ea9140f6bd61"},"vehicle_type_id":"4","last_reported":1702066071,"current_range_meters":30000,"station_id":"ce4bhu92rcd13ifvqi70","pricing_plan_id":"free"},{"bike_id":"d7354235-71f2-4aeb-aa26-9572f0d131ef","system_id":"levelo_inurba_marseille","lat":43.231794,"lon":5.400052,"is_reserved":false,"is_disabled":false,"rental_uris":{"android":"levelo://app?vid=d7354235-71f2-4aeb-aa26-9572f0d131ef","ios":"levelo://app?vid=d7354235-71f2-4aeb-aa26-9572f0d131ef"},"vehicle_type_id":"4","last_reported":1702066071,"current_range_meters":6800,"station_id":"ce4bhn12rcd13ifvqgqg","pricing_plan_id":"free"},{"bike_id":"1c690641-a72b-433d-b1af-d36beaec8f2e","system_id":"levelo_inurba_marseille","lat":43.231874,"lon":5.399894,"is_reserved":false,"is_disabled":false,"rental_uris":{"android":"levelo://app?vid=1c690641-a72b-433d-b1af-d36beaec8f2e","ios":"levelo://app?vid=1c690641-a72b-433d-b1af-d36beaec8f2e"},"vehicle_type_id":"4","last_reported":1702066071,"current_range_meters":29600,"station_id":"ce4bhn12rcd13ifvqgqg","pricing_plan_id":"free"},{"bike_id":"0ecf5d94-fb77-4683-9b33-b3a43c812fa1","system_id":"levelo_inurba_marseille","lat":43.23184,"lon":5.39989,"is_reserved":false,"is_disabled":false,"rental_uris":{"android":"levelo://app?vid=0ecf5d94-fb77-4683-9b33-b3a43c812fa1","ios":"levelo://app?vid=0ecf5d94-fb77-4683-9b33-b3a43c812fa1"},"vehicle_type_id":"4","last_reported":1702066071,"current_range_meters":20000,"station_id":"ce4bhn12rcd13ifvqgqg","pricing_plan_id":"free"},{"bike_id":"34665144-ce30-468a-b218-97ce329e0725","system_id":"levelo_inurba_marseille","lat":43.231794,"lon":5.400052,"is_reserved":false,"is_disabled":false,"rental_uris":{"android":"levelo://app?vid=34665144-ce30-468a-b218-97ce329e0725","ios":"levelo://app?vid=34665144-ce30-468a-b218-97ce329e0725"},"vehicle_type_id":"4","last_reported":1702066071,"current_range_meters":22000,"station_id":"ce4bhn12rcd13ifvqgqg","pricing_plan_id":"free"},{"bike_id":"be845917-f52e-4a9f-83ff-909546a09332","system_id":"levelo_inurba_marseille","lat":43.231794,"lon":5.400052,"is_reserved":false,"is_disabled":false,"rental_uris":{"android":"levelo://app?vid=be845917-f52e-4a9f-83ff-909546a09332","ios":"levelo://app?vid=be845917-f52e-4a9f-83ff-909546a09332"},"vehicle_type_id":"4","last_reported":1702066071,"current_range_meters":31600,"station_id":"ce4bhn12rcd13ifvqgqg","pricing_plan_id":"free"},{"bike_id":"6c4620c0-0d4d-493f-9950-4fd3c4457696","system_id":"levelo_inurba_marseille","lat":43.231794,"lon":5.400052,"is_reserved":false,"is_disabled":false,"rental_uris":{"android":"levelo://app?vid=6c4620c0-0d4d-493f-9950-4fd3c4457696","ios":"levelo://app?vid=6c4620c0-0d4d-493f-9950-4fd3c4457696"},"vehicle_type_id":"4","last_reported":1702066071,"current_range_meters":31600,"station_id":"ce4bhn12rcd13ifvqgqg","pricing_plan_id":"free"},{"bike_id":"1364bb53-1feb-4c66-bc1b-fe1d777b1c2f","system_id":"levelo_inurba_marseille","lat":43.23181,"lon":5.39992,"is_reserved":false,"is_disabled":false,"rental_uris":{"android":"levelo://app?vid=1364bb53-1feb-4c66-bc1b-fe1d777b1c2f","ios":"levelo://app?vid=1364bb53-1feb-4c66-bc1b-fe1d777b1c2f"},"vehicle_type_id":"4","last_reported":1702066071,"current_range_meters":5600,"station_id":"ce4bhn12rcd13ifvqgqg","pricing_plan_id":"free"},{"bike_id":"ff1109c9-6591-43d3-b5cd-adc2963d746c","system_id":"levelo_inurba_marseille","lat":43.23178,"lon":5.39992,"is_reserved":false,"is_disabled":false,"rental_uris":{"android":"levelo://app?vid=ff1109c9-6591-43d3-b5cd-adc2963d746c","ios":"levelo://app?vid=ff1109c9-6591-43d3-b5cd-adc2963d746c"},"vehicle_type_id":"4","last_reported":1702066071,"current_range_meters":10400,"station_id":"ce4bhn12rcd13ifvqgqg","pricing_plan_id":"free"},{"bike_id":"5c4c14b0-15b0-4600-8dc6-cdbde00bef8b","system_id":"levelo_inurba_marseille","lat":43.231794,"lon":5.400052,"is_reserved":false,"is_disabled":false,"rental_uris":{"android":"levelo://app?vid=5c4c14b0-15b0-4600-8dc6-cdbde00bef8b","ios":"levelo://app?vid=5c4c14b0-15b0-4600-8dc6-cdbde00bef8b"},"vehicle_type_id":"4","last_reported":1702066071,"current_range_meters":6000,"station_id":"ce4bhn12rcd13ifvqgqg","pricing_plan_id":"free"},{"bike_id":"dd3a6846-e009-4a2b-9715-3e42670dbb1b","system_id":"levelo_inurba_marseille","lat":43.231562,"lon":5.436933,"is_reserved":false,"is_disabled":false,"rental_uris":{"android":"levelo://app?vid=dd3a6846-e009-4a2b-9715-3e42670dbb1b","ios":"levelo://app?vid=dd3a6846-e009-4a2b-9715-3e42670dbb1b"},"vehicle_type_id":"4","last_reported":1702066071,"current_range_meters":21200,"station_id":"ce4bhmp2rcd13ifvqgog","pricing_plan_id":"free"}]}}