{"last_updated":1700406380,"ttl":30,"version":"2.2","data":{"bikes":[{"bike_id":"0d9ea315-b152-468a-b542-7b1067aea0d2","system_id":"levelo_inurba_marseille","lat":43.309076,"lon":5.368465,"is_reserved":false,"is_disabled":false,"rental_uris":{"android":"levelo://app?vid=0d9ea315-b152-468a-b542-7b1067aea0d2","ios":"levelo://app?vid=0d9ea315-b152-468a-b542-7b1067aea0d2"},"vehicle_type_id":"4","last_reported":1700406380,"current_range_meters":9600,"station_id":"ce4bgn92rcd13ifvqbvg","pricing_plan_id":"free"},{"bike_id":"3f0db877-f819-4c9d-a707-5ceb6e01e906","system_id":"levelo_inurba_marseille","lat":43.31494,"lon":5.37313,"is_reserved":false,"is_disabled":false,"rental_uris":{"android":"levelo://app?vid=3f0db877-f819-4c9d-a707-5ceb6e01e906","ios":"levelo://app?vid=3f0db877-f819-4c9d-a707-5ceb6e01e906"},"vehicle_type_id":"4","last_reported":1700406380,"current_range_meters":0,"station_id":"ce4bgt12rcd13ifvqcd0","pricing_plan_id":"free"},{"bike_id":"3475d204-43b6-43d9-b615-ca1d0d58200e","system_id":"levelo_inurba_marseille","lat":43.30679,"lon":5.3679,"is_reserved":false,"is_disabled":false,"rental_uris":{"android":"levelo://app?vid=3475d204-43b6-43d9-b615-ca1d0d58200e","ios":"levelo://app?vid=3475d204-43b6-43d9-b615-ca1d0d58200e"},"vehicle_type_id":"4","last_reported":1700406380,"current_range_meters":10400,"station_id":"","pricing_plan_id":"free"},{"bike_id":"09ccbac6-0f01-4cfb-8bb8-da5484277d5c","system_id":"levelo_inurba_marseille","lat":43.319512,"lon":5.371013,"is_reserved":false,"is_disabled":false,"rental_uris":{"android":"levelo://app?vid=09ccbac6-0f01-4cfb-8bb8-da5484277d5c","ios":"levelo://app?vid=09ccbac6-0f01-4cfb-8bb8-da5484277d5c"},"vehicle_type_id":"4","last_reported":1700406380,"current_range_meters":0,"station_id":"","pricing_plan_id":"free"},{"bike_id":"dcbf9c93-0758-41cf-8699-4ede01d69428","system_id":"levelo_inurba_marseille","lat":43.308191,"lon":5.376556,"is_reserved":false,"is_disabled":false,"rental_uris":{"android":"levelo://app?vid=dcbf9c93-0758-41cf-8699-4ede01d69428","ios":"levelo://app?vid=dcbf9c93-0758-41cf-8699-4ede01d69428"},"vehicle_type_id":"4","last_reported":1700406380,"current_range_meters":10800,"station_id":"ce4bgv92rcd13ifvqcq0","pricing_plan_id":"free"},{"bike_id":"c1b6f7bd-7ece-4b07-acb1-5c9f9e2474c0","system_id":"levelo_inurba_marseille","lat":43.321852,"lon":5.375073,"is_reserved":false,"is_disabled":false,"rental_uris":{"android":"levelo://app?vid=c1b6f7bd-7ece-4b07-acb1-5c9f9e2474c0","ios":"levelo://app?vid=c1b6f7bd-7ece-4b07-acb1-5c9f9e2474c0"},"vehicle_type_id":"4","last_reported":1700406380,"current_range_meters":28000,"station_id":"","pricing_plan_id":"free"},{"bike_id":"c23c149f-9eda-4f8d-8c97-7f2701b3ae3e","system_id":"levelo_inurba_marseille","lat":43.304606,"lon":5.379026,"is_reserved":false,"is_disabled":false,"rental_uris":{"android":"levelo://app?vid=c23c149f-9eda-4f8d-8c97-7f2701b3ae3e","ios":"levelo://app?vid=c23c149f-9eda-4f8d-8c97-7f2701b3ae3e"},"vehicle_type_id":"4","last_reported":1700406380,"current_range_meters":5200,"station_id":"ce4bgup2rcd13ifvqcn0","pricing_plan_id":"free"},{"bike_id":"3a722b20-8d9a-4ed7-bed2-82edca53ad10","system_id":"levelo_inurba_marseille","lat":43.324739,"lon":5.36558,"is_reserved":false,"is_disabled":false,"rental_uris":{"android":"levelo://app?vid=3a722b20-8d9a-4ed7-bed2-82edca53ad10","ios":"levelo://app?vid=3a722b20-8d9a-4ed7-bed2-82edca53ad10"},"vehicle_type_id":"4","last_reported":1700406380,"current_range_meters":15600,"station_id":"ce4bhs12rcd13ifvqhvg","pricing_plan_id":"free"},{"bike_id":"8c6b9948-2f23-41f5-967e-cd18cc963390","system_id":"levelo_inurba_marseille","lat":43.32481,"lon":5.36559,"is_reserved":false,"is_disabled":false,"rental_uris":{"android":"levelo://app?vid=8c6b9948-2f23-41f5-967e-cd18cc963390","ios":"levelo://app?vid=8c6b9948-2f23-41f5-967e-cd18cc963390"},"vehicle_type_id":"4","last_reported":1700406380,"current_range_meters":14800,"station_id":"ce4bhs12rcd13ifvqhvg","pricing_plan_id":"free"},{"bike_id":"5da9dea2-bd9f-4746-b637-56e44ea9e587","system_id":"levelo_inurba_marseille","lat":43.298489,"lon":5.362942,"is_reserved":false,"is_disabled":false,"rental_uris":{"android":"levelo://app?vid=5da9dea2-bd9f-4746-b637-56e44ea9e587","ios":"levelo://app?vid=5da9dea2-bd9f-4746-b637-56e44ea9e587"},"vehicle_type_id":"4","last_reported":1700406380,"current_range_meters":0,"station_id":"","pricing_plan_id":"free"},{"bike_id":"03ff0a36-041f-4a47-adc9-cea367213f08","system_id":"levelo_inurba_marseille","lat":43.298433,"lon":5.362774,"is_reserved":false,"is_disabled":false,"rental_uris":{"android":"levelo://app?vid=03ff0a36-041f-4a47-adc9-cea367213f08","ios":"levelo://app?vid=03ff0a36-041f-4a47-adc9-cea367213f08"},"vehicle_type_id":"4","last_reported":1700406380,"current_range_meters":12000,"station_id":"ce4bgpp2rcd13ifvqc3g","pricing_plan_id":"free"},{"bike_id":"6c5d7580-0af2-4711-aac6-b10b4ab61119","system_id":"levelo_inurba_marseille","lat":43.297847,"lon":5.372297,"is_reserved":false,"is_disabled":false,"rental_uris":{"android":"levelo://app?vid=6c5d7580-0af2-4711-aac6-b10b4ab61119","ios":"levelo://app?vid=6c5d7580-0af2-4711-aac6-b10b4ab61119"},"vehicle_type_id":"4","last_reported":1700406380,"current_range_meters":0,"station_id":"","pricing_plan_id":"free"},{"bike_id":"f1823e1a-4a1c-465c-a3d5-b3d8c07ce2f2","system_id":"levelo_inurba_marseille","lat":43.32827,"lon":5.3669,"is_reserved":false,"is_disabled":false,"rental_uris":{"android":"levelo://app?vid=f1823e1a-4a1c-465c-a3d5-b3d8c07ce2f2","ios":"levelo://app?vid=f1823e1a-4a1c-465c-a3d5-b3d8c07ce2f2"},"vehicle_type_id":"4","last_reported":1700406380,"current_range_meters":14000,"station_id":"ce4bhs92rcd13ifvqi0g","pricing_plan_id":"free"},{"bike_id":"2a07802c-16d5-4104-9ab3-93ca6dd62601","system_id":"levelo_inurba_marseille","lat":43.29601,"lon":5.368027,"is_reserved":false,"is_disabled":false,"rental_uris":{"android":"levelo://app?vid=2a07802c-16d5-4104-9ab3-93ca6dd62601","ios":"levelo://app?vid=2a07802c-16d5-4104-9ab3-93ca6dd62601"},"vehicle_type_id":"4","last_reported":1700406380,"current_range_meters":26000,"station_id":"","pricing_plan_id":"free"},{"bike_id":"abb998f5-cc2c-4396-8351-c1c174e9f860","system_id":"levelo_inurba_marseille","lat":43.30948,"lon":5.39031,"is_reserved":false,"is_disabled":false,"rental_uris":{"android":"levelo://app?vid=abb998f5-cc2c-4396-8351-c1c174e9f860","ios":"levelo://app?vid=abb998f5-cc2c-4396-8351-c1c174e9f860"},"vehicle_type_id":"4","last_reported":1700406380,"current_range_meters":0,"station_id":"ce4bgup2rcd13ifvqco0","pricing_plan_id":"free"},{"bike_id":"67ffd28a-0325-489b-a10f-d90500122751","system_id":"levelo_inurba_marseille","lat":43.295748,"lon":5.37522,"is_reserved":false,"is_disabled":false,"rental_uris":{"android":"levelo://app?vid=67ffd28a-0325-489b-a10f-d90500122751","ios":"levelo://app?vid=67ffd28a-0325-489b-a10f-d90500122751"},"vehicle_type_id":"4","last_reported":1700406380,"current_range_meters":30400,"station_id":"ce4bgh92rcd13ifvqb50","pricing_plan_id":"free"},{"bike_id":"3e3e92fe-39b7-4933-99ff-3747b28b5d69","system_id":"levelo_inurba_marseille","lat":43.328154,"lon":5.380034,"is_reserved":false,"is_disabled":false,"rental_uris":{"android":"levelo://app?vid=3e3e92fe-39b7-4933-99ff-3747b28b5d69","ios":"levelo://app?vid=3e3e92fe-39b7-4933-99ff-3747b28b5d69"},"vehicle_type_id":"4","last_reported":1700406380,"current_range_meters":5600,"station_id":"","pricing_plan_id":"free"},{"bike_id":"c7d00dc3-b6ca-4294-a7db-4b0dee271135","system_id":"levelo_inurba_marseille","lat":43.2965,"lon":5.37809,"is_reserved":false,"is_disabled":false,"rental_uris":{"android":"levelo://app?vid=c7d00dc3-b6ca-4294-a7db-4b0dee271135","ios":"levelo://app?vid=c7d00dc3-b6ca-4294-a7db-4b0dee271135"},"vehicle_type_id":"4","last_reported":1700406380,"current_range_meters":15200,"station_id":"","pricing_plan_id":"free"},{"bike_id":"e145a3f7-00ac-4f8f-bfe5-435bc38ccaf7","system_id":"levelo_inurba_marseille","lat":43.293801,"lon":5.363066,"is_reserved":false,"is_disabled":false,"rental_uris":{"android":"levelo://app?vid=e145a3f7-00ac-4f8f-bfe5-435bc38ccaf7","ios":"levelo://app?vid=e145a3f7-00ac-4f8f-bfe5-435bc38ccaf7"},"vehicle_type_id":"4","last_reported":1700406380,"current_range_meters":23600,"station_id":"","pricing_plan_id":"free"},{"bike_id":"bbd102be-ea44-4fe5-8b3f-74c93a02c49d","system_id":"levelo_inurba_marseille","lat":43.32369,"lon":5.38886,"is_reserved":false,"is_disabled":false,"rental_uris":{"android":"levelo://app?vid=bbd102be-ea44-4fe5-8b3f-74c93a02c49d","ios":"levelo://app?vid=bbd102be-ea44-4fe5-8b3f-74c93a02c49d"},"vehicle_type_id":"4","last_reported":1700406380,"current_range_meters":12400,"station_id":"ce4bhqp2rcd13ifvqhog","pricing_plan_id":"free"},{"bike_id":"4eef38cc-64cf-4f4d-8d5b-99bd9d3b1b37","system_id":"levelo_inurba_marseille","lat":43.293213,"lon":5.371133,"is_reserved":false,"is_disabled":false,"rental_uris":{"android":"levelo://app?vid=4eef38cc-64cf-4f4d-8d5b-99bd9d3b1b37","ios":"levelo://app?vid=4eef38cc-64cf-4f4d-8d5b-99bd9d3b1b37"},"vehicle_type_id":"4","last_reported":1700406380,"current_range_meters":24000,"station_id":"","pricing_plan_id":"free"},{"bike_id":"31297c05-6bc4-48f5-8e34-81902a6b0588","system_id":"levelo_inurba_marseille","lat":43.305994,"lon":5.393687,"is_reserved":false,"is_disabled":false,"rental_uris":{"android":"levelo://app?vid=31297c05-6bc4-48f5-8e34-81902a6b0588","ios":"levelo://app?vid=31297c05-6bc4-48f5-8e34-81902a6b0588"},"vehicle_type_id":"4","last_reported":1700406380,"current_range_meters":26000,"station_id":"ce4bh0p2rcd13ifvqd80","pricing_plan_id":"free"},{"bike_id":"2474d823-7e00-4d15-b58f-839e2c1af5b0","system_id":"levelo_inurba_marseille","lat":43.29378,"lon":5.37854,"is_reserved":false,"is_disabled":false,"rental_uris":{"android":"levelo://app?vid=2474d823-7e00-4d15-b58f-839e2c1af5b0","ios":"levelo://app?vid=2474d823-7e00-4d15-b58f-839e2c1af5b0"},"vehicle_type_id":"4","last_reported":1700406380,"current_range_meters":0,"station_id":"ce4bgjh2rcd13ifvqbf0","pricing_plan_id":"free"},{"bike_id":"ae2c4522-4015-4584-a7cc-4beb4bcffc86","system_id":"levelo_inurba_marseille","lat":43.292311,"lon":5.360731,"is_reserved":false,"is_disabled":false,"rental_uris":{"android":"levelo://app?vid=ae2c4522-4015-4584-a7cc-4beb4bcffc86","ios":"levelo://app?vid=ae2c4522-4015-4584-a7cc-4beb4bcffc86"},"vehicle_type_id":"4","last_reported":1700406380,"current_range_meters":21600,"station_id":"ce4bhbh2rcd13ifvqeqg","pricing_plan_id":"free"},{"bike_id":"7f7e01a6-8f8d-4032-9432-f7c3ba09ba94","system_id":"levelo_inurba_marseille","lat":43.29872,"lon":5.38906,"is_reserved":false,"is_disabled":false,"rental_uris":{"android":"levelo://app?vid=7f7e01a6-8f8d-4032-9432-f7c3ba09ba94","ios":"levelo://app?vid=7f7e01a6-8f8d-4032-9432-f7c3ba09ba94"},"vehicle_type_id":"4","last_reported":1700406380,"current_range_meters":0,"station_id":"ce4bh392rcd13ifvqdl0","pricing_plan_id":"free"},{"bike_id":"860cd18d-2cc6-49b6-919b-08481ba6809d","system_id":"levelo_inurba_marseille","lat":43.29529,"lon":5.385581,"is_reserved":false,"is_disabled":false,"rental_uris":{"android":"levelo://app?vid=860cd18d-2cc6-49b6-919b-08481ba6809d","ios":"levelo://app?vid=860cd18d-2cc6-49b6-919b-08481ba6809d"},"vehicle_type_id":"4","last_reported":1700406380,"current_range_meters":2800,"station_id":"ce4bgih2rcd13ifvqba0","pricing_plan_id":"free"},{"bike_id":"0998c4ec-5625-4892-b56f-cb21e07a339b","system_id":"levelo_inurba_marseille","lat":43.29529,"lon":5.385581,"is_reserved":false,"is_disabled":false,"rental_uris":{"android":"levelo://app?vid=0998c4ec-5625-4892-b56f-cb21e07a339b","ios":"levelo://app?vid=0998c4ec-5625-4892-b56f-cb21e07a339b"},"vehicle_type_id":"4","last_reported":1700406380,"current_range_meters":24000,"station_id":"ce4bgih2rcd13ifvqba0","pricing_plan_id":"free"},{"bike_id":"c784d04a-48a3-4b82-be0d-63c7d41b1368","system_id":"levelo_inurba_marseille","lat":43.292642,"lon":5.384254,"is_reserved":false,"is_disabled":false,"rental_uris":{"android":"levelo://app?vid=c784d04a-48a3-4b82-be0d-63c7d41b1368","ios":"levelo://app?vid=c784d04a-48a3-4b82-be0d-63c7d41b1368"},"vehicle_type_id":"4","last_reported":1700406380,"current_range_meters":0,"station_id":"ce4bh692rcd13ifvqea0","pricing_plan_id":"free"},{"bike_id":"e0439439-a433-421d-b5bf-261ebd05788d","system_id":"levelo_inurba_marseille","lat":43.295169,"lon":5.390426,"is_reserved":false,"is_disabled":false,"rental_uris":{"android":"levelo://app?vid=e0439439-a433-421d-b5bf-261ebd05788d","ios":"levelo://app?vid=e0439439-a433-421d-b5bf-261ebd05788d"},"vehicle_type_id":"4","last_reported":1700406380,"current_range_meters":4400,"station_id":"ce4bh3p2rcd13ifvqdp0","pricing_plan_id":"free"},{"bike_id":"8b3677d2-ba45-46d5-8680-59b39c3c55a8","system_id":"levelo_inurba_marseille","lat":43.33734,"lon":5.37406,"is_reserved":false,"is_disabled":false,"rental_uris":{"android":"levelo://app?vid=8b3677d2-ba45-46d5-8680-59b39c3c55a8","ios":"levelo://app?vid=8b3677d2-ba45-46d5-8680-59b39c3c55a8"},"vehicle_type_id":"4","last_reported":1700406380,"current_range_meters":28000,"station_id":"","pricing_plan_id":"free"},{"bike_id":"07202f70-50d7-46f0-a5bd-59712659d6a0","system_id":"levelo_inurba_marseille","lat":43.31251,"lon":5.40162,"is_reserved":false,"is_disabled":false,"rental_uris":{"android":"levelo://app?vid=07202f70-50d7-46f0-a5bd-59712659d6a0","ios":"levelo://app?vid=07202f70-50d7-46f0-a5bd-59712659d6a0"},"vehicle_type_id":"4","last_reported":1700406380,"current_range_meters":10800,"station_id":"","pricing_plan_id":"free"},{"bike_id":"473d2011-ae75-4743-87c2-eb53e5b85a28","system_id":"levelo_inurba_marseille","lat":43.33759,"lon":5.37434,"is_reserved":false,"is_disabled":false,"rental_uris":{"android":"levelo://app?vid=473d2011-ae75-4743-87c2-eb53e5b85a28","ios":"levelo://app?vid=473d2011-ae75-4743-87c2-eb53e5b85a28"},"vehicle_type_id":"4","last_reported":1700406380,"current_range_meters":21200,"station_id":"","pricing_plan_id":"free"},{"bike_id":"46509513-12f0-4bae-91ab-3b5bb7ed22cf","system_id":"levelo_inurba_marseille","lat":43.337747,"lon":5.374271,"is_reserved":false,"is_disabled":false,"rental_uris":{"android":"levelo://app?vid=46509513-12f0-4bae-91ab-3b5bb7ed22cf","ios":"levelo://app?vid=46509513-12f0-4bae-91ab-3b5bb7ed22cf"},"vehicle_type_id":"4","last_reported":1700406380,"current_range_meters":18800,"station_id":"","pricing_plan_id":"free"},{"bike_id":"2e4b9085-0c1b-47a1-af82-9cedbeaad022","system_id":"levelo_inurba_marseille","lat":43.286961,"lon":5.373785,"is_reserved":false,"is_disabled":false,"rental_uris":{"android":"levelo://app?vid=2e4b9085-0c1b-47a1-af82-9cedbeaad022","ios":"levelo://app?vid=2e4b9085-0c1b-47a1-af82-9cedbeaad022"},"vehicle_type_id":"4","last_reported":1700406380,"current_range_meters":0,"station_id":"ce4bh3p2rcd13ifvqdq0","pricing_plan_id":"free"},{"bike_id":"9c876ccc-d196-4acf-87bb-df774ec7fde2","system_id":"levelo_inurba_marseille","lat":43.286039,"lon":5.370681,"is_reserved":false,"is_disabled":false,"rental_uris":{"android":"levelo://app?vid=9c876ccc-d196-4acf-87bb-df774ec7fde2","ios":"levelo://app?vid=9c876ccc-d196-4acf-87bb-df774ec7fde2"},"vehicle_type_id":"4","last_reported":1700406380,"current_range_meters":3600,"station_id":"ce4bht12rcd13ifvqi60","pricing_plan_id":"free"},{"bike_id":"8c0c682e-4644-4a1a-863a-e31dd41c9c83","system_id":"levelo_inurba_marseille","lat":43.28611,"lon":5.35103,"is_reserved":false,"is_disabled":false,"rental_uris":{"android":"levelo://app?vid=8c0c682e-4644-4a1a-863a-e31dd41c9c83","ios":"levelo://app?vid=8c0c682e-4644-4a1a-863a-e31dd41c9c83"},"vehicle_type_id":"4","last_reported":1700406380,"current_range_meters":0,"station_id":"ce4bhch2rcd13ifvqeug","pricing_plan_id":"free"},{"bike_id":"6a013dcf-263e-445b-a5c2-bd3277255968","system_id":"levelo_inurba_marseille","lat":43.283998,"lon":5.375062,"is_reserved":false,"is_disabled":false,"rental_uris":{"android":"levelo://app?vid=6a013dcf-263e-445b-a5c2-bd3277255968","ios":"levelo://app?vid=6a013dcf-263e-445b-a5c2-bd3277255968"},"vehicle_type_id":"4","last_reported":1700406380,"current_range_meters":2000,"station_id":"ce4bh412rcd13ifvqds0","pricing_plan_id":"free"},{"bike_id":"5974ad3b-da81-42ca-a08b-1b3632a47afa","system_id":"levelo_inurba_marseille","lat":43.33237,"lon":5.3985,"is_reserved":false,"is_disabled":false,"rental_uris":{"android":"levelo://app?vid=5974ad3b-da81-42ca-a08b-1b3632a47afa","ios":"levelo://app?vid=5974ad3b-da81-42ca-a08b-1b3632a47afa"},"vehicle_type_id":"4","last_reported":1700406380,"current_range_meters":1200,"station_id":"","pricing_plan_id":"free"},{"bike_id":"5fe79fc8-af2f-410f-9ba9-052895dbd201","system_id":"levelo_inurba_marseille","lat":43.288497,"lon":5.393089,"is_reserved":false,"is_disabled":false,"rental_uris":{"android":"levelo://app?vid=5fe79fc8-af2f-410f-9ba9-052895dbd201","ios":"levelo://app?vid=5fe79fc8-af2f-410f-9ba9-052895dbd201"},"vehicle_type_id":"4","last_reported":1700406380,"current_range_meters":0,"station_id":"ce4bh2p2rcd13ifvqdi0","pricing_plan_id":"free"},{"bike_id":"a4cdaaa1-f368-4407-bbc3-81d11e2d60b0","system_id":"levelo_inurba_marseille","lat":43.284219,"lon":5.3497,"is_reserved":false,"is_disabled":false,"rental_uris":{"android":"levelo://app?vid=a4cdaaa1-f368-4407-bbc3-81d11e2d60b0","ios":"levelo://app?vid=a4cdaaa1-f368-4407-bbc3-81d11e2d60b0"},"vehicle_type_id":"4","last_reported":1700406380,"current_range_meters":0,"station_id":"ce4bhbh2rcd13ifvqepg","pricing_plan_id":"free"},{"bike_id":"dd99d5bc-d4aa-4715-932d-b6bfa58164cb","system_id":"levelo_inurba_marseille","lat":43.282754,"lon":5.350519,"is_reserved":false,"is_disabled":false,"rental_uris":{"android":"levelo://app?vid=dd99d5bc-d4aa-4715-932d-b6bfa58164cb","ios":"levelo://app?vid=dd99d5bc-d4aa-4715-932d-b6bfa58164cb"},"vehicle_type_id":"4","last_reported":1700406380,"current_range_meters":6000,"station_id":"ce4bhbp2rcd13ifvqerg","pricing_plan_id":"free"},{"bike_id":"b0c60072-012e-41f2-bda9-923604ca7389","system_id":"levelo_inurba_marseille","lat":43.282754,"lon":5.350519,"is_reserved":false,"is_disabled":false,"rental_uris":{"android":"levelo://app?vid=b0c60072-012e-41f2-bda9-923604ca7389","ios":"levelo://app?vid=b0c60072-012e-41f2-bda9-923604ca7389"},"vehicle_type_id":"4","last_reported":1700406380,"current_range_meters":800,"station_id":"ce4bhbp2rcd13ifvqerg","pricing_plan_id":"free"},{"bike_id":"530e37a4-ffec-4294-968c-27a1f04ad03b","system_id":"levelo_inurba_marseille","lat":43.28039,"lon":5.369297,"is_reserved":false,"is_disabled":false,"rental_uris":{"android":"levelo://app?vid=530e37a4-ffec-4294-968c-27a1f04ad03b","ios":"levelo://app?vid=530e37a4-ffec-4294-968c-27a1f04ad03b"},"vehicle_type_id":"4","last_reported":1700406380,"current_range_meters":5200,"station_id":"ce4bha12rcd13ifvqef0","pricing_plan_id":"free"},{"bike_id":"9a9bbae4-4b9f-4a9d-9e52-5a431e8eadd4","system_id":"levelo_inurba_marseille","lat":43.296263,"lon":5.40601,"is_reserved":false,"is_disabled":false,"rental_uris":{"android":"levelo://app?vid=9a9bbae4-4b9f-4a9d-9e52-5a431e8eadd4","ios":"levelo://app?vid=9a9bbae4-4b9f-4a9d-9e52-5a431e8eadd4"},"vehicle_type_id":"4","last_reported":1700406380,"current_range_meters":4000,"station_id":"ce4bh0h2rcd13ifvqd60","pricing_plan_id":"free"},{"bike_id":"ac6ebf28-4159-4b5e-a7dd-ffcfff1eaaa9","system_id":"levelo_inurba_marseille","lat":43.28121,"lon":5.35161,"is_reserved":false,"is_disabled":false,"rental_uris":{"android":"levelo://app?vid=ac6ebf28-4159-4b5e-a7dd-ffcfff1eaaa9","ios":"levelo://app?vid=ac6ebf28-4159-4b5e-a7dd-ffcfff1eaaa9"},"vehicle_type_id":"4","last_reported":1700406380,"current_range_meters":0,"station_id":"","pricing_plan_id":"free"},{"bike_id":"ccf9b17e-2fb6-47d5-b5cb-73ea08fcb6e5","system_id":"levelo_inurba_marseille","lat":43.28575,"lon":5.39498,"is_reserved":false,"is_disabled":false,"rental_uris":{"android":"levelo://app?vid=ccf9b17e-2fb6-47d5-b5cb-73ea08fcb6e5","ios":"levelo://app?vid=ccf9b17e-2fb6-47d5-b5cb-73ea08fcb6e5"},"vehicle_type_id":"4","last_reported":1700406380,"current_range_meters":0,"station_id":"ce4bh292rcd13ifvqdg0","pricing_plan_id":"free"},{"bike_id":"a9792529-64ea-42f0-9280-9859c213b6e1","system_id":"levelo_inurba_marseille","lat":43.2796,"lon":5.38729,"is_reserved":false,"is_disabled":false,"rental_uris":{"android":"levelo://app?vid=a9792529-64ea-42f0-9280-9859c213b6e1","ios":"levelo://app?vid=a9792529-64ea-42f0-9280-9859c213b6e1"},"vehicle_type_id":"4","last_reported":1700406380,"current_range_meters":0,"station_id":"ce4bhg12rcd13ifvqf80","pricing_plan_id":"free"},{"bike_id":"8253567a-ee07-4738-9d9e-1512cc7919bd","system_id":"levelo_inurba_marseille","lat":43.2762,"lon":5.361065,"is_reserved":false,"is_disabled":false,"rental_uris":{"android":"levelo://app?vid=8253567a-ee07-4738-9d9e-1512cc7919bd","ios":"levelo://app?vid=8253567a-ee07-4738-9d9e-1512cc7919bd"},"vehicle_type_id":"4","last_reported":1700406380,"current_range_meters":0,"station_id":"ce4bgj92rcd13ifvqbe0","pricing_plan_id":"free"},{"bike_id":"5b121fc4-7279-41dc-9e3a-275c1896221a","system_id":"levelo_inurba_marseille","lat":43.27617,"lon":5.36109,"is_reserved":false,"is_disabled":false,"rental_uris":{"android":"levelo://app?vid=5b121fc4-7279-41dc-9e3a-275c1896221a","ios":"levelo://app?vid=5b121fc4-7279-41dc-9e3a-275c1896221a"},"vehicle_type_id":"4","last_reported":1700406380,"current_range_meters":0,"station_id":"ce4bgj92rcd13ifvqbe0","pricing_plan_id":"free"},{"bike_id":"e40d7b88-0ba4-4cb2-af11-6ae236e6486d","system_id":"levelo_inurba_marseille","lat":43.27615,"lon":5.36105,"is_reserved":false,"is_disabled":false,"rental_uris":{"android":"levelo://app?vid=e40d7b88-0ba4-4cb2-af11-6ae236e6486d","ios":"levelo://app?vid=e40d7b88-0ba4-4cb2-af11-6ae236e6486d"},"vehicle_type_id":"4","last_reported":1700406380,"current_range_meters":0,"station_id":"ce4bgj92rcd13ifvqbe0","pricing_plan_id":"free"},{"bike_id":"f8f5677d-f8b2-4ddb-837f-25c547c244b9","system_id":"levelo_inurba_marseille","lat":43.280784,"lon":5.396622,"is_reserved":false,"is_disabled":false,"rental_uris":{"android":"levelo://app?vid=f8f5677d-f8b2-4ddb-837f-25c547c244b9","ios":"levelo://app?vid=f8f5677d-f8b2-4ddb-837f-25c547c244b9"},"vehicle_type_id":"4","last_reported":1700406380,"current_range_meters":19200,"station_id":"ce4bho12rcd13ifvqh2g","pricing_plan_id":"free"},{"bike_id":"98ec235a-8015-4d0c-9650-1ca526e9d1f6","system_id":"levelo_inurba_marseille","lat":43.273613,"lon":5.362705,"is_reserved":false,"is_disabled":false,"rental_uris":{"android":"levelo://app?vid=98ec235a-8015-4d0c-9650-1ca526e9d1f6","ios":"levelo://app?vid=98ec235a-8015-4d0c-9650-1ca526e9d1f6"},"vehicle_type_id":"4","last_reported":1700406380,"current_range_meters":12800,"station_id":"ce4bhbh2rcd13ifvqeo0","pricing_plan_id":"free"},{"bike_id":"c7db7a37-0d24-494b-a8b9-e48e42504f9e","system_id":"levelo_inurba_marseille","lat":43.273781,"lon":5.362632,"is_reserved":false,"is_disabled":false,"rental_uris":{"android":"levelo://app?vid=c7db7a37-0d24-494b-a8b9-e48e42504f9e","ios":"levelo://app?vid=c7db7a37-0d24-494b-a8b9-e48e42504f9e"},"vehicle_type_id":"4","last_reported":1700406380,"current_range_meters":0,"station_id":"ce4bhbh2rcd13ifvqeo0","pricing_plan_id":"free"},{"bike_id":"cedb59db-8b89-40e7-8a9e-134285004ca6","system_id":"levelo_inurba_marseille","lat":43.273613,"lon":5.362705,"is_reserved":false,"is_disabled":false,"rental_uris":{"android":"levelo://app?vid=cedb59db-8b89-40e7-8a9e-134285004ca6","ios":"levelo://app?vid=cedb59db-8b89-40e7-8a9e-134285004ca6"},"vehicle_type_id":"4","last_reported":1700406380,"current_range_meters":0,"station_id":"ce4bhbh2rcd13ifvqeo0","pricing_plan_id":"free"},{"bike_id":"645a4bac-7d1b-4b4d-baac-e6e7309cb323","system_id":"levelo_inurba_marseille","lat":43.27374,"lon":5.36257,"is_reserved":false,"is_disabled":false,"rental_uris":{"android":"levelo://app?vid=645a4bac-7d1b-4b4d-baac-e6e7309cb323","ios":"levelo://app?vid=645a4bac-7d1b-4b4d-baac-e6e7309cb323"},"vehicle_type_id":"4","last_reported":1700406380,"current_range_meters":0,"station_id":"ce4bhbh2rcd13ifvqeo0","pricing_plan_id":"free"},{"bike_id":"26e38500-cf06-412c-84c9-f57ade123ddf","system_id":"levelo_inurba_marseille","lat":43.27998,"lon":5.40006,"is_reserved":false,"is_disabled":false,"rental_uris":{"android":"levelo://app?vid=26e38500-cf06-412c-84c9-f57ade123ddf","ios":"levelo://app?vid=26e38500-cf06-412c-84c9-f57ade123ddf"},"vehicle_type_id":"4","last_reported":1700406380,"current_range_meters":20800,"station_id":"ce4bho92rcd13ifvqh4g","pricing_plan_id":"free"},{"bike_id":"eafeb385-8734-4d6e-872f-817338dfdd8c","system_id":"levelo_inurba_marseille","lat":43.317121,"lon":5.423936,"is_reserved":false,"is_disabled":false,"rental_uris":{"android":"levelo://app?vid=eafeb385-8734-4d6e-872f-817338dfdd8c","ios":"levelo://app?vid=eafeb385-8734-4d6e-872f-817338dfdd8c"},"vehicle_type_id":"4","last_reported":1700406380,"current_range_meters":21200,"station_id":"ce4bhp92rcd13ifvqhbg","pricing_plan_id":"free"},{"bike_id":"5b576cc4-4596-4dca-9de9-0dcf3da99fc3","system_id":"levelo_inurba_marseille","lat":43.31081,"lon":5.42431,"is_reserved":false,"is_disabled":false,"rental_uris":{"android":"levelo://app?vid=5b576cc4-4596-4dca-9de9-0dcf3da99fc3","ios":"levelo://app?vid=5b576cc4-4596-4dca-9de9-0dcf3da99fc3"},"vehicle_type_id":"4","last_reported":1700406380,"current_range_meters":19200,"station_id":"ce4bhp92rcd13ifvqhag","pricing_plan_id":"free"},{"bike_id":"5d5cd13d-413c-444b-aa5e-fefb4b5b2bae","system_id":"levelo_inurba_marseille","lat":43.31083,"lon":5.42433,"is_reserved":false,"is_disabled":false,"rental_uris":{"android":"levelo://app?vid=5d5cd13d-413c-444b-aa5e-fefb4b5b2bae","ios":"levelo://app?vid=5d5cd13d-413c-444b-aa5e-fefb4b5b2bae"},"vehicle_type_id":"4","last_reported":1700406380,"current_range_meters":11600,"station_id":"ce4bhp92rcd13ifvqhag","pricing_plan_id":"free"},{"bike_id":"78f56ad8-7d3a-41e1-bb9f-cd1cc72b205e","system_id":"levelo_inurba_marseille","lat":43.274099,"lon":5.394019,"is_reserved":false,"is_disabled":false,"rental_uris":{"android":"levelo://app?vid=78f56ad8-7d3a-41e1-bb9f-cd1cc72b205e","ios":"levelo://app?vid=78f56ad8-7d3a-41e1-bb9f-cd1cc72b205e"},"vehicle_type_id":"4","last_reported":1700406380,"current_range_meters":0,"station_id":"ce4bhdp2rcd13ifvqf20","pricing_plan_id":"free"},{"bike_id":"c819743f-ec89-476d-aa01-3a96b725afb9","system_id":"levelo_inurba_marseille","lat":43.274103,"lon":5.394016,"is_reserved":false,"is_disabled":false,"rental_uris":{"android":"levelo://app?vid=c819743f-ec89-476d-aa01-3a96b725afb9","ios":"levelo://app?vid=c819743f-ec89-476d-aa01-3a96b725afb9"},"vehicle_type_id":"4","last_reported":1700406380,"current_range_meters":26000,"station_id":"ce4bhdp2rcd13ifvqf20","pricing_plan_id":"free"},{"bike_id":"f8f5619a-a183-461d-b100-453fb972fcd4","system_id":"levelo_inurba_marseille","lat":43.272118,"lon":5.391758,"is_reserved":false,"is_disabled":false,"rental_uris":{"android":"levelo://app?vid=f8f5619a-a183-461d-b100-453fb972fcd4","ios":"levelo://app?vid=f8f5619a-a183-461d-b100-453fb972fcd4"},"vehicle_type_id":"4","last_reported":1700406380,"current_range_meters":19600,"station_id":"ce4bhhp2rcd13ifvqfm0","pricing_plan_id":"free"},{"bike_id":"139753b1-0b83-4c3a-80f1-5052bac15461","system_id":"levelo_inurba_marseille","lat":43.272139,"lon":5.39265,"is_reserved":false,"is_disabled":false,"rental_uris":{"android":"levelo://app?vid=139753b1-0b83-4c3a-80f1-5052bac15461","ios":"levelo://app?vid=139753b1-0b83-4c3a-80f1-5052bac15461"},"vehicle_type_id":"4","last_reported":1700406380,"current_range_meters":7600,"station_id":"","pricing_plan_id":"free"},{"bike_id":"fe139271-7817-4645-9ec4-f7eee743e805","system_id":"levelo_inurba_marseille","lat":43.271896,"lon":5.392307,"is_reserved":false,"is_disabled":false,"rental_uris":{"android":"levelo://app?vid=fe139271-7817-4645-9ec4-f7eee743e805","ios":"levelo://app?vid=fe139271-7817-4645-9ec4-f7eee743e805"},"vehicle_type_id":"4","last_reported":1700406380,"current_range_meters":0,"station_id":"","pricing_plan_id":"free"},{"bike_id":"f0ed4531-078e-42fb-a007-3ed80505eb54","system_id":"levelo_inurba_marseille","lat":43.271891,"lon":5.392412,"is_reserved":false,"is_disabled":false,"rental_uris":{"android":"levelo://app?vid=f0ed4531-078e-42fb-a007-3ed80505eb54","ios":"levelo://app?vid=f0ed4531-078e-42fb-a007-3ed80505eb54"},"vehicle_type_id":"4","last_reported":1700406380,"current_range_meters":2800,"station_id":"","pricing_plan_id":"free"},{"bike_id":"8ad330dd-14f8-45a0-b59d-31f7f1e81caf","system_id":"levelo_inurba_marseille","lat":43.278128,"lon":5.407195,"is_reserved":false,"is_disabled":false,"rental_uris":{"android":"levelo://app?vid=8ad330dd-14f8-45a0-b59d-31f7f1e81caf","ios":"levelo://app?vid=8ad330dd-14f8-45a0-b59d-31f7f1e81caf"},"vehicle_type_id":"4","last_reported":1700406380,"current_range_meters":18400,"station_id":"ce4bhnh2rcd13ifvqgtg","pricing_plan_id":"free"},{"bike_id":"191cd360-0dbd-4e1c-a10c-26857d562985","system_id":"levelo_inurba_marseille","lat":43.269319,"lon":5.389397,"is_reserved":false,"is_disabled":false,"rental_uris":{"android":"levelo://app?vid=191cd360-0dbd-4e1c-a10c-26857d562985","ios":"levelo://app?vid=191cd360-0dbd-4e1c-a10c-26857d562985"},"vehicle_type_id":"4","last_reported":1700406380,"current_range_meters":13600,"station_id":"ce4bhhh2rcd13ifvqfl0","pricing_plan_id":"free"},{"bike_id":"a2ed702f-faf9-442c-9a25-709df918bf86","system_id":"levelo_inurba_marseille","lat":43.26549,"lon":5.37288,"is_reserved":false,"is_disabled":false,"rental_uris":{"android":"levelo://app?vid=a2ed702f-faf9-442c-9a25-709df918bf86","ios":"levelo://app?vid=a2ed702f-faf9-442c-9a25-709df918bf86"},"vehicle_type_id":"4","last_reported":1700406380,"current_range_meters":0,"station_id":"ce4bhg12rcd13ifvqf70","pricing_plan_id":"free"},{"bike_id":"35acf9fd-dac7-4fda-a9be-cf4c667a7088","system_id":"levelo_inurba_marseille","lat":43.26546,"lon":5.37289,"is_reserved":false,"is_disabled":false,"rental_uris":{"android":"levelo://app?vid=35acf9fd-dac7-4fda-a9be-cf4c667a7088","ios":"levelo://app?vid=35acf9fd-dac7-4fda-a9be-cf4c667a7088"},"vehicle_type_id":"4","last_reported":1700406380,"current_range_meters":3200,"station_id":"ce4bhg12rcd13ifvqf70","pricing_plan_id":"free"},{"bike_id":"42871d3b-8c03-490f-baf1-f4b57c44a331","system_id":"levelo_inurba_marseille","lat":43.326485,"lon":5.429512,"is_reserved":false,"is_disabled":false,"rental_uris":{"android":"levelo://app?vid=42871d3b-8c03-490f-baf1-f4b57c44a331","ios":"levelo://app?vid=42871d3b-8c03-490f-baf1-f4b57c44a331"},"vehicle_type_id":"4","last_reported":1700406380,"current_range_meters":17200,"station_id":"","pricing_plan_id":"free"},{"bike_id":"c7758cb2-2a45-4f89-aa5c-0e391d845c76","system_id":"levelo_inurba_marseille","lat":43.326053,"lon":5.429943,"is_reserved":false,"is_disabled":false,"rental_uris":{"android":"levelo://app?vid=c7758cb2-2a45-4f89-aa5c-0e391d845c76","ios":"levelo://app?vid=c7758cb2-2a45-4f89-aa5c-0e391d845c76"},"vehicle_type_id":"4","last_reported":1700406380,"current_range_meters":0,"station_id":"","pricing_plan_id":"free"},{"bike_id":"4c1f1500-13e3-4d11-b310-4714c70a807c","system_id":"levelo_inurba_marseille","lat":43.27996,"lon":5.416624,"is_reserved":false,"is_disabled":false,"rental_uris":{"android":"levelo://app?vid=4c1f1500-13e3-4d11-b310-4714c70a807c","ios":"levelo://app?vid=4c1f1500-13e3-4d11-b310-4714c70a807c"},"vehicle_type_id":"4","last_reported":1700406380,"current_range_meters":6000,"station_id":"ce4bho12rcd13ifvqh1g","pricing_plan_id":"free"},{"bike_id":"6bff4ab8-6a66-4ee0-a4da-43ae68d65ec0","system_id":"levelo_inurba_marseille","lat":43.267966,"lon":5.393976,"is_reserved":false,"is_disabled":false,"rental_uris":{"android":"levelo://app?vid=6bff4ab8-6a66-4ee0-a4da-43ae68d65ec0","ios":"levelo://app?vid=6bff4ab8-6a66-4ee0-a4da-43ae68d65ec0"},"vehicle_type_id":"4","last_reported":1700406380,"current_range_meters":3200,"station_id":"ce4bhh12rcd13ifvqfg0","pricing_plan_id":"free"},{"bike_id":"341d23e5-047b-40b1-91c6-9dd0a2d82540","system_id":"levelo_inurba_marseille","lat":43.267966,"lon":5.393976,"is_reserved":false,"is_disabled":false,"rental_uris":{"android":"levelo://app?vid=341d23e5-047b-40b1-91c6-9dd0a2d82540","ios":"levelo://app?vid=341d23e5-047b-40b1-91c6-9dd0a2d82540"},"vehicle_type_id":"4","last_reported":1700406380,"current_range_meters":2000,"station_id":"ce4bhh12rcd13ifvqfg0","pricing_plan_id":"free"},{"bike_id":"87be04d4-b68d-4ca4-bc75-5865077b920f","system_id":"levelo_inurba_marseille","lat":43.28853,"lon":5.426336,"is_reserved":false,"is_disabled":false,"rental_uris":{"android":"levelo://app?vid=87be04d4-b68d-4ca4-bc75-5865077b920f","ios":"levelo://app?vid=87be04d4-b68d-4ca4-bc75-5865077b920f"},"vehicle_type_id":"4","last_reported":1700406380,"current_range_meters":2400,"station_id":"","pricing_plan_id":"free"},{"bike_id":"f7fbcf96-85d5-481b-bec9-968b3ef5bdaf","system_id":"levelo_inurba_marseille","lat":43.307994,"lon":5.435147,"is_reserved":false,"is_disabled":false,"rental_uris":{"android":"levelo://app?vid=f7fbcf96-85d5-481b-bec9-968b3ef5bdaf","ios":"levelo://app?vid=f7fbcf96-85d5-481b-bec9-968b3ef5bdaf"},"vehicle_type_id":"4","last_reported":1700406380,"current_range_meters":0,"station_id":"ce4bhph2rcd13ifvqheg","pricing_plan_id":"free"},{"bike_id":"36d79e60-c158-4d57-b09a-f859d7b09e04","system_id":"levelo_inurba_marseille","lat":43.26567,"lon":5.39038,"is_reserved":false,"is_disabled":false,"rental_uris":{"android":"levelo://app?vid=36d79e60-c158-4d57-b09a-f859d7b09e04","ios":"levelo://app?vid=36d79e60-c158-4d57-b09a-f859d7b09e04"},"vehicle_type_id":"4","last_reported":1700406380,"current_range_meters":31200,"station_id":"ce4bhe12rcd13ifvqf30","pricing_plan_id":"free"},{"bike_id":"f1652e3f-c477-413b-a9b7-b30d047c7518","system_id":"levelo_inurba_marseille","lat":43.26186,"lon":5.37443,"is_reserved":false,"is_disabled":false,"rental_uris":{"android":"levelo://app?vid=f1652e3f-c477-413b-a9b7-b30d047c7518","ios":"levelo://app?vid=f1652e3f-c477-413b-a9b7-b30d047c7518"},"vehicle_type_id":"4","last_reported":1700406380,"current_range_meters":0,"station_id":"ce4bhgp2rcd13ifvqfc0","pricing_plan_id":"free"},{"bike_id":"41746913-3e46-445f-803b-3f5dad854482","system_id":"levelo_inurba_marseille","lat":43.261782,"lon":5.374515,"is_reserved":false,"is_disabled":false,"rental_uris":{"android":"levelo://app?vid=41746913-3e46-445f-803b-3f5dad854482","ios":"levelo://app?vid=41746913-3e46-445f-803b-3f5dad854482"},"vehicle_type_id":"4","last_reported":1700406380,"current_range_meters":0,"station_id":"ce4bhgp2rcd13ifvqfc0","pricing_plan_id":"free"},{"bike_id":"1941c125-4653-4a9f-94a6-3c250ce612bb","system_id":"levelo_inurba_marseille","lat":43.271368,"lon":5.40928,"is_reserved":false,"is_disabled":false,"rental_uris":{"android":"levelo://app?vid=1941c125-4653-4a9f-94a6-3c250ce612bb","ios":"levelo://app?vid=1941c125-4653-4a9f-94a6-3c250ce612bb"},"vehicle_type_id":"4","last_reported":1700406380,"current_range_meters":2800,"station_id":"ce4bhl12rcd13ifvqgf0","pricing_plan_id":"free"},{"bike_id":"09771bf2-e7b6-4ee5-93e1-1d2ef33de5b2","system_id":"levelo_inurba_marseille","lat":43.271388,"lon":5.409269,"is_reserved":false,"is_disabled":false,"rental_uris":{"android":"levelo://app?vid=09771bf2-e7b6-4ee5-93e1-1d2ef33de5b2","ios":"levelo://app?vid=09771bf2-e7b6-4ee5-93e1-1d2ef33de5b2"},"vehicle_type_id":"4","last_reported":1700406380,"current_range_meters":3200,"station_id":"ce4bhl12rcd13ifvqgf0","pricing_plan_id":"free"},{"bike_id":"1cc30e50-b449-4923-a454-badc286e2d15","system_id":"levelo_inurba_marseille","lat":43.271368,"lon":5.40928,"is_reserved":false,"is_disabled":false,"rental_uris":{"android":"levelo://app?vid=1cc30e50-b449-4923-a454-badc286e2d15","ios":"levelo://app?vid=1cc30e50-b449-4923-a454-badc286e2d15"},"vehicle_type_id":"4","last_reported":1700406380,"current_range_meters":7200,"station_id":"ce4bhl12rcd13ifvqgf0","pricing_plan_id":"free"},{"bike_id":"74ce853b-0d8b-42c9-81c8-17a7564a4b34","system_id":"levelo_inurba_marseille","lat":43.31725,"lon":5.43786,"is_reserved":false,"is_disabled":false,"rental_uris":{"android":"levelo://app?vid=74ce853b-0d8b-42c9-81c8-17a7564a4b34","ios":"levelo://app?vid=74ce853b-0d8b-42c9-81c8-17a7564a4b34"},"vehicle_type_id":"4","last_reported":1700406380,"current_range_meters":14400,"station_id":"","pricing_plan_id":"free"},{"bike_id":"4c9dfa74-e3ff-4854-86dc-b5aec67af29a","system_id":"levelo_inurba_marseille","lat":43.28153,"lon":5.42645,"is_reserved":false,"is_disabled":false,"rental_uris":{"android":"levelo://app?vid=4c9dfa74-e3ff-4854-86dc-b5aec67af29a","ios":"levelo://app?vid=4c9dfa74-e3ff-4854-86dc-b5aec67af29a"},"vehicle_type_id":"4","last_reported":1700406380,"current_range_meters":2400,"station_id":"ce4bhnh2rcd13ifvqgug","pricing_plan_id":"free"},{"bike_id":"0db002b5-dbbf-453b-8ea4-13f11976d873","system_id":"levelo_inurba_marseille","lat":43.272116,"lon":5.391747,"is_reserved":false,"is_disabled":false,"rental_uris":{"android":"levelo://app?vid=0db002b5-dbbf-453b-8ea4-13f11976d873","ios":"levelo://app?vid=0db002b5-dbbf-453b-8ea4-13f11976d873"},"vehicle_type_id":"4","last_reported":1700406380,"current_range_meters":7600,"station_id":"ce4bhhp2rcd13ifvqfm0","pricing_plan_id":"free"},{"bike_id":"5f153f02-c4c9-456b-aa48-aeca587f3139","system_id":"levelo_inurba_marseille","lat":43.25871,"lon":5.38821,"is_reserved":false,"is_disabled":false,"rental_uris":{"android":"levelo://app?vid=5f153f02-c4c9-456b-aa48-aeca587f3139","ios":"levelo://app?vid=5f153f02-c4c9-456b-aa48-aeca587f3139"},"vehicle_type_id":"4","last_reported":1700406380,"current_range_meters":16800,"station_id":"","pricing_plan_id":"free"},{"bike_id":"ca704bdd-8f1c-421d-a0f1-a1ab605ff75b","system_id":"levelo_inurba_marseille","lat":43.275028,"lon":5.424534,"is_reserved":false,"is_disabled":false,"rental_uris":{"android":"levelo://app?vid=ca704bdd-8f1c-421d-a0f1-a1ab605ff75b","ios":"levelo://app?vid=ca704bdd-8f1c-421d-a0f1-a1ab605ff75b"},"vehicle_type_id":"4","last_reported":1700406380,"current_range_meters":800,"station_id":"ce4bhn92rcd13ifvqgrg","pricing_plan_id":"free"},{"bike_id":"7ac78373-70d4-4d5c-aec0-7e21f9c377ce","system_id":"levelo_inurba_marseille","lat":43.258224,"lon":5.394369,"is_reserved":false,"is_disabled":false,"rental_uris":{"android":"levelo://app?vid=7ac78373-70d4-4d5c-aec0-7e21f9c377ce","ios":"levelo://app?vid=7ac78373-70d4-4d5c-aec0-7e21f9c377ce"},"vehicle_type_id":"4","last_reported":1700406380,"current_range_meters":28400,"station_id":"ce4bhip2rcd13ifvqft0","pricing_plan_id":"free"},{"bike_id":"96bed544-f51c-454b-95ea-d0c9d720ed9d","system_id":"levelo_inurba_marseille","lat":43.258224,"lon":5.394369,"is_reserved":false,"is_disabled":false,"rental_uris":{"android":"levelo://app?vid=96bed544-f51c-454b-95ea-d0c9d720ed9d","ios":"levelo://app?vid=96bed544-f51c-454b-95ea-d0c9d720ed9d"},"vehicle_type_id":"4","last_reported":1700406380,"current_range_meters":13200,"station_id":"ce4bhip2rcd13ifvqft0","pricing_plan_id":"free"},{"bike_id":"bd69f311-ac3d-4b1a-ac34-c25de71c4825","system_id":"levelo_inurba_marseille","lat":43.25488,"lon":5.37647,"is_reserved":false,"is_disabled":false,"rental_uris":{"android":"levelo://app?vid=bd69f311-ac3d-4b1a-ac34-c25de71c4825","ios":"levelo://app?vid=bd69f311-ac3d-4b1a-ac34-c25de71c4825"},"vehicle_type_id":"4","last_reported":1700406380,"current_range_meters":0,"station_id":"ce4bhh12rcd13ifvqff0","pricing_plan_id":"free"},{"bike_id":"8c033876-6d32-4f46-87df-9c151f5561f4","system_id":"levelo_inurba_marseille","lat":43.270721,"lon":5.422764,"is_reserved":false,"is_disabled":false,"rental_uris":{"android":"levelo://app?vid=8c033876-6d32-4f46-87df-9c151f5561f4","ios":"levelo://app?vid=8c033876-6d32-4f46-87df-9c151f5561f4"},"vehicle_type_id":"4","last_reported":1700406380,"current_range_meters":8000,"station_id":"ce4bhk92rcd13ifvqgb0","pricing_plan_id":"free"},{"bike_id":"653a93dc-fdc8-45b7-9661-c0469e70ba2a","system_id":"levelo_inurba_marseille","lat":43.25931,"lon":5.40909,"is_reserved":false,"is_disabled":false,"rental_uris":{"android":"levelo://app?vid=653a93dc-fdc8-45b7-9661-c0469e70ba2a","ios":"levelo://app?vid=653a93dc-fdc8-45b7-9661-c0469e70ba2a"},"vehicle_type_id":"4","last_reported":1700406380,"current_range_meters":0,"station_id":"ce4bhm92rcd13ifvqglg","pricing_plan_id":"free"},{"bike_id":"5a32fc91-4767-4428-887a-72bf22c47925","system_id":"levelo_inurba_marseille","lat":43.25009,"lon":5.38917,"is_reserved":false,"is_disabled":false,"rental_uris":{"android":"levelo://app?vid=5a32fc91-4767-4428-887a-72bf22c47925","ios":"levelo://app?vid=5a32fc91-4767-4428-887a-72bf22c47925"},"vehicle_type_id":"4","last_reported":1700406380,"current_range_meters":4000,"station_id":"ce4bhgp2rcd13ifvqfd0","pricing_plan_id":"free"},{"bike_id":"73590e3b-4896-4010-bd66-41bcd64c0dc7","system_id":"levelo_inurba_marseille","lat":43.246467,"lon":5.388984,"is_reserved":false,"is_disabled":false,"rental_uris":{"android":"levelo://app?vid=73590e3b-4896-4010-bd66-41bcd64c0dc7","ios":"levelo://app?vid=73590e3b-4896-4010-bd66-41bcd64c0dc7"},"vehicle_type_id":"4","last_reported":1700406380,"current_range_meters":26400,"station_id":"ce4bhg12rcd13ifvqf60","pricing_plan_id":"free"},{"bike_id":"24f5a24f-f2a2-4b56-885f-933132e78223","system_id":"levelo_inurba_marseille","lat":43.239588,"lon":5.366238,"is_reserved":false,"is_disabled":false,"rental_uris":{"android":"levelo://app?vid=24f5a24f-f2a2-4b56-885f-933132e78223","ios":"levelo://app?vid=24f5a24f-f2a2-4b56-885f-933132e78223"},"vehicle_type_id":"4","last_reported":1700406380,"current_range_meters":11600,"station_id":"ce4bhi12rcd13ifvqfp0","pricing_plan_id":"free"},{"bike_id":"89541b3d-d1df-43de-9c02-5700c9cb5ec1","system_id":"levelo_inurba_marseille","lat":43.239588,"lon":5.366238,"is_reserved":false,"is_disabled":false,"rental_uris":{"android":"levelo://app?vid=89541b3d-d1df-43de-9c02-5700c9cb5ec1","ios":"levelo://app?vid=89541b3d-d1df-43de-9c02-5700c9cb5ec1"},"vehicle_type_id":"4","last_reported":1700406380,"current_range_meters":17200,"station_id":"ce4bhi12rcd13ifvqfp0","pricing_plan_id":"free"},{"bike_id":"bd96c6cd-2962-4f7f-89b7-bb4fea6ff9d9","system_id":"levelo_inurba_marseille","lat":43.2396,"lon":5.36631,"is_reserved":false,"is_disabled":false,"rental_uris":{"android":"levelo://app?vid=bd96c6cd-2962-4f7f-89b7-bb4fea6ff9d9","ios":"levelo://app?vid=bd96c6cd-2962-4f7f-89b7-bb4fea6ff9d9"},"vehicle_type_id":"4","last_reported":1700406380,"current_range_meters":0,"station_id":"ce4bhi12rcd13ifvqfp0","pricing_plan_id":"free"},{"bike_id":"4370869b-0c59-4e1b-b4c7-59bf3a7bc50e","system_id":"levelo_inurba_marseille","lat":43.24176,"lon":5.39726,"is_reserved":false,"is_disabled":false,"rental_uris":{"android":"levelo://app?vid=4370869b-0c59-4e1b-b4c7-59bf3a7bc50e","ios":"levelo://app?vid=4370869b-0c59-4e1b-b4c7-59bf3a7bc50e"},"vehicle_type_id":"4","last_reported":1700406380,"current_range_meters":12800,"station_id":"ce4bhn12rcd13ifvqgpg","pricing_plan_id":"free"},{"bike_id":"9c0d77bd-3dbd-475c-a364-7b66f096a80e","system_id":"levelo_inurba_marseille","lat":43.231923,"lon":5.355545,"is_reserved":false,"is_disabled":false,"rental_uris":{"android":"levelo://app?vid=9c0d77bd-3dbd-475c-a364-7b66f096a80e","ios":"levelo://app?vid=9c0d77bd-3dbd-475c-a364-7b66f096a80e"},"vehicle_type_id":"4","last_reported":1700406380,"current_range_meters":30400,"station_id":"ce4bhu92rcd13ifvqi70","pricing_plan_id":"free"},{"bike_id":"ffa9bbb0-2049-48dc-9860-c3476c934f4b","system_id":"levelo_inurba_marseille","lat":43.231923,"lon":5.355545,"is_reserved":false,"is_disabled":false,"rental_uris":{"android":"levelo://app?vid=ffa9bbb0-2049-48dc-9860-c3476c934f4b","ios":"levelo://app?vid=ffa9bbb0-2049-48dc-9860-c3476c934f4b"},"vehicle_type_id":"4","last_reported":1700406380,"current_range_meters":16800,"station_id":"ce4bhu92rcd13ifvqi70","pricing_plan_id":"free"},{"bike_id":"662f058d-46b1-4787-b52a-d29e98a28779","system_id":"levelo_inurba_marseille","lat":43.231919,"lon":5.355532,"is_reserved":false,"is_disabled":false,"rental_uris":{"android":"levelo://app?vid=662f058d-46b1-4787-b52a-d29e98a28779","ios":"levelo://app?vid=662f058d-46b1-4787-b52a-d29e98a28779"},"vehicle_type_id":"4","last_reported":1700406380,"current_range_meters":31600,"station_id":"ce4bhu92rcd13ifvqi70","pricing_plan_id":"free"},{"bike_id":"efe9f44b-467d-42d3-8df0-08df4fdbb017","system_id":"levelo_inurba_marseille","lat":43.231923,"lon":5.355545,"is_reserved":false,"is_disabled":false,"rental_uris":{"android":"levelo://app?vid=efe9f44b-467d-42d3-8df0-08df4fdbb017","ios":"levelo://app?vid=efe9f44b-467d-42d3-8df0-08df4fdbb017"},"vehicle_type_id":"4","last_reported":1700406380,"current_range_meters":24000,"station_id":"ce4bhu92rcd13ifvqi70","pricing_plan_id":"free"},{"bike_id":"d8457044-e11e-4159-85e8-e12c29610982","system_id":"levelo_inurba_marseille","lat":43.231919,"lon":5.355532,"is_reserved":false,"is_disabled":false,"rental_uris":{"android":"levelo://app?vid=d8457044-e11e-4159-85e8-e12c29610982","ios":"levelo://app?vid=d8457044-e11e-4159-85e8-e12c29610982"},"vehicle_type_id":"4","last_reported":1700406380,"current_range_meters":10800,"station_id":"ce4bhu92rcd13ifvqi70","pricing_plan_id":"free"},{"bike_id":"b3f28fa0-47fb-43fd-82e6-2a2ef1ac5db0","system_id":"levelo_inurba_marseille","lat":43.231923,"lon":5.355545,"is_reserved":false,"is_disabled":false,"rental_uris":{"android":"levelo://app?vid=b3f28fa0-47fb-43fd-82e6-2a2ef1ac5db0","ios":"levelo://app?vid=b3f28fa0-47fb-43fd-82e6-2a2ef1ac5db0"},"vehicle_type_id":"4","last_reported":1700406380,"current_range_meters":21600,"station_id":"ce4bhu92rcd13ifvqi70","pricing_plan_id":"free"},{"bike_id":"8455f21a-e0e1-4873-89da-72b3d3b154e0","system_id":"levelo_inurba_marseille","lat":43.231919,"lon":5.355532,"is_reserved":false,"is_disabled":false,"rental_uris":{"android":"levelo://app?vid=8455f21a-e0e1-4873-89da-72b3d3b154e0","ios":"levelo://app?vid=8455f21a-e0e1-4873-89da-72b3d3b154e0"},"vehicle_type_id":"4","last_reported":1700406380,"current_range_meters":31600,"station_id":"ce4bhu92rcd13ifvqi70","pricing_plan_id":"free"},{"bike_id":"4fc7e59d-8508-422c-8560-7d42e117611d","system_id":"levelo_inurba_marseille","lat":43.231919,"lon":5.355532,"is_reserved":false,"is_disabled":false,"rental_uris":{"android":"levelo://app?vid=4fc7e59d-8508-422c-8560-7d42e117611d","ios":"levelo://app?vid=4fc7e59d-8508-422c-8560-7d42e117611d"},"vehicle_type_id":"4","last_reported":1700406380,"current_range_meters":31600,"station_id":"ce4bhu92rcd13ifvqi70","pricing_plan_id":"free"},{"bike_id":"b3730eeb-fdb7-4457-ac3f-ab57cfebfbc2","system_id":"levelo_inurba_marseille","lat":43.23194,"lon":5.3556,"is_reserved":false,"is_disabled":false,"rental_uris":{"android":"levelo://app?vid=b3730eeb-fdb7-4457-ac3f-ab57cfebfbc2","ios":"levelo://app?vid=b3730eeb-fdb7-4457-ac3f-ab57cfebfbc2"},"vehicle_type_id":"4","last_reported":1700406380,"current_range_meters":30400,"station_id":"ce4bhu92rcd13ifvqi70","pricing_plan_id":"free"},{"bike_id":"da9c9aea-c3bc-4a71-a581-942883b36e7a","system_id":"levelo_inurba_marseille","lat":43.231923,"lon":5.355545,"is_reserved":false,"is_disabled":false,"rental_uris":{"android":"levelo://app?vid=da9c9aea-c3bc-4a71-a581-942883b36e7a","ios":"levelo://app?vid=da9c9aea-c3bc-4a71-a581-942883b36e7a"},"vehicle_type_id":"4","last_reported":1700406380,"current_range_meters":20800,"station_id":"ce4bhu92rcd13ifvqi70","pricing_plan_id":"free"},{"bike_id":"daad233b-0264-43a8-b867-7474bc882b3b","system_id":"levelo_inurba_marseille","lat":43.231919,"lon":5.355532,"is_reserved":false,"is_disabled":false,"rental_uris":{"android":"levelo://app?vid=daad233b-0264-43a8-b867-7474bc882b3b","ios":"levelo://app?vid=daad233b-0264-43a8-b867-7474bc882b3b"},"vehicle_type_id":"4","last_reported":1700406380,"current_range_meters":23600,"station_id":"ce4bhu92rcd13ifvqi70","pricing_plan_id":"free"},{"bike_id":"dbfb4ce1-b733-4395-b31f-9c7b7abdcf84","system_id":"levelo_inurba_marseille","lat":43.231937,"lon":5.355557,"is_reserved":false,"is_disabled":false,"rental_uris":{"android":"levelo://app?vid=dbfb4ce1-b733-4395-b31f-9c7b7abdcf84","ios":"levelo://app?vid=dbfb4ce1-b733-4395-b31f-9c7b7abdcf84"},"vehicle_type_id":"4","last_reported":1700406380,"current_range_meters":31200,"station_id":"ce4bhu92rcd13ifvqi70","pricing_plan_id":"free"},{"bike_id":"d66f08d8-b6e5-4ad9-be4a-5cd3998403dc","system_id":"levelo_inurba_marseille","lat":43.231919,"lon":5.355532,"is_reserved":false,"is_disabled":false,"rental_uris":{"android":"levelo://app?vid=d66f08d8-b6e5-4ad9-be4a-5cd3998403dc","ios":"levelo://app?vid=d66f08d8-b6e5-4ad9-be4a-5cd3998403dc"},"vehicle_type_id":"4","last_reported":1700406380,"current_range_meters":14000,"station_id":"ce4bhu92rcd13ifvqi70","pricing_plan_id":"free"},{"bike_id":"e3280b92-b5af-49b8-8f8b-4fb8058a093d","system_id":"levelo_inurba_marseille","lat":43.231923,"lon":5.355545,"is_reserved":false,"is_disabled":false,"rental_uris":{"android":"levelo://app?vid=e3280b92-b5af-49b8-8f8b-4fb8058a093d","ios":"levelo://app?vid=e3280b92-b5af-49b8-8f8b-4fb8058a093d"},"vehicle_type_id":"4","last_reported":1700406380,"current_range_meters":31600,"station_id":"ce4bhu92rcd13ifvqi70","pricing_plan_id":"free"},{"bike_id":"fde866f3-6c9f-4f69-b32c-c4f485189e86","system_id":"levelo_inurba_marseille","lat":43.231923,"lon":5.355545,"is_reserved":false,"is_disabled":false,"rental_uris":{"android":"levelo://app?vid=fde866f3-6c9f-4f69-b32c-c4f485189e86","ios":"levelo://app?vid=fde866f3-6c9f-4f69-b32c-c4f485189e86"},"vehicle_type_id":"4","last_reported":1700406380,"current_range_meters":1200,"station_id":"ce4bhu92rcd13ifvqi70","pricing_plan_id":"free"},{"bike_id":"7a52b81c-52a8-4776-8fd1-69fdad3dee5e","system_id":"levelo_inurba_marseille","lat":43.231923,"lon":5.355545,"is_reserved":false,"is_disabled":false,"rental_uris":{"android":"levelo://app?vid=7a52b81c-52a8-4776-8fd1-69fdad3dee5e","ios":"levelo://app?vid=7a52b81c-52a8-4776-8fd1-69fdad3dee5e"},"vehicle_type_id":"4","last_reported":1700406380,"current_range_meters":30800,"station_id":"ce4bhu92rcd13ifvqi70","pricing_plan_id":"free"},{"bike_id":"6f9c6135-4182-4dda-937a-c52b38c2d1f6","system_id":"levelo_inurba_marseille","lat":43.231923,"lon":5.355545,"is_reserved":false,"is_disabled":false,"rental_uris":{"android":"levelo://app?vid=6f9c6135-4182-4dda-937a-c52b38c2d1f6","ios":"levelo://app?vid=6f9c6135-4182-4dda-937a-c52b38c2d1f6"},"vehicle_type_id":"4","last_reported":1700406380,"current_range_meters":5600,"station_id":"ce4bhu92rcd13ifvqi70","pricing_plan_id":"free"},{"bike_id":"d4b8beac-e21d-4a32-bc13-6a5c65e2b33e","system_id":"levelo_inurba_marseille","lat":43.231923,"lon":5.355545,"is_reserved":false,"is_disabled":false,"rental_uris":{"android":"levelo://app?vid=d4b8beac-e21d-4a32-bc13-6a5c65e2b33e","ios":"levelo://app?vid=d4b8beac-e21d-4a32-bc13-6a5c65e2b33e"},"vehicle_type_id":"4","last_reported":1700406380,"current_range_meters":31600,"station_id":"ce4bhu92rcd13ifvqi70","pricing_plan_id":"free"},{"bike_id":"8fe04714-104f-4348-b012-905fab24e301","system_id":"levelo_inurba_marseille","lat":43.2319,"lon":5.35559,"is_reserved":false,"is_disabled":false,"rental_uris":{"android":"levelo://app?vid=8fe04714-104f-4348-b012-905fab24e301","ios":"levelo://app?vid=8fe04714-104f-4348-b012-905fab24e301"},"vehicle_type_id":"4","last_reported":1700406380,"current_range_meters":31200,"station_id":"ce4bhu92rcd13ifvqi70","pricing_plan_id":"free"},{"bike_id":"37416442-308e-4dea-bd51-2ca12166bbc7","system_id":"levelo_inurba_marseille","lat":43.231923,"lon":5.355545,"is_reserved":false,"is_disabled":false,"rental_uris":{"android":"levelo://app?vid=37416442-308e-4dea-bd51-2ca12166bbc7","ios":"levelo://app?vid=37416442-308e-4dea-bd51-2ca12166bbc7"},"vehicle_type_id":"4","last_reported":1700406380,"current_range_meters":24400,"station_id":"ce4bhu92rcd13ifvqi70","pricing_plan_id":"free"},{"bike_id":"d9fd4f8d-322c-45fe-b651-4a9394dd3741","system_id":"levelo_inurba_marseille","lat":43.231923,"lon":5.355545,"is_reserved":false,"is_disabled":false,"rental_uris":{"android":"levelo://app?vid=d9fd4f8d-322c-45fe-b651-4a9394dd3741","ios":"levelo://app?vid=d9fd4f8d-322c-45fe-b651-4a9394dd3741"},"vehicle_type_id":"4","last_reported":1700406380,"current_range_meters":30800,"station_id":"ce4bhu92rcd13ifvqi70","pricing_plan_id":"free"},{"bike_id":"8a62ccf4-93c4-408c-8efe-bc9afcdd6a80","system_id":"levelo_inurba_marseille","lat":43.231923,"lon":5.355545,"is_reserved":false,"is_disabled":false,"rental_uris":{"android":"levelo://app?vid=8a62ccf4-93c4-408c-8efe-bc9afcdd6a80","ios":"levelo://app?vid=8a62ccf4-93c4-408c-8efe-bc9afcdd6a80"},"vehicle_type_id":"4","last_reported":1700406380,"current_range_meters":25200,"station_id":"ce4bhu92rcd13ifvqi70","pricing_plan_id":"free"},{"bike_id":"ec62c682-abfa-481a-bb37-e702a24bba76","system_id":"levelo_inurba_marseille","lat":43.231923,"lon":5.355545,"is_reserved":false,"is_disabled":false,"rental_uris":{"android":"levelo://app?vid=ec62c682-abfa-481a-bb37-e702a24bba76","ios":"levelo://app?vid=ec62c682-abfa-481a-bb37-e702a24bba76"},"vehicle_type_id":"4","last_reported":1700406380,"current_range_meters":17200,"station_id":"ce4bhu92rcd13ifvqi70","pricing_plan_id":"free"},{"bike_id":"e90e6dbe-4103-4584-a33a-a878da9cf267","system_id":"levelo_inurba_marseille","lat":43.231923,"lon":5.355545,"is_reserved":false,"is_disabled":false,"rental_uris":{"android":"levelo://app?vid=e90e6dbe-4103-4584-a33a-a878da9cf267","ios":"levelo://app?vid=e90e6dbe-4103-4584-a33a-a878da9cf267"},"vehicle_type_id":"4","last_reported":1700406380,"current_range_meters":23200,"station_id":"ce4bhu92rcd13ifvqi70","pricing_plan_id":"free"},{"bike_id":"73825668-897d-4ba7-8138-a1757218e46a","system_id":"levelo_inurba_marseille","lat":43.231923,"lon":5.355545,"is_reserved":false,"is_disabled":false,"rental_uris":{"android":"levelo://app?vid=73825668-897d-4ba7-8138-a1757218e46a","ios":"levelo://app?vid=73825668-897d-4ba7-8138-a1757218e46a"},"vehicle_type_id":"4","last_reported":1700406380,"current_range_meters":21200,"station_id":"ce4bhu92rcd13ifvqi70","pricing_plan_id":"free"},{"bike_id":"18a2742a-f4bf-49a9-9e2a-88eea5110e55","system_id":"levelo_inurba_marseille","lat":43.231923,"lon":5.355545,"is_reserved":false,"is_disabled":false,"rental_uris":{"android":"levelo://app?vid=18a2742a-f4bf-49a9-9e2a-88eea5110e55","ios":"levelo://app?vid=18a2742a-f4bf-49a9-9e2a-88eea5110e55"},"vehicle_type_id":"4","last_reported":1700406380,"current_range_meters":28400,"station_id":"ce4bhu92rcd13ifvqi70","pricing_plan_id":"free"},{"bike_id":"adac1971-5e73-41e6-9ade-b5ded0f026e7","system_id":"levelo_inurba_marseille","lat":43.231793,"lon":5.400044,"is_reserved":false,"is_disabled":false,"rental_uris":{"android":"levelo://app?vid=adac1971-5e73-41e6-9ade-b5ded0f026e7","ios":"levelo://app?vid=adac1971-5e73-41e6-9ade-b5ded0f026e7"},"vehicle_type_id":"4","last_reported":1700406380,"current_range_meters":31200,"station_id":"ce4bhn12rcd13ifvqgqg","pricing_plan_id":"free"},{"bike_id":"5d8316f4-9b3b-4f22-8b0a-d975b6faa1c0","system_id":"levelo_inurba_marseille","lat":43.231793,"lon":5.400044,"is_reserved":false,"is_disabled":false,"rental_uris":{"android":"levelo://app?vid=5d8316f4-9b3b-4f22-8b0a-d975b6faa1c0","ios":"levelo://app?vid=5d8316f4-9b3b-4f22-8b0a-d975b6faa1c0"},"vehicle_type_id":"4","last_reported":1700406380,"current_range_meters":14400,"station_id":"ce4bhn12rcd13ifvqgqg","pricing_plan_id":"free"},{"bike_id":"486fecf0-765d-4eee-9a85-898f8aa27175","system_id":"levelo_inurba_marseille","lat":43.231793,"lon":5.400044,"is_reserved":false,"is_disabled":false,"rental_uris":{"android":"levelo://app?vid=486fecf0-765d-4eee-9a85-898f8aa27175","ios":"levelo://app?vid=486fecf0-765d-4eee-9a85-898f8aa27175"},"vehicle_type_id":"4","last_reported":1700406380,"current_range_meters":28000,"station_id":"ce4bhn12rcd13ifvqgqg","pricing_plan_id":"free"},{"bike_id":"6146f18d-3907-400f-9943-bec1cc0d785c","system_id":"levelo_inurba_marseille","lat":43.231793,"lon":5.400044,"is_reserved":false,"is_disabled":false,"rental_uris":{"android":"levelo://app?vid=6146f18d-3907-400f-9943-bec1cc0d785c","ios":"levelo://app?vid=6146f18d-3907-400f-9943-bec1cc0d785c"},"vehicle_type_id":"4","last_reported":1700406380,"current_range_meters":30400,"station_id":"ce4bhn12rcd13ifvqgqg","pricing_plan_id":"free"}]}}