{"last_updated":1726787361,"ttl":30,"version":"2.2","data":{"bikes":[{"bike_id":"350e0701-1e5c-4ef9-be7d-bbd364a86033","system_id":"levelo_inurba_marseille","lat":43.28434,"lon":5.39183,"is_reserved":false,"is_disabled":false,"rental_uris":{"android":"levelo://app?vid=350e0701-1e5c-4ef9-be7d-bbd364a86033","ios":"levelo://app?vid=350e0701-1e5c-4ef9-be7d-bbd364a86033"},"vehicle_type_id":"4","last_reported":1726787361,"current_range_meters":14400,"station_id":"ce4bhoh2rcd13ifvqh5g","pricing_plan_id":"cebpf4jnsgd1na2vs0mg"},{"bike_id":"bab5cc8a-f9f2-4ce4-aae4-e65c8cdf7666","system_id":"levelo_inurba_marseille","lat":43.30891,"lon":5.3963,"is_reserved":false,"is_disabled":false,"rental_uris":{"android":"levelo://app?vid=bab5cc8a-f9f2-4ce4-aae4-e65c8cdf7666","ios":"levelo://app?vid=bab5cc8a-f9f2-4ce4-aae4-e65c8cdf7666"},"vehicle_type_id":"4","last_reported":1726787361,"current_range_meters":33200,"station_id":"ce4bh012rcd13ifvqcv0","pricing_plan_id":"cebpf4jnsgd1na2vs0mg"},{"bike_id":"4cd9624b-7620-4050-8633-ea1bb1c6226c","system_id":"levelo_inurba_marseille","lat":43.29169,"lon":5.37143,"is_reserved":false,"is_disabled":false,"rental_uris":{"android":"levelo://app?vid=4cd9624b-7620-4050-8633-ea1bb1c6226c","ios":"levelo://app?vid=4cd9624b-7620-4050-8633-ea1bb1c6226c"},"vehicle_type_id":"4","last_reported":1726787361,"current_range_meters":12000,"station_id":"ce4bha92rcd13ifvqeh0","pricing_plan_id":"cebpf4jnsgd1na2vs0mg"},{"bike_id":"5d193064-4046-4519-9b9d-42c5172dee3c","system_id":"levelo_inurba_marseille","lat":43.25116,"lon":5.40323,"is_reserved":false,"is_disabled":false,"rental_uris":{"android":"levelo://app?vid=5d193064-4046-4519-9b9d-42c5172dee3c","ios":"levelo://app?vid=5d193064-4046-4519-9b9d-42c5172dee3c"},"vehicle_type_id":"4","last_reported":1726787361,"current_range_meters":7200,"station_id":"ce4bhlh2rcd13ifvqgig","pricing_plan_id":"cebpf4jnsgd1na2vs0mg"},{"bike_id":"46024dff-187e-4046-8cf7-f71b2863206e","system_id":"levelo_inurba_marseille","lat":43.316874,"lon":5.404753,"is_reserved":false,"is_disabled":false,"rental_uris":{"android":"levelo://app?vid=46024dff-187e-4046-8cf7-f71b2863206e","ios":"levelo://app?vid=46024dff-187e-4046-8cf7-f71b2863206e"},"vehicle_type_id":"4","last_reported":1726787361,"current_range_meters":6800,"station_id":"ce4bh012rcd13ifvqd00","pricing_plan_id":"cebpf4jnsgd1na2vs0mg"},{"bike_id":"7d55db78-7210-483f-b538-ea2b4ad1d4c8","system_id":"levelo_inurba_marseille","lat":43.31083,"lon":5.42429,"is_reserved":false,"is_disabled":false,"rental_uris":{"android":"levelo://app?vid=7d55db78-7210-483f-b538-ea2b4ad1d4c8","ios":"levelo://app?vid=7d55db78-7210-483f-b538-ea2b4ad1d4c8"},"vehicle_type_id":"4","last_reported":1726787361,"current_range_meters":38800,"station_id":"ce4bhp92rcd13ifvqhag","pricing_plan_id":"cebpf4jnsgd1na2vs0mg"},{"bike_id":"08b6904c-d67d-4886-af6d-0058619dbd6e","system_id":"levelo_inurba_marseille","lat":43.31762,"lon":5.39043,"is_reserved":false,"is_disabled":false,"rental_uris":{"android":"levelo://app?vid=08b6904c-d67d-4886-af6d-0058619dbd6e","ios":"levelo://app?vid=08b6904c-d67d-4886-af6d-0058619dbd6e"},"vehicle_type_id":"4","last_reported":1726787361,"current_range_meters":10800,"station_id":"ce4bhqp2rcd13ifvqhng","pricing_plan_id":"cebpf4jnsgd1na2vs0mg"},{"bike_id":"a5ed4552-d0d2-4d14-bf49-8a55d4e2e324","system_id":"levelo_inurba_marseille","lat":43.30427,"lon":5.41286,"is_reserved":false,"is_disabled":false,"rental_uris":{"android":"levelo://app?vid=a5ed4552-d0d2-4d14-bf49-8a55d4e2e324","ios":"levelo://app?vid=a5ed4552-d0d2-4d14-bf49-8a55d4e2e324"},"vehicle_type_id":"4","last_reported":1726787361,"current_range_meters":34000,"station_id":"ce4bhop2rcd13ifvqh8g","pricing_plan_id":"cebpf4jnsgd1na2vs0mg"},{"bike_id":"25e91e22-1d49-450d-bc9a-3e4237345fd4","system_id":"levelo_inurba_marseille","lat":43.32378,"lon":5.38877,"is_reserved":false,"is_disabled":false,"rental_uris":{"android":"levelo://app?vid=25e91e22-1d49-450d-bc9a-3e4237345fd4","ios":"levelo://app?vid=25e91e22-1d49-450d-bc9a-3e4237345fd4"},"vehicle_type_id":"4","last_reported":1726787361,"current_range_meters":12800,"station_id":"ce4bhqp2rcd13ifvqhog","pricing_plan_id":"cebpf4jnsgd1na2vs0mg"},{"bike_id":"dc873ccc-5283-4204-9440-97850e006bd7","system_id":"levelo_inurba_marseille","lat":43.31529,"lon":5.38019,"is_reserved":false,"is_disabled":false,"rental_uris":{"android":"levelo://app?vid=dc873ccc-5283-4204-9440-97850e006bd7","ios":"levelo://app?vid=dc873ccc-5283-4204-9440-97850e006bd7"},"vehicle_type_id":"4","last_reported":1726787361,"current_range_meters":30000,"station_id":"ce4bhsp2rcd13ifvqi50","pricing_plan_id":"cebpf4jnsgd1na2vs0mg"},{"bike_id":"14d7b0f2-d5aa-40b5-9cdc-5b21eb081f05","system_id":"levelo_inurba_marseille","lat":43.28709,"lon":5.37382,"is_reserved":false,"is_disabled":false,"rental_uris":{"android":"levelo://app?vid=14d7b0f2-d5aa-40b5-9cdc-5b21eb081f05","ios":"levelo://app?vid=14d7b0f2-d5aa-40b5-9cdc-5b21eb081f05"},"vehicle_type_id":"4","last_reported":1726787361,"current_range_meters":32000,"station_id":"ce4bh3p2rcd13ifvqdq0","pricing_plan_id":"cebpf4jnsgd1na2vs0mg"},{"bike_id":"259a1233-1d98-4d8d-810e-00bdd4c3c766","system_id":"levelo_inurba_marseille","lat":43.31881,"lon":5.4073,"is_reserved":false,"is_disabled":false,"rental_uris":{"android":"levelo://app?vid=259a1233-1d98-4d8d-810e-00bdd4c3c766","ios":"levelo://app?vid=259a1233-1d98-4d8d-810e-00bdd4c3c766"},"vehicle_type_id":"4","last_reported":1726787361,"current_range_meters":39200,"station_id":"ce4bhq12rcd13ifvqhig","pricing_plan_id":"cebpf4jnsgd1na2vs0mg"},{"bike_id":"5a011757-8bed-47aa-aa97-2be1fb39f2aa","system_id":"levelo_inurba_marseille","lat":43.28459,"lon":5.3589,"is_reserved":false,"is_disabled":false,"rental_uris":{"android":"levelo://app?vid=5a011757-8bed-47aa-aa97-2be1fb39f2aa","ios":"levelo://app?vid=5a011757-8bed-47aa-aa97-2be1fb39f2aa"},"vehicle_type_id":"4","last_reported":1726787361,"current_range_meters":27600,"station_id":"ce4bhah2rcd13ifvqei0","pricing_plan_id":"cebpf4jnsgd1na2vs0mg"},{"bike_id":"e532fd53-ad12-4848-82ea-70ac934c1c37","system_id":"levelo_inurba_marseille","lat":43.3375,"lon":5.37446,"is_reserved":false,"is_disabled":false,"rental_uris":{"android":"levelo://app?vid=e532fd53-ad12-4848-82ea-70ac934c1c37","ios":"levelo://app?vid=e532fd53-ad12-4848-82ea-70ac934c1c37"},"vehicle_type_id":"4","last_reported":1726787361,"current_range_meters":35600,"station_id":"","pricing_plan_id":"cebpf4jnsgd1na2vs0mg"},{"bike_id":"1634cb17-a421-4481-a16d-ce76951a2212","system_id":"levelo_inurba_marseille","lat":43.27559,"lon":5.38413,"is_reserved":false,"is_disabled":false,"rental_uris":{"android":"levelo://app?vid=1634cb17-a421-4481-a16d-ce76951a2212","ios":"levelo://app?vid=1634cb17-a421-4481-a16d-ce76951a2212"},"vehicle_type_id":"4","last_reported":1726787361,"current_range_meters":39200,"station_id":"ce4bhh92rcd13ifvqfi0","pricing_plan_id":"cebpf4jnsgd1na2vs0mg"},{"bike_id":"344eacd1-6916-45c0-98c3-34bf8e515c58","system_id":"levelo_inurba_marseille","lat":43.31085,"lon":5.42428,"is_reserved":false,"is_disabled":false,"rental_uris":{"android":"levelo://app?vid=344eacd1-6916-45c0-98c3-34bf8e515c58","ios":"levelo://app?vid=344eacd1-6916-45c0-98c3-34bf8e515c58"},"vehicle_type_id":"4","last_reported":1726787361,"current_range_meters":23200,"station_id":"ce4bhp92rcd13ifvqhag","pricing_plan_id":"cebpf4jnsgd1na2vs0mg"},{"bike_id":"4c43e0ac-c356-404b-a39f-2969c2dce734","system_id":"levelo_inurba_marseille","lat":43.27553,"lon":5.38424,"is_reserved":false,"is_disabled":false,"rental_uris":{"android":"levelo://app?vid=4c43e0ac-c356-404b-a39f-2969c2dce734","ios":"levelo://app?vid=4c43e0ac-c356-404b-a39f-2969c2dce734"},"vehicle_type_id":"4","last_reported":1726787361,"current_range_meters":22800,"station_id":"ce4bhh92rcd13ifvqfi0","pricing_plan_id":"cebpf4jnsgd1na2vs0mg"},{"bike_id":"9c8e90b7-166a-437c-b522-fe29c083f4dc","system_id":"levelo_inurba_marseille","lat":43.31123,"lon":5.37759,"is_reserved":false,"is_disabled":false,"rental_uris":{"android":"levelo://app?vid=9c8e90b7-166a-437c-b522-fe29c083f4dc","ios":"levelo://app?vid=9c8e90b7-166a-437c-b522-fe29c083f4dc"},"vehicle_type_id":"4","last_reported":1726787361,"current_range_meters":32400,"station_id":"ce4bgt92rcd13ifvqcg0","pricing_plan_id":"cebpf4jnsgd1na2vs0mg"},{"bike_id":"80490428-4cf9-4e64-9c06-c69737938659","system_id":"levelo_inurba_marseille","lat":43.28674,"lon":5.36358,"is_reserved":false,"is_disabled":false,"rental_uris":{"android":"levelo://app?vid=80490428-4cf9-4e64-9c06-c69737938659","ios":"levelo://app?vid=80490428-4cf9-4e64-9c06-c69737938659"},"vehicle_type_id":"4","last_reported":1726787361,"current_range_meters":6400,"station_id":"ce4bhah2rcd13ifvqej0","pricing_plan_id":"cebpf4jnsgd1na2vs0mg"},{"bike_id":"f9898cab-cb36-4e00-83b8-7f729aaf5652","system_id":"levelo_inurba_marseille","lat":43.3266,"lon":5.4099,"is_reserved":false,"is_disabled":false,"rental_uris":{"android":"levelo://app?vid=f9898cab-cb36-4e00-83b8-7f729aaf5652","ios":"levelo://app?vid=f9898cab-cb36-4e00-83b8-7f729aaf5652"},"vehicle_type_id":"4","last_reported":1726787361,"current_range_meters":39200,"station_id":"ce4bhpp2rcd13ifvqhgg","pricing_plan_id":"cebpf4jnsgd1na2vs0mg"},{"bike_id":"aed3a4b1-dd0e-4aa9-a2f5-ffca63da2bf4","system_id":"levelo_inurba_marseille","lat":43.30254,"lon":5.40056,"is_reserved":false,"is_disabled":false,"rental_uris":{"android":"levelo://app?vid=aed3a4b1-dd0e-4aa9-a2f5-ffca63da2bf4","ios":"levelo://app?vid=aed3a4b1-dd0e-4aa9-a2f5-ffca63da2bf4"},"vehicle_type_id":"4","last_reported":1726787361,"current_range_meters":33200,"station_id":"ce4bgvh2rcd13ifvqcs0","pricing_plan_id":"cebpf4jnsgd1na2vs0mg"},{"bike_id":"b9a08aab-7900-4c2d-a077-eba2dc122cc6","system_id":"levelo_inurba_marseille","lat":43.28855,"lon":5.3931,"is_reserved":false,"is_disabled":false,"rental_uris":{"android":"levelo://app?vid=b9a08aab-7900-4c2d-a077-eba2dc122cc6","ios":"levelo://app?vid=b9a08aab-7900-4c2d-a077-eba2dc122cc6"},"vehicle_type_id":"4","last_reported":1726787361,"current_range_meters":38000,"station_id":"ce4bh2p2rcd13ifvqdi0","pricing_plan_id":"cebpf4jnsgd1na2vs0mg"},{"bike_id":"61730444-0f6c-45f0-a50d-cea6e13dd53b","system_id":"levelo_inurba_marseille","lat":43.29455,"lon":5.39759,"is_reserved":false,"is_disabled":false,"rental_uris":{"android":"levelo://app?vid=61730444-0f6c-45f0-a50d-cea6e13dd53b","ios":"levelo://app?vid=61730444-0f6c-45f0-a50d-cea6e13dd53b"},"vehicle_type_id":"4","last_reported":1726787361,"current_range_meters":36000,"station_id":"ce4bh3h2rcd13ifvqdo0","pricing_plan_id":"cebpf4jnsgd1na2vs0mg"},{"bike_id":"a567976d-80fe-4b0e-a6dd-1f84f1aac25d","system_id":"levelo_inurba_marseille","lat":43.29208,"lon":5.39325,"is_reserved":false,"is_disabled":false,"rental_uris":{"android":"levelo://app?vid=a567976d-80fe-4b0e-a6dd-1f84f1aac25d","ios":"levelo://app?vid=a567976d-80fe-4b0e-a6dd-1f84f1aac25d"},"vehicle_type_id":"4","last_reported":1726787361,"current_range_meters":39200,"station_id":"ce4bh192rcd13ifvqdd0","pricing_plan_id":"cebpf4jnsgd1na2vs0mg"},{"bike_id":"6813a1bb-af4b-4872-8b9e-0171c15e7d49","system_id":"levelo_inurba_marseille","lat":43.30658,"lon":5.40085,"is_reserved":false,"is_disabled":false,"rental_uris":{"android":"levelo://app?vid=6813a1bb-af4b-4872-8b9e-0171c15e7d49","ios":"levelo://app?vid=6813a1bb-af4b-4872-8b9e-0171c15e7d49"},"vehicle_type_id":"4","last_reported":1726787361,"current_range_meters":40000,"station_id":"ce4bh112rcd13ifvqda0","pricing_plan_id":"cebpf4jnsgd1na2vs0mg"},{"bike_id":"7f6acce1-39ea-4633-ba55-98fb087e35e9","system_id":"levelo_inurba_marseille","lat":43.30886,"lon":5.39633,"is_reserved":false,"is_disabled":false,"rental_uris":{"android":"levelo://app?vid=7f6acce1-39ea-4633-ba55-98fb087e35e9","ios":"levelo://app?vid=7f6acce1-39ea-4633-ba55-98fb087e35e9"},"vehicle_type_id":"4","last_reported":1726787361,"current_range_meters":7200,"station_id":"ce4bh012rcd13ifvqcv0","pricing_plan_id":"cebpf4jnsgd1na2vs0mg"},{"bike_id":"e8005e2f-3357-4bf8-9521-65d37d4096f5","system_id":"levelo_inurba_marseille","lat":43.309,"lon":5.39626,"is_reserved":false,"is_disabled":false,"rental_uris":{"android":"levelo://app?vid=e8005e2f-3357-4bf8-9521-65d37d4096f5","ios":"levelo://app?vid=e8005e2f-3357-4bf8-9521-65d37d4096f5"},"vehicle_type_id":"4","last_reported":1726787361,"current_range_meters":31200,"station_id":"ce4bh012rcd13ifvqcv0","pricing_plan_id":"cebpf4jnsgd1na2vs0mg"},{"bike_id":"c9181234-dad9-48f7-ada2-0ba8f6f07317","system_id":"levelo_inurba_marseille","lat":43.2921,"lon":5.3932,"is_reserved":false,"is_disabled":false,"rental_uris":{"android":"levelo://app?vid=c9181234-dad9-48f7-ada2-0ba8f6f07317","ios":"levelo://app?vid=c9181234-dad9-48f7-ada2-0ba8f6f07317"},"vehicle_type_id":"4","last_reported":1726787361,"current_range_meters":32800,"station_id":"ce4bh192rcd13ifvqdd0","pricing_plan_id":"cebpf4jnsgd1na2vs0mg"},{"bike_id":"4211c3d3-4311-431a-97be-2b9d2d251f69","system_id":"levelo_inurba_marseille","lat":43.27838,"lon":5.39204,"is_reserved":false,"is_disabled":false,"rental_uris":{"android":"levelo://app?vid=4211c3d3-4311-431a-97be-2b9d2d251f69","ios":"levelo://app?vid=4211c3d3-4311-431a-97be-2b9d2d251f69"},"vehicle_type_id":"4","last_reported":1726787361,"current_range_meters":39200,"station_id":"ce4bhjp2rcd13ifvqga0","pricing_plan_id":"cebpf4jnsgd1na2vs0mg"},{"bike_id":"1d669fcc-1fdc-4a47-bb39-513baf72b3d8","system_id":"levelo_inurba_marseille","lat":43.28111,"lon":5.37833,"is_reserved":false,"is_disabled":false,"rental_uris":{"android":"levelo://app?vid=1d669fcc-1fdc-4a47-bb39-513baf72b3d8","ios":"levelo://app?vid=1d669fcc-1fdc-4a47-bb39-513baf72b3d8"},"vehicle_type_id":"4","last_reported":1726787361,"current_range_meters":39200,"station_id":"ce4bha12rcd13ifvqee0","pricing_plan_id":"cebpf4jnsgd1na2vs0mg"},{"bike_id":"06eef320-c2b1-42ca-bda3-e896022e4f06","system_id":"levelo_inurba_marseille","lat":43.27074,"lon":5.42272,"is_reserved":false,"is_disabled":false,"rental_uris":{"android":"levelo://app?vid=06eef320-c2b1-42ca-bda3-e896022e4f06","ios":"levelo://app?vid=06eef320-c2b1-42ca-bda3-e896022e4f06"},"vehicle_type_id":"4","last_reported":1726787361,"current_range_meters":16800,"station_id":"ce4bhk92rcd13ifvqgb0","pricing_plan_id":"cebpf4jnsgd1na2vs0mg"},{"bike_id":"93afa50f-2e5f-4563-8aaa-33c9d3bc7ee2","system_id":"levelo_inurba_marseille","lat":43.27316,"lon":5.39061,"is_reserved":false,"is_disabled":false,"rental_uris":{"android":"levelo://app?vid=93afa50f-2e5f-4563-8aaa-33c9d3bc7ee2","ios":"levelo://app?vid=93afa50f-2e5f-4563-8aaa-33c9d3bc7ee2"},"vehicle_type_id":"4","last_reported":1726787361,"current_range_meters":39200,"station_id":"ce4bhgp2rcd13ifvqfe0","pricing_plan_id":"cebpf4jnsgd1na2vs0mg"},{"bike_id":"7ab9e30e-b0ff-4478-9330-616ce7f386cd","system_id":"levelo_inurba_marseille","lat":43.30781,"lon":5.37647,"is_reserved":false,"is_disabled":false,"rental_uris":{"android":"levelo://app?vid=7ab9e30e-b0ff-4478-9330-616ce7f386cd","ios":"levelo://app?vid=7ab9e30e-b0ff-4478-9330-616ce7f386cd"},"vehicle_type_id":"4","last_reported":1726787361,"current_range_meters":10000,"station_id":"ce4bgv92rcd13ifvqcq0","pricing_plan_id":"cebpf4jnsgd1na2vs0mg"},{"bike_id":"e8a43349-6e7a-4086-bc82-dc073f429ffd","system_id":"levelo_inurba_marseille","lat":43.29961,"lon":5.41319,"is_reserved":false,"is_disabled":false,"rental_uris":{"android":"levelo://app?vid=e8a43349-6e7a-4086-bc82-dc073f429ffd","ios":"levelo://app?vid=e8a43349-6e7a-4086-bc82-dc073f429ffd"},"vehicle_type_id":"4","last_reported":1726787361,"current_range_meters":9200,"station_id":"ce4bhp12rcd13ifvqh9g","pricing_plan_id":"cebpf4jnsgd1na2vs0mg"},{"bike_id":"522296b9-a8e3-4bc2-82ad-a3a2fe0dcce3","system_id":"levelo_inurba_marseille","lat":43.31712,"lon":5.37733,"is_reserved":false,"is_disabled":false,"rental_uris":{"android":"levelo://app?vid=522296b9-a8e3-4bc2-82ad-a3a2fe0dcce3","ios":"levelo://app?vid=522296b9-a8e3-4bc2-82ad-a3a2fe0dcce3"},"vehicle_type_id":"4","last_reported":1726787361,"current_range_meters":22800,"station_id":"ce4bgth2rcd13ifvqch0","pricing_plan_id":"cebpf4jnsgd1na2vs0mg"},{"bike_id":"48e80926-2cfb-4701-83c2-0b3239f99ebc","system_id":"levelo_inurba_marseille","lat":43.28569,"lon":5.39497,"is_reserved":false,"is_disabled":false,"rental_uris":{"android":"levelo://app?vid=48e80926-2cfb-4701-83c2-0b3239f99ebc","ios":"levelo://app?vid=48e80926-2cfb-4701-83c2-0b3239f99ebc"},"vehicle_type_id":"4","last_reported":1726787361,"current_range_meters":22000,"station_id":"ce4bh292rcd13ifvqdg0","pricing_plan_id":"cebpf4jnsgd1na2vs0mg"},{"bike_id":"91f6c732-b748-4be1-8d43-5d4f18c7ecb9","system_id":"levelo_inurba_marseille","lat":43.28041,"lon":5.36947,"is_reserved":false,"is_disabled":false,"rental_uris":{"android":"levelo://app?vid=91f6c732-b748-4be1-8d43-5d4f18c7ecb9","ios":"levelo://app?vid=91f6c732-b748-4be1-8d43-5d4f18c7ecb9"},"vehicle_type_id":"4","last_reported":1726787361,"current_range_meters":39200,"station_id":"ce4bha12rcd13ifvqef0","pricing_plan_id":"cebpf4jnsgd1na2vs0mg"},{"bike_id":"7185d87d-affe-4797-a51f-2f094f364139","system_id":"levelo_inurba_marseille","lat":43.30934,"lon":5.40144,"is_reserved":false,"is_disabled":false,"rental_uris":{"android":"levelo://app?vid=7185d87d-affe-4797-a51f-2f094f364139","ios":"levelo://app?vid=7185d87d-affe-4797-a51f-2f094f364139"},"vehicle_type_id":"4","last_reported":1726787361,"current_range_meters":39200,"station_id":"ce4bgvp2rcd13ifvqct0","pricing_plan_id":"cebpf4jnsgd1na2vs0mg"},{"bike_id":"82a011ee-927c-4b1e-a350-b969affb7d65","system_id":"levelo_inurba_marseille","lat":43.33607,"lon":5.41027,"is_reserved":false,"is_disabled":false,"rental_uris":{"android":"levelo://app?vid=82a011ee-927c-4b1e-a350-b969affb7d65","ios":"levelo://app?vid=82a011ee-927c-4b1e-a350-b969affb7d65"},"vehicle_type_id":"4","last_reported":1726787361,"current_range_meters":11600,"station_id":"ce4bhqh2rcd13ifvqhmg","pricing_plan_id":"cebpf4jnsgd1na2vs0mg"},{"bike_id":"5e30cfb0-c440-46c2-8b94-5dd64c735ef9","system_id":"levelo_inurba_marseille","lat":43.31143,"lon":5.37781,"is_reserved":false,"is_disabled":false,"rental_uris":{"android":"levelo://app?vid=5e30cfb0-c440-46c2-8b94-5dd64c735ef9","ios":"levelo://app?vid=5e30cfb0-c440-46c2-8b94-5dd64c735ef9"},"vehicle_type_id":"4","last_reported":1726787361,"current_range_meters":38000,"station_id":"ce4bgt92rcd13ifvqcg0","pricing_plan_id":"cebpf4jnsgd1na2vs0mg"},{"bike_id":"1bcdb92b-8824-41cd-b6cf-d0ee92f5a1da","system_id":"levelo_inurba_marseille","lat":43.28053,"lon":5.36947,"is_reserved":false,"is_disabled":false,"rental_uris":{"android":"levelo://app?vid=1bcdb92b-8824-41cd-b6cf-d0ee92f5a1da","ios":"levelo://app?vid=1bcdb92b-8824-41cd-b6cf-d0ee92f5a1da"},"vehicle_type_id":"4","last_reported":1726787361,"current_range_meters":17200,"station_id":"ce4bha12rcd13ifvqef0","pricing_plan_id":"cebpf4jnsgd1na2vs0mg"},{"bike_id":"04394a73-34a5-4d88-bac1-80c0695aafe5","system_id":"levelo_inurba_marseille","lat":43.337444,"lon":5.374475,"is_reserved":false,"is_disabled":false,"rental_uris":{"android":"levelo://app?vid=04394a73-34a5-4d88-bac1-80c0695aafe5","ios":"levelo://app?vid=04394a73-34a5-4d88-bac1-80c0695aafe5"},"vehicle_type_id":"4","last_reported":1726787361,"current_range_meters":22400,"station_id":"","pricing_plan_id":"cebpf4jnsgd1na2vs0mg"},{"bike_id":"7b551046-89a5-43d5-baa2-8615e657fd55","system_id":"levelo_inurba_marseille","lat":43.29874,"lon":5.39737,"is_reserved":false,"is_disabled":false,"rental_uris":{"android":"levelo://app?vid=7b551046-89a5-43d5-baa2-8615e657fd55","ios":"levelo://app?vid=7b551046-89a5-43d5-baa2-8615e657fd55"},"vehicle_type_id":"4","last_reported":1726787361,"current_range_meters":36000,"station_id":"ce4bh0h2rcd13ifvqd50","pricing_plan_id":"cebpf4jnsgd1na2vs0mg"},{"bike_id":"036ab25f-0c34-4c45-8e88-1fc9200da6fd","system_id":"levelo_inurba_marseille","lat":43.2719,"lon":5.42699,"is_reserved":false,"is_disabled":false,"rental_uris":{"android":"levelo://app?vid=036ab25f-0c34-4c45-8e88-1fc9200da6fd","ios":"levelo://app?vid=036ab25f-0c34-4c45-8e88-1fc9200da6fd"},"vehicle_type_id":"4","last_reported":1726787361,"current_range_meters":28000,"station_id":"","pricing_plan_id":"cebpf4jnsgd1na2vs0mg"},{"bike_id":"40e5b403-5590-4098-a474-822a4163b2a7","system_id":"levelo_inurba_marseille","lat":43.24082,"lon":5.37736,"is_reserved":false,"is_disabled":false,"rental_uris":{"android":"levelo://app?vid=40e5b403-5590-4098-a474-822a4163b2a7","ios":"levelo://app?vid=40e5b403-5590-4098-a474-822a4163b2a7"},"vehicle_type_id":"4","last_reported":1726787361,"current_range_meters":26800,"station_id":"ce4bhnp2rcd13ifvqgvg","pricing_plan_id":"cebpf4jnsgd1na2vs0mg"},{"bike_id":"298ac1dc-024a-45f9-bee5-67e6e0d001f8","system_id":"levelo_inurba_marseille","lat":43.32291,"lon":5.38262,"is_reserved":false,"is_disabled":false,"rental_uris":{"android":"levelo://app?vid=298ac1dc-024a-45f9-bee5-67e6e0d001f8","ios":"levelo://app?vid=298ac1dc-024a-45f9-bee5-67e6e0d001f8"},"vehicle_type_id":"4","last_reported":1726787361,"current_range_meters":30400,"station_id":"ce4bhr12rcd13ifvqhqg","pricing_plan_id":"cebpf4jnsgd1na2vs0mg"},{"bike_id":"1e3f7b56-5fc7-46fd-836e-78f130647b4e","system_id":"levelo_inurba_marseille","lat":43.30939,"lon":5.40145,"is_reserved":false,"is_disabled":false,"rental_uris":{"android":"levelo://app?vid=1e3f7b56-5fc7-46fd-836e-78f130647b4e","ios":"levelo://app?vid=1e3f7b56-5fc7-46fd-836e-78f130647b4e"},"vehicle_type_id":"4","last_reported":1726787361,"current_range_meters":7200,"station_id":"ce4bgvp2rcd13ifvqct0","pricing_plan_id":"cebpf4jnsgd1na2vs0mg"},{"bike_id":"60ba0f6b-768c-4a45-8a5f-fdc9bb710a0e","system_id":"levelo_inurba_marseille","lat":43.27558,"lon":5.38411,"is_reserved":false,"is_disabled":false,"rental_uris":{"android":"levelo://app?vid=60ba0f6b-768c-4a45-8a5f-fdc9bb710a0e","ios":"levelo://app?vid=60ba0f6b-768c-4a45-8a5f-fdc9bb710a0e"},"vehicle_type_id":"4","last_reported":1726787361,"current_range_meters":39200,"station_id":"ce4bhh92rcd13ifvqfi0","pricing_plan_id":"cebpf4jnsgd1na2vs0mg"},{"bike_id":"f385b4a6-31cf-416b-83d1-919567483ec0","system_id":"levelo_inurba_marseille","lat":43.29573,"lon":5.39958,"is_reserved":false,"is_disabled":false,"rental_uris":{"android":"levelo://app?vid=f385b4a6-31cf-416b-83d1-919567483ec0","ios":"levelo://app?vid=f385b4a6-31cf-416b-83d1-919567483ec0"},"vehicle_type_id":"4","last_reported":1726787361,"current_range_meters":32800,"station_id":"ce4bh312rcd13ifvqdj0","pricing_plan_id":"cebpf4jnsgd1na2vs0mg"},{"bike_id":"727c59dd-4a33-4404-90bc-3a4e59bd8948","system_id":"levelo_inurba_marseille","lat":43.32366,"lon":5.38892,"is_reserved":false,"is_disabled":false,"rental_uris":{"android":"levelo://app?vid=727c59dd-4a33-4404-90bc-3a4e59bd8948","ios":"levelo://app?vid=727c59dd-4a33-4404-90bc-3a4e59bd8948"},"vehicle_type_id":"4","last_reported":1726787361,"current_range_meters":25200,"station_id":"ce4bhqp2rcd13ifvqhog","pricing_plan_id":"cebpf4jnsgd1na2vs0mg"},{"bike_id":"a360d7ec-e318-4d83-a12c-d5ebd57d4833","system_id":"levelo_inurba_marseille","lat":43.30253,"lon":5.40064,"is_reserved":false,"is_disabled":false,"rental_uris":{"android":"levelo://app?vid=a360d7ec-e318-4d83-a12c-d5ebd57d4833","ios":"levelo://app?vid=a360d7ec-e318-4d83-a12c-d5ebd57d4833"},"vehicle_type_id":"4","last_reported":1726787361,"current_range_meters":33200,"station_id":"ce4bgvh2rcd13ifvqcs0","pricing_plan_id":"cebpf4jnsgd1na2vs0mg"},{"bike_id":"184a9e64-b111-41d7-a1e8-661aee858050","system_id":"levelo_inurba_marseille","lat":43.27845,"lon":5.3921,"is_reserved":false,"is_disabled":false,"rental_uris":{"android":"levelo://app?vid=184a9e64-b111-41d7-a1e8-661aee858050","ios":"levelo://app?vid=184a9e64-b111-41d7-a1e8-661aee858050"},"vehicle_type_id":"4","last_reported":1726787361,"current_range_meters":39200,"station_id":"ce4bhjp2rcd13ifvqga0","pricing_plan_id":"cebpf4jnsgd1na2vs0mg"},{"bike_id":"e3157b7d-f63e-4215-9b0b-bec081b31a83","system_id":"levelo_inurba_marseille","lat":43.32487,"lon":5.36565,"is_reserved":false,"is_disabled":false,"rental_uris":{"android":"levelo://app?vid=e3157b7d-f63e-4215-9b0b-bec081b31a83","ios":"levelo://app?vid=e3157b7d-f63e-4215-9b0b-bec081b31a83"},"vehicle_type_id":"4","last_reported":1726787361,"current_range_meters":9200,"station_id":"ce4bhs12rcd13ifvqhvg","pricing_plan_id":"cebpf4jnsgd1na2vs0mg"},{"bike_id":"68d7dfce-d550-4f46-afca-11b9024d5cf5","system_id":"levelo_inurba_marseille","lat":43.27175,"lon":5.40995,"is_reserved":false,"is_disabled":false,"rental_uris":{"android":"levelo://app?vid=68d7dfce-d550-4f46-afca-11b9024d5cf5","ios":"levelo://app?vid=68d7dfce-d550-4f46-afca-11b9024d5cf5"},"vehicle_type_id":"4","last_reported":1726787361,"current_range_meters":39200,"station_id":"ce4bhl12rcd13ifvqgf0","pricing_plan_id":"cebpf4jnsgd1na2vs0mg"},{"bike_id":"253b057b-a41c-4693-8aa4-03c682f3fbb1","system_id":"levelo_inurba_marseille","lat":43.2681,"lon":5.40267,"is_reserved":false,"is_disabled":false,"rental_uris":{"android":"levelo://app?vid=253b057b-a41c-4693-8aa4-03c682f3fbb1","ios":"levelo://app?vid=253b057b-a41c-4693-8aa4-03c682f3fbb1"},"vehicle_type_id":"4","last_reported":1726787361,"current_range_meters":6400,"station_id":"ce501612rcd8frsf0b60","pricing_plan_id":"cebpf4jnsgd1na2vs0mg"},{"bike_id":"6659f6a7-2ea0-4ee9-acc0-4f7b7437cae8","system_id":"levelo_inurba_marseille","lat":43.31333,"lon":5.39693,"is_reserved":false,"is_disabled":false,"rental_uris":{"android":"levelo://app?vid=6659f6a7-2ea0-4ee9-acc0-4f7b7437cae8","ios":"levelo://app?vid=6659f6a7-2ea0-4ee9-acc0-4f7b7437cae8"},"vehicle_type_id":"4","last_reported":1726787361,"current_range_meters":10000,"station_id":"ce4bgvp2rcd13ifvqcu0","pricing_plan_id":"cebpf4jnsgd1na2vs0mg"},{"bike_id":"2c9594d3-d2b5-4d5b-b37d-a0579fadf970","system_id":"levelo_inurba_marseille","lat":43.2894,"lon":5.39644,"is_reserved":false,"is_disabled":false,"rental_uris":{"android":"levelo://app?vid=2c9594d3-d2b5-4d5b-b37d-a0579fadf970","ios":"levelo://app?vid=2c9594d3-d2b5-4d5b-b37d-a0579fadf970"},"vehicle_type_id":"4","last_reported":1726787361,"current_range_meters":27600,"station_id":"ce4bh3h2rcd13ifvqdn0","pricing_plan_id":"cebpf4jnsgd1na2vs0mg"},{"bike_id":"9899969d-4f8e-4fed-bc43-e675716ac04a","system_id":"levelo_inurba_marseille","lat":43.23157,"lon":5.43714,"is_reserved":false,"is_disabled":false,"rental_uris":{"android":"levelo://app?vid=9899969d-4f8e-4fed-bc43-e675716ac04a","ios":"levelo://app?vid=9899969d-4f8e-4fed-bc43-e675716ac04a"},"vehicle_type_id":"4","last_reported":1726787361,"current_range_meters":29600,"station_id":"ce4bhmp2rcd13ifvqgog","pricing_plan_id":"cebpf4jnsgd1na2vs0mg"},{"bike_id":"edfb1ff5-b81b-4225-8da9-100a9115b1e3","system_id":"levelo_inurba_marseille","lat":43.29735,"lon":5.36561,"is_reserved":false,"is_disabled":false,"rental_uris":{"android":"levelo://app?vid=edfb1ff5-b81b-4225-8da9-100a9115b1e3","ios":"levelo://app?vid=edfb1ff5-b81b-4225-8da9-100a9115b1e3"},"vehicle_type_id":"4","last_reported":1726787361,"current_range_meters":15200,"station_id":"","pricing_plan_id":"cebpf4jnsgd1na2vs0mg"},{"bike_id":"dd83f023-48ca-405e-9810-aa024cae22ef","system_id":"levelo_inurba_marseille","lat":43.28418,"lon":5.37504,"is_reserved":false,"is_disabled":false,"rental_uris":{"android":"levelo://app?vid=dd83f023-48ca-405e-9810-aa024cae22ef","ios":"levelo://app?vid=dd83f023-48ca-405e-9810-aa024cae22ef"},"vehicle_type_id":"4","last_reported":1726787361,"current_range_meters":27200,"station_id":"ce4bh412rcd13ifvqds0","pricing_plan_id":"cebpf4jnsgd1na2vs0mg"},{"bike_id":"9922fadb-90a9-456a-a92a-30dca3baccf9","system_id":"levelo_inurba_marseille","lat":43.302129,"lon":5.394728,"is_reserved":false,"is_disabled":false,"rental_uris":{"android":"levelo://app?vid=9922fadb-90a9-456a-a92a-30dca3baccf9","ios":"levelo://app?vid=9922fadb-90a9-456a-a92a-30dca3baccf9"},"vehicle_type_id":"4","last_reported":1726787361,"current_range_meters":30400,"station_id":"ce4bh0p2rcd13ifvqd70","pricing_plan_id":"cebpf4jnsgd1na2vs0mg"},{"bike_id":"6b1d9b5d-8026-4da8-9be8-7e001fe061c5","system_id":"levelo_inurba_marseille","lat":43.30256,"lon":5.40074,"is_reserved":false,"is_disabled":false,"rental_uris":{"android":"levelo://app?vid=6b1d9b5d-8026-4da8-9be8-7e001fe061c5","ios":"levelo://app?vid=6b1d9b5d-8026-4da8-9be8-7e001fe061c5"},"vehicle_type_id":"4","last_reported":1726787361,"current_range_meters":36400,"station_id":"ce4bgvh2rcd13ifvqcs0","pricing_plan_id":"cebpf4jnsgd1na2vs0mg"},{"bike_id":"79f9170f-8de8-4fbe-9051-45aa1ac080c3","system_id":"levelo_inurba_marseille","lat":43.29432,"lon":5.39737,"is_reserved":false,"is_disabled":false,"rental_uris":{"android":"levelo://app?vid=79f9170f-8de8-4fbe-9051-45aa1ac080c3","ios":"levelo://app?vid=79f9170f-8de8-4fbe-9051-45aa1ac080c3"},"vehicle_type_id":"4","last_reported":1726787361,"current_range_meters":40000,"station_id":"ce4bh3h2rcd13ifvqdo0","pricing_plan_id":"cebpf4jnsgd1na2vs0mg"},{"bike_id":"13e0720d-f4b9-4807-8b0e-29114e886647","system_id":"levelo_inurba_marseille","lat":43.31719,"lon":5.43717,"is_reserved":false,"is_disabled":false,"rental_uris":{"android":"levelo://app?vid=13e0720d-f4b9-4807-8b0e-29114e886647","ios":"levelo://app?vid=13e0720d-f4b9-4807-8b0e-29114e886647"},"vehicle_type_id":"4","last_reported":1726787361,"current_range_meters":7200,"station_id":"ce4bhp92rcd13ifvqhcg","pricing_plan_id":"cebpf4jnsgd1na2vs0mg"},{"bike_id":"919db48d-35d3-4ef1-96e0-3171f5c0c13d","system_id":"levelo_inurba_marseille","lat":43.29273,"lon":5.36843,"is_reserved":false,"is_disabled":false,"rental_uris":{"android":"levelo://app?vid=919db48d-35d3-4ef1-96e0-3171f5c0c13d","ios":"levelo://app?vid=919db48d-35d3-4ef1-96e0-3171f5c0c13d"},"vehicle_type_id":"4","last_reported":1726787361,"current_range_meters":32800,"station_id":"ce4bhbp2rcd13ifvqesg","pricing_plan_id":"cebpf4jnsgd1na2vs0mg"},{"bike_id":"5b87ea10-02d9-442f-9b10-4fd331eca58e","system_id":"levelo_inurba_marseille","lat":43.25007,"lon":5.38928,"is_reserved":false,"is_disabled":false,"rental_uris":{"android":"levelo://app?vid=5b87ea10-02d9-442f-9b10-4fd331eca58e","ios":"levelo://app?vid=5b87ea10-02d9-442f-9b10-4fd331eca58e"},"vehicle_type_id":"4","last_reported":1726787361,"current_range_meters":39200,"station_id":"ce4bhgp2rcd13ifvqfd0","pricing_plan_id":"cebpf4jnsgd1na2vs0mg"},{"bike_id":"c42d6b2f-7847-4248-848b-a4c3edc602d9","system_id":"levelo_inurba_marseille","lat":43.31993,"lon":5.38155,"is_reserved":false,"is_disabled":false,"rental_uris":{"android":"levelo://app?vid=c42d6b2f-7847-4248-848b-a4c3edc602d9","ios":"levelo://app?vid=c42d6b2f-7847-4248-848b-a4c3edc602d9"},"vehicle_type_id":"4","last_reported":1726787361,"current_range_meters":11600,"station_id":"ce4bhr12rcd13ifvqhpg","pricing_plan_id":"cebpf4jnsgd1na2vs0mg"},{"bike_id":"9614540b-2faf-4e57-9ea9-2eef9aeb72c4","system_id":"levelo_inurba_marseille","lat":43.32362,"lon":5.38885,"is_reserved":false,"is_disabled":false,"rental_uris":{"android":"levelo://app?vid=9614540b-2faf-4e57-9ea9-2eef9aeb72c4","ios":"levelo://app?vid=9614540b-2faf-4e57-9ea9-2eef9aeb72c4"},"vehicle_type_id":"4","last_reported":1726787361,"current_range_meters":38800,"station_id":"ce4bhqp2rcd13ifvqhog","pricing_plan_id":"cebpf4jnsgd1na2vs0mg"},{"bike_id":"3ce7be09-39dc-4399-93da-8caea02b61ed","system_id":"levelo_inurba_marseille","lat":43.31116,"lon":5.37763,"is_reserved":false,"is_disabled":false,"rental_uris":{"android":"levelo://app?vid=3ce7be09-39dc-4399-93da-8caea02b61ed","ios":"levelo://app?vid=3ce7be09-39dc-4399-93da-8caea02b61ed"},"vehicle_type_id":"4","last_reported":1726787361,"current_range_meters":28800,"station_id":"ce4bgt92rcd13ifvqcg0","pricing_plan_id":"cebpf4jnsgd1na2vs0mg"},{"bike_id":"96b332fe-ec14-463a-a727-386ea5e48984","system_id":"levelo_inurba_marseille","lat":43.32362,"lon":5.38891,"is_reserved":false,"is_disabled":false,"rental_uris":{"android":"levelo://app?vid=96b332fe-ec14-463a-a727-386ea5e48984","ios":"levelo://app?vid=96b332fe-ec14-463a-a727-386ea5e48984"},"vehicle_type_id":"4","last_reported":1726787361,"current_range_meters":36000,"station_id":"ce4bhqp2rcd13ifvqhog","pricing_plan_id":"cebpf4jnsgd1na2vs0mg"},{"bike_id":"1d4dce81-26c9-4e90-9512-73a77179f3d4","system_id":"levelo_inurba_marseille","lat":43.23191,"lon":5.39984,"is_reserved":false,"is_disabled":false,"rental_uris":{"android":"levelo://app?vid=1d4dce81-26c9-4e90-9512-73a77179f3d4","ios":"levelo://app?vid=1d4dce81-26c9-4e90-9512-73a77179f3d4"},"vehicle_type_id":"4","last_reported":1726787361,"current_range_meters":10000,"station_id":"ce4bhn12rcd13ifvqgqg","pricing_plan_id":"cebpf4jnsgd1na2vs0mg"},{"bike_id":"43356356-1ebf-41d4-a9de-4fa2973940ef","system_id":"levelo_inurba_marseille","lat":43.29963,"lon":5.41329,"is_reserved":false,"is_disabled":false,"rental_uris":{"android":"levelo://app?vid=43356356-1ebf-41d4-a9de-4fa2973940ef","ios":"levelo://app?vid=43356356-1ebf-41d4-a9de-4fa2973940ef"},"vehicle_type_id":"4","last_reported":1726787361,"current_range_meters":35200,"station_id":"ce4bhp12rcd13ifvqh9g","pricing_plan_id":"cebpf4jnsgd1na2vs0mg"},{"bike_id":"e2bdc4bb-8774-4981-a659-1b1998644639","system_id":"levelo_inurba_marseille","lat":43.24669,"lon":5.3816,"is_reserved":false,"is_disabled":false,"rental_uris":{"android":"levelo://app?vid=e2bdc4bb-8774-4981-a659-1b1998644639","ios":"levelo://app?vid=e2bdc4bb-8774-4981-a659-1b1998644639"},"vehicle_type_id":"4","last_reported":1726787361,"current_range_meters":38000,"station_id":"ce4bhih2rcd13ifvqfr0","pricing_plan_id":"cebpf4jnsgd1na2vs0mg"},{"bike_id":"26a32471-ae16-48b7-a632-9184e22a9daf","system_id":"levelo_inurba_marseille","lat":43.27917,"lon":5.39578,"is_reserved":false,"is_disabled":false,"rental_uris":{"android":"levelo://app?vid=26a32471-ae16-48b7-a632-9184e22a9daf","ios":"levelo://app?vid=26a32471-ae16-48b7-a632-9184e22a9daf"},"vehicle_type_id":"4","last_reported":1726787361,"current_range_meters":26000,"station_id":"ce4bhf92rcd13ifvqf40","pricing_plan_id":"cebpf4jnsgd1na2vs0mg"},{"bike_id":"586337a7-ea44-4a0c-a2e4-774a4f46c373","system_id":"levelo_inurba_marseille","lat":43.31335,"lon":5.39698,"is_reserved":false,"is_disabled":false,"rental_uris":{"android":"levelo://app?vid=586337a7-ea44-4a0c-a2e4-774a4f46c373","ios":"levelo://app?vid=586337a7-ea44-4a0c-a2e4-774a4f46c373"},"vehicle_type_id":"4","last_reported":1726787361,"current_range_meters":38800,"station_id":"ce4bgvp2rcd13ifvqcu0","pricing_plan_id":"cebpf4jnsgd1na2vs0mg"},{"bike_id":"f91d86b2-456a-48aa-bac9-b4717c616eb8","system_id":"levelo_inurba_marseille","lat":43.25724,"lon":5.4111,"is_reserved":false,"is_disabled":false,"rental_uris":{"android":"levelo://app?vid=f91d86b2-456a-48aa-bac9-b4717c616eb8","ios":"levelo://app?vid=f91d86b2-456a-48aa-bac9-b4717c616eb8"},"vehicle_type_id":"4","last_reported":1726787361,"current_range_meters":8400,"station_id":"ce4bhkp2rcd13ifvqgd0","pricing_plan_id":"cebpf4jnsgd1na2vs0mg"},{"bike_id":"f689521a-328c-4627-83e8-a25c4f32e99b","system_id":"levelo_inurba_marseille","lat":43.23195,"lon":5.35553,"is_reserved":false,"is_disabled":false,"rental_uris":{"android":"levelo://app?vid=f689521a-328c-4627-83e8-a25c4f32e99b","ios":"levelo://app?vid=f689521a-328c-4627-83e8-a25c4f32e99b"},"vehicle_type_id":"4","last_reported":1726787361,"current_range_meters":29600,"station_id":"ce4bhu92rcd13ifvqi70","pricing_plan_id":"cebpf4jnsgd1na2vs0mg"},{"bike_id":"0103eeda-09a7-4e2b-b881-e857ddcec39e","system_id":"levelo_inurba_marseille","lat":43.2318,"lon":5.39988,"is_reserved":false,"is_disabled":false,"rental_uris":{"android":"levelo://app?vid=0103eeda-09a7-4e2b-b881-e857ddcec39e","ios":"levelo://app?vid=0103eeda-09a7-4e2b-b881-e857ddcec39e"},"vehicle_type_id":"4","last_reported":1726787361,"current_range_meters":38800,"station_id":"ce4bhn12rcd13ifvqgqg","pricing_plan_id":"cebpf4jnsgd1na2vs0mg"},{"bike_id":"4c9dad28-bab3-4c54-867f-101b77a30cda","system_id":"levelo_inurba_marseille","lat":43.28466,"lon":5.35879,"is_reserved":false,"is_disabled":false,"rental_uris":{"android":"levelo://app?vid=4c9dad28-bab3-4c54-867f-101b77a30cda","ios":"levelo://app?vid=4c9dad28-bab3-4c54-867f-101b77a30cda"},"vehicle_type_id":"4","last_reported":1726787361,"current_range_meters":40000,"station_id":"ce4bhah2rcd13ifvqei0","pricing_plan_id":"cebpf4jnsgd1na2vs0mg"},{"bike_id":"8011d6fb-4c21-417a-bc0c-136e1770de02","system_id":"levelo_inurba_marseille","lat":43.28074,"lon":5.39652,"is_reserved":false,"is_disabled":false,"rental_uris":{"android":"levelo://app?vid=8011d6fb-4c21-417a-bc0c-136e1770de02","ios":"levelo://app?vid=8011d6fb-4c21-417a-bc0c-136e1770de02"},"vehicle_type_id":"4","last_reported":1726787361,"current_range_meters":28400,"station_id":"ce4bho12rcd13ifvqh2g","pricing_plan_id":"cebpf4jnsgd1na2vs0mg"},{"bike_id":"3f83789d-3dd0-43cc-a9bb-a5b70cdc879e","system_id":"levelo_inurba_marseille","lat":43.28702,"lon":5.37377,"is_reserved":false,"is_disabled":false,"rental_uris":{"android":"levelo://app?vid=3f83789d-3dd0-43cc-a9bb-a5b70cdc879e","ios":"levelo://app?vid=3f83789d-3dd0-43cc-a9bb-a5b70cdc879e"},"vehicle_type_id":"4","last_reported":1726787361,"current_range_meters":40000,"station_id":"ce4bh3p2rcd13ifvqdq0","pricing_plan_id":"cebpf4jnsgd1na2vs0mg"},{"bike_id":"a1c72085-5b87-40f4-ac75-5c75b15dd893","system_id":"levelo_inurba_marseille","lat":43.30888,"lon":5.39641,"is_reserved":false,"is_disabled":false,"rental_uris":{"android":"levelo://app?vid=a1c72085-5b87-40f4-ac75-5c75b15dd893","ios":"levelo://app?vid=a1c72085-5b87-40f4-ac75-5c75b15dd893"},"vehicle_type_id":"4","last_reported":1726787361,"current_range_meters":38800,"station_id":"ce4bh012rcd13ifvqcv0","pricing_plan_id":"cebpf4jnsgd1na2vs0mg"},{"bike_id":"26bef151-f653-458f-81df-3d744b453c90","system_id":"levelo_inurba_marseille","lat":43.30795,"lon":5.37659,"is_reserved":false,"is_disabled":false,"rental_uris":{"android":"levelo://app?vid=26bef151-f653-458f-81df-3d744b453c90","ios":"levelo://app?vid=26bef151-f653-458f-81df-3d744b453c90"},"vehicle_type_id":"4","last_reported":1726787361,"current_range_meters":39200,"station_id":"ce4bgv92rcd13ifvqcq0","pricing_plan_id":"cebpf4jnsgd1na2vs0mg"},{"bike_id":"a8841453-322d-4809-a2ca-4c41ea5ecf5f","system_id":"levelo_inurba_marseille","lat":43.30886,"lon":5.37186,"is_reserved":false,"is_disabled":false,"rental_uris":{"android":"levelo://app?vid=a8841453-322d-4809-a2ca-4c41ea5ecf5f","ios":"levelo://app?vid=a8841453-322d-4809-a2ca-4c41ea5ecf5f"},"vehicle_type_id":"4","last_reported":1726787361,"current_range_meters":40000,"station_id":"ce4bguh2rcd13ifvqckg","pricing_plan_id":"cebpf4jnsgd1na2vs0mg"},{"bike_id":"a38db75a-7cf4-4cbc-869d-3fddcd849192","system_id":"levelo_inurba_marseille","lat":43.27616,"lon":5.36104,"is_reserved":false,"is_disabled":false,"rental_uris":{"android":"levelo://app?vid=a38db75a-7cf4-4cbc-869d-3fddcd849192","ios":"levelo://app?vid=a38db75a-7cf4-4cbc-869d-3fddcd849192"},"vehicle_type_id":"4","last_reported":1726787361,"current_range_meters":24800,"station_id":"ce4bgj92rcd13ifvqbe0","pricing_plan_id":"cebpf4jnsgd1na2vs0mg"},{"bike_id":"7e9e280e-24e5-4a28-83f8-4ddade9a9f67","system_id":"levelo_inurba_marseille","lat":43.30173,"lon":5.36599,"is_reserved":false,"is_disabled":false,"rental_uris":{"android":"levelo://app?vid=7e9e280e-24e5-4a28-83f8-4ddade9a9f67","ios":"levelo://app?vid=7e9e280e-24e5-4a28-83f8-4ddade9a9f67"},"vehicle_type_id":"4","last_reported":1726787361,"current_range_meters":8800,"station_id":"ce4bgrh2rcd13ifvqc8g","pricing_plan_id":"cebpf4jnsgd1na2vs0mg"},{"bike_id":"ce68b5bb-b3a2-432f-9edc-1842f56e647e","system_id":"levelo_inurba_marseille","lat":43.28704,"lon":5.37376,"is_reserved":false,"is_disabled":false,"rental_uris":{"android":"levelo://app?vid=ce68b5bb-b3a2-432f-9edc-1842f56e647e","ios":"levelo://app?vid=ce68b5bb-b3a2-432f-9edc-1842f56e647e"},"vehicle_type_id":"4","last_reported":1726787361,"current_range_meters":37600,"station_id":"ce4bh3p2rcd13ifvqdq0","pricing_plan_id":"cebpf4jnsgd1na2vs0mg"},{"bike_id":"002b0699-6ee9-40eb-887b-ba2bc729859f","system_id":"levelo_inurba_marseille","lat":43.23196,"lon":5.35553,"is_reserved":false,"is_disabled":false,"rental_uris":{"android":"levelo://app?vid=002b0699-6ee9-40eb-887b-ba2bc729859f","ios":"levelo://app?vid=002b0699-6ee9-40eb-887b-ba2bc729859f"},"vehicle_type_id":"4","last_reported":1726787361,"current_range_meters":6800,"station_id":"ce4bhu92rcd13ifvqi70","pricing_plan_id":"cebpf4jnsgd1na2vs0mg"},{"bike_id":"9680a5ae-9565-4f16-a49c-6049cde2422f","system_id":"levelo_inurba_marseille","lat":43.29284,"lon":5.40122,"is_reserved":false,"is_disabled":false,"rental_uris":{"android":"levelo://app?vid=9680a5ae-9565-4f16-a49c-6049cde2422f","ios":"levelo://app?vid=9680a5ae-9565-4f16-a49c-6049cde2422f"},"vehicle_type_id":"4","last_reported":1726787361,"current_range_meters":38800,"station_id":"ce4bh312rcd13ifvqdk0","pricing_plan_id":"cebpf4jnsgd1na2vs0mg"},{"bike_id":"66605760-e5ce-4433-ac25-c9f1b389b6f3","system_id":"levelo_inurba_marseille","lat":43.29875,"lon":5.38905,"is_reserved":false,"is_disabled":false,"rental_uris":{"android":"levelo://app?vid=66605760-e5ce-4433-ac25-c9f1b389b6f3","ios":"levelo://app?vid=66605760-e5ce-4433-ac25-c9f1b389b6f3"},"vehicle_type_id":"4","last_reported":1726787361,"current_range_meters":38800,"station_id":"ce4bh392rcd13ifvqdl0","pricing_plan_id":"cebpf4jnsgd1na2vs0mg"},{"bike_id":"21e7302b-fc1e-42d7-b9df-c33add254984","system_id":"levelo_inurba_marseille","lat":43.28113,"lon":5.37841,"is_reserved":false,"is_disabled":false,"rental_uris":{"android":"levelo://app?vid=21e7302b-fc1e-42d7-b9df-c33add254984","ios":"levelo://app?vid=21e7302b-fc1e-42d7-b9df-c33add254984"},"vehicle_type_id":"4","last_reported":1726787361,"current_range_meters":10800,"station_id":"ce4bha12rcd13ifvqee0","pricing_plan_id":"cebpf4jnsgd1na2vs0mg"},{"bike_id":"6d902077-0c1e-4241-80b5-15b01977846d","system_id":"levelo_inurba_marseille","lat":43.31996,"lon":5.3815,"is_reserved":false,"is_disabled":false,"rental_uris":{"android":"levelo://app?vid=6d902077-0c1e-4241-80b5-15b01977846d","ios":"levelo://app?vid=6d902077-0c1e-4241-80b5-15b01977846d"},"vehicle_type_id":"4","last_reported":1726787361,"current_range_meters":35200,"station_id":"ce4bhr12rcd13ifvqhpg","pricing_plan_id":"cebpf4jnsgd1na2vs0mg"},{"bike_id":"b9b572af-72fa-4c7a-a3ee-919edcf036fc","system_id":"levelo_inurba_marseille","lat":43.28714,"lon":5.37923,"is_reserved":false,"is_disabled":false,"rental_uris":{"android":"levelo://app?vid=b9b572af-72fa-4c7a-a3ee-919edcf036fc","ios":"levelo://app?vid=b9b572af-72fa-4c7a-a3ee-919edcf036fc"},"vehicle_type_id":"4","last_reported":1726787361,"current_range_meters":40000,"station_id":"ce4bh9p2rcd13ifvqec0","pricing_plan_id":"cebpf4jnsgd1na2vs0mg"},{"bike_id":"72afbc88-749c-4ec5-9ff0-ddd824e0a5ba","system_id":"levelo_inurba_marseille","lat":43.27183,"lon":5.40995,"is_reserved":false,"is_disabled":false,"rental_uris":{"android":"levelo://app?vid=72afbc88-749c-4ec5-9ff0-ddd824e0a5ba","ios":"levelo://app?vid=72afbc88-749c-4ec5-9ff0-ddd824e0a5ba"},"vehicle_type_id":"4","last_reported":1726787361,"current_range_meters":38400,"station_id":"ce4bhl12rcd13ifvqgf0","pricing_plan_id":"cebpf4jnsgd1na2vs0mg"},{"bike_id":"090066b5-bc4c-4c81-8784-47d2480abad0","system_id":"levelo_inurba_marseille","lat":43.31277,"lon":5.4017,"is_reserved":false,"is_disabled":false,"rental_uris":{"android":"levelo://app?vid=090066b5-bc4c-4c81-8784-47d2480abad0","ios":"levelo://app?vid=090066b5-bc4c-4c81-8784-47d2480abad0"},"vehicle_type_id":"4","last_reported":1726787361,"current_range_meters":33600,"station_id":"ce4bh092rcd13ifvqd30","pricing_plan_id":"cebpf4jnsgd1na2vs0mg"},{"bike_id":"8ee6d5db-cb8b-4219-a1d2-5a1a8206952f","system_id":"levelo_inurba_marseille","lat":43.29555,"lon":5.42282,"is_reserved":false,"is_disabled":false,"rental_uris":{"android":"levelo://app?vid=8ee6d5db-cb8b-4219-a1d2-5a1a8206952f","ios":"levelo://app?vid=8ee6d5db-cb8b-4219-a1d2-5a1a8206952f"},"vehicle_type_id":"4","last_reported":1726787361,"current_range_meters":38800,"station_id":"ce4bhph2rcd13ifvqhdg","pricing_plan_id":"cebpf4jnsgd1na2vs0mg"},{"bike_id":"0b489c8a-29e1-4f5d-80ab-4ae77a5d0e18","system_id":"levelo_inurba_marseille","lat":43.2933,"lon":5.37151,"is_reserved":false,"is_disabled":false,"rental_uris":{"android":"levelo://app?vid=0b489c8a-29e1-4f5d-80ab-4ae77a5d0e18","ios":"levelo://app?vid=0b489c8a-29e1-4f5d-80ab-4ae77a5d0e18"},"vehicle_type_id":"4","last_reported":1726787361,"current_range_meters":11600,"station_id":"ce4bgh92rcd13ifvqb40","pricing_plan_id":"cebpf4jnsgd1na2vs0mg"},{"bike_id":"0ff393b5-2680-4ab9-a61b-b35fece17fe2","system_id":"levelo_inurba_marseille","lat":43.34145,"lon":5.409,"is_reserved":false,"is_disabled":false,"rental_uris":{"android":"levelo://app?vid=0ff393b5-2680-4ab9-a61b-b35fece17fe2","ios":"levelo://app?vid=0ff393b5-2680-4ab9-a61b-b35fece17fe2"},"vehicle_type_id":"4","last_reported":1726787361,"current_range_meters":38800,"station_id":"ce4bhqh2rcd13ifvqhlg","pricing_plan_id":"cebpf4jnsgd1na2vs0mg"},{"bike_id":"5767e1a9-48b0-4c74-8627-4d55bc18f357","system_id":"levelo_inurba_marseille","lat":43.25724,"lon":5.41104,"is_reserved":false,"is_disabled":false,"rental_uris":{"android":"levelo://app?vid=5767e1a9-48b0-4c74-8627-4d55bc18f357","ios":"levelo://app?vid=5767e1a9-48b0-4c74-8627-4d55bc18f357"},"vehicle_type_id":"4","last_reported":1726787361,"current_range_meters":22000,"station_id":"ce4bhkp2rcd13ifvqgd0","pricing_plan_id":"cebpf4jnsgd1na2vs0mg"},{"bike_id":"78de459a-8961-48d3-9d87-3a4dc50323f3","system_id":"levelo_inurba_marseille","lat":43.3237,"lon":5.3889,"is_reserved":false,"is_disabled":false,"rental_uris":{"android":"levelo://app?vid=78de459a-8961-48d3-9d87-3a4dc50323f3","ios":"levelo://app?vid=78de459a-8961-48d3-9d87-3a4dc50323f3"},"vehicle_type_id":"4","last_reported":1726787361,"current_range_meters":16400,"station_id":"ce4bhqp2rcd13ifvqhog","pricing_plan_id":"cebpf4jnsgd1na2vs0mg"},{"bike_id":"71125283-1892-4906-aee9-af171bd0b43d","system_id":"levelo_inurba_marseille","lat":43.28421,"lon":5.37521,"is_reserved":false,"is_disabled":false,"rental_uris":{"android":"levelo://app?vid=71125283-1892-4906-aee9-af171bd0b43d","ios":"levelo://app?vid=71125283-1892-4906-aee9-af171bd0b43d"},"vehicle_type_id":"4","last_reported":1726787361,"current_range_meters":16400,"station_id":"ce4bh412rcd13ifvqds0","pricing_plan_id":"cebpf4jnsgd1na2vs0mg"},{"bike_id":"38dadd8c-d3a2-4d23-ab13-29b99dc8b37a","system_id":"levelo_inurba_marseille","lat":43.33024,"lon":5.39044,"is_reserved":false,"is_disabled":false,"rental_uris":{"android":"levelo://app?vid=38dadd8c-d3a2-4d23-ab13-29b99dc8b37a","ios":"levelo://app?vid=38dadd8c-d3a2-4d23-ab13-29b99dc8b37a"},"vehicle_type_id":"4","last_reported":1726787361,"current_range_meters":16000,"station_id":"ce4bhr92rcd13ifvqhrg","pricing_plan_id":"cebpf4jnsgd1na2vs0mg"},{"bike_id":"05aa751d-2538-491c-a607-bb9d00c1be66","system_id":"levelo_inurba_marseille","lat":43.285726,"lon":5.380042,"is_reserved":false,"is_disabled":false,"rental_uris":{"android":"levelo://app?vid=05aa751d-2538-491c-a607-bb9d00c1be66","ios":"levelo://app?vid=05aa751d-2538-491c-a607-bb9d00c1be66"},"vehicle_type_id":"4","last_reported":1726787361,"current_range_meters":38000,"station_id":"ce4bhdp2rcd13ifvqf20","pricing_plan_id":"cebpf4jnsgd1na2vs0mg"},{"bike_id":"7308fce8-1130-46c1-b85f-dfba511a6b63","system_id":"levelo_inurba_marseille","lat":43.27615,"lon":5.36105,"is_reserved":false,"is_disabled":false,"rental_uris":{"android":"levelo://app?vid=7308fce8-1130-46c1-b85f-dfba511a6b63","ios":"levelo://app?vid=7308fce8-1130-46c1-b85f-dfba511a6b63"},"vehicle_type_id":"4","last_reported":1726787361,"current_range_meters":36800,"station_id":"ce4bgj92rcd13ifvqbe0","pricing_plan_id":"cebpf4jnsgd1na2vs0mg"},{"bike_id":"466108db-1d9d-4690-83e9-6a75e28314ef","system_id":"levelo_inurba_marseille","lat":43.31715,"lon":5.43697,"is_reserved":false,"is_disabled":false,"rental_uris":{"android":"levelo://app?vid=466108db-1d9d-4690-83e9-6a75e28314ef","ios":"levelo://app?vid=466108db-1d9d-4690-83e9-6a75e28314ef"},"vehicle_type_id":"4","last_reported":1726787361,"current_range_meters":14000,"station_id":"ce4bhp92rcd13ifvqhcg","pricing_plan_id":"cebpf4jnsgd1na2vs0mg"},{"bike_id":"8d47ac2c-6aff-4006-865b-6319f0339211","system_id":"levelo_inurba_marseille","lat":43.3176,"lon":5.39021,"is_reserved":false,"is_disabled":false,"rental_uris":{"android":"levelo://app?vid=8d47ac2c-6aff-4006-865b-6319f0339211","ios":"levelo://app?vid=8d47ac2c-6aff-4006-865b-6319f0339211"},"vehicle_type_id":"4","last_reported":1726787361,"current_range_meters":38800,"station_id":"ce4bhqp2rcd13ifvqhng","pricing_plan_id":"cebpf4jnsgd1na2vs0mg"},{"bike_id":"0f53cc12-21ea-4b2c-82be-e7ab4beb82bf","system_id":"levelo_inurba_marseille","lat":43.31758,"lon":5.39019,"is_reserved":false,"is_disabled":false,"rental_uris":{"android":"levelo://app?vid=0f53cc12-21ea-4b2c-82be-e7ab4beb82bf","ios":"levelo://app?vid=0f53cc12-21ea-4b2c-82be-e7ab4beb82bf"},"vehicle_type_id":"4","last_reported":1726787361,"current_range_meters":38800,"station_id":"ce4bhqp2rcd13ifvqhng","pricing_plan_id":"cebpf4jnsgd1na2vs0mg"},{"bike_id":"a698e1f2-7317-40bb-b95b-35bc0247aa63","system_id":"levelo_inurba_marseille","lat":43.25082,"lon":5.39521,"is_reserved":false,"is_disabled":false,"rental_uris":{"android":"levelo://app?vid=a698e1f2-7317-40bb-b95b-35bc0247aa63","ios":"levelo://app?vid=a698e1f2-7317-40bb-b95b-35bc0247aa63"},"vehicle_type_id":"4","last_reported":1726787361,"current_range_meters":8000,"station_id":"ce4bhm12rcd13ifvqgkg","pricing_plan_id":"cebpf4jnsgd1na2vs0mg"},{"bike_id":"fadac423-1102-471d-b12e-f79a7c476377","system_id":"levelo_inurba_marseille","lat":43.27918,"lon":5.37998,"is_reserved":false,"is_disabled":false,"rental_uris":{"android":"levelo://app?vid=fadac423-1102-471d-b12e-f79a7c476377","ios":"levelo://app?vid=fadac423-1102-471d-b12e-f79a7c476377"},"vehicle_type_id":"4","last_reported":1726787361,"current_range_meters":40000,"station_id":"ce4bhf92rcd13ifvqf50","pricing_plan_id":"cebpf4jnsgd1na2vs0mg"},{"bike_id":"116eae8c-5e85-4d27-8e88-286547f2b01f","system_id":"levelo_inurba_marseille","lat":43.305381,"lon":5.384244,"is_reserved":false,"is_disabled":false,"rental_uris":{"android":"levelo://app?vid=116eae8c-5e85-4d27-8e88-286547f2b01f","ios":"levelo://app?vid=116eae8c-5e85-4d27-8e88-286547f2b01f"},"vehicle_type_id":"4","last_reported":1726787361,"current_range_meters":27200,"station_id":"ce4bgg92rcd13ifvqb30","pricing_plan_id":"cebpf4jnsgd1na2vs0mg"},{"bike_id":"b153f585-91a7-4778-8e3b-fba7bd4d15f4","system_id":"levelo_inurba_marseille","lat":43.31348,"lon":5.36719,"is_reserved":false,"is_disabled":false,"rental_uris":{"android":"levelo://app?vid=b153f585-91a7-4778-8e3b-fba7bd4d15f4","ios":"levelo://app?vid=b153f585-91a7-4778-8e3b-fba7bd4d15f4"},"vehicle_type_id":"4","last_reported":1726787361,"current_range_meters":38400,"station_id":"ce4bgr92rcd13ifvqc6g","pricing_plan_id":"cebpf4jnsgd1na2vs0mg"},{"bike_id":"9d023a5c-b66e-4eb2-b1d7-6c9890b4a2a6","system_id":"levelo_inurba_marseille","lat":43.30926,"lon":5.40138,"is_reserved":false,"is_disabled":false,"rental_uris":{"android":"levelo://app?vid=9d023a5c-b66e-4eb2-b1d7-6c9890b4a2a6","ios":"levelo://app?vid=9d023a5c-b66e-4eb2-b1d7-6c9890b4a2a6"},"vehicle_type_id":"4","last_reported":1726787361,"current_range_meters":30800,"station_id":"ce4bgvp2rcd13ifvqct0","pricing_plan_id":"cebpf4jnsgd1na2vs0mg"},{"bike_id":"c05abdd6-c69d-4472-842a-bcf2fd61daa1","system_id":"levelo_inurba_marseille","lat":43.29789,"lon":5.39352,"is_reserved":false,"is_disabled":false,"rental_uris":{"android":"levelo://app?vid=c05abdd6-c69d-4472-842a-bcf2fd61daa1","ios":"levelo://app?vid=c05abdd6-c69d-4472-842a-bcf2fd61daa1"},"vehicle_type_id":"4","last_reported":1726787361,"current_range_meters":38400,"station_id":"chh1huq6cuj3fo74tm60","pricing_plan_id":"cebpf4jnsgd1na2vs0mg"},{"bike_id":"27c5c9f5-f14e-4a8b-9dc8-8a569cb24e34","system_id":"levelo_inurba_marseille","lat":43.28466,"lon":5.35882,"is_reserved":false,"is_disabled":false,"rental_uris":{"android":"levelo://app?vid=27c5c9f5-f14e-4a8b-9dc8-8a569cb24e34","ios":"levelo://app?vid=27c5c9f5-f14e-4a8b-9dc8-8a569cb24e34"},"vehicle_type_id":"4","last_reported":1726787361,"current_range_meters":17200,"station_id":"ce4bhah2rcd13ifvqei0","pricing_plan_id":"cebpf4jnsgd1na2vs0mg"},{"bike_id":"c54e2567-2846-4219-9f4b-883a2c94e65e","system_id":"levelo_inurba_marseille","lat":43.27421,"lon":5.39416,"is_reserved":false,"is_disabled":false,"rental_uris":{"android":"levelo://app?vid=c54e2567-2846-4219-9f4b-883a2c94e65e","ios":"levelo://app?vid=c54e2567-2846-4219-9f4b-883a2c94e65e"},"vehicle_type_id":"4","last_reported":1726787361,"current_range_meters":38000,"station_id":"ce4bhdp2rcd13ifvqf20","pricing_plan_id":"cebpf4jnsgd1na2vs0mg"},{"bike_id":"2c96f4ad-2c2e-44b8-8e08-a57b6c1eb2e5","system_id":"levelo_inurba_marseille","lat":43.33024,"lon":5.3904,"is_reserved":false,"is_disabled":false,"rental_uris":{"android":"levelo://app?vid=2c96f4ad-2c2e-44b8-8e08-a57b6c1eb2e5","ios":"levelo://app?vid=2c96f4ad-2c2e-44b8-8e08-a57b6c1eb2e5"},"vehicle_type_id":"4","last_reported":1726787361,"current_range_meters":32800,"station_id":"ce4bhr92rcd13ifvqhrg","pricing_plan_id":"cebpf4jnsgd1na2vs0mg"},{"bike_id":"c03a1ab9-85ba-4bc9-aa5b-ac7c1227d1a2","system_id":"levelo_inurba_marseille","lat":43.24549,"lon":5.39524,"is_reserved":false,"is_disabled":false,"rental_uris":{"android":"levelo://app?vid=c03a1ab9-85ba-4bc9-aa5b-ac7c1227d1a2","ios":"levelo://app?vid=c03a1ab9-85ba-4bc9-aa5b-ac7c1227d1a2"},"vehicle_type_id":"4","last_reported":1726787361,"current_range_meters":11200,"station_id":"ce4bhlp2rcd13ifvqgjg","pricing_plan_id":"cebpf4jnsgd1na2vs0mg"},{"bike_id":"4c230512-d70f-46c7-8713-1912d24b8631","system_id":"levelo_inurba_marseille","lat":43.28721,"lon":5.36075,"is_reserved":false,"is_disabled":false,"rental_uris":{"android":"levelo://app?vid=4c230512-d70f-46c7-8713-1912d24b8631","ios":"levelo://app?vid=4c230512-d70f-46c7-8713-1912d24b8631"},"vehicle_type_id":"4","last_reported":1726787361,"current_range_meters":22800,"station_id":"cki0cbj6b192h4jlfktg","pricing_plan_id":"cebpf4jnsgd1na2vs0mg"},{"bike_id":"932d7963-1def-478a-a279-5afe4224ca7d","system_id":"levelo_inurba_marseille","lat":43.26025,"lon":5.37553,"is_reserved":false,"is_disabled":false,"rental_uris":{"android":"levelo://app?vid=932d7963-1def-478a-a279-5afe4224ca7d","ios":"levelo://app?vid=932d7963-1def-478a-a279-5afe4224ca7d"},"vehicle_type_id":"4","last_reported":1726787361,"current_range_meters":38800,"station_id":"ce4bhgh2rcd13ifvqfa0","pricing_plan_id":"cebpf4jnsgd1na2vs0mg"},{"bike_id":"e3678fe5-cd97-41c2-92f5-c59b10e32309","system_id":"levelo_inurba_marseille","lat":43.31535,"lon":5.38031,"is_reserved":false,"is_disabled":false,"rental_uris":{"android":"levelo://app?vid=e3678fe5-cd97-41c2-92f5-c59b10e32309","ios":"levelo://app?vid=e3678fe5-cd97-41c2-92f5-c59b10e32309"},"vehicle_type_id":"4","last_reported":1726787361,"current_range_meters":37600,"station_id":"ce4bhsp2rcd13ifvqi50","pricing_plan_id":"cebpf4jnsgd1na2vs0mg"},{"bike_id":"e9a5d37d-0cb5-44ff-a653-c77a5ca5838b","system_id":"levelo_inurba_marseille","lat":43.31759,"lon":5.39017,"is_reserved":false,"is_disabled":false,"rental_uris":{"android":"levelo://app?vid=e9a5d37d-0cb5-44ff-a653-c77a5ca5838b","ios":"levelo://app?vid=e9a5d37d-0cb5-44ff-a653-c77a5ca5838b"},"vehicle_type_id":"4","last_reported":1726787361,"current_range_meters":38800,"station_id":"ce4bhqp2rcd13ifvqhng","pricing_plan_id":"cebpf4jnsgd1na2vs0mg"},{"bike_id":"299e6495-c150-48e6-b6d3-05de6bc39075","system_id":"levelo_inurba_marseille","lat":43.27913,"lon":5.39577,"is_reserved":false,"is_disabled":false,"rental_uris":{"android":"levelo://app?vid=299e6495-c150-48e6-b6d3-05de6bc39075","ios":"levelo://app?vid=299e6495-c150-48e6-b6d3-05de6bc39075"},"vehicle_type_id":"4","last_reported":1726787361,"current_range_meters":38800,"station_id":"ce4bhf92rcd13ifvqf40","pricing_plan_id":"cebpf4jnsgd1na2vs0mg"},{"bike_id":"44da3e59-dcf2-4354-910f-f3fece0ed467","system_id":"levelo_inurba_marseille","lat":43.27064,"lon":5.4228,"is_reserved":false,"is_disabled":false,"rental_uris":{"android":"levelo://app?vid=44da3e59-dcf2-4354-910f-f3fece0ed467","ios":"levelo://app?vid=44da3e59-dcf2-4354-910f-f3fece0ed467"},"vehicle_type_id":"4","last_reported":1726787361,"current_range_meters":38800,"station_id":"ce4bhk92rcd13ifvqgb0","pricing_plan_id":"cebpf4jnsgd1na2vs0mg"},{"bike_id":"eb2ef9af-e9bb-4b94-aee1-3fb33b5e66f9","system_id":"levelo_inurba_marseille","lat":43.28004,"lon":5.41664,"is_reserved":false,"is_disabled":false,"rental_uris":{"android":"levelo://app?vid=eb2ef9af-e9bb-4b94-aee1-3fb33b5e66f9","ios":"levelo://app?vid=eb2ef9af-e9bb-4b94-aee1-3fb33b5e66f9"},"vehicle_type_id":"4","last_reported":1726787361,"current_range_meters":38800,"station_id":"ce4bho12rcd13ifvqh1g","pricing_plan_id":"cebpf4jnsgd1na2vs0mg"},{"bike_id":"4959bfc8-f6c7-499c-b953-ea76d3f8d331","system_id":"levelo_inurba_marseille","lat":43.28108,"lon":5.37831,"is_reserved":false,"is_disabled":false,"rental_uris":{"android":"levelo://app?vid=4959bfc8-f6c7-499c-b953-ea76d3f8d331","ios":"levelo://app?vid=4959bfc8-f6c7-499c-b953-ea76d3f8d331"},"vehicle_type_id":"4","last_reported":1726787361,"current_range_meters":39200,"station_id":"ce4bha12rcd13ifvqee0","pricing_plan_id":"cebpf4jnsgd1na2vs0mg"},{"bike_id":"bbabc812-5d4f-4dde-ac4b-6c59e8a40a27","system_id":"levelo_inurba_marseille","lat":43.27497,"lon":5.42447,"is_reserved":false,"is_disabled":false,"rental_uris":{"android":"levelo://app?vid=bbabc812-5d4f-4dde-ac4b-6c59e8a40a27","ios":"levelo://app?vid=bbabc812-5d4f-4dde-ac4b-6c59e8a40a27"},"vehicle_type_id":"4","last_reported":1726787361,"current_range_meters":39200,"station_id":"ce4bhn92rcd13ifvqgrg","pricing_plan_id":"cebpf4jnsgd1na2vs0mg"},{"bike_id":"ef6e8a6b-dbc8-497d-adeb-1b246e1a7dec","system_id":"levelo_inurba_marseille","lat":43.24174,"lon":5.39733,"is_reserved":false,"is_disabled":false,"rental_uris":{"android":"levelo://app?vid=ef6e8a6b-dbc8-497d-adeb-1b246e1a7dec","ios":"levelo://app?vid=ef6e8a6b-dbc8-497d-adeb-1b246e1a7dec"},"vehicle_type_id":"4","last_reported":1726787361,"current_range_meters":38800,"station_id":"ce4bhn12rcd13ifvqgpg","pricing_plan_id":"cebpf4jnsgd1na2vs0mg"},{"bike_id":"9f8649e2-75d2-4d09-94ee-538fd13f9680","system_id":"levelo_inurba_marseille","lat":43.33602,"lon":5.41019,"is_reserved":false,"is_disabled":false,"rental_uris":{"android":"levelo://app?vid=9f8649e2-75d2-4d09-94ee-538fd13f9680","ios":"levelo://app?vid=9f8649e2-75d2-4d09-94ee-538fd13f9680"},"vehicle_type_id":"4","last_reported":1726787361,"current_range_meters":38800,"station_id":"ce4bhqh2rcd13ifvqhmg","pricing_plan_id":"cebpf4jnsgd1na2vs0mg"},{"bike_id":"05f6fc60-c8a7-45e7-88b7-036dbeb6c828","system_id":"levelo_inurba_marseille","lat":43.28465,"lon":5.35887,"is_reserved":false,"is_disabled":false,"rental_uris":{"android":"levelo://app?vid=05f6fc60-c8a7-45e7-88b7-036dbeb6c828","ios":"levelo://app?vid=05f6fc60-c8a7-45e7-88b7-036dbeb6c828"},"vehicle_type_id":"4","last_reported":1726787361,"current_range_meters":38000,"station_id":"ce4bhah2rcd13ifvqei0","pricing_plan_id":"cebpf4jnsgd1na2vs0mg"},{"bike_id":"dd584773-adaf-4b1b-8f11-fcfca5f7bc1d","system_id":"levelo_inurba_marseille","lat":43.28092,"lon":5.39672,"is_reserved":false,"is_disabled":false,"rental_uris":{"android":"levelo://app?vid=dd584773-adaf-4b1b-8f11-fcfca5f7bc1d","ios":"levelo://app?vid=dd584773-adaf-4b1b-8f11-fcfca5f7bc1d"},"vehicle_type_id":"4","last_reported":1726787361,"current_range_meters":24800,"station_id":"ce4bho12rcd13ifvqh2g","pricing_plan_id":"cebpf4jnsgd1na2vs0mg"},{"bike_id":"d095a2de-cb44-4d0b-9d57-524091713fe6","system_id":"levelo_inurba_marseille","lat":43.29202,"lon":5.39329,"is_reserved":false,"is_disabled":false,"rental_uris":{"android":"levelo://app?vid=d095a2de-cb44-4d0b-9d57-524091713fe6","ios":"levelo://app?vid=d095a2de-cb44-4d0b-9d57-524091713fe6"},"vehicle_type_id":"4","last_reported":1726787361,"current_range_meters":20000,"station_id":"ce4bh192rcd13ifvqdd0","pricing_plan_id":"cebpf4jnsgd1na2vs0mg"},{"bike_id":"dd74e259-a115-47c5-afe1-b8dee667f7eb","system_id":"levelo_inurba_marseille","lat":43.28692,"lon":5.38651,"is_reserved":false,"is_disabled":false,"rental_uris":{"android":"levelo://app?vid=dd74e259-a115-47c5-afe1-b8dee667f7eb","ios":"levelo://app?vid=dd74e259-a115-47c5-afe1-b8dee667f7eb"},"vehicle_type_id":"4","last_reported":1726787361,"current_range_meters":16000,"station_id":"ce4bh492rcd13ifvqdug","pricing_plan_id":"cebpf4jnsgd1na2vs0mg"},{"bike_id":"d448a30b-18a4-41c6-8b06-f0460d2a05d6","system_id":"levelo_inurba_marseille","lat":43.26808,"lon":5.40269,"is_reserved":false,"is_disabled":false,"rental_uris":{"android":"levelo://app?vid=d448a30b-18a4-41c6-8b06-f0460d2a05d6","ios":"levelo://app?vid=d448a30b-18a4-41c6-8b06-f0460d2a05d6"},"vehicle_type_id":"4","last_reported":1726787361,"current_range_meters":37600,"station_id":"ce501612rcd8frsf0b60","pricing_plan_id":"cebpf4jnsgd1na2vs0mg"},{"bike_id":"1bd9aea9-da31-4368-b338-3635b5620571","system_id":"levelo_inurba_marseille","lat":43.23966,"lon":5.36623,"is_reserved":false,"is_disabled":false,"rental_uris":{"android":"levelo://app?vid=1bd9aea9-da31-4368-b338-3635b5620571","ios":"levelo://app?vid=1bd9aea9-da31-4368-b338-3635b5620571"},"vehicle_type_id":"4","last_reported":1726787361,"current_range_meters":37600,"station_id":"ce4bhi12rcd13ifvqfp0","pricing_plan_id":"cebpf4jnsgd1na2vs0mg"},{"bike_id":"64dcf5e2-6b57-4efa-badf-cd57405a7aa5","system_id":"levelo_inurba_marseille","lat":43.27557,"lon":5.38421,"is_reserved":false,"is_disabled":false,"rental_uris":{"android":"levelo://app?vid=64dcf5e2-6b57-4efa-badf-cd57405a7aa5","ios":"levelo://app?vid=64dcf5e2-6b57-4efa-badf-cd57405a7aa5"},"vehicle_type_id":"4","last_reported":1726787361,"current_range_meters":39200,"station_id":"ce4bhh92rcd13ifvqfi0","pricing_plan_id":"cebpf4jnsgd1na2vs0mg"},{"bike_id":"8bded9b1-4958-41a5-9529-392455536bc5","system_id":"levelo_inurba_marseille","lat":43.27494,"lon":5.42453,"is_reserved":false,"is_disabled":false,"rental_uris":{"android":"levelo://app?vid=8bded9b1-4958-41a5-9529-392455536bc5","ios":"levelo://app?vid=8bded9b1-4958-41a5-9529-392455536bc5"},"vehicle_type_id":"4","last_reported":1726787361,"current_range_meters":40000,"station_id":"ce4bhn92rcd13ifvqgrg","pricing_plan_id":"cebpf4jnsgd1na2vs0mg"},{"bike_id":"a2eb1526-071c-462b-ae89-1cca26b21959","system_id":"levelo_inurba_marseille","lat":43.31377,"lon":5.38494,"is_reserved":false,"is_disabled":false,"rental_uris":{"android":"levelo://app?vid=a2eb1526-071c-462b-ae89-1cca26b21959","ios":"levelo://app?vid=a2eb1526-071c-462b-ae89-1cca26b21959"},"vehicle_type_id":"4","last_reported":1726787361,"current_range_meters":9600,"station_id":"ce4bgt92rcd13ifvqcf0","pricing_plan_id":"cebpf4jnsgd1na2vs0mg"},{"bike_id":"c92192e0-4dbf-4f44-af86-db1fa4cc66d8","system_id":"levelo_inurba_marseille","lat":43.272086,"lon":5.391815,"is_reserved":false,"is_disabled":false,"rental_uris":{"android":"levelo://app?vid=c92192e0-4dbf-4f44-af86-db1fa4cc66d8","ios":"levelo://app?vid=c92192e0-4dbf-4f44-af86-db1fa4cc66d8"},"vehicle_type_id":"4","last_reported":1726787361,"current_range_meters":30400,"station_id":"ce4bhhp2rcd13ifvqfm0","pricing_plan_id":"cebpf4jnsgd1na2vs0mg"},{"bike_id":"a2a90ab3-4077-4755-9974-d0cba0a8c76c","system_id":"levelo_inurba_marseille","lat":43.27917,"lon":5.39584,"is_reserved":false,"is_disabled":false,"rental_uris":{"android":"levelo://app?vid=a2a90ab3-4077-4755-9974-d0cba0a8c76c","ios":"levelo://app?vid=a2a90ab3-4077-4755-9974-d0cba0a8c76c"},"vehicle_type_id":"4","last_reported":1726787361,"current_range_meters":38800,"station_id":"ce4bhf92rcd13ifvqf40","pricing_plan_id":"cebpf4jnsgd1na2vs0mg"},{"bike_id":"35b5402e-439d-435e-b161-9776477f6ee9","system_id":"levelo_inurba_marseille","lat":43.29521,"lon":5.394,"is_reserved":false,"is_disabled":false,"rental_uris":{"android":"levelo://app?vid=35b5402e-439d-435e-b161-9776477f6ee9","ios":"levelo://app?vid=35b5402e-439d-435e-b161-9776477f6ee9"},"vehicle_type_id":"4","last_reported":1726787361,"current_range_meters":39200,"station_id":"ce4bh292rcd13ifvqdf0","pricing_plan_id":"cebpf4jnsgd1na2vs0mg"},{"bike_id":"4fa0ca0d-342c-4cd6-990b-f5e4ae40db2b","system_id":"levelo_inurba_marseille","lat":43.29965,"lon":5.41331,"is_reserved":false,"is_disabled":false,"rental_uris":{"android":"levelo://app?vid=4fa0ca0d-342c-4cd6-990b-f5e4ae40db2b","ios":"levelo://app?vid=4fa0ca0d-342c-4cd6-990b-f5e4ae40db2b"},"vehicle_type_id":"4","last_reported":1726787361,"current_range_meters":38000,"station_id":"ce4bhp12rcd13ifvqh9g","pricing_plan_id":"cebpf4jnsgd1na2vs0mg"},{"bike_id":"1b297945-7c8a-4e0e-b2c4-bc43a6c00be3","system_id":"levelo_inurba_marseille","lat":43.24641,"lon":5.38941,"is_reserved":false,"is_disabled":false,"rental_uris":{"android":"levelo://app?vid=1b297945-7c8a-4e0e-b2c4-bc43a6c00be3","ios":"levelo://app?vid=1b297945-7c8a-4e0e-b2c4-bc43a6c00be3"},"vehicle_type_id":"4","last_reported":1726787361,"current_range_meters":37600,"station_id":"ce4bhg12rcd13ifvqf60","pricing_plan_id":"cebpf4jnsgd1na2vs0mg"},{"bike_id":"cfc1d900-e8fd-4aae-99cd-fdad686708d5","system_id":"levelo_inurba_marseille","lat":43.24805,"lon":5.37455,"is_reserved":false,"is_disabled":false,"rental_uris":{"android":"levelo://app?vid=cfc1d900-e8fd-4aae-99cd-fdad686708d5","ios":"levelo://app?vid=cfc1d900-e8fd-4aae-99cd-fdad686708d5"},"vehicle_type_id":"4","last_reported":1726787361,"current_range_meters":38000,"station_id":"ce4bhgh2rcd13ifvqfb0","pricing_plan_id":"cebpf4jnsgd1na2vs0mg"},{"bike_id":"09c4114b-2ef9-4c56-b3aa-9024026df938","system_id":"levelo_inurba_marseille","lat":43.309,"lon":5.39631,"is_reserved":false,"is_disabled":false,"rental_uris":{"android":"levelo://app?vid=09c4114b-2ef9-4c56-b3aa-9024026df938","ios":"levelo://app?vid=09c4114b-2ef9-4c56-b3aa-9024026df938"},"vehicle_type_id":"4","last_reported":1726787361,"current_range_meters":8000,"station_id":"ce4bh012rcd13ifvqcv0","pricing_plan_id":"cebpf4jnsgd1na2vs0mg"},{"bike_id":"f8571aad-5f92-4ec9-b9ed-faec8639629b","system_id":"levelo_inurba_marseille","lat":43.33616,"lon":5.41023,"is_reserved":false,"is_disabled":false,"rental_uris":{"android":"levelo://app?vid=f8571aad-5f92-4ec9-b9ed-faec8639629b","ios":"levelo://app?vid=f8571aad-5f92-4ec9-b9ed-faec8639629b"},"vehicle_type_id":"4","last_reported":1726787361,"current_range_meters":19600,"station_id":"ce4bhqh2rcd13ifvqhmg","pricing_plan_id":"cebpf4jnsgd1na2vs0mg"},{"bike_id":"4e517360-2841-479d-addb-3328895093b5","system_id":"levelo_inurba_marseille","lat":43.27917,"lon":5.3958,"is_reserved":false,"is_disabled":false,"rental_uris":{"android":"levelo://app?vid=4e517360-2841-479d-addb-3328895093b5","ios":"levelo://app?vid=4e517360-2841-479d-addb-3328895093b5"},"vehicle_type_id":"4","last_reported":1726787361,"current_range_meters":30800,"station_id":"ce4bhf92rcd13ifvqf40","pricing_plan_id":"cebpf4jnsgd1na2vs0mg"},{"bike_id":"05990c97-725c-49c8-9601-924bd38ea49a","system_id":"levelo_inurba_marseille","lat":43.28488,"lon":5.3842,"is_reserved":false,"is_disabled":false,"rental_uris":{"android":"levelo://app?vid=05990c97-725c-49c8-9601-924bd38ea49a","ios":"levelo://app?vid=05990c97-725c-49c8-9601-924bd38ea49a"},"vehicle_type_id":"4","last_reported":1726787361,"current_range_meters":39200,"station_id":"ce4bh512rcd13ifvqe3g","pricing_plan_id":"cebpf4jnsgd1na2vs0mg"},{"bike_id":"1ce4bf98-77d7-4bec-91cd-6d6653823ac2","system_id":"levelo_inurba_marseille","lat":43.31485,"lon":5.37305,"is_reserved":false,"is_disabled":false,"rental_uris":{"android":"levelo://app?vid=1ce4bf98-77d7-4bec-91cd-6d6653823ac2","ios":"levelo://app?vid=1ce4bf98-77d7-4bec-91cd-6d6653823ac2"},"vehicle_type_id":"4","last_reported":1726787361,"current_range_meters":36800,"station_id":"ce4bgt12rcd13ifvqcd0","pricing_plan_id":"cebpf4jnsgd1na2vs0mg"},{"bike_id":"4f9594be-eb89-451c-99e6-1d1b91e83878","system_id":"levelo_inurba_marseille","lat":43.28753,"lon":5.37834,"is_reserved":false,"is_disabled":false,"rental_uris":{"android":"levelo://app?vid=4f9594be-eb89-451c-99e6-1d1b91e83878","ios":"levelo://app?vid=4f9594be-eb89-451c-99e6-1d1b91e83878"},"vehicle_type_id":"4","last_reported":1726787361,"current_range_meters":11200,"station_id":"","pricing_plan_id":"cebpf4jnsgd1na2vs0mg"},{"bike_id":"80ee0a98-31d7-48cc-b3da-365638004004","system_id":"levelo_inurba_marseille","lat":43.29259,"lon":5.40913,"is_reserved":false,"is_disabled":false,"rental_uris":{"android":"levelo://app?vid=80ee0a98-31d7-48cc-b3da-365638004004","ios":"levelo://app?vid=80ee0a98-31d7-48cc-b3da-365638004004"},"vehicle_type_id":"4","last_reported":1726787361,"current_range_meters":38400,"station_id":"ce4bh192rcd13ifvqdc0","pricing_plan_id":"cebpf4jnsgd1na2vs0mg"},{"bike_id":"5705acbc-d503-4f36-a9f5-13b5f18aa34d","system_id":"levelo_inurba_marseille","lat":43.23962,"lon":5.36632,"is_reserved":false,"is_disabled":false,"rental_uris":{"android":"levelo://app?vid=5705acbc-d503-4f36-a9f5-13b5f18aa34d","ios":"levelo://app?vid=5705acbc-d503-4f36-a9f5-13b5f18aa34d"},"vehicle_type_id":"4","last_reported":1726787361,"current_range_meters":37600,"station_id":"ce4bhi12rcd13ifvqfp0","pricing_plan_id":"cebpf4jnsgd1na2vs0mg"},{"bike_id":"11228085-23e5-4c89-842a-c1aca906e3a6","system_id":"levelo_inurba_marseille","lat":43.28001,"lon":5.41658,"is_reserved":false,"is_disabled":false,"rental_uris":{"android":"levelo://app?vid=11228085-23e5-4c89-842a-c1aca906e3a6","ios":"levelo://app?vid=11228085-23e5-4c89-842a-c1aca906e3a6"},"vehicle_type_id":"4","last_reported":1726787361,"current_range_meters":38800,"station_id":"ce4bho12rcd13ifvqh1g","pricing_plan_id":"cebpf4jnsgd1na2vs0mg"},{"bike_id":"a96ac643-0746-4fe4-b62f-d8dcd010aa5a","system_id":"levelo_inurba_marseille","lat":43.30654,"lon":5.40098,"is_reserved":false,"is_disabled":false,"rental_uris":{"android":"levelo://app?vid=a96ac643-0746-4fe4-b62f-d8dcd010aa5a","ios":"levelo://app?vid=a96ac643-0746-4fe4-b62f-d8dcd010aa5a"},"vehicle_type_id":"4","last_reported":1726787361,"current_range_meters":30000,"station_id":"ce4bh112rcd13ifvqda0","pricing_plan_id":"cebpf4jnsgd1na2vs0mg"},{"bike_id":"cd8e9929-c995-4a74-af9f-d79388bb1f25","system_id":"levelo_inurba_marseille","lat":43.28843,"lon":5.39314,"is_reserved":false,"is_disabled":false,"rental_uris":{"android":"levelo://app?vid=cd8e9929-c995-4a74-af9f-d79388bb1f25","ios":"levelo://app?vid=cd8e9929-c995-4a74-af9f-d79388bb1f25"},"vehicle_type_id":"4","last_reported":1726787361,"current_range_meters":19600,"station_id":"ce4bh2p2rcd13ifvqdi0","pricing_plan_id":"cebpf4jnsgd1na2vs0mg"},{"bike_id":"7b9dd459-340b-4978-bfb0-6c163a5263e8","system_id":"levelo_inurba_marseille","lat":43.2319,"lon":5.3554,"is_reserved":false,"is_disabled":false,"rental_uris":{"android":"levelo://app?vid=7b9dd459-340b-4978-bfb0-6c163a5263e8","ios":"levelo://app?vid=7b9dd459-340b-4978-bfb0-6c163a5263e8"},"vehicle_type_id":"4","last_reported":1726787361,"current_range_meters":40000,"station_id":"ce4bhu92rcd13ifvqi70","pricing_plan_id":"cebpf4jnsgd1na2vs0mg"},{"bike_id":"47c56b71-2560-481e-a76e-8d39095c725b","system_id":"levelo_inurba_marseille","lat":43.25004,"lon":5.38924,"is_reserved":false,"is_disabled":false,"rental_uris":{"android":"levelo://app?vid=47c56b71-2560-481e-a76e-8d39095c725b","ios":"levelo://app?vid=47c56b71-2560-481e-a76e-8d39095c725b"},"vehicle_type_id":"4","last_reported":1726787361,"current_range_meters":39200,"station_id":"ce4bhgp2rcd13ifvqfd0","pricing_plan_id":"cebpf4jnsgd1na2vs0mg"},{"bike_id":"e3d2cb34-c757-45ad-beac-0be6b9457278","system_id":"levelo_inurba_marseille","lat":43.30801,"lon":5.43519,"is_reserved":false,"is_disabled":false,"rental_uris":{"android":"levelo://app?vid=e3d2cb34-c757-45ad-beac-0be6b9457278","ios":"levelo://app?vid=e3d2cb34-c757-45ad-beac-0be6b9457278"},"vehicle_type_id":"4","last_reported":1726787361,"current_range_meters":37600,"station_id":"ce4bhph2rcd13ifvqheg","pricing_plan_id":"cebpf4jnsgd1na2vs0mg"},{"bike_id":"87440cd1-4d99-421b-9f62-83acc0dd5fa9","system_id":"levelo_inurba_marseille","lat":43.32367,"lon":5.38871,"is_reserved":false,"is_disabled":false,"rental_uris":{"android":"levelo://app?vid=87440cd1-4d99-421b-9f62-83acc0dd5fa9","ios":"levelo://app?vid=87440cd1-4d99-421b-9f62-83acc0dd5fa9"},"vehicle_type_id":"4","last_reported":1726787361,"current_range_meters":38800,"station_id":"ce4bhqp2rcd13ifvqhog","pricing_plan_id":"cebpf4jnsgd1na2vs0mg"},{"bike_id":"408a7389-3635-4c64-9b5e-576ef3edf329","system_id":"levelo_inurba_marseille","lat":43.31499,"lon":5.37302,"is_reserved":false,"is_disabled":false,"rental_uris":{"android":"levelo://app?vid=408a7389-3635-4c64-9b5e-576ef3edf329","ios":"levelo://app?vid=408a7389-3635-4c64-9b5e-576ef3edf329"},"vehicle_type_id":"4","last_reported":1726787361,"current_range_meters":27200,"station_id":"ce4bgt12rcd13ifvqcd0","pricing_plan_id":"cebpf4jnsgd1na2vs0mg"},{"bike_id":"08d153bf-e704-4420-b970-7fb548a6bd6d","system_id":"levelo_inurba_marseille","lat":43.28937,"lon":5.36635,"is_reserved":false,"is_disabled":false,"rental_uris":{"android":"levelo://app?vid=08d153bf-e704-4420-b970-7fb548a6bd6d","ios":"levelo://app?vid=08d153bf-e704-4420-b970-7fb548a6bd6d"},"vehicle_type_id":"4","last_reported":1726787361,"current_range_meters":5600,"station_id":"ce4bhap2rcd13ifvqek0","pricing_plan_id":"cebpf4jnsgd1na2vs0mg"},{"bike_id":"a7be9b00-f1df-4cdf-b155-c370eb06a34e","system_id":"levelo_inurba_marseille","lat":43.29239,"lon":5.40903,"is_reserved":false,"is_disabled":false,"rental_uris":{"android":"levelo://app?vid=a7be9b00-f1df-4cdf-b155-c370eb06a34e","ios":"levelo://app?vid=a7be9b00-f1df-4cdf-b155-c370eb06a34e"},"vehicle_type_id":"4","last_reported":1726787361,"current_range_meters":39200,"station_id":"ce4bh192rcd13ifvqdc0","pricing_plan_id":"cebpf4jnsgd1na2vs0mg"},{"bike_id":"010d89de-6be0-4954-8660-15897686fb5a","system_id":"levelo_inurba_marseille","lat":43.31176,"lon":5.38708,"is_reserved":false,"is_disabled":false,"rental_uris":{"android":"levelo://app?vid=010d89de-6be0-4954-8660-15897686fb5a","ios":"levelo://app?vid=010d89de-6be0-4954-8660-15897686fb5a"},"vehicle_type_id":"4","last_reported":1726787361,"current_range_meters":28400,"station_id":"ce4bgv12rcd13ifvqcp0","pricing_plan_id":"cebpf4jnsgd1na2vs0mg"},{"bike_id":"f0acb984-d113-4e73-b246-74f9b542af03","system_id":"levelo_inurba_marseille","lat":43.27919,"lon":5.38,"is_reserved":false,"is_disabled":false,"rental_uris":{"android":"levelo://app?vid=f0acb984-d113-4e73-b246-74f9b542af03","ios":"levelo://app?vid=f0acb984-d113-4e73-b246-74f9b542af03"},"vehicle_type_id":"4","last_reported":1726787361,"current_range_meters":27200,"station_id":"ce4bhf92rcd13ifvqf50","pricing_plan_id":"cebpf4jnsgd1na2vs0mg"},{"bike_id":"59526314-6814-428f-9df0-ead1cf1c2777","system_id":"levelo_inurba_marseille","lat":43.25931,"lon":5.40909,"is_reserved":false,"is_disabled":false,"rental_uris":{"android":"levelo://app?vid=59526314-6814-428f-9df0-ead1cf1c2777","ios":"levelo://app?vid=59526314-6814-428f-9df0-ead1cf1c2777"},"vehicle_type_id":"4","last_reported":1726787361,"current_range_meters":36800,"station_id":"ce4bhm92rcd13ifvqglg","pricing_plan_id":"cebpf4jnsgd1na2vs0mg"},{"bike_id":"bd6e7351-656c-4dbb-a154-71adff563c28","system_id":"levelo_inurba_marseille","lat":43.29717,"lon":5.36605,"is_reserved":false,"is_disabled":false,"rental_uris":{"android":"levelo://app?vid=bd6e7351-656c-4dbb-a154-71adff563c28","ios":"levelo://app?vid=bd6e7351-656c-4dbb-a154-71adff563c28"},"vehicle_type_id":"4","last_reported":1726787361,"current_range_meters":36400,"station_id":"ce4bgn12rcd13ifvqbt0","pricing_plan_id":"cebpf4jnsgd1na2vs0mg"},{"bike_id":"8ffa1982-6191-434e-b395-24a81023ee09","system_id":"levelo_inurba_marseille","lat":43.28353,"lon":5.3811,"is_reserved":false,"is_disabled":false,"rental_uris":{"android":"levelo://app?vid=8ffa1982-6191-434e-b395-24a81023ee09","ios":"levelo://app?vid=8ffa1982-6191-434e-b395-24a81023ee09"},"vehicle_type_id":"4","last_reported":1726787361,"current_range_meters":19600,"station_id":"ce4bh412rcd13ifvqdr0","pricing_plan_id":"cebpf4jnsgd1na2vs0mg"},{"bike_id":"8f0ac399-c7ad-48ed-bf9e-bf052c987a8f","system_id":"levelo_inurba_marseille","lat":43.29046,"lon":5.39952,"is_reserved":false,"is_disabled":false,"rental_uris":{"android":"levelo://app?vid=8f0ac399-c7ad-48ed-bf9e-bf052c987a8f","ios":"levelo://app?vid=8f0ac399-c7ad-48ed-bf9e-bf052c987a8f"},"vehicle_type_id":"4","last_reported":1726787361,"current_range_meters":18000,"station_id":"ce4bh392rcd13ifvqdm0","pricing_plan_id":"cebpf4jnsgd1na2vs0mg"},{"bike_id":"691a97ae-21f9-453e-a5b7-b33c75494b17","system_id":"levelo_inurba_marseille","lat":43.25829,"lon":5.39424,"is_reserved":false,"is_disabled":false,"rental_uris":{"android":"levelo://app?vid=691a97ae-21f9-453e-a5b7-b33c75494b17","ios":"levelo://app?vid=691a97ae-21f9-453e-a5b7-b33c75494b17"},"vehicle_type_id":"4","last_reported":1726787361,"current_range_meters":20000,"station_id":"ce4bhip2rcd13ifvqft0","pricing_plan_id":"cebpf4jnsgd1na2vs0mg"},{"bike_id":"35c8887b-df23-488d-81c5-d6b73b4441e3","system_id":"levelo_inurba_marseille","lat":43.30654,"lon":5.40089,"is_reserved":false,"is_disabled":false,"rental_uris":{"android":"levelo://app?vid=35c8887b-df23-488d-81c5-d6b73b4441e3","ios":"levelo://app?vid=35c8887b-df23-488d-81c5-d6b73b4441e3"},"vehicle_type_id":"4","last_reported":1726787361,"current_range_meters":25600,"station_id":"ce4bh112rcd13ifvqda0","pricing_plan_id":"cebpf4jnsgd1na2vs0mg"},{"bike_id":"a6138b45-7e28-438c-b576-0f9f8832e4f6","system_id":"levelo_inurba_marseille","lat":43.32655,"lon":5.40991,"is_reserved":false,"is_disabled":false,"rental_uris":{"android":"levelo://app?vid=a6138b45-7e28-438c-b576-0f9f8832e4f6","ios":"levelo://app?vid=a6138b45-7e28-438c-b576-0f9f8832e4f6"},"vehicle_type_id":"4","last_reported":1726787361,"current_range_meters":8800,"station_id":"ce4bhpp2rcd13ifvqhgg","pricing_plan_id":"cebpf4jnsgd1na2vs0mg"},{"bike_id":"e8838fc0-3cd4-4213-84e3-c33f37fcda59","system_id":"levelo_inurba_marseille","lat":43.2583,"lon":5.39423,"is_reserved":false,"is_disabled":false,"rental_uris":{"android":"levelo://app?vid=e8838fc0-3cd4-4213-84e3-c33f37fcda59","ios":"levelo://app?vid=e8838fc0-3cd4-4213-84e3-c33f37fcda59"},"vehicle_type_id":"4","last_reported":1726787361,"current_range_meters":40000,"station_id":"ce4bhip2rcd13ifvqft0","pricing_plan_id":"cebpf4jnsgd1na2vs0mg"},{"bike_id":"ff49b0a2-cff1-409f-80f9-91b5cc2e1ff5","system_id":"levelo_inurba_marseille","lat":43.28152,"lon":5.42641,"is_reserved":false,"is_disabled":false,"rental_uris":{"android":"levelo://app?vid=ff49b0a2-cff1-409f-80f9-91b5cc2e1ff5","ios":"levelo://app?vid=ff49b0a2-cff1-409f-80f9-91b5cc2e1ff5"},"vehicle_type_id":"4","last_reported":1726787361,"current_range_meters":24400,"station_id":"ce4bhnh2rcd13ifvqgug","pricing_plan_id":"cebpf4jnsgd1na2vs0mg"},{"bike_id":"ef180934-2dae-4833-acdd-ed74426bbff7","system_id":"levelo_inurba_marseille","lat":43.31329,"lon":5.39693,"is_reserved":false,"is_disabled":false,"rental_uris":{"android":"levelo://app?vid=ef180934-2dae-4833-acdd-ed74426bbff7","ios":"levelo://app?vid=ef180934-2dae-4833-acdd-ed74426bbff7"},"vehicle_type_id":"4","last_reported":1726787361,"current_range_meters":40000,"station_id":"ce4bgvp2rcd13ifvqcu0","pricing_plan_id":"cebpf4jnsgd1na2vs0mg"},{"bike_id":"3f4844a7-8837-4f90-9cc5-9a37bfd599bf","system_id":"levelo_inurba_marseille","lat":43.31691,"lon":5.40475,"is_reserved":false,"is_disabled":false,"rental_uris":{"android":"levelo://app?vid=3f4844a7-8837-4f90-9cc5-9a37bfd599bf","ios":"levelo://app?vid=3f4844a7-8837-4f90-9cc5-9a37bfd599bf"},"vehicle_type_id":"4","last_reported":1726787361,"current_range_meters":39200,"station_id":"ce4bh012rcd13ifvqd00","pricing_plan_id":"cebpf4jnsgd1na2vs0mg"},{"bike_id":"eb2bede7-1cfc-481d-95f0-4175f9ef21df","system_id":"levelo_inurba_marseille","lat":43.2594,"lon":5.40905,"is_reserved":false,"is_disabled":false,"rental_uris":{"android":"levelo://app?vid=eb2bede7-1cfc-481d-95f0-4175f9ef21df","ios":"levelo://app?vid=eb2bede7-1cfc-481d-95f0-4175f9ef21df"},"vehicle_type_id":"4","last_reported":1726787361,"current_range_meters":18800,"station_id":"ce4bhm92rcd13ifvqglg","pricing_plan_id":"cebpf4jnsgd1na2vs0mg"},{"bike_id":"2d0209a5-edfc-4ef2-af9a-5e4c23db38d5","system_id":"levelo_inurba_marseille","lat":43.24815,"lon":5.37461,"is_reserved":false,"is_disabled":false,"rental_uris":{"android":"levelo://app?vid=2d0209a5-edfc-4ef2-af9a-5e4c23db38d5","ios":"levelo://app?vid=2d0209a5-edfc-4ef2-af9a-5e4c23db38d5"},"vehicle_type_id":"4","last_reported":1726787361,"current_range_meters":4000,"station_id":"ce4bhgh2rcd13ifvqfb0","pricing_plan_id":"cebpf4jnsgd1na2vs0mg"},{"bike_id":"f0358b7c-0d51-45cd-b0f4-25d08b472a8f","system_id":"levelo_inurba_marseille","lat":43.31706,"lon":5.37742,"is_reserved":false,"is_disabled":false,"rental_uris":{"android":"levelo://app?vid=f0358b7c-0d51-45cd-b0f4-25d08b472a8f","ios":"levelo://app?vid=f0358b7c-0d51-45cd-b0f4-25d08b472a8f"},"vehicle_type_id":"4","last_reported":1726787361,"current_range_meters":38000,"station_id":"ce4bgth2rcd13ifvqch0","pricing_plan_id":"cebpf4jnsgd1na2vs0mg"},{"bike_id":"0bb22754-7c8b-4bd4-bec6-46166cf1031a","system_id":"levelo_inurba_marseille","lat":43.27942,"lon":5.41045,"is_reserved":false,"is_disabled":false,"rental_uris":{"android":"levelo://app?vid=0bb22754-7c8b-4bd4-bec6-46166cf1031a","ios":"levelo://app?vid=0bb22754-7c8b-4bd4-bec6-46166cf1031a"},"vehicle_type_id":"4","last_reported":1726787361,"current_range_meters":34800,"station_id":"ce4bhnp2rcd13ifvqh0g","pricing_plan_id":"cebpf4jnsgd1na2vs0mg"},{"bike_id":"ff5f6119-dd73-4e4e-8147-e66520e5ba8e","system_id":"levelo_inurba_marseille","lat":43.25723,"lon":5.41106,"is_reserved":false,"is_disabled":false,"rental_uris":{"android":"levelo://app?vid=ff5f6119-dd73-4e4e-8147-e66520e5ba8e","ios":"levelo://app?vid=ff5f6119-dd73-4e4e-8147-e66520e5ba8e"},"vehicle_type_id":"4","last_reported":1726787361,"current_range_meters":17200,"station_id":"ce4bhkp2rcd13ifvqgd0","pricing_plan_id":"cebpf4jnsgd1na2vs0mg"},{"bike_id":"b2e96364-fc4f-407d-a1dd-d52ffa2764ae","system_id":"levelo_inurba_marseille","lat":43.27624,"lon":5.36107,"is_reserved":false,"is_disabled":false,"rental_uris":{"android":"levelo://app?vid=b2e96364-fc4f-407d-a1dd-d52ffa2764ae","ios":"levelo://app?vid=b2e96364-fc4f-407d-a1dd-d52ffa2764ae"},"vehicle_type_id":"4","last_reported":1726787361,"current_range_meters":39200,"station_id":"ce4bgj92rcd13ifvqbe0","pricing_plan_id":"cebpf4jnsgd1na2vs0mg"},{"bike_id":"ba5b7b2a-8f33-406a-99d9-60143d2351b0","system_id":"levelo_inurba_marseille","lat":43.30938,"lon":5.40146,"is_reserved":false,"is_disabled":false,"rental_uris":{"android":"levelo://app?vid=ba5b7b2a-8f33-406a-99d9-60143d2351b0","ios":"levelo://app?vid=ba5b7b2a-8f33-406a-99d9-60143d2351b0"},"vehicle_type_id":"4","last_reported":1726787361,"current_range_meters":32400,"station_id":"ce4bgvp2rcd13ifvqct0","pricing_plan_id":"cebpf4jnsgd1na2vs0mg"},{"bike_id":"82ea35eb-356c-435a-af7e-f3943eee0033","system_id":"levelo_inurba_marseille","lat":43.31527,"lon":5.38034,"is_reserved":false,"is_disabled":false,"rental_uris":{"android":"levelo://app?vid=82ea35eb-356c-435a-af7e-f3943eee0033","ios":"levelo://app?vid=82ea35eb-356c-435a-af7e-f3943eee0033"},"vehicle_type_id":"4","last_reported":1726787361,"current_range_meters":40000,"station_id":"ce4bhsp2rcd13ifvqi50","pricing_plan_id":"cebpf4jnsgd1na2vs0mg"},{"bike_id":"902190e7-1fe9-4270-9546-498dac581307","system_id":"levelo_inurba_marseille","lat":43.28005,"lon":5.40587,"is_reserved":false,"is_disabled":false,"rental_uris":{"android":"levelo://app?vid=902190e7-1fe9-4270-9546-498dac581307","ios":"levelo://app?vid=902190e7-1fe9-4270-9546-498dac581307"},"vehicle_type_id":"4","last_reported":1726787361,"current_range_meters":33600,"station_id":"","pricing_plan_id":"cebpf4jnsgd1na2vs0mg"},{"bike_id":"39eed462-3762-4599-9a58-6385ec6af89d","system_id":"levelo_inurba_marseille","lat":43.28699,"lon":5.37365,"is_reserved":false,"is_disabled":false,"rental_uris":{"android":"levelo://app?vid=39eed462-3762-4599-9a58-6385ec6af89d","ios":"levelo://app?vid=39eed462-3762-4599-9a58-6385ec6af89d"},"vehicle_type_id":"4","last_reported":1726787361,"current_range_meters":36000,"station_id":"ce4bh3p2rcd13ifvqdq0","pricing_plan_id":"cebpf4jnsgd1na2vs0mg"},{"bike_id":"ffe054b3-44bf-4c54-b418-d07f10908d45","system_id":"levelo_inurba_marseille","lat":43.28006,"lon":5.40007,"is_reserved":false,"is_disabled":false,"rental_uris":{"android":"levelo://app?vid=ffe054b3-44bf-4c54-b418-d07f10908d45","ios":"levelo://app?vid=ffe054b3-44bf-4c54-b418-d07f10908d45"},"vehicle_type_id":"4","last_reported":1726787361,"current_range_meters":27600,"station_id":"ce4bho92rcd13ifvqh4g","pricing_plan_id":"cebpf4jnsgd1na2vs0mg"},{"bike_id":"5357f56d-8fda-4848-92ec-00c39d374ad6","system_id":"levelo_inurba_marseille","lat":43.28469,"lon":5.35886,"is_reserved":false,"is_disabled":false,"rental_uris":{"android":"levelo://app?vid=5357f56d-8fda-4848-92ec-00c39d374ad6","ios":"levelo://app?vid=5357f56d-8fda-4848-92ec-00c39d374ad6"},"vehicle_type_id":"4","last_reported":1726787361,"current_range_meters":23200,"station_id":"ce4bhah2rcd13ifvqei0","pricing_plan_id":"cebpf4jnsgd1na2vs0mg"},{"bike_id":"c48441d3-1273-46e7-8012-ad8941a2e1c7","system_id":"levelo_inurba_marseille","lat":43.31277,"lon":5.40172,"is_reserved":false,"is_disabled":false,"rental_uris":{"android":"levelo://app?vid=c48441d3-1273-46e7-8012-ad8941a2e1c7","ios":"levelo://app?vid=c48441d3-1273-46e7-8012-ad8941a2e1c7"},"vehicle_type_id":"4","last_reported":1726787361,"current_range_meters":36800,"station_id":"ce4bh092rcd13ifvqd30","pricing_plan_id":"cebpf4jnsgd1na2vs0mg"},{"bike_id":"c72671e4-48d1-4590-84cd-1cd1b432d06a","system_id":"levelo_inurba_marseille","lat":43.31716,"lon":5.37759,"is_reserved":false,"is_disabled":false,"rental_uris":{"android":"levelo://app?vid=c72671e4-48d1-4590-84cd-1cd1b432d06a","ios":"levelo://app?vid=c72671e4-48d1-4590-84cd-1cd1b432d06a"},"vehicle_type_id":"4","last_reported":1726787361,"current_range_meters":38800,"station_id":"ce4bgth2rcd13ifvqch0","pricing_plan_id":"cebpf4jnsgd1na2vs0mg"},{"bike_id":"35cbddc5-7db1-44a5-9da8-38b5009c54c2","system_id":"levelo_inurba_marseille","lat":43.32762,"lon":5.39121,"is_reserved":false,"is_disabled":false,"rental_uris":{"android":"levelo://app?vid=35cbddc5-7db1-44a5-9da8-38b5009c54c2","ios":"levelo://app?vid=35cbddc5-7db1-44a5-9da8-38b5009c54c2"},"vehicle_type_id":"4","last_reported":1726787361,"current_range_meters":28000,"station_id":"","pricing_plan_id":"cebpf4jnsgd1na2vs0mg"},{"bike_id":"98819c89-076d-4b67-9f95-b72fbf5469ea","system_id":"levelo_inurba_marseille","lat":43.30608,"lon":5.37222,"is_reserved":false,"is_disabled":false,"rental_uris":{"android":"levelo://app?vid=98819c89-076d-4b67-9f95-b72fbf5469ea","ios":"levelo://app?vid=98819c89-076d-4b67-9f95-b72fbf5469ea"},"vehicle_type_id":"4","last_reported":1726787361,"current_range_meters":39200,"station_id":"ce4bgqh2rcd13ifvqc4g","pricing_plan_id":"cebpf4jnsgd1na2vs0mg"},{"bike_id":"7c904801-7111-4d1d-a285-a9fb34472e47","system_id":"levelo_inurba_marseille","lat":43.29803,"lon":5.40415,"is_reserved":false,"is_disabled":false,"rental_uris":{"android":"levelo://app?vid=7c904801-7111-4d1d-a285-a9fb34472e47","ios":"levelo://app?vid=7c904801-7111-4d1d-a285-a9fb34472e47"},"vehicle_type_id":"4","last_reported":1726787361,"current_range_meters":40000,"station_id":"ce4bh112rcd13ifvqd90","pricing_plan_id":"cebpf4jnsgd1na2vs0mg"},{"bike_id":"db5bed51-afb9-4548-98e9-7b7ae226c501","system_id":"levelo_inurba_marseille","lat":43.33756,"lon":5.37453,"is_reserved":false,"is_disabled":false,"rental_uris":{"android":"levelo://app?vid=db5bed51-afb9-4548-98e9-7b7ae226c501","ios":"levelo://app?vid=db5bed51-afb9-4548-98e9-7b7ae226c501"},"vehicle_type_id":"4","last_reported":1726787361,"current_range_meters":20000,"station_id":"","pricing_plan_id":"cebpf4jnsgd1na2vs0mg"},{"bike_id":"522ea478-12b1-49b5-adff-1aec0a729243","system_id":"levelo_inurba_marseille","lat":43.28709,"lon":5.39994,"is_reserved":false,"is_disabled":false,"rental_uris":{"android":"levelo://app?vid=522ea478-12b1-49b5-adff-1aec0a729243","ios":"levelo://app?vid=522ea478-12b1-49b5-adff-1aec0a729243"},"vehicle_type_id":"4","last_reported":1726787361,"current_range_meters":16000,"station_id":"ce4bho92rcd13ifvqh3g","pricing_plan_id":"cebpf4jnsgd1na2vs0mg"},{"bike_id":"acf47c03-d493-46fb-9b5b-720a9b9aec60","system_id":"levelo_inurba_marseille","lat":43.27999,"lon":5.41665,"is_reserved":false,"is_disabled":false,"rental_uris":{"android":"levelo://app?vid=acf47c03-d493-46fb-9b5b-720a9b9aec60","ios":"levelo://app?vid=acf47c03-d493-46fb-9b5b-720a9b9aec60"},"vehicle_type_id":"4","last_reported":1726787361,"current_range_meters":38800,"station_id":"ce4bho12rcd13ifvqh1g","pricing_plan_id":"cebpf4jnsgd1na2vs0mg"},{"bike_id":"93c79a73-3e02-46ac-80e0-9576860eb50b","system_id":"levelo_inurba_marseille","lat":43.33024,"lon":5.39039,"is_reserved":false,"is_disabled":false,"rental_uris":{"android":"levelo://app?vid=93c79a73-3e02-46ac-80e0-9576860eb50b","ios":"levelo://app?vid=93c79a73-3e02-46ac-80e0-9576860eb50b"},"vehicle_type_id":"4","last_reported":1726787361,"current_range_meters":32800,"station_id":"ce4bhr92rcd13ifvqhrg","pricing_plan_id":"cebpf4jnsgd1na2vs0mg"},{"bike_id":"5e3713cc-3905-46af-88db-0f51de367560","system_id":"levelo_inurba_marseille","lat":43.3054,"lon":5.38424,"is_reserved":false,"is_disabled":false,"rental_uris":{"android":"levelo://app?vid=5e3713cc-3905-46af-88db-0f51de367560","ios":"levelo://app?vid=5e3713cc-3905-46af-88db-0f51de367560"},"vehicle_type_id":"4","last_reported":1726787361,"current_range_meters":22800,"station_id":"ce4bgg92rcd13ifvqb30","pricing_plan_id":"cebpf4jnsgd1na2vs0mg"},{"bike_id":"f452a31f-dd2c-4028-8888-9488105a4a51","system_id":"levelo_inurba_marseille","lat":43.30538,"lon":5.36699,"is_reserved":false,"is_disabled":false,"rental_uris":{"android":"levelo://app?vid=f452a31f-dd2c-4028-8888-9488105a4a51","ios":"levelo://app?vid=f452a31f-dd2c-4028-8888-9488105a4a51"},"vehicle_type_id":"4","last_reported":1726787361,"current_range_meters":39200,"station_id":"ce4bgrp2rcd13ifvqc9g","pricing_plan_id":"cebpf4jnsgd1na2vs0mg"},{"bike_id":"bfc6c4bf-2f4c-4eda-b840-28e4a7013ca0","system_id":"levelo_inurba_marseille","lat":43.30542,"lon":5.38424,"is_reserved":false,"is_disabled":false,"rental_uris":{"android":"levelo://app?vid=bfc6c4bf-2f4c-4eda-b840-28e4a7013ca0","ios":"levelo://app?vid=bfc6c4bf-2f4c-4eda-b840-28e4a7013ca0"},"vehicle_type_id":"4","last_reported":1726787361,"current_range_meters":25200,"station_id":"ce4bgih2rcd13ifvqba0","pricing_plan_id":"cebpf4jnsgd1na2vs0mg"},{"bike_id":"26f5c6c9-9ba1-4a1a-abde-84cca0ffc830","system_id":"levelo_inurba_marseille","lat":43.32287,"lon":5.40642,"is_reserved":false,"is_disabled":false,"rental_uris":{"android":"levelo://app?vid=26f5c6c9-9ba1-4a1a-abde-84cca0ffc830","ios":"levelo://app?vid=26f5c6c9-9ba1-4a1a-abde-84cca0ffc830"},"vehicle_type_id":"4","last_reported":1726787361,"current_range_meters":30800,"station_id":"ce4bhq92rcd13ifvqhjg","pricing_plan_id":"cebpf4jnsgd1na2vs0mg"},{"bike_id":"1005537b-abba-4a33-9073-3d27072603aa","system_id":"levelo_inurba_marseille","lat":43.27815,"lon":5.40706,"is_reserved":false,"is_disabled":false,"rental_uris":{"android":"levelo://app?vid=1005537b-abba-4a33-9073-3d27072603aa","ios":"levelo://app?vid=1005537b-abba-4a33-9073-3d27072603aa"},"vehicle_type_id":"4","last_reported":1726787361,"current_range_meters":38000,"station_id":"ce4bhnh2rcd13ifvqgtg","pricing_plan_id":"cebpf4jnsgd1na2vs0mg"},{"bike_id":"dd4e1eda-6520-4d92-988f-7543f48ad375","system_id":"levelo_inurba_marseille","lat":43.28473,"lon":5.35876,"is_reserved":false,"is_disabled":false,"rental_uris":{"android":"levelo://app?vid=dd4e1eda-6520-4d92-988f-7543f48ad375","ios":"levelo://app?vid=dd4e1eda-6520-4d92-988f-7543f48ad375"},"vehicle_type_id":"4","last_reported":1726787361,"current_range_meters":13600,"station_id":"ce4bhah2rcd13ifvqei0","pricing_plan_id":"cebpf4jnsgd1na2vs0mg"},{"bike_id":"50942e6c-393a-4026-a3b3-6b8c1af9c3f7","system_id":"levelo_inurba_marseille","lat":43.31691,"lon":5.4047,"is_reserved":false,"is_disabled":false,"rental_uris":{"android":"levelo://app?vid=50942e6c-393a-4026-a3b3-6b8c1af9c3f7","ios":"levelo://app?vid=50942e6c-393a-4026-a3b3-6b8c1af9c3f7"},"vehicle_type_id":"4","last_reported":1726787361,"current_range_meters":37600,"station_id":"ce4bh012rcd13ifvqd00","pricing_plan_id":"cebpf4jnsgd1na2vs0mg"},{"bike_id":"ffa23234-c1ea-4d00-b640-cd73b1915784","system_id":"levelo_inurba_marseille","lat":43.31991,"lon":5.38147,"is_reserved":false,"is_disabled":false,"rental_uris":{"android":"levelo://app?vid=ffa23234-c1ea-4d00-b640-cd73b1915784","ios":"levelo://app?vid=ffa23234-c1ea-4d00-b640-cd73b1915784"},"vehicle_type_id":"4","last_reported":1726787361,"current_range_meters":11200,"station_id":"ce4bhr12rcd13ifvqhpg","pricing_plan_id":"cebpf4jnsgd1na2vs0mg"},{"bike_id":"b85ab7ea-1ddf-4476-a6e6-3d5a1069c8cd","system_id":"levelo_inurba_marseille","lat":43.27918,"lon":5.39587,"is_reserved":false,"is_disabled":false,"rental_uris":{"android":"levelo://app?vid=b85ab7ea-1ddf-4476-a6e6-3d5a1069c8cd","ios":"levelo://app?vid=b85ab7ea-1ddf-4476-a6e6-3d5a1069c8cd"},"vehicle_type_id":"4","last_reported":1726787361,"current_range_meters":7200,"station_id":"ce4bhf92rcd13ifvqf40","pricing_plan_id":"cebpf4jnsgd1na2vs0mg"},{"bike_id":"92e6af67-05b1-4069-9f4f-c3abf89c366a","system_id":"levelo_inurba_marseille","lat":43.28729,"lon":5.36081,"is_reserved":false,"is_disabled":false,"rental_uris":{"android":"levelo://app?vid=92e6af67-05b1-4069-9f4f-c3abf89c366a","ios":"levelo://app?vid=92e6af67-05b1-4069-9f4f-c3abf89c366a"},"vehicle_type_id":"4","last_reported":1726787361,"current_range_meters":33600,"station_id":"cki0cbj6b192h4jlfktg","pricing_plan_id":"cebpf4jnsgd1na2vs0mg"},{"bike_id":"8d730e8c-417b-4b1f-bea1-f6ef0bfab897","system_id":"levelo_inurba_marseille","lat":43.31727,"lon":5.42404,"is_reserved":false,"is_disabled":false,"rental_uris":{"android":"levelo://app?vid=8d730e8c-417b-4b1f-bea1-f6ef0bfab897","ios":"levelo://app?vid=8d730e8c-417b-4b1f-bea1-f6ef0bfab897"},"vehicle_type_id":"4","last_reported":1726787361,"current_range_meters":38800,"station_id":"ce4bhp92rcd13ifvqhbg","pricing_plan_id":"cebpf4jnsgd1na2vs0mg"},{"bike_id":"dfa25865-d491-4319-ac0d-4a43b0719215","system_id":"levelo_inurba_marseille","lat":43.32486,"lon":5.36569,"is_reserved":false,"is_disabled":false,"rental_uris":{"android":"levelo://app?vid=dfa25865-d491-4319-ac0d-4a43b0719215","ios":"levelo://app?vid=dfa25865-d491-4319-ac0d-4a43b0719215"},"vehicle_type_id":"4","last_reported":1726787361,"current_range_meters":8800,"station_id":"ce4bhs12rcd13ifvqhvg","pricing_plan_id":"cebpf4jnsgd1na2vs0mg"},{"bike_id":"e9ddeda2-0e83-4a48-bdda-5c35826d666c","system_id":"levelo_inurba_marseille","lat":43.30796,"lon":5.38145,"is_reserved":false,"is_disabled":false,"rental_uris":{"android":"levelo://app?vid=e9ddeda2-0e83-4a48-bdda-5c35826d666c","ios":"levelo://app?vid=e9ddeda2-0e83-4a48-bdda-5c35826d666c"},"vehicle_type_id":"4","last_reported":1726787361,"current_range_meters":3600,"station_id":"ce4bgt12rcd13ifvqce0","pricing_plan_id":"cebpf4jnsgd1na2vs0mg"},{"bike_id":"23c42534-9ebd-414c-b93d-200e4090e5b4","system_id":"levelo_inurba_marseille","lat":43.29878,"lon":5.3972,"is_reserved":false,"is_disabled":false,"rental_uris":{"android":"levelo://app?vid=23c42534-9ebd-414c-b93d-200e4090e5b4","ios":"levelo://app?vid=23c42534-9ebd-414c-b93d-200e4090e5b4"},"vehicle_type_id":"4","last_reported":1726787361,"current_range_meters":22400,"station_id":"ce4bh0h2rcd13ifvqd50","pricing_plan_id":"cebpf4jnsgd1na2vs0mg"},{"bike_id":"58014cc6-4f39-4119-a8a0-cdc0e2507820","system_id":"levelo_inurba_marseille","lat":43.32287,"lon":5.38276,"is_reserved":false,"is_disabled":false,"rental_uris":{"android":"levelo://app?vid=58014cc6-4f39-4119-a8a0-cdc0e2507820","ios":"levelo://app?vid=58014cc6-4f39-4119-a8a0-cdc0e2507820"},"vehicle_type_id":"4","last_reported":1726787361,"current_range_meters":40000,"station_id":"ce4bhr12rcd13ifvqhqg","pricing_plan_id":"cebpf4jnsgd1na2vs0mg"},{"bike_id":"8c255614-41bb-4b8a-a16c-163d74f97838","system_id":"levelo_inurba_marseille","lat":43.28345,"lon":5.38099,"is_reserved":false,"is_disabled":false,"rental_uris":{"android":"levelo://app?vid=8c255614-41bb-4b8a-a16c-163d74f97838","ios":"levelo://app?vid=8c255614-41bb-4b8a-a16c-163d74f97838"},"vehicle_type_id":"4","last_reported":1726787361,"current_range_meters":36400,"station_id":"ce4bh412rcd13ifvqdr0","pricing_plan_id":"cebpf4jnsgd1na2vs0mg"},{"bike_id":"30e7826e-7830-4992-a4c2-be07207c93c7","system_id":"levelo_inurba_marseille","lat":43.323395,"lon":5.406195,"is_reserved":false,"is_disabled":false,"rental_uris":{"android":"levelo://app?vid=30e7826e-7830-4992-a4c2-be07207c93c7","ios":"levelo://app?vid=30e7826e-7830-4992-a4c2-be07207c93c7"},"vehicle_type_id":"4","last_reported":1726787361,"current_range_meters":27200,"station_id":"","pricing_plan_id":"cebpf4jnsgd1na2vs0mg"},{"bike_id":"2f6487d8-3308-48fb-a6c3-71a5b95fa3f1","system_id":"levelo_inurba_marseille","lat":43.29203,"lon":5.39319,"is_reserved":false,"is_disabled":false,"rental_uris":{"android":"levelo://app?vid=2f6487d8-3308-48fb-a6c3-71a5b95fa3f1","ios":"levelo://app?vid=2f6487d8-3308-48fb-a6c3-71a5b95fa3f1"},"vehicle_type_id":"4","last_reported":1726787361,"current_range_meters":38800,"station_id":"ce4bh192rcd13ifvqdd0","pricing_plan_id":"cebpf4jnsgd1na2vs0mg"},{"bike_id":"be7ce6d1-812b-49f0-a859-4813469d1dc5","system_id":"levelo_inurba_marseille","lat":43.292999,"lon":5.374623,"is_reserved":false,"is_disabled":false,"rental_uris":{"android":"levelo://app?vid=be7ce6d1-812b-49f0-a859-4813469d1dc5","ios":"levelo://app?vid=be7ce6d1-812b-49f0-a859-4813469d1dc5"},"vehicle_type_id":"4","last_reported":1726787361,"current_range_meters":17600,"station_id":"ce4bgi12rcd13ifvqb70","pricing_plan_id":"cebpf4jnsgd1na2vs0mg"},{"bike_id":"5ca84793-b06d-48a5-ad30-b1486abd8d4c","system_id":"levelo_inurba_marseille","lat":43.28349,"lon":5.3811,"is_reserved":false,"is_disabled":false,"rental_uris":{"android":"levelo://app?vid=5ca84793-b06d-48a5-ad30-b1486abd8d4c","ios":"levelo://app?vid=5ca84793-b06d-48a5-ad30-b1486abd8d4c"},"vehicle_type_id":"4","last_reported":1726787361,"current_range_meters":36400,"station_id":"ce4bh412rcd13ifvqdr0","pricing_plan_id":"cebpf4jnsgd1na2vs0mg"},{"bike_id":"bce83964-771d-421d-a795-c2b376c5b9dc","system_id":"levelo_inurba_marseille","lat":43.23195,"lon":5.35547,"is_reserved":false,"is_disabled":false,"rental_uris":{"android":"levelo://app?vid=bce83964-771d-421d-a795-c2b376c5b9dc","ios":"levelo://app?vid=bce83964-771d-421d-a795-c2b376c5b9dc"},"vehicle_type_id":"4","last_reported":1726787361,"current_range_meters":19600,"station_id":"ce4bhu92rcd13ifvqi70","pricing_plan_id":"cebpf4jnsgd1na2vs0mg"},{"bike_id":"2122e45e-6b47-431a-823f-eafb400fe41f","system_id":"levelo_inurba_marseille","lat":43.31269,"lon":5.40168,"is_reserved":false,"is_disabled":false,"rental_uris":{"android":"levelo://app?vid=2122e45e-6b47-431a-823f-eafb400fe41f","ios":"levelo://app?vid=2122e45e-6b47-431a-823f-eafb400fe41f"},"vehicle_type_id":"4","last_reported":1726787361,"current_range_meters":22800,"station_id":"ce4bh092rcd13ifvqd30","pricing_plan_id":"cebpf4jnsgd1na2vs0mg"},{"bike_id":"adc79ebd-a315-4b51-86d2-51b33ec7c298","system_id":"levelo_inurba_marseille","lat":43.29878,"lon":5.39725,"is_reserved":false,"is_disabled":false,"rental_uris":{"android":"levelo://app?vid=adc79ebd-a315-4b51-86d2-51b33ec7c298","ios":"levelo://app?vid=adc79ebd-a315-4b51-86d2-51b33ec7c298"},"vehicle_type_id":"4","last_reported":1726787361,"current_range_meters":37600,"station_id":"ce4bh0h2rcd13ifvqd50","pricing_plan_id":"cebpf4jnsgd1na2vs0mg"},{"bike_id":"64c1d875-d607-4209-9104-222d754722f0","system_id":"levelo_inurba_marseille","lat":43.306452,"lon":5.400998,"is_reserved":false,"is_disabled":false,"rental_uris":{"android":"levelo://app?vid=64c1d875-d607-4209-9104-222d754722f0","ios":"levelo://app?vid=64c1d875-d607-4209-9104-222d754722f0"},"vehicle_type_id":"4","last_reported":1726787361,"current_range_meters":3200,"station_id":"ce4bh112rcd13ifvqda0","pricing_plan_id":"cebpf4jnsgd1na2vs0mg"},