{"last_updated":1751929835,"ttl":60,"version":"2.2","data":{"bikes":[{"bike_id":"3da29fb8-fc97-44c6-b9ac-31dd456b2fd4","system_id":"levelo_inurba_marseille","lat":43.33771,"lon":5.37424,"is_reserved":false,"is_disabled":true,"rental_uris":{"android":"levelo://app?vid=3da29fb8-fc97-44c6-b9ac-31dd456b2fd4","ios":"levelo://app?vid=3da29fb8-fc97-44c6-b9ac-31dd456b2fd4"},"vehicle_type_id":"4","last_reported":1751929835,"current_range_meters":0,"station_id":"","pricing_plan_id":"cebpf4jnsgd1na2vs0mg"},{"bike_id":"01861ad8-a8d7-4be6-816e-651927c87584","system_id":"levelo_inurba_marseille","lat":43.33751,"lon":5.37456,"is_reserved":false,"is_disabled":true,"rental_uris":{"android":"levelo://app?vid=01861ad8-a8d7-4be6-816e-651927c87584","ios":"levelo://app?vid=01861ad8-a8d7-4be6-816e-651927c87584"},"vehicle_type_id":"4","last_reported":1751929835,"current_range_meters":0,"station_id":"","pricing_plan_id":"cebpf4jnsgd1na2vs0mg"},{"bike_id":"95c194a9-5cae-4867-bc56-f8781828dc70","system_id":"levelo_inurba_marseille","lat":43.337444,"lon":5.374475,"is_reserved":false,"is_disabled":true,"rental_uris":{"android":"levelo://app?vid=95c194a9-5cae-4867-bc56-f8781828dc70","ios":"levelo://app?vid=95c194a9-5cae-4867-bc56-f8781828dc70"},"vehicle_type_id":"4","last_reported":1751929835,"current_range_meters":0,"station_id":"","pricing_plan_id":"cebpf4jnsgd1na2vs0mg"},{"bike_id":"f0a19a9e-f150-4c1e-bcc6-db3195370cac","system_id":"levelo_inurba_marseille","lat":43.32638,"lon":5.43145,"is_reserved":false,"is_disabled":true,"rental_uris":{"android":"levelo://app?vid=f0a19a9e-f150-4c1e-bcc6-db3195370cac","ios":"levelo://app?vid=f0a19a9e-f150-4c1e-bcc6-db3195370cac"},"vehicle_type_id":"4","last_reported":1751929835,"current_range_meters":0,"station_id":"","pricing_plan_id":"cebpf4jnsgd1na2vs0mg"},{"bike_id":"ef1a310b-ee00-432e-964e-14bd32970b79","system_id":"levelo_inurba_marseille","lat":43.24769,"lon":5.42411,"is_reserved":false,"is_disabled":true,"rental_uris":{"android":"levelo://app?vid=ef1a310b-ee00-432e-964e-14bd32970b79","ios":"levelo://app?vid=ef1a310b-ee00-432e-964e-14bd32970b79"},"vehicle_type_id":"4","last_reported":1751929835,"current_range_meters":0,"station_id":"","pricing_plan_id":"cebpf4jnsgd1na2vs0mg"},{"bike_id":"3d508917-55ee-42b6-894b-89c2a444dc06","system_id":"levelo_inurba_marseille","lat":43.225,"lon":5.34774,"is_reserved":false,"is_disabled":true,"rental_uris":{"android":"levelo://app?vid=3d508917-55ee-42b6-894b-89c2a444dc06","ios":"levelo://app?vid=3d508917-55ee-42b6-894b-89c2a444dc06"},"vehicle_type_id":"4","last_reported":1751929835,"current_range_meters":0,"station_id":"st_cvj5dfep6f1abm77gieg","pricing_plan_id":"cebpf4jnsgd1na2vs0mg"},{"bike_id":"e86ba8c9-208d-482c-a826-4c100938472a","system_id":"levelo_inurba_marseille","lat":43.2119,"lon":5.35075,"is_reserved":false,"is_disabled":true,"rental_uris":{"android":"levelo://app?vid=e86ba8c9-208d-482c-a826-4c100938472a","ios":"levelo://app?vid=e86ba8c9-208d-482c-a826-4c100938472a"},"vehicle_type_id":"4","last_reported":1751929835,"current_range_meters":0,"station_id":"st_cvj6sg6p6f1abm77japg","pricing_plan_id":"cebpf4jnsgd1na2vs0mg"},{"bike_id":"c32a44ab-b078-4729-9be5-e0735978229d","system_id":"levelo_inurba_marseille","lat":43.21191,"lon":5.35076,"is_reserved":false,"is_disabled":true,"rental_uris":{"android":"levelo://app?vid=c32a44ab-b078-4729-9be5-e0735978229d","ios":"levelo://app?vid=c32a44ab-b078-4729-9be5-e0735978229d"},"vehicle_type_id":"4","last_reported":1751929835,"current_range_meters":400,"station_id":"st_cvj6sg6p6f1abm77japg","pricing_plan_id":"cebpf4jnsgd1na2vs0mg"},{"bike_id":"57495c52-5adc-4f39-abd9-5e7afb6e4ccb","system_id":"levelo_inurba_marseille","lat":43.30531,"lon":5.38462,"is_reserved":false,"is_disabled":true,"rental_uris":{"android":"levelo://app?vid=57495c52-5adc-4f39-abd9-5e7afb6e4ccb","ios":"levelo://app?vid=57495c52-5adc-4f39-abd9-5e7afb6e4ccb"},"vehicle_type_id":"4","last_reported":1751929835,"current_range_meters":800,"station_id":"ce4bgg92rcd13ifvqb30","pricing_plan_id":"cebpf4jnsgd1na2vs0mg"},{"bike_id":"36fc43ff-930e-421b-9c9a-ac8fb9d1625b","system_id":"levelo_inurba_marseille","lat":43.29226,"lon":5.40574,"is_reserved":false,"is_disabled":true,"rental_uris":{"android":"levelo://app?vid=36fc43ff-930e-421b-9c9a-ac8fb9d1625b","ios":"levelo://app?vid=36fc43ff-930e-421b-9c9a-ac8fb9d1625b"},"vehicle_type_id":"4","last_reported":1751929835,"current_range_meters":1200,"station_id":"","pricing_plan_id":"cebpf4jnsgd1na2vs0mg"},{"bike_id":"4d2426fd-ed83-4b3b-9946-e5d612afc6f9","system_id":"levelo_inurba_marseille","lat":43.30646,"lon":5.40077,"is_reserved":false,"is_disabled":true,"rental_uris":{"android":"levelo://app?vid=4d2426fd-ed83-4b3b-9946-e5d612afc6f9","ios":"levelo://app?vid=4d2426fd-ed83-4b3b-9946-e5d612afc6f9"},"vehicle_type_id":"4","last_reported":1751929835,"current_range_meters":1200,"station_id":"ce4bh112rcd13ifvqda0","pricing_plan_id":"cebpf4jnsgd1na2vs0mg"},{"bike_id":"14bb8d1a-37f7-4d86-88b4-064a72ab54d3","system_id":"levelo_inurba_marseille","lat":43.32655,"lon":5.40995,"is_reserved":false,"is_disabled":true,"rental_uris":{"android":"levelo://app?vid=14bb8d1a-37f7-4d86-88b4-064a72ab54d3","ios":"levelo://app?vid=14bb8d1a-37f7-4d86-88b4-064a72ab54d3"},"vehicle_type_id":"4","last_reported":1751929835,"current_range_meters":2000,"station_id":"ce4bhpp2rcd13ifvqhgg","pricing_plan_id":"cebpf4jnsgd1na2vs0mg"},{"bike_id":"7dade924-6caf-41b3-ac92-a1c15ca14f93","system_id":"levelo_inurba_marseille","lat":43.26576,"lon":5.40317,"is_reserved":false,"is_disabled":false,"rental_uris":{"android":"levelo://app?vid=7dade924-6caf-41b3-ac92-a1c15ca14f93","ios":"levelo://app?vid=7dade924-6caf-41b3-ac92-a1c15ca14f93"},"vehicle_type_id":"4","last_reported":1751929835,"current_range_meters":2800,"station_id":"","pricing_plan_id":"cebpf4jnsgd1na2vs0mg"},{"bike_id":"bfd80825-a0b6-4733-9d9b-9ddd72b2dd7e","system_id":"levelo_inurba_marseille","lat":43.29579,"lon":5.36744,"is_reserved":false,"is_disabled":false,"rental_uris":{"android":"levelo://app?vid=bfd80825-a0b6-4733-9d9b-9ddd72b2dd7e","ios":"levelo://app?vid=bfd80825-a0b6-4733-9d9b-9ddd72b2dd7e"},"vehicle_type_id":"4","last_reported":1751929835,"current_range_meters":3200,"station_id":"ce4bgph2rcd13ifvqc2g","pricing_plan_id":"cebpf4jnsgd1na2vs0mg"},{"bike_id":"37d92d0a-574b-4b77-a33c-590ce3862f8b","system_id":"levelo_inurba_marseille","lat":43.329939,"lon":5.392177,"is_reserved":false,"is_disabled":false,"rental_uris":{"android":"levelo://app?vid=37d92d0a-574b-4b77-a33c-590ce3862f8b","ios":"levelo://app?vid=37d92d0a-574b-4b77-a33c-590ce3862f8b"},"vehicle_type_id":"4","last_reported":1751929835,"current_range_meters":4000,"station_id":"ce4bhr92rcd13ifvqhrg","pricing_plan_id":"cebpf4jnsgd1na2vs0mg"},{"bike_id":"ed290504-6948-4f69-8584-2e2b0286febf","system_id":"levelo_inurba_marseille","lat":43.21205,"lon":5.35091,"is_reserved":false,"is_disabled":false,"rental_uris":{"android":"levelo://app?vid=ed290504-6948-4f69-8584-2e2b0286febf","ios":"levelo://app?vid=ed290504-6948-4f69-8584-2e2b0286febf"},"vehicle_type_id":"4","last_reported":1751929835,"current_range_meters":4400,"station_id":"st_cvj6sg6p6f1abm77japg","pricing_plan_id":"cebpf4jnsgd1na2vs0mg"},{"bike_id":"7a4da12c-0397-4bb7-bda5-e9ab86af0ab7","system_id":"levelo_inurba_marseille","lat":43.295547,"lon":5.42289,"is_reserved":false,"is_disabled":false,"rental_uris":{"android":"levelo://app?vid=7a4da12c-0397-4bb7-bda5-e9ab86af0ab7","ios":"levelo://app?vid=7a4da12c-0397-4bb7-bda5-e9ab86af0ab7"},"vehicle_type_id":"4","last_reported":1751929835,"current_range_meters":4800,"station_id":"ce4bhph2rcd13ifvqhdg","pricing_plan_id":"cebpf4jnsgd1na2vs0mg"},{"bike_id":"de3c7479-ad03-448f-a78e-88898eddd51a","system_id":"levelo_inurba_marseille","lat":43.3294,"lon":5.39717,"is_reserved":false,"is_disabled":false,"rental_uris":{"android":"levelo://app?vid=de3c7479-ad03-448f-a78e-88898eddd51a","ios":"levelo://app?vid=de3c7479-ad03-448f-a78e-88898eddd51a"},"vehicle_type_id":"4","last_reported":1751929835,"current_range_meters":5600,"station_id":"","pricing_plan_id":"cebpf4jnsgd1na2vs0mg"},{"bike_id":"a7753154-ad7f-4eb5-b7b3-df27edf18a53","system_id":"levelo_inurba_marseille","lat":43.22476,"lon":5.34803,"is_reserved":false,"is_disabled":false,"rental_uris":{"android":"levelo://app?vid=a7753154-ad7f-4eb5-b7b3-df27edf18a53","ios":"levelo://app?vid=a7753154-ad7f-4eb5-b7b3-df27edf18a53"},"vehicle_type_id":"4","last_reported":1751929835,"current_range_meters":5600,"station_id":"st_cvj5dfep6f1abm77gieg","pricing_plan_id":"cebpf4jnsgd1na2vs0mg"},{"bike_id":"ff6969fc-5512-4edf-a61d-6936ccb9a278","system_id":"levelo_inurba_marseille","lat":43.33008,"lon":5.36382,"is_reserved":false,"is_disabled":false,"rental_uris":{"android":"levelo://app?vid=ff6969fc-5512-4edf-a61d-6936ccb9a278","ios":"levelo://app?vid=ff6969fc-5512-4edf-a61d-6936ccb9a278"},"vehicle_type_id":"4","last_reported":1751929835,"current_range_meters":6400,"station_id":"","pricing_plan_id":"cebpf4jnsgd1na2vs0mg"},{"bike_id":"f931a44c-d736-43b3-8fdf-a17f42ba9825","system_id":"levelo_inurba_marseille","lat":43.28712,"lon":5.3794,"is_reserved":false,"is_disabled":false,"rental_uris":{"android":"levelo://app?vid=f931a44c-d736-43b3-8fdf-a17f42ba9825","ios":"levelo://app?vid=f931a44c-d736-43b3-8fdf-a17f42ba9825"},"vehicle_type_id":"4","last_reported":1751929835,"current_range_meters":6400,"station_id":"ce4bh9p2rcd13ifvqec0","pricing_plan_id":"cebpf4jnsgd1na2vs0mg"},{"bike_id":"2a644680-a682-4a1f-8cbd-3d0fb57685b4","system_id":"levelo_inurba_marseille","lat":43.2175,"lon":5.34619,"is_reserved":false,"is_disabled":false,"rental_uris":{"android":"levelo://app?vid=2a644680-a682-4a1f-8cbd-3d0fb57685b4","ios":"levelo://app?vid=2a644680-a682-4a1f-8cbd-3d0fb57685b4"},"vehicle_type_id":"4","last_reported":1751929835,"current_range_meters":6400,"station_id":"st_cvj6r9ubvosntc0bgbag","pricing_plan_id":"cebpf4jnsgd1na2vs0mg"},{"bike_id":"4df166d1-9bb1-4398-8cc9-8724a1c69172","system_id":"levelo_inurba_marseille","lat":43.28303,"lon":5.39141,"is_reserved":false,"is_disabled":false,"rental_uris":{"android":"levelo://app?vid=4df166d1-9bb1-4398-8cc9-8724a1c69172","ios":"levelo://app?vid=4df166d1-9bb1-4398-8cc9-8724a1c69172"},"vehicle_type_id":"4","last_reported":1751929835,"current_range_meters":7200,"station_id":"","pricing_plan_id":"cebpf4jnsgd1na2vs0mg"},{"bike_id":"bd1874bf-e30a-482e-a165-63d599b3ee06","system_id":"levelo_inurba_marseille","lat":43.31484,"lon":5.397692,"is_reserved":false,"is_disabled":false,"rental_uris":{"android":"levelo://app?vid=bd1874bf-e30a-482e-a165-63d599b3ee06","ios":"levelo://app?vid=bd1874bf-e30a-482e-a165-63d599b3ee06"},"vehicle_type_id":"4","last_reported":1751929835,"current_range_meters":7200,"station_id":"","pricing_plan_id":"cebpf4jnsgd1na2vs0mg"},{"bike_id":"7285c929-fdb8-4494-a9fb-86ce2e6f12ce","system_id":"levelo_inurba_marseille","lat":43.311373,"lon":5.424331,"is_reserved":false,"is_disabled":false,"rental_uris":{"android":"levelo://app?vid=7285c929-fdb8-4494-a9fb-86ce2e6f12ce","ios":"levelo://app?vid=7285c929-fdb8-4494-a9fb-86ce2e6f12ce"},"vehicle_type_id":"4","last_reported":1751929835,"current_range_meters":8000,"station_id":"ce4bhp92rcd13ifvqhag","pricing_plan_id":"cebpf4jnsgd1na2vs0mg"},{"bike_id":"6883b381-1ba7-4e68-92c8-065fa1398dcb","system_id":"levelo_inurba_marseille","lat":43.3094,"lon":5.40157,"is_reserved":false,"is_disabled":false,"rental_uris":{"android":"levelo://app?vid=6883b381-1ba7-4e68-92c8-065fa1398dcb","ios":"levelo://app?vid=6883b381-1ba7-4e68-92c8-065fa1398dcb"},"vehicle_type_id":"4","last_reported":1751929835,"current_range_meters":8400,"station_id":"ce4bgvp2rcd13ifvqct0","pricing_plan_id":"cebpf4jnsgd1na2vs0mg"},{"bike_id":"671e5fd3-251c-49c3-89e1-9fbe5cfe2190","system_id":"levelo_inurba_marseille","lat":43.290009,"lon":5.356134,"is_reserved":false,"is_disabled":false,"rental_uris":{"android":"levelo://app?vid=671e5fd3-251c-49c3-89e1-9fbe5cfe2190","ios":"levelo://app?vid=671e5fd3-251c-49c3-89e1-9fbe5cfe2190"},"vehicle_type_id":"4","last_reported":1751929835,"current_range_meters":8400,"station_id":"ce4bhb92rcd13ifvqen0","pricing_plan_id":"cebpf4jnsgd1na2vs0mg"},{"bike_id":"98f46642-8fdc-43be-8379-a5bf33d8441b","system_id":"levelo_inurba_marseille","lat":43.21188,"lon":5.35075,"is_reserved":false,"is_disabled":false,"rental_uris":{"android":"levelo://app?vid=98f46642-8fdc-43be-8379-a5bf33d8441b","ios":"levelo://app?vid=98f46642-8fdc-43be-8379-a5bf33d8441b"},"vehicle_type_id":"4","last_reported":1751929835,"current_range_meters":8400,"station_id":"st_cvj6sg6p6f1abm77japg","pricing_plan_id":"cebpf4jnsgd1na2vs0mg"},{"bike_id":"7b527f00-f6ea-4963-b59d-8da04a2feedb","system_id":"levelo_inurba_marseille","lat":43.32079,"lon":5.4013,"is_reserved":false,"is_disabled":false,"rental_uris":{"android":"levelo://app?vid=7b527f00-f6ea-4963-b59d-8da04a2feedb","ios":"levelo://app?vid=7b527f00-f6ea-4963-b59d-8da04a2feedb"},"vehicle_type_id":"4","last_reported":1751929835,"current_range_meters":8800,"station_id":"","pricing_plan_id":"cebpf4jnsgd1na2vs0mg"},{"bike_id":"49e042f0-519d-454d-a0a4-0993ceb046fe","system_id":"levelo_inurba_marseille","lat":43.268,"lon":5.4027,"is_reserved":false,"is_disabled":false,"rental_uris":{"android":"levelo://app?vid=49e042f0-519d-454d-a0a4-0993ceb046fe","ios":"levelo://app?vid=49e042f0-519d-454d-a0a4-0993ceb046fe"},"vehicle_type_id":"4","last_reported":1751929835,"current_range_meters":8800,"station_id":"ce501612rcd8frsf0b60","pricing_plan_id":"cebpf4jnsgd1na2vs0mg"},{"bike_id":"88ea42cb-cf0f-4e4a-8442-732645bc4ba5","system_id":"levelo_inurba_marseille","lat":43.31095,"lon":5.36727,"is_reserved":false,"is_disabled":false,"rental_uris":{"android":"levelo://app?vid=88ea42cb-cf0f-4e4a-8442-732645bc4ba5","ios":"levelo://app?vid=88ea42cb-cf0f-4e4a-8442-732645bc4ba5"},"vehicle_type_id":"4","last_reported":1751929835,"current_range_meters":9200,"station_id":"","pricing_plan_id":"cebpf4jnsgd1na2vs0mg"},{"bike_id":"4935e0a2-ca28-4740-8f1a-d55519f4fafa","system_id":"levelo_inurba_marseille","lat":43.30603,"lon":5.37233,"is_reserved":false,"is_disabled":false,"rental_uris":{"android":"levelo://app?vid=4935e0a2-ca28-4740-8f1a-d55519f4fafa","ios":"levelo://app?vid=4935e0a2-ca28-4740-8f1a-d55519f4fafa"},"vehicle_type_id":"4","last_reported":1751929835,"current_range_meters":9200,"station_id":"ce4bgqh2rcd13ifvqc4g","pricing_plan_id":"cebpf4jnsgd1na2vs0mg"},{"bike_id":"af1f02ae-cb7f-4eaf-afc2-e96f8ad980e8","system_id":"levelo_inurba_marseille","lat":43.28344,"lon":5.3811,"is_reserved":false,"is_disabled":false,"rental_uris":{"android":"levelo://app?vid=af1f02ae-cb7f-4eaf-afc2-e96f8ad980e8","ios":"levelo://app?vid=af1f02ae-cb7f-4eaf-afc2-e96f8ad980e8"},"vehicle_type_id":"4","last_reported":1751929835,"current_range_meters":9200,"station_id":"ce4bh412rcd13ifvqdr0","pricing_plan_id":"cebpf4jnsgd1na2vs0mg"},{"bike_id":"9f844f5a-4977-4a93-a12e-59ee761436ab","system_id":"levelo_inurba_marseille","lat":43.28487,"lon":5.38453,"is_reserved":false,"is_disabled":false,"rental_uris":{"android":"levelo://app?vid=9f844f5a-4977-4a93-a12e-59ee761436ab","ios":"levelo://app?vid=9f844f5a-4977-4a93-a12e-59ee761436ab"},"vehicle_type_id":"4","last_reported":1751929835,"current_range_meters":9200,"station_id":"ce4bh512rcd13ifvqe3g","pricing_plan_id":"cebpf4jnsgd1na2vs0mg"},{"bike_id":"3b22f952-d0bc-4c00-8fd3-7e27b88aea23","system_id":"levelo_inurba_marseille","lat":43.29659,"lon":5.36245,"is_reserved":false,"is_disabled":false,"rental_uris":{"android":"levelo://app?vid=3b22f952-d0bc-4c00-8fd3-7e27b88aea23","ios":"levelo://app?vid=3b22f952-d0bc-4c00-8fd3-7e27b88aea23"},"vehicle_type_id":"4","last_reported":1751929835,"current_range_meters":9600,"station_id":"","pricing_plan_id":"cebpf4jnsgd1na2vs0mg"},{"bike_id":"2580a786-ce1f-4713-a838-8bd018c0292c","system_id":"levelo_inurba_marseille","lat":43.29353,"lon":5.37279,"is_reserved":false,"is_disabled":false,"rental_uris":{"android":"levelo://app?vid=2580a786-ce1f-4713-a838-8bd018c0292c","ios":"levelo://app?vid=2580a786-ce1f-4713-a838-8bd018c0292c"},"vehicle_type_id":"4","last_reported":1751929835,"current_range_meters":10000,"station_id":"","pricing_plan_id":"cebpf4jnsgd1na2vs0mg"},{"bike_id":"0af9a880-024b-430f-8681-7579ebfb0042","system_id":"levelo_inurba_marseille","lat":43.25104,"lon":5.40326,"is_reserved":false,"is_disabled":false,"rental_uris":{"android":"levelo://app?vid=0af9a880-024b-430f-8681-7579ebfb0042","ios":"levelo://app?vid=0af9a880-024b-430f-8681-7579ebfb0042"},"vehicle_type_id":"4","last_reported":1751929835,"current_range_meters":10000,"station_id":"ce4bhlh2rcd13ifvqgig","pricing_plan_id":"cebpf4jnsgd1na2vs0mg"},{"bike_id":"939a0963-f1c8-4ab8-a682-95f10ac42792","system_id":"levelo_inurba_marseille","lat":43.30371,"lon":5.42466,"is_reserved":false,"is_disabled":false,"rental_uris":{"android":"levelo://app?vid=939a0963-f1c8-4ab8-a682-95f10ac42792","ios":"levelo://app?vid=939a0963-f1c8-4ab8-a682-95f10ac42792"},"vehicle_type_id":"4","last_reported":1751929835,"current_range_meters":10000,"station_id":"ce4bhoh2rcd13ifvqh6g","pricing_plan_id":"cebpf4jnsgd1na2vs0mg"},{"bike_id":"77bc5008-be60-49e3-b80e-5bbb7eb9ad89","system_id":"levelo_inurba_marseille","lat":43.30352,"lon":5.41885,"is_reserved":false,"is_disabled":false,"rental_uris":{"android":"levelo://app?vid=77bc5008-be60-49e3-b80e-5bbb7eb9ad89","ios":"levelo://app?vid=77bc5008-be60-49e3-b80e-5bbb7eb9ad89"},"vehicle_type_id":"4","last_reported":1751929835,"current_range_meters":10000,"station_id":"ce4bhop2rcd13ifvqh7g","pricing_plan_id":"cebpf4jnsgd1na2vs0mg"},{"bike_id":"37f2becd-23f9-4f13-a711-38b8024eeec7","system_id":"levelo_inurba_marseille","lat":43.33768,"lon":5.37516,"is_reserved":false,"is_disabled":false,"rental_uris":{"android":"levelo://app?vid=37f2becd-23f9-4f13-a711-38b8024eeec7","ios":"levelo://app?vid=37f2becd-23f9-4f13-a711-38b8024eeec7"},"vehicle_type_id":"4","last_reported":1751929835,"current_range_meters":10800,"station_id":"","pricing_plan_id":"cebpf4jnsgd1na2vs0mg"},{"bike_id":"3aa0acad-2bd1-4c4d-a5ea-0884b4524d0b","system_id":"levelo_inurba_marseille","lat":43.30894,"lon":5.40209,"is_reserved":false,"is_disabled":false,"rental_uris":{"android":"levelo://app?vid=3aa0acad-2bd1-4c4d-a5ea-0884b4524d0b","ios":"levelo://app?vid=3aa0acad-2bd1-4c4d-a5ea-0884b4524d0b"},"vehicle_type_id":"4","last_reported":1751929835,"current_range_meters":10800,"station_id":"","pricing_plan_id":"cebpf4jnsgd1na2vs0mg"},{"bike_id":"357e91cd-3680-4f42-86a8-1f528264694b","system_id":"levelo_inurba_marseille","lat":43.303178,"lon":5.404416,"is_reserved":false,"is_disabled":false,"rental_uris":{"android":"levelo://app?vid=357e91cd-3680-4f42-86a8-1f528264694b","ios":"levelo://app?vid=357e91cd-3680-4f42-86a8-1f528264694b"},"vehicle_type_id":"4","last_reported":1751929835,"current_range_meters":10800,"station_id":"ce4bh012rcd13ifvqd10","pricing_plan_id":"cebpf4jnsgd1na2vs0mg"},{"bike_id":"4d2b2d64-9f70-47e6-953b-8f509b50c18d","system_id":"levelo_inurba_marseille","lat":43.29018,"lon":5.38122,"is_reserved":false,"is_disabled":false,"rental_uris":{"android":"levelo://app?vid=4d2b2d64-9f70-47e6-953b-8f509b50c18d","ios":"levelo://app?vid=4d2b2d64-9f70-47e6-953b-8f509b50c18d"},"vehicle_type_id":"4","last_reported":1751929835,"current_range_meters":10800,"station_id":"ce4bh4p2rcd13ifvqe1g","pricing_plan_id":"cebpf4jnsgd1na2vs0mg"},{"bike_id":"be35a21f-4ea0-4cb8-9207-5788dd123425","system_id":"levelo_inurba_marseille","lat":43.2549,"lon":5.37645,"is_reserved":false,"is_disabled":false,"rental_uris":{"android":"levelo://app?vid=be35a21f-4ea0-4cb8-9207-5788dd123425","ios":"levelo://app?vid=be35a21f-4ea0-4cb8-9207-5788dd123425"},"vehicle_type_id":"4","last_reported":1751929835,"current_range_meters":10800,"station_id":"ce4bhh12rcd13ifvqff0","pricing_plan_id":"cebpf4jnsgd1na2vs0mg"},{"bike_id":"ed5a3eb7-68df-4906-92af-7a82cb3a6f4f","system_id":"levelo_inurba_marseille","lat":43.33023,"lon":5.39045,"is_reserved":false,"is_disabled":false,"rental_uris":{"android":"levelo://app?vid=ed5a3eb7-68df-4906-92af-7a82cb3a6f4f","ios":"levelo://app?vid=ed5a3eb7-68df-4906-92af-7a82cb3a6f4f"},"vehicle_type_id":"4","last_reported":1751929835,"current_range_meters":10800,"station_id":"ce4bhr92rcd13ifvqhrg","pricing_plan_id":"cebpf4jnsgd1na2vs0mg"},{"bike_id":"608bac89-0c16-45d5-9fbe-13e016f70edc","system_id":"levelo_inurba_marseille","lat":43.32096,"lon":5.36776,"is_reserved":false,"is_disabled":false,"rental_uris":{"android":"levelo://app?vid=608bac89-0c16-45d5-9fbe-13e016f70edc","ios":"levelo://app?vid=608bac89-0c16-45d5-9fbe-13e016f70edc"},"vehicle_type_id":"4","last_reported":1751929835,"current_range_meters":10800,"station_id":"ce4bhrh2rcd13ifvqhug","pricing_plan_id":"cebpf4jnsgd1na2vs0mg"},{"bike_id":"a31d7b1d-f875-4f27-b8f6-640a4ac62493","system_id":"levelo_inurba_marseille","lat":43.3377,"lon":5.39193,"is_reserved":false,"is_disabled":false,"rental_uris":{"android":"levelo://app?vid=a31d7b1d-f875-4f27-b8f6-640a4ac62493","ios":"levelo://app?vid=a31d7b1d-f875-4f27-b8f6-640a4ac62493"},"vehicle_type_id":"4","last_reported":1751929835,"current_range_meters":11200,"station_id":"","pricing_plan_id":"cebpf4jnsgd1na2vs0mg"},{"bike_id":"2c423baa-ecca-420a-87d7-ad0b7e0b9ebb","system_id":"levelo_inurba_marseille","lat":43.28032,"lon":5.35366,"is_reserved":false,"is_disabled":false,"rental_uris":{"android":"levelo://app?vid=2c423baa-ecca-420a-87d7-ad0b7e0b9ebb","ios":"levelo://app?vid=2c423baa-ecca-420a-87d7-ad0b7e0b9ebb"},"vehicle_type_id":"4","last_reported":1751929835,"current_range_meters":11200,"station_id":"","pricing_plan_id":"cebpf4jnsgd1na2vs0mg"},{"bike_id":"78c65a7f-d308-40b5-accc-8e6897ac9f8a","system_id":"levelo_inurba_marseille","lat":43.30137,"lon":5.37781,"is_reserved":false,"is_disabled":false,"rental_uris":{"android":"levelo://app?vid=78c65a7f-d308-40b5-accc-8e6897ac9f8a","ios":"levelo://app?vid=78c65a7f-d308-40b5-accc-8e6897ac9f8a"},"vehicle_type_id":"4","last_reported":1751929835,"current_range_meters":11200,"station_id":"","pricing_plan_id":"cebpf4jnsgd1na2vs0mg"},{"bike_id":"fd346227-092e-423a-84e6-6269c948c480","system_id":"levelo_inurba_marseille","lat":43.31321,"lon":5.39711,"is_reserved":false,"is_disabled":false,"rental_uris":{"android":"levelo://app?vid=fd346227-092e-423a-84e6-6269c948c480","ios":"levelo://app?vid=fd346227-092e-423a-84e6-6269c948c480"},"vehicle_type_id":"4","last_reported":1751929835,"current_range_meters":11200,"station_id":"ce4bgvp2rcd13ifvqcu0","pricing_plan_id":"cebpf4jnsgd1na2vs0mg"},{"bike_id":"3a3968ed-59d2-440e-b764-49f1eb107bdc","system_id":"levelo_inurba_marseille","lat":43.29451,"lon":5.397435,"is_reserved":false,"is_disabled":false,"rental_uris":{"android":"levelo://app?vid=3a3968ed-59d2-440e-b764-49f1eb107bdc","ios":"levelo://app?vid=3a3968ed-59d2-440e-b764-49f1eb107bdc"},"vehicle_type_id":"4","last_reported":1751929835,"current_range_meters":11200,"station_id":"ce4bh3h2rcd13ifvqdo0","pricing_plan_id":"cebpf4jnsgd1na2vs0mg"},{"bike_id":"29102da4-02a2-4f9c-99ed-89cdef887179","system_id":"levelo_inurba_marseille","lat":43.22502,"lon":5.34772,"is_reserved":false,"is_disabled":false,"rental_uris":{"android":"levelo://app?vid=29102da4-02a2-4f9c-99ed-89cdef887179","ios":"levelo://app?vid=29102da4-02a2-4f9c-99ed-89cdef887179"},"vehicle_type_id":"4","last_reported":1751929835,"current_range_meters":11200,"station_id":"st_cvj5dfep6f1abm77gieg","pricing_plan_id":"cebpf4jnsgd1na2vs0mg"},{"bike_id":"a70cfab5-f447-4d61-b80a-343a49825360","system_id":"levelo_inurba_marseille","lat":43.31808,"lon":5.38012,"is_reserved":false,"is_disabled":false,"rental_uris":{"android":"levelo://app?vid=a70cfab5-f447-4d61-b80a-343a49825360","ios":"levelo://app?vid=a70cfab5-f447-4d61-b80a-343a49825360"},"vehicle_type_id":"4","last_reported":1751929835,"current_range_meters":11600,"station_id":"","pricing_plan_id":"cebpf4jnsgd1na2vs0mg"},{"bike_id":"40a4d41c-4a98-4ff9-8fb7-1c8f7d63aa00","system_id":"levelo_inurba_marseille","lat":43.29476,"lon":5.39765,"is_reserved":false,"is_disabled":false,"rental_uris":{"android":"levelo://app?vid=40a4d41c-4a98-4ff9-8fb7-1c8f7d63aa00","ios":"levelo://app?vid=40a4d41c-4a98-4ff9-8fb7-1c8f7d63aa00"},"vehicle_type_id":"4","last_reported":1751929835,"current_range_meters":11600,"station_id":"","pricing_plan_id":"cebpf4jnsgd1na2vs0mg"},{"bike_id":"dee0c70c-1cfc-4d55-a486-3860b742f10a","system_id":"levelo_inurba_marseille","lat":43.307942,"lon":5.381663,"is_reserved":false,"is_disabled":false,"rental_uris":{"android":"levelo://app?vid=dee0c70c-1cfc-4d55-a486-3860b742f10a","ios":"levelo://app?vid=dee0c70c-1cfc-4d55-a486-3860b742f10a"},"vehicle_type_id":"4","last_reported":1751929835,"current_range_meters":11600,"station_id":"ce4bgt12rcd13ifvqce0","pricing_plan_id":"cebpf4jnsgd1na2vs0mg"},{"bike_id":"086c77ac-7c0d-4b8b-9e0d-7549ae84a017","system_id":"levelo_inurba_marseille","lat":43.2809,"lon":5.37853,"is_reserved":false,"is_disabled":false,"rental_uris":{"android":"levelo://app?vid=086c77ac-7c0d-4b8b-9e0d-7549ae84a017","ios":"levelo://app?vid=086c77ac-7c0d-4b8b-9e0d-7549ae84a017"},"vehicle_type_id":"4","last_reported":1751929835,"current_range_meters":11600,"station_id":"ce4bha12rcd13ifvqee0","pricing_plan_id":"cebpf4jnsgd1na2vs0mg"},{"bike_id":"218d1f16-f8a8-4528-8407-4c84f38a7294","system_id":"levelo_inurba_marseille","lat":43.310868,"lon":5.424311,"is_reserved":false,"is_disabled":false,"rental_uris":{"android":"levelo://app?vid=218d1f16-f8a8-4528-8407-4c84f38a7294","ios":"levelo://app?vid=218d1f16-f8a8-4528-8407-4c84f38a7294"},"vehicle_type_id":"4","last_reported":1751929835,"current_range_meters":11600,"station_id":"ce4bhp92rcd13ifvqhag","pricing_plan_id":"cebpf4jnsgd1na2vs0mg"},{"bike_id":"20c0674d-b5fd-4e8e-88c4-fe181160a0e2","system_id":"levelo_inurba_marseille","lat":43.21738,"lon":5.34616,"is_reserved":false,"is_disabled":false,"rental_uris":{"android":"levelo://app?vid=20c0674d-b5fd-4e8e-88c4-fe181160a0e2","ios":"levelo://app?vid=20c0674d-b5fd-4e8e-88c4-fe181160a0e2"},"vehicle_type_id":"4","last_reported":1751929835,"current_range_meters":11600,"station_id":"st_cvj6r9ubvosntc0bgbag","pricing_plan_id":"cebpf4jnsgd1na2vs0mg"},{"bike_id":"a84a7c3c-b0f6-4dcd-941b-3fd0cb556e2f","system_id":"levelo_inurba_marseille","lat":43.31364,"lon":5.3851,"is_reserved":false,"is_disabled":false,"rental_uris":{"android":"levelo://app?vid=a84a7c3c-b0f6-4dcd-941b-3fd0cb556e2f","ios":"levelo://app?vid=a84a7c3c-b0f6-4dcd-941b-3fd0cb556e2f"},"vehicle_type_id":"4","last_reported":1751929835,"current_range_meters":12000,"station_id":"ce4bgt92rcd13ifvqcf0","pricing_plan_id":"cebpf4jnsgd1na2vs0mg"},{"bike_id":"2502bbd2-d37b-4b05-8d8c-34d599b2a393","system_id":"levelo_inurba_marseille","lat":43.30863,"lon":5.39635,"is_reserved":false,"is_disabled":false,"rental_uris":{"android":"levelo://app?vid=2502bbd2-d37b-4b05-8d8c-34d599b2a393","ios":"levelo://app?vid=2502bbd2-d37b-4b05-8d8c-34d599b2a393"},"vehicle_type_id":"4","last_reported":1751929835,"current_range_meters":12000,"station_id":"ce4bh012rcd13ifvqcv0","pricing_plan_id":"cebpf4jnsgd1na2vs0mg"},{"bike_id":"9a835e01-725b-41f5-8a1c-1a4de65a16a4","system_id":"levelo_inurba_marseille","lat":43.28022,"lon":5.36961,"is_reserved":false,"is_disabled":false,"rental_uris":{"android":"levelo://app?vid=9a835e01-725b-41f5-8a1c-1a4de65a16a4","ios":"levelo://app?vid=9a835e01-725b-41f5-8a1c-1a4de65a16a4"},"vehicle_type_id":"4","last_reported":1751929835,"current_range_meters":12000,"station_id":"ce4bha12rcd13ifvqef0","pricing_plan_id":"cebpf4jnsgd1na2vs0mg"},{"bike_id":"c9bd204c-6160-4fdc-a5f0-1ff91efb9be4","system_id":"levelo_inurba_marseille","lat":43.28001,"lon":5.40014,"is_reserved":false,"is_disabled":false,"rental_uris":{"android":"levelo://app?vid=c9bd204c-6160-4fdc-a5f0-1ff91efb9be4","ios":"levelo://app?vid=c9bd204c-6160-4fdc-a5f0-1ff91efb9be4"},"vehicle_type_id":"4","last_reported":1751929835,"current_range_meters":12000,"station_id":"ce4bho92rcd13ifvqh4g","pricing_plan_id":"cebpf4jnsgd1na2vs0mg"},{"bike_id":"0df4b5eb-4f2e-4c58-97e0-65639bc25ef0","system_id":"levelo_inurba_marseille","lat":43.31367,"lon":5.385,"is_reserved":false,"is_disabled":false,"rental_uris":{"android":"levelo://app?vid=0df4b5eb-4f2e-4c58-97e0-65639bc25ef0","ios":"levelo://app?vid=0df4b5eb-4f2e-4c58-97e0-65639bc25ef0"},"vehicle_type_id":"4","last_reported":1751929835,"current_range_meters":12400,"station_id":"ce4bgt92rcd13ifvqcf0","pricing_plan_id":"cebpf4jnsgd1na2vs0mg"},{"bike_id":"7aa5eec3-6422-477d-bc7c-86fc3d3072d4","system_id":"levelo_inurba_marseille","lat":43.3077,"lon":5.37659,"is_reserved":false,"is_disabled":false,"rental_uris":{"android":"levelo://app?vid=7aa5eec3-6422-477d-bc7c-86fc3d3072d4","ios":"levelo://app?vid=7aa5eec3-6422-477d-bc7c-86fc3d3072d4"},"vehicle_type_id":"4","last_reported":1751929835,"current_range_meters":12400,"station_id":"ce4bgv92rcd13ifvqcq0","pricing_plan_id":"cebpf4jnsgd1na2vs0mg"},{"bike_id":"33f81a93-a2a0-48f8-ac54-078601f4600d","system_id":"levelo_inurba_marseille","lat":43.30937,"lon":5.40174,"is_reserved":false,"is_disabled":false,"rental_uris":{"android":"levelo://app?vid=33f81a93-a2a0-48f8-ac54-078601f4600d","ios":"levelo://app?vid=33f81a93-a2a0-48f8-ac54-078601f4600d"},"vehicle_type_id":"4","last_reported":1751929835,"current_range_meters":12400,"station_id":"ce4bgvp2rcd13ifvqct0","pricing_plan_id":"cebpf4jnsgd1na2vs0mg"},{"bike_id":"942a983a-7094-47d3-97b7-ba4ab853d965","system_id":"levelo_inurba_marseille","lat":43.270691,"lon":5.422762,"is_reserved":false,"is_disabled":false,"rental_uris":{"android":"levelo://app?vid=942a983a-7094-47d3-97b7-ba4ab853d965","ios":"levelo://app?vid=942a983a-7094-47d3-97b7-ba4ab853d965"},"vehicle_type_id":"4","last_reported":1751929835,"current_range_meters":12400,"station_id":"ce4bhk92rcd13ifvqgb0","pricing_plan_id":"cebpf4jnsgd1na2vs0mg"},{"bike_id":"520db1de-894b-49d4-b9f4-553feb163659","system_id":"levelo_inurba_marseille","lat":43.32346,"lon":5.4061,"is_reserved":false,"is_disabled":false,"rental_uris":{"android":"levelo://app?vid=520db1de-894b-49d4-b9f4-553feb163659","ios":"levelo://app?vid=520db1de-894b-49d4-b9f4-553feb163659"},"vehicle_type_id":"4","last_reported":1751929835,"current_range_meters":12400,"station_id":"ce4bhq92rcd13ifvqhjg","pricing_plan_id":"cebpf4jnsgd1na2vs0mg"},{"bike_id":"072aef18-8c4c-41ca-9032-1b5fba7539b3","system_id":"levelo_inurba_marseille","lat":43.31992,"lon":5.36752,"is_reserved":false,"is_disabled":false,"rental_uris":{"android":"levelo://app?vid=072aef18-8c4c-41ca-9032-1b5fba7539b3","ios":"levelo://app?vid=072aef18-8c4c-41ca-9032-1b5fba7539b3"},"vehicle_type_id":"4","last_reported":1751929835,"current_range_meters":12400,"station_id":"ce4bhrh2rcd13ifvqhug","pricing_plan_id":"cebpf4jnsgd1na2vs0mg"},{"bike_id":"13c84df3-55fc-4465-b582-17389625d267","system_id":"levelo_inurba_marseille","lat":43.25999,"lon":5.41747,"is_reserved":false,"is_disabled":false,"rental_uris":{"android":"levelo://app?vid=13c84df3-55fc-4465-b582-17389625d267","ios":"levelo://app?vid=13c84df3-55fc-4465-b582-17389625d267"},"vehicle_type_id":"4","last_reported":1751929835,"current_range_meters":12800,"station_id":"","pricing_plan_id":"cebpf4jnsgd1na2vs0mg"},{"bike_id":"b260b628-14ee-4f8d-a7bb-2148a7e59e67","system_id":"levelo_inurba_marseille","lat":43.30572,"lon":5.37228,"is_reserved":false,"is_disabled":false,"rental_uris":{"android":"levelo://app?vid=b260b628-14ee-4f8d-a7bb-2148a7e59e67","ios":"levelo://app?vid=b260b628-14ee-4f8d-a7bb-2148a7e59e67"},"vehicle_type_id":"4","last_reported":1751929835,"current_range_meters":12800,"station_id":"ce4bgqh2rcd13ifvqc4g","pricing_plan_id":"cebpf4jnsgd1na2vs0mg"},{"bike_id":"8e961d66-bbb2-4217-b36c-aedc19279bc4","system_id":"levelo_inurba_marseille","lat":43.30883,"lon":5.39649,"is_reserved":false,"is_disabled":false,"rental_uris":{"android":"levelo://app?vid=8e961d66-bbb2-4217-b36c-aedc19279bc4","ios":"levelo://app?vid=8e961d66-bbb2-4217-b36c-aedc19279bc4"},"vehicle_type_id":"4","last_reported":1751929835,"current_range_meters":12800,"station_id":"ce4bh012rcd13ifvqcv0","pricing_plan_id":"cebpf4jnsgd1na2vs0mg"},{"bike_id":"43d12e7f-c3cd-4a6a-a228-c0298712c5ef","system_id":"levelo_inurba_marseille","lat":43.30602,"lon":5.39342,"is_reserved":false,"is_disabled":false,"rental_uris":{"android":"levelo://app?vid=43d12e7f-c3cd-4a6a-a228-c0298712c5ef","ios":"levelo://app?vid=43d12e7f-c3cd-4a6a-a228-c0298712c5ef"},"vehicle_type_id":"4","last_reported":1751929835,"current_range_meters":12800,"station_id":"ce4bh0p2rcd13ifvqd80","pricing_plan_id":"cebpf4jnsgd1na2vs0mg"},{"bike_id":"e7e74529-e7e6-4147-a905-c0ad6739b2a8","system_id":"levelo_inurba_marseille","lat":43.250082,"lon":5.389364,"is_reserved":false,"is_disabled":false,"rental_uris":{"android":"levelo://app?vid=e7e74529-e7e6-4147-a905-c0ad6739b2a8","ios":"levelo://app?vid=e7e74529-e7e6-4147-a905-c0ad6739b2a8"},"vehicle_type_id":"4","last_reported":1751929835,"current_range_meters":12800,"station_id":"ce4bhgp2rcd13ifvqfd0","pricing_plan_id":"cebpf4jnsgd1na2vs0mg"},{"bike_id":"e79346c8-86fc-4daa-86ef-e1e68b65043e","system_id":"levelo_inurba_marseille","lat":43.24082,"lon":5.3776,"is_reserved":false,"is_disabled":false,"rental_uris":{"android":"levelo://app?vid=e79346c8-86fc-4daa-86ef-e1e68b65043e","ios":"levelo://app?vid=e79346c8-86fc-4daa-86ef-e1e68b65043e"},"vehicle_type_id":"4","last_reported":1751929835,"current_range_meters":12800,"station_id":"ce4bhnp2rcd13ifvqgvg","pricing_plan_id":"cebpf4jnsgd1na2vs0mg"},{"bike_id":"002f2ba8-82ee-4831-bc18-f0b75d723675","system_id":"levelo_inurba_marseille","lat":43.287002,"lon":5.400014,"is_reserved":false,"is_disabled":false,"rental_uris":{"android":"levelo://app?vid=002f2ba8-82ee-4831-bc18-f0b75d723675","ios":"levelo://app?vid=002f2ba8-82ee-4831-bc18-f0b75d723675"},"vehicle_type_id":"4","last_reported":1751929835,"current_range_meters":12800,"station_id":"ce4bho92rcd13ifvqh3g","pricing_plan_id":"cebpf4jnsgd1na2vs0mg"},{"bike_id":"34961fc1-8e1d-44fe-8f53-30afd81fbe6f","system_id":"levelo_inurba_marseille","lat":43.31715,"lon":5.4371,"is_reserved":false,"is_disabled":false,"rental_uris":{"android":"levelo://app?vid=34961fc1-8e1d-44fe-8f53-30afd81fbe6f","ios":"levelo://app?vid=34961fc1-8e1d-44fe-8f53-30afd81fbe6f"},"vehicle_type_id":"4","last_reported":1751929835,"current_range_meters":12800,"station_id":"ce4bhp92rcd13ifvqhcg","pricing_plan_id":"cebpf4jnsgd1na2vs0mg"},{"bike_id":"bff287d5-0c9a-4575-8cd6-c178d6ab245e","system_id":"levelo_inurba_marseille","lat":43.30573,"lon":5.37213,"is_reserved":false,"is_disabled":false,"rental_uris":{"android":"levelo://app?vid=bff287d5-0c9a-4575-8cd6-c178d6ab245e","ios":"levelo://app?vid=bff287d5-0c9a-4575-8cd6-c178d6ab245e"},"vehicle_type_id":"4","last_reported":1751929835,"current_range_meters":13600,"station_id":"ce4bgqh2rcd13ifvqc4g","pricing_plan_id":"cebpf4jnsgd1na2vs0mg"},{"bike_id":"4a3154ac-3048-463e-9c11-90185238f36f","system_id":"levelo_inurba_marseille","lat":43.30138,"lon":5.39884,"is_reserved":false,"is_disabled":false,"rental_uris":{"android":"levelo://app?vid=4a3154ac-3048-463e-9c11-90185238f36f","ios":"levelo://app?vid=4a3154ac-3048-463e-9c11-90185238f36f"},"vehicle_type_id":"4","last_reported":1751929835,"current_range_meters":13600,"station_id":"ce4bh0h2rcd13ifvqd40","pricing_plan_id":"cebpf4jnsgd1na2vs0mg"},{"bike_id":"4cc495d5-e597-4967-9c52-2a54104880ee","system_id":"levelo_inurba_marseille","lat":43.22933,"lon":5.35389,"is_reserved":false,"is_disabled":false,"rental_uris":{"android":"levelo://app?vid=4cc495d5-e597-4967-9c52-2a54104880ee","ios":"levelo://app?vid=4cc495d5-e597-4967-9c52-2a54104880ee"},"vehicle_type_id":"4","last_reported":1751929835,"current_range_meters":13600,"station_id":"cpo3532slgdg3j2ikp40","pricing_plan_id":"cebpf4jnsgd1na2vs0mg"},{"bike_id":"3940df16-67e4-48d2-ba98-0b9c909004b3","system_id":"levelo_inurba_marseille","lat":43.3149,"lon":5.39755,"is_reserved":false,"is_disabled":false,"rental_uris":{"android":"levelo://app?vid=3940df16-67e4-48d2-ba98-0b9c909004b3","ios":"levelo://app?vid=3940df16-67e4-48d2-ba98-0b9c909004b3"},"vehicle_type_id":"4","last_reported":1751929835,"current_range_meters":14000,"station_id":"","pricing_plan_id":"cebpf4jnsgd1na2vs0mg"},{"bike_id":"35cc2117-b80e-48e8-9e1e-255871a263f8","system_id":"levelo_inurba_marseille","lat":43.30796,"lon":5.38152,"is_reserved":false,"is_disabled":false,"rental_uris":{"android":"levelo://app?vid=35cc2117-b80e-48e8-9e1e-255871a263f8","ios":"levelo://app?vid=35cc2117-b80e-48e8-9e1e-255871a263f8"},"vehicle_type_id":"4","last_reported":1751929835,"current_range_meters":14000,"station_id":"ce4bgt12rcd13ifvqce0","pricing_plan_id":"cebpf4jnsgd1na2vs0mg"},{"bike_id":"61deead2-13f2-4748-ada0-2055e96258c7","system_id":"levelo_inurba_marseille","lat":43.30935,"lon":5.40149,"is_reserved":false,"is_disabled":false,"rental_uris":{"android":"levelo://app?vid=61deead2-13f2-4748-ada0-2055e96258c7","ios":"levelo://app?vid=61deead2-13f2-4748-ada0-2055e96258c7"},"vehicle_type_id":"4","last_reported":1751929835,"current_range_meters":14000,"station_id":"ce4bgvp2rcd13ifvqct0","pricing_plan_id":"cebpf4jnsgd1na2vs0mg"},{"bike_id":"3d821f43-e6a1-4422-94be-50a60eab90a5","system_id":"levelo_inurba_marseille","lat":43.29589,"lon":5.3997,"is_reserved":false,"is_disabled":false,"rental_uris":{"android":"levelo://app?vid=3d821f43-e6a1-4422-94be-50a60eab90a5","ios":"levelo://app?vid=3d821f43-e6a1-4422-94be-50a60eab90a5"},"vehicle_type_id":"4","last_reported":1751929835,"current_range_meters":14000,"station_id":"ce4bh312rcd13ifvqdj0","pricing_plan_id":"cebpf4jnsgd1na2vs0mg"},{"bike_id":"b3d99d2c-0ba9-4b93-ad41-ac4592c5210e","system_id":"levelo_inurba_marseille","lat":43.283628,"lon":5.381158,"is_reserved":false,"is_disabled":false,"rental_uris":{"android":"levelo://app?vid=b3d99d2c-0ba9-4b93-ad41-ac4592c5210e","ios":"levelo://app?vid=b3d99d2c-0ba9-4b93-ad41-ac4592c5210e"},"vehicle_type_id":"4","last_reported":1751929835,"current_range_meters":14000,"station_id":"ce4bh412rcd13ifvqdr0","pricing_plan_id":"cebpf4jnsgd1na2vs0mg"},{"bike_id":"c2ee7d66-374b-44cd-b9d7-9ad64301293b","system_id":"levelo_inurba_marseille","lat":43.22488,"lon":5.34774,"is_reserved":false,"is_disabled":false,"rental_uris":{"android":"levelo://app?vid=c2ee7d66-374b-44cd-b9d7-9ad64301293b","ios":"levelo://app?vid=c2ee7d66-374b-44cd-b9d7-9ad64301293b"},"vehicle_type_id":"4","last_reported":1751929835,"current_range_meters":14000,"station_id":"st_cvj5dfep6f1abm77gieg","pricing_plan_id":"cebpf4jnsgd1na2vs0mg"},{"bike_id":"67f94500-6ad6-40b7-80db-92434fb96541","system_id":"levelo_inurba_marseille","lat":43.308832,"lon":5.396534,"is_reserved":false,"is_disabled":false,"rental_uris":{"android":"levelo://app?vid=67f94500-6ad6-40b7-80db-92434fb96541","ios":"levelo://app?vid=67f94500-6ad6-40b7-80db-92434fb96541"},"vehicle_type_id":"4","last_reported":1751929835,"current_range_meters":14400,"station_id":"ce4bh012rcd13ifvqcv0","pricing_plan_id":"cebpf4jnsgd1na2vs0mg"},{"bike_id":"8bc4b403-5e61-4dfc-9fa1-d8a42826b87a","system_id":"levelo_inurba_marseille","lat":43.30313,"lon":5.40455,"is_reserved":false,"is_disabled":false,"rental_uris":{"android":"levelo://app?vid=8bc4b403-5e61-4dfc-9fa1-d8a42826b87a","ios":"levelo://app?vid=8bc4b403-5e61-4dfc-9fa1-d8a42826b87a"},"vehicle_type_id":"4","last_reported":1751929835,"current_range_meters":14400,"station_id":"ce4bh012rcd13ifvqd10","pricing_plan_id":"cebpf4jnsgd1na2vs0mg"},{"bike_id":"82dc7477-d23f-4fe2-8763-1826918122f6","system_id":"levelo_inurba_marseille","lat":43.28026,"lon":5.36936,"is_reserved":false,"is_disabled":false,"rental_uris":{"android":"levelo://app?vid=82dc7477-d23f-4fe2-8763-1826918122f6","ios":"levelo://app?vid=82dc7477-d23f-4fe2-8763-1826918122f6"},"vehicle_type_id":"4","last_reported":1751929835,"current_range_meters":14400,"station_id":"ce4bha12rcd13ifvqef0","pricing_plan_id":"cebpf4jnsgd1na2vs0mg"},{"bike_id":"4c4d4b94-5832-431b-a6a4-1addce77dff7","system_id":"levelo_inurba_marseille","lat":43.243943,"lon":5.370563,"is_reserved":false,"is_disabled":false,"rental_uris":{"android":"levelo://app?vid=4c4d4b94-5832-431b-a6a4-1addce77dff7","ios":"levelo://app?vid=4c4d4b94-5832-431b-a6a4-1addce77dff7"},"vehicle_type_id":"4","last_reported":1751929835,"current_range_meters":14400,"station_id":"ce4bhhh2rcd13ifvqfk0","pricing_plan_id":"cebpf4jnsgd1na2vs0mg"},{"bike_id":"86abc6a1-43a4-4868-8af4-da9998b161bc","system_id":"levelo_inurba_marseille","lat":43.25824,"lon":5.39441,"is_reserved":false,"is_disabled":false,"rental_uris":{"android":"levelo://app?vid=86abc6a1-43a4-4868-8af4-da9998b161bc","ios":"levelo://app?vid=86abc6a1-43a4-4868-8af4-da9998b161bc"},"vehicle_type_id":"4","last_reported":1751929835,"current_range_meters":14400,"station_id":"ce4bhip2rcd13ifvqft0","pricing_plan_id":"cebpf4jnsgd1na2vs0mg"},{"bike_id":"bc6e3149-4a9d-4e0d-a6ae-1da46fa9ab56","system_id":"levelo_inurba_marseille","lat":43.32641,"lon":5.41023,"is_reserved":false,"is_disabled":false,"rental_uris":{"android":"levelo://app?vid=bc6e3149-4a9d-4e0d-a6ae-1da46fa9ab56","ios":"levelo://app?vid=bc6e3149-4a9d-4e0d-a6ae-1da46fa9ab56"},"vehicle_type_id":"4","last_reported":1751929835,"current_range_meters":14400,"station_id":"ce4bhpp2rcd13ifvqhgg","pricing_plan_id":"cebpf4jnsgd1na2vs0mg"},{"bike_id":"2090512e-543d-4a55-b888-2423e2f84234","system_id":"levelo_inurba_marseille","lat":43.24063,"lon":5.37723,"is_reserved":false,"is_disabled":false,"rental_uris":{"android":"levelo://app?vid=2090512e-543d-4a55-b888-2423e2f84234","ios":"levelo://app?vid=2090512e-543d-4a55-b888-2423e2f84234"},"vehicle_type_id":"4","last_reported":1751929835,"current_range_meters":14800,"station_id":"ce4bhnp2rcd13ifvqgvg","pricing_plan_id":"cebpf4jnsgd1na2vs0mg"},{"bike_id":"bac13eb2-75b6-43a2-8750-65111fd6394f","system_id":"levelo_inurba_marseille","lat":43.32101,"lon":5.36787,"is_reserved":false,"is_disabled":false,"rental_uris":{"android":"levelo://app?vid=bac13eb2-75b6-43a2-8750-65111fd6394f","ios":"levelo://app?vid=bac13eb2-75b6-43a2-8750-65111fd6394f"},"vehicle_type_id":"4","last_reported":1751929835,"current_range_meters":14800,"station_id":"ce4bhrh2rcd13ifvqhug","pricing_plan_id":"cebpf4jnsgd1na2vs0mg"},{"bike_id":"9bfc7d3d-4e60-4f8a-9c32-ef3d0e77ec5b","system_id":"levelo_inurba_marseille","lat":43.21191,"lon":5.35073,"is_reserved":false,"is_disabled":false,"rental_uris":{"android":"levelo://app?vid=9bfc7d3d-4e60-4f8a-9c32-ef3d0e77ec5b","ios":"levelo://app?vid=9bfc7d3d-4e60-4f8a-9c32-ef3d0e77ec5b"},"vehicle_type_id":"4","last_reported":1751929835,"current_range_meters":14800,"station_id":"st_cvj6sg6p6f1abm77japg","pricing_plan_id":"cebpf4jnsgd1na2vs0mg"},{"bike_id":"c7ac2c6f-0af8-4ed6-b7b9-2a662853575a","system_id":"levelo_inurba_marseille","lat":43.30591,"lon":5.37228,"is_reserved":false,"is_disabled":false,"rental_uris":{"android":"levelo://app?vid=c7ac2c6f-0af8-4ed6-b7b9-2a662853575a","ios":"levelo://app?vid=c7ac2c6f-0af8-4ed6-b7b9-2a662853575a"},"vehicle_type_id":"4","last_reported":1751929835,"current_range_meters":15200,"station_id":"ce4bgqh2rcd13ifvqc4g","pricing_plan_id":"cebpf4jnsgd1na2vs0mg"},{"bike_id":"e470cb6e-3a72-4ebe-91f8-d3ecddab280e","system_id":"levelo_inurba_marseille","lat":43.307882,"lon":5.381538,"is_reserved":false,"is_disabled":false,"rental_uris":{"android":"levelo://app?vid=e470cb6e-3a72-4ebe-91f8-d3ecddab280e","ios":"levelo://app?vid=e470cb6e-3a72-4ebe-91f8-d3ecddab280e"},"vehicle_type_id":"4","last_reported":1751929835,"current_range_meters":15200,"station_id":"ce4bgt12rcd13ifvqce0","pricing_plan_id":"cebpf4jnsgd1na2vs0mg"},{"bike_id":"ae063a66-86c8-4dbf-85fb-211b53656a78","system_id":"levelo_inurba_marseille","lat":43.30781,"lon":5.37641,"is_reserved":false,"is_disabled":false,"rental_uris":{"android":"levelo://app?vid=ae063a66-86c8-4dbf-85fb-211b53656a78","ios":"levelo://app?vid=ae063a66-86c8-4dbf-85fb-211b53656a78"},"vehicle_type_id":"4","last_reported":1751929835,"current_range_meters":15200,"station_id":"ce4bgv92rcd13ifvqcq0","pricing_plan_id":"cebpf4jnsgd1na2vs0mg"},{"bike_id":"45bf0661-6be7-469e-ac50-cda1e6dcbb9c","system_id":"levelo_inurba_marseille","lat":43.28406,"lon":5.37521,"is_reserved":false,"is_disabled":false,"rental_uris":{"android":"levelo://app?vid=45bf0661-6be7-469e-ac50-cda1e6dcbb9c","ios":"levelo://app?vid=45bf0661-6be7-469e-ac50-cda1e6dcbb9c"},"vehicle_type_id":"4","last_reported":1751929835,"current_range_meters":15200,"station_id":"ce4bh412rcd13ifvqds0","pricing_plan_id":"cebpf4jnsgd1na2vs0mg"},{"bike_id":"0e28a9ae-26b0-4409-896f-cfa314dde98a","system_id":"levelo_inurba_marseille","lat":43.24689,"lon":5.38109,"is_reserved":false,"is_disabled":false,"rental_uris":{"android":"levelo://app?vid=0e28a9ae-26b0-4409-896f-cfa314dde98a","ios":"levelo://app?vid=0e28a9ae-26b0-4409-896f-cfa314dde98a"},"vehicle_type_id":"4","last_reported":1751929835,"current_range_meters":15200,"station_id":"ce4bhih2rcd13ifvqfr0","pricing_plan_id":"cebpf4jnsgd1na2vs0mg"},{"bike_id":"2acdb97e-7ea7-4c87-9236-5d0e97f4bb9f","system_id":"levelo_inurba_marseille","lat":43.287023,"lon":5.39983,"is_reserved":false,"is_disabled":false,"rental_uris":{"android":"levelo://app?vid=2acdb97e-7ea7-4c87-9236-5d0e97f4bb9f","ios":"levelo://app?vid=2acdb97e-7ea7-4c87-9236-5d0e97f4bb9f"},"vehicle_type_id":"4","last_reported":1751929835,"current_range_meters":15200,"station_id":"ce4bho92rcd13ifvqh3g","pricing_plan_id":"cebpf4jnsgd1na2vs0mg"},{"bike_id":"6ffc31bf-be63-440b-8353-4ff83386083b","system_id":"levelo_inurba_marseille","lat":43.29825,"lon":5.36432,"is_reserved":false,"is_disabled":false,"rental_uris":{"android":"levelo://app?vid=6ffc31bf-be63-440b-8353-4ff83386083b","ios":"levelo://app?vid=6ffc31bf-be63-440b-8353-4ff83386083b"},"vehicle_type_id":"4","last_reported":1751929835,"current_range_meters":16000,"station_id":"","pricing_plan_id":"cebpf4jnsgd1na2vs0mg"},{"bike_id":"9ad7483e-2557-479a-9522-089c3b1a8bfd","system_id":"levelo_inurba_marseille","lat":43.30796,"lon":5.38158,"is_reserved":false,"is_disabled":false,"rental_uris":{"android":"levelo://app?vid=9ad7483e-2557-479a-9522-089c3b1a8bfd","ios":"levelo://app?vid=9ad7483e-2557-479a-9522-089c3b1a8bfd"},"vehicle_type_id":"4","last_reported":1751929835,"current_range_meters":16000,"station_id":"ce4bgt12rcd13ifvqce0","pricing_plan_id":"cebpf4jnsgd1na2vs0mg"},{"bike_id":"f2ab8cc5-94dc-4bc2-b922-46bd4090be2a","system_id":"levelo_inurba_marseille","lat":43.31332,"lon":5.39698,"is_reserved":false,"is_disabled":false,"rental_uris":{"android":"levelo://app?vid=f2ab8cc5-94dc-4bc2-b922-46bd4090be2a","ios":"levelo://app?vid=f2ab8cc5-94dc-4bc2-b922-46bd4090be2a"},"vehicle_type_id":"4","last_reported":1751929835,"current_range_meters":16000,"station_id":"ce4bgvp2rcd13ifvqcu0","pricing_plan_id":"cebpf4jnsgd1na2vs0mg"},{"bike_id":"64b4fa4f-0779-4ed7-89cb-2e78d143f36e","system_id":"levelo_inurba_marseille","lat":43.21755,"lon":5.34605,"is_reserved":false,"is_disabled":false,"rental_uris":{"android":"levelo://app?vid=64b4fa4f-0779-4ed7-89cb-2e78d143f36e","ios":"levelo://app?vid=64b4fa4f-0779-4ed7-89cb-2e78d143f36e"},"vehicle_type_id":"4","last_reported":1751929835,"current_range_meters":16000,"station_id":"st_cvj6r9ubvosntc0bgbag","pricing_plan_id":"cebpf4jnsgd1na2vs0mg"},{"bike_id":"427cea64-fc3b-46a4-bd25-2bad84cd1642","system_id":"levelo_inurba_marseille","lat":43.21187,"lon":5.35081,"is_reserved":false,"is_disabled":false,"rental_uris":{"android":"levelo://app?vid=427cea64-fc3b-46a4-bd25-2bad84cd1642","ios":"levelo://app?vid=427cea64-fc3b-46a4-bd25-2bad84cd1642"},"vehicle_type_id":"4","last_reported":1751929835,"current_range_meters":16000,"station_id":"st_cvj6sg6p6f1abm77japg","pricing_plan_id":"cebpf4jnsgd1na2vs0mg"},{"bike_id":"6a3a3e65-1839-43d5-b574-3a73e4e32dac","system_id":"levelo_inurba_marseille","lat":43.32321,"lon":5.3887,"is_reserved":false,"is_disabled":false,"rental_uris":{"android":"levelo://app?vid=6a3a3e65-1839-43d5-b574-3a73e4e32dac","ios":"levelo://app?vid=6a3a3e65-1839-43d5-b574-3a73e4e32dac"},"vehicle_type_id":"4","last_reported":1751929835,"current_range_meters":16400,"station_id":"","pricing_plan_id":"cebpf4jnsgd1na2vs0mg"},{"bike_id":"888522e3-39b6-4ff3-ad74-ff6c6f771157","system_id":"levelo_inurba_marseille","lat":43.29503,"lon":5.40263,"is_reserved":false,"is_disabled":false,"rental_uris":{"android":"levelo://app?vid=888522e3-39b6-4ff3-ad74-ff6c6f771157","ios":"levelo://app?vid=888522e3-39b6-4ff3-ad74-ff6c6f771157"},"vehicle_type_id":"4","last_reported":1751929835,"current_range_meters":16400,"station_id":"","pricing_plan_id":"cebpf4jnsgd1na2vs0mg"},{"bike_id":"dfe474ed-87e6-460a-9158-01a0a0f821f2","system_id":"levelo_inurba_marseille","lat":43.2993,"lon":5.365486,"is_reserved":false,"is_disabled":false,"rental_uris":{"android":"levelo://app?vid=dfe474ed-87e6-460a-9158-01a0a0f821f2","ios":"levelo://app?vid=dfe474ed-87e6-460a-9158-01a0a0f821f2"},"vehicle_type_id":"4","last_reported":1751929835,"current_range_meters":16400,"station_id":"ce4bgm92rcd13ifvqbr0","pricing_plan_id":"cebpf4jnsgd1na2vs0mg"},{"bike_id":"836db0d5-062b-486c-a845-0eb96f259d7c","system_id":"levelo_inurba_marseille","lat":43.28334,"lon":5.3811,"is_reserved":false,"is_disabled":false,"rental_uris":{"android":"levelo://app?vid=836db0d5-062b-486c-a845-0eb96f259d7c","ios":"levelo://app?vid=836db0d5-062b-486c-a845-0eb96f259d7c"},"vehicle_type_id":"4","last_reported":1751929835,"current_range_meters":16400,"station_id":"ce4bh412rcd13ifvqdr0","pricing_plan_id":"cebpf4jnsgd1na2vs0mg"},{"bike_id":"a11f7711-06b5-48d4-ad64-228f8a05b25d","system_id":"levelo_inurba_marseille","lat":43.26684,"lon":5.3827,"is_reserved":false,"is_disabled":false,"rental_uris":{"android":"levelo://app?vid=a11f7711-06b5-48d4-ad64-228f8a05b25d","ios":"levelo://app?vid=a11f7711-06b5-48d4-ad64-228f8a05b25d"},"vehicle_type_id":"4","last_reported":1751929835,"current_range_meters":16400,"station_id":"ce4bhg92rcd13ifvqf90","pricing_plan_id":"cebpf4jnsgd1na2vs0mg"},{"bike_id":"3a2bb8a2-3006-48cf-aa67-ed536c17a80f","system_id":"levelo_inurba_marseille","lat":43.3037,"lon":5.4249,"is_reserved":false,"is_disabled":false,"rental_uris":{"android":"levelo://app?vid=3a2bb8a2-3006-48cf-aa67-ed536c17a80f","ios":"levelo://app?vid=3a2bb8a2-3006-48cf-aa67-ed536c17a80f"},"vehicle_type_id":"4","last_reported":1751929835,"current_range_meters":16400,"station_id":"ce4bhoh2rcd13ifvqh6g","pricing_plan_id":"cebpf4jnsgd1na2vs0mg"},{"bike_id":"d5ef770d-9759-47e3-b3a5-7d2785ef76db","system_id":"levelo_inurba_marseille","lat":43.32929,"lon":5.39031,"is_reserved":false,"is_disabled":false,"rental_uris":{"android":"levelo://app?vid=d5ef770d-9759-47e3-b3a5-7d2785ef76db","ios":"levelo://app?vid=d5ef770d-9759-47e3-b3a5-7d2785ef76db"},"vehicle_type_id":"4","last_reported":1751929835,"current_range_meters":16800,"station_id":"","pricing_plan_id":"cebpf4jnsgd1na2vs0mg"},{"bike_id":"afd2c671-b274-4716-95f7-9abfdfc6dc55","system_id":"levelo_inurba_marseille","lat":43.31523,"lon":5.37432,"is_reserved":false,"is_disabled":false,"rental_uris":{"android":"levelo://app?vid=afd2c671-b274-4716-95f7-9abfdfc6dc55","ios":"levelo://app?vid=afd2c671-b274-4716-95f7-9abfdfc6dc55"},"vehicle_type_id":"4","last_reported":1751929835,"current_range_meters":16800,"station_id":"","pricing_plan_id":"cebpf4jnsgd1na2vs0mg"},{"bike_id":"9db15efa-62b5-43dc-beab-14a16c0840b9","system_id":"levelo_inurba_marseille","lat":43.304524,"lon":5.415534,"is_reserved":false,"is_disabled":false,"rental_uris":{"android":"levelo://app?vid=9db15efa-62b5-43dc-beab-14a16c0840b9","ios":"levelo://app?vid=9db15efa-62b5-43dc-beab-14a16c0840b9"},"vehicle_type_id":"4","last_reported":1751929835,"current_range_meters":16800,"station_id":"","pricing_plan_id":"cebpf4jnsgd1na2vs0mg"},{"bike_id":"add6acbc-c787-42ea-a576-b06f7d6e2833","system_id":"levelo_inurba_marseille","lat":43.30641,"lon":5.40096,"is_reserved":false,"is_disabled":false,"rental_uris":{"android":"levelo://app?vid=add6acbc-c787-42ea-a576-b06f7d6e2833","ios":"levelo://app?vid=add6acbc-c787-42ea-a576-b06f7d6e2833"},"vehicle_type_id":"4","last_reported":1751929835,"current_range_meters":16800,"station_id":"ce4bh112rcd13ifvqda0","pricing_plan_id":"cebpf4jnsgd1na2vs0mg"},{"bike_id":"94bccb9f-38a9-4aed-80ac-34b097a6b507","system_id":"levelo_inurba_marseille","lat":43.28363,"lon":5.38117,"is_reserved":false,"is_disabled":false,"rental_uris":{"android":"levelo://app?vid=94bccb9f-38a9-4aed-80ac-34b097a6b507","ios":"levelo://app?vid=94bccb9f-38a9-4aed-80ac-34b097a6b507"},"vehicle_type_id":"4","last_reported":1751929835,"current_range_meters":16800,"station_id":"ce4bh412rcd13ifvqdr0","pricing_plan_id":"cebpf4jnsgd1na2vs0mg"},{"bike_id":"51890362-46b0-4ee7-9f02-afbf036d064e","system_id":"levelo_inurba_marseille","lat":43.21195,"lon":5.3508,"is_reserved":false,"is_disabled":false,"rental_uris":{"android":"levelo://app?vid=51890362-46b0-4ee7-9f02-afbf036d064e","ios":"levelo://app?vid=51890362-46b0-4ee7-9f02-afbf036d064e"},"vehicle_type_id":"4","last_reported":1751929835,"current_range_meters":16800,"station_id":"st_cvj6sg6p6f1abm77japg","pricing_plan_id":"cebpf4jnsgd1na2vs0mg"},{"bike_id":"084f14d4-0bc9-446c-902e-a4f3b90135fe","system_id":"levelo_inurba_marseille","lat":43.32393,"lon":5.42923,"is_reserved":false,"is_disabled":false,"rental_uris":{"android":"levelo://app?vid=084f14d4-0bc9-446c-902e-a4f3b90135fe","ios":"levelo://app?vid=084f14d4-0bc9-446c-902e-a4f3b90135fe"},"vehicle_type_id":"4","last_reported":1751929835,"current_range_meters":17200,"station_id":"","pricing_plan_id":"cebpf4jnsgd1na2vs0mg"},{"bike_id":"077fb3da-f68e-464b-b68d-824174483b25","system_id":"levelo_inurba_marseille","lat":43.31747,"lon":5.40404,"is_reserved":false,"is_disabled":false,"rental_uris":{"android":"levelo://app?vid=077fb3da-f68e-464b-b68d-824174483b25","ios":"levelo://app?vid=077fb3da-f68e-464b-b68d-824174483b25"},"vehicle_type_id":"4","last_reported":1751929835,"current_range_meters":17200,"station_id":"ce4bh012rcd13ifvqd00","pricing_plan_id":"cebpf4jnsgd1na2vs0mg"},{"bike_id":"d4a5065e-8265-4722-88be-353fe9084168","system_id":"levelo_inurba_marseille","lat":43.29625,"lon":5.40608,"is_reserved":false,"is_disabled":false,"rental_uris":{"android":"levelo://app?vid=d4a5065e-8265-4722-88be-353fe9084168","ios":"levelo://app?vid=d4a5065e-8265-4722-88be-353fe9084168"},"vehicle_type_id":"4","last_reported":1751929835,"current_range_meters":17200,"station_id":"ce4bh0h2rcd13ifvqd60","pricing_plan_id":"cebpf4jnsgd1na2vs0mg"},{"bike_id":"8488af10-92d7-41f0-8176-aa446bff0859","system_id":"levelo_inurba_marseille","lat":43.28447,"lon":5.35887,"is_reserved":false,"is_disabled":false,"rental_uris":{"android":"levelo://app?vid=8488af10-92d7-41f0-8176-aa446bff0859","ios":"levelo://app?vid=8488af10-92d7-41f0-8176-aa446bff0859"},"vehicle_type_id":"4","last_reported":1751929835,"current_range_meters":17200,"station_id":"ce4bhah2rcd13ifvqei0","pricing_plan_id":"cebpf4jnsgd1na2vs0mg"},{"bike_id":"41395816-7a6c-4bb9-a909-4b346369ee3d","system_id":"levelo_inurba_marseille","lat":43.24662,"lon":5.38163,"is_reserved":false,"is_disabled":false,"rental_uris":{"android":"levelo://app?vid=41395816-7a6c-4bb9-a909-4b346369ee3d","ios":"levelo://app?vid=41395816-7a6c-4bb9-a909-4b346369ee3d"},"vehicle_type_id":"4","last_reported":1751929835,"current_range_meters":17200,"station_id":"ce4bhih2rcd13ifvqfr0","pricing_plan_id":"cebpf4jnsgd1na2vs0mg"},{"bike_id":"1b6c5682-a561-43c6-b3f2-a0aa8fa989d5","system_id":"levelo_inurba_marseille","lat":43.25809,"lon":5.39444,"is_reserved":false,"is_disabled":false,"rental_uris":{"android":"levelo://app?vid=1b6c5682-a561-43c6-b3f2-a0aa8fa989d5","ios":"levelo://app?vid=1b6c5682-a561-43c6-b3f2-a0aa8fa989d5"},"vehicle_type_id":"4","last_reported":1751929835,"current_range_meters":17200,"station_id":"ce4bhip2rcd13ifvqft0","pricing_plan_id":"cebpf4jnsgd1na2vs0mg"},{"bike_id":"b33792bd-5c9b-478f-bd39-c7eda6a8502a","system_id":"levelo_inurba_marseille","lat":43.27174,"lon":5.40993,"is_reserved":false,"is_disabled":false,"rental_uris":{"android":"levelo://app?vid=b33792bd-5c9b-478f-bd39-c7eda6a8502a","ios":"levelo://app?vid=b33792bd-5c9b-478f-bd39-c7eda6a8502a"},"vehicle_type_id":"4","last_reported":1751929835,"current_range_meters":17200,"station_id":"ce4bhl12rcd13ifvqgf0","pricing_plan_id":"cebpf4jnsgd1na2vs0mg"},{"bike_id":"c5f83647-e0bc-4d1c-96d9-15bff83e5fe0","system_id":"levelo_inurba_marseille","lat":43.25075,"lon":5.395,"is_reserved":false,"is_disabled":false,"rental_uris":{"android":"levelo://app?vid=c5f83647-e0bc-4d1c-96d9-15bff83e5fe0","ios":"levelo://app?vid=c5f83647-e0bc-4d1c-96d9-15bff83e5fe0"},"vehicle_type_id":"4","last_reported":1751929835,"current_range_meters":17200,"station_id":"ce4bhm12rcd13ifvqgkg","pricing_plan_id":"cebpf4jnsgd1na2vs0mg"},{"bike_id":"4aaddbcc-3ba6-46ae-8ad4-c659c48d4b32","system_id":"levelo_inurba_marseille","lat":43.33607,"lon":5.41033,"is_reserved":false,"is_disabled":false,"rental_uris":{"android":"levelo://app?vid=4aaddbcc-3ba6-46ae-8ad4-c659c48d4b32","ios":"levelo://app?vid=4aaddbcc-3ba6-46ae-8ad4-c659c48d4b32"},"vehicle_type_id":"4","last_reported":1751929835,"current_range_meters":17200,"station_id":"ce4bhqh2rcd13ifvqhmg","pricing_plan_id":"cebpf4jnsgd1na2vs0mg"},{"bike_id":"87c2d236-4978-4760-be77-27d7f5a212e4","system_id":"levelo_inurba_marseille","lat":43.29644,"lon":5.36205,"is_reserved":false,"is_disabled":false,"rental_uris":{"android":"levelo://app?vid=87c2d236-4978-4760-be77-27d7f5a212e4","ios":"levelo://app?vid=87c2d236-4978-4760-be77-27d7f5a212e4"},"vehicle_type_id":"4","last_reported":1751929835,"current_range_meters":17600,"station_id":"","pricing_plan_id":"cebpf4jnsgd1na2vs0mg"},{"bike_id":"d78487cb-fa92-4db1-b4fa-56250fd7e81f","system_id":"levelo_inurba_marseille","lat":43.24875,"lon":5.39357,"is_reserved":false,"is_disabled":false,"rental_uris":{"android":"levelo://app?vid=d78487cb-fa92-4db1-b4fa-56250fd7e81f","ios":"levelo://app?vid=d78487cb-fa92-4db1-b4fa-56250fd7e81f"},"vehicle_type_id":"4","last_reported":1751929835,"current_range_meters":18000,"station_id":"","pricing_plan_id":"cebpf4jnsgd1na2vs0mg"},{"bike_id":"38b2600e-b47c-4116-b551-1138d56d0ea2","system_id":"levelo_inurba_marseille","lat":43.30138,"lon":5.38064,"is_reserved":false,"is_disabled":false,"rental_uris":{"android":"levelo://app?vid=38b2600e-b47c-4116-b551-1138d56d0ea2","ios":"levelo://app?vid=38b2600e-b47c-4116-b551-1138d56d0ea2"},"vehicle_type_id":"4","last_reported":1751929835,"current_range_meters":18000,"station_id":"ce4bgjp2rcd13ifvqbh0","pricing_plan_id":"cebpf4jnsgd1na2vs0mg"},{"bike_id":"4286ff59-2bc5-4090-a86c-8916e2e28188","system_id":"levelo_inurba_marseille","lat":43.28931,"lon":5.39636,"is_reserved":false,"is_disabled":false,"rental_uris":{"android":"levelo://app?vid=4286ff59-2bc5-4090-a86c-8916e2e28188","ios":"levelo://app?vid=4286ff59-2bc5-4090-a86c-8916e2e28188"},"vehicle_type_id":"4","last_reported":1751929835,"current_range_meters":18000,"station_id":"ce4bh3h2rcd13ifvqdn0","pricing_plan_id":"cebpf4jnsgd1na2vs0mg"},{"bike_id":"2182b64b-8dd0-43a0-a448-001e57fc2924","system_id":"levelo_inurba_marseille","lat":43.2657,"lon":5.39035,"is_reserved":false,"is_disabled":false,"rental_uris":{"android":"levelo://app?vid=2182b64b-8dd0-43a0-a448-001e57fc2924","ios":"levelo://app?vid=2182b64b-8dd0-43a0-a448-001e57fc2924"},"vehicle_type_id":"4","last_reported":1751929835,"current_range_meters":18000,"station_id":"ce4bhe12rcd13ifvqf30","pricing_plan_id":"cebpf4jnsgd1na2vs0mg"},{"bike_id":"128f659f-6c7e-4cb0-9ea1-4684a4b898cc","system_id":"levelo_inurba_marseille","lat":43.31103,"lon":5.3777,"is_reserved":false,"is_disabled":false,"rental_uris":{"android":"levelo://app?vid=128f659f-6c7e-4cb0-9ea1-4684a4b898cc","ios":"levelo://app?vid=128f659f-6c7e-4cb0-9ea1-4684a4b898cc"},"vehicle_type_id":"4","last_reported":1751929835,"current_range_meters":18800,"station_id":"ce4bgt92rcd13ifvqcg0","pricing_plan_id":"cebpf4jnsgd1na2vs0mg"},{"bike_id":"0184a4d1-2dda-4a48-8767-14d4cd757c90","system_id":"levelo_inurba_marseille","lat":43.287,"lon":5.4002,"is_reserved":false,"is_disabled":false,"rental_uris":{"android":"levelo://app?vid=0184a4d1-2dda-4a48-8767-14d4cd757c90","ios":"levelo://app?vid=0184a4d1-2dda-4a48-8767-14d4cd757c90"},"vehicle_type_id":"4","last_reported":1751929835,"current_range_meters":18800,"station_id":"ce4bho92rcd13ifvqh3g","pricing_plan_id":"cebpf4jnsgd1na2vs0mg"},{"bike_id":"72d7b71d-d2fd-4b28-98cf-acdfa50fa372","system_id":"levelo_inurba_marseille","lat":43.30727,"lon":5.42437,"is_reserved":false,"is_disabled":false,"rental_uris":{"android":"levelo://app?vid=72d7b71d-d2fd-4b28-98cf-acdfa50fa372","ios":"levelo://app?vid=72d7b71d-d2fd-4b28-98cf-acdfa50fa372"},"vehicle_type_id":"4","last_reported":1751929835,"current_range_meters":18800,"station_id":"st_cvj6ca6bvosntc0bfgr0","pricing_plan_id":"cebpf4jnsgd1na2vs0mg"},{"bike_id":"ea7df389-5dc0-4c58-88fe-80a5af035925","system_id":"levelo_inurba_marseille","lat":43.298467,"lon":5.364189,"is_reserved":false,"is_disabled":false,"rental_uris":{"android":"levelo://app?vid=ea7df389-5dc0-4c58-88fe-80a5af035925","ios":"levelo://app?vid=ea7df389-5dc0-4c58-88fe-80a5af035925"},"vehicle_type_id":"4","last_reported":1751929835,"current_range_meters":19200,"station_id":"","pricing_plan_id":"cebpf4jnsgd1na2vs0mg"},{"bike_id":"1647f32a-79a6-456e-b0d6-5bf8dbb16b47","system_id":"levelo_inurba_marseille","lat":43.28864,"lon":5.35847,"is_reserved":false,"is_disabled":false,"rental_uris":{"android":"levelo://app?vid=1647f32a-79a6-456e-b0d6-5bf8dbb16b47","ios":"levelo://app?vid=1647f32a-79a6-456e-b0d6-5bf8dbb16b47"},"vehicle_type_id":"4","last_reported":1751929835,"current_range_meters":19200,"station_id":"ce4bhb12rcd13ifvqem0","pricing_plan_id":"cebpf4jnsgd1na2vs0mg"},{"bike_id":"4dab38b8-f4f2-4c30-8eef-ea6c117051fa","system_id":"levelo_inurba_marseille","lat":43.28701,"lon":5.39994,"is_reserved":false,"is_disabled":false,"rental_uris":{"android":"levelo://app?vid=4dab38b8-f4f2-4c30-8eef-ea6c117051fa","ios":"levelo://app?vid=4dab38b8-f4f2-4c30-8eef-ea6c117051fa"},"vehicle_type_id":"4","last_reported":1751929835,"current_range_meters":19200,"station_id":"ce4bho92rcd13ifvqh3g","pricing_plan_id":"cebpf4jnsgd1na2vs0mg"},{"bike_id":"9e555447-bc4b-4551-8312-b095933eb62f","system_id":"levelo_inurba_marseille","lat":43.29022,"lon":5.38679,"is_reserved":false,"is_disabled":false,"rental_uris":{"android":"levelo://app?vid=9e555447-bc4b-4551-8312-b095933eb62f","ios":"levelo://app?vid=9e555447-bc4b-4551-8312-b095933eb62f"},"vehicle_type_id":"4","last_reported":1751929835,"current_range_meters":19600,"station_id":"ce4bh4p2rcd13ifvqe0g","pricing_plan_id":"cebpf4jnsgd1na2vs0mg"},{"bike_id":"534d7d82-699c-494a-a7a2-02a37e052405","system_id":"levelo_inurba_marseille","lat":43.24657,"lon":5.3816,"is_reserved":false,"is_disabled":false,"rental_uris":{"android":"levelo://app?vid=534d7d82-699c-494a-a7a2-02a37e052405","ios":"levelo://app?vid=534d7d82-699c-494a-a7a2-02a37e052405"},"vehicle_type_id":"4","last_reported":1751929835,"current_range_meters":19600,"station_id":"ce4bhih2rcd13ifvqfr0","pricing_plan_id":"cebpf4jnsgd1na2vs0mg"},{"bike_id":"92c6a9d9-2b7f-4402-84f4-471caf5ebfd6","system_id":"levelo_inurba_marseille","lat":43.24668,"lon":5.38148,"is_reserved":false,"is_disabled":false,"rental_uris":{"android":"levelo://app?vid=92c6a9d9-2b7f-4402-84f4-471caf5ebfd6","ios":"levelo://app?vid=92c6a9d9-2b7f-4402-84f4-471caf5ebfd6"},"vehicle_type_id":"4","last_reported":1751929835,"current_range_meters":19600,"station_id":"ce4bhih2rcd13ifvqfr0","pricing_plan_id":"cebpf4jnsgd1na2vs0mg"},{"bike_id":"56cb5a5d-cbee-4d6a-979e-4b924ffca4cd","system_id":"levelo_inurba_marseille","lat":43.2871,"lon":5.39983,"is_reserved":false,"is_disabled":false,"rental_uris":{"android":"levelo://app?vid=56cb5a5d-cbee-4d6a-979e-4b924ffca4cd","ios":"levelo://app?vid=56cb5a5d-cbee-4d6a-979e-4b924ffca4cd"},"vehicle_type_id":"4","last_reported":1751929835,"current_range_meters":19600,"station_id":"ce4bho92rcd13ifvqh3g","pricing_plan_id":"cebpf4jnsgd1na2vs0mg"},{"bike_id":"45b31e0b-1887-4def-b5f9-d8cd58c4e399","system_id":"levelo_inurba_marseille","lat":43.32375,"lon":5.38863,"is_reserved":false,"is_disabled":false,"rental_uris":{"android":"levelo://app?vid=45b31e0b-1887-4def-b5f9-d8cd58c4e399","ios":"levelo://app?vid=45b31e0b-1887-4def-b5f9-d8cd58c4e399"},"vehicle_type_id":"4","last_reported":1751929835,"current_range_meters":19600,"station_id":"ce4bhqp2rcd13ifvqhog","pricing_plan_id":"cebpf4jnsgd1na2vs0mg"},{"bike_id":"6f1b7768-92f9-426b-a478-8367723d6fc3","system_id":"levelo_inurba_marseille","lat":43.298738,"lon":5.389041,"is_reserved":false,"is_disabled":false,"rental_uris":{"android":"levelo://app?vid=6f1b7768-92f9-426b-a478-8367723d6fc3","ios":"levelo://app?vid=6f1b7768-92f9-426b-a478-8367723d6fc3"},"vehicle_type_id":"4","last_reported":1751929835,"current_range_meters":20000,"station_id":"","pricing_plan_id":"cebpf4jnsgd1na2vs0mg"},{"bike_id":"3af9309d-b0e0-4a4a-901c-85870d8cddc6","system_id":"levelo_inurba_marseille","lat":43.31313,"lon":5.39711,"is_reserved":false,"is_disabled":false,"rental_uris":{"android":"levelo://app?vid=3af9309d-b0e0-4a4a-901c-85870d8cddc6","ios":"levelo://app?vid=3af9309d-b0e0-4a4a-901c-85870d8cddc6"},"vehicle_type_id":"4","last_reported":1751929835,"current_range_meters":20000,"station_id":"ce4bgvp2rcd13ifvqcu0","pricing_plan_id":"cebpf4jnsgd1na2vs0mg"},{"bike_id":"81497647-9272-4cfb-8d64-919229f977b2","system_id":"levelo_inurba_marseille","lat":43.28709,"lon":5.37932,"is_reserved":false,"is_disabled":false,"rental_uris":{"android":"levelo://app?vid=81497647-9272-4cfb-8d64-919229f977b2","ios":"levelo://app?vid=81497647-9272-4cfb-8d64-919229f977b2"},"vehicle_type_id":"4","last_reported":1751929835,"current_range_meters":20000,"station_id":"ce4bh9p2rcd13ifvqec0","pricing_plan_id":"cebpf4jnsgd1na2vs0mg"},{"bike_id":"6f46f84a-b007-442d-a820-0abc1a532207","system_id":"levelo_inurba_marseille","lat":43.24647,"lon":5.38902,"is_reserved":false,"is_disabled":false,"rental_uris":{"android":"levelo://app?vid=6f46f84a-b007-442d-a820-0abc1a532207","ios":"levelo://app?vid=6f46f84a-b007-442d-a820-0abc1a532207"},"vehicle_type_id":"4","last_reported":1751929835,"current_range_meters":20000,"station_id":"ce4bhg12rcd13ifvqf60","pricing_plan_id":"cebpf4jnsgd1na2vs0mg"},{"bike_id":"6e0cb045-7a78-4a10-92d3-cbf7399a39df","system_id":"levelo_inurba_marseille","lat":43.26954,"lon":5.3864,"is_reserved":false,"is_disabled":false,"rental_uris":{"android":"levelo://app?vid=6e0cb045-7a78-4a10-92d3-cbf7399a39df","ios":"levelo://app?vid=6e0cb045-7a78-4a10-92d3-cbf7399a39df"},"vehicle_type_id":"4","last_reported":1751929835,"current_range_meters":20000,"station_id":"ce4bhh92rcd13ifvqfh0","pricing_plan_id":"cebpf4jnsgd1na2vs0mg"},{"bike_id":"b287377f-3d0b-47ac-86fe-9e0dfc1563de","system_id":"levelo_inurba_marseille","lat":43.22509,"lon":5.34764,"is_reserved":false,"is_disabled":false,"rental_uris":{"android":"levelo://app?vid=b287377f-3d0b-47ac-86fe-9e0dfc1563de","ios":"levelo://app?vid=b287377f-3d0b-47ac-86fe-9e0dfc1563de"},"vehicle_type_id":"4","last_reported":1751929835,"current_range_meters":20000,"station_id":"st_cvj5dfep6f1abm77gieg","pricing_plan_id":"cebpf4jnsgd1na2vs0mg"},{"bike_id":"c9e033e9-72ba-4cb7-88e1-1e50fbc3f796","system_id":"levelo_inurba_marseille","lat":43.30319,"lon":5.40444,"is_reserved":false,"is_disabled":false,"rental_uris":{"android":"levelo://app?vid=c9e033e9-72ba-4cb7-88e1-1e50fbc3f796","ios":"levelo://app?vid=c9e033e9-72ba-4cb7-88e1-1e50fbc3f796"},"vehicle_type_id":"4","last_reported":1751929835,"current_range_meters":20400,"station_id":"ce4bh012rcd13ifvqd10","pricing_plan_id":"cebpf4jnsgd1na2vs0mg"},{"bike_id":"f54c5ae9-101b-4a65-ba5b-6f27de8902cc","system_id":"levelo_inurba_marseille","lat":43.29626,"lon":5.40594,"is_reserved":false,"is_disabled":false,"rental_uris":{"android":"levelo://app?vid=f54c5ae9-101b-4a65-ba5b-6f27de8902cc","ios":"levelo://app?vid=f54c5ae9-101b-4a65-ba5b-6f27de8902cc"},"vehicle_type_id":"4","last_reported":1751929835,"current_range_meters":20400,"station_id":"ce4bh0h2rcd13ifvqd60","pricing_plan_id":"cebpf4jnsgd1na2vs0mg"},{"bike_id":"533874ce-3879-4efa-a214-6ba7be8bdc8c","system_id":"levelo_inurba_marseille","lat":43.24174,"lon":5.39737,"is_reserved":false,"is_disabled":false,"rental_uris":{"android":"levelo://app?vid=533874ce-3879-4efa-a214-6ba7be8bdc8c","ios":"levelo://app?vid=533874ce-3879-4efa-a214-6ba7be8bdc8c"},"vehicle_type_id":"4","last_reported":1751929835,"current_range_meters":20400,"station_id":"ce4bhn12rcd13ifvqgpg","pricing_plan_id":"cebpf4jnsgd1na2vs0mg"},{"bike_id":"e35c65f3-3f9e-44ac-9c35-d67050f82774","system_id":"levelo_inurba_marseille","lat":43.30791,"lon":5.43528,"is_reserved":false,"is_disabled":false,"rental_uris":{"android":"levelo://app?vid=e35c65f3-3f9e-44ac-9c35-d67050f82774","ios":"levelo://app?vid=e35c65f3-3f9e-44ac-9c35-d67050f82774"},"vehicle_type_id":"4","last_reported":1751929835,"current_range_meters":20400,"station_id":"ce4bhph2rcd13ifvqheg","pricing_plan_id":"cebpf4jnsgd1na2vs0mg"},{"bike_id":"f5c16f07-bc6f-4121-91a7-5ad90eec4f34","system_id":"levelo_inurba_marseille","lat":43.312103,"lon":5.373239,"is_reserved":false,"is_disabled":false,"rental_uris":{"android":"levelo://app?vid=f5c16f07-bc6f-4121-91a7-5ad90eec4f34","ios":"levelo://app?vid=f5c16f07-bc6f-4121-91a7-5ad90eec4f34"},"vehicle_type_id":"4","last_reported":1751929835,"current_range_meters":20800,"station_id":"","pricing_plan_id":"cebpf4jnsgd1na2vs0mg"},{"bike_id":"51f0e6bb-8e86-4a89-9f43-3305d7779a76","system_id":"levelo_inurba_marseille","lat":43.28868,"lon":5.39314,"is_reserved":false,"is_disabled":false,"rental_uris":{"android":"levelo://app?vid=51f0e6bb-8e86-4a89-9f43-3305d7779a76","ios":"levelo://app?vid=51f0e6bb-8e86-4a89-9f43-3305d7779a76"},"vehicle_type_id":"4","last_reported":1751929835,"current_range_meters":20800,"station_id":"ce4bh2p2rcd13ifvqdi0","pricing_plan_id":"cebpf4jnsgd1na2vs0mg"},{"bike_id":"90f03cc7-eb1d-4a3e-bb67-e1c7e1b12e49","system_id":"levelo_inurba_marseille","lat":43.29269,"lon":5.38433,"is_reserved":false,"is_disabled":false,"rental_uris":{"android":"levelo://app?vid=90f03cc7-eb1d-4a3e-bb67-e1c7e1b12e49","ios":"levelo://app?vid=90f03cc7-eb1d-4a3e-bb67-e1c7e1b12e49"},"vehicle_type_id":"4","last_reported":1751929835,"current_range_meters":20800,"station_id":"ce4bh692rcd13ifvqea0","pricing_plan_id":"cebpf4jnsgd1na2vs0mg"},{"bike_id":"5a5872c6-a97c-4e06-96d5-1828b33141df","system_id":"levelo_inurba_marseille","lat":43.3131,"lon":5.36888,"is_reserved":false,"is_disabled":false,"rental_uris":{"android":"levelo://app?vid=5a5872c6-a97c-4e06-96d5-1828b33141df","ios":"levelo://app?vid=5a5872c6-a97c-4e06-96d5-1828b33141df"},"vehicle_type_id":"4","last_reported":1751929835,"current_range_meters":21600,"station_id":"","pricing_plan_id":"cebpf4jnsgd1na2vs0mg"},{"bike_id":"98d8e672-c1d0-40aa-9ec3-9443bf675d2c","system_id":"levelo_inurba_marseille","lat":43.28502,"lon":5.38448,"is_reserved":false,"is_disabled":false,"rental_uris":{"android":"levelo://app?vid=98d8e672-c1d0-40aa-9ec3-9443bf675d2c","ios":"levelo://app?vid=98d8e672-c1d0-40aa-9ec3-9443bf675d2c"},"vehicle_type_id":"4","last_reported":1751929835,"current_range_meters":21600,"station_id":"ce4bh512rcd13ifvqe3g","pricing_plan_id":"cebpf4jnsgd1na2vs0mg"},{"bike_id":"01154f79-ac2b-4e2e-955f-5c968359e2aa","system_id":"levelo_inurba_marseille","lat":43.28153,"lon":5.42645,"is_reserved":false,"is_disabled":false,"rental_uris":{"android":"levelo://app?vid=01154f79-ac2b-4e2e-955f-5c968359e2aa","ios":"levelo://app?vid=01154f79-ac2b-4e2e-955f-5c968359e2aa"},"vehicle_type_id":"4","last_reported":1751929835,"current_range_meters":21600,"station_id":"ce4bhnh2rcd13ifvqgug","pricing_plan_id":"cebpf4jnsgd1na2vs0mg"},{"bike_id":"7dd989d3-e5e0-47ef-9262-d200e5b90731","system_id":"levelo_inurba_marseille","lat":43.30368,"lon":5.42469,"is_reserved":false,"is_disabled":false,"rental_uris":{"android":"levelo://app?vid=7dd989d3-e5e0-47ef-9262-d200e5b90731","ios":"levelo://app?vid=7dd989d3-e5e0-47ef-9262-d200e5b90731"},"vehicle_type_id":"4","last_reported":1751929835,"current_range_meters":21600,"station_id":"ce4bhoh2rcd13ifvqh6g","pricing_plan_id":"cebpf4jnsgd1na2vs0mg"},{"bike_id":"8af3bab5-67ca-4001-a1bb-3e99bc14c96c","system_id":"levelo_inurba_marseille","lat":43.22928,"lon":5.353818,"is_reserved":false,"is_disabled":false,"rental_uris":{"android":"levelo://app?vid=8af3bab5-67ca-4001-a1bb-3e99bc14c96c","ios":"levelo://app?vid=8af3bab5-67ca-4001-a1bb-3e99bc14c96c"},"vehicle_type_id":"4","last_reported":1751929835,"current_range_meters":21600,"station_id":"cpo3532slgdg3j2ikp40","pricing_plan_id":"cebpf4jnsgd1na2vs0mg"},{"bike_id":"d0f90c24-dd03-411b-9731-55305f76b7c8","system_id":"levelo_inurba_marseille","lat":43.21177,"lon":5.35095,"is_reserved":false,"is_disabled":false,"rental_uris":{"android":"levelo://app?vid=d0f90c24-dd03-411b-9731-55305f76b7c8","ios":"levelo://app?vid=d0f90c24-dd03-411b-9731-55305f76b7c8"},"vehicle_type_id":"4","last_reported":1751929835,"current_range_meters":21600,"station_id":"st_cvj6sg6p6f1abm77japg","pricing_plan_id":"cebpf4jnsgd1na2vs0mg"},{"bike_id":"e4793d5e-b4cd-4c12-b9d4-446cb97752b9","system_id":"levelo_inurba_marseille","lat":43.292745,"lon":5.39054,"is_reserved":false,"is_disabled":false,"rental_uris":{"android":"levelo://app?vid=e4793d5e-b4cd-4c12-b9d4-446cb97752b9","ios":"levelo://app?vid=e4793d5e-b4cd-4c12-b9d4-446cb97752b9"},"vehicle_type_id":"4","last_reported":1751929835,"current_range_meters":22000,"station_id":"","pricing_plan_id":"cebpf4jnsgd1na2vs0mg"},{"bike_id":"06feb6af-5eb5-49ba-8d41-8d2f4dbe1ee1","system_id":"levelo_inurba_marseille","lat":43.2994,"lon":5.36562,"is_reserved":false,"is_disabled":false,"rental_uris":{"android":"levelo://app?vid=06feb6af-5eb5-49ba-8d41-8d2f4dbe1ee1","ios":"levelo://app?vid=06feb6af-5eb5-49ba-8d41-8d2f4dbe1ee1"},"vehicle_type_id":"4","last_reported":1751929835,"current_range_meters":22000,"station_id":"","pricing_plan_id":"cebpf4jnsgd1na2vs0mg"},{"bike_id":"c2b72fe0-bae6-4c7b-ad48-9e771b203dc8","system_id":"levelo_inurba_marseille","lat":43.31355,"lon":5.38486,"is_reserved":false,"is_disabled":false,"rental_uris":{"android":"levelo://app?vid=c2b72fe0-bae6-4c7b-ad48-9e771b203dc8","ios":"levelo://app?vid=c2b72fe0-bae6-4c7b-ad48-9e771b203dc8"},"vehicle_type_id":"4","last_reported":1751929835,"current_range_meters":22000,"station_id":"ce4bgt92rcd13ifvqcf0","pricing_plan_id":"cebpf4jnsgd1na2vs0mg"},{"bike_id":"38acd522-4cb1-4be8-9617-8c3352b9ea2b","system_id":"levelo_inurba_marseille","lat":43.30324,"lon":5.40431,"is_reserved":false,"is_disabled":false,"rental_uris":{"android":"levelo://app?vid=38acd522-4cb1-4be8-9617-8c3352b9ea2b","ios":"levelo://app?vid=38acd522-4cb1-4be8-9617-8c3352b9ea2b"},"vehicle_type_id":"4","last_reported":1751929835,"current_range_meters":22000,"station_id":"ce4bh012rcd13ifvqd10","pricing_plan_id":"cebpf4jnsgd1na2vs0mg"},{"bike_id":"e08d045d-0d4b-4fc7-8045-6dac0459fd0a","system_id":"levelo_inurba_marseille","lat":43.28505,"lon":5.38542,"is_reserved":false,"is_disabled":false,"rental_uris":{"android":"levelo://app?vid=e08d045d-0d4b-4fc7-8045-6dac0459fd0a","ios":"levelo://app?vid=e08d045d-0d4b-4fc7-8045-6dac0459fd0a"},"vehicle_type_id":"4","last_reported":1751929835,"current_range_meters":22000,"station_id":"ce4bh8p2rcd13ifvqeb0","pricing_plan_id":"cebpf4jnsgd1na2vs0mg"},{"bike_id":"98da9a34-abfb-415c-aa21-986813383584","system_id":"levelo_inurba_marseille","lat":43.28619,"lon":5.35103,"is_reserved":false,"is_disabled":false,"rental_uris":{"android":"levelo://app?vid=98da9a34-abfb-415c-aa21-986813383584","ios":"levelo://app?vid=98da9a34-abfb-415c-aa21-986813383584"},"vehicle_type_id":"4","last_reported":1751929835,"current_range_meters":22000,"station_id":"ce4bhch2rcd13ifvqeug","pricing_plan_id":"cebpf4jnsgd1na2vs0mg"},{"bike_id":"80cd2927-2957-4eb0-bad9-b0690ceb8e18","system_id":"levelo_inurba_marseille","lat":43.2572,"lon":5.41116,"is_reserved":false,"is_disabled":false,"rental_uris":{"android":"levelo://app?vid=80cd2927-2957-4eb0-bad9-b0690ceb8e18","ios":"levelo://app?vid=80cd2927-2957-4eb0-bad9-b0690ceb8e18"},"vehicle_type_id":"4","last_reported":1751929835,"current_range_meters":22000,"station_id":"ce4bhkp2rcd13ifvqgd0","pricing_plan_id":"cebpf4jnsgd1na2vs0mg"},{"bike_id":"892f4e24-e7ab-483b-8f73-614cca93e602","system_id":"levelo_inurba_marseille","lat":43.284757,"lon":5.392142,"is_reserved":false,"is_disabled":false,"rental_uris":{"android":"levelo://app?vid=892f4e24-e7ab-483b-8f73-614cca93e602","ios":"levelo://app?vid=892f4e24-e7ab-483b-8f73-614cca93e602"},"vehicle_type_id":"4","last_reported":1751929835,"current_range_meters":22000,"station_id":"ce4bhoh2rcd13ifvqh5g","pricing_plan_id":"cebpf4jnsgd1na2vs0mg"},{"bike_id":"3f6c4d8d-9ae9-4ac1-96b4-e2b824796435","system_id":"levelo_inurba_marseille","lat":43.268,"lon":5.40251,"is_reserved":false,"is_disabled":false,"rental_uris":{"android":"levelo://app?vid=3f6c4d8d-9ae9-4ac1-96b4-e2b824796435","ios":"levelo://app?vid=3f6c4d8d-9ae9-4ac1-96b4-e2b824796435"},"vehicle_type_id":"4","last_reported":1751929835,"current_range_meters":22000,"station_id":"ce501612rcd8frsf0b60","pricing_plan_id":"cebpf4jnsgd1na2vs0mg"},{"bike_id":"56eb3fdf-ea87-4fcf-85df-3680fa66363e","system_id":"levelo_inurba_marseille","lat":43.22509,"lon":5.34758,"is_reserved":false,"is_disabled":false,"rental_uris":{"android":"levelo://app?vid=56eb3fdf-ea87-4fcf-85df-3680fa66363e","ios":"levelo://app?vid=56eb3fdf-ea87-4fcf-85df-3680fa66363e"},"vehicle_type_id":"4","last_reported":1751929835,"current_range_meters":22000,"station_id":"st_cvj5dfep6f1abm77gieg","pricing_plan_id":"cebpf4jnsgd1na2vs0mg"},{"bike_id":"1e91cee9-7d4a-458c-9805-68ef6c30eb40","system_id":"levelo_inurba_marseille","lat":43.21773,"lon":5.34624,"is_reserved":false,"is_disabled":false,"rental_uris":{"android":"levelo://app?vid=1e91cee9-7d4a-458c-9805-68ef6c30eb40","ios":"levelo://app?vid=1e91cee9-7d4a-458c-9805-68ef6c30eb40"},"vehicle_type_id":"4","last_reported":1751929835,"current_range_meters":22000,"station_id":"st_cvj6r9ubvosntc0bgbag","pricing_plan_id":"cebpf4jnsgd1na2vs0mg"},{"bike_id":"7f0c405c-cebd-402f-b8ba-98e46b99f50b","system_id":"levelo_inurba_marseille","lat":43.21182,"lon":5.35085,"is_reserved":false,"is_disabled":false,"rental_uris":{"android":"levelo://app?vid=7f0c405c-cebd-402f-b8ba-98e46b99f50b","ios":"levelo://app?vid=7f0c405c-cebd-402f-b8ba-98e46b99f50b"},"vehicle_type_id":"4","last_reported":1751929835,"current_range_meters":22000,"station_id":"st_cvj6sg6p6f1abm77japg","pricing_plan_id":"cebpf4jnsgd1na2vs0mg"},{"bike_id":"b2caa530-bb19-4cc6-a6bd-61e3e1d7432e","system_id":"levelo_inurba_marseille","lat":43.33763,"lon":5.37461,"is_reserved":false,"is_disabled":false,"rental_uris":{"android":"levelo://app?vid=b2caa530-bb19-4cc6-a6bd-61e3e1d7432e","ios":"levelo://app?vid=b2caa530-bb19-4cc6-a6bd-61e3e1d7432e"},"vehicle_type_id":"4","last_reported":1751929835,"current_range_meters":22400,"station_id":"","pricing_plan_id":"cebpf4jnsgd1na2vs0mg"},{"bike_id":"b757ffbb-2b71-4330-9f60-5f8a9d46d16e","system_id":"levelo_inurba_marseille","lat":43.296565,"lon":5.371375,"is_reserved":false,"is_disabled":false,"rental_uris":{"android":"levelo://app?vid=b757ffbb-2b71-4330-9f60-5f8a9d46d16e","ios":"levelo://app?vid=b757ffbb-2b71-4330-9f60-5f8a9d46d16e"},"vehicle_type_id":"4","last_reported":1751929835,"current_range_meters":22400,"station_id":"ce4bgnh2rcd13ifvqc0g","pricing_plan_id":"cebpf4jnsgd1na2vs0mg"},{"bike_id":"0aae49d3-6dca-440c-b99a-4dd96e551c3b","system_id":"levelo_inurba_marseille","lat":43.30084,"lon":5.3907,"is_reserved":false,"is_disabled":false,"rental_uris":{"android":"levelo://app?vid=0aae49d3-6dca-440c-b99a-4dd96e551c3b","ios":"levelo://app?vid=0aae49d3-6dca-440c-b99a-4dd96e551c3b"},"vehicle_type_id":"4","last_reported":1751929835,"current_range_meters":22400,"station_id":"ce4bh192rcd13ifvqdb0","pricing_plan_id":"cebpf4jnsgd1na2vs0mg"},{"bike_id":"1d6241b6-88bf-405a-83a9-613804a1ea0b","system_id":"levelo_inurba_marseille","lat":43.24176,"lon":5.39734,"is_reserved":false,"is_disabled":false,"rental_uris":{"android":"levelo://app?vid=1d6241b6-88bf-405a-83a9-613804a1ea0b","ios":"levelo://app?vid=1d6241b6-88bf-405a-83a9-613804a1ea0b"},"vehicle_type_id":"4","last_reported":1751929835,"current_range_meters":22400,"station_id":"ce4bhn12rcd13ifvqgpg","pricing_plan_id":"cebpf4jnsgd1na2vs0mg"},{"bike_id":"fb4122cd-0277-4297-8cd5-1b777b465e3e","system_id":"levelo_inurba_marseille","lat":43.24063,"lon":5.37782,"is_reserved":false,"is_disabled":false,"rental_uris":{"android":"levelo://app?vid=fb4122cd-0277-4297-8cd5-1b777b465e3e","ios":"levelo://app?vid=fb4122cd-0277-4297-8cd5-1b777b465e3e"},"vehicle_type_id":"4","last_reported":1751929835,"current_range_meters":22400,"station_id":"ce4bhnp2rcd13ifvqgvg","pricing_plan_id":"cebpf4jnsgd1na2vs0mg"},{"bike_id":"92a30e7d-05e9-41c5-a218-74e42a724a39","system_id":"levelo_inurba_marseille","lat":43.2796,"lon":5.41692,"is_reserved":false,"is_disabled":false,"rental_uris":{"android":"levelo://app?vid=92a30e7d-05e9-41c5-a218-74e42a724a39","ios":"levelo://app?vid=92a30e7d-05e9-41c5-a218-74e42a724a39"},"vehicle_type_id":"4","last_reported":1751929835,"current_range_meters":22400,"station_id":"ce4bho12rcd13ifvqh1g","pricing_plan_id":"cebpf4jnsgd1na2vs0mg"},{"bike_id":"b6d9b946-f66a-4c6f-96e5-5d23e176360c","system_id":"levelo_inurba_marseille","lat":43.31315,"lon":5.38172,"is_reserved":false,"is_disabled":false,"rental_uris":{"android":"levelo://app?vid=b6d9b946-f66a-4c6f-96e5-5d23e176360c","ios":"levelo://app?vid=b6d9b946-f66a-4c6f-96e5-5d23e176360c"},"vehicle_type_id":"4","last_reported":1751929835,"current_range_meters":22800,"station_id":"","pricing_plan_id":"cebpf4jnsgd1na2vs0mg"},{"bike_id":"4d204027-e58f-4770-9c2e-43b395582ed1","system_id":"levelo_inurba_marseille","lat":43.30902,"lon":5.40202,"is_reserved":false,"is_disabled":false,"rental_uris":{"android":"levelo://app?vid=4d204027-e58f-4770-9c2e-43b395582ed1","ios":"levelo://app?vid=4d204027-e58f-4770-9c2e-43b395582ed1"},"vehicle_type_id":"4","last_reported":1751929835,"current_range_meters":22800,"station_id":"ce4bgvp2rcd13ifvqct0","pricing_plan_id":"cebpf4jnsgd1na2vs0mg"},{"bike_id":"62d11b4a-ed6c-41d5-8c97-80a58f1f12fc","system_id":"levelo_inurba_marseille","lat":43.312693,"lon":5.40174,"is_reserved":false,"is_disabled":false,"rental_uris":{"android":"levelo://app?vid=62d11b4a-ed6c-41d5-8c97-80a58f1f12fc","ios":"levelo://app?vid=62d11b4a-ed6c-41d5-8c97-80a58f1f12fc"},"vehicle_type_id":"4","last_reported":1751929835,"current_range_meters":22800,"station_id":"ce4bh092rcd13ifvqd30","pricing_plan_id":"cebpf4jnsgd1na2vs0mg"},{"bike_id":"f5815830-a3bf-4b38-9cb1-520cd678eb71","system_id":"levelo_inurba_marseille","lat":43.301,"lon":5.39082,"is_reserved":false,"is_disabled":false,"rental_uris":{"android":"levelo://app?vid=f5815830-a3bf-4b38-9cb1-520cd678eb71","ios":"levelo://app?vid=f5815830-a3bf-4b38-9cb1-520cd678eb71"},"vehicle_type_id":"4","last_reported":1751929835,"current_range_meters":22800,"station_id":"ce4bh192rcd13ifvqdb0","pricing_plan_id":"cebpf4jnsgd1na2vs0mg"},{"bike_id":"0f2bafcc-4ede-451a-99c4-22d4fbfdec2c","system_id":"levelo_inurba_marseille","lat":43.29512,"lon":5.3903,"is_reserved":false,"is_disabled":false,"rental_uris":{"android":"levelo://app?vid=0f2bafcc-4ede-451a-99c4-22d4fbfdec2c","ios":"levelo://app?vid=0f2bafcc-4ede-451a-99c4-22d4fbfdec2c"},"vehicle_type_id":"4","last_reported":1751929835,"current_range_meters":22800,"station_id":"ce4bh3p2rcd13ifvqdp0","pricing_plan_id":"cebpf4jnsgd1na2vs0mg"},{"bike_id":"d44be792-e4c0-45b1-96b1-d9dfde42e217","system_id":"levelo_inurba_marseille","lat":43.28679,"lon":5.37406,"is_reserved":false,"is_disabled":false,"rental_uris":{"android":"levelo://app?vid=d44be792-e4c0-45b1-96b1-d9dfde42e217","ios":"levelo://app?vid=d44be792-e4c0-45b1-96b1-d9dfde42e217"},"vehicle_type_id":"4","last_reported":1751929835,"current_range_meters":22800,"station_id":"ce4bh3p2rcd13ifvqdq0","pricing_plan_id":"cebpf4jnsgd1na2vs0mg"},{"bike_id":"83937736-998d-454f-9f5c-57adf6fd3024","system_id":"levelo_inurba_marseille","lat":43.24989,"lon":5.38952,"is_reserved":false,"is_disabled":false,"rental_uris":{"android":"levelo://app?vid=83937736-998d-454f-9f5c-57adf6fd3024","ios":"levelo://app?vid=83937736-998d-454f-9f5c-57adf6fd3024"},"vehicle_type_id":"4","last_reported":1751929835,"current_range_meters":22800,"station_id":"ce4bhgp2rcd13ifvqfd0","pricing_plan_id":"cebpf4jnsgd1na2vs0mg"},{"bike_id":"590180cb-e30a-4552-8d2f-2ca181b64d68","system_id":"levelo_inurba_marseille","lat":43.32492,"lon":5.36566,"is_reserved":false,"is_disabled":false,"rental_uris":{"android":"levelo://app?vid=590180cb-e30a-4552-8d2f-2ca181b64d68","ios":"levelo://app?vid=590180cb-e30a-4552-8d2f-2ca181b64d68"},"vehicle_type_id":"4","last_reported":1751929835,"current_range_meters":22800,"station_id":"ce4bhs12rcd13ifvqhvg","pricing_plan_id":"cebpf4jnsgd1na2vs0mg"},{"bike_id":"3e5ae229-a7f4-4369-b174-15a8529b0b50","system_id":"levelo_inurba_marseille","lat":43.28686,"lon":5.3831,"is_reserved":false,"is_disabled":false,"rental_uris":{"android":"levelo://app?vid=3e5ae229-a7f4-4369-b174-15a8529b0b50","ios":"levelo://app?vid=3e5ae229-a7f4-4369-b174-15a8529b0b50"},"vehicle_type_id":"4","last_reported":1751929835,"current_range_meters":23200,"station_id":"","pricing_plan_id":"cebpf4jnsgd1na2vs0mg"},{"bike_id":"82831a06-c670-48f5-aed0-740cfceb51ca","system_id":"levelo_inurba_marseille","lat":43.29803,"lon":5.37278,"is_reserved":false,"is_disabled":false,"rental_uris":{"android":"levelo://app?vid=82831a06-c670-48f5-aed0-740cfceb51ca","ios":"levelo://app?vid=82831a06-c670-48f5-aed0-740cfceb51ca"},"vehicle_type_id":"4","last_reported":1751929835,"current_range_meters":23200,"station_id":"","pricing_plan_id":"cebpf4jnsgd1na2vs0mg"},{"bike_id":"8801b2de-bac6-4170-b680-df309c219342","system_id":"levelo_inurba_marseille","lat":43.30254,"lon":5.40076,"is_reserved":false,"is_disabled":false,"rental_uris":{"android":"levelo://app?vid=8801b2de-bac6-4170-b680-df309c219342","ios":"levelo://app?vid=8801b2de-bac6-4170-b680-df309c219342"},"vehicle_type_id":"4","last_reported":1751929835,"current_range_meters":23200,"station_id":"ce4bgvh2rcd13ifvqcs0","pricing_plan_id":"cebpf4jnsgd1na2vs0mg"},{"bike_id":"1f159776-c6ab-4ee5-9cd8-b2185ead58eb","system_id":"levelo_inurba_marseille","lat":43.30592,"lon":5.393666,"is_reserved":false,"is_disabled":false,"rental_uris":{"android":"levelo://app?vid=1f159776-c6ab-4ee5-9cd8-b2185ead58eb","ios":"levelo://app?vid=1f159776-c6ab-4ee5-9cd8-b2185ead58eb"},"vehicle_type_id":"4","last_reported":1751929835,"current_range_meters":23200,"station_id":"ce4bh0p2rcd13ifvqd80","pricing_plan_id":"cebpf4jnsgd1na2vs0mg"},{"bike_id":"242fca3e-091f-40b7-babc-8c91326cbcfb","system_id":"levelo_inurba_marseille","lat":43.30087,"lon":5.39074,"is_reserved":false,"is_disabled":false,"rental_uris":{"android":"levelo://app?vid=242fca3e-091f-40b7-babc-8c91326cbcfb","ios":"levelo://app?vid=242fca3e-091f-40b7-babc-8c91326cbcfb"},"vehicle_type_id":"4","last_reported":1751929835,"current_range_meters":23200,"station_id":"ce4bh192rcd13ifvqdb0","pricing_plan_id":"cebpf4jnsgd1na2vs0mg"},{"bike_id":"bad5ee1d-6d53-4d75-b56d-3208c37ebc75","system_id":"levelo_inurba_marseille","lat":43.29567,"lon":5.39976,"is_reserved":false,"is_disabled":false,"rental_uris":{"android":"levelo://app?vid=bad5ee1d-6d53-4d75-b56d-3208c37ebc75","ios":"levelo://app?vid=bad5ee1d-6d53-4d75-b56d-3208c37ebc75"},"vehicle_type_id":"4","last_reported":1751929835,"current_range_meters":23200,"station_id":"ce4bh312rcd13ifvqdj0","pricing_plan_id":"cebpf4jnsgd1na2vs0mg"},{"bike_id":"25e432ef-f7cf-404c-9d8d-0341cad872f6","system_id":"levelo_inurba_marseille","lat":43.28699,"lon":5.374,"is_reserved":false,"is_disabled":false,"rental_uris":{"android":"levelo://app?vid=25e432ef-f7cf-404c-9d8d-0341cad872f6","ios":"levelo://app?vid=25e432ef-f7cf-404c-9d8d-0341cad872f6"},"vehicle_type_id":"4","last_reported":1751929835,"current_range_meters":23200,"station_id":"ce4bh3p2rcd13ifvqdq0","pricing_plan_id":"cebpf4jnsgd1na2vs0mg"},{"bike_id":"b4a97a51-0113-4ea9-bc38-b7f9c41c48f3","system_id":"levelo_inurba_marseille","lat":43.28659,"lon":5.36386,"is_reserved":false,"is_disabled":false,"rental_uris":{"android":"levelo://app?vid=b4a97a51-0113-4ea9-bc38-b7f9c41c48f3","ios":"levelo://app?vid=b4a97a51-0113-4ea9-bc38-b7f9c41c48f3"},"vehicle_type_id":"4","last_reported":1751929835,"current_range_meters":23200,"station_id":"ce4bhah2rcd13ifvqej0","pricing_plan_id":"cebpf4jnsgd1na2vs0mg"},{"bike_id":"cfadcf42-1dd0-4d71-9c6f-9bfc68f545ae","system_id":"levelo_inurba_marseille","lat":43.25092,"lon":5.40366,"is_reserved":false,"is_disabled":false,"rental_uris":{"android":"levelo://app?vid=cfadcf42-1dd0-4d71-9c6f-9bfc68f545ae","ios":"levelo://app?vid=cfadcf42-1dd0-4d71-9c6f-9bfc68f545ae"},"vehicle_type_id":"4","last_reported":1751929835,"current_range_meters":23200,"station_id":"ce4bhlh2rcd13ifvqgig","pricing_plan_id":"cebpf4jnsgd1na2vs0mg"},{"bike_id":"56c9bd01-00d3-420a-9935-0c6c3a7869e3","system_id":"levelo_inurba_marseille","lat":43.24173,"lon":5.39752,"is_reserved":false,"is_disabled":false,"rental_uris":{"android":"levelo://app?vid=56c9bd01-00d3-420a-9935-0c6c3a7869e3","ios":"levelo://app?vid=56c9bd01-00d3-420a-9935-0c6c3a7869e3"},"vehicle_type_id":"4","last_reported":1751929835,"current_range_meters":23200,"station_id":"ce4bhn12rcd13ifvqgpg","pricing_plan_id":"cebpf4jnsgd1na2vs0mg"},{"bike_id":"e93005ba-91fd-4607-b7a8-02486945f3e6","system_id":"levelo_inurba_marseille","lat":43.28727,"lon":5.39958,"is_reserved":false,"is_disabled":false,"rental_uris":{"android":"levelo://app?vid=e93005ba-91fd-4607-b7a8-02486945f3e6","ios":"levelo://app?vid=e93005ba-91fd-4607-b7a8-02486945f3e6"},"vehicle_type_id":"4","last_reported":1751929835,"current_range_meters":23200,"station_id":"ce4bho92rcd13ifvqh3g","pricing_plan_id":"cebpf4jnsgd1na2vs0mg"},{"bike_id":"697d5fc4-b988-4a4e-8323-c1ce5ed61a61","system_id":"levelo_inurba_marseille","lat":43.21185,"lon":5.35101,"is_reserved":false,"is_disabled":false,"rental_uris":{"android":"levelo://app?vid=697d5fc4-b988-4a4e-8323-c1ce5ed61a61","ios":"levelo://app?vid=697d5fc4-b988-4a4e-8323-c1ce5ed61a61"},"vehicle_type_id":"4","last_reported":1751929835,"current_range_meters":23200,"station_id":"st_cvj6sg6p6f1abm77japg","pricing_plan_id":"cebpf4jnsgd1na2vs0mg"},{"bike_id":"320f2a33-deaa-4e0a-a3d5-c39ce8ad680a","system_id":"levelo_inurba_marseille","lat":43.315578,"lon":5.374559,"is_reserved":false,"is_disabled":false,"rental_uris":{"android":"levelo://app?vid=320f2a33-deaa-4e0a-a3d5-c39ce8ad680a","ios":"levelo://app?vid=320f2a33-deaa-4e0a-a3d5-c39ce8ad680a"},"vehicle_type_id":"4","last_reported":1751929835,"current_range_meters":24000,"station_id":"","pricing_plan_id":"cebpf4jnsgd1na2vs0mg"},{"bike_id":"334a02ad-0db7-42f6-9e6d-451944f29af3","system_id":"levelo_inurba_marseille","lat":43.28709,"lon":5.37939,"is_reserved":false,"is_disabled":false,"rental_uris":{"android":"levelo://app?vid=334a02ad-0db7-42f6-9e6d-451944f29af3","ios":"levelo://app?vid=334a02ad-0db7-42f6-9e6d-451944f29af3"},"vehicle_type_id":"4","last_reported":1751929835,"current_range_meters":24000,"station_id":"ce4bh9p2rcd13ifvqec0","pricing_plan_id":"cebpf4jnsgd1na2vs0mg"},{"bike_id":"f11505bd-9ce4-47b5-8c06-b8df1eb6fcc8","system_id":"levelo_inurba_marseille","lat":43.28093,"lon":5.37835,"is_reserved":false,"is_disabled":false,"rental_uris":{"android":"levelo://app?vid=f11505bd-9ce4-47b5-8c06-b8df1eb6fcc8","ios":"levelo://app?vid=f11505bd-9ce4-47b5-8c06-b8df1eb6fcc8"},"vehicle_type_id":"4","last_reported":1751929835,"current_range_meters":24000,"station_id":"ce4bha12rcd13ifvqee0","pricing_plan_id":"cebpf4jnsgd1na2vs0mg"},{"bike_id":"d947deeb-ac61-498e-9688-1c66dfbeb541","system_id":"levelo_inurba_marseille","lat":43.23194,"lon":5.39978,"is_reserved":false,"is_disabled":false,"rental_uris":{"android":"levelo://app?vid=d947deeb-ac61-498e-9688-1c66dfbeb541","ios":"levelo://app?vid=d947deeb-ac61-498e-9688-1c66dfbeb541"},"vehicle_type_id":"4","last_reported":1751929835,"current_range_meters":24000,"station_id":"ce4bhn12rcd13ifvqgqg","pricing_plan_id":"cebpf4jnsgd1na2vs0mg"},{"bike_id":"266df3b8-00d5-4034-a2ae-976152e70090","system_id":"levelo_inurba_marseille","lat":43.24068,"lon":5.37765,"is_reserved":false,"is_disabled":false,"rental_uris":{"android":"levelo://app?vid=266df3b8-00d5-4034-a2ae-976152e70090","ios":"levelo://app?vid=266df3b8-00d5-4034-a2ae-976152e70090"},"vehicle_type_id":"4","last_reported":1751929835,"current_range_meters":24000,"station_id":"ce4bhnp2rcd13ifvqgvg","pricing_plan_id":"cebpf4jnsgd1na2vs0mg"},{"bike_id":"19571a17-92a4-412e-af1a-b8f7aaf31fab","system_id":"levelo_inurba_marseille","lat":43.31996,"lon":5.3816,"is_reserved":false,"is_disabled":false,"rental_uris":{"android":"levelo://app?vid=19571a17-92a4-412e-af1a-b8f7aaf31fab","ios":"levelo://app?vid=19571a17-92a4-412e-af1a-b8f7aaf31fab"},"vehicle_type_id":"4","last_reported":1751929835,"current_range_meters":24000,"station_id":"ce4bhr12rcd13ifvqhpg","pricing_plan_id":"cebpf4jnsgd1na2vs0mg"},{"bike_id":"9dba086c-d439-40c2-a2ea-92d5c27553cf","system_id":"levelo_inurba_marseille","lat":43.31994,"lon":5.38164,"is_reserved":false,"is_disabled":false,"rental_uris":{"android":"levelo://app?vid=9dba086c-d439-40c2-a2ea-92d5c27553cf","ios":"levelo://app?vid=9dba086c-d439-40c2-a2ea-92d5c27553cf"},"vehicle_type_id":"4","last_reported":1751929835,"current_range_meters":24000,"station_id":"ce4bhr12rcd13ifvqhpg","pricing_plan_id":"cebpf4jnsgd1na2vs0mg"},{"bike_id":"b28aa0a0-791c-4a08-9a16-c7bf6ea0ed5a","system_id":"levelo_inurba_marseille","lat":43.22503,"lon":5.34789,"is_reserved":false,"is_disabled":false,"rental_uris":{"android":"levelo://app?vid=b28aa0a0-791c-4a08-9a16-c7bf6ea0ed5a","ios":"levelo://app?vid=b28aa0a0-791c-4a08-9a16-c7bf6ea0ed5a"},"vehicle_type_id":"4","last_reported":1751929835,"current_range_meters":24000,"station_id":"st_cvj5dfep6f1abm77gieg","pricing_plan_id":"cebpf4jnsgd1na2vs0mg"},{"bike_id":"999f2a33-af15-4ca0-853a-d2550f2d6574","system_id":"levelo_inurba_marseille","lat":43.23463,"lon":5.35904,"is_reserved":false,"is_disabled":false,"rental_uris":{"android":"levelo://app?vid=999f2a33-af15-4ca0-853a-d2550f2d6574","ios":"levelo://app?vid=999f2a33-af15-4ca0-853a-d2550f2d6574"},"vehicle_type_id":"4","last_reported":1751929835,"current_range_meters":24400,"station_id":"","pricing_plan_id":"cebpf4jnsgd1na2vs0mg"},{"bike_id":"fd2095ad-cce6-410f-b9a7-c1db2c6b3d52","system_id":"levelo_inurba_marseille","lat":43.27632,"lon":5.36528,"is_reserved":false,"is_disabled":false,"rental_uris":{"android":"levelo://app?vid=fd2095ad-cce6-410f-b9a7-c1db2c6b3d52","ios":"levelo://app?vid=fd2095ad-cce6-410f-b9a7-c1db2c6b3d52"},"vehicle_type_id":"4","last_reported":1751929835,"current_range_meters":24400,"station_id":"","pricing_plan_id":"cebpf4jnsgd1na2vs0mg"},{"bike_id":"24e6a998-c0ce-4663-a8f0-26705af34ead","system_id":"levelo_inurba_marseille","lat":43.23125,"lon":5.36336,"is_reserved":false,"is_disabled":false,"rental_uris":{"android":"levelo://app?vid=24e6a998-c0ce-4663-a8f0-26705af34ead","ios":"levelo://app?vid=24e6a998-c0ce-4663-a8f0-26705af34ead"},"vehicle_type_id":"4","last_reported":1751929835,"current_range_meters":24400,"station_id":"","pricing_plan_id":"cebpf4jnsgd1na2vs0mg"},{"bike_id":"42394d1c-15d6-478d-b83f-bf2d6f548878","system_id":"levelo_inurba_marseille","lat":43.276096,"lon":5.360942,"is_reserved":false,"is_disabled":false,"rental_uris":{"android":"levelo://app?vid=42394d1c-15d6-478d-b83f-bf2d6f548878","ios":"levelo://app?vid=42394d1c-15d6-478d-b83f-bf2d6f548878"},"vehicle_type_id":"4","last_reported":1751929835,"current_range_meters":24400,"station_id":"ce4bgj92rcd13ifvqbe0","pricing_plan_id":"cebpf4jnsgd1na2vs0mg"},{"bike_id":"dca0a387-a60e-4174-ad42-08b74ffab9e4","system_id":"levelo_inurba_marseille","lat":43.309361,"lon":5.401602,"is_reserved":false,"is_disabled":false,"rental_uris":{"android":"levelo://app?vid=dca0a387-a60e-4174-ad42-08b74ffab9e4","ios":"levelo://app?vid=dca0a387-a60e-4174-ad42-08b74ffab9e4"},"vehicle_type_id":"4","last_reported":1751929835,"current_range_meters":24400,"station_id":"ce4bgvp2rcd13ifvqct0","pricing_plan_id":"cebpf4jnsgd1na2vs0mg"},{"bike_id":"7da960ef-f775-4474-8386-c98ef0d94de9","system_id":"levelo_inurba_marseille","lat":43.30933,"lon":5.40152,"is_reserved":false,"is_disabled":false,"rental_uris":{"android":"levelo://app?vid=7da960ef-f775-4474-8386-c98ef0d94de9","ios":"levelo://app?vid=7da960ef-f775-4474-8386-c98ef0d94de9"},"vehicle_type_id":"4","last_reported":1751929835,"current_range_meters":24400,"station_id":"ce4bgvp2rcd13ifvqct0","pricing_plan_id":"cebpf4jnsgd1na2vs0mg"},{"bike_id":"6c343f9b-ec3d-4c6e-8768-1ab59098ed29","system_id":"levelo_inurba_marseille","lat":43.3022,"lon":5.39474,"is_reserved":false,"is_disabled":false,"rental_uris":{"android":"levelo://app?vid=6c343f9b-ec3d-4c6e-8768-1ab59098ed29","ios":"levelo://app?vid=6c343f9b-ec3d-4c6e-8768-1ab59098ed29"},"vehicle_type_id":"4","last_reported":1751929835,"current_range_meters":24400,"station_id":"ce4bh0p2rcd13ifvqd70","pricing_plan_id":"cebpf4jnsgd1na2vs0mg"},{"bike_id":"2cd3e69e-99fb-4338-9c91-b7bc698ec0be","system_id":"levelo_inurba_marseille","lat":43.2925,"lon":5.40906,"is_reserved":false,"is_disabled":false,"rental_uris":{"android":"levelo://app?vid=2cd3e69e-99fb-4338-9c91-b7bc698ec0be","ios":"levelo://app?vid=2cd3e69e-99fb-4338-9c91-b7bc698ec0be"},"vehicle_type_id":"4","last_reported":1751929835,"current_range_meters":24400,"station_id":"ce4bh192rcd13ifvqdc0","pricing_plan_id":"cebpf4jnsgd1na2vs0mg"},{"bike_id":"04be41ab-3600-4ce7-991b-310dc8bf48de","system_id":"levelo_inurba_marseille","lat":43.28672,"lon":5.37412,"is_reserved":false,"is_disabled":false,"rental_uris":{"android":"levelo://app?vid=04be41ab-3600-4ce7-991b-310dc8bf48de","ios":"levelo://app?vid=04be41ab-3600-4ce7-991b-310dc8bf48de"},"vehicle_type_id":"4","last_reported":1751929835,"current_range_meters":24400,"station_id":"ce4bh3p2rcd13ifvqdq0","pricing_plan_id":"cebpf4jnsgd1na2vs0mg"},{"bike_id":"38b37532-f4c9-43c1-a8fb-9e99f29744c0","system_id":"levelo_inurba_marseille","lat":43.27907,"lon":5.380056,"is_reserved":false,"is_disabled":false,"rental_uris":{"android":"levelo://app?vid=38b37532-f4c9-43c1-a8fb-9e99f29744c0","ios":"levelo://app?vid=38b37532-f4c9-43c1-a8fb-9e99f29744c0"},"vehicle_type_id":"4","last_reported":1751929835,"current_range_meters":24400,"station_id":"ce4bhf92rcd13ifvqf50","pricing_plan_id":"cebpf4jnsgd1na2vs0mg"},{"bike_id":"0a11731c-2527-4290-9921-5d219318a9ee","system_id":"levelo_inurba_marseille","lat":43.28711,"lon":5.39969,"is_reserved":false,"is_disabled":false,"rental_uris":{"android":"levelo://app?vid=0a11731c-2527-4290-9921-5d219318a9ee","ios":"levelo://app?vid=0a11731c-2527-4290-9921-5d219318a9ee"},"vehicle_type_id":"4","last_reported":1751929835,"current_range_meters":24400,"station_id":"ce4bho92rcd13ifvqh3g","pricing_plan_id":"cebpf4jnsgd1na2vs0mg"},{"bike_id":"779e1734-651e-4c56-840c-6d2319b7cadb","system_id":"levelo_inurba_marseille","lat":43.32365,"lon":5.36763,"is_reserved":false,"is_disabled":false,"rental_uris":{"android":"levelo://app?vid=779e1734-651e-4c56-840c-6d2319b7cadb","ios":"levelo://app?vid=779e1734-651e-4c56-840c-6d2319b7cadb"},"vehicle_type_id":"4","last_reported":1751929835,"current_range_meters":24400,"station_id":"ce4bhsh2rcd13ifvqi2g","pricing_plan_id":"cebpf4jnsgd1na2vs0mg"},{"bike_id":"efe3ca83-178b-4ee1-aaef-f0644ff1a0e7","system_id":"levelo_inurba_marseille","lat":43.30492,"lon":5.36671,"is_reserved":false,"is_disabled":false,"rental_uris":{"android":"levelo://app?vid=efe3ca83-178b-4ee1-aaef-f0644ff1a0e7","ios":"levelo://app?vid=efe3ca83-178b-4ee1-aaef-f0644ff1a0e7"},"vehicle_type_id":"4","last_reported":1751929835,"current_range_meters":24800,"station_id":"","pricing_plan_id":"cebpf4jnsgd1na2vs0mg"},{"bike_id":"b0b14fd8-78fe-4c71-8173-5876ab3071ba","system_id":"levelo_inurba_marseille","lat":43.26774,"lon":5.42049,"is_reserved":false,"is_disabled":false,"rental_uris":{"android":"levelo://app?vid=b0b14fd8-78fe-4c71-8173-5876ab3071ba","ios":"levelo://app?vid=b0b14fd8-78fe-4c71-8173-5876ab3071ba"},