{"last_updated":1761203502,"ttl":60,"version":"2.2","data":{"bikes":[{"bike_id":"a92cdfee-b5aa-4873-acb9-635d1da1d5a3","system_id":"levelo_inurba_marseille","lat":43.30955,"lon":5.39036,"is_reserved":false,"is_disabled":false,"rental_uris":{"android":"levelo://app?vid=a92cdfee-b5aa-4873-acb9-635d1da1d5a3","ios":"levelo://app?vid=a92cdfee-b5aa-4873-acb9-635d1da1d5a3"},"vehicle_type_id":"4","last_reported":1761203502,"current_range_meters":2800,"station_id":"ce4bgup2rcd13ifvqco0","pricing_plan_id":"cebpf4jnsgd1na2vs0mg"},{"bike_id":"82f028cd-6bce-442d-8239-332d825f4619","system_id":"levelo_inurba_marseille","lat":43.30945,"lon":5.39018,"is_reserved":false,"is_disabled":false,"rental_uris":{"android":"levelo://app?vid=82f028cd-6bce-442d-8239-332d825f4619","ios":"levelo://app?vid=82f028cd-6bce-442d-8239-332d825f4619"},"vehicle_type_id":"4","last_reported":1761203502,"current_range_meters":2800,"station_id":"ce4bgup2rcd13ifvqco0","pricing_plan_id":"cebpf4jnsgd1na2vs0mg"},{"bike_id":"aab6abce-1e8d-44d7-8bc4-a5a596da527e","system_id":"levelo_inurba_marseille","lat":43.29225,"lon":5.36049,"is_reserved":false,"is_disabled":false,"rental_uris":{"android":"levelo://app?vid=aab6abce-1e8d-44d7-8bc4-a5a596da527e","ios":"levelo://app?vid=aab6abce-1e8d-44d7-8bc4-a5a596da527e"},"vehicle_type_id":"4","last_reported":1761203502,"current_range_meters":2800,"station_id":"ce4bhbh2rcd13ifvqeqg","pricing_plan_id":"cebpf4jnsgd1na2vs0mg"},{"bike_id":"49d77014-0e67-4145-a458-9e7a551c9b23","system_id":"levelo_inurba_marseille","lat":43.28512,"lon":5.44102,"is_reserved":false,"is_disabled":false,"rental_uris":{"android":"levelo://app?vid=49d77014-0e67-4145-a458-9e7a551c9b23","ios":"levelo://app?vid=49d77014-0e67-4145-a458-9e7a551c9b23"},"vehicle_type_id":"4","last_reported":1761203502,"current_range_meters":2800,"station_id":"st_d3j3df2ikq2c7380ej80","pricing_plan_id":"cebpf4jnsgd1na2vs0mg"},{"bike_id":"4fd374a4-467f-4e5a-aaee-75128b44d260","system_id":"levelo_inurba_marseille","lat":43.24073,"lon":5.37761,"is_reserved":false,"is_disabled":false,"rental_uris":{"android":"levelo://app?vid=4fd374a4-467f-4e5a-aaee-75128b44d260","ios":"levelo://app?vid=4fd374a4-467f-4e5a-aaee-75128b44d260"},"vehicle_type_id":"4","last_reported":1761203502,"current_range_meters":2800,"station_id":"ce4bhnp2rcd13ifvqgvg","pricing_plan_id":"cebpf4jnsgd1na2vs0mg"},{"bike_id":"66bec76d-d7e9-4a1e-a715-39e56334bf96","system_id":"levelo_inurba_marseille","lat":43.282915,"lon":5.396535,"is_reserved":false,"is_disabled":false,"rental_uris":{"android":"levelo://app?vid=66bec76d-d7e9-4a1e-a715-39e56334bf96","ios":"levelo://app?vid=66bec76d-d7e9-4a1e-a715-39e56334bf96"},"vehicle_type_id":"4","last_reported":1761203502,"current_range_meters":3200,"station_id":"","pricing_plan_id":"cebpf4jnsgd1na2vs0mg"},{"bike_id":"2b5aedc3-2b61-4b39-920a-76c2992069d0","system_id":"levelo_inurba_marseille","lat":43.28935,"lon":5.3844,"is_reserved":false,"is_disabled":false,"rental_uris":{"android":"levelo://app?vid=2b5aedc3-2b61-4b39-920a-76c2992069d0","ios":"levelo://app?vid=2b5aedc3-2b61-4b39-920a-76c2992069d0"},"vehicle_type_id":"4","last_reported":1761203502,"current_range_meters":3200,"station_id":"ce4bh612rcd13ifvqe6g","pricing_plan_id":"cebpf4jnsgd1na2vs0mg"},{"bike_id":"689a9830-0827-4ab5-9794-cd21145accba","system_id":"levelo_inurba_marseille","lat":43.30136,"lon":5.37428,"is_reserved":false,"is_disabled":false,"rental_uris":{"android":"levelo://app?vid=689a9830-0827-4ab5-9794-cd21145accba","ios":"levelo://app?vid=689a9830-0827-4ab5-9794-cd21145accba"},"vehicle_type_id":"4","last_reported":1761203502,"current_range_meters":3600,"station_id":"ce4bgs92rcd13ifvqcc0","pricing_plan_id":"cebpf4jnsgd1na2vs0mg"},{"bike_id":"3d068a7d-8c2c-4f97-8d7d-54140fa95800","system_id":"levelo_inurba_marseille","lat":43.2734,"lon":5.39851,"is_reserved":false,"is_disabled":false,"rental_uris":{"android":"levelo://app?vid=3d068a7d-8c2c-4f97-8d7d-54140fa95800","ios":"levelo://app?vid=3d068a7d-8c2c-4f97-8d7d-54140fa95800"},"vehicle_type_id":"4","last_reported":1761203502,"current_range_meters":3600,"station_id":"","pricing_plan_id":"cebpf4jnsgd1na2vs0mg"},{"bike_id":"158efa80-12ab-4b7d-8a51-8d3a468fcc07","system_id":"levelo_inurba_marseille","lat":43.21186,"lon":5.35089,"is_reserved":false,"is_disabled":true,"rental_uris":{"android":"levelo://app?vid=158efa80-12ab-4b7d-8a51-8d3a468fcc07","ios":"levelo://app?vid=158efa80-12ab-4b7d-8a51-8d3a468fcc07"},"vehicle_type_id":"4","last_reported":1761203502,"current_range_meters":3600,"station_id":"","pricing_plan_id":"cebpf4jnsgd1na2vs0mg"},{"bike_id":"e88eaf7d-90f2-47ed-b9a4-dfe0816dbd3e","system_id":"levelo_inurba_marseille","lat":43.30601,"lon":5.393443,"is_reserved":false,"is_disabled":false,"rental_uris":{"android":"levelo://app?vid=e88eaf7d-90f2-47ed-b9a4-dfe0816dbd3e","ios":"levelo://app?vid=e88eaf7d-90f2-47ed-b9a4-dfe0816dbd3e"},"vehicle_type_id":"4","last_reported":1761203502,"current_range_meters":4000,"station_id":"ce4bh0p2rcd13ifvqd80","pricing_plan_id":"cebpf4jnsgd1na2vs0mg"},{"bike_id":"2b812646-b6d2-423a-8819-b87e8de55263","system_id":"levelo_inurba_marseille","lat":43.24069,"lon":5.37756,"is_reserved":false,"is_disabled":false,"rental_uris":{"android":"levelo://app?vid=2b812646-b6d2-423a-8819-b87e8de55263","ios":"levelo://app?vid=2b812646-b6d2-423a-8819-b87e8de55263"},"vehicle_type_id":"4","last_reported":1761203502,"current_range_meters":4000,"station_id":"ce4bhnp2rcd13ifvqgvg","pricing_plan_id":"cebpf4jnsgd1na2vs0mg"},{"bike_id":"f34cc125-0c42-42b1-913f-43595d94e046","system_id":"levelo_inurba_marseille","lat":43.29791,"lon":5.38204,"is_reserved":false,"is_disabled":false,"rental_uris":{"android":"levelo://app?vid=f34cc125-0c42-42b1-913f-43595d94e046","ios":"levelo://app?vid=f34cc125-0c42-42b1-913f-43595d94e046"},"vehicle_type_id":"4","last_reported":1761203502,"current_range_meters":4000,"station_id":"","pricing_plan_id":"cebpf4jnsgd1na2vs0mg"},{"bike_id":"eea8e898-572d-47eb-96af-c1bbf4d2c033","system_id":"levelo_inurba_marseille","lat":43.249673,"lon":5.389576,"is_reserved":false,"is_disabled":false,"rental_uris":{"android":"levelo://app?vid=eea8e898-572d-47eb-96af-c1bbf4d2c033","ios":"levelo://app?vid=eea8e898-572d-47eb-96af-c1bbf4d2c033"},"vehicle_type_id":"4","last_reported":1761203502,"current_range_meters":4000,"station_id":"ce4bhgp2rcd13ifvqfd0","pricing_plan_id":"cebpf4jnsgd1na2vs0mg"},{"bike_id":"e2d1f61d-79b2-48f7-b736-3c7c9a2ed41b","system_id":"levelo_inurba_marseille","lat":43.31887,"lon":5.40728,"is_reserved":false,"is_disabled":false,"rental_uris":{"android":"levelo://app?vid=e2d1f61d-79b2-48f7-b736-3c7c9a2ed41b","ios":"levelo://app?vid=e2d1f61d-79b2-48f7-b736-3c7c9a2ed41b"},"vehicle_type_id":"4","last_reported":1761203502,"current_range_meters":4400,"station_id":"ce4bhq12rcd13ifvqhig","pricing_plan_id":"cebpf4jnsgd1na2vs0mg"},{"bike_id":"563add41-42b5-4a40-a2f4-2f753e2062a9","system_id":"levelo_inurba_marseille","lat":43.28763,"lon":5.36404,"is_reserved":false,"is_disabled":false,"rental_uris":{"android":"levelo://app?vid=563add41-42b5-4a40-a2f4-2f753e2062a9","ios":"levelo://app?vid=563add41-42b5-4a40-a2f4-2f753e2062a9"},"vehicle_type_id":"4","last_reported":1761203502,"current_range_meters":4400,"station_id":"","pricing_plan_id":"cebpf4jnsgd1na2vs0mg"},{"bike_id":"b36d8f43-25e9-4574-ace8-a299275f9182","system_id":"levelo_inurba_marseille","lat":43.30887,"lon":5.372,"is_reserved":false,"is_disabled":false,"rental_uris":{"android":"levelo://app?vid=b36d8f43-25e9-4574-ace8-a299275f9182","ios":"levelo://app?vid=b36d8f43-25e9-4574-ace8-a299275f9182"},"vehicle_type_id":"4","last_reported":1761203502,"current_range_meters":4400,"station_id":"ce4bguh2rcd13ifvqckg","pricing_plan_id":"cebpf4jnsgd1na2vs0mg"},{"bike_id":"a0a339b2-d0af-4b75-a0aa-54f968df02d3","system_id":"levelo_inurba_marseille","lat":43.3358,"lon":5.40995,"is_reserved":false,"is_disabled":false,"rental_uris":{"android":"levelo://app?vid=a0a339b2-d0af-4b75-a0aa-54f968df02d3","ios":"levelo://app?vid=a0a339b2-d0af-4b75-a0aa-54f968df02d3"},"vehicle_type_id":"4","last_reported":1761203502,"current_range_meters":4400,"station_id":"ce4bhqh2rcd13ifvqhmg","pricing_plan_id":"cebpf4jnsgd1na2vs0mg"},{"bike_id":"da3c5d5d-639d-4a11-88e1-f7b9c2ad220a","system_id":"levelo_inurba_marseille","lat":43.31706,"lon":5.37745,"is_reserved":false,"is_disabled":true,"rental_uris":{"android":"levelo://app?vid=da3c5d5d-639d-4a11-88e1-f7b9c2ad220a","ios":"levelo://app?vid=da3c5d5d-639d-4a11-88e1-f7b9c2ad220a"},"vehicle_type_id":"4","last_reported":1761203502,"current_range_meters":4400,"station_id":"ce4bgth2rcd13ifvqch0","pricing_plan_id":"cebpf4jnsgd1na2vs0mg"},{"bike_id":"84f3fd1d-ede4-433b-bf34-423b534c1c37","system_id":"levelo_inurba_marseille","lat":43.302723,"lon":5.37699,"is_reserved":false,"is_disabled":false,"rental_uris":{"android":"levelo://app?vid=84f3fd1d-ede4-433b-bf34-423b534c1c37","ios":"levelo://app?vid=84f3fd1d-ede4-433b-bf34-423b534c1c37"},"vehicle_type_id":"4","last_reported":1761203502,"current_range_meters":4400,"station_id":"ce4bguh2rcd13ifvqcj0","pricing_plan_id":"cebpf4jnsgd1na2vs0mg"},{"bike_id":"0eb4a964-1bee-4a4b-b4cd-f4ec0f40083b","system_id":"levelo_inurba_marseille","lat":43.30144,"lon":5.37432,"is_reserved":false,"is_disabled":false,"rental_uris":{"android":"levelo://app?vid=0eb4a964-1bee-4a4b-b4cd-f4ec0f40083b","ios":"levelo://app?vid=0eb4a964-1bee-4a4b-b4cd-f4ec0f40083b"},"vehicle_type_id":"4","last_reported":1761203502,"current_range_meters":4800,"station_id":"ce4bgs92rcd13ifvqcc0","pricing_plan_id":"cebpf4jnsgd1na2vs0mg"},{"bike_id":"3201e625-69d5-420e-838c-f4c3f44666ef","system_id":"levelo_inurba_marseille","lat":43.33774,"lon":5.37435,"is_reserved":false,"is_disabled":false,"rental_uris":{"android":"levelo://app?vid=3201e625-69d5-420e-838c-f4c3f44666ef","ios":"levelo://app?vid=3201e625-69d5-420e-838c-f4c3f44666ef"},"vehicle_type_id":"4","last_reported":1761203502,"current_range_meters":4800,"station_id":"","pricing_plan_id":"cebpf4jnsgd1na2vs0mg"},{"bike_id":"549f419b-52ec-4915-b841-7b7361ccd4e3","system_id":"levelo_inurba_marseille","lat":43.30246,"lon":5.40056,"is_reserved":false,"is_disabled":false,"rental_uris":{"android":"levelo://app?vid=549f419b-52ec-4915-b841-7b7361ccd4e3","ios":"levelo://app?vid=549f419b-52ec-4915-b841-7b7361ccd4e3"},"vehicle_type_id":"4","last_reported":1761203502,"current_range_meters":4800,"station_id":"ce4bgvh2rcd13ifvqcs0","pricing_plan_id":"cebpf4jnsgd1na2vs0mg"},{"bike_id":"c24a1e1b-0398-49c1-a945-ebe372c04413","system_id":"levelo_inurba_marseille","lat":43.263764,"lon":5.373811,"is_reserved":false,"is_disabled":false,"rental_uris":{"android":"levelo://app?vid=c24a1e1b-0398-49c1-a945-ebe372c04413","ios":"levelo://app?vid=c24a1e1b-0398-49c1-a945-ebe372c04413"},"vehicle_type_id":"4","last_reported":1761203502,"current_range_meters":4800,"station_id":"ce4bhh92rcd13ifvqfh0","pricing_plan_id":"cebpf4jnsgd1na2vs0mg"},{"bike_id":"13eadf46-e18a-44f2-a496-aa2c016ec042","system_id":"levelo_inurba_marseille","lat":43.26683,"lon":5.38274,"is_reserved":false,"is_disabled":false,"rental_uris":{"android":"levelo://app?vid=13eadf46-e18a-44f2-a496-aa2c016ec042","ios":"levelo://app?vid=13eadf46-e18a-44f2-a496-aa2c016ec042"},"vehicle_type_id":"4","last_reported":1761203502,"current_range_meters":5600,"station_id":"ce4bhg92rcd13ifvqf90","pricing_plan_id":"cebpf4jnsgd1na2vs0mg"},{"bike_id":"8dc2447d-d023-409d-9c3e-25d5178d5323","system_id":"levelo_inurba_marseille","lat":43.28569,"lon":5.39498,"is_reserved":false,"is_disabled":false,"rental_uris":{"android":"levelo://app?vid=8dc2447d-d023-409d-9c3e-25d5178d5323","ios":"levelo://app?vid=8dc2447d-d023-409d-9c3e-25d5178d5323"},"vehicle_type_id":"4","last_reported":1761203502,"current_range_meters":5600,"station_id":"ce4bh292rcd13ifvqdg0","pricing_plan_id":"cebpf4jnsgd1na2vs0mg"},{"bike_id":"add1f2b8-affe-4bf7-8ba9-8ce23bc1cdd6","system_id":"levelo_inurba_marseille","lat":43.309845,"lon":5.370289,"is_reserved":false,"is_disabled":false,"rental_uris":{"android":"levelo://app?vid=add1f2b8-affe-4bf7-8ba9-8ce23bc1cdd6","ios":"levelo://app?vid=add1f2b8-affe-4bf7-8ba9-8ce23bc1cdd6"},"vehicle_type_id":"4","last_reported":1761203502,"current_range_meters":5600,"station_id":"ce4bgn92rcd13ifvqbvg","pricing_plan_id":"cebpf4jnsgd1na2vs0mg"},{"bike_id":"b7e41c34-cad5-468c-aadc-3ef8a1845b5a","system_id":"levelo_inurba_marseille","lat":43.2817,"lon":5.36105,"is_reserved":false,"is_disabled":false,"rental_uris":{"android":"levelo://app?vid=b7e41c34-cad5-468c-aadc-3ef8a1845b5a","ios":"levelo://app?vid=b7e41c34-cad5-468c-aadc-3ef8a1845b5a"},"vehicle_type_id":"4","last_reported":1761203502,"current_range_meters":6000,"station_id":"","pricing_plan_id":"cebpf4jnsgd1na2vs0mg"},{"bike_id":"7ffbdf46-1d13-4e32-ad8f-b99766448a99","system_id":"levelo_inurba_marseille","lat":43.31565,"lon":5.38881,"is_reserved":false,"is_disabled":false,"rental_uris":{"android":"levelo://app?vid=7ffbdf46-1d13-4e32-ad8f-b99766448a99","ios":"levelo://app?vid=7ffbdf46-1d13-4e32-ad8f-b99766448a99"},"vehicle_type_id":"4","last_reported":1761203502,"current_range_meters":6000,"station_id":"","pricing_plan_id":"cebpf4jnsgd1na2vs0mg"},{"bike_id":"a7600964-f166-4efc-baf3-664633041ebb","system_id":"levelo_inurba_marseille","lat":43.26053,"lon":5.39386,"is_reserved":false,"is_disabled":false,"rental_uris":{"android":"levelo://app?vid=a7600964-f166-4efc-baf3-664633041ebb","ios":"levelo://app?vid=a7600964-f166-4efc-baf3-664633041ebb"},"vehicle_type_id":"4","last_reported":1761203502,"current_range_meters":6000,"station_id":"ce4bhh92rcd13ifvqfj0","pricing_plan_id":"cebpf4jnsgd1na2vs0mg"},{"bike_id":"0c8b83e7-c365-4b7c-87cc-9e35b50af735","system_id":"levelo_inurba_marseille","lat":43.28273,"lon":5.35079,"is_reserved":false,"is_disabled":false,"rental_uris":{"android":"levelo://app?vid=0c8b83e7-c365-4b7c-87cc-9e35b50af735","ios":"levelo://app?vid=0c8b83e7-c365-4b7c-87cc-9e35b50af735"},"vehicle_type_id":"4","last_reported":1761203502,"current_range_meters":6400,"station_id":"ce4bhbp2rcd13ifvqerg","pricing_plan_id":"cebpf4jnsgd1na2vs0mg"},{"bike_id":"d217877a-f518-46e1-af73-d33d50b5109d","system_id":"levelo_inurba_marseille","lat":43.26958,"lon":5.38637,"is_reserved":false,"is_disabled":false,"rental_uris":{"android":"levelo://app?vid=d217877a-f518-46e1-af73-d33d50b5109d","ios":"levelo://app?vid=d217877a-f518-46e1-af73-d33d50b5109d"},"vehicle_type_id":"4","last_reported":1761203502,"current_range_meters":6400,"station_id":"ce4bhh92rcd13ifvqfh0","pricing_plan_id":"cebpf4jnsgd1na2vs0mg"},{"bike_id":"1803faa6-fd97-4cae-ad83-fdffd08596a8","system_id":"levelo_inurba_marseille","lat":43.25079,"lon":5.3952,"is_reserved":false,"is_disabled":false,"rental_uris":{"android":"levelo://app?vid=1803faa6-fd97-4cae-ad83-fdffd08596a8","ios":"levelo://app?vid=1803faa6-fd97-4cae-ad83-fdffd08596a8"},"vehicle_type_id":"4","last_reported":1761203502,"current_range_meters":6400,"station_id":"ce4bhm12rcd13ifvqgkg","pricing_plan_id":"cebpf4jnsgd1na2vs0mg"},{"bike_id":"ac1df8dc-41e5-4954-977f-6f21ed12d11a","system_id":"levelo_inurba_marseille","lat":43.21748,"lon":5.34605,"is_reserved":false,"is_disabled":false,"rental_uris":{"android":"levelo://app?vid=ac1df8dc-41e5-4954-977f-6f21ed12d11a","ios":"levelo://app?vid=ac1df8dc-41e5-4954-977f-6f21ed12d11a"},"vehicle_type_id":"4","last_reported":1761203502,"current_range_meters":6800,"station_id":"st_cvj6r9ubvosntc0bgbag","pricing_plan_id":"cebpf4jnsgd1na2vs0mg"},{"bike_id":"c582d6b2-7651-4ba0-8d0d-f83759ad6030","system_id":"levelo_inurba_marseille","lat":43.29011,"lon":5.38144,"is_reserved":false,"is_disabled":false,"rental_uris":{"android":"levelo://app?vid=c582d6b2-7651-4ba0-8d0d-f83759ad6030","ios":"levelo://app?vid=c582d6b2-7651-4ba0-8d0d-f83759ad6030"},"vehicle_type_id":"4","last_reported":1761203502,"current_range_meters":6800,"station_id":"ce4bh4p2rcd13ifvqe1g","pricing_plan_id":"cebpf4jnsgd1na2vs0mg"},{"bike_id":"26239f6a-c2ff-4c34-af3f-21aeb531083c","system_id":"levelo_inurba_marseille","lat":43.29045,"lon":5.39957,"is_reserved":false,"is_disabled":false,"rental_uris":{"android":"levelo://app?vid=26239f6a-c2ff-4c34-af3f-21aeb531083c","ios":"levelo://app?vid=26239f6a-c2ff-4c34-af3f-21aeb531083c"},"vehicle_type_id":"4","last_reported":1761203502,"current_range_meters":6800,"station_id":"ce4bh392rcd13ifvqdm0","pricing_plan_id":"cebpf4jnsgd1na2vs0mg"},{"bike_id":"350d245b-1e11-4145-8e69-b4609694f030","system_id":"levelo_inurba_marseille","lat":43.23962,"lon":5.36621,"is_reserved":false,"is_disabled":false,"rental_uris":{"android":"levelo://app?vid=350d245b-1e11-4145-8e69-b4609694f030","ios":"levelo://app?vid=350d245b-1e11-4145-8e69-b4609694f030"},"vehicle_type_id":"4","last_reported":1761203502,"current_range_meters":6800,"station_id":"ce4bhi12rcd13ifvqfp0","pricing_plan_id":"cebpf4jnsgd1na2vs0mg"},{"bike_id":"f13cde0d-45ed-40f4-94c1-3377bc18932c","system_id":"levelo_inurba_marseille","lat":43.303816,"lon":5.424826,"is_reserved":false,"is_disabled":false,"rental_uris":{"android":"levelo://app?vid=f13cde0d-45ed-40f4-94c1-3377bc18932c","ios":"levelo://app?vid=f13cde0d-45ed-40f4-94c1-3377bc18932c"},"vehicle_type_id":"4","last_reported":1761203502,"current_range_meters":6800,"station_id":"ce4bhoh2rcd13ifvqh6g","pricing_plan_id":"cebpf4jnsgd1na2vs0mg"},{"bike_id":"75ff3b49-7c4b-4633-b9b7-8ba5efacf6ea","system_id":"levelo_inurba_marseille","lat":43.249521,"lon":5.404881,"is_reserved":false,"is_disabled":false,"rental_uris":{"android":"levelo://app?vid=75ff3b49-7c4b-4633-b9b7-8ba5efacf6ea","ios":"levelo://app?vid=75ff3b49-7c4b-4633-b9b7-8ba5efacf6ea"},"vehicle_type_id":"4","last_reported":1761203502,"current_range_meters":6800,"station_id":"st_d2ngiaodas8pm72gd1h0","pricing_plan_id":"cebpf4jnsgd1na2vs0mg"},{"bike_id":"76dff460-afc5-48c4-81d8-fda45aac3b09","system_id":"levelo_inurba_marseille","lat":43.276022,"lon":5.361168,"is_reserved":false,"is_disabled":true,"rental_uris":{"android":"levelo://app?vid=76dff460-afc5-48c4-81d8-fda45aac3b09","ios":"levelo://app?vid=76dff460-afc5-48c4-81d8-fda45aac3b09"},"vehicle_type_id":"4","last_reported":1761203502,"current_range_meters":7200,"station_id":"ce4bgj92rcd13ifvqbe0","pricing_plan_id":"cebpf4jnsgd1na2vs0mg"},{"bike_id":"8406bb5f-4ee7-453f-b1ed-3d7c114d65a2","system_id":"levelo_inurba_marseille","lat":43.25328,"lon":5.42185,"is_reserved":false,"is_disabled":false,"rental_uris":{"android":"levelo://app?vid=8406bb5f-4ee7-453f-b1ed-3d7c114d65a2","ios":"levelo://app?vid=8406bb5f-4ee7-453f-b1ed-3d7c114d65a2"},"vehicle_type_id":"4","last_reported":1761203502,"current_range_meters":7200,"station_id":"st_d2m65c5bi1j21697t3ng","pricing_plan_id":"cebpf4jnsgd1na2vs0mg"},{"bike_id":"02f7835e-8895-43db-bc46-dc0659a292d5","system_id":"levelo_inurba_marseille","lat":43.29331,"lon":5.3707,"is_reserved":false,"is_disabled":false,"rental_uris":{"android":"levelo://app?vid=02f7835e-8895-43db-bc46-dc0659a292d5","ios":"levelo://app?vid=02f7835e-8895-43db-bc46-dc0659a292d5"},"vehicle_type_id":"4","last_reported":1761203502,"current_range_meters":7200,"station_id":"","pricing_plan_id":"cebpf4jnsgd1na2vs0mg"},{"bike_id":"7d2d5787-0ce3-440b-bd99-871ac3e090ec","system_id":"levelo_inurba_marseille","lat":43.288851,"lon":5.378753,"is_reserved":false,"is_disabled":false,"rental_uris":{"android":"levelo://app?vid=7d2d5787-0ce3-440b-bd99-871ac3e090ec","ios":"levelo://app?vid=7d2d5787-0ce3-440b-bd99-871ac3e090ec"},"vehicle_type_id":"4","last_reported":1761203502,"current_range_meters":8000,"station_id":"","pricing_plan_id":"cebpf4jnsgd1na2vs0mg"},{"bike_id":"bbafeb06-8c98-4d99-b166-246ff3c04cae","system_id":"levelo_inurba_marseille","lat":43.33618,"lon":5.41018,"is_reserved":false,"is_disabled":false,"rental_uris":{"android":"levelo://app?vid=bbafeb06-8c98-4d99-b166-246ff3c04cae","ios":"levelo://app?vid=bbafeb06-8c98-4d99-b166-246ff3c04cae"},"vehicle_type_id":"4","last_reported":1761203502,"current_range_meters":8000,"station_id":"ce4bhqh2rcd13ifvqhmg","pricing_plan_id":"cebpf4jnsgd1na2vs0mg"},{"bike_id":"b4a17237-ed95-4629-8087-c65747178179","system_id":"levelo_inurba_marseille","lat":43.26229,"lon":5.40458,"is_reserved":false,"is_disabled":false,"rental_uris":{"android":"levelo://app?vid=b4a17237-ed95-4629-8087-c65747178179","ios":"levelo://app?vid=b4a17237-ed95-4629-8087-c65747178179"},"vehicle_type_id":"4","last_reported":1761203502,"current_range_meters":8000,"station_id":"ce4bhmh2rcd13ifvqgmg","pricing_plan_id":"cebpf4jnsgd1na2vs0mg"},{"bike_id":"50441c1d-86ea-43c8-83ca-781b5a6bb320","system_id":"levelo_inurba_marseille","lat":43.32076,"lon":5.40936,"is_reserved":false,"is_disabled":false,"rental_uris":{"android":"levelo://app?vid=50441c1d-86ea-43c8-83ca-781b5a6bb320","ios":"levelo://app?vid=50441c1d-86ea-43c8-83ca-781b5a6bb320"},"vehicle_type_id":"4","last_reported":1761203502,"current_range_meters":8000,"station_id":"","pricing_plan_id":"cebpf4jnsgd1na2vs0mg"},{"bike_id":"c4432b73-0adb-475d-83b3-18f6e7bba483","system_id":"levelo_inurba_marseille","lat":43.32123,"lon":5.40816,"is_reserved":false,"is_disabled":false,"rental_uris":{"android":"levelo://app?vid=c4432b73-0adb-475d-83b3-18f6e7bba483","ios":"levelo://app?vid=c4432b73-0adb-475d-83b3-18f6e7bba483"},"vehicle_type_id":"4","last_reported":1761203502,"current_range_meters":8000,"station_id":"","pricing_plan_id":"cebpf4jnsgd1na2vs0mg"},{"bike_id":"44b1ad6b-1a98-4e37-a182-f58df3beccce","system_id":"levelo_inurba_marseille","lat":43.212,"lon":5.35068,"is_reserved":false,"is_disabled":false,"rental_uris":{"android":"levelo://app?vid=44b1ad6b-1a98-4e37-a182-f58df3beccce","ios":"levelo://app?vid=44b1ad6b-1a98-4e37-a182-f58df3beccce"},"vehicle_type_id":"4","last_reported":1761203502,"current_range_meters":8400,"station_id":"","pricing_plan_id":"cebpf4jnsgd1na2vs0mg"},{"bike_id":"351275fb-44fc-4a5c-8c3b-5745e81e0b91","system_id":"levelo_inurba_marseille","lat":43.24389,"lon":5.37055,"is_reserved":false,"is_disabled":false,"rental_uris":{"android":"levelo://app?vid=351275fb-44fc-4a5c-8c3b-5745e81e0b91","ios":"levelo://app?vid=351275fb-44fc-4a5c-8c3b-5745e81e0b91"},"vehicle_type_id":"4","last_reported":1761203502,"current_range_meters":8400,"station_id":"ce4bhhh2rcd13ifvqfk0","pricing_plan_id":"cebpf4jnsgd1na2vs0mg"},{"bike_id":"c68f665a-6efd-4c07-8f31-2344023dad7f","system_id":"levelo_inurba_marseille","lat":43.28603,"lon":5.37066,"is_reserved":false,"is_disabled":false,"rental_uris":{"android":"levelo://app?vid=c68f665a-6efd-4c07-8f31-2344023dad7f","ios":"levelo://app?vid=c68f665a-6efd-4c07-8f31-2344023dad7f"},"vehicle_type_id":"4","last_reported":1761203502,"current_range_meters":8400,"station_id":"ce4bht12rcd13ifvqi60","pricing_plan_id":"cebpf4jnsgd1na2vs0mg"},{"bike_id":"bdb2e266-06fe-4408-875a-4d00460ebc09","system_id":"levelo_inurba_marseille","lat":43.30496,"lon":5.37254,"is_reserved":false,"is_disabled":true,"rental_uris":{"android":"levelo://app?vid=bdb2e266-06fe-4408-875a-4d00460ebc09","ios":"levelo://app?vid=bdb2e266-06fe-4408-875a-4d00460ebc09"},"vehicle_type_id":"4","last_reported":1761203502,"current_range_meters":8400,"station_id":"","pricing_plan_id":"cebpf4jnsgd1na2vs0mg"},{"bike_id":"518b8c61-3e83-4293-a060-a51fde599aa4","system_id":"levelo_inurba_marseille","lat":43.28004,"lon":5.40008,"is_reserved":false,"is_disabled":false,"rental_uris":{"android":"levelo://app?vid=518b8c61-3e83-4293-a060-a51fde599aa4","ios":"levelo://app?vid=518b8c61-3e83-4293-a060-a51fde599aa4"},"vehicle_type_id":"4","last_reported":1761203502,"current_range_meters":8400,"station_id":"ce4bho92rcd13ifvqh4g","pricing_plan_id":"cebpf4jnsgd1na2vs0mg"},{"bike_id":"ac8e3853-6852-4c61-958f-8e18012a6d05","system_id":"levelo_inurba_marseille","lat":43.30809,"lon":5.38161,"is_reserved":false,"is_disabled":false,"rental_uris":{"android":"levelo://app?vid=ac8e3853-6852-4c61-958f-8e18012a6d05","ios":"levelo://app?vid=ac8e3853-6852-4c61-958f-8e18012a6d05"},"vehicle_type_id":"4","last_reported":1761203502,"current_range_meters":8400,"station_id":"ce4bgt12rcd13ifvqce0","pricing_plan_id":"cebpf4jnsgd1na2vs0mg"},{"bike_id":"76d6f96b-8c05-4e6c-af8a-61adf4b2d1b6","system_id":"levelo_inurba_marseille","lat":43.308854,"lon":5.396522,"is_reserved":false,"is_disabled":false,"rental_uris":{"android":"levelo://app?vid=76d6f96b-8c05-4e6c-af8a-61adf4b2d1b6","ios":"levelo://app?vid=76d6f96b-8c05-4e6c-af8a-61adf4b2d1b6"},"vehicle_type_id":"4","last_reported":1761203502,"current_range_meters":8400,"station_id":"ce4bh012rcd13ifvqcv0","pricing_plan_id":"cebpf4jnsgd1na2vs0mg"},{"bike_id":"30b310ad-ec20-4448-864e-4d11e2b074fa","system_id":"levelo_inurba_marseille","lat":43.24806,"lon":5.37461,"is_reserved":false,"is_disabled":false,"rental_uris":{"android":"levelo://app?vid=30b310ad-ec20-4448-864e-4d11e2b074fa","ios":"levelo://app?vid=30b310ad-ec20-4448-864e-4d11e2b074fa"},"vehicle_type_id":"4","last_reported":1761203502,"current_range_meters":8400,"station_id":"ce4bhgh2rcd13ifvqfb0","pricing_plan_id":"cebpf4jnsgd1na2vs0mg"},{"bike_id":"8bd0aac0-05c2-4070-a1d3-b631193e98b2","system_id":"levelo_inurba_marseille","lat":43.30142,"lon":5.37418,"is_reserved":false,"is_disabled":false,"rental_uris":{"android":"levelo://app?vid=8bd0aac0-05c2-4070-a1d3-b631193e98b2","ios":"levelo://app?vid=8bd0aac0-05c2-4070-a1d3-b631193e98b2"},"vehicle_type_id":"4","last_reported":1761203502,"current_range_meters":8400,"station_id":"ce4bgs92rcd13ifvqcc0","pricing_plan_id":"cebpf4jnsgd1na2vs0mg"},{"bike_id":"82576c51-8b9b-43eb-aa43-fc4a18c9ea5b","system_id":"levelo_inurba_marseille","lat":43.21756,"lon":5.34614,"is_reserved":false,"is_disabled":false,"rental_uris":{"android":"levelo://app?vid=82576c51-8b9b-43eb-aa43-fc4a18c9ea5b","ios":"levelo://app?vid=82576c51-8b9b-43eb-aa43-fc4a18c9ea5b"},"vehicle_type_id":"4","last_reported":1761203502,"current_range_meters":8800,"station_id":"st_cvj6r9ubvosntc0bgbag","pricing_plan_id":"cebpf4jnsgd1na2vs0mg"},{"bike_id":"e0ccfb87-beae-4544-9efe-4e846f781204","system_id":"levelo_inurba_marseille","lat":43.23153,"lon":5.43724,"is_reserved":false,"is_disabled":false,"rental_uris":{"android":"levelo://app?vid=e0ccfb87-beae-4544-9efe-4e846f781204","ios":"levelo://app?vid=e0ccfb87-beae-4544-9efe-4e846f781204"},"vehicle_type_id":"4","last_reported":1761203502,"current_range_meters":8800,"station_id":"ce4bhmp2rcd13ifvqgog","pricing_plan_id":"cebpf4jnsgd1na2vs0mg"},{"bike_id":"fe5786a2-3cbd-4e30-8ddf-18df8db18ee6","system_id":"levelo_inurba_marseille","lat":43.29994,"lon":5.37199,"is_reserved":false,"is_disabled":true,"rental_uris":{"android":"levelo://app?vid=fe5786a2-3cbd-4e30-8ddf-18df8db18ee6","ios":"levelo://app?vid=fe5786a2-3cbd-4e30-8ddf-18df8db18ee6"},"vehicle_type_id":"4","last_reported":1761203502,"current_range_meters":8800,"station_id":"ce4bgr92rcd13ifvqc7g","pricing_plan_id":"cebpf4jnsgd1na2vs0mg"},{"bike_id":"ff3ba630-dc04-489c-b422-8721b9ddc862","system_id":"levelo_inurba_marseille","lat":43.29852,"lon":5.37806,"is_reserved":false,"is_disabled":false,"rental_uris":{"android":"levelo://app?vid=ff3ba630-dc04-489c-b422-8721b9ddc862","ios":"levelo://app?vid=ff3ba630-dc04-489c-b422-8721b9ddc862"},"vehicle_type_id":"4","last_reported":1761203502,"current_range_meters":8800,"station_id":"","pricing_plan_id":"cebpf4jnsgd1na2vs0mg"},{"bike_id":"003db9b9-c4d5-45c4-90c5-058ef9d1e11f","system_id":"levelo_inurba_marseille","lat":43.303865,"lon":5.424828,"is_reserved":false,"is_disabled":false,"rental_uris":{"android":"levelo://app?vid=003db9b9-c4d5-45c4-90c5-058ef9d1e11f","ios":"levelo://app?vid=003db9b9-c4d5-45c4-90c5-058ef9d1e11f"},"vehicle_type_id":"4","last_reported":1761203502,"current_range_meters":9200,"station_id":"ce4bhoh2rcd13ifvqh6g","pricing_plan_id":"cebpf4jnsgd1na2vs0mg"},{"bike_id":"396aaa55-c35f-41fc-8337-93bac25c9dde","system_id":"levelo_inurba_marseille","lat":43.29239,"lon":5.35565,"is_reserved":false,"is_disabled":false,"rental_uris":{"android":"levelo://app?vid=396aaa55-c35f-41fc-8337-93bac25c9dde","ios":"levelo://app?vid=396aaa55-c35f-41fc-8337-93bac25c9dde"},"vehicle_type_id":"4","last_reported":1761203502,"current_range_meters":9200,"station_id":"","pricing_plan_id":"cebpf4jnsgd1na2vs0mg"},{"bike_id":"6acf2ae9-136b-4104-8a69-7d816eedd218","system_id":"levelo_inurba_marseille","lat":43.280642,"lon":5.352788,"is_reserved":false,"is_disabled":false,"rental_uris":{"android":"levelo://app?vid=6acf2ae9-136b-4104-8a69-7d816eedd218","ios":"levelo://app?vid=6acf2ae9-136b-4104-8a69-7d816eedd218"},"vehicle_type_id":"4","last_reported":1761203502,"current_range_meters":9200,"station_id":"","pricing_plan_id":"cebpf4jnsgd1na2vs0mg"},{"bike_id":"181d2c2e-cbb2-406f-989e-7e5f165a71d6","system_id":"levelo_inurba_marseille","lat":43.3135,"lon":5.36705,"is_reserved":false,"is_disabled":false,"rental_uris":{"android":"levelo://app?vid=181d2c2e-cbb2-406f-989e-7e5f165a71d6","ios":"levelo://app?vid=181d2c2e-cbb2-406f-989e-7e5f165a71d6"},"vehicle_type_id":"4","last_reported":1761203502,"current_range_meters":9200,"station_id":"ce4bgr92rcd13ifvqc6g","pricing_plan_id":"cebpf4jnsgd1na2vs0mg"},{"bike_id":"c1fa5159-36e6-4d5a-b53a-8f1c44997c03","system_id":"levelo_inurba_marseille","lat":43.29839,"lon":5.36265,"is_reserved":false,"is_disabled":false,"rental_uris":{"android":"levelo://app?vid=c1fa5159-36e6-4d5a-b53a-8f1c44997c03","ios":"levelo://app?vid=c1fa5159-36e6-4d5a-b53a-8f1c44997c03"},"vehicle_type_id":"4","last_reported":1761203502,"current_range_meters":9600,"station_id":"ce4bgpp2rcd13ifvqc3g","pricing_plan_id":"cebpf4jnsgd1na2vs0mg"},{"bike_id":"6cedbdd4-d4fa-45a0-a47a-6925bf95118c","system_id":"levelo_inurba_marseille","lat":43.229279,"lon":5.353818,"is_reserved":false,"is_disabled":false,"rental_uris":{"android":"levelo://app?vid=6cedbdd4-d4fa-45a0-a47a-6925bf95118c","ios":"levelo://app?vid=6cedbdd4-d4fa-45a0-a47a-6925bf95118c"},"vehicle_type_id":"4","last_reported":1761203502,"current_range_meters":9600,"station_id":"cpo3532slgdg3j2ikp40","pricing_plan_id":"cebpf4jnsgd1na2vs0mg"},{"bike_id":"37d01fc8-4b4d-4652-a489-1254eb9d4c80","system_id":"levelo_inurba_marseille","lat":43.34076,"lon":5.40411,"is_reserved":false,"is_disabled":false,"rental_uris":{"android":"levelo://app?vid=37d01fc8-4b4d-4652-a489-1254eb9d4c80","ios":"levelo://app?vid=37d01fc8-4b4d-4652-a489-1254eb9d4c80"},"vehicle_type_id":"4","last_reported":1761203502,"current_range_meters":9600,"station_id":"","pricing_plan_id":"cebpf4jnsgd1na2vs0mg"},{"bike_id":"9880e93c-d19c-40b1-b34a-e56695334737","system_id":"levelo_inurba_marseille","lat":43.30738,"lon":5.4244,"is_reserved":false,"is_disabled":false,"rental_uris":{"android":"levelo://app?vid=9880e93c-d19c-40b1-b34a-e56695334737","ios":"levelo://app?vid=9880e93c-d19c-40b1-b34a-e56695334737"},"vehicle_type_id":"4","last_reported":1761203502,"current_range_meters":9600,"station_id":"st_cvj6ca6bvosntc0bfgr0","pricing_plan_id":"cebpf4jnsgd1na2vs0mg"},{"bike_id":"15c9329a-af2a-4ecf-b071-7a979425a162","system_id":"levelo_inurba_marseille","lat":43.30529,"lon":5.36579,"is_reserved":false,"is_disabled":false,"rental_uris":{"android":"levelo://app?vid=15c9329a-af2a-4ecf-b071-7a979425a162","ios":"levelo://app?vid=15c9329a-af2a-4ecf-b071-7a979425a162"},"vehicle_type_id":"4","last_reported":1761203502,"current_range_meters":9600,"station_id":"ce4bgs12rcd13ifvqcag","pricing_plan_id":"cebpf4jnsgd1na2vs0mg"},{"bike_id":"3aca6cbf-1274-4610-a65a-293e32d1958b","system_id":"levelo_inurba_marseille","lat":43.33602,"lon":5.41032,"is_reserved":false,"is_disabled":false,"rental_uris":{"android":"levelo://app?vid=3aca6cbf-1274-4610-a65a-293e32d1958b","ios":"levelo://app?vid=3aca6cbf-1274-4610-a65a-293e32d1958b"},"vehicle_type_id":"4","last_reported":1761203502,"current_range_meters":9600,"station_id":"ce4bhqh2rcd13ifvqhmg","pricing_plan_id":"cebpf4jnsgd1na2vs0mg"},{"bike_id":"61c47949-89b9-4c27-95f4-2b581fa26bb6","system_id":"levelo_inurba_marseille","lat":43.23177,"lon":5.39978,"is_reserved":false,"is_disabled":true,"rental_uris":{"android":"levelo://app?vid=61c47949-89b9-4c27-95f4-2b581fa26bb6","ios":"levelo://app?vid=61c47949-89b9-4c27-95f4-2b581fa26bb6"},"vehicle_type_id":"4","last_reported":1761203502,"current_range_meters":10000,"station_id":"ce4bhn12rcd13ifvqgqg","pricing_plan_id":"cebpf4jnsgd1na2vs0mg"},{"bike_id":"54f2c755-e4c4-49b6-b14c-a60598029462","system_id":"levelo_inurba_marseille","lat":43.30281,"lon":5.37707,"is_reserved":false,"is_disabled":false,"rental_uris":{"android":"levelo://app?vid=54f2c755-e4c4-49b6-b14c-a60598029462","ios":"levelo://app?vid=54f2c755-e4c4-49b6-b14c-a60598029462"},"vehicle_type_id":"4","last_reported":1761203502,"current_range_meters":10000,"station_id":"ce4bguh2rcd13ifvqcj0","pricing_plan_id":"cebpf4jnsgd1na2vs0mg"},{"bike_id":"45b23ec0-1f26-4a73-bf31-06acd3f194a7","system_id":"levelo_inurba_marseille","lat":43.24304,"lon":5.40256,"is_reserved":false,"is_disabled":false,"rental_uris":{"android":"levelo://app?vid=45b23ec0-1f26-4a73-bf31-06acd3f194a7","ios":"levelo://app?vid=45b23ec0-1f26-4a73-bf31-06acd3f194a7"},"vehicle_type_id":"4","last_reported":1761203502,"current_range_meters":10000,"station_id":"","pricing_plan_id":"cebpf4jnsgd1na2vs0mg"},{"bike_id":"923d022b-4a85-437d-b152-30f3ec505c40","system_id":"levelo_inurba_marseille","lat":43.27371,"lon":5.36258,"is_reserved":false,"is_disabled":false,"rental_uris":{"android":"levelo://app?vid=923d022b-4a85-437d-b152-30f3ec505c40","ios":"levelo://app?vid=923d022b-4a85-437d-b152-30f3ec505c40"},"vehicle_type_id":"4","last_reported":1761203502,"current_range_meters":10000,"station_id":"ce4bhbh2rcd13ifvqeo0","pricing_plan_id":"cebpf4jnsgd1na2vs0mg"},{"bike_id":"3aa8c3e6-230d-4538-ac39-2b944611f536","system_id":"levelo_inurba_marseille","lat":43.313662,"lon":5.367108,"is_reserved":false,"is_disabled":true,"rental_uris":{"android":"levelo://app?vid=3aa8c3e6-230d-4538-ac39-2b944611f536","ios":"levelo://app?vid=3aa8c3e6-230d-4538-ac39-2b944611f536"},"vehicle_type_id":"4","last_reported":1761203502,"current_range_meters":10000,"station_id":"ce4bgr92rcd13ifvqc6g","pricing_plan_id":"cebpf4jnsgd1na2vs0mg"},{"bike_id":"f11297b4-b982-48a7-bc40-b4e5242b1d8d","system_id":"levelo_inurba_marseille","lat":43.23154,"lon":5.43727,"is_reserved":false,"is_disabled":false,"rental_uris":{"android":"levelo://app?vid=f11297b4-b982-48a7-bc40-b4e5242b1d8d","ios":"levelo://app?vid=f11297b4-b982-48a7-bc40-b4e5242b1d8d"},"vehicle_type_id":"4","last_reported":1761203502,"current_range_meters":10800,"station_id":"ce4bhmp2rcd13ifvqgog","pricing_plan_id":"cebpf4jnsgd1na2vs0mg"},{"bike_id":"10e1747b-e480-4781-b603-88a5c3163333","system_id":"levelo_inurba_marseille","lat":43.30951,"lon":5.39031,"is_reserved":false,"is_disabled":false,"rental_uris":{"android":"levelo://app?vid=10e1747b-e480-4781-b603-88a5c3163333","ios":"levelo://app?vid=10e1747b-e480-4781-b603-88a5c3163333"},"vehicle_type_id":"4","last_reported":1761203502,"current_range_meters":10800,"station_id":"ce4bgup2rcd13ifvqco0","pricing_plan_id":"cebpf4jnsgd1na2vs0mg"},{"bike_id":"bc02ffca-9895-4d0c-b7cc-905bdb2016ca","system_id":"levelo_inurba_marseille","lat":43.24949,"lon":5.40485,"is_reserved":false,"is_disabled":false,"rental_uris":{"android":"levelo://app?vid=bc02ffca-9895-4d0c-b7cc-905bdb2016ca","ios":"levelo://app?vid=bc02ffca-9895-4d0c-b7cc-905bdb2016ca"},"vehicle_type_id":"4","last_reported":1761203502,"current_range_meters":10800,"station_id":"st_d2ngiaodas8pm72gd1h0","pricing_plan_id":"cebpf4jnsgd1na2vs0mg"},{"bike_id":"31048bd3-5df4-4edc-9f54-103bdee07f26","system_id":"levelo_inurba_marseille","lat":43.2872,"lon":5.37941,"is_reserved":false,"is_disabled":false,"rental_uris":{"android":"levelo://app?vid=31048bd3-5df4-4edc-9f54-103bdee07f26","ios":"levelo://app?vid=31048bd3-5df4-4edc-9f54-103bdee07f26"},"vehicle_type_id":"4","last_reported":1761203502,"current_range_meters":10800,"station_id":"ce4bh9p2rcd13ifvqec0","pricing_plan_id":"cebpf4jnsgd1na2vs0mg"},{"bike_id":"ac4f7d3c-5af7-44ad-8c8b-463d26f4b847","system_id":"levelo_inurba_marseille","lat":43.274451,"lon":5.390878,"is_reserved":false,"is_disabled":false,"rental_uris":{"android":"levelo://app?vid=ac4f7d3c-5af7-44ad-8c8b-463d26f4b847","ios":"levelo://app?vid=ac4f7d3c-5af7-44ad-8c8b-463d26f4b847"},"vehicle_type_id":"4","last_reported":1761203502,"current_range_meters":10800,"station_id":"ce4bhg12rcd13ifvqf80","pricing_plan_id":"cebpf4jnsgd1na2vs0mg"},{"bike_id":"4f39751f-28cc-4f69-954f-5fdde0927635","system_id":"levelo_inurba_marseille","lat":43.24955,"lon":5.40496,"is_reserved":false,"is_disabled":false,"rental_uris":{"android":"levelo://app?vid=4f39751f-28cc-4f69-954f-5fdde0927635","ios":"levelo://app?vid=4f39751f-28cc-4f69-954f-5fdde0927635"},"vehicle_type_id":"4","last_reported":1761203502,"current_range_meters":10800,"station_id":"st_d2ngiaodas8pm72gd1h0","pricing_plan_id":"cebpf4jnsgd1na2vs0mg"},{"bike_id":"e7709aff-f080-4c40-b225-77642ea3c5cc","system_id":"levelo_inurba_marseille","lat":43.241687,"lon":5.364021,"is_reserved":false,"is_disabled":false,"rental_uris":{"android":"levelo://app?vid=e7709aff-f080-4c40-b225-77642ea3c5cc","ios":"levelo://app?vid=e7709aff-f080-4c40-b225-77642ea3c5cc"},"vehicle_type_id":"4","last_reported":1761203502,"current_range_meters":10800,"station_id":"cpo36qri1sfpv3e86is0","pricing_plan_id":"cebpf4jnsgd1na2vs0mg"},{"bike_id":"9870a68d-ae62-4bec-82c3-a7443a850bdc","system_id":"levelo_inurba_marseille","lat":43.31283,"lon":5.37772,"is_reserved":false,"is_disabled":false,"rental_uris":{"android":"levelo://app?vid=9870a68d-ae62-4bec-82c3-a7443a850bdc","ios":"levelo://app?vid=9870a68d-ae62-4bec-82c3-a7443a850bdc"},"vehicle_type_id":"4","last_reported":1761203502,"current_range_meters":11200,"station_id":"","pricing_plan_id":"cebpf4jnsgd1na2vs0mg"},{"bike_id":"2f86c0e7-791d-40d3-86dc-3a2c4a57947d","system_id":"levelo_inurba_marseille","lat":43.310769,"lon":5.424385,"is_reserved":false,"is_disabled":false,"rental_uris":{"android":"levelo://app?vid=2f86c0e7-791d-40d3-86dc-3a2c4a57947d","ios":"levelo://app?vid=2f86c0e7-791d-40d3-86dc-3a2c4a57947d"},"vehicle_type_id":"4","last_reported":1761203502,"current_range_meters":11200,"station_id":"ce4bhp92rcd13ifvqhag","pricing_plan_id":"cebpf4jnsgd1na2vs0mg"},{"bike_id":"5b2fb394-b654-4cda-abea-19d87e1a4938","system_id":"levelo_inurba_marseille","lat":43.240822,"lon":5.377519,"is_reserved":false,"is_disabled":false,"rental_uris":{"android":"levelo://app?vid=5b2fb394-b654-4cda-abea-19d87e1a4938","ios":"levelo://app?vid=5b2fb394-b654-4cda-abea-19d87e1a4938"},"vehicle_type_id":"4","last_reported":1761203502,"current_range_meters":11200,"station_id":"ce4bhnp2rcd13ifvqgvg","pricing_plan_id":"cebpf4jnsgd1na2vs0mg"},{"bike_id":"5c5f86d4-45e0-4ad5-a478-5119cd222b7f","system_id":"levelo_inurba_marseille","lat":43.33146,"lon":5.38143,"is_reserved":false,"is_disabled":false,"rental_uris":{"android":"levelo://app?vid=5c5f86d4-45e0-4ad5-a478-5119cd222b7f","ios":"levelo://app?vid=5c5f86d4-45e0-4ad5-a478-5119cd222b7f"},"vehicle_type_id":"4","last_reported":1761203502,"current_range_meters":11200,"station_id":"","pricing_plan_id":"cebpf4jnsgd1na2vs0mg"},{"bike_id":"21f32c9a-cbe7-4b38-80df-35484822c7ce","system_id":"levelo_inurba_marseille","lat":43.26683,"lon":5.38269,"is_reserved":false,"is_disabled":false,"rental_uris":{"android":"levelo://app?vid=21f32c9a-cbe7-4b38-80df-35484822c7ce","ios":"levelo://app?vid=21f32c9a-cbe7-4b38-80df-35484822c7ce"},"vehicle_type_id":"4","last_reported":1761203502,"current_range_meters":11200,"station_id":"ce4bhg92rcd13ifvqf90","pricing_plan_id":"cebpf4jnsgd1na2vs0mg"},{"bike_id":"4eae2ec4-8862-466e-a3d9-395cca4276d0","system_id":"levelo_inurba_marseille","lat":43.30324,"lon":5.37534,"is_reserved":false,"is_disabled":false,"rental_uris":{"android":"levelo://app?vid=4eae2ec4-8862-466e-a3d9-395cca4276d0","ios":"levelo://app?vid=4eae2ec4-8862-466e-a3d9-395cca4276d0"},"vehicle_type_id":"4","last_reported":1761203502,"current_range_meters":11200,"station_id":"","pricing_plan_id":"cebpf4jnsgd1na2vs0mg"},{"bike_id":"1656396b-ce0e-470e-9f40-d432e00c8827","system_id":"levelo_inurba_marseille","lat":43.296039,"lon":5.404755,"is_reserved":false,"is_disabled":false,"rental_uris":{"android":"levelo://app?vid=1656396b-ce0e-470e-9f40-d432e00c8827","ios":"levelo://app?vid=1656396b-ce0e-470e-9f40-d432e00c8827"},"vehicle_type_id":"4","last_reported":1761203502,"current_range_meters":11600,"station_id":"","pricing_plan_id":"cebpf4jnsgd1na2vs0mg"},{"bike_id":"f145a3a3-b86c-486e-a01d-79f661e506a2","system_id":"levelo_inurba_marseille","lat":43.2594,"lon":5.40894,"is_reserved":false,"is_disabled":false,"rental_uris":{"android":"levelo://app?vid=f145a3a3-b86c-486e-a01d-79f661e506a2","ios":"levelo://app?vid=f145a3a3-b86c-486e-a01d-79f661e506a2"},"vehicle_type_id":"4","last_reported":1761203502,"current_range_meters":11600,"station_id":"ce4bhm92rcd13ifvqglg","pricing_plan_id":"cebpf4jnsgd1na2vs0mg"},{"bike_id":"07e992db-48e1-481b-a50e-3b491cfc1455","system_id":"levelo_inurba_marseille","lat":43.31991,"lon":5.41291,"is_reserved":false,"is_disabled":false,"rental_uris":{"android":"levelo://app?vid=07e992db-48e1-481b-a50e-3b491cfc1455","ios":"levelo://app?vid=07e992db-48e1-481b-a50e-3b491cfc1455"},"vehicle_type_id":"4","last_reported":1761203502,"current_range_meters":11600,"station_id":"","pricing_plan_id":"cebpf4jnsgd1na2vs0mg"},{"bike_id":"79a5dac6-bfcf-4a98-8b2a-010a47911d66","system_id":"levelo_inurba_marseille","lat":43.2872,"lon":5.37927,"is_reserved":false,"is_disabled":false,"rental_uris":{"android":"levelo://app?vid=79a5dac6-bfcf-4a98-8b2a-010a47911d66","ios":"levelo://app?vid=79a5dac6-bfcf-4a98-8b2a-010a47911d66"},"vehicle_type_id":"4","last_reported":1761203502,"current_range_meters":11600,"station_id":"ce4bh9p2rcd13ifvqec0","pricing_plan_id":"cebpf4jnsgd1na2vs0mg"},{"bike_id":"12ff5a6c-9f18-4616-8b19-8177130d9f9f","system_id":"levelo_inurba_marseille","lat":43.30476,"lon":5.37905,"is_reserved":false,"is_disabled":false,"rental_uris":{"android":"levelo://app?vid=12ff5a6c-9f18-4616-8b19-8177130d9f9f","ios":"levelo://app?vid=12ff5a6c-9f18-4616-8b19-8177130d9f9f"},"vehicle_type_id":"4","last_reported":1761203502,"current_range_meters":11600,"station_id":"ce4bgup2rcd13ifvqcn0","pricing_plan_id":"cebpf4jnsgd1na2vs0mg"},{"bike_id":"f7b67f9a-ce10-4c5c-bac2-7e5464f16364","system_id":"levelo_inurba_marseille","lat":43.27292,"lon":5.40838,"is_reserved":false,"is_disabled":false,"rental_uris":{"android":"levelo://app?vid=f7b67f9a-ce10-4c5c-bac2-7e5464f16364","ios":"levelo://app?vid=f7b67f9a-ce10-4c5c-bac2-7e5464f16364"},"vehicle_type_id":"4","last_reported":1761203502,"current_range_meters":12000,"station_id":"","pricing_plan_id":"cebpf4jnsgd1na2vs0mg"},{"bike_id":"1f70c7ed-fb60-4795-b932-255c2f1bb7ec","system_id":"levelo_inurba_marseille","lat":43.25085,"lon":5.39518,"is_reserved":false,"is_disabled":false,"rental_uris":{"android":"levelo://app?vid=1f70c7ed-fb60-4795-b932-255c2f1bb7ec","ios":"levelo://app?vid=1f70c7ed-fb60-4795-b932-255c2f1bb7ec"},"vehicle_type_id":"4","last_reported":1761203502,"current_range_meters":12000,"station_id":"ce4bhm12rcd13ifvqgkg","pricing_plan_id":"cebpf4jnsgd1na2vs0mg"},{"bike_id":"7dc3a787-7b14-4505-8e32-0b28349ba8b9","system_id":"levelo_inurba_marseille","lat":43.287063,"lon":5.362525,"is_reserved":false,"is_disabled":false,"rental_uris":{"android":"levelo://app?vid=7dc3a787-7b14-4505-8e32-0b28349ba8b9","ios":"levelo://app?vid=7dc3a787-7b14-4505-8e32-0b28349ba8b9"},"vehicle_type_id":"4","last_reported":1761203502,"current_range_meters":12000,"station_id":"","pricing_plan_id":"cebpf4jnsgd1na2vs0mg"},{"bike_id":"55c40597-7324-4a12-86c1-8fcdb6f7845c","system_id":"levelo_inurba_marseille","lat":43.30163,"lon":5.38104,"is_reserved":false,"is_disabled":false,"rental_uris":{"android":"levelo://app?vid=55c40597-7324-4a12-86c1-8fcdb6f7845c","ios":"levelo://app?vid=55c40597-7324-4a12-86c1-8fcdb6f7845c"},"vehicle_type_id":"4","last_reported":1761203502,"current_range_meters":12000,"station_id":"ce4bgjp2rcd13ifvqbh0","pricing_plan_id":"cebpf4jnsgd1na2vs0mg"},{"bike_id":"e26a4ba5-d1f0-450a-a9c3-d00a5fad899d","system_id":"levelo_inurba_marseille","lat":43.241642,"lon":5.36399,"is_reserved":false,"is_disabled":false,"rental_uris":{"android":"levelo://app?vid=e26a4ba5-d1f0-450a-a9c3-d00a5fad899d","ios":"levelo://app?vid=e26a4ba5-d1f0-450a-a9c3-d00a5fad899d"},"vehicle_type_id":"4","last_reported":1761203502,"current_range_meters":12000,"station_id":"cpo36qri1sfpv3e86is0","pricing_plan_id":"cebpf4jnsgd1na2vs0mg"},{"bike_id":"618a9c44-e479-45b6-b144-58d3228e3132","system_id":"levelo_inurba_marseille","lat":43.246431,"lon":5.388851,"is_reserved":false,"is_disabled":false,"rental_uris":{"android":"levelo://app?vid=618a9c44-e479-45b6-b144-58d3228e3132","ios":"levelo://app?vid=618a9c44-e479-45b6-b144-58d3228e3132"},"vehicle_type_id":"4","last_reported":1761203502,"current_range_meters":12000,"station_id":"ce4bhg12rcd13ifvqf60","pricing_plan_id":"cebpf4jnsgd1na2vs0mg"},{"bike_id":"42c10a81-4282-433c-b6ed-af87c64d507f","system_id":"levelo_inurba_marseille","lat":43.32479,"lon":5.36561,"is_reserved":false,"is_disabled":false,"rental_uris":{"android":"levelo://app?vid=42c10a81-4282-433c-b6ed-af87c64d507f","ios":"levelo://app?vid=42c10a81-4282-433c-b6ed-af87c64d507f"},"vehicle_type_id":"4","last_reported":1761203502,"current_range_meters":12000,"station_id":"ce4bhs12rcd13ifvqhvg","pricing_plan_id":"cebpf4jnsgd1na2vs0mg"},{"bike_id":"1129bb9a-168a-4dd5-9a03-dd61aa588272","system_id":"levelo_inurba_marseille","lat":43.30151,"lon":5.38086,"is_reserved":false,"is_disabled":false,"rental_uris":{"android":"levelo://app?vid=1129bb9a-168a-4dd5-9a03-dd61aa588272","ios":"levelo://app?vid=1129bb9a-168a-4dd5-9a03-dd61aa588272"},"vehicle_type_id":"4","last_reported":1761203502,"current_range_meters":12000,"station_id":"ce4bgjp2rcd13ifvqbh0","pricing_plan_id":"cebpf4jnsgd1na2vs0mg"},{"bike_id":"b77ac760-d20f-43b1-8924-fa7f1c41077a","system_id":"levelo_inurba_marseille","lat":43.31708,"lon":5.37742,"is_reserved":false,"is_disabled":false,"rental_uris":{"android":"levelo://app?vid=b77ac760-d20f-43b1-8924-fa7f1c41077a","ios":"levelo://app?vid=b77ac760-d20f-43b1-8924-fa7f1c41077a"},"vehicle_type_id":"4","last_reported":1761203502,"current_range_meters":12000,"station_id":"ce4bgth2rcd13ifvqch0","pricing_plan_id":"cebpf4jnsgd1na2vs0mg"},{"bike_id":"421fa416-437e-4c41-a4d8-bc5f181972fe","system_id":"levelo_inurba_marseille","lat":43.3123,"lon":5.36876,"is_reserved":false,"is_disabled":false,"rental_uris":{"android":"levelo://app?vid=421fa416-437e-4c41-a4d8-bc5f181972fe","ios":"levelo://app?vid=421fa416-437e-4c41-a4d8-bc5f181972fe"},"vehicle_type_id":"4","last_reported":1761203502,"current_range_meters":12400,"station_id":"ce4bgl92rcd13ifvqbq0","pricing_plan_id":"cebpf4jnsgd1na2vs0mg"},{"bike_id":"ea886e01-8738-4e9f-8316-33a3ef2f4c84","system_id":"levelo_inurba_marseille","lat":43.26787,"lon":5.39406,"is_reserved":false,"is_disabled":false,"rental_uris":{"android":"levelo://app?vid=ea886e01-8738-4e9f-8316-33a3ef2f4c84","ios":"levelo://app?vid=ea886e01-8738-4e9f-8316-33a3ef2f4c84"},"vehicle_type_id":"4","last_reported":1761203502,"current_range_meters":12400,"station_id":"ce4bhh12rcd13ifvqfg0","pricing_plan_id":"cebpf4jnsgd1na2vs0mg"},{"bike_id":"9d914b44-5abb-47e1-b3ad-da752bc673cb","system_id":"levelo_inurba_marseille","lat":43.27309,"lon":5.39074,"is_reserved":false,"is_disabled":false,"rental_uris":{"android":"levelo://app?vid=9d914b44-5abb-47e1-b3ad-da752bc673cb","ios":"levelo://app?vid=9d914b44-5abb-47e1-b3ad-da752bc673cb"},"vehicle_type_id":"4","last_reported":1761203502,"current_range_meters":12400,"station_id":"ce4bhgp2rcd13ifvqfe0","pricing_plan_id":"cebpf4jnsgd1na2vs0mg"},{"bike_id":"2d24ac31-78f9-481b-9d5c-ea0a58464439","system_id":"levelo_inurba_marseille","lat":43.29198,"lon":5.4227,"is_reserved":false,"is_disabled":false,"rental_uris":{"android":"levelo://app?vid=2d24ac31-78f9-481b-9d5c-ea0a58464439","ios":"levelo://app?vid=2d24ac31-78f9-481b-9d5c-ea0a58464439"},"vehicle_type_id":"4","last_reported":1761203502,"current_range_meters":12400,"station_id":"","pricing_plan_id":"cebpf4jnsgd1na2vs0mg"},{"bike_id":"77c71a63-d782-4f3b-aa61-5d18c1de81dc","system_id":"levelo_inurba_marseille","lat":43.28568,"lon":5.39501,"is_reserved":false,"is_disabled":true,"rental_uris":{"android":"levelo://app?vid=77c71a63-d782-4f3b-aa61-5d18c1de81dc","ios":"levelo://app?vid=77c71a63-d782-4f3b-aa61-5d18c1de81dc"},"vehicle_type_id":"4","last_reported":1761203502,"current_range_meters":12400,"station_id":"ce4bh292rcd13ifvqdg0","pricing_plan_id":"cebpf4jnsgd1na2vs0mg"},{"bike_id":"c775e1ea-9a62-4435-8d4f-004bf2c26047","system_id":"levelo_inurba_marseille","lat":43.298225,"lon":5.440676,"is_reserved":false,"is_disabled":false,"rental_uris":{"android":"levelo://app?vid=c775e1ea-9a62-4435-8d4f-004bf2c26047","ios":"levelo://app?vid=c775e1ea-9a62-4435-8d4f-004bf2c26047"},"vehicle_type_id":"4","last_reported":1761203502,"current_range_meters":12800,"station_id":"st_d3jp68qikq2c7381ktn0","pricing_plan_id":"cebpf4jnsgd1na2vs0mg"},{"bike_id":"c8c0fa58-a519-4343-9887-b0c694f93aef","system_id":"levelo_inurba_marseille","lat":43.28903,"lon":5.42539,"is_reserved":false,"is_disabled":false,"rental_uris":{"android":"levelo://app?vid=c8c0fa58-a519-4343-9887-b0c694f93aef","ios":"levelo://app?vid=c8c0fa58-a519-4343-9887-b0c694f93aef"},"vehicle_type_id":"4","last_reported":1761203502,"current_range_meters":12800,"station_id":"st_d3b462108ojc7389ooeg","pricing_plan_id":"cebpf4jnsgd1na2vs0mg"},{"bike_id":"61525fe3-26d4-4c5c-a075-e59599c296c4","system_id":"levelo_inurba_marseille","lat":43.31475,"lon":5.39276,"is_reserved":false,"is_disabled":false,"rental_uris":{"android":"levelo://app?vid=61525fe3-26d4-4c5c-a075-e59599c296c4","ios":"levelo://app?vid=61525fe3-26d4-4c5c-a075-e59599c296c4"},"vehicle_type_id":"4","last_reported":1761203502,"current_range_meters":12800,"station_id":"","pricing_plan_id":"cebpf4jnsgd1na2vs0mg"},{"bike_id":"ac9b5b0f-8735-4757-8bf2-f97e3f542d3a","system_id":"levelo_inurba_marseille","lat":43.30549,"lon":5.3653,"is_reserved":false,"is_disabled":false,"rental_uris":{"android":"levelo://app?vid=ac9b5b0f-8735-4757-8bf2-f97e3f542d3a","ios":"levelo://app?vid=ac9b5b0f-8735-4757-8bf2-f97e3f542d3a"},"vehicle_type_id":"4","last_reported":1761203502,"current_range_meters":12800,"station_id":"ce4bgs12rcd13ifvqcag","pricing_plan_id":"cebpf4jnsgd1na2vs0mg"},{"bike_id":"35cd0434-7a6e-4f91-88cd-e538b9ac2128","system_id":"levelo_inurba_marseille","lat":43.30894,"lon":5.36854,"is_reserved":false,"is_disabled":false,"rental_uris":{"android":"levelo://app?vid=35cd0434-7a6e-4f91-88cd-e538b9ac2128","ios":"levelo://app?vid=35cd0434-7a6e-4f91-88cd-e538b9ac2128"},"vehicle_type_id":"4","last_reported":1761203502,"current_range_meters":12800,"station_id":"ce4bgn92rcd13ifvqbvg","pricing_plan_id":"cebpf4jnsgd1na2vs0mg"},{"bike_id":"a8c54fc0-fa67-4a1f-a261-d4ae32b66c04","system_id":"levelo_inurba_marseille","lat":43.31299,"lon":5.40447,"is_reserved":false,"is_disabled":false,"rental_uris":{"android":"levelo://app?vid=a8c54fc0-fa67-4a1f-a261-d4ae32b66c04","ios":"levelo://app?vid=a8c54fc0-fa67-4a1f-a261-d4ae32b66c04"},"vehicle_type_id":"4","last_reported":1761203502,"current_range_meters":12800,"station_id":"","pricing_plan_id":"cebpf4jnsgd1na2vs0mg"},{"bike_id":"8dac63b5-a0c8-4bb9-b2e2-d96c874efeee","system_id":"levelo_inurba_marseille","lat":43.33609,"lon":5.41034,"is_reserved":false,"is_disabled":false,"rental_uris":{"android":"levelo://app?vid=8dac63b5-a0c8-4bb9-b2e2-d96c874efeee","ios":"levelo://app?vid=8dac63b5-a0c8-4bb9-b2e2-d96c874efeee"},"vehicle_type_id":"4","last_reported":1761203502,"current_range_meters":12800,"station_id":"ce4bhqh2rcd13ifvqhmg","pricing_plan_id":"cebpf4jnsgd1na2vs0mg"},{"bike_id":"e811fd86-09b5-461d-a17d-9f84d1d0051d","system_id":"levelo_inurba_marseille","lat":43.30434,"lon":5.38895,"is_reserved":false,"is_disabled":false,"rental_uris":{"android":"levelo://app?vid=e811fd86-09b5-461d-a17d-9f84d1d0051d","ios":"levelo://app?vid=e811fd86-09b5-461d-a17d-9f84d1d0051d"},"vehicle_type_id":"4","last_reported":1761203502,"current_range_meters":12800,"station_id":"ce4bgk12rcd13ifvqbi0","pricing_plan_id":"cebpf4jnsgd1na2vs0mg"},{"bike_id":"6a6ef9f8-4216-4e4c-a3bc-adc84b8a6466","system_id":"levelo_inurba_marseille","lat":43.25001,"lon":5.38922,"is_reserved":false,"is_disabled":false,"rental_uris":{"android":"levelo://app?vid=6a6ef9f8-4216-4e4c-a3bc-adc84b8a6466","ios":"levelo://app?vid=6a6ef9f8-4216-4e4c-a3bc-adc84b8a6466"},"vehicle_type_id":"4","last_reported":1761203502,"current_range_meters":12800,"station_id":"ce4bhgp2rcd13ifvqfd0","pricing_plan_id":"cebpf4jnsgd1na2vs0mg"},{"bike_id":"d59bf119-d6cb-4ad0-8809-efcb4f8dd276","system_id":"levelo_inurba_marseille","lat":43.29834,"lon":5.44906,"is_reserved":false,"is_disabled":false,"rental_uris":{"android":"levelo://app?vid=d59bf119-d6cb-4ad0-8809-efcb4f8dd276","ios":"levelo://app?vid=d59bf119-d6cb-4ad0-8809-efcb4f8dd276"},"vehicle_type_id":"4","last_reported":1761203502,"current_range_meters":12800,"station_id":"","pricing_plan_id":"cebpf4jnsgd1na2vs0mg"},{"bike_id":"32e7919e-26d8-4f7d-b229-086147816fa4","system_id":"levelo_inurba_marseille","lat":43.301286,"lon":5.38775,"is_reserved":false,"is_disabled":false,"rental_uris":{"android":"levelo://app?vid=32e7919e-26d8-4f7d-b229-086147816fa4","ios":"levelo://app?vid=32e7919e-26d8-4f7d-b229-086147816fa4"},"vehicle_type_id":"4","last_reported":1761203502,"current_range_meters":13600,"station_id":"","pricing_plan_id":"cebpf4jnsgd1na2vs0mg"},{"bike_id":"5d5c8f38-d6be-405f-9279-25f495afa6ba","system_id":"levelo_inurba_marseille","lat":43.231481,"lon":5.436639,"is_reserved":false,"is_disabled":false,"rental_uris":{"android":"levelo://app?vid=5d5c8f38-d6be-405f-9279-25f495afa6ba","ios":"levelo://app?vid=5d5c8f38-d6be-405f-9279-25f495afa6ba"},"vehicle_type_id":"4","last_reported":1761203502,"current_range_meters":13600,"station_id":"ce4bhmp2rcd13ifvqgog","pricing_plan_id":"cebpf4jnsgd1na2vs0mg"},{"bike_id":"d9247930-f477-4727-872b-24c5b02f6614","system_id":"levelo_inurba_marseille","lat":43.27196,"lon":5.40983,"is_reserved":false,"is_disabled":false,"rental_uris":{"android":"levelo://app?vid=d9247930-f477-4727-872b-24c5b02f6614","ios":"levelo://app?vid=d9247930-f477-4727-872b-24c5b02f6614"},"vehicle_type_id":"4","last_reported":1761203502,"current_range_meters":13600,"station_id":"ce4bhl12rcd13ifvqgf0","pricing_plan_id":"cebpf4jnsgd1na2vs0mg"},{"bike_id":"71d530ff-c617-4500-862e-2196508ef7cb","system_id":"levelo_inurba_marseille","lat":43.23779,"lon":5.36636,"is_reserved":false,"is_disabled":false,"rental_uris":{"android":"levelo://app?vid=71d530ff-c617-4500-862e-2196508ef7cb","ios":"levelo://app?vid=71d530ff-c617-4500-862e-2196508ef7cb"},"vehicle_type_id":"4","last_reported":1761203502,"current_range_meters":14000,"station_id":"st_d3nk18o9ro0c73en2l3g","pricing_plan_id":"cebpf4jnsgd1na2vs0mg"},{"bike_id":"e7169dda-7ea9-47e9-8798-78e9288152cb","system_id":"levelo_inurba_marseille","lat":43.30471,"lon":5.38947,"is_reserved":false,"is_disabled":false,"rental_uris":{"android":"levelo://app?vid=e7169dda-7ea9-47e9-8798-78e9288152cb","ios":"levelo://app?vid=e7169dda-7ea9-47e9-8798-78e9288152cb"},"vehicle_type_id":"4","last_reported":1761203502,"current_range_meters":14000,"station_id":"","pricing_plan_id":"cebpf4jnsgd1na2vs0mg"},{"bike_id":"32fca576-7bbd-43c5-9ee3-418ca028c84f","system_id":"levelo_inurba_marseille","lat":43.3055,"lon":5.36703,"is_reserved":false,"is_disabled":true,"rental_uris":{"android":"levelo://app?vid=32fca576-7bbd-43c5-9ee3-418ca028c84f","ios":"levelo://app?vid=32fca576-7bbd-43c5-9ee3-418ca028c84f"},"vehicle_type_id":"4","last_reported":1761203502,"current_range_meters":14000,"station_id":"ce4bgrp2rcd13ifvqc9g","pricing_plan_id":"cebpf4jnsgd1na2vs0mg"},{"bike_id":"56880329-4c76-4c4e-84a7-3c605e225585","system_id":"levelo_inurba_marseille","lat":43.33737,"lon":5.3917,"is_reserved":false,"is_disabled":false,"rental_uris":{"android":"levelo://app?vid=56880329-4c76-4c4e-84a7-3c605e225585","ios":"levelo://app?vid=56880329-4c76-4c4e-84a7-3c605e225585"},"vehicle_type_id":"4","last_reported":1761203502,"current_range_meters":14000,"station_id":"ce4bhr92rcd13ifvqhsg","pricing_plan_id":"cebpf4jnsgd1na2vs0mg"},{"bike_id":"1aaa028d-93d8-4a20-8355-7a4b17d8620a","system_id":"levelo_inurba_marseille","lat":43.27628,"lon":5.39213,"is_reserved":false,"is_disabled":false,"rental_uris":{"android":"levelo://app?vid=1aaa028d-93d8-4a20-8355-7a4b17d8620a","ios":"levelo://app?vid=1aaa028d-93d8-4a20-8355-7a4b17d8620a"},"vehicle_type_id":"4","last_reported":1761203502,"current_range_meters":14000,"station_id":"","pricing_plan_id":"cebpf4jnsgd1na2vs0mg"},{"bike_id":"b47656b5-24c6-4cdc-ad67-1d843e8edbeb","system_id":"levelo_inurba_marseille","lat":43.30739,"lon":5.42431,"is_reserved":false,"is_disabled":false,"rental_uris":{"android":"levelo://app?vid=b47656b5-24c6-4cdc-ad67-1d843e8edbeb","ios":"levelo://app?vid=b47656b5-24c6-4cdc-ad67-1d843e8edbeb"},"vehicle_type_id":"4","last_reported":1761203502,"current_range_meters":14000,"station_id":"st_cvj6ca6bvosntc0bfgr0","pricing_plan_id":"cebpf4jnsgd1na2vs0mg"},{"bike_id":"a43df4c7-330a-48d4-890f-5d1e302ce2ae","system_id":"levelo_inurba_marseille","lat":43.2941,"lon":5.39368,"is_reserved":false,"is_disabled":true,"rental_uris":{"android":"levelo://app?vid=a43df4c7-330a-48d4-890f-5d1e302ce2ae","ios":"levelo://app?vid=a43df4c7-330a-48d4-890f-5d1e302ce2ae"},"vehicle_type_id":"4","last_reported":1761203502,"current_range_meters":14000,"station_id":"","pricing_plan_id":"cebpf4jnsgd1na2vs0mg"},{"bike_id":"737b6502-b2d8-4ff2-afe9-c292d5158bef","system_id":"levelo_inurba_marseille","lat":43.292574,"lon":5.384373,"is_reserved":false,"is_disabled":false,"rental_uris":{"android":"levelo://app?vid=737b6502-b2d8-4ff2-afe9-c292d5158bef","ios":"levelo://app?vid=737b6502-b2d8-4ff2-afe9-c292d5158bef"},"vehicle_type_id":"4","last_reported":1761203502,"current_range_meters":14400,"station_id":"ce4bgip2rcd13ifvqbb0","pricing_plan_id":"cebpf4jnsgd1na2vs0mg"},{"bike_id":"0198280f-05b0-401c-b9f2-7586dff77353","system_id":"levelo_inurba_marseille","lat":43.288944,"lon":5.377983,"is_reserved":false,"is_disabled":false,"rental_uris":{"android":"levelo://app?vid=0198280f-05b0-401c-b9f2-7586dff77353","ios":"levelo://app?vid=0198280f-05b0-401c-b9f2-7586dff77353"},"vehicle_type_id":"4","last_reported":1761203502,"current_range_meters":14400,"station_id":"","pricing_plan_id":"cebpf4jnsgd1na2vs0mg"},{"bike_id":"22556366-5b35-4879-b6f5-b944bfc8418c","system_id":"levelo_inurba_marseille","lat":43.30153,"lon":5.38095,"is_reserved":false,"is_disabled":true,"rental_uris":{"android":"levelo://app?vid=22556366-5b35-4879-b6f5-b944bfc8418c","ios":"levelo://app?vid=22556366-5b35-4879-b6f5-b944bfc8418c"},"vehicle_type_id":"4","last_reported":1761203502,"current_range_meters":14400,"station_id":"ce4bgjp2rcd13ifvqbh0","pricing_plan_id":"cebpf4jnsgd1na2vs0mg"},{"bike_id":"2a22829e-2bd6-41ec-a3e5-ef826e7425d3","system_id":"levelo_inurba_marseille","lat":43.32097,"lon":5.36774,"is_reserved":false,"is_disabled":false,"rental_uris":{"android":"levelo://app?vid=2a22829e-2bd6-41ec-a3e5-ef826e7425d3","ios":"levelo://app?vid=2a22829e-2bd6-41ec-a3e5-ef826e7425d3"},"vehicle_type_id":"4","last_reported":1761203502,"current_range_meters":14400,"station_id":"ce4bhrh2rcd13ifvqhug","pricing_plan_id":"cebpf4jnsgd1na2vs0mg"},{"bike_id":"77e8774a-1780-4f13-9562-1f8ec17a37ae","system_id":"levelo_inurba_marseille","lat":43.29676,"lon":5.37622,"is_reserved":false,"is_disabled":true,"rental_uris":{"android":"levelo://app?vid=77e8774a-1780-4f13-9562-1f8ec17a37ae","ios":"levelo://app?vid=77e8774a-1780-4f13-9562-1f8ec17a37ae"},"vehicle_type_id":"4","last_reported":1761203502,"current_range_meters":14400,"station_id":"ce4bgkh2rcd13ifvqbl0","pricing_plan_id":"cebpf4jnsgd1na2vs0mg"},{"bike_id":"81f74fac-714d-4e09-988c-3b3d2c4c6ab2","system_id":"levelo_inurba_marseille","lat":43.29965,"lon":5.41321,"is_reserved":false,"is_disabled":false,"rental_uris":{"android":"levelo://app?vid=81f74fac-714d-4e09-988c-3b3d2c4c6ab2","ios":"levelo://app?vid=81f74fac-714d-4e09-988c-3b3d2c4c6ab2"},"vehicle_type_id":"4","last_reported":1761203502,"current_range_meters":14400,"station_id":"ce4bhp12rcd13ifvqh9g","pricing_plan_id":"cebpf4jnsgd1na2vs0mg"},{"bike_id":"4b9cc68c-d09f-49e6-964a-67a75198ff94","system_id":"levelo_inurba_marseille","lat":43.24621,"lon":5.43168,"is_reserved":false,"is_disabled":false,"rental_uris":{"android":"levelo://app?vid=4b9cc68c-d09f-49e6-964a-67a75198ff94","ios":"levelo://app?vid=4b9cc68c-d09f-49e6-964a-67a75198ff94"},"vehicle_type_id":"4","last_reported":1761203502,"current_range_meters":14400,"station_id":"st_d2m6c4gdas8pm72e190g","pricing_plan_id":"cebpf4jnsgd1na2vs0mg"},{"bike_id":"0322ca22-3727-41b5-86cb-6682292c28c8","system_id":"levelo_inurba_marseille","lat":43.30568,"lon":5.36735,"is_reserved":false,"is_disabled":false,"rental_uris":{"android":"levelo://app?vid=0322ca22-3727-41b5-86cb-6682292c28c8","ios":"levelo://app?vid=0322ca22-3727-41b5-86cb-6682292c28c8"},"vehicle_type_id":"4","last_reported":1761203502,"current_range_meters":14800,"station_id":"ce4bgrp2rcd13ifvqc9g","pricing_plan_id":"cebpf4jnsgd1na2vs0mg"},{"bike_id":"463a60d2-9ff3-4871-92d6-8e77bd081522","system_id":"levelo_inurba_marseille","lat":43.27679,"lon":5.38874,"is_reserved":false,"is_disabled":false,"rental_uris":{"android":"levelo://app?vid=463a60d2-9ff3-4871-92d6-8e77bd081522","ios":"levelo://app?vid=463a60d2-9ff3-4871-92d6-8e77bd081522"},"vehicle_type_id":"4","last_reported":1761203502,"current_range_meters":14800,"station_id":"ce4bhi12rcd13ifvqfo0","pricing_plan_id":"cebpf4jnsgd1na2vs0mg"},{"bike_id":"6926b0c8-4310-405d-890d-23e8b6c0b7f5","system_id":"levelo_inurba_marseille","lat":43.3048,"lon":5.37885,"is_reserved":false,"is_disabled":true,"rental_uris":{"android":"levelo://app?vid=6926b0c8-4310-405d-890d-23e8b6c0b7f5","ios":"levelo://app?vid=6926b0c8-4310-405d-890d-23e8b6c0b7f5"},"vehicle_type_id":"4","last_reported":1761203502,"current_range_meters":14800,"station_id":"ce4bgup2rcd13ifvqcn0","pricing_plan_id":"cebpf4jnsgd1na2vs0mg"},{"bike_id":"958d52bc-e1a2-4648-8f11-6f03bc0d48c0","system_id":"levelo_inurba_marseille","lat":43.30178,"lon":5.38053,"is_reserved":false,"is_disabled":false,"rental_uris":{"android":"levelo://app?vid=958d52bc-e1a2-4648-8f11-6f03bc0d48c0","ios":"levelo://app?vid=958d52bc-e1a2-4648-8f11-6f03bc0d48c0"},"vehicle_type_id":"4","last_reported":1761203502,"current_range_meters":14800,"station_id":"","pricing_plan_id":"cebpf4jnsgd1na2vs0mg"},{"bike_id":"38f39073-2a1f-4bfd-bb97-4b5d3d56bc2f","system_id":"levelo_inurba_marseille","lat":43.30462,"lon":5.37903,"is_reserved":false,"is_disabled":false,"rental_uris":{"android":"levelo://app?vid=38f39073-2a1f-4bfd-bb97-4b5d3d56bc2f","ios":"levelo://app?vid=38f39073-2a1f-4bfd-bb97-4b5d3d56bc2f"},"vehicle_type_id":"4","last_reported":1761203502,"current_range_meters":14800,"station_id":"ce4bgup2rcd13ifvqcn0","pricing_plan_id":"cebpf4jnsgd1na2vs0mg"},{"bike_id":"15efa738-ef60-4964-84a1-177d132a0166","system_id":"levelo_inurba_marseille","lat":43.30467,"lon":5.37908,"is_reserved":false,"is_disabled":true,"rental_uris":{"android":"levelo://app?vid=15efa738-ef60-4964-84a1-177d132a0166","ios":"levelo://app?vid=15efa738-ef60-4964-84a1-177d132a0166"},"vehicle_type_id":"4","last_reported":1761203502,"current_range_meters":14800,"station_id":"ce4bgup2rcd13ifvqcn0","pricing_plan_id":"cebpf4jnsgd1na2vs0mg"},{"bike_id":"e1927214-042b-4ff4-88d7-8c0645f3fb8b","system_id":"levelo_inurba_marseille","lat":43.240693,"lon":5.377607,"is_reserved":false,"is_disabled":false,"rental_uris":{"android":"levelo://app?vid=e1927214-042b-4ff4-88d7-8c0645f3fb8b","ios":"levelo://app?vid=e1927214-042b-4ff4-88d7-8c0645f3fb8b"},"vehicle_type_id":"4","last_reported":1761203502,"current_range_meters":14800,"station_id":"ce4bhnp2rcd13ifvqgvg","pricing_plan_id":"cebpf4jnsgd1na2vs0mg"},{"bike_id":"bda3ed1a-3199-4eb8-8229-577855d09dbb","system_id":"levelo_inurba_marseille","lat":43.3163,"lon":5.37876,"is_reserved":false,"is_disabled":false,"rental_uris":{"android":"levelo://app?vid=bda3ed1a-3199-4eb8-8229-577855d09dbb","ios":"levelo://app?vid=bda3ed1a-3199-4eb8-8229-577855d09dbb"},"vehicle_type_id":"4","last_reported":1761203502,"current_range_meters":14800,"station_id":"","pricing_plan_id":"cebpf4jnsgd1na2vs0mg"},{"bike_id":"ac1d94c9-090e-482b-abc1-9f1fcbb48d9d","system_id":"levelo_inurba_marseille","lat":43.2593,"lon":5.40907,"is_reserved":false,"is_disabled":false,"rental_uris":{"android":"levelo://app?vid=ac1d94c9-090e-482b-abc1-9f1fcbb48d9d","ios":"levelo://app?vid=ac1d94c9-090e-482b-abc1-9f1fcbb48d9d"},"vehicle_type_id":"4","last_reported":1761203502,"current_range_meters":14800,"station_id":"ce4bhm92rcd13ifvqglg","pricing_plan_id":"cebpf4jnsgd1na2vs0mg"},{"bike_id":"dc6c1065-e13c-4796-a5fc-7a361feeb2b8","system_id":"levelo_inurba_marseille","lat":43.3199,"lon":5.38162,"is_reserved":false,"is_disabled":false,"rental_uris":{"android":"levelo://app?vid=dc6c1065-e13c-4796-a5fc-7a361feeb2b8","ios":"levelo://app?vid=dc6c1065-e13c-4796-a5fc-7a361feeb2b8"},"vehicle_type_id":"4","last_reported":1761203502,"current_range_meters":15200,"station_id":"ce4bhr12rcd13ifvqhpg","pricing_plan_id":"cebpf4jnsgd1na2vs0mg"},{"bike_id":"f30d474c-592d-470d-816b-bf7526dcf767","system_id":"levelo_inurba_marseille","lat":43.30813,"lon":5.38134,"is_reserved":false,"is_disabled":false,"rental_uris":{"android":"levelo://app?vid=f30d474c-592d-470d-816b-bf7526dcf767","ios":"levelo://app?vid=f30d474c-592d-470d-816b-bf7526dcf767"},"vehicle_type_id":"4","last_reported":1761203502,"current_range_meters":15200,"station_id":"ce4bgt12rcd13ifvqce0","pricing_plan_id":"cebpf4jnsgd1na2vs0mg"},{"bike_id":"fe30cecb-f264-4fe0-b4a7-fca9a34f6ed4","system_id":"levelo_inurba_marseille","lat":43.290305,"lon":5.372418,"is_reserved":false,"is_disabled":true,"rental_uris":{"android":"levelo://app?vid=fe30cecb-f264-4fe0-b4a7-fca9a34f6ed4","ios":"levelo://app?vid=fe30cecb-f264-4fe0-b4a7-fca9a34f6ed4"},"vehicle_type_id":"4","last_reported":1761203502,"current_range_meters":15200,"station_id":"","pricing_plan_id":"cebpf4jnsgd1na2vs0mg"},{"bike_id":"12f3f073-c041-4658-a7f4-1022f577aab2","system_id":"levelo_inurba_marseille","lat":43.305406,"lon":5.367065,"is_reserved":false,"is_disabled":false,"rental_uris":{"android":"levelo://app?vid=12f3f073-c041-4658-a7f4-1022f577aab2","ios":"levelo://app?vid=12f3f073-c041-4658-a7f4-1022f577aab2"},"vehicle_type_id":"4","last_reported":1761203502,"current_range_meters":16000,"station_id":"ce4bh3h2rcd13ifvqdn0","pricing_plan_id":"cebpf4jnsgd1na2vs0mg"},{"bike_id":"48f81bc6-14ce-4085-a23c-e8908f44acab","system_id":"levelo_inurba_marseille","lat":43.246442,"lon":5.396271,"is_reserved":false,"is_disabled":true,"rental_uris":{"android":"levelo://app?vid=48f81bc6-14ce-4085-a23c-e8908f44acab","ios":"levelo://app?vid=48f81bc6-14ce-4085-a23c-e8908f44acab"},"vehicle_type_id":"4","last_reported":1761203502,"current_range_meters":16000,"station_id":"","pricing_plan_id":"cebpf4jnsgd1na2vs0mg"},{"bike_id":"2a6e49f6-4e9c-468c-ad7b-cdbe88b409dc","system_id":"levelo_inurba_marseille","lat":43.28583,"lon":5.37661,"is_reserved":false,"is_disabled":false,"rental_uris":{"android":"levelo://app?vid=2a6e49f6-4e9c-468c-ad7b-cdbe88b409dc","ios":"levelo://app?vid=2a6e49f6-4e9c-468c-ad7b-cdbe88b409dc"},"vehicle_type_id":"4","last_reported":1761203502,"current_range_meters":16000,"station_id":"","pricing_plan_id":"cebpf4jnsgd1na2vs0mg"},{"bike_id":"13ffca06-ecc4-46ee-aa82-6818647126c8","system_id":"levelo_inurba_marseille","lat":43.299,"lon":5.43661,"is_reserved":false,"is_disabled":false,"rental_uris":{"android":"levelo://app?vid=13ffca06-ecc4-46ee-aa82-6818647126c8","ios":"levelo://app?vid=13ffca06-ecc4-46ee-aa82-6818647126c8"},"vehicle_type_id":"4","last_reported":1761203502,"current_range_meters":16000,"station_id":"ce4bhpp2rcd13ifvqhfg","pricing_plan_id":"cebpf4jnsgd1na2vs0mg"},{"bike_id":"cccc338f-5127-4964-86cd-4721d94f422a","system_id":"levelo_inurba_marseille","lat":43.30176,"lon":5.36606,"is_reserved":false,"is_disabled":false,"rental_uris":{"android":"levelo://app?vid=cccc338f-5127-4964-86cd-4721d94f422a","ios":"levelo://app?vid=cccc338f-5127-4964-86cd-4721d94f422a"},"vehicle_type_id":"4","last_reported":1761203502,"current_range_meters":16400,"station_id":"ce4bgrh2rcd13ifvqc8g","pricing_plan_id":"cebpf4jnsgd1na2vs0mg"},{"bike_id":"78553153-3cdb-4f5d-8361-78e780c4e41f","system_id":"levelo_inurba_marseille","lat":43.30937,"lon":5.39043,"is_reserved":false,"is_disabled":false,"rental_uris":{"android":"levelo://app?vid=78553153-3cdb-4f5d-8361-78e780c4e41f","ios":"levelo://app?vid=78553153-3cdb-4f5d-8361-78e780c4e41f"},"vehicle_type_id":"4","last_reported":1761203502,"current_range_meters":16400,"station_id":"ce4bgup2rcd13ifvqco0","pricing_plan_id":"cebpf4jnsgd1na2vs0mg"},{"bike_id":"9c023054-f387-47db-bf1d-2774b5d6d642","system_id":"levelo_inurba_marseille","lat":43.31712,"lon":5.38138,"is_reserved":false,"is_disabled":false,"rental_uris":{"android":"levelo://app?vid=9c023054-f387-47db-bf1d-2774b5d6d642","ios":"levelo://app?vid=9c023054-f387-47db-bf1d-2774b5d6d642"},"vehicle_type_id":"4","last_reported":1761203502,"current_range_meters":16400,"station_id":"","pricing_plan_id":"cebpf4jnsgd1na2vs0mg"},{"bike_id":"b284a5b8-145b-4b18-970a-f541b5c0ebef","system_id":"levelo_inurba_marseille","lat":43.28556,"lon":5.39432,"is_reserved":false,"is_disabled":false,"rental_uris":{"android":"levelo://app?vid=b284a5b8-145b-4b18-970a-f541b5c0ebef","ios":"levelo://app?vid=b284a5b8-145b-4b18-970a-f541b5c0ebef"},"vehicle_type_id":"4","last_reported":1761203502,"current_range_meters":16400,"station_id":"","pricing_plan_id":"cebpf4jnsgd1na2vs0mg"},{"bike_id":"a20c1892-2d54-41f1-8d6f-6999aeb78720","system_id":"levelo_inurba_marseille","lat":43.259412,"lon":5.408982,"is_reserved":false,"is_disabled":false,"rental_uris":{"android":"levelo://app?vid=a20c1892-2d54-41f1-8d6f-6999aeb78720","ios":"levelo://app?vid=a20c1892-2d54-41f1-8d6f-6999aeb78720"},"vehicle_type_id":"4","last_reported":1761203502,"current_range_meters":16800,"station_id":"ce4bhm92rcd13ifvqglg","pricing_plan_id":"cebpf4jnsgd1na2vs0mg"},{"bike_id":"e769906a-6115-425c-84a0-aab1fda48d3f","system_id":"levelo_inurba_marseille","lat":43.29624,"lon":5.37612,"is_reserved":false,"is_disabled":false,"rental_uris":{"android":"levelo://app?vid=e769906a-6115-425c-84a0-aab1fda48d3f","ios":"levelo://app?vid=e769906a-6115-425c-84a0-aab1fda48d3f"},"vehicle_type_id":"4","last_reported":1761203502,"current_range_meters":16800,"station_id":"","pricing_plan_id":"cebpf4jnsgd1na2vs0mg"},{"bike_id":"26ecfd90-2879-4ffd-b3cb-633752b421a5","system_id":"levelo_inurba_marseille","lat":43.26553,"lon":5.37292,"is_reserved":false,"is_disabled":false,"rental_uris":{"android":"levelo://app?vid=26ecfd90-2879-4ffd-b3cb-633752b421a5","ios":"levelo://app?vid=26ecfd90-2879-4ffd-b3cb-633752b421a5"},"vehicle_type_id":"4","last_reported":1761203502,"current_range_meters":16800,"station_id":"ce4bhg12rcd13ifvqf70","pricing_plan_id":"cebpf4jnsgd1na2vs0mg"},{"bike_id":"b9764ed2-f91a-421e-b54e-d7527bd8af22","system_id":"levelo_inurba_marseille","lat":43.29811,"lon":5.36588,"is_reserved":false,"is_disabled":false,"rental_uris":{"android":"levelo://app?vid=b9764ed2-f91a-421e-b54e-d7527bd8af22","ios":"levelo://app?vid=b9764ed2-f91a-421e-b54e-d7527bd8af22"},"vehicle_type_id":"4","last_reported":1761203502,"current_range_meters":16800,"station_id":"","pricing_plan_id":"cebpf4jnsgd1na2vs0mg"},{"bike_id":"008e2b3d-d3be-4bf9-a7d5-522d6e7138ce","system_id":"levelo_inurba_marseille","lat":43.2378,"lon":5.36634,"is_reserved":false,"is_disabled":false,"rental_uris":{"android":"levelo://app?vid=008e2b3d-d3be-4bf9-a7d5-522d6e7138ce","ios":"levelo://app?vid=008e2b3d-d3be-4bf9-a7d5-522d6e7138ce"},"vehicle_type_id":"4","last_reported":1761203502,"current_range_meters":16800,"station_id":"st_d3nk18o9ro0c73en2l3g","pricing_plan_id":"cebpf4jnsgd1na2vs0mg"},{"bike_id":"f35113ad-3bc2-482a-82e3-c110a5af2643","system_id":"levelo_inurba_marseille","lat":43.30898,"lon":5.3686,"is_reserved":false,"is_disabled":false,"rental_uris":{"android":"levelo://app?vid=f35113ad-3bc2-482a-82e3-c110a5af2643","ios":"levelo://app?vid=f35113ad-3bc2-482a-82e3-c110a5af2643"},"vehicle_type_id":"4","last_reported":1761203502,"current_range_meters":16800,"station_id":"ce4bgn92rcd13ifvqbvg","pricing_plan_id":"cebpf4jnsgd1na2vs0mg"},{"bike_id":"1996ea89-9471-4d12-8066-1a9d0b7c69da","system_id":"levelo_inurba_marseille","lat":43.244025,"lon":5.370659,"is_reserved":false,"is_disabled":false,"rental_uris":{"android":"levelo://app?vid=1996ea89-9471-4d12-8066-1a9d0b7c69da","ios":"levelo://app?vid=1996ea89-9471-4d12-8066-1a9d0b7c69da"},"vehicle_type_id":"4","last_reported":1761203502,"current_range_meters":16800,"station_id":"ce4bhhh2rcd13ifvqfk0","pricing_plan_id":"cebpf4jnsgd1na2vs0mg"},{"bike_id":"8bcacd78-80de-4026-af75-b37ebe3030fe","system_id":"levelo_inurba_marseille","lat":43.334756,"lon":5.404255,"is_reserved":false,"is_disabled":false,"rental_uris":{"android":"levelo://app?vid=8bcacd78-80de-4026-af75-b37ebe3030fe","ios":"levelo://app?vid=8bcacd78-80de-4026-af75-b37ebe3030fe"},"vehicle_type_id":"4","last_reported":1761203502,"current_range_meters":16800,"station_id":"","pricing_plan_id":"cebpf4jnsgd1na2vs0mg"},{"bike_id":"3295b160-f521-4730-b38b-ab4912ff52d0","system_id":"levelo_inurba_marseille","lat":43.25939,"lon":5.40901,"is_reserved":false,"is_disabled":false,"rental_uris":{"android":"levelo://app?vid=3295b160-f521-4730-b38b-ab4912ff52d0","ios":"levelo://app?vid=3295b160-f521-4730-b38b-ab4912ff52d0"},"vehicle_type_id":"4","last_reported":1761203502,"current_range_meters":16800,"station_id":"ce4bhm92rcd13ifvqglg","pricing_plan_id":"cebpf4jnsgd1na2vs0mg"},{"bike_id":"c290267f-9b51-46bb-a262-51925a91ca82","system_id":"levelo_inurba_marseille","lat":43.29037,"lon":5.39969,"is_reserved":false,"is_disabled":false,"rental_uris":{"android":"levelo://app?vid=c290267f-9b51-46bb-a262-51925a91ca82","ios":"levelo://app?vid=c290267f-9b51-46bb-a262-51925a91ca82"},"vehicle_type_id":"4","last_reported":1761203502,"current_range_meters":17200,"station_id":"ce4bh392rcd13ifvqdm0","pricing_plan_id":"cebpf4jnsgd1na2vs0mg"},{"bike_id":"612455c0-413f-490c-98ff-9cfc2629ca12","system_id":"levelo_inurba_marseille","lat":43.34133,"lon":5.40907,"is_reserved":false,"is_disabled":false,"rental_uris":{"android":"levelo://app?vid=612455c0-413f-490c-98ff-9cfc2629ca12","ios":"levelo://app?vid=612455c0-413f-490c-98ff-9cfc2629ca12"},"vehicle_type_id":"4","last_reported":1761203502,"current_range_meters":17200,"station_id":"ce4bhqh2rcd13ifvqhlg","pricing_plan_id":"cebpf4jnsgd1na2vs0mg"},{"bike_id":"206ce9bb-93f8-4a08-b561-f32d594a1852","system_id":"levelo_inurba_marseille","lat":43.29822,"lon":5.44071,"is_reserved":false,"is_disabled":false,"rental_uris":{"android":"levelo://app?vid=206ce9bb-93f8-4a08-b561-f32d594a1852","ios":"levelo://app?vid=206ce9bb-93f8-4a08-b561-f32d594a1852"},"vehicle_type_id":"4","last_reported":1761203502,"current_range_meters":17200,"station_id":"st_d3jp68qikq2c7381ktn0","pricing_plan_id":"cebpf4jnsgd1na2vs0mg"},{"bike_id":"280bb7db-4f40-448f-8fc4-8d6f6602a1ff","system_id":"levelo_inurba_marseille","lat":43.295147,"lon":5.376074,"is_reserved":false,"is_disabled":false,"rental_uris":{"android":"levelo://app?vid=280bb7db-4f40-448f-8fc4-8d6f6602a1ff","ios":"levelo://app?vid=280bb7db-4f40-448f-8fc4-8d6f6602a1ff"},"vehicle_type_id":"4","last_reported":1761203502,"current_range_meters":17200,"station_id":"ce4bgr92rcd13ifvqc7g","pricing_plan_id":"cebpf4jnsgd1na2vs0mg"},{"bike_id":"6b37a1b8-5eb3-475e-b683-fd0eb1dbf02a","system_id":"levelo_inurba_marseille","lat":43.24799,"lon":5.37461,"is_reserved":false,"is_disabled":true,"rental_uris":{"android":"levelo://app?vid=6b37a1b8-5eb3-475e-b683-fd0eb1dbf02a","ios":"levelo://app?vid=6b37a1b8-5eb3-475e-b683-fd0eb1dbf02a"},"vehicle_type_id":"4","last_reported":1761203502,"current_range_meters":17200,"station_id":"ce4bhgh2rcd13ifvqfb0","pricing_plan_id":"cebpf4jnsgd1na2vs0mg"},{"bike_id":"078081c6-88c0-4f2d-a619-261bfa8b66b2","system_id":"levelo_inurba_marseille","lat":43.29811,"lon":5.43877,"is_reserved":false,"is_disabled":false,"rental_uris":{"android":"levelo://app?vid=078081c6-88c0-4f2d-a619-261bfa8b66b2","ios":"levelo://app?vid=078081c6-88c0-4f2d-a619-261bfa8b66b2"},"vehicle_type_id":"4","last_reported":1761203502,"current_range_meters":17200,"station_id":"","pricing_plan_id":"cebpf4jnsgd1na2vs0mg"},{"bike_id":"2617b07a-bfe1-486a-a657-590c454f7dd1","system_id":"levelo_inurba_marseille","lat":43.309447,"lon":5.390218,"is_reserved":false,"is_disabled":false,"rental_uris":{"android":"levelo://app?vid=2617b07a-bfe1-486a-a657-590c454f7dd1","ios":"levelo://app?vid=2617b07a-bfe1-486a-a657-590c454f7dd1"},"vehicle_type_id":"4","last_reported":1761203502,"current_range_meters":17200,"station_id":"","pricing_plan_id":"cebpf4jnsgd1na2vs0mg"},{"bike_id":"b22be85e-6002-4da5-ac08-32ea5ad544d1","system_id":"levelo_inurba_marseille","lat":43.32474,"lon":5.36566,"is_reserved":false,"is_disabled":false,"rental_uris":{"android":"levelo://app?vid=b22be85e-6002-4da5-ac08-32ea5ad544d1","ios":"levelo://app?vid=b22be85e-6002-4da5-ac08-32ea5ad544d1"},"vehicle_type_id":"4","last_reported":1761203502,"current_range_meters":17200,"station_id":"ce4bhs12rcd13ifvqhvg","pricing_plan_id":"cebpf4jnsgd1na2vs0mg"},{"bike_id":"96939117-35ce-41f0-9af0-fcff4726b36a","system_id":"levelo_inurba_marseille","lat":43.303797,"lon":5.42488,"is_reserved":false,"is_disabled":false,"rental_uris":{"android":"levelo://app?vid=96939117-35ce-41f0-9af0-fcff4726b36a","ios":"levelo://app?vid=96939117-35ce-41f0-9af0-fcff4726b36a"},"vehicle_type_id":"4","last_reported":1761203502,"current_range_meters":17600,"station_id":"ce4bhoh2rcd13ifvqh6g","pricing_plan_id":"cebpf4jnsgd1na2vs0mg"},{"bike_id":"d1229fdb-df7c-411f-b79e-7b9f1523d47b","system_id":"levelo_inurba_marseille","lat":43.30462,"lon":5.37911,"is_reserved":false,"is_disabled":false,"rental_uris":{"android":"levelo://app?vid=d1229fdb-df7c-411f-b79e-7b9f1523d47b","ios":"levelo://app?vid=d1229fdb-df7c-411f-b79e-7b9f1523d47b"},"vehicle_type_id":"4","last_reported":1761203502,"current_range_meters":17600,"station_id":"ce4bgup2rcd13ifvqcn0","pricing_plan_id":"cebpf4jnsgd1na2vs0mg"},{"bike_id":"142aacb7-1ed6-4fc3-8b6b-99c8d1c3c7dd","system_id":"levelo_inurba_marseille","lat":43.31715,"lon":5.42415,"is_reserved":false,"is_disabled":false,"rental_uris":{"android":"levelo://app?vid=142aacb7-1ed6-4fc3-8b6b-99c8d1c3c7dd","ios":"levelo://app?vid=142aacb7-1ed6-4fc3-8b6b-99c8d1c3c7dd"},"vehicle_type_id":"4","last_reported":1761203502,"current_range_meters":17600,"station_id":"ce4bhp92rcd13ifvqhbg","pricing_plan_id":"cebpf4jnsgd1na2vs0mg"},{"bike_id":"4b57f639-91e4-4b76-b70a-71ec481a791c","system_id":"levelo_inurba_marseille","lat":43.25076,"lon":5.40335,"is_reserved":false,"is_disabled":false,"rental_uris":{"android":"levelo://app?vid=4b57f639-91e4-4b76-b70a-71ec481a791c","ios":"levelo://app?vid=4b57f639-91e4-4b76-b70a-71ec481a791c"},"vehicle_type_id":"4","last_reported":1761203502,"current_range_meters":17600,"station_id":"ce4bhlh2rcd13ifvqgig","pricing_plan_id":"cebpf4jnsgd1na2vs0mg"},{"bike_id":"0e693f24-b475-4e05-8789-fe144bc148e8","system_id":"levelo_inurba_marseille","lat":43.28866,"lon":5.42533,"is_reserved":false,"is_disabled":false,"rental_uris":{"android":"levelo://app?vid=0e693f24-b475-4e05-8789-fe144bc148e8","ios":"levelo://app?vid=0e693f24-b475-4e05-8789-fe144bc148e8"},"vehicle_type_id":"4","last_reported":1761203502,"current_range_meters":17600,"station_id":"st_d3b462108ojc7389ooeg","pricing_plan_id":"cebpf4jnsgd1na2vs0mg"},{"bike_id":"7b113150-9a3e-408d-be60-f73dcbe6efbf","system_id":"levelo_inurba_marseille","lat":43.24812,"lon":5.37464,"is_reserved":false,"is_disabled":false,"rental_uris":{"android":"levelo://app?vid=7b113150-9a3e-408d-be60-f73dcbe6efbf","ios":"levelo://app?vid=7b113150-9a3e-408d-be60-f73dcbe6efbf"},"vehicle_type_id":"4","last_reported":1761203502,"current_range_meters":17600,"station_id":"ce4bhgh2rcd13ifvqfb0","pricing_plan_id":"cebpf4jnsgd1na2vs0mg"},{"bike_id":"136da621-2d9c-4f20-a292-90e86c48711c","system_id":"levelo_inurba_marseille","lat":43.23149,"lon":5.43714,"is_reserved":false,"is_disabled":false,"rental_uris":{"android":"levelo://app?vid=136da621-2d9c-4f20-a292-90e86c48711c","ios":"levelo://app?vid=136da621-2d9c-4f20-a292-90e86c48711c"},"vehicle_type_id":"4","last_reported":1761203502,"current_range_meters":17600,"station_id":"ce4bhmp2rcd13ifvqgog","pricing_plan_id":"cebpf4jnsgd1na2vs0mg"},{"bike_id":"2172ef7f-240b-4c72-bf8d-26c79cc1f73d","system_id":"levelo_inurba_marseille","lat":43.29895,"lon":5.43662,"is_reserved":false,"is_disabled":false,"rental_uris":{"android":"levelo://app?vid=2172ef7f-240b-4c72-bf8d-26c79cc1f73d","ios":"levelo://app?vid=2172ef7f-240b-4c72-bf8d-26c79cc1f73d"},"vehicle_type_id":"4","last_reported":1761203502,"current_range_meters":18000,"station_id":"ce4bhpp2rcd13ifvqhfg","pricing_plan_id":"cebpf4jnsgd1na2vs0mg"},{"bike_id":"e986eb56-ca00-4dbf-ada0-578bc3d8f529","system_id":"levelo_inurba_marseille","lat":43.27321,"lon":5.41416,"is_reserved":false,"is_disabled":false,"rental_uris":{"android":"levelo://app?vid=e986eb56-ca00-4dbf-ada0-578bc3d8f529","ios":"levelo://app?vid=e986eb56-ca00-4dbf-ada0-578bc3d8f529"},"vehicle_type_id":"4","last_reported":1761203502,"current_range_meters":18000,"station_id":"","pricing_plan_id":"cebpf4jnsgd1na2vs0mg"},{"bike_id":"bc3af3ab-f470-40b5-91c1-8dbd63ee280b","system_id":"levelo_inurba_marseille","lat":43.30422,"lon":5.38843,"is_reserved":false,"is_disabled":false,"rental_uris":{"android":"levelo://app?vid=bc3af3ab-f470-40b5-91c1-8dbd63ee280b","ios":"levelo://app?vid=bc3af3ab-f470-40b5-91c1-8dbd63ee280b"},"vehicle_type_id":"4","last_reported":1761203502,"current_range_meters":18000,"station_id":"","pricing_plan_id":"cebpf4jnsgd1na2vs0mg"},{"bike_id":"24681925-1627-4bc0-a488-83a88d18d757","system_id":"levelo_inurba_marseille","lat":43.27059,"lon":5.40258,"is_reserved":false,"is_disabled":false,"rental_uris":{"android":"levelo://app?vid=24681925-1627-4bc0-a488-83a88d18d757","ios":"levelo://app?vid=24681925-1627-4bc0-a488-83a88d18d757"},"vehicle_type_id":"4","last_reported":1761203502,"current_range_meters":18000,"station_id":"ce4bhk92rcd13ifvqgc0","pricing_plan_id":"cebpf4jnsgd1na2vs0mg"},{"bike_id":"75eebb0f-2447-4bf8-b846-45b5b359059b","system_id":"levelo_inurba_marseille","lat":43.33762,"lon":5.37487,"is_reserved":false,"is_disabled":false,"rental_uris":{"android":"levelo://app?vid=75eebb0f-2447-4bf8-b846-45b5b359059b","ios":"levelo://app?vid=75eebb0f-2447-4bf8-b846-45b5b359059b"},"vehicle_type_id":"4","last_reported":1761203502,"current_range_meters":18000,"station_id":"","pricing_plan_id":"cebpf4jnsgd1na2vs0mg"},{"bike_id":"ff3fcf70-c183-4046-b310-5c316a40bd51","system_id":"levelo_inurba_marseille","lat":43.307398,"lon":5.424432,"is_reserved":false,"is_disabled":false,"rental_uris":{"android":"levelo://app?vid=ff3fcf70-c183-4046-b310-5c316a40bd51","ios":"levelo://app?vid=ff3fcf70-c183-4046-b310-5c316a40bd51"},"vehicle_type_id":"4","last_reported":1761203502,"current_range_meters":18000,"station_id":"st_cvj6ca6bvosntc0bfgr0","pricing_plan_id":"cebpf4jnsgd1na2vs0mg"},{"bike_id":"de6614d3-f5d0-4631-a6ac-aad439cfe511","system_id":"levelo_inurba_marseille","lat":43.24549,"lon":5.39526,"is_reserved":false,"is_disabled":true,"rental_uris":{"android":"levelo://app?vid=de6614d3-f5d0-4631-a6ac-aad439cfe511","ios":"levelo://app?vid=de6614d3-f5d0-4631-a6ac-aad439cfe511"},"vehicle_type_id":"4","last_reported":1761203502,"current_range_meters":18000,"station_id":"ce4bhlp2rcd13ifvqgjg","pricing_plan_id":"cebpf4jnsgd1na2vs0mg"},{"bike_id":"3e4783b6-28d8-4737-a4ef-6a1b0da02476","system_id":"levelo_inurba_marseille","lat":43.294386,"lon":5.407074,"is_reserved":false,"is_disabled":false,"rental_uris":{"android":"levelo://app?vid=3e4783b6-28d8-4737-a4ef-6a1b0da02476","ios":"levelo://app?vid=3e4783b6-28d8-4737-a4ef-6a1b0da02476"},"vehicle_type_id":"4","last_reported":1761203502,"current_range_meters":18800,"station_id":"","pricing_plan_id":"cebpf4jnsgd1na2vs0mg"},{"bike_id":"25510b45-08cd-431b-9096-a61c2284a027","system_id":"levelo_inurba_marseille","lat":43.31701,"lon":5.38198,"is_reserved":false,"is_disabled":false,"rental_uris":{"android":"levelo://app?vid=25510b45-08cd-431b-9096-a61c2284a027","ios":"levelo://app?vid=25510b45-08cd-431b-9096-a61c2284a027"},"vehicle_type_id":"4","last_reported":1761203502,"current_range_meters":18800,"station_id":"","pricing_plan_id":"cebpf4jnsgd1na2vs0mg"},{"bike_id":"bee9ad2f-aaea-4607-9ffa-be6bd0213b89","system_id":"levelo_inurba_marseille","lat":43.33723,"lon":5.39186,"is_reserved":false,"is_disabled":true,"rental_uris":{"android":"levelo://app?vid=bee9ad2f-aaea-4607-9ffa-be6bd0213b89","ios":"levelo://app?vid=bee9ad2f-aaea-4607-9ffa-be6bd0213b89"},"vehicle_type_id":"4","last_reported":1761203502,"current_range_meters":18800,"station_id":"ce4bhr92rcd13ifvqhsg","pricing_plan_id":"cebpf4jnsgd1na2vs0mg"},{"bike_id":"692a999f-f646-43fe-b949-d58fd32447f4","system_id":"levelo_inurba_marseille","lat":43.32254,"lon":5.39417,"is_reserved":false,"is_disabled":false,"rental_uris":{"android":"levelo://app?vid=692a999f-f646-43fe-b949-d58fd32447f4","ios":"levelo://app?vid=692a999f-f646-43fe-b949-d58fd32447f4"},"vehicle_type_id":"4","last_reported":1761203502,"current_range_meters":18800,"station_id":"","pricing_plan_id":"cebpf4jnsgd1na2vs0mg"},{"bike_id":"2e729315-d8a9-44e5-b674-0356b6d089df","system_id":"levelo_inurba_marseille","lat":43.24999,"lon":5.38922,"is_reserved":false,"is_disabled":false,"rental_uris":{"android":"levelo://app?vid=2e729315-d8a9-44e5-b674-0356b6d089df","ios":"levelo://app?vid=2e729315-d8a9-44e5-b674-0356b6d089df"},"vehicle_type_id":"4","last_reported":1761203502,"current_range_meters":18800,"station_id":"ce4bhgp2rcd13ifvqfd0","pricing_plan_id":"cebpf4jnsgd1na2vs0mg"},{"bike_id":"b2c2e58f-eea0-4a43-b0b3-2b69084cca3f","system_id":"levelo_inurba_marseille","lat":43.33605,"lon":5.410375,"is_reserved":false,"is_disabled":false,"rental_uris":{"android":"levelo://app?vid=b2c2e58f-eea0-4a43-b0b3-2b69084cca3f","ios":"levelo://app?vid=b2c2e58f-eea0-4a43-b0b3-2b69084cca3f"},"vehicle_type_id":"4","last_reported":1761203502,"current_range_meters":18800,"station_id":"ce4bhqh2rcd13ifvqhmg","pricing_plan_id":"cebpf4jnsgd1na2vs0mg"},{"bike_id":"d9ecb998-ceaa-4a39-8aba-9f0e44069447","system_id":"levelo_inurba_marseille","lat":43.32147,"lon":5.38731,"is_reserved":false,"is_disabled":false,"rental_uris":{"android":"levelo://app?vid=d9ecb998-ceaa-4a39-8aba-9f0e44069447","ios":"levelo://app?vid=d9ecb998-ceaa-4a39-8aba-9f0e44069447"},"vehicle_type_id":"4","last_reported":1761203502,"current_range_meters":18800,"station_id":"","pricing_plan_id":"cebpf4jnsgd1na2vs0mg"},{"bike_id":"33041920-f691-4885-a5ca-db3ff3ddcbe6","system_id":"levelo_inurba_marseille","lat":43.28691,"lon":5.39977,"is_reserved":false,"is_disabled":false,"rental_uris":{"android":"levelo://app?vid=33041920-f691-4885-a5ca-db3ff3ddcbe6","ios":"levelo://app?vid=33041920-f691-4885-a5ca-db3ff3ddcbe6"},"vehicle_type_id":"4","last_reported":1761203502,"current_range_meters":19200,"station_id":"ce4bho92rcd13ifvqh3g","pricing_plan_id":"cebpf4jnsgd1na2vs0mg"},{"bike_id":"0a4d81c6-2647-4e67-bde2-b7adbc7ef2ba","system_id":"levelo_inurba_marseille","lat":43.285353,"lon":5.44085,"is_reserved":false,"is_disabled":true,"rental_uris":{"android":"levelo://app?vid=0a4d81c6-2647-4e67-bde2-b7adbc7ef2ba","ios":"levelo://app?vid=0a4d81c6-2647-4e67-bde2-b7adbc7ef2ba"},"vehicle_type_id":"4","last_reported":1761203502,"current_range_meters":19200,"station_id":"st_d3j3df2ikq2c7380ej80","pricing_plan_id":"cebpf4jnsgd1na2vs0mg"},{"bike_id":"6552118e-9997-496d-8ae3-3aae82824535","system_id":"levelo_inurba_marseille","lat":43.32246,"lon":5.38357,"is_reserved":false,"is_disabled":false,"rental_uris":{"android":"levelo://app?vid=6552118e-9997-496d-8ae3-3aae82824535","ios":"levelo://app?vid=6552118e-9997-496d-8ae3-3aae82824535"},"vehicle_type_id":"4","last_reported":1761203502,"current_range_meters":19200,"station_id":"","pricing_plan_id":"cebpf4jnsgd1na2vs0mg"},{"bike_id":"ba758c6c-e7ec-4971-8d5b-04a556881f85","system_id":"levelo_inurba_marseille","lat":43.240798,"lon":5.377592,"is_reserved":false,"is_disabled":false,"rental_uris":{"android":"levelo://app?vid=ba758c6c-e7ec-4971-8d5b-04a556881f85","ios":"levelo://app?vid=ba758c6c-e7ec-4971-8d5b-04a556881f85"},"vehicle_type_id":"4","last_reported":1761203502,"current_range_meters":19200,"station_id":"ce4bhnp2rcd13ifvqgvg","pricing_plan_id":"cebpf4jnsgd1na2vs0mg"},{"bike_id":"d03f4db1-680f-4018-8c48-22c52ada64e6","system_id":"levelo_inurba_marseille","lat":43.29962,"lon":5.38495,"is_reserved":false,"is_disabled":false,"rental_uris":{"android":"levelo://app?vid=d03f4db1-680f-4018-8c48-22c52ada64e6","ios":"levelo://app?vid=d03f4db1-680f-4018-8c48-22c52ada64e6"},"vehicle_type_id":"4","last_reported":1761203502,"current_range_meters":19200,"station_id":"ce4bgj92rcd13ifvqbd0","pricing_plan_id":"cebpf4jnsgd1na2vs0mg"},{"bike_id":"8501ea30-2ecd-4a94-8c65-8acd58c1650e","system_id":"levelo_inurba_marseille","lat":43.285169,"lon":5.383817,"is_reserved":false,"is_disabled":false,"rental_uris":{"android":"levelo://app?vid=8501ea30-2ecd-4a94-8c65-8acd58c1650e","ios":"levelo://app?vid=8501ea30-2ecd-4a94-8c65-8acd58c1650e"},"vehicle_type_id":"4","last_reported":1761203502,"current_range_meters":19200,"station_id":"ce4bh512rcd13ifvqe3g","pricing_plan_id":"cebpf4jnsgd1na2vs0mg"},{"bike_id":"2cd81037-3f76-464f-886c-e8714d61d459","system_id":"levelo_inurba_marseille","lat":43.23193,"lon":5.35563,"is_reserved":false,"is_disabled":false,"rental_uris":{"android":"levelo://app?vid=2cd81037-3f76-464f-886c-e8714d61d459","ios":"levelo://app?vid=2cd81037-3f76-464f-886c-e8714d61d459"},"vehicle_type_id":"4","last_reported":1761203502,"current_range_meters":19200,"station_id":"ce4bhu92rcd13ifvqi70","pricing_plan_id":"cebpf4jnsgd1na2vs0mg"},{"bike_id":"6250ac27-ee37-41d1-bc0f-a615c7912f4a","system_id":"levelo_inurba_marseille","lat":43.3235,"lon":5.36754,"is_reserved":false,"is_disabled":false,"rental_uris":{"android":"levelo://app?vid=6250ac27-ee37-41d1-bc0f-a615c7912f4a","ios":"levelo://app?vid=6250ac27-ee37-41d1-bc0f-a615c7912f4a"},"vehicle_type_id":"4","last_reported":1761203502,"current_range_meters":19600,"station_id":"ce4bhsh2rcd13ifvqi2g","pricing_plan_id":"cebpf4jnsgd1na2vs0mg"},{"bike_id":"f8c755d7-1bb8-4fcd-bb3f-74aeb49951cc","system_id":"levelo_inurba_marseille","lat":43.31367,"lon":5.379,"is_reserved":false,"is_disabled":false,"rental_uris":{"android":"levelo://app?vid=f8c755d7-1bb8-4fcd-bb3f-74aeb49951cc","ios":"levelo://app?vid=f8c755d7-1bb8-4fcd-bb3f-74aeb49951cc"},"vehicle_type_id":"4","last_reported":1761203502,"current_range_meters":19600,"station_id":"","pricing_plan_id":"cebpf4jnsgd1na2vs0mg"},{"bike_id":"7cf3e599-014b-4e61-8447-256318fe51a4","system_id":"levelo_inurba_marseille","lat":43.324763,"lon":5.365716,"is_reserved":false,"is_disabled":false,"rental_uris":{"android":"levelo://app?vid=7cf3e599-014b-4e61-8447-256318fe51a4","ios":"levelo://app?vid=7cf3e599-014b-4e61-8447-256318fe51a4"},"vehicle_type_id":"4","last_reported":1761203502,"current_range_meters":19600,"station_id":"ce4bhs12rcd13ifvqhvg","pricing_plan_id":"cebpf4jnsgd1na2vs0mg"},{"bike_id":"21a2a47d-6dc1-4394-8cbb-bff78ffc028f","system_id":"levelo_inurba_marseille","lat":43.304205,"lon":5.367725,"is_reserved":false,"is_disabled":false,"rental_uris":{"android":"levelo://app?vid=21a2a47d-6dc1-4394-8cbb-bff78ffc028f","ios":"levelo://app?vid=21a2a47d-6dc1-4394-8cbb-bff78ffc028f"},"vehicle_type_id":"4","last_reported":1761203502,"current_range_meters":19600,"station_id":"ce4bgjh2rcd13ifvqbg0","pricing_plan_id":"cebpf4jnsgd1na2vs0mg"},{"bike_id":"5db0d44d-18b4-422a-9766-a3218057e91c","system_id":"levelo_inurba_marseille","lat":43.229263,"lon":5.353804,"is_reserved":false,"is_disabled":false,"rental_uris":{"android":"levelo://app?vid=5db0d44d-18b4-422a-9766-a3218057e91c","ios":"levelo://app?vid=5db0d44d-18b4-422a-9766-a3218057e91c"},"vehicle_type_id":"4","last_reported":1761203502,"current_range_meters":19600,"station_id":"cpo3532slgdg3j2ikp40","pricing_plan_id":"cebpf4jnsgd1na2vs0mg"},{"bike_id":"9c90ecf1-76e9-46d7-8a3b-fc61a2b38e2a","system_id":"levelo_inurba_marseille","lat":43.3199,"lon":5.38162,"is_reserved":false,"is_disabled":false,"rental_uris":{"android":"levelo://app?vid=9c90ecf1-76e9-46d7-8a3b-fc61a2b38e2a","ios":"levelo://app?vid=9c90ecf1-76e9-46d7-8a3b-fc61a2b38e2a"},"vehicle_type_id":"4","last_reported":1761203502,"current_range_meters":19600,"station_id":"ce4bhr12rcd13ifvqhpg","pricing_plan_id":"cebpf4jnsgd1na2vs0mg"},{"bike_id":"5272df9f-0e34-4767-842b-7ab5533efe44","system_id":"levelo_inurba_marseille","lat":43.29254,"lon":5.4013,"is_reserved":false,"is_disabled":true,"rental_uris":{"android":"levelo://app?vid=5272df9f-0e34-4767-842b-7ab5533efe44","ios":"levelo://app?vid=5272df9f-0e34-4767-842b-7ab5533efe44"},"vehicle_type_id":"4","last_reported":1761203502,"current_range_meters":19600,"station_id":"ce4bh312rcd13ifvqdk0","pricing_plan_id":"cebpf4jnsgd1na2vs0mg"},{"bike_id":"b027c2f9-79aa-40c6-b8e2-e89c68752593","system_id":"levelo_inurba_marseille","lat":43.25587,"lon":5.38228,"is_reserved":false,"is_disabled":false,"rental_uris":{"android":"levelo://app?vid=b027c2f9-79aa-40c6-b8e2-e89c68752593","ios":"levelo://app?vid=b027c2f9-79aa-40c6-b8e2-e89c68752593"},"vehicle_type_id":"4","last_reported":1761203502,"current_range_meters":19600,"station_id":"ce4bhih2rcd13ifvqfs0","pricing_plan_id":"cebpf4jnsgd1na2vs0mg"},{"bike_id":"75552eb5-38a2-43ca-9291-cacb859b6f73","system_id":"levelo_inurba_marseille","lat":43.284215,"lon":5.349847,"is_reserved":false,"is_disabled":false,"rental_uris":{"android":"levelo://app?vid=75552eb5-38a2-43ca-9291-cacb859b6f73","ios":"levelo://app?vid=75552eb5-38a2-43ca-9291-cacb859b6f73"},"vehicle_type_id":"4","last_reported":1761203502,"current_range_meters":20000,"station_id":"","pricing_plan_id":"cebpf4jnsgd1na2vs0mg"},{"bike_id":"d404959c-313e-4e19-a9ad-eeee73d44320","system_id":"levelo_inurba_marseille","lat":43.26954,"lon":5.38631,"is_reserved":false,"is_disabled":false,"rental_uris":{"android":"levelo://app?vid=d404959c-313e-4e19-a9ad-eeee73d44320","ios":"levelo://app?vid=d404959c-313e-4e19-a9ad-eeee73d44320"},"vehicle_type_id":"4","last_reported":1761203502,"current_range_meters":20000,"station_id":"ce4bhh92rcd13ifvqfh0","pricing_plan_id":"cebpf4jnsgd1na2vs0mg"},{"bike_id":"6cdd297d-2e2a-4950-991e-1dab48aa73a2","system_id":"levelo_inurba_marseille","lat":43.29043,"lon":5.37568,"is_reserved":false,"is_disabled":false,"rental_uris":{"android":"levelo://app?vid=6cdd297d-2e2a-4950-991e-1dab48aa73a2","ios":"levelo://app?vid=6cdd297d-2e2a-4950-991e-1dab48aa73a2"},"vehicle_type_id":"4","last_reported":1761203502,"current_range_meters":20000,"station_id":"ce4bh692rcd13ifvqe90","pricing_plan_id":"cebpf4jnsgd1na2vs0mg"},{"bike_id":"a1d18262-361e-4b64-ab23-f5a2ed05d02f","system_id":"levelo_inurba_marseille","lat":43.30463,"lon":5.3791,"is_reserved":false,"is_disabled":false,"rental_uris":{"android":"levelo://app?vid=a1d18262-361e-4b64-ab23-f5a2ed05d02f","ios":"levelo://app?vid=a1d18262-361e-4b64-ab23-f5a2ed05d02f"},"vehicle_type_id":"4","last_reported":1761203502,"current_range_meters":20000,"station_id":"ce4bgup2rcd13ifvqcn0","pricing_plan_id":"cebpf4jnsgd1na2vs0mg"},{"bike_id":"7e3f0c29-c7cf-4648-8c63-90f647962dab","system_id":"levelo_inurba_marseille","lat":43.29901,"lon":5.43672,"is_reserved":false,"is_disabled":false,"rental_uris":{"android":"levelo://app?vid=7e3f0c29-c7cf-4648-8c63-90f647962dab","ios":"levelo://app?vid=7e3f0c29-c7cf-4648-8c63-90f647962dab"},"vehicle_type_id":"4","last_reported":1761203502,"current_range_meters":20000,"station_id":"ce4bhpp2rcd13ifvqhfg","pricing_plan_id":"cebpf4jnsgd1na2vs0mg"},{"bike_id":"7877ff7b-2c57-444b-afd5-738313840c1f","system_id":"levelo_inurba_marseille","lat":43.30123,"lon":5.37431,"is_reserved":false,"is_disabled":false,"rental_uris":{"android":"levelo://app?vid=7877ff7b-2c57-444b-afd5-738313840c1f","ios":"levelo://app?vid=7877ff7b-2c57-444b-afd5-738313840c1f"},"vehicle_type_id":"4","last_reported":1761203502,"current_range_meters":20000,"station_id":"ce4bgs92rcd13ifvqcc0","pricing_plan_id":"cebpf4jnsgd1na2vs0mg"},{"bike_id":"149561c8-c656-42ad-8d50-f4d8cd588673","system_id":"levelo_inurba_marseille","lat":43.31226,"lon":5.36854,"is_reserved":false,"is_disabled":false,"rental_uris":{"android":"levelo://app?vid=149561c8-c656-42ad-8d50-f4d8cd588673","ios":"levelo://app?vid=149561c8-c656-42ad-8d50-f4d8cd588673"},"vehicle_type_id":"4","last_reported":1761203502,"current_range_meters":20000,"station_id":"ce4bgl92rcd13ifvqbq0","pricing_plan_id":"cebpf4jnsgd1na2vs0mg"},{"bike_id":"9b5cd9eb-f413-467c-a059-a7b8cbfd0549","system_id":"levelo_inurba_marseille","lat":43.29689,"lon":5.37304,"is_reserved":false,"is_disabled":false,"rental_uris":{"android":"levelo://app?vid=9b5cd9eb-f413-467c-a059-a7b8cbfd0549","ios":"levelo://app?vid=9b5cd9eb-f413-467c-a059-a7b8cbfd0549"},"vehicle_type_id":"4","last_reported":1761203502,"current_range_meters":20000,"station_id":"ce4bgk12rcd13ifvqbj0","pricing_plan_id":"cebpf4jnsgd1na2vs0mg"},{"bike_id":"3d6f33e1-c051-422d-bd5d-f07b7bd5e964","system_id":"levelo_inurba_marseille","lat":43.2767,"lon":5.38872,"is_reserved":false,"is_disabled":false,"rental_uris":{"android":"levelo://app?vid=3d6f33e1-c051-422d-bd5d-f07b7bd5e964","ios":"levelo://app?vid=3d6f33e1-c051-422d-bd5d-f07b7bd5e964"},"vehicle_type_id":"4","last_reported":1761203502,"current_range_meters":20000,"station_id":"ce4bhi12rcd13ifvqfo0","pricing_plan_id":"cebpf4jnsgd1na2vs0mg"},{"bike_id":"df4a5149-caa0-44e4-8017-c00522871307","system_id":"levelo_inurba_marseille","lat":43.260747,"lon":5.403335,"is_reserved":false,"is_disabled":false,"rental_uris":{"android":"levelo://app?vid=df4a5149-caa0-44e4-8017-c00522871307","ios":"levelo://app?vid=df4a5149-caa0-44e4-8017-c00522871307"},"vehicle_type_id":"4","last_reported":1761203502,"current_range_meters":20400,"station_id":"","pricing_plan_id":"cebpf4jnsgd1na2vs0mg"},{"bike_id":"c260b4ec-b8c9-484d-9e77-c6dc0c0d20f0","system_id":"levelo_inurba_marseille","lat":43.266682,"lon":5.382444,"is_reserved":false,"is_disabled":false,"rental_uris":{"android":"levelo://app?vid=c260b4ec-b8c9-484d-9e77-c6dc0c0d20f0","ios":"levelo://app?vid=c260b4ec-b8c9-484d-9e77-c6dc0c0d20f0"},"vehicle_type_id":"4","last_reported":1761203502,"current_range_meters":20400,"station_id":"ce4bhg92rcd13ifvqf90","pricing_plan_id":"cebpf4jnsgd1na2vs0mg"},{"bike_id":"8b66ab43-0ef4-4588-9788-adb670c59fb0","system_id":"levelo_inurba_marseille","lat":43.26683,"lon":5.38266,"is_reserved":false,"is_disabled":false,"rental_uris":{"android":"levelo://app?vid=8b66ab43-0ef4-4588-9788-adb670c59fb0","ios":"levelo://app?vid=8b66ab43-0ef4-4588-9788-adb670c59fb0"},"vehicle_type_id":"4","last_reported":1761203502,"current_range_meters":20400,"station_id":"ce4bhg92rcd13ifvqf90","pricing_plan_id":"cebpf4jnsgd1na2vs0mg"},{"bike_id":"62f0a2f8-d352-4580-a096-e8ce56ffccdb","system_id":"levelo_inurba_marseille","lat":43.321026,"lon":5.367892,"is_reserved":false,"is_disabled":false,"rental_uris":{"android":"levelo://app?vid=62f0a2f8-d352-4580-a096-e8ce56ffccdb","ios":"levelo://app?vid=62f0a2f8-d352-4580-a096-e8ce56ffccdb"},"vehicle_type_id":"4","last_reported":1761203502,"current_range_meters":20400,"station_id":"ce4bhrh2rcd13ifvqhug","pricing_plan_id":"cebpf4jnsgd1na2vs0mg"},{"bike_id":"52a04b7c-586f-491c-aded-7c538741c912","system_id":"levelo_inurba_marseille","lat":43.30301,"lon":5.36908,"is_reserved":false,"is_disabled":false,"rental_uris":{"android":"levelo://app?vid=52a04b7c-586f-491c-aded-7c538741c912","ios":"levelo://app?vid=52a04b7c-586f-491c-aded-7c538741c912"},"vehicle_type_id":"4","last_reported":1761203502,"current_range_meters":20400,"station_id":"ce4bgqh2rcd13ifvqc5g","pricing_plan_id":"cebpf4jnsgd1na2vs0mg"},