{"last_updated":1727788747,"ttl":60,"version":"2.2","data":{"bikes":[{"bike_id":"4d3cd05f-bdaf-46df-aa6a-2f774239d020","system_id":"levelo_inurba_marseille","lat":43.24389,"lon":5.37061,"is_reserved":false,"is_disabled":false,"rental_uris":{"android":"levelo://app?vid=4d3cd05f-bdaf-46df-aa6a-2f774239d020","ios":"levelo://app?vid=4d3cd05f-bdaf-46df-aa6a-2f774239d020"},"vehicle_type_id":"4","last_reported":1727788748,"current_range_meters":28000,"station_id":"ce4bhhh2rcd13ifvqfk0","pricing_plan_id":"cebpf4jnsgd1na2vs0mg"},{"bike_id":"1f2935c8-9c71-4ccf-a1c2-98ee48d808e9","system_id":"levelo_inurba_marseille","lat":43.28275,"lon":5.35053,"is_reserved":false,"is_disabled":false,"rental_uris":{"android":"levelo://app?vid=1f2935c8-9c71-4ccf-a1c2-98ee48d808e9","ios":"levelo://app?vid=1f2935c8-9c71-4ccf-a1c2-98ee48d808e9"},"vehicle_type_id":"4","last_reported":1727788748,"current_range_meters":19200,"station_id":"ce4bhbp2rcd13ifvqerg","pricing_plan_id":"cebpf4jnsgd1na2vs0mg"},{"bike_id":"74ef0290-e9f4-4e41-bb8a-469f6f5e18ca","system_id":"levelo_inurba_marseille","lat":43.24807,"lon":5.37452,"is_reserved":false,"is_disabled":false,"rental_uris":{"android":"levelo://app?vid=74ef0290-e9f4-4e41-bb8a-469f6f5e18ca","ios":"levelo://app?vid=74ef0290-e9f4-4e41-bb8a-469f6f5e18ca"},"vehicle_type_id":"4","last_reported":1727788748,"current_range_meters":31200,"station_id":"","pricing_plan_id":"cebpf4jnsgd1na2vs0mg"},{"bike_id":"f46c2996-16df-4064-aec8-c2902431451c","system_id":"levelo_inurba_marseille","lat":43.32545,"lon":5.41437,"is_reserved":false,"is_disabled":false,"rental_uris":{"android":"levelo://app?vid=f46c2996-16df-4064-aec8-c2902431451c","ios":"levelo://app?vid=f46c2996-16df-4064-aec8-c2902431451c"},"vehicle_type_id":"4","last_reported":1727788748,"current_range_meters":12400,"station_id":"ce4bhq12rcd13ifvqhhg","pricing_plan_id":"cebpf4jnsgd1na2vs0mg"},{"bike_id":"45278508-ffed-42b8-b0fa-7766eabb2075","system_id":"levelo_inurba_marseille","lat":43.34144,"lon":5.40907,"is_reserved":false,"is_disabled":false,"rental_uris":{"android":"levelo://app?vid=45278508-ffed-42b8-b0fa-7766eabb2075","ios":"levelo://app?vid=45278508-ffed-42b8-b0fa-7766eabb2075"},"vehicle_type_id":"4","last_reported":1727788748,"current_range_meters":38800,"station_id":"ce4bhqh2rcd13ifvqhlg","pricing_plan_id":"cebpf4jnsgd1na2vs0mg"},{"bike_id":"7314e9a8-9839-4ed9-a3d7-54f6332cee73","system_id":"levelo_inurba_marseille","lat":43.27438,"lon":5.39433,"is_reserved":false,"is_disabled":false,"rental_uris":{"android":"levelo://app?vid=7314e9a8-9839-4ed9-a3d7-54f6332cee73","ios":"levelo://app?vid=7314e9a8-9839-4ed9-a3d7-54f6332cee73"},"vehicle_type_id":"4","last_reported":1727788748,"current_range_meters":38800,"station_id":"ce4bhdp2rcd13ifvqf20","pricing_plan_id":"cebpf4jnsgd1na2vs0mg"},{"bike_id":"dad62afc-f55e-4d7d-8a4c-c944cff61821","system_id":"levelo_inurba_marseille","lat":43.24417,"lon":5.37034,"is_reserved":false,"is_disabled":false,"rental_uris":{"android":"levelo://app?vid=dad62afc-f55e-4d7d-8a4c-c944cff61821","ios":"levelo://app?vid=dad62afc-f55e-4d7d-8a4c-c944cff61821"},"vehicle_type_id":"4","last_reported":1727788748,"current_range_meters":32000,"station_id":"ce4bhhh2rcd13ifvqfk0","pricing_plan_id":"cebpf4jnsgd1na2vs0mg"},{"bike_id":"100a6eb3-d864-4715-8031-7729c74975fb","system_id":"levelo_inurba_marseille","lat":43.280276,"lon":5.400113,"is_reserved":false,"is_disabled":false,"rental_uris":{"android":"levelo://app?vid=100a6eb3-d864-4715-8031-7729c74975fb","ios":"levelo://app?vid=100a6eb3-d864-4715-8031-7729c74975fb"},"vehicle_type_id":"4","last_reported":1727788748,"current_range_meters":6800,"station_id":"ce4bho92rcd13ifvqh4g","pricing_plan_id":"cebpf4jnsgd1na2vs0mg"},{"bike_id":"66c50969-9fb6-4348-b438-79075c202ae4","system_id":"levelo_inurba_marseille","lat":43.315261,"lon":5.380276,"is_reserved":false,"is_disabled":false,"rental_uris":{"android":"levelo://app?vid=66c50969-9fb6-4348-b438-79075c202ae4","ios":"levelo://app?vid=66c50969-9fb6-4348-b438-79075c202ae4"},"vehicle_type_id":"4","last_reported":1727788748,"current_range_meters":38000,"station_id":"ce4bhsp2rcd13ifvqi50","pricing_plan_id":"cebpf4jnsgd1na2vs0mg"},{"bike_id":"513c5bd8-bf1f-4410-a827-c1858341840c","system_id":"levelo_inurba_marseille","lat":43.2439,"lon":5.37036,"is_reserved":false,"is_disabled":false,"rental_uris":{"android":"levelo://app?vid=513c5bd8-bf1f-4410-a827-c1858341840c","ios":"levelo://app?vid=513c5bd8-bf1f-4410-a827-c1858341840c"},"vehicle_type_id":"4","last_reported":1727788748,"current_range_meters":28400,"station_id":"ce4bhhh2rcd13ifvqfk0","pricing_plan_id":"cebpf4jnsgd1na2vs0mg"},{"bike_id":"f7ab1ff5-e3c9-48ef-bb52-3f7e8d2513a3","system_id":"levelo_inurba_marseille","lat":43.30603,"lon":5.36671,"is_reserved":false,"is_disabled":false,"rental_uris":{"android":"levelo://app?vid=f7ab1ff5-e3c9-48ef-bb52-3f7e8d2513a3","ios":"levelo://app?vid=f7ab1ff5-e3c9-48ef-bb52-3f7e8d2513a3"},"vehicle_type_id":"4","last_reported":1727788748,"current_range_meters":6400,"station_id":"","pricing_plan_id":"cebpf4jnsgd1na2vs0mg"},{"bike_id":"2ea6358d-4867-4e56-a48e-1320ded0a5ed","system_id":"levelo_inurba_marseille","lat":43.30804,"lon":5.43521,"is_reserved":false,"is_disabled":false,"rental_uris":{"android":"levelo://app?vid=2ea6358d-4867-4e56-a48e-1320ded0a5ed","ios":"levelo://app?vid=2ea6358d-4867-4e56-a48e-1320ded0a5ed"},"vehicle_type_id":"4","last_reported":1727788748,"current_range_meters":4400,"station_id":"ce4bhph2rcd13ifvqheg","pricing_plan_id":"cebpf4jnsgd1na2vs0mg"},{"bike_id":"28896418-85c5-40df-b781-492df4edaf3f","system_id":"levelo_inurba_marseille","lat":43.33767,"lon":5.37439,"is_reserved":false,"is_disabled":false,"rental_uris":{"android":"levelo://app?vid=28896418-85c5-40df-b781-492df4edaf3f","ios":"levelo://app?vid=28896418-85c5-40df-b781-492df4edaf3f"},"vehicle_type_id":"4","last_reported":1727788748,"current_range_meters":38800,"station_id":"","pricing_plan_id":"cebpf4jnsgd1na2vs0mg"},{"bike_id":"89a04316-5fe6-4814-b577-c2af214f628a","system_id":"levelo_inurba_marseille","lat":43.31349,"lon":5.36713,"is_reserved":false,"is_disabled":false,"rental_uris":{"android":"levelo://app?vid=89a04316-5fe6-4814-b577-c2af214f628a","ios":"levelo://app?vid=89a04316-5fe6-4814-b577-c2af214f628a"},"vehicle_type_id":"4","last_reported":1727788748,"current_range_meters":16800,"station_id":"ce4bgr92rcd13ifvqc6g","pricing_plan_id":"cebpf4jnsgd1na2vs0mg"},{"bike_id":"05f69c3c-a0c7-4fe0-8568-2803ede07edc","system_id":"levelo_inurba_marseille","lat":43.30134,"lon":5.39853,"is_reserved":false,"is_disabled":false,"rental_uris":{"android":"levelo://app?vid=05f69c3c-a0c7-4fe0-8568-2803ede07edc","ios":"levelo://app?vid=05f69c3c-a0c7-4fe0-8568-2803ede07edc"},"vehicle_type_id":"4","last_reported":1727788748,"current_range_meters":22400,"station_id":"ce4bh0h2rcd13ifvqd40","pricing_plan_id":"cebpf4jnsgd1na2vs0mg"},{"bike_id":"bb4b662a-ee89-4f01-884b-960d14f67fbc","system_id":"levelo_inurba_marseille","lat":43.29281,"lon":5.36844,"is_reserved":false,"is_disabled":false,"rental_uris":{"android":"levelo://app?vid=bb4b662a-ee89-4f01-884b-960d14f67fbc","ios":"levelo://app?vid=bb4b662a-ee89-4f01-884b-960d14f67fbc"},"vehicle_type_id":"4","last_reported":1727788748,"current_range_meters":28400,"station_id":"ce4bhbp2rcd13ifvqesg","pricing_plan_id":"cebpf4jnsgd1na2vs0mg"},{"bike_id":"9d5cb72e-46ea-4db9-9640-1ef8ef6de092","system_id":"levelo_inurba_marseille","lat":43.23968,"lon":5.36628,"is_reserved":false,"is_disabled":false,"rental_uris":{"android":"levelo://app?vid=9d5cb72e-46ea-4db9-9640-1ef8ef6de092","ios":"levelo://app?vid=9d5cb72e-46ea-4db9-9640-1ef8ef6de092"},"vehicle_type_id":"4","last_reported":1727788748,"current_range_meters":28400,"station_id":"ce4bhi12rcd13ifvqfp0","pricing_plan_id":"cebpf4jnsgd1na2vs0mg"},{"bike_id":"9e03787a-2278-4bc0-9f90-d1b5cb4d5e8e","system_id":"levelo_inurba_marseille","lat":43.30536,"lon":5.36535,"is_reserved":false,"is_disabled":false,"rental_uris":{"android":"levelo://app?vid=9e03787a-2278-4bc0-9f90-d1b5cb4d5e8e","ios":"levelo://app?vid=9e03787a-2278-4bc0-9f90-d1b5cb4d5e8e"},"vehicle_type_id":"4","last_reported":1727788748,"current_range_meters":35200,"station_id":"ce4bgs12rcd13ifvqcag","pricing_plan_id":"cebpf4jnsgd1na2vs0mg"},{"bike_id":"72c175b3-8814-4ae8-b803-a051779554ca","system_id":"levelo_inurba_marseille","lat":43.29896,"lon":5.38146,"is_reserved":false,"is_disabled":false,"rental_uris":{"android":"levelo://app?vid=72c175b3-8814-4ae8-b803-a051779554ca","ios":"levelo://app?vid=72c175b3-8814-4ae8-b803-a051779554ca"},"vehicle_type_id":"4","last_reported":1727788748,"current_range_meters":34000,"station_id":"ce4bgj12rcd13ifvqbc0","pricing_plan_id":"cebpf4jnsgd1na2vs0mg"},{"bike_id":"552d6124-89d2-4daa-b464-f6becb1624bf","system_id":"levelo_inurba_marseille","lat":43.29608,"lon":5.37709,"is_reserved":false,"is_disabled":false,"rental_uris":{"android":"levelo://app?vid=552d6124-89d2-4daa-b464-f6becb1624bf","ios":"levelo://app?vid=552d6124-89d2-4daa-b464-f6becb1624bf"},"vehicle_type_id":"4","last_reported":1727788748,"current_range_meters":38400,"station_id":"ce4bgi92rcd13ifvqb90","pricing_plan_id":"cebpf4jnsgd1na2vs0mg"},{"bike_id":"74dcd09d-9212-4b44-9964-c7ba6bc4fdfc","system_id":"levelo_inurba_marseille","lat":43.25938,"lon":5.40896,"is_reserved":false,"is_disabled":false,"rental_uris":{"android":"levelo://app?vid=74dcd09d-9212-4b44-9964-c7ba6bc4fdfc","ios":"levelo://app?vid=74dcd09d-9212-4b44-9964-c7ba6bc4fdfc"},"vehicle_type_id":"4","last_reported":1727788748,"current_range_meters":29600,"station_id":"ce4bhm92rcd13ifvqglg","pricing_plan_id":"cebpf4jnsgd1na2vs0mg"},{"bike_id":"df6c3633-bc05-4cc6-9fc7-c8831364a947","system_id":"levelo_inurba_marseille","lat":43.27812,"lon":5.40713,"is_reserved":false,"is_disabled":false,"rental_uris":{"android":"levelo://app?vid=df6c3633-bc05-4cc6-9fc7-c8831364a947","ios":"levelo://app?vid=df6c3633-bc05-4cc6-9fc7-c8831364a947"},"vehicle_type_id":"4","last_reported":1727788748,"current_range_meters":38000,"station_id":"ce4bhnh2rcd13ifvqgtg","pricing_plan_id":"cebpf4jnsgd1na2vs0mg"},{"bike_id":"5e4a2d93-ae22-43b5-97ab-5d1ca7106f99","system_id":"levelo_inurba_marseille","lat":43.29021,"lon":5.39966,"is_reserved":false,"is_disabled":false,"rental_uris":{"android":"levelo://app?vid=5e4a2d93-ae22-43b5-97ab-5d1ca7106f99","ios":"levelo://app?vid=5e4a2d93-ae22-43b5-97ab-5d1ca7106f99"},"vehicle_type_id":"4","last_reported":1727788748,"current_range_meters":24800,"station_id":"ce501612rcd8frsf0b60","pricing_plan_id":"cebpf4jnsgd1na2vs0mg"},{"bike_id":"8a6771bf-caa7-45b8-a67c-b42d94664051","system_id":"levelo_inurba_marseille","lat":43.30149,"lon":5.38084,"is_reserved":false,"is_disabled":false,"rental_uris":{"android":"levelo://app?vid=8a6771bf-caa7-45b8-a67c-b42d94664051","ios":"levelo://app?vid=8a6771bf-caa7-45b8-a67c-b42d94664051"},"vehicle_type_id":"4","last_reported":1727788748,"current_range_meters":18000,"station_id":"ce4bgjp2rcd13ifvqbh0","pricing_plan_id":"cebpf4jnsgd1na2vs0mg"},{"bike_id":"1db383ff-72ed-474f-851f-b55e8c68f6c1","system_id":"levelo_inurba_marseille","lat":43.278626,"lon":5.416821,"is_reserved":false,"is_disabled":false,"rental_uris":{"android":"levelo://app?vid=1db383ff-72ed-474f-851f-b55e8c68f6c1","ios":"levelo://app?vid=1db383ff-72ed-474f-851f-b55e8c68f6c1"},"vehicle_type_id":"4","last_reported":1727788748,"current_range_meters":20400,"station_id":"ce4bho12rcd13ifvqh1g","pricing_plan_id":"cebpf4jnsgd1na2vs0mg"},{"bike_id":"e6b2b897-aadc-46c2-a502-96be838c904d","system_id":"levelo_inurba_marseille","lat":43.30885,"lon":5.37193,"is_reserved":false,"is_disabled":false,"rental_uris":{"android":"levelo://app?vid=e6b2b897-aadc-46c2-a502-96be838c904d","ios":"levelo://app?vid=e6b2b897-aadc-46c2-a502-96be838c904d"},"vehicle_type_id":"4","last_reported":1727788748,"current_range_meters":17600,"station_id":"ce4bguh2rcd13ifvqckg","pricing_plan_id":"cebpf4jnsgd1na2vs0mg"},{"bike_id":"0977f9e3-a717-49f8-b83e-93ee6bf99a9d","system_id":"levelo_inurba_marseille","lat":43.301281,"lon":5.398551,"is_reserved":false,"is_disabled":false,"rental_uris":{"android":"levelo://app?vid=0977f9e3-a717-49f8-b83e-93ee6bf99a9d","ios":"levelo://app?vid=0977f9e3-a717-49f8-b83e-93ee6bf99a9d"},"vehicle_type_id":"4","last_reported":1727788748,"current_range_meters":27200,"station_id":"ce4bh0h2rcd13ifvqd40","pricing_plan_id":"cebpf4jnsgd1na2vs0mg"},{"bike_id":"8a62e496-dc0f-4628-8d7e-d5ed1742230a","system_id":"levelo_inurba_marseille","lat":43.2408,"lon":5.37756,"is_reserved":false,"is_disabled":false,"rental_uris":{"android":"levelo://app?vid=8a62e496-dc0f-4628-8d7e-d5ed1742230a","ios":"levelo://app?vid=8a62e496-dc0f-4628-8d7e-d5ed1742230a"},"vehicle_type_id":"4","last_reported":1727788748,"current_range_meters":8400,"station_id":"ce4bhnp2rcd13ifvqgvg","pricing_plan_id":"cebpf4jnsgd1na2vs0mg"},{"bike_id":"cda7da42-3b1a-4306-ac4b-c0997b8af557","system_id":"levelo_inurba_marseille","lat":43.33024,"lon":5.39034,"is_reserved":false,"is_disabled":false,"rental_uris":{"android":"levelo://app?vid=cda7da42-3b1a-4306-ac4b-c0997b8af557","ios":"levelo://app?vid=cda7da42-3b1a-4306-ac4b-c0997b8af557"},"vehicle_type_id":"4","last_reported":1727788748,"current_range_meters":17600,"station_id":"ce4bhr92rcd13ifvqhrg","pricing_plan_id":"cebpf4jnsgd1na2vs0mg"},{"bike_id":"d34af3ea-1ac9-4176-9c3a-e7b3466ef0ea","system_id":"levelo_inurba_marseille","lat":43.30883,"lon":5.37191,"is_reserved":false,"is_disabled":false,"rental_uris":{"android":"levelo://app?vid=d34af3ea-1ac9-4176-9c3a-e7b3466ef0ea","ios":"levelo://app?vid=d34af3ea-1ac9-4176-9c3a-e7b3466ef0ea"},"vehicle_type_id":"4","last_reported":1727788748,"current_range_meters":28800,"station_id":"ce4bguh2rcd13ifvqckg","pricing_plan_id":"cebpf4jnsgd1na2vs0mg"},{"bike_id":"0b6260bd-aa21-44d1-9ebd-3060b01dddc4","system_id":"levelo_inurba_marseille","lat":43.27672,"lon":5.38875,"is_reserved":false,"is_disabled":false,"rental_uris":{"android":"levelo://app?vid=0b6260bd-aa21-44d1-9ebd-3060b01dddc4","ios":"levelo://app?vid=0b6260bd-aa21-44d1-9ebd-3060b01dddc4"},"vehicle_type_id":"4","last_reported":1727788748,"current_range_meters":38400,"station_id":"ce4bhi12rcd13ifvqfo0","pricing_plan_id":"cebpf4jnsgd1na2vs0mg"},{"bike_id":"8076514f-f84f-4478-8db6-e418ad32797e","system_id":"levelo_inurba_marseille","lat":43.25721,"lon":5.41106,"is_reserved":false,"is_disabled":false,"rental_uris":{"android":"levelo://app?vid=8076514f-f84f-4478-8db6-e418ad32797e","ios":"levelo://app?vid=8076514f-f84f-4478-8db6-e418ad32797e"},"vehicle_type_id":"4","last_reported":1727788748,"current_range_meters":22000,"station_id":"ce4bhkp2rcd13ifvqgd0","pricing_plan_id":"cebpf4jnsgd1na2vs0mg"},{"bike_id":"8b6093db-3634-446a-b668-55835c0dbcfb","system_id":"levelo_inurba_marseille","lat":43.2593,"lon":5.40909,"is_reserved":false,"is_disabled":false,"rental_uris":{"android":"levelo://app?vid=8b6093db-3634-446a-b668-55835c0dbcfb","ios":"levelo://app?vid=8b6093db-3634-446a-b668-55835c0dbcfb"},"vehicle_type_id":"4","last_reported":1727788748,"current_range_meters":4000,"station_id":"ce4bhm92rcd13ifvqglg","pricing_plan_id":"cebpf4jnsgd1na2vs0mg"},{"bike_id":"1905fe18-e5d0-44e3-8fcd-0a4a58d04d15","system_id":"levelo_inurba_marseille","lat":43.29917,"lon":5.3842,"is_reserved":false,"is_disabled":false,"rental_uris":{"android":"levelo://app?vid=1905fe18-e5d0-44e3-8fcd-0a4a58d04d15","ios":"levelo://app?vid=1905fe18-e5d0-44e3-8fcd-0a4a58d04d15"},"vehicle_type_id":"4","last_reported":1727788748,"current_range_meters":35600,"station_id":"","pricing_plan_id":"cebpf4jnsgd1na2vs0mg"},{"bike_id":"64d4da6a-d17c-411a-afd5-8ed42407c294","system_id":"levelo_inurba_marseille","lat":43.26214,"lon":5.37438,"is_reserved":false,"is_disabled":false,"rental_uris":{"android":"levelo://app?vid=64d4da6a-d17c-411a-afd5-8ed42407c294","ios":"levelo://app?vid=64d4da6a-d17c-411a-afd5-8ed42407c294"},"vehicle_type_id":"4","last_reported":1727788748,"current_range_meters":8800,"station_id":"ce4bhgp2rcd13ifvqfc0","pricing_plan_id":"cebpf4jnsgd1na2vs0mg"},{"bike_id":"7535af63-8abd-46ec-919d-9d3617d140d8","system_id":"levelo_inurba_marseille","lat":43.240692,"lon":5.377612,"is_reserved":false,"is_disabled":false,"rental_uris":{"android":"levelo://app?vid=7535af63-8abd-46ec-919d-9d3617d140d8","ios":"levelo://app?vid=7535af63-8abd-46ec-919d-9d3617d140d8"},"vehicle_type_id":"4","last_reported":1727788748,"current_range_meters":4000,"station_id":"ce4bhn12rcd13ifvqgpg","pricing_plan_id":"cebpf4jnsgd1na2vs0mg"},{"bike_id":"db0b98ed-fdde-428c-acbb-1c2eb3885cc5","system_id":"levelo_inurba_marseille","lat":43.25875,"lon":5.39891,"is_reserved":false,"is_disabled":false,"rental_uris":{"android":"levelo://app?vid=db0b98ed-fdde-428c-acbb-1c2eb3885cc5","ios":"levelo://app?vid=db0b98ed-fdde-428c-acbb-1c2eb3885cc5"},"vehicle_type_id":"4","last_reported":1727788748,"current_range_meters":22000,"station_id":"ce4bhl92rcd13ifvqghg","pricing_plan_id":"cebpf4jnsgd1na2vs0mg"},{"bike_id":"d8b58681-9556-4640-a208-d91d0fc1bcc2","system_id":"levelo_inurba_marseille","lat":43.30158,"lon":5.38086,"is_reserved":false,"is_disabled":false,"rental_uris":{"android":"levelo://app?vid=d8b58681-9556-4640-a208-d91d0fc1bcc2","ios":"levelo://app?vid=d8b58681-9556-4640-a208-d91d0fc1bcc2"},"vehicle_type_id":"4","last_reported":1727788748,"current_range_meters":8400,"station_id":"ce4bgjp2rcd13ifvqbh0","pricing_plan_id":"cebpf4jnsgd1na2vs0mg"},{"bike_id":"9f0e22b3-7ec7-4f79-89e5-a6b2a62dbb97","system_id":"levelo_inurba_marseille","lat":43.29784,"lon":5.37109,"is_reserved":false,"is_disabled":false,"rental_uris":{"android":"levelo://app?vid=9f0e22b3-7ec7-4f79-89e5-a6b2a62dbb97","ios":"levelo://app?vid=9f0e22b3-7ec7-4f79-89e5-a6b2a62dbb97"},"vehicle_type_id":"4","last_reported":1727788748,"current_range_meters":38400,"station_id":"ce4bgop2rcd13ifvqc1g","pricing_plan_id":"cebpf4jnsgd1na2vs0mg"},{"bike_id":"30143ae0-aa57-40f8-9254-8407a204c17c","system_id":"levelo_inurba_marseille","lat":43.2656,"lon":5.37279,"is_reserved":false,"is_disabled":false,"rental_uris":{"android":"levelo://app?vid=30143ae0-aa57-40f8-9254-8407a204c17c","ios":"levelo://app?vid=30143ae0-aa57-40f8-9254-8407a204c17c"},"vehicle_type_id":"4","last_reported":1727788748,"current_range_meters":38800,"station_id":"ce4bhg12rcd13ifvqf70","pricing_plan_id":"cebpf4jnsgd1na2vs0mg"},{"bike_id":"1dcdcf5f-3bcb-4a0d-b1b8-2ae7e82479ef","system_id":"levelo_inurba_marseille","lat":43.23154,"lon":5.437,"is_reserved":false,"is_disabled":false,"rental_uris":{"android":"levelo://app?vid=1dcdcf5f-3bcb-4a0d-b1b8-2ae7e82479ef","ios":"levelo://app?vid=1dcdcf5f-3bcb-4a0d-b1b8-2ae7e82479ef"},"vehicle_type_id":"4","last_reported":1727788748,"current_range_meters":17200,"station_id":"ce4bhmp2rcd13ifvqgog","pricing_plan_id":"cebpf4jnsgd1na2vs0mg"},{"bike_id":"4ff78b03-5f77-4417-b002-f0630bdf39d5","system_id":"levelo_inurba_marseille","lat":43.28629,"lon":5.38468,"is_reserved":false,"is_disabled":false,"rental_uris":{"android":"levelo://app?vid=4ff78b03-5f77-4417-b002-f0630bdf39d5","ios":"levelo://app?vid=4ff78b03-5f77-4417-b002-f0630bdf39d5"},"vehicle_type_id":"4","last_reported":1727788748,"current_range_meters":4000,"station_id":"","pricing_plan_id":"cebpf4jnsgd1na2vs0mg"},{"bike_id":"61655881-16c9-4131-ab8d-8f63c999894c","system_id":"levelo_inurba_marseille","lat":43.30556,"lon":5.365357,"is_reserved":false,"is_disabled":false,"rental_uris":{"android":"levelo://app?vid=61655881-16c9-4131-ab8d-8f63c999894c","ios":"levelo://app?vid=61655881-16c9-4131-ab8d-8f63c999894c"},"vehicle_type_id":"4","last_reported":1727788748,"current_range_meters":38800,"station_id":"ce4bgs12rcd13ifvqcag","pricing_plan_id":"cebpf4jnsgd1na2vs0mg"},{"bike_id":"d04f3024-d90a-48dc-ae65-30e54c324910","system_id":"levelo_inurba_marseille","lat":43.2931,"lon":5.37176,"is_reserved":false,"is_disabled":false,"rental_uris":{"android":"levelo://app?vid=d04f3024-d90a-48dc-ae65-30e54c324910","ios":"levelo://app?vid=d04f3024-d90a-48dc-ae65-30e54c324910"},"vehicle_type_id":"4","last_reported":1727788748,"current_range_meters":8800,"station_id":"ce4bgh92rcd13ifvqb50","pricing_plan_id":"cebpf4jnsgd1na2vs0mg"},{"bike_id":"339388e8-ee6b-4b29-9911-0612c4420461","system_id":"levelo_inurba_marseille","lat":43.337444,"lon":5.374475,"is_reserved":false,"is_disabled":false,"rental_uris":{"android":"levelo://app?vid=339388e8-ee6b-4b29-9911-0612c4420461","ios":"levelo://app?vid=339388e8-ee6b-4b29-9911-0612c4420461"},"vehicle_type_id":"4","last_reported":1727788748,"current_range_meters":36400,"station_id":"","pricing_plan_id":"cebpf4jnsgd1na2vs0mg"},{"bike_id":"18c6deac-9789-4077-8188-26b20599b08a","system_id":"levelo_inurba_marseille","lat":43.28345,"lon":5.3809,"is_reserved":false,"is_disabled":false,"rental_uris":{"android":"levelo://app?vid=18c6deac-9789-4077-8188-26b20599b08a","ios":"levelo://app?vid=18c6deac-9789-4077-8188-26b20599b08a"},"vehicle_type_id":"4","last_reported":1727788748,"current_range_meters":8400,"station_id":"ce4bh412rcd13ifvqdr0","pricing_plan_id":"cebpf4jnsgd1na2vs0mg"},{"bike_id":"7fb5d065-2ef8-4492-8b6f-c63a16373982","system_id":"levelo_inurba_marseille","lat":43.30538,"lon":5.36535,"is_reserved":false,"is_disabled":false,"rental_uris":{"android":"levelo://app?vid=7fb5d065-2ef8-4492-8b6f-c63a16373982","ios":"levelo://app?vid=7fb5d065-2ef8-4492-8b6f-c63a16373982"},"vehicle_type_id":"4","last_reported":1727788748,"current_range_meters":38800,"station_id":"ce4bgs12rcd13ifvqcag","pricing_plan_id":"cebpf4jnsgd1na2vs0mg"},{"bike_id":"b8c7a516-8bcd-40d4-984f-5bf429cca9ac","system_id":"levelo_inurba_marseille","lat":43.29038,"lon":5.37566,"is_reserved":false,"is_disabled":false,"rental_uris":{"android":"levelo://app?vid=b8c7a516-8bcd-40d4-984f-5bf429cca9ac","ios":"levelo://app?vid=b8c7a516-8bcd-40d4-984f-5bf429cca9ac"},"vehicle_type_id":"4","last_reported":1727788748,"current_range_meters":30400,"station_id":"ce4bh692rcd13ifvqe90","pricing_plan_id":"cebpf4jnsgd1na2vs0mg"},{"bike_id":"5bdc1fa4-140d-433c-819d-10b9de658c4f","system_id":"levelo_inurba_marseille","lat":43.26036,"lon":5.37549,"is_reserved":false,"is_disabled":false,"rental_uris":{"android":"levelo://app?vid=5bdc1fa4-140d-433c-819d-10b9de658c4f","ios":"levelo://app?vid=5bdc1fa4-140d-433c-819d-10b9de658c4f"},"vehicle_type_id":"4","last_reported":1727788748,"current_range_meters":24800,"station_id":"ce4bhgh2rcd13ifvqfa0","pricing_plan_id":"cebpf4jnsgd1na2vs0mg"},{"bike_id":"cd2611f6-aeab-4776-b590-bb0713ecd670","system_id":"levelo_inurba_marseille","lat":43.29048,"lon":5.37569,"is_reserved":false,"is_disabled":false,"rental_uris":{"android":"levelo://app?vid=cd2611f6-aeab-4776-b590-bb0713ecd670","ios":"levelo://app?vid=cd2611f6-aeab-4776-b590-bb0713ecd670"},"vehicle_type_id":"4","last_reported":1727788748,"current_range_meters":28400,"station_id":"ce4bh692rcd13ifvqe90","pricing_plan_id":"cebpf4jnsgd1na2vs0mg"},{"bike_id":"edfb58fe-8ade-4a04-956f-dc3fdc47f08c","system_id":"levelo_inurba_marseille","lat":43.26064,"lon":5.39394,"is_reserved":false,"is_disabled":false,"rental_uris":{"android":"levelo://app?vid=edfb58fe-8ade-4a04-956f-dc3fdc47f08c","ios":"levelo://app?vid=edfb58fe-8ade-4a04-956f-dc3fdc47f08c"},"vehicle_type_id":"4","last_reported":1727788748,"current_range_meters":18000,"station_id":"ce4bhh92rcd13ifvqfj0","pricing_plan_id":"cebpf4jnsgd1na2vs0mg"},{"bike_id":"de4f8a9c-b542-4ab0-aee4-780dc2a8f204","system_id":"levelo_inurba_marseille","lat":43.29972,"lon":5.3717,"is_reserved":false,"is_disabled":false,"rental_uris":{"android":"levelo://app?vid=de4f8a9c-b542-4ab0-aee4-780dc2a8f204","ios":"levelo://app?vid=de4f8a9c-b542-4ab0-aee4-780dc2a8f204"},"vehicle_type_id":"4","last_reported":1727788748,"current_range_meters":37600,"station_id":"ce4bgr92rcd13ifvqc7g","pricing_plan_id":"cebpf4jnsgd1na2vs0mg"},{"bike_id":"06251f05-84fb-43f2-b074-ada2173c0002","system_id":"levelo_inurba_marseille","lat":43.30139,"lon":5.37412,"is_reserved":false,"is_disabled":false,"rental_uris":{"android":"levelo://app?vid=06251f05-84fb-43f2-b074-ada2173c0002","ios":"levelo://app?vid=06251f05-84fb-43f2-b074-ada2173c0002"},"vehicle_type_id":"4","last_reported":1727788748,"current_range_meters":39200,"station_id":"ce4bgjh2rcd13ifvqbg0","pricing_plan_id":"cebpf4jnsgd1na2vs0mg"},{"bike_id":"5d34d44a-5657-4046-9997-746fa7323ea5","system_id":"levelo_inurba_marseille","lat":43.32556,"lon":5.41412,"is_reserved":false,"is_disabled":false,"rental_uris":{"android":"levelo://app?vid=5d34d44a-5657-4046-9997-746fa7323ea5","ios":"levelo://app?vid=5d34d44a-5657-4046-9997-746fa7323ea5"},"vehicle_type_id":"4","last_reported":1727788748,"current_range_meters":36800,"station_id":"ce4bhq12rcd13ifvqhhg","pricing_plan_id":"cebpf4jnsgd1na2vs0mg"},{"bike_id":"f25acd78-bd4e-42f5-9166-5d5a2c351048","system_id":"levelo_inurba_marseille","lat":43.29986,"lon":5.38483,"is_reserved":false,"is_disabled":false,"rental_uris":{"android":"levelo://app?vid=f25acd78-bd4e-42f5-9166-5d5a2c351048","ios":"levelo://app?vid=f25acd78-bd4e-42f5-9166-5d5a2c351048"},"vehicle_type_id":"4","last_reported":1727788748,"current_range_meters":38400,"station_id":"ce4bgj92rcd13ifvqbd0","pricing_plan_id":"cebpf4jnsgd1na2vs0mg"},{"bike_id":"d8634e28-a967-4f78-b2bd-a6d7ceb026a4","system_id":"levelo_inurba_marseille","lat":43.29046,"lon":5.35908,"is_reserved":false,"is_disabled":false,"rental_uris":{"android":"levelo://app?vid=d8634e28-a967-4f78-b2bd-a6d7ceb026a4","ios":"levelo://app?vid=d8634e28-a967-4f78-b2bd-a6d7ceb026a4"},"vehicle_type_id":"4","last_reported":1727788748,"current_range_meters":33200,"station_id":"ce4bha92rcd13ifvqeg0","pricing_plan_id":"cebpf4jnsgd1na2vs0mg"},{"bike_id":"2efe889c-d7f9-441d-afae-d38011cb4d35","system_id":"levelo_inurba_marseille","lat":43.28463,"lon":5.35881,"is_reserved":false,"is_disabled":false,"rental_uris":{"android":"levelo://app?vid=2efe889c-d7f9-441d-afae-d38011cb4d35","ios":"levelo://app?vid=2efe889c-d7f9-441d-afae-d38011cb4d35"},"vehicle_type_id":"4","last_reported":1727788748,"current_range_meters":25600,"station_id":"ce4bhah2rcd13ifvqei0","pricing_plan_id":"cebpf4jnsgd1na2vs0mg"},{"bike_id":"b1f09baf-efb6-4048-8222-4ed4e16cbf39","system_id":"levelo_inurba_marseille","lat":43.23157,"lon":5.43706,"is_reserved":false,"is_disabled":false,"rental_uris":{"android":"levelo://app?vid=b1f09baf-efb6-4048-8222-4ed4e16cbf39","ios":"levelo://app?vid=b1f09baf-efb6-4048-8222-4ed4e16cbf39"},"vehicle_type_id":"4","last_reported":1727788748,"current_range_meters":8800,"station_id":"ce4bhmp2rcd13ifvqgog","pricing_plan_id":"cebpf4jnsgd1na2vs0mg"},{"bike_id":"e0a0961c-9a55-4f5d-9aaa-ec192c8450f3","system_id":"levelo_inurba_marseille","lat":43.31365,"lon":5.38477,"is_reserved":false,"is_disabled":false,"rental_uris":{"android":"levelo://app?vid=e0a0961c-9a55-4f5d-9aaa-ec192c8450f3","ios":"levelo://app?vid=e0a0961c-9a55-4f5d-9aaa-ec192c8450f3"},"vehicle_type_id":"4","last_reported":1727788748,"current_range_meters":23200,"station_id":"ce4bgt92rcd13ifvqcf0","pricing_plan_id":"cebpf4jnsgd1na2vs0mg"},{"bike_id":"0220a780-b863-4be9-b5f3-f63efa144d1f","system_id":"levelo_inurba_marseille","lat":43.28714,"lon":5.37926,"is_reserved":false,"is_disabled":false,"rental_uris":{"android":"levelo://app?vid=0220a780-b863-4be9-b5f3-f63efa144d1f","ios":"levelo://app?vid=0220a780-b863-4be9-b5f3-f63efa144d1f"},"vehicle_type_id":"4","last_reported":1727788748,"current_range_meters":17600,"station_id":"ce4bh9p2rcd13ifvqec0","pricing_plan_id":"cebpf4jnsgd1na2vs0mg"},{"bike_id":"d0babadb-8879-488e-92f8-d76769a9b0e4","system_id":"levelo_inurba_marseille","lat":43.30543,"lon":5.36523,"is_reserved":false,"is_disabled":false,"rental_uris":{"android":"levelo://app?vid=d0babadb-8879-488e-92f8-d76769a9b0e4","ios":"levelo://app?vid=d0babadb-8879-488e-92f8-d76769a9b0e4"},"vehicle_type_id":"4","last_reported":1727788748,"current_range_meters":21600,"station_id":"ce4bgs12rcd13ifvqcag","pricing_plan_id":"cebpf4jnsgd1na2vs0mg"},{"bike_id":"9396bc6b-1fdd-44e0-95b2-27ce27f7b5de","system_id":"levelo_inurba_marseille","lat":43.29262,"lon":5.40913,"is_reserved":false,"is_disabled":false,"rental_uris":{"android":"levelo://app?vid=9396bc6b-1fdd-44e0-95b2-27ce27f7b5de","ios":"levelo://app?vid=9396bc6b-1fdd-44e0-95b2-27ce27f7b5de"},"vehicle_type_id":"4","last_reported":1727788748,"current_range_meters":28800,"station_id":"ce4bh192rcd13ifvqdc0","pricing_plan_id":"cebpf4jnsgd1na2vs0mg"},{"bike_id":"99ce3be4-75ef-47fb-89aa-74139e6a688c","system_id":"levelo_inurba_marseille","lat":43.27838,"lon":5.39203,"is_reserved":false,"is_disabled":false,"rental_uris":{"android":"levelo://app?vid=99ce3be4-75ef-47fb-89aa-74139e6a688c","ios":"levelo://app?vid=99ce3be4-75ef-47fb-89aa-74139e6a688c"},"vehicle_type_id":"4","last_reported":1727788748,"current_range_meters":14000,"station_id":"ce4bhjp2rcd13ifvqga0","pricing_plan_id":"cebpf4jnsgd1na2vs0mg"},{"bike_id":"e8560880-ddbc-4e01-9d15-6d231a661d5a","system_id":"levelo_inurba_marseille","lat":43.29491,"lon":5.40111,"is_reserved":false,"is_disabled":false,"rental_uris":{"android":"levelo://app?vid=e8560880-ddbc-4e01-9d15-6d231a661d5a","ios":"levelo://app?vid=e8560880-ddbc-4e01-9d15-6d231a661d5a"},"vehicle_type_id":"4","last_reported":1727788748,"current_range_meters":35200,"station_id":"","pricing_plan_id":"cebpf4jnsgd1na2vs0mg"},{"bike_id":"072068d7-44bd-4da9-b04c-e5846e47b5e9","system_id":"levelo_inurba_marseille","lat":43.30596,"lon":5.37203,"is_reserved":false,"is_disabled":false,"rental_uris":{"android":"levelo://app?vid=072068d7-44bd-4da9-b04c-e5846e47b5e9","ios":"levelo://app?vid=072068d7-44bd-4da9-b04c-e5846e47b5e9"},"vehicle_type_id":"4","last_reported":1727788748,"current_range_meters":39200,"station_id":"ce4bgqh2rcd13ifvqc4g","pricing_plan_id":"cebpf4jnsgd1na2vs0mg"},{"bike_id":"7e4eb5b3-4625-400f-845f-3c623b656855","system_id":"levelo_inurba_marseille","lat":43.26032,"lon":5.37544,"is_reserved":false,"is_disabled":false,"rental_uris":{"android":"levelo://app?vid=7e4eb5b3-4625-400f-845f-3c623b656855","ios":"levelo://app?vid=7e4eb5b3-4625-400f-845f-3c623b656855"},"vehicle_type_id":"4","last_reported":1727788748,"current_range_meters":30400,"station_id":"ce4bhgh2rcd13ifvqfa0","pricing_plan_id":"cebpf4jnsgd1na2vs0mg"},{"bike_id":"cfdb47d3-1507-413a-a1c8-ccda97b2d99f","system_id":"levelo_inurba_marseille","lat":43.31494,"lon":5.37297,"is_reserved":false,"is_disabled":false,"rental_uris":{"android":"levelo://app?vid=cfdb47d3-1507-413a-a1c8-ccda97b2d99f","ios":"levelo://app?vid=cfdb47d3-1507-413a-a1c8-ccda97b2d99f"},"vehicle_type_id":"4","last_reported":1727788748,"current_range_meters":40000,"station_id":"ce4bgt12rcd13ifvqcd0","pricing_plan_id":"cebpf4jnsgd1na2vs0mg"},{"bike_id":"aa21baa4-2a87-483e-bde6-adc2407d3f82","system_id":"levelo_inurba_marseille","lat":43.2985,"lon":5.36281,"is_reserved":false,"is_disabled":false,"rental_uris":{"android":"levelo://app?vid=aa21baa4-2a87-483e-bde6-adc2407d3f82","ios":"levelo://app?vid=aa21baa4-2a87-483e-bde6-adc2407d3f82"},"vehicle_type_id":"4","last_reported":1727788748,"current_range_meters":20000,"station_id":"ce4bgpp2rcd13ifvqc3g","pricing_plan_id":"cebpf4jnsgd1na2vs0mg"},{"bike_id":"75960af8-fffd-4ef8-8d0e-0797703cf66f","system_id":"levelo_inurba_marseille","lat":43.30604,"lon":5.37216,"is_reserved":false,"is_disabled":false,"rental_uris":{"android":"levelo://app?vid=75960af8-fffd-4ef8-8d0e-0797703cf66f","ios":"levelo://app?vid=75960af8-fffd-4ef8-8d0e-0797703cf66f"},"vehicle_type_id":"4","last_reported":1727788748,"current_range_meters":4800,"station_id":"ce4bgqh2rcd13ifvqc4g","pricing_plan_id":"cebpf4jnsgd1na2vs0mg"},{"bike_id":"85024af8-7004-4d74-8be7-15da03426b4b","system_id":"levelo_inurba_marseille","lat":43.30597,"lon":5.37213,"is_reserved":false,"is_disabled":false,"rental_uris":{"android":"levelo://app?vid=85024af8-7004-4d74-8be7-15da03426b4b","ios":"levelo://app?vid=85024af8-7004-4d74-8be7-15da03426b4b"},"vehicle_type_id":"4","last_reported":1727788748,"current_range_meters":34000,"station_id":"ce4bgqh2rcd13ifvqc4g","pricing_plan_id":"cebpf4jnsgd1na2vs0mg"},{"bike_id":"2dc25513-363e-4f1a-b8fa-b09412267895","system_id":"levelo_inurba_marseille","lat":43.2801,"lon":5.39999,"is_reserved":false,"is_disabled":false,"rental_uris":{"android":"levelo://app?vid=2dc25513-363e-4f1a-b8fa-b09412267895","ios":"levelo://app?vid=2dc25513-363e-4f1a-b8fa-b09412267895"},"vehicle_type_id":"4","last_reported":1727788748,"current_range_meters":25200,"station_id":"ce4bho92rcd13ifvqh4g","pricing_plan_id":"cebpf4jnsgd1na2vs0mg"},{"bike_id":"b5d389f1-aa18-4a06-b6ea-5811e20d2d8d","system_id":"levelo_inurba_marseille","lat":43.296539,"lon":5.375615,"is_reserved":false,"is_disabled":false,"rental_uris":{"android":"levelo://app?vid=b5d389f1-aa18-4a06-b6ea-5811e20d2d8d","ios":"levelo://app?vid=b5d389f1-aa18-4a06-b6ea-5811e20d2d8d"},"vehicle_type_id":"4","last_reported":1727788748,"current_range_meters":17600,"station_id":"ce4bgqh2rcd13ifvqc5g","pricing_plan_id":"cebpf4jnsgd1na2vs0mg"},{"bike_id":"1500738f-f93a-46f9-9315-23261f66a5ff","system_id":"levelo_inurba_marseille","lat":43.29098,"lon":5.381415,"is_reserved":false,"is_disabled":false,"rental_uris":{"android":"levelo://app?vid=1500738f-f93a-46f9-9315-23261f66a5ff","ios":"levelo://app?vid=1500738f-f93a-46f9-9315-23261f66a5ff"},"vehicle_type_id":"4","last_reported":1727788748,"current_range_meters":30800,"station_id":"ce4bh512rcd13ifvqe2g","pricing_plan_id":"cebpf4jnsgd1na2vs0mg"},{"bike_id":"cd494437-3361-4ab5-86cd-a23a49a3cf7a","system_id":"levelo_inurba_marseille","lat":43.24064,"lon":5.37753,"is_reserved":false,"is_disabled":false,"rental_uris":{"android":"levelo://app?vid=cd494437-3361-4ab5-86cd-a23a49a3cf7a","ios":"levelo://app?vid=cd494437-3361-4ab5-86cd-a23a49a3cf7a"},"vehicle_type_id":"4","last_reported":1727788748,"current_range_meters":32800,"station_id":"ce4bhnp2rcd13ifvqgvg","pricing_plan_id":"cebpf4jnsgd1na2vs0mg"},{"bike_id":"0fa1b806-30ca-4295-8579-e914f7d6f08d","system_id":"levelo_inurba_marseille","lat":43.30153,"lon":5.38085,"is_reserved":false,"is_disabled":false,"rental_uris":{"android":"levelo://app?vid=0fa1b806-30ca-4295-8579-e914f7d6f08d","ios":"levelo://app?vid=0fa1b806-30ca-4295-8579-e914f7d6f08d"},"vehicle_type_id":"4","last_reported":1727788748,"current_range_meters":30400,"station_id":"ce4bgjp2rcd13ifvqbh0","pricing_plan_id":"cebpf4jnsgd1na2vs0mg"},{"bike_id":"56437861-461b-4eee-83e2-ce433efd7d8c","system_id":"levelo_inurba_marseille","lat":43.27499,"lon":5.42459,"is_reserved":false,"is_disabled":false,"rental_uris":{"android":"levelo://app?vid=56437861-461b-4eee-83e2-ce433efd7d8c","ios":"levelo://app?vid=56437861-461b-4eee-83e2-ce433efd7d8c"},"vehicle_type_id":"4","last_reported":1727788748,"current_range_meters":24800,"station_id":"ce4bhn92rcd13ifvqgrg","pricing_plan_id":"cebpf4jnsgd1na2vs0mg"},{"bike_id":"e02735c3-5f67-4559-91c4-6ddefd2dea0d","system_id":"levelo_inurba_marseille","lat":43.25582,"lon":5.38226,"is_reserved":false,"is_disabled":false,"rental_uris":{"android":"levelo://app?vid=e02735c3-5f67-4559-91c4-6ddefd2dea0d","ios":"levelo://app?vid=e02735c3-5f67-4559-91c4-6ddefd2dea0d"},"vehicle_type_id":"4","last_reported":1727788748,"current_range_meters":36800,"station_id":"ce4bhih2rcd13ifvqfs0","pricing_plan_id":"cebpf4jnsgd1na2vs0mg"},{"bike_id":"5aa4654d-b1f4-4a10-8313-d328dfed9fd8","system_id":"levelo_inurba_marseille","lat":43.23188,"lon":5.39983,"is_reserved":false,"is_disabled":false,"rental_uris":{"android":"levelo://app?vid=5aa4654d-b1f4-4a10-8313-d328dfed9fd8","ios":"levelo://app?vid=5aa4654d-b1f4-4a10-8313-d328dfed9fd8"},"vehicle_type_id":"4","last_reported":1727788748,"current_range_meters":33200,"station_id":"ce4bhn12rcd13ifvqgqg","pricing_plan_id":"cebpf4jnsgd1na2vs0mg"},{"bike_id":"68f578bd-4450-41e2-a3e1-0983223be101","system_id":"levelo_inurba_marseille","lat":43.31337,"lon":5.39687,"is_reserved":false,"is_disabled":false,"rental_uris":{"android":"levelo://app?vid=68f578bd-4450-41e2-a3e1-0983223be101","ios":"levelo://app?vid=68f578bd-4450-41e2-a3e1-0983223be101"},"vehicle_type_id":"4","last_reported":1727788748,"current_range_meters":35200,"station_id":"ce4bgvp2rcd13ifvqcu0","pricing_plan_id":"cebpf4jnsgd1na2vs0mg"},{"bike_id":"84d71951-9102-4dba-82f9-38c882b9fa03","system_id":"levelo_inurba_marseille","lat":43.30282,"lon":5.37695,"is_reserved":false,"is_disabled":false,"rental_uris":{"android":"levelo://app?vid=84d71951-9102-4dba-82f9-38c882b9fa03","ios":"levelo://app?vid=84d71951-9102-4dba-82f9-38c882b9fa03"},"vehicle_type_id":"4","last_reported":1727788748,"current_range_meters":34800,"station_id":"ce4bguh2rcd13ifvqcj0","pricing_plan_id":"cebpf4jnsgd1na2vs0mg"},{"bike_id":"f8f518e3-bd48-40f5-801a-4ead88758ee2","system_id":"levelo_inurba_marseille","lat":43.32116,"lon":5.36769,"is_reserved":false,"is_disabled":false,"rental_uris":{"android":"levelo://app?vid=f8f518e3-bd48-40f5-801a-4ead88758ee2","ios":"levelo://app?vid=f8f518e3-bd48-40f5-801a-4ead88758ee2"},"vehicle_type_id":"4","last_reported":1727788748,"current_range_meters":16000,"station_id":"ce4bhrh2rcd13ifvqhug","pricing_plan_id":"cebpf4jnsgd1na2vs0mg"},{"bike_id":"c35beb10-b895-41bd-a818-5a6490048628","system_id":"levelo_inurba_marseille","lat":43.30889,"lon":5.37195,"is_reserved":false,"is_disabled":false,"rental_uris":{"android":"levelo://app?vid=c35beb10-b895-41bd-a818-5a6490048628","ios":"levelo://app?vid=c35beb10-b895-41bd-a818-5a6490048628"},"vehicle_type_id":"4","last_reported":1727788748,"current_range_meters":32000,"station_id":"ce4bguh2rcd13ifvqckg","pricing_plan_id":"cebpf4jnsgd1na2vs0mg"},{"bike_id":"ae26f9b0-4809-4a6a-a195-34dae42aa1bd","system_id":"levelo_inurba_marseille","lat":43.30907,"lon":5.37179,"is_reserved":false,"is_disabled":false,"rental_uris":{"android":"levelo://app?vid=ae26f9b0-4809-4a6a-a195-34dae42aa1bd","ios":"levelo://app?vid=ae26f9b0-4809-4a6a-a195-34dae42aa1bd"},"vehicle_type_id":"4","last_reported":1727788748,"current_range_meters":11600,"station_id":"ce4bguh2rcd13ifvqckg","pricing_plan_id":"cebpf4jnsgd1na2vs0mg"},{"bike_id":"67e2b1cc-88ae-4079-9e18-7d8e5c4b6145","system_id":"levelo_inurba_marseille","lat":43.29597,"lon":5.3809,"is_reserved":false,"is_disabled":false,"rental_uris":{"android":"levelo://app?vid=67e2b1cc-88ae-4079-9e18-7d8e5c4b6145","ios":"levelo://app?vid=67e2b1cc-88ae-4079-9e18-7d8e5c4b6145"},"vehicle_type_id":"4","last_reported":1727788748,"current_range_meters":16000,"station_id":"ce4bgl12rcd13ifvqbo0","pricing_plan_id":"cebpf4jnsgd1na2vs0mg"},{"bike_id":"55d01fa3-e383-4c76-b341-7615c6e06bbd","system_id":"levelo_inurba_marseille","lat":43.2397,"lon":5.36625,"is_reserved":false,"is_disabled":false,"rental_uris":{"android":"levelo://app?vid=55d01fa3-e383-4c76-b341-7615c6e06bbd","ios":"levelo://app?vid=55d01fa3-e383-4c76-b341-7615c6e06bbd"},"vehicle_type_id":"4","last_reported":1727788748,"current_range_meters":7200,"station_id":"ce4bhi12rcd13ifvqfp0","pricing_plan_id":"cebpf4jnsgd1na2vs0mg"},{"bike_id":"4a10ad72-1b9a-44a9-94b7-49cef5af705c","system_id":"levelo_inurba_marseille","lat":43.2756,"lon":5.38419,"is_reserved":false,"is_disabled":false,"rental_uris":{"android":"levelo://app?vid=4a10ad72-1b9a-44a9-94b7-49cef5af705c","ios":"levelo://app?vid=4a10ad72-1b9a-44a9-94b7-49cef5af705c"},"vehicle_type_id":"4","last_reported":1727788748,"current_range_meters":38800,"station_id":"ce4bhh92rcd13ifvqfi0","pricing_plan_id":"cebpf4jnsgd1na2vs0mg"},{"bike_id":"410644d8-520b-4b38-8e29-0e0374c810a9","system_id":"levelo_inurba_marseille","lat":43.3135,"lon":5.36712,"is_reserved":false,"is_disabled":false,"rental_uris":{"android":"levelo://app?vid=410644d8-520b-4b38-8e29-0e0374c810a9","ios":"levelo://app?vid=410644d8-520b-4b38-8e29-0e0374c810a9"},"vehicle_type_id":"4","last_reported":1727788748,"current_range_meters":36000,"station_id":"ce4bgr92rcd13ifvqc6g","pricing_plan_id":"cebpf4jnsgd1na2vs0mg"},{"bike_id":"c12284a0-8f47-4e70-953a-e15ecd1cc9a7","system_id":"levelo_inurba_marseille","lat":43.29845,"lon":5.36271,"is_reserved":false,"is_disabled":false,"rental_uris":{"android":"levelo://app?vid=c12284a0-8f47-4e70-953a-e15ecd1cc9a7","ios":"levelo://app?vid=c12284a0-8f47-4e70-953a-e15ecd1cc9a7"},"vehicle_type_id":"4","last_reported":1727788748,"current_range_meters":9200,"station_id":"ce4bgpp2rcd13ifvqc3g","pricing_plan_id":"cebpf4jnsgd1na2vs0mg"},{"bike_id":"89486415-9219-46fe-8b31-61986f58b86f","system_id":"levelo_inurba_marseille","lat":43.306072,"lon":5.372172,"is_reserved":false,"is_disabled":false,"rental_uris":{"android":"levelo://app?vid=89486415-9219-46fe-8b31-61986f58b86f","ios":"levelo://app?vid=89486415-9219-46fe-8b31-61986f58b86f"},"vehicle_type_id":"4","last_reported":1727788748,"current_range_meters":38800,"station_id":"ce4bgqh2rcd13ifvqc4g","pricing_plan_id":"cebpf4jnsgd1na2vs0mg"},{"bike_id":"e2973350-a192-4ad7-997e-932573a214dd","system_id":"levelo_inurba_marseille","lat":43.23149,"lon":5.4372,"is_reserved":false,"is_disabled":false,"rental_uris":{"android":"levelo://app?vid=e2973350-a192-4ad7-997e-932573a214dd","ios":"levelo://app?vid=e2973350-a192-4ad7-997e-932573a214dd"},"vehicle_type_id":"4","last_reported":1727788748,"current_range_meters":25600,"station_id":"ce4bhmp2rcd13ifvqgog","pricing_plan_id":"cebpf4jnsgd1na2vs0mg"},{"bike_id":"694cb324-efeb-46be-9c5b-e0c186ff4b74","system_id":"levelo_inurba_marseille","lat":43.29017,"lon":5.3812,"is_reserved":false,"is_disabled":false,"rental_uris":{"android":"levelo://app?vid=694cb324-efeb-46be-9c5b-e0c186ff4b74","ios":"levelo://app?vid=694cb324-efeb-46be-9c5b-e0c186ff4b74"},"vehicle_type_id":"4","last_reported":1727788748,"current_range_meters":36800,"station_id":"ce4bh4p2rcd13ifvqe1g","pricing_plan_id":"cebpf4jnsgd1na2vs0mg"},{"bike_id":"d995d233-d2fe-4db9-b69b-baa1337469bf","system_id":"levelo_inurba_marseille","lat":43.26718,"lon":5.40127,"is_reserved":false,"is_disabled":false,"rental_uris":{"android":"levelo://app?vid=d995d233-d2fe-4db9-b69b-baa1337469bf","ios":"levelo://app?vid=d995d233-d2fe-4db9-b69b-baa1337469bf"},"vehicle_type_id":"4","last_reported":1727788748,"current_range_meters":13600,"station_id":"ce4bhm92rcd13ifvqglg","pricing_plan_id":"cebpf4jnsgd1na2vs0mg"},{"bike_id":"1ba7b6fd-e265-4d06-8e20-b26ba84ee730","system_id":"levelo_inurba_marseille","lat":43.23153,"lon":5.43704,"is_reserved":false,"is_disabled":false,"rental_uris":{"android":"levelo://app?vid=1ba7b6fd-e265-4d06-8e20-b26ba84ee730","ios":"levelo://app?vid=1ba7b6fd-e265-4d06-8e20-b26ba84ee730"},"vehicle_type_id":"4","last_reported":1727788748,"current_range_meters":22800,"station_id":"ce4bhmp2rcd13ifvqgog","pricing_plan_id":"cebpf4jnsgd1na2vs0mg"},{"bike_id":"42f8a450-f3b8-4143-a611-4f4639d51f92","system_id":"levelo_inurba_marseille","lat":43.27562,"lon":5.38422,"is_reserved":false,"is_disabled":false,"rental_uris":{"android":"levelo://app?vid=42f8a450-f3b8-4143-a611-4f4639d51f92","ios":"levelo://app?vid=42f8a450-f3b8-4143-a611-4f4639d51f92"},"vehicle_type_id":"4","last_reported":1727788748,"current_range_meters":33600,"station_id":"ce4bhh92rcd13ifvqfi0","pricing_plan_id":"cebpf4jnsgd1na2vs0mg"},{"bike_id":"fc00bd49-75a0-45bc-a744-2f78cf72b20a","system_id":"levelo_inurba_marseille","lat":43.29224,"lon":5.36072,"is_reserved":false,"is_disabled":false,"rental_uris":{"android":"levelo://app?vid=fc00bd49-75a0-45bc-a744-2f78cf72b20a","ios":"levelo://app?vid=fc00bd49-75a0-45bc-a744-2f78cf72b20a"},"vehicle_type_id":"4","last_reported":1727788748,"current_range_meters":28800,"station_id":"ce4bhbh2rcd13ifvqeqg","pricing_plan_id":"cebpf4jnsgd1na2vs0mg"},{"bike_id":"a0b07b7c-5757-458f-a27a-60cb7b5aaa42","system_id":"levelo_inurba_marseille","lat":43.30318,"lon":5.36903,"is_reserved":false,"is_disabled":false,"rental_uris":{"android":"levelo://app?vid=a0b07b7c-5757-458f-a27a-60cb7b5aaa42","ios":"levelo://app?vid=a0b07b7c-5757-458f-a27a-60cb7b5aaa42"},"vehicle_type_id":"4","last_reported":1727788748,"current_range_meters":38800,"station_id":"ce4bgqh2rcd13ifvqc5g","pricing_plan_id":"cebpf4jnsgd1na2vs0mg"},{"bike_id":"7cc77382-3036-475a-974d-2bf5fe1bc481","system_id":"levelo_inurba_marseille","lat":43.3153,"lon":5.38025,"is_reserved":false,"is_disabled":false,"rental_uris":{"android":"levelo://app?vid=7cc77382-3036-475a-974d-2bf5fe1bc481","ios":"levelo://app?vid=7cc77382-3036-475a-974d-2bf5fe1bc481"},"vehicle_type_id":"4","last_reported":1727788748,"current_range_meters":12400,"station_id":"ce4bhsp2rcd13ifvqi50","pricing_plan_id":"cebpf4jnsgd1na2vs0mg"},{"bike_id":"a0717f12-6aaf-4d95-9e57-4671e5f5e9ae","system_id":"levelo_inurba_marseille","lat":43.29986,"lon":5.37177,"is_reserved":false,"is_disabled":false,"rental_uris":{"android":"levelo://app?vid=a0717f12-6aaf-4d95-9e57-4671e5f5e9ae","ios":"levelo://app?vid=a0717f12-6aaf-4d95-9e57-4671e5f5e9ae"},"vehicle_type_id":"4","last_reported":1727788748,"current_range_meters":26800,"station_id":"ce4bgr92rcd13ifvqc7g","pricing_plan_id":"cebpf4jnsgd1na2vs0mg"},{"bike_id":"eed2ff29-0686-4e8d-8959-4ed55c834a6a","system_id":"levelo_inurba_marseille","lat":43.23966,"lon":5.36627,"is_reserved":false,"is_disabled":false,"rental_uris":{"android":"levelo://app?vid=eed2ff29-0686-4e8d-8959-4ed55c834a6a","ios":"levelo://app?vid=eed2ff29-0686-4e8d-8959-4ed55c834a6a"},"vehicle_type_id":"4","last_reported":1727788748,"current_range_meters":14400,"station_id":"ce4bhi12rcd13ifvqfp0","pricing_plan_id":"cebpf4jnsgd1na2vs0mg"},{"bike_id":"d609dda2-9e88-492a-9ec1-1ee759ae8664","system_id":"levelo_inurba_marseille","lat":43.33029,"lon":5.39034,"is_reserved":false,"is_disabled":false,"rental_uris":{"android":"levelo://app?vid=d609dda2-9e88-492a-9ec1-1ee759ae8664","ios":"levelo://app?vid=d609dda2-9e88-492a-9ec1-1ee759ae8664"},"vehicle_type_id":"4","last_reported":1727788748,"current_range_meters":8000,"station_id":"ce4bhr92rcd13ifvqhrg","pricing_plan_id":"cebpf4jnsgd1na2vs0mg"},{"bike_id":"7e8be2bb-67de-4f14-8abe-8018755ae500","system_id":"levelo_inurba_marseille","lat":43.248,"lon":5.37456,"is_reserved":false,"is_disabled":false,"rental_uris":{"android":"levelo://app?vid=7e8be2bb-67de-4f14-8abe-8018755ae500","ios":"levelo://app?vid=7e8be2bb-67de-4f14-8abe-8018755ae500"},"vehicle_type_id":"4","last_reported":1727788748,"current_range_meters":6400,"station_id":"ce4bhgh2rcd13ifvqfb0","pricing_plan_id":"cebpf4jnsgd1na2vs0mg"},{"bike_id":"b652f429-09b8-4697-9c1b-3b9adc3c55d8","system_id":"levelo_inurba_marseille","lat":43.26871,"lon":5.39135,"is_reserved":false,"is_disabled":false,"rental_uris":{"android":"levelo://app?vid=b652f429-09b8-4697-9c1b-3b9adc3c55d8","ios":"levelo://app?vid=b652f429-09b8-4697-9c1b-3b9adc3c55d8"},"vehicle_type_id":"4","last_reported":1727788748,"current_range_meters":7200,"station_id":"","pricing_plan_id":"cebpf4jnsgd1na2vs0mg"},{"bike_id":"596c338b-950f-4948-b137-715cda09f43d","system_id":"levelo_inurba_marseille","lat":43.29908,"lon":5.38148,"is_reserved":false,"is_disabled":false,"rental_uris":{"android":"levelo://app?vid=596c338b-950f-4948-b137-715cda09f43d","ios":"levelo://app?vid=596c338b-950f-4948-b137-715cda09f43d"},"vehicle_type_id":"4","last_reported":1727788748,"current_range_meters":28000,"station_id":"ce4bgj12rcd13ifvqbc0","pricing_plan_id":"cebpf4jnsgd1na2vs0mg"},{"bike_id":"09cce354-8b56-4a01-8379-fcec9e7693fb","system_id":"levelo_inurba_marseille","lat":43.265667,"lon":5.390127,"is_reserved":false,"is_disabled":false,"rental_uris":{"android":"levelo://app?vid=09cce354-8b56-4a01-8379-fcec9e7693fb","ios":"levelo://app?vid=09cce354-8b56-4a01-8379-fcec9e7693fb"},"vehicle_type_id":"4","last_reported":1727788748,"current_range_meters":8000,"station_id":"ce4bhe12rcd13ifvqf30","pricing_plan_id":"cebpf4jnsgd1na2vs0mg"},{"bike_id":"63948fa4-ae6d-4866-abff-02440e87cd47","system_id":"levelo_inurba_marseille","lat":43.24394,"lon":5.37054,"is_reserved":false,"is_disabled":false,"rental_uris":{"android":"levelo://app?vid=63948fa4-ae6d-4866-abff-02440e87cd47","ios":"levelo://app?vid=63948fa4-ae6d-4866-abff-02440e87cd47"},"vehicle_type_id":"4","last_reported":1727788748,"current_range_meters":36400,"station_id":"ce4bhhh2rcd13ifvqfk0","pricing_plan_id":"cebpf4jnsgd1na2vs0mg"},{"bike_id":"d3657b79-f3c5-45ca-8f17-010504555078","system_id":"levelo_inurba_marseille","lat":43.30535,"lon":5.36699,"is_reserved":false,"is_disabled":false,"rental_uris":{"android":"levelo://app?vid=d3657b79-f3c5-45ca-8f17-010504555078","ios":"levelo://app?vid=d3657b79-f3c5-45ca-8f17-010504555078"},"vehicle_type_id":"4","last_reported":1727788748,"current_range_meters":8800,"station_id":"ce4bgrp2rcd13ifvqc9g","pricing_plan_id":"cebpf4jnsgd1na2vs0mg"},{"bike_id":"b539ddd8-2a34-4c52-8818-8800fa32d68b","system_id":"levelo_inurba_marseille","lat":43.2901,"lon":5.35612,"is_reserved":false,"is_disabled":false,"rental_uris":{"android":"levelo://app?vid=b539ddd8-2a34-4c52-8818-8800fa32d68b","ios":"levelo://app?vid=b539ddd8-2a34-4c52-8818-8800fa32d68b"},"vehicle_type_id":"4","last_reported":1727788748,"current_range_meters":33600,"station_id":"ce4bhb92rcd13ifvqen0","pricing_plan_id":"cebpf4jnsgd1na2vs0mg"},{"bike_id":"7a8b241f-57ad-4336-b3e1-9209d3fac587","system_id":"levelo_inurba_marseille","lat":43.31342,"lon":5.36718,"is_reserved":false,"is_disabled":false,"rental_uris":{"android":"levelo://app?vid=7a8b241f-57ad-4336-b3e1-9209d3fac587","ios":"levelo://app?vid=7a8b241f-57ad-4336-b3e1-9209d3fac587"},"vehicle_type_id":"4","last_reported":1727788748,"current_range_meters":39200,"station_id":"ce4bgr92rcd13ifvqc6g","pricing_plan_id":"cebpf4jnsgd1na2vs0mg"},{"bike_id":"4f88b262-594a-4a5b-8dae-fb3678519a46","system_id":"levelo_inurba_marseille","lat":43.25867,"lon":5.39897,"is_reserved":false,"is_disabled":false,"rental_uris":{"android":"levelo://app?vid=4f88b262-594a-4a5b-8dae-fb3678519a46","ios":"levelo://app?vid=4f88b262-594a-4a5b-8dae-fb3678519a46"},"vehicle_type_id":"4","last_reported":1727788748,"current_range_meters":26000,"station_id":"ce4bhl92rcd13ifvqghg","pricing_plan_id":"cebpf4jnsgd1na2vs0mg"},{"bike_id":"29329305-f0e7-4f73-8794-acecb4b13958","system_id":"levelo_inurba_marseille","lat":43.28932,"lon":5.36643,"is_reserved":false,"is_disabled":false,"rental_uris":{"android":"levelo://app?vid=29329305-f0e7-4f73-8794-acecb4b13958","ios":"levelo://app?vid=29329305-f0e7-4f73-8794-acecb4b13958"},"vehicle_type_id":"4","last_reported":1727788748,"current_range_meters":28000,"station_id":"ce4bhap2rcd13ifvqek0","pricing_plan_id":"cebpf4jnsgd1na2vs0mg"},{"bike_id":"28b8808b-5e8d-42cf-b016-724c061affd5","system_id":"levelo_inurba_marseille","lat":43.29983,"lon":5.37169,"is_reserved":false,"is_disabled":false,"rental_uris":{"android":"levelo://app?vid=28b8808b-5e8d-42cf-b016-724c061affd5","ios":"levelo://app?vid=28b8808b-5e8d-42cf-b016-724c061affd5"},"vehicle_type_id":"4","last_reported":1727788748,"current_range_meters":26800,"station_id":"ce4bgr92rcd13ifvqc7g","pricing_plan_id":"cebpf4jnsgd1na2vs0mg"},{"bike_id":"39198ead-f8e5-4f87-9721-dd99950b74d7","system_id":"levelo_inurba_marseille","lat":43.29255,"lon":5.36697,"is_reserved":false,"is_disabled":false,"rental_uris":{"android":"levelo://app?vid=39198ead-f8e5-4f87-9721-dd99950b74d7","ios":"levelo://app?vid=39198ead-f8e5-4f87-9721-dd99950b74d7"},"vehicle_type_id":"4","last_reported":1727788748,"current_range_meters":27200,"station_id":"","pricing_plan_id":"cebpf4jnsgd1na2vs0mg"},{"bike_id":"ef56d4c0-295a-42fd-8b32-179256c00cc1","system_id":"levelo_inurba_marseille","lat":43.26198,"lon":5.37445,"is_reserved":false,"is_disabled":false,"rental_uris":{"android":"levelo://app?vid=ef56d4c0-295a-42fd-8b32-179256c00cc1","ios":"levelo://app?vid=ef56d4c0-295a-42fd-8b32-179256c00cc1"},"vehicle_type_id":"4","last_reported":1727788748,"current_range_meters":36800,"station_id":"ce4bhgp2rcd13ifvqfc0","pricing_plan_id":"cebpf4jnsgd1na2vs0mg"},{"bike_id":"acfe2d39-8d53-4ca8-aaa3-8dcd8d634b3e","system_id":"levelo_inurba_marseille","lat":43.27686,"lon":5.38877,"is_reserved":false,"is_disabled":false,"rental_uris":{"android":"levelo://app?vid=acfe2d39-8d53-4ca8-aaa3-8dcd8d634b3e","ios":"levelo://app?vid=acfe2d39-8d53-4ca8-aaa3-8dcd8d634b3e"},"vehicle_type_id":"4","last_reported":1727788748,"current_range_meters":35600,"station_id":"ce4bhi12rcd13ifvqfo0","pricing_plan_id":"cebpf4jnsgd1na2vs0mg"},{"bike_id":"bad3495e-c817-44e4-a09c-251b3400b36b","system_id":"levelo_inurba_marseille","lat":43.29934,"lon":5.36551,"is_reserved":false,"is_disabled":false,"rental_uris":{"android":"levelo://app?vid=bad3495e-c817-44e4-a09c-251b3400b36b","ios":"levelo://app?vid=bad3495e-c817-44e4-a09c-251b3400b36b"},"vehicle_type_id":"4","last_reported":1727788748,"current_range_meters":10000,"station_id":"ce4bgm92rcd13ifvqbr0","pricing_plan_id":"cebpf4jnsgd1na2vs0mg"},{"bike_id":"3aaf5491-0f9f-4264-bea8-cd77fc2bf764","system_id":"levelo_inurba_marseille","lat":43.25583,"lon":5.38224,"is_reserved":false,"is_disabled":false,"rental_uris":{"android":"levelo://app?vid=3aaf5491-0f9f-4264-bea8-cd77fc2bf764","ios":"levelo://app?vid=3aaf5491-0f9f-4264-bea8-cd77fc2bf764"},"vehicle_type_id":"4","last_reported":1727788748,"current_range_meters":31200,"station_id":"ce4bhih2rcd13ifvqfs0","pricing_plan_id":"cebpf4jnsgd1na2vs0mg"},{"bike_id":"8b562ce2-65b8-43ff-bcd5-d8c8400254e3","system_id":"levelo_inurba_marseille","lat":43.26686,"lon":5.3827,"is_reserved":false,"is_disabled":false,"rental_uris":{"android":"levelo://app?vid=8b562ce2-65b8-43ff-bcd5-d8c8400254e3","ios":"levelo://app?vid=8b562ce2-65b8-43ff-bcd5-d8c8400254e3"},"vehicle_type_id":"4","last_reported":1727788748,"current_range_meters":32000,"station_id":"ce4bhg92rcd13ifvqf90","pricing_plan_id":"cebpf4jnsgd1na2vs0mg"},{"bike_id":"a008e83a-9e88-4f57-b619-e32dd56b25d3","system_id":"levelo_inurba_marseille","lat":43.280701,"lon":5.39622,"is_reserved":false,"is_disabled":false,"rental_uris":{"android":"levelo://app?vid=a008e83a-9e88-4f57-b619-e32dd56b25d3","ios":"levelo://app?vid=a008e83a-9e88-4f57-b619-e32dd56b25d3"},"vehicle_type_id":"4","last_reported":1727788748,"current_range_meters":22800,"station_id":"ce4bho12rcd13ifvqh2g","pricing_plan_id":"cebpf4jnsgd1na2vs0mg"},{"bike_id":"4f04f60f-e66b-49d6-89b0-44a4e9adf7ff","system_id":"levelo_inurba_marseille","lat":43.27815,"lon":5.40712,"is_reserved":false,"is_disabled":false,"rental_uris":{"android":"levelo://app?vid=4f04f60f-e66b-49d6-89b0-44a4e9adf7ff","ios":"levelo://app?vid=4f04f60f-e66b-49d6-89b0-44a4e9adf7ff"},"vehicle_type_id":"4","last_reported":1727788748,"current_range_meters":19200,"station_id":"ce4bhnh2rcd13ifvqgtg","pricing_plan_id":"cebpf4jnsgd1na2vs0mg"},{"bike_id":"0673a1b2-9bba-4fc1-a56f-375d48d6ec67","system_id":"levelo_inurba_marseille","lat":43.2738,"lon":5.36256,"is_reserved":false,"is_disabled":false,"rental_uris":{"android":"levelo://app?vid=0673a1b2-9bba-4fc1-a56f-375d48d6ec67","ios":"levelo://app?vid=0673a1b2-9bba-4fc1-a56f-375d48d6ec67"},"vehicle_type_id":"4","last_reported":1727788748,"current_range_meters":9200,"station_id":"ce4bhbh2rcd13ifvqeo0","pricing_plan_id":"cebpf4jnsgd1na2vs0mg"},{"bike_id":"3cd2f1c7-8e79-443e-94f8-b08bfda7967f","system_id":"levelo_inurba_marseille","lat":43.26416,"lon":5.37814,"is_reserved":false,"is_disabled":false,"rental_uris":{"android":"levelo://app?vid=3cd2f1c7-8e79-443e-94f8-b08bfda7967f","ios":"levelo://app?vid=3cd2f1c7-8e79-443e-94f8-b08bfda7967f"},"vehicle_type_id":"4","last_reported":1727788748,"current_range_meters":10000,"station_id":"","pricing_plan_id":"cebpf4jnsgd1na2vs0mg"},{"bike_id":"e47d8b5f-6f7d-401a-8617-51b7d9b65561","system_id":"levelo_inurba_marseille","lat":43.32371,"lon":5.38882,"is_reserved":false,"is_disabled":false,"rental_uris":{"android":"levelo://app?vid=e47d8b5f-6f7d-401a-8617-51b7d9b65561","ios":"levelo://app?vid=e47d8b5f-6f7d-401a-8617-51b7d9b65561"},"vehicle_type_id":"4","last_reported":1727788748,"current_range_meters":14400,"station_id":"ce4bhqp2rcd13ifvqhog","pricing_plan_id":"cebpf4jnsgd1na2vs0mg"},{"bike_id":"ff59ce61-208f-4504-a746-bed845900e53","system_id":"levelo_inurba_marseille","lat":43.28971,"lon":5.37822,"is_reserved":false,"is_disabled":false,"rental_uris":{"android":"levelo://app?vid=ff59ce61-208f-4504-a746-bed845900e53","ios":"levelo://app?vid=ff59ce61-208f-4504-a746-bed845900e53"},"vehicle_type_id":"4","last_reported":1727788748,"current_range_meters":19200,"station_id":"ce4bh9p2rcd13ifvqed0","pricing_plan_id":"cebpf4jnsgd1na2vs0mg"},{"bike_id":"21997ce8-c724-4af0-87e1-24855577cda0","system_id":"levelo_inurba_marseille","lat":43.3376,"lon":5.37481,"is_reserved":false,"is_disabled":false,"rental_uris":{"android":"levelo://app?vid=21997ce8-c724-4af0-87e1-24855577cda0","ios":"levelo://app?vid=21997ce8-c724-4af0-87e1-24855577cda0"},"vehicle_type_id":"4","last_reported":1727788748,"current_range_meters":38800,"station_id":"","pricing_plan_id":"cebpf4jnsgd1na2vs0mg"},{"bike_id":"6fb4485c-0852-4e14-8bee-aab0d596d0c4","system_id":"levelo_inurba_marseille","lat":43.28717,"lon":5.3793,"is_reserved":false,"is_disabled":false,"rental_uris":{"android":"levelo://app?vid=6fb4485c-0852-4e14-8bee-aab0d596d0c4","ios":"levelo://app?vid=6fb4485c-0852-4e14-8bee-aab0d596d0c4"},"vehicle_type_id":"4","last_reported":1727788748,"current_range_meters":12400,"station_id":"ce4bh9p2rcd13ifvqec0","pricing_plan_id":"cebpf4jnsgd1na2vs0mg"},{"bike_id":"8547d1e9-f568-4ddb-8360-570e5c021db3","system_id":"levelo_inurba_marseille","lat":43.29943,"lon":5.36533,"is_reserved":false,"is_disabled":false,"rental_uris":{"android":"levelo://app?vid=8547d1e9-f568-4ddb-8360-570e5c021db3","ios":"levelo://app?vid=8547d1e9-f568-4ddb-8360-570e5c021db3"},"vehicle_type_id":"4","last_reported":1727788748,"current_range_meters":33600,"station_id":"ce4bgm92rcd13ifvqbr0","pricing_plan_id":"cebpf4jnsgd1na2vs0mg"},{"bike_id":"0be29855-28e0-4e3c-b7f1-d5535f3a4570","system_id":"levelo_inurba_marseille","lat":43.28716,"lon":5.37926,"is_reserved":false,"is_disabled":false,"rental_uris":{"android":"levelo://app?vid=0be29855-28e0-4e3c-b7f1-d5535f3a4570","ios":"levelo://app?vid=0be29855-28e0-4e3c-b7f1-d5535f3a4570"},"vehicle_type_id":"4","last_reported":1727788748,"current_range_meters":28000,"station_id":"ce4bh9p2rcd13ifvqec0","pricing_plan_id":"cebpf4jnsgd1na2vs0mg"},{"bike_id":"94fff01b-97b3-4306-9272-78aa9dd327f2","system_id":"levelo_inurba_marseille","lat":43.28617,"lon":5.35099,"is_reserved":false,"is_disabled":false,"rental_uris":{"android":"levelo://app?vid=94fff01b-97b3-4306-9272-78aa9dd327f2","ios":"levelo://app?vid=94fff01b-97b3-4306-9272-78aa9dd327f2"},"vehicle_type_id":"4","last_reported":1727788748,"current_range_meters":30800,"station_id":"ce4bhch2rcd13ifvqeug","pricing_plan_id":"cebpf4jnsgd1na2vs0mg"},{"bike_id":"5eca41f0-ee83-4897-8e31-4e374c463a6e","system_id":"levelo_inurba_marseille","lat":43.26561,"lon":5.39015,"is_reserved":false,"is_disabled":false,"rental_uris":{"android":"levelo://app?vid=5eca41f0-ee83-4897-8e31-4e374c463a6e","ios":"levelo://app?vid=5eca41f0-ee83-4897-8e31-4e374c463a6e"},"vehicle_type_id":"4","last_reported":1727788748,"current_range_meters":35200,"station_id":"ce4bhe12rcd13ifvqf30","pricing_plan_id":"cebpf4jnsgd1na2vs0mg"},{"bike_id":"bb0db29b-307e-4e3c-9fb8-089947d27aae","system_id":"levelo_inurba_marseille","lat":43.30536,"lon":5.36527,"is_reserved":false,"is_disabled":false,"rental_uris":{"android":"levelo://app?vid=bb0db29b-307e-4e3c-9fb8-089947d27aae","ios":"levelo://app?vid=bb0db29b-307e-4e3c-9fb8-089947d27aae"},"vehicle_type_id":"4","last_reported":1727788748,"current_range_meters":34000,"station_id":"ce4bgs12rcd13ifvqcag","pricing_plan_id":"cebpf4jnsgd1na2vs0mg"},{"bike_id":"9a21a4c9-180f-4f47-bcf0-49773d54b090","system_id":"levelo_inurba_marseille","lat":43.31226,"lon":5.3686,"is_reserved":false,"is_disabled":false,"rental_uris":{"android":"levelo://app?vid=9a21a4c9-180f-4f47-bcf0-49773d54b090","ios":"levelo://app?vid=9a21a4c9-180f-4f47-bcf0-49773d54b090"},"vehicle_type_id":"4","last_reported":1727788748,"current_range_meters":36000,"station_id":"ce4bgl92rcd13ifvqbq0","pricing_plan_id":"cebpf4jnsgd1na2vs0mg"},{"bike_id":"f482b811-60c5-4cb4-be69-55c1c230887b","system_id":"levelo_inurba_marseille","lat":43.28465,"lon":5.35879,"is_reserved":false,"is_disabled":false,"rental_uris":{"android":"levelo://app?vid=f482b811-60c5-4cb4-be69-55c1c230887b","ios":"levelo://app?vid=f482b811-60c5-4cb4-be69-55c1c230887b"},"vehicle_type_id":"4","last_reported":1727788748,"current_range_meters":33600,"station_id":"ce4bhah2rcd13ifvqei0","pricing_plan_id":"cebpf4jnsgd1na2vs0mg"},{"bike_id":"17346577-f0d6-4544-b4b0-1fd855e7857c","system_id":"levelo_inurba_marseille","lat":43.279,"lon":5.38022,"is_reserved":false,"is_disabled":false,"rental_uris":{"android":"levelo://app?vid=17346577-f0d6-4544-b4b0-1fd855e7857c","ios":"levelo://app?vid=17346577-f0d6-4544-b4b0-1fd855e7857c"},"vehicle_type_id":"4","last_reported":1727788748,"current_range_meters":27600,"station_id":"ce4bhf92rcd13ifvqf50","pricing_plan_id":"cebpf4jnsgd1na2vs0mg"},{"bike_id":"54424efd-71bb-4b6c-ac34-0ea8a62c8ef0","system_id":"levelo_inurba_marseille","lat":43.24391,"lon":5.3706,"is_reserved":false,"is_disabled":false,"rental_uris":{"android":"levelo://app?vid=54424efd-71bb-4b6c-ac34-0ea8a62c8ef0","ios":"levelo://app?vid=54424efd-71bb-4b6c-ac34-0ea8a62c8ef0"},"vehicle_type_id":"4","last_reported":1727788748,"current_range_meters":18800,"station_id":"ce4bhhh2rcd13ifvqfk0","pricing_plan_id":"cebpf4jnsgd1na2vs0mg"},{"bike_id":"984b91a1-fe3e-4016-b94a-068fe2eb3242","system_id":"levelo_inurba_marseille","lat":43.32076,"lon":5.40989,"is_reserved":false,"is_disabled":false,"rental_uris":{"android":"levelo://app?vid=984b91a1-fe3e-4016-b94a-068fe2eb3242","ios":"levelo://app?vid=984b91a1-fe3e-4016-b94a-068fe2eb3242"},"vehicle_type_id":"4","last_reported":1727788748,"current_range_meters":6400,"station_id":"ce4bhpp2rcd13ifvqhgg","pricing_plan_id":"cebpf4jnsgd1na2vs0mg"},{"bike_id":"507af9aa-79f8-4e66-bc82-e635952e27ce","system_id":"levelo_inurba_marseille","lat":43.30552,"lon":5.36521,"is_reserved":false,"is_disabled":false,"rental_uris":{"android":"levelo://app?vid=507af9aa-79f8-4e66-bc82-e635952e27ce","ios":"levelo://app?vid=507af9aa-79f8-4e66-bc82-e635952e27ce"},"vehicle_type_id":"4","last_reported":1727788748,"current_range_meters":38800,"station_id":"ce4bgs12rcd13ifvqcag","pricing_plan_id":"cebpf4jnsgd1na2vs0mg"},{"bike_id":"68faca89-efbd-4eee-8a40-d74aef51b163","system_id":"levelo_inurba_marseille","lat":43.28704,"lon":5.39982,"is_reserved":false,"is_disabled":false,"rental_uris":{"android":"levelo://app?vid=68faca89-efbd-4eee-8a40-d74aef51b163","ios":"levelo://app?vid=68faca89-efbd-4eee-8a40-d74aef51b163"},"vehicle_type_id":"4","last_reported":1727788748,"current_range_meters":11200,"station_id":"ce4bh4p2rcd13ifvqe1g","pricing_plan_id":"cebpf4jnsgd1na2vs0mg"},{"bike_id":"ab728a23-caf1-4bd3-910f-0549e57950ad","system_id":"levelo_inurba_marseille","lat":43.23149,"lon":5.43722,"is_reserved":false,"is_disabled":false,"rental_uris":{"android":"levelo://app?vid=ab728a23-caf1-4bd3-910f-0549e57950ad","ios":"levelo://app?vid=ab728a23-caf1-4bd3-910f-0549e57950ad"},"vehicle_type_id":"4","last_reported":1727788748,"current_range_meters":3600,"station_id":"ce4bhmp2rcd13ifvqgog","pricing_plan_id":"cebpf4jnsgd1na2vs0mg"},{"bike_id":"3a5dc3fd-5531-4af9-ae8b-0ede616a22b3","system_id":"levelo_inurba_marseille","lat":43.23187,"lon":5.39976,"is_reserved":false,"is_disabled":false,"rental_uris":{"android":"levelo://app?vid=3a5dc3fd-5531-4af9-ae8b-0ede616a22b3","ios":"levelo://app?vid=3a5dc3fd-5531-4af9-ae8b-0ede616a22b3"},"vehicle_type_id":"4","last_reported":1727788748,"current_range_meters":17600,"station_id":"ce4bhn12rcd13ifvqgqg","pricing_plan_id":"cebpf4jnsgd1na2vs0mg"},{"bike_id":"29363706-5b8d-4cbc-9995-d2246ccd941e","system_id":"levelo_inurba_marseille","lat":43.24084,"lon":5.37742,"is_reserved":false,"is_disabled":false,"rental_uris":{"android":"levelo://app?vid=29363706-5b8d-4cbc-9995-d2246ccd941e","ios":"levelo://app?vid=29363706-5b8d-4cbc-9995-d2246ccd941e"},"vehicle_type_id":"4","last_reported":1727788748,"current_range_meters":22800,"station_id":"ce4bhnp2rcd13ifvqgvg","pricing_plan_id":"cebpf4jnsgd1na2vs0mg"},{"bike_id":"fe546efa-4b18-48de-9d1e-efef2e98d685","system_id":"levelo_inurba_marseille","lat":43.30542,"lon":5.36692,"is_reserved":false,"is_disabled":false,"rental_uris":{"android":"levelo://app?vid=fe546efa-4b18-48de-9d1e-efef2e98d685","ios":"levelo://app?vid=fe546efa-4b18-48de-9d1e-efef2e98d685"},"vehicle_type_id":"4","last_reported":1727788748,"current_range_meters":32000,"station_id":"ce4bgrp2rcd13ifvqc9g","pricing_plan_id":"cebpf4jnsgd1na2vs0mg"},{"bike_id":"ca69e8d8-dd44-4e61-bb15-7c8fcd4867d4","system_id":"levelo_inurba_marseille","lat":43.29425,"lon":5.38624,"is_reserved":false,"is_disabled":false,"rental_uris":{"android":"levelo://app?vid=ca69e8d8-dd44-4e61-bb15-7c8fcd4867d4","ios":"levelo://app?vid=ca69e8d8-dd44-4e61-bb15-7c8fcd4867d4"},"vehicle_type_id":"4","last_reported":1727788748,"current_range_meters":30400,"station_id":"ce4bh2h2rcd13ifvqdh0","pricing_plan_id":"cebpf4jnsgd1na2vs0mg"},{"bike_id":"63a4f779-e2a0-4bb8-b2af-a3b062ed7ab2","system_id":"levelo_inurba_marseille","lat":43.29811,"lon":5.38228,"is_reserved":false,"is_disabled":false,"rental_uris":{"android":"levelo://app?vid=63a4f779-e2a0-4bb8-b2af-a3b062ed7ab2","ios":"levelo://app?vid=63a4f779-e2a0-4bb8-b2af-a3b062ed7ab2"},"vehicle_type_id":"4","last_reported":1727788748,"current_range_meters":24000,"station_id":"","pricing_plan_id":"cebpf4jnsgd1na2vs0mg"},{"bike_id":"d0da896f-9d81-4fff-ad29-9c32ac02639e","system_id":"levelo_inurba_marseille","lat":43.32551,"lon":5.41443,"is_reserved":false,"is_disabled":false,"rental_uris":{"android":"levelo://app?vid=d0da896f-9d81-4fff-ad29-9c32ac02639e","ios":"levelo://app?vid=d0da896f-9d81-4fff-ad29-9c32ac02639e"},"vehicle_type_id":"4","last_reported":1727788748,"current_range_meters":30000,"station_id":"ce4bhq12rcd13ifvqhhg","pricing_plan_id":"cebpf4jnsgd1na2vs0mg"},{"bike_id":"89a9aaf1-1aca-4b13-ac8a-896543aa555b","system_id":"levelo_inurba_marseille","lat":43.29988,"lon":5.38489,"is_reserved":false,"is_disabled":false,"rental_uris":{"android":"levelo://app?vid=89a9aaf1-1aca-4b13-ac8a-896543aa555b","ios":"levelo://app?vid=89a9aaf1-1aca-4b13-ac8a-896543aa555b"},"vehicle_type_id":"4","last_reported":1727788748,"current_range_meters":36800,"station_id":"ce4bgj92rcd13ifvqbd0","pricing_plan_id":"cebpf4jnsgd1na2vs0mg"},{"bike_id":"ddeb2ab2-50cf-4450-92e1-292f0f03a901","system_id":"levelo_inurba_marseille","lat":43.23153,"lon":5.43712,"is_reserved":false,"is_disabled":false,"rental_uris":{"android":"levelo://app?vid=ddeb2ab2-50cf-4450-92e1-292f0f03a901","ios":"levelo://app?vid=ddeb2ab2-50cf-4450-92e1-292f0f03a901"},"vehicle_type_id":"4","last_reported":1727788748,"current_range_meters":17600,"station_id":"ce4bhmp2rcd13ifvqgog","pricing_plan_id":"cebpf4jnsgd1na2vs0mg"},{"bike_id":"d7ce7a5c-b08f-49b4-8b23-521e5b122803","system_id":"levelo_inurba_marseille","lat":43.23157,"lon":5.43702,"is_reserved":false,"is_disabled":false,"rental_uris":{"android":"levelo://app?vid=d7ce7a5c-b08f-49b4-8b23-521e5b122803","ios":"levelo://app?vid=d7ce7a5c-b08f-49b4-8b23-521e5b122803"},"vehicle_type_id":"4","last_reported":1727788748,"current_range_meters":16400,"station_id":"ce4bhmp2rcd13ifvqgog","pricing_plan_id":"cebpf4jnsgd1na2vs0mg"},{"bike_id":"07b5a74b-d824-4607-9a9d-31a616d5b59d","system_id":"levelo_inurba_marseille","lat":43.33767,"lon":5.37458,"is_reserved":false,"is_disabled":false,"rental_uris":{"android":"levelo://app?vid=07b5a74b-d824-4607-9a9d-31a616d5b59d","ios":"levelo://app?vid=07b5a74b-d824-4607-9a9d-31a616d5b59d"},"vehicle_type_id":"4","last_reported":1727788748,"current_range_meters":38800,"station_id":"","pricing_plan_id":"cebpf4jnsgd1na2vs0mg"},{"bike_id":"095ab7da-132b-42aa-9607-d2e19199b970","system_id":"levelo_inurba_marseille","lat":43.31498,"lon":5.37304,"is_reserved":false,"is_disabled":false,"rental_uris":{"android":"levelo://app?vid=095ab7da-132b-42aa-9607-d2e19199b970","ios":"levelo://app?vid=095ab7da-132b-42aa-9607-d2e19199b970"},"vehicle_type_id":"4","last_reported":1727788748,"current_range_meters":24800,"station_id":"ce4bgt12rcd13ifvqcd0","pricing_plan_id":"cebpf4jnsgd1na2vs0mg"},{"bike_id":"acb787c4-9c59-4b85-8997-f10dd67ce106","system_id":"levelo_inurba_marseille","lat":43.30194,"lon":5.36612,"is_reserved":false,"is_disabled":false,"rental_uris":{"android":"levelo://app?vid=acb787c4-9c59-4b85-8997-f10dd67ce106","ios":"levelo://app?vid=acb787c4-9c59-4b85-8997-f10dd67ce106"},"vehicle_type_id":"4","last_reported":1727788748,"current_range_meters":8400,"station_id":"ce4bgrh2rcd13ifvqc8g","pricing_plan_id":"cebpf4jnsgd1na2vs0mg"},{"bike_id":"2ca88727-a0ac-41e3-9b75-38db84bdf5af","system_id":"levelo_inurba_marseille","lat":43.27569,"lon":5.38402,"is_reserved":false,"is_disabled":false,"rental_uris":{"android":"levelo://app?vid=2ca88727-a0ac-41e3-9b75-38db84bdf5af","ios":"levelo://app?vid=2ca88727-a0ac-41e3-9b75-38db84bdf5af"},"vehicle_type_id":"4","last_reported":1727788748,"current_range_meters":38000,"station_id":"ce4bhh92rcd13ifvqfi0","pricing_plan_id":"cebpf4jnsgd1na2vs0mg"},{"bike_id":"8f64f2d6-2fb9-4030-8e61-47c767c8f9e0","system_id":"levelo_inurba_marseille","lat":43.25586,"lon":5.38222,"is_reserved":false,"is_disabled":false,"rental_uris":{"android":"levelo://app?vid=8f64f2d6-2fb9-4030-8e61-47c767c8f9e0","ios":"levelo://app?vid=8f64f2d6-2fb9-4030-8e61-47c767c8f9e0"},"vehicle_type_id":"4","last_reported":1727788748,"current_range_meters":25200,"station_id":"ce4bhih2rcd13ifvqfs0","pricing_plan_id":"cebpf4jnsgd1na2vs0mg"},{"bike_id":"6f2ae92f-23a2-4f11-8edb-90c2c8fd879f","system_id":"levelo_inurba_marseille","lat":43.35142,"lon":5.43843,"is_reserved":false,"is_disabled":false,"rental_uris":{"android":"levelo://app?vid=6f2ae92f-23a2-4f11-8edb-90c2c8fd879f","ios":"levelo://app?vid=6f2ae92f-23a2-4f11-8edb-90c2c8fd879f"},"vehicle_type_id":"4","last_reported":1727788748,"current_range_meters":26800,"station_id":"","pricing_plan_id":"cebpf4jnsgd1na2vs0mg"},{"bike_id":"575a6bea-c1f2-41de-b6e4-0cd7034528b3","system_id":"levelo_inurba_marseille","lat":43.28709,"lon":5.37402,"is_reserved":false,"is_disabled":false,"rental_uris":{"android":"levelo://app?vid=575a6bea-c1f2-41de-b6e4-0cd7034528b3","ios":"levelo://app?vid=575a6bea-c1f2-41de-b6e4-0cd7034528b3"},"vehicle_type_id":"4","last_reported":1727788748,"current_range_meters":30000,"station_id":"ce4bh3p2rcd13ifvqdq0","pricing_plan_id":"cebpf4jnsgd1na2vs0mg"},{"bike_id":"2d1e394b-c65c-48dd-8f6c-7fbd688f784e","system_id":"levelo_inurba_marseille","lat":43.31642,"lon":5.3879,"is_reserved":false,"is_disabled":false,"rental_uris":{"android":"levelo://app?vid=2d1e394b-c65c-48dd-8f6c-7fbd688f784e","ios":"levelo://app?vid=2d1e394b-c65c-48dd-8f6c-7fbd688f784e"},"vehicle_type_id":"4","last_reported":1727788748,"current_range_meters":14400,"station_id":"ce4bhqp2rcd13ifvqhng","pricing_plan_id":"cebpf4jnsgd1na2vs0mg"},{"bike_id":"5d045a6a-0471-4c2f-8800-23b3d31aa817","system_id":"levelo_inurba_marseille","lat":43.29967,"lon":5.38482,"is_reserved":false,"is_disabled":false,"rental_uris":{"android":"levelo://app?vid=5d045a6a-0471-4c2f-8800-23b3d31aa817","ios":"levelo://app?vid=5d045a6a-0471-4c2f-8800-23b3d31aa817"},"vehicle_type_id":"4","last_reported":1727788748,"current_range_meters":32800,"station_id":"ce4bgj92rcd13ifvqbd0","pricing_plan_id":"cebpf4jnsgd1na2vs0mg"},{"bike_id":"ab80b424-bfc5-4709-9b95-a2bee6a56f64","system_id":"levelo_inurba_marseille","lat":43.32292,"lon":5.38261,"is_reserved":false,"is_disabled":false,"rental_uris":{"android":"levelo://app?vid=ab80b424-bfc5-4709-9b95-a2bee6a56f64","ios":"levelo://app?vid=ab80b424-bfc5-4709-9b95-a2bee6a56f64"},"vehicle_type_id":"4","last_reported":1727788748,"current_range_meters":38800,"station_id":"ce4bhr12rcd13ifvqhqg","pricing_plan_id":"cebpf4jnsgd1na2vs0mg"},{"bike_id":"e3032f9d-4cf2-460c-b529-d9dc0db3ec9c","system_id":"levelo_inurba_marseille","lat":43.29272,"lon":5.36843,"is_reserved":false,"is_disabled":false,"rental_uris":{"android":"levelo://app?vid=e3032f9d-4cf2-460c-b529-d9dc0db3ec9c","ios":"levelo://app?vid=e3032f9d-4cf2-460c-b529-d9dc0db3ec9c"},"vehicle_type_id":"4","last_reported":1727788748,"current_range_meters":38800,"station_id":"ce4bhbp2rcd13ifvqesg","pricing_plan_id":"cebpf4jnsgd1na2vs0mg"},{"bike_id":"8e42ff94-8990-44d6-9631-47a146d1e99a","system_id":"levelo_inurba_marseille","lat":43.271301,"lon":5.392374,"is_reserved":false,"is_disabled":false,"rental_uris":{"android":"levelo://app?vid=8e42ff94-8990-44d6-9631-47a146d1e99a","ios":"levelo://app?vid=8e42ff94-8990-44d6-9631-47a146d1e99a"},"vehicle_type_id":"4","last_reported":1727788748,"current_range_meters":30000,"station_id":"ce4bhhp2rcd13ifvqfm0","pricing_plan_id":"cebpf4jnsgd1na2vs0mg"},{"bike_id":"dd05cf58-177b-4d66-8ca2-fe7872404e55","system_id":"levelo_inurba_marseille","lat":43.23153,"lon":5.43707,"is_reserved":false,"is_disabled":false,"rental_uris":{"android":"levelo://app?vid=dd05cf58-177b-4d66-8ca2-fe7872404e55","ios":"levelo://app?vid=dd05cf58-177b-4d66-8ca2-fe7872404e55"},"vehicle_type_id":"4","last_reported":1727788748,"current_range_meters":32400,"station_id":"ce4bhmp2rcd13ifvqgog","pricing_plan_id":"cebpf4jnsgd1na2vs0mg"},{"bike_id":"9bf5f8aa-ef99-44f8-8be1-1ba302ac4399","system_id":"levelo_inurba_marseille","lat":43.31489,"lon":5.37306,"is_reserved":false,"is_disabled":false,"rental_uris":{"android":"levelo://app?vid=9bf5f8aa-ef99-44f8-8be1-1ba302ac4399","ios":"levelo://app?vid=9bf5f8aa-ef99-44f8-8be1-1ba302ac4399"},"vehicle_type_id":"4","last_reported":1727788748,"current_range_meters":25600,"station_id":"ce4bgt12rcd13ifvqcd0","pricing_plan_id":"cebpf4jnsgd1na2vs0mg"},{"bike_id":"ee14f37a-251f-4fb3-b52f-7e8c79db3b65","system_id":"levelo_inurba_marseille","lat":43.31177,"lon":5.38719,"is_reserved":false,"is_disabled":false,"rental_uris":{"android":"levelo://app?vid=ee14f37a-251f-4fb3-b52f-7e8c79db3b65","ios":"levelo://app?vid=ee14f37a-251f-4fb3-b52f-7e8c79db3b65"},"vehicle_type_id":"4","last_reported":1727788748,"current_range_meters":23200,"station_id":"ce4bgv12rcd13ifvqcp0","pricing_plan_id":"cebpf4jnsgd1na2vs0mg"},{"bike_id":"f493192b-13c6-47a1-9573-739dd32e633f","system_id":"levelo_inurba_marseille","lat":43.337444,"lon":5.374475,"is_reserved":false,"is_disabled":false,"rental_uris":{"android":"levelo://app?vid=f493192b-13c6-47a1-9573-739dd32e633f","ios":"levelo://app?vid=f493192b-13c6-47a1-9573-739dd32e633f"},"vehicle_type_id":"4","last_reported":1727788748,"current_range_meters":17200,"station_id":"","pricing_plan_id":"cebpf4jnsgd1na2vs0mg"},{"bike_id":"871cc798-ec6d-413a-b9c6-473cf0249522","system_id":"levelo_inurba_marseille","lat":43.26792,"lon":5.39406,"is_reserved":false,"is_disabled":false,"rental_uris":{"android":"levelo://app?vid=871cc798-ec6d-413a-b9c6-473cf0249522","ios":"levelo://app?vid=871cc798-ec6d-413a-b9c6-473cf0249522"},"vehicle_type_id":"4","last_reported":1727788748,"current_range_meters":17600,"station_id":"ce4bhh12rcd13ifvqfg0","pricing_plan_id":"cebpf4jnsgd1na2vs0mg"},{"bike_id":"212206ff-fd53-4c9a-b7f8-41b240aa41b0","system_id":"levelo_inurba_marseille","lat":43.30322,"lon":5.36891,"is_reserved":false,"is_disabled":false,"rental_uris":{"android":"levelo://app?vid=212206ff-fd53-4c9a-b7f8-41b240aa41b0","ios":"levelo://app?vid=212206ff-fd53-4c9a-b7f8-41b240aa41b0"},"vehicle_type_id":"4","last_reported":1727788748,"current_range_meters":18800,"station_id":"ce4bgqh2rcd13ifvqc5g","pricing_plan_id":"cebpf4jnsgd1na2vs0mg"},{"bike_id":"3dab0a02-c252-4bc7-9c17-a17097a1ad7c","system_id":"levelo_inurba_marseille","lat":43.27499,"lon":5.42454,"is_reserved":false,"is_disabled":false,"rental_uris":{"android":"levelo://app?vid=3dab0a02-c252-4bc7-9c17-a17097a1ad7c","ios":"levelo://app?vid=3dab0a02-c252-4bc7-9c17-a17097a1ad7c"},"vehicle_type_id":"4","last_reported":1727788748,"current_range_meters":14400,"station_id":"ce4bhn92rcd13ifvqgrg","pricing_plan_id":"cebpf4jnsgd1na2vs0mg"},{"bike_id":"8703bcf1-8807-48a1-9dff-1bc4fd084e21","system_id":"levelo_inurba_marseille","lat":43.30781,"lon":5.3765,"is_reserved":false,"is_disabled":false,"rental_uris":{"android":"levelo://app?vid=8703bcf1-8807-48a1-9dff-1bc4fd084e21","ios":"levelo://app?vid=8703bcf1-8807-48a1-9dff-1bc4fd084e21"},"vehicle_type_id":"4","last_reported":1727788748,"current_range_meters":9600,"station_id":"ce4bgv92rcd13ifvqcq0","pricing_plan_id":"cebpf4jnsgd1na2vs0mg"},{"bike_id":"8864ce64-4139-4b69-9d65-e9b4daf2b46f","system_id":"levelo_inurba_marseille","lat":43.27572,"lon":5.38413,"is_reserved":false,"is_disabled":false,"rental_uris":{"android":"levelo://app?vid=8864ce64-4139-4b69-9d65-e9b4daf2b46f","ios":"levelo://app?vid=8864ce64-4139-4b69-9d65-e9b4daf2b46f"},"vehicle_type_id":"4","last_reported":1727788748,"current_range_meters":17600,"station_id":"ce4bhh92rcd13ifvqfi0","pricing_plan_id":"cebpf4jnsgd1na2vs0mg"},{"bike_id":"d0f3ba74-2db6-4276-a970-d6d9e934005a","system_id":"levelo_inurba_marseille","lat":43.33717,"lon":5.39177,"is_reserved":false,"is_disabled":false,"rental_uris":{"android":"levelo://app?vid=d0f3ba74-2db6-4276-a970-d6d9e934005a","ios":"levelo://app?vid=d0f3ba74-2db6-4276-a970-d6d9e934005a"},"vehicle_type_id":"4","last_reported":1727788748,"current_range_meters":10000,"station_id":"ce4bhr92rcd13ifvqhsg","pricing_plan_id":"cebpf4jnsgd1na2vs0mg"},{"bike_id":"0ce0993a-bef1-411a-860f-c03f88f8539e","system_id":"levelo_inurba_marseille","lat":43.29232,"lon":5.36071,"is_reserved":false,"is_disabled":false,"rental_uris":{"android":"levelo://app?vid=0ce0993a-bef1-411a-860f-c03f88f8539e","ios":"levelo://app?vid=0ce0993a-bef1-411a-860f-c03f88f8539e"},"vehicle_type_id":"4","last_reported":1727788748,"current_range_meters":39200,"station_id":"ce4bhbh2rcd13ifvqeqg","pricing_plan_id":"cebpf4jnsgd1na2vs0mg"},{"bike_id":"d0e1573f-cddc-486d-ab54-baae3584bfc9","system_id":"levelo_inurba_marseille","lat":43.28567,"lon":5.39492,"is_reserved":false,"is_disabled":false,"rental_uris":{"android":"levelo://app?vid=d0e1573f-cddc-486d-ab54-baae3584bfc9","ios":"levelo://app?vid=d0e1573f-cddc-486d-ab54-baae3584bfc9"},"vehicle_type_id":"4","last_reported":1727788748,"current_range_meters":8400,"station_id":"ce4bh292rcd13ifvqdg0","pricing_plan_id":"cebpf4jnsgd1na2vs0mg"},{"bike_id":"d1884546-c1ac-4a25-8524-789ccd6e7ce2","system_id":"levelo_inurba_marseille","lat":43.31485,"lon":5.37306,"is_reserved":false,"is_disabled":false,"rental_uris":{"android":"levelo://app?vid=d1884546-c1ac-4a25-8524-789ccd6e7ce2","ios":"levelo://app?vid=d1884546-c1ac-4a25-8524-789ccd6e7ce2"},"vehicle_type_id":"4","last_reported":1727788748,"current_range_meters":9200,"station_id":"ce4bgt12rcd13ifvqcd0","pricing_plan_id":"cebpf4jnsgd1na2vs0mg"},{"bike_id":"007845ee-5414-4411-80f1-39caf3732984","system_id":"levelo_inurba_marseille","lat":43.26687,"lon":5.38268,"is_reserved":false,"is_disabled":false,"rental_uris":{"android":"levelo://app?vid=007845ee-5414-4411-80f1-39caf3732984","ios":"levelo://app?vid=007845ee-5414-4411-80f1-39caf3732984"},"vehicle_type_id":"4","last_reported":1727788748,"current_range_meters":39200,"station_id":"ce4bhg92rcd13ifvqf90","pricing_plan_id":"cebpf4jnsgd1na2vs0mg"},{"bike_id":"eef0ff24-2e3f-471a-8736-b680248f123f","system_id":"levelo_inurba_marseille","lat":43.31715,"lon":5.37768,"is_reserved":false,"is_disabled":false,"rental_uris":{"android":"levelo://app?vid=eef0ff24-2e3f-471a-8736-b680248f123f","ios":"levelo://app?vid=eef0ff24-2e3f-471a-8736-b680248f123f"},"vehicle_type_id":"4","last_reported":1727788748,"current_range_meters":38400,"station_id":"ce4bgth2rcd13ifvqch0","pricing_plan_id":"cebpf4jnsgd1na2vs0mg"},{"bike_id":"007cd8f4-202e-4a0b-a22f-1270b64cf322","system_id":"levelo_inurba_marseille","lat":43.24081,"lon":5.37742,"is_reserved":false,"is_disabled":false,"rental_uris":{"android":"levelo://app?vid=007cd8f4-202e-4a0b-a22f-1270b64cf322","ios":"levelo://app?vid=007cd8f4-202e-4a0b-a22f-1270b64cf322"},"vehicle_type_id":"4","last_reported":1727788748,"current_range_meters":10800,"station_id":"ce4bhnp2rcd13ifvqgvg","pricing_plan_id":"cebpf4jnsgd1na2vs0mg"},{"bike_id":"0f4f9f1f-f594-48a8-b4f3-be039e87b701","system_id":"levelo_inurba_marseille","lat":43.3054,"lon":5.36548,"is_reserved":false,"is_disabled":false,"rental_uris":{"android":"levelo://app?vid=0f4f9f1f-f594-48a8-b4f3-be039e87b701","ios":"levelo://app?vid=0f4f9f1f-f594-48a8-b4f3-be039e87b701"},"vehicle_type_id":"4","last_reported":1727788748,"current_range_meters":31200,"station_id":"ce4bgs12rcd13ifvqcag","pricing_plan_id":"cebpf4jnsgd1na2vs0mg"},{"bike_id":"9711c5af-ceda-4c50-b517-1e16cc14a4c7","system_id":"levelo_inurba_marseille","lat":43.23151,"lon":5.43719,"is_reserved":false,"is_disabled":false,"rental_uris":{"android":"levelo://app?vid=9711c5af-ceda-4c50-b517-1e16cc14a4c7","ios":"levelo://app?vid=9711c5af-ceda-4c50-b517-1e16cc14a4c7"},"vehicle_type_id":"4","last_reported":1727788748,"current_range_meters":9600,"station_id":"ce4bhmp2rcd13ifvqgog","pricing_plan_id":"cebpf4jnsgd1na2vs0mg"},{"bike_id":"f6dbf76e-4bd3-4afa-a09b-206339ad83df","system_id":"levelo_inurba_marseille","lat":43.3095,"lon":5.39026,"is_reserved":false,"is_disabled":false,"rental_uris":{"android":"levelo://app?vid=f6dbf76e-4bd3-4afa-a09b-206339ad83df","ios":"levelo://app?vid=f6dbf76e-4bd3-4afa-a09b-206339ad83df"},"vehicle_type_id":"4","last_reported":1727788748,"current_range_meters":30800,"station_id":"ce4bgup2rcd13ifvqco0","pricing_plan_id":"cebpf4jnsgd1na2vs0mg"},{"bike_id":"183a5897-0984-468d-b2c4-9e8bedad54b5","system_id":"levelo_inurba_marseille","lat":43.27507,"lon":5.42446,"is_reserved":false,"is_disabled":false,"rental_uris":{"android":"levelo://app?vid=183a5897-0984-468d-b2c4-9e8bedad54b5","ios":"levelo://app?vid=183a5897-0984-468d-b2c4-9e8bedad54b5"},"vehicle_type_id":"4","last_reported":1727788748,"current_range_meters":30000,"station_id":"ce4bhn92rcd13ifvqgrg","pricing_plan_id":"cebpf4jnsgd1na2vs0mg"},{"bike_id":"7a6fbdaf-07a2-4e84-8a8c-85396367ba27","system_id":"levelo_inurba_marseille","lat":43.28471,"lon":5.38414,"is_reserved":false,"is_disabled":false,"rental_uris":{"android":"levelo://app?vid=7a6fbdaf-07a2-4e84-8a8c-85396367ba27","ios":"levelo://app?vid=7a6fbdaf-07a2-4e84-8a8c-85396367ba27"},"vehicle_type_id":"4","last_reported":1727788748,"current_range_meters":9200,"station_id":"ce4bh512rcd13ifvqe3g","pricing_plan_id":"cebpf4jnsgd1na2vs0mg"},{"bike_id":"73409e8e-b250-4771-8847-14f14296e42c","system_id":"levelo_inurba_marseille","lat":43.27814,"lon":5.40709,"is_reserved":false,"is_disabled":false,"rental_uris":{"android":"levelo://app?vid=73409e8e-b250-4771-8847-14f14296e42c","ios":"levelo://app?vid=73409e8e-b250-4771-8847-14f14296e42c"},"vehicle_type_id":"4","last_reported":1727788748,"current_range_meters":38000,"station_id":"ce4bhnh2rcd13ifvqgtg","pricing_plan_id":"cebpf4jnsgd1na2vs0mg"},{"bike_id":"3ec06ca6-8997-482c-bf92-ca0b9f797b1e","system_id":"levelo_inurba_marseille","lat":43.29243,"lon":5.37712,"is_reserved":false,"is_disabled":false,"rental_uris":{"android":"levelo://app?vid=3ec06ca6-8997-482c-bf92-ca0b9f797b1e","ios":"levelo://app?vid=3ec06ca6-8997-482c-bf92-ca0b9f797b1e"},"vehicle_type_id":"4","last_reported":1727788748,"current_range_meters":31200,"station_id":"ce4bhb92rcd13ifvqen0","pricing_plan_id":"cebpf4jnsgd1na2vs0mg"},{"bike_id":"5b807f00-e4e3-4c41-9acd-c6bb87d60fc6","system_id":"levelo_inurba_marseille","lat":43.28713,"lon":5.36094,"is_reserved":false,"is_disabled":false,"rental_uris":{"android":"levelo://app?vid=5b807f00-e4e3-4c41-9acd-c6bb87d60fc6","ios":"levelo://app?vid=5b807f00-e4e3-4c41-9acd-c6bb87d60fc6"},"vehicle_type_id":"4","last_reported":1727788748,"current_range_meters":3600,"station_id":"cki0cbj6b192h4jlfktg","pricing_plan_id":"cebpf4jnsgd1na2vs0mg"},{"bike_id":"51614839-5d55-45ef-a486-05189c9f6d01","system_id":"levelo_inurba_marseille","lat":43.29102,"lon":5.38136,"is_reserved":false,"is_disabled":false,"rental_uris":{"android":"levelo://app?vid=51614839-5d55-45ef-a486-05189c9f6d01","ios":"levelo://app?vid=51614839-5d55-45ef-a486-05189c9f6d01"},"vehicle_type_id":"4","last_reported":1727788748,"current_range_meters":38400,"station_id":"ce4bh512rcd13ifvqe2g","pricing_plan_id":"cebpf4jnsgd1na2vs0mg"},{"bike_id":"d832de5d-6642-4cf2-8db8-2c6418e96af4","system_id":"levelo_inurba_marseille","lat":43.291931,"lon":5.393264,"is_reserved":false,"is_disabled":false,"rental_uris":{"android":"levelo://app?vid=d832de5d-6642-4cf2-8db8-2c6418e96af4","ios":"levelo://app?vid=d832de5d-6642-4cf2-8db8-2c6418e96af4"},"vehicle_type_id":"4","last_reported":1727788748,"current_range_meters":38800,"station_id":"ce4bh192rcd13ifvqdd0","pricing_plan_id":"cebpf4jnsgd1na2vs0mg"},{"bike_id":"0cd2142c-5562-430f-861b-4e7329de9689","system_id":"levelo_inurba_marseille","lat":43.32293,"lon":5.38264,"is_reserved":false,"is_disabled":false,"rental_uris":{"android":"levelo://app?vid=0cd2142c-5562-430f-861b-4e7329de9689","ios":"levelo://app?vid=0cd2142c-5562-430f-861b-4e7329de9689"},"vehicle_type_id":"4","last_reported":1727788748,"current_range_meters":10800,"station_id":"ce4bhr12rcd13ifvqhqg","pricing_plan_id":"cebpf4jnsgd1na2vs0mg"},{"bike_id":"576c5d39-7cc5-49ed-940a-49efe1fb582e","system_id":"levelo_inurba_marseille","lat":43.282725,"lon":5.350596,"is_reserved":false,"is_disabled":false,"rental_uris":{"android":"levelo://app?vid=576c5d39-7cc5-49ed-940a-49efe1fb582e","ios":"levelo://app?vid=576c5d39-7cc5-49ed-940a-49efe1fb582e"},"vehicle_type_id":"4","last_reported":1727788748,"current_range_meters":32400,"station_id":"ce4bhbp2rcd13ifvqerg","pricing_plan_id":"cebpf4jnsgd1na2vs0mg"},{"bike_id":"93ed9f32-8eb6-478d-a260-0497e84375eb","system_id":"levelo_inurba_marseille","lat":43.3189,"lon":5.40723,"is_reserved":false,"is_disabled":false,"rental_uris":{"android":"levelo://app?vid=93ed9f32-8eb6-478d-a260-0497e84375eb","ios":"levelo://app?vid=93ed9f32-8eb6-478d-a260-0497e84375eb"},"vehicle_type_id":"4","last_reported":1727788748,"current_range_meters":37600,"station_id":"ce4bhq12rcd13ifvqhig","pricing_plan_id":"cebpf4jnsgd1na2vs0mg"},{"bike_id":"b0e18e0c-c9a0-40d2-a481-9d2d4a3cef1d","system_id":"levelo_inurba_marseille","lat":43.26933,"lon":5.38913,"is_reserved":false,"is_disabled":false,"rental_uris":{"android":"levelo://app?vid=b0e18e0c-c9a0-40d2-a481-9d2d4a3cef1d","ios":"levelo://app?vid=b0e18e0c-c9a0-40d2-a481-9d2d4a3cef1d"},"vehicle_type_id":"4","last_reported":1727788748,"current_range_meters":39200,"station_id":"ce4bhhh2rcd13ifvqfl0","pricing_plan_id":"cebpf4jnsgd1na2vs0mg"},{"bike_id":"d5462c4f-27d0-4050-9adb-ac87f8709501","system_id":"levelo_inurba_marseille","lat":43.32508,"lon":5.3659,"is_reserved":false,"is_disabled":false,"rental_uris":{"android":"levelo://app?vid=d5462c4f-27d0-4050-9adb-ac87f8709501","ios":"levelo://app?vid=d5462c4f-27d0-4050-9adb-ac87f8709501"},"vehicle_type_id":"4","last_reported":1727788748,"current_range_meters":27200,"station_id":"ce4bhs12rcd13ifvqhvg","pricing_plan_id":"cebpf4jnsgd1na2vs0mg"},{"bike_id":"0dc631b7-ceda-4a0e-b5ba-afee9b45e1f1","system_id":"levelo_inurba_marseille","lat":43.25497,"lon":5.37646,"is_reserved":false,"is_disabled":false,"rental_uris":{"android":"levelo://app?vid=0dc631b7-ceda-4a0e-b5ba-afee9b45e1f1","ios":"levelo://app?vid=0dc631b7-ceda-4a0e-b5ba-afee9b45e1f1"},"vehicle_type_id":"4","last_reported":1727788748,"current_range_meters":24800,"station_id":"ce4bhh12rcd13ifvqff0","pricing_plan_id":"cebpf4jnsgd1na2vs0mg"},{"bike_id":"30979ffb-9c93-4c6d-a4f1-285841e6b16a","system_id":"levelo_inurba_marseille","lat":43.28008,"lon":5.40007,"is_reserved":false,"is_disabled":false,"rental_uris":{"android":"levelo://app?vid=30979ffb-9c93-4c6d-a4f1-285841e6b16a","ios":"levelo://app?vid=30979ffb-9c93-4c6d-a4f1-285841e6b16a"},"vehicle_type_id":"4","last_reported":1727788748,"current_range_meters":26000,"station_id":"ce4bho92rcd13ifvqh4g","pricing_plan_id":"cebpf4jnsgd1na2vs0mg"},{"bike_id":"ed7c22d5-cb0d-4a1b-b67f-a87922e5f78f","system_id":"levelo_inurba_marseille","lat":43.25728,"lon":5.41108,"is_reserved":false,"is_disabled":false,"rental_uris":{"android":"levelo://app?vid=ed7c22d5-cb0d-4a1b-b67f-a87922e5f78f","ios":"levelo://app?vid=ed7c22d5-cb0d-4a1b-b67f-a87922e5f78f"},"vehicle_type_id":"4","last_reported":1727788748,"current_range_meters":16400,"station_id":"ce4bhkp2rcd13ifvqgd0","pricing_plan_id":"cebpf4jnsgd1na2vs0mg"},{"bike_id":"45e9784c-079a-4a87-984a-57237128adeb","system_id":"levelo_inurba_marseille","lat":43.29577,"lon":5.39962,"is_reserved":false,"is_disabled":false,"rental_uris":{"android":"levelo://app?vid=45e9784c-079a-4a87-984a-57237128adeb","ios":"levelo://app?vid=45e9784c-079a-4a87-984a-57237128adeb"},"vehicle_type_id":"4","last_reported":1727788748,"current_range_meters":32000,"station_id":"ce4bh312rcd13ifvqdj0","pricing_plan_id":"cebpf4jnsgd1na2vs0mg"},{"bike_id":"c84e5d59-30fc-4713-b481-61636401509d","system_id":"levelo_inurba_marseille","lat":43.26567,"lon":5.39002,"is_reserved":false,"is_disabled":false,"rental_uris":{"android":"levelo://app?vid=c84e5d59-30fc-4713-b481-61636401509d","ios":"levelo://app?vid=c84e5d59-30fc-4713-b481-61636401509d"},"vehicle_type_id":"4","last_reported":1727788748,"current_range_meters":24800,"station_id":"ce4bhe12rcd13ifvqf30","pricing_plan_id":"cebpf4jnsgd1na2vs0mg"},{"bike_id":"3c7a42cc-b681-47e6-903e-b9d6f73e4493","system_id":"levelo_inurba_marseille","lat":43.25506,"lon":5.37648,"is_reserved":false,"is_disabled":false,"rental_uris":{"android":"levelo://app?vid=3c7a42cc-b681-47e6-903e-b9d6f73e4493","ios":"levelo://app?vid=3c7a42cc-b681-47e6-903e-b9d6f73e4493"},"vehicle_type_id":"4","last_reported":1727788748,"current_range_meters":28800,"station_id":"ce4bhh12rcd13ifvqff0","pricing_plan_id":"cebpf4jnsgd1na2vs0mg"},{"bike_id":"2d7439c9-83ec-4fba-a8cc-813889000f94","system_id":"levelo_inurba_marseille","lat":43.23202,"lon":5.3555,"is_reserved":false,"is_disabled":false,"rental_uris":{"android":"levelo://app?vid=2d7439c9-83ec-4fba-a8cc-813889000f94","ios":"levelo://app?vid=2d7439c9-83ec-4fba-a8cc-813889000f94"},"vehicle_type_id":"4","last_reported":1727788748,"current_range_meters":36800,"station_id":"ce4bhu92rcd13ifvqi70","pricing_plan_id":"cebpf4jnsgd1na2vs0mg"},{"bike_id":"283c0a19-b0ec-4986-9e09-c097d5d27e38","system_id":"levelo_inurba_marseille","lat":43.23158,"lon":5.43691,"is_reserved":false,"is_disabled":false,"rental_uris":{"android":"levelo://app?vid=283c0a19-b0ec-4986-9e09-c097d5d27e38","ios":"levelo://app?vid=283c0a19-b0ec-4986-9e09-c097d5d27e38"},"vehicle_type_id":"4","last_reported":1727788748,"current_range_meters":38400,"station_id":"ce4bhmp2rcd13ifvqgog","pricing_plan_id":"cebpf4jnsgd1na2vs0mg"},{"bike_id":"d99b474d-d305-4c71-9e88-87873f7d97f0","system_id":"levelo_inurba_marseille","lat":43.28002,"lon":5.41656,"is_reserved":false,"is_disabled":false,"rental_uris":{"android":"levelo://app?vid=d99b474d-d305-4c71-9e88-87873f7d97f0","ios":"levelo://app?vid=d99b474d-d305-4c71-9e88-87873f7d97f0"},"vehicle_type_id":"4","last_reported":1727788748,"current_range_meters":8000,"station_id":"ce4bho12rcd13ifvqh1g","pricing_plan_id":"cebpf4jnsgd1na2vs0mg"},{"bike_id":"8576904b-032c-43e4-bb78-8528521d0595","system_id":"levelo_inurba_marseille","lat":43.28467,"lon":5.38415,"is_reserved":false,"is_disabled":false,"rental_uris":{"android":"levelo://app?vid=8576904b-032c-43e4-bb78-8528521d0595","ios":"levelo://app?vid=8576904b-032c-43e4-bb78-8528521d0595"},"vehicle_type_id":"4","last_reported":1727788748,"current_range_meters":33600,"station_id":"ce4bh512rcd13ifvqe3g","pricing_plan_id":"cebpf4jnsgd1na2vs0mg"},{"bike_id":"82e95409-69d7-4d50-a92e-e7f84edf9553","system_id":"levelo_inurba_marseille","lat":43.30606,"lon":5.37215,"is_reserved":false,"is_disabled":false,"rental_uris":{"android":"levelo://app?vid=82e95409-69d7-4d50-a92e-e7f84edf9553","ios":"levelo://app?vid=82e95409-69d7-4d50-a92e-e7f84edf9553"},"vehicle_type_id":"4","last_reported":1727788748,"current_range_meters":38800,"station_id":"ce4bgqh2rcd13ifvqc4g","pricing_plan_id":"cebpf4jnsgd1na2vs0mg"},{"bike_id":"b24c5e01-c56f-4e77-8471-c089ded50c3a","system_id":"levelo_inurba_marseille","lat":43.31493,"lon":5.37294,"is_reserved":false,"is_disabled":false,"rental_uris":{"android":"levelo://app?vid=b24c5e01-c56f-4e77-8471-c089ded50c3a","ios":"levelo://app?vid=b24c5e01-c56f-4e77-8471-c089ded50c3a"},"vehicle_type_id":"4","last_reported":1727788748,"current_range_meters":38000,"station_id":"ce4bgt12rcd13ifvqcd0","pricing_plan_id":"cebpf4jnsgd1na2vs0mg"},{"bike_id":"6a49e557-9211-404f-ba06-cfe6ed801b58","system_id":"levelo_inurba_marseille","lat":43.30537,"lon":5.36707,"is_reserved":false,"is_disabled":false,"rental_uris":{"android":"levelo://app?vid=6a49e557-9211-404f-ba06-cfe6ed801b58","ios":"levelo://app?vid=6a49e557-9211-404f-ba06-cfe6ed801b58"},"vehicle_type_id":"4","last_reported":1727788748,"current_range_meters":30800,"station_id":"ce4bgrp2rcd13ifvqc9g","pricing_plan_id":"cebpf4jnsgd1na2vs0mg"},{"bike_id":"377e2b38-ce09-49eb-8804-9907aec30b43","system_id":"levelo_inurba_marseille","lat":43.31723,"lon":5.42387,"is_reserved":false,"is_disabled":false,"rental_uris":{"android":"levelo://app?vid=377e2b38-ce09-49eb-8804-9907aec30b43","ios":"levelo://app?vid=377e2b38-ce09-49eb-8804-9907aec30b43"},"vehicle_type_id":"4","last_reported":1727788748,"current_range_meters":36800,"station_id":"ce4bhp92rcd13ifvqhbg","pricing_plan_id":"cebpf4jnsgd1na2vs0mg"},{"bike_id":"73facc25-96a3-4509-b07e-5c34850115eb","system_id":"levelo_inurba_marseille","lat":43.27951,"lon":5.38713,"is_reserved":false,"is_disabled":false,"rental_uris":{"android":"levelo://app?vid=73facc25-96a3-4509-b07e-5c34850115eb","ios":"levelo://app?vid=73facc25-96a3-4509-b07e-5c34850115eb"},"vehicle_type_id":"4","last_reported":1727788748,"current_range_meters":28000,"station_id":"ce4bhg12rcd13ifvqf80","pricing_plan_id":"cebpf4jnsgd1na2vs0mg"},{"bike_id":"b842672e-711f-4111-af0c-8584d4d24930","system_id":"levelo_inurba_marseille","lat":43.30133,"lon":5.39856,"is_reserved":false,"is_disabled":false,"rental_uris":{"android":"levelo://app?vid=b842672e-711f-4111-af0c-8584d4d24930","ios":"levelo://app?vid=b842672e-711f-4111-af0c-8584d4d24930"},"vehicle_type_id":"4","last_reported":1727788748,"current_range_meters":8400,"station_id":"ce4bh0h2rcd13ifvqd40","pricing_plan_id":"cebpf4jnsgd1na2vs0mg"},{"bike_id":"52a76648-cdb2-499d-aa68-a9a9d61c874b","system_id":"levelo_inurba_marseille","lat":43.25927,"lon":5.40897,"is_reserved":false,"is_disabled":false,"rental_uris":{"android":"levelo://app?vid=52a76648-cdb2-499d-aa68-a9a9d61c874b","ios":"levelo://app?vid=52a76648-cdb2-499d-aa68-a9a9d61c874b"},"vehicle_type_id":"4","last_reported":1727788748,"current_range_meters":11200,"station_id":"ce4bhm92rcd13ifvqglg","pricing_plan_id":"cebpf4jnsgd1na2vs0mg"},{"bike_id":"cf7d9397-7d58-41e7-a1c5-576806d8d02e","system_id":"levelo_inurba_marseille","lat":43.2922,"lon":5.36072,"is_reserved":false,"is_disabled":false,"rental_uris":{"android":"levelo://app?vid=cf7d9397-7d58-41e7-a1c5-576806d8d02e","ios":"levelo://app?vid=cf7d9397-7d58-41e7-a1c5-576806d8d02e"},"vehicle_type_id":"4","last_reported":1727788748,"current_range_meters":34000,"station_id":"ce4bhbh2rcd13ifvqeqg","pricing_plan_id":"cebpf4jnsgd1na2vs0mg"},{"bike_id":"3fe1e418-ff69-48ad-a3e6-42ed71be04e6","system_id":"levelo_inurba_marseille","lat":43.27999,"lon":5.40013,"is_reserved":false,"is_disabled":false,"rental_uris":{"android":"levelo://app?vid=3fe1e418-ff69-48ad-a3e6-42ed71be04e6","ios":"levelo://app?vid=3fe1e418-ff69-48ad-a3e6-42ed71be04e6"},"vehicle_type_id":"4","last_reported":1727788748,"current_range_meters":24000,"station_id":"ce4bho92rcd13ifvqh4g","pricing_plan_id":"cebpf4jnsgd1na2vs0mg"},{"bike_id":"0f78693e-76cf-4bf3-9ed6-b829556f2de0","system_id":"levelo_inurba_marseille","lat":43.27679,"lon":5.38872,"is_reserved":false,"is_disabled":false,"rental_uris":{"android":"levelo://app?vid=0f78693e-76cf-4bf3-9ed6-b829556f2de0","ios":"levelo://app?vid=0f78693e-76cf-4bf3-9ed6-b829556f2de0"},"vehicle_type_id":"4","last_reported":1727788748,"current_range_meters":8400,"station_id":"ce4bhi12rcd13ifvqfo0","pricing_plan_id":"cebpf4jnsgd1na2vs0mg"},{"bike_id":"9f0079fa-d286-47cf-b1c2-0fba1b9d48a3","system_id":"levelo_inurba_marseille","lat":43.30548,"lon":5.36536,"is_reserved":false,"is_disabled":false,"rental_uris":{"android":"levelo://app?vid=9f0079fa-d286-47cf-b1c2-0fba1b9d48a3","ios":"levelo://app?vid=9f0079fa-d286-47cf-b1c2-0fba1b9d48a3"},"vehicle_type_id":"4","last_reported":1727788748,"current_range_meters":31200,"station_id":"ce4bgs12rcd13ifvqcag","pricing_plan_id":"cebpf4jnsgd1na2vs0mg"},{"bike_id":"901aceb5-5a58-4939-83fb-5b301ee0314a","system_id":"levelo_inurba_marseille","lat":43.29876,"lon":5.38903,"is_reserved":false,"is_disabled":false,"rental_uris":{"android":"levelo://app?vid=901aceb5-5a58-4939-83fb-5b301ee0314a","ios":"levelo://app?vid=901aceb5-5a58-4939-83fb-5b301ee0314a"},"vehicle_type_id":"4","last_reported":1727788748,"current_range_meters":15200,"station_id":"ce4bh392rcd13ifvqdl0","pricing_plan_id":"cebpf4jnsgd1na2vs0mg"},{"bike_id":"e1b738c0-eac1-49b2-8f71-f4b5e929f51c","system_id":"levelo_inurba_marseille","lat":43.29837,"lon":5.36258,"is_reserved":false,"is_disabled":false,"rental_uris":{"android":"levelo://app?vid=e1b738c0-eac1-49b2-8f71-f4b5e929f51c","ios":"levelo://app?vid=e1b738c0-eac1-49b2-8f71-f4b5e929f51c"},"vehicle_type_id":"4","last_reported":1727788748,"current_range_meters":20800,"station_id":"ce4bgpp2rcd13ifvqc3g","pricing_plan_id":"cebpf4jnsgd1na2vs0mg"},{"bike_id":"fbf2244a-541f-49e1-9715-9965a334a70e","system_id":"levelo_inurba_marseille","lat":43.3414,"lon":5.40898,"is_reserved":false,"is_disabled":false,"rental_uris":{"android":"levelo://app?vid=fbf2244a-541f-49e1-9715-9965a334a70e","ios":"levelo://app?vid=fbf2244a-541f-49e1-9715-9965a334a70e"},"vehicle_type_id":"4","last_reported":1727788748,"current_range_meters":26000,"station_id":"ce4bhqh2rcd13ifvqhlg","pricing_plan_id":"cebpf4jnsgd1na2vs0mg"},{"bike_id":"7a00b84c-c8f5-481b-9967-09ed93289fef","system_id":"levelo_inurba_marseille","lat":43.3089,"lon":5.3965,"is_reserved":false,"is_disabled":false,"rental_uris":{"android":"levelo://app?vid=7a00b84c-c8f5-481b-9967-09ed93289fef","ios":"levelo://app?vid=7a00b84c-c8f5-481b-9967-09ed93289fef"},"vehicle_type_id":"4","last_reported":1727788748,"current_range_meters":11600,"station_id":"ce4bh012rcd13ifvqcv0","pricing_plan_id":"cebpf4jnsgd1na2vs0mg"},{"bike_id":"2ed36a11-5e83-4a67-bd66-efe684933ead","system_id":"levelo_inurba_marseille","lat":43.31351,"lon":5.36701,"is_reserved":false,"is_disabled":false,"rental_uris":{"android":"levelo://app?vid=2ed36a11-5e83-4a67-bd66-efe684933ead","ios":"levelo://app?vid=2ed36a11-5e83-4a67-bd66-efe684933ead"},"vehicle_type_id":"4","last_reported":1727788748,"current_range_meters":39200,"station_id":"ce4bgr92rcd13ifvqc6g","pricing_plan_id":"cebpf4jnsgd1na2vs0mg"},{"bike_id":"2f69bf49-02aa-4552-97e7-4b6a3e98e961","system_id":"levelo_inurba_marseille","lat":43.28165,"lon":5.42637,"is_reserved":false,"is_disabled":false,"rental_uris":{"android":"levelo://app?vid=2f69bf49-02aa-4552-97e7-4b6a3e98e961","ios":"levelo://app?vid=2f69bf49-02aa-4552-97e7-4b6a3e98e961"},"vehicle_type_id":"4","last_reported":1727788748,"current_range_meters":8800,"station_id":"ce4bhnh2rcd13ifvqgug","pricing_plan_id":"cebpf4jnsgd1na2vs0mg"},{"bike_id":"6e4e18d8-1b46-480e-a81c-4aaa5a2672c2","system_id":"levelo_inurba_marseille","lat":43.23156,"lon":5.43699,"is_reserved":false,"is_disabled":false,"rental_uris":{"android":"levelo://app?vid=6e4e18d8-1b46-480e-a81c-4aaa5a2672c2","ios":"levelo://app?vid=6e4e18d8-1b46-480e-a81c-4aaa5a2672c2"},"vehicle_type_id":"4","last_reported":1727788748,"current_range_meters":17200,"station_id":"ce4bhmp2rcd13ifvqgog","pricing_plan_id":"cebpf4jnsgd1na2vs0mg"},{"bike_id":"a86ac359-1547-4175-bce3-51b63efa0be5","system_id":"levelo_inurba_marseille","lat":43.30157,"lon":5.38085,"is_reserved":false,"is_disabled":false,"rental_uris":{"android":"levelo://app?vid=a86ac359-1547-4175-bce3-51b63efa0be5","ios":"levelo://app?vid=a86ac359-1547-4175-bce3-51b63efa0be5"},"vehicle_type_id":"4","last_reported":1727788748,"current_range_meters":8800,"station_id":"ce4bh9p2rcd13ifvqec0","pricing_plan_id":"cebpf4jnsgd1na2vs0mg"},