{"last_updated":1777482944,"ttl":60,"version":"2.2","data":{"bikes":[{"bike_id":"4541a58b-5803-4873-8531-8182c7674429","system_id":"levelo_inurba_marseille","lat":43.2848,"lon":5.48403,"is_reserved":false,"is_disabled":false,"rental_uris":{"android":"levelo://app?vid=4541a58b-5803-4873-8531-8182c7674429","ios":"levelo://app?vid=4541a58b-5803-4873-8531-8182c7674429"},"vehicle_type_id":"4","last_reported":1777482945,"current_range_meters":2800,"station_id":"st_d3svhcjqgbts73a3dn0g","pricing_plan_id":"cebpf4jnsgd1na2vs0mg"},{"bike_id":"cd698e11-7abb-43cb-abc8-11f13b8b3b23","system_id":"levelo_inurba_marseille","lat":43.28472,"lon":5.38411,"is_reserved":false,"is_disabled":false,"rental_uris":{"android":"levelo://app?vid=cd698e11-7abb-43cb-abc8-11f13b8b3b23","ios":"levelo://app?vid=cd698e11-7abb-43cb-abc8-11f13b8b3b23"},"vehicle_type_id":"4","last_reported":1777482945,"current_range_meters":2800,"station_id":"ce4bh512rcd13ifvqe3g","pricing_plan_id":"cebpf4jnsgd1na2vs0mg"},{"bike_id":"8922d9cc-4538-437c-ba00-894a5788fff7","system_id":"levelo_inurba_marseille","lat":43.225311,"lon":5.348342,"is_reserved":false,"is_disabled":true,"rental_uris":{"android":"levelo://app?vid=8922d9cc-4538-437c-ba00-894a5788fff7","ios":"levelo://app?vid=8922d9cc-4538-437c-ba00-894a5788fff7"},"vehicle_type_id":"4","last_reported":1777482945,"current_range_meters":2800,"station_id":"st_cvj5dfep6f1abm77gieg","pricing_plan_id":"cebpf4jnsgd1na2vs0mg"},{"bike_id":"0a5d1767-9589-44ef-a4c6-f150a9a295a6","system_id":"levelo_inurba_marseille","lat":43.23973,"lon":5.36634,"is_reserved":false,"is_disabled":false,"rental_uris":{"android":"levelo://app?vid=0a5d1767-9589-44ef-a4c6-f150a9a295a6","ios":"levelo://app?vid=0a5d1767-9589-44ef-a4c6-f150a9a295a6"},"vehicle_type_id":"4","last_reported":1777482945,"current_range_meters":2800,"station_id":"ce4bhi12rcd13ifvqfp0","pricing_plan_id":"cebpf4jnsgd1na2vs0mg"},{"bike_id":"09636c5c-2807-41c7-8174-198c444db92b","system_id":"levelo_inurba_marseille","lat":43.27378,"lon":5.36267,"is_reserved":false,"is_disabled":false,"rental_uris":{"android":"levelo://app?vid=09636c5c-2807-41c7-8174-198c444db92b","ios":"levelo://app?vid=09636c5c-2807-41c7-8174-198c444db92b"},"vehicle_type_id":"4","last_reported":1777482945,"current_range_meters":2800,"station_id":"ce4bhbh2rcd13ifvqeo0","pricing_plan_id":"cebpf4jnsgd1na2vs0mg"},{"bike_id":"118f6320-4bb5-4d78-8e35-0d993dff10a0","system_id":"levelo_inurba_marseille","lat":43.29341,"lon":5.38196,"is_reserved":false,"is_disabled":false,"rental_uris":{"android":"levelo://app?vid=118f6320-4bb5-4d78-8e35-0d993dff10a0","ios":"levelo://app?vid=118f6320-4bb5-4d78-8e35-0d993dff10a0"},"vehicle_type_id":"4","last_reported":1777482945,"current_range_meters":2800,"station_id":"","pricing_plan_id":"cebpf4jnsgd1na2vs0mg"},{"bike_id":"8b4e6bd3-1e82-4277-a45a-3a8abaa4e3ab","system_id":"levelo_inurba_marseille","lat":43.28483,"lon":5.48385,"is_reserved":false,"is_disabled":false,"rental_uris":{"android":"levelo://app?vid=8b4e6bd3-1e82-4277-a45a-3a8abaa4e3ab","ios":"levelo://app?vid=8b4e6bd3-1e82-4277-a45a-3a8abaa4e3ab"},"vehicle_type_id":"4","last_reported":1777482945,"current_range_meters":2800,"station_id":"","pricing_plan_id":"cebpf4jnsgd1na2vs0mg"},{"bike_id":"bc9cf432-c835-4690-960e-f7f1423c8f92","system_id":"levelo_inurba_marseille","lat":43.24666,"lon":5.38166,"is_reserved":false,"is_disabled":false,"rental_uris":{"android":"levelo://app?vid=bc9cf432-c835-4690-960e-f7f1423c8f92","ios":"levelo://app?vid=bc9cf432-c835-4690-960e-f7f1423c8f92"},"vehicle_type_id":"4","last_reported":1777482945,"current_range_meters":2800,"station_id":"ce4bhih2rcd13ifvqfr0","pricing_plan_id":"cebpf4jnsgd1na2vs0mg"},{"bike_id":"7e31c142-7413-41b0-a03e-d77a039ebcfd","system_id":"levelo_inurba_marseille","lat":43.27375,"lon":5.36257,"is_reserved":false,"is_disabled":false,"rental_uris":{"android":"levelo://app?vid=7e31c142-7413-41b0-a03e-d77a039ebcfd","ios":"levelo://app?vid=7e31c142-7413-41b0-a03e-d77a039ebcfd"},"vehicle_type_id":"4","last_reported":1777482945,"current_range_meters":3200,"station_id":"ce4bhbh2rcd13ifvqeo0","pricing_plan_id":"cebpf4jnsgd1na2vs0mg"},{"bike_id":"c5474aba-aaa7-4f76-9065-0b3d8135b493","system_id":"levelo_inurba_marseille","lat":43.29873,"lon":5.39729,"is_reserved":false,"is_disabled":false,"rental_uris":{"android":"levelo://app?vid=c5474aba-aaa7-4f76-9065-0b3d8135b493","ios":"levelo://app?vid=c5474aba-aaa7-4f76-9065-0b3d8135b493"},"vehicle_type_id":"4","last_reported":1777482945,"current_range_meters":3200,"station_id":"ce4bh0h2rcd13ifvqd50","pricing_plan_id":"cebpf4jnsgd1na2vs0mg"},{"bike_id":"9cdd601e-c9b9-487f-9cae-fbd145d3460a","system_id":"levelo_inurba_marseille","lat":43.2883,"lon":5.35906,"is_reserved":false,"is_disabled":false,"rental_uris":{"android":"levelo://app?vid=9cdd601e-c9b9-487f-9cae-fbd145d3460a","ios":"levelo://app?vid=9cdd601e-c9b9-487f-9cae-fbd145d3460a"},"vehicle_type_id":"4","last_reported":1777482945,"current_range_meters":3200,"station_id":"","pricing_plan_id":"cebpf4jnsgd1na2vs0mg"},{"bike_id":"4270aae8-e264-480b-92cb-ab14365bf324","system_id":"levelo_inurba_marseille","lat":43.29524,"lon":5.37508,"is_reserved":false,"is_disabled":false,"rental_uris":{"android":"levelo://app?vid=4270aae8-e264-480b-92cb-ab14365bf324","ios":"levelo://app?vid=4270aae8-e264-480b-92cb-ab14365bf324"},"vehicle_type_id":"4","last_reported":1777482945,"current_range_meters":3200,"station_id":"ce4bgkp2rcd13ifvqbmg","pricing_plan_id":"cebpf4jnsgd1na2vs0mg"},{"bike_id":"a4a28c2d-1567-4703-968c-00ac39a36f2a","system_id":"levelo_inurba_marseille","lat":43.28696,"lon":5.37387,"is_reserved":false,"is_disabled":false,"rental_uris":{"android":"levelo://app?vid=a4a28c2d-1567-4703-968c-00ac39a36f2a","ios":"levelo://app?vid=a4a28c2d-1567-4703-968c-00ac39a36f2a"},"vehicle_type_id":"4","last_reported":1777482945,"current_range_meters":3200,"station_id":"ce4bh3p2rcd13ifvqdq0","pricing_plan_id":"cebpf4jnsgd1na2vs0mg"},{"bike_id":"76907408-a8ff-4688-9cbf-66e48bb415e8","system_id":"levelo_inurba_marseille","lat":43.28708,"lon":5.46682,"is_reserved":false,"is_disabled":false,"rental_uris":{"android":"levelo://app?vid=76907408-a8ff-4688-9cbf-66e48bb415e8","ios":"levelo://app?vid=76907408-a8ff-4688-9cbf-66e48bb415e8"},"vehicle_type_id":"4","last_reported":1777482945,"current_range_meters":3200,"station_id":"st_d6tc3vkotcvc738tfjhg","pricing_plan_id":"cebpf4jnsgd1na2vs0mg"},{"bike_id":"eb322945-416a-42dd-9817-fa1d2c1c132e","system_id":"levelo_inurba_marseille","lat":43.28939,"lon":5.36636,"is_reserved":false,"is_disabled":false,"rental_uris":{"android":"levelo://app?vid=eb322945-416a-42dd-9817-fa1d2c1c132e","ios":"levelo://app?vid=eb322945-416a-42dd-9817-fa1d2c1c132e"},"vehicle_type_id":"4","last_reported":1777482945,"current_range_meters":3200,"station_id":"ce4bhap2rcd13ifvqek0","pricing_plan_id":"cebpf4jnsgd1na2vs0mg"},{"bike_id":"1c28d351-cb39-469d-9299-02130efdbcdd","system_id":"levelo_inurba_marseille","lat":43.28445,"lon":5.35019,"is_reserved":false,"is_disabled":true,"rental_uris":{"android":"levelo://app?vid=1c28d351-cb39-469d-9299-02130efdbcdd","ios":"levelo://app?vid=1c28d351-cb39-469d-9299-02130efdbcdd"},"vehicle_type_id":"4","last_reported":1777482945,"current_range_meters":3200,"station_id":"ce4bhbh2rcd13ifvqepg","pricing_plan_id":"cebpf4jnsgd1na2vs0mg"},{"bike_id":"e116e98a-e7c1-4e2d-9ae3-1a759c33b548","system_id":"levelo_inurba_marseille","lat":43.337444,"lon":5.374475,"is_reserved":false,"is_disabled":false,"rental_uris":{"android":"levelo://app?vid=e116e98a-e7c1-4e2d-9ae3-1a759c33b548","ios":"levelo://app?vid=e116e98a-e7c1-4e2d-9ae3-1a759c33b548"},"vehicle_type_id":"4","last_reported":1777482945,"current_range_meters":3600,"station_id":"ce4bgop2rcd13ifvqc1g","pricing_plan_id":"cebpf4jnsgd1na2vs0mg"},{"bike_id":"aaa2a173-cd60-41f8-8f5a-8bdd5c328e6f","system_id":"levelo_inurba_marseille","lat":43.29573,"lon":5.39976,"is_reserved":false,"is_disabled":false,"rental_uris":{"android":"levelo://app?vid=aaa2a173-cd60-41f8-8f5a-8bdd5c328e6f","ios":"levelo://app?vid=aaa2a173-cd60-41f8-8f5a-8bdd5c328e6f"},"vehicle_type_id":"4","last_reported":1777482945,"current_range_meters":3600,"station_id":"ce4bh312rcd13ifvqdj0","pricing_plan_id":"cebpf4jnsgd1na2vs0mg"},{"bike_id":"cdaaeeb3-911e-4bc1-9078-3229c0f547bf","system_id":"levelo_inurba_marseille","lat":43.291964,"lon":5.393246,"is_reserved":false,"is_disabled":false,"rental_uris":{"android":"levelo://app?vid=cdaaeeb3-911e-4bc1-9078-3229c0f547bf","ios":"levelo://app?vid=cdaaeeb3-911e-4bc1-9078-3229c0f547bf"},"vehicle_type_id":"4","last_reported":1777482945,"current_range_meters":3600,"station_id":"ce4bh192rcd13ifvqdd0","pricing_plan_id":"cebpf4jnsgd1na2vs0mg"},{"bike_id":"e2605e88-9f7b-49cc-8a63-119a038d9512","system_id":"levelo_inurba_marseille","lat":43.25629,"lon":5.38567,"is_reserved":false,"is_disabled":false,"rental_uris":{"android":"levelo://app?vid=e2605e88-9f7b-49cc-8a63-119a038d9512","ios":"levelo://app?vid=e2605e88-9f7b-49cc-8a63-119a038d9512"},"vehicle_type_id":"4","last_reported":1777482945,"current_range_meters":3600,"station_id":"","pricing_plan_id":"cebpf4jnsgd1na2vs0mg"},{"bike_id":"2074c9d5-8f2f-4fd6-aa0e-44c6d0979899","system_id":"levelo_inurba_marseille","lat":43.29521,"lon":5.39389,"is_reserved":false,"is_disabled":true,"rental_uris":{"android":"levelo://app?vid=2074c9d5-8f2f-4fd6-aa0e-44c6d0979899","ios":"levelo://app?vid=2074c9d5-8f2f-4fd6-aa0e-44c6d0979899"},"vehicle_type_id":"4","last_reported":1777482945,"current_range_meters":3600,"station_id":"ce4bh292rcd13ifvqdf0","pricing_plan_id":"cebpf4jnsgd1na2vs0mg"},{"bike_id":"b5b60146-1a44-4998-9460-6a92c063c70e","system_id":"levelo_inurba_marseille","lat":43.28701,"lon":5.39985,"is_reserved":false,"is_disabled":false,"rental_uris":{"android":"levelo://app?vid=b5b60146-1a44-4998-9460-6a92c063c70e","ios":"levelo://app?vid=b5b60146-1a44-4998-9460-6a92c063c70e"},"vehicle_type_id":"4","last_reported":1777482945,"current_range_meters":3600,"station_id":"ce4bho92rcd13ifvqh3g","pricing_plan_id":"cebpf4jnsgd1na2vs0mg"},{"bike_id":"89d56f10-dfce-464c-b82e-ed6c79efc032","system_id":"levelo_inurba_marseille","lat":43.26543,"lon":5.37296,"is_reserved":false,"is_disabled":false,"rental_uris":{"android":"levelo://app?vid=89d56f10-dfce-464c-b82e-ed6c79efc032","ios":"levelo://app?vid=89d56f10-dfce-464c-b82e-ed6c79efc032"},"vehicle_type_id":"4","last_reported":1777482945,"current_range_meters":3600,"station_id":"ce4bhg12rcd13ifvqf70","pricing_plan_id":"cebpf4jnsgd1na2vs0mg"},{"bike_id":"43ee2d3e-d570-42a1-81aa-cc87bad14831","system_id":"levelo_inurba_marseille","lat":43.309099,"lon":5.368461,"is_reserved":false,"is_disabled":false,"rental_uris":{"android":"levelo://app?vid=43ee2d3e-d570-42a1-81aa-cc87bad14831","ios":"levelo://app?vid=43ee2d3e-d570-42a1-81aa-cc87bad14831"},"vehicle_type_id":"4","last_reported":1777482945,"current_range_meters":3600,"station_id":"ce4bgn92rcd13ifvqbvg","pricing_plan_id":"cebpf4jnsgd1na2vs0mg"},{"bike_id":"3c56c3a8-fe09-49de-92a4-d640c6eaea10","system_id":"levelo_inurba_marseille","lat":43.28154,"lon":5.42643,"is_reserved":false,"is_disabled":false,"rental_uris":{"android":"levelo://app?vid=3c56c3a8-fe09-49de-92a4-d640c6eaea10","ios":"levelo://app?vid=3c56c3a8-fe09-49de-92a4-d640c6eaea10"},"vehicle_type_id":"4","last_reported":1777482945,"current_range_meters":3600,"station_id":"ce4bhnh2rcd13ifvqgug","pricing_plan_id":"cebpf4jnsgd1na2vs0mg"},{"bike_id":"b2757132-f5fc-4e9d-aaa0-7e2ced3906d4","system_id":"levelo_inurba_marseille","lat":43.298,"lon":5.38097,"is_reserved":false,"is_disabled":false,"rental_uris":{"android":"levelo://app?vid=b2757132-f5fc-4e9d-aaa0-7e2ced3906d4","ios":"levelo://app?vid=b2757132-f5fc-4e9d-aaa0-7e2ced3906d4"},"vehicle_type_id":"4","last_reported":1777482945,"current_range_meters":3600,"station_id":"ce4bgip2rcd13ifvqbb0","pricing_plan_id":"cebpf4jnsgd1na2vs0mg"},{"bike_id":"ab239925-0663-458d-a7b3-d2678eebc789","system_id":"levelo_inurba_marseille","lat":43.28356,"lon":5.381,"is_reserved":false,"is_disabled":false,"rental_uris":{"android":"levelo://app?vid=ab239925-0663-458d-a7b3-d2678eebc789","ios":"levelo://app?vid=ab239925-0663-458d-a7b3-d2678eebc789"},"vehicle_type_id":"4","last_reported":1777482945,"current_range_meters":3600,"station_id":"ce4bh412rcd13ifvqdr0","pricing_plan_id":"cebpf4jnsgd1na2vs0mg"},{"bike_id":"dfcd70fc-6f79-4ade-bdb7-67f2a52de739","system_id":"levelo_inurba_marseille","lat":43.26069,"lon":5.39389,"is_reserved":false,"is_disabled":false,"rental_uris":{"android":"levelo://app?vid=dfcd70fc-6f79-4ade-bdb7-67f2a52de739","ios":"levelo://app?vid=dfcd70fc-6f79-4ade-bdb7-67f2a52de739"},"vehicle_type_id":"4","last_reported":1777482945,"current_range_meters":3600,"station_id":"ce4bhh92rcd13ifvqfj0","pricing_plan_id":"cebpf4jnsgd1na2vs0mg"},{"bike_id":"96a07d3c-0ab7-41f3-abef-e754ed0d10ce","system_id":"levelo_inurba_marseille","lat":43.28079,"lon":5.39647,"is_reserved":false,"is_disabled":false,"rental_uris":{"android":"levelo://app?vid=96a07d3c-0ab7-41f3-abef-e754ed0d10ce","ios":"levelo://app?vid=96a07d3c-0ab7-41f3-abef-e754ed0d10ce"},"vehicle_type_id":"4","last_reported":1777482945,"current_range_meters":3600,"station_id":"ce4bho12rcd13ifvqh2g","pricing_plan_id":"cebpf4jnsgd1na2vs0mg"},{"bike_id":"44f386cd-fb8c-4dd1-ba3e-d08827e51f54","system_id":"levelo_inurba_marseille","lat":43.30641,"lon":5.40082,"is_reserved":false,"is_disabled":false,"rental_uris":{"android":"levelo://app?vid=44f386cd-fb8c-4dd1-ba3e-d08827e51f54","ios":"levelo://app?vid=44f386cd-fb8c-4dd1-ba3e-d08827e51f54"},"vehicle_type_id":"4","last_reported":1777482945,"current_range_meters":3600,"station_id":"ce4bh112rcd13ifvqda0","pricing_plan_id":"cebpf4jnsgd1na2vs0mg"},{"bike_id":"5367fafd-42a5-4c52-bd35-5d85953af91c","system_id":"levelo_inurba_marseille","lat":43.3145,"lon":5.37379,"is_reserved":false,"is_disabled":true,"rental_uris":{"android":"levelo://app?vid=5367fafd-42a5-4c52-bd35-5d85953af91c","ios":"levelo://app?vid=5367fafd-42a5-4c52-bd35-5d85953af91c"},"vehicle_type_id":"4","last_reported":1777482945,"current_range_meters":4000,"station_id":"","pricing_plan_id":"cebpf4jnsgd1na2vs0mg"},{"bike_id":"edd78380-decb-4fb5-88f7-5d1996b009d5","system_id":"levelo_inurba_marseille","lat":43.24947,"lon":5.40504,"is_reserved":false,"is_disabled":false,"rental_uris":{"android":"levelo://app?vid=edd78380-decb-4fb5-88f7-5d1996b009d5","ios":"levelo://app?vid=edd78380-decb-4fb5-88f7-5d1996b009d5"},"vehicle_type_id":"4","last_reported":1777482945,"current_range_meters":4000,"station_id":"st_d2ngiaodas8pm72gd1h0","pricing_plan_id":"cebpf4jnsgd1na2vs0mg"},{"bike_id":"ca7e766e-0c22-4bb4-9391-ff9b9db52725","system_id":"levelo_inurba_marseille","lat":43.28216,"lon":5.40579,"is_reserved":false,"is_disabled":false,"rental_uris":{"android":"levelo://app?vid=ca7e766e-0c22-4bb4-9391-ff9b9db52725","ios":"levelo://app?vid=ca7e766e-0c22-4bb4-9391-ff9b9db52725"},"vehicle_type_id":"4","last_reported":1777482945,"current_range_meters":4000,"station_id":"","pricing_plan_id":"cebpf4jnsgd1na2vs0mg"},{"bike_id":"b9c0ca4a-61af-4a0b-994f-7b554a71a91c","system_id":"levelo_inurba_marseille","lat":43.32351,"lon":5.3674,"is_reserved":false,"is_disabled":false,"rental_uris":{"android":"levelo://app?vid=b9c0ca4a-61af-4a0b-994f-7b554a71a91c","ios":"levelo://app?vid=b9c0ca4a-61af-4a0b-994f-7b554a71a91c"},"vehicle_type_id":"4","last_reported":1777482945,"current_range_meters":4000,"station_id":"ce4bhsh2rcd13ifvqi2g","pricing_plan_id":"cebpf4jnsgd1na2vs0mg"},{"bike_id":"145c254e-4088-4fef-87dc-d9bee17d760f","system_id":"levelo_inurba_marseille","lat":43.32112,"lon":5.36789,"is_reserved":false,"is_disabled":false,"rental_uris":{"android":"levelo://app?vid=145c254e-4088-4fef-87dc-d9bee17d760f","ios":"levelo://app?vid=145c254e-4088-4fef-87dc-d9bee17d760f"},"vehicle_type_id":"4","last_reported":1777482945,"current_range_meters":4000,"station_id":"ce4bhrh2rcd13ifvqhug","pricing_plan_id":"cebpf4jnsgd1na2vs0mg"},{"bike_id":"f0a4817e-bd1c-4e40-9f1c-842ddb83aad4","system_id":"levelo_inurba_marseille","lat":43.31515,"lon":5.40305,"is_reserved":false,"is_disabled":false,"rental_uris":{"android":"levelo://app?vid=f0a4817e-bd1c-4e40-9f1c-842ddb83aad4","ios":"levelo://app?vid=f0a4817e-bd1c-4e40-9f1c-842ddb83aad4"},"vehicle_type_id":"4","last_reported":1777482945,"current_range_meters":4000,"station_id":"","pricing_plan_id":"cebpf4jnsgd1na2vs0mg"},{"bike_id":"bccd3b93-1cdb-49b7-8d2b-b6c4f5686242","system_id":"levelo_inurba_marseille","lat":43.30096,"lon":5.39074,"is_reserved":false,"is_disabled":false,"rental_uris":{"android":"levelo://app?vid=bccd3b93-1cdb-49b7-8d2b-b6c4f5686242","ios":"levelo://app?vid=bccd3b93-1cdb-49b7-8d2b-b6c4f5686242"},"vehicle_type_id":"4","last_reported":1777482945,"current_range_meters":4000,"station_id":"ce4bh192rcd13ifvqdb0","pricing_plan_id":"cebpf4jnsgd1na2vs0mg"},{"bike_id":"ab16b479-10d3-4694-9988-edfc75eb96c0","system_id":"levelo_inurba_marseille","lat":43.284372,"lon":5.400778,"is_reserved":false,"is_disabled":false,"rental_uris":{"android":"levelo://app?vid=ab16b479-10d3-4694-9988-edfc75eb96c0","ios":"levelo://app?vid=ab16b479-10d3-4694-9988-edfc75eb96c0"},"vehicle_type_id":"4","last_reported":1777482945,"current_range_meters":4000,"station_id":"","pricing_plan_id":"cebpf4jnsgd1na2vs0mg"},{"bike_id":"43fdb549-43c4-4e83-9216-7de77072648d","system_id":"levelo_inurba_marseille","lat":43.29272,"lon":5.38362,"is_reserved":false,"is_disabled":false,"rental_uris":{"android":"levelo://app?vid=43fdb549-43c4-4e83-9216-7de77072648d","ios":"levelo://app?vid=43fdb549-43c4-4e83-9216-7de77072648d"},"vehicle_type_id":"4","last_reported":1777482945,"current_range_meters":4000,"station_id":"","pricing_plan_id":"cebpf4jnsgd1na2vs0mg"},{"bike_id":"df291275-e9e2-424d-a4ed-ad81d691c35f","system_id":"levelo_inurba_marseille","lat":43.31168,"lon":5.38707,"is_reserved":false,"is_disabled":false,"rental_uris":{"android":"levelo://app?vid=df291275-e9e2-424d-a4ed-ad81d691c35f","ios":"levelo://app?vid=df291275-e9e2-424d-a4ed-ad81d691c35f"},"vehicle_type_id":"4","last_reported":1777482945,"current_range_meters":4400,"station_id":"ce4bgv12rcd13ifvqcp0","pricing_plan_id":"cebpf4jnsgd1na2vs0mg"},{"bike_id":"21fa33d0-28a0-4e0a-9999-8d9d767ac49c","system_id":"levelo_inurba_marseille","lat":43.27044,"lon":5.38636,"is_reserved":false,"is_disabled":false,"rental_uris":{"android":"levelo://app?vid=21fa33d0-28a0-4e0a-9999-8d9d767ac49c","ios":"levelo://app?vid=21fa33d0-28a0-4e0a-9999-8d9d767ac49c"},"vehicle_type_id":"4","last_reported":1777482945,"current_range_meters":4400,"station_id":"","pricing_plan_id":"cebpf4jnsgd1na2vs0mg"},{"bike_id":"0b47a945-acae-4dd8-a045-a55ad51d4e37","system_id":"levelo_inurba_marseille","lat":43.231933,"lon":5.355594,"is_reserved":false,"is_disabled":false,"rental_uris":{"android":"levelo://app?vid=0b47a945-acae-4dd8-a045-a55ad51d4e37","ios":"levelo://app?vid=0b47a945-acae-4dd8-a045-a55ad51d4e37"},"vehicle_type_id":"4","last_reported":1777482945,"current_range_meters":4400,"station_id":"ce4bhu92rcd13ifvqi70","pricing_plan_id":"cebpf4jnsgd1na2vs0mg"},{"bike_id":"e03a9553-f014-4591-84d1-bb481db182e5","system_id":"levelo_inurba_marseille","lat":43.28698,"lon":5.46689,"is_reserved":false,"is_disabled":false,"rental_uris":{"android":"levelo://app?vid=e03a9553-f014-4591-84d1-bb481db182e5","ios":"levelo://app?vid=e03a9553-f014-4591-84d1-bb481db182e5"},"vehicle_type_id":"4","last_reported":1777482945,"current_range_meters":4400,"station_id":"st_d6tc3vkotcvc738tfjhg","pricing_plan_id":"cebpf4jnsgd1na2vs0mg"},{"bike_id":"3d001150-6709-43be-a19b-dff52c5e5e84","system_id":"levelo_inurba_marseille","lat":43.303284,"lon":5.404094,"is_reserved":false,"is_disabled":false,"rental_uris":{"android":"levelo://app?vid=3d001150-6709-43be-a19b-dff52c5e5e84","ios":"levelo://app?vid=3d001150-6709-43be-a19b-dff52c5e5e84"},"vehicle_type_id":"4","last_reported":1777482945,"current_range_meters":4400,"station_id":"ce4bh012rcd13ifvqd10","pricing_plan_id":"cebpf4jnsgd1na2vs0mg"},{"bike_id":"feaa8243-10a4-4fe4-a1d0-c09f27e39932","system_id":"levelo_inurba_marseille","lat":43.24177,"lon":5.39728,"is_reserved":false,"is_disabled":false,"rental_uris":{"android":"levelo://app?vid=feaa8243-10a4-4fe4-a1d0-c09f27e39932","ios":"levelo://app?vid=feaa8243-10a4-4fe4-a1d0-c09f27e39932"},"vehicle_type_id":"4","last_reported":1777482945,"current_range_meters":4400,"station_id":"ce4bhn12rcd13ifvqgpg","pricing_plan_id":"cebpf4jnsgd1na2vs0mg"},{"bike_id":"b0e286ab-be5f-4245-bffb-d2e9c656f1ca","system_id":"levelo_inurba_marseille","lat":43.29003,"lon":5.35611,"is_reserved":false,"is_disabled":false,"rental_uris":{"android":"levelo://app?vid=b0e286ab-be5f-4245-bffb-d2e9c656f1ca","ios":"levelo://app?vid=b0e286ab-be5f-4245-bffb-d2e9c656f1ca"},"vehicle_type_id":"4","last_reported":1777482945,"current_range_meters":4400,"station_id":"ce4bhb92rcd13ifvqen0","pricing_plan_id":"cebpf4jnsgd1na2vs0mg"},{"bike_id":"9c9d99b1-4088-41ea-8ddb-7d4ca2512b54","system_id":"levelo_inurba_marseille","lat":43.24807,"lon":5.37453,"is_reserved":false,"is_disabled":false,"rental_uris":{"android":"levelo://app?vid=9c9d99b1-4088-41ea-8ddb-7d4ca2512b54","ios":"levelo://app?vid=9c9d99b1-4088-41ea-8ddb-7d4ca2512b54"},"vehicle_type_id":"4","last_reported":1777482945,"current_range_meters":4400,"station_id":"ce4bhgh2rcd13ifvqfb0","pricing_plan_id":"cebpf4jnsgd1na2vs0mg"},{"bike_id":"dbaa51e2-2c96-46cc-a1cc-73bb8d710d20","system_id":"levelo_inurba_marseille","lat":43.292819,"lon":5.40116,"is_reserved":false,"is_disabled":false,"rental_uris":{"android":"levelo://app?vid=dbaa51e2-2c96-46cc-a1cc-73bb8d710d20","ios":"levelo://app?vid=dbaa51e2-2c96-46cc-a1cc-73bb8d710d20"},"vehicle_type_id":"4","last_reported":1777482945,"current_range_meters":4800,"station_id":"ce4bh312rcd13ifvqdk0","pricing_plan_id":"cebpf4jnsgd1na2vs0mg"},{"bike_id":"c53b0575-4201-44a3-8e35-94bea536841a","system_id":"levelo_inurba_marseille","lat":43.29724,"lon":5.37701,"is_reserved":false,"is_disabled":true,"rental_uris":{"android":"levelo://app?vid=c53b0575-4201-44a3-8e35-94bea536841a","ios":"levelo://app?vid=c53b0575-4201-44a3-8e35-94bea536841a"},"vehicle_type_id":"4","last_reported":1777482945,"current_range_meters":4800,"station_id":"ce4bgkh2rcd13ifvqbl0","pricing_plan_id":"cebpf4jnsgd1na2vs0mg"},{"bike_id":"60eda8f5-91d4-4dad-96c4-971e683aea3e","system_id":"levelo_inurba_marseille","lat":43.27919,"lon":5.3958,"is_reserved":false,"is_disabled":false,"rental_uris":{"android":"levelo://app?vid=60eda8f5-91d4-4dad-96c4-971e683aea3e","ios":"levelo://app?vid=60eda8f5-91d4-4dad-96c4-971e683aea3e"},"vehicle_type_id":"4","last_reported":1777482945,"current_range_meters":4800,"station_id":"ce4bhf92rcd13ifvqf40","pricing_plan_id":"cebpf4jnsgd1na2vs0mg"},{"bike_id":"94f11d13-a2b0-4f18-a58b-01e14d3c2001","system_id":"levelo_inurba_marseille","lat":43.24088,"lon":5.37747,"is_reserved":false,"is_disabled":true,"rental_uris":{"android":"levelo://app?vid=94f11d13-a2b0-4f18-a58b-01e14d3c2001","ios":"levelo://app?vid=94f11d13-a2b0-4f18-a58b-01e14d3c2001"},"vehicle_type_id":"4","last_reported":1777482945,"current_range_meters":4800,"station_id":"ce4bhnp2rcd13ifvqgvg","pricing_plan_id":"cebpf4jnsgd1na2vs0mg"},{"bike_id":"48c44b25-9232-4459-b242-6d3a07ddcc00","system_id":"levelo_inurba_marseille","lat":43.27922,"lon":5.39608,"is_reserved":false,"is_disabled":false,"rental_uris":{"android":"levelo://app?vid=48c44b25-9232-4459-b242-6d3a07ddcc00","ios":"levelo://app?vid=48c44b25-9232-4459-b242-6d3a07ddcc00"},"vehicle_type_id":"4","last_reported":1777482945,"current_range_meters":4800,"station_id":"ce4bhf92rcd13ifvqf40","pricing_plan_id":"cebpf4jnsgd1na2vs0mg"},{"bike_id":"6ce1fbf6-aa33-457e-92f8-add9d9043d49","system_id":"levelo_inurba_marseille","lat":43.280931,"lon":5.3821,"is_reserved":false,"is_disabled":false,"rental_uris":{"android":"levelo://app?vid=6ce1fbf6-aa33-457e-92f8-add9d9043d49","ios":"levelo://app?vid=6ce1fbf6-aa33-457e-92f8-add9d9043d49"},"vehicle_type_id":"4","last_reported":1777482945,"current_range_meters":4800,"station_id":"","pricing_plan_id":"cebpf4jnsgd1na2vs0mg"},{"bike_id":"ea26fbb8-1fe9-45fd-86a8-020ce9ce5f0e","system_id":"levelo_inurba_marseille","lat":43.27095,"lon":5.39062,"is_reserved":false,"is_disabled":false,"rental_uris":{"android":"levelo://app?vid=ea26fbb8-1fe9-45fd-86a8-020ce9ce5f0e","ios":"levelo://app?vid=ea26fbb8-1fe9-45fd-86a8-020ce9ce5f0e"},"vehicle_type_id":"4","last_reported":1777482945,"current_range_meters":4800,"station_id":"","pricing_plan_id":"cebpf4jnsgd1na2vs0mg"},{"bike_id":"ef3a68ef-5b94-411a-921f-f7cda00ffdfc","system_id":"levelo_inurba_marseille","lat":43.29457,"lon":5.39017,"is_reserved":false,"is_disabled":false,"rental_uris":{"android":"levelo://app?vid=ef3a68ef-5b94-411a-921f-f7cda00ffdfc","ios":"levelo://app?vid=ef3a68ef-5b94-411a-921f-f7cda00ffdfc"},"vehicle_type_id":"4","last_reported":1777482945,"current_range_meters":4800,"station_id":"","pricing_plan_id":"cebpf4jnsgd1na2vs0mg"},{"bike_id":"f34d9336-1670-45bb-b16d-0aa831aaef51","system_id":"levelo_inurba_marseille","lat":43.21187,"lon":5.35068,"is_reserved":false,"is_disabled":false,"rental_uris":{"android":"levelo://app?vid=f34d9336-1670-45bb-b16d-0aa831aaef51","ios":"levelo://app?vid=f34d9336-1670-45bb-b16d-0aa831aaef51"},"vehicle_type_id":"4","last_reported":1777482945,"current_range_meters":4800,"station_id":"st_cvj6sg6p6f1abm77japg","pricing_plan_id":"cebpf4jnsgd1na2vs0mg"},{"bike_id":"c09aaa4d-4169-4605-bc3b-8862dfda9535","system_id":"levelo_inurba_marseille","lat":43.30216,"lon":5.39461,"is_reserved":false,"is_disabled":false,"rental_uris":{"android":"levelo://app?vid=c09aaa4d-4169-4605-bc3b-8862dfda9535","ios":"levelo://app?vid=c09aaa4d-4169-4605-bc3b-8862dfda9535"},"vehicle_type_id":"4","last_reported":1777482945,"current_range_meters":4800,"station_id":"ce4bh0p2rcd13ifvqd70","pricing_plan_id":"cebpf4jnsgd1na2vs0mg"},{"bike_id":"de127ff3-4dbd-40a5-926e-7a6862dbaee1","system_id":"levelo_inurba_marseille","lat":43.24466,"lon":5.42529,"is_reserved":false,"is_disabled":false,"rental_uris":{"android":"levelo://app?vid=de127ff3-4dbd-40a5-926e-7a6862dbaee1","ios":"levelo://app?vid=de127ff3-4dbd-40a5-926e-7a6862dbaee1"},"vehicle_type_id":"4","last_reported":1777482945,"current_range_meters":5600,"station_id":"st_d4a3vfp97mjs738cd8kg","pricing_plan_id":"cebpf4jnsgd1na2vs0mg"},{"bike_id":"db6c2d66-36ff-4285-87fe-0684dd512e54","system_id":"levelo_inurba_marseille","lat":43.29533,"lon":5.38551,"is_reserved":false,"is_disabled":false,"rental_uris":{"android":"levelo://app?vid=db6c2d66-36ff-4285-87fe-0684dd512e54","ios":"levelo://app?vid=db6c2d66-36ff-4285-87fe-0684dd512e54"},"vehicle_type_id":"4","last_reported":1777482945,"current_range_meters":5600,"station_id":"ce4bgih2rcd13ifvqba0","pricing_plan_id":"cebpf4jnsgd1na2vs0mg"},{"bike_id":"de66add0-8c64-427a-bc65-2a87cd199838","system_id":"levelo_inurba_marseille","lat":43.26543,"lon":5.37286,"is_reserved":false,"is_disabled":false,"rental_uris":{"android":"levelo://app?vid=de66add0-8c64-427a-bc65-2a87cd199838","ios":"levelo://app?vid=de66add0-8c64-427a-bc65-2a87cd199838"},"vehicle_type_id":"4","last_reported":1777482945,"current_range_meters":5600,"station_id":"ce4bhg12rcd13ifvqf70","pricing_plan_id":"cebpf4jnsgd1na2vs0mg"},{"bike_id":"aeb013a3-863d-4acd-af5d-7848515a6112","system_id":"levelo_inurba_marseille","lat":43.29047,"lon":5.37547,"is_reserved":false,"is_disabled":false,"rental_uris":{"android":"levelo://app?vid=aeb013a3-863d-4acd-af5d-7848515a6112","ios":"levelo://app?vid=aeb013a3-863d-4acd-af5d-7848515a6112"},"vehicle_type_id":"4","last_reported":1777482945,"current_range_meters":5600,"station_id":"ce4bh692rcd13ifvqe90","pricing_plan_id":"cebpf4jnsgd1na2vs0mg"},{"bike_id":"494033b2-4768-4a73-a052-8bce4e46f3b4","system_id":"levelo_inurba_marseille","lat":43.25582,"lon":5.38227,"is_reserved":false,"is_disabled":false,"rental_uris":{"android":"levelo://app?vid=494033b2-4768-4a73-a052-8bce4e46f3b4","ios":"levelo://app?vid=494033b2-4768-4a73-a052-8bce4e46f3b4"},"vehicle_type_id":"4","last_reported":1777482945,"current_range_meters":5600,"station_id":"ce4bhih2rcd13ifvqfs0","pricing_plan_id":"cebpf4jnsgd1na2vs0mg"},{"bike_id":"857100cb-01bf-4b1a-a137-d994308ad307","system_id":"levelo_inurba_marseille","lat":43.29534,"lon":5.39051,"is_reserved":false,"is_disabled":false,"rental_uris":{"android":"levelo://app?vid=857100cb-01bf-4b1a-a137-d994308ad307","ios":"levelo://app?vid=857100cb-01bf-4b1a-a137-d994308ad307"},"vehicle_type_id":"4","last_reported":1777482945,"current_range_meters":5600,"station_id":"ce4bh3p2rcd13ifvqdp0","pricing_plan_id":"cebpf4jnsgd1na2vs0mg"},{"bike_id":"f11e3633-986d-40f4-8b5f-6b5e41220dfc","system_id":"levelo_inurba_marseille","lat":43.31888,"lon":5.36809,"is_reserved":false,"is_disabled":false,"rental_uris":{"android":"levelo://app?vid=f11e3633-986d-40f4-8b5f-6b5e41220dfc","ios":"levelo://app?vid=f11e3633-986d-40f4-8b5f-6b5e41220dfc"},"vehicle_type_id":"4","last_reported":1777482945,"current_range_meters":5600,"station_id":"st_d6o2h0d0559c73evc1b0","pricing_plan_id":"cebpf4jnsgd1na2vs0mg"},{"bike_id":"9b9e0aec-f6fd-4205-95f7-503fca94f9d5","system_id":"levelo_inurba_marseille","lat":43.30201,"lon":5.36623,"is_reserved":false,"is_disabled":false,"rental_uris":{"android":"levelo://app?vid=9b9e0aec-f6fd-4205-95f7-503fca94f9d5","ios":"levelo://app?vid=9b9e0aec-f6fd-4205-95f7-503fca94f9d5"},"vehicle_type_id":"4","last_reported":1777482945,"current_range_meters":5600,"station_id":"ce4bgrh2rcd13ifvqc8g","pricing_plan_id":"cebpf4jnsgd1na2vs0mg"},{"bike_id":"8bf2fbd0-3467-4937-a588-e41e62581eac","system_id":"levelo_inurba_marseille","lat":43.29977,"lon":5.38553,"is_reserved":false,"is_disabled":false,"rental_uris":{"android":"levelo://app?vid=8bf2fbd0-3467-4937-a588-e41e62581eac","ios":"levelo://app?vid=8bf2fbd0-3467-4937-a588-e41e62581eac"},"vehicle_type_id":"4","last_reported":1777482945,"current_range_meters":5600,"station_id":"ce4bgj92rcd13ifvqbd0","pricing_plan_id":"cebpf4jnsgd1na2vs0mg"},{"bike_id":"04181aec-463b-4e18-aabd-f126c815c2dd","system_id":"levelo_inurba_marseille","lat":43.21197,"lon":5.35076,"is_reserved":false,"is_disabled":false,"rental_uris":{"android":"levelo://app?vid=04181aec-463b-4e18-aabd-f126c815c2dd","ios":"levelo://app?vid=04181aec-463b-4e18-aabd-f126c815c2dd"},"vehicle_type_id":"4","last_reported":1777482945,"current_range_meters":5600,"station_id":"st_cvj6sg6p6f1abm77japg","pricing_plan_id":"cebpf4jnsgd1na2vs0mg"},{"bike_id":"73b0dbba-6a5a-4e8b-a514-c9fb168fa952","system_id":"levelo_inurba_marseille","lat":43.29281,"lon":5.40122,"is_reserved":false,"is_disabled":false,"rental_uris":{"android":"levelo://app?vid=73b0dbba-6a5a-4e8b-a514-c9fb168fa952","ios":"levelo://app?vid=73b0dbba-6a5a-4e8b-a514-c9fb168fa952"},"vehicle_type_id":"4","last_reported":1777482945,"current_range_meters":5600,"station_id":"ce4bh312rcd13ifvqdk0","pricing_plan_id":"cebpf4jnsgd1na2vs0mg"},{"bike_id":"ea36c9e8-58b8-4f79-a3ce-b396281d3b24","system_id":"levelo_inurba_marseille","lat":43.305074,"lon":5.380769,"is_reserved":false,"is_disabled":false,"rental_uris":{"android":"levelo://app?vid=ea36c9e8-58b8-4f79-a3ce-b396281d3b24","ios":"levelo://app?vid=ea36c9e8-58b8-4f79-a3ce-b396281d3b24"},"vehicle_type_id":"4","last_reported":1777482945,"current_range_meters":5600,"station_id":"","pricing_plan_id":"cebpf4jnsgd1na2vs0mg"},{"bike_id":"d4d191c1-1e42-44ce-acaa-f4fdd3a7ce8e","system_id":"levelo_inurba_marseille","lat":43.28509,"lon":5.38512,"is_reserved":false,"is_disabled":false,"rental_uris":{"android":"levelo://app?vid=d4d191c1-1e42-44ce-acaa-f4fdd3a7ce8e","ios":"levelo://app?vid=d4d191c1-1e42-44ce-acaa-f4fdd3a7ce8e"},"vehicle_type_id":"4","last_reported":1777482945,"current_range_meters":6000,"station_id":"","pricing_plan_id":"cebpf4jnsgd1na2vs0mg"},{"bike_id":"a2223f8a-d075-4473-8fe1-da9504a78f6a","system_id":"levelo_inurba_marseille","lat":43.27214,"lon":5.39182,"is_reserved":false,"is_disabled":false,"rental_uris":{"android":"levelo://app?vid=a2223f8a-d075-4473-8fe1-da9504a78f6a","ios":"levelo://app?vid=a2223f8a-d075-4473-8fe1-da9504a78f6a"},"vehicle_type_id":"4","last_reported":1777482945,"current_range_meters":6000,"station_id":"ce4bhhp2rcd13ifvqfm0","pricing_plan_id":"cebpf4jnsgd1na2vs0mg"},{"bike_id":"c5d87c94-f8c8-47f4-ae84-ea0b6e6ae165","system_id":"levelo_inurba_marseille","lat":43.26269,"lon":5.38893,"is_reserved":false,"is_disabled":false,"rental_uris":{"android":"levelo://app?vid=c5d87c94-f8c8-47f4-ae84-ea0b6e6ae165","ios":"levelo://app?vid=c5d87c94-f8c8-47f4-ae84-ea0b6e6ae165"},"vehicle_type_id":"4","last_reported":1777482945,"current_range_meters":6000,"station_id":"","pricing_plan_id":"cebpf4jnsgd1na2vs0mg"},{"bike_id":"683b6e8f-5439-40be-ae78-385dc85d0a32","system_id":"levelo_inurba_marseille","lat":43.28109,"lon":5.37835,"is_reserved":false,"is_disabled":false,"rental_uris":{"android":"levelo://app?vid=683b6e8f-5439-40be-ae78-385dc85d0a32","ios":"levelo://app?vid=683b6e8f-5439-40be-ae78-385dc85d0a32"},"vehicle_type_id":"4","last_reported":1777482945,"current_range_meters":6000,"station_id":"ce4bha12rcd13ifvqee0","pricing_plan_id":"cebpf4jnsgd1na2vs0mg"},{"bike_id":"2311714a-e2c8-422a-bbd3-8909f5c0b2ab","system_id":"levelo_inurba_marseille","lat":43.28999,"lon":5.35578,"is_reserved":false,"is_disabled":false,"rental_uris":{"android":"levelo://app?vid=2311714a-e2c8-422a-bbd3-8909f5c0b2ab","ios":"levelo://app?vid=2311714a-e2c8-422a-bbd3-8909f5c0b2ab"},"vehicle_type_id":"4","last_reported":1777482945,"current_range_meters":6000,"station_id":"ce4bhb92rcd13ifvqen0","pricing_plan_id":"cebpf4jnsgd1na2vs0mg"},{"bike_id":"5402affb-82a5-464f-a97b-9dc6ca8877bd","system_id":"levelo_inurba_marseille","lat":43.31121,"lon":5.37785,"is_reserved":false,"is_disabled":false,"rental_uris":{"android":"levelo://app?vid=5402affb-82a5-464f-a97b-9dc6ca8877bd","ios":"levelo://app?vid=5402affb-82a5-464f-a97b-9dc6ca8877bd"},"vehicle_type_id":"4","last_reported":1777482945,"current_range_meters":6000,"station_id":"ce4bgt92rcd13ifvqcg0","pricing_plan_id":"cebpf4jnsgd1na2vs0mg"},{"bike_id":"5f4360fa-9be3-4759-a27f-c7197cedd7e1","system_id":"levelo_inurba_marseille","lat":43.29893,"lon":5.39727,"is_reserved":false,"is_disabled":false,"rental_uris":{"android":"levelo://app?vid=5f4360fa-9be3-4759-a27f-c7197cedd7e1","ios":"levelo://app?vid=5f4360fa-9be3-4759-a27f-c7197cedd7e1"},"vehicle_type_id":"4","last_reported":1777482945,"current_range_meters":6000,"station_id":"ce4bh0h2rcd13ifvqd50","pricing_plan_id":"cebpf4jnsgd1na2vs0mg"},{"bike_id":"fc2bd838-71b1-45c3-a0a7-44fcf685e7c1","system_id":"levelo_inurba_marseille","lat":43.29528,"lon":5.38543,"is_reserved":false,"is_disabled":false,"rental_uris":{"android":"levelo://app?vid=fc2bd838-71b1-45c3-a0a7-44fcf685e7c1","ios":"levelo://app?vid=fc2bd838-71b1-45c3-a0a7-44fcf685e7c1"},"vehicle_type_id":"4","last_reported":1777482945,"current_range_meters":6000,"station_id":"ce4bgih2rcd13ifvqba0","pricing_plan_id":"cebpf4jnsgd1na2vs0mg"},{"bike_id":"34f79ee3-0315-4628-b92d-415ca46576e9","system_id":"levelo_inurba_marseille","lat":43.2466,"lon":5.38156,"is_reserved":false,"is_disabled":false,"rental_uris":{"android":"levelo://app?vid=34f79ee3-0315-4628-b92d-415ca46576e9","ios":"levelo://app?vid=34f79ee3-0315-4628-b92d-415ca46576e9"},"vehicle_type_id":"4","last_reported":1777482945,"current_range_meters":6000,"station_id":"ce4bhih2rcd13ifvqfr0","pricing_plan_id":"cebpf4jnsgd1na2vs0mg"},{"bike_id":"4a6e6396-5ef9-4e02-befe-28d9d3170066","system_id":"levelo_inurba_marseille","lat":43.31121,"lon":5.37809,"is_reserved":false,"is_disabled":false,"rental_uris":{"android":"levelo://app?vid=4a6e6396-5ef9-4e02-befe-28d9d3170066","ios":"levelo://app?vid=4a6e6396-5ef9-4e02-befe-28d9d3170066"},"vehicle_type_id":"4","last_reported":1777482945,"current_range_meters":6000,"station_id":"ce4bgt92rcd13ifvqcg0","pricing_plan_id":"cebpf4jnsgd1na2vs0mg"},{"bike_id":"c561ea75-a407-4ccd-b0e3-67fd9691422f","system_id":"levelo_inurba_marseille","lat":43.29532,"lon":5.38539,"is_reserved":false,"is_disabled":false,"rental_uris":{"android":"levelo://app?vid=c561ea75-a407-4ccd-b0e3-67fd9691422f","ios":"levelo://app?vid=c561ea75-a407-4ccd-b0e3-67fd9691422f"},"vehicle_type_id":"4","last_reported":1777482945,"current_range_meters":6000,"station_id":"ce4bgih2rcd13ifvqba0","pricing_plan_id":"cebpf4jnsgd1na2vs0mg"},{"bike_id":"4c4fd5bf-edd1-4e64-bbba-8e4e3d30b47b","system_id":"levelo_inurba_marseille","lat":43.28972,"lon":5.42772,"is_reserved":false,"is_disabled":false,"rental_uris":{"android":"levelo://app?vid=4c4fd5bf-edd1-4e64-bbba-8e4e3d30b47b","ios":"levelo://app?vid=4c4fd5bf-edd1-4e64-bbba-8e4e3d30b47b"},"vehicle_type_id":"4","last_reported":1777482945,"current_range_meters":6000,"station_id":"","pricing_plan_id":"cebpf4jnsgd1na2vs0mg"},{"bike_id":"2dc56360-4dc7-41b0-a7f0-52dca8f9c8f1","system_id":"levelo_inurba_marseille","lat":43.29282,"lon":5.38418,"is_reserved":false,"is_disabled":false,"rental_uris":{"android":"levelo://app?vid=2dc56360-4dc7-41b0-a7f0-52dca8f9c8f1","ios":"levelo://app?vid=2dc56360-4dc7-41b0-a7f0-52dca8f9c8f1"},"vehicle_type_id":"4","last_reported":1777482945,"current_range_meters":6000,"station_id":"ce4bh692rcd13ifvqea0","pricing_plan_id":"cebpf4jnsgd1na2vs0mg"},{"bike_id":"d7ff4366-a2b4-446e-ba29-d062b2256f1c","system_id":"levelo_inurba_marseille","lat":43.29918,"lon":5.43682,"is_reserved":false,"is_disabled":false,"rental_uris":{"android":"levelo://app?vid=d7ff4366-a2b4-446e-ba29-d062b2256f1c","ios":"levelo://app?vid=d7ff4366-a2b4-446e-ba29-d062b2256f1c"},"vehicle_type_id":"4","last_reported":1777482945,"current_range_meters":6000,"station_id":"","pricing_plan_id":"cebpf4jnsgd1na2vs0mg"},{"bike_id":"f234ba9d-2c19-4134-ab58-42c26f670377","system_id":"levelo_inurba_marseille","lat":43.290462,"lon":5.359183,"is_reserved":false,"is_disabled":false,"rental_uris":{"android":"levelo://app?vid=f234ba9d-2c19-4134-ab58-42c26f670377","ios":"levelo://app?vid=f234ba9d-2c19-4134-ab58-42c26f670377"},"vehicle_type_id":"4","last_reported":1777482945,"current_range_meters":6400,"station_id":"ce4bha92rcd13ifvqeg0","pricing_plan_id":"cebpf4jnsgd1na2vs0mg"},{"bike_id":"fe86fab3-fab9-4d01-af67-35b4533498e2","system_id":"levelo_inurba_marseille","lat":43.30135,"lon":5.38783,"is_reserved":false,"is_disabled":false,"rental_uris":{"android":"levelo://app?vid=fe86fab3-fab9-4d01-af67-35b4533498e2","ios":"levelo://app?vid=fe86fab3-fab9-4d01-af67-35b4533498e2"},"vehicle_type_id":"4","last_reported":1777482945,"current_range_meters":6400,"station_id":"ce4bghh2rcd13ifvqb60","pricing_plan_id":"cebpf4jnsgd1na2vs0mg"},{"bike_id":"e1d26622-7491-4fdf-a6f0-77cbc7cac2ef","system_id":"levelo_inurba_marseille","lat":43.24165,"lon":5.36403,"is_reserved":false,"is_disabled":false,"rental_uris":{"android":"levelo://app?vid=e1d26622-7491-4fdf-a6f0-77cbc7cac2ef","ios":"levelo://app?vid=e1d26622-7491-4fdf-a6f0-77cbc7cac2ef"},"vehicle_type_id":"4","last_reported":1777482945,"current_range_meters":6400,"station_id":"cpo36qri1sfpv3e86is0","pricing_plan_id":"cebpf4jnsgd1na2vs0mg"},{"bike_id":"4bc02afd-ac04-4774-878a-f8bf877c2462","system_id":"levelo_inurba_marseille","lat":43.2997,"lon":5.38495,"is_reserved":false,"is_disabled":false,"rental_uris":{"android":"levelo://app?vid=4bc02afd-ac04-4774-878a-f8bf877c2462","ios":"levelo://app?vid=4bc02afd-ac04-4774-878a-f8bf877c2462"},"vehicle_type_id":"4","last_reported":1777482945,"current_range_meters":6400,"station_id":"ce4bgj92rcd13ifvqbd0","pricing_plan_id":"cebpf4jnsgd1na2vs0mg"},{"bike_id":"b3f7a002-e9ea-4c85-95cd-87a52431f86d","system_id":"levelo_inurba_marseille","lat":43.30222,"lon":5.39476,"is_reserved":false,"is_disabled":false,"rental_uris":{"android":"levelo://app?vid=b3f7a002-e9ea-4c85-95cd-87a52431f86d","ios":"levelo://app?vid=b3f7a002-e9ea-4c85-95cd-87a52431f86d"},"vehicle_type_id":"4","last_reported":1777482945,"current_range_meters":6400,"station_id":"ce4bh0p2rcd13ifvqd70","pricing_plan_id":"cebpf4jnsgd1na2vs0mg"},{"bike_id":"1bb8344f-1db0-45ef-ad3e-3af45d1f5a9f","system_id":"levelo_inurba_marseille","lat":43.25731,"lon":5.38723,"is_reserved":false,"is_disabled":false,"rental_uris":{"android":"levelo://app?vid=1bb8344f-1db0-45ef-ad3e-3af45d1f5a9f","ios":"levelo://app?vid=1bb8344f-1db0-45ef-ad3e-3af45d1f5a9f"},"vehicle_type_id":"4","last_reported":1777482945,"current_range_meters":6400,"station_id":"","pricing_plan_id":"cebpf4jnsgd1na2vs0mg"},{"bike_id":"c46d8a22-772b-40f4-a01d-512476bc1bbf","system_id":"levelo_inurba_marseille","lat":43.24928,"lon":5.40511,"is_reserved":false,"is_disabled":false,"rental_uris":{"android":"levelo://app?vid=c46d8a22-772b-40f4-a01d-512476bc1bbf","ios":"levelo://app?vid=c46d8a22-772b-40f4-a01d-512476bc1bbf"},"vehicle_type_id":"4","last_reported":1777482945,"current_range_meters":6400,"station_id":"st_d2ngiaodas8pm72gd1h0","pricing_plan_id":"cebpf4jnsgd1na2vs0mg"},{"bike_id":"80f725d1-5cb5-49c0-8c71-3d45a74a9213","system_id":"levelo_inurba_marseille","lat":43.30443,"lon":5.38901,"is_reserved":false,"is_disabled":false,"rental_uris":{"android":"levelo://app?vid=80f725d1-5cb5-49c0-8c71-3d45a74a9213","ios":"levelo://app?vid=80f725d1-5cb5-49c0-8c71-3d45a74a9213"},"vehicle_type_id":"4","last_reported":1777482945,"current_range_meters":6400,"station_id":"ce4bgk12rcd13ifvqbi0","pricing_plan_id":"cebpf4jnsgd1na2vs0mg"},{"bike_id":"b03e5130-28cd-4159-be42-70b2820161d0","system_id":"levelo_inurba_marseille","lat":43.29033,"lon":5.38644,"is_reserved":false,"is_disabled":false,"rental_uris":{"android":"levelo://app?vid=b03e5130-28cd-4159-be42-70b2820161d0","ios":"levelo://app?vid=b03e5130-28cd-4159-be42-70b2820161d0"},"vehicle_type_id":"4","last_reported":1777482945,"current_range_meters":6400,"station_id":"ce4bh4p2rcd13ifvqe0g","pricing_plan_id":"cebpf4jnsgd1na2vs0mg"},{"bike_id":"550b61bf-024e-4f9e-9492-2a8f7afeae1e","system_id":"levelo_inurba_marseille","lat":43.30852,"lon":5.40519,"is_reserved":false,"is_disabled":false,"rental_uris":{"android":"levelo://app?vid=550b61bf-024e-4f9e-9492-2a8f7afeae1e","ios":"levelo://app?vid=550b61bf-024e-4f9e-9492-2a8f7afeae1e"},"vehicle_type_id":"4","last_reported":1777482945,"current_range_meters":6400,"station_id":"","pricing_plan_id":"cebpf4jnsgd1na2vs0mg"},{"bike_id":"55bac593-352e-4642-8639-19fe2b8d6c00","system_id":"levelo_inurba_marseille","lat":43.27651,"lon":5.35829,"is_reserved":false,"is_disabled":false,"rental_uris":{"android":"levelo://app?vid=55bac593-352e-4642-8639-19fe2b8d6c00","ios":"levelo://app?vid=55bac593-352e-4642-8639-19fe2b8d6c00"},"vehicle_type_id":"4","last_reported":1777482945,"current_range_meters":6400,"station_id":"","pricing_plan_id":"cebpf4jnsgd1na2vs0mg"},{"bike_id":"812c1c8d-437a-4351-b848-57811c48eaf0","system_id":"levelo_inurba_marseille","lat":43.26571,"lon":5.39013,"is_reserved":false,"is_disabled":false,"rental_uris":{"android":"levelo://app?vid=812c1c8d-437a-4351-b848-57811c48eaf0","ios":"levelo://app?vid=812c1c8d-437a-4351-b848-57811c48eaf0"},"vehicle_type_id":"4","last_reported":1777482945,"current_range_meters":6400,"station_id":"ce4bhe12rcd13ifvqf30","pricing_plan_id":"cebpf4jnsgd1na2vs0mg"},{"bike_id":"03414720-43e7-48b7-a63f-7c530e555611","system_id":"levelo_inurba_marseille","lat":43.2623,"lon":5.40454,"is_reserved":false,"is_disabled":false,"rental_uris":{"android":"levelo://app?vid=03414720-43e7-48b7-a63f-7c530e555611","ios":"levelo://app?vid=03414720-43e7-48b7-a63f-7c530e555611"},"vehicle_type_id":"4","last_reported":1777482945,"current_range_meters":6400,"station_id":"ce4bhmh2rcd13ifvqgmg","pricing_plan_id":"cebpf4jnsgd1na2vs0mg"},{"bike_id":"84edf01a-240b-4317-a42c-63233383f7b0","system_id":"levelo_inurba_marseille","lat":43.28851,"lon":5.35839,"is_reserved":false,"is_disabled":false,"rental_uris":{"android":"levelo://app?vid=84edf01a-240b-4317-a42c-63233383f7b0","ios":"levelo://app?vid=84edf01a-240b-4317-a42c-63233383f7b0"},"vehicle_type_id":"4","last_reported":1777482945,"current_range_meters":6400,"station_id":"ce4bhb12rcd13ifvqem0","pricing_plan_id":"cebpf4jnsgd1na2vs0mg"},{"bike_id":"2d25c2ef-7361-4b19-8e13-2f3751f3fcdd","system_id":"levelo_inurba_marseille","lat":43.25198,"lon":5.41142,"is_reserved":false,"is_disabled":false,"rental_uris":{"android":"levelo://app?vid=2d25c2ef-7361-4b19-8e13-2f3751f3fcdd","ios":"levelo://app?vid=2d25c2ef-7361-4b19-8e13-2f3751f3fcdd"},"vehicle_type_id":"4","last_reported":1777482945,"current_range_meters":6400,"station_id":"","pricing_plan_id":"cebpf4jnsgd1na2vs0mg"},{"bike_id":"a1a97af6-a93e-44df-86a8-10bac93b60cd","system_id":"levelo_inurba_marseille","lat":43.28859,"lon":5.42536,"is_reserved":false,"is_disabled":false,"rental_uris":{"android":"levelo://app?vid=a1a97af6-a93e-44df-86a8-10bac93b60cd","ios":"levelo://app?vid=a1a97af6-a93e-44df-86a8-10bac93b60cd"},"vehicle_type_id":"4","last_reported":1777482945,"current_range_meters":6400,"station_id":"st_d3b462108ojc7389ooeg","pricing_plan_id":"cebpf4jnsgd1na2vs0mg"},{"bike_id":"3464860c-c07a-4ed3-98cb-a27ef8e3782e","system_id":"levelo_inurba_marseille","lat":43.29537,"lon":5.38552,"is_reserved":false,"is_disabled":false,"rental_uris":{"android":"levelo://app?vid=3464860c-c07a-4ed3-98cb-a27ef8e3782e","ios":"levelo://app?vid=3464860c-c07a-4ed3-98cb-a27ef8e3782e"},"vehicle_type_id":"4","last_reported":1777482945,"current_range_meters":6400,"station_id":"ce4bgih2rcd13ifvqba0","pricing_plan_id":"cebpf4jnsgd1na2vs0mg"},{"bike_id":"5537dfa5-a5e0-4afa-afaa-71ea6ad83ffd","system_id":"levelo_inurba_marseille","lat":43.28842,"lon":5.35835,"is_reserved":false,"is_disabled":true,"rental_uris":{"android":"levelo://app?vid=5537dfa5-a5e0-4afa-afaa-71ea6ad83ffd","ios":"levelo://app?vid=5537dfa5-a5e0-4afa-afaa-71ea6ad83ffd"},"vehicle_type_id":"4","last_reported":1777482945,"current_range_meters":6800,"station_id":"ce4bhb12rcd13ifvqem0","pricing_plan_id":"cebpf4jnsgd1na2vs0mg"},{"bike_id":"bbc2f778-ecf6-4419-b9a7-78a6f4492f95","system_id":"levelo_inurba_marseille","lat":43.292273,"lon":5.360653,"is_reserved":false,"is_disabled":false,"rental_uris":{"android":"levelo://app?vid=bbc2f778-ecf6-4419-b9a7-78a6f4492f95","ios":"levelo://app?vid=bbc2f778-ecf6-4419-b9a7-78a6f4492f95"},"vehicle_type_id":"4","last_reported":1777482945,"current_range_meters":6800,"station_id":"ce4bhbh2rcd13ifvqeqg","pricing_plan_id":"cebpf4jnsgd1na2vs0mg"},{"bike_id":"dabb6558-388e-43f3-9124-582e742ee3c8","system_id":"levelo_inurba_marseille","lat":43.31918,"lon":5.3678,"is_reserved":false,"is_disabled":false,"rental_uris":{"android":"levelo://app?vid=dabb6558-388e-43f3-9124-582e742ee3c8","ios":"levelo://app?vid=dabb6558-388e-43f3-9124-582e742ee3c8"},"vehicle_type_id":"4","last_reported":1777482945,"current_range_meters":6800,"station_id":"st_d6o2h0d0559c73evc1b0","pricing_plan_id":"cebpf4jnsgd1na2vs0mg"},{"bike_id":"9ae18ec1-831a-4093-b7aa-b4c33d1e8975","system_id":"levelo_inurba_marseille","lat":43.29874,"lon":5.39724,"is_reserved":false,"is_disabled":false,"rental_uris":{"android":"levelo://app?vid=9ae18ec1-831a-4093-b7aa-b4c33d1e8975","ios":"levelo://app?vid=9ae18ec1-831a-4093-b7aa-b4c33d1e8975"},"vehicle_type_id":"4","last_reported":1777482945,"current_range_meters":6800,"station_id":"ce4bh0h2rcd13ifvqd50","pricing_plan_id":"cebpf4jnsgd1na2vs0mg"},{"bike_id":"f4169770-a56f-464e-863a-1a785ef392bd","system_id":"levelo_inurba_marseille","lat":43.27491,"lon":5.42457,"is_reserved":false,"is_disabled":false,"rental_uris":{"android":"levelo://app?vid=f4169770-a56f-464e-863a-1a785ef392bd","ios":"levelo://app?vid=f4169770-a56f-464e-863a-1a785ef392bd"},"vehicle_type_id":"4","last_reported":1777482945,"current_range_meters":6800,"station_id":"ce4bhn92rcd13ifvqgrg","pricing_plan_id":"cebpf4jnsgd1na2vs0mg"},{"bike_id":"520b0305-48d7-4734-97bb-d7eb73e5dc09","system_id":"levelo_inurba_marseille","lat":43.26541,"lon":5.37309,"is_reserved":false,"is_disabled":true,"rental_uris":{"android":"levelo://app?vid=520b0305-48d7-4734-97bb-d7eb73e5dc09","ios":"levelo://app?vid=520b0305-48d7-4734-97bb-d7eb73e5dc09"},"vehicle_type_id":"4","last_reported":1777482945,"current_range_meters":6800,"station_id":"ce4bhg12rcd13ifvqf70","pricing_plan_id":"cebpf4jnsgd1na2vs0mg"},{"bike_id":"536724df-f655-4c82-9b85-f77b128b21ff","system_id":"levelo_inurba_marseille","lat":43.27323,"lon":5.39078,"is_reserved":false,"is_disabled":true,"rental_uris":{"android":"levelo://app?vid=536724df-f655-4c82-9b85-f77b128b21ff","ios":"levelo://app?vid=536724df-f655-4c82-9b85-f77b128b21ff"},"vehicle_type_id":"4","last_reported":1777482945,"current_range_meters":6800,"station_id":"ce4bhgp2rcd13ifvqfe0","pricing_plan_id":"cebpf4jnsgd1na2vs0mg"},{"bike_id":"c393576f-dc7e-40b1-876f-3c25a664dd5f","system_id":"levelo_inurba_marseille","lat":43.32115,"lon":5.36771,"is_reserved":false,"is_disabled":false,"rental_uris":{"android":"levelo://app?vid=c393576f-dc7e-40b1-876f-3c25a664dd5f","ios":"levelo://app?vid=c393576f-dc7e-40b1-876f-3c25a664dd5f"},"vehicle_type_id":"4","last_reported":1777482945,"current_range_meters":6800,"station_id":"ce4bhrh2rcd13ifvqhug","pricing_plan_id":"cebpf4jnsgd1na2vs0mg"},{"bike_id":"47d4d37a-db68-4173-9d00-0df2c22b6ded","system_id":"levelo_inurba_marseille","lat":43.28272,"lon":5.35063,"is_reserved":false,"is_disabled":false,"rental_uris":{"android":"levelo://app?vid=47d4d37a-db68-4173-9d00-0df2c22b6ded","ios":"levelo://app?vid=47d4d37a-db68-4173-9d00-0df2c22b6ded"},"vehicle_type_id":"4","last_reported":1777482945,"current_range_meters":6800,"station_id":"ce4bhbp2rcd13ifvqerg","pricing_plan_id":"cebpf4jnsgd1na2vs0mg"},{"bike_id":"61a597d2-016e-4110-a427-a0a6bed95ab4","system_id":"levelo_inurba_marseille","lat":43.30895,"lon":5.37186,"is_reserved":false,"is_disabled":false,"rental_uris":{"android":"levelo://app?vid=61a597d2-016e-4110-a427-a0a6bed95ab4","ios":"levelo://app?vid=61a597d2-016e-4110-a427-a0a6bed95ab4"},"vehicle_type_id":"4","last_reported":1777482945,"current_range_meters":6800,"station_id":"ce4bguh2rcd13ifvqckg","pricing_plan_id":"cebpf4jnsgd1na2vs0mg"},{"bike_id":"4da23bbf-8aab-4991-bb00-1a569a4581cc","system_id":"levelo_inurba_marseille","lat":43.27065,"lon":5.42273,"is_reserved":false,"is_disabled":false,"rental_uris":{"android":"levelo://app?vid=4da23bbf-8aab-4991-bb00-1a569a4581cc","ios":"levelo://app?vid=4da23bbf-8aab-4991-bb00-1a569a4581cc"},"vehicle_type_id":"4","last_reported":1777482945,"current_range_meters":6800,"station_id":"ce4bhk92rcd13ifvqgb0","pricing_plan_id":"cebpf4jnsgd1na2vs0mg"},{"bike_id":"987b42f5-a5fc-451e-8963-babc51ef2323","system_id":"levelo_inurba_marseille","lat":43.31737,"lon":5.40463,"is_reserved":false,"is_disabled":false,"rental_uris":{"android":"levelo://app?vid=987b42f5-a5fc-451e-8963-babc51ef2323","ios":"levelo://app?vid=987b42f5-a5fc-451e-8963-babc51ef2323"},"vehicle_type_id":"4","last_reported":1777482945,"current_range_meters":6800,"station_id":"","pricing_plan_id":"cebpf4jnsgd1na2vs0mg"},{"bike_id":"a439ac0b-6156-4aa1-a42e-0f0efd9b3033","system_id":"levelo_inurba_marseille","lat":43.25723,"lon":5.41109,"is_reserved":false,"is_disabled":false,"rental_uris":{"android":"levelo://app?vid=a439ac0b-6156-4aa1-a42e-0f0efd9b3033","ios":"levelo://app?vid=a439ac0b-6156-4aa1-a42e-0f0efd9b3033"},"vehicle_type_id":"4","last_reported":1777482945,"current_range_meters":6800,"station_id":"ce4bhkp2rcd13ifvqgd0","pricing_plan_id":"cebpf4jnsgd1na2vs0mg"},{"bike_id":"63020567-19a9-43a3-bb18-25472ade9a5f","system_id":"levelo_inurba_marseille","lat":43.29533,"lon":5.38532,"is_reserved":false,"is_disabled":false,"rental_uris":{"android":"levelo://app?vid=63020567-19a9-43a3-bb18-25472ade9a5f","ios":"levelo://app?vid=63020567-19a9-43a3-bb18-25472ade9a5f"},"vehicle_type_id":"4","last_reported":1777482945,"current_range_meters":6800,"station_id":"ce4bgih2rcd13ifvqba0","pricing_plan_id":"cebpf4jnsgd1na2vs0mg"},{"bike_id":"e80f8c62-7705-40b7-808f-fa9231dbf360","system_id":"levelo_inurba_marseille","lat":43.29882,"lon":5.39732,"is_reserved":false,"is_disabled":false,"rental_uris":{"android":"levelo://app?vid=e80f8c62-7705-40b7-808f-fa9231dbf360","ios":"levelo://app?vid=e80f8c62-7705-40b7-808f-fa9231dbf360"},"vehicle_type_id":"4","last_reported":1777482945,"current_range_meters":6800,"station_id":"ce4bh0h2rcd13ifvqd50","pricing_plan_id":"cebpf4jnsgd1na2vs0mg"},{"bike_id":"b4a497ea-222e-419c-a826-4feb72e6ade8","system_id":"levelo_inurba_marseille","lat":43.28698,"lon":5.46676,"is_reserved":false,"is_disabled":false,"rental_uris":{"android":"levelo://app?vid=b4a497ea-222e-419c-a826-4feb72e6ade8","ios":"levelo://app?vid=b4a497ea-222e-419c-a826-4feb72e6ade8"},"vehicle_type_id":"4","last_reported":1777482945,"current_range_meters":7200,"station_id":"st_d6tc3vkotcvc738tfjhg","pricing_plan_id":"cebpf4jnsgd1na2vs0mg"},{"bike_id":"82b089db-25f3-4d05-a3bb-8036395530e0","system_id":"levelo_inurba_marseille","lat":43.2846,"lon":5.38427,"is_reserved":false,"is_disabled":false,"rental_uris":{"android":"levelo://app?vid=82b089db-25f3-4d05-a3bb-8036395530e0","ios":"levelo://app?vid=82b089db-25f3-4d05-a3bb-8036395530e0"},"vehicle_type_id":"4","last_reported":1777482945,"current_range_meters":7200,"station_id":"ce4bh512rcd13ifvqe3g","pricing_plan_id":"cebpf4jnsgd1na2vs0mg"},{"bike_id":"d2bffbeb-b1c3-4c62-834a-33d6be2c2f87","system_id":"levelo_inurba_marseille","lat":43.2721,"lon":5.39199,"is_reserved":false,"is_disabled":true,"rental_uris":{"android":"levelo://app?vid=d2bffbeb-b1c3-4c62-834a-33d6be2c2f87","ios":"levelo://app?vid=d2bffbeb-b1c3-4c62-834a-33d6be2c2f87"},"vehicle_type_id":"4","last_reported":1777482945,"current_range_meters":7200,"station_id":"ce4bhhp2rcd13ifvqfm0","pricing_plan_id":"cebpf4jnsgd1na2vs0mg"},{"bike_id":"9b720f56-18cf-4b57-b740-2de08553148a","system_id":"levelo_inurba_marseille","lat":43.29189,"lon":5.39323,"is_reserved":false,"is_disabled":false,"rental_uris":{"android":"levelo://app?vid=9b720f56-18cf-4b57-b740-2de08553148a","ios":"levelo://app?vid=9b720f56-18cf-4b57-b740-2de08553148a"},"vehicle_type_id":"4","last_reported":1777482945,"current_range_meters":7200,"station_id":"ce4bh192rcd13ifvqdd0","pricing_plan_id":"cebpf4jnsgd1na2vs0mg"},{"bike_id":"a5989dac-6e1d-45ab-b2cc-86dc29169831","system_id":"levelo_inurba_marseille","lat":43.3136,"lon":5.38504,"is_reserved":false,"is_disabled":false,"rental_uris":{"android":"levelo://app?vid=a5989dac-6e1d-45ab-b2cc-86dc29169831","ios":"levelo://app?vid=a5989dac-6e1d-45ab-b2cc-86dc29169831"},"vehicle_type_id":"4","last_reported":1777482945,"current_range_meters":7200,"station_id":"ce4bgt92rcd13ifvqcf0","pricing_plan_id":"cebpf4jnsgd1na2vs0mg"},{"bike_id":"8a4a0249-4f4c-41b5-bc94-e064df2c0d36","system_id":"levelo_inurba_marseille","lat":43.30412,"lon":5.38951,"is_reserved":false,"is_disabled":false,"rental_uris":{"android":"levelo://app?vid=8a4a0249-4f4c-41b5-bc94-e064df2c0d36","ios":"levelo://app?vid=8a4a0249-4f4c-41b5-bc94-e064df2c0d36"},"vehicle_type_id":"4","last_reported":1777482945,"current_range_meters":7200,"station_id":"","pricing_plan_id":"cebpf4jnsgd1na2vs0mg"},{"bike_id":"a8ee6abc-7961-4b66-b6a7-b1c42cf70492","system_id":"levelo_inurba_marseille","lat":43.30136,"lon":5.39889,"is_reserved":false,"is_disabled":false,"rental_uris":{"android":"levelo://app?vid=a8ee6abc-7961-4b66-b6a7-b1c42cf70492","ios":"levelo://app?vid=a8ee6abc-7961-4b66-b6a7-b1c42cf70492"},"vehicle_type_id":"4","last_reported":1777482945,"current_range_meters":7200,"station_id":"ce4bh0h2rcd13ifvqd40","pricing_plan_id":"cebpf4jnsgd1na2vs0mg"},{"bike_id":"46d96953-fde1-4f7f-8bd6-d1b47505ed60","system_id":"levelo_inurba_marseille","lat":43.26956,"lon":5.38624,"is_reserved":false,"is_disabled":false,"rental_uris":{"android":"levelo://app?vid=46d96953-fde1-4f7f-8bd6-d1b47505ed60","ios":"levelo://app?vid=46d96953-fde1-4f7f-8bd6-d1b47505ed60"},"vehicle_type_id":"4","last_reported":1777482945,"current_range_meters":7200,"station_id":"ce4bhh92rcd13ifvqfh0","pricing_plan_id":"cebpf4jnsgd1na2vs0mg"},{"bike_id":"928772e0-98ab-4576-8614-987bc5ada123","system_id":"levelo_inurba_marseille","lat":43.28717,"lon":5.37947,"is_reserved":false,"is_disabled":false,"rental_uris":{"android":"levelo://app?vid=928772e0-98ab-4576-8614-987bc5ada123","ios":"levelo://app?vid=928772e0-98ab-4576-8614-987bc5ada123"},"vehicle_type_id":"4","last_reported":1777482945,"current_range_meters":7200,"station_id":"ce4bh9p2rcd13ifvqec0","pricing_plan_id":"cebpf4jnsgd1na2vs0mg"},{"bike_id":"4613e73e-f77a-4237-bd3d-410f690cc06c","system_id":"levelo_inurba_marseille","lat":43.29013,"lon":5.35616,"is_reserved":false,"is_disabled":false,"rental_uris":{"android":"levelo://app?vid=4613e73e-f77a-4237-bd3d-410f690cc06c","ios":"levelo://app?vid=4613e73e-f77a-4237-bd3d-410f690cc06c"},"vehicle_type_id":"4","last_reported":1777482945,"current_range_meters":7200,"station_id":"ce4bhb92rcd13ifvqen0","pricing_plan_id":"cebpf4jnsgd1na2vs0mg"},{"bike_id":"cd735691-a8cf-469c-b880-28ec2dcf0dc2","system_id":"levelo_inurba_marseille","lat":43.33524,"lon":5.37465,"is_reserved":false,"is_disabled":false,"rental_uris":{"android":"levelo://app?vid=cd735691-a8cf-469c-b880-28ec2dcf0dc2","ios":"levelo://app?vid=cd735691-a8cf-469c-b880-28ec2dcf0dc2"},"vehicle_type_id":"4","last_reported":1777482945,"current_range_meters":7200,"station_id":"st_d46tts09ee8s73dlu43g","pricing_plan_id":"cebpf4jnsgd1na2vs0mg"},{"bike_id":"f39ffbc7-77d4-4284-b878-1cee0f9ffd51","system_id":"levelo_inurba_marseille","lat":43.30587,"lon":5.3936,"is_reserved":false,"is_disabled":false,"rental_uris":{"android":"levelo://app?vid=f39ffbc7-77d4-4284-b878-1cee0f9ffd51","ios":"levelo://app?vid=f39ffbc7-77d4-4284-b878-1cee0f9ffd51"},"vehicle_type_id":"4","last_reported":1777482945,"current_range_meters":7200,"station_id":"ce4bh0p2rcd13ifvqd80","pricing_plan_id":"cebpf4jnsgd1na2vs0mg"},{"bike_id":"95408503-783e-4868-8bb9-2c1790ee6005","system_id":"levelo_inurba_marseille","lat":43.29517,"lon":5.39037,"is_reserved":false,"is_disabled":false,"rental_uris":{"android":"levelo://app?vid=95408503-783e-4868-8bb9-2c1790ee6005","ios":"levelo://app?vid=95408503-783e-4868-8bb9-2c1790ee6005"},"vehicle_type_id":"4","last_reported":1777482945,"current_range_meters":7200,"station_id":"ce4bh3p2rcd13ifvqdp0","pricing_plan_id":"cebpf4jnsgd1na2vs0mg"},{"bike_id":"75796d04-ff63-4783-a13b-bba6dbcb49f8","system_id":"levelo_inurba_marseille","lat":43.31681,"lon":5.40483,"is_reserved":false,"is_disabled":false,"rental_uris":{"android":"levelo://app?vid=75796d04-ff63-4783-a13b-bba6dbcb49f8","ios":"levelo://app?vid=75796d04-ff63-4783-a13b-bba6dbcb49f8"},"vehicle_type_id":"4","last_reported":1777482945,"current_range_meters":7200,"station_id":"ce4bh012rcd13ifvqd00","pricing_plan_id":"cebpf4jnsgd1na2vs0mg"},{"bike_id":"59090e38-f13c-41a9-a465-2bbb0f2def13","system_id":"levelo_inurba_marseille","lat":43.3089,"lon":5.41207,"is_reserved":false,"is_disabled":false,"rental_uris":{"android":"levelo://app?vid=59090e38-f13c-41a9-a465-2bbb0f2def13","ios":"levelo://app?vid=59090e38-f13c-41a9-a465-2bbb0f2def13"},"vehicle_type_id":"4","last_reported":1777482945,"current_range_meters":7200,"station_id":"","pricing_plan_id":"cebpf4jnsgd1na2vs0mg"},{"bike_id":"b5592bc3-7c5d-4ba9-b1ae-b173928aef8c","system_id":"levelo_inurba_marseille","lat":43.28511,"lon":5.48363,"is_reserved":false,"is_disabled":false,"rental_uris":{"android":"levelo://app?vid=b5592bc3-7c5d-4ba9-b1ae-b173928aef8c","ios":"levelo://app?vid=b5592bc3-7c5d-4ba9-b1ae-b173928aef8c"},"vehicle_type_id":"4","last_reported":1777482945,"current_range_meters":8000,"station_id":"","pricing_plan_id":"cebpf4jnsgd1na2vs0mg"},{"bike_id":"c62dd68e-1420-4f1f-9f98-ec3aebe502eb","system_id":"levelo_inurba_marseille","lat":43.31823,"lon":5.38498,"is_reserved":false,"is_disabled":false,"rental_uris":{"android":"levelo://app?vid=c62dd68e-1420-4f1f-9f98-ec3aebe502eb","ios":"levelo://app?vid=c62dd68e-1420-4f1f-9f98-ec3aebe502eb"},"vehicle_type_id":"4","last_reported":1777482945,"current_range_meters":8000,"station_id":"","pricing_plan_id":"cebpf4jnsgd1na2vs0mg"},{"bike_id":"867c306d-8271-4439-8fcc-a65e109048a6","system_id":"levelo_inurba_marseille","lat":43.2903,"lon":5.38643,"is_reserved":false,"is_disabled":false,"rental_uris":{"android":"levelo://app?vid=867c306d-8271-4439-8fcc-a65e109048a6","ios":"levelo://app?vid=867c306d-8271-4439-8fcc-a65e109048a6"},"vehicle_type_id":"4","last_reported":1777482945,"current_range_meters":8000,"station_id":"ce4bh4p2rcd13ifvqe0g","pricing_plan_id":"cebpf4jnsgd1na2vs0mg"},{"bike_id":"74b97888-2010-4f62-9143-1297c2114922","system_id":"levelo_inurba_marseille","lat":43.27832,"lon":5.39198,"is_reserved":false,"is_disabled":true,"rental_uris":{"android":"levelo://app?vid=74b97888-2010-4f62-9143-1297c2114922","ios":"levelo://app?vid=74b97888-2010-4f62-9143-1297c2114922"},"vehicle_type_id":"4","last_reported":1777482945,"current_range_meters":8000,"station_id":"ce4bhjp2rcd13ifvqga0","pricing_plan_id":"cebpf4jnsgd1na2vs0mg"},{"bike_id":"75407c52-b192-4bbc-9791-f717b298cc21","system_id":"levelo_inurba_marseille","lat":43.2707,"lon":5.42281,"is_reserved":false,"is_disabled":false,"rental_uris":{"android":"levelo://app?vid=75407c52-b192-4bbc-9791-f717b298cc21","ios":"levelo://app?vid=75407c52-b192-4bbc-9791-f717b298cc21"},"vehicle_type_id":"4","last_reported":1777482945,"current_range_meters":8000,"station_id":"ce4bhk92rcd13ifvqgb0","pricing_plan_id":"cebpf4jnsgd1na2vs0mg"},{"bike_id":"4dc2dc0f-7ce0-4d1e-bd6c-217cb97191bc","system_id":"levelo_inurba_marseille","lat":43.26558,"lon":5.37284,"is_reserved":false,"is_disabled":false,"rental_uris":{"android":"levelo://app?vid=4dc2dc0f-7ce0-4d1e-bd6c-217cb97191bc","ios":"levelo://app?vid=4dc2dc0f-7ce0-4d1e-bd6c-217cb97191bc"},"vehicle_type_id":"4","last_reported":1777482945,"current_range_meters":8000,"station_id":"ce4bhg12rcd13ifvqf70","pricing_plan_id":"cebpf4jnsgd1na2vs0mg"},{"bike_id":"acc57406-75de-43a2-a6ec-d941193f0be0","system_id":"levelo_inurba_marseille","lat":43.32355,"lon":5.36743,"is_reserved":false,"is_disabled":false,"rental_uris":{"android":"levelo://app?vid=acc57406-75de-43a2-a6ec-d941193f0be0","ios":"levelo://app?vid=acc57406-75de-43a2-a6ec-d941193f0be0"},"vehicle_type_id":"4","last_reported":1777482945,"current_range_meters":8000,"station_id":"ce4bhsh2rcd13ifvqi2g","pricing_plan_id":"cebpf4jnsgd1na2vs0mg"},{"bike_id":"dabb9450-175b-402c-91a4-0987018d97ce","system_id":"levelo_inurba_marseille","lat":43.26561,"lon":5.37291,"is_reserved":false,"is_disabled":false,"rental_uris":{"android":"levelo://app?vid=dabb9450-175b-402c-91a4-0987018d97ce","ios":"levelo://app?vid=dabb9450-175b-402c-91a4-0987018d97ce"},"vehicle_type_id":"4","last_reported":1777482945,"current_range_meters":8000,"station_id":"ce4bhg12rcd13ifvqf70","pricing_plan_id":"cebpf4jnsgd1na2vs0mg"},{"bike_id":"415c3cd0-0758-4107-9b7b-81f4e056eadb","system_id":"levelo_inurba_marseille","lat":43.25128,"lon":5.40319,"is_reserved":false,"is_disabled":false,"rental_uris":{"android":"levelo://app?vid=415c3cd0-0758-4107-9b7b-81f4e056eadb","ios":"levelo://app?vid=415c3cd0-0758-4107-9b7b-81f4e056eadb"},"vehicle_type_id":"4","last_reported":1777482945,"current_range_meters":8000,"station_id":"ce4bhlh2rcd13ifvqgig","pricing_plan_id":"cebpf4jnsgd1na2vs0mg"},{"bike_id":"9695e9d8-f753-4464-bfd5-dc9d5894f76f","system_id":"levelo_inurba_marseille","lat":43.28988,"lon":5.37813,"is_reserved":false,"is_disabled":false,"rental_uris":{"android":"levelo://app?vid=9695e9d8-f753-4464-bfd5-dc9d5894f76f","ios":"levelo://app?vid=9695e9d8-f753-4464-bfd5-dc9d5894f76f"},"vehicle_type_id":"4","last_reported":1777482945,"current_range_meters":8000,"station_id":"ce4bh9p2rcd13ifvqed0","pricing_plan_id":"cebpf4jnsgd1na2vs0mg"},{"bike_id":"a496669f-42ea-4ec8-b909-b71bb128370f","system_id":"levelo_inurba_marseille","lat":43.33548,"lon":5.37456,"is_reserved":false,"is_disabled":false,"rental_uris":{"android":"levelo://app?vid=a496669f-42ea-4ec8-b909-b71bb128370f","ios":"levelo://app?vid=a496669f-42ea-4ec8-b909-b71bb128370f"},"vehicle_type_id":"4","last_reported":1777482945,"current_range_meters":8000,"station_id":"st_d46tts09ee8s73dlu43g","pricing_plan_id":"cebpf4jnsgd1na2vs0mg"},{"bike_id":"af88de84-25c3-479d-a95d-86c2a576ca90","system_id":"levelo_inurba_marseille","lat":43.29249,"lon":5.38442,"is_reserved":false,"is_disabled":false,"rental_uris":{"android":"levelo://app?vid=af88de84-25c3-479d-a95d-86c2a576ca90","ios":"levelo://app?vid=af88de84-25c3-479d-a95d-86c2a576ca90"},"vehicle_type_id":"4","last_reported":1777482945,"current_range_meters":8000,"station_id":"ce4bh692rcd13ifvqea0","pricing_plan_id":"cebpf4jnsgd1na2vs0mg"},{"bike_id":"6b4ac840-cc4f-4f2d-b1f3-621a56573810","system_id":"levelo_inurba_marseille","lat":43.28145,"lon":5.42682,"is_reserved":false,"is_disabled":false,"rental_uris":{"android":"levelo://app?vid=6b4ac840-cc4f-4f2d-b1f3-621a56573810","ios":"levelo://app?vid=6b4ac840-cc4f-4f2d-b1f3-621a56573810"},"vehicle_type_id":"4","last_reported":1777482945,"current_range_meters":8000,"station_id":"ce4bhnh2rcd13ifvqgug","pricing_plan_id":"cebpf4jnsgd1na2vs0mg"},{"bike_id":"4723a794-211e-4f26-b874-6c0454c43351","system_id":"levelo_inurba_marseille","lat":43.3095,"lon":5.39038,"is_reserved":false,"is_disabled":false,"rental_uris":{"android":"levelo://app?vid=4723a794-211e-4f26-b874-6c0454c43351","ios":"levelo://app?vid=4723a794-211e-4f26-b874-6c0454c43351"},"vehicle_type_id":"4","last_reported":1777482945,"current_range_meters":8000,"station_id":"ce4bgup2rcd13ifvqco0","pricing_plan_id":"cebpf4jnsgd1na2vs0mg"},{"bike_id":"07919e2d-9a9f-4079-9fd2-ae993e85b930","system_id":"levelo_inurba_marseille","lat":43.21191,"lon":5.35088,"is_reserved":false,"is_disabled":false,"rental_uris":{"android":"levelo://app?vid=07919e2d-9a9f-4079-9fd2-ae993e85b930","ios":"levelo://app?vid=07919e2d-9a9f-4079-9fd2-ae993e85b930"},"vehicle_type_id":"4","last_reported":1777482945,"current_range_meters":8000,"station_id":"st_cvj6sg6p6f1abm77japg","pricing_plan_id":"cebpf4jnsgd1na2vs0mg"},{"bike_id":"b91f4f99-7987-40ea-afbb-1e1af65ec675","system_id":"levelo_inurba_marseille","lat":43.2944,"lon":5.40913,"is_reserved":false,"is_disabled":false,"rental_uris":{"android":"levelo://app?vid=b91f4f99-7987-40ea-afbb-1e1af65ec675","ios":"levelo://app?vid=b91f4f99-7987-40ea-afbb-1e1af65ec675"},"vehicle_type_id":"4","last_reported":1777482945,"current_range_meters":8000,"station_id":"","pricing_plan_id":"cebpf4jnsgd1na2vs0mg"},{"bike_id":"66237e3a-14a8-443c-ad84-dae019ffe9ac","system_id":"levelo_inurba_marseille","lat":43.29256,"lon":5.3844,"is_reserved":false,"is_disabled":false,"rental_uris":{"android":"levelo://app?vid=66237e3a-14a8-443c-ad84-dae019ffe9ac","ios":"levelo://app?vid=66237e3a-14a8-443c-ad84-dae019ffe9ac"},"vehicle_type_id":"4","last_reported":1777482945,"current_range_meters":8000,"station_id":"ce4bh692rcd13ifvqea0","pricing_plan_id":"cebpf4jnsgd1na2vs0mg"},{"bike_id":"c49761ac-9f33-4552-bf2f-10763f93fa50","system_id":"levelo_inurba_marseille","lat":43.31907,"lon":5.36859,"is_reserved":false,"is_disabled":false,"rental_uris":{"android":"levelo://app?vid=c49761ac-9f33-4552-bf2f-10763f93fa50","ios":"levelo://app?vid=c49761ac-9f33-4552-bf2f-10763f93fa50"},"vehicle_type_id":"4","last_reported":1777482945,"current_range_meters":8000,"station_id":"st_d6o2h0d0559c73evc1b0","pricing_plan_id":"cebpf4jnsgd1na2vs0mg"},{"bike_id":"7d933b41-8cb5-4697-b25b-2f27484169a2","system_id":"levelo_inurba_marseille","lat":43.30791,"lon":5.37667,"is_reserved":false,"is_disabled":false,"rental_uris":{"android":"levelo://app?vid=7d933b41-8cb5-4697-b25b-2f27484169a2","ios":"levelo://app?vid=7d933b41-8cb5-4697-b25b-2f27484169a2"},"vehicle_type_id":"4","last_reported":1777482945,"current_range_meters":8000,"station_id":"ce4bgv92rcd13ifvqcq0","pricing_plan_id":"cebpf4jnsgd1na2vs0mg"},{"bike_id":"14e9f740-5925-4c96-abd9-226e09e770e2","system_id":"levelo_inurba_marseille","lat":43.30797,"lon":5.38145,"is_reserved":false,"is_disabled":false,"rental_uris":{"android":"levelo://app?vid=14e9f740-5925-4c96-abd9-226e09e770e2","ios":"levelo://app?vid=14e9f740-5925-4c96-abd9-226e09e770e2"},"vehicle_type_id":"4","last_reported":1777482945,"current_range_meters":8000,"station_id":"ce4bgt12rcd13ifvqce0","pricing_plan_id":"cebpf4jnsgd1na2vs0mg"},{"bike_id":"99201cb9-f027-45f2-8aa9-6c4192fbad9f","system_id":"levelo_inurba_marseille","lat":43.28701,"lon":5.39985,"is_reserved":false,"is_disabled":false,"rental_uris":{"android":"levelo://app?vid=99201cb9-f027-45f2-8aa9-6c4192fbad9f","ios":"levelo://app?vid=99201cb9-f027-45f2-8aa9-6c4192fbad9f"},"vehicle_type_id":"4","last_reported":1777482945,"current_range_meters":8000,"station_id":"ce4bho92rcd13ifvqh3g","pricing_plan_id":"cebpf4jnsgd1na2vs0mg"},{"bike_id":"7c8a4111-5838-47b2-944a-cdc913e68fd8","system_id":"levelo_inurba_marseille","lat":43.31276,"lon":5.40178,"is_reserved":false,"is_disabled":false,"rental_uris":{"android":"levelo://app?vid=7c8a4111-5838-47b2-944a-cdc913e68fd8","ios":"levelo://app?vid=7c8a4111-5838-47b2-944a-cdc913e68fd8"},"vehicle_type_id":"4","last_reported":1777482945,"current_range_meters":8000,"station_id":"ce4bh092rcd13ifvqd30","pricing_plan_id":"cebpf4jnsgd1na2vs0mg"},{"bike_id":"ff236e7f-947f-481c-90ab-b028f0edb7af","system_id":"levelo_inurba_marseille","lat":43.24177,"lon":5.3972,"is_reserved":false,"is_disabled":false,"rental_uris":{"android":"levelo://app?vid=ff236e7f-947f-481c-90ab-b028f0edb7af","ios":"levelo://app?vid=ff236e7f-947f-481c-90ab-b028f0edb7af"},"vehicle_type_id":"4","last_reported":1777482945,"current_range_meters":8000,"station_id":"ce4bhn12rcd13ifvqgpg","pricing_plan_id":"cebpf4jnsgd1na2vs0mg"},{"bike_id":"69a34368-b8a9-442b-ad0d-d699c557fff0","system_id":"levelo_inurba_marseille","lat":43.28689,"lon":5.38657,"is_reserved":false,"is_disabled":false,"rental_uris":{"android":"levelo://app?vid=69a34368-b8a9-442b-ad0d-d699c557fff0","ios":"levelo://app?vid=69a34368-b8a9-442b-ad0d-d699c557fff0"},"vehicle_type_id":"4","last_reported":1777482945,"current_range_meters":8400,"station_id":"ce4bh492rcd13ifvqdug","pricing_plan_id":"cebpf4jnsgd1na2vs0mg"},{"bike_id":"93b13b9e-0842-4649-88de-644dbf6c103a","system_id":"levelo_inurba_marseille","lat":43.26474,"lon":5.42047,"is_reserved":false,"is_disabled":false,"rental_uris":{"android":"levelo://app?vid=93b13b9e-0842-4649-88de-644dbf6c103a","ios":"levelo://app?vid=93b13b9e-0842-4649-88de-644dbf6c103a"},"vehicle_type_id":"4","last_reported":1777482945,"current_range_meters":8400,"station_id":"","pricing_plan_id":"cebpf4jnsgd1na2vs0mg"},{"bike_id":"0438d68d-b4c6-4b23-a7e1-82657231ebe9","system_id":"levelo_inurba_marseille","lat":43.28437,"lon":5.48429,"is_reserved":false,"is_disabled":false,"rental_uris":{"android":"levelo://app?vid=0438d68d-b4c6-4b23-a7e1-82657231ebe9","ios":"levelo://app?vid=0438d68d-b4c6-4b23-a7e1-82657231ebe9"},"vehicle_type_id":"4","last_reported":1777482945,"current_range_meters":8400,"station_id":"","pricing_plan_id":"cebpf4jnsgd1na2vs0mg"},{"bike_id":"9db86b4a-e959-48c6-940a-2eaec612e67c","system_id":"levelo_inurba_marseille","lat":43.28135,"lon":5.42651,"is_reserved":false,"is_disabled":false,"rental_uris":{"android":"levelo://app?vid=9db86b4a-e959-48c6-940a-2eaec612e67c","ios":"levelo://app?vid=9db86b4a-e959-48c6-940a-2eaec612e67c"},"vehicle_type_id":"4","last_reported":1777482945,"current_range_meters":8400,"station_id":"ce4bhnh2rcd13ifvqgug","pricing_plan_id":"cebpf4jnsgd1na2vs0mg"},{"bike_id":"16018333-4bc1-4d47-a90b-362be69a3ad7","system_id":"levelo_inurba_marseille","lat":43.28699,"lon":5.37919,"is_reserved":false,"is_disabled":false,"rental_uris":{"android":"levelo://app?vid=16018333-4bc1-4d47-a90b-362be69a3ad7","ios":"levelo://app?vid=16018333-4bc1-4d47-a90b-362be69a3ad7"},"vehicle_type_id":"4","last_reported":1777482945,"current_range_meters":8400,"station_id":"ce4bh9p2rcd13ifvqec0","pricing_plan_id":"cebpf4jnsgd1na2vs0mg"},{"bike_id":"cf283ba3-7b12-4a40-8ae9-5543788f050a","system_id":"levelo_inurba_marseille","lat":43.28415,"lon":5.39146,"is_reserved":false,"is_disabled":false,"rental_uris":{"android":"levelo://app?vid=cf283ba3-7b12-4a40-8ae9-5543788f050a","ios":"levelo://app?vid=cf283ba3-7b12-4a40-8ae9-5543788f050a"},"vehicle_type_id":"4","last_reported":1777482945,"current_range_meters":8400,"station_id":"ce4bhoh2rcd13ifvqh5g","pricing_plan_id":"cebpf4jnsgd1na2vs0mg"},{"bike_id":"20c418db-2f1d-4a9c-9013-660ef304788e","system_id":"levelo_inurba_marseille","lat":43.324,"lon":5.36713,"is_reserved":false,"is_disabled":false,"rental_uris":{"android":"levelo://app?vid=20c418db-2f1d-4a9c-9013-660ef304788e","ios":"levelo://app?vid=20c418db-2f1d-4a9c-9013-660ef304788e"},"vehicle_type_id":"4","last_reported":1777482945,"current_range_meters":8400,"station_id":"","pricing_plan_id":"cebpf4jnsgd1na2vs0mg"},{"bike_id":"992f9f56-87e2-4522-a641-1e52cd97a721","system_id":"levelo_inurba_marseille","lat":43.28024,"lon":5.3696,"is_reserved":false,"is_disabled":false,"rental_uris":{"android":"levelo://app?vid=992f9f56-87e2-4522-a641-1e52cd97a721","ios":"levelo://app?vid=992f9f56-87e2-4522-a641-1e52cd97a721"},"vehicle_type_id":"4","last_reported":1777482945,"current_range_meters":8400,"station_id":"ce4bha12rcd13ifvqef0","pricing_plan_id":"cebpf4jnsgd1na2vs0mg"},{"bike_id":"082bde0a-8c7b-4d2f-88b1-482f43e33d88","system_id":"levelo_inurba_marseille","lat":43.309364,"lon":5.39042,"is_reserved":false,"is_disabled":false,"rental_uris":{"android":"levelo://app?vid=082bde0a-8c7b-4d2f-88b1-482f43e33d88","ios":"levelo://app?vid=082bde0a-8c7b-4d2f-88b1-482f43e33d88"},"vehicle_type_id":"4","last_reported":1777482945,"current_range_meters":8400,"station_id":"ce4bgup2rcd13ifvqco0","pricing_plan_id":"cebpf4jnsgd1na2vs0mg"},{"bike_id":"6cde4575-3680-44d8-bd42-d9f8cf84d0ce","system_id":"levelo_inurba_marseille","lat":43.29863,"lon":5.39748,"is_reserved":false,"is_disabled":false,"rental_uris":{"android":"levelo://app?vid=6cde4575-3680-44d8-bd42-d9f8cf84d0ce","ios":"levelo://app?vid=6cde4575-3680-44d8-bd42-d9f8cf84d0ce"},"vehicle_type_id":"4","last_reported":1777482945,"current_range_meters":8400,"station_id":"ce4bh0h2rcd13ifvqd50","pricing_plan_id":"cebpf4jnsgd1na2vs0mg"},{"bike_id":"907b975e-fb54-4198-ad71-0a6fda3075d0","system_id":"levelo_inurba_marseille","lat":43.2986,"lon":5.39735,"is_reserved":false,"is_disabled":true,"rental_uris":{"android":"levelo://app?vid=907b975e-fb54-4198-ad71-0a6fda3075d0","ios":"levelo://app?vid=907b975e-fb54-4198-ad71-0a6fda3075d0"},"vehicle_type_id":"4","last_reported":1777482945,"current_range_meters":8400,"station_id":"ce4bh0h2rcd13ifvqd50","pricing_plan_id":"cebpf4jnsgd1na2vs0mg"},{"bike_id":"b2d9f173-ebdf-4637-9547-ff1124c7519b","system_id":"levelo_inurba_marseille","lat":43.31227,"lon":5.37224,"is_reserved":false,"is_disabled":false,"rental_uris":{"android":"levelo://app?vid=b2d9f173-ebdf-4637-9547-ff1124c7519b","ios":"levelo://app?vid=b2d9f173-ebdf-4637-9547-ff1124c7519b"},"vehicle_type_id":"4","last_reported":1777482945,"current_range_meters":8400,"station_id":"","pricing_plan_id":"cebpf4jnsgd1na2vs0mg"},{"bike_id":"51fc75b3-e386-44f8-9668-e302387e3dfe","system_id":"levelo_inurba_marseille","lat":43.34138,"lon":5.40907,"is_reserved":false,"is_disabled":false,"rental_uris":{"android":"levelo://app?vid=51fc75b3-e386-44f8-9668-e302387e3dfe","ios":"levelo://app?vid=51fc75b3-e386-44f8-9668-e302387e3dfe"},"vehicle_type_id":"4","last_reported":1777482945,"current_range_meters":8400,"station_id":"ce4bhqh2rcd13ifvqhlg","pricing_plan_id":"cebpf4jnsgd1na2vs0mg"},{"bike_id":"b5eb1fb9-a902-4426-b70c-ca4eb0395919","system_id":"levelo_inurba_marseille","lat":43.308865,"lon":5.396621,"is_reserved":false,"is_disabled":false,"rental_uris":{"android":"levelo://app?vid=b5eb1fb9-a902-4426-b70c-ca4eb0395919","ios":"levelo://app?vid=b5eb1fb9-a902-4426-b70c-ca4eb0395919"},"vehicle_type_id":"4","last_reported":1777482945,"current_range_meters":8400,"station_id":"ce4bh012rcd13ifvqcv0","pricing_plan_id":"cebpf4jnsgd1na2vs0mg"},{"bike_id":"cd45313b-c1ed-4435-849f-ff77b169020d","system_id":"levelo_inurba_marseille","lat":43.295297,"lon":5.375001,"is_reserved":false,"is_disabled":false,"rental_uris":{"android":"levelo://app?vid=cd45313b-c1ed-4435-849f-ff77b169020d","ios":"levelo://app?vid=cd45313b-c1ed-4435-849f-ff77b169020d"},"vehicle_type_id":"4","last_reported":1777482945,"current_range_meters":8400,"station_id":"ce4bgkp2rcd13ifvqbmg","pricing_plan_id":"cebpf4jnsgd1na2vs0mg"},{"bike_id":"c6ae3868-0ecd-4ee4-8fe5-c31ea1f34c84","system_id":"levelo_inurba_marseille","lat":43.29379,"lon":5.3785,"is_reserved":false,"is_disabled":false,"rental_uris":{"android":"levelo://app?vid=c6ae3868-0ecd-4ee4-8fe5-c31ea1f34c84","ios":"levelo://app?vid=c6ae3868-0ecd-4ee4-8fe5-c31ea1f34c84"},"vehicle_type_id":"4","last_reported":1777482945,"current_range_meters":8400,"station_id":"ce4bgjh2rcd13ifvqbf0","pricing_plan_id":"cebpf4jnsgd1na2vs0mg"},{"bike_id":"2d806478-d090-4d11-85ec-8bc32413d8d4","system_id":"levelo_inurba_marseille","lat":43.3135,"lon":5.38502,"is_reserved":false,"is_disabled":false,"rental_uris":{"android":"levelo://app?vid=2d806478-d090-4d11-85ec-8bc32413d8d4","ios":"levelo://app?vid=2d806478-d090-4d11-85ec-8bc32413d8d4"},"vehicle_type_id":"4","last_reported":1777482945,"current_range_meters":8400,"station_id":"ce4bgt92rcd13ifvqcf0","pricing_plan_id":"cebpf4jnsgd1na2vs0mg"},{"bike_id":"a9ba54be-45d1-419a-9f73-65bd66aee838","system_id":"levelo_inurba_marseille","lat":43.27376,"lon":5.36254,"is_reserved":false,"is_disabled":false,"rental_uris":{"android":"levelo://app?vid=a9ba54be-45d1-419a-9f73-65bd66aee838","ios":"levelo://app?vid=a9ba54be-45d1-419a-9f73-65bd66aee838"},"vehicle_type_id":"4","last_reported":1777482945,"current_range_meters":8400,"station_id":"ce4bhbh2rcd13ifvqeo0","pricing_plan_id":"cebpf4jnsgd1na2vs0mg"},{"bike_id":"d011ea18-2aea-483b-97c3-a09907d81659","system_id":"levelo_inurba_marseille","lat":43.318792,"lon":5.40735,"is_reserved":false,"is_disabled":false,"rental_uris":{"android":"levelo://app?vid=d011ea18-2aea-483b-97c3-a09907d81659","ios":"levelo://app?vid=d011ea18-2aea-483b-97c3-a09907d81659"},"vehicle_type_id":"4","last_reported":1777482945,"current_range_meters":8400,"station_id":"ce4bhq12rcd13ifvqhig","pricing_plan_id":"cebpf4jnsgd1na2vs0mg"},{"bike_id":"d5388f7a-4e0a-4376-b76b-701e4b281dc2","system_id":"levelo_inurba_marseille","lat":43.27062,"lon":5.40256,"is_reserved":false,"is_disabled":true,"rental_uris":{"android":"levelo://app?vid=d5388f7a-4e0a-4376-b76b-701e4b281dc2","ios":"levelo://app?vid=d5388f7a-4e0a-4376-b76b-701e4b281dc2"},"vehicle_type_id":"4","last_reported":1777482945,"current_range_meters":8400,"station_id":"ce4bhk92rcd13ifvqgc0","pricing_plan_id":"cebpf4jnsgd1na2vs0mg"},{"bike_id":"8829f460-aa5f-4233-9846-cd6731fc4acd","system_id":"levelo_inurba_marseille","lat":43.26983,"lon":5.40434,"is_reserved":false,"is_disabled":false,"rental_uris":{"android":"levelo://app?vid=8829f460-aa5f-4233-9846-cd6731fc4acd","ios":"levelo://app?vid=8829f460-aa5f-4233-9846-cd6731fc4acd"},"vehicle_type_id":"4","last_reported":1777482945,"current_range_meters":8800,"station_id":"","pricing_plan_id":"cebpf4jnsgd1na2vs0mg"},{"bike_id":"03a4e651-a6cc-4831-ae76-2243bb3133bf","system_id":"levelo_inurba_marseille","lat":43.30957,"lon":5.39035,"is_reserved":false,"is_disabled":false,"rental_uris":{"android":"levelo://app?vid=03a4e651-a6cc-4831-ae76-2243bb3133bf","ios":"levelo://app?vid=03a4e651-a6cc-4831-ae76-2243bb3133bf"},"vehicle_type_id":"4","last_reported":1777482945,"current_range_meters":8800,"station_id":"ce4bgup2rcd13ifvqco0","pricing_plan_id":"cebpf4jnsgd1na2vs0mg"},{"bike_id":"345bc929-f498-4128-a39a-b953913f5208","system_id":"levelo_inurba_marseille","lat":43.25574,"lon":5.38245,"is_reserved":false,"is_disabled":false,"rental_uris":{"android":"levelo://app?vid=345bc929-f498-4128-a39a-b953913f5208","ios":"levelo://app?vid=345bc929-f498-4128-a39a-b953913f5208"},"vehicle_type_id":"4","last_reported":1777482945,"current_range_meters":8800,"station_id":"ce4bhih2rcd13ifvqfs0","pricing_plan_id":"cebpf4jnsgd1na2vs0mg"},{"bike_id":"2c6e488e-5f57-41b5-a027-d13b49a7c8eb","system_id":"levelo_inurba_marseille","lat":43.29897,"lon":5.43656,"is_reserved":false,"is_disabled":false,"rental_uris":{"android":"levelo://app?vid=2c6e488e-5f57-41b5-a027-d13b49a7c8eb","ios":"levelo://app?vid=2c6e488e-5f57-41b5-a027-d13b49a7c8eb"},"vehicle_type_id":"4","last_reported":1777482945,"current_range_meters":8800,"station_id":"ce4bhpp2rcd13ifvqhfg","pricing_plan_id":"cebpf4jnsgd1na2vs0mg"},{"bike_id":"7a4f9c5b-0770-4973-b065-ff441b4f0ec4","system_id":"levelo_inurba_marseille","lat":43.28864,"lon":5.42519,"is_reserved":false,"is_disabled":false,"rental_uris":{"android":"levelo://app?vid=7a4f9c5b-0770-4973-b065-ff441b4f0ec4","ios":"levelo://app?vid=7a4f9c5b-0770-4973-b065-ff441b4f0ec4"},"vehicle_type_id":"4","last_reported":1777482945,"current_range_meters":8800,"station_id":"st_d3b462108ojc7389ooeg","pricing_plan_id":"cebpf4jnsgd1na2vs0mg"},{"bike_id":"82a8043e-804e-4dc9-b426-b4d299449f67","system_id":"levelo_inurba_marseille","lat":43.31046,"lon":5.37187,"is_reserved":false,"is_disabled":false,"rental_uris":{"android":"levelo://app?vid=82a8043e-804e-4dc9-b426-b4d299449f67","ios":"levelo://app?vid=82a8043e-804e-4dc9-b426-b4d299449f67"},"vehicle_type_id":"4","last_reported":1777482945,"current_range_meters":8800,"station_id":"st_d4kl2rp97mjs73e7tdfg","pricing_plan_id":"cebpf4jnsgd1na2vs0mg"},{"bike_id":"262fc285-b6eb-4eda-9ac1-639b6caaacc5","system_id":"levelo_inurba_marseille","lat":43.32356,"lon":5.36742,"is_reserved":false,"is_disabled":false,"rental_uris":{"android":"levelo://app?vid=262fc285-b6eb-4eda-9ac1-639b6caaacc5","ios":"levelo://app?vid=262fc285-b6eb-4eda-9ac1-639b6caaacc5"},"vehicle_type_id":"4","last_reported":1777482945,"current_range_meters":8800,"station_id":"ce4bhsh2rcd13ifvqi2g","pricing_plan_id":"cebpf4jnsgd1na2vs0mg"},{"bike_id":"9736e9f9-bfa9-4810-b10b-a31cd59a3247","system_id":"levelo_inurba_marseille","lat":43.31054,"lon":5.37165,"is_reserved":false,"is_disabled":false,"rental_uris":{"android":"levelo://app?vid=9736e9f9-bfa9-4810-b10b-a31cd59a3247","ios":"levelo://app?vid=9736e9f9-bfa9-4810-b10b-a31cd59a3247"},"vehicle_type_id":"4","last_reported":1777482945,"current_range_meters":8800,"station_id":"st_d4kl2rp97mjs73e7tdfg","pricing_plan_id":"cebpf4jnsgd1na2vs0mg"},{"bike_id":"335fc8dc-ad2f-4253-b0e2-b10d3d2d0173","system_id":"levelo_inurba_marseille","lat":43.284858,"lon":5.385637,"is_reserved":false,"is_disabled":true,"rental_uris":{"android":"levelo://app?vid=335fc8dc-ad2f-4253-b0e2-b10d3d2d0173","ios":"levelo://app?vid=335fc8dc-ad2f-4253-b0e2-b10d3d2d0173"},"vehicle_type_id":"4","last_reported":1777482945,"current_range_meters":8800,"station_id":"ce4bh8p2rcd13ifvqeb0","pricing_plan_id":"cebpf4jnsgd1na2vs0mg"},{"bike_id":"5b3fd876-81ad-4763-bbc7-a20964ca406d","system_id":"levelo_inurba_marseille","lat":43.24179,"lon":5.3973,"is_reserved":false,"is_disabled":false,"rental_uris":{"android":"levelo://app?vid=5b3fd876-81ad-4763-bbc7-a20964ca406d","ios":"levelo://app?vid=5b3fd876-81ad-4763-bbc7-a20964ca406d"},"vehicle_type_id":"4","last_reported":1777482945,"current_range_meters":8800,"station_id":"ce4bhn12rcd13ifvqgpg","pricing_plan_id":"cebpf4jnsgd1na2vs0mg"},{"bike_id":"00ff0799-7689-45c9-8cd0-76bddacfdb63","system_id":"levelo_inurba_marseille","lat":43.28149,"lon":5.42633,"is_reserved":false,"is_disabled":false,"rental_uris":{"android":"levelo://app?vid=00ff0799-7689-45c9-8cd0-76bddacfdb63","ios":"levelo://app?vid=00ff0799-7689-45c9-8cd0-76bddacfdb63"},"vehicle_type_id":"4","last_reported":1777482945,"current_range_meters":8800,"station_id":"ce4bhnh2rcd13ifvqgug","pricing_plan_id":"cebpf4jnsgd1na2vs0mg"},{"bike_id":"5cc847c3-c7ab-4803-a64a-cfb2e18548c3","system_id":"levelo_inurba_marseille","lat":43.29645,"lon":5.3702,"is_reserved":false,"is_disabled":false,"rental_uris":{"android":"levelo://app?vid=5cc847c3-c7ab-4803-a64a-cfb2e18548c3","ios":"levelo://app?vid=5cc847c3-c7ab-4803-a64a-cfb2e18548c3"},"vehicle_type_id":"4","last_reported":1777482945,"current_range_meters":8800,"station_id":"","pricing_plan_id":"cebpf4jnsgd1na2vs0mg"},{"bike_id":"21d95eb3-e7a7-42da-89cd-8c34dd2eb598","system_id":"levelo_inurba_marseille","lat":43.26553,"lon":5.37287,"is_reserved":false,"is_disabled":false,"rental_uris":{"android":"levelo://app?vid=21d95eb3-e7a7-42da-89cd-8c34dd2eb598","ios":"levelo://app?vid=21d95eb3-e7a7-42da-89cd-8c34dd2eb598"},"vehicle_type_id":"4","last_reported":1777482945,"current_range_meters":8800,"station_id":"ce4bhg12rcd13ifvqf70","pricing_plan_id":"cebpf4jnsgd1na2vs0mg"},{"bike_id":"73d36e8f-c10a-47a5-b1bc-bdbbb165a673","system_id":"levelo_inurba_marseille","lat":43.25082,"lon":5.39522,"is_reserved":false,"is_disabled":false,"rental_uris":{"android":"levelo://app?vid=73d36e8f-c10a-47a5-b1bc-bdbbb165a673","ios":"levelo://app?vid=73d36e8f-c10a-47a5-b1bc-bdbbb165a673"},"vehicle_type_id":"4","last_reported":1777482945,"current_range_meters":8800,"station_id":"ce4bhm12rcd13ifvqgkg","pricing_plan_id":"cebpf4jnsgd1na2vs0mg"},{"bike_id":"a6176e3a-40dc-4e13-8f01-658583661a0c","system_id":"levelo_inurba_marseille","lat":43.30586,"lon":5.37213,"is_reserved":false,"is_disabled":false,"rental_uris":{"android":"levelo://app?vid=a6176e3a-40dc-4e13-8f01-658583661a0c","ios":"levelo://app?vid=a6176e3a-40dc-4e13-8f01-658583661a0c"},"vehicle_type_id":"4","last_reported":1777482945,"current_range_meters":8800,"station_id":"ce4bgqh2rcd13ifvqc4g","pricing_plan_id":"cebpf4jnsgd1na2vs0mg"},{"bike_id":"945b3f65-3522-4839-bb4a-92155b98bfd3","system_id":"levelo_inurba_marseille","lat":43.28429,"lon":5.34992,"is_reserved":false,"is_disabled":true,"rental_uris":{"android":"levelo://app?vid=945b3f65-3522-4839-bb4a-92155b98bfd3","ios":"levelo://app?vid=945b3f65-3522-4839-bb4a-92155b98bfd3"},"vehicle_type_id":"4","last_reported":1777482945,"current_range_meters":8800,"station_id":"ce4bhbh2rcd13ifvqepg","pricing_plan_id":"cebpf4jnsgd1na2vs0mg"},{"bike_id":"a1ffb032-5ed9-4d57-a60f-c866abe80678","system_id":"levelo_inurba_marseille","lat":43.23971,"lon":5.36629,"is_reserved":false,"is_disabled":false,"rental_uris":{"android":"levelo://app?vid=a1ffb032-5ed9-4d57-a60f-c866abe80678","ios":"levelo://app?vid=a1ffb032-5ed9-4d57-a60f-c866abe80678"},"vehicle_type_id":"4","last_reported":1777482945,"current_range_meters":8800,"station_id":"ce4bhi12rcd13ifvqfp0","pricing_plan_id":"cebpf4jnsgd1na2vs0mg"},{"bike_id":"e81f6c15-da47-4b4a-a2c3-03835ae9180c","system_id":"levelo_inurba_marseille","lat":43.273851,"lon":5.362608,"is_reserved":false,"is_disabled":false,"rental_uris":{"android":"levelo://app?vid=e81f6c15-da47-4b4a-a2c3-03835ae9180c","ios":"levelo://app?vid=e81f6c15-da47-4b4a-a2c3-03835ae9180c"},"vehicle_type_id":"4","last_reported":1777482945,"current_range_meters":8800,"station_id":"ce4bhbh2rcd13ifvqeo0","pricing_plan_id":"cebpf4jnsgd1na2vs0mg"},{"bike_id":"91c811f3-93a2-436b-8b07-1314e3dc525e","system_id":"levelo_inurba_marseille","lat":43.30461,"lon":5.37897,"is_reserved":false,"is_disabled":false,"rental_uris":{"android":"levelo://app?vid=91c811f3-93a2-436b-8b07-1314e3dc525e","ios":"levelo://app?vid=91c811f3-93a2-436b-8b07-1314e3dc525e"},"vehicle_type_id":"4","last_reported":1777482945,"current_range_meters":8800,"station_id":"ce4bgup2rcd13ifvqcn0","pricing_plan_id":"cebpf4jnsgd1na2vs0mg"},{"bike_id":"3f90dabe-a1df-475f-8344-649e3e6d5a4d","system_id":"levelo_inurba_marseille","lat":43.27616,"lon":5.36098,"is_reserved":false,"is_disabled":false,"rental_uris":{"android":"levelo://app?vid=3f90dabe-a1df-475f-8344-649e3e6d5a4d","ios":"levelo://app?vid=3f90dabe-a1df-475f-8344-649e3e6d5a4d"},"vehicle_type_id":"4","last_reported":1777482945,"current_range_meters":8800,"station_id":"ce4bgj92rcd13ifvqbe0","pricing_plan_id":"cebpf4jnsgd1na2vs0mg"},{"bike_id":"acf51c63-cf78-493c-a43a-a6f1a5bc1497","system_id":"levelo_inurba_marseille","lat":43.23186,"lon":5.39976,"is_reserved":false,"is_disabled":false,"rental_uris":{"android":"levelo://app?vid=acf51c63-cf78-493c-a43a-a6f1a5bc1497","ios":"levelo://app?vid=acf51c63-cf78-493c-a43a-a6f1a5bc1497"},"vehicle_type_id":"4","last_reported":1777482945,"current_range_meters":8800,"station_id":"ce4bhn12rcd13ifvqgqg","pricing_plan_id":"cebpf4jnsgd1na2vs0mg"},{"bike_id":"26335112-9b2a-4a27-9ec1-b93b9cc755ad","system_id":"levelo_inurba_marseille","lat":43.30858,"lon":5.41868,"is_reserved":false,"is_disabled":false,"rental_uris":{"android":"levelo://app?vid=26335112-9b2a-4a27-9ec1-b93b9cc755ad","ios":"levelo://app?vid=26335112-9b2a-4a27-9ec1-b93b9cc755ad"},"vehicle_type_id":"4","last_reported":1777482945,"current_range_meters":8800,"station_id":"","pricing_plan_id":"cebpf4jnsgd1na2vs0mg"},{"bike_id":"bf9b525b-6169-435d-b06d-d31fa4c2a776","system_id":"levelo_inurba_marseille","lat":43.24465,"lon":5.42531,"is_reserved":false,"is_disabled":false,"rental_uris":{"android":"levelo://app?vid=bf9b525b-6169-435d-b06d-d31fa4c2a776","ios":"levelo://app?vid=bf9b525b-6169-435d-b06d-d31fa4c2a776"},"vehicle_type_id":"4","last_reported":1777482945,"current_range_meters":8800,"station_id":"st_d4a3vfp97mjs738cd8kg","pricing_plan_id":"cebpf4jnsgd1na2vs0mg"},{"bike_id":"549ed218-5fd0-4a81-8eb1-37d054762aff","system_id":"levelo_inurba_marseille","lat":43.28716,"lon":5.37941,"is_reserved":false,"is_disabled":false,"rental_uris":{"android":"levelo://app?vid=549ed218-5fd0-4a81-8eb1-37d054762aff","ios":"levelo://app?vid=549ed218-5fd0-4a81-8eb1-37d054762aff"},"vehicle_type_id":"4","last_reported":1777482945,"current_range_meters":8800,"station_id":"ce4bh9p2rcd13ifvqec0","pricing_plan_id":"cebpf4jnsgd1na2vs0mg"},{"bike_id":"dd649e74-ed5e-4ce6-b6fc-191746436a7b","system_id":"levelo_inurba_marseille","lat":43.25087,"lon":5.42485,"is_reserved":false,"is_disabled":false,"rental_uris":{"android":"levelo://app?vid=dd649e74-ed5e-4ce6-b6fc-191746436a7b","ios":"levelo://app?vid=dd649e74-ed5e-4ce6-b6fc-191746436a7b"},"vehicle_type_id":"4","last_reported":1777482945,"current_range_meters":8800,"station_id":"","pricing_plan_id":"cebpf4jnsgd1na2vs0mg"},{"bike_id":"a13cf09e-4dc6-4122-934a-08e5a4ad06bd","system_id":"levelo_inurba_marseille","lat":43.26536,"lon":5.37323,"is_reserved":false,"is_disabled":true,"rental_uris":{"android":"levelo://app?vid=a13cf09e-4dc6-4122-934a-08e5a4ad06bd","ios":"levelo://app?vid=a13cf09e-4dc6-4122-934a-08e5a4ad06bd"},"vehicle_type_id":"4","last_reported":1777482945,"current_range_meters":8800,"station_id":"ce4bhg12rcd13ifvqf70","pricing_plan_id":"cebpf4jnsgd1na2vs0mg"},{"bike_id":"6816d9d0-7c3d-449f-8d0a-42e1e3145323","system_id":"levelo_inurba_marseille","lat":43.24994,"lon":5.38935,"is_reserved":false,"is_disabled":false,"rental_uris":{"android":"levelo://app?vid=6816d9d0-7c3d-449f-8d0a-42e1e3145323","ios":"levelo://app?vid=6816d9d0-7c3d-449f-8d0a-42e1e3145323"},"vehicle_type_id":"4","last_reported":1777482945,"current_range_meters":8800,"station_id":"ce4bhgp2rcd13ifvqfd0","pricing_plan_id":"cebpf4jnsgd1na2vs0mg"},{"bike_id":"ab1ce7c8-58f0-4af7-9f03-ad38edefceb4","system_id":"levelo_inurba_marseille","lat":43.26548,"lon":5.37288,"is_reserved":false,"is_disabled":false,"rental_uris":{"android":"levelo://app?vid=ab1ce7c8-58f0-4af7-9f03-ad38edefceb4","ios":"levelo://app?vid=ab1ce7c8-58f0-4af7-9f03-ad38edefceb4"},"vehicle_type_id":"4","last_reported":1777482945,"current_range_meters":8800,"station_id":"ce4bhg12rcd13ifvqf70","pricing_plan_id":"cebpf4jnsgd1na2vs0mg"},{"bike_id":"2f66aa7e-4caf-480e-889e-83800fe37bb8","system_id":"levelo_inurba_marseille","lat":43.24999,"lon":5.38926,"is_reserved":false,"is_disabled":false,"rental_uris":{"android":"levelo://app?vid=2f66aa7e-4caf-480e-889e-83800fe37bb8","ios":"levelo://app?vid=2f66aa7e-4caf-480e-889e-83800fe37bb8"},"vehicle_type_id":"4","last_reported":1777482945,"current_range_meters":8800,"station_id":"ce4bhgp2rcd13ifvqfd0","pricing_plan_id":"cebpf4jnsgd1na2vs0mg"},{"bike_id":"5244c715-8e9c-4594-9733-0c9fc2ed4b63","system_id":"levelo_inurba_marseille","lat":43.29028,"lon":5.38646,"is_reserved":false,"is_disabled":false,"rental_uris":{"android":"levelo://app?vid=5244c715-8e9c-4594-9733-0c9fc2ed4b63","ios":"levelo://app?vid=5244c715-8e9c-4594-9733-0c9fc2ed4b63"},"vehicle_type_id":"4","last_reported":1777482945,"current_range_meters":9200,"station_id":"ce4bh4p2rcd13ifvqe0g","pricing_plan_id":"cebpf4jnsgd1na2vs0mg"},{"bike_id":"ca03a5fc-2360-46a0-b6c9-f8a8bed36e1a","system_id":"levelo_inurba_marseille","lat":43.24804,"lon":5.37462,"is_reserved":false,"is_disabled":false,"rental_uris":{"android":"levelo://app?vid=ca03a5fc-2360-46a0-b6c9-f8a8bed36e1a","ios":"levelo://app?vid=ca03a5fc-2360-46a0-b6c9-f8a8bed36e1a"},"vehicle_type_id":"4","last_reported":1777482945,"current_range_meters":9200,"station_id":"ce4bhgh2rcd13ifvqfb0","pricing_plan_id":"cebpf4jnsgd1na2vs0mg"},{"bike_id":"d97ed6ed-9254-4b2c-9752-a3aaf3378900","system_id":"levelo_inurba_marseille","lat":43.33542,"lon":5.37466,"is_reserved":false,"is_disabled":false,"rental_uris":{"android":"levelo://app?vid=d97ed6ed-9254-4b2c-9752-a3aaf3378900","ios":"levelo://app?vid=d97ed6ed-9254-4b2c-9752-a3aaf3378900"},"vehicle_type_id":"4","last_reported":1777482945,"current_range_meters":9200,"station_id":"st_d46tts09ee8s73dlu43g","pricing_plan_id":"cebpf4jnsgd1na2vs0mg"},{"bike_id":"9c85ea94-e0db-4d3e-baca-fa152ee440d3","system_id":"levelo_inurba_marseille","lat":43.25577,"lon":5.38232,"is_reserved":false,"is_disabled":false,"rental_uris":{"android":"levelo://app?vid=9c85ea94-e0db-4d3e-baca-fa152ee440d3","ios":"levelo://app?vid=9c85ea94-e0db-4d3e-baca-fa152ee440d3"},"vehicle_type_id":"4","last_reported":1777482945,"current_range_meters":9200,"station_id":"ce4bhih2rcd13ifvqfs0","pricing_plan_id":"cebpf4jnsgd1na2vs0mg"},{"bike_id":"67770120-bd85-4b15-af1e-f85ca14859f3","system_id":"levelo_inurba_marseille","lat":43.28867,"lon":5.42516,"is_reserved":false,"is_disabled":false,"rental_uris":{"android":"levelo://app?vid=67770120-bd85-4b15-af1e-f85ca14859f3","ios":"levelo://app?vid=67770120-bd85-4b15-af1e-f85ca14859f3"},"vehicle_type_id":"4","last_reported":1777482945,"current_range_meters":9200,"station_id":"st_d3b462108ojc7389ooeg","pricing_plan_id":"cebpf4jnsgd1na2vs0mg"},{"bike_id":"b5bfb65b-96a6-411e-b0fd-ef98e613a04a","system_id":"levelo_inurba_marseille","lat":43.29523,"lon":5.38536,"is_reserved":false,"is_disabled":false,"rental_uris":{"android":"levelo://app?vid=b5bfb65b-96a6-411e-b0fd-ef98e613a04a","ios":"levelo://app?vid=b5bfb65b-96a6-411e-b0fd-ef98e613a04a"},"vehicle_type_id":"4","last_reported":1777482945,"current_range_meters":9200,"station_id":"ce4bgih2rcd13ifvqba0","pricing_plan_id":"cebpf4jnsgd1na2vs0mg"},{"bike_id":"7be06c3a-8473-4b45-a3f6-aea060cfe576","system_id":"levelo_inurba_marseille","lat":43.2558,"lon":5.38231,"is_reserved":false,"is_disabled":false,"rental_uris":{"android":"levelo://app?vid=7be06c3a-8473-4b45-a3f6-aea060cfe576","ios":"levelo://app?vid=7be06c3a-8473-4b45-a3f6-aea060cfe576"},"vehicle_type_id":"4","last_reported":1777482945,"current_range_meters":9200,"station_id":"ce4bhih2rcd13ifvqfs0","pricing_plan_id":"cebpf4jnsgd1na2vs0mg"},{"bike_id":"98808478-983a-4402-9a90-852631f8f036","system_id":"levelo_inurba_marseille","lat":43.27381,"lon":5.36267,"is_reserved":false,"is_disabled":false,"rental_uris":{"android":"levelo://app?vid=98808478-983a-4402-9a90-852631f8f036","ios":"levelo://app?vid=98808478-983a-4402-9a90-852631f8f036"},"vehicle_type_id":"4","last_reported":1777482945,"current_range_meters":9200,"station_id":"ce4bhbh2rcd13ifvqeo0","pricing_plan_id":"cebpf4jnsgd1na2vs0mg"},{"bike_id":"a2a694ab-bd57-45a8-a651-048e4cefae01","system_id":"levelo_inurba_marseille","lat":43.28705,"lon":5.46695,"is_reserved":false,"is_disabled":false,"rental_uris":{"android":"levelo://app?vid=a2a694ab-bd57-45a8-a651-048e4cefae01","ios":"levelo://app?vid=a2a694ab-bd57-45a8-a651-048e4cefae01"},"vehicle_type_id":"4","last_reported":1777482945,"current_range_meters":9200,"station_id":"st_d6tc3vkotcvc738tfjhg","pricing_plan_id":"cebpf4jnsgd1na2vs0mg"},{"bike_id":"ee813b34-2972-4cea-9d1a-f667b8306ac6","system_id":"levelo_inurba_marseille","lat":43.2823,"lon":5.39072,"is_reserved":false,"is_disabled":false,"rental_uris":{"android":"levelo://app?vid=ee813b34-2972-4cea-9d1a-f667b8306ac6","ios":"levelo://app?vid=ee813b34-2972-4cea-9d1a-f667b8306ac6"},"vehicle_type_id":"4","last_reported":1777482945,"current_range_meters":9200,"station_id":"ce4bhn92rcd13ifvqgsg","pricing_plan_id":"cebpf4jnsgd1na2vs0mg"},{"bike_id":"98c016d5-cca6-4824-8a0c-ef791b377aa4","system_id":"levelo_inurba_marseille","lat":43.25589,"lon":5.38225,"is_reserved":false,"is_disabled":false,"rental_uris":{"android":"levelo://app?vid=98c016d5-cca6-4824-8a0c-ef791b377aa4","ios":"levelo://app?vid=98c016d5-cca6-4824-8a0c-ef791b377aa4"},"vehicle_type_id":"4","last_reported":1777482945,"current_range_meters":9200,"station_id":"ce4bhih2rcd13ifvqfs0","pricing_plan_id":"cebpf4jnsgd1na2vs0mg"},{"bike_id":"780580ca-b1b8-4c4f-b8d8-ca7cbc7d23f2","system_id":"levelo_inurba_marseille","lat":43.28736,"lon":5.36065,"is_reserved":false,"is_disabled":false,"rental_uris":{"android":"levelo://app?vid=780580ca-b1b8-4c4f-b8d8-ca7cbc7d23f2","ios":"levelo://app?vid=780580ca-b1b8-4c4f-b8d8-ca7cbc7d23f2"},"vehicle_type_id":"4","last_reported":1777482945,"current_range_meters":9200,"station_id":"cki0cbj6b192h4jlfktg","pricing_plan_id":"cebpf4jnsgd1na2vs0mg"},{"bike_id":"60d77da4-6419-429b-9e7a-b2cf161a2f69","system_id":"levelo_inurba_marseille","lat":43.32642,"lon":5.39497,"is_reserved":false,"is_disabled":false,"rental_uris":{"android":"levelo://app?vid=60d77da4-6419-429b-9e7a-b2cf161a2f69","ios":"levelo://app?vid=60d77da4-6419-429b-9e7a-b2cf161a2f69"},"vehicle_type_id":"4","last_reported":1777482945,"current_range_meters":9200,"station_id":"","pricing_plan_id":"cebpf4jnsgd1na2vs0mg"},{"bike_id":"98faa3c1-629a-40ec-83f5-18c41a649014","system_id":"levelo_inurba_marseille","lat":43.33142,"lon":5.37716,"is_reserved":false,"is_disabled":false,"rental_uris":{"android":"levelo://app?vid=98faa3c1-629a-40ec-83f5-18c41a649014","ios":"levelo://app?vid=98faa3c1-629a-40ec-83f5-18c41a649014"},"vehicle_type_id":"4","last_reported":1777482945,"current_range_meters":9200,"station_id":"st_d46cu089ee8s73dldbu0","pricing_plan_id":"cebpf4jnsgd1na2vs0mg"},{"bike_id":"105f32f6-c368-4de0-8ad5-1075cdf8978e","system_id":"levelo_inurba_marseille","lat":43.24044,"lon":5.3643,"is_reserved":false,"is_disabled":false,"rental_uris":{"android":"levelo://app?vid=105f32f6-c368-4de0-8ad5-1075cdf8978e","ios":"levelo://app?vid=105f32f6-c368-4de0-8ad5-1075cdf8978e"},"vehicle_type_id":"4","last_reported":1777482945,"current_range_meters":9200,"station_id":"","pricing_plan_id":"cebpf4jnsgd1na2vs0mg"},{"bike_id":"67f14d76-7533-4b57-a379-d5e462e525ab","system_id":"levelo_inurba_marseille","lat":43.24955,"lon":5.40495,"is_reserved":false,"is_disabled":false,"rental_uris":{"android":"levelo://app?vid=67f14d76-7533-4b57-a379-d5e462e525ab","ios":"levelo://app?vid=67f14d76-7533-4b57-a379-d5e462e525ab"},"vehicle_type_id":"4","last_reported":1777482945,"current_range_meters":9600,"station_id":"st_d2ngiaodas8pm72gd1h0","pricing_plan_id":"cebpf4jnsgd1na2vs0mg"},{"bike_id":"71829421-ce07-42fd-92a3-2acd76fc9522","system_id":"levelo_inurba_marseille","lat":43.31171,"lon":5.38727,"is_reserved":false,"is_disabled":false,"rental_uris":{"android":"levelo://app?vid=71829421-ce07-42fd-92a3-2acd76fc9522","ios":"levelo://app?vid=71829421-ce07-42fd-92a3-2acd76fc9522"},"vehicle_type_id":"4","last_reported":1777482945,"current_range_meters":9600,"station_id":"ce4bgv12rcd13ifvqcp0","pricing_plan_id":"cebpf4jnsgd1na2vs0mg"},{"bike_id":"95f47514-1d7f-4013-95fe-a0916f7cc45a","system_id":"levelo_inurba_marseille","lat":43.33558,"lon":5.37442,"is_reserved":false,"is_disabled":false,"rental_uris":{"android":"levelo://app?vid=95f47514-1d7f-4013-95fe-a0916f7cc45a","ios":"levelo://app?vid=95f47514-1d7f-4013-95fe-a0916f7cc45a"},"vehicle_type_id":"4","last_reported":1777482945,"current_range_meters":9600,"station_id":"st_d46tts09ee8s73dlu43g","pricing_plan_id":"cebpf4jnsgd1na2vs0mg"},{"bike_id":"f7e246a6-5bd7-48d6-9d1f-f1fba49e248e","system_id":"levelo_inurba_marseille","lat":43.30558,"lon":5.36535,"is_reserved":false,"is_disabled":false,"rental_uris":{"android":"levelo://app?vid=f7e246a6-5bd7-48d6-9d1f-f1fba49e248e","ios":"levelo://app?vid=f7e246a6-5bd7-48d6-9d1f-f1fba49e248e"},