{"last_updated":1722276673,"ttl":30,"version":"2.2","data":{"bikes":[{"bike_id":"9f8ec7b6-6afa-4bd1-8679-6e79772104b7","system_id":"levelo_inurba_marseille","lat":43.313391,"lon":5.36706,"is_reserved":false,"is_disabled":false,"rental_uris":{"android":"levelo://app?vid=9f8ec7b6-6afa-4bd1-8679-6e79772104b7","ios":"levelo://app?vid=9f8ec7b6-6afa-4bd1-8679-6e79772104b7"},"vehicle_type_id":"4","last_reported":1722276673,"current_range_meters":5600,"station_id":"ce4bgr92rcd13ifvqc6g","pricing_plan_id":"cebpf4jnsgd1na2vs0mg"},{"bike_id":"def5710e-d266-4f5d-9f1f-fd3103fccbef","system_id":"levelo_inurba_marseille","lat":43.31243,"lon":5.36825,"is_reserved":false,"is_disabled":false,"rental_uris":{"android":"levelo://app?vid=def5710e-d266-4f5d-9f1f-fd3103fccbef","ios":"levelo://app?vid=def5710e-d266-4f5d-9f1f-fd3103fccbef"},"vehicle_type_id":"4","last_reported":1722276673,"current_range_meters":2400,"station_id":"","pricing_plan_id":"cebpf4jnsgd1na2vs0mg"},{"bike_id":"9db3580f-9846-4206-9ffa-e4478b6e891f","system_id":"levelo_inurba_marseille","lat":43.31225,"lon":5.36846,"is_reserved":false,"is_disabled":false,"rental_uris":{"android":"levelo://app?vid=9db3580f-9846-4206-9ffa-e4478b6e891f","ios":"levelo://app?vid=9db3580f-9846-4206-9ffa-e4478b6e891f"},"vehicle_type_id":"4","last_reported":1722276673,"current_range_meters":25200,"station_id":"ce4bgl92rcd13ifvqbq0","pricing_plan_id":"cebpf4jnsgd1na2vs0mg"},{"bike_id":"f8c5a7f7-38af-442d-b1de-19653073c3a5","system_id":"levelo_inurba_marseille","lat":43.31224,"lon":5.36851,"is_reserved":false,"is_disabled":false,"rental_uris":{"android":"levelo://app?vid=f8c5a7f7-38af-442d-b1de-19653073c3a5","ios":"levelo://app?vid=f8c5a7f7-38af-442d-b1de-19653073c3a5"},"vehicle_type_id":"4","last_reported":1722276673,"current_range_meters":4000,"station_id":"ce4bgl92rcd13ifvqbq0","pricing_plan_id":"cebpf4jnsgd1na2vs0mg"},{"bike_id":"5fdf2b4f-77f8-4ff5-a225-00d9502876f5","system_id":"levelo_inurba_marseille","lat":43.314811,"lon":5.373103,"is_reserved":false,"is_disabled":false,"rental_uris":{"android":"levelo://app?vid=5fdf2b4f-77f8-4ff5-a225-00d9502876f5","ios":"levelo://app?vid=5fdf2b4f-77f8-4ff5-a225-00d9502876f5"},"vehicle_type_id":"4","last_reported":1722276673,"current_range_meters":3200,"station_id":"ce4bgt12rcd13ifvqcd0","pricing_plan_id":"cebpf4jnsgd1na2vs0mg"},{"bike_id":"f3436136-0951-49f7-896a-747e283763ce","system_id":"levelo_inurba_marseille","lat":43.314811,"lon":5.373104,"is_reserved":false,"is_disabled":false,"rental_uris":{"android":"levelo://app?vid=f3436136-0951-49f7-896a-747e283763ce","ios":"levelo://app?vid=f3436136-0951-49f7-896a-747e283763ce"},"vehicle_type_id":"4","last_reported":1722276673,"current_range_meters":19600,"station_id":"ce4bgt12rcd13ifvqcd0","pricing_plan_id":"cebpf4jnsgd1na2vs0mg"},{"bike_id":"7cd7bac1-7bbf-4aae-964a-1000404a2449","system_id":"levelo_inurba_marseille","lat":43.305368,"lon":5.367343,"is_reserved":false,"is_disabled":false,"rental_uris":{"android":"levelo://app?vid=7cd7bac1-7bbf-4aae-964a-1000404a2449","ios":"levelo://app?vid=7cd7bac1-7bbf-4aae-964a-1000404a2449"},"vehicle_type_id":"4","last_reported":1722276673,"current_range_meters":0,"station_id":"ce4bgrp2rcd13ifvqc9g","pricing_plan_id":"cebpf4jnsgd1na2vs0mg"},{"bike_id":"74451cea-7aeb-4edb-95a5-3911cea46b47","system_id":"levelo_inurba_marseille","lat":43.30537,"lon":5.367345,"is_reserved":false,"is_disabled":false,"rental_uris":{"android":"levelo://app?vid=74451cea-7aeb-4edb-95a5-3911cea46b47","ios":"levelo://app?vid=74451cea-7aeb-4edb-95a5-3911cea46b47"},"vehicle_type_id":"4","last_reported":1722276673,"current_range_meters":4000,"station_id":"ce4bgrp2rcd13ifvqc9g","pricing_plan_id":"cebpf4jnsgd1na2vs0mg"},{"bike_id":"dd0c037f-1878-433d-a3d4-c976c87af073","system_id":"levelo_inurba_marseille","lat":43.31116,"lon":5.37761,"is_reserved":false,"is_disabled":false,"rental_uris":{"android":"levelo://app?vid=dd0c037f-1878-433d-a3d4-c976c87af073","ios":"levelo://app?vid=dd0c037f-1878-433d-a3d4-c976c87af073"},"vehicle_type_id":"4","last_reported":1722276673,"current_range_meters":0,"station_id":"ce4bgt92rcd13ifvqcg0","pricing_plan_id":"cebpf4jnsgd1na2vs0mg"},{"bike_id":"a7af3361-0949-484d-affa-187feee57c80","system_id":"levelo_inurba_marseille","lat":43.30284,"lon":5.36476,"is_reserved":false,"is_disabled":false,"rental_uris":{"android":"levelo://app?vid=a7af3361-0949-484d-affa-187feee57c80","ios":"levelo://app?vid=a7af3361-0949-484d-affa-187feee57c80"},"vehicle_type_id":"4","last_reported":1722276673,"current_range_meters":16800,"station_id":"","pricing_plan_id":"cebpf4jnsgd1na2vs0mg"},{"bike_id":"1e871472-114c-4560-90fa-b6ba7f9ad44c","system_id":"levelo_inurba_marseille","lat":43.31534,"lon":5.3803,"is_reserved":false,"is_disabled":false,"rental_uris":{"android":"levelo://app?vid=1e871472-114c-4560-90fa-b6ba7f9ad44c","ios":"levelo://app?vid=1e871472-114c-4560-90fa-b6ba7f9ad44c"},"vehicle_type_id":"4","last_reported":1722276673,"current_range_meters":0,"station_id":"ce4bhsp2rcd13ifvqi50","pricing_plan_id":"cebpf4jnsgd1na2vs0mg"},{"bike_id":"205af42f-6b1f-4ce1-85bd-4dd049b923ef","system_id":"levelo_inurba_marseille","lat":43.315289,"lon":5.380349,"is_reserved":false,"is_disabled":false,"rental_uris":{"android":"levelo://app?vid=205af42f-6b1f-4ce1-85bd-4dd049b923ef","ios":"levelo://app?vid=205af42f-6b1f-4ce1-85bd-4dd049b923ef"},"vehicle_type_id":"4","last_reported":1722276673,"current_range_meters":0,"station_id":"ce4bhsp2rcd13ifvqi50","pricing_plan_id":"cebpf4jnsgd1na2vs0mg"},{"bike_id":"11337172-1a4d-4988-9bbe-cc581a9cae76","system_id":"levelo_inurba_marseille","lat":43.308012,"lon":5.381511,"is_reserved":false,"is_disabled":false,"rental_uris":{"android":"levelo://app?vid=11337172-1a4d-4988-9bbe-cc581a9cae76","ios":"levelo://app?vid=11337172-1a4d-4988-9bbe-cc581a9cae76"},"vehicle_type_id":"4","last_reported":1722276673,"current_range_meters":12800,"station_id":"ce4bgt12rcd13ifvqce0","pricing_plan_id":"cebpf4jnsgd1na2vs0mg"},{"bike_id":"9b3e1384-a725-4f62-9fcf-c7eab0dcbd23","system_id":"levelo_inurba_marseille","lat":43.308012,"lon":5.381511,"is_reserved":false,"is_disabled":false,"rental_uris":{"android":"levelo://app?vid=9b3e1384-a725-4f62-9fcf-c7eab0dcbd23","ios":"levelo://app?vid=9b3e1384-a725-4f62-9fcf-c7eab0dcbd23"},"vehicle_type_id":"4","last_reported":1722276673,"current_range_meters":800,"station_id":"ce4bgt12rcd13ifvqce0","pricing_plan_id":"cebpf4jnsgd1na2vs0mg"},{"bike_id":"c1703ba6-4d96-4475-85ee-d3c2d93ba051","system_id":"levelo_inurba_marseille","lat":43.308012,"lon":5.381511,"is_reserved":false,"is_disabled":false,"rental_uris":{"android":"levelo://app?vid=c1703ba6-4d96-4475-85ee-d3c2d93ba051","ios":"levelo://app?vid=c1703ba6-4d96-4475-85ee-d3c2d93ba051"},"vehicle_type_id":"4","last_reported":1722276673,"current_range_meters":26400,"station_id":"ce4bgt12rcd13ifvqce0","pricing_plan_id":"cebpf4jnsgd1na2vs0mg"},{"bike_id":"b860bb5f-523b-4242-a573-d5de8d277743","system_id":"levelo_inurba_marseille","lat":43.30688,"lon":5.38093,"is_reserved":false,"is_disabled":false,"rental_uris":{"android":"levelo://app?vid=b860bb5f-523b-4242-a573-d5de8d277743","ios":"levelo://app?vid=b860bb5f-523b-4242-a573-d5de8d277743"},"vehicle_type_id":"4","last_reported":1722276673,"current_range_meters":800,"station_id":"","pricing_plan_id":"cebpf4jnsgd1na2vs0mg"},{"bike_id":"bb3668ee-37fe-4c51-9b7e-1bf725306362","system_id":"levelo_inurba_marseille","lat":43.324771,"lon":5.36557,"is_reserved":false,"is_disabled":false,"rental_uris":{"android":"levelo://app?vid=bb3668ee-37fe-4c51-9b7e-1bf725306362","ios":"levelo://app?vid=bb3668ee-37fe-4c51-9b7e-1bf725306362"},"vehicle_type_id":"4","last_reported":1722276673,"current_range_meters":29600,"station_id":"ce4bhs12rcd13ifvqhvg","pricing_plan_id":"cebpf4jnsgd1na2vs0mg"},{"bike_id":"655fc802-d0e6-4b06-ab06-21a145e6698f","system_id":"levelo_inurba_marseille","lat":43.324771,"lon":5.36557,"is_reserved":false,"is_disabled":false,"rental_uris":{"android":"levelo://app?vid=655fc802-d0e6-4b06-ab06-21a145e6698f","ios":"levelo://app?vid=655fc802-d0e6-4b06-ab06-21a145e6698f"},"vehicle_type_id":"4","last_reported":1722276673,"current_range_meters":31200,"station_id":"ce4bhs12rcd13ifvqhvg","pricing_plan_id":"cebpf4jnsgd1na2vs0mg"},{"bike_id":"cc299a00-967f-4730-9e52-33f4589166b6","system_id":"levelo_inurba_marseille","lat":43.324771,"lon":5.36557,"is_reserved":false,"is_disabled":false,"rental_uris":{"android":"levelo://app?vid=cc299a00-967f-4730-9e52-33f4589166b6","ios":"levelo://app?vid=cc299a00-967f-4730-9e52-33f4589166b6"},"vehicle_type_id":"4","last_reported":1722276673,"current_range_meters":3600,"station_id":"ce4bhs12rcd13ifvqhvg","pricing_plan_id":"cebpf4jnsgd1na2vs0mg"},{"bike_id":"68626deb-d686-4eac-a7d0-8773bde4aeb2","system_id":"levelo_inurba_marseille","lat":43.324771,"lon":5.36557,"is_reserved":false,"is_disabled":false,"rental_uris":{"android":"levelo://app?vid=68626deb-d686-4eac-a7d0-8773bde4aeb2","ios":"levelo://app?vid=68626deb-d686-4eac-a7d0-8773bde4aeb2"},"vehicle_type_id":"4","last_reported":1722276673,"current_range_meters":24000,"station_id":"ce4bhs12rcd13ifvqhvg","pricing_plan_id":"cebpf4jnsgd1na2vs0mg"},{"bike_id":"4e6a592d-991f-469f-ac4f-c159cda96ac7","system_id":"levelo_inurba_marseille","lat":43.324771,"lon":5.36557,"is_reserved":false,"is_disabled":false,"rental_uris":{"android":"levelo://app?vid=4e6a592d-991f-469f-ac4f-c159cda96ac7","ios":"levelo://app?vid=4e6a592d-991f-469f-ac4f-c159cda96ac7"},"vehicle_type_id":"4","last_reported":1722276673,"current_range_meters":0,"station_id":"ce4bhs12rcd13ifvqhvg","pricing_plan_id":"cebpf4jnsgd1na2vs0mg"},{"bike_id":"bbc4a081-5d44-4c70-aca6-ba0be4373e40","system_id":"levelo_inurba_marseille","lat":43.324771,"lon":5.36557,"is_reserved":false,"is_disabled":false,"rental_uris":{"android":"levelo://app?vid=bbc4a081-5d44-4c70-aca6-ba0be4373e40","ios":"levelo://app?vid=bbc4a081-5d44-4c70-aca6-ba0be4373e40"},"vehicle_type_id":"4","last_reported":1722276673,"current_range_meters":27600,"station_id":"ce4bhs12rcd13ifvqhvg","pricing_plan_id":"cebpf4jnsgd1na2vs0mg"},{"bike_id":"cf2295fe-e9a5-4fa3-992d-424feac9b7ac","system_id":"levelo_inurba_marseille","lat":43.324771,"lon":5.36557,"is_reserved":false,"is_disabled":false,"rental_uris":{"android":"levelo://app?vid=cf2295fe-e9a5-4fa3-992d-424feac9b7ac","ios":"levelo://app?vid=cf2295fe-e9a5-4fa3-992d-424feac9b7ac"},"vehicle_type_id":"4","last_reported":1722276673,"current_range_meters":6400,"station_id":"ce4bhs12rcd13ifvqhvg","pricing_plan_id":"cebpf4jnsgd1na2vs0mg"},{"bike_id":"845d3924-35d5-479e-aa86-bfb11047a1b4","system_id":"levelo_inurba_marseille","lat":43.310804,"lon":5.38359,"is_reserved":false,"is_disabled":false,"rental_uris":{"android":"levelo://app?vid=845d3924-35d5-479e-aa86-bfb11047a1b4","ios":"levelo://app?vid=845d3924-35d5-479e-aa86-bfb11047a1b4"},"vehicle_type_id":"4","last_reported":1722276673,"current_range_meters":10400,"station_id":"ce4bgv92rcd13ifvqcr0","pricing_plan_id":"cebpf4jnsgd1na2vs0mg"},{"bike_id":"6c539935-0e00-4148-8258-a27ae36ed179","system_id":"levelo_inurba_marseille","lat":43.310804,"lon":5.38359,"is_reserved":false,"is_disabled":false,"rental_uris":{"android":"levelo://app?vid=6c539935-0e00-4148-8258-a27ae36ed179","ios":"levelo://app?vid=6c539935-0e00-4148-8258-a27ae36ed179"},"vehicle_type_id":"4","last_reported":1722276673,"current_range_meters":3200,"station_id":"ce4bgv92rcd13ifvqcr0","pricing_plan_id":"cebpf4jnsgd1na2vs0mg"},{"bike_id":"7061cb1c-f131-45ef-9f6c-0f617583d2e7","system_id":"levelo_inurba_marseille","lat":43.3195,"lon":5.38132,"is_reserved":false,"is_disabled":false,"rental_uris":{"android":"levelo://app?vid=7061cb1c-f131-45ef-9f6c-0f617583d2e7","ios":"levelo://app?vid=7061cb1c-f131-45ef-9f6c-0f617583d2e7"},"vehicle_type_id":"4","last_reported":1722276673,"current_range_meters":6000,"station_id":"","pricing_plan_id":"cebpf4jnsgd1na2vs0mg"},{"bike_id":"ba51bcde-8add-4ec1-8a90-e5c3ea82f24b","system_id":"levelo_inurba_marseille","lat":43.301543,"lon":5.3764,"is_reserved":false,"is_disabled":false,"rental_uris":{"android":"levelo://app?vid=ba51bcde-8add-4ec1-8a90-e5c3ea82f24b","ios":"levelo://app?vid=ba51bcde-8add-4ec1-8a90-e5c3ea82f24b"},"vehicle_type_id":"4","last_reported":1722276673,"current_range_meters":2000,"station_id":"","pricing_plan_id":"cebpf4jnsgd1na2vs0mg"},{"bike_id":"71c418ba-9c9e-47bf-af82-11a3bfe14db1","system_id":"levelo_inurba_marseille","lat":43.31979,"lon":5.38228,"is_reserved":false,"is_disabled":false,"rental_uris":{"android":"levelo://app?vid=71c418ba-9c9e-47bf-af82-11a3bfe14db1","ios":"levelo://app?vid=71c418ba-9c9e-47bf-af82-11a3bfe14db1"},"vehicle_type_id":"4","last_reported":1722276673,"current_range_meters":6800,"station_id":"","pricing_plan_id":"cebpf4jnsgd1na2vs0mg"},{"bike_id":"5d113366-66d5-418b-84bd-46e689b6efd5","system_id":"levelo_inurba_marseille","lat":43.31974,"lon":5.38241,"is_reserved":false,"is_disabled":false,"rental_uris":{"android":"levelo://app?vid=5d113366-66d5-418b-84bd-46e689b6efd5","ios":"levelo://app?vid=5d113366-66d5-418b-84bd-46e689b6efd5"},"vehicle_type_id":"4","last_reported":1722276673,"current_range_meters":10400,"station_id":"","pricing_plan_id":"cebpf4jnsgd1na2vs0mg"},{"bike_id":"dc4590fc-fea0-4992-a110-7c36c6ab07a8","system_id":"levelo_inurba_marseille","lat":43.291675,"lon":5.371583,"is_reserved":false,"is_disabled":false,"rental_uris":{"android":"levelo://app?vid=dc4590fc-fea0-4992-a110-7c36c6ab07a8","ios":"levelo://app?vid=dc4590fc-fea0-4992-a110-7c36c6ab07a8"},"vehicle_type_id":"4","last_reported":1722276673,"current_range_meters":9600,"station_id":"ce4bha92rcd13ifvqeh0","pricing_plan_id":"cebpf4jnsgd1na2vs0mg"},{"bike_id":"abe4eaa3-b960-4466-8344-91072c0ca48d","system_id":"levelo_inurba_marseille","lat":43.299724,"lon":5.371829,"is_reserved":false,"is_disabled":false,"rental_uris":{"android":"levelo://app?vid=abe4eaa3-b960-4466-8344-91072c0ca48d","ios":"levelo://app?vid=abe4eaa3-b960-4466-8344-91072c0ca48d"},"vehicle_type_id":"4","last_reported":1722276673,"current_range_meters":0,"station_id":"ce4bgr92rcd13ifvqc7g","pricing_plan_id":"cebpf4jnsgd1na2vs0mg"},{"bike_id":"13b225be-4e8f-496f-b621-dfa6195584ea","system_id":"levelo_inurba_marseille","lat":43.299222,"lon":5.365554,"is_reserved":false,"is_disabled":false,"rental_uris":{"android":"levelo://app?vid=13b225be-4e8f-496f-b621-dfa6195584ea","ios":"levelo://app?vid=13b225be-4e8f-496f-b621-dfa6195584ea"},"vehicle_type_id":"4","last_reported":1722276673,"current_range_meters":0,"station_id":"ce4bgm92rcd13ifvqbr0","pricing_plan_id":"cebpf4jnsgd1na2vs0mg"},{"bike_id":"fc85a5b3-5040-47d2-a011-cc8e9492af4f","system_id":"levelo_inurba_marseille","lat":43.299243,"lon":5.37481,"is_reserved":false,"is_disabled":false,"rental_uris":{"android":"levelo://app?vid=fc85a5b3-5040-47d2-a011-cc8e9492af4f","ios":"levelo://app?vid=fc85a5b3-5040-47d2-a011-cc8e9492af4f"},"vehicle_type_id":"4","last_reported":1722276673,"current_range_meters":0,"station_id":"ce4bgjh2rcd13ifvqbg0","pricing_plan_id":"cebpf4jnsgd1na2vs0mg"},{"bike_id":"97baa794-02ea-40dc-9a46-16d29df550f4","system_id":"levelo_inurba_marseille","lat":43.299243,"lon":5.37481,"is_reserved":false,"is_disabled":false,"rental_uris":{"android":"levelo://app?vid=97baa794-02ea-40dc-9a46-16d29df550f4","ios":"levelo://app?vid=97baa794-02ea-40dc-9a46-16d29df550f4"},"vehicle_type_id":"4","last_reported":1722276673,"current_range_meters":8400,"station_id":"ce4bgjh2rcd13ifvqbg0","pricing_plan_id":"cebpf4jnsgd1na2vs0mg"},{"bike_id":"b4470ea4-8872-45e2-bcc8-19058d387b60","system_id":"levelo_inurba_marseille","lat":43.31167,"lon":5.3871,"is_reserved":false,"is_disabled":false,"rental_uris":{"android":"levelo://app?vid=b4470ea4-8872-45e2-bcc8-19058d387b60","ios":"levelo://app?vid=b4470ea4-8872-45e2-bcc8-19058d387b60"},"vehicle_type_id":"4","last_reported":1722276673,"current_range_meters":0,"station_id":"ce4bgv12rcd13ifvqcp0","pricing_plan_id":"cebpf4jnsgd1na2vs0mg"},{"bike_id":"0f9e231b-4a64-448d-905a-dfc0c9fc048c","system_id":"levelo_inurba_marseille","lat":43.311722,"lon":5.387247,"is_reserved":false,"is_disabled":false,"rental_uris":{"android":"levelo://app?vid=0f9e231b-4a64-448d-905a-dfc0c9fc048c","ios":"levelo://app?vid=0f9e231b-4a64-448d-905a-dfc0c9fc048c"},"vehicle_type_id":"4","last_reported":1722276673,"current_range_meters":12400,"station_id":"ce4bgv12rcd13ifvqcp0","pricing_plan_id":"cebpf4jnsgd1na2vs0mg"},{"bike_id":"d1c22b21-2fbf-44bb-906d-73be1794cbdd","system_id":"levelo_inurba_marseille","lat":43.311722,"lon":5.387247,"is_reserved":false,"is_disabled":false,"rental_uris":{"android":"levelo://app?vid=d1c22b21-2fbf-44bb-906d-73be1794cbdd","ios":"levelo://app?vid=d1c22b21-2fbf-44bb-906d-73be1794cbdd"},"vehicle_type_id":"4","last_reported":1722276673,"current_range_meters":12400,"station_id":"ce4bgv12rcd13ifvqcp0","pricing_plan_id":"cebpf4jnsgd1na2vs0mg"},{"bike_id":"890c01e4-b074-4655-b39e-1c01ff74001d","system_id":"levelo_inurba_marseille","lat":43.273613,"lon":5.362705,"is_reserved":false,"is_disabled":false,"rental_uris":{"android":"levelo://app?vid=890c01e4-b074-4655-b39e-1c01ff74001d","ios":"levelo://app?vid=890c01e4-b074-4655-b39e-1c01ff74001d"},"vehicle_type_id":"4","last_reported":1722276673,"current_range_meters":4800,"station_id":"ce4bhbh2rcd13ifvqeo0","pricing_plan_id":"cebpf4jnsgd1na2vs0mg"},{"bike_id":"12191e96-12f0-4276-a7c2-7340288b6f5e","system_id":"levelo_inurba_marseille","lat":43.30149,"lon":5.38084,"is_reserved":false,"is_disabled":false,"rental_uris":{"android":"levelo://app?vid=12191e96-12f0-4276-a7c2-7340288b6f5e","ios":"levelo://app?vid=12191e96-12f0-4276-a7c2-7340288b6f5e"},"vehicle_type_id":"4","last_reported":1722276673,"current_range_meters":6000,"station_id":"","pricing_plan_id":"cebpf4jnsgd1na2vs0mg"},{"bike_id":"7b81a626-f2f9-4612-ad70-7118fc386087","system_id":"levelo_inurba_marseille","lat":43.301467,"lon":5.380927,"is_reserved":false,"is_disabled":false,"rental_uris":{"android":"levelo://app?vid=7b81a626-f2f9-4612-ad70-7118fc386087","ios":"levelo://app?vid=7b81a626-f2f9-4612-ad70-7118fc386087"},"vehicle_type_id":"4","last_reported":1722276673,"current_range_meters":0,"station_id":"","pricing_plan_id":"cebpf4jnsgd1na2vs0mg"},{"bike_id":"aef626ac-f8fb-4393-b6a5-ba2609623aa6","system_id":"levelo_inurba_marseille","lat":43.297794,"lon":5.370888,"is_reserved":false,"is_disabled":false,"rental_uris":{"android":"levelo://app?vid=aef626ac-f8fb-4393-b6a5-ba2609623aa6","ios":"levelo://app?vid=aef626ac-f8fb-4393-b6a5-ba2609623aa6"},"vehicle_type_id":"4","last_reported":1722276673,"current_range_meters":21200,"station_id":"ce4bgop2rcd13ifvqc1g","pricing_plan_id":"cebpf4jnsgd1na2vs0mg"},{"bike_id":"31c3c3dc-6f55-40e1-bf6d-d5a8f9e04d08","system_id":"levelo_inurba_marseille","lat":43.322872,"lon":5.382756,"is_reserved":false,"is_disabled":false,"rental_uris":{"android":"levelo://app?vid=31c3c3dc-6f55-40e1-bf6d-d5a8f9e04d08","ios":"levelo://app?vid=31c3c3dc-6f55-40e1-bf6d-d5a8f9e04d08"},"vehicle_type_id":"4","last_reported":1722276673,"current_range_meters":25600,"station_id":"ce4bhr12rcd13ifvqhqg","pricing_plan_id":"cebpf4jnsgd1na2vs0mg"},{"bike_id":"9d1f21de-decb-49ac-a7eb-ad8874b0bada","system_id":"levelo_inurba_marseille","lat":43.322908,"lon":5.382736,"is_reserved":false,"is_disabled":false,"rental_uris":{"android":"levelo://app?vid=9d1f21de-decb-49ac-a7eb-ad8874b0bada","ios":"levelo://app?vid=9d1f21de-decb-49ac-a7eb-ad8874b0bada"},"vehicle_type_id":"4","last_reported":1722276673,"current_range_meters":4800,"station_id":"ce4bhr12rcd13ifvqhqg","pricing_plan_id":"cebpf4jnsgd1na2vs0mg"},{"bike_id":"8c5aede6-9063-4e03-8a52-9d4778b6a672","system_id":"levelo_inurba_marseille","lat":43.322872,"lon":5.382756,"is_reserved":false,"is_disabled":false,"rental_uris":{"android":"levelo://app?vid=8c5aede6-9063-4e03-8a52-9d4778b6a672","ios":"levelo://app?vid=8c5aede6-9063-4e03-8a52-9d4778b6a672"},"vehicle_type_id":"4","last_reported":1722276673,"current_range_meters":29200,"station_id":"ce4bhr12rcd13ifvqhqg","pricing_plan_id":"cebpf4jnsgd1na2vs0mg"},{"bike_id":"9266143a-9546-4c26-9e06-b1ecc4abae8a","system_id":"levelo_inurba_marseille","lat":43.30072,"lon":5.381148,"is_reserved":false,"is_disabled":false,"rental_uris":{"android":"levelo://app?vid=9266143a-9546-4c26-9e06-b1ecc4abae8a","ios":"levelo://app?vid=9266143a-9546-4c26-9e06-b1ecc4abae8a"},"vehicle_type_id":"4","last_reported":1722276673,"current_range_meters":10000,"station_id":"","pricing_plan_id":"cebpf4jnsgd1na2vs0mg"},{"bike_id":"2b03c609-7a5a-4795-8af6-776b4637882a","system_id":"levelo_inurba_marseille","lat":43.296667,"lon":5.368503,"is_reserved":false,"is_disabled":false,"rental_uris":{"android":"levelo://app?vid=2b03c609-7a5a-4795-8af6-776b4637882a","ios":"levelo://app?vid=2b03c609-7a5a-4795-8af6-776b4637882a"},"vehicle_type_id":"4","last_reported":1722276673,"current_range_meters":0,"station_id":"","pricing_plan_id":"cebpf4jnsgd1na2vs0mg"},{"bike_id":"fb6712f6-e3d2-4e70-9a10-260796e0336d","system_id":"levelo_inurba_marseille","lat":43.325941,"lon":5.379713,"is_reserved":false,"is_disabled":false,"rental_uris":{"android":"levelo://app?vid=fb6712f6-e3d2-4e70-9a10-260796e0336d","ios":"levelo://app?vid=fb6712f6-e3d2-4e70-9a10-260796e0336d"},"vehicle_type_id":"4","last_reported":1722276673,"current_range_meters":11200,"station_id":"","pricing_plan_id":"cebpf4jnsgd1na2vs0mg"},{"bike_id":"070d61e7-020a-4d1a-807a-c4f5ae5babe5","system_id":"levelo_inurba_marseille","lat":43.299724,"lon":5.371829,"is_reserved":false,"is_disabled":false,"rental_uris":{"android":"levelo://app?vid=070d61e7-020a-4d1a-807a-c4f5ae5babe5","ios":"levelo://app?vid=070d61e7-020a-4d1a-807a-c4f5ae5babe5"},"vehicle_type_id":"4","last_reported":1722276673,"current_range_meters":4400,"station_id":"ce4bgr92rcd13ifvqc7g","pricing_plan_id":"cebpf4jnsgd1na2vs0mg"},{"bike_id":"bb76d3aa-cdd6-4d16-8a81-5912f3a75eb2","system_id":"levelo_inurba_marseille","lat":43.29581,"lon":5.36744,"is_reserved":false,"is_disabled":false,"rental_uris":{"android":"levelo://app?vid=bb76d3aa-cdd6-4d16-8a81-5912f3a75eb2","ios":"levelo://app?vid=bb76d3aa-cdd6-4d16-8a81-5912f3a75eb2"},"vehicle_type_id":"4","last_reported":1722276673,"current_range_meters":3200,"station_id":"ce4bgph2rcd13ifvqc2g","pricing_plan_id":"cebpf4jnsgd1na2vs0mg"},{"bike_id":"c0665555-735e-4c28-af59-2891d3f60531","system_id":"levelo_inurba_marseille","lat":43.309589,"lon":5.390258,"is_reserved":false,"is_disabled":false,"rental_uris":{"android":"levelo://app?vid=c0665555-735e-4c28-af59-2891d3f60531","ios":"levelo://app?vid=c0665555-735e-4c28-af59-2891d3f60531"},"vehicle_type_id":"4","last_reported":1722276673,"current_range_meters":3200,"station_id":"ce4bgup2rcd13ifvqco0","pricing_plan_id":"cebpf4jnsgd1na2vs0mg"},{"bike_id":"5799ebee-5552-4eb2-914a-9742a6123764","system_id":"levelo_inurba_marseille","lat":43.2971,"lon":5.37689,"is_reserved":false,"is_disabled":false,"rental_uris":{"android":"levelo://app?vid=5799ebee-5552-4eb2-914a-9742a6123764","ios":"levelo://app?vid=5799ebee-5552-4eb2-914a-9742a6123764"},"vehicle_type_id":"4","last_reported":1722276673,"current_range_meters":24800,"station_id":"ce4bgkh2rcd13ifvqbl0","pricing_plan_id":"cebpf4jnsgd1na2vs0mg"},{"bike_id":"8d4202e5-ab9f-481c-bde3-78a07ebbbafa","system_id":"levelo_inurba_marseille","lat":43.30958,"lon":5.39039,"is_reserved":false,"is_disabled":false,"rental_uris":{"android":"levelo://app?vid=8d4202e5-ab9f-481c-bde3-78a07ebbbafa","ios":"levelo://app?vid=8d4202e5-ab9f-481c-bde3-78a07ebbbafa"},"vehicle_type_id":"4","last_reported":1722276673,"current_range_meters":0,"station_id":"ce4bgup2rcd13ifvqco0","pricing_plan_id":"cebpf4jnsgd1na2vs0mg"},{"bike_id":"0a12a856-3624-4dc3-bf7c-ebc8b003c1df","system_id":"levelo_inurba_marseille","lat":43.30419,"lon":5.38796,"is_reserved":false,"is_disabled":false,"rental_uris":{"android":"levelo://app?vid=0a12a856-3624-4dc3-bf7c-ebc8b003c1df","ios":"levelo://app?vid=0a12a856-3624-4dc3-bf7c-ebc8b003c1df"},"vehicle_type_id":"4","last_reported":1722276673,"current_range_meters":17200,"station_id":"","pricing_plan_id":"cebpf4jnsgd1na2vs0mg"},{"bike_id":"42c8bf5b-ca7c-428c-81f4-6a3f615417d8","system_id":"levelo_inurba_marseille","lat":43.317557,"lon":5.390173,"is_reserved":false,"is_disabled":false,"rental_uris":{"android":"levelo://app?vid=42c8bf5b-ca7c-428c-81f4-6a3f615417d8","ios":"levelo://app?vid=42c8bf5b-ca7c-428c-81f4-6a3f615417d8"},"vehicle_type_id":"4","last_reported":1722276673,"current_range_meters":6800,"station_id":"ce4bhqp2rcd13ifvqhng","pricing_plan_id":"cebpf4jnsgd1na2vs0mg"},{"bike_id":"75f998dc-c601-4a89-8f8b-fa4789532038","system_id":"levelo_inurba_marseille","lat":43.317557,"lon":5.390173,"is_reserved":false,"is_disabled":false,"rental_uris":{"android":"levelo://app?vid=75f998dc-c601-4a89-8f8b-fa4789532038","ios":"levelo://app?vid=75f998dc-c601-4a89-8f8b-fa4789532038"},"vehicle_type_id":"4","last_reported":1722276673,"current_range_meters":20000,"station_id":"ce4bhqp2rcd13ifvqhng","pricing_plan_id":"cebpf4jnsgd1na2vs0mg"},{"bike_id":"0ad36631-75bb-480d-be92-2477fc4d99ff","system_id":"levelo_inurba_marseille","lat":43.317557,"lon":5.390173,"is_reserved":false,"is_disabled":false,"rental_uris":{"android":"levelo://app?vid=0ad36631-75bb-480d-be92-2477fc4d99ff","ios":"levelo://app?vid=0ad36631-75bb-480d-be92-2477fc4d99ff"},"vehicle_type_id":"4","last_reported":1722276673,"current_range_meters":7200,"station_id":"ce4bhqp2rcd13ifvqhng","pricing_plan_id":"cebpf4jnsgd1na2vs0mg"},{"bike_id":"54fa97f4-2bd4-4ef5-8229-96f28a56adfb","system_id":"levelo_inurba_marseille","lat":43.298037,"lon":5.381066,"is_reserved":false,"is_disabled":false,"rental_uris":{"android":"levelo://app?vid=54fa97f4-2bd4-4ef5-8229-96f28a56adfb","ios":"levelo://app?vid=54fa97f4-2bd4-4ef5-8229-96f28a56adfb"},"vehicle_type_id":"4","last_reported":1722276673,"current_range_meters":0,"station_id":"ce4bgip2rcd13ifvqbb0","pricing_plan_id":"cebpf4jnsgd1na2vs0mg"},{"bike_id":"23df87cd-cd8b-4d0f-a719-cc4b18e48d50","system_id":"levelo_inurba_marseille","lat":43.304274,"lon":5.388873,"is_reserved":false,"is_disabled":false,"rental_uris":{"android":"levelo://app?vid=23df87cd-cd8b-4d0f-a719-cc4b18e48d50","ios":"levelo://app?vid=23df87cd-cd8b-4d0f-a719-cc4b18e48d50"},"vehicle_type_id":"4","last_reported":1722276673,"current_range_meters":13200,"station_id":"ce4bgk12rcd13ifvqbi0","pricing_plan_id":"cebpf4jnsgd1na2vs0mg"},{"bike_id":"8d20be0c-f255-4e56-9fde-128b8c5f5582","system_id":"levelo_inurba_marseille","lat":43.304274,"lon":5.388873,"is_reserved":false,"is_disabled":false,"rental_uris":{"android":"levelo://app?vid=8d20be0c-f255-4e56-9fde-128b8c5f5582","ios":"levelo://app?vid=8d20be0c-f255-4e56-9fde-128b8c5f5582"},"vehicle_type_id":"4","last_reported":1722276673,"current_range_meters":27200,"station_id":"ce4bgk12rcd13ifvqbi0","pricing_plan_id":"cebpf4jnsgd1na2vs0mg"},{"bike_id":"330ceadb-723d-47d0-8d6b-7e3ed66aa9eb","system_id":"levelo_inurba_marseille","lat":43.295748,"lon":5.37522,"is_reserved":false,"is_disabled":false,"rental_uris":{"android":"levelo://app?vid=330ceadb-723d-47d0-8d6b-7e3ed66aa9eb","ios":"levelo://app?vid=330ceadb-723d-47d0-8d6b-7e3ed66aa9eb"},"vehicle_type_id":"4","last_reported":1722276673,"current_range_meters":27600,"station_id":"ce4bgh92rcd13ifvqb50","pricing_plan_id":"cebpf4jnsgd1na2vs0mg"},{"bike_id":"21a8f0c7-0a07-4a54-a9e7-4b8a96decda6","system_id":"levelo_inurba_marseille","lat":43.304278,"lon":5.388868,"is_reserved":false,"is_disabled":false,"rental_uris":{"android":"levelo://app?vid=21a8f0c7-0a07-4a54-a9e7-4b8a96decda6","ios":"levelo://app?vid=21a8f0c7-0a07-4a54-a9e7-4b8a96decda6"},"vehicle_type_id":"4","last_reported":1722276673,"current_range_meters":0,"station_id":"ce4bgk12rcd13ifvqbi0","pricing_plan_id":"cebpf4jnsgd1na2vs0mg"},{"bike_id":"641103a7-3a47-41cb-8098-4c8f5ce861da","system_id":"levelo_inurba_marseille","lat":43.296263,"lon":5.377094,"is_reserved":false,"is_disabled":false,"rental_uris":{"android":"levelo://app?vid=641103a7-3a47-41cb-8098-4c8f5ce861da","ios":"levelo://app?vid=641103a7-3a47-41cb-8098-4c8f5ce861da"},"vehicle_type_id":"4","last_reported":1722276673,"current_range_meters":400,"station_id":"ce4bgi92rcd13ifvqb90","pricing_plan_id":"cebpf4jnsgd1na2vs0mg"},{"bike_id":"511ce91b-3ba0-4452-983a-38504e9516aa","system_id":"levelo_inurba_marseille","lat":43.296263,"lon":5.377094,"is_reserved":false,"is_disabled":false,"rental_uris":{"android":"levelo://app?vid=511ce91b-3ba0-4452-983a-38504e9516aa","ios":"levelo://app?vid=511ce91b-3ba0-4452-983a-38504e9516aa"},"vehicle_type_id":"4","last_reported":1722276673,"current_range_meters":3600,"station_id":"ce4bgi92rcd13ifvqb90","pricing_plan_id":"cebpf4jnsgd1na2vs0mg"},{"bike_id":"1b78df3d-6efd-4958-8c6c-04fe99ce33ff","system_id":"levelo_inurba_marseille","lat":43.295748,"lon":5.37522,"is_reserved":false,"is_disabled":false,"rental_uris":{"android":"levelo://app?vid=1b78df3d-6efd-4958-8c6c-04fe99ce33ff","ios":"levelo://app?vid=1b78df3d-6efd-4958-8c6c-04fe99ce33ff"},"vehicle_type_id":"4","last_reported":1722276673,"current_range_meters":0,"station_id":"ce4bgh92rcd13ifvqb50","pricing_plan_id":"cebpf4jnsgd1na2vs0mg"},{"bike_id":"bd2af4c2-9b6f-420f-92fd-7d4bf38b528b","system_id":"levelo_inurba_marseille","lat":43.295279,"lon":5.375048,"is_reserved":false,"is_disabled":false,"rental_uris":{"android":"levelo://app?vid=bd2af4c2-9b6f-420f-92fd-7d4bf38b528b","ios":"levelo://app?vid=bd2af4c2-9b6f-420f-92fd-7d4bf38b528b"},"vehicle_type_id":"4","last_reported":1722276673,"current_range_meters":0,"station_id":"ce4bgkp2rcd13ifvqbmg","pricing_plan_id":"cebpf4jnsgd1na2vs0mg"},{"bike_id":"5f990994-eeb7-4a24-9808-ae81d16b654a","system_id":"levelo_inurba_marseille","lat":43.299717,"lon":5.384845,"is_reserved":false,"is_disabled":false,"rental_uris":{"android":"levelo://app?vid=5f990994-eeb7-4a24-9808-ae81d16b654a","ios":"levelo://app?vid=5f990994-eeb7-4a24-9808-ae81d16b654a"},"vehicle_type_id":"4","last_reported":1722276673,"current_range_meters":31200,"station_id":"ce4bgj92rcd13ifvqbd0","pricing_plan_id":"cebpf4jnsgd1na2vs0mg"},{"bike_id":"50e37a60-6b55-4ee7-a320-6d4b12c5bfa5","system_id":"levelo_inurba_marseille","lat":43.299717,"lon":5.384845,"is_reserved":false,"is_disabled":false,"rental_uris":{"android":"levelo://app?vid=50e37a60-6b55-4ee7-a320-6d4b12c5bfa5","ios":"levelo://app?vid=50e37a60-6b55-4ee7-a320-6d4b12c5bfa5"},"vehicle_type_id":"4","last_reported":1722276673,"current_range_meters":31200,"station_id":"ce4bgj92rcd13ifvqbd0","pricing_plan_id":"cebpf4jnsgd1na2vs0mg"},{"bike_id":"ecb736a5-581f-46d6-905d-5ee48f59d9f4","system_id":"levelo_inurba_marseille","lat":43.299717,"lon":5.384845,"is_reserved":false,"is_disabled":false,"rental_uris":{"android":"levelo://app?vid=ecb736a5-581f-46d6-905d-5ee48f59d9f4","ios":"levelo://app?vid=ecb736a5-581f-46d6-905d-5ee48f59d9f4"},"vehicle_type_id":"4","last_reported":1722276673,"current_range_meters":31200,"station_id":"ce4bgj92rcd13ifvqbd0","pricing_plan_id":"cebpf4jnsgd1na2vs0mg"},{"bike_id":"40c9723d-24b9-4681-b045-3bd64d946edf","system_id":"levelo_inurba_marseille","lat":43.299717,"lon":5.384845,"is_reserved":false,"is_disabled":false,"rental_uris":{"android":"levelo://app?vid=40c9723d-24b9-4681-b045-3bd64d946edf","ios":"levelo://app?vid=40c9723d-24b9-4681-b045-3bd64d946edf"},"vehicle_type_id":"4","last_reported":1722276673,"current_range_meters":26000,"station_id":"ce4bgj92rcd13ifvqbd0","pricing_plan_id":"cebpf4jnsgd1na2vs0mg"},{"bike_id":"208e0076-d42a-4090-9593-08ea16acd68e","system_id":"levelo_inurba_marseille","lat":43.299717,"lon":5.384845,"is_reserved":false,"is_disabled":false,"rental_uris":{"android":"levelo://app?vid=208e0076-d42a-4090-9593-08ea16acd68e","ios":"levelo://app?vid=208e0076-d42a-4090-9593-08ea16acd68e"},"vehicle_type_id":"4","last_reported":1722276673,"current_range_meters":6000,"station_id":"ce4bgj92rcd13ifvqbd0","pricing_plan_id":"cebpf4jnsgd1na2vs0mg"},{"bike_id":"da58c36c-129f-4d75-8d64-4ee99e2403db","system_id":"levelo_inurba_marseille","lat":43.299724,"lon":5.384848,"is_reserved":false,"is_disabled":false,"rental_uris":{"android":"levelo://app?vid=da58c36c-129f-4d75-8d64-4ee99e2403db","ios":"levelo://app?vid=da58c36c-129f-4d75-8d64-4ee99e2403db"},"vehicle_type_id":"4","last_reported":1722276673,"current_range_meters":6400,"station_id":"ce4bgj92rcd13ifvqbd0","pricing_plan_id":"cebpf4jnsgd1na2vs0mg"},{"bike_id":"65e1db14-fd11-4ec0-a6fb-9f3c5072132a","system_id":"levelo_inurba_marseille","lat":43.29833,"lon":5.38307,"is_reserved":false,"is_disabled":false,"rental_uris":{"android":"levelo://app?vid=65e1db14-fd11-4ec0-a6fb-9f3c5072132a","ios":"levelo://app?vid=65e1db14-fd11-4ec0-a6fb-9f3c5072132a"},"vehicle_type_id":"4","last_reported":1722276673,"current_range_meters":10800,"station_id":"","pricing_plan_id":"cebpf4jnsgd1na2vs0mg"},{"bike_id":"c67df3b4-3eea-4adf-9731-e6db7de38509","system_id":"levelo_inurba_marseille","lat":43.301435,"lon":5.387788,"is_reserved":false,"is_disabled":false,"rental_uris":{"android":"levelo://app?vid=c67df3b4-3eea-4adf-9731-e6db7de38509","ios":"levelo://app?vid=c67df3b4-3eea-4adf-9731-e6db7de38509"},"vehicle_type_id":"4","last_reported":1722276673,"current_range_meters":2000,"station_id":"","pricing_plan_id":"cebpf4jnsgd1na2vs0mg"},{"bike_id":"a2965a1a-f6ee-4ff9-aae9-9dca9111c79f","system_id":"levelo_inurba_marseille","lat":43.301396,"lon":5.387812,"is_reserved":false,"is_disabled":false,"rental_uris":{"android":"levelo://app?vid=a2965a1a-f6ee-4ff9-aae9-9dca9111c79f","ios":"levelo://app?vid=a2965a1a-f6ee-4ff9-aae9-9dca9111c79f"},"vehicle_type_id":"4","last_reported":1722276673,"current_range_meters":2000,"station_id":"ce4bghh2rcd13ifvqb60","pricing_plan_id":"cebpf4jnsgd1na2vs0mg"},{"bike_id":"2a8ef76a-8573-4dc5-ab80-cff87e0222cc","system_id":"levelo_inurba_marseille","lat":43.32367,"lon":5.3888,"is_reserved":false,"is_disabled":false,"rental_uris":{"android":"levelo://app?vid=2a8ef76a-8573-4dc5-ab80-cff87e0222cc","ios":"levelo://app?vid=2a8ef76a-8573-4dc5-ab80-cff87e0222cc"},"vehicle_type_id":"4","last_reported":1722276673,"current_range_meters":0,"station_id":"ce4bhqp2rcd13ifvqhog","pricing_plan_id":"cebpf4jnsgd1na2vs0mg"},{"bike_id":"4c9b2a69-157c-4d96-9abb-2a7226d78bd9","system_id":"levelo_inurba_marseille","lat":43.323183,"lon":5.38926,"is_reserved":false,"is_disabled":false,"rental_uris":{"android":"levelo://app?vid=4c9b2a69-157c-4d96-9abb-2a7226d78bd9","ios":"levelo://app?vid=4c9b2a69-157c-4d96-9abb-2a7226d78bd9"},"vehicle_type_id":"4","last_reported":1722276673,"current_range_meters":12000,"station_id":"","pricing_plan_id":"cebpf4jnsgd1na2vs0mg"},{"bike_id":"b554963a-ca32-4909-b62e-7cd2fab8c85b","system_id":"levelo_inurba_marseille","lat":43.32367,"lon":5.388836,"is_reserved":false,"is_disabled":false,"rental_uris":{"android":"levelo://app?vid=b554963a-ca32-4909-b62e-7cd2fab8c85b","ios":"levelo://app?vid=b554963a-ca32-4909-b62e-7cd2fab8c85b"},"vehicle_type_id":"4","last_reported":1722276673,"current_range_meters":15200,"station_id":"ce4bhqp2rcd13ifvqhog","pricing_plan_id":"cebpf4jnsgd1na2vs0mg"},{"bike_id":"0fd47550-2955-4a51-bcbc-710d8de27633","system_id":"levelo_inurba_marseille","lat":43.32367,"lon":5.388836,"is_reserved":false,"is_disabled":false,"rental_uris":{"android":"levelo://app?vid=0fd47550-2955-4a51-bcbc-710d8de27633","ios":"levelo://app?vid=0fd47550-2955-4a51-bcbc-710d8de27633"},"vehicle_type_id":"4","last_reported":1722276673,"current_range_meters":14800,"station_id":"ce4bhqp2rcd13ifvqhog","pricing_plan_id":"cebpf4jnsgd1na2vs0mg"},{"bike_id":"546cdb1d-232c-4d59-840a-4c155307c851","system_id":"levelo_inurba_marseille","lat":43.29602,"lon":5.381084,"is_reserved":false,"is_disabled":false,"rental_uris":{"android":"levelo://app?vid=546cdb1d-232c-4d59-840a-4c155307c851","ios":"levelo://app?vid=546cdb1d-232c-4d59-840a-4c155307c851"},"vehicle_type_id":"4","last_reported":1722276673,"current_range_meters":29600,"station_id":"ce4bgl12rcd13ifvqbo0","pricing_plan_id":"cebpf4jnsgd1na2vs0mg"},{"bike_id":"37e1bfe2-aeee-4bad-a332-d9b6effc6c38","system_id":"levelo_inurba_marseille","lat":43.292749,"lon":5.368402,"is_reserved":false,"is_disabled":false,"rental_uris":{"android":"levelo://app?vid=37e1bfe2-aeee-4bad-a332-d9b6effc6c38","ios":"levelo://app?vid=37e1bfe2-aeee-4bad-a332-d9b6effc6c38"},"vehicle_type_id":"4","last_reported":1722276673,"current_range_meters":2000,"station_id":"ce4bhbp2rcd13ifvqesg","pricing_plan_id":"cebpf4jnsgd1na2vs0mg"},{"bike_id":"70f7fe4b-5b43-4d2b-acf8-662cacb60a21","system_id":"levelo_inurba_marseille","lat":43.292749,"lon":5.368402,"is_reserved":false,"is_disabled":false,"rental_uris":{"android":"levelo://app?vid=70f7fe4b-5b43-4d2b-acf8-662cacb60a21","ios":"levelo://app?vid=70f7fe4b-5b43-4d2b-acf8-662cacb60a21"},"vehicle_type_id":"4","last_reported":1722276673,"current_range_meters":0,"station_id":"ce4bhbp2rcd13ifvqesg","pricing_plan_id":"cebpf4jnsgd1na2vs0mg"},{"bike_id":"18c3b3cd-f2cf-4f53-becf-f4706e80d4ea","system_id":"levelo_inurba_marseille","lat":43.292749,"lon":5.368402,"is_reserved":false,"is_disabled":false,"rental_uris":{"android":"levelo://app?vid=18c3b3cd-f2cf-4f53-becf-f4706e80d4ea","ios":"levelo://app?vid=18c3b3cd-f2cf-4f53-becf-f4706e80d4ea"},"vehicle_type_id":"4","last_reported":1722276673,"current_range_meters":0,"station_id":"ce4bhbp2rcd13ifvqesg","pricing_plan_id":"cebpf4jnsgd1na2vs0mg"},{"bike_id":"2caa2941-bc52-43d5-b8e6-ab84569b06c9","system_id":"levelo_inurba_marseille","lat":43.29278,"lon":5.36844,"is_reserved":false,"is_disabled":false,"rental_uris":{"android":"levelo://app?vid=2caa2941-bc52-43d5-b8e6-ab84569b06c9","ios":"levelo://app?vid=2caa2941-bc52-43d5-b8e6-ab84569b06c9"},"vehicle_type_id":"4","last_reported":1722276673,"current_range_meters":27600,"station_id":"ce4bhbp2rcd13ifvqesg","pricing_plan_id":"cebpf4jnsgd1na2vs0mg"},{"bike_id":"95a3608c-c280-4485-b3d1-c8410d3ce7e0","system_id":"levelo_inurba_marseille","lat":43.292749,"lon":5.368402,"is_reserved":false,"is_disabled":false,"rental_uris":{"android":"levelo://app?vid=95a3608c-c280-4485-b3d1-c8410d3ce7e0","ios":"levelo://app?vid=95a3608c-c280-4485-b3d1-c8410d3ce7e0"},"vehicle_type_id":"4","last_reported":1722276673,"current_range_meters":0,"station_id":"ce4bhbp2rcd13ifvqesg","pricing_plan_id":"cebpf4jnsgd1na2vs0mg"},{"bike_id":"98f9ffad-acb0-401d-91de-53094c729a86","system_id":"levelo_inurba_marseille","lat":43.292749,"lon":5.368402,"is_reserved":false,"is_disabled":false,"rental_uris":{"android":"levelo://app?vid=98f9ffad-acb0-401d-91de-53094c729a86","ios":"levelo://app?vid=98f9ffad-acb0-401d-91de-53094c729a86"},"vehicle_type_id":"4","last_reported":1722276673,"current_range_meters":23600,"station_id":"ce4bhbp2rcd13ifvqesg","pricing_plan_id":"cebpf4jnsgd1na2vs0mg"},{"bike_id":"1a461864-9abd-4deb-9bf3-23c5fa5c6265","system_id":"levelo_inurba_marseille","lat":43.29302,"lon":5.3718,"is_reserved":false,"is_disabled":false,"rental_uris":{"android":"levelo://app?vid=1a461864-9abd-4deb-9bf3-23c5fa5c6265","ios":"levelo://app?vid=1a461864-9abd-4deb-9bf3-23c5fa5c6265"},"vehicle_type_id":"4","last_reported":1722276673,"current_range_meters":0,"station_id":"ce4bgh92rcd13ifvqb40","pricing_plan_id":"cebpf4jnsgd1na2vs0mg"},{"bike_id":"b8fc08a1-f5da-460f-bf95-5eb237b6c51e","system_id":"levelo_inurba_marseille","lat":43.292749,"lon":5.368402,"is_reserved":false,"is_disabled":false,"rental_uris":{"android":"levelo://app?vid=b8fc08a1-f5da-460f-bf95-5eb237b6c51e","ios":"levelo://app?vid=b8fc08a1-f5da-460f-bf95-5eb237b6c51e"},"vehicle_type_id":"4","last_reported":1722276673,"current_range_meters":0,"station_id":"ce4bhbp2rcd13ifvqesg","pricing_plan_id":"cebpf4jnsgd1na2vs0mg"},{"bike_id":"e596d48e-55aa-4a14-a86b-a3f22bc4dfb2","system_id":"levelo_inurba_marseille","lat":43.292749,"lon":5.368402,"is_reserved":false,"is_disabled":false,"rental_uris":{"android":"levelo://app?vid=e596d48e-55aa-4a14-a86b-a3f22bc4dfb2","ios":"levelo://app?vid=e596d48e-55aa-4a14-a86b-a3f22bc4dfb2"},"vehicle_type_id":"4","last_reported":1722276673,"current_range_meters":2800,"station_id":"ce4bhbp2rcd13ifvqesg","pricing_plan_id":"cebpf4jnsgd1na2vs0mg"},{"bike_id":"89cf20fd-e4b7-424a-958d-48d634af221a","system_id":"levelo_inurba_marseille","lat":43.29269,"lon":5.36848,"is_reserved":false,"is_disabled":false,"rental_uris":{"android":"levelo://app?vid=89cf20fd-e4b7-424a-958d-48d634af221a","ios":"levelo://app?vid=89cf20fd-e4b7-424a-958d-48d634af221a"},"vehicle_type_id":"4","last_reported":1722276673,"current_range_meters":5600,"station_id":"ce4bhbp2rcd13ifvqesg","pricing_plan_id":"cebpf4jnsgd1na2vs0mg"},{"bike_id":"0685706a-2b70-4210-9b7a-931a3a1342a0","system_id":"levelo_inurba_marseille","lat":43.292749,"lon":5.368402,"is_reserved":false,"is_disabled":false,"rental_uris":{"android":"levelo://app?vid=0685706a-2b70-4210-9b7a-931a3a1342a0","ios":"levelo://app?vid=0685706a-2b70-4210-9b7a-931a3a1342a0"},"vehicle_type_id":"4","last_reported":1722276673,"current_range_meters":11600,"station_id":"ce4bhbp2rcd13ifvqesg","pricing_plan_id":"cebpf4jnsgd1na2vs0mg"},{"bike_id":"bf8b90ea-35e0-4aba-afc7-15bda0f80c53","system_id":"levelo_inurba_marseille","lat":43.293009,"lon":5.374584,"is_reserved":false,"is_disabled":false,"rental_uris":{"android":"levelo://app?vid=bf8b90ea-35e0-4aba-afc7-15bda0f80c53","ios":"levelo://app?vid=bf8b90ea-35e0-4aba-afc7-15bda0f80c53"},"vehicle_type_id":"4","last_reported":1722276673,"current_range_meters":1600,"station_id":"ce4bgi12rcd13ifvqb70","pricing_plan_id":"cebpf4jnsgd1na2vs0mg"},{"bike_id":"7b37aee9-3552-4421-9dec-165b2070f303","system_id":"levelo_inurba_marseille","lat":43.29305,"lon":5.37456,"is_reserved":false,"is_disabled":false,"rental_uris":{"android":"levelo://app?vid=7b37aee9-3552-4421-9dec-165b2070f303","ios":"levelo://app?vid=7b37aee9-3552-4421-9dec-165b2070f303"},"vehicle_type_id":"4","last_reported":1722276673,"current_range_meters":0,"station_id":"ce4bgi12rcd13ifvqb70","pricing_plan_id":"cebpf4jnsgd1na2vs0mg"},{"bike_id":"5db3c56d-c91c-4a00-9292-9c7f9480fe38","system_id":"levelo_inurba_marseille","lat":43.305994,"lon":5.393687,"is_reserved":false,"is_disabled":false,"rental_uris":{"android":"levelo://app?vid=5db3c56d-c91c-4a00-9292-9c7f9480fe38","ios":"levelo://app?vid=5db3c56d-c91c-4a00-9292-9c7f9480fe38"},"vehicle_type_id":"4","last_reported":1722276673,"current_range_meters":20800,"station_id":"ce4bh0p2rcd13ifvqd80","pricing_plan_id":"cebpf4jnsgd1na2vs0mg"},{"bike_id":"e06ddf27-7906-482a-8d4a-39144d57a266","system_id":"levelo_inurba_marseille","lat":43.293,"lon":5.37445,"is_reserved":false,"is_disabled":false,"rental_uris":{"android":"levelo://app?vid=e06ddf27-7906-482a-8d4a-39144d57a266","ios":"levelo://app?vid=e06ddf27-7906-482a-8d4a-39144d57a266"},"vehicle_type_id":"4","last_reported":1722276673,"current_range_meters":0,"station_id":"ce4bgi12rcd13ifvqb70","pricing_plan_id":"cebpf4jnsgd1na2vs0mg"},{"bike_id":"241504c0-45ec-4ec3-88a7-182c8ad39280","system_id":"levelo_inurba_marseille","lat":43.293009,"lon":5.374584,"is_reserved":false,"is_disabled":false,"rental_uris":{"android":"levelo://app?vid=241504c0-45ec-4ec3-88a7-182c8ad39280","ios":"levelo://app?vid=241504c0-45ec-4ec3-88a7-182c8ad39280"},"vehicle_type_id":"4","last_reported":1722276673,"current_range_meters":20000,"station_id":"ce4bgi12rcd13ifvqb70","pricing_plan_id":"cebpf4jnsgd1na2vs0mg"},{"bike_id":"7cc85acf-33d8-4f59-bdd5-9c8f34f89325","system_id":"levelo_inurba_marseille","lat":43.29231,"lon":5.36479,"is_reserved":false,"is_disabled":false,"rental_uris":{"android":"levelo://app?vid=7cc85acf-33d8-4f59-bdd5-9c8f34f89325","ios":"levelo://app?vid=7cc85acf-33d8-4f59-bdd5-9c8f34f89325"},"vehicle_type_id":"4","last_reported":1722276673,"current_range_meters":28800,"station_id":"","pricing_plan_id":"cebpf4jnsgd1na2vs0mg"},{"bike_id":"d47fff60-8bd0-41a1-8e58-4fb0e60ba517","system_id":"levelo_inurba_marseille","lat":43.293009,"lon":5.374584,"is_reserved":false,"is_disabled":false,"rental_uris":{"android":"levelo://app?vid=d47fff60-8bd0-41a1-8e58-4fb0e60ba517","ios":"levelo://app?vid=d47fff60-8bd0-41a1-8e58-4fb0e60ba517"},"vehicle_type_id":"4","last_reported":1722276673,"current_range_meters":15600,"station_id":"ce4bgi12rcd13ifvqb70","pricing_plan_id":"cebpf4jnsgd1na2vs0mg"},{"bike_id":"c948aa88-a5aa-41b4-bb50-5d76ba96879a","system_id":"levelo_inurba_marseille","lat":43.293,"lon":5.37456,"is_reserved":false,"is_disabled":false,"rental_uris":{"android":"levelo://app?vid=c948aa88-a5aa-41b4-bb50-5d76ba96879a","ios":"levelo://app?vid=c948aa88-a5aa-41b4-bb50-5d76ba96879a"},"vehicle_type_id":"4","last_reported":1722276673,"current_range_meters":0,"station_id":"ce4bgi12rcd13ifvqb70","pricing_plan_id":"cebpf4jnsgd1na2vs0mg"},{"bike_id":"ea9d8d38-a952-4668-96e6-652cf00d57af","system_id":"levelo_inurba_marseille","lat":43.293009,"lon":5.374584,"is_reserved":false,"is_disabled":false,"rental_uris":{"android":"levelo://app?vid=ea9d8d38-a952-4668-96e6-652cf00d57af","ios":"levelo://app?vid=ea9d8d38-a952-4668-96e6-652cf00d57af"},"vehicle_type_id":"4","last_reported":1722276673,"current_range_meters":6000,"station_id":"ce4bgi12rcd13ifvqb70","pricing_plan_id":"cebpf4jnsgd1na2vs0mg"},{"bike_id":"178ff152-9e9e-45f5-8f3b-d332913b29b8","system_id":"levelo_inurba_marseille","lat":43.293009,"lon":5.374584,"is_reserved":false,"is_disabled":false,"rental_uris":{"android":"levelo://app?vid=178ff152-9e9e-45f5-8f3b-d332913b29b8","ios":"levelo://app?vid=178ff152-9e9e-45f5-8f3b-d332913b29b8"},"vehicle_type_id":"4","last_reported":1722276673,"current_range_meters":0,"station_id":"ce4bgi12rcd13ifvqb70","pricing_plan_id":"cebpf4jnsgd1na2vs0mg"},{"bike_id":"39b3a816-890a-4df3-a2d1-8294d8d165fb","system_id":"levelo_inurba_marseille","lat":43.29296,"lon":5.37455,"is_reserved":false,"is_disabled":false,"rental_uris":{"android":"levelo://app?vid=39b3a816-890a-4df3-a2d1-8294d8d165fb","ios":"levelo://app?vid=39b3a816-890a-4df3-a2d1-8294d8d165fb"},"vehicle_type_id":"4","last_reported":1722276673,"current_range_meters":5200,"station_id":"ce4bgi12rcd13ifvqb70","pricing_plan_id":"cebpf4jnsgd1na2vs0mg"},{"bike_id":"f9cef63d-6712-4c42-b6d7-aff48589bb58","system_id":"levelo_inurba_marseille","lat":43.293009,"lon":5.374584,"is_reserved":false,"is_disabled":false,"rental_uris":{"android":"levelo://app?vid=f9cef63d-6712-4c42-b6d7-aff48589bb58","ios":"levelo://app?vid=f9cef63d-6712-4c42-b6d7-aff48589bb58"},"vehicle_type_id":"4","last_reported":1722276673,"current_range_meters":3600,"station_id":"ce4bgi12rcd13ifvqb70","pricing_plan_id":"cebpf4jnsgd1na2vs0mg"},{"bike_id":"0fa0c0df-65c9-4502-9805-9706d772859c","system_id":"levelo_inurba_marseille","lat":43.293009,"lon":5.374584,"is_reserved":false,"is_disabled":false,"rental_uris":{"android":"levelo://app?vid=0fa0c0df-65c9-4502-9805-9706d772859c","ios":"levelo://app?vid=0fa0c0df-65c9-4502-9805-9706d772859c"},"vehicle_type_id":"4","last_reported":1722276673,"current_range_meters":1600,"station_id":"ce4bgi12rcd13ifvqb70","pricing_plan_id":"cebpf4jnsgd1na2vs0mg"},{"bike_id":"76f1745b-3b1c-4b21-9769-c1e060eaa7cd","system_id":"levelo_inurba_marseille","lat":43.302992,"lon":5.392136,"is_reserved":false,"is_disabled":false,"rental_uris":{"android":"levelo://app?vid=76f1745b-3b1c-4b21-9769-c1e060eaa7cd","ios":"levelo://app?vid=76f1745b-3b1c-4b21-9769-c1e060eaa7cd"},"vehicle_type_id":"4","last_reported":1722276673,"current_range_meters":1600,"station_id":"ce4bgkh2rcd13ifvqbk0","pricing_plan_id":"cebpf4jnsgd1na2vs0mg"},{"bike_id":"043e25a5-d820-4041-bb98-36fd2832a4fc","system_id":"levelo_inurba_marseille","lat":43.302992,"lon":5.392136,"is_reserved":false,"is_disabled":false,"rental_uris":{"android":"levelo://app?vid=043e25a5-d820-4041-bb98-36fd2832a4fc","ios":"levelo://app?vid=043e25a5-d820-4041-bb98-36fd2832a4fc"},"vehicle_type_id":"4","last_reported":1722276673,"current_range_meters":2400,"station_id":"ce4bgkh2rcd13ifvqbk0","pricing_plan_id":"cebpf4jnsgd1na2vs0mg"},{"bike_id":"09b2c24a-ba44-433f-8c89-da724d5b01dd","system_id":"levelo_inurba_marseille","lat":43.32623,"lon":5.38868,"is_reserved":false,"is_disabled":false,"rental_uris":{"android":"levelo://app?vid=09b2c24a-ba44-433f-8c89-da724d5b01dd","ios":"levelo://app?vid=09b2c24a-ba44-433f-8c89-da724d5b01dd"},"vehicle_type_id":"4","last_reported":1722276673,"current_range_meters":9200,"station_id":"","pricing_plan_id":"cebpf4jnsgd1na2vs0mg"},{"bike_id":"1a4abd4e-5da0-417f-834c-679f9cd1352b","system_id":"levelo_inurba_marseille","lat":43.29367,"lon":5.37835,"is_reserved":false,"is_disabled":false,"rental_uris":{"android":"levelo://app?vid=1a4abd4e-5da0-417f-834c-679f9cd1352b","ios":"levelo://app?vid=1a4abd4e-5da0-417f-834c-679f9cd1352b"},"vehicle_type_id":"4","last_reported":1722276673,"current_range_meters":0,"station_id":"ce4bgjh2rcd13ifvqbf0","pricing_plan_id":"cebpf4jnsgd1na2vs0mg"},{"bike_id":"46a93918-ad40-422e-835c-3eb035e1cc67","system_id":"levelo_inurba_marseille","lat":43.292311,"lon":5.360731,"is_reserved":false,"is_disabled":false,"rental_uris":{"android":"levelo://app?vid=46a93918-ad40-422e-835c-3eb035e1cc67","ios":"levelo://app?vid=46a93918-ad40-422e-835c-3eb035e1cc67"},"vehicle_type_id":"4","last_reported":1722276673,"current_range_meters":16000,"station_id":"ce4bhbh2rcd13ifvqeqg","pricing_plan_id":"cebpf4jnsgd1na2vs0mg"},{"bike_id":"34c83dc7-c397-4092-a0fe-9e515cc103ab","system_id":"levelo_inurba_marseille","lat":43.292311,"lon":5.360731,"is_reserved":false,"is_disabled":false,"rental_uris":{"android":"levelo://app?vid=34c83dc7-c397-4092-a0fe-9e515cc103ab","ios":"levelo://app?vid=34c83dc7-c397-4092-a0fe-9e515cc103ab"},"vehicle_type_id":"4","last_reported":1722276673,"current_range_meters":400,"station_id":"ce4bhbh2rcd13ifvqeqg","pricing_plan_id":"cebpf4jnsgd1na2vs0mg"},{"bike_id":"14d8d4f8-8ed1-45b7-ae29-67121a125c23","system_id":"levelo_inurba_marseille","lat":43.29258,"lon":5.37614,"is_reserved":false,"is_disabled":false,"rental_uris":{"android":"levelo://app?vid=14d8d4f8-8ed1-45b7-ae29-67121a125c23","ios":"levelo://app?vid=14d8d4f8-8ed1-45b7-ae29-67121a125c23"},"vehicle_type_id":"4","last_reported":1722276673,"current_range_meters":15200,"station_id":"ce4bgi12rcd13ifvqb80","pricing_plan_id":"cebpf4jnsgd1na2vs0mg"},{"bike_id":"63e6861c-e58f-42be-bcf9-51e7b54082cf","system_id":"levelo_inurba_marseille","lat":43.292537,"lon":5.37613,"is_reserved":false,"is_disabled":false,"rental_uris":{"android":"levelo://app?vid=63e6861c-e58f-42be-bcf9-51e7b54082cf","ios":"levelo://app?vid=63e6861c-e58f-42be-bcf9-51e7b54082cf"},"vehicle_type_id":"4","last_reported":1722276673,"current_range_meters":1200,"station_id":"ce4bgi12rcd13ifvqb80","pricing_plan_id":"cebpf4jnsgd1na2vs0mg"},{"bike_id":"b9125b8e-d037-40c1-8b7e-2bc69652ee5d","system_id":"levelo_inurba_marseille","lat":43.29164,"lon":5.37154,"is_reserved":false,"is_disabled":false,"rental_uris":{"android":"levelo://app?vid=b9125b8e-d037-40c1-8b7e-2bc69652ee5d","ios":"levelo://app?vid=b9125b8e-d037-40c1-8b7e-2bc69652ee5d"},"vehicle_type_id":"4","last_reported":1722276673,"current_range_meters":1200,"station_id":"ce4bha92rcd13ifvqeh0","pricing_plan_id":"cebpf4jnsgd1na2vs0mg"},{"bike_id":"f4487f6e-9ef2-4193-9f43-5ce0ce62f4ee","system_id":"levelo_inurba_marseille","lat":43.298764,"lon":5.388973,"is_reserved":false,"is_disabled":false,"rental_uris":{"android":"levelo://app?vid=f4487f6e-9ef2-4193-9f43-5ce0ce62f4ee","ios":"levelo://app?vid=f4487f6e-9ef2-4193-9f43-5ce0ce62f4ee"},"vehicle_type_id":"4","last_reported":1722276673,"current_range_meters":17600,"station_id":"ce4bh392rcd13ifvqdl0","pricing_plan_id":"cebpf4jnsgd1na2vs0mg"},{"bike_id":"f5596b63-efc3-49cd-89db-21c74385a20a","system_id":"levelo_inurba_marseille","lat":43.309047,"lon":5.396551,"is_reserved":false,"is_disabled":false,"rental_uris":{"android":"levelo://app?vid=f5596b63-efc3-49cd-89db-21c74385a20a","ios":"levelo://app?vid=f5596b63-efc3-49cd-89db-21c74385a20a"},"vehicle_type_id":"4","last_reported":1722276673,"current_range_meters":800,"station_id":"ce4bh012rcd13ifvqcv0","pricing_plan_id":"cebpf4jnsgd1na2vs0mg"},{"bike_id":"639a3cff-f181-4bb5-9208-df30bfa8f561","system_id":"levelo_inurba_marseille","lat":43.31333,"lon":5.39688,"is_reserved":false,"is_disabled":false,"rental_uris":{"android":"levelo://app?vid=639a3cff-f181-4bb5-9208-df30bfa8f561","ios":"levelo://app?vid=639a3cff-f181-4bb5-9208-df30bfa8f561"},"vehicle_type_id":"4","last_reported":1722276673,"current_range_meters":15200,"station_id":"ce4bgvp2rcd13ifvqcu0","pricing_plan_id":"cebpf4jnsgd1na2vs0mg"},{"bike_id":"8efc4cd6-c16c-4637-adb8-5310934a3045","system_id":"levelo_inurba_marseille","lat":43.309047,"lon":5.396551,"is_reserved":false,"is_disabled":false,"rental_uris":{"android":"levelo://app?vid=8efc4cd6-c16c-4637-adb8-5310934a3045","ios":"levelo://app?vid=8efc4cd6-c16c-4637-adb8-5310934a3045"},"vehicle_type_id":"4","last_reported":1722276673,"current_range_meters":0,"station_id":"ce4bh012rcd13ifvqcv0","pricing_plan_id":"cebpf4jnsgd1na2vs0mg"},{"bike_id":"8f8bd1b0-054c-452e-9aaf-d0ca41c07b4c","system_id":"levelo_inurba_marseille","lat":43.313291,"lon":5.396838,"is_reserved":false,"is_disabled":false,"rental_uris":{"android":"levelo://app?vid=8f8bd1b0-054c-452e-9aaf-d0ca41c07b4c","ios":"levelo://app?vid=8f8bd1b0-054c-452e-9aaf-d0ca41c07b4c"},"vehicle_type_id":"4","last_reported":1722276673,"current_range_meters":800,"station_id":"ce4bgvp2rcd13ifvqcu0","pricing_plan_id":"cebpf4jnsgd1na2vs0mg"},{"bike_id":"7342f463-36fa-4717-a102-ee23dc89a07d","system_id":"levelo_inurba_marseille","lat":43.31327,"lon":5.39691,"is_reserved":false,"is_disabled":false,"rental_uris":{"android":"levelo://app?vid=7342f463-36fa-4717-a102-ee23dc89a07d","ios":"levelo://app?vid=7342f463-36fa-4717-a102-ee23dc89a07d"},"vehicle_type_id":"4","last_reported":1722276673,"current_range_meters":8800,"station_id":"ce4bgvp2rcd13ifvqcu0","pricing_plan_id":"cebpf4jnsgd1na2vs0mg"},{"bike_id":"4468f8b8-3f7f-4b40-8d7a-6ced58ca84ec","system_id":"levelo_inurba_marseille","lat":43.29529,"lon":5.385581,"is_reserved":false,"is_disabled":false,"rental_uris":{"android":"levelo://app?vid=4468f8b8-3f7f-4b40-8d7a-6ced58ca84ec","ios":"levelo://app?vid=4468f8b8-3f7f-4b40-8d7a-6ced58ca84ec"},"vehicle_type_id":"4","last_reported":1722276673,"current_range_meters":11200,"station_id":"ce4bgih2rcd13ifvqba0","pricing_plan_id":"cebpf4jnsgd1na2vs0mg"},{"bike_id":"d11d62ce-a057-41b1-8b6f-32fbb0dcbb1c","system_id":"levelo_inurba_marseille","lat":43.309038,"lon":5.396546,"is_reserved":false,"is_disabled":false,"rental_uris":{"android":"levelo://app?vid=d11d62ce-a057-41b1-8b6f-32fbb0dcbb1c","ios":"levelo://app?vid=d11d62ce-a057-41b1-8b6f-32fbb0dcbb1c"},"vehicle_type_id":"4","last_reported":1722276673,"current_range_meters":1600,"station_id":"ce4bh012rcd13ifvqcv0","pricing_plan_id":"cebpf4jnsgd1na2vs0mg"},{"bike_id":"7ea10b4c-56d8-43f4-ba0e-514e7e4dea71","system_id":"levelo_inurba_marseille","lat":43.31331,"lon":5.39695,"is_reserved":false,"is_disabled":false,"rental_uris":{"android":"levelo://app?vid=7ea10b4c-56d8-43f4-ba0e-514e7e4dea71","ios":"levelo://app?vid=7ea10b4c-56d8-43f4-ba0e-514e7e4dea71"},"vehicle_type_id":"4","last_reported":1722276673,"current_range_meters":0,"station_id":"ce4bgvp2rcd13ifvqcu0","pricing_plan_id":"cebpf4jnsgd1na2vs0mg"},{"bike_id":"e4753366-2ce8-4e25-b5c4-1564e1d53cb3","system_id":"levelo_inurba_marseille","lat":43.29527,"lon":5.38546,"is_reserved":false,"is_disabled":false,"rental_uris":{"android":"levelo://app?vid=e4753366-2ce8-4e25-b5c4-1564e1d53cb3","ios":"levelo://app?vid=e4753366-2ce8-4e25-b5c4-1564e1d53cb3"},"vehicle_type_id":"4","last_reported":1722276673,"current_range_meters":12400,"station_id":"ce4bgih2rcd13ifvqba0","pricing_plan_id":"cebpf4jnsgd1na2vs0mg"},{"bike_id":"44cc7279-968c-4fc6-8539-1470905b2760","system_id":"levelo_inurba_marseille","lat":43.290779,"lon":5.371482,"is_reserved":false,"is_disabled":false,"rental_uris":{"android":"levelo://app?vid=44cc7279-968c-4fc6-8539-1470905b2760","ios":"levelo://app?vid=44cc7279-968c-4fc6-8539-1470905b2760"},"vehicle_type_id":"4","last_reported":1722276673,"current_range_meters":5600,"station_id":"ce4bh5p2rcd13ifvqe4g","pricing_plan_id":"cebpf4jnsgd1na2vs0mg"},{"bike_id":"8e50b2d7-41a4-4390-abb1-508a8d350193","system_id":"levelo_inurba_marseille","lat":43.29069,"lon":5.371657,"is_reserved":false,"is_disabled":false,"rental_uris":{"android":"levelo://app?vid=8e50b2d7-41a4-4390-abb1-508a8d350193","ios":"levelo://app?vid=8e50b2d7-41a4-4390-abb1-508a8d350193"},"vehicle_type_id":"4","last_reported":1722276673,"current_range_meters":7200,"station_id":"ce4bh5p2rcd13ifvqe4g","pricing_plan_id":"cebpf4jnsgd1na2vs0mg"},{"bike_id":"e6c27a5c-4337-4744-aa9e-934e0ed6ce2c","system_id":"levelo_inurba_marseille","lat":43.290779,"lon":5.371482,"is_reserved":false,"is_disabled":false,"rental_uris":{"android":"levelo://app?vid=e6c27a5c-4337-4744-aa9e-934e0ed6ce2c","ios":"levelo://app?vid=e6c27a5c-4337-4744-aa9e-934e0ed6ce2c"},"vehicle_type_id":"4","last_reported":1722276673,"current_range_meters":17200,"station_id":"ce4bh5p2rcd13ifvqe4g","pricing_plan_id":"cebpf4jnsgd1na2vs0mg"},{"bike_id":"0b0678fa-e357-4b24-bce6-d43b6b8a2b1c","system_id":"levelo_inurba_marseille","lat":43.290779,"lon":5.371482,"is_reserved":false,"is_disabled":false,"rental_uris":{"android":"levelo://app?vid=0b0678fa-e357-4b24-bce6-d43b6b8a2b1c","ios":"levelo://app?vid=0b0678fa-e357-4b24-bce6-d43b6b8a2b1c"},"vehicle_type_id":"4","last_reported":1722276673,"current_range_meters":15200,"station_id":"ce4bh5p2rcd13ifvqe4g","pricing_plan_id":"cebpf4jnsgd1na2vs0mg"},{"bike_id":"c165118f-9d0d-4c94-a35c-8d1c3a6242c6","system_id":"levelo_inurba_marseille","lat":43.290624,"lon":5.359245,"is_reserved":false,"is_disabled":false,"rental_uris":{"android":"levelo://app?vid=c165118f-9d0d-4c94-a35c-8d1c3a6242c6","ios":"levelo://app?vid=c165118f-9d0d-4c94-a35c-8d1c3a6242c6"},"vehicle_type_id":"4","last_reported":1722276673,"current_range_meters":800,"station_id":"ce4bha92rcd13ifvqeg0","pricing_plan_id":"cebpf4jnsgd1na2vs0mg"},{"bike_id":"5785428e-2a09-4fd4-8aa2-2715b471fc85","system_id":"levelo_inurba_marseille","lat":43.29119,"lon":5.35582,"is_reserved":false,"is_disabled":false,"rental_uris":{"android":"levelo://app?vid=5785428e-2a09-4fd4-8aa2-2715b471fc85","ios":"levelo://app?vid=5785428e-2a09-4fd4-8aa2-2715b471fc85"},"vehicle_type_id":"4","last_reported":1722276673,"current_range_meters":13600,"station_id":"","pricing_plan_id":"cebpf4jnsgd1na2vs0mg"},{"bike_id":"dfba3672-bf11-4e3e-baab-5791d746d688","system_id":"levelo_inurba_marseille","lat":43.294153,"lon":5.386305,"is_reserved":false,"is_disabled":false,"rental_uris":{"android":"levelo://app?vid=dfba3672-bf11-4e3e-baab-5791d746d688","ios":"levelo://app?vid=dfba3672-bf11-4e3e-baab-5791d746d688"},"vehicle_type_id":"4","last_reported":1722276673,"current_range_meters":400,"station_id":"ce4bh2h2rcd13ifvqdh0","pricing_plan_id":"cebpf4jnsgd1na2vs0mg"},{"bike_id":"b7b40cfc-71e5-4675-b85f-ad1877e50955","system_id":"levelo_inurba_marseille","lat":43.29414,"lon":5.38624,"is_reserved":false,"is_disabled":false,"rental_uris":{"android":"levelo://app?vid=b7b40cfc-71e5-4675-b85f-ad1877e50955","ios":"levelo://app?vid=b7b40cfc-71e5-4675-b85f-ad1877e50955"},"vehicle_type_id":"4","last_reported":1722276673,"current_range_meters":12000,"station_id":"ce4bh2h2rcd13ifvqdh0","pricing_plan_id":"cebpf4jnsgd1na2vs0mg"},{"bike_id":"29cafbaf-1acd-4ec2-bf72-de82d388a67d","system_id":"levelo_inurba_marseille","lat":43.29026,"lon":5.37553,"is_reserved":false,"is_disabled":false,"rental_uris":{"android":"levelo://app?vid=29cafbaf-1acd-4ec2-bf72-de82d388a67d","ios":"levelo://app?vid=29cafbaf-1acd-4ec2-bf72-de82d388a67d"},"vehicle_type_id":"4","last_reported":1722276673,"current_range_meters":0,"station_id":"ce4bh692rcd13ifvqe90","pricing_plan_id":"cebpf4jnsgd1na2vs0mg"},{"bike_id":"5759ec33-bf79-4712-a948-e81078e4458f","system_id":"levelo_inurba_marseille","lat":43.289184,"lon":5.366408,"is_reserved":false,"is_disabled":false,"rental_uris":{"android":"levelo://app?vid=5759ec33-bf79-4712-a948-e81078e4458f","ios":"levelo://app?vid=5759ec33-bf79-4712-a948-e81078e4458f"},"vehicle_type_id":"4","last_reported":1722276673,"current_range_meters":26400,"station_id":"ce4bhap2rcd13ifvqek0","pricing_plan_id":"cebpf4jnsgd1na2vs0mg"},{"bike_id":"96b6c0d8-b8d6-440e-9b1b-c6c6a1c0876a","system_id":"levelo_inurba_marseille","lat":43.289468,"lon":5.363719,"is_reserved":false,"is_disabled":false,"rental_uris":{"android":"levelo://app?vid=96b6c0d8-b8d6-440e-9b1b-c6c6a1c0876a","ios":"levelo://app?vid=96b6c0d8-b8d6-440e-9b1b-c6c6a1c0876a"},"vehicle_type_id":"4","last_reported":1722276673,"current_range_meters":24400,"station_id":"ce4bhc92rcd13ifvqetg","pricing_plan_id":"cebpf4jnsgd1na2vs0mg"},{"bike_id":"cf5835e5-5ea4-4d6e-a7d8-f31c5ce241ea","system_id":"levelo_inurba_marseille","lat":43.289423,"lon":5.363993,"is_reserved":false,"is_disabled":false,"rental_uris":{"android":"levelo://app?vid=cf5835e5-5ea4-4d6e-a7d8-f31c5ce241ea","ios":"levelo://app?vid=cf5835e5-5ea4-4d6e-a7d8-f31c5ce241ea"},"vehicle_type_id":"4","last_reported":1722276673,"current_range_meters":1600,"station_id":"ce4bhc92rcd13ifvqetg","pricing_plan_id":"cebpf4jnsgd1na2vs0mg"},{"bike_id":"3e805300-dc17-412a-b147-1953cbd25b27","system_id":"levelo_inurba_marseille","lat":43.29269,"lon":5.38432,"is_reserved":false,"is_disabled":false,"rental_uris":{"android":"levelo://app?vid=3e805300-dc17-412a-b147-1953cbd25b27","ios":"levelo://app?vid=3e805300-dc17-412a-b147-1953cbd25b27"},"vehicle_type_id":"4","last_reported":1722276673,"current_range_meters":0,"station_id":"ce4bh692rcd13ifvqea0","pricing_plan_id":"cebpf4jnsgd1na2vs0mg"},{"bike_id":"6571d872-d74c-4485-b7ed-edc71ae9265f","system_id":"levelo_inurba_marseille","lat":43.292642,"lon":5.384254,"is_reserved":false,"is_disabled":false,"rental_uris":{"android":"levelo://app?vid=6571d872-d74c-4485-b7ed-edc71ae9265f","ios":"levelo://app?vid=6571d872-d74c-4485-b7ed-edc71ae9265f"},"vehicle_type_id":"4","last_reported":1722276673,"current_range_meters":0,"station_id":"ce4bh692rcd13ifvqea0","pricing_plan_id":"cebpf4jnsgd1na2vs0mg"},{"bike_id":"edf1bd04-025a-4bc8-bca3-9660d5971460","system_id":"levelo_inurba_marseille","lat":43.292663,"lon":5.384437,"is_reserved":false,"is_disabled":false,"rental_uris":{"android":"levelo://app?vid=edf1bd04-025a-4bc8-bca3-9660d5971460","ios":"levelo://app?vid=edf1bd04-025a-4bc8-bca3-9660d5971460"},"vehicle_type_id":"4","last_reported":1722276673,"current_range_meters":0,"station_id":"ce4bh692rcd13ifvqea0","pricing_plan_id":"cebpf4jnsgd1na2vs0mg"},{"bike_id":"dc797a34-f2f3-40be-b65c-f367c3d41d77","system_id":"levelo_inurba_marseille","lat":43.290104,"lon":5.356111,"is_reserved":false,"is_disabled":false,"rental_uris":{"android":"levelo://app?vid=dc797a34-f2f3-40be-b65c-f367c3d41d77","ios":"levelo://app?vid=dc797a34-f2f3-40be-b65c-f367c3d41d77"},"vehicle_type_id":"4","last_reported":1722276673,"current_range_meters":0,"station_id":"ce4bhb92rcd13ifvqen0","pricing_plan_id":"cebpf4jnsgd1na2vs0mg"},{"bike_id":"0b8c562a-5138-4fc5-8ac1-343a3d097402","system_id":"levelo_inurba_marseille","lat":43.290104,"lon":5.356111,"is_reserved":false,"is_disabled":false,"rental_uris":{"android":"levelo://app?vid=0b8c562a-5138-4fc5-8ac1-343a3d097402","ios":"levelo://app?vid=0b8c562a-5138-4fc5-8ac1-343a3d097402"},"vehicle_type_id":"4","last_reported":1722276673,"current_range_meters":400,"station_id":"ce4bhb92rcd13ifvqen0","pricing_plan_id":"cebpf4jnsgd1na2vs0mg"},{"bike_id":"8b096977-c06a-427a-a98e-c2ad766a2c28","system_id":"levelo_inurba_marseille","lat":43.292642,"lon":5.384254,"is_reserved":false,"is_disabled":false,"rental_uris":{"android":"levelo://app?vid=8b096977-c06a-427a-a98e-c2ad766a2c28","ios":"levelo://app?vid=8b096977-c06a-427a-a98e-c2ad766a2c28"},"vehicle_type_id":"4","last_reported":1722276673,"current_range_meters":1600,"station_id":"ce4bh692rcd13ifvqea0","pricing_plan_id":"cebpf4jnsgd1na2vs0mg"},{"bike_id":"347702a2-c9d3-4610-9dd5-5e009f9e4ab5","system_id":"levelo_inurba_marseille","lat":43.28999,"lon":5.3561,"is_reserved":false,"is_disabled":false,"rental_uris":{"android":"levelo://app?vid=347702a2-c9d3-4610-9dd5-5e009f9e4ab5","ios":"levelo://app?vid=347702a2-c9d3-4610-9dd5-5e009f9e4ab5"},"vehicle_type_id":"4","last_reported":1722276673,"current_range_meters":3600,"station_id":"ce4bhb92rcd13ifvqen0","pricing_plan_id":"cebpf4jnsgd1na2vs0mg"},{"bike_id":"35fb0ce4-469b-4dec-9f14-1d581d7d8c38","system_id":"levelo_inurba_marseille","lat":43.295169,"lon":5.390426,"is_reserved":false,"is_disabled":false,"rental_uris":{"android":"levelo://app?vid=35fb0ce4-469b-4dec-9f14-1d581d7d8c38","ios":"levelo://app?vid=35fb0ce4-469b-4dec-9f14-1d581d7d8c38"},"vehicle_type_id":"4","last_reported":1722276673,"current_range_meters":1600,"station_id":"ce4bh3p2rcd13ifvqdp0","pricing_plan_id":"cebpf4jnsgd1na2vs0mg"},{"bike_id":"5856bc44-984c-4da9-841d-e0394c94cd11","system_id":"levelo_inurba_marseille","lat":43.295169,"lon":5.390426,"is_reserved":false,"is_disabled":false,"rental_uris":{"android":"levelo://app?vid=5856bc44-984c-4da9-841d-e0394c94cd11","ios":"levelo://app?vid=5856bc44-984c-4da9-841d-e0394c94cd11"},"vehicle_type_id":"4","last_reported":1722276673,"current_range_meters":22000,"station_id":"ce4bh3p2rcd13ifvqdp0","pricing_plan_id":"cebpf4jnsgd1na2vs0mg"},{"bike_id":"d0a06843-6c3e-422a-97e5-58d5a14f1ac1","system_id":"levelo_inurba_marseille","lat":43.28968,"lon":5.37821,"is_reserved":false,"is_disabled":false,"rental_uris":{"android":"levelo://app?vid=d0a06843-6c3e-422a-97e5-58d5a14f1ac1","ios":"levelo://app?vid=d0a06843-6c3e-422a-97e5-58d5a14f1ac1"},"vehicle_type_id":"4","last_reported":1722276673,"current_range_meters":25200,"station_id":"ce4bh9p2rcd13ifvqed0","pricing_plan_id":"cebpf4jnsgd1na2vs0mg"},{"bike_id":"f26d7eca-eea6-4df8-89d2-a3e781ff1a9c","system_id":"levelo_inurba_marseille","lat":43.289741,"lon":5.378306,"is_reserved":false,"is_disabled":false,"rental_uris":{"android":"levelo://app?vid=f26d7eca-eea6-4df8-89d2-a3e781ff1a9c","ios":"levelo://app?vid=f26d7eca-eea6-4df8-89d2-a3e781ff1a9c"},"vehicle_type_id":"4","last_reported":1722276673,"current_range_meters":400,"station_id":"ce4bh9p2rcd13ifvqed0","pricing_plan_id":"cebpf4jnsgd1na2vs0mg"},{"bike_id":"e5860151-2141-4cb6-8843-0aada3455a4c","system_id":"levelo_inurba_marseille","lat":43.2901,"lon":5.381269,"is_reserved":false,"is_disabled":false,"rental_uris":{"android":"levelo://app?vid=e5860151-2141-4cb6-8843-0aada3455a4c","ios":"levelo://app?vid=e5860151-2141-4cb6-8843-0aada3455a4c"},"vehicle_type_id":"4","last_reported":1722276673,"current_range_meters":30000,"station_id":"ce4bh4p2rcd13ifvqe1g","pricing_plan_id":"cebpf4jnsgd1na2vs0mg"},{"bike_id":"f4cdf6f8-59cc-4926-bbd3-bf830cd7e7b6","system_id":"levelo_inurba_marseille","lat":43.29019,"lon":5.38125,"is_reserved":false,"is_disabled":false,"rental_uris":{"android":"levelo://app?vid=f4cdf6f8-59cc-4926-bbd3-bf830cd7e7b6","ios":"levelo://app?vid=f4cdf6f8-59cc-4926-bbd3-bf830cd7e7b6"},"vehicle_type_id":"4","last_reported":1722276673,"current_range_meters":26000,"station_id":"ce4bh4p2rcd13ifvqe1g","pricing_plan_id":"cebpf4jnsgd1na2vs0mg"},{"bike_id":"6a1dac3a-a5f4-4836-89c1-f638b486aab4","system_id":"levelo_inurba_marseille","lat":43.28856,"lon":5.358371,"is_reserved":false,"is_disabled":false,"rental_uris":{"android":"levelo://app?vid=6a1dac3a-a5f4-4836-89c1-f638b486aab4","ios":"levelo://app?vid=6a1dac3a-a5f4-4836-89c1-f638b486aab4"},"vehicle_type_id":"4","last_reported":1722276673,"current_range_meters":11200,"station_id":"ce4bhb12rcd13ifvqem0","pricing_plan_id":"cebpf4jnsgd1na2vs0mg"},{"bike_id":"099bd739-fd60-41a1-9743-4d1bdbfaaf94","system_id":"levelo_inurba_marseille","lat":43.29015,"lon":5.38129,"is_reserved":false,"is_disabled":false,"rental_uris":{"android":"levelo://app?vid=099bd739-fd60-41a1-9743-4d1bdbfaaf94","ios":"levelo://app?vid=099bd739-fd60-41a1-9743-4d1bdbfaaf94"},"vehicle_type_id":"4","last_reported":1722276673,"current_range_meters":0,"station_id":"ce4bh4p2rcd13ifvqe1g","pricing_plan_id":"cebpf4jnsgd1na2vs0mg"},{"bike_id":"301281e9-9372-4cc7-823a-8322820e7e14","system_id":"levelo_inurba_marseille","lat":43.28856,"lon":5.358371,"is_reserved":false,"is_disabled":false,"rental_uris":{"android":"levelo://app?vid=301281e9-9372-4cc7-823a-8322820e7e14","ios":"levelo://app?vid=301281e9-9372-4cc7-823a-8322820e7e14"},"vehicle_type_id":"4","last_reported":1722276673,"current_range_meters":18400,"station_id":"ce4bhb12rcd13ifvqem0","pricing_plan_id":"cebpf4jnsgd1na2vs0mg"},{"bike_id":"881f1e54-be49-4eed-bf1b-3a4eece96fe7","system_id":"levelo_inurba_marseille","lat":43.28856,"lon":5.358371,"is_reserved":false,"is_disabled":false,"rental_uris":{"android":"levelo://app?vid=881f1e54-be49-4eed-bf1b-3a4eece96fe7","ios":"levelo://app?vid=881f1e54-be49-4eed-bf1b-3a4eece96fe7"},"vehicle_type_id":"4","last_reported":1722276673,"current_range_meters":16400,"station_id":"ce4bhb12rcd13ifvqem0","pricing_plan_id":"cebpf4jnsgd1na2vs0mg"},{"bike_id":"042c3232-505f-40cc-90e1-f98042c2c186","system_id":"levelo_inurba_marseille","lat":43.288463,"lon":5.358511,"is_reserved":false,"is_disabled":false,"rental_uris":{"android":"levelo://app?vid=042c3232-505f-40cc-90e1-f98042c2c186","ios":"levelo://app?vid=042c3232-505f-40cc-90e1-f98042c2c186"},"vehicle_type_id":"4","last_reported":1722276673,"current_range_meters":0,"station_id":"ce4bhb12rcd13ifvqem0","pricing_plan_id":"cebpf4jnsgd1na2vs0mg"},{"bike_id":"48538912-8c04-4c5f-8968-b59cc9ee989b","system_id":"levelo_inurba_marseille","lat":43.312609,"lon":5.401662,"is_reserved":false,"is_disabled":false,"rental_uris":{"android":"levelo://app?vid=48538912-8c04-4c5f-8968-b59cc9ee989b","ios":"levelo://app?vid=48538912-8c04-4c5f-8968-b59cc9ee989b"},"vehicle_type_id":"4","last_reported":1722276673,"current_range_meters":2800,"station_id":"ce4bh092rcd13ifvqd30","pricing_plan_id":"cebpf4jnsgd1na2vs0mg"},{"bike_id":"3a031b0c-bc56-43bb-b312-b03539475294","system_id":"levelo_inurba_marseille","lat":43.309371,"lon":5.401449,"is_reserved":false,"is_disabled":false,"rental_uris":{"android":"levelo://app?vid=3a031b0c-bc56-43bb-b312-b03539475294","ios":"levelo://app?vid=3a031b0c-bc56-43bb-b312-b03539475294"},"vehicle_type_id":"4","last_reported":1722276673,"current_range_meters":0,"station_id":"ce4bgvp2rcd13ifvqct0","pricing_plan_id":"cebpf4jnsgd1na2vs0mg"},{"bike_id":"06893d85-53a4-4867-afd8-82559233763e","system_id":"levelo_inurba_marseille","lat":43.287812,"lon":5.373682,"is_reserved":false,"is_disabled":false,"rental_uris":{"android":"levelo://app?vid=06893d85-53a4-4867-afd8-82559233763e","ios":"levelo://app?vid=06893d85-53a4-4867-afd8-82559233763e"},"vehicle_type_id":"4","last_reported":1722276673,"current_range_meters":22400,"station_id":"","pricing_plan_id":"cebpf4jnsgd1na2vs0mg"},{"bike_id":"0947d520-5902-43d2-9e61-47bf12ff75f9","system_id":"levelo_inurba_marseille","lat":43.337553,"lon":5.374554,"is_reserved":false,"is_disabled":false,"rental_uris":{"android":"levelo://app?vid=0947d520-5902-43d2-9e61-47bf12ff75f9","ios":"levelo://app?vid=0947d520-5902-43d2-9e61-47bf12ff75f9"},"vehicle_type_id":"4","last_reported":1722276673,"current_range_meters":21600,"station_id":"","pricing_plan_id":"cebpf4jnsgd1na2vs0mg"},{"bike_id":"36d7aa13-0e9d-4473-90ba-5573299cead8","system_id":"levelo_inurba_marseille","lat":43.306412,"lon":5.401035,"is_reserved":false,"is_disabled":false,"rental_uris":{"android":"levelo://app?vid=36d7aa13-0e9d-4473-90ba-5573299cead8","ios":"levelo://app?vid=36d7aa13-0e9d-4473-90ba-5573299cead8"},"vehicle_type_id":"4","last_reported":1722276673,"current_range_meters":0,"station_id":"ce4bh112rcd13ifvqda0","pricing_plan_id":"cebpf4jnsgd1na2vs0mg"},{"bike_id":"6bd515b3-3e12-4638-a2e0-e78a9144f0ca","system_id":"levelo_inurba_marseille","lat":43.306412,"lon":5.401035,"is_reserved":false,"is_disabled":false,"rental_uris":{"android":"levelo://app?vid=6bd515b3-3e12-4638-a2e0-e78a9144f0ca","ios":"levelo://app?vid=6bd515b3-3e12-4638-a2e0-e78a9144f0ca"},"vehicle_type_id":"4","last_reported":1722276673,"current_range_meters":3600,"station_id":"ce4bh112rcd13ifvqda0","pricing_plan_id":"cebpf4jnsgd1na2vs0mg"},{"bike_id":"fa6c0123-3f84-4311-8f07-1f48372778d2","system_id":"levelo_inurba_marseille","lat":43.301117,"lon":5.398795,"is_reserved":false,"is_disabled":false,"rental_uris":{"android":"levelo://app?vid=fa6c0123-3f84-4311-8f07-1f48372778d2","ios":"levelo://app?vid=fa6c0123-3f84-4311-8f07-1f48372778d2"},"vehicle_type_id":"4","last_reported":1722276673,"current_range_meters":30400,"station_id":"ce4bh0h2rcd13ifvqd40","pricing_plan_id":"cebpf4jnsgd1na2vs0mg"},{"bike_id":"28304036-afe9-48c7-bceb-8dd90d2a8344","system_id":"levelo_inurba_marseille","lat":43.28727,"lon":5.36078,"is_reserved":false,"is_disabled":false,"rental_uris":{"android":"levelo://app?vid=28304036-afe9-48c7-bceb-8dd90d2a8344","ios":"levelo://app?vid=28304036-afe9-48c7-bceb-8dd90d2a8344"},"vehicle_type_id":"4","last_reported":1722276673,"current_range_meters":5200,"station_id":"cki0cbj6b192h4jlfktg","pricing_plan_id":"cebpf4jnsgd1na2vs0mg"},{"bike_id":"f03e4732-bc4f-40d5-8fc6-fe4a4dee5701","system_id":"levelo_inurba_marseille","lat":43.28727,"lon":5.36078,"is_reserved":false,"is_disabled":false,"rental_uris":{"android":"levelo://app?vid=f03e4732-bc4f-40d5-8fc6-fe4a4dee5701","ios":"levelo://app?vid=f03e4732-bc4f-40d5-8fc6-fe4a4dee5701"},"vehicle_type_id":"4","last_reported":1722276673,"current_range_meters":1600,"station_id":"cki0cbj6b192h4jlfktg","pricing_plan_id":"cebpf4jnsgd1na2vs0mg"},{"bike_id":"4ce13a24-309b-4486-9dc3-3963aecb4011","system_id":"levelo_inurba_marseille","lat":43.286591,"lon":5.363346,"is_reserved":false,"is_disabled":false,"rental_uris":{"android":"levelo://app?vid=4ce13a24-309b-4486-9dc3-3963aecb4011","ios":"levelo://app?vid=4ce13a24-309b-4486-9dc3-3963aecb4011"},"vehicle_type_id":"4","last_reported":1722276673,"current_range_meters":11600,"station_id":"ce4bhah2rcd13ifvqej0","pricing_plan_id":"cebpf4jnsgd1na2vs0mg"},{"bike_id":"03a9ce5e-233f-4c8a-998e-83623cb89a73","system_id":"levelo_inurba_marseille","lat":43.286961,"lon":5.373785,"is_reserved":false,"is_disabled":false,"rental_uris":{"android":"levelo://app?vid=03a9ce5e-233f-4c8a-998e-83623cb89a73","ios":"levelo://app?vid=03a9ce5e-233f-4c8a-998e-83623cb89a73"},"vehicle_type_id":"4","last_reported":1722276673,"current_range_meters":800,"station_id":"ce4bh3p2rcd13ifvqdq0","pricing_plan_id":"cebpf4jnsgd1na2vs0mg"},{"bike_id":"6355f157-abd5-45af-9257-de847194c7d2","system_id":"levelo_inurba_marseille","lat":43.286593,"lon":5.363346,"is_reserved":false,"is_disabled":false,"rental_uris":{"android":"levelo://app?vid=6355f157-abd5-45af-9257-de847194c7d2","ios":"levelo://app?vid=6355f157-abd5-45af-9257-de847194c7d2"},"vehicle_type_id":"4","last_reported":1722276673,"current_range_meters":27600,"station_id":"ce4bhah2rcd13ifvqej0","pricing_plan_id":"cebpf4jnsgd1na2vs0mg"},{"bike_id":"756e9c6e-c731-4f9f-a103-ae8e6284f53e","system_id":"levelo_inurba_marseille","lat":43.286961,"lon":5.373785,"is_reserved":false,"is_disabled":false,"rental_uris":{"android":"levelo://app?vid=756e9c6e-c731-4f9f-a103-ae8e6284f53e","ios":"levelo://app?vid=756e9c6e-c731-4f9f-a103-ae8e6284f53e"},"vehicle_type_id":"4","last_reported":1722276673,"current_range_meters":0,"station_id":"ce4bh3p2rcd13ifvqdq0","pricing_plan_id":"cebpf4jnsgd1na2vs0mg"},{"bike_id":"565043b8-373e-4eba-a6ef-7572bb2d5d49","system_id":"levelo_inurba_marseille","lat":43.286593,"lon":5.363346,"is_reserved":false,"is_disabled":false,"rental_uris":{"android":"levelo://app?vid=565043b8-373e-4eba-a6ef-7572bb2d5d49","ios":"levelo://app?vid=565043b8-373e-4eba-a6ef-7572bb2d5d49"},"vehicle_type_id":"4","last_reported":1722276673,"current_range_meters":6000,"station_id":"ce4bhah2rcd13ifvqej0","pricing_plan_id":"cebpf4jnsgd1na2vs0mg"},{"bike_id":"b19d84f0-950f-4e4f-a78d-5cf76b54764f","system_id":"levelo_inurba_marseille","lat":43.290336,"lon":5.386425,"is_reserved":false,"is_disabled":false,"rental_uris":{"android":"levelo://app?vid=b19d84f0-950f-4e4f-a78d-5cf76b54764f","ios":"levelo://app?vid=b19d84f0-950f-4e4f-a78d-5cf76b54764f"},"vehicle_type_id":"4","last_reported":1722276673,"current_range_meters":0,"station_id":"ce4bh4p2rcd13ifvqe0g","pricing_plan_id":"cebpf4jnsgd1na2vs0mg"},{"bike_id":"3d16be27-9a43-4e98-830f-e1af92bce2c8","system_id":"levelo_inurba_marseille","lat":43.290336,"lon":5.386425,"is_reserved":false,"is_disabled":false,"rental_uris":{"android":"levelo://app?vid=3d16be27-9a43-4e98-830f-e1af92bce2c8","ios":"levelo://app?vid=3d16be27-9a43-4e98-830f-e1af92bce2c8"},"vehicle_type_id":"4","last_reported":1722276673,"current_range_meters":400,"station_id":"ce4bh4p2rcd13ifvqe0g","pricing_plan_id":"cebpf4jnsgd1na2vs0mg"},{"bike_id":"ab661fcc-5d38-4c19-b7ac-bd50734fa0b3","system_id":"levelo_inurba_marseille","lat":43.290336,"lon":5.386425,"is_reserved":false,"is_disabled":false,"rental_uris":{"android":"levelo://app?vid=ab661fcc-5d38-4c19-b7ac-bd50734fa0b3","ios":"levelo://app?vid=ab661fcc-5d38-4c19-b7ac-bd50734fa0b3"},"vehicle_type_id":"4","last_reported":1722276673,"current_range_meters":7600,"station_id":"ce4bh4p2rcd13ifvqe0g","pricing_plan_id":"cebpf4jnsgd1na2vs0mg"},{"bike_id":"21b84fa9-8e5e-42c3-a35f-b93f3d412fff","system_id":"levelo_inurba_marseille","lat":43.290336,"lon":5.386425,"is_reserved":false,"is_disabled":false,"rental_uris":{"android":"levelo://app?vid=21b84fa9-8e5e-42c3-a35f-b93f3d412fff","ios":"levelo://app?vid=21b84fa9-8e5e-42c3-a35f-b93f3d412fff"},"vehicle_type_id":"4","last_reported":1722276673,"current_range_meters":2400,"station_id":"ce4bh4p2rcd13ifvqe0g","pricing_plan_id":"cebpf4jnsgd1na2vs0mg"},{"bike_id":"334f5e5f-8de9-4255-b02a-5a6d7f03ada4","system_id":"levelo_inurba_marseille","lat":43.290336,"lon":5.386425,"is_reserved":false,"is_disabled":false,"rental_uris":{"android":"levelo://app?vid=334f5e5f-8de9-4255-b02a-5a6d7f03ada4","ios":"levelo://app?vid=334f5e5f-8de9-4255-b02a-5a6d7f03ada4"},"vehicle_type_id":"4","last_reported":1722276673,"current_range_meters":11200,"station_id":"ce4bh4p2rcd13ifvqe0g","pricing_plan_id":"cebpf4jnsgd1na2vs0mg"},{"bike_id":"d23685bf-7d91-40eb-b16c-c6a93f30f40b","system_id":"levelo_inurba_marseille","lat":43.290336,"lon":5.386425,"is_reserved":false,"is_disabled":false,"rental_uris":{"android":"levelo://app?vid=d23685bf-7d91-40eb-b16c-c6a93f30f40b","ios":"levelo://app?vid=d23685bf-7d91-40eb-b16c-c6a93f30f40b"},"vehicle_type_id":"4","last_reported":1722276673,"current_range_meters":4400,"station_id":"ce4bh4p2rcd13ifvqe0g","pricing_plan_id":"cebpf4jnsgd1na2vs0mg"},{"bike_id":"b33c9e58-3e60-4b99-b606-6a6853bce391","system_id":"levelo_inurba_marseille","lat":43.290336,"lon":5.386425,"is_reserved":false,"is_disabled":false,"rental_uris":{"android":"levelo://app?vid=b33c9e58-3e60-4b99-b606-6a6853bce391","ios":"levelo://app?vid=b33c9e58-3e60-4b99-b606-6a6853bce391"},"vehicle_type_id":"4","last_reported":1722276673,"current_range_meters":14400,"station_id":"ce4bh4p2rcd13ifvqe0g","pricing_plan_id":"cebpf4jnsgd1na2vs0mg"},{"bike_id":"871e5461-4664-417a-8905-e33b272e3e9a","system_id":"levelo_inurba_marseille","lat":43.28609,"lon":5.37058,"is_reserved":false,"is_disabled":false,"rental_uris":{"android":"levelo://app?vid=871e5461-4664-417a-8905-e33b272e3e9a","ios":"levelo://app?vid=871e5461-4664-417a-8905-e33b272e3e9a"},"vehicle_type_id":"4","last_reported":1722276673,"current_range_meters":0,"station_id":"","pricing_plan_id":"cebpf4jnsgd1na2vs0mg"},{"bike_id":"6e264004-61ef-4998-9134-962bc6b70bc1","system_id":"levelo_inurba_marseille","lat":43.286039,"lon":5.370681,"is_reserved":false,"is_disabled":false,"rental_uris":{"android":"levelo://app?vid=6e264004-61ef-4998-9134-962bc6b70bc1","ios":"levelo://app?vid=6e264004-61ef-4998-9134-962bc6b70bc1"},"vehicle_type_id":"4","last_reported":1722276673,"current_range_meters":0,"station_id":"ce4bht12rcd13ifvqi60","pricing_plan_id":"cebpf4jnsgd1na2vs0mg"},{"bike_id":"d991c142-35e6-480e-a0fd-2f800d439c27","system_id":"levelo_inurba_marseille","lat":43.286039,"lon":5.370679,"is_reserved":false,"is_disabled":false,"rental_uris":{"android":"levelo://app?vid=d991c142-35e6-480e-a0fd-2f800d439c27","ios":"levelo://app?vid=d991c142-35e6-480e-a0fd-2f800d439c27"},"vehicle_type_id":"4","last_reported":1722276673,"current_range_meters":11600,"station_id":"ce4bht12rcd13ifvqi60","pricing_plan_id":"cebpf4jnsgd1na2vs0mg"},{"bike_id":"1992dfae-a8db-4b60-a440-fb36d17b3f0c","system_id":"levelo_inurba_marseille","lat":43.287184,"lon":5.37937,"is_reserved":false,"is_disabled":false,"rental_uris":{"android":"levelo://app?vid=1992dfae-a8db-4b60-a440-fb36d17b3f0c","ios":"levelo://app?vid=1992dfae-a8db-4b60-a440-fb36d17b3f0c"},"vehicle_type_id":"4","last_reported":1722276673,"current_range_meters":14400,"station_id":"ce4bh9p2rcd13ifvqec0","pricing_plan_id":"cebpf4jnsgd1na2vs0mg"},{"bike_id":"b53d6f11-ddf7-4f51-96ca-1bb315377d10","system_id":"levelo_inurba_marseille","lat":43.291994,"lon":5.392907,"is_reserved":false,"is_disabled":false,"rental_uris":{"android":"levelo://app?vid=b53d6f11-ddf7-4f51-96ca-1bb315377d10","ios":"levelo://app?vid=b53d6f11-ddf7-4f51-96ca-1bb315377d10"},"vehicle_type_id":"4","last_reported":1722276673,"current_range_meters":10800,"station_id":"ce4bh192rcd13ifvqdd0","pricing_plan_id":"cebpf4jnsgd1na2vs0mg"},{"bike_id":"87d31c23-1aca-4ad4-98db-5c0112d23824","system_id":"levelo_inurba_marseille","lat":43.294314,"lon":5.397498,"is_reserved":false,"is_disabled":false,"rental_uris":{"android":"levelo://app?vid=87d31c23-1aca-4ad4-98db-5c0112d23824","ios":"levelo://app?vid=87d31c23-1aca-4ad4-98db-5c0112d23824"},"vehicle_type_id":"4","last_reported":1722276673,"current_range_meters":0,"station_id":"ce4bh3h2rcd13ifvqdo0","pricing_plan_id":"cebpf4jnsgd1na2vs0mg"},{"bike_id":"a39b63f9-c8fb-4b50-bc2f-470767dd39cd","system_id":"levelo_inurba_marseille","lat":43.28681,"lon":5.38417,"is_reserved":false,"is_disabled":false,"rental_uris":{"android":"levelo://app?vid=a39b63f9-c8fb-4b50-bc2f-470767dd39cd","ios":"levelo://app?vid=a39b63f9-c8fb-4b50-bc2f-470767dd39cd"},"vehicle_type_id":"4","last_reported":1722276673,"current_range_meters":16400,"station_id":"","pricing_plan_id":"cebpf4jnsgd1na2vs0mg"},{"bike_id":"b3eea46c-ab83-4db1-965c-743a159b458a","system_id":"levelo_inurba_marseille","lat":43.294314,"lon":5.397498,"is_reserved":false,"is_disabled":false,"rental_uris":{"android":"levelo://app?vid=b3eea46c-ab83-4db1-965c-743a159b458a","ios":"levelo://app?vid=b3eea46c-ab83-4db1-965c-743a159b458a"},"vehicle_type_id":"4","last_reported":1722276673,"current_range_meters":16800,"station_id":"ce4bh3h2rcd13ifvqdo0","pricing_plan_id":"cebpf4jnsgd1na2vs0mg"},{"bike_id":"adafedbf-7bd8-4130-bfcc-3c385231a0a6","system_id":"levelo_inurba_marseille","lat":43.294314,"lon":5.397498,"is_reserved":false,"is_disabled":false,"rental_uris":{"android":"levelo://app?vid=adafedbf-7bd8-4130-bfcc-3c385231a0a6","ios":"levelo://app?vid=adafedbf-7bd8-4130-bfcc-3c385231a0a6"},"vehicle_type_id":"4","last_reported":1722276673,"current_range_meters":5200,"station_id":"ce4bh3h2rcd13ifvqdo0","pricing_plan_id":"cebpf4jnsgd1na2vs0mg"},{"bike_id":"86c43aa6-419d-408d-9d09-589ba9e835c0","system_id":"levelo_inurba_marseille","lat":43.2862,"lon":5.35106,"is_reserved":false,"is_disabled":false,"rental_uris":{"android":"levelo://app?vid=86c43aa6-419d-408d-9d09-589ba9e835c0","ios":"levelo://app?vid=86c43aa6-419d-408d-9d09-589ba9e835c0"},"vehicle_type_id":"4","last_reported":1722276673,"current_range_meters":0,"station_id":"ce4bhch2rcd13ifvqeug","pricing_plan_id":"cebpf4jnsgd1na2vs0mg"},{"bike_id":"b9e49aad-be70-484d-b0f7-c58a3dea930e","system_id":"levelo_inurba_marseille","lat":43.28619,"lon":5.35103,"is_reserved":false,"is_disabled":false,"rental_uris":{"android":"levelo://app?vid=b9e49aad-be70-484d-b0f7-c58a3dea930e","ios":"levelo://app?vid=b9e49aad-be70-484d-b0f7-c58a3dea930e"},"vehicle_type_id":"4","last_reported":1722276673,"current_range_meters":2800,"station_id":"ce4bhch2rcd13ifvqeug","pricing_plan_id":"cebpf4jnsgd1na2vs0mg"},{"bike_id":"30f0ec8c-febf-4868-8cb7-f43d10da1f6f","system_id":"levelo_inurba_marseille","lat":43.286146,"lon":5.351153,"is_reserved":false,"is_disabled":false,"rental_uris":{"android":"levelo://app?vid=30f0ec8c-febf-4868-8cb7-f43d10da1f6f","ios":"levelo://app?vid=30f0ec8c-febf-4868-8cb7-f43d10da1f6f"},"vehicle_type_id":"4","last_reported":1722276673,"current_range_meters":29200,"station_id":"","pricing_plan_id":"cebpf4jnsgd1na2vs0mg"},{"bike_id":"f8574f7c-88bf-4813-bd5c-8a996a9a4d54","system_id":"levelo_inurba_marseille","lat":43.28618,"lon":5.35101,"is_reserved":false,"is_disabled":false,"rental_uris":{"android":"levelo://app?vid=f8574f7c-88bf-4813-bd5c-8a996a9a4d54","ios":"levelo://app?vid=f8574f7c-88bf-4813-bd5c-8a996a9a4d54"},"vehicle_type_id":"4","last_reported":1722276673,"current_range_meters":16000,"station_id":"ce4bhch2rcd13ifvqeug","pricing_plan_id":"cebpf4jnsgd1na2vs0mg"},{"bike_id":"957e7bd7-c168-4b5c-b1df-db2dbc4d879e","system_id":"levelo_inurba_marseille","lat":43.28618,"lon":5.35098,"is_reserved":false,"is_disabled":false,"rental_uris":{"android":"levelo://app?vid=957e7bd7-c168-4b5c-b1df-db2dbc4d879e","ios":"levelo://app?vid=957e7bd7-c168-4b5c-b1df-db2dbc4d879e"},"vehicle_type_id":"4","last_reported":1722276673,"current_range_meters":28000,"station_id":"ce4bhch2rcd13ifvqeug","pricing_plan_id":"cebpf4jnsgd1na2vs0mg"},{"bike_id":"5572c660-4b6a-4cb1-ab3a-b0e3ae1cc9bb","system_id":"levelo_inurba_marseille","lat":43.28615,"lon":5.351,"is_reserved":false,"is_disabled":false,"rental_uris":{"android":"levelo://app?vid=5572c660-4b6a-4cb1-ab3a-b0e3ae1cc9bb","ios":"levelo://app?vid=5572c660-4b6a-4cb1-ab3a-b0e3ae1cc9bb"},"vehicle_type_id":"4","last_reported":1722276673,"current_range_meters":21600,"station_id":"ce4bhch2rcd13ifvqeug","pricing_plan_id":"cebpf4jnsgd1na2vs0mg"},{"bike_id":"e5677fc2-f1fe-4e9d-9b62-8c1dff5de1ca","system_id":"levelo_inurba_marseille","lat":43.28612,"lon":5.35102,"is_reserved":false,"is_disabled":false,"rental_uris":{"android":"levelo://app?vid=e5677fc2-f1fe-4e9d-9b62-8c1dff5de1ca","ios":"levelo://app?vid=e5677fc2-f1fe-4e9d-9b62-8c1dff5de1ca"},"vehicle_type_id":"4","last_reported":1722276673,"current_range_meters":12000,"station_id":"ce4bhch2rcd13ifvqeug","pricing_plan_id":"cebpf4jnsgd1na2vs0mg"},{"bike_id":"7dc20b5c-3717-4a4c-b886-98e15b4d9d91","system_id":"levelo_inurba_marseille","lat":43.283998,"lon":5.375062,"is_reserved":false,"is_disabled":false,"rental_uris":{"android":"levelo://app?vid=7dc20b5c-3717-4a4c-b886-98e15b4d9d91","ios":"levelo://app?vid=7dc20b5c-3717-4a4c-b886-98e15b4d9d91"},"vehicle_type_id":"4","last_reported":1722276673,"current_range_meters":0,"station_id":"ce4bh412rcd13ifvqds0","pricing_plan_id":"cebpf4jnsgd1na2vs0mg"},{"bike_id":"696e8176-4e1d-4650-8c09-1c2f1dd4cd5b","system_id":"levelo_inurba_marseille","lat":43.283998,"lon":5.375062,"is_reserved":false,"is_disabled":false,"rental_uris":{"android":"levelo://app?vid=696e8176-4e1d-4650-8c09-1c2f1dd4cd5b","ios":"levelo://app?vid=696e8176-4e1d-4650-8c09-1c2f1dd4cd5b"},"vehicle_type_id":"4","last_reported":1722276673,"current_range_meters":7200,"station_id":"ce4bh412rcd13ifvqds0","pricing_plan_id":"cebpf4jnsgd1na2vs0mg"},{"bike_id":"ff2d68a4-855c-4fa5-a349-7c6bd85889a6","system_id":"levelo_inurba_marseille","lat":43.283998,"lon":5.375062,"is_reserved":false,"is_disabled":false,"rental_uris":{"android":"levelo://app?vid=ff2d68a4-855c-4fa5-a349-7c6bd85889a6","ios":"levelo://app?vid=ff2d68a4-855c-4fa5-a349-7c6bd85889a6"},"vehicle_type_id":"4","last_reported":1722276673,"current_range_meters":0,"station_id":"ce4bh412rcd13ifvqds0","pricing_plan_id":"cebpf4jnsgd1na2vs0mg"},{"bike_id":"65ced017-f17e-454c-bb87-38a1948265cc","system_id":"levelo_inurba_marseille","lat":43.284048,"lon":5.375152,"is_reserved":false,"is_disabled":false,"rental_uris":{"android":"levelo://app?vid=65ced017-f17e-454c-bb87-38a1948265cc","ios":"levelo://app?vid=65ced017-f17e-454c-bb87-38a1948265cc"},"vehicle_type_id":"4","last_reported":1722276673,"current_range_meters":0,"station_id":"ce4bh412rcd13ifvqds0","pricing_plan_id":"cebpf4jnsgd1na2vs0mg"},{"bike_id":"d3b1f28f-ea9a-4dce-87eb-4b3ba8b25917","system_id":"levelo_inurba_marseille","lat":43.299481,"lon":5.403103,"is_reserved":false,"is_disabled":false,"rental_uris":{"android":"levelo://app?vid=d3b1f28f-ea9a-4dce-87eb-4b3ba8b25917","ios":"levelo://app?vid=d3b1f28f-ea9a-4dce-87eb-4b3ba8b25917"},"vehicle_type_id":"4","last_reported":1722276673,"current_range_meters":30800,"station_id":"","pricing_plan_id":"cebpf4jnsgd1na2vs0mg"},{"bike_id":"345a88e7-5c27-4d27-9277-0614c056dbc7","system_id":"levelo_inurba_marseille","lat":43.29947,"lon":5.40315,"is_reserved":false,"is_disabled":false,"rental_uris":{"android":"levelo://app?vid=345a88e7-5c27-4d27-9277-0614c056dbc7","ios":"levelo://app?vid=345a88e7-5c27-4d27-9277-0614c056dbc7"},"vehicle_type_id":"4","last_reported":1722276673,"current_range_meters":25600,"station_id":"","pricing_plan_id":"cebpf4jnsgd1na2vs0mg"},{"bike_id":"8a7f54a0-cd86-416e-81e8-500359c1d769","system_id":"levelo_inurba_marseille","lat":43.299581,"lon":5.403241,"is_reserved":false,"is_disabled":false,"rental_uris":{"android":"levelo://app?vid=8a7f54a0-cd86-416e-81e8-500359c1d769","ios":"levelo://app?vid=8a7f54a0-cd86-416e-81e8-500359c1d769"},"vehicle_type_id":"4","last_reported":1722276673,"current_range_meters":30800,"station_id":"","pricing_plan_id":"cebpf4jnsgd1na2vs0mg"},{"bike_id":"7bbe1875-6dc4-422f-8b38-a5aa9ef6fd9b","system_id":"levelo_inurba_marseille","lat":43.286595,"lon":5.386795,"is_reserved":false,"is_disabled":false,"rental_uris":{"android":"levelo://app?vid=7bbe1875-6dc4-422f-8b38-a5aa9ef6fd9b","ios":"levelo://app?vid=7bbe1875-6dc4-422f-8b38-a5aa9ef6fd9b"},"vehicle_type_id":"4","last_reported":1722276673,"current_range_meters":0,"station_id":"ce4bh492rcd13ifvqdug","pricing_plan_id":"cebpf4jnsgd1na2vs0mg"},{"bike_id":"d2ea62a3-3936-46bb-a835-fec226b7b268","system_id":"levelo_inurba_marseille","lat":43.286595,"lon":5.386795,"is_reserved":false,"is_disabled":false,"rental_uris":{"android":"levelo://app?vid=d2ea62a3-3936-46bb-a835-fec226b7b268","ios":"levelo://app?vid=d2ea62a3-3936-46bb-a835-fec226b7b268"},"vehicle_type_id":"4","last_reported":1722276673,"current_range_meters":0,"station_id":"ce4bh492rcd13ifvqdug","pricing_plan_id":"cebpf4jnsgd1na2vs0mg"},{"bike_id":"d7ee05f7-0a75-4a5d-837e-78ddf3a9b183","system_id":"levelo_inurba_marseille","lat":43.323464,"lon":5.406297,"is_reserved":false,"is_disabled":false,"rental_uris":{"android":"levelo://app?vid=d7ee05f7-0a75-4a5d-837e-78ddf3a9b183","ios":"levelo://app?vid=d7ee05f7-0a75-4a5d-837e-78ddf3a9b183"},"vehicle_type_id":"4","last_reported":1722276673,"current_range_meters":4800,"station_id":"ce4bhq92rcd13ifvqhjg","pricing_plan_id":"cebpf4jnsgd1na2vs0mg"},{"bike_id":"48fad92a-bb9a-483d-b9d9-aa91a1fd104a","system_id":"levelo_inurba_marseille","lat":43.323464,"lon":5.406297,"is_reserved":false,"is_disabled":false,"rental_uris":{"android":"levelo://app?vid=48fad92a-bb9a-483d-b9d9-aa91a1fd104a","ios":"levelo://app?vid=48fad92a-bb9a-483d-b9d9-aa91a1fd104a"},"vehicle_type_id":"4","last_reported":1722276673,"current_range_meters":2400,"station_id":"ce4bhq92rcd13ifvqhjg","pricing_plan_id":"cebpf4jnsgd1na2vs0mg"},{"bike_id":"a8b12371-fcaa-472c-b1b4-512e2f224ddc","system_id":"levelo_inurba_marseille","lat":43.28478,"lon":5.38414,"is_reserved":false,"is_disabled":false,"rental_uris":{"android":"levelo://app?vid=a8b12371-fcaa-472c-b1b4-512e2f224ddc","ios":"levelo://app?vid=a8b12371-fcaa-472c-b1b4-512e2f224ddc"},"vehicle_type_id":"4","last_reported":1722276673,"current_range_meters":0,"station_id":"ce4bh512rcd13ifvqe3g","pricing_plan_id":"cebpf4jnsgd1na2vs0mg"},{"bike_id":"29465bf9-1053-47c7-8b9c-8a2d07efe659","system_id":"levelo_inurba_marseille","lat":43.28477,"lon":5.38413,"is_reserved":false,"is_disabled":false,"rental_uris":{"android":"levelo://app?vid=29465bf9-1053-47c7-8b9c-8a2d07efe659","ios":"levelo://app?vid=29465bf9-1053-47c7-8b9c-8a2d07efe659"},"vehicle_type_id":"4","last_reported":1722276673,"current_range_meters":0,"station_id":"ce4bh512rcd13ifvqe3g","pricing_plan_id":"cebpf4jnsgd1na2vs0mg"},{"bike_id":"c4fd5e8c-6214-4bbe-be52-2e47d55b03ad","system_id":"levelo_inurba_marseille","lat":43.28473,"lon":5.38411,"is_reserved":false,"is_disabled":false,"rental_uris":{"android":"levelo://app?vid=c4fd5e8c-6214-4bbe-be52-2e47d55b03ad","ios":"levelo://app?vid=c4fd5e8c-6214-4bbe-be52-2e47d55b03ad"},"vehicle_type_id":"4","last_reported":1722276673,"current_range_meters":0,"station_id":"ce4bh512rcd13ifvqe3g","pricing_plan_id":"cebpf4jnsgd1na2vs0mg"},{"bike_id":"7be44f73-b2d3-4162-a429-bbe9e0990d33","system_id":"levelo_inurba_marseille","lat":43.288497,"lon":5.393089,"is_reserved":false,"is_disabled":false,"rental_uris":{"android":"levelo://app?vid=7be44f73-b2d3-4162-a429-bbe9e0990d33","ios":"levelo://app?vid=7be44f73-b2d3-4162-a429-bbe9e0990d33"},"vehicle_type_id":"4","last_reported":1722276673,"current_range_meters":15600,"station_id":"ce4bh2p2rcd13ifvqdi0","pricing_plan_id":"cebpf4jnsgd1na2vs0mg"},{"bike_id":"b84da2e0-cfad-4035-b7e9-f5a97eb88077","system_id":"levelo_inurba_marseille","lat":43.288497,"lon":5.393089,"is_reserved":false,"is_disabled":false,"rental_uris":{"android":"levelo://app?vid=b84da2e0-cfad-4035-b7e9-f5a97eb88077","ios":"levelo://app?vid=b84da2e0-cfad-4035-b7e9-f5a97eb88077"},"vehicle_type_id":"4","last_reported":1722276673,"current_range_meters":0,"station_id":"ce4bh2p2rcd13ifvqdi0","pricing_plan_id":"cebpf4jnsgd1na2vs0mg"},{"bike_id":"5f6273ff-5d6d-41f5-8287-7eb4bc20d62a","system_id":"levelo_inurba_marseille","lat":43.284776,"lon":5.385603,"is_reserved":false,"is_disabled":false,"rental_uris":{"android":"levelo://app?vid=5f6273ff-5d6d-41f5-8287-7eb4bc20d62a","ios":"levelo://app?vid=5f6273ff-5d6d-41f5-8287-7eb4bc20d62a"},"vehicle_type_id":"4","last_reported":1722276673,"current_range_meters":0,"station_id":"ce4bh8p2rcd13ifvqeb0","pricing_plan_id":"cebpf4jnsgd1na2vs0mg"},{"bike_id":"f28166c5-f6bf-45cf-b301-44ff242ec408","system_id":"levelo_inurba_marseille","lat":43.28352,"lon":5.38102,"is_reserved":false,"is_disabled":false,"rental_uris":{"android":"levelo://app?vid=f28166c5-f6bf-45cf-b301-44ff242ec408","ios":"levelo://app?vid=f28166c5-f6bf-45cf-b301-44ff242ec408"},"vehicle_type_id":"4","last_reported":1722276673,"current_range_meters":0,"station_id":"ce4bh412rcd13ifvqdr0","pricing_plan_id":"cebpf4jnsgd1na2vs0mg"},{"bike_id":"0d67de3f-a69a-4647-983a-e22a30d24006","system_id":"levelo_inurba_marseille","lat":43.284214,"lon":5.349706,"is_reserved":false,"is_disabled":false,"rental_uris":{"android":"levelo://app?vid=0d67de3f-a69a-4647-983a-e22a30d24006","ios":"levelo://app?vid=0d67de3f-a69a-4647-983a-e22a30d24006"},"vehicle_type_id":"4","last_reported":1722276673,"current_range_meters":23200,"station_id":"ce4bhbh2rcd13ifvqepg","pricing_plan_id":"cebpf4jnsgd1na2vs0mg"},{"bike_id":"657c2aa6-b3db-4aac-a8f6-4a2885e220e6","system_id":"levelo_inurba_marseille","lat":43.284219,"lon":5.3497,"is_reserved":false,"is_disabled":false,"rental_uris":{"android":"levelo://app?vid=657c2aa6-b3db-4aac-a8f6-4a2885e220e6","ios":"levelo://app?vid=657c2aa6-b3db-4aac-a8f6-4a2885e220e6"},"vehicle_type_id":"4","last_reported":1722276673,"current_range_meters":25600,"station_id":"ce4bhbh2rcd13ifvqepg","pricing_plan_id":"cebpf4jnsgd1na2vs0mg"},{"bike_id":"deafbe4b-6d03-428a-8a30-ca652a59659f","system_id":"levelo_inurba_marseille","lat":43.284219,"lon":5.3497,"is_reserved":false,"is_disabled":false,"rental_uris":{"android":"levelo://app?vid=deafbe4b-6d03-428a-8a30-ca652a59659f","ios":"levelo://app?vid=deafbe4b-6d03-428a-8a30-ca652a59659f"},"vehicle_type_id":"4","last_reported":1722276673,"current_range_meters":28400,"station_id":"ce4bhbh2rcd13ifvqepg","pricing_plan_id":"cebpf4jnsgd1na2vs0mg"},{"bike_id":"33cf43be-6e98-4c55-9581-c71b0ee2c13b","system_id":"levelo_inurba_marseille","lat":43.284214,"lon":5.349706,"is_reserved":false,"is_disabled":false,"rental_uris":{"android":"levelo://app?vid=33cf43be-6e98-4c55-9581-c71b0ee2c13b","ios":"levelo://app?vid=33cf43be-6e98-4c55-9581-c71b0ee2c13b"},"vehicle_type_id":"4","last_reported":1722276673,"current_range_meters":24000,"station_id":"ce4bhbh2rcd13ifvqepg","pricing_plan_id":"cebpf4jnsgd1na2vs0mg"},{"bike_id":"6af722e1-a2ea-45d0-a706-43ebc110982a","system_id":"levelo_inurba_marseille","lat":43.284219,"lon":5.3497,"is_reserved":false,"is_disabled":false,"rental_uris":{"android":"levelo://app?vid=6af722e1-a2ea-45d0-a706-43ebc110982a","ios":"levelo://app?vid=6af722e1-a2ea-45d0-a706-43ebc110982a"},"vehicle_type_id":"4","last_reported":1722276673,"current_range_meters":16000,"station_id":"ce4bhbh2rcd13ifvqepg","pricing_plan_id":"cebpf4jnsgd1na2vs0mg"},{"bike_id":"3b6af82b-01eb-4948-b863-b711a77ee06a","system_id":"levelo_inurba_marseille","lat":43.284212,"lon":5.34985,"is_reserved":false,"is_disabled":false,"rental_uris":{"android":"levelo://app?vid=3b6af82b-01eb-4948-b863-b711a77ee06a","ios":"levelo://app?vid=3b6af82b-01eb-4948-b863-b711a77ee06a"},"vehicle_type_id":"4","last_reported":1722276673,"current_range_meters":16000,"station_id":"ce4bhbh2rcd13ifvqepg","pricing_plan_id":"cebpf4jnsgd1na2vs0mg"},{"bike_id":"80fd520d-2c23-43c9-b89e-12a1910f7972","system_id":"levelo_inurba_marseille","lat":43.284191,"lon":5.349911,"is_reserved":false,"is_disabled":false,"rental_uris":{"android":"levelo://app?vid=80fd520d-2c23-43c9-b89e-12a1910f7972","ios":"levelo://app?vid=80fd520d-2c23-43c9-b89e-12a1910f7972"},"vehicle_type_id":"4","last_reported":1722276673,"current_range_meters":26000,"station_id":"ce4bhbh2rcd13ifvqepg","pricing_plan_id":"cebpf4jnsgd1na2vs0mg"},{"bike_id":"da796497-2529-4297-9ba6-4cea47bb6cb2","system_id":"levelo_inurba_marseille","lat":43.28422,"lon":5.34981,"is_reserved":false,"is_disabled":false,"rental_uris":{"android":"levelo://app?vid=da796497-2529-4297-9ba6-4cea47bb6cb2","ios":"levelo://app?vid=da796497-2529-4297-9ba6-4cea47bb6cb2"},"vehicle_type_id":"4","last_reported":1722276673,"current_range_meters":17600,"station_id":"ce4bhbh2rcd13ifvqepg","pricing_plan_id":"cebpf4jnsgd1na2vs0mg"},{"bike_id":"6aa01dde-8457-4051-939e-029e415d098c","system_id":"levelo_inurba_marseille","lat":43.284219,"lon":5.3497,"is_reserved":false,"is_disabled":false,"rental_uris":{"android":"levelo://app?vid=6aa01dde-8457-4051-939e-029e415d098c","ios":"levelo://app?vid=6aa01dde-8457-4051-939e-029e415d098c"},"vehicle_type_id":"4","last_reported":1722276673,"current_range_meters":29600,"station_id":"ce4bhbh2rcd13ifvqepg","pricing_plan_id":"cebpf4jnsgd1na2vs0mg"},{"bike_id":"d146cca2-7f7c-418e-b96d-d81286d46067","system_id":"levelo_inurba_marseille","lat":43.28423,"lon":5.34976,"is_reserved":false,"is_disabled":false,"rental_uris":{"android":"levelo://app?vid=d146cca2-7f7c-418e-b96d-d81286d46067","ios":"levelo://app?vid=d146cca2-7f7c-418e-b96d-d81286d46067"},"vehicle_type_id":"4","last_reported":1722276673,"current_range_meters":30800,"station_id":"ce4bhbh2rcd13ifvqepg","pricing_plan_id":"cebpf4jnsgd1na2vs0mg"},{"bike_id":"899a0ef9-123a-4051-84b6-99b5d0fd2e3b","system_id":"levelo_inurba_marseille","lat":43.284219,"lon":5.3497,"is_reserved":false,"is_disabled":false,"rental_uris":{"android":"levelo://app?vid=899a0ef9-123a-4051-84b6-99b5d0fd2e3b","ios":"levelo://app?vid=899a0ef9-123a-4051-84b6-99b5d0fd2e3b"},"vehicle_type_id":"4","last_reported":1722276673,"current_range_meters":31600,"station_id":"ce4bhbh2rcd13ifvqepg","pricing_plan_id":"cebpf4jnsgd1na2vs0mg"},{"bike_id":"6c6cc2ec-9f7b-4c04-ab93-95333e938f6a","system_id":"levelo_inurba_marseille","lat":43.284219,"lon":5.3497,"is_reserved":false,"is_disabled":false,"rental_uris":{"android":"levelo://app?vid=6c6cc2ec-9f7b-4c04-ab93-95333e938f6a","ios":"levelo://app?vid=6c6cc2ec-9f7b-4c04-ab93-95333e938f6a"},"vehicle_type_id":"4","last_reported":1722276673,"current_range_meters":23600,"station_id":"ce4bhbh2rcd13ifvqepg","pricing_plan_id":"cebpf4jnsgd1na2vs0mg"},{"bike_id":"3a7776dd-9403-4c2c-a72d-c0a2129beca3","system_id":"levelo_inurba_marseille","lat":43.284211,"lon":5.349778,"is_reserved":false,"is_disabled":false,"rental_uris":{"android":"levelo://app?vid=3a7776dd-9403-4c2c-a72d-c0a2129beca3","ios":"levelo://app?vid=3a7776dd-9403-4c2c-a72d-c0a2129beca3"},