{"last_updated":1717715403,"ttl":30,"version":"2.2","data":{"bikes":[{"bike_id":"aa0a3189-6ea8-456b-975f-f94e38aebec0","system_id":"levelo_inurba_marseille","lat":43.313391,"lon":5.36706,"is_reserved":false,"is_disabled":false,"rental_uris":{"android":"levelo://app?vid=aa0a3189-6ea8-456b-975f-f94e38aebec0","ios":"levelo://app?vid=aa0a3189-6ea8-456b-975f-f94e38aebec0"},"vehicle_type_id":"4","last_reported":1717715403,"current_range_meters":26000,"station_id":"ce4bgr92rcd13ifvqc6g","pricing_plan_id":"cebpf4jnsgd1na2vs0mg"},{"bike_id":"fb135fe8-ba0b-40b2-bd2a-8b16b35540c7","system_id":"levelo_inurba_marseille","lat":43.312239,"lon":5.368562,"is_reserved":false,"is_disabled":false,"rental_uris":{"android":"levelo://app?vid=fb135fe8-ba0b-40b2-bd2a-8b16b35540c7","ios":"levelo://app?vid=fb135fe8-ba0b-40b2-bd2a-8b16b35540c7"},"vehicle_type_id":"4","last_reported":1717715403,"current_range_meters":16000,"station_id":"ce4bgl92rcd13ifvqbq0","pricing_plan_id":"cebpf4jnsgd1na2vs0mg"},{"bike_id":"fc2cd802-d609-45fa-8d47-8e02d7eabd37","system_id":"levelo_inurba_marseille","lat":43.312239,"lon":5.368562,"is_reserved":false,"is_disabled":false,"rental_uris":{"android":"levelo://app?vid=fc2cd802-d609-45fa-8d47-8e02d7eabd37","ios":"levelo://app?vid=fc2cd802-d609-45fa-8d47-8e02d7eabd37"},"vehicle_type_id":"4","last_reported":1717715403,"current_range_meters":7600,"station_id":"ce4bgl92rcd13ifvqbq0","pricing_plan_id":"cebpf4jnsgd1na2vs0mg"},{"bike_id":"5f8e6379-7959-4866-a602-2a650b28471d","system_id":"levelo_inurba_marseille","lat":43.312239,"lon":5.368562,"is_reserved":false,"is_disabled":false,"rental_uris":{"android":"levelo://app?vid=5f8e6379-7959-4866-a602-2a650b28471d","ios":"levelo://app?vid=5f8e6379-7959-4866-a602-2a650b28471d"},"vehicle_type_id":"4","last_reported":1717715403,"current_range_meters":14000,"station_id":"ce4bgl92rcd13ifvqbq0","pricing_plan_id":"cebpf4jnsgd1na2vs0mg"},{"bike_id":"e570bcce-6269-400b-b8cb-f289a430f1b0","system_id":"levelo_inurba_marseille","lat":43.3169,"lon":5.36909,"is_reserved":false,"is_disabled":false,"rental_uris":{"android":"levelo://app?vid=e570bcce-6269-400b-b8cb-f289a430f1b0","ios":"levelo://app?vid=e570bcce-6269-400b-b8cb-f289a430f1b0"},"vehicle_type_id":"4","last_reported":1717715403,"current_range_meters":0,"station_id":"","pricing_plan_id":"cebpf4jnsgd1na2vs0mg"},{"bike_id":"25ccac39-b46e-407f-8269-b3a12c8a06c7","system_id":"levelo_inurba_marseille","lat":43.314811,"lon":5.373103,"is_reserved":false,"is_disabled":false,"rental_uris":{"android":"levelo://app?vid=25ccac39-b46e-407f-8269-b3a12c8a06c7","ios":"levelo://app?vid=25ccac39-b46e-407f-8269-b3a12c8a06c7"},"vehicle_type_id":"4","last_reported":1717715403,"current_range_meters":31200,"station_id":"ce4bgt12rcd13ifvqcd0","pricing_plan_id":"cebpf4jnsgd1na2vs0mg"},{"bike_id":"9523507d-d8ff-411b-bd46-7d5fa99f8815","system_id":"levelo_inurba_marseille","lat":43.314811,"lon":5.373103,"is_reserved":false,"is_disabled":false,"rental_uris":{"android":"levelo://app?vid=9523507d-d8ff-411b-bd46-7d5fa99f8815","ios":"levelo://app?vid=9523507d-d8ff-411b-bd46-7d5fa99f8815"},"vehicle_type_id":"4","last_reported":1717715403,"current_range_meters":30400,"station_id":"ce4bgt12rcd13ifvqcd0","pricing_plan_id":"cebpf4jnsgd1na2vs0mg"},{"bike_id":"dfa7a202-6c12-4125-ba83-ef53362f16e9","system_id":"levelo_inurba_marseille","lat":43.314811,"lon":5.373103,"is_reserved":false,"is_disabled":false,"rental_uris":{"android":"levelo://app?vid=dfa7a202-6c12-4125-ba83-ef53362f16e9","ios":"levelo://app?vid=dfa7a202-6c12-4125-ba83-ef53362f16e9"},"vehicle_type_id":"4","last_reported":1717715403,"current_range_meters":25600,"station_id":"ce4bgt12rcd13ifvqcd0","pricing_plan_id":"cebpf4jnsgd1na2vs0mg"},{"bike_id":"52e96fad-fbe5-4a08-89e0-419123280bfd","system_id":"levelo_inurba_marseille","lat":43.314811,"lon":5.373103,"is_reserved":false,"is_disabled":false,"rental_uris":{"android":"levelo://app?vid=52e96fad-fbe5-4a08-89e0-419123280bfd","ios":"levelo://app?vid=52e96fad-fbe5-4a08-89e0-419123280bfd"},"vehicle_type_id":"4","last_reported":1717715403,"current_range_meters":10800,"station_id":"ce4bgt12rcd13ifvqcd0","pricing_plan_id":"cebpf4jnsgd1na2vs0mg"},{"bike_id":"654d2842-235d-4d21-be0a-e2860d2704e2","system_id":"levelo_inurba_marseille","lat":43.314811,"lon":5.373104,"is_reserved":false,"is_disabled":false,"rental_uris":{"android":"levelo://app?vid=654d2842-235d-4d21-be0a-e2860d2704e2","ios":"levelo://app?vid=654d2842-235d-4d21-be0a-e2860d2704e2"},"vehicle_type_id":"4","last_reported":1717715403,"current_range_meters":25200,"station_id":"ce4bgt12rcd13ifvqcd0","pricing_plan_id":"cebpf4jnsgd1na2vs0mg"},{"bike_id":"8c5ff812-b716-45d0-a5c7-ef1ea864d7b2","system_id":"levelo_inurba_marseille","lat":43.314811,"lon":5.373103,"is_reserved":false,"is_disabled":false,"rental_uris":{"android":"levelo://app?vid=8c5ff812-b716-45d0-a5c7-ef1ea864d7b2","ios":"levelo://app?vid=8c5ff812-b716-45d0-a5c7-ef1ea864d7b2"},"vehicle_type_id":"4","last_reported":1717715403,"current_range_meters":15200,"station_id":"ce4bgt12rcd13ifvqcd0","pricing_plan_id":"cebpf4jnsgd1na2vs0mg"},{"bike_id":"89923ed7-6153-4cde-a83e-544f29bebd94","system_id":"levelo_inurba_marseille","lat":43.314811,"lon":5.373104,"is_reserved":false,"is_disabled":false,"rental_uris":{"android":"levelo://app?vid=89923ed7-6153-4cde-a83e-544f29bebd94","ios":"levelo://app?vid=89923ed7-6153-4cde-a83e-544f29bebd94"},"vehicle_type_id":"4","last_reported":1717715403,"current_range_meters":25600,"station_id":"ce4bgt12rcd13ifvqcd0","pricing_plan_id":"cebpf4jnsgd1na2vs0mg"},{"bike_id":"65d27300-d961-48f7-890f-5d203859646f","system_id":"levelo_inurba_marseille","lat":43.309039,"lon":5.371797,"is_reserved":false,"is_disabled":false,"rental_uris":{"android":"levelo://app?vid=65d27300-d961-48f7-890f-5d203859646f","ios":"levelo://app?vid=65d27300-d961-48f7-890f-5d203859646f"},"vehicle_type_id":"4","last_reported":1717715403,"current_range_meters":10400,"station_id":"ce4bguh2rcd13ifvqckg","pricing_plan_id":"cebpf4jnsgd1na2vs0mg"},{"bike_id":"b11bc296-01a7-4619-b71d-718c1cc2140a","system_id":"levelo_inurba_marseille","lat":43.309039,"lon":5.371797,"is_reserved":false,"is_disabled":false,"rental_uris":{"android":"levelo://app?vid=b11bc296-01a7-4619-b71d-718c1cc2140a","ios":"levelo://app?vid=b11bc296-01a7-4619-b71d-718c1cc2140a"},"vehicle_type_id":"4","last_reported":1717715403,"current_range_meters":20000,"station_id":"ce4bguh2rcd13ifvqckg","pricing_plan_id":"cebpf4jnsgd1na2vs0mg"},{"bike_id":"38f7fb98-91ef-4faf-b5c8-d4849563bcd1","system_id":"levelo_inurba_marseille","lat":43.309034,"lon":5.371783,"is_reserved":false,"is_disabled":false,"rental_uris":{"android":"levelo://app?vid=38f7fb98-91ef-4faf-b5c8-d4849563bcd1","ios":"levelo://app?vid=38f7fb98-91ef-4faf-b5c8-d4849563bcd1"},"vehicle_type_id":"4","last_reported":1717715403,"current_range_meters":31600,"station_id":"ce4bguh2rcd13ifvqckg","pricing_plan_id":"cebpf4jnsgd1na2vs0mg"},{"bike_id":"87d07ba6-7b57-4dca-a71a-0b01dd621bbb","system_id":"levelo_inurba_marseille","lat":43.309034,"lon":5.371783,"is_reserved":false,"is_disabled":false,"rental_uris":{"android":"levelo://app?vid=87d07ba6-7b57-4dca-a71a-0b01dd621bbb","ios":"levelo://app?vid=87d07ba6-7b57-4dca-a71a-0b01dd621bbb"},"vehicle_type_id":"4","last_reported":1717715403,"current_range_meters":21600,"station_id":"ce4bguh2rcd13ifvqckg","pricing_plan_id":"cebpf4jnsgd1na2vs0mg"},{"bike_id":"46d3e225-dca8-4b68-914f-84955ae70f48","system_id":"levelo_inurba_marseille","lat":43.309039,"lon":5.371797,"is_reserved":false,"is_disabled":false,"rental_uris":{"android":"levelo://app?vid=46d3e225-dca8-4b68-914f-84955ae70f48","ios":"levelo://app?vid=46d3e225-dca8-4b68-914f-84955ae70f48"},"vehicle_type_id":"4","last_reported":1717715403,"current_range_meters":13600,"station_id":"ce4bguh2rcd13ifvqckg","pricing_plan_id":"cebpf4jnsgd1na2vs0mg"},{"bike_id":"50eeaa2d-1b96-4d0e-a910-a3d51011954a","system_id":"levelo_inurba_marseille","lat":43.309034,"lon":5.371783,"is_reserved":false,"is_disabled":false,"rental_uris":{"android":"levelo://app?vid=50eeaa2d-1b96-4d0e-a910-a3d51011954a","ios":"levelo://app?vid=50eeaa2d-1b96-4d0e-a910-a3d51011954a"},"vehicle_type_id":"4","last_reported":1717715403,"current_range_meters":9200,"station_id":"ce4bguh2rcd13ifvqckg","pricing_plan_id":"cebpf4jnsgd1na2vs0mg"},{"bike_id":"ee7383d4-fdd8-46f9-ad27-c5193471fa6d","system_id":"levelo_inurba_marseille","lat":43.3158,"lon":5.37483,"is_reserved":false,"is_disabled":false,"rental_uris":{"android":"levelo://app?vid=ee7383d4-fdd8-46f9-ad27-c5193471fa6d","ios":"levelo://app?vid=ee7383d4-fdd8-46f9-ad27-c5193471fa6d"},"vehicle_type_id":"4","last_reported":1717715403,"current_range_meters":1200,"station_id":"","pricing_plan_id":"cebpf4jnsgd1na2vs0mg"},{"bike_id":"5c4cd4ea-4c8b-4a80-b28c-b5590a23c37c","system_id":"levelo_inurba_marseille","lat":43.305989,"lon":5.37225,"is_reserved":false,"is_disabled":false,"rental_uris":{"android":"levelo://app?vid=5c4cd4ea-4c8b-4a80-b28c-b5590a23c37c","ios":"levelo://app?vid=5c4cd4ea-4c8b-4a80-b28c-b5590a23c37c"},"vehicle_type_id":"4","last_reported":1717715403,"current_range_meters":18000,"station_id":"ce4bgqh2rcd13ifvqc4g","pricing_plan_id":"cebpf4jnsgd1na2vs0mg"},{"bike_id":"8e8f2c09-4c94-43bb-b3b8-892d3ddac1a7","system_id":"levelo_inurba_marseille","lat":43.305989,"lon":5.37225,"is_reserved":false,"is_disabled":false,"rental_uris":{"android":"levelo://app?vid=8e8f2c09-4c94-43bb-b3b8-892d3ddac1a7","ios":"levelo://app?vid=8e8f2c09-4c94-43bb-b3b8-892d3ddac1a7"},"vehicle_type_id":"4","last_reported":1717715403,"current_range_meters":4400,"station_id":"ce4bgqh2rcd13ifvqc4g","pricing_plan_id":"cebpf4jnsgd1na2vs0mg"},{"bike_id":"210f8aff-4d85-40a6-b0f1-eb8e645a5488","system_id":"levelo_inurba_marseille","lat":43.311125,"lon":5.377624,"is_reserved":false,"is_disabled":false,"rental_uris":{"android":"levelo://app?vid=210f8aff-4d85-40a6-b0f1-eb8e645a5488","ios":"levelo://app?vid=210f8aff-4d85-40a6-b0f1-eb8e645a5488"},"vehicle_type_id":"4","last_reported":1717715403,"current_range_meters":31200,"station_id":"ce4bgt92rcd13ifvqcg0","pricing_plan_id":"cebpf4jnsgd1na2vs0mg"},{"bike_id":"c1fad985-9c41-447f-8dca-e7881537ce7e","system_id":"levelo_inurba_marseille","lat":43.311125,"lon":5.377624,"is_reserved":false,"is_disabled":false,"rental_uris":{"android":"levelo://app?vid=c1fad985-9c41-447f-8dca-e7881537ce7e","ios":"levelo://app?vid=c1fad985-9c41-447f-8dca-e7881537ce7e"},"vehicle_type_id":"4","last_reported":1717715403,"current_range_meters":4800,"station_id":"ce4bgt92rcd13ifvqcg0","pricing_plan_id":"cebpf4jnsgd1na2vs0mg"},{"bike_id":"129403a7-d73c-4d89-b275-e7767494b0bf","system_id":"levelo_inurba_marseille","lat":43.311125,"lon":5.377624,"is_reserved":false,"is_disabled":false,"rental_uris":{"android":"levelo://app?vid=129403a7-d73c-4d89-b275-e7767494b0bf","ios":"levelo://app?vid=129403a7-d73c-4d89-b275-e7767494b0bf"},"vehicle_type_id":"4","last_reported":1717715403,"current_range_meters":12400,"station_id":"ce4bgt92rcd13ifvqcg0","pricing_plan_id":"cebpf4jnsgd1na2vs0mg"},{"bike_id":"c065a7e1-88ea-4b1c-983d-4d1790f8d25f","system_id":"levelo_inurba_marseille","lat":43.311125,"lon":5.377624,"is_reserved":false,"is_disabled":false,"rental_uris":{"android":"levelo://app?vid=c065a7e1-88ea-4b1c-983d-4d1790f8d25f","ios":"levelo://app?vid=c065a7e1-88ea-4b1c-983d-4d1790f8d25f"},"vehicle_type_id":"4","last_reported":1717715403,"current_range_meters":31200,"station_id":"ce4bgt92rcd13ifvqcg0","pricing_plan_id":"cebpf4jnsgd1na2vs0mg"},{"bike_id":"775ce182-6924-4aa9-9697-5195ba5edea8","system_id":"levelo_inurba_marseille","lat":43.31115,"lon":5.37762,"is_reserved":false,"is_disabled":false,"rental_uris":{"android":"levelo://app?vid=775ce182-6924-4aa9-9697-5195ba5edea8","ios":"levelo://app?vid=775ce182-6924-4aa9-9697-5195ba5edea8"},"vehicle_type_id":"4","last_reported":1717715403,"current_range_meters":24800,"station_id":"ce4bgt92rcd13ifvqcg0","pricing_plan_id":"cebpf4jnsgd1na2vs0mg"},{"bike_id":"11d1213b-f1d6-4baf-baff-53dcc476f2cc","system_id":"levelo_inurba_marseille","lat":43.311125,"lon":5.377624,"is_reserved":false,"is_disabled":false,"rental_uris":{"android":"levelo://app?vid=11d1213b-f1d6-4baf-baff-53dcc476f2cc","ios":"levelo://app?vid=11d1213b-f1d6-4baf-baff-53dcc476f2cc"},"vehicle_type_id":"4","last_reported":1717715403,"current_range_meters":13600,"station_id":"ce4bgt92rcd13ifvqcg0","pricing_plan_id":"cebpf4jnsgd1na2vs0mg"},{"bike_id":"8e758522-3f15-4182-bf69-33cb6e417774","system_id":"levelo_inurba_marseille","lat":43.311125,"lon":5.377624,"is_reserved":false,"is_disabled":false,"rental_uris":{"android":"levelo://app?vid=8e758522-3f15-4182-bf69-33cb6e417774","ios":"levelo://app?vid=8e758522-3f15-4182-bf69-33cb6e417774"},"vehicle_type_id":"4","last_reported":1717715403,"current_range_meters":24000,"station_id":"ce4bgt92rcd13ifvqcg0","pricing_plan_id":"cebpf4jnsgd1na2vs0mg"},{"bike_id":"1c266c4d-45ae-4cd0-9370-fed69a99c029","system_id":"levelo_inurba_marseille","lat":43.311125,"lon":5.377624,"is_reserved":false,"is_disabled":false,"rental_uris":{"android":"levelo://app?vid=1c266c4d-45ae-4cd0-9370-fed69a99c029","ios":"levelo://app?vid=1c266c4d-45ae-4cd0-9370-fed69a99c029"},"vehicle_type_id":"4","last_reported":1717715403,"current_range_meters":15600,"station_id":"ce4bgt92rcd13ifvqcg0","pricing_plan_id":"cebpf4jnsgd1na2vs0mg"},{"bike_id":"148ed6d6-fcc1-405c-bd10-d28e2e84c0db","system_id":"levelo_inurba_marseille","lat":43.311131,"lon":5.377651,"is_reserved":false,"is_disabled":false,"rental_uris":{"android":"levelo://app?vid=148ed6d6-fcc1-405c-bd10-d28e2e84c0db","ios":"levelo://app?vid=148ed6d6-fcc1-405c-bd10-d28e2e84c0db"},"vehicle_type_id":"4","last_reported":1717715403,"current_range_meters":20000,"station_id":"ce4bgt92rcd13ifvqcg0","pricing_plan_id":"cebpf4jnsgd1na2vs0mg"},{"bike_id":"394360c6-3afa-4d64-84d2-be5814e389f0","system_id":"levelo_inurba_marseille","lat":43.311209,"lon":5.377679,"is_reserved":false,"is_disabled":false,"rental_uris":{"android":"levelo://app?vid=394360c6-3afa-4d64-84d2-be5814e389f0","ios":"levelo://app?vid=394360c6-3afa-4d64-84d2-be5814e389f0"},"vehicle_type_id":"4","last_reported":1717715403,"current_range_meters":24800,"station_id":"ce4bgt92rcd13ifvqcg0","pricing_plan_id":"cebpf4jnsgd1na2vs0mg"},{"bike_id":"634ff1e0-8558-4543-9c0e-a26bb6176516","system_id":"levelo_inurba_marseille","lat":43.311131,"lon":5.377651,"is_reserved":false,"is_disabled":false,"rental_uris":{"android":"levelo://app?vid=634ff1e0-8558-4543-9c0e-a26bb6176516","ios":"levelo://app?vid=634ff1e0-8558-4543-9c0e-a26bb6176516"},"vehicle_type_id":"4","last_reported":1717715403,"current_range_meters":21200,"station_id":"ce4bgt92rcd13ifvqcg0","pricing_plan_id":"cebpf4jnsgd1na2vs0mg"},{"bike_id":"d74b3180-d52a-4585-a81f-81e0013c51d0","system_id":"levelo_inurba_marseille","lat":43.307945,"lon":5.376487,"is_reserved":false,"is_disabled":false,"rental_uris":{"android":"levelo://app?vid=d74b3180-d52a-4585-a81f-81e0013c51d0","ios":"levelo://app?vid=d74b3180-d52a-4585-a81f-81e0013c51d0"},"vehicle_type_id":"4","last_reported":1717715403,"current_range_meters":20400,"station_id":"ce4bgv92rcd13ifvqcq0","pricing_plan_id":"cebpf4jnsgd1na2vs0mg"},{"bike_id":"341d06eb-1b7c-4965-ac50-c6d81faede15","system_id":"levelo_inurba_marseille","lat":43.307945,"lon":5.376487,"is_reserved":false,"is_disabled":false,"rental_uris":{"android":"levelo://app?vid=341d06eb-1b7c-4965-ac50-c6d81faede15","ios":"levelo://app?vid=341d06eb-1b7c-4965-ac50-c6d81faede15"},"vehicle_type_id":"4","last_reported":1717715403,"current_range_meters":17600,"station_id":"ce4bgv92rcd13ifvqcq0","pricing_plan_id":"cebpf4jnsgd1na2vs0mg"},{"bike_id":"7f46db28-a0bf-4147-b3af-2183831c3221","system_id":"levelo_inurba_marseille","lat":43.307945,"lon":5.376487,"is_reserved":false,"is_disabled":false,"rental_uris":{"android":"levelo://app?vid=7f46db28-a0bf-4147-b3af-2183831c3221","ios":"levelo://app?vid=7f46db28-a0bf-4147-b3af-2183831c3221"},"vehicle_type_id":"4","last_reported":1717715403,"current_range_meters":12000,"station_id":"ce4bgv92rcd13ifvqcq0","pricing_plan_id":"cebpf4jnsgd1na2vs0mg"},{"bike_id":"8a3c864e-7c09-479a-9e66-faa4a34181ea","system_id":"levelo_inurba_marseille","lat":43.30801,"lon":5.37661,"is_reserved":false,"is_disabled":false,"rental_uris":{"android":"levelo://app?vid=8a3c864e-7c09-479a-9e66-faa4a34181ea","ios":"levelo://app?vid=8a3c864e-7c09-479a-9e66-faa4a34181ea"},"vehicle_type_id":"4","last_reported":1717715403,"current_range_meters":26400,"station_id":"","pricing_plan_id":"cebpf4jnsgd1na2vs0mg"},{"bike_id":"dce6d777-87ff-431d-995c-fffa36209289","system_id":"levelo_inurba_marseille","lat":43.307945,"lon":5.376487,"is_reserved":false,"is_disabled":false,"rental_uris":{"android":"levelo://app?vid=dce6d777-87ff-431d-995c-fffa36209289","ios":"levelo://app?vid=dce6d777-87ff-431d-995c-fffa36209289"},"vehicle_type_id":"4","last_reported":1717715403,"current_range_meters":17200,"station_id":"ce4bgv92rcd13ifvqcq0","pricing_plan_id":"cebpf4jnsgd1na2vs0mg"},{"bike_id":"c82c5691-1b2e-49fe-8f67-efdb5589acb0","system_id":"levelo_inurba_marseille","lat":43.307945,"lon":5.376487,"is_reserved":false,"is_disabled":false,"rental_uris":{"android":"levelo://app?vid=c82c5691-1b2e-49fe-8f67-efdb5589acb0","ios":"levelo://app?vid=c82c5691-1b2e-49fe-8f67-efdb5589acb0"},"vehicle_type_id":"4","last_reported":1717715403,"current_range_meters":31200,"station_id":"ce4bgv92rcd13ifvqcq0","pricing_plan_id":"cebpf4jnsgd1na2vs0mg"},{"bike_id":"6d72659c-2fa1-4920-a25c-5d29cabd8c53","system_id":"levelo_inurba_marseille","lat":43.307945,"lon":5.376487,"is_reserved":false,"is_disabled":false,"rental_uris":{"android":"levelo://app?vid=6d72659c-2fa1-4920-a25c-5d29cabd8c53","ios":"levelo://app?vid=6d72659c-2fa1-4920-a25c-5d29cabd8c53"},"vehicle_type_id":"4","last_reported":1717715403,"current_range_meters":20800,"station_id":"ce4bgv92rcd13ifvqcq0","pricing_plan_id":"cebpf4jnsgd1na2vs0mg"},{"bike_id":"118dd2a8-2281-439a-878f-5005c5960e80","system_id":"levelo_inurba_marseille","lat":43.307945,"lon":5.376487,"is_reserved":false,"is_disabled":false,"rental_uris":{"android":"levelo://app?vid=118dd2a8-2281-439a-878f-5005c5960e80","ios":"levelo://app?vid=118dd2a8-2281-439a-878f-5005c5960e80"},"vehicle_type_id":"4","last_reported":1717715403,"current_range_meters":31200,"station_id":"ce4bgv92rcd13ifvqcq0","pricing_plan_id":"cebpf4jnsgd1na2vs0mg"},{"bike_id":"c3fbbabf-0f64-4d98-b72c-02c5ac99270c","system_id":"levelo_inurba_marseille","lat":43.317075,"lon":5.377367,"is_reserved":false,"is_disabled":false,"rental_uris":{"android":"levelo://app?vid=c3fbbabf-0f64-4d98-b72c-02c5ac99270c","ios":"levelo://app?vid=c3fbbabf-0f64-4d98-b72c-02c5ac99270c"},"vehicle_type_id":"4","last_reported":1717715403,"current_range_meters":22800,"station_id":"ce4bgth2rcd13ifvqch0","pricing_plan_id":"cebpf4jnsgd1na2vs0mg"},{"bike_id":"bfe33d00-22be-4fcb-b412-bf8809def526","system_id":"levelo_inurba_marseille","lat":43.32186,"lon":5.3685,"is_reserved":false,"is_disabled":false,"rental_uris":{"android":"levelo://app?vid=bfe33d00-22be-4fcb-b412-bf8809def526","ios":"levelo://app?vid=bfe33d00-22be-4fcb-b412-bf8809def526"},"vehicle_type_id":"4","last_reported":1717715403,"current_range_meters":24400,"station_id":"","pricing_plan_id":"cebpf4jnsgd1na2vs0mg"},{"bike_id":"e1b75247-1841-449d-b434-c0e09cba7301","system_id":"levelo_inurba_marseille","lat":43.315289,"lon":5.380349,"is_reserved":false,"is_disabled":false,"rental_uris":{"android":"levelo://app?vid=e1b75247-1841-449d-b434-c0e09cba7301","ios":"levelo://app?vid=e1b75247-1841-449d-b434-c0e09cba7301"},"vehicle_type_id":"4","last_reported":1717715403,"current_range_meters":8400,"station_id":"ce4bhsp2rcd13ifvqi50","pricing_plan_id":"cebpf4jnsgd1na2vs0mg"},{"bike_id":"41a5519f-3688-4b21-8ced-e7c880361fe4","system_id":"levelo_inurba_marseille","lat":43.315289,"lon":5.380349,"is_reserved":false,"is_disabled":false,"rental_uris":{"android":"levelo://app?vid=41a5519f-3688-4b21-8ced-e7c880361fe4","ios":"levelo://app?vid=41a5519f-3688-4b21-8ced-e7c880361fe4"},"vehicle_type_id":"4","last_reported":1717715403,"current_range_meters":10400,"station_id":"ce4bhsp2rcd13ifvqi50","pricing_plan_id":"cebpf4jnsgd1na2vs0mg"},{"bike_id":"b799466d-dc0b-4d21-8656-6812c0c77d5c","system_id":"levelo_inurba_marseille","lat":43.30193,"lon":5.36623,"is_reserved":false,"is_disabled":false,"rental_uris":{"android":"levelo://app?vid=b799466d-dc0b-4d21-8656-6812c0c77d5c","ios":"levelo://app?vid=b799466d-dc0b-4d21-8656-6812c0c77d5c"},"vehicle_type_id":"4","last_reported":1717715403,"current_range_meters":7200,"station_id":"ce4bgrh2rcd13ifvqc8g","pricing_plan_id":"cebpf4jnsgd1na2vs0mg"},{"bike_id":"8fe3b370-ebb2-441f-b370-1424f994ee82","system_id":"levelo_inurba_marseille","lat":43.308012,"lon":5.381511,"is_reserved":false,"is_disabled":false,"rental_uris":{"android":"levelo://app?vid=8fe3b370-ebb2-441f-b370-1424f994ee82","ios":"levelo://app?vid=8fe3b370-ebb2-441f-b370-1424f994ee82"},"vehicle_type_id":"4","last_reported":1717715403,"current_range_meters":14800,"station_id":"ce4bgt12rcd13ifvqce0","pricing_plan_id":"cebpf4jnsgd1na2vs0mg"},{"bike_id":"cf323a3b-3e21-43c7-a09b-df83e66f879f","system_id":"levelo_inurba_marseille","lat":43.308012,"lon":5.381511,"is_reserved":false,"is_disabled":false,"rental_uris":{"android":"levelo://app?vid=cf323a3b-3e21-43c7-a09b-df83e66f879f","ios":"levelo://app?vid=cf323a3b-3e21-43c7-a09b-df83e66f879f"},"vehicle_type_id":"4","last_reported":1717715403,"current_range_meters":21600,"station_id":"ce4bgt12rcd13ifvqce0","pricing_plan_id":"cebpf4jnsgd1na2vs0mg"},{"bike_id":"ef04ff12-a9f5-4be6-b84e-0027fa53800e","system_id":"levelo_inurba_marseille","lat":43.308012,"lon":5.381511,"is_reserved":false,"is_disabled":false,"rental_uris":{"android":"levelo://app?vid=ef04ff12-a9f5-4be6-b84e-0027fa53800e","ios":"levelo://app?vid=ef04ff12-a9f5-4be6-b84e-0027fa53800e"},"vehicle_type_id":"4","last_reported":1717715403,"current_range_meters":16800,"station_id":"ce4bgt12rcd13ifvqce0","pricing_plan_id":"cebpf4jnsgd1na2vs0mg"},{"bike_id":"1e57b91c-b7c9-48e5-84e5-f912dc954da4","system_id":"levelo_inurba_marseille","lat":43.308012,"lon":5.381511,"is_reserved":false,"is_disabled":false,"rental_uris":{"android":"levelo://app?vid=1e57b91c-b7c9-48e5-84e5-f912dc954da4","ios":"levelo://app?vid=1e57b91c-b7c9-48e5-84e5-f912dc954da4"},"vehicle_type_id":"4","last_reported":1717715403,"current_range_meters":30000,"station_id":"ce4bgt12rcd13ifvqce0","pricing_plan_id":"cebpf4jnsgd1na2vs0mg"},{"bike_id":"8d41e16f-651e-4fcd-aa25-1bc59456f325","system_id":"levelo_inurba_marseille","lat":43.308012,"lon":5.381511,"is_reserved":false,"is_disabled":false,"rental_uris":{"android":"levelo://app?vid=8d41e16f-651e-4fcd-aa25-1bc59456f325","ios":"levelo://app?vid=8d41e16f-651e-4fcd-aa25-1bc59456f325"},"vehicle_type_id":"4","last_reported":1717715403,"current_range_meters":12000,"station_id":"ce4bgt12rcd13ifvqce0","pricing_plan_id":"cebpf4jnsgd1na2vs0mg"},{"bike_id":"ad9e2c59-6ff0-4363-9582-9d74c60470d9","system_id":"levelo_inurba_marseille","lat":43.308012,"lon":5.381511,"is_reserved":false,"is_disabled":false,"rental_uris":{"android":"levelo://app?vid=ad9e2c59-6ff0-4363-9582-9d74c60470d9","ios":"levelo://app?vid=ad9e2c59-6ff0-4363-9582-9d74c60470d9"},"vehicle_type_id":"4","last_reported":1717715403,"current_range_meters":7200,"station_id":"ce4bgt12rcd13ifvqce0","pricing_plan_id":"cebpf4jnsgd1na2vs0mg"},{"bike_id":"5b761bab-9583-436c-994f-e1ac203f7007","system_id":"levelo_inurba_marseille","lat":43.308012,"lon":5.381511,"is_reserved":false,"is_disabled":false,"rental_uris":{"android":"levelo://app?vid=5b761bab-9583-436c-994f-e1ac203f7007","ios":"levelo://app?vid=5b761bab-9583-436c-994f-e1ac203f7007"},"vehicle_type_id":"4","last_reported":1717715403,"current_range_meters":21600,"station_id":"ce4bgt12rcd13ifvqce0","pricing_plan_id":"cebpf4jnsgd1na2vs0mg"},{"bike_id":"34e19a0d-5504-49cc-b964-434791f210a6","system_id":"levelo_inurba_marseille","lat":43.308012,"lon":5.381511,"is_reserved":false,"is_disabled":false,"rental_uris":{"android":"levelo://app?vid=34e19a0d-5504-49cc-b964-434791f210a6","ios":"levelo://app?vid=34e19a0d-5504-49cc-b964-434791f210a6"},"vehicle_type_id":"4","last_reported":1717715403,"current_range_meters":16800,"station_id":"ce4bgt12rcd13ifvqce0","pricing_plan_id":"cebpf4jnsgd1na2vs0mg"},{"bike_id":"0b2cdd66-8165-4a08-b0f5-c0e74321be07","system_id":"levelo_inurba_marseille","lat":43.308012,"lon":5.381511,"is_reserved":false,"is_disabled":false,"rental_uris":{"android":"levelo://app?vid=0b2cdd66-8165-4a08-b0f5-c0e74321be07","ios":"levelo://app?vid=0b2cdd66-8165-4a08-b0f5-c0e74321be07"},"vehicle_type_id":"4","last_reported":1717715403,"current_range_meters":17200,"station_id":"ce4bgt12rcd13ifvqce0","pricing_plan_id":"cebpf4jnsgd1na2vs0mg"},{"bike_id":"0840f740-4875-47d4-b2d7-305444e6ed5b","system_id":"levelo_inurba_marseille","lat":43.308012,"lon":5.381511,"is_reserved":false,"is_disabled":false,"rental_uris":{"android":"levelo://app?vid=0840f740-4875-47d4-b2d7-305444e6ed5b","ios":"levelo://app?vid=0840f740-4875-47d4-b2d7-305444e6ed5b"},"vehicle_type_id":"4","last_reported":1717715403,"current_range_meters":27200,"station_id":"ce4bgt12rcd13ifvqce0","pricing_plan_id":"cebpf4jnsgd1na2vs0mg"},{"bike_id":"c4f89d32-2b3d-45a1-b3f7-2c758a721225","system_id":"levelo_inurba_marseille","lat":43.308012,"lon":5.381511,"is_reserved":false,"is_disabled":false,"rental_uris":{"android":"levelo://app?vid=c4f89d32-2b3d-45a1-b3f7-2c758a721225","ios":"levelo://app?vid=c4f89d32-2b3d-45a1-b3f7-2c758a721225"},"vehicle_type_id":"4","last_reported":1717715403,"current_range_meters":31200,"station_id":"ce4bgt12rcd13ifvqce0","pricing_plan_id":"cebpf4jnsgd1na2vs0mg"},{"bike_id":"3298f425-7292-4827-bece-1a2fbed1ad85","system_id":"levelo_inurba_marseille","lat":43.308012,"lon":5.381511,"is_reserved":false,"is_disabled":false,"rental_uris":{"android":"levelo://app?vid=3298f425-7292-4827-bece-1a2fbed1ad85","ios":"levelo://app?vid=3298f425-7292-4827-bece-1a2fbed1ad85"},"vehicle_type_id":"4","last_reported":1717715403,"current_range_meters":6000,"station_id":"ce4bgt12rcd13ifvqce0","pricing_plan_id":"cebpf4jnsgd1na2vs0mg"},{"bike_id":"65ad21de-f647-490e-a53c-6bb3b2339424","system_id":"levelo_inurba_marseille","lat":43.324771,"lon":5.36557,"is_reserved":false,"is_disabled":false,"rental_uris":{"android":"levelo://app?vid=65ad21de-f647-490e-a53c-6bb3b2339424","ios":"levelo://app?vid=65ad21de-f647-490e-a53c-6bb3b2339424"},"vehicle_type_id":"4","last_reported":1717715403,"current_range_meters":0,"station_id":"ce4bhs12rcd13ifvqhvg","pricing_plan_id":"cebpf4jnsgd1na2vs0mg"},{"bike_id":"44909558-9a5c-41b5-858f-7d4cc8905f6a","system_id":"levelo_inurba_marseille","lat":43.324771,"lon":5.36557,"is_reserved":false,"is_disabled":false,"rental_uris":{"android":"levelo://app?vid=44909558-9a5c-41b5-858f-7d4cc8905f6a","ios":"levelo://app?vid=44909558-9a5c-41b5-858f-7d4cc8905f6a"},"vehicle_type_id":"4","last_reported":1717715403,"current_range_meters":400,"station_id":"ce4bhs12rcd13ifvqhvg","pricing_plan_id":"cebpf4jnsgd1na2vs0mg"},{"bike_id":"303b73df-2015-4b88-bcc1-f0dcf0e38e9b","system_id":"levelo_inurba_marseille","lat":43.324843,"lon":5.365647,"is_reserved":false,"is_disabled":false,"rental_uris":{"android":"levelo://app?vid=303b73df-2015-4b88-bcc1-f0dcf0e38e9b","ios":"levelo://app?vid=303b73df-2015-4b88-bcc1-f0dcf0e38e9b"},"vehicle_type_id":"4","last_reported":1717715403,"current_range_meters":23600,"station_id":"ce4bhs12rcd13ifvqhvg","pricing_plan_id":"cebpf4jnsgd1na2vs0mg"},{"bike_id":"4bc35435-0871-476f-9c9c-5e8dccb6763c","system_id":"levelo_inurba_marseille","lat":43.310711,"lon":5.383464,"is_reserved":false,"is_disabled":false,"rental_uris":{"android":"levelo://app?vid=4bc35435-0871-476f-9c9c-5e8dccb6763c","ios":"levelo://app?vid=4bc35435-0871-476f-9c9c-5e8dccb6763c"},"vehicle_type_id":"4","last_reported":1717715403,"current_range_meters":28800,"station_id":"ce4bgv92rcd13ifvqcr0","pricing_plan_id":"cebpf4jnsgd1na2vs0mg"},{"bike_id":"28d9add8-2ca3-4835-89ba-a69cafa74d57","system_id":"levelo_inurba_marseille","lat":43.302784,"lon":5.377158,"is_reserved":false,"is_disabled":false,"rental_uris":{"android":"levelo://app?vid=28d9add8-2ca3-4835-89ba-a69cafa74d57","ios":"levelo://app?vid=28d9add8-2ca3-4835-89ba-a69cafa74d57"},"vehicle_type_id":"4","last_reported":1717715403,"current_range_meters":29200,"station_id":"ce4bguh2rcd13ifvqcj0","pricing_plan_id":"cebpf4jnsgd1na2vs0mg"},{"bike_id":"76be1377-fcc1-43ff-963e-149d19130194","system_id":"levelo_inurba_marseille","lat":43.301429,"lon":5.37413,"is_reserved":false,"is_disabled":false,"rental_uris":{"android":"levelo://app?vid=76be1377-fcc1-43ff-963e-149d19130194","ios":"levelo://app?vid=76be1377-fcc1-43ff-963e-149d19130194"},"vehicle_type_id":"4","last_reported":1717715403,"current_range_meters":27200,"station_id":"ce4bgs92rcd13ifvqcc0","pricing_plan_id":"cebpf4jnsgd1na2vs0mg"},{"bike_id":"4ec9beee-85d2-4c69-8bc3-2582b70404c6","system_id":"levelo_inurba_marseille","lat":43.302784,"lon":5.377158,"is_reserved":false,"is_disabled":false,"rental_uris":{"android":"levelo://app?vid=4ec9beee-85d2-4c69-8bc3-2582b70404c6","ios":"levelo://app?vid=4ec9beee-85d2-4c69-8bc3-2582b70404c6"},"vehicle_type_id":"4","last_reported":1717715403,"current_range_meters":29200,"station_id":"ce4bguh2rcd13ifvqcj0","pricing_plan_id":"cebpf4jnsgd1na2vs0mg"},{"bike_id":"e09c7e7b-5464-4fa2-ba7b-5e9cb15fa97d","system_id":"levelo_inurba_marseille","lat":43.301429,"lon":5.37413,"is_reserved":false,"is_disabled":false,"rental_uris":{"android":"levelo://app?vid=e09c7e7b-5464-4fa2-ba7b-5e9cb15fa97d","ios":"levelo://app?vid=e09c7e7b-5464-4fa2-ba7b-5e9cb15fa97d"},"vehicle_type_id":"4","last_reported":1717715403,"current_range_meters":30800,"station_id":"ce4bgs92rcd13ifvqcc0","pricing_plan_id":"cebpf4jnsgd1na2vs0mg"},{"bike_id":"14656205-8f49-4fc2-a8d6-cde2f8708e14","system_id":"levelo_inurba_marseille","lat":43.319935,"lon":5.381699,"is_reserved":false,"is_disabled":false,"rental_uris":{"android":"levelo://app?vid=14656205-8f49-4fc2-a8d6-cde2f8708e14","ios":"levelo://app?vid=14656205-8f49-4fc2-a8d6-cde2f8708e14"},"vehicle_type_id":"4","last_reported":1717715403,"current_range_meters":31200,"station_id":"ce4bhr12rcd13ifvqhpg","pricing_plan_id":"cebpf4jnsgd1na2vs0mg"},{"bike_id":"31f0ed2b-3977-425f-90e9-c0d82f0c3433","system_id":"levelo_inurba_marseille","lat":43.319935,"lon":5.381699,"is_reserved":false,"is_disabled":false,"rental_uris":{"android":"levelo://app?vid=31f0ed2b-3977-425f-90e9-c0d82f0c3433","ios":"levelo://app?vid=31f0ed2b-3977-425f-90e9-c0d82f0c3433"},"vehicle_type_id":"4","last_reported":1717715403,"current_range_meters":15600,"station_id":"ce4bhr12rcd13ifvqhpg","pricing_plan_id":"cebpf4jnsgd1na2vs0mg"},{"bike_id":"3d1f89e0-bc89-4795-8728-ba9a6143104f","system_id":"levelo_inurba_marseille","lat":43.31992,"lon":5.38146,"is_reserved":false,"is_disabled":false,"rental_uris":{"android":"levelo://app?vid=3d1f89e0-bc89-4795-8728-ba9a6143104f","ios":"levelo://app?vid=3d1f89e0-bc89-4795-8728-ba9a6143104f"},"vehicle_type_id":"4","last_reported":1717715403,"current_range_meters":30400,"station_id":"ce4bhr12rcd13ifvqhpg","pricing_plan_id":"cebpf4jnsgd1na2vs0mg"},{"bike_id":"3d24971d-47a4-4dc3-a909-8e90c37bdbe2","system_id":"levelo_inurba_marseille","lat":43.319935,"lon":5.381699,"is_reserved":false,"is_disabled":false,"rental_uris":{"android":"levelo://app?vid=3d24971d-47a4-4dc3-a909-8e90c37bdbe2","ios":"levelo://app?vid=3d24971d-47a4-4dc3-a909-8e90c37bdbe2"},"vehicle_type_id":"4","last_reported":1717715403,"current_range_meters":31200,"station_id":"ce4bhr12rcd13ifvqhpg","pricing_plan_id":"cebpf4jnsgd1na2vs0mg"},{"bike_id":"c2048b96-2591-433c-85bf-a5f0f6282aab","system_id":"levelo_inurba_marseille","lat":43.319935,"lon":5.381699,"is_reserved":false,"is_disabled":false,"rental_uris":{"android":"levelo://app?vid=c2048b96-2591-433c-85bf-a5f0f6282aab","ios":"levelo://app?vid=c2048b96-2591-433c-85bf-a5f0f6282aab"},"vehicle_type_id":"4","last_reported":1717715403,"current_range_meters":2400,"station_id":"ce4bhr12rcd13ifvqhpg","pricing_plan_id":"cebpf4jnsgd1na2vs0mg"},{"bike_id":"754911cd-ab35-437e-b422-cd29806e3f00","system_id":"levelo_inurba_marseille","lat":43.31991,"lon":5.381502,"is_reserved":false,"is_disabled":false,"rental_uris":{"android":"levelo://app?vid=754911cd-ab35-437e-b422-cd29806e3f00","ios":"levelo://app?vid=754911cd-ab35-437e-b422-cd29806e3f00"},"vehicle_type_id":"4","last_reported":1717715403,"current_range_meters":28000,"station_id":"ce4bhr12rcd13ifvqhpg","pricing_plan_id":"cebpf4jnsgd1na2vs0mg"},{"bike_id":"02ef42ba-b6b6-4660-9511-dcd5283487f0","system_id":"levelo_inurba_marseille","lat":43.319896,"lon":5.381517,"is_reserved":false,"is_disabled":false,"rental_uris":{"android":"levelo://app?vid=02ef42ba-b6b6-4660-9511-dcd5283487f0","ios":"levelo://app?vid=02ef42ba-b6b6-4660-9511-dcd5283487f0"},"vehicle_type_id":"4","last_reported":1717715403,"current_range_meters":31200,"station_id":"ce4bhr12rcd13ifvqhpg","pricing_plan_id":"cebpf4jnsgd1na2vs0mg"},{"bike_id":"3c25b725-16e7-47e2-8053-ffd319515850","system_id":"levelo_inurba_marseille","lat":43.319935,"lon":5.381699,"is_reserved":false,"is_disabled":false,"rental_uris":{"android":"levelo://app?vid=3c25b725-16e7-47e2-8053-ffd319515850","ios":"levelo://app?vid=3c25b725-16e7-47e2-8053-ffd319515850"},"vehicle_type_id":"4","last_reported":1717715403,"current_range_meters":13600,"station_id":"ce4bhr12rcd13ifvqhpg","pricing_plan_id":"cebpf4jnsgd1na2vs0mg"},{"bike_id":"0848dcff-23b4-4efb-88f8-11b72a57e153","system_id":"levelo_inurba_marseille","lat":43.319935,"lon":5.381699,"is_reserved":false,"is_disabled":false,"rental_uris":{"android":"levelo://app?vid=0848dcff-23b4-4efb-88f8-11b72a57e153","ios":"levelo://app?vid=0848dcff-23b4-4efb-88f8-11b72a57e153"},"vehicle_type_id":"4","last_reported":1717715403,"current_range_meters":7600,"station_id":"ce4bhr12rcd13ifvqhpg","pricing_plan_id":"cebpf4jnsgd1na2vs0mg"},{"bike_id":"ea55f068-be11-4fd9-9446-8418ce713c13","system_id":"levelo_inurba_marseille","lat":43.319935,"lon":5.381699,"is_reserved":false,"is_disabled":false,"rental_uris":{"android":"levelo://app?vid=ea55f068-be11-4fd9-9446-8418ce713c13","ios":"levelo://app?vid=ea55f068-be11-4fd9-9446-8418ce713c13"},"vehicle_type_id":"4","last_reported":1717715403,"current_range_meters":4000,"station_id":"ce4bhr12rcd13ifvqhpg","pricing_plan_id":"cebpf4jnsgd1na2vs0mg"},{"bike_id":"243f6108-70dc-414e-a4ee-ccb8fcf4c8ba","system_id":"levelo_inurba_marseille","lat":43.319935,"lon":5.381699,"is_reserved":false,"is_disabled":false,"rental_uris":{"android":"levelo://app?vid=243f6108-70dc-414e-a4ee-ccb8fcf4c8ba","ios":"levelo://app?vid=243f6108-70dc-414e-a4ee-ccb8fcf4c8ba"},"vehicle_type_id":"4","last_reported":1717715403,"current_range_meters":6400,"station_id":"ce4bhr12rcd13ifvqhpg","pricing_plan_id":"cebpf4jnsgd1na2vs0mg"},{"bike_id":"aa669b2b-2670-484d-a755-afc6cfe0cc90","system_id":"levelo_inurba_marseille","lat":43.319935,"lon":5.381699,"is_reserved":false,"is_disabled":false,"rental_uris":{"android":"levelo://app?vid=aa669b2b-2670-484d-a755-afc6cfe0cc90","ios":"levelo://app?vid=aa669b2b-2670-484d-a755-afc6cfe0cc90"},"vehicle_type_id":"4","last_reported":1717715403,"current_range_meters":29200,"station_id":"ce4bhr12rcd13ifvqhpg","pricing_plan_id":"cebpf4jnsgd1na2vs0mg"},{"bike_id":"511541a8-fef2-4cd1-aab7-9da6bf49a213","system_id":"levelo_inurba_marseille","lat":43.319953,"lon":5.381635,"is_reserved":false,"is_disabled":false,"rental_uris":{"android":"levelo://app?vid=511541a8-fef2-4cd1-aab7-9da6bf49a213","ios":"levelo://app?vid=511541a8-fef2-4cd1-aab7-9da6bf49a213"},"vehicle_type_id":"4","last_reported":1717715403,"current_range_meters":29200,"station_id":"ce4bhr12rcd13ifvqhpg","pricing_plan_id":"cebpf4jnsgd1na2vs0mg"},{"bike_id":"0a0f9e60-e899-462d-b1d0-da98e76a7662","system_id":"levelo_inurba_marseille","lat":43.313571,"lon":5.384829,"is_reserved":false,"is_disabled":false,"rental_uris":{"android":"levelo://app?vid=0a0f9e60-e899-462d-b1d0-da98e76a7662","ios":"levelo://app?vid=0a0f9e60-e899-462d-b1d0-da98e76a7662"},"vehicle_type_id":"4","last_reported":1717715403,"current_range_meters":16000,"station_id":"ce4bgt92rcd13ifvqcf0","pricing_plan_id":"cebpf4jnsgd1na2vs0mg"},{"bike_id":"c20d2a0f-604c-4b7b-8330-da2708dc2acd","system_id":"levelo_inurba_marseille","lat":43.3136,"lon":5.38483,"is_reserved":false,"is_disabled":false,"rental_uris":{"android":"levelo://app?vid=c20d2a0f-604c-4b7b-8330-da2708dc2acd","ios":"levelo://app?vid=c20d2a0f-604c-4b7b-8330-da2708dc2acd"},"vehicle_type_id":"4","last_reported":1717715403,"current_range_meters":18800,"station_id":"ce4bgt92rcd13ifvqcf0","pricing_plan_id":"cebpf4jnsgd1na2vs0mg"},{"bike_id":"8e7c95c5-d5d3-45dd-b669-623c4b0da82b","system_id":"levelo_inurba_marseille","lat":43.313571,"lon":5.384829,"is_reserved":false,"is_disabled":false,"rental_uris":{"android":"levelo://app?vid=8e7c95c5-d5d3-45dd-b669-623c4b0da82b","ios":"levelo://app?vid=8e7c95c5-d5d3-45dd-b669-623c4b0da82b"},"vehicle_type_id":"4","last_reported":1717715403,"current_range_meters":6400,"station_id":"ce4bgt92rcd13ifvqcf0","pricing_plan_id":"cebpf4jnsgd1na2vs0mg"},{"bike_id":"b2722948-b25f-4f90-943e-7711b17f3fd2","system_id":"levelo_inurba_marseille","lat":43.3137,"lon":5.38497,"is_reserved":false,"is_disabled":false,"rental_uris":{"android":"levelo://app?vid=b2722948-b25f-4f90-943e-7711b17f3fd2","ios":"levelo://app?vid=b2722948-b25f-4f90-943e-7711b17f3fd2"},"vehicle_type_id":"4","last_reported":1717715403,"current_range_meters":26400,"station_id":"ce4bgt92rcd13ifvqcf0","pricing_plan_id":"cebpf4jnsgd1na2vs0mg"},{"bike_id":"384bbd60-e87a-4717-9ad7-7789aaad7f18","system_id":"levelo_inurba_marseille","lat":43.299222,"lon":5.365554,"is_reserved":false,"is_disabled":false,"rental_uris":{"android":"levelo://app?vid=384bbd60-e87a-4717-9ad7-7789aaad7f18","ios":"levelo://app?vid=384bbd60-e87a-4717-9ad7-7789aaad7f18"},"vehicle_type_id":"4","last_reported":1717715403,"current_range_meters":23200,"station_id":"ce4bgm92rcd13ifvqbr0","pricing_plan_id":"cebpf4jnsgd1na2vs0mg"},{"bike_id":"d8961675-6116-4e56-9fbd-ead9b191e73f","system_id":"levelo_inurba_marseille","lat":43.299724,"lon":5.371829,"is_reserved":false,"is_disabled":false,"rental_uris":{"android":"levelo://app?vid=d8961675-6116-4e56-9fbd-ead9b191e73f","ios":"levelo://app?vid=d8961675-6116-4e56-9fbd-ead9b191e73f"},"vehicle_type_id":"4","last_reported":1717715403,"current_range_meters":19200,"station_id":"ce4bgr92rcd13ifvqc7g","pricing_plan_id":"cebpf4jnsgd1na2vs0mg"},{"bike_id":"2a88262f-ec86-41b3-b5c7-a893bc1a2ed9","system_id":"levelo_inurba_marseille","lat":43.305364,"lon":5.384119,"is_reserved":false,"is_disabled":false,"rental_uris":{"android":"levelo://app?vid=2a88262f-ec86-41b3-b5c7-a893bc1a2ed9","ios":"levelo://app?vid=2a88262f-ec86-41b3-b5c7-a893bc1a2ed9"},"vehicle_type_id":"4","last_reported":1717715403,"current_range_meters":26000,"station_id":"ce4bgg92rcd13ifvqb30","pricing_plan_id":"cebpf4jnsgd1na2vs0mg"},{"bike_id":"2bec9b7d-d99d-461e-901a-641819ac824b","system_id":"levelo_inurba_marseille","lat":43.305364,"lon":5.384119,"is_reserved":false,"is_disabled":false,"rental_uris":{"android":"levelo://app?vid=2bec9b7d-d99d-461e-901a-641819ac824b","ios":"levelo://app?vid=2bec9b7d-d99d-461e-901a-641819ac824b"},"vehicle_type_id":"4","last_reported":1717715403,"current_range_meters":27600,"station_id":"ce4bgg92rcd13ifvqb30","pricing_plan_id":"cebpf4jnsgd1na2vs0mg"},{"bike_id":"da70b3f5-e78a-40af-aae2-6fba75589ff9","system_id":"levelo_inurba_marseille","lat":43.305364,"lon":5.384119,"is_reserved":false,"is_disabled":false,"rental_uris":{"android":"levelo://app?vid=da70b3f5-e78a-40af-aae2-6fba75589ff9","ios":"levelo://app?vid=da70b3f5-e78a-40af-aae2-6fba75589ff9"},"vehicle_type_id":"4","last_reported":1717715403,"current_range_meters":20800,"station_id":"ce4bgg92rcd13ifvqb30","pricing_plan_id":"cebpf4jnsgd1na2vs0mg"},{"bike_id":"a2cb0cbf-6fb2-478c-adc9-1222f39f6918","system_id":"levelo_inurba_marseille","lat":43.305364,"lon":5.384119,"is_reserved":false,"is_disabled":false,"rental_uris":{"android":"levelo://app?vid=a2cb0cbf-6fb2-478c-adc9-1222f39f6918","ios":"levelo://app?vid=a2cb0cbf-6fb2-478c-adc9-1222f39f6918"},"vehicle_type_id":"4","last_reported":1717715403,"current_range_meters":4800,"station_id":"ce4bgg92rcd13ifvqb30","pricing_plan_id":"cebpf4jnsgd1na2vs0mg"},{"bike_id":"1c362b8f-b5e5-4c1c-a3d1-ec37538b1582","system_id":"levelo_inurba_marseille","lat":43.305364,"lon":5.384119,"is_reserved":false,"is_disabled":false,"rental_uris":{"android":"levelo://app?vid=1c362b8f-b5e5-4c1c-a3d1-ec37538b1582","ios":"levelo://app?vid=1c362b8f-b5e5-4c1c-a3d1-ec37538b1582"},"vehicle_type_id":"4","last_reported":1717715403,"current_range_meters":16000,"station_id":"ce4bgg92rcd13ifvqb30","pricing_plan_id":"cebpf4jnsgd1na2vs0mg"},{"bike_id":"09711468-cee4-4331-9dfc-5e87409a078f","system_id":"levelo_inurba_marseille","lat":43.305364,"lon":5.384119,"is_reserved":false,"is_disabled":false,"rental_uris":{"android":"levelo://app?vid=09711468-cee4-4331-9dfc-5e87409a078f","ios":"levelo://app?vid=09711468-cee4-4331-9dfc-5e87409a078f"},"vehicle_type_id":"4","last_reported":1717715403,"current_range_meters":24400,"station_id":"ce4bgg92rcd13ifvqb30","pricing_plan_id":"cebpf4jnsgd1na2vs0mg"},{"bike_id":"cd2ea8a5-be74-45f5-b8d7-dad7eb71c88b","system_id":"levelo_inurba_marseille","lat":43.305364,"lon":5.384119,"is_reserved":false,"is_disabled":false,"rental_uris":{"android":"levelo://app?vid=cd2ea8a5-be74-45f5-b8d7-dad7eb71c88b","ios":"levelo://app?vid=cd2ea8a5-be74-45f5-b8d7-dad7eb71c88b"},"vehicle_type_id":"4","last_reported":1717715403,"current_range_meters":8400,"station_id":"ce4bgg92rcd13ifvqb30","pricing_plan_id":"cebpf4jnsgd1na2vs0mg"},{"bike_id":"657ad35e-0d31-46f0-80e1-2d8a97724cde","system_id":"levelo_inurba_marseille","lat":43.3054,"lon":5.38438,"is_reserved":false,"is_disabled":false,"rental_uris":{"android":"levelo://app?vid=657ad35e-0d31-46f0-80e1-2d8a97724cde","ios":"levelo://app?vid=657ad35e-0d31-46f0-80e1-2d8a97724cde"},"vehicle_type_id":"4","last_reported":1717715403,"current_range_meters":15200,"station_id":"ce4bgg92rcd13ifvqb30","pricing_plan_id":"cebpf4jnsgd1na2vs0mg"},{"bike_id":"758469bd-721e-45ac-9861-b07e2c3dbeb4","system_id":"levelo_inurba_marseille","lat":43.31181,"lon":5.38707,"is_reserved":false,"is_disabled":false,"rental_uris":{"android":"levelo://app?vid=758469bd-721e-45ac-9861-b07e2c3dbeb4","ios":"levelo://app?vid=758469bd-721e-45ac-9861-b07e2c3dbeb4"},"vehicle_type_id":"4","last_reported":1717715403,"current_range_meters":13200,"station_id":"ce4bgv12rcd13ifvqcp0","pricing_plan_id":"cebpf4jnsgd1na2vs0mg"},{"bike_id":"d41e71b1-b2b2-4892-a8e5-7f0ed1b1c361","system_id":"levelo_inurba_marseille","lat":43.311722,"lon":5.387247,"is_reserved":false,"is_disabled":false,"rental_uris":{"android":"levelo://app?vid=d41e71b1-b2b2-4892-a8e5-7f0ed1b1c361","ios":"levelo://app?vid=d41e71b1-b2b2-4892-a8e5-7f0ed1b1c361"},"vehicle_type_id":"4","last_reported":1717715403,"current_range_meters":20800,"station_id":"ce4bgv12rcd13ifvqcp0","pricing_plan_id":"cebpf4jnsgd1na2vs0mg"},{"bike_id":"23f7d586-dbc2-48e8-b500-0e7921230d53","system_id":"levelo_inurba_marseille","lat":43.2999,"lon":5.378185,"is_reserved":false,"is_disabled":false,"rental_uris":{"android":"levelo://app?vid=23f7d586-dbc2-48e8-b500-0e7921230d53","ios":"levelo://app?vid=23f7d586-dbc2-48e8-b500-0e7921230d53"},"vehicle_type_id":"4","last_reported":1717715403,"current_range_meters":4000,"station_id":"","pricing_plan_id":"cebpf4jnsgd1na2vs0mg"},{"bike_id":"88f46b03-1fbf-418d-8062-bce63215c58a","system_id":"levelo_inurba_marseille","lat":43.32286,"lon":5.382613,"is_reserved":false,"is_disabled":false,"rental_uris":{"android":"levelo://app?vid=88f46b03-1fbf-418d-8062-bce63215c58a","ios":"levelo://app?vid=88f46b03-1fbf-418d-8062-bce63215c58a"},"vehicle_type_id":"4","last_reported":1717715403,"current_range_meters":28400,"station_id":"ce4bhr12rcd13ifvqhqg","pricing_plan_id":"cebpf4jnsgd1na2vs0mg"},{"bike_id":"fbac4e32-df3e-47a6-906f-f55b105eb4c7","system_id":"levelo_inurba_marseille","lat":43.3229,"lon":5.38272,"is_reserved":false,"is_disabled":false,"rental_uris":{"android":"levelo://app?vid=fbac4e32-df3e-47a6-906f-f55b105eb4c7","ios":"levelo://app?vid=fbac4e32-df3e-47a6-906f-f55b105eb4c7"},"vehicle_type_id":"4","last_reported":1717715403,"current_range_meters":0,"station_id":"ce4bhr12rcd13ifvqhqg","pricing_plan_id":"cebpf4jnsgd1na2vs0mg"},{"bike_id":"491ac8bd-89a4-4aa1-8d8a-708e6fdf50e8","system_id":"levelo_inurba_marseille","lat":43.32291,"lon":5.38275,"is_reserved":false,"is_disabled":false,"rental_uris":{"android":"levelo://app?vid=491ac8bd-89a4-4aa1-8d8a-708e6fdf50e8","ios":"levelo://app?vid=491ac8bd-89a4-4aa1-8d8a-708e6fdf50e8"},"vehicle_type_id":"4","last_reported":1717715403,"current_range_meters":15200,"station_id":"ce4bhr12rcd13ifvqhqg","pricing_plan_id":"cebpf4jnsgd1na2vs0mg"},{"bike_id":"d05070e6-69d1-4259-a68e-d422b88c22d7","system_id":"levelo_inurba_marseille","lat":43.322862,"lon":5.38282,"is_reserved":false,"is_disabled":false,"rental_uris":{"android":"levelo://app?vid=d05070e6-69d1-4259-a68e-d422b88c22d7","ios":"levelo://app?vid=d05070e6-69d1-4259-a68e-d422b88c22d7"},"vehicle_type_id":"4","last_reported":1717715403,"current_range_meters":25200,"station_id":"ce4bhr12rcd13ifvqhqg","pricing_plan_id":"cebpf4jnsgd1na2vs0mg"},{"bike_id":"d5f00d36-a789-4d09-a41a-21648cdbf6b8","system_id":"levelo_inurba_marseille","lat":43.297563,"lon":5.37144,"is_reserved":false,"is_disabled":false,"rental_uris":{"android":"levelo://app?vid=d5f00d36-a789-4d09-a41a-21648cdbf6b8","ios":"levelo://app?vid=d5f00d36-a789-4d09-a41a-21648cdbf6b8"},"vehicle_type_id":"4","last_reported":1717715403,"current_range_meters":3600,"station_id":"ce4bgop2rcd13ifvqc1g","pricing_plan_id":"cebpf4jnsgd1na2vs0mg"},{"bike_id":"299b876e-7567-4db4-98b6-cae867dd4ca6","system_id":"levelo_inurba_marseille","lat":43.309371,"lon":5.401449,"is_reserved":false,"is_disabled":false,"rental_uris":{"android":"levelo://app?vid=299b876e-7567-4db4-98b6-cae867dd4ca6","ios":"levelo://app?vid=299b876e-7567-4db4-98b6-cae867dd4ca6"},"vehicle_type_id":"4","last_reported":1717715403,"current_range_meters":7600,"station_id":"ce4bgvp2rcd13ifvqct0","pricing_plan_id":"cebpf4jnsgd1na2vs0mg"},{"bike_id":"0630808b-b6d9-4138-8f3d-e0a6375eb3c1","system_id":"levelo_inurba_marseille","lat":43.321635,"lon":5.38673,"is_reserved":false,"is_disabled":false,"rental_uris":{"android":"levelo://app?vid=0630808b-b6d9-4138-8f3d-e0a6375eb3c1","ios":"levelo://app?vid=0630808b-b6d9-4138-8f3d-e0a6375eb3c1"},"vehicle_type_id":"4","last_reported":1717715403,"current_range_meters":6800,"station_id":"","pricing_plan_id":"cebpf4jnsgd1na2vs0mg"},{"bike_id":"f93b8ba5-5811-47d8-a29a-6f3c65b370bb","system_id":"levelo_inurba_marseille","lat":43.296131,"lon":5.370791,"is_reserved":false,"is_disabled":false,"rental_uris":{"android":"levelo://app?vid=f93b8ba5-5811-47d8-a29a-6f3c65b370bb","ios":"levelo://app?vid=f93b8ba5-5811-47d8-a29a-6f3c65b370bb"},"vehicle_type_id":"4","last_reported":1717715403,"current_range_meters":11600,"station_id":"ce4bgnh2rcd13ifvqc0g","pricing_plan_id":"cebpf4jnsgd1na2vs0mg"},{"bike_id":"e0022a38-31e8-4dfe-8f41-d1871468555c","system_id":"levelo_inurba_marseille","lat":43.317557,"lon":5.390173,"is_reserved":false,"is_disabled":false,"rental_uris":{"android":"levelo://app?vid=e0022a38-31e8-4dfe-8f41-d1871468555c","ios":"levelo://app?vid=e0022a38-31e8-4dfe-8f41-d1871468555c"},"vehicle_type_id":"4","last_reported":1717715403,"current_range_meters":23600,"station_id":"ce4bhqp2rcd13ifvqhng","pricing_plan_id":"cebpf4jnsgd1na2vs0mg"},{"bike_id":"1ea4c1cc-0b40-4114-9e1f-82af17fb5aa8","system_id":"levelo_inurba_marseille","lat":43.317557,"lon":5.390173,"is_reserved":false,"is_disabled":false,"rental_uris":{"android":"levelo://app?vid=1ea4c1cc-0b40-4114-9e1f-82af17fb5aa8","ios":"levelo://app?vid=1ea4c1cc-0b40-4114-9e1f-82af17fb5aa8"},"vehicle_type_id":"4","last_reported":1717715403,"current_range_meters":28800,"station_id":"ce4bhqp2rcd13ifvqhng","pricing_plan_id":"cebpf4jnsgd1na2vs0mg"},{"bike_id":"0c3badd7-8424-43c2-b49e-9fba180aabb3","system_id":"levelo_inurba_marseille","lat":43.298037,"lon":5.381066,"is_reserved":false,"is_disabled":false,"rental_uris":{"android":"levelo://app?vid=0c3badd7-8424-43c2-b49e-9fba180aabb3","ios":"levelo://app?vid=0c3badd7-8424-43c2-b49e-9fba180aabb3"},"vehicle_type_id":"4","last_reported":1717715403,"current_range_meters":30000,"station_id":"ce4bgip2rcd13ifvqbb0","pricing_plan_id":"cebpf4jnsgd1na2vs0mg"},{"bike_id":"bbb8e8c1-18bc-48a6-8d0f-723a5cd3c021","system_id":"levelo_inurba_marseille","lat":43.299028,"lon":5.381509,"is_reserved":false,"is_disabled":false,"rental_uris":{"android":"levelo://app?vid=bbb8e8c1-18bc-48a6-8d0f-723a5cd3c021","ios":"levelo://app?vid=bbb8e8c1-18bc-48a6-8d0f-723a5cd3c021"},"vehicle_type_id":"4","last_reported":1717715403,"current_range_meters":16400,"station_id":"ce4bgj12rcd13ifvqbc0","pricing_plan_id":"cebpf4jnsgd1na2vs0mg"},{"bike_id":"af1897b9-0b95-417f-a0ec-7578ded11c38","system_id":"levelo_inurba_marseille","lat":43.299707,"lon":5.384859,"is_reserved":false,"is_disabled":false,"rental_uris":{"android":"levelo://app?vid=af1897b9-0b95-417f-a0ec-7578ded11c38","ios":"levelo://app?vid=af1897b9-0b95-417f-a0ec-7578ded11c38"},"vehicle_type_id":"4","last_reported":1717715403,"current_range_meters":26000,"station_id":"ce4bgj92rcd13ifvqbd0","pricing_plan_id":"cebpf4jnsgd1na2vs0mg"},{"bike_id":"b232aa49-2cb0-4e94-b42f-7bc8f5875e84","system_id":"levelo_inurba_marseille","lat":43.29966,"lon":5.38487,"is_reserved":false,"is_disabled":false,"rental_uris":{"android":"levelo://app?vid=b232aa49-2cb0-4e94-b42f-7bc8f5875e84","ios":"levelo://app?vid=b232aa49-2cb0-4e94-b42f-7bc8f5875e84"},"vehicle_type_id":"4","last_reported":1717715403,"current_range_meters":26000,"station_id":"ce4bgj92rcd13ifvqbd0","pricing_plan_id":"cebpf4jnsgd1na2vs0mg"},{"bike_id":"dedc5f05-2526-4fee-97c4-80a8f71106d0","system_id":"levelo_inurba_marseille","lat":43.299724,"lon":5.384848,"is_reserved":false,"is_disabled":false,"rental_uris":{"android":"levelo://app?vid=dedc5f05-2526-4fee-97c4-80a8f71106d0","ios":"levelo://app?vid=dedc5f05-2526-4fee-97c4-80a8f71106d0"},"vehicle_type_id":"4","last_reported":1717715403,"current_range_meters":7200,"station_id":"ce4bgj92rcd13ifvqbd0","pricing_plan_id":"cebpf4jnsgd1na2vs0mg"},{"bike_id":"140bf91a-95f0-4072-93d7-54f0344ac2cb","system_id":"levelo_inurba_marseille","lat":43.297211,"lon":5.382452,"is_reserved":false,"is_disabled":false,"rental_uris":{"android":"levelo://app?vid=140bf91a-95f0-4072-93d7-54f0344ac2cb","ios":"levelo://app?vid=140bf91a-95f0-4072-93d7-54f0344ac2cb"},"vehicle_type_id":"4","last_reported":1717715403,"current_range_meters":12400,"station_id":"","pricing_plan_id":"cebpf4jnsgd1na2vs0mg"},{"bike_id":"a84d165e-54d8-4240-a2c8-ccec58639dc7","system_id":"levelo_inurba_marseille","lat":43.32367,"lon":5.388836,"is_reserved":false,"is_disabled":false,"rental_uris":{"android":"levelo://app?vid=a84d165e-54d8-4240-a2c8-ccec58639dc7","ios":"levelo://app?vid=a84d165e-54d8-4240-a2c8-ccec58639dc7"},"vehicle_type_id":"4","last_reported":1717715403,"current_range_meters":7200,"station_id":"ce4bhqp2rcd13ifvqhog","pricing_plan_id":"cebpf4jnsgd1na2vs0mg"},{"bike_id":"e2c17405-9b0b-4dba-aac3-407a8c793d2d","system_id":"levelo_inurba_marseille","lat":43.32364,"lon":5.38885,"is_reserved":false,"is_disabled":false,"rental_uris":{"android":"levelo://app?vid=e2c17405-9b0b-4dba-aac3-407a8c793d2d","ios":"levelo://app?vid=e2c17405-9b0b-4dba-aac3-407a8c793d2d"},"vehicle_type_id":"4","last_reported":1717715403,"current_range_meters":0,"station_id":"ce4bhqp2rcd13ifvqhog","pricing_plan_id":"cebpf4jnsgd1na2vs0mg"},{"bike_id":"d5f88923-77bd-4708-baed-75b019b94e23","system_id":"levelo_inurba_marseille","lat":43.32366,"lon":5.38885,"is_reserved":false,"is_disabled":false,"rental_uris":{"android":"levelo://app?vid=d5f88923-77bd-4708-baed-75b019b94e23","ios":"levelo://app?vid=d5f88923-77bd-4708-baed-75b019b94e23"},"vehicle_type_id":"4","last_reported":1717715403,"current_range_meters":4800,"station_id":"ce4bhqp2rcd13ifvqhog","pricing_plan_id":"cebpf4jnsgd1na2vs0mg"},{"bike_id":"1d431262-5c97-4bac-85c9-2d4689fa9eb6","system_id":"levelo_inurba_marseille","lat":43.32367,"lon":5.388836,"is_reserved":false,"is_disabled":false,"rental_uris":{"android":"levelo://app?vid=1d431262-5c97-4bac-85c9-2d4689fa9eb6","ios":"levelo://app?vid=1d431262-5c97-4bac-85c9-2d4689fa9eb6"},"vehicle_type_id":"4","last_reported":1717715403,"current_range_meters":5200,"station_id":"ce4bhqp2rcd13ifvqhog","pricing_plan_id":"cebpf4jnsgd1na2vs0mg"},{"bike_id":"1d17a19b-99bd-48dd-b035-6621cf88dda4","system_id":"levelo_inurba_marseille","lat":43.32367,"lon":5.38886,"is_reserved":false,"is_disabled":false,"rental_uris":{"android":"levelo://app?vid=1d17a19b-99bd-48dd-b035-6621cf88dda4","ios":"levelo://app?vid=1d17a19b-99bd-48dd-b035-6621cf88dda4"},"vehicle_type_id":"4","last_reported":1717715403,"current_range_meters":0,"station_id":"ce4bhqp2rcd13ifvqhog","pricing_plan_id":"cebpf4jnsgd1na2vs0mg"},{"bike_id":"18e2a8bf-9bb9-4a75-9a28-14556db92131","system_id":"levelo_inurba_marseille","lat":43.32367,"lon":5.388836,"is_reserved":false,"is_disabled":false,"rental_uris":{"android":"levelo://app?vid=18e2a8bf-9bb9-4a75-9a28-14556db92131","ios":"levelo://app?vid=18e2a8bf-9bb9-4a75-9a28-14556db92131"},"vehicle_type_id":"4","last_reported":1717715403,"current_range_meters":0,"station_id":"ce4bhqp2rcd13ifvqhog","pricing_plan_id":"cebpf4jnsgd1na2vs0mg"},{"bike_id":"6408808f-1d77-4036-899e-9ab7f7fbd8c6","system_id":"levelo_inurba_marseille","lat":43.29602,"lon":5.381084,"is_reserved":false,"is_disabled":false,"rental_uris":{"android":"levelo://app?vid=6408808f-1d77-4036-899e-9ab7f7fbd8c6","ios":"levelo://app?vid=6408808f-1d77-4036-899e-9ab7f7fbd8c6"},"vehicle_type_id":"4","last_reported":1717715403,"current_range_meters":2800,"station_id":"ce4bgl12rcd13ifvqbo0","pricing_plan_id":"cebpf4jnsgd1na2vs0mg"},{"bike_id":"b6ddac8b-5661-4ce5-a22c-a20876831a10","system_id":"levelo_inurba_marseille","lat":43.29602,"lon":5.381084,"is_reserved":false,"is_disabled":false,"rental_uris":{"android":"levelo://app?vid=b6ddac8b-5661-4ce5-a22c-a20876831a10","ios":"levelo://app?vid=b6ddac8b-5661-4ce5-a22c-a20876831a10"},"vehicle_type_id":"4","last_reported":1717715403,"current_range_meters":28000,"station_id":"ce4bgl12rcd13ifvqbo0","pricing_plan_id":"cebpf4jnsgd1na2vs0mg"},{"bike_id":"9f96f2ec-8eb3-4cba-a729-ff28ba7372b5","system_id":"levelo_inurba_marseille","lat":43.292749,"lon":5.368398,"is_reserved":false,"is_disabled":false,"rental_uris":{"android":"levelo://app?vid=9f96f2ec-8eb3-4cba-a729-ff28ba7372b5","ios":"levelo://app?vid=9f96f2ec-8eb3-4cba-a729-ff28ba7372b5"},"vehicle_type_id":"4","last_reported":1717715403,"current_range_meters":30000,"station_id":"ce4bhbp2rcd13ifvqesg","pricing_plan_id":"cebpf4jnsgd1na2vs0mg"},{"bike_id":"b4b52e9c-3448-4fc5-a5c7-ad9e19c45c81","system_id":"levelo_inurba_marseille","lat":43.292749,"lon":5.368398,"is_reserved":false,"is_disabled":false,"rental_uris":{"android":"levelo://app?vid=b4b52e9c-3448-4fc5-a5c7-ad9e19c45c81","ios":"levelo://app?vid=b4b52e9c-3448-4fc5-a5c7-ad9e19c45c81"},"vehicle_type_id":"4","last_reported":1717715403,"current_range_meters":10800,"station_id":"ce4bhbp2rcd13ifvqesg","pricing_plan_id":"cebpf4jnsgd1na2vs0mg"},{"bike_id":"39ea9db6-af30-441c-9772-f81d74d6cdf1","system_id":"levelo_inurba_marseille","lat":43.292749,"lon":5.368402,"is_reserved":false,"is_disabled":false,"rental_uris":{"android":"levelo://app?vid=39ea9db6-af30-441c-9772-f81d74d6cdf1","ios":"levelo://app?vid=39ea9db6-af30-441c-9772-f81d74d6cdf1"},"vehicle_type_id":"4","last_reported":1717715403,"current_range_meters":30000,"station_id":"ce4bhbp2rcd13ifvqesg","pricing_plan_id":"cebpf4jnsgd1na2vs0mg"},{"bike_id":"1010c5d8-2a11-4018-91cb-7cd777681f7d","system_id":"levelo_inurba_marseille","lat":43.293009,"lon":5.374584,"is_reserved":false,"is_disabled":false,"rental_uris":{"android":"levelo://app?vid=1010c5d8-2a11-4018-91cb-7cd777681f7d","ios":"levelo://app?vid=1010c5d8-2a11-4018-91cb-7cd777681f7d"},"vehicle_type_id":"4","last_reported":1717715403,"current_range_meters":25600,"station_id":"ce4bgi12rcd13ifvqb70","pricing_plan_id":"cebpf4jnsgd1na2vs0mg"},{"bike_id":"0c5c49a5-26dd-479c-ab1d-0bd2bd968371","system_id":"levelo_inurba_marseille","lat":43.293009,"lon":5.374584,"is_reserved":false,"is_disabled":false,"rental_uris":{"android":"levelo://app?vid=0c5c49a5-26dd-479c-ab1d-0bd2bd968371","ios":"levelo://app?vid=0c5c49a5-26dd-479c-ab1d-0bd2bd968371"},"vehicle_type_id":"4","last_reported":1717715403,"current_range_meters":0,"station_id":"ce4bgi12rcd13ifvqb70","pricing_plan_id":"cebpf4jnsgd1na2vs0mg"},{"bike_id":"e54bce1a-9ae7-487d-95a8-31a0daa115ec","system_id":"levelo_inurba_marseille","lat":43.293009,"lon":5.374584,"is_reserved":false,"is_disabled":false,"rental_uris":{"android":"levelo://app?vid=e54bce1a-9ae7-487d-95a8-31a0daa115ec","ios":"levelo://app?vid=e54bce1a-9ae7-487d-95a8-31a0daa115ec"},"vehicle_type_id":"4","last_reported":1717715403,"current_range_meters":800,"station_id":"ce4bgi12rcd13ifvqb70","pricing_plan_id":"cebpf4jnsgd1na2vs0mg"},{"bike_id":"19b797f9-61fa-4322-bace-a5ebe8f6de55","system_id":"levelo_inurba_marseille","lat":43.303036,"lon":5.392151,"is_reserved":false,"is_disabled":false,"rental_uris":{"android":"levelo://app?vid=19b797f9-61fa-4322-bace-a5ebe8f6de55","ios":"levelo://app?vid=19b797f9-61fa-4322-bace-a5ebe8f6de55"},"vehicle_type_id":"4","last_reported":1717715403,"current_range_meters":14400,"station_id":"ce4bgkh2rcd13ifvqbk0","pricing_plan_id":"cebpf4jnsgd1na2vs0mg"},{"bike_id":"6224aedf-3fbc-4985-9c87-92f5629c6705","system_id":"levelo_inurba_marseille","lat":43.300943,"lon":5.390665,"is_reserved":false,"is_disabled":false,"rental_uris":{"android":"levelo://app?vid=6224aedf-3fbc-4985-9c87-92f5629c6705","ios":"levelo://app?vid=6224aedf-3fbc-4985-9c87-92f5629c6705"},"vehicle_type_id":"4","last_reported":1717715403,"current_range_meters":20000,"station_id":"ce4bh192rcd13ifvqdb0","pricing_plan_id":"cebpf4jnsgd1na2vs0mg"},{"bike_id":"b9a2baca-611a-4cb1-ba4a-fe0ac22fc854","system_id":"levelo_inurba_marseille","lat":43.30085,"lon":5.390856,"is_reserved":false,"is_disabled":false,"rental_uris":{"android":"levelo://app?vid=b9a2baca-611a-4cb1-ba4a-fe0ac22fc854","ios":"levelo://app?vid=b9a2baca-611a-4cb1-ba4a-fe0ac22fc854"},"vehicle_type_id":"4","last_reported":1717715403,"current_range_meters":24400,"station_id":"ce4bh192rcd13ifvqdb0","pricing_plan_id":"cebpf4jnsgd1na2vs0mg"},{"bike_id":"e2f3307d-8d64-40e5-8e85-ebad7f8487a9","system_id":"levelo_inurba_marseille","lat":43.300968,"lon":5.390804,"is_reserved":false,"is_disabled":false,"rental_uris":{"android":"levelo://app?vid=e2f3307d-8d64-40e5-8e85-ebad7f8487a9","ios":"levelo://app?vid=e2f3307d-8d64-40e5-8e85-ebad7f8487a9"},"vehicle_type_id":"4","last_reported":1717715403,"current_range_meters":11200,"station_id":"ce4bh192rcd13ifvqdb0","pricing_plan_id":"cebpf4jnsgd1na2vs0mg"},{"bike_id":"f4bc127b-7ab2-45e6-940f-56f17441ff1b","system_id":"levelo_inurba_marseille","lat":43.30095,"lon":5.39079,"is_reserved":false,"is_disabled":false,"rental_uris":{"android":"levelo://app?vid=f4bc127b-7ab2-45e6-940f-56f17441ff1b","ios":"levelo://app?vid=f4bc127b-7ab2-45e6-940f-56f17441ff1b"},"vehicle_type_id":"4","last_reported":1717715403,"current_range_meters":10000,"station_id":"ce4bh192rcd13ifvqdb0","pricing_plan_id":"cebpf4jnsgd1na2vs0mg"},{"bike_id":"ce309dd4-2e42-4209-835f-ac96d6436457","system_id":"levelo_inurba_marseille","lat":43.30085,"lon":5.390856,"is_reserved":false,"is_disabled":false,"rental_uris":{"android":"levelo://app?vid=ce309dd4-2e42-4209-835f-ac96d6436457","ios":"levelo://app?vid=ce309dd4-2e42-4209-835f-ac96d6436457"},"vehicle_type_id":"4","last_reported":1717715403,"current_range_meters":27200,"station_id":"ce4bh192rcd13ifvqdb0","pricing_plan_id":"cebpf4jnsgd1na2vs0mg"},{"bike_id":"6cceabfb-4eec-41b8-8e46-4cbb5a8a5506","system_id":"levelo_inurba_marseille","lat":43.29225,"lon":5.3605,"is_reserved":false,"is_disabled":false,"rental_uris":{"android":"levelo://app?vid=6cceabfb-4eec-41b8-8e46-4cbb5a8a5506","ios":"levelo://app?vid=6cceabfb-4eec-41b8-8e46-4cbb5a8a5506"},"vehicle_type_id":"4","last_reported":1717715403,"current_range_meters":0,"station_id":"ce4bhbh2rcd13ifvqeqg","pricing_plan_id":"cebpf4jnsgd1na2vs0mg"},{"bike_id":"f553e157-c699-443c-b980-7ad268decba3","system_id":"levelo_inurba_marseille","lat":43.30075,"lon":5.39065,"is_reserved":false,"is_disabled":false,"rental_uris":{"android":"levelo://app?vid=f553e157-c699-443c-b980-7ad268decba3","ios":"levelo://app?vid=f553e157-c699-443c-b980-7ad268decba3"},"vehicle_type_id":"4","last_reported":1717715403,"current_range_meters":8000,"station_id":"ce4bh192rcd13ifvqdb0","pricing_plan_id":"cebpf4jnsgd1na2vs0mg"},{"bike_id":"a9df2fca-5e9a-40fd-bd66-f906fbe2e9d8","system_id":"levelo_inurba_marseille","lat":43.300852,"lon":5.390859,"is_reserved":false,"is_disabled":false,"rental_uris":{"android":"levelo://app?vid=a9df2fca-5e9a-40fd-bd66-f906fbe2e9d8","ios":"levelo://app?vid=a9df2fca-5e9a-40fd-bd66-f906fbe2e9d8"},"vehicle_type_id":"4","last_reported":1717715403,"current_range_meters":26000,"station_id":"ce4bh192rcd13ifvqdb0","pricing_plan_id":"cebpf4jnsgd1na2vs0mg"},{"bike_id":"822fb5c0-0f32-462b-ac2e-519bda079fcf","system_id":"levelo_inurba_marseille","lat":43.298764,"lon":5.388973,"is_reserved":false,"is_disabled":false,"rental_uris":{"android":"levelo://app?vid=822fb5c0-0f32-462b-ac2e-519bda079fcf","ios":"levelo://app?vid=822fb5c0-0f32-462b-ac2e-519bda079fcf"},"vehicle_type_id":"4","last_reported":1717715403,"current_range_meters":0,"station_id":"ce4bh392rcd13ifvqdl0","pricing_plan_id":"cebpf4jnsgd1na2vs0mg"},{"bike_id":"b2e9db5c-aa06-4e68-b7a4-86f819146674","system_id":"levelo_inurba_marseille","lat":43.293009,"lon":5.374584,"is_reserved":false,"is_disabled":false,"rental_uris":{"android":"levelo://app?vid=b2e9db5c-aa06-4e68-b7a4-86f819146674","ios":"levelo://app?vid=b2e9db5c-aa06-4e68-b7a4-86f819146674"},"vehicle_type_id":"4","last_reported":1717715403,"current_range_meters":7600,"station_id":"ce4bgi12rcd13ifvqb70","pricing_plan_id":"cebpf4jnsgd1na2vs0mg"},{"bike_id":"369e4f23-0a1e-4172-863e-50008b7309ba","system_id":"levelo_inurba_marseille","lat":43.292569,"lon":5.409107,"is_reserved":false,"is_disabled":false,"rental_uris":{"android":"levelo://app?vid=369e4f23-0a1e-4172-863e-50008b7309ba","ios":"levelo://app?vid=369e4f23-0a1e-4172-863e-50008b7309ba"},"vehicle_type_id":"4","last_reported":1717715403,"current_range_meters":29600,"station_id":"ce4bh192rcd13ifvqdc0","pricing_plan_id":"cebpf4jnsgd1na2vs0mg"},{"bike_id":"f8d4ba12-16ee-4144-84e5-24eb5abf4270","system_id":"levelo_inurba_marseille","lat":43.29317,"lon":5.37838,"is_reserved":false,"is_disabled":false,"rental_uris":{"android":"levelo://app?vid=f8d4ba12-16ee-4144-84e5-24eb5abf4270","ios":"levelo://app?vid=f8d4ba12-16ee-4144-84e5-24eb5abf4270"},"vehicle_type_id":"4","last_reported":1717715403,"current_range_meters":16800,"station_id":"ce4bgjh2rcd13ifvqbf0","pricing_plan_id":"cebpf4jnsgd1na2vs0mg"},{"bike_id":"9657cc36-8f9d-49c0-96df-2ec550a83d44","system_id":"levelo_inurba_marseille","lat":43.298764,"lon":5.388973,"is_reserved":false,"is_disabled":false,"rental_uris":{"android":"levelo://app?vid=9657cc36-8f9d-49c0-96df-2ec550a83d44","ios":"levelo://app?vid=9657cc36-8f9d-49c0-96df-2ec550a83d44"},"vehicle_type_id":"4","last_reported":1717715403,"current_range_meters":13600,"station_id":"ce4bh392rcd13ifvqdl0","pricing_plan_id":"cebpf4jnsgd1na2vs0mg"},{"bike_id":"840b733d-de4d-4a57-b6f1-17aa102a6830","system_id":"levelo_inurba_marseille","lat":43.3089,"lon":5.39627,"is_reserved":false,"is_disabled":false,"rental_uris":{"android":"levelo://app?vid=840b733d-de4d-4a57-b6f1-17aa102a6830","ios":"levelo://app?vid=840b733d-de4d-4a57-b6f1-17aa102a6830"},"vehicle_type_id":"4","last_reported":1717715403,"current_range_meters":8800,"station_id":"ce4bh012rcd13ifvqcv0","pricing_plan_id":"cebpf4jnsgd1na2vs0mg"},{"bike_id":"69fad3a9-d534-4072-be42-bc97f6b23355","system_id":"levelo_inurba_marseille","lat":43.309038,"lon":5.396546,"is_reserved":false,"is_disabled":false,"rental_uris":{"android":"levelo://app?vid=69fad3a9-d534-4072-be42-bc97f6b23355","ios":"levelo://app?vid=69fad3a9-d534-4072-be42-bc97f6b23355"},"vehicle_type_id":"4","last_reported":1717715403,"current_range_meters":11600,"station_id":"ce4bh012rcd13ifvqcv0","pricing_plan_id":"cebpf4jnsgd1na2vs0mg"},{"bike_id":"9422e0c4-9c20-4833-9026-cb8a83bf36c6","system_id":"levelo_inurba_marseille","lat":43.30889,"lon":5.39629,"is_reserved":false,"is_disabled":false,"rental_uris":{"android":"levelo://app?vid=9422e0c4-9c20-4833-9026-cb8a83bf36c6","ios":"levelo://app?vid=9422e0c4-9c20-4833-9026-cb8a83bf36c6"},"vehicle_type_id":"4","last_reported":1717715403,"current_range_meters":17600,"station_id":"ce4bh012rcd13ifvqcv0","pricing_plan_id":"cebpf4jnsgd1na2vs0mg"},{"bike_id":"9f866d4e-53cf-4887-ad7c-dcbf818f01b2","system_id":"levelo_inurba_marseille","lat":43.309038,"lon":5.396546,"is_reserved":false,"is_disabled":false,"rental_uris":{"android":"levelo://app?vid=9f866d4e-53cf-4887-ad7c-dcbf818f01b2","ios":"levelo://app?vid=9f866d4e-53cf-4887-ad7c-dcbf818f01b2"},"vehicle_type_id":"4","last_reported":1717715403,"current_range_meters":31200,"station_id":"ce4bh012rcd13ifvqcv0","pricing_plan_id":"cebpf4jnsgd1na2vs0mg"},{"bike_id":"cf50c8b5-b6ad-4486-bffa-1882e3313788","system_id":"levelo_inurba_marseille","lat":43.309038,"lon":5.396546,"is_reserved":false,"is_disabled":false,"rental_uris":{"android":"levelo://app?vid=cf50c8b5-b6ad-4486-bffa-1882e3313788","ios":"levelo://app?vid=cf50c8b5-b6ad-4486-bffa-1882e3313788"},"vehicle_type_id":"4","last_reported":1717715403,"current_range_meters":18800,"station_id":"ce4bh012rcd13ifvqcv0","pricing_plan_id":"cebpf4jnsgd1na2vs0mg"},{"bike_id":"1f840904-17bc-40ee-aa4b-d6006352af44","system_id":"levelo_inurba_marseille","lat":43.308895,"lon":5.396355,"is_reserved":false,"is_disabled":false,"rental_uris":{"android":"levelo://app?vid=1f840904-17bc-40ee-aa4b-d6006352af44","ios":"levelo://app?vid=1f840904-17bc-40ee-aa4b-d6006352af44"},"vehicle_type_id":"4","last_reported":1717715403,"current_range_meters":31200,"station_id":"ce4bh012rcd13ifvqcv0","pricing_plan_id":"cebpf4jnsgd1na2vs0mg"},{"bike_id":"164a7e9b-4f2c-4964-aebf-6c8f741c41ab","system_id":"levelo_inurba_marseille","lat":43.309038,"lon":5.396546,"is_reserved":false,"is_disabled":false,"rental_uris":{"android":"levelo://app?vid=164a7e9b-4f2c-4964-aebf-6c8f741c41ab","ios":"levelo://app?vid=164a7e9b-4f2c-4964-aebf-6c8f741c41ab"},"vehicle_type_id":"4","last_reported":1717715403,"current_range_meters":16800,"station_id":"ce4bh012rcd13ifvqcv0","pricing_plan_id":"cebpf4jnsgd1na2vs0mg"},{"bike_id":"db601dc2-7510-4be5-aad9-ec6af3942d80","system_id":"levelo_inurba_marseille","lat":43.30885,"lon":5.39635,"is_reserved":false,"is_disabled":false,"rental_uris":{"android":"levelo://app?vid=db601dc2-7510-4be5-aad9-ec6af3942d80","ios":"levelo://app?vid=db601dc2-7510-4be5-aad9-ec6af3942d80"},"vehicle_type_id":"4","last_reported":1717715403,"current_range_meters":24800,"station_id":"ce4bh012rcd13ifvqcv0","pricing_plan_id":"cebpf4jnsgd1na2vs0mg"},{"bike_id":"c30beab5-d426-449c-9647-828710ee0146","system_id":"levelo_inurba_marseille","lat":43.30888,"lon":5.39637,"is_reserved":false,"is_disabled":false,"rental_uris":{"android":"levelo://app?vid=c30beab5-d426-449c-9647-828710ee0146","ios":"levelo://app?vid=c30beab5-d426-449c-9647-828710ee0146"},"vehicle_type_id":"4","last_reported":1717715403,"current_range_meters":24800,"station_id":"ce4bh012rcd13ifvqcv0","pricing_plan_id":"cebpf4jnsgd1na2vs0mg"},{"bike_id":"bd35ac11-5a42-48e4-b724-982a709a87d7","system_id":"levelo_inurba_marseille","lat":43.309038,"lon":5.396546,"is_reserved":false,"is_disabled":false,"rental_uris":{"android":"levelo://app?vid=bd35ac11-5a42-48e4-b724-982a709a87d7","ios":"levelo://app?vid=bd35ac11-5a42-48e4-b724-982a709a87d7"},"vehicle_type_id":"4","last_reported":1717715403,"current_range_meters":16000,"station_id":"ce4bh012rcd13ifvqcv0","pricing_plan_id":"cebpf4jnsgd1na2vs0mg"},{"bike_id":"d03ee9a8-10c4-4c23-8290-096a5300142b","system_id":"levelo_inurba_marseille","lat":43.308877,"lon":5.396376,"is_reserved":false,"is_disabled":false,"rental_uris":{"android":"levelo://app?vid=d03ee9a8-10c4-4c23-8290-096a5300142b","ios":"levelo://app?vid=d03ee9a8-10c4-4c23-8290-096a5300142b"},"vehicle_type_id":"4","last_reported":1717715403,"current_range_meters":27200,"station_id":"ce4bh012rcd13ifvqcv0","pricing_plan_id":"cebpf4jnsgd1na2vs0mg"},{"bike_id":"acd685fa-3fbf-4fc7-9d7c-0b1f2f5ef4ea","system_id":"levelo_inurba_marseille","lat":43.30883,"lon":5.39637,"is_reserved":false,"is_disabled":false,"rental_uris":{"android":"levelo://app?vid=acd685fa-3fbf-4fc7-9d7c-0b1f2f5ef4ea","ios":"levelo://app?vid=acd685fa-3fbf-4fc7-9d7c-0b1f2f5ef4ea"},"vehicle_type_id":"4","last_reported":1717715403,"current_range_meters":23200,"station_id":"ce4bh012rcd13ifvqcv0","pricing_plan_id":"cebpf4jnsgd1na2vs0mg"},{"bike_id":"58bd4e1f-cb88-4337-98ab-f6e06dfd3b17","system_id":"levelo_inurba_marseille","lat":43.309038,"lon":5.396546,"is_reserved":false,"is_disabled":false,"rental_uris":{"android":"levelo://app?vid=58bd4e1f-cb88-4337-98ab-f6e06dfd3b17","ios":"levelo://app?vid=58bd4e1f-cb88-4337-98ab-f6e06dfd3b17"},"vehicle_type_id":"4","last_reported":1717715403,"current_range_meters":31200,"station_id":"ce4bh012rcd13ifvqcv0","pricing_plan_id":"cebpf4jnsgd1na2vs0mg"},{"bike_id":"d8574b40-a9b2-47f1-a43d-eaeee7a53024","system_id":"levelo_inurba_marseille","lat":43.3088,"lon":5.39637,"is_reserved":false,"is_disabled":false,"rental_uris":{"android":"levelo://app?vid=d8574b40-a9b2-47f1-a43d-eaeee7a53024","ios":"levelo://app?vid=d8574b40-a9b2-47f1-a43d-eaeee7a53024"},"vehicle_type_id":"4","last_reported":1717715403,"current_range_meters":9200,"station_id":"ce4bh012rcd13ifvqcv0","pricing_plan_id":"cebpf4jnsgd1na2vs0mg"},{"bike_id":"7fc19205-a3a1-45d3-8d3d-39a25e35c902","system_id":"levelo_inurba_marseille","lat":43.309038,"lon":5.396546,"is_reserved":false,"is_disabled":false,"rental_uris":{"android":"levelo://app?vid=7fc19205-a3a1-45d3-8d3d-39a25e35c902","ios":"levelo://app?vid=7fc19205-a3a1-45d3-8d3d-39a25e35c902"},"vehicle_type_id":"4","last_reported":1717715403,"current_range_meters":19600,"station_id":"ce4bh012rcd13ifvqcv0","pricing_plan_id":"cebpf4jnsgd1na2vs0mg"},{"bike_id":"b23ef93e-5876-4ce6-8343-1ac08351fd56","system_id":"levelo_inurba_marseille","lat":43.309038,"lon":5.396546,"is_reserved":false,"is_disabled":false,"rental_uris":{"android":"levelo://app?vid=b23ef93e-5876-4ce6-8343-1ac08351fd56","ios":"levelo://app?vid=b23ef93e-5876-4ce6-8343-1ac08351fd56"},"vehicle_type_id":"4","last_reported":1717715403,"current_range_meters":2800,"station_id":"ce4bh012rcd13ifvqcv0","pricing_plan_id":"cebpf4jnsgd1na2vs0mg"},{"bike_id":"55b6bdc5-c802-48cc-b2c6-5ed4ef7b3e6f","system_id":"levelo_inurba_marseille","lat":43.313271,"lon":5.396869,"is_reserved":false,"is_disabled":false,"rental_uris":{"android":"levelo://app?vid=55b6bdc5-c802-48cc-b2c6-5ed4ef7b3e6f","ios":"levelo://app?vid=55b6bdc5-c802-48cc-b2c6-5ed4ef7b3e6f"},"vehicle_type_id":"4","last_reported":1717715403,"current_range_meters":31200,"station_id":"ce4bgvp2rcd13ifvqcu0","pricing_plan_id":"cebpf4jnsgd1na2vs0mg"},{"bike_id":"4d116458-4bfd-43ed-9673-ed852ab1b2ed","system_id":"levelo_inurba_marseille","lat":43.309038,"lon":5.396546,"is_reserved":false,"is_disabled":false,"rental_uris":{"android":"levelo://app?vid=4d116458-4bfd-43ed-9673-ed852ab1b2ed","ios":"levelo://app?vid=4d116458-4bfd-43ed-9673-ed852ab1b2ed"},"vehicle_type_id":"4","last_reported":1717715403,"current_range_meters":23200,"station_id":"ce4bh012rcd13ifvqcv0","pricing_plan_id":"cebpf4jnsgd1na2vs0mg"},{"bike_id":"8d15ab3e-b038-4724-ab34-4ff019ee4784","system_id":"levelo_inurba_marseille","lat":43.313291,"lon":5.396838,"is_reserved":false,"is_disabled":false,"rental_uris":{"android":"levelo://app?vid=8d15ab3e-b038-4724-ab34-4ff019ee4784","ios":"levelo://app?vid=8d15ab3e-b038-4724-ab34-4ff019ee4784"},"vehicle_type_id":"4","last_reported":1717715403,"current_range_meters":16000,"station_id":"ce4bgvp2rcd13ifvqcu0","pricing_plan_id":"cebpf4jnsgd1na2vs0mg"},{"bike_id":"144d072a-826e-4ee6-8a7f-db1b11d71436","system_id":"levelo_inurba_marseille","lat":43.309038,"lon":5.396546,"is_reserved":false,"is_disabled":false,"rental_uris":{"android":"levelo://app?vid=144d072a-826e-4ee6-8a7f-db1b11d71436","ios":"levelo://app?vid=144d072a-826e-4ee6-8a7f-db1b11d71436"},"vehicle_type_id":"4","last_reported":1717715403,"current_range_meters":22000,"station_id":"ce4bh012rcd13ifvqcv0","pricing_plan_id":"cebpf4jnsgd1na2vs0mg"},{"bike_id":"d466eaa0-916d-4d0c-a4c7-39073372d07b","system_id":"levelo_inurba_marseille","lat":43.313291,"lon":5.396838,"is_reserved":false,"is_disabled":false,"rental_uris":{"android":"levelo://app?vid=d466eaa0-916d-4d0c-a4c7-39073372d07b","ios":"levelo://app?vid=d466eaa0-916d-4d0c-a4c7-39073372d07b"},"vehicle_type_id":"4","last_reported":1717715403,"current_range_meters":3200,"station_id":"ce4bgvp2rcd13ifvqcu0","pricing_plan_id":"cebpf4jnsgd1na2vs0mg"},{"bike_id":"f44cab8e-edfa-4a5f-9f11-2cd34f971384","system_id":"levelo_inurba_marseille","lat":43.30885,"lon":5.39642,"is_reserved":false,"is_disabled":false,"rental_uris":{"android":"levelo://app?vid=f44cab8e-edfa-4a5f-9f11-2cd34f971384","ios":"levelo://app?vid=f44cab8e-edfa-4a5f-9f11-2cd34f971384"},"vehicle_type_id":"4","last_reported":1717715403,"current_range_meters":4000,"station_id":"ce4bh012rcd13ifvqcv0","pricing_plan_id":"cebpf4jnsgd1na2vs0mg"},{"bike_id":"7f762092-f9ef-47cc-9384-b1c919feeda1","system_id":"levelo_inurba_marseille","lat":43.313291,"lon":5.396838,"is_reserved":false,"is_disabled":false,"rental_uris":{"android":"levelo://app?vid=7f762092-f9ef-47cc-9384-b1c919feeda1","ios":"levelo://app?vid=7f762092-f9ef-47cc-9384-b1c919feeda1"},"vehicle_type_id":"4","last_reported":1717715403,"current_range_meters":26400,"station_id":"ce4bgvp2rcd13ifvqcu0","pricing_plan_id":"cebpf4jnsgd1na2vs0mg"},{"bike_id":"97609e7d-75b9-47e8-9393-89ba4954d022","system_id":"levelo_inurba_marseille","lat":43.313291,"lon":5.396838,"is_reserved":false,"is_disabled":false,"rental_uris":{"android":"levelo://app?vid=97609e7d-75b9-47e8-9393-89ba4954d022","ios":"levelo://app?vid=97609e7d-75b9-47e8-9393-89ba4954d022"},"vehicle_type_id":"4","last_reported":1717715403,"current_range_meters":20400,"station_id":"ce4bgvp2rcd13ifvqcu0","pricing_plan_id":"cebpf4jnsgd1na2vs0mg"},{"bike_id":"60f1a277-25aa-404c-bf95-595037589d32","system_id":"levelo_inurba_marseille","lat":43.309038,"lon":5.396546,"is_reserved":false,"is_disabled":false,"rental_uris":{"android":"levelo://app?vid=60f1a277-25aa-404c-bf95-595037589d32","ios":"levelo://app?vid=60f1a277-25aa-404c-bf95-595037589d32"},"vehicle_type_id":"4","last_reported":1717715403,"current_range_meters":20000,"station_id":"ce4bh012rcd13ifvqcv0","pricing_plan_id":"cebpf4jnsgd1na2vs0mg"},{"bike_id":"3d6cc610-92e4-4c6e-827a-47615bdeb1e0","system_id":"levelo_inurba_marseille","lat":43.313291,"lon":5.396838,"is_reserved":false,"is_disabled":false,"rental_uris":{"android":"levelo://app?vid=3d6cc610-92e4-4c6e-827a-47615bdeb1e0","ios":"levelo://app?vid=3d6cc610-92e4-4c6e-827a-47615bdeb1e0"},"vehicle_type_id":"4","last_reported":1717715403,"current_range_meters":24400,"station_id":"ce4bgvp2rcd13ifvqcu0","pricing_plan_id":"cebpf4jnsgd1na2vs0mg"},{"bike_id":"b0303c23-d214-4919-85f9-8319412eb6ae","system_id":"levelo_inurba_marseille","lat":43.313291,"lon":5.396838,"is_reserved":false,"is_disabled":false,"rental_uris":{"android":"levelo://app?vid=b0303c23-d214-4919-85f9-8319412eb6ae","ios":"levelo://app?vid=b0303c23-d214-4919-85f9-8319412eb6ae"},"vehicle_type_id":"4","last_reported":1717715403,"current_range_meters":31200,"station_id":"ce4bgvp2rcd13ifvqcu0","pricing_plan_id":"cebpf4jnsgd1na2vs0mg"},{"bike_id":"340f8f7f-4405-4973-9015-c002815f1b56","system_id":"levelo_inurba_marseille","lat":43.313291,"lon":5.396838,"is_reserved":false,"is_disabled":false,"rental_uris":{"android":"levelo://app?vid=340f8f7f-4405-4973-9015-c002815f1b56","ios":"levelo://app?vid=340f8f7f-4405-4973-9015-c002815f1b56"},"vehicle_type_id":"4","last_reported":1717715403,"current_range_meters":19200,"station_id":"ce4bgvp2rcd13ifvqcu0","pricing_plan_id":"cebpf4jnsgd1na2vs0mg"},{"bike_id":"7c7adaba-1a3c-4ac3-a36d-4cc1002b4632","system_id":"levelo_inurba_marseille","lat":43.313291,"lon":5.396838,"is_reserved":false,"is_disabled":false,"rental_uris":{"android":"levelo://app?vid=7c7adaba-1a3c-4ac3-a36d-4cc1002b4632","ios":"levelo://app?vid=7c7adaba-1a3c-4ac3-a36d-4cc1002b4632"},"vehicle_type_id":"4","last_reported":1717715403,"current_range_meters":31200,"station_id":"ce4bgvp2rcd13ifvqcu0","pricing_plan_id":"cebpf4jnsgd1na2vs0mg"},{"bike_id":"7773233d-2a5b-4320-9b77-eccb870c7e47","system_id":"levelo_inurba_marseille","lat":43.313291,"lon":5.396838,"is_reserved":false,"is_disabled":false,"rental_uris":{"android":"levelo://app?vid=7773233d-2a5b-4320-9b77-eccb870c7e47","ios":"levelo://app?vid=7773233d-2a5b-4320-9b77-eccb870c7e47"},"vehicle_type_id":"4","last_reported":1717715403,"current_range_meters":31600,"station_id":"ce4bgvp2rcd13ifvqcu0","pricing_plan_id":"cebpf4jnsgd1na2vs0mg"},{"bike_id":"7f43effc-b25c-4882-9f01-12ae0c7a6de1","system_id":"levelo_inurba_marseille","lat":43.30887,"lon":5.39646,"is_reserved":false,"is_disabled":false,"rental_uris":{"android":"levelo://app?vid=7f43effc-b25c-4882-9f01-12ae0c7a6de1","ios":"levelo://app?vid=7f43effc-b25c-4882-9f01-12ae0c7a6de1"},"vehicle_type_id":"4","last_reported":1717715403,"current_range_meters":27200,"station_id":"ce4bh012rcd13ifvqcv0","pricing_plan_id":"cebpf4jnsgd1na2vs0mg"},{"bike_id":"ab194202-5c41-4b59-8a9a-0158cf1abd3d","system_id":"levelo_inurba_marseille","lat":43.313291,"lon":5.396838,"is_reserved":false,"is_disabled":false,"rental_uris":{"android":"levelo://app?vid=ab194202-5c41-4b59-8a9a-0158cf1abd3d","ios":"levelo://app?vid=ab194202-5c41-4b59-8a9a-0158cf1abd3d"},"vehicle_type_id":"4","last_reported":1717715403,"current_range_meters":31200,"station_id":"ce4bgvp2rcd13ifvqcu0","pricing_plan_id":"cebpf4jnsgd1na2vs0mg"},{"bike_id":"5d08bfea-e81b-4f2c-894e-4f2764a30f7c","system_id":"levelo_inurba_marseille","lat":43.313291,"lon":5.396838,"is_reserved":false,"is_disabled":false,"rental_uris":{"android":"levelo://app?vid=5d08bfea-e81b-4f2c-894e-4f2764a30f7c","ios":"levelo://app?vid=5d08bfea-e81b-4f2c-894e-4f2764a30f7c"},"vehicle_type_id":"4","last_reported":1717715403,"current_range_meters":28800,"station_id":"ce4bgvp2rcd13ifvqcu0","pricing_plan_id":"cebpf4jnsgd1na2vs0mg"},{"bike_id":"77b47291-eedc-4670-a197-3f472d77df97","system_id":"levelo_inurba_marseille","lat":43.31326,"lon":5.39694,"is_reserved":false,"is_disabled":false,"rental_uris":{"android":"levelo://app?vid=77b47291-eedc-4670-a197-3f472d77df97","ios":"levelo://app?vid=77b47291-eedc-4670-a197-3f472d77df97"},"vehicle_type_id":"4","last_reported":1717715403,"current_range_meters":16000,"station_id":"ce4bgvp2rcd13ifvqcu0","pricing_plan_id":"cebpf4jnsgd1na2vs0mg"},{"bike_id":"789bd50f-d23d-4ca6-b754-73f2aec0748a","system_id":"levelo_inurba_marseille","lat":43.313291,"lon":5.396838,"is_reserved":false,"is_disabled":false,"rental_uris":{"android":"levelo://app?vid=789bd50f-d23d-4ca6-b754-73f2aec0748a","ios":"levelo://app?vid=789bd50f-d23d-4ca6-b754-73f2aec0748a"},"vehicle_type_id":"4","last_reported":1717715403,"current_range_meters":22000,"station_id":"ce4bgvp2rcd13ifvqcu0","pricing_plan_id":"cebpf4jnsgd1na2vs0mg"},{"bike_id":"5b94a206-f736-4271-9c2f-19d787f92c33","system_id":"levelo_inurba_marseille","lat":43.313291,"lon":5.396838,"is_reserved":false,"is_disabled":false,"rental_uris":{"android":"levelo://app?vid=5b94a206-f736-4271-9c2f-19d787f92c33","ios":"levelo://app?vid=5b94a206-f736-4271-9c2f-19d787f92c33"},"vehicle_type_id":"4","last_reported":1717715403,"current_range_meters":16800,"station_id":"ce4bgvp2rcd13ifvqcu0","pricing_plan_id":"cebpf4jnsgd1na2vs0mg"},{"bike_id":"cebf9036-f37e-420d-adc3-ca1dcff5fcaf","system_id":"levelo_inurba_marseille","lat":43.31329,"lon":5.39695,"is_reserved":false,"is_disabled":false,"rental_uris":{"android":"levelo://app?vid=cebf9036-f37e-420d-adc3-ca1dcff5fcaf","ios":"levelo://app?vid=cebf9036-f37e-420d-adc3-ca1dcff5fcaf"},"vehicle_type_id":"4","last_reported":1717715403,"current_range_meters":31200,"station_id":"ce4bgvp2rcd13ifvqcu0","pricing_plan_id":"cebpf4jnsgd1na2vs0mg"},{"bike_id":"c2dac748-1c8e-4b06-86b6-5f1e9b2c3481","system_id":"levelo_inurba_marseille","lat":43.313263,"lon":5.396958,"is_reserved":false,"is_disabled":false,"rental_uris":{"android":"levelo://app?vid=c2dac748-1c8e-4b06-86b6-5f1e9b2c3481","ios":"levelo://app?vid=c2dac748-1c8e-4b06-86b6-5f1e9b2c3481"},"vehicle_type_id":"4","last_reported":1717715403,"current_range_meters":31200,"station_id":"ce4bgvp2rcd13ifvqcu0","pricing_plan_id":"cebpf4jnsgd1na2vs0mg"},{"bike_id":"4d3c82a3-c6c6-4d5c-a61a-301f82f9bcdc","system_id":"levelo_inurba_marseille","lat":43.313291,"lon":5.396838,"is_reserved":false,"is_disabled":false,"rental_uris":{"android":"levelo://app?vid=4d3c82a3-c6c6-4d5c-a61a-301f82f9bcdc","ios":"levelo://app?vid=4d3c82a3-c6c6-4d5c-a61a-301f82f9bcdc"},"vehicle_type_id":"4","last_reported":1717715403,"current_range_meters":28000,"station_id":"ce4bgvp2rcd13ifvqcu0","pricing_plan_id":"cebpf4jnsgd1na2vs0mg"},{"bike_id":"22f581fc-b69f-412f-9811-763ff65a3099","system_id":"levelo_inurba_marseille","lat":43.313291,"lon":5.396838,"is_reserved":false,"is_disabled":false,"rental_uris":{"android":"levelo://app?vid=22f581fc-b69f-412f-9811-763ff65a3099","ios":"levelo://app?vid=22f581fc-b69f-412f-9811-763ff65a3099"},"vehicle_type_id":"4","last_reported":1717715403,"current_range_meters":26800,"station_id":"ce4bgvp2rcd13ifvqcu0","pricing_plan_id":"cebpf4jnsgd1na2vs0mg"},{"bike_id":"7b79ca19-0c87-4846-b54c-91dd3203ed77","system_id":"levelo_inurba_marseille","lat":43.30889,"lon":5.3965,"is_reserved":false,"is_disabled":false,"rental_uris":{"android":"levelo://app?vid=7b79ca19-0c87-4846-b54c-91dd3203ed77","ios":"levelo://app?vid=7b79ca19-0c87-4846-b54c-91dd3203ed77"},"vehicle_type_id":"4","last_reported":1717715403,"current_range_meters":27600,"station_id":"ce4bh012rcd13ifvqcv0","pricing_plan_id":"cebpf4jnsgd1na2vs0mg"},{"bike_id":"9dbf1a7c-3c20-44b1-bc74-91111bae1e9a","system_id":"levelo_inurba_marseille","lat":43.313291,"lon":5.396838,"is_reserved":false,"is_disabled":false,"rental_uris":{"android":"levelo://app?vid=9dbf1a7c-3c20-44b1-bc74-91111bae1e9a","ios":"levelo://app?vid=9dbf1a7c-3c20-44b1-bc74-91111bae1e9a"},"vehicle_type_id":"4","last_reported":1717715403,"current_range_meters":28800,"station_id":"ce4bgvp2rcd13ifvqcu0","pricing_plan_id":"cebpf4jnsgd1na2vs0mg"},{"bike_id":"24a302f5-c4b4-4c81-8614-f0b9eba21a90","system_id":"levelo_inurba_marseille","lat":43.313291,"lon":5.396838,"is_reserved":false,"is_disabled":false,"rental_uris":{"android":"levelo://app?vid=24a302f5-c4b4-4c81-8614-f0b9eba21a90","ios":"levelo://app?vid=24a302f5-c4b4-4c81-8614-f0b9eba21a90"},"vehicle_type_id":"4","last_reported":1717715403,"current_range_meters":11600,"station_id":"ce4bgvp2rcd13ifvqcu0","pricing_plan_id":"cebpf4jnsgd1na2vs0mg"},{"bike_id":"3c2047cc-4b3c-42aa-9076-46f05a01d1b9","system_id":"levelo_inurba_marseille","lat":43.313291,"lon":5.396838,"is_reserved":false,"is_disabled":false,"rental_uris":{"android":"levelo://app?vid=3c2047cc-4b3c-42aa-9076-46f05a01d1b9","ios":"levelo://app?vid=3c2047cc-4b3c-42aa-9076-46f05a01d1b9"},"vehicle_type_id":"4","last_reported":1717715403,"current_range_meters":11600,"station_id":"ce4bgvp2rcd13ifvqcu0","pricing_plan_id":"cebpf4jnsgd1na2vs0mg"},{"bike_id":"98febe2e-784e-4167-b08e-7b7e71ac9ab0","system_id":"levelo_inurba_marseille","lat":43.31331,"lon":5.39698,"is_reserved":false,"is_disabled":false,"rental_uris":{"android":"levelo://app?vid=98febe2e-784e-4167-b08e-7b7e71ac9ab0","ios":"levelo://app?vid=98febe2e-784e-4167-b08e-7b7e71ac9ab0"},"vehicle_type_id":"4","last_reported":1717715403,"current_range_meters":30400,"station_id":"ce4bgvp2rcd13ifvqcu0","pricing_plan_id":"cebpf4jnsgd1na2vs0mg"},{"bike_id":"5a94ccc6-4e3f-4743-858d-95791c99e727","system_id":"levelo_inurba_marseille","lat":43.313291,"lon":5.396838,"is_reserved":false,"is_disabled":false,"rental_uris":{"android":"levelo://app?vid=5a94ccc6-4e3f-4743-858d-95791c99e727","ios":"levelo://app?vid=5a94ccc6-4e3f-4743-858d-95791c99e727"},"vehicle_type_id":"4","last_reported":1717715403,"current_range_meters":23200,"station_id":"ce4bgvp2rcd13ifvqcu0","pricing_plan_id":"cebpf4jnsgd1na2vs0mg"},{"bike_id":"27ac2a1b-4056-4910-9e52-f84f4dd041c3","system_id":"levelo_inurba_marseille","lat":43.30891,"lon":5.39655,"is_reserved":false,"is_disabled":false,"rental_uris":{"android":"levelo://app?vid=27ac2a1b-4056-4910-9e52-f84f4dd041c3","ios":"levelo://app?vid=27ac2a1b-4056-4910-9e52-f84f4dd041c3"},"vehicle_type_id":"4","last_reported":1717715403,"current_range_meters":19200,"station_id":"ce4bh012rcd13ifvqcv0","pricing_plan_id":"cebpf4jnsgd1na2vs0mg"},{"bike_id":"8cb6457b-007c-4aaf-ba1f-4f4b1d855c32","system_id":"levelo_inurba_marseille","lat":43.309038,"lon":5.396546,"is_reserved":false,"is_disabled":false,"rental_uris":{"android":"levelo://app?vid=8cb6457b-007c-4aaf-ba1f-4f4b1d855c32","ios":"levelo://app?vid=8cb6457b-007c-4aaf-ba1f-4f4b1d855c32"},"vehicle_type_id":"4","last_reported":1717715403,"current_range_meters":4400,"station_id":"ce4bh012rcd13ifvqcv0","pricing_plan_id":"cebpf4jnsgd1na2vs0mg"},{"bike_id":"2e2b9085-bba9-4491-87fe-d6efb1ca821b","system_id":"levelo_inurba_marseille","lat":43.294711,"lon":5.384244,"is_reserved":false,"is_disabled":false,"rental_uris":{"android":"levelo://app?vid=2e2b9085-bba9-4491-87fe-d6efb1ca821b","ios":"levelo://app?vid=2e2b9085-bba9-4491-87fe-d6efb1ca821b"},"vehicle_type_id":"4","last_reported":1717715403,"current_range_meters":1200,"station_id":"","pricing_plan_id":"cebpf4jnsgd1na2vs0mg"},{"bike_id":"bf0efe7d-37f9-4769-b2fe-4f1c30520229","system_id":"levelo_inurba_marseille","lat":43.29532,"lon":5.38542,"is_reserved":false,"is_disabled":false,"rental_uris":{"android":"levelo://app?vid=bf0efe7d-37f9-4769-b2fe-4f1c30520229","ios":"levelo://app?vid=bf0efe7d-37f9-4769-b2fe-4f1c30520229"},"vehicle_type_id":"4","last_reported":1717715403,"current_range_meters":0,"station_id":"ce4bgih2rcd13ifvqba0","pricing_plan_id":"cebpf4jnsgd1na2vs0mg"},{"bike_id":"e93519f6-4cde-4012-b2d5-2f28d3540211","system_id":"levelo_inurba_marseille","lat":43.290779,"lon":5.371482,"is_reserved":false,"is_disabled":false,"rental_uris":{"android":"levelo://app?vid=e93519f6-4cde-4012-b2d5-2f28d3540211","ios":"levelo://app?vid=e93519f6-4cde-4012-b2d5-2f28d3540211"},"vehicle_type_id":"4","last_reported":1717715403,"current_range_meters":18800,"station_id":"ce4bh5p2rcd13ifvqe4g","pricing_plan_id":"cebpf4jnsgd1na2vs0mg"},{"bike_id":"bb886b72-6173-43fa-a0f4-37c7df8db834","system_id":"levelo_inurba_marseille","lat":43.290779,"lon":5.371482,"is_reserved":false,"is_disabled":false,"rental_uris":{"android":"levelo://app?vid=bb886b72-6173-43fa-a0f4-37c7df8db834","ios":"levelo://app?vid=bb886b72-6173-43fa-a0f4-37c7df8db834"},"vehicle_type_id":"4","last_reported":1717715403,"current_range_meters":23600,"station_id":"ce4bh5p2rcd13ifvqe4g","pricing_plan_id":"cebpf4jnsgd1na2vs0mg"},{"bike_id":"a5406e2e-53fa-42c5-9aa0-28a9f43174b5","system_id":"levelo_inurba_marseille","lat":43.290779,"lon":5.371482,"is_reserved":false,"is_disabled":false,"rental_uris":{"android":"levelo://app?vid=a5406e2e-53fa-42c5-9aa0-28a9f43174b5","ios":"levelo://app?vid=a5406e2e-53fa-42c5-9aa0-28a9f43174b5"},"vehicle_type_id":"4","last_reported":1717715403,"current_range_meters":8400,"station_id":"ce4bh5p2rcd13ifvqe4g","pricing_plan_id":"cebpf4jnsgd1na2vs0mg"},{"bike_id":"35752745-568e-48f6-8432-6d24d785d4c4","system_id":"levelo_inurba_marseille","lat":43.298722,"lon":5.391504,"is_reserved":false,"is_disabled":false,"rental_uris":{"android":"levelo://app?vid=35752745-568e-48f6-8432-6d24d785d4c4","ios":"levelo://app?vid=35752745-568e-48f6-8432-6d24d785d4c4"},"vehicle_type_id":"4","last_reported":1717715403,"current_range_meters":24000,"station_id":"","pricing_plan_id":"cebpf4jnsgd1na2vs0mg"},{"bike_id":"05023b56-6771-40b3-a437-e32a9f8b12df","system_id":"levelo_inurba_marseille","lat":43.302008,"lon":5.394694,"is_reserved":false,"is_disabled":false,"rental_uris":{"android":"levelo://app?vid=05023b56-6771-40b3-a437-e32a9f8b12df","ios":"levelo://app?vid=05023b56-6771-40b3-a437-e32a9f8b12df"},"vehicle_type_id":"4","last_reported":1717715403,"current_range_meters":10000,"station_id":"ce4bh0p2rcd13ifvqd70","pricing_plan_id":"cebpf4jnsgd1na2vs0mg"},{"bike_id":"8227da64-aef8-4706-9e80-4e03c7b4d332","system_id":"levelo_inurba_marseille","lat":43.302008,"lon":5.394694,"is_reserved":false,"is_disabled":false,"rental_uris":{"android":"levelo://app?vid=8227da64-aef8-4706-9e80-4e03c7b4d332","ios":"levelo://app?vid=8227da64-aef8-4706-9e80-4e03c7b4d332"},"vehicle_type_id":"4","last_reported":1717715403,"current_range_meters":26000,"station_id":"ce4bh0p2rcd13ifvqd70","pricing_plan_id":"cebpf4jnsgd1na2vs0mg"},{"bike_id":"e8101ead-b8a4-40ef-b54e-949a08dea867","system_id":"levelo_inurba_marseille","lat":43.302008,"lon":5.394694,"is_reserved":false,"is_disabled":false,"rental_uris":{"android":"levelo://app?vid=e8101ead-b8a4-40ef-b54e-949a08dea867","ios":"levelo://app?vid=e8101ead-b8a4-40ef-b54e-949a08dea867"},"vehicle_type_id":"4","last_reported":1717715403,"current_range_meters":24000,"station_id":"ce4bh0p2rcd13ifvqd70","pricing_plan_id":"cebpf4jnsgd1na2vs0mg"},{"bike_id":"dfb8aeb6-6a7a-4055-9baf-4427ecd36478","system_id":"levelo_inurba_marseille","lat":43.290624,"lon":5.359245,"is_reserved":false,"is_disabled":false,"rental_uris":{"android":"levelo://app?vid=dfb8aeb6-6a7a-4055-9baf-4427ecd36478","ios":"levelo://app?vid=dfb8aeb6-6a7a-4055-9baf-4427ecd36478"},"vehicle_type_id":"4","last_reported":1717715403,"current_range_meters":28800,"station_id":"ce4bha92rcd13ifvqeg0","pricing_plan_id":"cebpf4jnsgd1na2vs0mg"},{"bike_id":"876b649e-5c83-4d37-974a-1c0af512d76f","system_id":"levelo_inurba_marseille","lat":43.289468,"lon":5.363719,"is_reserved":false,"is_disabled":false,"rental_uris":{"android":"levelo://app?vid=876b649e-5c83-4d37-974a-1c0af512d76f","ios":"levelo://app?vid=876b649e-5c83-4d37-974a-1c0af512d76f"},"vehicle_type_id":"4","last_reported":1717715403,"current_range_meters":31200,"station_id":"ce4bhc92rcd13ifvqetg","pricing_plan_id":"cebpf4jnsgd1na2vs0mg"},{"bike_id":"cf10454e-3cd7-472a-a468-63ed47ab764e","system_id":"levelo_inurba_marseille","lat":43.289184,"lon":5.366408,"is_reserved":false,"is_disabled":false,"rental_uris":{"android":"levelo://app?vid=cf10454e-3cd7-472a-a468-63ed47ab764e","ios":"levelo://app?vid=cf10454e-3cd7-472a-a468-63ed47ab764e"},"vehicle_type_id":"4","last_reported":1717715403,"current_range_meters":25600,"station_id":"ce4bhap2rcd13ifvqek0","pricing_plan_id":"cebpf4jnsgd1na2vs0mg"},{"bike_id":"d9564370-6f1a-4cb6-97da-fa39d5bd0797","system_id":"levelo_inurba_marseille","lat":43.289184,"lon":5.366408,"is_reserved":false,"is_disabled":false,"rental_uris":{"android":"levelo://app?vid=d9564370-6f1a-4cb6-97da-fa39d5bd0797","ios":"levelo://app?vid=d9564370-6f1a-4cb6-97da-fa39d5bd0797"},"vehicle_type_id":"4","last_reported":1717715403,"current_range_meters":14400,"station_id":"ce4bhap2rcd13ifvqek0","pricing_plan_id":"cebpf4jnsgd1na2vs0mg"},{"bike_id":"39162e0a-ccc9-4129-a0f5-7deed9ce96e5","system_id":"levelo_inurba_marseille","lat":43.289468,"lon":5.363719,"is_reserved":false,"is_disabled":false,"rental_uris":{"android":"levelo://app?vid=39162e0a-ccc9-4129-a0f5-7deed9ce96e5","ios":"levelo://app?vid=39162e0a-ccc9-4129-a0f5-7deed9ce96e5"},"vehicle_type_id":"4","last_reported":1717715403,"current_range_meters":15200,"station_id":"ce4bhc92rcd13ifvqetg","pricing_plan_id":"cebpf4jnsgd1na2vs0mg"},{"bike_id":"2cb248d9-8ade-4202-86d4-fe0d8e106076","system_id":"levelo_inurba_marseille","lat":43.289184,"lon":5.366408,"is_reserved":false,"is_disabled":false,"rental_uris":{"android":"levelo://app?vid=2cb248d9-8ade-4202-86d4-fe0d8e106076","ios":"levelo://app?vid=2cb248d9-8ade-4202-86d4-fe0d8e106076"},"vehicle_type_id":"4","last_reported":1717715403,"current_range_meters":14800,"station_id":"ce4bhap2rcd13ifvqek0","pricing_plan_id":"cebpf4jnsgd1na2vs0mg"},{"bike_id":"9ea25b30-6c45-454c-8ffc-3dfca995ba2f","system_id":"levelo_inurba_marseille","lat":43.289468,"lon":5.363719,"is_reserved":false,"is_disabled":false,"rental_uris":{"android":"levelo://app?vid=9ea25b30-6c45-454c-8ffc-3dfca995ba2f","ios":"levelo://app?vid=9ea25b30-6c45-454c-8ffc-3dfca995ba2f"},"vehicle_type_id":"4","last_reported":1717715403,"current_range_meters":8800,"station_id":"ce4bhc92rcd13ifvqetg","pricing_plan_id":"cebpf4jnsgd1na2vs0mg"},{"bike_id":"89fc2ce5-f098-4e51-8d06-bdb7bc577503","system_id":"levelo_inurba_marseille","lat":43.304296,"lon":5.397513,"is_reserved":false,"is_disabled":false,"rental_uris":{"android":"levelo://app?vid=89fc2ce5-f098-4e51-8d06-bdb7bc577503","ios":"levelo://app?vid=89fc2ce5-f098-4e51-8d06-bdb7bc577503"},"vehicle_type_id":"4","last_reported":1717715403,"current_range_meters":18800,"station_id":"ce4bh092rcd13ifvqd20","pricing_plan_id":"cebpf4jnsgd1na2vs0mg"},{"bike_id":"73d02ce6-4407-4fed-a271-f0e6e02cca4d","system_id":"levelo_inurba_marseille","lat":43.304296,"lon":5.397513,"is_reserved":false,"is_disabled":false,"rental_uris":{"android":"levelo://app?vid=73d02ce6-4407-4fed-a271-f0e6e02cca4d","ios":"levelo://app?vid=73d02ce6-4407-4fed-a271-f0e6e02cca4d"},"vehicle_type_id":"4","last_reported":1717715403,"current_range_meters":20400,"station_id":"ce4bh092rcd13ifvqd20","pricing_plan_id":"cebpf4jnsgd1na2vs0mg"},{"bike_id":"3a62e38b-70b3-4dc3-917c-ab69721361da","system_id":"levelo_inurba_marseille","lat":43.304296,"lon":5.397513,"is_reserved":false,"is_disabled":false,"rental_uris":{"android":"levelo://app?vid=3a62e38b-70b3-4dc3-917c-ab69721361da","ios":"levelo://app?vid=3a62e38b-70b3-4dc3-917c-ab69721361da"},"vehicle_type_id":"4","last_reported":1717715403,"current_range_meters":8800,"station_id":"ce4bh092rcd13ifvqd20","pricing_plan_id":"cebpf4jnsgd1na2vs0mg"},{"bike_id":"f7dbca80-474c-4d85-a7cf-8979a199bd41","system_id":"levelo_inurba_marseille","lat":43.304296,"lon":5.397513,"is_reserved":false,"is_disabled":false,"rental_uris":{"android":"levelo://app?vid=f7dbca80-474c-4d85-a7cf-8979a199bd41","ios":"levelo://app?vid=f7dbca80-474c-4d85-a7cf-8979a199bd41"},"vehicle_type_id":"4","last_reported":1717715403,"current_range_meters":27600,"station_id":"ce4bh092rcd13ifvqd20","pricing_plan_id":"cebpf4jnsgd1na2vs0mg"},{"bike_id":"9a86f2bc-f62a-4062-9d35-e43df9569aaa","system_id":"levelo_inurba_marseille","lat":43.304274,"lon":5.397513,"is_reserved":false,"is_disabled":false,"rental_uris":{"android":"levelo://app?vid=9a86f2bc-f62a-4062-9d35-e43df9569aaa","ios":"levelo://app?vid=9a86f2bc-f62a-4062-9d35-e43df9569aaa"},"vehicle_type_id":"4","last_reported":1717715403,"current_range_meters":1600,"station_id":"ce4bh092rcd13ifvqd20","pricing_plan_id":"cebpf4jnsgd1na2vs0mg"},{"bike_id":"9364826b-232c-496e-8dff-40c379f4fa8a","system_id":"levelo_inurba_marseille","lat":43.304274,"lon":5.397513,"is_reserved":false,"is_disabled":false,"rental_uris":{"android":"levelo://app?vid=9364826b-232c-496e-8dff-40c379f4fa8a","ios":"levelo://app?vid=9364826b-232c-496e-8dff-40c379f4fa8a"},"vehicle_type_id":"4","last_reported":1717715403,"current_range_meters":14000,"station_id":"ce4bh092rcd13ifvqd20","pricing_plan_id":"cebpf4jnsgd1na2vs0mg"},{"bike_id":"c65a9b0f-b8c0-44ea-85c5-988c0d672828","system_id":"levelo_inurba_marseille","lat":43.304274,"lon":5.397513,"is_reserved":false,"is_disabled":false,"rental_uris":{"android":"levelo://app?vid=c65a9b0f-b8c0-44ea-85c5-988c0d672828","ios":"levelo://app?vid=c65a9b0f-b8c0-44ea-85c5-988c0d672828"},"vehicle_type_id":"4","last_reported":1717715403,"current_range_meters":31200,"station_id":"ce4bh092rcd13ifvqd20","pricing_plan_id":"cebpf4jnsgd1na2vs0mg"},{"bike_id":"f04b84f4-cb4b-4ff3-b2fd-6537e7e77f26","system_id":"levelo_inurba_marseille","lat":43.304274,"lon":5.397513,"is_reserved":false,"is_disabled":false,"rental_uris":{"android":"levelo://app?vid=f04b84f4-cb4b-4ff3-b2fd-6537e7e77f26","ios":"levelo://app?vid=f04b84f4-cb4b-4ff3-b2fd-6537e7e77f26"},"vehicle_type_id":"4","last_reported":1717715403,"current_range_meters":6000,"station_id":"ce4bh092rcd13ifvqd20","pricing_plan_id":"cebpf4jnsgd1na2vs0mg"},{"bike_id":"7801e4db-e077-4159-b945-8005ba96af83","system_id":"levelo_inurba_marseille","lat":43.30426,"lon":5.397555,"is_reserved":false,"is_disabled":false,"rental_uris":{"android":"levelo://app?vid=7801e4db-e077-4159-b945-8005ba96af83","ios":"levelo://app?vid=7801e4db-e077-4159-b945-8005ba96af83"},"vehicle_type_id":"4","last_reported":1717715403,"current_range_meters":26000,"station_id":"","pricing_plan_id":"cebpf4jnsgd1na2vs0mg"},{"bike_id":"1189a28c-b188-4e8e-acc1-e4312c63f971","system_id":"levelo_inurba_marseille","lat":43.304296,"lon":5.397513,"is_reserved":false,"is_disabled":false,"rental_uris":{"android":"levelo://app?vid=1189a28c-b188-4e8e-acc1-e4312c63f971","ios":"levelo://app?vid=1189a28c-b188-4e8e-acc1-e4312c63f971"},"vehicle_type_id":"4","last_reported":1717715403,"current_range_meters":31200,"station_id":"ce4bh092rcd13ifvqd20","pricing_plan_id":"cebpf4jnsgd1na2vs0mg"},{"bike_id":"e2147445-80d7-482e-bbe6-22001511e30f","system_id":"levelo_inurba_marseille","lat":43.29573,"lon":5.367355,"is_reserved":false,"is_disabled":false,"rental_uris":{"android":"levelo://app?vid=e2147445-80d7-482e-bbe6-22001511e30f","ios":"levelo://app?vid=e2147445-80d7-482e-bbe6-22001511e30f"},"vehicle_type_id":"4","last_reported":1717715403,"current_range_meters":6000,"station_id":"ce4bgph2rcd13ifvqc2g","pricing_plan_id":"cebpf4jnsgd1na2vs0mg"},{"bike_id":"daeeaf0e-8fbf-4e67-afbd-27038f54b19b","system_id":"levelo_inurba_marseille","lat":43.297923,"lon":5.393384,"is_reserved":false,"is_disabled":false,"rental_uris":{"android":"levelo://app?vid=daeeaf0e-8fbf-4e67-afbd-27038f54b19b","ios":"levelo://app?vid=daeeaf0e-8fbf-4e67-afbd-27038f54b19b"},"vehicle_type_id":"4","last_reported":1717715403,"current_range_meters":30800,"station_id":"chh1huq6cuj3fo74tm60","pricing_plan_id":"cebpf4jnsgd1na2vs0mg"},{"bike_id":"25ec3607-3e97-42ae-954b-d2e86ab09cd4","system_id":"levelo_inurba_marseille","lat":43.297895,"lon":5.39336,"is_reserved":false,"is_disabled":false,"rental_uris":{"android":"levelo://app?vid=25ec3607-3e97-42ae-954b-d2e86ab09cd4","ios":"levelo://app?vid=25ec3607-3e97-42ae-954b-d2e86ab09cd4"},"vehicle_type_id":"4","last_reported":1717715403,"current_range_meters":14800,"station_id":"chh1huq6cuj3fo74tm60","pricing_plan_id":"cebpf4jnsgd1na2vs0mg"},{"bike_id":"80dda133-0e9e-45ee-828f-9b03d7ab26ae","system_id":"levelo_inurba_marseille","lat":43.297885,"lon":5.393385,"is_reserved":false,"is_disabled":false,"rental_uris":{"android":"levelo://app?vid=80dda133-0e9e-45ee-828f-9b03d7ab26ae","ios":"levelo://app?vid=80dda133-0e9e-45ee-828f-9b03d7ab26ae"},"vehicle_type_id":"4","last_reported":1717715403,"current_range_meters":29600,"station_id":"chh1huq6cuj3fo74tm60","pricing_plan_id":"cebpf4jnsgd1na2vs0mg"},{"bike_id":"1fd5d40b-bb6d-46a8-8d4c-557cc48ca101","system_id":"levelo_inurba_marseille","lat":43.29783,"lon":5.39336,"is_reserved":false,"is_disabled":false,"rental_uris":{"android":"levelo://app?vid=1fd5d40b-bb6d-46a8-8d4c-557cc48ca101","ios":"levelo://app?vid=1fd5d40b-bb6d-46a8-8d4c-557cc48ca101"},"vehicle_type_id":"4","last_reported":1717715403,"current_range_meters":22400,"station_id":"chh1huq6cuj3fo74tm60","pricing_plan_id":"cebpf4jnsgd1na2vs0mg"},