{"last_updated":1752999236,"ttl":60,"version":"2.2","data":{"bikes":[{"bike_id":"53b742a7-31ae-4272-9bba-7740339e2a2f","system_id":"levelo_inurba_marseille","lat":43.33747,"lon":5.37463,"is_reserved":false,"is_disabled":false,"rental_uris":{"android":"levelo://app?vid=53b742a7-31ae-4272-9bba-7740339e2a2f","ios":"levelo://app?vid=53b742a7-31ae-4272-9bba-7740339e2a2f"},"vehicle_type_id":"1","last_reported":1752999236,"current_range_meters":11600,"station_id":"","pricing_plan_id":"cebpf4jnsgd1na2vs0mg"},{"bike_id":"a14fccdf-616e-44eb-b0e5-a6a650610330","system_id":"levelo_inurba_marseille","lat":43.299735,"lon":5.384789,"is_reserved":false,"is_disabled":false,"rental_uris":{"android":"levelo://app?vid=a14fccdf-616e-44eb-b0e5-a6a650610330","ios":"levelo://app?vid=a14fccdf-616e-44eb-b0e5-a6a650610330"},"vehicle_type_id":"4","last_reported":1752999236,"current_range_meters":2800,"station_id":"ce4bgj92rcd13ifvqbd0","pricing_plan_id":"cebpf4jnsgd1na2vs0mg"},{"bike_id":"e7dd9323-af33-4a1a-8ccb-3ae7ee6e207c","system_id":"levelo_inurba_marseille","lat":43.25866,"lon":5.39892,"is_reserved":false,"is_disabled":false,"rental_uris":{"android":"levelo://app?vid=e7dd9323-af33-4a1a-8ccb-3ae7ee6e207c","ios":"levelo://app?vid=e7dd9323-af33-4a1a-8ccb-3ae7ee6e207c"},"vehicle_type_id":"4","last_reported":1752999236,"current_range_meters":2800,"station_id":"ce4bhl92rcd13ifvqghg","pricing_plan_id":"cebpf4jnsgd1na2vs0mg"},{"bike_id":"44b73254-6d5b-42ec-9e3a-52236fbf71fc","system_id":"levelo_inurba_marseille","lat":43.33351,"lon":5.398365,"is_reserved":false,"is_disabled":false,"rental_uris":{"android":"levelo://app?vid=44b73254-6d5b-42ec-9e3a-52236fbf71fc","ios":"levelo://app?vid=44b73254-6d5b-42ec-9e3a-52236fbf71fc"},"vehicle_type_id":"4","last_reported":1752999236,"current_range_meters":3200,"station_id":"","pricing_plan_id":"cebpf4jnsgd1na2vs0mg"},{"bike_id":"da891840-0cec-4ccc-961c-48903736c6fa","system_id":"levelo_inurba_marseille","lat":43.31139,"lon":5.37692,"is_reserved":false,"is_disabled":false,"rental_uris":{"android":"levelo://app?vid=da891840-0cec-4ccc-961c-48903736c6fa","ios":"levelo://app?vid=da891840-0cec-4ccc-961c-48903736c6fa"},"vehicle_type_id":"4","last_reported":1752999236,"current_range_meters":3200,"station_id":"","pricing_plan_id":"cebpf4jnsgd1na2vs0mg"},{"bike_id":"a071f057-15e2-45ba-a591-2f1902622308","system_id":"levelo_inurba_marseille","lat":43.31479,"lon":5.37308,"is_reserved":false,"is_disabled":false,"rental_uris":{"android":"levelo://app?vid=a071f057-15e2-45ba-a591-2f1902622308","ios":"levelo://app?vid=a071f057-15e2-45ba-a591-2f1902622308"},"vehicle_type_id":"4","last_reported":1752999236,"current_range_meters":3200,"station_id":"ce4bgt12rcd13ifvqcd0","pricing_plan_id":"cebpf4jnsgd1na2vs0mg"},{"bike_id":"cfb17d82-eb22-4eea-a7ca-3aec60bfa030","system_id":"levelo_inurba_marseille","lat":43.31358,"lon":5.38484,"is_reserved":false,"is_disabled":false,"rental_uris":{"android":"levelo://app?vid=cfb17d82-eb22-4eea-a7ca-3aec60bfa030","ios":"levelo://app?vid=cfb17d82-eb22-4eea-a7ca-3aec60bfa030"},"vehicle_type_id":"4","last_reported":1752999236,"current_range_meters":3200,"station_id":"ce4bgt92rcd13ifvqcf0","pricing_plan_id":"cebpf4jnsgd1na2vs0mg"},{"bike_id":"c090550e-4570-46fa-a4db-ccf7e16ae90b","system_id":"levelo_inurba_marseille","lat":43.26553,"lon":5.37282,"is_reserved":false,"is_disabled":true,"rental_uris":{"android":"levelo://app?vid=c090550e-4570-46fa-a4db-ccf7e16ae90b","ios":"levelo://app?vid=c090550e-4570-46fa-a4db-ccf7e16ae90b"},"vehicle_type_id":"4","last_reported":1752999236,"current_range_meters":3200,"station_id":"ce4bhg12rcd13ifvqf70","pricing_plan_id":"cebpf4jnsgd1na2vs0mg"},{"bike_id":"12957499-c3c8-4e9e-9181-2a2087409d90","system_id":"levelo_inurba_marseille","lat":43.284856,"lon":5.384281,"is_reserved":false,"is_disabled":true,"rental_uris":{"android":"levelo://app?vid=12957499-c3c8-4e9e-9181-2a2087409d90","ios":"levelo://app?vid=12957499-c3c8-4e9e-9181-2a2087409d90"},"vehicle_type_id":"4","last_reported":1752999236,"current_range_meters":3200,"station_id":"","pricing_plan_id":"cebpf4jnsgd1na2vs0mg"},{"bike_id":"415ff839-3eb5-42b6-8141-99c745448c01","system_id":"levelo_inurba_marseille","lat":43.26574,"lon":5.38687,"is_reserved":false,"is_disabled":false,"rental_uris":{"android":"levelo://app?vid=415ff839-3eb5-42b6-8141-99c745448c01","ios":"levelo://app?vid=415ff839-3eb5-42b6-8141-99c745448c01"},"vehicle_type_id":"4","last_reported":1752999236,"current_range_meters":3200,"station_id":"","pricing_plan_id":"cebpf4jnsgd1na2vs0mg"},{"bike_id":"3714740f-a822-4bac-b32a-a1be3e6d347f","system_id":"levelo_inurba_marseille","lat":43.2732,"lon":5.390765,"is_reserved":false,"is_disabled":false,"rental_uris":{"android":"levelo://app?vid=3714740f-a822-4bac-b32a-a1be3e6d347f","ios":"levelo://app?vid=3714740f-a822-4bac-b32a-a1be3e6d347f"},"vehicle_type_id":"4","last_reported":1752999236,"current_range_meters":2800,"station_id":"ce4bhgp2rcd13ifvqfe0","pricing_plan_id":"cebpf4jnsgd1na2vs0mg"},{"bike_id":"355a772c-3157-4ba4-ac61-2ab7196133a8","system_id":"levelo_inurba_marseille","lat":43.30872,"lon":5.39652,"is_reserved":false,"is_disabled":false,"rental_uris":{"android":"levelo://app?vid=355a772c-3157-4ba4-ac61-2ab7196133a8","ios":"levelo://app?vid=355a772c-3157-4ba4-ac61-2ab7196133a8"},"vehicle_type_id":"4","last_reported":1752999236,"current_range_meters":3200,"station_id":"ce4bh012rcd13ifvqcv0","pricing_plan_id":"cebpf4jnsgd1na2vs0mg"},{"bike_id":"eb49a487-22e6-436d-8e19-4e4ec7c5b729","system_id":"levelo_inurba_marseille","lat":43.29552,"lon":5.42291,"is_reserved":false,"is_disabled":false,"rental_uris":{"android":"levelo://app?vid=eb49a487-22e6-436d-8e19-4e4ec7c5b729","ios":"levelo://app?vid=eb49a487-22e6-436d-8e19-4e4ec7c5b729"},"vehicle_type_id":"4","last_reported":1752999236,"current_range_meters":3600,"station_id":"ce4bhph2rcd13ifvqhdg","pricing_plan_id":"cebpf4jnsgd1na2vs0mg"},{"bike_id":"561aa2ae-6262-449f-a4cb-589d99624bf4","system_id":"levelo_inurba_marseille","lat":43.24069,"lon":5.3776,"is_reserved":false,"is_disabled":false,"rental_uris":{"android":"levelo://app?vid=561aa2ae-6262-449f-a4cb-589d99624bf4","ios":"levelo://app?vid=561aa2ae-6262-449f-a4cb-589d99624bf4"},"vehicle_type_id":"4","last_reported":1752999236,"current_range_meters":3600,"station_id":"ce4bhnp2rcd13ifvqgvg","pricing_plan_id":"cebpf4jnsgd1na2vs0mg"},{"bike_id":"bebe1450-b301-4f53-95e4-f8eb9f50ffdf","system_id":"levelo_inurba_marseille","lat":43.33571,"lon":5.41053,"is_reserved":false,"is_disabled":false,"rental_uris":{"android":"levelo://app?vid=bebe1450-b301-4f53-95e4-f8eb9f50ffdf","ios":"levelo://app?vid=bebe1450-b301-4f53-95e4-f8eb9f50ffdf"},"vehicle_type_id":"4","last_reported":1752999236,"current_range_meters":4000,"station_id":"","pricing_plan_id":"cebpf4jnsgd1na2vs0mg"},{"bike_id":"6883df58-6737-4f53-a438-d17fca741ba6","system_id":"levelo_inurba_marseille","lat":43.33035,"lon":5.39374,"is_reserved":false,"is_disabled":false,"rental_uris":{"android":"levelo://app?vid=6883df58-6737-4f53-a438-d17fca741ba6","ios":"levelo://app?vid=6883df58-6737-4f53-a438-d17fca741ba6"},"vehicle_type_id":"4","last_reported":1752999236,"current_range_meters":4000,"station_id":"","pricing_plan_id":"cebpf4jnsgd1na2vs0mg"},{"bike_id":"ce7bd25b-5213-4881-a28b-f582e6a1d712","system_id":"levelo_inurba_marseille","lat":43.31443,"lon":5.36729,"is_reserved":false,"is_disabled":true,"rental_uris":{"android":"levelo://app?vid=ce7bd25b-5213-4881-a28b-f582e6a1d712","ios":"levelo://app?vid=ce7bd25b-5213-4881-a28b-f582e6a1d712"},"vehicle_type_id":"4","last_reported":1752999236,"current_range_meters":4000,"station_id":"","pricing_plan_id":"cebpf4jnsgd1na2vs0mg"},{"bike_id":"8a8de0eb-d172-4378-9552-544c6cc04c48","system_id":"levelo_inurba_marseille","lat":43.24519,"lon":5.36933,"is_reserved":false,"is_disabled":false,"rental_uris":{"android":"levelo://app?vid=8a8de0eb-d172-4378-9552-544c6cc04c48","ios":"levelo://app?vid=8a8de0eb-d172-4378-9552-544c6cc04c48"},"vehicle_type_id":"4","last_reported":1752999236,"current_range_meters":4000,"station_id":"","pricing_plan_id":"cebpf4jnsgd1na2vs0mg"},{"bike_id":"cef9542c-cc81-4178-adf4-093122b85afd","system_id":"levelo_inurba_marseille","lat":43.30519,"lon":5.36497,"is_reserved":false,"is_disabled":false,"rental_uris":{"android":"levelo://app?vid=cef9542c-cc81-4178-adf4-093122b85afd","ios":"levelo://app?vid=cef9542c-cc81-4178-adf4-093122b85afd"},"vehicle_type_id":"4","last_reported":1752999236,"current_range_meters":4400,"station_id":"","pricing_plan_id":"cebpf4jnsgd1na2vs0mg"},{"bike_id":"eed2e13c-6519-4a15-931c-c57aa52fb312","system_id":"levelo_inurba_marseille","lat":43.31711,"lon":5.43698,"is_reserved":false,"is_disabled":false,"rental_uris":{"android":"levelo://app?vid=eed2e13c-6519-4a15-931c-c57aa52fb312","ios":"levelo://app?vid=eed2e13c-6519-4a15-931c-c57aa52fb312"},"vehicle_type_id":"4","last_reported":1752999236,"current_range_meters":5600,"station_id":"ce4bhp92rcd13ifvqhcg","pricing_plan_id":"cebpf4jnsgd1na2vs0mg"},{"bike_id":"0bb76ac3-697f-46bd-8e2a-8bbf8b0fb153","system_id":"levelo_inurba_marseille","lat":43.29544,"lon":5.3749,"is_reserved":false,"is_disabled":false,"rental_uris":{"android":"levelo://app?vid=0bb76ac3-697f-46bd-8e2a-8bbf8b0fb153","ios":"levelo://app?vid=0bb76ac3-697f-46bd-8e2a-8bbf8b0fb153"},"vehicle_type_id":"4","last_reported":1752999236,"current_range_meters":5600,"station_id":"ce4bgkp2rcd13ifvqbmg","pricing_plan_id":"cebpf4jnsgd1na2vs0mg"},{"bike_id":"c6db0f6a-96fe-4e1d-8ded-c2ef38c9bab4","system_id":"levelo_inurba_marseille","lat":43.305688,"lon":5.418387,"is_reserved":false,"is_disabled":true,"rental_uris":{"android":"levelo://app?vid=c6db0f6a-96fe-4e1d-8ded-c2ef38c9bab4","ios":"levelo://app?vid=c6db0f6a-96fe-4e1d-8ded-c2ef38c9bab4"},"vehicle_type_id":"4","last_reported":1752999236,"current_range_meters":6000,"station_id":"ce4bht12rcd13ifvqi60","pricing_plan_id":"cebpf4jnsgd1na2vs0mg"},{"bike_id":"2e532954-91d6-45d0-820d-bd93ef877e83","system_id":"levelo_inurba_marseille","lat":43.303243,"lon":5.394574,"is_reserved":false,"is_disabled":true,"rental_uris":{"android":"levelo://app?vid=2e532954-91d6-45d0-820d-bd93ef877e83","ios":"levelo://app?vid=2e532954-91d6-45d0-820d-bd93ef877e83"},"vehicle_type_id":"4","last_reported":1752999236,"current_range_meters":6000,"station_id":"","pricing_plan_id":"cebpf4jnsgd1na2vs0mg"},{"bike_id":"68de1490-3703-428a-87ac-e125e462fb93","system_id":"levelo_inurba_marseille","lat":43.29035,"lon":5.35909,"is_reserved":false,"is_disabled":false,"rental_uris":{"android":"levelo://app?vid=68de1490-3703-428a-87ac-e125e462fb93","ios":"levelo://app?vid=68de1490-3703-428a-87ac-e125e462fb93"},"vehicle_type_id":"4","last_reported":1752999236,"current_range_meters":6400,"station_id":"ce4bha92rcd13ifvqeg0","pricing_plan_id":"cebpf4jnsgd1na2vs0mg"},{"bike_id":"fc345a72-2428-4ee8-827c-5eb282c37241","system_id":"levelo_inurba_marseille","lat":43.25865,"lon":5.39895,"is_reserved":false,"is_disabled":false,"rental_uris":{"android":"levelo://app?vid=fc345a72-2428-4ee8-827c-5eb282c37241","ios":"levelo://app?vid=fc345a72-2428-4ee8-827c-5eb282c37241"},"vehicle_type_id":"4","last_reported":1752999236,"current_range_meters":6400,"station_id":"ce4bhl92rcd13ifvqghg","pricing_plan_id":"cebpf4jnsgd1na2vs0mg"},{"bike_id":"6919ffef-c495-4917-a554-896a3b3c492c","system_id":"levelo_inurba_marseille","lat":43.323618,"lon":5.367454,"is_reserved":false,"is_disabled":false,"rental_uris":{"android":"levelo://app?vid=6919ffef-c495-4917-a554-896a3b3c492c","ios":"levelo://app?vid=6919ffef-c495-4917-a554-896a3b3c492c"},"vehicle_type_id":"4","last_reported":1752999236,"current_range_meters":7200,"station_id":"ce4bhsh2rcd13ifvqi2g","pricing_plan_id":"cebpf4jnsgd1na2vs0mg"},{"bike_id":"aee76189-ab2c-4cbb-a955-c4d9c0b5b8fb","system_id":"levelo_inurba_marseille","lat":43.32736,"lon":5.40896,"is_reserved":false,"is_disabled":false,"rental_uris":{"android":"levelo://app?vid=aee76189-ab2c-4cbb-a955-c4d9c0b5b8fb","ios":"levelo://app?vid=aee76189-ab2c-4cbb-a955-c4d9c0b5b8fb"},"vehicle_type_id":"4","last_reported":1752999236,"current_range_meters":8000,"station_id":"","pricing_plan_id":"cebpf4jnsgd1na2vs0mg"},{"bike_id":"2d5426b7-c5ef-4761-9a4a-28e19dac621a","system_id":"levelo_inurba_marseille","lat":43.30414,"lon":5.41276,"is_reserved":false,"is_disabled":true,"rental_uris":{"android":"levelo://app?vid=2d5426b7-c5ef-4761-9a4a-28e19dac621a","ios":"levelo://app?vid=2d5426b7-c5ef-4761-9a4a-28e19dac621a"},"vehicle_type_id":"4","last_reported":1752999236,"current_range_meters":8000,"station_id":"ce4bhop2rcd13ifvqh8g","pricing_plan_id":"cebpf4jnsgd1na2vs0mg"},{"bike_id":"ec32d022-e872-49b5-bd4f-54d6f32b82ae","system_id":"levelo_inurba_marseille","lat":43.311174,"lon":5.377747,"is_reserved":false,"is_disabled":false,"rental_uris":{"android":"levelo://app?vid=ec32d022-e872-49b5-bd4f-54d6f32b82ae","ios":"levelo://app?vid=ec32d022-e872-49b5-bd4f-54d6f32b82ae"},"vehicle_type_id":"4","last_reported":1752999236,"current_range_meters":8000,"station_id":"","pricing_plan_id":"cebpf4jnsgd1na2vs0mg"},{"bike_id":"6f18ab1b-0c74-47b1-bed8-837677176207","system_id":"levelo_inurba_marseille","lat":43.32061,"lon":5.40815,"is_reserved":false,"is_disabled":false,"rental_uris":{"android":"levelo://app?vid=6f18ab1b-0c74-47b1-bed8-837677176207","ios":"levelo://app?vid=6f18ab1b-0c74-47b1-bed8-837677176207"},"vehicle_type_id":"4","last_reported":1752999236,"current_range_meters":8000,"station_id":"","pricing_plan_id":"cebpf4jnsgd1na2vs0mg"},{"bike_id":"9bf2cdee-0ef5-45f5-8410-0b32c5469213","system_id":"levelo_inurba_marseille","lat":43.2318,"lon":5.39987,"is_reserved":false,"is_disabled":false,"rental_uris":{"android":"levelo://app?vid=9bf2cdee-0ef5-45f5-8410-0b32c5469213","ios":"levelo://app?vid=9bf2cdee-0ef5-45f5-8410-0b32c5469213"},"vehicle_type_id":"4","last_reported":1752999236,"current_range_meters":8000,"station_id":"ce4bhn12rcd13ifvqgqg","pricing_plan_id":"cebpf4jnsgd1na2vs0mg"},{"bike_id":"8d590dba-9871-4ea4-bf5c-7a0545a88075","system_id":"levelo_inurba_marseille","lat":43.25895,"lon":5.40903,"is_reserved":false,"is_disabled":false,"rental_uris":{"android":"levelo://app?vid=8d590dba-9871-4ea4-bf5c-7a0545a88075","ios":"levelo://app?vid=8d590dba-9871-4ea4-bf5c-7a0545a88075"},"vehicle_type_id":"4","last_reported":1752999236,"current_range_meters":8400,"station_id":"ce4bhm92rcd13ifvqglg","pricing_plan_id":"cebpf4jnsgd1na2vs0mg"},{"bike_id":"3581e735-186c-4f7c-a905-f7969175be88","system_id":"levelo_inurba_marseille","lat":43.32282,"lon":5.38276,"is_reserved":false,"is_disabled":false,"rental_uris":{"android":"levelo://app?vid=3581e735-186c-4f7c-a905-f7969175be88","ios":"levelo://app?vid=3581e735-186c-4f7c-a905-f7969175be88"},"vehicle_type_id":"4","last_reported":1752999236,"current_range_meters":8400,"station_id":"ce4bhr12rcd13ifvqhqg","pricing_plan_id":"cebpf4jnsgd1na2vs0mg"},{"bike_id":"6acf6616-5bc2-413d-b8a9-de0cef45b2d4","system_id":"levelo_inurba_marseille","lat":43.24797,"lon":5.3745,"is_reserved":false,"is_disabled":true,"rental_uris":{"android":"levelo://app?vid=6acf6616-5bc2-413d-b8a9-de0cef45b2d4","ios":"levelo://app?vid=6acf6616-5bc2-413d-b8a9-de0cef45b2d4"},"vehicle_type_id":"4","last_reported":1752999236,"current_range_meters":8400,"station_id":"ce4bhgh2rcd13ifvqfb0","pricing_plan_id":"cebpf4jnsgd1na2vs0mg"},{"bike_id":"475b9799-8c28-49d7-a2bd-b989a871d401","system_id":"levelo_inurba_marseille","lat":43.240742,"lon":5.377536,"is_reserved":false,"is_disabled":true,"rental_uris":{"android":"levelo://app?vid=475b9799-8c28-49d7-a2bd-b989a871d401","ios":"levelo://app?vid=475b9799-8c28-49d7-a2bd-b989a871d401"},"vehicle_type_id":"4","last_reported":1752999236,"current_range_meters":8800,"station_id":"ce4bhnp2rcd13ifvqgvg","pricing_plan_id":"cebpf4jnsgd1na2vs0mg"},{"bike_id":"169248a3-cde9-4071-9264-00cf9e30c46e","system_id":"levelo_inurba_marseille","lat":43.329189,"lon":5.379773,"is_reserved":false,"is_disabled":false,"rental_uris":{"android":"levelo://app?vid=169248a3-cde9-4071-9264-00cf9e30c46e","ios":"levelo://app?vid=169248a3-cde9-4071-9264-00cf9e30c46e"},"vehicle_type_id":"4","last_reported":1752999236,"current_range_meters":8800,"station_id":"","pricing_plan_id":"cebpf4jnsgd1na2vs0mg"},{"bike_id":"bb0a3f3f-d2ef-48d0-918a-e8c09e22fadb","system_id":"levelo_inurba_marseille","lat":43.24074,"lon":5.37756,"is_reserved":false,"is_disabled":false,"rental_uris":{"android":"levelo://app?vid=bb0a3f3f-d2ef-48d0-918a-e8c09e22fadb","ios":"levelo://app?vid=bb0a3f3f-d2ef-48d0-918a-e8c09e22fadb"},"vehicle_type_id":"4","last_reported":1752999236,"current_range_meters":8800,"station_id":"ce4bhnp2rcd13ifvqgvg","pricing_plan_id":"cebpf4jnsgd1na2vs0mg"},{"bike_id":"bb5fbe16-dabe-4ab0-a585-5067c1687587","system_id":"levelo_inurba_marseille","lat":43.317,"lon":5.40501,"is_reserved":false,"is_disabled":false,"rental_uris":{"android":"levelo://app?vid=bb5fbe16-dabe-4ab0-a585-5067c1687587","ios":"levelo://app?vid=bb5fbe16-dabe-4ab0-a585-5067c1687587"},"vehicle_type_id":"4","last_reported":1752999236,"current_range_meters":8800,"station_id":"ce4bh012rcd13ifvqd00","pricing_plan_id":"cebpf4jnsgd1na2vs0mg"},{"bike_id":"4b0ce299-727c-48ce-b95a-b67cdf638733","system_id":"levelo_inurba_marseille","lat":43.229258,"lon":5.353799,"is_reserved":false,"is_disabled":false,"rental_uris":{"android":"levelo://app?vid=4b0ce299-727c-48ce-b95a-b67cdf638733","ios":"levelo://app?vid=4b0ce299-727c-48ce-b95a-b67cdf638733"},"vehicle_type_id":"4","last_reported":1752999236,"current_range_meters":9200,"station_id":"","pricing_plan_id":"cebpf4jnsgd1na2vs0mg"},{"bike_id":"9bcc75c8-ba52-4ca3-89cc-71e6c24420e4","system_id":"levelo_inurba_marseille","lat":43.32105,"lon":5.36769,"is_reserved":false,"is_disabled":false,"rental_uris":{"android":"levelo://app?vid=9bcc75c8-ba52-4ca3-89cc-71e6c24420e4","ios":"levelo://app?vid=9bcc75c8-ba52-4ca3-89cc-71e6c24420e4"},"vehicle_type_id":"4","last_reported":1752999236,"current_range_meters":9200,"station_id":"ce4bhrh2rcd13ifvqhug","pricing_plan_id":"cebpf4jnsgd1na2vs0mg"},{"bike_id":"21d64047-729c-4bda-a9e1-48c680fa91bf","system_id":"levelo_inurba_marseille","lat":43.30666,"lon":5.40066,"is_reserved":false,"is_disabled":false,"rental_uris":{"android":"levelo://app?vid=21d64047-729c-4bda-a9e1-48c680fa91bf","ios":"levelo://app?vid=21d64047-729c-4bda-a9e1-48c680fa91bf"},"vehicle_type_id":"4","last_reported":1752999236,"current_range_meters":9200,"station_id":"ce4bh112rcd13ifvqda0","pricing_plan_id":"cebpf4jnsgd1na2vs0mg"},{"bike_id":"fbce2760-a77c-4995-adb9-1861ef5163ad","system_id":"levelo_inurba_marseille","lat":43.28404,"lon":5.3752,"is_reserved":false,"is_disabled":false,"rental_uris":{"android":"levelo://app?vid=fbce2760-a77c-4995-adb9-1861ef5163ad","ios":"levelo://app?vid=fbce2760-a77c-4995-adb9-1861ef5163ad"},"vehicle_type_id":"4","last_reported":1752999236,"current_range_meters":9600,"station_id":"ce4bh412rcd13ifvqds0","pricing_plan_id":"cebpf4jnsgd1na2vs0mg"},{"bike_id":"94c07cb2-0943-4d24-99f2-97bdab47aa3f","system_id":"levelo_inurba_marseille","lat":43.337444,"lon":5.374475,"is_reserved":false,"is_disabled":false,"rental_uris":{"android":"levelo://app?vid=94c07cb2-0943-4d24-99f2-97bdab47aa3f","ios":"levelo://app?vid=94c07cb2-0943-4d24-99f2-97bdab47aa3f"},"vehicle_type_id":"4","last_reported":1752999236,"current_range_meters":9600,"station_id":"","pricing_plan_id":"cebpf4jnsgd1na2vs0mg"},{"bike_id":"cd128983-a454-4c13-94ae-fcd144bb2a06","system_id":"levelo_inurba_marseille","lat":43.32354,"lon":5.36727,"is_reserved":false,"is_disabled":false,"rental_uris":{"android":"levelo://app?vid=cd128983-a454-4c13-94ae-fcd144bb2a06","ios":"levelo://app?vid=cd128983-a454-4c13-94ae-fcd144bb2a06"},"vehicle_type_id":"4","last_reported":1752999236,"current_range_meters":10000,"station_id":"ce4bhsh2rcd13ifvqi2g","pricing_plan_id":"cebpf4jnsgd1na2vs0mg"},{"bike_id":"8dfcb722-ab6c-4880-803a-abe06bb28356","system_id":"levelo_inurba_marseille","lat":43.302559,"lon":5.400531,"is_reserved":false,"is_disabled":false,"rental_uris":{"android":"levelo://app?vid=8dfcb722-ab6c-4880-803a-abe06bb28356","ios":"levelo://app?vid=8dfcb722-ab6c-4880-803a-abe06bb28356"},"vehicle_type_id":"4","last_reported":1752999236,"current_range_meters":10000,"station_id":"ce4bgvh2rcd13ifvqcs0","pricing_plan_id":"cebpf4jnsgd1na2vs0mg"},{"bike_id":"b9fced18-9d1a-4197-85f4-d3fcdf201017","system_id":"levelo_inurba_marseille","lat":43.29868,"lon":5.39734,"is_reserved":false,"is_disabled":false,"rental_uris":{"android":"levelo://app?vid=b9fced18-9d1a-4197-85f4-d3fcdf201017","ios":"levelo://app?vid=b9fced18-9d1a-4197-85f4-d3fcdf201017"},"vehicle_type_id":"4","last_reported":1752999236,"current_range_meters":10000,"station_id":"","pricing_plan_id":"cebpf4jnsgd1na2vs0mg"},{"bike_id":"98dffb83-3442-4354-acac-cfad41b661bd","system_id":"levelo_inurba_marseille","lat":43.31708,"lon":5.43703,"is_reserved":false,"is_disabled":false,"rental_uris":{"android":"levelo://app?vid=98dffb83-3442-4354-acac-cfad41b661bd","ios":"levelo://app?vid=98dffb83-3442-4354-acac-cfad41b661bd"},"vehicle_type_id":"4","last_reported":1752999236,"current_range_meters":10000,"station_id":"ce4bhp92rcd13ifvqhcg","pricing_plan_id":"cebpf4jnsgd1na2vs0mg"},{"bike_id":"d1e9c72e-7489-4052-b944-813b64bc55b4","system_id":"levelo_inurba_marseille","lat":43.31597,"lon":5.38936,"is_reserved":false,"is_disabled":false,"rental_uris":{"android":"levelo://app?vid=d1e9c72e-7489-4052-b944-813b64bc55b4","ios":"levelo://app?vid=d1e9c72e-7489-4052-b944-813b64bc55b4"},"vehicle_type_id":"4","last_reported":1752999236,"current_range_meters":10000,"station_id":"","pricing_plan_id":"cebpf4jnsgd1na2vs0mg"},{"bike_id":"b06ed387-12fe-48b5-a720-4a405e063876","system_id":"levelo_inurba_marseille","lat":43.305597,"lon":5.365506,"is_reserved":false,"is_disabled":false,"rental_uris":{"android":"levelo://app?vid=b06ed387-12fe-48b5-a720-4a405e063876","ios":"levelo://app?vid=b06ed387-12fe-48b5-a720-4a405e063876"},"vehicle_type_id":"4","last_reported":1752999236,"current_range_meters":9600,"station_id":"ce4bgs12rcd13ifvqcag","pricing_plan_id":"cebpf4jnsgd1na2vs0mg"},{"bike_id":"79f9c85e-941f-48a2-86a9-be04690aac8d","system_id":"levelo_inurba_marseille","lat":43.306464,"lon":5.400658,"is_reserved":false,"is_disabled":false,"rental_uris":{"android":"levelo://app?vid=79f9c85e-941f-48a2-86a9-be04690aac8d","ios":"levelo://app?vid=79f9c85e-941f-48a2-86a9-be04690aac8d"},"vehicle_type_id":"4","last_reported":1752999236,"current_range_meters":10800,"station_id":"ce4bh112rcd13ifvqda0","pricing_plan_id":"cebpf4jnsgd1na2vs0mg"},{"bike_id":"7aa7d212-bfaa-41e7-a0f3-41240270c15f","system_id":"levelo_inurba_marseille","lat":43.29562,"lon":5.42279,"is_reserved":false,"is_disabled":false,"rental_uris":{"android":"levelo://app?vid=7aa7d212-bfaa-41e7-a0f3-41240270c15f","ios":"levelo://app?vid=7aa7d212-bfaa-41e7-a0f3-41240270c15f"},"vehicle_type_id":"4","last_reported":1752999236,"current_range_meters":10800,"station_id":"ce4bhph2rcd13ifvqhdg","pricing_plan_id":"cebpf4jnsgd1na2vs0mg"},{"bike_id":"9f96b854-e027-4c40-b573-f426a572ccbf","system_id":"levelo_inurba_marseille","lat":43.32991,"lon":5.39768,"is_reserved":false,"is_disabled":false,"rental_uris":{"android":"levelo://app?vid=9f96b854-e027-4c40-b573-f426a572ccbf","ios":"levelo://app?vid=9f96b854-e027-4c40-b573-f426a572ccbf"},"vehicle_type_id":"4","last_reported":1752999236,"current_range_meters":10800,"station_id":"","pricing_plan_id":"cebpf4jnsgd1na2vs0mg"},{"bike_id":"dbe3f53f-5cf1-428e-b135-1e976ecdd9e1","system_id":"levelo_inurba_marseille","lat":43.229295,"lon":5.353761,"is_reserved":false,"is_disabled":true,"rental_uris":{"android":"levelo://app?vid=dbe3f53f-5cf1-428e-b135-1e976ecdd9e1","ios":"levelo://app?vid=dbe3f53f-5cf1-428e-b135-1e976ecdd9e1"},"vehicle_type_id":"4","last_reported":1752999236,"current_range_meters":10800,"station_id":"","pricing_plan_id":"cebpf4jnsgd1na2vs0mg"},{"bike_id":"c9ffd04b-c3a5-49bc-9896-054acbb108c7","system_id":"levelo_inurba_marseille","lat":43.225154,"lon":5.347761,"is_reserved":false,"is_disabled":false,"rental_uris":{"android":"levelo://app?vid=c9ffd04b-c3a5-49bc-9896-054acbb108c7","ios":"levelo://app?vid=c9ffd04b-c3a5-49bc-9896-054acbb108c7"},"vehicle_type_id":"4","last_reported":1752999236,"current_range_meters":10800,"station_id":"st_cvj5dfep6f1abm77gieg","pricing_plan_id":"cebpf4jnsgd1na2vs0mg"},{"bike_id":"aff5b30e-99dc-4ae1-bd58-54a311d8a1f5","system_id":"levelo_inurba_marseille","lat":43.29977,"lon":5.37181,"is_reserved":false,"is_disabled":true,"rental_uris":{"android":"levelo://app?vid=aff5b30e-99dc-4ae1-bd58-54a311d8a1f5","ios":"levelo://app?vid=aff5b30e-99dc-4ae1-bd58-54a311d8a1f5"},"vehicle_type_id":"4","last_reported":1752999236,"current_range_meters":11200,"station_id":"ce4bgr92rcd13ifvqc7g","pricing_plan_id":"cebpf4jnsgd1na2vs0mg"},{"bike_id":"e1a27484-d933-49a5-adb5-ce1233dc02e0","system_id":"levelo_inurba_marseille","lat":43.24171,"lon":5.39729,"is_reserved":false,"is_disabled":false,"rental_uris":{"android":"levelo://app?vid=e1a27484-d933-49a5-adb5-ce1233dc02e0","ios":"levelo://app?vid=e1a27484-d933-49a5-adb5-ce1233dc02e0"},"vehicle_type_id":"4","last_reported":1752999236,"current_range_meters":11200,"station_id":"ce4bhn12rcd13ifvqgpg","pricing_plan_id":"cebpf4jnsgd1na2vs0mg"},{"bike_id":"9ca3e00b-43dc-46fd-9037-6c83260b90ba","system_id":"levelo_inurba_marseille","lat":43.31118,"lon":5.37758,"is_reserved":false,"is_disabled":false,"rental_uris":{"android":"levelo://app?vid=9ca3e00b-43dc-46fd-9037-6c83260b90ba","ios":"levelo://app?vid=9ca3e00b-43dc-46fd-9037-6c83260b90ba"},"vehicle_type_id":"4","last_reported":1752999236,"current_range_meters":11200,"station_id":"ce4bgt92rcd13ifvqcg0","pricing_plan_id":"cebpf4jnsgd1na2vs0mg"},{"bike_id":"0fd02cf6-67fb-4589-807f-241dd50b7e1a","system_id":"levelo_inurba_marseille","lat":43.299036,"lon":5.436621,"is_reserved":false,"is_disabled":true,"rental_uris":{"android":"levelo://app?vid=0fd02cf6-67fb-4589-807f-241dd50b7e1a","ios":"levelo://app?vid=0fd02cf6-67fb-4589-807f-241dd50b7e1a"},"vehicle_type_id":"4","last_reported":1752999236,"current_range_meters":11200,"station_id":"ce4bhpp2rcd13ifvqhfg","pricing_plan_id":"cebpf4jnsgd1na2vs0mg"},{"bike_id":"48a3aabe-42c8-4428-a5da-c66709a678c0","system_id":"levelo_inurba_marseille","lat":43.25109,"lon":5.40319,"is_reserved":false,"is_disabled":false,"rental_uris":{"android":"levelo://app?vid=48a3aabe-42c8-4428-a5da-c66709a678c0","ios":"levelo://app?vid=48a3aabe-42c8-4428-a5da-c66709a678c0"},"vehicle_type_id":"4","last_reported":1752999236,"current_range_meters":11200,"station_id":"ce4bhlh2rcd13ifvqgig","pricing_plan_id":"cebpf4jnsgd1na2vs0mg"},{"bike_id":"64f40d21-11c6-4844-b393-aa62bbdc4667","system_id":"levelo_inurba_marseille","lat":43.28331,"lon":5.38102,"is_reserved":false,"is_disabled":false,"rental_uris":{"android":"levelo://app?vid=64f40d21-11c6-4844-b393-aa62bbdc4667","ios":"levelo://app?vid=64f40d21-11c6-4844-b393-aa62bbdc4667"},"vehicle_type_id":"4","last_reported":1752999236,"current_range_meters":11200,"station_id":"ce4bh412rcd13ifvqdr0","pricing_plan_id":"cebpf4jnsgd1na2vs0mg"},{"bike_id":"df505bec-05da-4366-bd92-8ada640ac6cf","system_id":"levelo_inurba_marseille","lat":43.27948,"lon":5.41037,"is_reserved":false,"is_disabled":false,"rental_uris":{"android":"levelo://app?vid=df505bec-05da-4366-bd92-8ada640ac6cf","ios":"levelo://app?vid=df505bec-05da-4366-bd92-8ada640ac6cf"},"vehicle_type_id":"4","last_reported":1752999236,"current_range_meters":11200,"station_id":"ce4bhnp2rcd13ifvqh0g","pricing_plan_id":"cebpf4jnsgd1na2vs0mg"},{"bike_id":"646bd144-4ffa-49b8-a08d-6b47ca08200f","system_id":"levelo_inurba_marseille","lat":43.254963,"lon":5.376529,"is_reserved":false,"is_disabled":true,"rental_uris":{"android":"levelo://app?vid=646bd144-4ffa-49b8-a08d-6b47ca08200f","ios":"levelo://app?vid=646bd144-4ffa-49b8-a08d-6b47ca08200f"},"vehicle_type_id":"4","last_reported":1752999236,"current_range_meters":11200,"station_id":"ce4bhh12rcd13ifvqff0","pricing_plan_id":"cebpf4jnsgd1na2vs0mg"},{"bike_id":"c9319e1c-ae3c-4acb-b55c-246e4908743c","system_id":"levelo_inurba_marseille","lat":43.2989,"lon":5.43662,"is_reserved":false,"is_disabled":false,"rental_uris":{"android":"levelo://app?vid=c9319e1c-ae3c-4acb-b55c-246e4908743c","ios":"levelo://app?vid=c9319e1c-ae3c-4acb-b55c-246e4908743c"},"vehicle_type_id":"4","last_reported":1752999236,"current_range_meters":11200,"station_id":"ce4bhpp2rcd13ifvqhfg","pricing_plan_id":"cebpf4jnsgd1na2vs0mg"},{"bike_id":"0ff9b298-32e2-4a22-a8be-d7f20e53bc11","system_id":"levelo_inurba_marseille","lat":43.23185,"lon":5.4,"is_reserved":false,"is_disabled":false,"rental_uris":{"android":"levelo://app?vid=0ff9b298-32e2-4a22-a8be-d7f20e53bc11","ios":"levelo://app?vid=0ff9b298-32e2-4a22-a8be-d7f20e53bc11"},"vehicle_type_id":"4","last_reported":1752999236,"current_range_meters":11600,"station_id":"ce4bhn12rcd13ifvqgqg","pricing_plan_id":"cebpf4jnsgd1na2vs0mg"},{"bike_id":"ac141403-2eff-454e-8bd1-3d400d40ed2b","system_id":"levelo_inurba_marseille","lat":43.331084,"lon":5.400179,"is_reserved":false,"is_disabled":false,"rental_uris":{"android":"levelo://app?vid=ac141403-2eff-454e-8bd1-3d400d40ed2b","ios":"levelo://app?vid=ac141403-2eff-454e-8bd1-3d400d40ed2b"},"vehicle_type_id":"4","last_reported":1752999236,"current_range_meters":11600,"station_id":"","pricing_plan_id":"cebpf4jnsgd1na2vs0mg"},{"bike_id":"93301aca-c2c0-493e-a567-7195bb3fc61b","system_id":"levelo_inurba_marseille","lat":43.28264,"lon":5.35063,"is_reserved":false,"is_disabled":true,"rental_uris":{"android":"levelo://app?vid=93301aca-c2c0-493e-a567-7195bb3fc61b","ios":"levelo://app?vid=93301aca-c2c0-493e-a567-7195bb3fc61b"},"vehicle_type_id":"4","last_reported":1752999236,"current_range_meters":11600,"station_id":"ce4bhbp2rcd13ifvqerg","pricing_plan_id":"cebpf4jnsgd1na2vs0mg"},{"bike_id":"0f0220a6-e7a6-42bd-9130-aa4708a93223","system_id":"levelo_inurba_marseille","lat":43.29975,"lon":5.371679,"is_reserved":false,"is_disabled":false,"rental_uris":{"android":"levelo://app?vid=0f0220a6-e7a6-42bd-9130-aa4708a93223","ios":"levelo://app?vid=0f0220a6-e7a6-42bd-9130-aa4708a93223"},"vehicle_type_id":"4","last_reported":1752999236,"current_range_meters":11600,"station_id":"ce4bgr92rcd13ifvqc7g","pricing_plan_id":"cebpf4jnsgd1na2vs0mg"},{"bike_id":"6a193f41-f336-48d3-a5d0-a6fca3bf067e","system_id":"levelo_inurba_marseille","lat":43.24694,"lon":5.38145,"is_reserved":false,"is_disabled":false,"rental_uris":{"android":"levelo://app?vid=6a193f41-f336-48d3-a5d0-a6fca3bf067e","ios":"levelo://app?vid=6a193f41-f336-48d3-a5d0-a6fca3bf067e"},"vehicle_type_id":"4","last_reported":1752999236,"current_range_meters":11600,"station_id":"ce4bhih2rcd13ifvqfr0","pricing_plan_id":"cebpf4jnsgd1na2vs0mg"},{"bike_id":"f49b299d-35c0-49c5-b7bc-03b5b182892b","system_id":"levelo_inurba_marseille","lat":43.31759,"lon":5.39007,"is_reserved":false,"is_disabled":false,"rental_uris":{"android":"levelo://app?vid=f49b299d-35c0-49c5-b7bc-03b5b182892b","ios":"levelo://app?vid=f49b299d-35c0-49c5-b7bc-03b5b182892b"},"vehicle_type_id":"4","last_reported":1752999236,"current_range_meters":11600,"station_id":"ce4bhqp2rcd13ifvqhng","pricing_plan_id":"cebpf4jnsgd1na2vs0mg"},{"bike_id":"71ad1d58-a67d-44fa-9d27-038f4995d3b5","system_id":"levelo_inurba_marseille","lat":43.29195,"lon":5.35797,"is_reserved":false,"is_disabled":false,"rental_uris":{"android":"levelo://app?vid=71ad1d58-a67d-44fa-9d27-038f4995d3b5","ios":"levelo://app?vid=71ad1d58-a67d-44fa-9d27-038f4995d3b5"},"vehicle_type_id":"4","last_reported":1752999236,"current_range_meters":11200,"station_id":"ce4bhb12rcd13ifvqel0","pricing_plan_id":"cebpf4jnsgd1na2vs0mg"},{"bike_id":"d421927e-7ddd-40a0-904f-5b4ff0266a72","system_id":"levelo_inurba_marseille","lat":43.31905,"lon":5.40158,"is_reserved":false,"is_disabled":false,"rental_uris":{"android":"levelo://app?vid=d421927e-7ddd-40a0-904f-5b4ff0266a72","ios":"levelo://app?vid=d421927e-7ddd-40a0-904f-5b4ff0266a72"},"vehicle_type_id":"4","last_reported":1752999236,"current_range_meters":12000,"station_id":"","pricing_plan_id":"cebpf4jnsgd1na2vs0mg"},{"bike_id":"69d61426-a65f-40c9-a5b9-3c9b37e29a4f","system_id":"levelo_inurba_marseille","lat":43.22926,"lon":5.35384,"is_reserved":false,"is_disabled":false,"rental_uris":{"android":"levelo://app?vid=69d61426-a65f-40c9-a5b9-3c9b37e29a4f","ios":"levelo://app?vid=69d61426-a65f-40c9-a5b9-3c9b37e29a4f"},"vehicle_type_id":"4","last_reported":1752999236,"current_range_meters":12000,"station_id":"cpo3532slgdg3j2ikp40","pricing_plan_id":"cebpf4jnsgd1na2vs0mg"},{"bike_id":"cf9f7b6f-b252-45aa-bd41-e7b8a5947e88","system_id":"levelo_inurba_marseille","lat":43.269421,"lon":5.402712,"is_reserved":false,"is_disabled":true,"rental_uris":{"android":"levelo://app?vid=cf9f7b6f-b252-45aa-bd41-e7b8a5947e88","ios":"levelo://app?vid=cf9f7b6f-b252-45aa-bd41-e7b8a5947e88"},"vehicle_type_id":"4","last_reported":1752999236,"current_range_meters":12000,"station_id":"cjm6bp8fraef2m0cb0m0","pricing_plan_id":"cebpf4jnsgd1na2vs0mg"},{"bike_id":"892e06aa-05f6-415f-96f6-13455b0802de","system_id":"levelo_inurba_marseille","lat":43.29568,"lon":5.37487,"is_reserved":false,"is_disabled":true,"rental_uris":{"android":"levelo://app?vid=892e06aa-05f6-415f-96f6-13455b0802de","ios":"levelo://app?vid=892e06aa-05f6-415f-96f6-13455b0802de"},"vehicle_type_id":"4","last_reported":1752999236,"current_range_meters":12000,"station_id":"ce4bgh92rcd13ifvqb50","pricing_plan_id":"cebpf4jnsgd1na2vs0mg"},{"bike_id":"e307f4bf-a8af-4b77-8ebc-94bd83c9eba9","system_id":"levelo_inurba_marseille","lat":43.22928,"lon":5.35371,"is_reserved":false,"is_disabled":false,"rental_uris":{"android":"levelo://app?vid=e307f4bf-a8af-4b77-8ebc-94bd83c9eba9","ios":"levelo://app?vid=e307f4bf-a8af-4b77-8ebc-94bd83c9eba9"},"vehicle_type_id":"4","last_reported":1752999236,"current_range_meters":12000,"station_id":"cpo3532slgdg3j2ikp40","pricing_plan_id":"cebpf4jnsgd1na2vs0mg"},{"bike_id":"58c83dfe-a671-4b4f-9857-0dcbd0243261","system_id":"levelo_inurba_marseille","lat":43.25577,"lon":5.38231,"is_reserved":false,"is_disabled":false,"rental_uris":{"android":"levelo://app?vid=58c83dfe-a671-4b4f-9857-0dcbd0243261","ios":"levelo://app?vid=58c83dfe-a671-4b4f-9857-0dcbd0243261"},"vehicle_type_id":"4","last_reported":1752999236,"current_range_meters":12000,"station_id":"ce4bhih2rcd13ifvqfs0","pricing_plan_id":"cebpf4jnsgd1na2vs0mg"},{"bike_id":"7592d3b0-727d-4107-ba81-a2966cdc2b34","system_id":"levelo_inurba_marseille","lat":43.262215,"lon":5.404428,"is_reserved":false,"is_disabled":false,"rental_uris":{"android":"levelo://app?vid=7592d3b0-727d-4107-ba81-a2966cdc2b34","ios":"levelo://app?vid=7592d3b0-727d-4107-ba81-a2966cdc2b34"},"vehicle_type_id":"4","last_reported":1752999236,"current_range_meters":12000,"station_id":"ce4bhmh2rcd13ifvqgmg","pricing_plan_id":"cebpf4jnsgd1na2vs0mg"},{"bike_id":"7da69f3d-17ea-45bd-8065-f715d544d5a5","system_id":"levelo_inurba_marseille","lat":43.27065,"lon":5.42278,"is_reserved":false,"is_disabled":false,"rental_uris":{"android":"levelo://app?vid=7da69f3d-17ea-45bd-8065-f715d544d5a5","ios":"levelo://app?vid=7da69f3d-17ea-45bd-8065-f715d544d5a5"},"vehicle_type_id":"4","last_reported":1752999236,"current_range_meters":12400,"station_id":"ce4bhk92rcd13ifvqgb0","pricing_plan_id":"cebpf4jnsgd1na2vs0mg"},{"bike_id":"cbd7089c-9d2d-42db-a268-faaaa69d7343","system_id":"levelo_inurba_marseille","lat":43.26229,"lon":5.37424,"is_reserved":false,"is_disabled":true,"rental_uris":{"android":"levelo://app?vid=cbd7089c-9d2d-42db-a268-faaaa69d7343","ios":"levelo://app?vid=cbd7089c-9d2d-42db-a268-faaaa69d7343"},"vehicle_type_id":"4","last_reported":1752999236,"current_range_meters":12400,"station_id":"","pricing_plan_id":"cebpf4jnsgd1na2vs0mg"},{"bike_id":"a6de290b-5c15-427b-bc37-8301607e1735","system_id":"levelo_inurba_marseille","lat":43.337444,"lon":5.374475,"is_reserved":false,"is_disabled":false,"rental_uris":{"android":"levelo://app?vid=a6de290b-5c15-427b-bc37-8301607e1735","ios":"levelo://app?vid=a6de290b-5c15-427b-bc37-8301607e1735"},"vehicle_type_id":"4","last_reported":1752999236,"current_range_meters":12400,"station_id":"","pricing_plan_id":"cebpf4jnsgd1na2vs0mg"},{"bike_id":"77e5d396-9f38-43c2-ae33-ac1f85df337d","system_id":"levelo_inurba_marseille","lat":43.29563,"lon":5.42289,"is_reserved":false,"is_disabled":false,"rental_uris":{"android":"levelo://app?vid=77e5d396-9f38-43c2-ae33-ac1f85df337d","ios":"levelo://app?vid=77e5d396-9f38-43c2-ae33-ac1f85df337d"},"vehicle_type_id":"4","last_reported":1752999236,"current_range_meters":12400,"station_id":"ce4bhph2rcd13ifvqhdg","pricing_plan_id":"cebpf4jnsgd1na2vs0mg"},{"bike_id":"f7275b41-488d-46bf-b07c-fe7da4c8764a","system_id":"levelo_inurba_marseille","lat":43.2439,"lon":5.37055,"is_reserved":false,"is_disabled":false,"rental_uris":{"android":"levelo://app?vid=f7275b41-488d-46bf-b07c-fe7da4c8764a","ios":"levelo://app?vid=f7275b41-488d-46bf-b07c-fe7da4c8764a"},"vehicle_type_id":"4","last_reported":1752999236,"current_range_meters":12400,"station_id":"ce4bhhh2rcd13ifvqfk0","pricing_plan_id":"cebpf4jnsgd1na2vs0mg"},{"bike_id":"1071dc4b-8ced-4f83-bd26-3e1690b0c935","system_id":"levelo_inurba_marseille","lat":43.24096,"lon":5.37777,"is_reserved":false,"is_disabled":false,"rental_uris":{"android":"levelo://app?vid=1071dc4b-8ced-4f83-bd26-3e1690b0c935","ios":"levelo://app?vid=1071dc4b-8ced-4f83-bd26-3e1690b0c935"},"vehicle_type_id":"4","last_reported":1752999236,"current_range_meters":12400,"station_id":"ce4bhnp2rcd13ifvqgvg","pricing_plan_id":"cebpf4jnsgd1na2vs0mg"},{"bike_id":"6433000a-24d8-4819-9c0d-d9d56cbf43ef","system_id":"levelo_inurba_marseille","lat":43.29583,"lon":5.36738,"is_reserved":false,"is_disabled":false,"rental_uris":{"android":"levelo://app?vid=6433000a-24d8-4819-9c0d-d9d56cbf43ef","ios":"levelo://app?vid=6433000a-24d8-4819-9c0d-d9d56cbf43ef"},"vehicle_type_id":"4","last_reported":1752999236,"current_range_meters":12400,"station_id":"ce4bgph2rcd13ifvqc2g","pricing_plan_id":"cebpf4jnsgd1na2vs0mg"},{"bike_id":"9baacae5-c1bf-48e1-b926-f80c8ed9e530","system_id":"levelo_inurba_marseille","lat":43.26202,"lon":5.37928,"is_reserved":false,"is_disabled":false,"rental_uris":{"android":"levelo://app?vid=9baacae5-c1bf-48e1-b926-f80c8ed9e530","ios":"levelo://app?vid=9baacae5-c1bf-48e1-b926-f80c8ed9e530"},"vehicle_type_id":"4","last_reported":1752999236,"current_range_meters":12000,"station_id":"ce4bhjp2rcd13ifvqg90","pricing_plan_id":"cebpf4jnsgd1na2vs0mg"},{"bike_id":"b9246e48-e9f8-4924-bbb9-8c633997abe7","system_id":"levelo_inurba_marseille","lat":43.22921,"lon":5.35381,"is_reserved":false,"is_disabled":false,"rental_uris":{"android":"levelo://app?vid=b9246e48-e9f8-4924-bbb9-8c633997abe7","ios":"levelo://app?vid=b9246e48-e9f8-4924-bbb9-8c633997abe7"},"vehicle_type_id":"4","last_reported":1752999236,"current_range_meters":12800,"station_id":"cpo3532slgdg3j2ikp40","pricing_plan_id":"cebpf4jnsgd1na2vs0mg"},{"bike_id":"471dc3d5-ac0c-4fb1-b8ed-9304c84605d1","system_id":"levelo_inurba_marseille","lat":43.30136,"lon":5.39858,"is_reserved":false,"is_disabled":false,"rental_uris":{"android":"levelo://app?vid=471dc3d5-ac0c-4fb1-b8ed-9304c84605d1","ios":"levelo://app?vid=471dc3d5-ac0c-4fb1-b8ed-9304c84605d1"},"vehicle_type_id":"4","last_reported":1752999236,"current_range_meters":12800,"station_id":"ce4bh0h2rcd13ifvqd40","pricing_plan_id":"cebpf4jnsgd1na2vs0mg"},{"bike_id":"7a2e1cf8-de90-4b24-ade1-9d8b3a17f052","system_id":"levelo_inurba_marseille","lat":43.25189,"lon":5.37577,"is_reserved":false,"is_disabled":false,"rental_uris":{"android":"levelo://app?vid=7a2e1cf8-de90-4b24-ade1-9d8b3a17f052","ios":"levelo://app?vid=7a2e1cf8-de90-4b24-ade1-9d8b3a17f052"},"vehicle_type_id":"4","last_reported":1752999236,"current_range_meters":12800,"station_id":"","pricing_plan_id":"cebpf4jnsgd1na2vs0mg"},{"bike_id":"d916997f-1b3d-4d99-bec2-f22f10a49844","system_id":"levelo_inurba_marseille","lat":43.25137,"lon":5.40357,"is_reserved":false,"is_disabled":false,"rental_uris":{"android":"levelo://app?vid=d916997f-1b3d-4d99-bec2-f22f10a49844","ios":"levelo://app?vid=d916997f-1b3d-4d99-bec2-f22f10a49844"},"vehicle_type_id":"4","last_reported":1752999236,"current_range_meters":12800,"station_id":"ce4bhlh2rcd13ifvqgig","pricing_plan_id":"cebpf4jnsgd1na2vs0mg"},{"bike_id":"9b35115e-cff6-4e24-bec6-1fee8c589371","system_id":"levelo_inurba_marseille","lat":43.28615,"lon":5.35095,"is_reserved":false,"is_disabled":false,"rental_uris":{"android":"levelo://app?vid=9b35115e-cff6-4e24-bec6-1fee8c589371","ios":"levelo://app?vid=9b35115e-cff6-4e24-bec6-1fee8c589371"},"vehicle_type_id":"4","last_reported":1752999236,"current_range_meters":12800,"station_id":"ce4bhch2rcd13ifvqeug","pricing_plan_id":"cebpf4jnsgd1na2vs0mg"},{"bike_id":"ae0d8c9f-8119-4312-b429-39e92d4e6ae7","system_id":"levelo_inurba_marseille","lat":43.23151,"lon":5.43711,"is_reserved":false,"is_disabled":false,"rental_uris":{"android":"levelo://app?vid=ae0d8c9f-8119-4312-b429-39e92d4e6ae7","ios":"levelo://app?vid=ae0d8c9f-8119-4312-b429-39e92d4e6ae7"},"vehicle_type_id":"4","last_reported":1752999236,"current_range_meters":12800,"station_id":"ce4bhmp2rcd13ifvqgog","pricing_plan_id":"cebpf4jnsgd1na2vs0mg"},{"bike_id":"f11d5853-771f-43df-bd89-c14a78847538","system_id":"levelo_inurba_marseille","lat":43.311247,"lon":5.3777,"is_reserved":false,"is_disabled":false,"rental_uris":{"android":"levelo://app?vid=f11d5853-771f-43df-bd89-c14a78847538","ios":"levelo://app?vid=f11d5853-771f-43df-bd89-c14a78847538"},"vehicle_type_id":"4","last_reported":1752999236,"current_range_meters":12800,"station_id":"ce4bgt92rcd13ifvqcg0","pricing_plan_id":"cebpf4jnsgd1na2vs0mg"},{"bike_id":"7d91d34c-95ba-419a-8d0b-21d2aeaa83ad","system_id":"levelo_inurba_marseille","lat":43.254931,"lon":5.376394,"is_reserved":false,"is_disabled":true,"rental_uris":{"android":"levelo://app?vid=7d91d34c-95ba-419a-8d0b-21d2aeaa83ad","ios":"levelo://app?vid=7d91d34c-95ba-419a-8d0b-21d2aeaa83ad"},"vehicle_type_id":"4","last_reported":1752999236,"current_range_meters":12800,"station_id":"ce4bhh12rcd13ifvqff0","pricing_plan_id":"cebpf4jnsgd1na2vs0mg"},{"bike_id":"dd12eefc-9090-488f-8382-d877f7eeafe4","system_id":"levelo_inurba_marseille","lat":43.25414,"lon":5.4191,"is_reserved":false,"is_disabled":false,"rental_uris":{"android":"levelo://app?vid=dd12eefc-9090-488f-8382-d877f7eeafe4","ios":"levelo://app?vid=dd12eefc-9090-488f-8382-d877f7eeafe4"},"vehicle_type_id":"4","last_reported":1752999236,"current_range_meters":13600,"station_id":"","pricing_plan_id":"cebpf4jnsgd1na2vs0mg"},{"bike_id":"3f34cbef-2df9-4d33-b87e-ee079fd255a1","system_id":"levelo_inurba_marseille","lat":43.307973,"lon":5.43521,"is_reserved":false,"is_disabled":false,"rental_uris":{"android":"levelo://app?vid=3f34cbef-2df9-4d33-b87e-ee079fd255a1","ios":"levelo://app?vid=3f34cbef-2df9-4d33-b87e-ee079fd255a1"},"vehicle_type_id":"4","last_reported":1752999236,"current_range_meters":13600,"station_id":"ce4bhph2rcd13ifvqheg","pricing_plan_id":"cebpf4jnsgd1na2vs0mg"},{"bike_id":"d25b3b74-1eb0-48d4-998a-10d14228da57","system_id":"levelo_inurba_marseille","lat":43.29688,"lon":5.36812,"is_reserved":false,"is_disabled":false,"rental_uris":{"android":"levelo://app?vid=d25b3b74-1eb0-48d4-998a-10d14228da57","ios":"levelo://app?vid=d25b3b74-1eb0-48d4-998a-10d14228da57"},"vehicle_type_id":"4","last_reported":1752999236,"current_range_meters":14000,"station_id":"","pricing_plan_id":"cebpf4jnsgd1na2vs0mg"},{"bike_id":"6fb131dd-8bae-4bc0-b0c0-17992306572f","system_id":"levelo_inurba_marseille","lat":43.295554,"lon":5.422881,"is_reserved":false,"is_disabled":false,"rental_uris":{"android":"levelo://app?vid=6fb131dd-8bae-4bc0-b0c0-17992306572f","ios":"levelo://app?vid=6fb131dd-8bae-4bc0-b0c0-17992306572f"},"vehicle_type_id":"4","last_reported":1752999236,"current_range_meters":14000,"station_id":"ce4bhph2rcd13ifvqhdg","pricing_plan_id":"cebpf4jnsgd1na2vs0mg"},{"bike_id":"e4c89c5d-526b-4575-a9c8-1237dab7d7b8","system_id":"levelo_inurba_marseille","lat":43.22927,"lon":5.35374,"is_reserved":false,"is_disabled":false,"rental_uris":{"android":"levelo://app?vid=e4c89c5d-526b-4575-a9c8-1237dab7d7b8","ios":"levelo://app?vid=e4c89c5d-526b-4575-a9c8-1237dab7d7b8"},"vehicle_type_id":"4","last_reported":1752999236,"current_range_meters":14000,"station_id":"cpo3532slgdg3j2ikp40","pricing_plan_id":"cebpf4jnsgd1na2vs0mg"},{"bike_id":"8fa62f05-18cc-4ebb-af46-bfe3c35edfd7","system_id":"levelo_inurba_marseille","lat":43.295685,"lon":5.376063,"is_reserved":false,"is_disabled":false,"rental_uris":{"android":"levelo://app?vid=8fa62f05-18cc-4ebb-af46-bfe3c35edfd7","ios":"levelo://app?vid=8fa62f05-18cc-4ebb-af46-bfe3c35edfd7"},"vehicle_type_id":"4","last_reported":1752999236,"current_range_meters":14400,"station_id":"ce4bgi92rcd13ifvqb90","pricing_plan_id":"cebpf4jnsgd1na2vs0mg"},{"bike_id":"5032a8bb-e6e3-431e-b320-13195f3c8ae0","system_id":"levelo_inurba_marseille","lat":43.29954,"lon":5.41322,"is_reserved":false,"is_disabled":false,"rental_uris":{"android":"levelo://app?vid=5032a8bb-e6e3-431e-b320-13195f3c8ae0","ios":"levelo://app?vid=5032a8bb-e6e3-431e-b320-13195f3c8ae0"},"vehicle_type_id":"4","last_reported":1752999236,"current_range_meters":14400,"station_id":"ce4bhp12rcd13ifvqh9g","pricing_plan_id":"cebpf4jnsgd1na2vs0mg"},{"bike_id":"5f3c2d82-aa89-4640-8e4b-7048aefb28e4","system_id":"levelo_inurba_marseille","lat":43.30878,"lon":5.37189,"is_reserved":false,"is_disabled":false,"rental_uris":{"android":"levelo://app?vid=5f3c2d82-aa89-4640-8e4b-7048aefb28e4","ios":"levelo://app?vid=5f3c2d82-aa89-4640-8e4b-7048aefb28e4"},"vehicle_type_id":"4","last_reported":1752999236,"current_range_meters":14400,"station_id":"ce4bguh2rcd13ifvqckg","pricing_plan_id":"cebpf4jnsgd1na2vs0mg"},{"bike_id":"7eaefe95-a918-4dff-a447-29114f8d3c22","system_id":"levelo_inurba_marseille","lat":43.28699,"lon":5.39984,"is_reserved":false,"is_disabled":true,"rental_uris":{"android":"levelo://app?vid=7eaefe95-a918-4dff-a447-29114f8d3c22","ios":"levelo://app?vid=7eaefe95-a918-4dff-a447-29114f8d3c22"},"vehicle_type_id":"4","last_reported":1752999236,"current_range_meters":14400,"station_id":"ce4bho92rcd13ifvqh3g","pricing_plan_id":"cebpf4jnsgd1na2vs0mg"},{"bike_id":"4268961c-8e3c-4bac-891f-a8846cba533f","system_id":"levelo_inurba_marseille","lat":43.32476,"lon":5.36569,"is_reserved":false,"is_disabled":false,"rental_uris":{"android":"levelo://app?vid=4268961c-8e3c-4bac-891f-a8846cba533f","ios":"levelo://app?vid=4268961c-8e3c-4bac-891f-a8846cba533f"},"vehicle_type_id":"4","last_reported":1752999236,"current_range_meters":14400,"station_id":"ce4bhs12rcd13ifvqhvg","pricing_plan_id":"cebpf4jnsgd1na2vs0mg"},{"bike_id":"7023c9df-34ea-4be8-bb08-ef9e6e748e73","system_id":"levelo_inurba_marseille","lat":43.24174,"lon":5.39726,"is_reserved":false,"is_disabled":false,"rental_uris":{"android":"levelo://app?vid=7023c9df-34ea-4be8-bb08-ef9e6e748e73","ios":"levelo://app?vid=7023c9df-34ea-4be8-bb08-ef9e6e748e73"},"vehicle_type_id":"4","last_reported":1752999236,"current_range_meters":14400,"station_id":"ce4bhn12rcd13ifvqgpg","pricing_plan_id":"cebpf4jnsgd1na2vs0mg"},{"bike_id":"95b5bcfa-54af-48c0-bd18-8f73f959ce2b","system_id":"levelo_inurba_marseille","lat":43.31935,"lon":5.37313,"is_reserved":false,"is_disabled":false,"rental_uris":{"android":"levelo://app?vid=95b5bcfa-54af-48c0-bd18-8f73f959ce2b","ios":"levelo://app?vid=95b5bcfa-54af-48c0-bd18-8f73f959ce2b"},"vehicle_type_id":"4","last_reported":1752999236,"current_range_meters":14400,"station_id":"","pricing_plan_id":"cebpf4jnsgd1na2vs0mg"},{"bike_id":"e4d40cc6-06be-4413-a09d-0c3b322f384f","system_id":"levelo_inurba_marseille","lat":43.284376,"lon":5.391722,"is_reserved":false,"is_disabled":false,"rental_uris":{"android":"levelo://app?vid=e4d40cc6-06be-4413-a09d-0c3b322f384f","ios":"levelo://app?vid=e4d40cc6-06be-4413-a09d-0c3b322f384f"},"vehicle_type_id":"4","last_reported":1752999236,"current_range_meters":14800,"station_id":"ce4bhoh2rcd13ifvqh5g","pricing_plan_id":"cebpf4jnsgd1na2vs0mg"},{"bike_id":"beb14892-a851-4f8e-b873-cbd3d15ad0a9","system_id":"levelo_inurba_marseille","lat":43.237591,"lon":5.36192,"is_reserved":false,"is_disabled":false,"rental_uris":{"android":"levelo://app?vid=beb14892-a851-4f8e-b873-cbd3d15ad0a9","ios":"levelo://app?vid=beb14892-a851-4f8e-b873-cbd3d15ad0a9"},"vehicle_type_id":"4","last_reported":1752999236,"current_range_meters":14800,"station_id":"","pricing_plan_id":"cebpf4jnsgd1na2vs0mg"},{"bike_id":"cb2d4a02-4128-4ddc-8689-163b81e43951","system_id":"levelo_inurba_marseille","lat":43.24024,"lon":5.37673,"is_reserved":false,"is_disabled":false,"rental_uris":{"android":"levelo://app?vid=cb2d4a02-4128-4ddc-8689-163b81e43951","ios":"levelo://app?vid=cb2d4a02-4128-4ddc-8689-163b81e43951"},"vehicle_type_id":"4","last_reported":1752999236,"current_range_meters":15200,"station_id":"ce4bhnp2rcd13ifvqgvg","pricing_plan_id":"cebpf4jnsgd1na2vs0mg"},{"bike_id":"e50ad253-cbd4-4a94-9b59-64dacc1f0adf","system_id":"levelo_inurba_marseille","lat":43.24072,"lon":5.37755,"is_reserved":false,"is_disabled":false,"rental_uris":{"android":"levelo://app?vid=e50ad253-cbd4-4a94-9b59-64dacc1f0adf","ios":"levelo://app?vid=e50ad253-cbd4-4a94-9b59-64dacc1f0adf"},"vehicle_type_id":"4","last_reported":1752999236,"current_range_meters":15200,"station_id":"ce4bhnp2rcd13ifvqgvg","pricing_plan_id":"cebpf4jnsgd1na2vs0mg"},{"bike_id":"c9695da4-3048-4cfc-83f0-62c3fac1ccbe","system_id":"levelo_inurba_marseille","lat":43.230508,"lon":5.354915,"is_reserved":false,"is_disabled":true,"rental_uris":{"android":"levelo://app?vid=c9695da4-3048-4cfc-83f0-62c3fac1ccbe","ios":"levelo://app?vid=c9695da4-3048-4cfc-83f0-62c3fac1ccbe"},"vehicle_type_id":"4","last_reported":1752999236,"current_range_meters":16000,"station_id":"cpo3342slgdg3j2ifvpg","pricing_plan_id":"cebpf4jnsgd1na2vs0mg"},{"bike_id":"299ec8a6-d5a7-41ea-8121-1c7f792257d2","system_id":"levelo_inurba_marseille","lat":43.27384,"lon":5.36254,"is_reserved":false,"is_disabled":true,"rental_uris":{"android":"levelo://app?vid=299ec8a6-d5a7-41ea-8121-1c7f792257d2","ios":"levelo://app?vid=299ec8a6-d5a7-41ea-8121-1c7f792257d2"},"vehicle_type_id":"4","last_reported":1752999236,"current_range_meters":16000,"station_id":"ce4bhbh2rcd13ifvqeo0","pricing_plan_id":"cebpf4jnsgd1na2vs0mg"},{"bike_id":"6b3773c0-72c1-4ec1-bba7-196ae937a022","system_id":"levelo_inurba_marseille","lat":43.24055,"lon":5.37719,"is_reserved":false,"is_disabled":false,"rental_uris":{"android":"levelo://app?vid=6b3773c0-72c1-4ec1-bba7-196ae937a022","ios":"levelo://app?vid=6b3773c0-72c1-4ec1-bba7-196ae937a022"},"vehicle_type_id":"4","last_reported":1752999236,"current_range_meters":16000,"station_id":"ce4bhnp2rcd13ifvqgvg","pricing_plan_id":"cebpf4jnsgd1na2vs0mg"},{"bike_id":"64c4e8fb-d681-4de2-854c-3b8c6a5bafd9","system_id":"levelo_inurba_marseille","lat":43.240718,"lon":5.37766,"is_reserved":false,"is_disabled":false,"rental_uris":{"android":"levelo://app?vid=64c4e8fb-d681-4de2-854c-3b8c6a5bafd9","ios":"levelo://app?vid=64c4e8fb-d681-4de2-854c-3b8c6a5bafd9"},"vehicle_type_id":"4","last_reported":1752999236,"current_range_meters":16000,"station_id":"ce4bhnp2rcd13ifvqgvg","pricing_plan_id":"cebpf4jnsgd1na2vs0mg"},{"bike_id":"c8f90c1b-210d-45ed-8566-aa52bfcecaa6","system_id":"levelo_inurba_marseille","lat":43.31705,"lon":5.37746,"is_reserved":false,"is_disabled":false,"rental_uris":{"android":"levelo://app?vid=c8f90c1b-210d-45ed-8566-aa52bfcecaa6","ios":"levelo://app?vid=c8f90c1b-210d-45ed-8566-aa52bfcecaa6"},"vehicle_type_id":"4","last_reported":1752999236,"current_range_meters":16000,"station_id":"ce4bgth2rcd13ifvqch0","pricing_plan_id":"cebpf4jnsgd1na2vs0mg"},{"bike_id":"1f54dff8-2d97-4936-9eea-97ced1b09203","system_id":"levelo_inurba_marseille","lat":43.26194,"lon":5.37444,"is_reserved":false,"is_disabled":false,"rental_uris":{"android":"levelo://app?vid=1f54dff8-2d97-4936-9eea-97ced1b09203","ios":"levelo://app?vid=1f54dff8-2d97-4936-9eea-97ced1b09203"},"vehicle_type_id":"4","last_reported":1752999236,"current_range_meters":16000,"station_id":"ce4bhgp2rcd13ifvqfc0","pricing_plan_id":"cebpf4jnsgd1na2vs0mg"},{"bike_id":"d3aca52a-4e64-461a-8fd1-e9a035bafbdf","system_id":"levelo_inurba_marseille","lat":43.257213,"lon":5.411019,"is_reserved":false,"is_disabled":false,"rental_uris":{"android":"levelo://app?vid=d3aca52a-4e64-461a-8fd1-e9a035bafbdf","ios":"levelo://app?vid=d3aca52a-4e64-461a-8fd1-e9a035bafbdf"},"vehicle_type_id":"4","last_reported":1752999236,"current_range_meters":16000,"station_id":"","pricing_plan_id":"cebpf4jnsgd1na2vs0mg"},{"bike_id":"456f31a8-398a-48ff-a2b7-bf74a5b74cea","system_id":"levelo_inurba_marseille","lat":43.31715,"lon":5.42418,"is_reserved":false,"is_disabled":false,"rental_uris":{"android":"levelo://app?vid=456f31a8-398a-48ff-a2b7-bf74a5b74cea","ios":"levelo://app?vid=456f31a8-398a-48ff-a2b7-bf74a5b74cea"},"vehicle_type_id":"4","last_reported":1752999236,"current_range_meters":15200,"station_id":"ce4bhp92rcd13ifvqhbg","pricing_plan_id":"cebpf4jnsgd1na2vs0mg"},{"bike_id":"b3176209-c9b0-4949-926f-6c63990cfd9f","system_id":"levelo_inurba_marseille","lat":43.33603,"lon":5.41029,"is_reserved":false,"is_disabled":false,"rental_uris":{"android":"levelo://app?vid=b3176209-c9b0-4949-926f-6c63990cfd9f","ios":"levelo://app?vid=b3176209-c9b0-4949-926f-6c63990cfd9f"},"vehicle_type_id":"4","last_reported":1752999236,"current_range_meters":16000,"station_id":"ce4bhqh2rcd13ifvqhmg","pricing_plan_id":"cebpf4jnsgd1na2vs0mg"},{"bike_id":"6f530211-2d31-4918-b78d-6fbc7b6302a4","system_id":"levelo_inurba_marseille","lat":43.23578,"lon":5.36136,"is_reserved":false,"is_disabled":false,"rental_uris":{"android":"levelo://app?vid=6f530211-2d31-4918-b78d-6fbc7b6302a4","ios":"levelo://app?vid=6f530211-2d31-4918-b78d-6fbc7b6302a4"},"vehicle_type_id":"4","last_reported":1752999236,"current_range_meters":16400,"station_id":"","pricing_plan_id":"cebpf4jnsgd1na2vs0mg"},{"bike_id":"7f98c65c-6593-4352-858e-be8fe24c31fc","system_id":"levelo_inurba_marseille","lat":43.225071,"lon":5.347844,"is_reserved":false,"is_disabled":false,"rental_uris":{"android":"levelo://app?vid=7f98c65c-6593-4352-858e-be8fe24c31fc","ios":"levelo://app?vid=7f98c65c-6593-4352-858e-be8fe24c31fc"},"vehicle_type_id":"4","last_reported":1752999236,"current_range_meters":16400,"station_id":"st_cvj5dfep6f1abm77gieg","pricing_plan_id":"cebpf4jnsgd1na2vs0mg"},{"bike_id":"18f652e6-e011-49c0-bdd1-920a11960f9e","system_id":"levelo_inurba_marseille","lat":43.24086,"lon":5.37745,"is_reserved":false,"is_disabled":false,"rental_uris":{"android":"levelo://app?vid=18f652e6-e011-49c0-bdd1-920a11960f9e","ios":"levelo://app?vid=18f652e6-e011-49c0-bdd1-920a11960f9e"},"vehicle_type_id":"4","last_reported":1752999236,"current_range_meters":16400,"station_id":"ce4bhnp2rcd13ifvqgvg","pricing_plan_id":"cebpf4jnsgd1na2vs0mg"},{"bike_id":"2d204ae1-a432-454a-839c-4d383ae2825d","system_id":"levelo_inurba_marseille","lat":43.31071,"lon":5.40082,"is_reserved":false,"is_disabled":false,"rental_uris":{"android":"levelo://app?vid=2d204ae1-a432-454a-839c-4d383ae2825d","ios":"levelo://app?vid=2d204ae1-a432-454a-839c-4d383ae2825d"},"vehicle_type_id":"4","last_reported":1752999236,"current_range_meters":16400,"station_id":"","pricing_plan_id":"cebpf4jnsgd1na2vs0mg"},{"bike_id":"96793585-b370-4499-97b5-55297e845c8f","system_id":"levelo_inurba_marseille","lat":43.21744,"lon":5.34599,"is_reserved":false,"is_disabled":true,"rental_uris":{"android":"levelo://app?vid=96793585-b370-4499-97b5-55297e845c8f","ios":"levelo://app?vid=96793585-b370-4499-97b5-55297e845c8f"},"vehicle_type_id":"4","last_reported":1752999236,"current_range_meters":16400,"station_id":"st_cvj6r9ubvosntc0bgbag","pricing_plan_id":"cebpf4jnsgd1na2vs0mg"},{"bike_id":"7cb87117-19f1-4d48-84b2-bec6ac38464c","system_id":"levelo_inurba_marseille","lat":43.29549,"lon":5.42291,"is_reserved":false,"is_disabled":false,"rental_uris":{"android":"levelo://app?vid=7cb87117-19f1-4d48-84b2-bec6ac38464c","ios":"levelo://app?vid=7cb87117-19f1-4d48-84b2-bec6ac38464c"},"vehicle_type_id":"4","last_reported":1752999236,"current_range_meters":16400,"station_id":"ce4bhph2rcd13ifvqhdg","pricing_plan_id":"cebpf4jnsgd1na2vs0mg"},{"bike_id":"20597f8e-6c1b-4a51-9e3f-8ecf88381375","system_id":"levelo_inurba_marseille","lat":43.30349,"lon":5.39197,"is_reserved":false,"is_disabled":true,"rental_uris":{"android":"levelo://app?vid=20597f8e-6c1b-4a51-9e3f-8ecf88381375","ios":"levelo://app?vid=20597f8e-6c1b-4a51-9e3f-8ecf88381375"},"vehicle_type_id":"4","last_reported":1752999236,"current_range_meters":16400,"station_id":"","pricing_plan_id":"cebpf4jnsgd1na2vs0mg"},{"bike_id":"cbe5267f-935a-4c99-94ea-3addb2480e95","system_id":"levelo_inurba_marseille","lat":43.32658,"lon":5.40988,"is_reserved":false,"is_disabled":false,"rental_uris":{"android":"levelo://app?vid=cbe5267f-935a-4c99-94ea-3addb2480e95","ios":"levelo://app?vid=cbe5267f-935a-4c99-94ea-3addb2480e95"},"vehicle_type_id":"4","last_reported":1752999236,"current_range_meters":16400,"station_id":"ce4bhpp2rcd13ifvqhgg","pricing_plan_id":"cebpf4jnsgd1na2vs0mg"},{"bike_id":"f335eb8b-f2b0-48df-963c-2425602f9038","system_id":"levelo_inurba_marseille","lat":43.270062,"lon":5.401214,"is_reserved":false,"is_disabled":true,"rental_uris":{"android":"levelo://app?vid=f335eb8b-f2b0-48df-963c-2425602f9038","ios":"levelo://app?vid=f335eb8b-f2b0-48df-963c-2425602f9038"},"vehicle_type_id":"4","last_reported":1752999236,"current_range_meters":16800,"station_id":"","pricing_plan_id":"cebpf4jnsgd1na2vs0mg"},{"bike_id":"27db1ad3-2947-41e8-8ab4-a42a02cc25df","system_id":"levelo_inurba_marseille","lat":43.28273,"lon":5.35058,"is_reserved":false,"is_disabled":false,"rental_uris":{"android":"levelo://app?vid=27db1ad3-2947-41e8-8ab4-a42a02cc25df","ios":"levelo://app?vid=27db1ad3-2947-41e8-8ab4-a42a02cc25df"},"vehicle_type_id":"4","last_reported":1752999236,"current_range_meters":16800,"station_id":"ce4bhbp2rcd13ifvqerg","pricing_plan_id":"cebpf4jnsgd1na2vs0mg"},{"bike_id":"c6604cb1-f0af-443d-b108-57aa74b22e47","system_id":"levelo_inurba_marseille","lat":43.28697,"lon":5.37379,"is_reserved":false,"is_disabled":false,"rental_uris":{"android":"levelo://app?vid=c6604cb1-f0af-443d-b108-57aa74b22e47","ios":"levelo://app?vid=c6604cb1-f0af-443d-b108-57aa74b22e47"},"vehicle_type_id":"4","last_reported":1752999236,"current_range_meters":16800,"station_id":"ce4bh3p2rcd13ifvqdq0","pricing_plan_id":"cebpf4jnsgd1na2vs0mg"},{"bike_id":"284cf330-577a-4932-8f14-cf3cdaa65655","system_id":"levelo_inurba_marseille","lat":43.30797,"lon":5.43512,"is_reserved":false,"is_disabled":false,"rental_uris":{"android":"levelo://app?vid=284cf330-577a-4932-8f14-cf3cdaa65655","ios":"levelo://app?vid=284cf330-577a-4932-8f14-cf3cdaa65655"},"vehicle_type_id":"4","last_reported":1752999236,"current_range_meters":16800,"station_id":"ce4bhph2rcd13ifvqheg","pricing_plan_id":"cebpf4jnsgd1na2vs0mg"},{"bike_id":"5161857b-e554-4474-9145-d600866d6e61","system_id":"levelo_inurba_marseille","lat":43.26029,"lon":5.37543,"is_reserved":false,"is_disabled":false,"rental_uris":{"android":"levelo://app?vid=5161857b-e554-4474-9145-d600866d6e61","ios":"levelo://app?vid=5161857b-e554-4474-9145-d600866d6e61"},"vehicle_type_id":"4","last_reported":1752999236,"current_range_meters":16400,"station_id":"ce4bhgh2rcd13ifvqfa0","pricing_plan_id":"cebpf4jnsgd1na2vs0mg"},{"bike_id":"8d0a7d48-821b-45fd-b0ae-14054183a777","system_id":"levelo_inurba_marseille","lat":43.2975,"lon":5.37691,"is_reserved":false,"is_disabled":false,"rental_uris":{"android":"levelo://app?vid=8d0a7d48-821b-45fd-b0ae-14054183a777","ios":"levelo://app?vid=8d0a7d48-821b-45fd-b0ae-14054183a777"},"vehicle_type_id":"4","last_reported":1752999236,"current_range_meters":16800,"station_id":"ce4bgkh2rcd13ifvqbl0","pricing_plan_id":"cebpf4jnsgd1na2vs0mg"},{"bike_id":"053762ef-2967-4c03-83aa-9c21c06b9aed","system_id":"levelo_inurba_marseille","lat":43.24051,"lon":5.37709,"is_reserved":false,"is_disabled":false,"rental_uris":{"android":"levelo://app?vid=053762ef-2967-4c03-83aa-9c21c06b9aed","ios":"levelo://app?vid=053762ef-2967-4c03-83aa-9c21c06b9aed"},"vehicle_type_id":"4","last_reported":1752999236,"current_range_meters":16800,"station_id":"ce4bhnp2rcd13ifvqgvg","pricing_plan_id":"cebpf4jnsgd1na2vs0mg"},{"bike_id":"65ff5782-b039-4149-bf35-dfa9471f596f","system_id":"levelo_inurba_marseille","lat":43.29872,"lon":5.39702,"is_reserved":false,"is_disabled":false,"rental_uris":{"android":"levelo://app?vid=65ff5782-b039-4149-bf35-dfa9471f596f","ios":"levelo://app?vid=65ff5782-b039-4149-bf35-dfa9471f596f"},"vehicle_type_id":"4","last_reported":1752999236,"current_range_meters":17200,"station_id":"ce4bh0h2rcd13ifvqd50","pricing_plan_id":"cebpf4jnsgd1na2vs0mg"},{"bike_id":"ff304561-c8ce-4ac1-9008-9c7fa7a2d85b","system_id":"levelo_inurba_marseille","lat":43.29259,"lon":5.384342,"is_reserved":false,"is_disabled":true,"rental_uris":{"android":"levelo://app?vid=ff304561-c8ce-4ac1-9008-9c7fa7a2d85b","ios":"levelo://app?vid=ff304561-c8ce-4ac1-9008-9c7fa7a2d85b"},"vehicle_type_id":"4","last_reported":1752999236,"current_range_meters":17200,"station_id":"ce4bh692rcd13ifvqea0","pricing_plan_id":"cebpf4jnsgd1na2vs0mg"},{"bike_id":"7b53909a-d089-478b-9727-7bcf163d661e","system_id":"levelo_inurba_marseille","lat":43.23061,"lon":5.354844,"is_reserved":false,"is_disabled":true,"rental_uris":{"android":"levelo://app?vid=7b53909a-d089-478b-9727-7bcf163d661e","ios":"levelo://app?vid=7b53909a-d089-478b-9727-7bcf163d661e"},"vehicle_type_id":"4","last_reported":1752999236,"current_range_meters":17200,"station_id":"cpo3342slgdg3j2ifvpg","pricing_plan_id":"cebpf4jnsgd1na2vs0mg"},{"bike_id":"c1e6057c-ff5a-4477-a9f1-93444a633642","system_id":"levelo_inurba_marseille","lat":43.271673,"lon":5.390504,"is_reserved":false,"is_disabled":false,"rental_uris":{"android":"levelo://app?vid=c1e6057c-ff5a-4477-a9f1-93444a633642","ios":"levelo://app?vid=c1e6057c-ff5a-4477-a9f1-93444a633642"},"vehicle_type_id":"4","last_reported":1752999236,"current_range_meters":17200,"station_id":"","pricing_plan_id":"cebpf4jnsgd1na2vs0mg"},{"bike_id":"cb331a89-56a6-4651-9865-7241cd4ca587","system_id":"levelo_inurba_marseille","lat":43.32486,"lon":5.36571,"is_reserved":false,"is_disabled":false,"rental_uris":{"android":"levelo://app?vid=cb331a89-56a6-4651-9865-7241cd4ca587","ios":"levelo://app?vid=cb331a89-56a6-4651-9865-7241cd4ca587"},"vehicle_type_id":"4","last_reported":1752999236,"current_range_meters":17200,"station_id":"ce4bhs12rcd13ifvqhvg","pricing_plan_id":"cebpf4jnsgd1na2vs0mg"},{"bike_id":"d97e7ce7-be84-4514-9465-0b25f358190f","system_id":"levelo_inurba_marseille","lat":43.24391,"lon":5.37047,"is_reserved":false,"is_disabled":false,"rental_uris":{"android":"levelo://app?vid=d97e7ce7-be84-4514-9465-0b25f358190f","ios":"levelo://app?vid=d97e7ce7-be84-4514-9465-0b25f358190f"},"vehicle_type_id":"4","last_reported":1752999236,"current_range_meters":17200,"station_id":"ce4bhhh2rcd13ifvqfk0","pricing_plan_id":"cebpf4jnsgd1na2vs0mg"},{"bike_id":"65f134b7-ec0b-4f93-a212-e1c8c785da98","system_id":"levelo_inurba_marseille","lat":43.287001,"lon":5.373947,"is_reserved":false,"is_disabled":false,"rental_uris":{"android":"levelo://app?vid=65f134b7-ec0b-4f93-a212-e1c8c785da98","ios":"levelo://app?vid=65f134b7-ec0b-4f93-a212-e1c8c785da98"},"vehicle_type_id":"4","last_reported":1752999236,"current_range_meters":17200,"station_id":"ce4bh3p2rcd13ifvqdq0","pricing_plan_id":"cebpf4jnsgd1na2vs0mg"},{"bike_id":"8ee23ce4-35c8-476f-8816-b80e4ca2c6f4","system_id":"levelo_inurba_marseille","lat":43.2512,"lon":5.40339,"is_reserved":false,"is_disabled":false,"rental_uris":{"android":"levelo://app?vid=8ee23ce4-35c8-476f-8816-b80e4ca2c6f4","ios":"levelo://app?vid=8ee23ce4-35c8-476f-8816-b80e4ca2c6f4"},"vehicle_type_id":"4","last_reported":1752999236,"current_range_meters":17200,"station_id":"ce4bhlh2rcd13ifvqgig","pricing_plan_id":"cebpf4jnsgd1na2vs0mg"},{"bike_id":"dc654502-b68b-426b-b6bf-8516fdc04d31","system_id":"levelo_inurba_marseille","lat":43.2811,"lon":5.3964,"is_reserved":false,"is_disabled":false,"rental_uris":{"android":"levelo://app?vid=dc654502-b68b-426b-b6bf-8516fdc04d31","ios":"levelo://app?vid=dc654502-b68b-426b-b6bf-8516fdc04d31"},"vehicle_type_id":"4","last_reported":1752999236,"current_range_meters":17200,"station_id":"ce4bho12rcd13ifvqh2g","pricing_plan_id":"cebpf4jnsgd1na2vs0mg"},{"bike_id":"50f8d88d-d50c-4811-b545-597a88c8b60d","system_id":"levelo_inurba_marseille","lat":43.29306,"lon":5.36958,"is_reserved":false,"is_disabled":false,"rental_uris":{"android":"levelo://app?vid=50f8d88d-d50c-4811-b545-597a88c8b60d","ios":"levelo://app?vid=50f8d88d-d50c-4811-b545-597a88c8b60d"},"vehicle_type_id":"4","last_reported":1752999236,"current_range_meters":17200,"station_id":"","pricing_plan_id":"cebpf4jnsgd1na2vs0mg"},{"bike_id":"c0891025-8c5b-4eaa-a169-f1586fcfd554","system_id":"levelo_inurba_marseille","lat":43.278226,"lon":5.407081,"is_reserved":false,"is_disabled":false,"rental_uris":{"android":"levelo://app?vid=c0891025-8c5b-4eaa-a169-f1586fcfd554","ios":"levelo://app?vid=c0891025-8c5b-4eaa-a169-f1586fcfd554"},"vehicle_type_id":"4","last_reported":1752999236,"current_range_meters":17200,"station_id":"ce4bhnh2rcd13ifvqgtg","pricing_plan_id":"cebpf4jnsgd1na2vs0mg"},{"bike_id":"8e49fe63-ad1b-4407-9b4f-77d4434f8cbe","system_id":"levelo_inurba_marseille","lat":43.30158,"lon":5.38074,"is_reserved":false,"is_disabled":false,"rental_uris":{"android":"levelo://app?vid=8e49fe63-ad1b-4407-9b4f-77d4434f8cbe","ios":"levelo://app?vid=8e49fe63-ad1b-4407-9b4f-77d4434f8cbe"},"vehicle_type_id":"4","last_reported":1752999236,"current_range_meters":17200,"station_id":"ce4bgjp2rcd13ifvqbh0","pricing_plan_id":"cebpf4jnsgd1na2vs0mg"},{"bike_id":"16d832d8-5275-4ead-a5ea-40d543d8611a","system_id":"levelo_inurba_marseille","lat":43.29739,"lon":5.37676,"is_reserved":false,"is_disabled":false,"rental_uris":{"android":"levelo://app?vid=16d832d8-5275-4ead-a5ea-40d543d8611a","ios":"levelo://app?vid=16d832d8-5275-4ead-a5ea-40d543d8611a"},"vehicle_type_id":"4","last_reported":1752999236,"current_range_meters":17600,"station_id":"ce4bgkh2rcd13ifvqbl0","pricing_plan_id":"cebpf4jnsgd1na2vs0mg"},{"bike_id":"b862303e-1b88-4ff6-923a-6de878d2c4e1","system_id":"levelo_inurba_marseille","lat":43.2707,"lon":5.42279,"is_reserved":false,"is_disabled":false,"rental_uris":{"android":"levelo://app?vid=b862303e-1b88-4ff6-923a-6de878d2c4e1","ios":"levelo://app?vid=b862303e-1b88-4ff6-923a-6de878d2c4e1"},"vehicle_type_id":"4","last_reported":1752999236,"current_range_meters":17600,"station_id":"ce4bhk92rcd13ifvqgb0","pricing_plan_id":"cebpf4jnsgd1na2vs0mg"},{"bike_id":"4c8283f7-9214-4f90-b93f-b371d5ff3abb","system_id":"levelo_inurba_marseille","lat":43.21189,"lon":5.35061,"is_reserved":false,"is_disabled":false,"rental_uris":{"android":"levelo://app?vid=4c8283f7-9214-4f90-b93f-b371d5ff3abb","ios":"levelo://app?vid=4c8283f7-9214-4f90-b93f-b371d5ff3abb"},"vehicle_type_id":"4","last_reported":1752999236,"current_range_meters":17600,"station_id":"st_cvj6sg6p6f1abm77japg","pricing_plan_id":"cebpf4jnsgd1na2vs0mg"},{"bike_id":"f3f581c3-7fd6-46b6-b25c-df950de01306","system_id":"levelo_inurba_marseille","lat":43.287192,"lon":5.399851,"is_reserved":false,"is_disabled":true,"rental_uris":{"android":"levelo://app?vid=f3f581c3-7fd6-46b6-b25c-df950de01306","ios":"levelo://app?vid=f3f581c3-7fd6-46b6-b25c-df950de01306"},"vehicle_type_id":"4","last_reported":1752999236,"current_range_meters":17600,"station_id":"ce4bho92rcd13ifvqh3g","pricing_plan_id":"cebpf4jnsgd1na2vs0mg"},{"bike_id":"0f865e27-a5de-4ea4-a204-00f00c2fcde7","system_id":"levelo_inurba_marseille","lat":43.30655,"lon":5.40072,"is_reserved":false,"is_disabled":false,"rental_uris":{"android":"levelo://app?vid=0f865e27-a5de-4ea4-a204-00f00c2fcde7","ios":"levelo://app?vid=0f865e27-a5de-4ea4-a204-00f00c2fcde7"},"vehicle_type_id":"4","last_reported":1752999236,"current_range_meters":17600,"station_id":"ce4bh112rcd13ifvqda0","pricing_plan_id":"cebpf4jnsgd1na2vs0mg"},{"bike_id":"53cb4f43-b1af-4efe-9f40-e0338804f4d4","system_id":"levelo_inurba_marseille","lat":43.31287,"lon":5.39016,"is_reserved":false,"is_disabled":false,"rental_uris":{"android":"levelo://app?vid=53cb4f43-b1af-4efe-9f40-e0338804f4d4","ios":"levelo://app?vid=53cb4f43-b1af-4efe-9f40-e0338804f4d4"},"vehicle_type_id":"4","last_reported":1752999236,"current_range_meters":17600,"station_id":"","pricing_plan_id":"cebpf4jnsgd1na2vs0mg"},{"bike_id":"5ccf6fcb-646f-4acf-9fbc-c7f16de7c973","system_id":"levelo_inurba_marseille","lat":43.32633,"lon":5.42337,"is_reserved":false,"is_disabled":false,"rental_uris":{"android":"levelo://app?vid=5ccf6fcb-646f-4acf-9fbc-c7f16de7c973","ios":"levelo://app?vid=5ccf6fcb-646f-4acf-9fbc-c7f16de7c973"},"vehicle_type_id":"4","last_reported":1752999236,"current_range_meters":17600,"station_id":"","pricing_plan_id":"cebpf4jnsgd1na2vs0mg"},{"bike_id":"47c42873-a005-478e-953d-7fdb4918ff42","system_id":"levelo_inurba_marseille","lat":43.2799,"lon":5.416616,"is_reserved":false,"is_disabled":false,"rental_uris":{"android":"levelo://app?vid=47c42873-a005-478e-953d-7fdb4918ff42","ios":"levelo://app?vid=47c42873-a005-478e-953d-7fdb4918ff42"},"vehicle_type_id":"4","last_reported":1752999236,"current_range_meters":17600,"station_id":"ce4bho12rcd13ifvqh1g","pricing_plan_id":"cebpf4jnsgd1na2vs0mg"},{"bike_id":"e1fc8003-5085-4a7f-a635-4b1964c67b70","system_id":"levelo_inurba_marseille","lat":43.28462,"lon":5.3843,"is_reserved":false,"is_disabled":false,"rental_uris":{"android":"levelo://app?vid=e1fc8003-5085-4a7f-a635-4b1964c67b70","ios":"levelo://app?vid=e1fc8003-5085-4a7f-a635-4b1964c67b70"},"vehicle_type_id":"4","last_reported":1752999236,"current_range_meters":17600,"station_id":"ce4bh512rcd13ifvqe3g","pricing_plan_id":"cebpf4jnsgd1na2vs0mg"},{"bike_id":"3a0ad0b3-730c-4b6f-afc8-d25401cb7d69","system_id":"levelo_inurba_marseille","lat":43.24675,"lon":5.38136,"is_reserved":false,"is_disabled":false,"rental_uris":{"android":"levelo://app?vid=3a0ad0b3-730c-4b6f-afc8-d25401cb7d69","ios":"levelo://app?vid=3a0ad0b3-730c-4b6f-afc8-d25401cb7d69"},"vehicle_type_id":"4","last_reported":1752999236,"current_range_meters":17600,"station_id":"ce4bhih2rcd13ifvqfr0","pricing_plan_id":"cebpf4jnsgd1na2vs0mg"},{"bike_id":"70867b6d-372a-4cb2-8157-51e11a88a61f","system_id":"levelo_inurba_marseille","lat":43.2901,"lon":5.35601,"is_reserved":false,"is_disabled":false,"rental_uris":{"android":"levelo://app?vid=70867b6d-372a-4cb2-8157-51e11a88a61f","ios":"levelo://app?vid=70867b6d-372a-4cb2-8157-51e11a88a61f"},"vehicle_type_id":"4","last_reported":1752999236,"current_range_meters":18000,"station_id":"ce4bhb92rcd13ifvqen0","pricing_plan_id":"cebpf4jnsgd1na2vs0mg"},{"bike_id":"4355836e-ae99-4039-b85f-c4e239c9dca5","system_id":"levelo_inurba_marseille","lat":43.298999,"lon":5.436631,"is_reserved":false,"is_disabled":false,"rental_uris":{"android":"levelo://app?vid=4355836e-ae99-4039-b85f-c4e239c9dca5","ios":"levelo://app?vid=4355836e-ae99-4039-b85f-c4e239c9dca5"},"vehicle_type_id":"4","last_reported":1752999236,"current_range_meters":18000,"station_id":"ce4bhpp2rcd13ifvqhfg","pricing_plan_id":"cebpf4jnsgd1na2vs0mg"},{"bike_id":"57f20548-4295-4a6c-8b6e-ed57eb793ca5","system_id":"levelo_inurba_marseille","lat":43.307382,"lon":5.424381,"is_reserved":false,"is_disabled":false,"rental_uris":{"android":"levelo://app?vid=57f20548-4295-4a6c-8b6e-ed57eb793ca5","ios":"levelo://app?vid=57f20548-4295-4a6c-8b6e-ed57eb793ca5"},"vehicle_type_id":"4","last_reported":1752999236,"current_range_meters":18000,"station_id":"st_cvj6ca6bvosntc0bfgr0","pricing_plan_id":"cebpf4jnsgd1na2vs0mg"},{"bike_id":"6da7ca7d-6633-429b-9803-313dc5de4c11","system_id":"levelo_inurba_marseille","lat":43.22501,"lon":5.34781,"is_reserved":false,"is_disabled":false,"rental_uris":{"android":"levelo://app?vid=6da7ca7d-6633-429b-9803-313dc5de4c11","ios":"levelo://app?vid=6da7ca7d-6633-429b-9803-313dc5de4c11"},"vehicle_type_id":"4","last_reported":1752999236,"current_range_meters":18000,"station_id":"st_cvj5dfep6f1abm77gieg","pricing_plan_id":"cebpf4jnsgd1na2vs0mg"},{"bike_id":"7834035a-7650-4376-8ebe-9bf55b11e3f3","system_id":"levelo_inurba_marseille","lat":43.24057,"lon":5.37758,"is_reserved":false,"is_disabled":false,"rental_uris":{"android":"levelo://app?vid=7834035a-7650-4376-8ebe-9bf55b11e3f3","ios":"levelo://app?vid=7834035a-7650-4376-8ebe-9bf55b11e3f3"},"vehicle_type_id":"4","last_reported":1752999236,"current_range_meters":17600,"station_id":"ce4bhnp2rcd13ifvqgvg","pricing_plan_id":"cebpf4jnsgd1na2vs0mg"},{"bike_id":"ebd2b1bf-0ea2-4316-b168-5f0a5f017e31","system_id":"levelo_inurba_marseille","lat":43.323415,"lon":5.406115,"is_reserved":false,"is_disabled":false,"rental_uris":{"android":"levelo://app?vid=ebd2b1bf-0ea2-4316-b168-5f0a5f017e31","ios":"levelo://app?vid=ebd2b1bf-0ea2-4316-b168-5f0a5f017e31"},"vehicle_type_id":"4","last_reported":1752999236,"current_range_meters":18000,"station_id":"ce4bhq92rcd13ifvqhjg","pricing_plan_id":"cebpf4jnsgd1na2vs0mg"},{"bike_id":"92ef1c6c-cbe6-4c33-8f5c-15685f5b6493","system_id":"levelo_inurba_marseille","lat":43.306504,"lon":5.400646,"is_reserved":false,"is_disabled":false,"rental_uris":{"android":"levelo://app?vid=92ef1c6c-cbe6-4c33-8f5c-15685f5b6493","ios":"levelo://app?vid=92ef1c6c-cbe6-4c33-8f5c-15685f5b6493"},"vehicle_type_id":"4","last_reported":1752999236,"current_range_meters":18000,"station_id":"ce4bh112rcd13ifvqda0","pricing_plan_id":"cebpf4jnsgd1na2vs0mg"},{"bike_id":"8fc09614-94c7-4612-9624-66e357843b79","system_id":"levelo_inurba_marseille","lat":43.29523,"lon":5.37491,"is_reserved":false,"is_disabled":false,"rental_uris":{"android":"levelo://app?vid=8fc09614-94c7-4612-9624-66e357843b79","ios":"levelo://app?vid=8fc09614-94c7-4612-9624-66e357843b79"},"vehicle_type_id":"4","last_reported":1752999236,"current_range_meters":18000,"station_id":"ce4bgkp2rcd13ifvqbmg","pricing_plan_id":"cebpf4jnsgd1na2vs0mg"},{"bike_id":"8979afbb-d831-492b-8bd1-2b5d774796f7","system_id":"levelo_inurba_marseille","lat":43.27046,"lon":5.42266,"is_reserved":false,"is_disabled":false,"rental_uris":{"android":"levelo://app?vid=8979afbb-d831-492b-8bd1-2b5d774796f7","ios":"levelo://app?vid=8979afbb-d831-492b-8bd1-2b5d774796f7"},"vehicle_type_id":"4","last_reported":1752999236,"current_range_meters":18000,"station_id":"ce4bhk92rcd13ifvqgb0","pricing_plan_id":"cebpf4jnsgd1na2vs0mg"},{"bike_id":"685f2120-221e-452d-95f5-ad6ef7024cb8","system_id":"levelo_inurba_marseille","lat":43.30817,"lon":5.4352,"is_reserved":false,"is_disabled":false,"rental_uris":{"android":"levelo://app?vid=685f2120-221e-452d-95f5-ad6ef7024cb8","ios":"levelo://app?vid=685f2120-221e-452d-95f5-ad6ef7024cb8"},"vehicle_type_id":"4","last_reported":1752999236,"current_range_meters":18000,"station_id":"ce4bhph2rcd13ifvqheg","pricing_plan_id":"cebpf4jnsgd1na2vs0mg"},{"bike_id":"a0fe8a12-d493-4f06-8393-c2c4bd30b108","system_id":"levelo_inurba_marseille","lat":43.28608,"lon":5.351,"is_reserved":false,"is_disabled":false,"rental_uris":{"android":"levelo://app?vid=a0fe8a12-d493-4f06-8393-c2c4bd30b108","ios":"levelo://app?vid=a0fe8a12-d493-4f06-8393-c2c4bd30b108"},"vehicle_type_id":"4","last_reported":1752999236,"current_range_meters":18000,"station_id":"ce4bhch2rcd13ifvqeug","pricing_plan_id":"cebpf4jnsgd1na2vs0mg"},{"bike_id":"c17e1af1-d49f-41db-8ac1-44ed28786385","system_id":"levelo_inurba_marseille","lat":43.31062,"lon":5.38357,"is_reserved":false,"is_disabled":false,"rental_uris":{"android":"levelo://app?vid=c17e1af1-d49f-41db-8ac1-44ed28786385","ios":"levelo://app?vid=c17e1af1-d49f-41db-8ac1-44ed28786385"},"vehicle_type_id":"4","last_reported":1752999236,"current_range_meters":18000,"station_id":"ce4bgv92rcd13ifvqcr0","pricing_plan_id":"cebpf4jnsgd1na2vs0mg"},{"bike_id":"e88f0305-2351-4f37-a6a2-061745afce45","system_id":"levelo_inurba_marseille","lat":43.24073,"lon":5.37752,"is_reserved":false,"is_disabled":false,"rental_uris":{"android":"levelo://app?vid=e88f0305-2351-4f37-a6a2-061745afce45","ios":"levelo://app?vid=e88f0305-2351-4f37-a6a2-061745afce45"},"vehicle_type_id":"4","last_reported":1752999236,"current_range_meters":18000,"station_id":"ce4bhnp2rcd13ifvqgvg","pricing_plan_id":"cebpf4jnsgd1na2vs0mg"},{"bike_id":"302bb4c0-dc1d-4f3f-af05-aa9b397ba02e","system_id":"levelo_inurba_marseille","lat":43.24175,"lon":5.3971,"is_reserved":false,"is_disabled":false,"rental_uris":{"android":"levelo://app?vid=302bb4c0-dc1d-4f3f-af05-aa9b397ba02e","ios":"levelo://app?vid=302bb4c0-dc1d-4f3f-af05-aa9b397ba02e"},"vehicle_type_id":"4","last_reported":1752999236,"current_range_meters":18000,"station_id":"ce4bhn12rcd13ifvqgpg","pricing_plan_id":"cebpf4jnsgd1na2vs0mg"},{"bike_id":"95e829fc-d242-4a7a-b921-12c822482bea","system_id":"levelo_inurba_marseille","lat":43.29853,"lon":5.3628,"is_reserved":false,"is_disabled":false,"rental_uris":{"android":"levelo://app?vid=95e829fc-d242-4a7a-b921-12c822482bea","ios":"levelo://app?vid=95e829fc-d242-4a7a-b921-12c822482bea"},"vehicle_type_id":"4","last_reported":1752999236,"current_range_meters":18000,"station_id":"ce4bgpp2rcd13ifvqc3g","pricing_plan_id":"cebpf4jnsgd1na2vs0mg"},{"bike_id":"42752829-3ee2-4e84-849d-429017304915","system_id":"levelo_inurba_marseille","lat":43.28475,"lon":5.35898,"is_reserved":false,"is_disabled":true,"rental_uris":{"android":"levelo://app?vid=42752829-3ee2-4e84-849d-429017304915","ios":"levelo://app?vid=42752829-3ee2-4e84-849d-429017304915"},"vehicle_type_id":"4","last_reported":1752999236,"current_range_meters":18000,"station_id":"ce4bhah2rcd13ifvqei0","pricing_plan_id":"cebpf4jnsgd1na2vs0mg"},{"bike_id":"d007a63b-662c-4b54-b17f-51fadf0cd81e","system_id":"levelo_inurba_marseille","lat":43.22928,"lon":5.353798,"is_reserved":false,"is_disabled":false,"rental_uris":{"android":"levelo://app?vid=d007a63b-662c-4b54-b17f-51fadf0cd81e","ios":"levelo://app?vid=d007a63b-662c-4b54-b17f-51fadf0cd81e"},"vehicle_type_id":"4","last_reported":1752999236,"current_range_meters":18800,"station_id":"","pricing_plan_id":"cebpf4jnsgd1na2vs0mg"},{"bike_id":"01ef6f38-0cb9-4831-9c9a-0f76f326e484","system_id":"levelo_inurba_marseille","lat":43.290018,"lon":5.356138,"is_reserved":false,"is_disabled":true,"rental_uris":{"android":"levelo://app?vid=01ef6f38-0cb9-4831-9c9a-0f76f326e484","ios":"levelo://app?vid=01ef6f38-0cb9-4831-9c9a-0f76f326e484"},"vehicle_type_id":"4","last_reported":1752999236,"current_range_meters":18800,"station_id":"ce4bhb92rcd13ifvqen0","pricing_plan_id":"cebpf4jnsgd1na2vs0mg"},{"bike_id":"3d36c590-bfb3-4f3d-a821-3b0275041fa7","system_id":"levelo_inurba_marseille","lat":43.30412,"lon":5.41303,"is_reserved":false,"is_disabled":false,"rental_uris":{"android":"levelo://app?vid=3d36c590-bfb3-4f3d-a821-3b0275041fa7","ios":"levelo://app?vid=3d36c590-bfb3-4f3d-a821-3b0275041fa7"},"vehicle_type_id":"4","last_reported":1752999236,"current_range_meters":18800,"station_id":"ce4bhop2rcd13ifvqh8g","pricing_plan_id":"cebpf4jnsgd1na2vs0mg"},{"bike_id":"ae2679a0-b2a2-4165-87f5-73851922f36f","system_id":"levelo_inurba_marseille","lat":43.24982,"lon":5.41642,"is_reserved":false,"is_disabled":false,"rental_uris":{"android":"levelo://app?vid=ae2679a0-b2a2-4165-87f5-73851922f36f","ios":"levelo://app?vid=ae2679a0-b2a2-4165-87f5-73851922f36f"},"vehicle_type_id":"4","last_reported":1752999236,"current_range_meters":18800,"station_id":"","pricing_plan_id":"cebpf4jnsgd1na2vs0mg"},{"bike_id":"2a6520b8-14a4-40d1-808b-4ae697cfdaab","system_id":"levelo_inurba_marseille","lat":43.30783,"lon":5.37654,"is_reserved":false,"is_disabled":false,"rental_uris":{"android":"levelo://app?vid=2a6520b8-14a4-40d1-808b-4ae697cfdaab","ios":"levelo://app?vid=2a6520b8-14a4-40d1-808b-4ae697cfdaab"},"vehicle_type_id":"4","last_reported":1752999236,"current_range_meters":18800,"station_id":"ce4bgv92rcd13ifvqcq0","pricing_plan_id":"cebpf4jnsgd1na2vs0mg"},{"bike_id":"de9a47b5-edea-465f-9387-34f73bc29d46","system_id":"levelo_inurba_marseille","lat":43.22958,"lon":5.35383,"is_reserved":false,"is_disabled":false,"rental_uris":{"android":"levelo://app?vid=de9a47b5-edea-465f-9387-34f73bc29d46","ios":"levelo://app?vid=de9a47b5-edea-465f-9387-34f73bc29d46"},"vehicle_type_id":"4","last_reported":1752999236,"current_range_meters":18800,"station_id":"cpo3532slgdg3j2ikp40","pricing_plan_id":"cebpf4jnsgd1na2vs0mg"},{"bike_id":"0281a9fa-a6a3-4d96-bbdb-496f4ad0d92c","system_id":"levelo_inurba_marseille","lat":43.23188,"lon":5.39992,"is_reserved":false,"is_disabled":false,"rental_uris":{"android":"levelo://app?vid=0281a9fa-a6a3-4d96-bbdb-496f4ad0d92c","ios":"levelo://app?vid=0281a9fa-a6a3-4d96-bbdb-496f4ad0d92c"},"vehicle_type_id":"4","last_reported":1752999236,"current_range_meters":19200,"station_id":"ce4bhn12rcd13ifvqgqg","pricing_plan_id":"cebpf4jnsgd1na2vs0mg"},{"bike_id":"d100812f-9e77-4b3a-a11b-18211b570584","system_id":"levelo_inurba_marseille","lat":43.32509,"lon":5.36555,"is_reserved":false,"is_disabled":false,"rental_uris":{"android":"levelo://app?vid=d100812f-9e77-4b3a-a11b-18211b570584","ios":"levelo://app?vid=d100812f-9e77-4b3a-a11b-18211b570584"},"vehicle_type_id":"4","last_reported":1752999236,"current_range_meters":19200,"station_id":"ce4bhs12rcd13ifvqhvg","pricing_plan_id":"cebpf4jnsgd1na2vs0mg"},{"bike_id":"f4060b56-2254-4534-a1d5-8f84c31b85ec","system_id":"levelo_inurba_marseille","lat":43.28623,"lon":5.3822,"is_reserved":false,"is_disabled":false,"rental_uris":{"android":"levelo://app?vid=f4060b56-2254-4534-a1d5-8f84c31b85ec","ios":"levelo://app?vid=f4060b56-2254-4534-a1d5-8f84c31b85ec"},"vehicle_type_id":"4","last_reported":1752999236,"current_range_meters":19200,"station_id":"","pricing_plan_id":"cebpf4jnsgd1na2vs0mg"},{"bike_id":"aacc1604-b351-47a4-8a14-228f69963db9","system_id":"levelo_inurba_marseille","lat":43.24665,"lon":5.38148,"is_reserved":false,"is_disabled":false,"rental_uris":{"android":"levelo://app?vid=aacc1604-b351-47a4-8a14-228f69963db9","ios":"levelo://app?vid=aacc1604-b351-47a4-8a14-228f69963db9"},"vehicle_type_id":"4","last_reported":1752999236,"current_range_meters":19200,"station_id":"ce4bhih2rcd13ifvqfr0","pricing_plan_id":"cebpf4jnsgd1na2vs0mg"},{"bike_id":"054459cc-5be1-4b82-9260-a4f74104380f","system_id":"levelo_inurba_marseille","lat":43.29552,"lon":5.42298,"is_reserved":false,"is_disabled":false,"rental_uris":{"android":"levelo://app?vid=054459cc-5be1-4b82-9260-a4f74104380f","ios":"levelo://app?vid=054459cc-5be1-4b82-9260-a4f74104380f"},"vehicle_type_id":"4","last_reported":1752999236,"current_range_meters":19200,"station_id":"ce4bhph2rcd13ifvqhdg","pricing_plan_id":"cebpf4jnsgd1na2vs0mg"},{"bike_id":"c47c4612-aa9a-40e0-9a78-5da247b20688","system_id":"levelo_inurba_marseille","lat":43.22508,"lon":5.34768,"is_reserved":false,"is_disabled":false,"rental_uris":{"android":"levelo://app?vid=c47c4612-aa9a-40e0-9a78-5da247b20688","ios":"levelo://app?vid=c47c4612-aa9a-40e0-9a78-5da247b20688"},"vehicle_type_id":"4","last_reported":1752999236,"current_range_meters":19200,"station_id":"st_cvj5dfep6f1abm77gieg","pricing_plan_id":"cebpf4jnsgd1na2vs0mg"},{"bike_id":"1a0edc0c-36cf-4b82-8a4f-5698001113fb","system_id":"levelo_inurba_marseille","lat":43.30545,"lon":5.3653,"is_reserved":false,"is_disabled":false,"rental_uris":{"android":"levelo://app?vid=1a0edc0c-36cf-4b82-8a4f-5698001113fb","ios":"levelo://app?vid=1a0edc0c-36cf-4b82-8a4f-5698001113fb"},"vehicle_type_id":"4","last_reported":1752999236,"current_range_meters":19200,"station_id":"ce4bgs12rcd13ifvqcag","pricing_plan_id":"cebpf4jnsgd1na2vs0mg"},{"bike_id":"c6f13c59-2793-4a1e-87aa-6f0d71252623","system_id":"levelo_inurba_marseille","lat":43.29907,"lon":5.43631,"is_reserved":false,"is_disabled":false,"rental_uris":{"android":"levelo://app?vid=c6f13c59-2793-4a1e-87aa-6f0d71252623","ios":"levelo://app?vid=c6f13c59-2793-4a1e-87aa-6f0d71252623"},"vehicle_type_id":"4","last_reported":1752999236,"current_range_meters":19600,"station_id":"ce4bhpp2rcd13ifvqhfg","pricing_plan_id":"cebpf4jnsgd1na2vs0mg"},{"bike_id":"48695cfc-3392-4348-bcf7-3d072a2f0d82","system_id":"levelo_inurba_marseille","lat":43.308879,"lon":5.396266,"is_reserved":false,"is_disabled":false,"rental_uris":{"android":"levelo://app?vid=48695cfc-3392-4348-bcf7-3d072a2f0d82","ios":"levelo://app?vid=48695cfc-3392-4348-bcf7-3d072a2f0d82"},"vehicle_type_id":"4","last_reported":1752999236,"current_range_meters":19600,"station_id":"ce4bh012rcd13ifvqcv0","pricing_plan_id":"cebpf4jnsgd1na2vs0mg"},{"bike_id":"cfd4830d-9763-4a13-911f-253209238f56","system_id":"levelo_inurba_marseille","lat":43.28706,"lon":5.37387,"is_reserved":false,"is_disabled":false,"rental_uris":{"android":"levelo://app?vid=cfd4830d-9763-4a13-911f-253209238f56","ios":"levelo://app?vid=cfd4830d-9763-4a13-911f-253209238f56"},"vehicle_type_id":"4","last_reported":1752999236,"current_range_meters":19600,"station_id":"ce4bh3p2rcd13ifvqdq0","pricing_plan_id":"cebpf4jnsgd1na2vs0mg"},{"bike_id":"12cc632f-1bd8-4aad-b981-4f9d22374684","system_id":"levelo_inurba_marseille","lat":43.29299,"lon":5.36826,"is_reserved":false,"is_disabled":false,"rental_uris":{"android":"levelo://app?vid=12cc632f-1bd8-4aad-b981-4f9d22374684","ios":"levelo://app?vid=12cc632f-1bd8-4aad-b981-4f9d22374684"},"vehicle_type_id":"4","last_reported":1752999236,"current_range_meters":19600,"station_id":"ce4bhbp2rcd13ifvqesg","pricing_plan_id":"cebpf4jnsgd1na2vs0mg"},{"bike_id":"161aeac3-4d5a-4661-9bae-ad1814bc1661","system_id":"levelo_inurba_marseille","lat":43.22519,"lon":5.34771,"is_reserved":false,"is_disabled":false,"rental_uris":{"android":"levelo://app?vid=161aeac3-4d5a-4661-9bae-ad1814bc1661","ios":"levelo://app?vid=161aeac3-4d5a-4661-9bae-ad1814bc1661"},"vehicle_type_id":"4","last_reported":1752999236,"current_range_meters":19600,"station_id":"","pricing_plan_id":"cebpf4jnsgd1na2vs0mg"},{"bike_id":"22291762-a456-4893-9651-61a760232c34","system_id":"levelo_inurba_marseille","lat":43.229341,"lon":5.353774,"is_reserved":false,"is_disabled":false,"rental_uris":{"android":"levelo://app?vid=22291762-a456-4893-9651-61a760232c34","ios":"levelo://app?vid=22291762-a456-4893-9651-61a760232c34"},"vehicle_type_id":"4","last_reported":1752999236,"current_range_meters":19600,"station_id":"cpo3532slgdg3j2ikp40","pricing_plan_id":"cebpf4jnsgd1na2vs0mg"},{"bike_id":"141c2bb5-ccf5-4459-ae02-ca4718282772","system_id":"levelo_inurba_marseille","lat":43.30799,"lon":5.43524,"is_reserved":false,"is_disabled":false,"rental_uris":{"android":"levelo://app?vid=141c2bb5-ccf5-4459-ae02-ca4718282772","ios":"levelo://app?vid=141c2bb5-ccf5-4459-ae02-ca4718282772"},"vehicle_type_id":"4","last_reported":1752999236,"current_range_meters":19600,"station_id":"ce4bhph2rcd13ifvqheg","pricing_plan_id":"cebpf4jnsgd1na2vs0mg"},{"bike_id":"f72823ba-e2da-48e1-af37-dcabcec83ad9","system_id":"levelo_inurba_marseille","lat":43.30468,"lon":5.37899,"is_reserved":false,"is_disabled":false,"rental_uris":{"android":"levelo://app?vid=f72823ba-e2da-48e1-af37-dcabcec83ad9","ios":"levelo://app?vid=f72823ba-e2da-48e1-af37-dcabcec83ad9"},"vehicle_type_id":"4","last_reported":1752999236,"current_range_meters":20000,"station_id":"ce4bgup2rcd13ifvqcn0","pricing_plan_id":"cebpf4jnsgd1na2vs0mg"},{"bike_id":"39acaf0a-4d8a-42c7-8645-09614988b54d","system_id":"levelo_inurba_marseille","lat":43.21188,"lon":5.35074,"is_reserved":false,"is_disabled":false,"rental_uris":{"android":"levelo://app?vid=39acaf0a-4d8a-42c7-8645-09614988b54d","ios":"levelo://app?vid=39acaf0a-4d8a-42c7-8645-09614988b54d"},"vehicle_type_id":"4","last_reported":1752999236,"current_range_meters":20000,"station_id":"st_cvj6sg6p6f1abm77japg","pricing_plan_id":"cebpf4jnsgd1na2vs0mg"},{"bike_id":"8ec28e78-3b13-48db-ae3d-be79d08f46d7","system_id":"levelo_inurba_marseille","lat":43.3065,"lon":5.40072,"is_reserved":false,"is_disabled":false,"rental_uris":{"android":"levelo://app?vid=8ec28e78-3b13-48db-ae3d-be79d08f46d7","ios":"levelo://app?vid=8ec28e78-3b13-48db-ae3d-be79d08f46d7"},"vehicle_type_id":"4","last_reported":1752999236,"current_range_meters":20000,"station_id":"ce4bh112rcd13ifvqda0","pricing_plan_id":"cebpf4jnsgd1na2vs0mg"},{"bike_id":"5c7cfd38-807b-4bef-9c5d-c2f0c95ce8df","system_id":"levelo_inurba_marseille","lat":43.22496,"lon":5.3477,"is_reserved":false,"is_disabled":false,"rental_uris":{"android":"levelo://app?vid=5c7cfd38-807b-4bef-9c5d-c2f0c95ce8df","ios":"levelo://app?vid=5c7cfd38-807b-4bef-9c5d-c2f0c95ce8df"},"vehicle_type_id":"4","last_reported":1752999236,"current_range_meters":20000,"station_id":"st_cvj5dfep6f1abm77gieg","pricing_plan_id":"cebpf4jnsgd1na2vs0mg"},{"bike_id":"979e4989-96ec-4499-8946-57f9549c0932","system_id":"levelo_inurba_marseille","lat":43.27963,"lon":5.38739,"is_reserved":false,"is_disabled":false,"rental_uris":{"android":"levelo://app?vid=979e4989-96ec-4499-8946-57f9549c0932","ios":"levelo://app?vid=979e4989-96ec-4499-8946-57f9549c0932"},"vehicle_type_id":"4","last_reported":1752999236,"current_range_meters":20000,"station_id":"ce4bhg12rcd13ifvqf80","pricing_plan_id":"cebpf4jnsgd1na2vs0mg"},{"bike_id":"9730fae3-5668-4fa8-aa98-3189373117fb","system_id":"levelo_inurba_marseille","lat":43.22933,"lon":5.35373,"is_reserved":false,"is_disabled":false,"rental_uris":{"android":"levelo://app?vid=9730fae3-5668-4fa8-aa98-3189373117fb","ios":"levelo://app?vid=9730fae3-5668-4fa8-aa98-3189373117fb"},"vehicle_type_id":"4","last_reported":1752999236,"current_range_meters":20000,"station_id":"cpo3532slgdg3j2ikp40","pricing_plan_id":"cebpf4jnsgd1na2vs0mg"},{"bike_id":"78bcd778-8088-4038-a043-6c07672a1f85","system_id":"levelo_inurba_marseille","lat":43.24165,"lon":5.39716,"is_reserved":false,"is_disabled":false,"rental_uris":{"android":"levelo://app?vid=78bcd778-8088-4038-a043-6c07672a1f85","ios":"levelo://app?vid=78bcd778-8088-4038-a043-6c07672a1f85"},"vehicle_type_id":"4","last_reported":1752999236,"current_range_meters":20000,"station_id":"ce4bhn12rcd13ifvqgpg","pricing_plan_id":"cebpf4jnsgd1na2vs0mg"},{"bike_id":"ac49738a-4d4f-43d3-9c67-46980e61ae95","system_id":"levelo_inurba_marseille","lat":43.31702,"lon":5.3768,"is_reserved":false,"is_disabled":false,"rental_uris":{"android":"levelo://app?vid=ac49738a-4d4f-43d3-9c67-46980e61ae95","ios":"levelo://app?vid=ac49738a-4d4f-43d3-9c67-46980e61ae95"},"vehicle_type_id":"4","last_reported":1752999236,"current_range_meters":20000,"station_id":"ce4bgth2rcd13ifvqch0","pricing_plan_id":"cebpf4jnsgd1na2vs0mg"},{"bike_id":"b649b339-1977-42cc-86a8-4235021ba156","system_id":"levelo_inurba_marseille","lat":43.21192,"lon":5.35066,"is_reserved":false,"is_disabled":false,"rental_uris":{"android":"levelo://app?vid=b649b339-1977-42cc-86a8-4235021ba156","ios":"levelo://app?vid=b649b339-1977-42cc-86a8-4235021ba156"},"vehicle_type_id":"4","last_reported":1752999236,"current_range_meters":20400,"station_id":"st_cvj6sg6p6f1abm77japg","pricing_plan_id":"cebpf4jnsgd1na2vs0mg"},{"bike_id":"19665075-1169-45a7-af41-9f1c346d2c17","system_id":"levelo_inurba_marseille","lat":43.23956,"lon":5.36626,"is_reserved":false,"is_disabled":true,"rental_uris":{"android":"levelo://app?vid=19665075-1169-45a7-af41-9f1c346d2c17","ios":"levelo://app?vid=19665075-1169-45a7-af41-9f1c346d2c17"},"vehicle_type_id":"4","last_reported":1752999236,"current_range_meters":20400,"station_id":"ce4bhi12rcd13ifvqfp0","pricing_plan_id":"cebpf4jnsgd1na2vs0mg"},{"bike_id":"0c1abe6b-d980-405f-a710-1dae35510659","system_id":"levelo_inurba_marseille","lat":43.24746,"lon":5.41173,"is_reserved":false,"is_disabled":false,"rental_uris":{"android":"levelo://app?vid=0c1abe6b-d980-405f-a710-1dae35510659","ios":"levelo://app?vid=0c1abe6b-d980-405f-a710-1dae35510659"},"vehicle_type_id":"4","last_reported":1752999236,"current_range_meters":20400,"station_id":"","pricing_plan_id":"cebpf4jnsgd1na2vs0mg"},{"bike_id":"09aa2053-b3ad-40d1-beee-5e97dc687ea0","system_id":"levelo_inurba_marseille","lat":43.289295,"lon":5.366339,"is_reserved":false,"is_disabled":false,"rental_uris":{"android":"levelo://app?vid=09aa2053-b3ad-40d1-beee-5e97dc687ea0","ios":"levelo://app?vid=09aa2053-b3ad-40d1-beee-5e97dc687ea0"},"vehicle_type_id":"4","last_reported":1752999236,"current_range_meters":20400,"station_id":"ce4bhap2rcd13ifvqek0","pricing_plan_id":"cebpf4jnsgd1na2vs0mg"},{"bike_id":"cf00868c-691d-4ef2-90d6-7c211f7372ff","system_id":"levelo_inurba_marseille","lat":43.3169,"lon":5.40466,"is_reserved":false,"is_disabled":false,"rental_uris":{"android":"levelo://app?vid=cf00868c-691d-4ef2-90d6-7c211f7372ff","ios":"levelo://app?vid=cf00868c-691d-4ef2-90d6-7c211f7372ff"},"vehicle_type_id":"4","last_reported":1752999236,"current_range_meters":20400,"station_id":"ce4bh012rcd13ifvqd00","pricing_plan_id":"cebpf4jnsgd1na2vs0mg"},{"bike_id":"60159187-b5f1-4503-9032-638c68a75877","system_id":"levelo_inurba_marseille","lat":43.29253,"lon":5.37633,"is_reserved":false,"is_disabled":false,"rental_uris":{"android":"levelo://app?vid=60159187-b5f1-4503-9032-638c68a75877","ios":"levelo://app?vid=60159187-b5f1-4503-9032-638c68a75877"},"vehicle_type_id":"4","last_reported":1752999236,"current_range_meters":20400,"station_id":"ce4bgi12rcd13ifvqb80","pricing_plan_id":"cebpf4jnsgd1na2vs0mg"},{"bike_id":"3939c54d-98e8-4bfc-a281-6c6fdb771f30","system_id":"levelo_inurba_marseille","lat":43.24166,"lon":5.36389,"is_reserved":false,"is_disabled":false,"rental_uris":{"android":"levelo://app?vid=3939c54d-98e8-4bfc-a281-6c6fdb771f30","ios":"levelo://app?vid=3939c54d-98e8-4bfc-a281-6c6fdb771f30"},"vehicle_type_id":"4","last_reported":1752999236,"current_range_meters":20400,"station_id":"cpo36qri1sfpv3e86is0","pricing_plan_id":"cebpf4jnsgd1na2vs0mg"},{"bike_id":"3b033fc4-210f-4d44-b732-51686e0c28a7","system_id":"levelo_inurba_marseille","lat":43.22944,"lon":5.35367,"is_reserved":false,"is_disabled":false,"rental_uris":{"android":"levelo://app?vid=3b033fc4-210f-4d44-b732-51686e0c28a7","ios":"levelo://app?vid=3b033fc4-210f-4d44-b732-51686e0c28a7"},"vehicle_type_id":"4","last_reported":1752999236,"current_range_meters":20400,"station_id":"cpo3532slgdg3j2ikp40","pricing_plan_id":"cebpf4jnsgd1na2vs0mg"},{"bike_id":"1e6aa375-42a8-43a5-8141-e1a01840c0ad","system_id":"levelo_inurba_marseille","lat":43.273695,"lon":5.362611,"is_reserved":false,"is_disabled":false,"rental_uris":{"android":"levelo://app?vid=1e6aa375-42a8-43a5-8141-e1a01840c0ad","ios":"levelo://app?vid=1e6aa375-42a8-43a5-8141-e1a01840c0ad"},"vehicle_type_id":"4","last_reported":1752999236,"current_range_meters":20800,"station_id":"ce4bhbh2rcd13ifvqeo0","pricing_plan_id":"cebpf4jnsgd1na2vs0mg"},{"bike_id":"2202d4e1-43b2-495b-89e8-e4d9f8d5cf6b","system_id":"levelo_inurba_marseille","lat":43.211935,"lon":5.350714,"is_reserved":false,"is_disabled":false,"rental_uris":{"android":"levelo://app?vid=2202d4e1-43b2-495b-89e8-e4d9f8d5cf6b","ios":"levelo://app?vid=2202d4e1-43b2-495b-89e8-e4d9f8d5cf6b"},"vehicle_type_id":"4","last_reported":1752999236,"current_range_meters":20800,"station_id":"st_cvj6sg6p6f1abm77japg","pricing_plan_id":"cebpf4jnsgd1na2vs0mg"},{"bike_id":"31c0d39e-aec8-410f-824d-3c0c877abe3b","system_id":"levelo_inurba_marseille","lat":43.29277,"lon":5.36845,"is_reserved":false,"is_disabled":false,"rental_uris":{"android":"levelo://app?vid=31c0d39e-aec8-410f-824d-3c0c877abe3b","ios":"levelo://app?vid=31c0d39e-aec8-410f-824d-3c0c877abe3b"},"vehicle_type_id":"4","last_reported":1752999236,"current_range_meters":20800,"station_id":"ce4bhbp2rcd13ifvqesg","pricing_plan_id":"cebpf4jnsgd1na2vs0mg"},{"bike_id":"d3a70e02-a2a5-45b6-9074-570f4f8cbfe7","system_id":"levelo_inurba_marseille","lat":43.28262,"lon":5.35067,"is_reserved":false,"is_disabled":false,"rental_uris":{"android":"levelo://app?vid=d3a70e02-a2a5-45b6-9074-570f4f8cbfe7","ios":"levelo://app?vid=d3a70e02-a2a5-45b6-9074-570f4f8cbfe7"},"vehicle_type_id":"4","last_reported":1752999236,"current_range_meters":20800,"station_id":"ce4bhbp2rcd13ifvqerg","pricing_plan_id":"cebpf4jnsgd1na2vs0mg"},{"bike_id":"e973e17e-6f49-4719-85f4-d681a7df9ff8","system_id":"levelo_inurba_marseille","lat":43.21751,"lon":5.34599,"is_reserved":false,"is_disabled":false,"rental_uris":{"android":"levelo://app?vid=e973e17e-6f49-4719-85f4-d681a7df9ff8","ios":"levelo://app?vid=e973e17e-6f49-4719-85f4-d681a7df9ff8"},"vehicle_type_id":"4","last_reported":1752999236,"current_range_meters":20800,"station_id":"st_cvj6r9ubvosntc0bgbag","pricing_plan_id":"cebpf4jnsgd1na2vs0mg"},{"bike_id":"2b47b056-c5ec-47ea-84d4-c5e4a02de71f","system_id":"levelo_inurba_marseille","lat":43.294938,"lon":5.427347,"is_reserved":false,"is_disabled":false,"rental_uris":{"android":"levelo://app?vid=2b47b056-c5ec-47ea-84d4-c5e4a02de71f","ios":"levelo://app?vid=2b47b056-c5ec-47ea-84d4-c5e4a02de71f"},"vehicle_type_id":"4","last_reported":1752999236,"current_range_meters":20800,"station_id":"","pricing_plan_id":"cebpf4jnsgd1na2vs0mg"},{"bike_id":"7bedd42b-aed8-48fa-8937-d64b8219d4a8","system_id":"levelo_inurba_marseille","lat":43.2693,"lon":5.38917,"is_reserved":false,"is_disabled":false,"rental_uris":{"android":"levelo://app?vid=7bedd42b-aed8-48fa-8937-d64b8219d4a8","ios":"levelo://app?vid=7bedd42b-aed8-48fa-8937-d64b8219d4a8"},"vehicle_type_id":"4","last_reported":1752999236,"current_range_meters":20400,"station_id":"ce4bhhh2rcd13ifvqfl0","pricing_plan_id":"cebpf4jnsgd1na2vs0mg"},{"bike_id":"579fa108-13c4-4ae5-9e9e-e2de3c895175","system_id":"levelo_inurba_marseille","lat":43.26951,"lon":5.38639,"is_reserved":false,"is_disabled":false,"rental_uris":{"android":"levelo://app?vid=579fa108-13c4-4ae5-9e9e-e2de3c895175","ios":"levelo://app?vid=579fa108-13c4-4ae5-9e9e-e2de3c895175"},"vehicle_type_id":"4","last_reported":1752999236,"current_range_meters":20400,"station_id":"ce4bhh92rcd13ifvqfh0","pricing_plan_id":"cebpf4jnsgd1na2vs0mg"},{"bike_id":"d778a561-0abe-4676-9dca-d85a214615cb","system_id":"levelo_inurba_marseille","lat":43.337743,"lon":5.374289,"is_reserved":false,"is_disabled":false,"rental_uris":{"android":"levelo://app?vid=d778a561-0abe-4676-9dca-d85a214615cb","ios":"levelo://app?vid=d778a561-0abe-4676-9dca-d85a214615cb"},"vehicle_type_id":"4","last_reported":1752999236,"current_range_meters":21600,"station_id":"","pricing_plan_id":"cebpf4jnsgd1na2vs0mg"},{"bike_id":"6a752830-1e67-4ee8-b0ef-010d91cf5355","system_id":"levelo_inurba_marseille","lat":43.2416,"lon":5.36377,"is_reserved":false,"is_disabled":false,"rental_uris":{"android":"levelo://app?vid=6a752830-1e67-4ee8-b0ef-010d91cf5355","ios":"levelo://app?vid=6a752830-1e67-4ee8-b0ef-010d91cf5355"},"vehicle_type_id":"4","last_reported":1752999236,"current_range_meters":21600,"station_id":"cpo36qri1sfpv3e86is0","pricing_plan_id":"cebpf4jnsgd1na2vs0mg"},{"bike_id":"f0dc9944-d864-4c73-8061-3ec1785125bb","system_id":"levelo_inurba_marseille","lat":43.323455,"lon":5.406106,"is_reserved":false,"is_disabled":false,"rental_uris":{"android":"levelo://app?vid=f0dc9944-d864-4c73-8061-3ec1785125bb","ios":"levelo://app?vid=f0dc9944-d864-4c73-8061-3ec1785125bb"},"vehicle_type_id":"4","last_reported":1752999236,"current_range_meters":21600,"station_id":"ce4bhq92rcd13ifvqhjg","pricing_plan_id":"cebpf4jnsgd1na2vs0mg"},{"bike_id":"a95607eb-463b-4cda-a224-f545762ec41b","system_id":"levelo_inurba_marseille","lat":43.29431,"lon":5.38579,"is_reserved":false,"is_disabled":true,"rental_uris":{"android":"levelo://app?vid=a95607eb-463b-4cda-a224-f545762ec41b","ios":"levelo://app?vid=a95607eb-463b-4cda-a224-f545762ec41b"},"vehicle_type_id":"4","last_reported":1752999236,"current_range_meters":21600,"station_id":"ce4bh2h2rcd13ifvqdh0","pricing_plan_id":"cebpf4jnsgd1na2vs0mg"},{"bike_id":"3bafcbf1-23ae-4876-976a-bbb29b3b6394","system_id":"levelo_inurba_marseille","lat":43.289329,"lon":5.364,"is_reserved":false,"is_disabled":false,"rental_uris":{"android":"levelo://app?vid=3bafcbf1-23ae-4876-976a-bbb29b3b6394","ios":"levelo://app?vid=3bafcbf1-23ae-4876-976a-bbb29b3b6394"},"vehicle_type_id":"4","last_reported":1752999236,"current_range_meters":21600,"station_id":"ce4bhc92rcd13ifvqetg","pricing_plan_id":"cebpf4jnsgd1na2vs0mg"},