{"last_updated":1746284937,"ttl":60,"version":"2.2","data":{"bikes":[{"bike_id":"0c30a002-4796-4758-bf27-0dd369126497","system_id":"levelo_inurba_marseille","lat":43.25493,"lon":5.376457,"is_reserved":false,"is_disabled":false,"rental_uris":{"android":"levelo://app?vid=0c30a002-4796-4758-bf27-0dd369126497","ios":"levelo://app?vid=0c30a002-4796-4758-bf27-0dd369126497"},"vehicle_type_id":"4","last_reported":1746284937,"current_range_meters":2800,"station_id":"ce4bhh12rcd13ifvqff0","pricing_plan_id":"cebpf4jnsgd1na2vs0mg"},{"bike_id":"befc7c47-018b-4143-8532-09dc97c2ba3a","system_id":"levelo_inurba_marseille","lat":43.30216,"lon":5.39503,"is_reserved":false,"is_disabled":false,"rental_uris":{"android":"levelo://app?vid=befc7c47-018b-4143-8532-09dc97c2ba3a","ios":"levelo://app?vid=befc7c47-018b-4143-8532-09dc97c2ba3a"},"vehicle_type_id":"4","last_reported":1746284937,"current_range_meters":2800,"station_id":"ce4bh0p2rcd13ifvqd70","pricing_plan_id":"cebpf4jnsgd1na2vs0mg"},{"bike_id":"693fa62c-87b6-4b7b-b3ce-8e150b3c78fd","system_id":"levelo_inurba_marseille","lat":43.26954,"lon":5.3863,"is_reserved":false,"is_disabled":false,"rental_uris":{"android":"levelo://app?vid=693fa62c-87b6-4b7b-b3ce-8e150b3c78fd","ios":"levelo://app?vid=693fa62c-87b6-4b7b-b3ce-8e150b3c78fd"},"vehicle_type_id":"4","last_reported":1746284937,"current_range_meters":2000,"station_id":"ce4bhh92rcd13ifvqfh0","pricing_plan_id":"cebpf4jnsgd1na2vs0mg"},{"bike_id":"85bf6fd8-aa04-47d3-b0e9-14088978c7e3","system_id":"levelo_inurba_marseille","lat":43.26212,"lon":5.37444,"is_reserved":false,"is_disabled":false,"rental_uris":{"android":"levelo://app?vid=85bf6fd8-aa04-47d3-b0e9-14088978c7e3","ios":"levelo://app?vid=85bf6fd8-aa04-47d3-b0e9-14088978c7e3"},"vehicle_type_id":"4","last_reported":1746284937,"current_range_meters":2800,"station_id":"ce4bhgp2rcd13ifvqfc0","pricing_plan_id":"cebpf4jnsgd1na2vs0mg"},{"bike_id":"a65fd9fe-7875-4c29-a528-ef09d63467a7","system_id":"levelo_inurba_marseille","lat":43.23064,"lon":5.35491,"is_reserved":false,"is_disabled":false,"rental_uris":{"android":"levelo://app?vid=a65fd9fe-7875-4c29-a528-ef09d63467a7","ios":"levelo://app?vid=a65fd9fe-7875-4c29-a528-ef09d63467a7"},"vehicle_type_id":"4","last_reported":1746284937,"current_range_meters":2800,"station_id":"cpo3342slgdg3j2ifvpg","pricing_plan_id":"cebpf4jnsgd1na2vs0mg"},{"bike_id":"4fcb94dd-7e2e-4c2b-a657-b8760b2238dc","system_id":"levelo_inurba_marseille","lat":43.259342,"lon":5.409065,"is_reserved":false,"is_disabled":false,"rental_uris":{"android":"levelo://app?vid=4fcb94dd-7e2e-4c2b-a657-b8760b2238dc","ios":"levelo://app?vid=4fcb94dd-7e2e-4c2b-a657-b8760b2238dc"},"vehicle_type_id":"4","last_reported":1746284937,"current_range_meters":3200,"station_id":"ce4bhm92rcd13ifvqglg","pricing_plan_id":"cebpf4jnsgd1na2vs0mg"},{"bike_id":"2a84e15f-6e81-4dcd-b2b1-4445d454ba16","system_id":"levelo_inurba_marseille","lat":43.22352,"lon":5.346691,"is_reserved":false,"is_disabled":false,"rental_uris":{"android":"levelo://app?vid=2a84e15f-6e81-4dcd-b2b1-4445d454ba16","ios":"levelo://app?vid=2a84e15f-6e81-4dcd-b2b1-4445d454ba16"},"vehicle_type_id":"4","last_reported":1746284937,"current_range_meters":3200,"station_id":"cpo3532slgdg3j2ikp40","pricing_plan_id":"cebpf4jnsgd1na2vs0mg"},{"bike_id":"bcc2d6c5-691a-46f1-8862-551db8526360","system_id":"levelo_inurba_marseille","lat":43.2318,"lon":5.39996,"is_reserved":false,"is_disabled":false,"rental_uris":{"android":"levelo://app?vid=bcc2d6c5-691a-46f1-8862-551db8526360","ios":"levelo://app?vid=bcc2d6c5-691a-46f1-8862-551db8526360"},"vehicle_type_id":"4","last_reported":1746284937,"current_range_meters":3200,"station_id":"ce4bhn12rcd13ifvqgqg","pricing_plan_id":"cebpf4jnsgd1na2vs0mg"},{"bike_id":"8fbfbc3c-472e-4ae2-b0a9-5a5fed6611ce","system_id":"levelo_inurba_marseille","lat":43.30193,"lon":5.38068,"is_reserved":false,"is_disabled":false,"rental_uris":{"android":"levelo://app?vid=8fbfbc3c-472e-4ae2-b0a9-5a5fed6611ce","ios":"levelo://app?vid=8fbfbc3c-472e-4ae2-b0a9-5a5fed6611ce"},"vehicle_type_id":"4","last_reported":1746284937,"current_range_meters":3200,"station_id":"ce4bgjp2rcd13ifvqbh0","pricing_plan_id":"cebpf4jnsgd1na2vs0mg"},{"bike_id":"f73daf93-45c7-48c0-a61a-2d28ac89db8d","system_id":"levelo_inurba_marseille","lat":43.3392,"lon":5.42106,"is_reserved":false,"is_disabled":false,"rental_uris":{"android":"levelo://app?vid=f73daf93-45c7-48c0-a61a-2d28ac89db8d","ios":"levelo://app?vid=f73daf93-45c7-48c0-a61a-2d28ac89db8d"},"vehicle_type_id":"4","last_reported":1746284937,"current_range_meters":3200,"station_id":"","pricing_plan_id":"cebpf4jnsgd1na2vs0mg"},{"bike_id":"2be6c5ac-db75-4c9d-95c6-9c66882f14b8","system_id":"levelo_inurba_marseille","lat":43.27901,"lon":5.36281,"is_reserved":false,"is_disabled":false,"rental_uris":{"android":"levelo://app?vid=2be6c5ac-db75-4c9d-95c6-9c66882f14b8","ios":"levelo://app?vid=2be6c5ac-db75-4c9d-95c6-9c66882f14b8"},"vehicle_type_id":"4","last_reported":1746284937,"current_range_meters":3600,"station_id":"","pricing_plan_id":"cebpf4jnsgd1na2vs0mg"},{"bike_id":"c50882cc-a8b6-447a-9a5e-73e3d663b642","system_id":"levelo_inurba_marseille","lat":43.27218,"lon":5.39181,"is_reserved":false,"is_disabled":false,"rental_uris":{"android":"levelo://app?vid=c50882cc-a8b6-447a-9a5e-73e3d663b642","ios":"levelo://app?vid=c50882cc-a8b6-447a-9a5e-73e3d663b642"},"vehicle_type_id":"4","last_reported":1746284937,"current_range_meters":3600,"station_id":"ce4bhhp2rcd13ifvqfm0","pricing_plan_id":"cebpf4jnsgd1na2vs0mg"},{"bike_id":"104b85e0-0bde-4e25-a3f8-1ccad6965a4c","system_id":"levelo_inurba_marseille","lat":43.25872,"lon":5.39907,"is_reserved":false,"is_disabled":false,"rental_uris":{"android":"levelo://app?vid=104b85e0-0bde-4e25-a3f8-1ccad6965a4c","ios":"levelo://app?vid=104b85e0-0bde-4e25-a3f8-1ccad6965a4c"},"vehicle_type_id":"4","last_reported":1746284937,"current_range_meters":3600,"station_id":"ce4bhl92rcd13ifvqghg","pricing_plan_id":"cebpf4jnsgd1na2vs0mg"},{"bike_id":"4c88a9a6-61f5-4361-a151-bb11cea8d8d4","system_id":"levelo_inurba_marseille","lat":43.25581,"lon":5.3822,"is_reserved":false,"is_disabled":false,"rental_uris":{"android":"levelo://app?vid=4c88a9a6-61f5-4361-a151-bb11cea8d8d4","ios":"levelo://app?vid=4c88a9a6-61f5-4361-a151-bb11cea8d8d4"},"vehicle_type_id":"4","last_reported":1746284937,"current_range_meters":3600,"station_id":"ce4bhih2rcd13ifvqfs0","pricing_plan_id":"cebpf4jnsgd1na2vs0mg"},{"bike_id":"2d87f24b-bb92-4f5a-9c64-611905425c8d","system_id":"levelo_inurba_marseille","lat":43.23667,"lon":5.39143,"is_reserved":false,"is_disabled":false,"rental_uris":{"android":"levelo://app?vid=2d87f24b-bb92-4f5a-9c64-611905425c8d","ios":"levelo://app?vid=2d87f24b-bb92-4f5a-9c64-611905425c8d"},"vehicle_type_id":"4","last_reported":1746284937,"current_range_meters":4000,"station_id":"","pricing_plan_id":"cebpf4jnsgd1na2vs0mg"},{"bike_id":"e5c47077-f18e-434e-9ae1-53069b211f89","system_id":"levelo_inurba_marseille","lat":43.23188,"lon":5.40005,"is_reserved":false,"is_disabled":false,"rental_uris":{"android":"levelo://app?vid=e5c47077-f18e-434e-9ae1-53069b211f89","ios":"levelo://app?vid=e5c47077-f18e-434e-9ae1-53069b211f89"},"vehicle_type_id":"4","last_reported":1746284937,"current_range_meters":4000,"station_id":"ce4bhn12rcd13ifvqgqg","pricing_plan_id":"cebpf4jnsgd1na2vs0mg"},{"bike_id":"3e3f6651-14d1-4eda-a079-389653d84a6a","system_id":"levelo_inurba_marseille","lat":43.248094,"lon":5.374569,"is_reserved":false,"is_disabled":false,"rental_uris":{"android":"levelo://app?vid=3e3f6651-14d1-4eda-a079-389653d84a6a","ios":"levelo://app?vid=3e3f6651-14d1-4eda-a079-389653d84a6a"},"vehicle_type_id":"4","last_reported":1746284937,"current_range_meters":4000,"station_id":"ce4bhgh2rcd13ifvqfb0","pricing_plan_id":"cebpf4jnsgd1na2vs0mg"},{"bike_id":"52adc134-49f6-4ea0-b041-1ce080c3c3b5","system_id":"levelo_inurba_marseille","lat":43.30274,"lon":5.37722,"is_reserved":false,"is_disabled":false,"rental_uris":{"android":"levelo://app?vid=52adc134-49f6-4ea0-b041-1ce080c3c3b5","ios":"levelo://app?vid=52adc134-49f6-4ea0-b041-1ce080c3c3b5"},"vehicle_type_id":"4","last_reported":1746284937,"current_range_meters":4000,"station_id":"ce4bguh2rcd13ifvqcj0","pricing_plan_id":"cebpf4jnsgd1na2vs0mg"},{"bike_id":"4a1fafbc-535c-4574-afd7-144ad16ccce6","system_id":"levelo_inurba_marseille","lat":43.242,"lon":5.3973,"is_reserved":false,"is_disabled":false,"rental_uris":{"android":"levelo://app?vid=4a1fafbc-535c-4574-afd7-144ad16ccce6","ios":"levelo://app?vid=4a1fafbc-535c-4574-afd7-144ad16ccce6"},"vehicle_type_id":"4","last_reported":1746284937,"current_range_meters":4000,"station_id":"ce4bhn12rcd13ifvqgpg","pricing_plan_id":"cebpf4jnsgd1na2vs0mg"},{"bike_id":"7971fe93-5f1d-4a59-8508-b415e64fcb18","system_id":"levelo_inurba_marseille","lat":43.309425,"lon":5.373599,"is_reserved":false,"is_disabled":false,"rental_uris":{"android":"levelo://app?vid=7971fe93-5f1d-4a59-8508-b415e64fcb18","ios":"levelo://app?vid=7971fe93-5f1d-4a59-8508-b415e64fcb18"},"vehicle_type_id":"4","last_reported":1746284937,"current_range_meters":4000,"station_id":"","pricing_plan_id":"cebpf4jnsgd1na2vs0mg"},{"bike_id":"7f4abac9-2a79-452a-ae67-596c7cfed5b1","system_id":"levelo_inurba_marseille","lat":43.292511,"lon":5.408966,"is_reserved":false,"is_disabled":false,"rental_uris":{"android":"levelo://app?vid=7f4abac9-2a79-452a-ae67-596c7cfed5b1","ios":"levelo://app?vid=7f4abac9-2a79-452a-ae67-596c7cfed5b1"},"vehicle_type_id":"4","last_reported":1746284937,"current_range_meters":4800,"station_id":"","pricing_plan_id":"cebpf4jnsgd1na2vs0mg"},{"bike_id":"6cc9202c-3472-43d7-a454-d30670734615","system_id":"levelo_inurba_marseille","lat":43.25503,"lon":5.3765,"is_reserved":false,"is_disabled":false,"rental_uris":{"android":"levelo://app?vid=6cc9202c-3472-43d7-a454-d30670734615","ios":"levelo://app?vid=6cc9202c-3472-43d7-a454-d30670734615"},"vehicle_type_id":"4","last_reported":1746284937,"current_range_meters":4800,"station_id":"ce4bhh12rcd13ifvqff0","pricing_plan_id":"cebpf4jnsgd1na2vs0mg"},{"bike_id":"80f26118-79d7-4b22-ba38-003bb3e4dae8","system_id":"levelo_inurba_marseille","lat":43.33724,"lon":5.39182,"is_reserved":false,"is_disabled":false,"rental_uris":{"android":"levelo://app?vid=80f26118-79d7-4b22-ba38-003bb3e4dae8","ios":"levelo://app?vid=80f26118-79d7-4b22-ba38-003bb3e4dae8"},"vehicle_type_id":"4","last_reported":1746284937,"current_range_meters":4400,"station_id":"ce4bhr92rcd13ifvqhsg","pricing_plan_id":"cebpf4jnsgd1na2vs0mg"},{"bike_id":"0a25284c-1cc1-4990-9246-2524adc6d5a2","system_id":"levelo_inurba_marseille","lat":43.21194,"lon":5.35067,"is_reserved":false,"is_disabled":false,"rental_uris":{"android":"levelo://app?vid=0a25284c-1cc1-4990-9246-2524adc6d5a2","ios":"levelo://app?vid=0a25284c-1cc1-4990-9246-2524adc6d5a2"},"vehicle_type_id":"4","last_reported":1746284937,"current_range_meters":4800,"station_id":"st_cvj6sg6p6f1abm77japg","pricing_plan_id":"cebpf4jnsgd1na2vs0mg"},{"bike_id":"0a4d56b8-3a1d-4581-bcd5-d81b9867b1a8","system_id":"levelo_inurba_marseille","lat":43.239624,"lon":5.366386,"is_reserved":false,"is_disabled":false,"rental_uris":{"android":"levelo://app?vid=0a4d56b8-3a1d-4581-bcd5-d81b9867b1a8","ios":"levelo://app?vid=0a4d56b8-3a1d-4581-bcd5-d81b9867b1a8"},"vehicle_type_id":"4","last_reported":1746284937,"current_range_meters":4800,"station_id":"ce4bhi12rcd13ifvqfp0","pricing_plan_id":"cebpf4jnsgd1na2vs0mg"},{"bike_id":"bbda4477-7a5c-4f26-8394-673393cf032b","system_id":"levelo_inurba_marseille","lat":43.26938,"lon":5.40263,"is_reserved":false,"is_disabled":false,"rental_uris":{"android":"levelo://app?vid=bbda4477-7a5c-4f26-8394-673393cf032b","ios":"levelo://app?vid=bbda4477-7a5c-4f26-8394-673393cf032b"},"vehicle_type_id":"4","last_reported":1746284937,"current_range_meters":4400,"station_id":"cjm6bp8fraef2m0cb0m0","pricing_plan_id":"cebpf4jnsgd1na2vs0mg"},{"bike_id":"c1c8faac-5c1b-4a85-91fa-3e2c09f0ca9b","system_id":"levelo_inurba_marseille","lat":43.30147,"lon":5.38065,"is_reserved":false,"is_disabled":false,"rental_uris":{"android":"levelo://app?vid=c1c8faac-5c1b-4a85-91fa-3e2c09f0ca9b","ios":"levelo://app?vid=c1c8faac-5c1b-4a85-91fa-3e2c09f0ca9b"},"vehicle_type_id":"4","last_reported":1746284937,"current_range_meters":5600,"station_id":"ce4bgjp2rcd13ifvqbh0","pricing_plan_id":"cebpf4jnsgd1na2vs0mg"},{"bike_id":"dbe58eb6-54ed-416a-88ee-22e03d3a7b7e","system_id":"levelo_inurba_marseille","lat":43.25586,"lon":5.38249,"is_reserved":false,"is_disabled":false,"rental_uris":{"android":"levelo://app?vid=dbe58eb6-54ed-416a-88ee-22e03d3a7b7e","ios":"levelo://app?vid=dbe58eb6-54ed-416a-88ee-22e03d3a7b7e"},"vehicle_type_id":"4","last_reported":1746284937,"current_range_meters":5600,"station_id":"ce4bhih2rcd13ifvqfs0","pricing_plan_id":"cebpf4jnsgd1na2vs0mg"},{"bike_id":"a69ccf4e-5743-4dc3-a630-b2344bf0c864","system_id":"levelo_inurba_marseille","lat":43.31706,"lon":5.3777,"is_reserved":false,"is_disabled":false,"rental_uris":{"android":"levelo://app?vid=a69ccf4e-5743-4dc3-a630-b2344bf0c864","ios":"levelo://app?vid=a69ccf4e-5743-4dc3-a630-b2344bf0c864"},"vehicle_type_id":"4","last_reported":1746284937,"current_range_meters":5600,"station_id":"ce4bgth2rcd13ifvqch0","pricing_plan_id":"cebpf4jnsgd1na2vs0mg"},{"bike_id":"4bcde3b3-c224-403d-be5b-a5949c9f245f","system_id":"levelo_inurba_marseille","lat":43.24078,"lon":5.37759,"is_reserved":false,"is_disabled":false,"rental_uris":{"android":"levelo://app?vid=4bcde3b3-c224-403d-be5b-a5949c9f245f","ios":"levelo://app?vid=4bcde3b3-c224-403d-be5b-a5949c9f245f"},"vehicle_type_id":"4","last_reported":1746284937,"current_range_meters":5600,"station_id":"","pricing_plan_id":"cebpf4jnsgd1na2vs0mg"},{"bike_id":"1c8df2fd-d126-498d-be97-40ddb0f363c5","system_id":"levelo_inurba_marseille","lat":43.225052,"lon":5.347849,"is_reserved":false,"is_disabled":false,"rental_uris":{"android":"levelo://app?vid=1c8df2fd-d126-498d-be97-40ddb0f363c5","ios":"levelo://app?vid=1c8df2fd-d126-498d-be97-40ddb0f363c5"},"vehicle_type_id":"4","last_reported":1746284937,"current_range_meters":6000,"station_id":"st_cvj5dfep6f1abm77gieg","pricing_plan_id":"cebpf4jnsgd1na2vs0mg"},{"bike_id":"450eca99-1baf-4bb3-ba0b-a9536c64c860","system_id":"levelo_inurba_marseille","lat":43.217439,"lon":5.346062,"is_reserved":false,"is_disabled":false,"rental_uris":{"android":"levelo://app?vid=450eca99-1baf-4bb3-ba0b-a9536c64c860","ios":"levelo://app?vid=450eca99-1baf-4bb3-ba0b-a9536c64c860"},"vehicle_type_id":"4","last_reported":1746284937,"current_range_meters":6000,"station_id":"","pricing_plan_id":"cebpf4jnsgd1na2vs0mg"},{"bike_id":"e336b0c2-a2be-4eca-b6c2-a513a8ae7843","system_id":"levelo_inurba_marseille","lat":43.21755,"lon":5.34607,"is_reserved":false,"is_disabled":false,"rental_uris":{"android":"levelo://app?vid=e336b0c2-a2be-4eca-b6c2-a513a8ae7843","ios":"levelo://app?vid=e336b0c2-a2be-4eca-b6c2-a513a8ae7843"},"vehicle_type_id":"4","last_reported":1746284937,"current_range_meters":6400,"station_id":"st_cvj6r9ubvosntc0bgbag","pricing_plan_id":"cebpf4jnsgd1na2vs0mg"},{"bike_id":"ef1aa6e6-c06a-47fb-92f8-8af92549f878","system_id":"levelo_inurba_marseille","lat":43.28618,"lon":5.351,"is_reserved":false,"is_disabled":false,"rental_uris":{"android":"levelo://app?vid=ef1aa6e6-c06a-47fb-92f8-8af92549f878","ios":"levelo://app?vid=ef1aa6e6-c06a-47fb-92f8-8af92549f878"},"vehicle_type_id":"4","last_reported":1746284937,"current_range_meters":6400,"station_id":"ce4bhch2rcd13ifvqeug","pricing_plan_id":"cebpf4jnsgd1na2vs0mg"},{"bike_id":"ac08739b-f2c4-4748-ac21-ca5f5437a2bd","system_id":"levelo_inurba_marseille","lat":43.33029,"lon":5.39037,"is_reserved":false,"is_disabled":false,"rental_uris":{"android":"levelo://app?vid=ac08739b-f2c4-4748-ac21-ca5f5437a2bd","ios":"levelo://app?vid=ac08739b-f2c4-4748-ac21-ca5f5437a2bd"},"vehicle_type_id":"4","last_reported":1746284937,"current_range_meters":6000,"station_id":"ce4bhr92rcd13ifvqhrg","pricing_plan_id":"cebpf4jnsgd1na2vs0mg"},{"bike_id":"4273efd4-68f0-412c-bce0-dcb03ffb1b1b","system_id":"levelo_inurba_marseille","lat":43.3054,"lon":5.3655,"is_reserved":false,"is_disabled":false,"rental_uris":{"android":"levelo://app?vid=4273efd4-68f0-412c-bce0-dcb03ffb1b1b","ios":"levelo://app?vid=4273efd4-68f0-412c-bce0-dcb03ffb1b1b"},"vehicle_type_id":"4","last_reported":1746284937,"current_range_meters":6400,"station_id":"ce4bgs12rcd13ifvqcag","pricing_plan_id":"cebpf4jnsgd1na2vs0mg"},{"bike_id":"354ccc54-f74d-40a4-9ebc-8ea190f7b892","system_id":"levelo_inurba_marseille","lat":43.29917,"lon":5.38135,"is_reserved":false,"is_disabled":false,"rental_uris":{"android":"levelo://app?vid=354ccc54-f74d-40a4-9ebc-8ea190f7b892","ios":"levelo://app?vid=354ccc54-f74d-40a4-9ebc-8ea190f7b892"},"vehicle_type_id":"4","last_reported":1746284937,"current_range_meters":6800,"station_id":"ce4bgj12rcd13ifvqbc0","pricing_plan_id":"cebpf4jnsgd1na2vs0mg"},{"bike_id":"ee7f9b95-49c4-4562-a7d1-79e96d1d9de6","system_id":"levelo_inurba_marseille","lat":43.31249,"lon":5.36833,"is_reserved":false,"is_disabled":false,"rental_uris":{"android":"levelo://app?vid=ee7f9b95-49c4-4562-a7d1-79e96d1d9de6","ios":"levelo://app?vid=ee7f9b95-49c4-4562-a7d1-79e96d1d9de6"},"vehicle_type_id":"4","last_reported":1746284937,"current_range_meters":6800,"station_id":"ce4bgl92rcd13ifvqbq0","pricing_plan_id":"cebpf4jnsgd1na2vs0mg"},{"bike_id":"62b6a680-5f99-465a-98b6-0efe3ef83813","system_id":"levelo_inurba_marseille","lat":43.23189,"lon":5.35568,"is_reserved":false,"is_disabled":false,"rental_uris":{"android":"levelo://app?vid=62b6a680-5f99-465a-98b6-0efe3ef83813","ios":"levelo://app?vid=62b6a680-5f99-465a-98b6-0efe3ef83813"},"vehicle_type_id":"4","last_reported":1746284937,"current_range_meters":6800,"station_id":"ce4bhu92rcd13ifvqi70","pricing_plan_id":"cebpf4jnsgd1na2vs0mg"},{"bike_id":"0779fbf4-4b0c-49d6-b449-1462d327c826","system_id":"levelo_inurba_marseille","lat":43.30909,"lon":5.3685,"is_reserved":false,"is_disabled":false,"rental_uris":{"android":"levelo://app?vid=0779fbf4-4b0c-49d6-b449-1462d327c826","ios":"levelo://app?vid=0779fbf4-4b0c-49d6-b449-1462d327c826"},"vehicle_type_id":"4","last_reported":1746284937,"current_range_meters":6800,"station_id":"ce4bgn92rcd13ifvqbvg","pricing_plan_id":"cebpf4jnsgd1na2vs0mg"},{"bike_id":"e3462c87-87c9-4837-a441-3715569adec9","system_id":"levelo_inurba_marseille","lat":43.28407,"lon":5.34974,"is_reserved":false,"is_disabled":false,"rental_uris":{"android":"levelo://app?vid=e3462c87-87c9-4837-a441-3715569adec9","ios":"levelo://app?vid=e3462c87-87c9-4837-a441-3715569adec9"},"vehicle_type_id":"4","last_reported":1746284937,"current_range_meters":6800,"station_id":"ce4bhbh2rcd13ifvqepg","pricing_plan_id":"cebpf4jnsgd1na2vs0mg"},{"bike_id":"10664c03-6a56-4ff9-97c5-7c4b9fbea670","system_id":"levelo_inurba_marseille","lat":43.22509,"lon":5.34791,"is_reserved":false,"is_disabled":false,"rental_uris":{"android":"levelo://app?vid=10664c03-6a56-4ff9-97c5-7c4b9fbea670","ios":"levelo://app?vid=10664c03-6a56-4ff9-97c5-7c4b9fbea670"},"vehicle_type_id":"4","last_reported":1746284937,"current_range_meters":6800,"station_id":"st_cvj5dfep6f1abm77gieg","pricing_plan_id":"cebpf4jnsgd1na2vs0mg"},{"bike_id":"d24ea90b-8793-4999-a657-b3e357fcaa49","system_id":"levelo_inurba_marseille","lat":43.21744,"lon":5.34618,"is_reserved":false,"is_disabled":false,"rental_uris":{"android":"levelo://app?vid=d24ea90b-8793-4999-a657-b3e357fcaa49","ios":"levelo://app?vid=d24ea90b-8793-4999-a657-b3e357fcaa49"},"vehicle_type_id":"4","last_reported":1746284937,"current_range_meters":6800,"station_id":"st_cvj6r9ubvosntc0bgbag","pricing_plan_id":"cebpf4jnsgd1na2vs0mg"},{"bike_id":"36080379-7ef3-4e06-a5f3-229a5a0789b1","system_id":"levelo_inurba_marseille","lat":43.30596,"lon":5.39348,"is_reserved":false,"is_disabled":false,"rental_uris":{"android":"levelo://app?vid=36080379-7ef3-4e06-a5f3-229a5a0789b1","ios":"levelo://app?vid=36080379-7ef3-4e06-a5f3-229a5a0789b1"},"vehicle_type_id":"4","last_reported":1746284937,"current_range_meters":6800,"station_id":"ce4bh0p2rcd13ifvqd80","pricing_plan_id":"cebpf4jnsgd1na2vs0mg"},{"bike_id":"9064a94f-db08-4ffc-a05f-8ae1a7de6f3b","system_id":"levelo_inurba_marseille","lat":43.2928,"lon":5.40122,"is_reserved":false,"is_disabled":false,"rental_uris":{"android":"levelo://app?vid=9064a94f-db08-4ffc-a05f-8ae1a7de6f3b","ios":"levelo://app?vid=9064a94f-db08-4ffc-a05f-8ae1a7de6f3b"},"vehicle_type_id":"4","last_reported":1746284937,"current_range_meters":7200,"station_id":"ce4bh312rcd13ifvqdk0","pricing_plan_id":"cebpf4jnsgd1na2vs0mg"},{"bike_id":"bb1b1976-90c7-4237-9814-2d670d1d90fe","system_id":"levelo_inurba_marseille","lat":43.24191,"lon":5.39734,"is_reserved":false,"is_disabled":false,"rental_uris":{"android":"levelo://app?vid=bb1b1976-90c7-4237-9814-2d670d1d90fe","ios":"levelo://app?vid=bb1b1976-90c7-4237-9814-2d670d1d90fe"},"vehicle_type_id":"4","last_reported":1746284937,"current_range_meters":7200,"station_id":"ce4bhn12rcd13ifvqgpg","pricing_plan_id":"cebpf4jnsgd1na2vs0mg"},{"bike_id":"472c2799-31c8-4c6b-a28a-3bf573d63f33","system_id":"levelo_inurba_marseille","lat":43.30777,"lon":5.37329,"is_reserved":false,"is_disabled":false,"rental_uris":{"android":"levelo://app?vid=472c2799-31c8-4c6b-a28a-3bf573d63f33","ios":"levelo://app?vid=472c2799-31c8-4c6b-a28a-3bf573d63f33"},"vehicle_type_id":"4","last_reported":1746284937,"current_range_meters":8000,"station_id":"","pricing_plan_id":"cebpf4jnsgd1na2vs0mg"},{"bike_id":"6d4c0c0f-4b5f-4d43-a8af-68ec75032bd1","system_id":"levelo_inurba_marseille","lat":43.30275,"lon":5.37711,"is_reserved":false,"is_disabled":false,"rental_uris":{"android":"levelo://app?vid=6d4c0c0f-4b5f-4d43-a8af-68ec75032bd1","ios":"levelo://app?vid=6d4c0c0f-4b5f-4d43-a8af-68ec75032bd1"},"vehicle_type_id":"4","last_reported":1746284937,"current_range_meters":7200,"station_id":"ce4bguh2rcd13ifvqcj0","pricing_plan_id":"cebpf4jnsgd1na2vs0mg"},{"bike_id":"7de07479-0b06-4b16-8dbe-cbd09ed47d40","system_id":"levelo_inurba_marseille","lat":43.3112,"lon":5.37769,"is_reserved":false,"is_disabled":false,"rental_uris":{"android":"levelo://app?vid=7de07479-0b06-4b16-8dbe-cbd09ed47d40","ios":"levelo://app?vid=7de07479-0b06-4b16-8dbe-cbd09ed47d40"},"vehicle_type_id":"4","last_reported":1746284937,"current_range_meters":7200,"station_id":"ce4bgt92rcd13ifvqcg0","pricing_plan_id":"cebpf4jnsgd1na2vs0mg"},{"bike_id":"e3b09861-0fde-4617-96d1-4d3eba26fa8b","system_id":"levelo_inurba_marseille","lat":43.24071,"lon":5.3776,"is_reserved":false,"is_disabled":false,"rental_uris":{"android":"levelo://app?vid=e3b09861-0fde-4617-96d1-4d3eba26fa8b","ios":"levelo://app?vid=e3b09861-0fde-4617-96d1-4d3eba26fa8b"},"vehicle_type_id":"4","last_reported":1746284937,"current_range_meters":8000,"station_id":"ce4bhnp2rcd13ifvqgvg","pricing_plan_id":"cebpf4jnsgd1na2vs0mg"},{"bike_id":"1d3f7cbf-3db7-496b-a367-24c92f5a7d89","system_id":"levelo_inurba_marseille","lat":43.21178,"lon":5.3509,"is_reserved":false,"is_disabled":false,"rental_uris":{"android":"levelo://app?vid=1d3f7cbf-3db7-496b-a367-24c92f5a7d89","ios":"levelo://app?vid=1d3f7cbf-3db7-496b-a367-24c92f5a7d89"},"vehicle_type_id":"4","last_reported":1746284937,"current_range_meters":8000,"station_id":"st_cvj6sg6p6f1abm77japg","pricing_plan_id":"cebpf4jnsgd1na2vs0mg"},{"bike_id":"585d933d-40b8-42ed-9efe-a09eba1a1ef4","system_id":"levelo_inurba_marseille","lat":43.3015,"lon":5.38077,"is_reserved":false,"is_disabled":false,"rental_uris":{"android":"levelo://app?vid=585d933d-40b8-42ed-9efe-a09eba1a1ef4","ios":"levelo://app?vid=585d933d-40b8-42ed-9efe-a09eba1a1ef4"},"vehicle_type_id":"4","last_reported":1746284937,"current_range_meters":7200,"station_id":"ce4bgjp2rcd13ifvqbh0","pricing_plan_id":"cebpf4jnsgd1na2vs0mg"},{"bike_id":"e24247ef-919d-465a-9b0f-e5eac8489451","system_id":"levelo_inurba_marseille","lat":43.279749,"lon":5.410441,"is_reserved":false,"is_disabled":false,"rental_uris":{"android":"levelo://app?vid=e24247ef-919d-465a-9b0f-e5eac8489451","ios":"levelo://app?vid=e24247ef-919d-465a-9b0f-e5eac8489451"},"vehicle_type_id":"4","last_reported":1746284937,"current_range_meters":7200,"station_id":"ce4bho12rcd13ifvqh1g","pricing_plan_id":"cebpf4jnsgd1na2vs0mg"},{"bike_id":"dcf471e5-50d7-4c6d-8c76-01b9d58b8521","system_id":"levelo_inurba_marseille","lat":43.21748,"lon":5.34637,"is_reserved":false,"is_disabled":false,"rental_uris":{"android":"levelo://app?vid=dcf471e5-50d7-4c6d-8c76-01b9d58b8521","ios":"levelo://app?vid=dcf471e5-50d7-4c6d-8c76-01b9d58b8521"},"vehicle_type_id":"4","last_reported":1746284937,"current_range_meters":8000,"station_id":"st_cvj6r9ubvosntc0bgbag","pricing_plan_id":"cebpf4jnsgd1na2vs0mg"},{"bike_id":"18343a21-2da2-4827-8837-9bddad4e02e9","system_id":"levelo_inurba_marseille","lat":43.26794,"lon":5.39411,"is_reserved":false,"is_disabled":false,"rental_uris":{"android":"levelo://app?vid=18343a21-2da2-4827-8837-9bddad4e02e9","ios":"levelo://app?vid=18343a21-2da2-4827-8837-9bddad4e02e9"},"vehicle_type_id":"4","last_reported":1746284937,"current_range_meters":8400,"station_id":"ce4bhh12rcd13ifvqfg0","pricing_plan_id":"cebpf4jnsgd1na2vs0mg"},{"bike_id":"2ec6dd80-93b4-435e-89c9-9ef2c5604b75","system_id":"levelo_inurba_marseille","lat":43.2418,"lon":5.39729,"is_reserved":false,"is_disabled":false,"rental_uris":{"android":"levelo://app?vid=2ec6dd80-93b4-435e-89c9-9ef2c5604b75","ios":"levelo://app?vid=2ec6dd80-93b4-435e-89c9-9ef2c5604b75"},"vehicle_type_id":"4","last_reported":1746284937,"current_range_meters":8400,"station_id":"ce4bhn12rcd13ifvqgpg","pricing_plan_id":"cebpf4jnsgd1na2vs0mg"},{"bike_id":"c811b81b-299d-4f8d-b843-ae1756353fd2","system_id":"levelo_inurba_marseille","lat":43.21185,"lon":5.35079,"is_reserved":false,"is_disabled":false,"rental_uris":{"android":"levelo://app?vid=c811b81b-299d-4f8d-b843-ae1756353fd2","ios":"levelo://app?vid=c811b81b-299d-4f8d-b843-ae1756353fd2"},"vehicle_type_id":"4","last_reported":1746284937,"current_range_meters":8400,"station_id":"st_cvj6sg6p6f1abm77japg","pricing_plan_id":"cebpf4jnsgd1na2vs0mg"},{"bike_id":"01a13554-a34a-4609-bc8e-948ab864f0c2","system_id":"levelo_inurba_marseille","lat":43.29897,"lon":5.43663,"is_reserved":false,"is_disabled":false,"rental_uris":{"android":"levelo://app?vid=01a13554-a34a-4609-bc8e-948ab864f0c2","ios":"levelo://app?vid=01a13554-a34a-4609-bc8e-948ab864f0c2"},"vehicle_type_id":"4","last_reported":1746284937,"current_range_meters":8400,"station_id":"ce4bhpp2rcd13ifvqhfg","pricing_plan_id":"cebpf4jnsgd1na2vs0mg"},{"bike_id":"4d2fe1ca-70c8-4826-aba6-9aa47bdf7f8c","system_id":"levelo_inurba_marseille","lat":43.26194,"lon":5.37454,"is_reserved":false,"is_disabled":false,"rental_uris":{"android":"levelo://app?vid=4d2fe1ca-70c8-4826-aba6-9aa47bdf7f8c","ios":"levelo://app?vid=4d2fe1ca-70c8-4826-aba6-9aa47bdf7f8c"},"vehicle_type_id":"4","last_reported":1746284937,"current_range_meters":8400,"station_id":"ce4bhgp2rcd13ifvqfc0","pricing_plan_id":"cebpf4jnsgd1na2vs0mg"},{"bike_id":"81fbade3-ba10-42e1-b255-0e7a76f035b6","system_id":"levelo_inurba_marseille","lat":43.28443,"lon":5.39207,"is_reserved":false,"is_disabled":false,"rental_uris":{"android":"levelo://app?vid=81fbade3-ba10-42e1-b255-0e7a76f035b6","ios":"levelo://app?vid=81fbade3-ba10-42e1-b255-0e7a76f035b6"},"vehicle_type_id":"4","last_reported":1746284937,"current_range_meters":8400,"station_id":"ce4bhoh2rcd13ifvqh5g","pricing_plan_id":"cebpf4jnsgd1na2vs0mg"},{"bike_id":"f614d8a7-5049-4b08-a3f0-eaf474b1ebc3","system_id":"levelo_inurba_marseille","lat":43.297857,"lon":5.393445,"is_reserved":false,"is_disabled":false,"rental_uris":{"android":"levelo://app?vid=f614d8a7-5049-4b08-a3f0-eaf474b1ebc3","ios":"levelo://app?vid=f614d8a7-5049-4b08-a3f0-eaf474b1ebc3"},"vehicle_type_id":"4","last_reported":1746284937,"current_range_meters":8400,"station_id":"chh1huq6cuj3fo74tm60","pricing_plan_id":"cebpf4jnsgd1na2vs0mg"},{"bike_id":"20ccbdaf-8a76-4cd4-87af-fb59c08e81dc","system_id":"levelo_inurba_marseille","lat":43.23194,"lon":5.35558,"is_reserved":false,"is_disabled":false,"rental_uris":{"android":"levelo://app?vid=20ccbdaf-8a76-4cd4-87af-fb59c08e81dc","ios":"levelo://app?vid=20ccbdaf-8a76-4cd4-87af-fb59c08e81dc"},"vehicle_type_id":"4","last_reported":1746284937,"current_range_meters":8400,"station_id":"ce4bhu92rcd13ifvqi70","pricing_plan_id":"cebpf4jnsgd1na2vs0mg"},{"bike_id":"05373f21-d1c1-4c56-b4d5-06c579c0746f","system_id":"levelo_inurba_marseille","lat":43.26942,"lon":5.40254,"is_reserved":false,"is_disabled":false,"rental_uris":{"android":"levelo://app?vid=05373f21-d1c1-4c56-b4d5-06c579c0746f","ios":"levelo://app?vid=05373f21-d1c1-4c56-b4d5-06c579c0746f"},"vehicle_type_id":"4","last_reported":1746284937,"current_range_meters":8400,"station_id":"cjm6bp8fraef2m0cb0m0","pricing_plan_id":"cebpf4jnsgd1na2vs0mg"},{"bike_id":"ef0e7a44-72f4-4b0f-8019-0c7c2696a03c","system_id":"levelo_inurba_marseille","lat":43.24073,"lon":5.37762,"is_reserved":false,"is_disabled":false,"rental_uris":{"android":"levelo://app?vid=ef0e7a44-72f4-4b0f-8019-0c7c2696a03c","ios":"levelo://app?vid=ef0e7a44-72f4-4b0f-8019-0c7c2696a03c"},"vehicle_type_id":"4","last_reported":1746284937,"current_range_meters":8800,"station_id":"ce4bhnp2rcd13ifvqgvg","pricing_plan_id":"cebpf4jnsgd1na2vs0mg"},{"bike_id":"d71e35da-e680-4388-a6fd-b883a353248e","system_id":"levelo_inurba_marseille","lat":43.284287,"lon":5.349483,"is_reserved":false,"is_disabled":false,"rental_uris":{"android":"levelo://app?vid=d71e35da-e680-4388-a6fd-b883a353248e","ios":"levelo://app?vid=d71e35da-e680-4388-a6fd-b883a353248e"},"vehicle_type_id":"4","last_reported":1746284937,"current_range_meters":8800,"station_id":"ce4bhbh2rcd13ifvqepg","pricing_plan_id":"cebpf4jnsgd1na2vs0mg"},{"bike_id":"e27ce41e-d31e-4411-a762-387f29d91877","system_id":"levelo_inurba_marseille","lat":43.29564,"lon":5.42294,"is_reserved":false,"is_disabled":false,"rental_uris":{"android":"levelo://app?vid=e27ce41e-d31e-4411-a762-387f29d91877","ios":"levelo://app?vid=e27ce41e-d31e-4411-a762-387f29d91877"},"vehicle_type_id":"4","last_reported":1746284937,"current_range_meters":8800,"station_id":"ce4bhph2rcd13ifvqhdg","pricing_plan_id":"cebpf4jnsgd1na2vs0mg"},{"bike_id":"09adba2f-e724-4a30-b3ae-e581844533b3","system_id":"levelo_inurba_marseille","lat":43.2573,"lon":5.41108,"is_reserved":false,"is_disabled":false,"rental_uris":{"android":"levelo://app?vid=09adba2f-e724-4a30-b3ae-e581844533b3","ios":"levelo://app?vid=09adba2f-e724-4a30-b3ae-e581844533b3"},"vehicle_type_id":"4","last_reported":1746284937,"current_range_meters":8400,"station_id":"ce4bhkp2rcd13ifvqgd0","pricing_plan_id":"cebpf4jnsgd1na2vs0mg"},{"bike_id":"e0e163c0-b70c-478b-a240-966060226969","system_id":"levelo_inurba_marseille","lat":43.2925,"lon":5.36224,"is_reserved":false,"is_disabled":false,"rental_uris":{"android":"levelo://app?vid=e0e163c0-b70c-478b-a240-966060226969","ios":"levelo://app?vid=e0e163c0-b70c-478b-a240-966060226969"},"vehicle_type_id":"4","last_reported":1746284937,"current_range_meters":8800,"station_id":"","pricing_plan_id":"cebpf4jnsgd1na2vs0mg"},{"bike_id":"8ee933aa-9d66-4892-9479-353e1f0441ff","system_id":"levelo_inurba_marseille","lat":43.2902,"lon":5.38145,"is_reserved":false,"is_disabled":false,"rental_uris":{"android":"levelo://app?vid=8ee933aa-9d66-4892-9479-353e1f0441ff","ios":"levelo://app?vid=8ee933aa-9d66-4892-9479-353e1f0441ff"},"vehicle_type_id":"4","last_reported":1746284937,"current_range_meters":8800,"station_id":"ce4bh4p2rcd13ifvqe1g","pricing_plan_id":"cebpf4jnsgd1na2vs0mg"},{"bike_id":"38ef18e8-5c0b-42bf-9544-9774a6b0c220","system_id":"levelo_inurba_marseille","lat":43.25586,"lon":5.38238,"is_reserved":false,"is_disabled":false,"rental_uris":{"android":"levelo://app?vid=38ef18e8-5c0b-42bf-9544-9774a6b0c220","ios":"levelo://app?vid=38ef18e8-5c0b-42bf-9544-9774a6b0c220"},"vehicle_type_id":"4","last_reported":1746284937,"current_range_meters":8400,"station_id":"ce4bhih2rcd13ifvqfs0","pricing_plan_id":"cebpf4jnsgd1na2vs0mg"},{"bike_id":"596ba0d8-982a-4f88-a7c5-2d4f2cffbccc","system_id":"levelo_inurba_marseille","lat":43.25121,"lon":5.40319,"is_reserved":false,"is_disabled":false,"rental_uris":{"android":"levelo://app?vid=596ba0d8-982a-4f88-a7c5-2d4f2cffbccc","ios":"levelo://app?vid=596ba0d8-982a-4f88-a7c5-2d4f2cffbccc"},"vehicle_type_id":"4","last_reported":1746284937,"current_range_meters":8800,"station_id":"ce4bhlh2rcd13ifvqgig","pricing_plan_id":"cebpf4jnsgd1na2vs0mg"},{"bike_id":"570b486c-50df-4f1f-97df-caa86c0d419e","system_id":"levelo_inurba_marseille","lat":43.33743,"lon":5.35589,"is_reserved":false,"is_disabled":false,"rental_uris":{"android":"levelo://app?vid=570b486c-50df-4f1f-97df-caa86c0d419e","ios":"levelo://app?vid=570b486c-50df-4f1f-97df-caa86c0d419e"},"vehicle_type_id":"4","last_reported":1746284937,"current_range_meters":9200,"station_id":"","pricing_plan_id":"cebpf4jnsgd1na2vs0mg"},{"bike_id":"422567de-7c9c-4f18-86b1-652a29ecc018","system_id":"levelo_inurba_marseille","lat":43.23179,"lon":5.39992,"is_reserved":false,"is_disabled":false,"rental_uris":{"android":"levelo://app?vid=422567de-7c9c-4f18-86b1-652a29ecc018","ios":"levelo://app?vid=422567de-7c9c-4f18-86b1-652a29ecc018"},"vehicle_type_id":"4","last_reported":1746284937,"current_range_meters":9200,"station_id":"ce4bhn12rcd13ifvqgqg","pricing_plan_id":"cebpf4jnsgd1na2vs0mg"},{"bike_id":"c3804fc1-9932-4445-96ff-6a953cd7f553","system_id":"levelo_inurba_marseille","lat":43.26214,"lon":5.37439,"is_reserved":false,"is_disabled":false,"rental_uris":{"android":"levelo://app?vid=c3804fc1-9932-4445-96ff-6a953cd7f553","ios":"levelo://app?vid=c3804fc1-9932-4445-96ff-6a953cd7f553"},"vehicle_type_id":"4","last_reported":1746284937,"current_range_meters":9600,"station_id":"ce4bhgp2rcd13ifvqfc0","pricing_plan_id":"cebpf4jnsgd1na2vs0mg"},{"bike_id":"ef69e7cc-37df-4e66-bd4f-a85ef9d1ea7e","system_id":"levelo_inurba_marseille","lat":43.27496,"lon":5.42459,"is_reserved":false,"is_disabled":false,"rental_uris":{"android":"levelo://app?vid=ef69e7cc-37df-4e66-bd4f-a85ef9d1ea7e","ios":"levelo://app?vid=ef69e7cc-37df-4e66-bd4f-a85ef9d1ea7e"},"vehicle_type_id":"4","last_reported":1746284937,"current_range_meters":9600,"station_id":"ce4bhn92rcd13ifvqgrg","pricing_plan_id":"cebpf4jnsgd1na2vs0mg"},{"bike_id":"aae38d7b-3f2f-491e-9cf9-86dadb7926b7","system_id":"levelo_inurba_marseille","lat":43.27178,"lon":5.40996,"is_reserved":false,"is_disabled":false,"rental_uris":{"android":"levelo://app?vid=aae38d7b-3f2f-491e-9cf9-86dadb7926b7","ios":"levelo://app?vid=aae38d7b-3f2f-491e-9cf9-86dadb7926b7"},"vehicle_type_id":"4","last_reported":1746284937,"current_range_meters":9200,"station_id":"ce4bhl12rcd13ifvqgf0","pricing_plan_id":"cebpf4jnsgd1na2vs0mg"},{"bike_id":"a3e83ea9-da22-4b06-8009-33d4fe88504b","system_id":"levelo_inurba_marseille","lat":43.29257,"lon":5.40912,"is_reserved":false,"is_disabled":false,"rental_uris":{"android":"levelo://app?vid=a3e83ea9-da22-4b06-8009-33d4fe88504b","ios":"levelo://app?vid=a3e83ea9-da22-4b06-8009-33d4fe88504b"},"vehicle_type_id":"4","last_reported":1746284937,"current_range_meters":9600,"station_id":"ce4bh192rcd13ifvqdc0","pricing_plan_id":"cebpf4jnsgd1na2vs0mg"},{"bike_id":"a39d444c-1077-47b2-93cf-5701c379aa66","system_id":"levelo_inurba_marseille","lat":43.21189,"lon":5.35071,"is_reserved":false,"is_disabled":false,"rental_uris":{"android":"levelo://app?vid=a39d444c-1077-47b2-93cf-5701c379aa66","ios":"levelo://app?vid=a39d444c-1077-47b2-93cf-5701c379aa66"},"vehicle_type_id":"4","last_reported":1746284937,"current_range_meters":9600,"station_id":"st_cvj6sg6p6f1abm77japg","pricing_plan_id":"cebpf4jnsgd1na2vs0mg"},{"bike_id":"07dd4d6f-d264-4e0e-a216-a64419e78ce6","system_id":"levelo_inurba_marseille","lat":43.29454,"lon":5.43339,"is_reserved":false,"is_disabled":false,"rental_uris":{"android":"levelo://app?vid=07dd4d6f-d264-4e0e-a216-a64419e78ce6","ios":"levelo://app?vid=07dd4d6f-d264-4e0e-a216-a64419e78ce6"},"vehicle_type_id":"4","last_reported":1746284937,"current_range_meters":9600,"station_id":"","pricing_plan_id":"cebpf4jnsgd1na2vs0mg"},{"bike_id":"71c0fbff-7a06-4c79-af84-44948e31e522","system_id":"levelo_inurba_marseille","lat":43.21744,"lon":5.34604,"is_reserved":false,"is_disabled":false,"rental_uris":{"android":"levelo://app?vid=71c0fbff-7a06-4c79-af84-44948e31e522","ios":"levelo://app?vid=71c0fbff-7a06-4c79-af84-44948e31e522"},"vehicle_type_id":"4","last_reported":1746284937,"current_range_meters":9600,"station_id":"st_cvj6r9ubvosntc0bgbag","pricing_plan_id":"cebpf4jnsgd1na2vs0mg"},{"bike_id":"46d142e2-d70b-4503-80d4-1e5ddea08eec","system_id":"levelo_inurba_marseille","lat":43.29229,"lon":5.36072,"is_reserved":false,"is_disabled":false,"rental_uris":{"android":"levelo://app?vid=46d142e2-d70b-4503-80d4-1e5ddea08eec","ios":"levelo://app?vid=46d142e2-d70b-4503-80d4-1e5ddea08eec"},"vehicle_type_id":"4","last_reported":1746284937,"current_range_meters":10000,"station_id":"ce4bhbh2rcd13ifvqeqg","pricing_plan_id":"cebpf4jnsgd1na2vs0mg"},{"bike_id":"dfb3396e-96f5-457c-af11-f6f27dad33e9","system_id":"levelo_inurba_marseille","lat":43.27199,"lon":5.364731,"is_reserved":false,"is_disabled":false,"rental_uris":{"android":"levelo://app?vid=dfb3396e-96f5-457c-af11-f6f27dad33e9","ios":"levelo://app?vid=dfb3396e-96f5-457c-af11-f6f27dad33e9"},"vehicle_type_id":"4","last_reported":1746284937,"current_range_meters":10000,"station_id":"","pricing_plan_id":"cebpf4jnsgd1na2vs0mg"},{"bike_id":"c9d3a215-955a-4b61-ac6c-74c6857ae371","system_id":"levelo_inurba_marseille","lat":43.2926,"lon":5.40899,"is_reserved":false,"is_disabled":false,"rental_uris":{"android":"levelo://app?vid=c9d3a215-955a-4b61-ac6c-74c6857ae371","ios":"levelo://app?vid=c9d3a215-955a-4b61-ac6c-74c6857ae371"},"vehicle_type_id":"4","last_reported":1746284937,"current_range_meters":9600,"station_id":"ce4bh192rcd13ifvqdc0","pricing_plan_id":"cebpf4jnsgd1na2vs0mg"},{"bike_id":"f1ffd2b9-91e9-4bf5-a319-6e95940b0de6","system_id":"levelo_inurba_marseille","lat":43.29566,"lon":5.42265,"is_reserved":false,"is_disabled":false,"rental_uris":{"android":"levelo://app?vid=f1ffd2b9-91e9-4bf5-a319-6e95940b0de6","ios":"levelo://app?vid=f1ffd2b9-91e9-4bf5-a319-6e95940b0de6"},"vehicle_type_id":"4","last_reported":1746284937,"current_range_meters":10000,"station_id":"ce4bhph2rcd13ifvqhdg","pricing_plan_id":"cebpf4jnsgd1na2vs0mg"},{"bike_id":"7c3efffb-05f6-42b5-91cd-baa68e225089","system_id":"levelo_inurba_marseille","lat":43.30334,"lon":5.36484,"is_reserved":false,"is_disabled":false,"rental_uris":{"android":"levelo://app?vid=7c3efffb-05f6-42b5-91cd-baa68e225089","ios":"levelo://app?vid=7c3efffb-05f6-42b5-91cd-baa68e225089"},"vehicle_type_id":"4","last_reported":1746284937,"current_range_meters":10000,"station_id":"","pricing_plan_id":"cebpf4jnsgd1na2vs0mg"},{"bike_id":"2244342c-5942-4043-83c3-2e71d42a9d37","system_id":"levelo_inurba_marseille","lat":43.28417,"lon":5.34992,"is_reserved":false,"is_disabled":false,"rental_uris":{"android":"levelo://app?vid=2244342c-5942-4043-83c3-2e71d42a9d37","ios":"levelo://app?vid=2244342c-5942-4043-83c3-2e71d42a9d37"},"vehicle_type_id":"4","last_reported":1746284937,"current_range_meters":10000,"station_id":"ce4bhbh2rcd13ifvqepg","pricing_plan_id":"cebpf4jnsgd1na2vs0mg"},{"bike_id":"f6136f00-b6b5-48ee-b9f8-5a00e87db14b","system_id":"levelo_inurba_marseille","lat":43.22926,"lon":5.35442,"is_reserved":false,"is_disabled":false,"rental_uris":{"android":"levelo://app?vid=f6136f00-b6b5-48ee-b9f8-5a00e87db14b","ios":"levelo://app?vid=f6136f00-b6b5-48ee-b9f8-5a00e87db14b"},"vehicle_type_id":"4","last_reported":1746284937,"current_range_meters":10000,"station_id":"cpo3532slgdg3j2ikp40","pricing_plan_id":"cebpf4jnsgd1na2vs0mg"},{"bike_id":"fba91208-ef07-4af7-8705-9d2e1a7ec563","system_id":"levelo_inurba_marseille","lat":43.28,"lon":5.40015,"is_reserved":false,"is_disabled":false,"rental_uris":{"android":"levelo://app?vid=fba91208-ef07-4af7-8705-9d2e1a7ec563","ios":"levelo://app?vid=fba91208-ef07-4af7-8705-9d2e1a7ec563"},"vehicle_type_id":"4","last_reported":1746284937,"current_range_meters":10000,"station_id":"ce4bho92rcd13ifvqh4g","pricing_plan_id":"cebpf4jnsgd1na2vs0mg"},{"bike_id":"7e50baf0-4331-4680-8f06-30d29bb4ebe9","system_id":"levelo_inurba_marseille","lat":43.25506,"lon":5.37659,"is_reserved":false,"is_disabled":false,"rental_uris":{"android":"levelo://app?vid=7e50baf0-4331-4680-8f06-30d29bb4ebe9","ios":"levelo://app?vid=7e50baf0-4331-4680-8f06-30d29bb4ebe9"},"vehicle_type_id":"4","last_reported":1746284937,"current_range_meters":10000,"station_id":"ce4bhh12rcd13ifvqff0","pricing_plan_id":"cebpf4jnsgd1na2vs0mg"},{"bike_id":"0b82354c-4fec-41fb-8b67-e697965d3b2e","system_id":"levelo_inurba_marseille","lat":43.2417,"lon":5.36398,"is_reserved":false,"is_disabled":false,"rental_uris":{"android":"levelo://app?vid=0b82354c-4fec-41fb-8b67-e697965d3b2e","ios":"levelo://app?vid=0b82354c-4fec-41fb-8b67-e697965d3b2e"},"vehicle_type_id":"4","last_reported":1746284937,"current_range_meters":10000,"station_id":"cpo36qri1sfpv3e86is0","pricing_plan_id":"cebpf4jnsgd1na2vs0mg"},{"bike_id":"2e6965d3-9b5d-4ec1-a3a3-003adfe5560b","system_id":"levelo_inurba_marseille","lat":43.25926,"lon":5.40906,"is_reserved":false,"is_disabled":false,"rental_uris":{"android":"levelo://app?vid=2e6965d3-9b5d-4ec1-a3a3-003adfe5560b","ios":"levelo://app?vid=2e6965d3-9b5d-4ec1-a3a3-003adfe5560b"},"vehicle_type_id":"4","last_reported":1746284937,"current_range_meters":10800,"station_id":"ce4bhm92rcd13ifvqglg","pricing_plan_id":"cebpf4jnsgd1na2vs0mg"},{"bike_id":"da267e7f-5a95-497f-bb5c-cf577cd61111","system_id":"levelo_inurba_marseille","lat":43.26062,"lon":5.39406,"is_reserved":false,"is_disabled":false,"rental_uris":{"android":"levelo://app?vid=da267e7f-5a95-497f-bb5c-cf577cd61111","ios":"levelo://app?vid=da267e7f-5a95-497f-bb5c-cf577cd61111"},"vehicle_type_id":"4","last_reported":1746284937,"current_range_meters":10000,"station_id":"ce4bhh92rcd13ifvqfj0","pricing_plan_id":"cebpf4jnsgd1na2vs0mg"},{"bike_id":"28b8babb-e145-495e-99b3-057fb00ba174","system_id":"levelo_inurba_marseille","lat":43.23066,"lon":5.35491,"is_reserved":false,"is_disabled":false,"rental_uris":{"android":"levelo://app?vid=28b8babb-e145-495e-99b3-057fb00ba174","ios":"levelo://app?vid=28b8babb-e145-495e-99b3-057fb00ba174"},"vehicle_type_id":"4","last_reported":1746284937,"current_range_meters":10800,"station_id":"cpo3342slgdg3j2ifvpg","pricing_plan_id":"cebpf4jnsgd1na2vs0mg"},{"bike_id":"d1c99ec5-a5c1-4a37-8b31-02d2fd3bd551","system_id":"levelo_inurba_marseille","lat":43.21765,"lon":5.34581,"is_reserved":false,"is_disabled":false,"rental_uris":{"android":"levelo://app?vid=d1c99ec5-a5c1-4a37-8b31-02d2fd3bd551","ios":"levelo://app?vid=d1c99ec5-a5c1-4a37-8b31-02d2fd3bd551"},"vehicle_type_id":"4","last_reported":1746284937,"current_range_meters":10800,"station_id":"st_cvj6r9ubvosntc0bgbag","pricing_plan_id":"cebpf4jnsgd1na2vs0mg"},{"bike_id":"de4ec590-7e5b-4dd4-a0d3-036fbe026126","system_id":"levelo_inurba_marseille","lat":43.31712,"lon":5.43709,"is_reserved":false,"is_disabled":false,"rental_uris":{"android":"levelo://app?vid=de4ec590-7e5b-4dd4-a0d3-036fbe026126","ios":"levelo://app?vid=de4ec590-7e5b-4dd4-a0d3-036fbe026126"},"vehicle_type_id":"4","last_reported":1746284937,"current_range_meters":11200,"station_id":"ce4bhp92rcd13ifvqhcg","pricing_plan_id":"cebpf4jnsgd1na2vs0mg"},{"bike_id":"fd2c3c67-23a6-4380-b7ca-8f23c8f78921","system_id":"levelo_inurba_marseille","lat":43.32379,"lon":5.36789,"is_reserved":false,"is_disabled":false,"rental_uris":{"android":"levelo://app?vid=fd2c3c67-23a6-4380-b7ca-8f23c8f78921","ios":"levelo://app?vid=fd2c3c67-23a6-4380-b7ca-8f23c8f78921"},"vehicle_type_id":"4","last_reported":1746284937,"current_range_meters":11200,"station_id":"ce4bhsh2rcd13ifvqi2g","pricing_plan_id":"cebpf4jnsgd1na2vs0mg"},{"bike_id":"68009f65-0558-4602-b442-3c5ed9143dc8","system_id":"levelo_inurba_marseille","lat":43.30368,"lon":5.42484,"is_reserved":false,"is_disabled":false,"rental_uris":{"android":"levelo://app?vid=68009f65-0558-4602-b442-3c5ed9143dc8","ios":"levelo://app?vid=68009f65-0558-4602-b442-3c5ed9143dc8"},"vehicle_type_id":"4","last_reported":1746284937,"current_range_meters":11600,"station_id":"ce4bhoh2rcd13ifvqh6g","pricing_plan_id":"cebpf4jnsgd1na2vs0mg"},{"bike_id":"6ae9068b-8534-47e2-832a-cb0e5255371d","system_id":"levelo_inurba_marseille","lat":43.337444,"lon":5.374475,"is_reserved":false,"is_disabled":false,"rental_uris":{"android":"levelo://app?vid=6ae9068b-8534-47e2-832a-cb0e5255371d","ios":"levelo://app?vid=6ae9068b-8534-47e2-832a-cb0e5255371d"},"vehicle_type_id":"4","last_reported":1746284937,"current_range_meters":11600,"station_id":"ce4bgvp2rcd13ifvqct0","pricing_plan_id":"cebpf4jnsgd1na2vs0mg"},{"bike_id":"707ace9b-569e-485f-a00e-a0e281f4a901","system_id":"levelo_inurba_marseille","lat":43.26556,"lon":5.37286,"is_reserved":false,"is_disabled":false,"rental_uris":{"android":"levelo://app?vid=707ace9b-569e-485f-a00e-a0e281f4a901","ios":"levelo://app?vid=707ace9b-569e-485f-a00e-a0e281f4a901"},"vehicle_type_id":"4","last_reported":1746284937,"current_range_meters":11600,"station_id":"ce4bhg12rcd13ifvqf70","pricing_plan_id":"cebpf4jnsgd1na2vs0mg"},{"bike_id":"02ef3096-14c5-4060-a88c-c36fcdf56e5a","system_id":"levelo_inurba_marseille","lat":43.21753,"lon":5.34612,"is_reserved":false,"is_disabled":false,"rental_uris":{"android":"levelo://app?vid=02ef3096-14c5-4060-a88c-c36fcdf56e5a","ios":"levelo://app?vid=02ef3096-14c5-4060-a88c-c36fcdf56e5a"},"vehicle_type_id":"4","last_reported":1746284937,"current_range_meters":11600,"station_id":"st_cvj6r9ubvosntc0bgbag","pricing_plan_id":"cebpf4jnsgd1na2vs0mg"},{"bike_id":"c9452473-6a5f-413d-9fa2-72ee120c40c9","system_id":"levelo_inurba_marseille","lat":43.31357,"lon":5.38494,"is_reserved":false,"is_disabled":false,"rental_uris":{"android":"levelo://app?vid=c9452473-6a5f-413d-9fa2-72ee120c40c9","ios":"levelo://app?vid=c9452473-6a5f-413d-9fa2-72ee120c40c9"},"vehicle_type_id":"4","last_reported":1746284937,"current_range_meters":12000,"station_id":"ce4bgt92rcd13ifvqcf0","pricing_plan_id":"cebpf4jnsgd1na2vs0mg"},{"bike_id":"3cfe8f65-b62c-4123-a3ff-5194ce80bce9","system_id":"levelo_inurba_marseille","lat":43.27997,"lon":5.41663,"is_reserved":false,"is_disabled":false,"rental_uris":{"android":"levelo://app?vid=3cfe8f65-b62c-4123-a3ff-5194ce80bce9","ios":"levelo://app?vid=3cfe8f65-b62c-4123-a3ff-5194ce80bce9"},"vehicle_type_id":"4","last_reported":1746284937,"current_range_meters":11600,"station_id":"ce4bho12rcd13ifvqh1g","pricing_plan_id":"cebpf4jnsgd1na2vs0mg"},{"bike_id":"0b832648-4b93-4b09-bce9-3bee116c260f","system_id":"levelo_inurba_marseille","lat":43.25947,"lon":5.40898,"is_reserved":false,"is_disabled":false,"rental_uris":{"android":"levelo://app?vid=0b832648-4b93-4b09-bce9-3bee116c260f","ios":"levelo://app?vid=0b832648-4b93-4b09-bce9-3bee116c260f"},"vehicle_type_id":"4","last_reported":1746284937,"current_range_meters":12000,"station_id":"ce4bhm92rcd13ifvqglg","pricing_plan_id":"cebpf4jnsgd1na2vs0mg"},{"bike_id":"946ea348-55fe-4865-b3c7-4dacc1da9c43","system_id":"levelo_inurba_marseille","lat":43.25115,"lon":5.40306,"is_reserved":false,"is_disabled":false,"rental_uris":{"android":"levelo://app?vid=946ea348-55fe-4865-b3c7-4dacc1da9c43","ios":"levelo://app?vid=946ea348-55fe-4865-b3c7-4dacc1da9c43"},"vehicle_type_id":"4","last_reported":1746284937,"current_range_meters":12800,"station_id":"ce4bhlh2rcd13ifvqgig","pricing_plan_id":"cebpf4jnsgd1na2vs0mg"},{"bike_id":"a978adc6-201e-4b96-b42f-9c074698e1bc","system_id":"levelo_inurba_marseille","lat":43.239609,"lon":5.366319,"is_reserved":false,"is_disabled":false,"rental_uris":{"android":"levelo://app?vid=a978adc6-201e-4b96-b42f-9c074698e1bc","ios":"levelo://app?vid=a978adc6-201e-4b96-b42f-9c074698e1bc"},"vehicle_type_id":"4","last_reported":1746284937,"current_range_meters":12000,"station_id":"ce4bhi12rcd13ifvqfp0","pricing_plan_id":"cebpf4jnsgd1na2vs0mg"},{"bike_id":"25430ffe-82b1-47fa-b721-aedd0adf11a2","system_id":"levelo_inurba_marseille","lat":43.32369,"lon":5.38885,"is_reserved":false,"is_disabled":false,"rental_uris":{"android":"levelo://app?vid=25430ffe-82b1-47fa-b721-aedd0adf11a2","ios":"levelo://app?vid=25430ffe-82b1-47fa-b721-aedd0adf11a2"},"vehicle_type_id":"4","last_reported":1746284937,"current_range_meters":12000,"station_id":"ce4bhqp2rcd13ifvqhog","pricing_plan_id":"cebpf4jnsgd1na2vs0mg"},{"bike_id":"f10ff8ed-460f-4087-be84-a7176880ff6c","system_id":"levelo_inurba_marseille","lat":43.29964,"lon":5.41325,"is_reserved":false,"is_disabled":false,"rental_uris":{"android":"levelo://app?vid=f10ff8ed-460f-4087-be84-a7176880ff6c","ios":"levelo://app?vid=f10ff8ed-460f-4087-be84-a7176880ff6c"},"vehicle_type_id":"4","last_reported":1746284937,"current_range_meters":12000,"station_id":"","pricing_plan_id":"cebpf4jnsgd1na2vs0mg"},{"bike_id":"f35e9b7a-95a2-4567-b8ac-60f1dc51161b","system_id":"levelo_inurba_marseille","lat":43.27844,"lon":5.3921,"is_reserved":false,"is_disabled":false,"rental_uris":{"android":"levelo://app?vid=f35e9b7a-95a2-4567-b8ac-60f1dc51161b","ios":"levelo://app?vid=f35e9b7a-95a2-4567-b8ac-60f1dc51161b"},"vehicle_type_id":"4","last_reported":1746284937,"current_range_meters":12000,"station_id":"ce4bhjp2rcd13ifvqga0","pricing_plan_id":"cebpf4jnsgd1na2vs0mg"},{"bike_id":"54ef7bed-8cf4-4b8d-8f74-c459dad84adf","system_id":"levelo_inurba_marseille","lat":43.29568,"lon":5.37525,"is_reserved":false,"is_disabled":false,"rental_uris":{"android":"levelo://app?vid=54ef7bed-8cf4-4b8d-8f74-c459dad84adf","ios":"levelo://app?vid=54ef7bed-8cf4-4b8d-8f74-c459dad84adf"},"vehicle_type_id":"4","last_reported":1746284937,"current_range_meters":12400,"station_id":"","pricing_plan_id":"cebpf4jnsgd1na2vs0mg"},{"bike_id":"6a954581-5446-4e1e-b962-aba06ef94e3a","system_id":"levelo_inurba_marseille","lat":43.29531,"lon":5.39032,"is_reserved":false,"is_disabled":false,"rental_uris":{"android":"levelo://app?vid=6a954581-5446-4e1e-b962-aba06ef94e3a","ios":"levelo://app?vid=6a954581-5446-4e1e-b962-aba06ef94e3a"},"vehicle_type_id":"4","last_reported":1746284937,"current_range_meters":12400,"station_id":"ce4bh3p2rcd13ifvqdp0","pricing_plan_id":"cebpf4jnsgd1na2vs0mg"},{"bike_id":"4d7a40f6-3a2e-48f6-8353-47c491915336","system_id":"levelo_inurba_marseille","lat":43.21746,"lon":5.34597,"is_reserved":false,"is_disabled":false,"rental_uris":{"android":"levelo://app?vid=4d7a40f6-3a2e-48f6-8353-47c491915336","ios":"levelo://app?vid=4d7a40f6-3a2e-48f6-8353-47c491915336"},"vehicle_type_id":"4","last_reported":1746284937,"current_range_meters":12400,"station_id":"st_cvj6r9ubvosntc0bgbag","pricing_plan_id":"cebpf4jnsgd1na2vs0mg"},{"bike_id":"12dc0881-be8b-4747-93b3-003d80747763","system_id":"levelo_inurba_marseille","lat":43.28268,"lon":5.35064,"is_reserved":false,"is_disabled":false,"rental_uris":{"android":"levelo://app?vid=12dc0881-be8b-4747-93b3-003d80747763","ios":"levelo://app?vid=12dc0881-be8b-4747-93b3-003d80747763"},"vehicle_type_id":"4","last_reported":1746284937,"current_range_meters":12400,"station_id":"ce4bhbp2rcd13ifvqerg","pricing_plan_id":"cebpf4jnsgd1na2vs0mg"},{"bike_id":"b2b0109a-4b66-4708-9bdb-ffd3852e2ef1","system_id":"levelo_inurba_marseille","lat":43.21189,"lon":5.35073,"is_reserved":false,"is_disabled":false,"rental_uris":{"android":"levelo://app?vid=b2b0109a-4b66-4708-9bdb-ffd3852e2ef1","ios":"levelo://app?vid=b2b0109a-4b66-4708-9bdb-ffd3852e2ef1"},"vehicle_type_id":"4","last_reported":1746284937,"current_range_meters":12400,"station_id":"st_cvj6sg6p6f1abm77japg","pricing_plan_id":"cebpf4jnsgd1na2vs0mg"},{"bike_id":"15a91623-c232-4bd6-8c4a-19e5a2f7bcf7","system_id":"levelo_inurba_marseille","lat":43.27922,"lon":5.39578,"is_reserved":false,"is_disabled":false,"rental_uris":{"android":"levelo://app?vid=15a91623-c232-4bd6-8c4a-19e5a2f7bcf7","ios":"levelo://app?vid=15a91623-c232-4bd6-8c4a-19e5a2f7bcf7"},"vehicle_type_id":"4","last_reported":1746284937,"current_range_meters":12400,"station_id":"ce4bhf92rcd13ifvqf40","pricing_plan_id":"cebpf4jnsgd1na2vs0mg"},{"bike_id":"15972eeb-a715-4582-ad86-01d812f2087e","system_id":"levelo_inurba_marseille","lat":43.21195,"lon":5.35071,"is_reserved":false,"is_disabled":false,"rental_uris":{"android":"levelo://app?vid=15972eeb-a715-4582-ad86-01d812f2087e","ios":"levelo://app?vid=15972eeb-a715-4582-ad86-01d812f2087e"},"vehicle_type_id":"4","last_reported":1746284937,"current_range_meters":12800,"station_id":"st_cvj6sg6p6f1abm77japg","pricing_plan_id":"cebpf4jnsgd1na2vs0mg"},{"bike_id":"56648a57-409a-4cdb-baab-18cf14eeac6a","system_id":"levelo_inurba_marseille","lat":43.23182,"lon":5.39987,"is_reserved":false,"is_disabled":false,"rental_uris":{"android":"levelo://app?vid=56648a57-409a-4cdb-baab-18cf14eeac6a","ios":"levelo://app?vid=56648a57-409a-4cdb-baab-18cf14eeac6a"},"vehicle_type_id":"4","last_reported":1746284937,"current_range_meters":12400,"station_id":"ce4bhn12rcd13ifvqgqg","pricing_plan_id":"cebpf4jnsgd1na2vs0mg"},{"bike_id":"24bdbb0e-62f8-45fd-92de-6c0cb99f2644","system_id":"levelo_inurba_marseille","lat":43.28281,"lon":5.35103,"is_reserved":false,"is_disabled":false,"rental_uris":{"android":"levelo://app?vid=24bdbb0e-62f8-45fd-92de-6c0cb99f2644","ios":"levelo://app?vid=24bdbb0e-62f8-45fd-92de-6c0cb99f2644"},"vehicle_type_id":"4","last_reported":1746284937,"current_range_meters":12800,"station_id":"ce4bhbp2rcd13ifvqerg","pricing_plan_id":"cebpf4jnsgd1na2vs0mg"},{"bike_id":"4701b869-6801-4f62-82f5-64b720ff6b65","system_id":"levelo_inurba_marseille","lat":43.2293,"lon":5.3537,"is_reserved":false,"is_disabled":false,"rental_uris":{"android":"levelo://app?vid=4701b869-6801-4f62-82f5-64b720ff6b65","ios":"levelo://app?vid=4701b869-6801-4f62-82f5-64b720ff6b65"},"vehicle_type_id":"4","last_reported":1746284937,"current_range_meters":12800,"station_id":"cpo3532slgdg3j2ikp40","pricing_plan_id":"cebpf4jnsgd1na2vs0mg"},{"bike_id":"0e7429ce-b0cb-4848-93c1-271bc715969e","system_id":"levelo_inurba_marseille","lat":43.27916,"lon":5.39578,"is_reserved":false,"is_disabled":false,"rental_uris":{"android":"levelo://app?vid=0e7429ce-b0cb-4848-93c1-271bc715969e","ios":"levelo://app?vid=0e7429ce-b0cb-4848-93c1-271bc715969e"},"vehicle_type_id":"4","last_reported":1746284937,"current_range_meters":12800,"station_id":"ce4bhf92rcd13ifvqf40","pricing_plan_id":"cebpf4jnsgd1na2vs0mg"},{"bike_id":"35bfd484-ceef-4925-86f7-6930b91b9f63","system_id":"levelo_inurba_marseille","lat":43.23183,"lon":5.39989,"is_reserved":false,"is_disabled":false,"rental_uris":{"android":"levelo://app?vid=35bfd484-ceef-4925-86f7-6930b91b9f63","ios":"levelo://app?vid=35bfd484-ceef-4925-86f7-6930b91b9f63"},"vehicle_type_id":"4","last_reported":1746284937,"current_range_meters":12800,"station_id":"ce4bhn12rcd13ifvqgqg","pricing_plan_id":"cebpf4jnsgd1na2vs0mg"},{"bike_id":"3e84121a-71ad-4261-b6a9-37316f8cbd59","system_id":"levelo_inurba_marseille","lat":43.29031,"lon":5.38651,"is_reserved":false,"is_disabled":true,"rental_uris":{"android":"levelo://app?vid=3e84121a-71ad-4261-b6a9-37316f8cbd59","ios":"levelo://app?vid=3e84121a-71ad-4261-b6a9-37316f8cbd59"},"vehicle_type_id":"4","last_reported":1746284937,"current_range_meters":12800,"station_id":"ce4bh4p2rcd13ifvqe0g","pricing_plan_id":"cebpf4jnsgd1na2vs0mg"},{"bike_id":"de6bf074-f669-4b09-8dbb-ccd5cdddbc33","system_id":"levelo_inurba_marseille","lat":43.28269,"lon":5.35067,"is_reserved":false,"is_disabled":false,"rental_uris":{"android":"levelo://app?vid=de6bf074-f669-4b09-8dbb-ccd5cdddbc33","ios":"levelo://app?vid=de6bf074-f669-4b09-8dbb-ccd5cdddbc33"},"vehicle_type_id":"4","last_reported":1746284937,"current_range_meters":13600,"station_id":"ce4bhbp2rcd13ifvqerg","pricing_plan_id":"cebpf4jnsgd1na2vs0mg"},{"bike_id":"61dc1217-b446-43b3-bb13-370688c1e510","system_id":"levelo_inurba_marseille","lat":43.27621,"lon":5.36103,"is_reserved":false,"is_disabled":false,"rental_uris":{"android":"levelo://app?vid=61dc1217-b446-43b3-bb13-370688c1e510","ios":"levelo://app?vid=61dc1217-b446-43b3-bb13-370688c1e510"},"vehicle_type_id":"4","last_reported":1746284937,"current_range_meters":13600,"station_id":"ce4bgj92rcd13ifvqbe0","pricing_plan_id":"cebpf4jnsgd1na2vs0mg"},{"bike_id":"0c9d6c7c-fd78-4aeb-a3f8-af2c188466be","system_id":"levelo_inurba_marseille","lat":43.299133,"lon":5.381005,"is_reserved":false,"is_disabled":false,"rental_uris":{"android":"levelo://app?vid=0c9d6c7c-fd78-4aeb-a3f8-af2c188466be","ios":"levelo://app?vid=0c9d6c7c-fd78-4aeb-a3f8-af2c188466be"},"vehicle_type_id":"4","last_reported":1746284937,"current_range_meters":13600,"station_id":"","pricing_plan_id":"cebpf4jnsgd1na2vs0mg"},{"bike_id":"5b826206-4d35-483e-9723-70ff57ab60c5","system_id":"levelo_inurba_marseille","lat":43.21764,"lon":5.34595,"is_reserved":false,"is_disabled":false,"rental_uris":{"android":"levelo://app?vid=5b826206-4d35-483e-9723-70ff57ab60c5","ios":"levelo://app?vid=5b826206-4d35-483e-9723-70ff57ab60c5"},"vehicle_type_id":"4","last_reported":1746284937,"current_range_meters":13600,"station_id":"st_cvj6r9ubvosntc0bgbag","pricing_plan_id":"cebpf4jnsgd1na2vs0mg"},{"bike_id":"2cb57148-ffc1-4fba-a3e3-e50fc0ae845f","system_id":"levelo_inurba_marseille","lat":43.25504,"lon":5.37651,"is_reserved":false,"is_disabled":false,"rental_uris":{"android":"levelo://app?vid=2cb57148-ffc1-4fba-a3e3-e50fc0ae845f","ios":"levelo://app?vid=2cb57148-ffc1-4fba-a3e3-e50fc0ae845f"},"vehicle_type_id":"4","last_reported":1746284937,"current_range_meters":12800,"station_id":"ce4bhh12rcd13ifvqff0","pricing_plan_id":"cebpf4jnsgd1na2vs0mg"},{"bike_id":"fb80c1da-d845-467b-9c3b-2f591f4d56ae","system_id":"levelo_inurba_marseille","lat":43.323406,"lon":5.37422,"is_reserved":false,"is_disabled":false,"rental_uris":{"android":"levelo://app?vid=fb80c1da-d845-467b-9c3b-2f591f4d56ae","ios":"levelo://app?vid=fb80c1da-d845-467b-9c3b-2f591f4d56ae"},"vehicle_type_id":"4","last_reported":1746284937,"current_range_meters":14000,"station_id":"","pricing_plan_id":"cebpf4jnsgd1na2vs0mg"},{"bike_id":"b9809656-0af2-449d-a948-887fd77b387b","system_id":"levelo_inurba_marseille","lat":43.27377,"lon":5.3626,"is_reserved":false,"is_disabled":false,"rental_uris":{"android":"levelo://app?vid=b9809656-0af2-449d-a948-887fd77b387b","ios":"levelo://app?vid=b9809656-0af2-449d-a948-887fd77b387b"},"vehicle_type_id":"4","last_reported":1746284937,"current_range_meters":13600,"station_id":"ce4bhbh2rcd13ifvqeo0","pricing_plan_id":"cebpf4jnsgd1na2vs0mg"},{"bike_id":"d1425f8b-4ee2-4234-adf2-33ee09f6306d","system_id":"levelo_inurba_marseille","lat":43.23152,"lon":5.43698,"is_reserved":false,"is_disabled":false,"rental_uris":{"android":"levelo://app?vid=d1425f8b-4ee2-4234-adf2-33ee09f6306d","ios":"levelo://app?vid=d1425f8b-4ee2-4234-adf2-33ee09f6306d"},"vehicle_type_id":"4","last_reported":1746284937,"current_range_meters":14000,"station_id":"ce4bhmp2rcd13ifvqgog","pricing_plan_id":"cebpf4jnsgd1na2vs0mg"},{"bike_id":"0c3c887e-2481-444b-9c2c-4520ab165646","system_id":"levelo_inurba_marseille","lat":43.23066,"lon":5.35497,"is_reserved":false,"is_disabled":false,"rental_uris":{"android":"levelo://app?vid=0c3c887e-2481-444b-9c2c-4520ab165646","ios":"levelo://app?vid=0c3c887e-2481-444b-9c2c-4520ab165646"},"vehicle_type_id":"4","last_reported":1746284937,"current_range_meters":13600,"station_id":"cpo3342slgdg3j2ifvpg","pricing_plan_id":"cebpf4jnsgd1na2vs0mg"},{"bike_id":"aedf206f-89f3-4f30-9da6-56fb7ff8915b","system_id":"levelo_inurba_marseille","lat":43.2811,"lon":5.40418,"is_reserved":false,"is_disabled":false,"rental_uris":{"android":"levelo://app?vid=aedf206f-89f3-4f30-9da6-56fb7ff8915b","ios":"levelo://app?vid=aedf206f-89f3-4f30-9da6-56fb7ff8915b"},"vehicle_type_id":"4","last_reported":1746284937,"current_range_meters":14000,"station_id":"","pricing_plan_id":"cebpf4jnsgd1na2vs0mg"},{"bike_id":"8f26a1b3-e18d-4e90-8fd3-0eade5de1642","system_id":"levelo_inurba_marseille","lat":43.27209,"lon":5.39186,"is_reserved":false,"is_disabled":false,"rental_uris":{"android":"levelo://app?vid=8f26a1b3-e18d-4e90-8fd3-0eade5de1642","ios":"levelo://app?vid=8f26a1b3-e18d-4e90-8fd3-0eade5de1642"},"vehicle_type_id":"4","last_reported":1746284937,"current_range_meters":14000,"station_id":"ce4bhhp2rcd13ifvqfm0","pricing_plan_id":"cebpf4jnsgd1na2vs0mg"},{"bike_id":"38412710-bb28-4675-8b86-f91fbec3ac84","system_id":"levelo_inurba_marseille","lat":43.25722,"lon":5.41113,"is_reserved":false,"is_disabled":false,"rental_uris":{"android":"levelo://app?vid=38412710-bb28-4675-8b86-f91fbec3ac84","ios":"levelo://app?vid=38412710-bb28-4675-8b86-f91fbec3ac84"},"vehicle_type_id":"4","last_reported":1746284937,"current_range_meters":14000,"station_id":"ce4bhkp2rcd13ifvqgd0","pricing_plan_id":"cebpf4jnsgd1na2vs0mg"},{"bike_id":"274ad913-cb5d-44ea-8484-26eae07424ea","system_id":"levelo_inurba_marseille","lat":43.25868,"lon":5.39911,"is_reserved":false,"is_disabled":true,"rental_uris":{"android":"levelo://app?vid=274ad913-cb5d-44ea-8484-26eae07424ea","ios":"levelo://app?vid=274ad913-cb5d-44ea-8484-26eae07424ea"},"vehicle_type_id":"4","last_reported":1746284937,"current_range_meters":14400,"station_id":"ce4bhl92rcd13ifvqghg","pricing_plan_id":"cebpf4jnsgd1na2vs0mg"},{"bike_id":"31c54918-ec32-4234-94e4-ab9da1be312c","system_id":"levelo_inurba_marseille","lat":43.24172,"lon":5.36383,"is_reserved":false,"is_disabled":false,"rental_uris":{"android":"levelo://app?vid=31c54918-ec32-4234-94e4-ab9da1be312c","ios":"levelo://app?vid=31c54918-ec32-4234-94e4-ab9da1be312c"},"vehicle_type_id":"4","last_reported":1746284937,"current_range_meters":14400,"station_id":"cpo36qri1sfpv3e86is0","pricing_plan_id":"cebpf4jnsgd1na2vs0mg"},{"bike_id":"5fcd1fce-5388-4291-af4d-7a3d6611e836","system_id":"levelo_inurba_marseille","lat":43.23969,"lon":5.36639,"is_reserved":false,"is_disabled":false,"rental_uris":{"android":"levelo://app?vid=5fcd1fce-5388-4291-af4d-7a3d6611e836","ios":"levelo://app?vid=5fcd1fce-5388-4291-af4d-7a3d6611e836"},"vehicle_type_id":"4","last_reported":1746284937,"current_range_meters":14000,"station_id":"ce4bhi12rcd13ifvqfp0","pricing_plan_id":"cebpf4jnsgd1na2vs0mg"},{"bike_id":"39be3071-8352-4294-bdcc-2e10c4e6df9f","system_id":"levelo_inurba_marseille","lat":43.229331,"lon":5.353736,"is_reserved":false,"is_disabled":false,"rental_uris":{"android":"levelo://app?vid=39be3071-8352-4294-bdcc-2e10c4e6df9f","ios":"levelo://app?vid=39be3071-8352-4294-bdcc-2e10c4e6df9f"},"vehicle_type_id":"4","last_reported":1746284937,"current_range_meters":14800,"station_id":"","pricing_plan_id":"cebpf4jnsgd1na2vs0mg"},{"bike_id":"aea14504-3ef9-43a6-9343-8cae33b239f7","system_id":"levelo_inurba_marseille","lat":43.23171,"lon":5.39981,"is_reserved":false,"is_disabled":false,"rental_uris":{"android":"levelo://app?vid=aea14504-3ef9-43a6-9343-8cae33b239f7","ios":"levelo://app?vid=aea14504-3ef9-43a6-9343-8cae33b239f7"},"vehicle_type_id":"4","last_reported":1746284937,"current_range_meters":16000,"station_id":"","pricing_plan_id":"cebpf4jnsgd1na2vs0mg"},{"bike_id":"5f627001-c5b8-43e0-a792-83db31ff2ea2","system_id":"levelo_inurba_marseille","lat":43.21196,"lon":5.35064,"is_reserved":false,"is_disabled":false,"rental_uris":{"android":"levelo://app?vid=5f627001-c5b8-43e0-a792-83db31ff2ea2","ios":"levelo://app?vid=5f627001-c5b8-43e0-a792-83db31ff2ea2"},"vehicle_type_id":"4","last_reported":1746284937,"current_range_meters":15200,"station_id":"st_cvj6sg6p6f1abm77japg","pricing_plan_id":"cebpf4jnsgd1na2vs0mg"},{"bike_id":"9eda8183-0cd8-42e1-84d6-8c8409f8d5ee","system_id":"levelo_inurba_marseille","lat":43.241789,"lon":5.397097,"is_reserved":false,"is_disabled":false,"rental_uris":{"android":"levelo://app?vid=9eda8183-0cd8-42e1-84d6-8c8409f8d5ee","ios":"levelo://app?vid=9eda8183-0cd8-42e1-84d6-8c8409f8d5ee"},"vehicle_type_id":"4","last_reported":1746284937,"current_range_meters":15200,"station_id":"ce4bhn12rcd13ifvqgpg","pricing_plan_id":"cebpf4jnsgd1na2vs0mg"},{"bike_id":"77199e3e-acdf-4f43-9f93-9ba390d47d24","system_id":"levelo_inurba_marseille","lat":43.29197,"lon":5.35806,"is_reserved":false,"is_disabled":false,"rental_uris":{"android":"levelo://app?vid=77199e3e-acdf-4f43-9f93-9ba390d47d24","ios":"levelo://app?vid=77199e3e-acdf-4f43-9f93-9ba390d47d24"},"vehicle_type_id":"4","last_reported":1746284937,"current_range_meters":15200,"station_id":"ce4bhb12rcd13ifvqel0","pricing_plan_id":"cebpf4jnsgd1na2vs0mg"},{"bike_id":"d52b2d27-f93b-44d6-ab41-3c6a28a6ee41","system_id":"levelo_inurba_marseille","lat":43.23194,"lon":5.3555,"is_reserved":false,"is_disabled":false,"rental_uris":{"android":"levelo://app?vid=d52b2d27-f93b-44d6-ab41-3c6a28a6ee41","ios":"levelo://app?vid=d52b2d27-f93b-44d6-ab41-3c6a28a6ee41"},"vehicle_type_id":"4","last_reported":1746284937,"current_range_meters":15200,"station_id":"ce4bhu92rcd13ifvqi70","pricing_plan_id":"cebpf4jnsgd1na2vs0mg"},{"bike_id":"67192092-173e-4233-9bfe-be25fc091f42","system_id":"levelo_inurba_marseille","lat":43.24078,"lon":5.3775,"is_reserved":false,"is_disabled":false,"rental_uris":{"android":"levelo://app?vid=67192092-173e-4233-9bfe-be25fc091f42","ios":"levelo://app?vid=67192092-173e-4233-9bfe-be25fc091f42"},"vehicle_type_id":"4","last_reported":1746284937,"current_range_meters":14800,"station_id":"ce4bhnp2rcd13ifvqgvg","pricing_plan_id":"cebpf4jnsgd1na2vs0mg"},{"bike_id":"e7061e18-ac4e-46b7-92e8-430d3604c3dd","system_id":"levelo_inurba_marseille","lat":43.23201,"lon":5.35547,"is_reserved":false,"is_disabled":false,"rental_uris":{"android":"levelo://app?vid=e7061e18-ac4e-46b7-92e8-430d3604c3dd","ios":"levelo://app?vid=e7061e18-ac4e-46b7-92e8-430d3604c3dd"},"vehicle_type_id":"4","last_reported":1746284937,"current_range_meters":15200,"station_id":"ce4bhu92rcd13ifvqi70","pricing_plan_id":"cebpf4jnsgd1na2vs0mg"},{"bike_id":"a41f0b8c-38a9-4612-980d-41ac20705eb9","system_id":"levelo_inurba_marseille","lat":43.28273,"lon":5.35057,"is_reserved":false,"is_disabled":false,"rental_uris":{"android":"levelo://app?vid=a41f0b8c-38a9-4612-980d-41ac20705eb9","ios":"levelo://app?vid=a41f0b8c-38a9-4612-980d-41ac20705eb9"},"vehicle_type_id":"4","last_reported":1746284937,"current_range_meters":16000,"station_id":"ce4bhbp2rcd13ifvqerg","pricing_plan_id":"cebpf4jnsgd1na2vs0mg"},{"bike_id":"3102f720-32db-4af0-b5ac-a58b39f8d3b2","system_id":"levelo_inurba_marseille","lat":43.24169,"lon":5.39687,"is_reserved":false,"is_disabled":false,"rental_uris":{"android":"levelo://app?vid=3102f720-32db-4af0-b5ac-a58b39f8d3b2","ios":"levelo://app?vid=3102f720-32db-4af0-b5ac-a58b39f8d3b2"},"vehicle_type_id":"4","last_reported":1746284937,"current_range_meters":16000,"station_id":"ce4bhn12rcd13ifvqgpg","pricing_plan_id":"cebpf4jnsgd1na2vs0mg"},{"bike_id":"c96a708b-d802-4c22-94ca-abfb27b3d81c","system_id":"levelo_inurba_marseille","lat":43.25492,"lon":5.37664,"is_reserved":false,"is_disabled":false,"rental_uris":{"android":"levelo://app?vid=c96a708b-d802-4c22-94ca-abfb27b3d81c","ios":"levelo://app?vid=c96a708b-d802-4c22-94ca-abfb27b3d81c"},"vehicle_type_id":"4","last_reported":1746284937,"current_range_meters":15200,"station_id":"ce4bhh12rcd13ifvqff0","pricing_plan_id":"cebpf4jnsgd1na2vs0mg"},{"bike_id":"658965a6-2a98-4375-8e97-fd0b7b5eaea4","system_id":"levelo_inurba_marseille","lat":43.26558,"lon":5.37285,"is_reserved":false,"is_disabled":false,"rental_uris":{"android":"levelo://app?vid=658965a6-2a98-4375-8e97-fd0b7b5eaea4","ios":"levelo://app?vid=658965a6-2a98-4375-8e97-fd0b7b5eaea4"},"vehicle_type_id":"4","last_reported":1746284937,"current_range_meters":16000,"station_id":"ce4bhg12rcd13ifvqf70","pricing_plan_id":"cebpf4jnsgd1na2vs0mg"},{"bike_id":"193b1328-dad1-41dc-9860-bab8820a2837","system_id":"levelo_inurba_marseille","lat":43.29971,"lon":5.38499,"is_reserved":false,"is_disabled":true,"rental_uris":{"android":"levelo://app?vid=193b1328-dad1-41dc-9860-bab8820a2837","ios":"levelo://app?vid=193b1328-dad1-41dc-9860-bab8820a2837"},"vehicle_type_id":"4","last_reported":1746284937,"current_range_meters":16000,"station_id":"ce4bgj92rcd13ifvqbd0","pricing_plan_id":"cebpf4jnsgd1na2vs0mg"},{"bike_id":"a5f7767c-0a3c-479f-9854-71eb47d5dc82","system_id":"levelo_inurba_marseille","lat":43.32342,"lon":5.40622,"is_reserved":false,"is_disabled":false,"rental_uris":{"android":"levelo://app?vid=a5f7767c-0a3c-479f-9854-71eb47d5dc82","ios":"levelo://app?vid=a5f7767c-0a3c-479f-9854-71eb47d5dc82"},"vehicle_type_id":"4","last_reported":1746284937,"current_range_meters":16000,"station_id":"ce4bhq92rcd13ifvqhjg","pricing_plan_id":"cebpf4jnsgd1na2vs0mg"},{"bike_id":"00d6449c-f830-4b91-8498-6778be64145d","system_id":"levelo_inurba_marseille","lat":43.27374,"lon":5.36258,"is_reserved":false,"is_disabled":false,"rental_uris":{"android":"levelo://app?vid=00d6449c-f830-4b91-8498-6778be64145d","ios":"levelo://app?vid=00d6449c-f830-4b91-8498-6778be64145d"},"vehicle_type_id":"4","last_reported":1746284937,"current_range_meters":16000,"station_id":"ce4bhbh2rcd13ifvqeo0","pricing_plan_id":"cebpf4jnsgd1na2vs0mg"},{"bike_id":"52db37c0-b66a-4fb7-9393-52b6bde335cb","system_id":"levelo_inurba_marseille","lat":43.298,"lon":5.40404,"is_reserved":false,"is_disabled":false,"rental_uris":{"android":"levelo://app?vid=52db37c0-b66a-4fb7-9393-52b6bde335cb","ios":"levelo://app?vid=52db37c0-b66a-4fb7-9393-52b6bde335cb"},"vehicle_type_id":"4","last_reported":1746284937,"current_range_meters":16400,"station_id":"ce4bh112rcd13ifvqd90","pricing_plan_id":"cebpf4jnsgd1na2vs0mg"},{"bike_id":"9feb2d35-bfa5-4140-80af-e6e141871fd5","system_id":"levelo_inurba_marseille","lat":43.265704,"lon":5.373292,"is_reserved":false,"is_disabled":false,"rental_uris":{"android":"levelo://app?vid=9feb2d35-bfa5-4140-80af-e6e141871fd5","ios":"levelo://app?vid=9feb2d35-bfa5-4140-80af-e6e141871fd5"},"vehicle_type_id":"4","last_reported":1746284937,"current_range_meters":16400,"station_id":"ce4bhg12rcd13ifvqf70","pricing_plan_id":"cebpf4jnsgd1na2vs0mg"},{"bike_id":"a3bc2359-39e4-4d03-aa5e-8ffa409341e2","system_id":"levelo_inurba_marseille","lat":43.298961,"lon":5.436639,"is_reserved":false,"is_disabled":false,"rental_uris":{"android":"levelo://app?vid=a3bc2359-39e4-4d03-aa5e-8ffa409341e2","ios":"levelo://app?vid=a3bc2359-39e4-4d03-aa5e-8ffa409341e2"},"vehicle_type_id":"4","last_reported":1746284937,"current_range_meters":16400,"station_id":"ce4bhpp2rcd13ifvqhfg","pricing_plan_id":"cebpf4jnsgd1na2vs0mg"},{"bike_id":"3f5b4948-55dd-4c61-800b-d5df5f7e4e3a","system_id":"levelo_inurba_marseille","lat":43.21192,"lon":5.35076,"is_reserved":false,"is_disabled":false,"rental_uris":{"android":"levelo://app?vid=3f5b4948-55dd-4c61-800b-d5df5f7e4e3a","ios":"levelo://app?vid=3f5b4948-55dd-4c61-800b-d5df5f7e4e3a"},"vehicle_type_id":"4","last_reported":1746284937,"current_range_meters":16400,"station_id":"st_cvj6sg6p6f1abm77japg","pricing_plan_id":"cebpf4jnsgd1na2vs0mg"},{"bike_id":"e34635f3-8b2d-4d19-b499-3d4413f28d2f","system_id":"levelo_inurba_marseille","lat":43.21196,"lon":5.35121,"is_reserved":false,"is_disabled":false,"rental_uris":{"android":"levelo://app?vid=e34635f3-8b2d-4d19-b499-3d4413f28d2f","ios":"levelo://app?vid=e34635f3-8b2d-4d19-b499-3d4413f28d2f"},"vehicle_type_id":"4","last_reported":1746284937,"current_range_meters":16800,"station_id":"st_cvj6sg6p6f1abm77japg","pricing_plan_id":"cebpf4jnsgd1na2vs0mg"},{"bike_id":"a94e8174-f356-4e84-a681-ceb93ed00311","system_id":"levelo_inurba_marseille","lat":43.30279,"lon":5.37713,"is_reserved":false,"is_disabled":false,"rental_uris":{"android":"levelo://app?vid=a94e8174-f356-4e84-a681-ceb93ed00311","ios":"levelo://app?vid=a94e8174-f356-4e84-a681-ceb93ed00311"},"vehicle_type_id":"4","last_reported":1746284937,"current_range_meters":16400,"station_id":"ce4bguh2rcd13ifvqcj0","pricing_plan_id":"cebpf4jnsgd1na2vs0mg"},{"bike_id":"b51e8583-0fb2-49ca-9c11-9dbce28dfa5d","system_id":"levelo_inurba_marseille","lat":43.23186,"lon":5.35567,"is_reserved":false,"is_disabled":false,"rental_uris":{"android":"levelo://app?vid=b51e8583-0fb2-49ca-9c11-9dbce28dfa5d","ios":"levelo://app?vid=b51e8583-0fb2-49ca-9c11-9dbce28dfa5d"},"vehicle_type_id":"4","last_reported":1746284937,"current_range_meters":16800,"station_id":"ce4bhu92rcd13ifvqi70","pricing_plan_id":"cebpf4jnsgd1na2vs0mg"},{"bike_id":"43580de2-2781-4103-8514-2bfafc9158a6","system_id":"levelo_inurba_marseille","lat":43.24164,"lon":5.36412,"is_reserved":false,"is_disabled":false,"rental_uris":{"android":"levelo://app?vid=43580de2-2781-4103-8514-2bfafc9158a6","ios":"levelo://app?vid=43580de2-2781-4103-8514-2bfafc9158a6"},"vehicle_type_id":"4","last_reported":1746284937,"current_range_meters":16800,"station_id":"cpo36qri1sfpv3e86is0","pricing_plan_id":"cebpf4jnsgd1na2vs0mg"},{"bike_id":"765f3a11-3610-43e9-b363-8793c90f63f6","system_id":"levelo_inurba_marseille","lat":43.21187,"lon":5.35072,"is_reserved":false,"is_disabled":false,"rental_uris":{"android":"levelo://app?vid=765f3a11-3610-43e9-b363-8793c90f63f6","ios":"levelo://app?vid=765f3a11-3610-43e9-b363-8793c90f63f6"},"vehicle_type_id":"4","last_reported":1746284937,"current_range_meters":16800,"station_id":"st_cvj6sg6p6f1abm77japg","pricing_plan_id":"cebpf4jnsgd1na2vs0mg"},{"bike_id":"7c73c1cd-fdd7-486a-b2e2-a4ecddaa364c","system_id":"levelo_inurba_marseille","lat":43.32491,"lon":5.36562,"is_reserved":false,"is_disabled":false,"rental_uris":{"android":"levelo://app?vid=7c73c1cd-fdd7-486a-b2e2-a4ecddaa364c","ios":"levelo://app?vid=7c73c1cd-fdd7-486a-b2e2-a4ecddaa364c"},"vehicle_type_id":"4","last_reported":1746284937,"current_range_meters":16800,"station_id":"ce4bhs12rcd13ifvqhvg","pricing_plan_id":"cebpf4jnsgd1na2vs0mg"},{"bike_id":"aa8539e0-1d12-4f08-b747-2b1c9cd42579","system_id":"levelo_inurba_marseille","lat":43.2827,"lon":5.35064,"is_reserved":false,"is_disabled":false,"rental_uris":{"android":"levelo://app?vid=aa8539e0-1d12-4f08-b747-2b1c9cd42579","ios":"levelo://app?vid=aa8539e0-1d12-4f08-b747-2b1c9cd42579"},"vehicle_type_id":"4","last_reported":1746284937,"current_range_meters":17200,"station_id":"ce4bhbp2rcd13ifvqerg","pricing_plan_id":"cebpf4jnsgd1na2vs0mg"},{"bike_id":"f4f8d7a1-d3a3-4920-88bf-e6bbeecd7a01","system_id":"levelo_inurba_marseille","lat":43.26531,"lon":5.37379,"is_reserved":false,"is_disabled":false,"rental_uris":{"android":"levelo://app?vid=f4f8d7a1-d3a3-4920-88bf-e6bbeecd7a01","ios":"levelo://app?vid=f4f8d7a1-d3a3-4920-88bf-e6bbeecd7a01"},"vehicle_type_id":"4","last_reported":1746284937,"current_range_meters":17200,"station_id":"","pricing_plan_id":"cebpf4jnsgd1na2vs0mg"},{"bike_id":"b6ecfc91-4481-4bb2-bd1b-a33023a24a1b","system_id":"levelo_inurba_marseille","lat":43.212032,"lon":5.351092,"is_reserved":false,"is_disabled":false,"rental_uris":{"android":"levelo://app?vid=b6ecfc91-4481-4bb2-bd1b-a33023a24a1b","ios":"levelo://app?vid=b6ecfc91-4481-4bb2-bd1b-a33023a24a1b"},"vehicle_type_id":"4","last_reported":1746284937,"current_range_meters":17200,"station_id":"st_cvj6sg6p6f1abm77japg","pricing_plan_id":"cebpf4jnsgd1na2vs0mg"},{"bike_id":"c8e16fcb-5510-4723-b6e7-2aa49c1b3b8d","system_id":"levelo_inurba_marseille","lat":43.31972,"lon":5.37066,"is_reserved":false,"is_disabled":false,"rental_uris":{"android":"levelo://app?vid=c8e16fcb-5510-4723-b6e7-2aa49c1b3b8d","ios":"levelo://app?vid=c8e16fcb-5510-4723-b6e7-2aa49c1b3b8d"},"vehicle_type_id":"4","last_reported":1746284937,"current_range_meters":17200,"station_id":"","pricing_plan_id":"cebpf4jnsgd1na2vs0mg"},{"bike_id":"8ef8e415-3a8e-4e37-94d1-5c69550e4819","system_id":"levelo_inurba_marseille","lat":43.286152,"lon":5.350968,"is_reserved":false,"is_disabled":false,"rental_uris":{"android":"levelo://app?vid=8ef8e415-3a8e-4e37-94d1-5c69550e4819","ios":"levelo://app?vid=8ef8e415-3a8e-4e37-94d1-5c69550e4819"},"vehicle_type_id":"4","last_reported":1746284937,"current_range_meters":17200,"station_id":"ce4bhch2rcd13ifvqeug","pricing_plan_id":"cebpf4jnsgd1na2vs0mg"},{"bike_id":"a8f054a5-6366-403e-a09f-3c636f9aae05","system_id":"levelo_inurba_marseille","lat":43.268021,"lon":5.402725,"is_reserved":false,"is_disabled":false,"rental_uris":{"android":"levelo://app?vid=a8f054a5-6366-403e-a09f-3c636f9aae05","ios":"levelo://app?vid=a8f054a5-6366-403e-a09f-3c636f9aae05"},"vehicle_type_id":"4","last_reported":1746284937,"current_range_meters":17200,"station_id":"","pricing_plan_id":"cebpf4jnsgd1na2vs0mg"},{"bike_id":"5143ce13-2df0-4726-8d98-6c8d933897a7","system_id":"levelo_inurba_marseille","lat":43.28413,"lon":5.34985,"is_reserved":false,"is_disabled":false,"rental_uris":{"android":"levelo://app?vid=5143ce13-2df0-4726-8d98-6c8d933897a7","ios":"levelo://app?vid=5143ce13-2df0-4726-8d98-6c8d933897a7"},"vehicle_type_id":"4","last_reported":1746284937,"current_range_meters":17200,"station_id":"ce4bhbh2rcd13ifvqepg","pricing_plan_id":"cebpf4jnsgd1na2vs0mg"},{"bike_id":"8c432093-3aba-4fff-b5bc-0c2b76a65436","system_id":"levelo_inurba_marseille","lat":43.21193,"lon":5.35073,"is_reserved":false,"is_disabled":false,"rental_uris":{"android":"levelo://app?vid=8c432093-3aba-4fff-b5bc-0c2b76a65436","ios":"levelo://app?vid=8c432093-3aba-4fff-b5bc-0c2b76a65436"},"vehicle_type_id":"4","last_reported":1746284937,"current_range_meters":17600,"station_id":"st_cvj6sg6p6f1abm77japg","pricing_plan_id":"cebpf4jnsgd1na2vs0mg"},{"bike_id":"b44f9884-ad91-4c4f-8556-0c40c7f3c478","system_id":"levelo_inurba_marseille","lat":43.2319,"lon":5.35553,"is_reserved":false,"is_disabled":false,"rental_uris":{"android":"levelo://app?vid=b44f9884-ad91-4c4f-8556-0c40c7f3c478","ios":"levelo://app?vid=b44f9884-ad91-4c4f-8556-0c40c7f3c478"},"vehicle_type_id":"4","last_reported":1746284937,"current_range_meters":17600,"station_id":"ce4bhu92rcd13ifvqi70","pricing_plan_id":"cebpf4jnsgd1na2vs0mg"},{"bike_id":"be6773de-c835-4a89-b968-e92acff56e35","system_id":"levelo_inurba_marseille","lat":43.21737,"lon":5.34614,"is_reserved":false,"is_disabled":false,"rental_uris":{"android":"levelo://app?vid=be6773de-c835-4a89-b968-e92acff56e35","ios":"levelo://app?vid=be6773de-c835-4a89-b968-e92acff56e35"},"vehicle_type_id":"4","last_reported":1746284937,"current_range_meters":17600,"station_id":"st_cvj6r9ubvosntc0bgbag","pricing_plan_id":"cebpf4jnsgd1na2vs0mg"},{"bike_id":"25b89c4a-ae9b-4df7-84d0-b786cb272028","system_id":"levelo_inurba_marseille","lat":43.26214,"lon":5.37444,"is_reserved":false,"is_disabled":false,"rental_uris":{"android":"levelo://app?vid=25b89c4a-ae9b-4df7-84d0-b786cb272028","ios":"levelo://app?vid=25b89c4a-ae9b-4df7-84d0-b786cb272028"},"vehicle_type_id":"4","last_reported":1746284937,"current_range_meters":17600,"station_id":"ce4bhgp2rcd13ifvqfc0","pricing_plan_id":"cebpf4jnsgd1na2vs0mg"},{"bike_id":"31846cd9-5d1c-4ae5-9690-1eb646eb5f3d","system_id":"levelo_inurba_marseille","lat":43.21749,"lon":5.346,"is_reserved":false,"is_disabled":false,"rental_uris":{"android":"levelo://app?vid=31846cd9-5d1c-4ae5-9690-1eb646eb5f3d","ios":"levelo://app?vid=31846cd9-5d1c-4ae5-9690-1eb646eb5f3d"},"vehicle_type_id":"4","last_reported":1746284937,"current_range_meters":18000,"station_id":"","pricing_plan_id":"cebpf4jnsgd1na2vs0mg"},{"bike_id":"0b497a69-eb37-4d5d-aec1-d7c5f719d6f7","system_id":"levelo_inurba_marseille","lat":43.28615,"lon":5.35102,"is_reserved":false,"is_disabled":false,"rental_uris":{"android":"levelo://app?vid=0b497a69-eb37-4d5d-aec1-d7c5f719d6f7","ios":"levelo://app?vid=0b497a69-eb37-4d5d-aec1-d7c5f719d6f7"},"vehicle_type_id":"4","last_reported":1746284937,"current_range_meters":18000,"station_id":"ce4bhch2rcd13ifvqeug","pricing_plan_id":"cebpf4jnsgd1na2vs0mg"},{"bike_id":"99a35a67-5b31-40dc-9688-588bd7fed72d","system_id":"levelo_inurba_marseille","lat":43.24389,"lon":5.37059,"is_reserved":false,"is_disabled":false,"rental_uris":{"android":"levelo://app?vid=99a35a67-5b31-40dc-9688-588bd7fed72d","ios":"levelo://app?vid=99a35a67-5b31-40dc-9688-588bd7fed72d"},"vehicle_type_id":"4","last_reported":1746284937,"current_range_meters":18000,"station_id":"ce4bhhh2rcd13ifvqfk0","pricing_plan_id":"cebpf4jnsgd1na2vs0mg"},{"bike_id":"de028ca7-76eb-49c4-aaf2-d980a3602313","system_id":"levelo_inurba_marseille","lat":43.28619,"lon":5.35105,"is_reserved":false,"is_disabled":false,"rental_uris":{"android":"levelo://app?vid=de028ca7-76eb-49c4-aaf2-d980a3602313","ios":"levelo://app?vid=de028ca7-76eb-49c4-aaf2-d980a3602313"},"vehicle_type_id":"4","last_reported":1746284937,"current_range_meters":18000,"station_id":"ce4bhch2rcd13ifvqeug","pricing_plan_id":"cebpf4jnsgd1na2vs0mg"},{"bike_id":"44a4d48b-8b35-4579-9500-8ea752fbfc55","system_id":"levelo_inurba_marseille","lat":43.30619,"lon":5.37213,"is_reserved":false,"is_disabled":false,"rental_uris":{"android":"levelo://app?vid=44a4d48b-8b35-4579-9500-8ea752fbfc55","ios":"levelo://app?vid=44a4d48b-8b35-4579-9500-8ea752fbfc55"},"vehicle_type_id":"4","last_reported":1746284937,"current_range_meters":18000,"station_id":"ce4bgqh2rcd13ifvqc4g","pricing_plan_id":"cebpf4jnsgd1na2vs0mg"},{"bike_id":"813c9805-706f-4a3f-881c-24d2cb8d797a","system_id":"levelo_inurba_marseille","lat":43.29797,"lon":5.40402,"is_reserved":false,"is_disabled":false,"rental_uris":{"android":"levelo://app?vid=813c9805-706f-4a3f-881c-24d2cb8d797a","ios":"levelo://app?vid=813c9805-706f-4a3f-881c-24d2cb8d797a"},"vehicle_type_id":"4","last_reported":1746284937,"current_range_meters":18800,"station_id":"ce4bh112rcd13ifvqd90","pricing_plan_id":"cebpf4jnsgd1na2vs0mg"},{"bike_id":"d6fca117-0b75-4d46-b112-e4517691aa07","system_id":"levelo_inurba_marseille","lat":43.23195,"lon":5.35566,"is_reserved":false,"is_disabled":false,"rental_uris":{"android":"levelo://app?vid=d6fca117-0b75-4d46-b112-e4517691aa07","ios":"levelo://app?vid=d6fca117-0b75-4d46-b112-e4517691aa07"},"vehicle_type_id":"4","last_reported":1746284937,"current_range_meters":18000,"station_id":"ce4bhu92rcd13ifvqi70","pricing_plan_id":"cebpf4jnsgd1na2vs0mg"},{"bike_id":"e0eb2257-89c1-4851-bec9-ef9639111322","system_id":"levelo_inurba_marseille","lat":43.29989,"lon":5.37238,"is_reserved":false,"is_disabled":false,"rental_uris":{"android":"levelo://app?vid=e0eb2257-89c1-4851-bec9-ef9639111322","ios":"levelo://app?vid=e0eb2257-89c1-4851-bec9-ef9639111322"},"vehicle_type_id":"4","last_reported":1746284937,"current_range_meters":18800,"station_id":"ce4bgr92rcd13ifvqc7g","pricing_plan_id":"cebpf4jnsgd1na2vs0mg"},{"bike_id":"40fd19f4-44fe-44e9-821b-b3af5edff61f","system_id":"levelo_inurba_marseille","lat":43.21185,"lon":5.350635,"is_reserved":false,"is_disabled":false,"rental_uris":{"android":"levelo://app?vid=40fd19f4-44fe-44e9-821b-b3af5edff61f","ios":"levelo://app?vid=40fd19f4-44fe-44e9-821b-b3af5edff61f"},"vehicle_type_id":"4","last_reported":1746284937,"current_range_meters":19200,"station_id":"st_cvj6sg6p6f1abm77japg","pricing_plan_id":"cebpf4jnsgd1na2vs0mg"},{"bike_id":"633f4cac-9696-4e15-bb10-152509541b56","system_id":"levelo_inurba_marseille","lat":43.32356,"lon":5.3674,"is_reserved":false,"is_disabled":false,"rental_uris":{"android":"levelo://app?vid=633f4cac-9696-4e15-bb10-152509541b56","ios":"levelo://app?vid=633f4cac-9696-4e15-bb10-152509541b56"},"vehicle_type_id":"4","last_reported":1746284937,"current_range_meters":19200,"station_id":"ce4bhsh2rcd13ifvqi2g","pricing_plan_id":"cebpf4jnsgd1na2vs0mg"},{"bike_id":"cc3f2093-0973-4e0c-bee1-0102f4eb6aa3","system_id":"levelo_inurba_marseille","lat":43.25582,"lon":5.38245,"is_reserved":false,"is_disabled":false,"rental_uris":{"android":"levelo://app?vid=cc3f2093-0973-4e0c-bee1-0102f4eb6aa3","ios":"levelo://app?vid=cc3f2093-0973-4e0c-bee1-0102f4eb6aa3"},"vehicle_type_id":"4","last_reported":1746284937,"current_range_meters":19200,"station_id":"ce4bhih2rcd13ifvqfs0","pricing_plan_id":"cebpf4jnsgd1na2vs0mg"},{"bike_id":"a156a43b-a454-494b-9663-fdd53beb9caa","system_id":"levelo_inurba_marseille","lat":43.21757,"lon":5.34625,"is_reserved":false,"is_disabled":false,"rental_uris":{"android":"levelo://app?vid=a156a43b-a454-494b-9663-fdd53beb9caa","ios":"levelo://app?vid=a156a43b-a454-494b-9663-fdd53beb9caa"},"vehicle_type_id":"4","last_reported":1746284937,"current_range_meters":19200,"station_id":"st_cvj6r9ubvosntc0bgbag","pricing_plan_id":"cebpf4jnsgd1na2vs0mg"},{"bike_id":"d9cc4aea-dd07-4561-ad56-0429c7f0a503","system_id":"levelo_inurba_marseille","lat":43.29518,"lon":5.37513,"is_reserved":false,"is_disabled":false,"rental_uris":{"android":"levelo://app?vid=d9cc4aea-dd07-4561-ad56-0429c7f0a503","ios":"levelo://app?vid=d9cc4aea-dd07-4561-ad56-0429c7f0a503"},"vehicle_type_id":"4","last_reported":1746284937,"current_range_meters":19200,"station_id":"ce4bgkp2rcd13ifvqbmg","pricing_plan_id":"cebpf4jnsgd1na2vs0mg"},{"bike_id":"441fbbd2-0e4f-4fc0-90c7-18568695f93a","system_id":"levelo_inurba_marseille","lat":43.29964,"lon":5.384797,"is_reserved":false,"is_disabled":false,"rental_uris":{"android":"levelo://app?vid=441fbbd2-0e4f-4fc0-90c7-18568695f93a","ios":"levelo://app?vid=441fbbd2-0e4f-4fc0-90c7-18568695f93a"},"vehicle_type_id":"4","last_reported":1746284937,"current_range_meters":19600,"station_id":"","pricing_plan_id":"cebpf4jnsgd1na2vs0mg"},{"bike_id":"b8f562a1-717e-4cab-8209-167317d984a5","system_id":"levelo_inurba_marseille","lat":43.27619,"lon":5.36109,"is_reserved":false,"is_disabled":false,"rental_uris":{"android":"levelo://app?vid=b8f562a1-717e-4cab-8209-167317d984a5","ios":"levelo://app?vid=b8f562a1-717e-4cab-8209-167317d984a5"},"vehicle_type_id":"4","last_reported":1746284937,"current_range_meters":19200,"station_id":"ce4bgj92rcd13ifvqbe0","pricing_plan_id":"cebpf4jnsgd1na2vs0mg"},{"bike_id":"6ed6519d-6b88-4855-9483-f94ae3923e18","system_id":"levelo_inurba_marseille","lat":43.28605,"lon":5.35063,"is_reserved":false,"is_disabled":false,"rental_uris":{"android":"levelo://app?vid=6ed6519d-6b88-4855-9483-f94ae3923e18","ios":"levelo://app?vid=6ed6519d-6b88-4855-9483-f94ae3923e18"},"vehicle_type_id":"4","last_reported":1746284937,"current_range_meters":19600,"station_id":"ce4bhch2rcd13ifvqeug","pricing_plan_id":"cebpf4jnsgd1na2vs0mg"},{"bike_id":"fabf2925-9bd4-424b-868f-8f1d1e6774c1","system_id":"levelo_inurba_marseille","lat":43.2295,"lon":5.35376,"is_reserved":false,"is_disabled":false,"rental_uris":{"android":"levelo://app?vid=fabf2925-9bd4-424b-868f-8f1d1e6774c1","ios":"levelo://app?vid=fabf2925-9bd4-424b-868f-8f1d1e6774c1"},"vehicle_type_id":"4","last_reported":1746284937,"current_range_meters":19600,"station_id":"cpo3532slgdg3j2ikp40","pricing_plan_id":"cebpf4jnsgd1na2vs0mg"},{"bike_id":"b914072c-1a8b-40c8-a84b-6de711eafd34","system_id":"levelo_inurba_marseille","lat":43.23968,"lon":5.36643,"is_reserved":false,"is_disabled":false,"rental_uris":{"android":"levelo://app?vid=b914072c-1a8b-40c8-a84b-6de711eafd34","ios":"levelo://app?vid=b914072c-1a8b-40c8-a84b-6de711eafd34"},"vehicle_type_id":"4","last_reported":1746284937,"current_range_meters":19600,"station_id":"ce4bhi12rcd13ifvqfp0","pricing_plan_id":"cebpf4jnsgd1na2vs0mg"},{"bike_id":"7bda5fbe-689e-4c27-97cf-0459d79e5cbf","system_id":"levelo_inurba_marseille","lat":43.299683,"lon":5.384829,"is_reserved":false,"is_disabled":false,"rental_uris":{"android":"levelo://app?vid=7bda5fbe-689e-4c27-97cf-0459d79e5cbf","ios":"levelo://app?vid=7bda5fbe-689e-4c27-97cf-0459d79e5cbf"},"vehicle_type_id":"4","last_reported":1746284937,"current_range_meters":19200,"station_id":"ce4bgj92rcd13ifvqbd0","pricing_plan_id":"cebpf4jnsgd1na2vs0mg"},{"bike_id":"2a12d87c-9a34-44cd-a8fb-f89e9fc08e13","system_id":"levelo_inurba_marseille","lat":43.29265,"lon":5.376197,"is_reserved":false,"is_disabled":false,"rental_uris":{"android":"levelo://app?vid=2a12d87c-9a34-44cd-a8fb-f89e9fc08e13","ios":"levelo://app?vid=2a12d87c-9a34-44cd-a8fb-f89e9fc08e13"},"vehicle_type_id":"4","last_reported":1746284937,"current_range_meters":19600,"station_id":"ce4bgi12rcd13ifvqb80","pricing_plan_id":"cebpf4jnsgd1na2vs0mg"},{"bike_id":"1d6c891d-d0c9-40e1-8e22-7763a9d3b3ae","system_id":"levelo_inurba_marseille","lat":43.28276,"lon":5.35062,"is_reserved":false,"is_disabled":false,"rental_uris":{"android":"levelo://app?vid=1d6c891d-d0c9-40e1-8e22-7763a9d3b3ae","ios":"levelo://app?vid=1d6c891d-d0c9-40e1-8e22-7763a9d3b3ae"},"vehicle_type_id":"4","last_reported":1746284937,"current_range_meters":19600,"station_id":"ce4bhbp2rcd13ifvqerg","pricing_plan_id":"cebpf4jnsgd1na2vs0mg"},{"bike_id":"43f220ab-0408-46b3-abe5-60437ce3bc1e","system_id":"levelo_inurba_marseille","lat":43.2319,"lon":5.35566,"is_reserved":false,"is_disabled":false,"rental_uris":{"android":"levelo://app?vid=43f220ab-0408-46b3-abe5-60437ce3bc1e","ios":"levelo://app?vid=43f220ab-0408-46b3-abe5-60437ce3bc1e"},"vehicle_type_id":"4","last_reported":1746284937,"current_range_meters":20000,"station_id":"ce4bhu92rcd13ifvqi70","pricing_plan_id":"cebpf4jnsgd1na2vs0mg"},{"bike_id":"1a332db3-f3ca-4f6a-aa22-68ece3af2f45","system_id":"levelo_inurba_marseille","lat":43.25006,"lon":5.38928,"is_reserved":false,"is_disabled":false,"rental_uris":{"android":"levelo://app?vid=1a332db3-f3ca-4f6a-aa22-68ece3af2f45","ios":"levelo://app?vid=1a332db3-f3ca-4f6a-aa22-68ece3af2f45"},"vehicle_type_id":"4","last_reported":1746284937,"current_range_meters":19600,"station_id":"ce4bhgp2rcd13ifvqfd0","pricing_plan_id":"cebpf4jnsgd1na2vs0mg"},{"bike_id":"368e2732-365c-4322-8be0-74fb2d8661fd","system_id":"levelo_inurba_marseille","lat":43.27378,"lon":5.36255,"is_reserved":false,"is_disabled":false,"rental_uris":{"android":"levelo://app?vid=368e2732-365c-4322-8be0-74fb2d8661fd","ios":"levelo://app?vid=368e2732-365c-4322-8be0-74fb2d8661fd"},"vehicle_type_id":"4","last_reported":1746284937,"current_range_meters":19600,"station_id":"ce4bhbh2rcd13ifvqeo0","pricing_plan_id":"cebpf4jnsgd1na2vs0mg"},{"bike_id":"439c3f75-613c-45c5-bce8-ead29e1df63f","system_id":"levelo_inurba_marseille","lat":43.231918,"lon":5.355515,"is_reserved":false,"is_disabled":false,"rental_uris":{"android":"levelo://app?vid=439c3f75-613c-45c5-bce8-ead29e1df63f","ios":"levelo://app?vid=439c3f75-613c-45c5-bce8-ead29e1df63f"},"vehicle_type_id":"4","last_reported":1746284937,"current_range_meters":20400,"station_id":"ce4bhu92rcd13ifvqi70","pricing_plan_id":"cebpf4jnsgd1na2vs0mg"},{"bike_id":"8d838bd9-3b65-4f87-9837-c30e6ea5e941","system_id":"levelo_inurba_marseille","lat":43.22922,"lon":5.35416,"is_reserved":false,"is_disabled":false,"rental_uris":{"android":"levelo://app?vid=8d838bd9-3b65-4f87-9837-c30e6ea5e941","ios":"levelo://app?vid=8d838bd9-3b65-4f87-9837-c30e6ea5e941"},"vehicle_type_id":"4","last_reported":1746284937,"current_range_meters":20000,"station_id":"cpo3532slgdg3j2ikp40","pricing_plan_id":"cebpf4jnsgd1na2vs0mg"},{"bike_id":"4e030290-df73-4df0-bbcf-608cf0f9a3a6","system_id":"levelo_inurba_marseille","lat":43.27811,"lon":5.40709,"is_reserved":false,"is_disabled":false,"rental_uris":{"android":"levelo://app?vid=4e030290-df73-4df0-bbcf-608cf0f9a3a6","ios":"levelo://app?vid=4e030290-df73-4df0-bbcf-608cf0f9a3a6"},"vehicle_type_id":"4","last_reported":1746284937,"current_range_meters":20400,"station_id":"ce4bhnh2rcd13ifvqgtg","pricing_plan_id":"cebpf4jnsgd1na2vs0mg"},{"bike_id":"574e711c-fa4e-4bf9-84b3-4ae402691bae","system_id":"levelo_inurba_marseille","lat":43.211869,"lon":5.35078,"is_reserved":false,"is_disabled":false,"rental_uris":{"android":"levelo://app?vid=574e711c-fa4e-4bf9-84b3-4ae402691bae","ios":"levelo://app?vid=574e711c-fa4e-4bf9-84b3-4ae402691bae"},"vehicle_type_id":"4","last_reported":1746284937,"current_range_meters":20400,"station_id":"st_cvj6sg6p6f1abm77japg","pricing_plan_id":"cebpf4jnsgd1na2vs0mg"},{"bike_id":"03a9c148-5833-484a-bf3a-171832951f57","system_id":"levelo_inurba_marseille","lat":43.23156,"lon":5.437,"is_reserved":false,"is_disabled":false,"rental_uris":{"android":"levelo://app?vid=03a9c148-5833-484a-bf3a-171832951f57","ios":"levelo://app?vid=03a9c148-5833-484a-bf3a-171832951f57"},"vehicle_type_id":"4","last_reported":1746284937,"current_range_meters":20400,"station_id":"ce4bhmp2rcd13ifvqgog","pricing_plan_id":"cebpf4jnsgd1na2vs0mg"},{"bike_id":"5e1d765b-b55b-4be2-835f-928adb328dc1","system_id":"levelo_inurba_marseille","lat":43.23197,"lon":5.35557,"is_reserved":false,"is_disabled":false,"rental_uris":{"android":"levelo://app?vid=5e1d765b-b55b-4be2-835f-928adb328dc1","ios":"levelo://app?vid=5e1d765b-b55b-4be2-835f-928adb328dc1"},"vehicle_type_id":"4","last_reported":1746284937,"current_range_meters":20000,"station_id":"ce4bhu92rcd13ifvqi70","pricing_plan_id":"cebpf4jnsgd1na2vs0mg"},{"bike_id":"664604d4-cfda-4db8-9fba-fb8c09c37bc3","system_id":"levelo_inurba_marseille","lat":43.3154,"lon":5.38034,"is_reserved":false,"is_disabled":false,"rental_uris":{"android":"levelo://app?vid=664604d4-cfda-4db8-9fba-fb8c09c37bc3","ios":"levelo://app?vid=664604d4-cfda-4db8-9fba-fb8c09c37bc3"},"vehicle_type_id":"4","last_reported":1746284937,"current_range_meters":20400,"station_id":"ce4bhsp2rcd13ifvqi50","pricing_plan_id":"cebpf4jnsgd1na2vs0mg"},{"bike_id":"8f8205c0-508b-4c6c-bda0-809653224241","system_id":"levelo_inurba_marseille","lat":43.21192,"lon":5.3508,"is_reserved":false,"is_disabled":false,"rental_uris":{"android":"levelo://app?vid=8f8205c0-508b-4c6c-bda0-809653224241","ios":"levelo://app?vid=8f8205c0-508b-4c6c-bda0-809653224241"},"vehicle_type_id":"4","last_reported":1746284937,"current_range_meters":22000,"station_id":"st_cvj6sg6p6f1abm77japg","pricing_plan_id":"cebpf4jnsgd1na2vs0mg"},{"bike_id":"9272b2e5-2a64-4af9-bf59-08429cc34359","system_id":"levelo_inurba_marseille","lat":43.29631,"lon":5.40594,"is_reserved":false,"is_disabled":false,"rental_uris":{"android":"levelo://app?vid=9272b2e5-2a64-4af9-bf59-08429cc34359","ios":"levelo://app?vid=9272b2e5-2a64-4af9-bf59-08429cc34359"},"vehicle_type_id":"4","last_reported":1746284937,"current_range_meters":20800,"station_id":"ce4bh0h2rcd13ifvqd60","pricing_plan_id":"cebpf4jnsgd1na2vs0mg"},{"bike_id":"ff07dadb-e9ad-456b-ad3e-4be5d9d30ffd","system_id":"levelo_inurba_marseille","lat":43.23182,"lon":5.39985,"is_reserved":false,"is_disabled":false,"rental_uris":{"android":"levelo://app?vid=ff07dadb-e9ad-456b-ad3e-4be5d9d30ffd","ios":"levelo://app?vid=ff07dadb-e9ad-456b-ad3e-4be5d9d30ffd"},"vehicle_type_id":"4","last_reported":1746284937,"current_range_meters":22400,"station_id":"ce4bhn12rcd13ifvqgqg","pricing_plan_id":"cebpf4jnsgd1na2vs0mg"},{"bike_id":"9402e449-2ad3-45bb-b308-5dc2b4726bc3","system_id":"levelo_inurba_marseille","lat":43.27321,"lon":5.39084,"is_reserved":false,"is_disabled":false,"rental_uris":{"android":"levelo://app?vid=9402e449-2ad3-45bb-b308-5dc2b4726bc3","ios":"levelo://app?vid=9402e449-2ad3-45bb-b308-5dc2b4726bc3"},"vehicle_type_id":"4","last_reported":1746284937,"current_range_meters":25600,"station_id":"ce4bhgp2rcd13ifvqfe0","pricing_plan_id":"cebpf4jnsgd1na2vs0mg"},{"bike_id":"0abe7365-362a-4c2d-949a-e32faf9d4099","system_id":"levelo_inurba_marseille","lat":43.21192,"lon":5.3506,"is_reserved":false,"is_disabled":true,"rental_uris":{"android":"levelo://app?vid=0abe7365-362a-4c2d-949a-e32faf9d4099","ios":"levelo://app?vid=0abe7365-362a-4c2d-949a-e32faf9d4099"},"vehicle_type_id":"4","last_reported":1746284937,"current_range_meters":22400,"station_id":"st_cvj6sg6p6f1abm77japg","pricing_plan_id":"cebpf4jnsgd1na2vs0mg"},{"bike_id":"45b0f65b-e66b-413d-a73f-39145fadacf7","system_id":"levelo_inurba_marseille","lat":43.2862,"lon":5.351,"is_reserved":false,"is_disabled":false,"rental_uris":{"android":"levelo://app?vid=45b0f65b-e66b-413d-a73f-39145fadacf7","ios":"levelo://app?vid=45b0f65b-e66b-413d-a73f-39145fadacf7"},"vehicle_type_id":"4","last_reported":1746284937,"current_range_meters":22400,"station_id":"ce4bhch2rcd13ifvqeug","pricing_plan_id":"cebpf4jnsgd1na2vs0mg"},{"bike_id":"a4474d1d-fa23-4aba-8153-4ecc3115a54e","system_id":"levelo_inurba_marseille","lat":43.217492,"lon":5.346053,"is_reserved":false,"is_disabled":false,"rental_uris":{"android":"levelo://app?vid=a4474d1d-fa23-4aba-8153-4ecc3115a54e","ios":"levelo://app?vid=a4474d1d-fa23-4aba-8153-4ecc3115a54e"},"vehicle_type_id":"4","last_reported":1746284937,"current_range_meters":22800,"station_id":"st_cvj6r9ubvosntc0bgbag","pricing_plan_id":"cebpf4jnsgd1na2vs0mg"},{"bike_id":"8a3dabe0-88f8-4286-9d43-25bd7e781cb0","system_id":"levelo_inurba_marseille","lat":43.284222,"lon":5.349787,"is_reserved":false,"is_disabled":false,"rental_uris":{"android":"levelo://app?vid=8a3dabe0-88f8-4286-9d43-25bd7e781cb0","ios":"levelo://app?vid=8a3dabe0-88f8-4286-9d43-25bd7e781cb0"},"vehicle_type_id":"4","last_reported":1746284937,"current_range_meters":22800,"station_id":"","pricing_plan_id":"cebpf4jnsgd1na2vs0mg"},{"bike_id":"616c4755-8d64-4fe3-a77e-94670a8f86ff","system_id":"levelo_inurba_marseille","lat":43.28601,"lon":5.35099,"is_reserved":false,"is_disabled":false,"rental_uris":{"android":"levelo://app?vid=616c4755-8d64-4fe3-a77e-94670a8f86ff","ios":"levelo://app?vid=616c4755-8d64-4fe3-a77e-94670a8f86ff"},"vehicle_type_id":"4","last_reported":1746284937,"current_range_meters":22800,"station_id":"ce4bhch2rcd13ifvqeug","pricing_plan_id":"cebpf4jnsgd1na2vs0mg"},{"bike_id":"82f7f190-66d9-4453-a200-72acca1a165c","system_id":"levelo_inurba_marseille","lat":43.26214,"lon":5.37448,"is_reserved":false,"is_disabled":false,"rental_uris":{"android":"levelo://app?vid=82f7f190-66d9-4453-a200-72acca1a165c","ios":"levelo://app?vid=82f7f190-66d9-4453-a200-72acca1a165c"},"vehicle_type_id":"4","last_reported":1746284937,"current_range_meters":22800,"station_id":"ce4bhgp2rcd13ifvqfc0","pricing_plan_id":"cebpf4jnsgd1na2vs0mg"},{"bike_id":"e0cf9f55-40fe-4e64-a2a7-e9c1dfa94d38","system_id":"levelo_inurba_marseille","lat":43.30961,"lon":5.39038,"is_reserved":false,"is_disabled":true,"rental_uris":{"android":"levelo://app?vid=e0cf9f55-40fe-4e64-a2a7-e9c1dfa94d38","ios":"levelo://app?vid=e0cf9f55-40fe-4e64-a2a7-e9c1dfa94d38"},"vehicle_type_id":"4","last_reported":1746284937,"current_range_meters":23200,"station_id":"ce4bgup2rcd13ifvqco0","pricing_plan_id":"cebpf4jnsgd1na2vs0mg"},{"bike_id":"d134e7da-67d1-4ead-b80d-45c6240ecf4d","system_id":"levelo_inurba_marseille","lat":43.2397,"lon":5.36637,"is_reserved":false,"is_disabled":false,"rental_uris":{"android":"levelo://app?vid=d134e7da-67d1-4ead-b80d-45c6240ecf4d","ios":"levelo://app?vid=d134e7da-67d1-4ead-b80d-45c6240ecf4d"},"vehicle_type_id":"4","last_reported":1746284937,"current_range_meters":22800,"station_id":"ce4bhi12rcd13ifvqfp0","pricing_plan_id":"cebpf4jnsgd1na2vs0mg"},{"bike_id":"b75e3c25-4180-45cb-ab53-852b8b613ff4","system_id":"levelo_inurba_marseille","lat":43.29898,"lon":5.43656,"is_reserved":false,"is_disabled":false,"rental_uris":{"android":"levelo://app?vid=b75e3c25-4180-45cb-ab53-852b8b613ff4","ios":"levelo://app?vid=b75e3c25-4180-45cb-ab53-852b8b613ff4"},"vehicle_type_id":"4","last_reported":1746284937,"current_range_meters":23200,"station_id":"ce4bhpp2rcd13ifvqhfg","pricing_plan_id":"cebpf4jnsgd1na2vs0mg"},{"bike_id":"fa039a04-d770-4559-a8e9-94351309aac0","system_id":"levelo_inurba_marseille","lat":43.28431,"lon":5.34987,"is_reserved":false,"is_disabled":false,"rental_uris":{"android":"levelo://app?vid=fa039a04-d770-4559-a8e9-94351309aac0","ios":"levelo://app?vid=fa039a04-d770-4559-a8e9-94351309aac0"},"vehicle_type_id":"4","last_reported":1746284937,"current_range_meters":23200,"station_id":"ce4bhbh2rcd13ifvqepg","pricing_plan_id":"cebpf4jnsgd1na2vs0mg"},{"bike_id":"19d702cc-0b06-4f4d-b787-6708e1e4452d","system_id":"levelo_inurba_marseille","lat":43.23202,"lon":5.35548,"is_reserved":false,"is_disabled":false,"rental_uris":{"android":"levelo://app?vid=19d702cc-0b06-4f4d-b787-6708e1e4452d","ios":"levelo://app?vid=19d702cc-0b06-4f4d-b787-6708e1e4452d"},"vehicle_type_id":"4","last_reported":1746284937,"current_range_meters":23200,"station_id":"ce4bhu92rcd13ifvqi70","pricing_plan_id":"cebpf4jnsgd1na2vs0mg"},{"bike_id":"c9821e15-4a8f-456e-af37-89555211421c","system_id":"levelo_inurba_marseille","lat":43.2318,"lon":5.39986,"is_reserved":false,"is_disabled":false,"rental_uris":{"android":"levelo://app?vid=c9821e15-4a8f-456e-af37-89555211421c","ios":"levelo://app?vid=c9821e15-4a8f-456e-af37-89555211421c"},"vehicle_type_id":"4","last_reported":1746284937,"current_range_meters":24000,"station_id":"ce4bhn12rcd13ifvqgqg","pricing_plan_id":"cebpf4jnsgd1na2vs0mg"},{"bike_id":"349734b2-bd5d-40c3-83d7-80e31cac8a6f","system_id":"levelo_inurba_marseille","lat":43.296279,"lon":5.3772,"is_reserved":false,"is_disabled":false,"rental_uris":{"android":"levelo://app?vid=349734b2-bd5d-40c3-83d7-80e31cac8a6f","ios":"levelo://app?vid=349734b2-bd5d-40c3-83d7-80e31cac8a6f"},