{"last_updated":1742152007,"ttl":60,"version":"2.2","data":{"bikes":[{"bike_id":"c23625f1-66a1-4af9-989e-a25ff87e90eb","system_id":"levelo_inurba_marseille","lat":43.23185,"lon":5.39991,"is_reserved":false,"is_disabled":false,"rental_uris":{"android":"levelo://app?vid=c23625f1-66a1-4af9-989e-a25ff87e90eb","ios":"levelo://app?vid=c23625f1-66a1-4af9-989e-a25ff87e90eb"},"vehicle_type_id":"4","last_reported":1742152007,"current_range_meters":2800,"station_id":"ce4bhn12rcd13ifvqgqg","pricing_plan_id":"cebpf4jnsgd1na2vs0mg"},{"bike_id":"88c2ec9c-c2ee-474d-a6aa-dbb7a53fc0ca","system_id":"levelo_inurba_marseille","lat":43.24203,"lon":5.39734,"is_reserved":false,"is_disabled":true,"rental_uris":{"android":"levelo://app?vid=88c2ec9c-c2ee-474d-a6aa-dbb7a53fc0ca","ios":"levelo://app?vid=88c2ec9c-c2ee-474d-a6aa-dbb7a53fc0ca"},"vehicle_type_id":"4","last_reported":1742152007,"current_range_meters":2800,"station_id":"ce4bhn12rcd13ifvqgpg","pricing_plan_id":"cebpf4jnsgd1na2vs0mg"},{"bike_id":"a1712832-b1a0-4d0c-be03-16184430a885","system_id":"levelo_inurba_marseille","lat":43.29025,"lon":5.38155,"is_reserved":false,"is_disabled":true,"rental_uris":{"android":"levelo://app?vid=a1712832-b1a0-4d0c-be03-16184430a885","ios":"levelo://app?vid=a1712832-b1a0-4d0c-be03-16184430a885"},"vehicle_type_id":"4","last_reported":1742152007,"current_range_meters":2800,"station_id":"ce4bh4p2rcd13ifvqe1g","pricing_plan_id":"cebpf4jnsgd1na2vs0mg"},{"bike_id":"c1064a1c-5f17-4c65-bcf5-59e6f21db71a","system_id":"levelo_inurba_marseille","lat":43.2903,"lon":5.38636,"is_reserved":false,"is_disabled":false,"rental_uris":{"android":"levelo://app?vid=c1064a1c-5f17-4c65-bcf5-59e6f21db71a","ios":"levelo://app?vid=c1064a1c-5f17-4c65-bcf5-59e6f21db71a"},"vehicle_type_id":"4","last_reported":1742152007,"current_range_meters":2800,"station_id":"ce4bh4p2rcd13ifvqe0g","pricing_plan_id":"cebpf4jnsgd1na2vs0mg"},{"bike_id":"6d4df12d-01d2-40f2-9daf-f5d65382b96d","system_id":"levelo_inurba_marseille","lat":43.25727,"lon":5.4111,"is_reserved":false,"is_disabled":false,"rental_uris":{"android":"levelo://app?vid=6d4df12d-01d2-40f2-9daf-f5d65382b96d","ios":"levelo://app?vid=6d4df12d-01d2-40f2-9daf-f5d65382b96d"},"vehicle_type_id":"4","last_reported":1742152007,"current_range_meters":2800,"station_id":"ce4bhkp2rcd13ifvqgd0","pricing_plan_id":"cebpf4jnsgd1na2vs0mg"},{"bike_id":"d9c3d499-57ab-4834-a325-5e83b28028ea","system_id":"levelo_inurba_marseille","lat":43.30307,"lon":5.40441,"is_reserved":false,"is_disabled":false,"rental_uris":{"android":"levelo://app?vid=d9c3d499-57ab-4834-a325-5e83b28028ea","ios":"levelo://app?vid=d9c3d499-57ab-4834-a325-5e83b28028ea"},"vehicle_type_id":"4","last_reported":1742152007,"current_range_meters":2800,"station_id":"ce4bh012rcd13ifvqd10","pricing_plan_id":"cebpf4jnsgd1na2vs0mg"},{"bike_id":"a0319d13-debf-425a-a0f2-19da83f666da","system_id":"levelo_inurba_marseille","lat":43.28461,"lon":5.35894,"is_reserved":false,"is_disabled":false,"rental_uris":{"android":"levelo://app?vid=a0319d13-debf-425a-a0f2-19da83f666da","ios":"levelo://app?vid=a0319d13-debf-425a-a0f2-19da83f666da"},"vehicle_type_id":"4","last_reported":1742152007,"current_range_meters":2800,"station_id":"ce4bhah2rcd13ifvqei0","pricing_plan_id":"cebpf4jnsgd1na2vs0mg"},{"bike_id":"1692956e-5eeb-4389-a5e7-6976073b2cf9","system_id":"levelo_inurba_marseille","lat":43.30144,"lon":5.3807,"is_reserved":false,"is_disabled":false,"rental_uris":{"android":"levelo://app?vid=1692956e-5eeb-4389-a5e7-6976073b2cf9","ios":"levelo://app?vid=1692956e-5eeb-4389-a5e7-6976073b2cf9"},"vehicle_type_id":"4","last_reported":1742152007,"current_range_meters":2800,"station_id":"ce4bgjp2rcd13ifvqbh0","pricing_plan_id":"cebpf4jnsgd1na2vs0mg"},{"bike_id":"1925fc67-309c-4e04-9ae3-5408830e0c69","system_id":"levelo_inurba_marseille","lat":43.27989,"lon":5.40023,"is_reserved":false,"is_disabled":true,"rental_uris":{"android":"levelo://app?vid=1925fc67-309c-4e04-9ae3-5408830e0c69","ios":"levelo://app?vid=1925fc67-309c-4e04-9ae3-5408830e0c69"},"vehicle_type_id":"4","last_reported":1742152007,"current_range_meters":3200,"station_id":"ce4bho92rcd13ifvqh4g","pricing_plan_id":"cebpf4jnsgd1na2vs0mg"},{"bike_id":"78df2a8b-d3e8-4a72-a53d-8e73e88d719e","system_id":"levelo_inurba_marseille","lat":43.29031,"lon":5.37568,"is_reserved":false,"is_disabled":false,"rental_uris":{"android":"levelo://app?vid=78df2a8b-d3e8-4a72-a53d-8e73e88d719e","ios":"levelo://app?vid=78df2a8b-d3e8-4a72-a53d-8e73e88d719e"},"vehicle_type_id":"4","last_reported":1742152007,"current_range_meters":3200,"station_id":"ce4bh692rcd13ifvqe90","pricing_plan_id":"cebpf4jnsgd1na2vs0mg"},{"bike_id":"08fbf4c3-d024-4248-8e95-d5d510837b3c","system_id":"levelo_inurba_marseille","lat":43.29055,"lon":5.38691,"is_reserved":false,"is_disabled":false,"rental_uris":{"android":"levelo://app?vid=08fbf4c3-d024-4248-8e95-d5d510837b3c","ios":"levelo://app?vid=08fbf4c3-d024-4248-8e95-d5d510837b3c"},"vehicle_type_id":"4","last_reported":1742152007,"current_range_meters":3600,"station_id":"ce4bh4p2rcd13ifvqe0g","pricing_plan_id":"cebpf4jnsgd1na2vs0mg"},{"bike_id":"12349ae3-7409-45c1-bc76-a9002585bdeb","system_id":"levelo_inurba_marseille","lat":43.24083,"lon":5.37709,"is_reserved":false,"is_disabled":false,"rental_uris":{"android":"levelo://app?vid=12349ae3-7409-45c1-bc76-a9002585bdeb","ios":"levelo://app?vid=12349ae3-7409-45c1-bc76-a9002585bdeb"},"vehicle_type_id":"4","last_reported":1742152007,"current_range_meters":3600,"station_id":"ce4bhnp2rcd13ifvqgvg","pricing_plan_id":"cebpf4jnsgd1na2vs0mg"},{"bike_id":"76b415aa-d90d-4b4c-9954-2e46fdae4260","system_id":"levelo_inurba_marseille","lat":43.29006,"lon":5.35595,"is_reserved":false,"is_disabled":true,"rental_uris":{"android":"levelo://app?vid=76b415aa-d90d-4b4c-9954-2e46fdae4260","ios":"levelo://app?vid=76b415aa-d90d-4b4c-9954-2e46fdae4260"},"vehicle_type_id":"4","last_reported":1742152007,"current_range_meters":4000,"station_id":"ce4bhb92rcd13ifvqen0","pricing_plan_id":"cebpf4jnsgd1na2vs0mg"},{"bike_id":"21cfacd0-8fc8-454a-8a3f-d36bcdb61b05","system_id":"levelo_inurba_marseille","lat":43.27963,"lon":5.38718,"is_reserved":false,"is_disabled":true,"rental_uris":{"android":"levelo://app?vid=21cfacd0-8fc8-454a-8a3f-d36bcdb61b05","ios":"levelo://app?vid=21cfacd0-8fc8-454a-8a3f-d36bcdb61b05"},"vehicle_type_id":"4","last_reported":1742152007,"current_range_meters":4000,"station_id":"ce4bhg12rcd13ifvqf80","pricing_plan_id":"cebpf4jnsgd1na2vs0mg"},{"bike_id":"2ce773c7-7fdb-43a6-894e-fefb7fd94fce","system_id":"levelo_inurba_marseille","lat":43.26535,"lon":5.373,"is_reserved":false,"is_disabled":false,"rental_uris":{"android":"levelo://app?vid=2ce773c7-7fdb-43a6-894e-fefb7fd94fce","ios":"levelo://app?vid=2ce773c7-7fdb-43a6-894e-fefb7fd94fce"},"vehicle_type_id":"4","last_reported":1742152007,"current_range_meters":4000,"station_id":"ce4bhg12rcd13ifvqf70","pricing_plan_id":"cebpf4jnsgd1na2vs0mg"},{"bike_id":"0efd54ff-a83e-4d8c-be71-53d94f45fe35","system_id":"levelo_inurba_marseille","lat":43.27986,"lon":5.38749,"is_reserved":false,"is_disabled":false,"rental_uris":{"android":"levelo://app?vid=0efd54ff-a83e-4d8c-be71-53d94f45fe35","ios":"levelo://app?vid=0efd54ff-a83e-4d8c-be71-53d94f45fe35"},"vehicle_type_id":"4","last_reported":1742152007,"current_range_meters":4000,"station_id":"ce4bhg12rcd13ifvqf80","pricing_plan_id":"cebpf4jnsgd1na2vs0mg"},{"bike_id":"bf1dcd3f-6c6c-4132-bd89-dd7a93f1f7a4","system_id":"levelo_inurba_marseille","lat":43.26811,"lon":5.40254,"is_reserved":false,"is_disabled":false,"rental_uris":{"android":"levelo://app?vid=bf1dcd3f-6c6c-4132-bd89-dd7a93f1f7a4","ios":"levelo://app?vid=bf1dcd3f-6c6c-4132-bd89-dd7a93f1f7a4"},"vehicle_type_id":"4","last_reported":1742152007,"current_range_meters":4000,"station_id":"ce501612rcd8frsf0b60","pricing_plan_id":"cebpf4jnsgd1na2vs0mg"},{"bike_id":"ac4c6b9f-b70a-4b12-a8df-281d5969ecfe","system_id":"levelo_inurba_marseille","lat":43.27975,"lon":5.38737,"is_reserved":false,"is_disabled":false,"rental_uris":{"android":"levelo://app?vid=ac4c6b9f-b70a-4b12-a8df-281d5969ecfe","ios":"levelo://app?vid=ac4c6b9f-b70a-4b12-a8df-281d5969ecfe"},"vehicle_type_id":"4","last_reported":1742152007,"current_range_meters":4000,"station_id":"ce4bhg12rcd13ifvqf80","pricing_plan_id":"cebpf4jnsgd1na2vs0mg"},{"bike_id":"b1e8455b-29f3-4194-a488-e4069bbb43db","system_id":"levelo_inurba_marseille","lat":43.25101,"lon":5.39495,"is_reserved":false,"is_disabled":false,"rental_uris":{"android":"levelo://app?vid=b1e8455b-29f3-4194-a488-e4069bbb43db","ios":"levelo://app?vid=b1e8455b-29f3-4194-a488-e4069bbb43db"},"vehicle_type_id":"4","last_reported":1742152007,"current_range_meters":4000,"station_id":"ce4bhm12rcd13ifvqgkg","pricing_plan_id":"cebpf4jnsgd1na2vs0mg"},{"bike_id":"48906ba6-a08b-4c5e-9745-d556b40270a7","system_id":"levelo_inurba_marseille","lat":43.30774,"lon":5.37669,"is_reserved":false,"is_disabled":false,"rental_uris":{"android":"levelo://app?vid=48906ba6-a08b-4c5e-9745-d556b40270a7","ios":"levelo://app?vid=48906ba6-a08b-4c5e-9745-d556b40270a7"},"vehicle_type_id":"4","last_reported":1742152007,"current_range_meters":3600,"station_id":"ce4bgv92rcd13ifvqcq0","pricing_plan_id":"cebpf4jnsgd1na2vs0mg"},{"bike_id":"b061c918-419f-4d25-a135-285b2fa50124","system_id":"levelo_inurba_marseille","lat":43.30876,"lon":5.39661,"is_reserved":false,"is_disabled":false,"rental_uris":{"android":"levelo://app?vid=b061c918-419f-4d25-a135-285b2fa50124","ios":"levelo://app?vid=b061c918-419f-4d25-a135-285b2fa50124"},"vehicle_type_id":"4","last_reported":1742152007,"current_range_meters":4000,"station_id":"ce4bh012rcd13ifvqcv0","pricing_plan_id":"cebpf4jnsgd1na2vs0mg"},{"bike_id":"c1396c92-a760-46d9-b52f-7e6b680712af","system_id":"levelo_inurba_marseille","lat":43.29003,"lon":5.38137,"is_reserved":false,"is_disabled":false,"rental_uris":{"android":"levelo://app?vid=c1396c92-a760-46d9-b52f-7e6b680712af","ios":"levelo://app?vid=c1396c92-a760-46d9-b52f-7e6b680712af"},"vehicle_type_id":"4","last_reported":1742152007,"current_range_meters":4000,"station_id":"ce4bh4p2rcd13ifvqe1g","pricing_plan_id":"cebpf4jnsgd1na2vs0mg"},{"bike_id":"832d4ee6-23fb-4c75-9bc5-6a2d919c8c55","system_id":"levelo_inurba_marseille","lat":43.25962,"lon":5.40903,"is_reserved":false,"is_disabled":false,"rental_uris":{"android":"levelo://app?vid=832d4ee6-23fb-4c75-9bc5-6a2d919c8c55","ios":"levelo://app?vid=832d4ee6-23fb-4c75-9bc5-6a2d919c8c55"},"vehicle_type_id":"4","last_reported":1742152007,"current_range_meters":4000,"station_id":"ce4bhm92rcd13ifvqglg","pricing_plan_id":"cebpf4jnsgd1na2vs0mg"},{"bike_id":"df2b901b-763c-4235-96f8-c6d2b0994571","system_id":"levelo_inurba_marseille","lat":43.28723,"lon":5.36109,"is_reserved":false,"is_disabled":false,"rental_uris":{"android":"levelo://app?vid=df2b901b-763c-4235-96f8-c6d2b0994571","ios":"levelo://app?vid=df2b901b-763c-4235-96f8-c6d2b0994571"},"vehicle_type_id":"4","last_reported":1742152007,"current_range_meters":4400,"station_id":"cki0cbj6b192h4jlfktg","pricing_plan_id":"cebpf4jnsgd1na2vs0mg"},{"bike_id":"aa795381-5174-4265-abe3-ddbff84516c8","system_id":"levelo_inurba_marseille","lat":43.30159,"lon":5.37422,"is_reserved":false,"is_disabled":true,"rental_uris":{"android":"levelo://app?vid=aa795381-5174-4265-abe3-ddbff84516c8","ios":"levelo://app?vid=aa795381-5174-4265-abe3-ddbff84516c8"},"vehicle_type_id":"4","last_reported":1742152007,"current_range_meters":4400,"station_id":"ce4bgs92rcd13ifvqcc0","pricing_plan_id":"cebpf4jnsgd1na2vs0mg"},{"bike_id":"bdb4bfb1-14a4-46ff-b216-5b3cb0ddf95f","system_id":"levelo_inurba_marseille","lat":43.29578,"lon":5.39971,"is_reserved":false,"is_disabled":true,"rental_uris":{"android":"levelo://app?vid=bdb4bfb1-14a4-46ff-b216-5b3cb0ddf95f","ios":"levelo://app?vid=bdb4bfb1-14a4-46ff-b216-5b3cb0ddf95f"},"vehicle_type_id":"4","last_reported":1742152007,"current_range_meters":4400,"station_id":"ce4bh312rcd13ifvqdj0","pricing_plan_id":"cebpf4jnsgd1na2vs0mg"},{"bike_id":"edd2fa11-7b39-430e-a40a-042abf7a2557","system_id":"levelo_inurba_marseille","lat":43.31337,"lon":5.39702,"is_reserved":false,"is_disabled":false,"rental_uris":{"android":"levelo://app?vid=edd2fa11-7b39-430e-a40a-042abf7a2557","ios":"levelo://app?vid=edd2fa11-7b39-430e-a40a-042abf7a2557"},"vehicle_type_id":"4","last_reported":1742152007,"current_range_meters":4400,"station_id":"ce4bgvp2rcd13ifvqcu0","pricing_plan_id":"cebpf4jnsgd1na2vs0mg"},{"bike_id":"8ca1ec8b-b275-4c52-b06d-62edf3419828","system_id":"levelo_inurba_marseille","lat":43.30321,"lon":5.36912,"is_reserved":false,"is_disabled":false,"rental_uris":{"android":"levelo://app?vid=8ca1ec8b-b275-4c52-b06d-62edf3419828","ios":"levelo://app?vid=8ca1ec8b-b275-4c52-b06d-62edf3419828"},"vehicle_type_id":"4","last_reported":1742152007,"current_range_meters":4400,"station_id":"ce4bgqh2rcd13ifvqc5g","pricing_plan_id":"cebpf4jnsgd1na2vs0mg"},{"bike_id":"385ae15c-2c3c-4490-a507-5eb20fb883a5","system_id":"levelo_inurba_marseille","lat":43.25939,"lon":5.40902,"is_reserved":false,"is_disabled":false,"rental_uris":{"android":"levelo://app?vid=385ae15c-2c3c-4490-a507-5eb20fb883a5","ios":"levelo://app?vid=385ae15c-2c3c-4490-a507-5eb20fb883a5"},"vehicle_type_id":"4","last_reported":1742152007,"current_range_meters":4400,"station_id":"ce4bhm92rcd13ifvqglg","pricing_plan_id":"cebpf4jnsgd1na2vs0mg"},{"bike_id":"6f143c5b-933e-4a51-97d8-72a3705988b8","system_id":"levelo_inurba_marseille","lat":43.32234,"lon":5.37956,"is_reserved":false,"is_disabled":false,"rental_uris":{"android":"levelo://app?vid=6f143c5b-933e-4a51-97d8-72a3705988b8","ios":"levelo://app?vid=6f143c5b-933e-4a51-97d8-72a3705988b8"},"vehicle_type_id":"4","last_reported":1742152007,"current_range_meters":4400,"station_id":"","pricing_plan_id":"cebpf4jnsgd1na2vs0mg"},{"bike_id":"136c2305-f294-46ee-b98a-0d1ee3e07d76","system_id":"levelo_inurba_marseille","lat":43.26193,"lon":5.37513,"is_reserved":false,"is_disabled":false,"rental_uris":{"android":"levelo://app?vid=136c2305-f294-46ee-b98a-0d1ee3e07d76","ios":"levelo://app?vid=136c2305-f294-46ee-b98a-0d1ee3e07d76"},"vehicle_type_id":"4","last_reported":1742152007,"current_range_meters":4800,"station_id":"ce4bhgp2rcd13ifvqfc0","pricing_plan_id":"cebpf4jnsgd1na2vs0mg"},{"bike_id":"a51e83ee-53b4-4965-b5bb-694ae883e860","system_id":"levelo_inurba_marseille","lat":43.26203,"lon":5.37448,"is_reserved":false,"is_disabled":true,"rental_uris":{"android":"levelo://app?vid=a51e83ee-53b4-4965-b5bb-694ae883e860","ios":"levelo://app?vid=a51e83ee-53b4-4965-b5bb-694ae883e860"},"vehicle_type_id":"4","last_reported":1742152007,"current_range_meters":4800,"station_id":"ce4bhgp2rcd13ifvqfc0","pricing_plan_id":"cebpf4jnsgd1na2vs0mg"},{"bike_id":"fba612fa-703b-4deb-b5ed-b7208aac552c","system_id":"levelo_inurba_marseille","lat":43.30886,"lon":5.37185,"is_reserved":false,"is_disabled":false,"rental_uris":{"android":"levelo://app?vid=fba612fa-703b-4deb-b5ed-b7208aac552c","ios":"levelo://app?vid=fba612fa-703b-4deb-b5ed-b7208aac552c"},"vehicle_type_id":"4","last_reported":1742152007,"current_range_meters":4800,"station_id":"ce4bguh2rcd13ifvqckg","pricing_plan_id":"cebpf4jnsgd1na2vs0mg"},{"bike_id":"43cc4cbe-b4e9-43c7-b7df-3921c563db2e","system_id":"levelo_inurba_marseille","lat":43.27379,"lon":5.3625,"is_reserved":false,"is_disabled":false,"rental_uris":{"android":"levelo://app?vid=43cc4cbe-b4e9-43c7-b7df-3921c563db2e","ios":"levelo://app?vid=43cc4cbe-b4e9-43c7-b7df-3921c563db2e"},"vehicle_type_id":"4","last_reported":1742152007,"current_range_meters":4800,"station_id":"ce4bhbh2rcd13ifvqeo0","pricing_plan_id":"cebpf4jnsgd1na2vs0mg"},{"bike_id":"22f1ff18-0132-4946-a97a-a47e6f70a6ed","system_id":"levelo_inurba_marseille","lat":43.22921,"lon":5.35402,"is_reserved":false,"is_disabled":false,"rental_uris":{"android":"levelo://app?vid=22f1ff18-0132-4946-a97a-a47e6f70a6ed","ios":"levelo://app?vid=22f1ff18-0132-4946-a97a-a47e6f70a6ed"},"vehicle_type_id":"4","last_reported":1742152007,"current_range_meters":4800,"station_id":"cpo3532slgdg3j2ikp40","pricing_plan_id":"cebpf4jnsgd1na2vs0mg"},{"bike_id":"de58dd31-693f-47f2-989e-fb410b10fcad","system_id":"levelo_inurba_marseille","lat":43.23192,"lon":5.39989,"is_reserved":false,"is_disabled":false,"rental_uris":{"android":"levelo://app?vid=de58dd31-693f-47f2-989e-fb410b10fcad","ios":"levelo://app?vid=de58dd31-693f-47f2-989e-fb410b10fcad"},"vehicle_type_id":"4","last_reported":1742152007,"current_range_meters":4800,"station_id":"ce4bhn12rcd13ifvqgqg","pricing_plan_id":"cebpf4jnsgd1na2vs0mg"},{"bike_id":"1999cecf-f38c-4961-9580-ef6a50d3e0be","system_id":"levelo_inurba_marseille","lat":43.24175,"lon":5.36415,"is_reserved":false,"is_disabled":false,"rental_uris":{"android":"levelo://app?vid=1999cecf-f38c-4961-9580-ef6a50d3e0be","ios":"levelo://app?vid=1999cecf-f38c-4961-9580-ef6a50d3e0be"},"vehicle_type_id":"4","last_reported":1742152007,"current_range_meters":4800,"station_id":"cpo36qri1sfpv3e86is0","pricing_plan_id":"cebpf4jnsgd1na2vs0mg"},{"bike_id":"34456623-a67f-4e4a-842b-533cd6e33517","system_id":"levelo_inurba_marseille","lat":43.27613,"lon":5.36122,"is_reserved":false,"is_disabled":false,"rental_uris":{"android":"levelo://app?vid=34456623-a67f-4e4a-842b-533cd6e33517","ios":"levelo://app?vid=34456623-a67f-4e4a-842b-533cd6e33517"},"vehicle_type_id":"4","last_reported":1742152007,"current_range_meters":4800,"station_id":"ce4bgj92rcd13ifvqbe0","pricing_plan_id":"cebpf4jnsgd1na2vs0mg"},{"bike_id":"bcdf70d1-98e2-46b2-86dd-446d83cd787c","system_id":"levelo_inurba_marseille","lat":43.26597,"lon":5.39012,"is_reserved":false,"is_disabled":false,"rental_uris":{"android":"levelo://app?vid=bcdf70d1-98e2-46b2-86dd-446d83cd787c","ios":"levelo://app?vid=bcdf70d1-98e2-46b2-86dd-446d83cd787c"},"vehicle_type_id":"4","last_reported":1742152007,"current_range_meters":4800,"station_id":"ce4bhe12rcd13ifvqf30","pricing_plan_id":"cebpf4jnsgd1na2vs0mg"},{"bike_id":"711df673-acdd-472b-9c3b-d7a4d7e3adaa","system_id":"levelo_inurba_marseille","lat":43.29973,"lon":5.37178,"is_reserved":false,"is_disabled":false,"rental_uris":{"android":"levelo://app?vid=711df673-acdd-472b-9c3b-d7a4d7e3adaa","ios":"levelo://app?vid=711df673-acdd-472b-9c3b-d7a4d7e3adaa"},"vehicle_type_id":"4","last_reported":1742152007,"current_range_meters":4400,"station_id":"ce4bgr92rcd13ifvqc7g","pricing_plan_id":"cebpf4jnsgd1na2vs0mg"},{"bike_id":"93b25774-360c-4172-8115-c211c035424b","system_id":"levelo_inurba_marseille","lat":43.292823,"lon":5.401233,"is_reserved":false,"is_disabled":false,"rental_uris":{"android":"levelo://app?vid=93b25774-360c-4172-8115-c211c035424b","ios":"levelo://app?vid=93b25774-360c-4172-8115-c211c035424b"},"vehicle_type_id":"4","last_reported":1742152007,"current_range_meters":5600,"station_id":"ce4bh312rcd13ifvqdk0","pricing_plan_id":"cebpf4jnsgd1na2vs0mg"},{"bike_id":"e82aa7a0-ceb0-4ca6-ba80-1c125c8501d9","system_id":"levelo_inurba_marseille","lat":43.26937,"lon":5.40268,"is_reserved":false,"is_disabled":false,"rental_uris":{"android":"levelo://app?vid=e82aa7a0-ceb0-4ca6-ba80-1c125c8501d9","ios":"levelo://app?vid=e82aa7a0-ceb0-4ca6-ba80-1c125c8501d9"},"vehicle_type_id":"4","last_reported":1742152007,"current_range_meters":5600,"station_id":"cjm6bp8fraef2m0cb0m0","pricing_plan_id":"cebpf4jnsgd1na2vs0mg"},{"bike_id":"b7032d54-acb2-4146-a727-5663dbeb4009","system_id":"levelo_inurba_marseille","lat":43.23191,"lon":5.3997,"is_reserved":false,"is_disabled":false,"rental_uris":{"android":"levelo://app?vid=b7032d54-acb2-4146-a727-5663dbeb4009","ios":"levelo://app?vid=b7032d54-acb2-4146-a727-5663dbeb4009"},"vehicle_type_id":"4","last_reported":1742152007,"current_range_meters":5600,"station_id":"ce4bhn12rcd13ifvqgqg","pricing_plan_id":"cebpf4jnsgd1na2vs0mg"},{"bike_id":"af19e5ab-648e-4ff9-a7c2-e941df9f2b56","system_id":"levelo_inurba_marseille","lat":43.29871,"lon":5.39744,"is_reserved":false,"is_disabled":false,"rental_uris":{"android":"levelo://app?vid=af19e5ab-648e-4ff9-a7c2-e941df9f2b56","ios":"levelo://app?vid=af19e5ab-648e-4ff9-a7c2-e941df9f2b56"},"vehicle_type_id":"4","last_reported":1742152007,"current_range_meters":5600,"station_id":"ce4bh0h2rcd13ifvqd50","pricing_plan_id":"cebpf4jnsgd1na2vs0mg"},{"bike_id":"b0ac9ee5-4130-43ee-a296-9de3e9867b99","system_id":"levelo_inurba_marseille","lat":43.30215,"lon":5.39462,"is_reserved":false,"is_disabled":false,"rental_uris":{"android":"levelo://app?vid=b0ac9ee5-4130-43ee-a296-9de3e9867b99","ios":"levelo://app?vid=b0ac9ee5-4130-43ee-a296-9de3e9867b99"},"vehicle_type_id":"4","last_reported":1742152007,"current_range_meters":5600,"station_id":"ce4bh0p2rcd13ifvqd70","pricing_plan_id":"cebpf4jnsgd1na2vs0mg"},{"bike_id":"37926ab0-69be-46e6-b16f-c5d780830775","system_id":"levelo_inurba_marseille","lat":43.3102,"lon":5.37735,"is_reserved":false,"is_disabled":false,"rental_uris":{"android":"levelo://app?vid=37926ab0-69be-46e6-b16f-c5d780830775","ios":"levelo://app?vid=37926ab0-69be-46e6-b16f-c5d780830775"},"vehicle_type_id":"4","last_reported":1742152007,"current_range_meters":5600,"station_id":"","pricing_plan_id":"cebpf4jnsgd1na2vs0mg"},{"bike_id":"d4e24dda-99f4-4115-8c9a-9ba00b9c9f3c","system_id":"levelo_inurba_marseille","lat":43.31138,"lon":5.37768,"is_reserved":false,"is_disabled":false,"rental_uris":{"android":"levelo://app?vid=d4e24dda-99f4-4115-8c9a-9ba00b9c9f3c","ios":"levelo://app?vid=d4e24dda-99f4-4115-8c9a-9ba00b9c9f3c"},"vehicle_type_id":"4","last_reported":1742152007,"current_range_meters":5600,"station_id":"ce4bgt92rcd13ifvqcg0","pricing_plan_id":"cebpf4jnsgd1na2vs0mg"},{"bike_id":"8ac36ff0-95fa-4664-8e37-a03afd0a16e1","system_id":"levelo_inurba_marseille","lat":43.28978,"lon":5.37831,"is_reserved":false,"is_disabled":true,"rental_uris":{"android":"levelo://app?vid=8ac36ff0-95fa-4664-8e37-a03afd0a16e1","ios":"levelo://app?vid=8ac36ff0-95fa-4664-8e37-a03afd0a16e1"},"vehicle_type_id":"4","last_reported":1742152007,"current_range_meters":5600,"station_id":"","pricing_plan_id":"cebpf4jnsgd1na2vs0mg"},{"bike_id":"e0834956-e6d7-4bc3-862d-e76e3f887cbb","system_id":"levelo_inurba_marseille","lat":43.230654,"lon":5.35491,"is_reserved":false,"is_disabled":false,"rental_uris":{"android":"levelo://app?vid=e0834956-e6d7-4bc3-862d-e76e3f887cbb","ios":"levelo://app?vid=e0834956-e6d7-4bc3-862d-e76e3f887cbb"},"vehicle_type_id":"4","last_reported":1742152007,"current_range_meters":5600,"station_id":"cpo3342slgdg3j2ifvpg","pricing_plan_id":"cebpf4jnsgd1na2vs0mg"},{"bike_id":"1ac0ebad-6828-4242-99b2-14a9f8209f79","system_id":"levelo_inurba_marseille","lat":43.23211,"lon":5.3554,"is_reserved":false,"is_disabled":false,"rental_uris":{"android":"levelo://app?vid=1ac0ebad-6828-4242-99b2-14a9f8209f79","ios":"levelo://app?vid=1ac0ebad-6828-4242-99b2-14a9f8209f79"},"vehicle_type_id":"4","last_reported":1742152007,"current_range_meters":6000,"station_id":"ce4bhu92rcd13ifvqi70","pricing_plan_id":"cebpf4jnsgd1na2vs0mg"},{"bike_id":"d9963252-f527-4148-b1d4-4971fe625c84","system_id":"levelo_inurba_marseille","lat":43.28445,"lon":5.39205,"is_reserved":false,"is_disabled":false,"rental_uris":{"android":"levelo://app?vid=d9963252-f527-4148-b1d4-4971fe625c84","ios":"levelo://app?vid=d9963252-f527-4148-b1d4-4971fe625c84"},"vehicle_type_id":"4","last_reported":1742152007,"current_range_meters":6000,"station_id":"ce4bhoh2rcd13ifvqh5g","pricing_plan_id":"cebpf4jnsgd1na2vs0mg"},{"bike_id":"b614f100-11d7-4ef9-8f84-7c5dea0b786b","system_id":"levelo_inurba_marseille","lat":43.26942,"lon":5.40298,"is_reserved":false,"is_disabled":false,"rental_uris":{"android":"levelo://app?vid=b614f100-11d7-4ef9-8f84-7c5dea0b786b","ios":"levelo://app?vid=b614f100-11d7-4ef9-8f84-7c5dea0b786b"},"vehicle_type_id":"4","last_reported":1742152007,"current_range_meters":6000,"station_id":"cjm6bp8fraef2m0cb0m0","pricing_plan_id":"cebpf4jnsgd1na2vs0mg"},{"bike_id":"d31b58bf-4a58-45ea-a8ad-fca35a061583","system_id":"levelo_inurba_marseille","lat":43.29033,"lon":5.37833,"is_reserved":false,"is_disabled":false,"rental_uris":{"android":"levelo://app?vid=d31b58bf-4a58-45ea-a8ad-fca35a061583","ios":"levelo://app?vid=d31b58bf-4a58-45ea-a8ad-fca35a061583"},"vehicle_type_id":"4","last_reported":1742152007,"current_range_meters":6000,"station_id":"","pricing_plan_id":"cebpf4jnsgd1na2vs0mg"},{"bike_id":"a0077075-129c-41b6-a008-934f22aa9c2b","system_id":"levelo_inurba_marseille","lat":43.26207,"lon":5.37429,"is_reserved":false,"is_disabled":true,"rental_uris":{"android":"levelo://app?vid=a0077075-129c-41b6-a008-934f22aa9c2b","ios":"levelo://app?vid=a0077075-129c-41b6-a008-934f22aa9c2b"},"vehicle_type_id":"4","last_reported":1742152007,"current_range_meters":6000,"station_id":"ce4bhgp2rcd13ifvqfc0","pricing_plan_id":"cebpf4jnsgd1na2vs0mg"},{"bike_id":"6c001d2e-b208-4ff5-a256-643169f0701b","system_id":"levelo_inurba_marseille","lat":43.23067,"lon":5.35505,"is_reserved":false,"is_disabled":false,"rental_uris":{"android":"levelo://app?vid=6c001d2e-b208-4ff5-a256-643169f0701b","ios":"levelo://app?vid=6c001d2e-b208-4ff5-a256-643169f0701b"},"vehicle_type_id":"4","last_reported":1742152007,"current_range_meters":6000,"station_id":"cpo3342slgdg3j2ifvpg","pricing_plan_id":"cebpf4jnsgd1na2vs0mg"},{"bike_id":"828a1a0a-828e-4818-b34d-0f33f2205d94","system_id":"levelo_inurba_marseille","lat":43.29372,"lon":5.37864,"is_reserved":false,"is_disabled":false,"rental_uris":{"android":"levelo://app?vid=828a1a0a-828e-4818-b34d-0f33f2205d94","ios":"levelo://app?vid=828a1a0a-828e-4818-b34d-0f33f2205d94"},"vehicle_type_id":"4","last_reported":1742152007,"current_range_meters":6400,"station_id":"ce4bgjh2rcd13ifvqbf0","pricing_plan_id":"cebpf4jnsgd1na2vs0mg"},{"bike_id":"ed653f5d-1941-42e2-91bf-d440a97e2393","system_id":"levelo_inurba_marseille","lat":43.31174,"lon":5.38647,"is_reserved":false,"is_disabled":false,"rental_uris":{"android":"levelo://app?vid=ed653f5d-1941-42e2-91bf-d440a97e2393","ios":"levelo://app?vid=ed653f5d-1941-42e2-91bf-d440a97e2393"},"vehicle_type_id":"4","last_reported":1742152007,"current_range_meters":6000,"station_id":"ce4bgv12rcd13ifvqcp0","pricing_plan_id":"cebpf4jnsgd1na2vs0mg"},{"bike_id":"26ec45d2-b991-464c-99b8-c3029ea5c960","system_id":"levelo_inurba_marseille","lat":43.28487,"lon":5.38448,"is_reserved":false,"is_disabled":true,"rental_uris":{"android":"levelo://app?vid=26ec45d2-b991-464c-99b8-c3029ea5c960","ios":"levelo://app?vid=26ec45d2-b991-464c-99b8-c3029ea5c960"},"vehicle_type_id":"4","last_reported":1742152007,"current_range_meters":6000,"station_id":"ce4bh512rcd13ifvqe3g","pricing_plan_id":"cebpf4jnsgd1na2vs0mg"},{"bike_id":"8edc5ab0-1af0-4fee-8eff-75f20f26be0a","system_id":"levelo_inurba_marseille","lat":43.2843,"lon":5.39195,"is_reserved":false,"is_disabled":false,"rental_uris":{"android":"levelo://app?vid=8edc5ab0-1af0-4fee-8eff-75f20f26be0a","ios":"levelo://app?vid=8edc5ab0-1af0-4fee-8eff-75f20f26be0a"},"vehicle_type_id":"4","last_reported":1742152007,"current_range_meters":6400,"station_id":"ce4bhoh2rcd13ifvqh5g","pricing_plan_id":"cebpf4jnsgd1na2vs0mg"},{"bike_id":"676e66c6-8e50-404c-b512-5f94c7d6a8fc","system_id":"levelo_inurba_marseille","lat":43.24168,"lon":5.36417,"is_reserved":false,"is_disabled":false,"rental_uris":{"android":"levelo://app?vid=676e66c6-8e50-404c-b512-5f94c7d6a8fc","ios":"levelo://app?vid=676e66c6-8e50-404c-b512-5f94c7d6a8fc"},"vehicle_type_id":"4","last_reported":1742152007,"current_range_meters":6400,"station_id":"cpo36qri1sfpv3e86is0","pricing_plan_id":"cebpf4jnsgd1na2vs0mg"},{"bike_id":"82465aa7-55ed-4055-9cc8-5fdee15ebdd8","system_id":"levelo_inurba_marseille","lat":43.2764,"lon":5.41896,"is_reserved":false,"is_disabled":false,"rental_uris":{"android":"levelo://app?vid=82465aa7-55ed-4055-9cc8-5fdee15ebdd8","ios":"levelo://app?vid=82465aa7-55ed-4055-9cc8-5fdee15ebdd8"},"vehicle_type_id":"4","last_reported":1742152007,"current_range_meters":6400,"station_id":"","pricing_plan_id":"cebpf4jnsgd1na2vs0mg"},{"bike_id":"457851a0-fcba-485d-9727-230994d987ce","system_id":"levelo_inurba_marseille","lat":43.29509,"lon":5.39389,"is_reserved":false,"is_disabled":true,"rental_uris":{"android":"levelo://app?vid=457851a0-fcba-485d-9727-230994d987ce","ios":"levelo://app?vid=457851a0-fcba-485d-9727-230994d987ce"},"vehicle_type_id":"4","last_reported":1742152007,"current_range_meters":6400,"station_id":"ce4bh292rcd13ifvqdf0","pricing_plan_id":"cebpf4jnsgd1na2vs0mg"},{"bike_id":"f062f120-39b9-41de-9dd5-11932050366e","system_id":"levelo_inurba_marseille","lat":43.29361,"lon":5.37853,"is_reserved":false,"is_disabled":false,"rental_uris":{"android":"levelo://app?vid=f062f120-39b9-41de-9dd5-11932050366e","ios":"levelo://app?vid=f062f120-39b9-41de-9dd5-11932050366e"},"vehicle_type_id":"4","last_reported":1742152007,"current_range_meters":6400,"station_id":"ce4bgjh2rcd13ifvqbf0","pricing_plan_id":"cebpf4jnsgd1na2vs0mg"},{"bike_id":"9616bb7d-2e2f-41e6-abd7-2b8dd38dcca7","system_id":"levelo_inurba_marseille","lat":43.24814,"lon":5.3745,"is_reserved":false,"is_disabled":false,"rental_uris":{"android":"levelo://app?vid=9616bb7d-2e2f-41e6-abd7-2b8dd38dcca7","ios":"levelo://app?vid=9616bb7d-2e2f-41e6-abd7-2b8dd38dcca7"},"vehicle_type_id":"4","last_reported":1742152007,"current_range_meters":6400,"station_id":"ce4bhgh2rcd13ifvqfb0","pricing_plan_id":"cebpf4jnsgd1na2vs0mg"},{"bike_id":"efb53dda-871b-483c-8dec-e716116f9234","system_id":"levelo_inurba_marseille","lat":43.31099,"lon":5.36794,"is_reserved":false,"is_disabled":false,"rental_uris":{"android":"levelo://app?vid=efb53dda-871b-483c-8dec-e716116f9234","ios":"levelo://app?vid=efb53dda-871b-483c-8dec-e716116f9234"},"vehicle_type_id":"4","last_reported":1742152007,"current_range_meters":6400,"station_id":"","pricing_plan_id":"cebpf4jnsgd1na2vs0mg"},{"bike_id":"219dfe59-0d27-4c1c-8cfb-b41a6052593a","system_id":"levelo_inurba_marseille","lat":43.2961,"lon":5.36761,"is_reserved":false,"is_disabled":false,"rental_uris":{"android":"levelo://app?vid=219dfe59-0d27-4c1c-8cfb-b41a6052593a","ios":"levelo://app?vid=219dfe59-0d27-4c1c-8cfb-b41a6052593a"},"vehicle_type_id":"4","last_reported":1742152007,"current_range_meters":6400,"station_id":"ce4bgph2rcd13ifvqc2g","pricing_plan_id":"cebpf4jnsgd1na2vs0mg"},{"bike_id":"b2162390-2557-4253-8653-e2e8f83a9469","system_id":"levelo_inurba_marseille","lat":43.30933,"lon":5.40147,"is_reserved":false,"is_disabled":false,"rental_uris":{"android":"levelo://app?vid=b2162390-2557-4253-8653-e2e8f83a9469","ios":"levelo://app?vid=b2162390-2557-4253-8653-e2e8f83a9469"},"vehicle_type_id":"4","last_reported":1742152007,"current_range_meters":6800,"station_id":"ce4bgvp2rcd13ifvqct0","pricing_plan_id":"cebpf4jnsgd1na2vs0mg"},{"bike_id":"6cff3099-fc62-4212-a5e6-1cc54ed7cc41","system_id":"levelo_inurba_marseille","lat":43.25017,"lon":5.38918,"is_reserved":false,"is_disabled":false,"rental_uris":{"android":"levelo://app?vid=6cff3099-fc62-4212-a5e6-1cc54ed7cc41","ios":"levelo://app?vid=6cff3099-fc62-4212-a5e6-1cc54ed7cc41"},"vehicle_type_id":"4","last_reported":1742152007,"current_range_meters":6800,"station_id":"ce4bhgp2rcd13ifvqfd0","pricing_plan_id":"cebpf4jnsgd1na2vs0mg"},{"bike_id":"54db2e56-24b9-4a93-9174-d3002f4fb72b","system_id":"levelo_inurba_marseille","lat":43.30299,"lon":5.36899,"is_reserved":false,"is_disabled":false,"rental_uris":{"android":"levelo://app?vid=54db2e56-24b9-4a93-9174-d3002f4fb72b","ios":"levelo://app?vid=54db2e56-24b9-4a93-9174-d3002f4fb72b"},"vehicle_type_id":"4","last_reported":1742152007,"current_range_meters":6800,"station_id":"ce4bgqh2rcd13ifvqc5g","pricing_plan_id":"cebpf4jnsgd1na2vs0mg"},{"bike_id":"df0fd6a4-d586-41d5-bcd7-a06480a7af83","system_id":"levelo_inurba_marseille","lat":43.23179,"lon":5.40003,"is_reserved":false,"is_disabled":false,"rental_uris":{"android":"levelo://app?vid=df0fd6a4-d586-41d5-bcd7-a06480a7af83","ios":"levelo://app?vid=df0fd6a4-d586-41d5-bcd7-a06480a7af83"},"vehicle_type_id":"4","last_reported":1742152007,"current_range_meters":6800,"station_id":"ce4bhn12rcd13ifvqgqg","pricing_plan_id":"cebpf4jnsgd1na2vs0mg"},{"bike_id":"07d20569-353e-4eaa-a99c-477c4e53db2e","system_id":"levelo_inurba_marseille","lat":43.33013,"lon":5.39044,"is_reserved":false,"is_disabled":false,"rental_uris":{"android":"levelo://app?vid=07d20569-353e-4eaa-a99c-477c4e53db2e","ios":"levelo://app?vid=07d20569-353e-4eaa-a99c-477c4e53db2e"},"vehicle_type_id":"4","last_reported":1742152007,"current_range_meters":6800,"station_id":"ce4bhr92rcd13ifvqhrg","pricing_plan_id":"cebpf4jnsgd1na2vs0mg"},{"bike_id":"f0917f65-15cd-4a5b-9dad-9954576238bb","system_id":"levelo_inurba_marseille","lat":43.29036,"lon":5.38623,"is_reserved":false,"is_disabled":false,"rental_uris":{"android":"levelo://app?vid=f0917f65-15cd-4a5b-9dad-9954576238bb","ios":"levelo://app?vid=f0917f65-15cd-4a5b-9dad-9954576238bb"},"vehicle_type_id":"4","last_reported":1742152007,"current_range_meters":6800,"station_id":"ce4bh4p2rcd13ifvqe0g","pricing_plan_id":"cebpf4jnsgd1na2vs0mg"},{"bike_id":"7d99462c-3d4f-45fd-a2ef-13046914adf0","system_id":"levelo_inurba_marseille","lat":43.30932,"lon":5.40147,"is_reserved":false,"is_disabled":false,"rental_uris":{"android":"levelo://app?vid=7d99462c-3d4f-45fd-a2ef-13046914adf0","ios":"levelo://app?vid=7d99462c-3d4f-45fd-a2ef-13046914adf0"},"vehicle_type_id":"4","last_reported":1742152007,"current_range_meters":6800,"station_id":"ce4bgvp2rcd13ifvqct0","pricing_plan_id":"cebpf4jnsgd1na2vs0mg"},{"bike_id":"0b7bfdb8-fd03-4687-9225-8085184f929c","system_id":"levelo_inurba_marseille","lat":43.32348,"lon":5.3675,"is_reserved":false,"is_disabled":false,"rental_uris":{"android":"levelo://app?vid=0b7bfdb8-fd03-4687-9225-8085184f929c","ios":"levelo://app?vid=0b7bfdb8-fd03-4687-9225-8085184f929c"},"vehicle_type_id":"4","last_reported":1742152007,"current_range_meters":6800,"station_id":"ce4bhsh2rcd13ifvqi2g","pricing_plan_id":"cebpf4jnsgd1na2vs0mg"},{"bike_id":"ae25fe52-db37-435e-90b0-0d9ecc4e1c43","system_id":"levelo_inurba_marseille","lat":43.27851,"lon":5.39219,"is_reserved":false,"is_disabled":false,"rental_uris":{"android":"levelo://app?vid=ae25fe52-db37-435e-90b0-0d9ecc4e1c43","ios":"levelo://app?vid=ae25fe52-db37-435e-90b0-0d9ecc4e1c43"},"vehicle_type_id":"4","last_reported":1742152007,"current_range_meters":6800,"station_id":"ce4bhjp2rcd13ifvqga0","pricing_plan_id":"cebpf4jnsgd1na2vs0mg"},{"bike_id":"75478185-a7c5-4a41-af00-0f2cff6cbd05","system_id":"levelo_inurba_marseille","lat":43.31279,"lon":5.40184,"is_reserved":false,"is_disabled":false,"rental_uris":{"android":"levelo://app?vid=75478185-a7c5-4a41-af00-0f2cff6cbd05","ios":"levelo://app?vid=75478185-a7c5-4a41-af00-0f2cff6cbd05"},"vehicle_type_id":"4","last_reported":1742152007,"current_range_meters":6800,"station_id":"ce4bh092rcd13ifvqd30","pricing_plan_id":"cebpf4jnsgd1na2vs0mg"},{"bike_id":"e52b41b5-52df-4c67-a85c-3cebb3bf7504","system_id":"levelo_inurba_marseille","lat":43.32359,"lon":5.36763,"is_reserved":false,"is_disabled":false,"rental_uris":{"android":"levelo://app?vid=e52b41b5-52df-4c67-a85c-3cebb3bf7504","ios":"levelo://app?vid=e52b41b5-52df-4c67-a85c-3cebb3bf7504"},"vehicle_type_id":"4","last_reported":1742152007,"current_range_meters":6800,"station_id":"ce4bhsh2rcd13ifvqi2g","pricing_plan_id":"cebpf4jnsgd1na2vs0mg"},{"bike_id":"2127c283-3bf3-4081-9791-ba201cf5a542","system_id":"levelo_inurba_marseille","lat":43.30509,"lon":5.37334,"is_reserved":false,"is_disabled":true,"rental_uris":{"android":"levelo://app?vid=2127c283-3bf3-4081-9791-ba201cf5a542","ios":"levelo://app?vid=2127c283-3bf3-4081-9791-ba201cf5a542"},"vehicle_type_id":"4","last_reported":1742152007,"current_range_meters":6800,"station_id":"","pricing_plan_id":"cebpf4jnsgd1na2vs0mg"},{"bike_id":"7dd769be-a96c-41b3-8a44-6973fc831e5b","system_id":"levelo_inurba_marseille","lat":43.25503,"lon":5.37642,"is_reserved":false,"is_disabled":true,"rental_uris":{"android":"levelo://app?vid=7dd769be-a96c-41b3-8a44-6973fc831e5b","ios":"levelo://app?vid=7dd769be-a96c-41b3-8a44-6973fc831e5b"},"vehicle_type_id":"4","last_reported":1742152007,"current_range_meters":6800,"station_id":"ce4bhh12rcd13ifvqff0","pricing_plan_id":"cebpf4jnsgd1na2vs0mg"},{"bike_id":"71d6b220-48b3-44b0-9feb-d7bbfca6b232","system_id":"levelo_inurba_marseille","lat":43.25494,"lon":5.37662,"is_reserved":false,"is_disabled":true,"rental_uris":{"android":"levelo://app?vid=71d6b220-48b3-44b0-9feb-d7bbfca6b232","ios":"levelo://app?vid=71d6b220-48b3-44b0-9feb-d7bbfca6b232"},"vehicle_type_id":"4","last_reported":1742152007,"current_range_meters":6800,"station_id":"ce4bhh12rcd13ifvqff0","pricing_plan_id":"cebpf4jnsgd1na2vs0mg"},{"bike_id":"f9ee07bf-30d4-4f36-a8cb-19d57665af30","system_id":"levelo_inurba_marseille","lat":43.28481,"lon":5.3856,"is_reserved":false,"is_disabled":false,"rental_uris":{"android":"levelo://app?vid=f9ee07bf-30d4-4f36-a8cb-19d57665af30","ios":"levelo://app?vid=f9ee07bf-30d4-4f36-a8cb-19d57665af30"},"vehicle_type_id":"4","last_reported":1742152007,"current_range_meters":6800,"station_id":"ce4bh8p2rcd13ifvqeb0","pricing_plan_id":"cebpf4jnsgd1na2vs0mg"},{"bike_id":"7df90f1a-4a9b-4957-86b0-d350f51aa6e9","system_id":"levelo_inurba_marseille","lat":43.27615,"lon":5.36107,"is_reserved":false,"is_disabled":false,"rental_uris":{"android":"levelo://app?vid=7df90f1a-4a9b-4957-86b0-d350f51aa6e9","ios":"levelo://app?vid=7df90f1a-4a9b-4957-86b0-d350f51aa6e9"},"vehicle_type_id":"4","last_reported":1742152007,"current_range_meters":6800,"station_id":"ce4bgj92rcd13ifvqbe0","pricing_plan_id":"cebpf4jnsgd1na2vs0mg"},{"bike_id":"7eba2c64-2b0a-4710-a59a-276c38abdae2","system_id":"levelo_inurba_marseille","lat":43.307945,"lon":5.381512,"is_reserved":false,"is_disabled":false,"rental_uris":{"android":"levelo://app?vid=7eba2c64-2b0a-4710-a59a-276c38abdae2","ios":"levelo://app?vid=7eba2c64-2b0a-4710-a59a-276c38abdae2"},"vehicle_type_id":"4","last_reported":1742152007,"current_range_meters":6800,"station_id":"ce4bgt12rcd13ifvqce0","pricing_plan_id":"cebpf4jnsgd1na2vs0mg"},{"bike_id":"be5919eb-7ab5-4a86-8b60-4fa590fe1b50","system_id":"levelo_inurba_marseille","lat":43.27372,"lon":5.36247,"is_reserved":false,"is_disabled":false,"rental_uris":{"android":"levelo://app?vid=be5919eb-7ab5-4a86-8b60-4fa590fe1b50","ios":"levelo://app?vid=be5919eb-7ab5-4a86-8b60-4fa590fe1b50"},"vehicle_type_id":"4","last_reported":1742152007,"current_range_meters":7200,"station_id":"ce4bhbh2rcd13ifvqeo0","pricing_plan_id":"cebpf4jnsgd1na2vs0mg"},{"bike_id":"5618db27-7757-4b6f-9633-e0e015ce176b","system_id":"levelo_inurba_marseille","lat":43.281006,"lon":5.378335,"is_reserved":false,"is_disabled":false,"rental_uris":{"android":"levelo://app?vid=5618db27-7757-4b6f-9633-e0e015ce176b","ios":"levelo://app?vid=5618db27-7757-4b6f-9633-e0e015ce176b"},"vehicle_type_id":"4","last_reported":1742152007,"current_range_meters":7200,"station_id":"ce4bhhp2rcd13ifvqfm0","pricing_plan_id":"cebpf4jnsgd1na2vs0mg"},{"bike_id":"e531eddf-2181-4e37-ac70-920449f3fcc1","system_id":"levelo_inurba_marseille","lat":43.28698,"lon":5.4006,"is_reserved":false,"is_disabled":false,"rental_uris":{"android":"levelo://app?vid=e531eddf-2181-4e37-ac70-920449f3fcc1","ios":"levelo://app?vid=e531eddf-2181-4e37-ac70-920449f3fcc1"},"vehicle_type_id":"4","last_reported":1742152007,"current_range_meters":7200,"station_id":"","pricing_plan_id":"cebpf4jnsgd1na2vs0mg"},{"bike_id":"3441ec86-b8b2-427e-8f60-cf6b63d1f81e","system_id":"levelo_inurba_marseille","lat":43.2867,"lon":5.36358,"is_reserved":false,"is_disabled":false,"rental_uris":{"android":"levelo://app?vid=3441ec86-b8b2-427e-8f60-cf6b63d1f81e","ios":"levelo://app?vid=3441ec86-b8b2-427e-8f60-cf6b63d1f81e"},"vehicle_type_id":"4","last_reported":1742152007,"current_range_meters":7200,"station_id":"ce4bhah2rcd13ifvqej0","pricing_plan_id":"cebpf4jnsgd1na2vs0mg"},{"bike_id":"af004255-93b1-4617-8c69-428414d7ebe9","system_id":"levelo_inurba_marseille","lat":43.25027,"lon":5.38919,"is_reserved":false,"is_disabled":false,"rental_uris":{"android":"levelo://app?vid=af004255-93b1-4617-8c69-428414d7ebe9","ios":"levelo://app?vid=af004255-93b1-4617-8c69-428414d7ebe9"},"vehicle_type_id":"4","last_reported":1742152007,"current_range_meters":7200,"station_id":"ce4bhgp2rcd13ifvqfd0","pricing_plan_id":"cebpf4jnsgd1na2vs0mg"},{"bike_id":"75fe710d-59d7-4360-ad6d-acf41a03287f","system_id":"levelo_inurba_marseille","lat":43.3146,"lon":5.36882,"is_reserved":false,"is_disabled":false,"rental_uris":{"android":"levelo://app?vid=75fe710d-59d7-4360-ad6d-acf41a03287f","ios":"levelo://app?vid=75fe710d-59d7-4360-ad6d-acf41a03287f"},"vehicle_type_id":"4","last_reported":1742152007,"current_range_meters":7200,"station_id":"","pricing_plan_id":"cebpf4jnsgd1na2vs0mg"},{"bike_id":"e3acbff3-15e0-47b5-80be-e0b4d7c85f89","system_id":"levelo_inurba_marseille","lat":43.23959,"lon":5.36629,"is_reserved":false,"is_disabled":false,"rental_uris":{"android":"levelo://app?vid=e3acbff3-15e0-47b5-80be-e0b4d7c85f89","ios":"levelo://app?vid=e3acbff3-15e0-47b5-80be-e0b4d7c85f89"},"vehicle_type_id":"4","last_reported":1742152007,"current_range_meters":7200,"station_id":"ce4bhi12rcd13ifvqfp0","pricing_plan_id":"cebpf4jnsgd1na2vs0mg"},{"bike_id":"d378659a-b095-4d28-a820-d3bacca7d8f8","system_id":"levelo_inurba_marseille","lat":43.27625,"lon":5.36112,"is_reserved":false,"is_disabled":false,"rental_uris":{"android":"levelo://app?vid=d378659a-b095-4d28-a820-d3bacca7d8f8","ios":"levelo://app?vid=d378659a-b095-4d28-a820-d3bacca7d8f8"},"vehicle_type_id":"4","last_reported":1742152007,"current_range_meters":7200,"station_id":"ce4bgj92rcd13ifvqbe0","pricing_plan_id":"cebpf4jnsgd1na2vs0mg"},{"bike_id":"e28ff5df-59fc-4a9e-b133-e51d322b5876","system_id":"levelo_inurba_marseille","lat":43.28931,"lon":5.38436,"is_reserved":false,"is_disabled":false,"rental_uris":{"android":"levelo://app?vid=e28ff5df-59fc-4a9e-b133-e51d322b5876","ios":"levelo://app?vid=e28ff5df-59fc-4a9e-b133-e51d322b5876"},"vehicle_type_id":"4","last_reported":1742152007,"current_range_meters":7200,"station_id":"ce4bh612rcd13ifvqe6g","pricing_plan_id":"cebpf4jnsgd1na2vs0mg"},{"bike_id":"80a89cf5-93e4-43e7-ab86-2061e2fcb52f","system_id":"levelo_inurba_marseille","lat":43.30426,"lon":5.38886,"is_reserved":false,"is_disabled":false,"rental_uris":{"android":"levelo://app?vid=80a89cf5-93e4-43e7-ab86-2061e2fcb52f","ios":"levelo://app?vid=80a89cf5-93e4-43e7-ab86-2061e2fcb52f"},"vehicle_type_id":"4","last_reported":1742152007,"current_range_meters":6800,"station_id":"ce4bgk12rcd13ifvqbi0","pricing_plan_id":"cebpf4jnsgd1na2vs0mg"},{"bike_id":"9625f194-a853-4767-bda8-0eedb08b2cb3","system_id":"levelo_inurba_marseille","lat":43.2868,"lon":5.40101,"is_reserved":false,"is_disabled":true,"rental_uris":{"android":"levelo://app?vid=9625f194-a853-4767-bda8-0eedb08b2cb3","ios":"levelo://app?vid=9625f194-a853-4767-bda8-0eedb08b2cb3"},"vehicle_type_id":"4","last_reported":1742152007,"current_range_meters":7200,"station_id":"","pricing_plan_id":"cebpf4jnsgd1na2vs0mg"},{"bike_id":"f2b7b04e-8089-4d6c-9db8-5e21bca75c26","system_id":"levelo_inurba_marseille","lat":43.278324,"lon":5.391983,"is_reserved":false,"is_disabled":true,"rental_uris":{"android":"levelo://app?vid=f2b7b04e-8089-4d6c-9db8-5e21bca75c26","ios":"levelo://app?vid=f2b7b04e-8089-4d6c-9db8-5e21bca75c26"},"vehicle_type_id":"4","last_reported":1742152007,"current_range_meters":7200,"station_id":"ce4bhjp2rcd13ifvqga0","pricing_plan_id":"cebpf4jnsgd1na2vs0mg"},{"bike_id":"db021787-e39e-4e0b-a9f2-628a9938fcea","system_id":"levelo_inurba_marseille","lat":43.30139,"lon":5.39882,"is_reserved":false,"is_disabled":false,"rental_uris":{"android":"levelo://app?vid=db021787-e39e-4e0b-a9f2-628a9938fcea","ios":"levelo://app?vid=db021787-e39e-4e0b-a9f2-628a9938fcea"},"vehicle_type_id":"4","last_reported":1742152007,"current_range_meters":7200,"station_id":"ce4bh0h2rcd13ifvqd40","pricing_plan_id":"cebpf4jnsgd1na2vs0mg"},{"bike_id":"0102a975-ca16-4d1e-8694-d919e87a2584","system_id":"levelo_inurba_marseille","lat":43.29547,"lon":5.42271,"is_reserved":false,"is_disabled":false,"rental_uris":{"android":"levelo://app?vid=0102a975-ca16-4d1e-8694-d919e87a2584","ios":"levelo://app?vid=0102a975-ca16-4d1e-8694-d919e87a2584"},"vehicle_type_id":"4","last_reported":1742152007,"current_range_meters":8000,"station_id":"ce4bhph2rcd13ifvqhdg","pricing_plan_id":"cebpf4jnsgd1na2vs0mg"},{"bike_id":"68f3bcfe-e20f-4ad8-9579-f569150feb8a","system_id":"levelo_inurba_marseille","lat":43.27637,"lon":5.36166,"is_reserved":false,"is_disabled":false,"rental_uris":{"android":"levelo://app?vid=68f3bcfe-e20f-4ad8-9579-f569150feb8a","ios":"levelo://app?vid=68f3bcfe-e20f-4ad8-9579-f569150feb8a"},"vehicle_type_id":"4","last_reported":1742152007,"current_range_meters":8000,"station_id":"","pricing_plan_id":"cebpf4jnsgd1na2vs0mg"},{"bike_id":"63969ba0-01fb-4c0a-96d9-b81083e24487","system_id":"levelo_inurba_marseille","lat":43.28481,"lon":5.38382,"is_reserved":false,"is_disabled":false,"rental_uris":{"android":"levelo://app?vid=63969ba0-01fb-4c0a-96d9-b81083e24487","ios":"levelo://app?vid=63969ba0-01fb-4c0a-96d9-b81083e24487"},"vehicle_type_id":"4","last_reported":1742152007,"current_range_meters":8000,"station_id":"ce4bh512rcd13ifvqe3g","pricing_plan_id":"cebpf4jnsgd1na2vs0mg"},{"bike_id":"3fb590e8-1c38-4b01-b532-afad17657030","system_id":"levelo_inurba_marseille","lat":43.31179,"lon":5.38714,"is_reserved":false,"is_disabled":false,"rental_uris":{"android":"levelo://app?vid=3fb590e8-1c38-4b01-b532-afad17657030","ios":"levelo://app?vid=3fb590e8-1c38-4b01-b532-afad17657030"},"vehicle_type_id":"4","last_reported":1742152007,"current_range_meters":8000,"station_id":"ce4bgv12rcd13ifvqcp0","pricing_plan_id":"cebpf4jnsgd1na2vs0mg"},{"bike_id":"8bf2e89b-2ebd-4f34-a419-e5c65583077b","system_id":"levelo_inurba_marseille","lat":43.28171,"lon":5.44545,"is_reserved":false,"is_disabled":false,"rental_uris":{"android":"levelo://app?vid=8bf2e89b-2ebd-4f34-a419-e5c65583077b","ios":"levelo://app?vid=8bf2e89b-2ebd-4f34-a419-e5c65583077b"},"vehicle_type_id":"4","last_reported":1742152007,"current_range_meters":8000,"station_id":"","pricing_plan_id":"cebpf4jnsgd1na2vs0mg"},{"bike_id":"872387c6-2e2e-4efe-9ccf-9f75547c24ed","system_id":"levelo_inurba_marseille","lat":43.29197,"lon":5.3581,"is_reserved":false,"is_disabled":false,"rental_uris":{"android":"levelo://app?vid=872387c6-2e2e-4efe-9ccf-9f75547c24ed","ios":"levelo://app?vid=872387c6-2e2e-4efe-9ccf-9f75547c24ed"},"vehicle_type_id":"4","last_reported":1742152007,"current_range_meters":8000,"station_id":"ce4bhb12rcd13ifvqel0","pricing_plan_id":"cebpf4jnsgd1na2vs0mg"},{"bike_id":"743c9fbf-42df-4986-bc8c-9b4a2bc386be","system_id":"levelo_inurba_marseille","lat":43.24081,"lon":5.37761,"is_reserved":false,"is_disabled":false,"rental_uris":{"android":"levelo://app?vid=743c9fbf-42df-4986-bc8c-9b4a2bc386be","ios":"levelo://app?vid=743c9fbf-42df-4986-bc8c-9b4a2bc386be"},"vehicle_type_id":"4","last_reported":1742152007,"current_range_meters":8000,"station_id":"ce4bhnp2rcd13ifvqgvg","pricing_plan_id":"cebpf4jnsgd1na2vs0mg"},{"bike_id":"82e4859a-e942-44b1-82e8-bca3ed8730b3","system_id":"levelo_inurba_marseille","lat":43.24613,"lon":5.37715,"is_reserved":false,"is_disabled":false,"rental_uris":{"android":"levelo://app?vid=82e4859a-e942-44b1-82e8-bca3ed8730b3","ios":"levelo://app?vid=82e4859a-e942-44b1-82e8-bca3ed8730b3"},"vehicle_type_id":"4","last_reported":1742152007,"current_range_meters":8000,"station_id":"","pricing_plan_id":"cebpf4jnsgd1na2vs0mg"},{"bike_id":"3a766561-d5df-4bb1-accb-85c347f27a70","system_id":"levelo_inurba_marseille","lat":43.33769,"lon":5.39178,"is_reserved":false,"is_disabled":false,"rental_uris":{"android":"levelo://app?vid=3a766561-d5df-4bb1-accb-85c347f27a70","ios":"levelo://app?vid=3a766561-d5df-4bb1-accb-85c347f27a70"},"vehicle_type_id":"4","last_reported":1742152007,"current_range_meters":8000,"station_id":"ce4bhr92rcd13ifvqhsg","pricing_plan_id":"cebpf4jnsgd1na2vs0mg"},{"bike_id":"c1ccf9ca-98f0-4eaf-9c83-bb7b5133d125","system_id":"levelo_inurba_marseille","lat":43.32095,"lon":5.36832,"is_reserved":false,"is_disabled":false,"rental_uris":{"android":"levelo://app?vid=c1ccf9ca-98f0-4eaf-9c83-bb7b5133d125","ios":"levelo://app?vid=c1ccf9ca-98f0-4eaf-9c83-bb7b5133d125"},"vehicle_type_id":"4","last_reported":1742152007,"current_range_meters":8000,"station_id":"","pricing_plan_id":"cebpf4jnsgd1na2vs0mg"},{"bike_id":"5c9e95f9-8d99-49cd-b7a5-d18f104da9a8","system_id":"levelo_inurba_marseille","lat":43.26569,"lon":5.39006,"is_reserved":false,"is_disabled":false,"rental_uris":{"android":"levelo://app?vid=5c9e95f9-8d99-49cd-b7a5-d18f104da9a8","ios":"levelo://app?vid=5c9e95f9-8d99-49cd-b7a5-d18f104da9a8"},"vehicle_type_id":"4","last_reported":1742152007,"current_range_meters":8000,"station_id":"ce4bhe12rcd13ifvqf30","pricing_plan_id":"cebpf4jnsgd1na2vs0mg"},{"bike_id":"d3bd0ca2-58e0-4f19-bd33-980724ab7a39","system_id":"levelo_inurba_marseille","lat":43.30884,"lon":5.39644,"is_reserved":false,"is_disabled":true,"rental_uris":{"android":"levelo://app?vid=d3bd0ca2-58e0-4f19-bd33-980724ab7a39","ios":"levelo://app?vid=d3bd0ca2-58e0-4f19-bd33-980724ab7a39"},"vehicle_type_id":"4","last_reported":1742152007,"current_range_meters":8000,"station_id":"ce4bh012rcd13ifvqcv0","pricing_plan_id":"cebpf4jnsgd1na2vs0mg"},{"bike_id":"5f813939-abd0-4724-aebe-15fd911368cc","system_id":"levelo_inurba_marseille","lat":43.23184,"lon":5.35569,"is_reserved":false,"is_disabled":false,"rental_uris":{"android":"levelo://app?vid=5f813939-abd0-4724-aebe-15fd911368cc","ios":"levelo://app?vid=5f813939-abd0-4724-aebe-15fd911368cc"},"vehicle_type_id":"4","last_reported":1742152007,"current_range_meters":8000,"station_id":"ce4bhu92rcd13ifvqi70","pricing_plan_id":"cebpf4jnsgd1na2vs0mg"},{"bike_id":"31710fca-ccfa-43a5-ac6f-5ec923018ebf","system_id":"levelo_inurba_marseille","lat":43.27404,"lon":5.42054,"is_reserved":false,"is_disabled":false,"rental_uris":{"android":"levelo://app?vid=31710fca-ccfa-43a5-ac6f-5ec923018ebf","ios":"levelo://app?vid=31710fca-ccfa-43a5-ac6f-5ec923018ebf"},"vehicle_type_id":"4","last_reported":1742152007,"current_range_meters":8000,"station_id":"","pricing_plan_id":"cebpf4jnsgd1na2vs0mg"},{"bike_id":"70e40c08-4e8e-488a-abd5-409689465472","system_id":"levelo_inurba_marseille","lat":43.23192,"lon":5.39982,"is_reserved":false,"is_disabled":false,"rental_uris":{"android":"levelo://app?vid=70e40c08-4e8e-488a-abd5-409689465472","ios":"levelo://app?vid=70e40c08-4e8e-488a-abd5-409689465472"},"vehicle_type_id":"4","last_reported":1742152007,"current_range_meters":8400,"station_id":"ce4bhn12rcd13ifvqgqg","pricing_plan_id":"cebpf4jnsgd1na2vs0mg"},{"bike_id":"971af8ee-1064-4247-a221-c08b2c4db9b8","system_id":"levelo_inurba_marseille","lat":43.28854,"lon":5.35868,"is_reserved":false,"is_disabled":false,"rental_uris":{"android":"levelo://app?vid=971af8ee-1064-4247-a221-c08b2c4db9b8","ios":"levelo://app?vid=971af8ee-1064-4247-a221-c08b2c4db9b8"},"vehicle_type_id":"4","last_reported":1742152007,"current_range_meters":8000,"station_id":"ce4bhb12rcd13ifvqem0","pricing_plan_id":"cebpf4jnsgd1na2vs0mg"},{"bike_id":"b63cc39d-cbd8-48a5-9b5f-135445698fce","system_id":"levelo_inurba_marseille","lat":43.28471,"lon":5.38446,"is_reserved":false,"is_disabled":false,"rental_uris":{"android":"levelo://app?vid=b63cc39d-cbd8-48a5-9b5f-135445698fce","ios":"levelo://app?vid=b63cc39d-cbd8-48a5-9b5f-135445698fce"},"vehicle_type_id":"4","last_reported":1742152007,"current_range_meters":8800,"station_id":"ce4bh512rcd13ifvqe3g","pricing_plan_id":"cebpf4jnsgd1na2vs0mg"},{"bike_id":"031e832d-5bb7-40f7-8762-339a6335f1c6","system_id":"levelo_inurba_marseille","lat":43.28919,"lon":5.3841,"is_reserved":false,"is_disabled":false,"rental_uris":{"android":"levelo://app?vid=031e832d-5bb7-40f7-8762-339a6335f1c6","ios":"levelo://app?vid=031e832d-5bb7-40f7-8762-339a6335f1c6"},"vehicle_type_id":"4","last_reported":1742152007,"current_range_meters":8400,"station_id":"ce4bh612rcd13ifvqe6g","pricing_plan_id":"cebpf4jnsgd1na2vs0mg"},{"bike_id":"71b342b8-694b-40d5-99e8-310baf77a970","system_id":"levelo_inurba_marseille","lat":43.23048,"lon":5.35502,"is_reserved":false,"is_disabled":false,"rental_uris":{"android":"levelo://app?vid=71b342b8-694b-40d5-99e8-310baf77a970","ios":"levelo://app?vid=71b342b8-694b-40d5-99e8-310baf77a970"},"vehicle_type_id":"4","last_reported":1742152007,"current_range_meters":8400,"station_id":"cpo3342slgdg3j2ifvpg","pricing_plan_id":"cebpf4jnsgd1na2vs0mg"},{"bike_id":"6582e7c2-5aa5-4e6a-abc5-fa241e74aeb6","system_id":"levelo_inurba_marseille","lat":43.29895,"lon":5.43665,"is_reserved":false,"is_disabled":false,"rental_uris":{"android":"levelo://app?vid=6582e7c2-5aa5-4e6a-abc5-fa241e74aeb6","ios":"levelo://app?vid=6582e7c2-5aa5-4e6a-abc5-fa241e74aeb6"},"vehicle_type_id":"4","last_reported":1742152007,"current_range_meters":8400,"station_id":"ce4bhpp2rcd13ifvqhfg","pricing_plan_id":"cebpf4jnsgd1na2vs0mg"},{"bike_id":"fc071de1-2cc0-488a-a43e-f8037a5a9a49","system_id":"levelo_inurba_marseille","lat":43.23072,"lon":5.354869,"is_reserved":false,"is_disabled":false,"rental_uris":{"android":"levelo://app?vid=fc071de1-2cc0-488a-a43e-f8037a5a9a49","ios":"levelo://app?vid=fc071de1-2cc0-488a-a43e-f8037a5a9a49"},"vehicle_type_id":"4","last_reported":1742152007,"current_range_meters":8400,"station_id":"cpo3342slgdg3j2ifvpg","pricing_plan_id":"cebpf4jnsgd1na2vs0mg"},{"bike_id":"f3d52fc3-f026-4bf6-ac24-bb570fe64651","system_id":"levelo_inurba_marseille","lat":43.28928,"lon":5.38394,"is_reserved":false,"is_disabled":false,"rental_uris":{"android":"levelo://app?vid=f3d52fc3-f026-4bf6-ac24-bb570fe64651","ios":"levelo://app?vid=f3d52fc3-f026-4bf6-ac24-bb570fe64651"},"vehicle_type_id":"4","last_reported":1742152007,"current_range_meters":8400,"station_id":"ce4bgv12rcd13ifvqcp0","pricing_plan_id":"cebpf4jnsgd1na2vs0mg"},{"bike_id":"621ee7b1-50fc-4eb2-a366-f7d9697554ec","system_id":"levelo_inurba_marseille","lat":43.28564,"lon":5.39501,"is_reserved":false,"is_disabled":false,"rental_uris":{"android":"levelo://app?vid=621ee7b1-50fc-4eb2-a366-f7d9697554ec","ios":"levelo://app?vid=621ee7b1-50fc-4eb2-a366-f7d9697554ec"},"vehicle_type_id":"4","last_reported":1742152007,"current_range_meters":8400,"station_id":"ce4bh292rcd13ifvqdg0","pricing_plan_id":"cebpf4jnsgd1na2vs0mg"},{"bike_id":"a17866dc-3074-49fc-9a89-48869866e9d8","system_id":"levelo_inurba_marseille","lat":43.27226,"lon":5.39147,"is_reserved":false,"is_disabled":true,"rental_uris":{"android":"levelo://app?vid=a17866dc-3074-49fc-9a89-48869866e9d8","ios":"levelo://app?vid=a17866dc-3074-49fc-9a89-48869866e9d8"},"vehicle_type_id":"4","last_reported":1742152007,"current_range_meters":8400,"station_id":"ce4bhhp2rcd13ifvqfm0","pricing_plan_id":"cebpf4jnsgd1na2vs0mg"},{"bike_id":"ed258cb7-9851-491c-a0b2-e327c4e7bc83","system_id":"levelo_inurba_marseille","lat":43.28938,"lon":5.3842,"is_reserved":false,"is_disabled":false,"rental_uris":{"android":"levelo://app?vid=ed258cb7-9851-491c-a0b2-e327c4e7bc83","ios":"levelo://app?vid=ed258cb7-9851-491c-a0b2-e327c4e7bc83"},"vehicle_type_id":"4","last_reported":1742152007,"current_range_meters":8400,"station_id":"ce4bh612rcd13ifvqe6g","pricing_plan_id":"cebpf4jnsgd1na2vs0mg"},{"bike_id":"06c8bd07-755c-4e4a-8dae-39af945bebd1","system_id":"levelo_inurba_marseille","lat":43.30478,"lon":5.38978,"is_reserved":false,"is_disabled":false,"rental_uris":{"android":"levelo://app?vid=06c8bd07-755c-4e4a-8dae-39af945bebd1","ios":"levelo://app?vid=06c8bd07-755c-4e4a-8dae-39af945bebd1"},"vehicle_type_id":"4","last_reported":1742152007,"current_range_meters":11600,"station_id":"ce4bgk12rcd13ifvqbi0","pricing_plan_id":"cebpf4jnsgd1na2vs0mg"},{"bike_id":"03aa2ac5-4675-49fd-bbbd-bbe4740c6557","system_id":"levelo_inurba_marseille","lat":43.30264,"lon":5.40036,"is_reserved":false,"is_disabled":false,"rental_uris":{"android":"levelo://app?vid=03aa2ac5-4675-49fd-bbbd-bbe4740c6557","ios":"levelo://app?vid=03aa2ac5-4675-49fd-bbbd-bbe4740c6557"},"vehicle_type_id":"4","last_reported":1742152007,"current_range_meters":8400,"station_id":"ce4bgvh2rcd13ifvqcs0","pricing_plan_id":"cebpf4jnsgd1na2vs0mg"},{"bike_id":"1ba3f37e-0729-4b3c-95fc-bcd679a2ddcd","system_id":"levelo_inurba_marseille","lat":43.28713,"lon":5.37409,"is_reserved":false,"is_disabled":false,"rental_uris":{"android":"levelo://app?vid=1ba3f37e-0729-4b3c-95fc-bcd679a2ddcd","ios":"levelo://app?vid=1ba3f37e-0729-4b3c-95fc-bcd679a2ddcd"},"vehicle_type_id":"4","last_reported":1742152007,"current_range_meters":8400,"station_id":"ce4bh3p2rcd13ifvqdq0","pricing_plan_id":"cebpf4jnsgd1na2vs0mg"},{"bike_id":"f4806f6b-90cc-4357-8538-1ba6d4b0b5e4","system_id":"levelo_inurba_marseille","lat":43.23202,"lon":5.35552,"is_reserved":false,"is_disabled":false,"rental_uris":{"android":"levelo://app?vid=f4806f6b-90cc-4357-8538-1ba6d4b0b5e4","ios":"levelo://app?vid=f4806f6b-90cc-4357-8538-1ba6d4b0b5e4"},"vehicle_type_id":"4","last_reported":1742152007,"current_range_meters":8800,"station_id":"ce4bhu92rcd13ifvqi70","pricing_plan_id":"cebpf4jnsgd1na2vs0mg"},{"bike_id":"3bf5554b-254d-4816-9936-df5fad834be3","system_id":"levelo_inurba_marseille","lat":43.28468,"lon":5.35882,"is_reserved":false,"is_disabled":false,"rental_uris":{"android":"levelo://app?vid=3bf5554b-254d-4816-9936-df5fad834be3","ios":"levelo://app?vid=3bf5554b-254d-4816-9936-df5fad834be3"},"vehicle_type_id":"4","last_reported":1742152007,"current_range_meters":8800,"station_id":"ce4bhah2rcd13ifvqei0","pricing_plan_id":"cebpf4jnsgd1na2vs0mg"},{"bike_id":"c4c002d3-8c70-4b36-8c7f-5d4af5808201","system_id":"levelo_inurba_marseille","lat":43.29207,"lon":5.39326,"is_reserved":false,"is_disabled":true,"rental_uris":{"android":"levelo://app?vid=c4c002d3-8c70-4b36-8c7f-5d4af5808201","ios":"levelo://app?vid=c4c002d3-8c70-4b36-8c7f-5d4af5808201"},"vehicle_type_id":"4","last_reported":1742152007,"current_range_meters":8800,"station_id":"ce4bh192rcd13ifvqdd0","pricing_plan_id":"cebpf4jnsgd1na2vs0mg"},{"bike_id":"174c9c66-b172-484e-b7f9-5752aa18aabf","system_id":"levelo_inurba_marseille","lat":43.23049,"lon":5.35412,"is_reserved":false,"is_disabled":false,"rental_uris":{"android":"levelo://app?vid=174c9c66-b172-484e-b7f9-5752aa18aabf","ios":"levelo://app?vid=174c9c66-b172-484e-b7f9-5752aa18aabf"},"vehicle_type_id":"4","last_reported":1742152007,"current_range_meters":8800,"station_id":"","pricing_plan_id":"cebpf4jnsgd1na2vs0mg"},{"bike_id":"dd0e576d-74e2-413f-88a4-0de58301e2c5","system_id":"levelo_inurba_marseille","lat":43.32366,"lon":5.38887,"is_reserved":false,"is_disabled":false,"rental_uris":{"android":"levelo://app?vid=dd0e576d-74e2-413f-88a4-0de58301e2c5","ios":"levelo://app?vid=dd0e576d-74e2-413f-88a4-0de58301e2c5"},"vehicle_type_id":"4","last_reported":1742152007,"current_range_meters":8800,"station_id":"ce4bhqp2rcd13ifvqhog","pricing_plan_id":"cebpf4jnsgd1na2vs0mg"},{"bike_id":"13d4045f-57ae-4734-b2dc-f397a04d64bd","system_id":"levelo_inurba_marseille","lat":43.27813,"lon":5.40712,"is_reserved":false,"is_disabled":false,"rental_uris":{"android":"levelo://app?vid=13d4045f-57ae-4734-b2dc-f397a04d64bd","ios":"levelo://app?vid=13d4045f-57ae-4734-b2dc-f397a04d64bd"},"vehicle_type_id":"4","last_reported":1742152007,"current_range_meters":8800,"station_id":"ce4bhnh2rcd13ifvqgtg","pricing_plan_id":"cebpf4jnsgd1na2vs0mg"},{"bike_id":"a5381a7d-904a-4183-bae3-754a5bbe688b","system_id":"levelo_inurba_marseille","lat":43.24543,"lon":5.39523,"is_reserved":false,"is_disabled":false,"rental_uris":{"android":"levelo://app?vid=a5381a7d-904a-4183-bae3-754a5bbe688b","ios":"levelo://app?vid=a5381a7d-904a-4183-bae3-754a5bbe688b"},"vehicle_type_id":"4","last_reported":1742152007,"current_range_meters":8400,"station_id":"ce4bhlp2rcd13ifvqgjg","pricing_plan_id":"cebpf4jnsgd1na2vs0mg"},{"bike_id":"1e0a82c6-b441-4ee1-92f0-8f157a0553ef","system_id":"levelo_inurba_marseille","lat":43.27324,"lon":5.39069,"is_reserved":false,"is_disabled":false,"rental_uris":{"android":"levelo://app?vid=1e0a82c6-b441-4ee1-92f0-8f157a0553ef","ios":"levelo://app?vid=1e0a82c6-b441-4ee1-92f0-8f157a0553ef"},"vehicle_type_id":"4","last_reported":1742152007,"current_range_meters":8800,"station_id":"ce4bhgp2rcd13ifvqfe0","pricing_plan_id":"cebpf4jnsgd1na2vs0mg"},{"bike_id":"27150d1c-4a8d-4de9-acd6-e84f5fee7697","system_id":"levelo_inurba_marseille","lat":43.25716,"lon":5.41093,"is_reserved":false,"is_disabled":false,"rental_uris":{"android":"levelo://app?vid=27150d1c-4a8d-4de9-acd6-e84f5fee7697","ios":"levelo://app?vid=27150d1c-4a8d-4de9-acd6-e84f5fee7697"},"vehicle_type_id":"4","last_reported":1742152007,"current_range_meters":8800,"station_id":"ce4bhkp2rcd13ifvqgd0","pricing_plan_id":"cebpf4jnsgd1na2vs0mg"},{"bike_id":"f267ff91-b27c-4812-83d4-8d3d6cb75909","system_id":"levelo_inurba_marseille","lat":43.29027,"lon":5.37583,"is_reserved":false,"is_disabled":false,"rental_uris":{"android":"levelo://app?vid=f267ff91-b27c-4812-83d4-8d3d6cb75909","ios":"levelo://app?vid=f267ff91-b27c-4812-83d4-8d3d6cb75909"},"vehicle_type_id":"4","last_reported":1742152007,"current_range_meters":9200,"station_id":"ce4bh692rcd13ifvqe90","pricing_plan_id":"cebpf4jnsgd1na2vs0mg"},{"bike_id":"f876773a-fec2-4503-8f9a-c65b00603ae5","system_id":"levelo_inurba_marseille","lat":43.24098,"lon":5.37748,"is_reserved":false,"is_disabled":false,"rental_uris":{"android":"levelo://app?vid=f876773a-fec2-4503-8f9a-c65b00603ae5","ios":"levelo://app?vid=f876773a-fec2-4503-8f9a-c65b00603ae5"},"vehicle_type_id":"4","last_reported":1742152007,"current_range_meters":9200,"station_id":"ce4bhnp2rcd13ifvqgvg","pricing_plan_id":"cebpf4jnsgd1na2vs0mg"},{"bike_id":"30a3f5aa-8adb-417a-a2c9-dedb0fb285b3","system_id":"levelo_inurba_marseille","lat":43.28981,"lon":5.37848,"is_reserved":false,"is_disabled":true,"rental_uris":{"android":"levelo://app?vid=30a3f5aa-8adb-417a-a2c9-dedb0fb285b3","ios":"levelo://app?vid=30a3f5aa-8adb-417a-a2c9-dedb0fb285b3"},"vehicle_type_id":"4","last_reported":1742152007,"current_range_meters":9200,"station_id":"ce4bh9p2rcd13ifvqed0","pricing_plan_id":"cebpf4jnsgd1na2vs0mg"},{"bike_id":"97c131d9-98a1-4d0b-aeac-841b3db6abc0","system_id":"levelo_inurba_marseille","lat":43.27983,"lon":5.38735,"is_reserved":false,"is_disabled":false,"rental_uris":{"android":"levelo://app?vid=97c131d9-98a1-4d0b-aeac-841b3db6abc0","ios":"levelo://app?vid=97c131d9-98a1-4d0b-aeac-841b3db6abc0"},"vehicle_type_id":"4","last_reported":1742152007,"current_range_meters":9200,"station_id":"ce4bhg12rcd13ifvqf80","pricing_plan_id":"cebpf4jnsgd1na2vs0mg"},{"bike_id":"9e6dd499-ef79-469a-9c98-e4d20013679e","system_id":"levelo_inurba_marseille","lat":43.2681,"lon":5.40276,"is_reserved":false,"is_disabled":false,"rental_uris":{"android":"levelo://app?vid=9e6dd499-ef79-469a-9c98-e4d20013679e","ios":"levelo://app?vid=9e6dd499-ef79-469a-9c98-e4d20013679e"},"vehicle_type_id":"4","last_reported":1742152007,"current_range_meters":9200,"station_id":"ce501612rcd8frsf0b60","pricing_plan_id":"cebpf4jnsgd1na2vs0mg"},{"bike_id":"0be282a9-519e-41bf-b6c2-8944d7535ef0","system_id":"levelo_inurba_marseille","lat":43.28466,"lon":5.35892,"is_reserved":false,"is_disabled":false,"rental_uris":{"android":"levelo://app?vid=0be282a9-519e-41bf-b6c2-8944d7535ef0","ios":"levelo://app?vid=0be282a9-519e-41bf-b6c2-8944d7535ef0"},"vehicle_type_id":"4","last_reported":1742152007,"current_range_meters":9200,"station_id":"ce4bhah2rcd13ifvqei0","pricing_plan_id":"cebpf4jnsgd1na2vs0mg"},{"bike_id":"098dc043-3072-47de-be1e-f39b2c1b7fcf","system_id":"levelo_inurba_marseille","lat":43.284063,"lon":5.375393,"is_reserved":false,"is_disabled":false,"rental_uris":{"android":"levelo://app?vid=098dc043-3072-47de-be1e-f39b2c1b7fcf","ios":"levelo://app?vid=098dc043-3072-47de-be1e-f39b2c1b7fcf"},"vehicle_type_id":"4","last_reported":1742152007,"current_range_meters":9200,"station_id":"","pricing_plan_id":"cebpf4jnsgd1na2vs0mg"},{"bike_id":"1dff2b4f-b882-4080-9329-03a9450bdb0b","system_id":"levelo_inurba_marseille","lat":43.31272,"lon":5.40166,"is_reserved":false,"is_disabled":false,"rental_uris":{"android":"levelo://app?vid=1dff2b4f-b882-4080-9329-03a9450bdb0b","ios":"levelo://app?vid=1dff2b4f-b882-4080-9329-03a9450bdb0b"},"vehicle_type_id":"4","last_reported":1742152007,"current_range_meters":9200,"station_id":"ce4bh092rcd13ifvqd30","pricing_plan_id":"cebpf4jnsgd1na2vs0mg"},{"bike_id":"61510157-0c60-4f96-84f2-29e922341c8c","system_id":"levelo_inurba_marseille","lat":43.24186,"lon":5.39729,"is_reserved":false,"is_disabled":false,"rental_uris":{"android":"levelo://app?vid=61510157-0c60-4f96-84f2-29e922341c8c","ios":"levelo://app?vid=61510157-0c60-4f96-84f2-29e922341c8c"},"vehicle_type_id":"4","last_reported":1742152007,"current_range_meters":9200,"station_id":"ce4bhn12rcd13ifvqgpg","pricing_plan_id":"cebpf4jnsgd1na2vs0mg"},{"bike_id":"ec4c8fc9-399f-4f5a-b345-e19e03d811c3","system_id":"levelo_inurba_marseille","lat":43.27189,"lon":5.40994,"is_reserved":false,"is_disabled":true,"rental_uris":{"android":"levelo://app?vid=ec4c8fc9-399f-4f5a-b345-e19e03d811c3","ios":"levelo://app?vid=ec4c8fc9-399f-4f5a-b345-e19e03d811c3"},"vehicle_type_id":"4","last_reported":1742152007,"current_range_meters":9200,"station_id":"ce4bhl12rcd13ifvqgf0","pricing_plan_id":"cebpf4jnsgd1na2vs0mg"},{"bike_id":"63ccaa1b-7302-45e3-82a8-d904a69351b6","system_id":"levelo_inurba_marseille","lat":43.23954,"lon":5.36634,"is_reserved":false,"is_disabled":true,"rental_uris":{"android":"levelo://app?vid=63ccaa1b-7302-45e3-82a8-d904a69351b6","ios":"levelo://app?vid=63ccaa1b-7302-45e3-82a8-d904a69351b6"},"vehicle_type_id":"4","last_reported":1742152007,"current_range_meters":9200,"station_id":"ce4bhi12rcd13ifvqfp0","pricing_plan_id":"cebpf4jnsgd1na2vs0mg"},{"bike_id":"02903d83-44bb-40cf-a804-6798606e7bc6","system_id":"levelo_inurba_marseille","lat":43.24813,"lon":5.37455,"is_reserved":false,"is_disabled":false,"rental_uris":{"android":"levelo://app?vid=02903d83-44bb-40cf-a804-6798606e7bc6","ios":"levelo://app?vid=02903d83-44bb-40cf-a804-6798606e7bc6"},"vehicle_type_id":"4","last_reported":1742152007,"current_range_meters":9200,"station_id":"ce4bhgh2rcd13ifvqfb0","pricing_plan_id":"cebpf4jnsgd1na2vs0mg"},{"bike_id":"38de9398-607b-4e38-b181-28a0e85a0172","system_id":"levelo_inurba_marseille","lat":43.29057,"lon":5.38644,"is_reserved":false,"is_disabled":true,"rental_uris":{"android":"levelo://app?vid=38de9398-607b-4e38-b181-28a0e85a0172","ios":"levelo://app?vid=38de9398-607b-4e38-b181-28a0e85a0172"},"vehicle_type_id":"4","last_reported":1742152007,"current_range_meters":9200,"station_id":"ce4bh4p2rcd13ifvqe0g","pricing_plan_id":"cebpf4jnsgd1na2vs0mg"},{"bike_id":"0ab3ace2-53b5-463c-b234-c0bfc0872b16","system_id":"levelo_inurba_marseille","lat":43.29561,"lon":5.38113,"is_reserved":false,"is_disabled":false,"rental_uris":{"android":"levelo://app?vid=0ab3ace2-53b5-463c-b234-c0bfc0872b16","ios":"levelo://app?vid=0ab3ace2-53b5-463c-b234-c0bfc0872b16"},"vehicle_type_id":"4","last_reported":1742152007,"current_range_meters":9200,"station_id":"ce4bgl12rcd13ifvqbo0","pricing_plan_id":"cebpf4jnsgd1na2vs0mg"},{"bike_id":"70562219-619e-419e-8e6f-1f78ec085d95","system_id":"levelo_inurba_marseille","lat":43.28835,"lon":5.39321,"is_reserved":false,"is_disabled":false,"rental_uris":{"android":"levelo://app?vid=70562219-619e-419e-8e6f-1f78ec085d95","ios":"levelo://app?vid=70562219-619e-419e-8e6f-1f78ec085d95"},"vehicle_type_id":"4","last_reported":1742152007,"current_range_meters":9200,"station_id":"ce4bh2p2rcd13ifvqdi0","pricing_plan_id":"cebpf4jnsgd1na2vs0mg"},{"bike_id":"3f3e844d-8056-4826-a519-e24eec72528f","system_id":"levelo_inurba_marseille","lat":43.30658,"lon":5.36556,"is_reserved":false,"is_disabled":false,"rental_uris":{"android":"levelo://app?vid=3f3e844d-8056-4826-a519-e24eec72528f","ios":"levelo://app?vid=3f3e844d-8056-4826-a519-e24eec72528f"},"vehicle_type_id":"4","last_reported":1742152007,"current_range_meters":9200,"station_id":"","pricing_plan_id":"cebpf4jnsgd1na2vs0mg"},{"bike_id":"ba2e1d5d-83ef-49d9-9fd6-4799cd9abe31","system_id":"levelo_inurba_marseille","lat":43.3171,"lon":5.40457,"is_reserved":false,"is_disabled":false,"rental_uris":{"android":"levelo://app?vid=ba2e1d5d-83ef-49d9-9fd6-4799cd9abe31","ios":"levelo://app?vid=ba2e1d5d-83ef-49d9-9fd6-4799cd9abe31"},"vehicle_type_id":"4","last_reported":1742152007,"current_range_meters":9200,"station_id":"ce4bh012rcd13ifvqd00","pricing_plan_id":"cebpf4jnsgd1na2vs0mg"},{"bike_id":"d92b0e15-d2f6-4c31-a3c2-ad40bafefc3e","system_id":"levelo_inurba_marseille","lat":43.29169,"lon":5.37169,"is_reserved":false,"is_disabled":false,"rental_uris":{"android":"levelo://app?vid=d92b0e15-d2f6-4c31-a3c2-ad40bafefc3e","ios":"levelo://app?vid=d92b0e15-d2f6-4c31-a3c2-ad40bafefc3e"},"vehicle_type_id":"4","last_reported":1742152007,"current_range_meters":9200,"station_id":"ce4bha92rcd13ifvqeh0","pricing_plan_id":"cebpf4jnsgd1na2vs0mg"},{"bike_id":"95470bdf-1288-42f8-b5d1-ca55dfddbad3","system_id":"levelo_inurba_marseille","lat":43.29595,"lon":5.38115,"is_reserved":false,"is_disabled":false,"rental_uris":{"android":"levelo://app?vid=95470bdf-1288-42f8-b5d1-ca55dfddbad3","ios":"levelo://app?vid=95470bdf-1288-42f8-b5d1-ca55dfddbad3"},"vehicle_type_id":"4","last_reported":1742152007,"current_range_meters":9200,"station_id":"ce4bgl12rcd13ifvqbo0","pricing_plan_id":"cebpf4jnsgd1na2vs0mg"},{"bike_id":"1e9f3f53-e48b-47c9-8a7a-3842fe9d86ab","system_id":"levelo_inurba_marseille","lat":43.28711,"lon":5.40018,"is_reserved":false,"is_disabled":true,"rental_uris":{"android":"levelo://app?vid=1e9f3f53-e48b-47c9-8a7a-3842fe9d86ab","ios":"levelo://app?vid=1e9f3f53-e48b-47c9-8a7a-3842fe9d86ab"},"vehicle_type_id":"4","last_reported":1742152007,"current_range_meters":9200,"station_id":"ce4bho92rcd13ifvqh3g","pricing_plan_id":"cebpf4jnsgd1na2vs0mg"},{"bike_id":"3a6d84ee-e958-4f91-84af-46ee45b44fec","system_id":"levelo_inurba_marseille","lat":43.26562,"lon":5.39028,"is_reserved":false,"is_disabled":false,"rental_uris":{"android":"levelo://app?vid=3a6d84ee-e958-4f91-84af-46ee45b44fec","ios":"levelo://app?vid=3a6d84ee-e958-4f91-84af-46ee45b44fec"},"vehicle_type_id":"4","last_reported":1742152007,"current_range_meters":9200,"station_id":"ce4bhe12rcd13ifvqf30","pricing_plan_id":"cebpf4jnsgd1na2vs0mg"},{"bike_id":"587671df-6143-48e8-ad33-cc4589d0e591","system_id":"levelo_inurba_marseille","lat":43.28922,"lon":5.38386,"is_reserved":false,"is_disabled":false,"rental_uris":{"android":"levelo://app?vid=587671df-6143-48e8-ad33-cc4589d0e591","ios":"levelo://app?vid=587671df-6143-48e8-ad33-cc4589d0e591"},"vehicle_type_id":"4","last_reported":1742152007,"current_range_meters":9200,"station_id":"ce4bh612rcd13ifvqe6g","pricing_plan_id":"cebpf4jnsgd1na2vs0mg"},{"bike_id":"a3ff9447-49a1-42ae-9c97-46e9f884f33a","system_id":"levelo_inurba_marseille","lat":43.27812,"lon":5.40713,"is_reserved":false,"is_disabled":false,"rental_uris":{"android":"levelo://app?vid=a3ff9447-49a1-42ae-9c97-46e9f884f33a","ios":"levelo://app?vid=a3ff9447-49a1-42ae-9c97-46e9f884f33a"},"vehicle_type_id":"4","last_reported":1742152007,"current_range_meters":9600,"station_id":"ce4bhnh2rcd13ifvqgtg","pricing_plan_id":"cebpf4jnsgd1na2vs0mg"},{"bike_id":"d1b43707-f6b9-4ce1-8f98-f7f83a08cff6","system_id":"levelo_inurba_marseille","lat":43.296238,"lon":5.38099,"is_reserved":false,"is_disabled":false,"rental_uris":{"android":"levelo://app?vid=d1b43707-f6b9-4ce1-8f98-f7f83a08cff6","ios":"levelo://app?vid=d1b43707-f6b9-4ce1-8f98-f7f83a08cff6"},"vehicle_type_id":"4","last_reported":1742152007,"current_range_meters":9600,"station_id":"ce4bgl12rcd13ifvqbo0","pricing_plan_id":"cebpf4jnsgd1na2vs0mg"},{"bike_id":"098d86fc-c5a2-4828-aa74-3e07d06ddbf5","system_id":"levelo_inurba_marseille","lat":43.2887,"lon":5.35821,"is_reserved":false,"is_disabled":true,"rental_uris":{"android":"levelo://app?vid=098d86fc-c5a2-4828-aa74-3e07d06ddbf5","ios":"levelo://app?vid=098d86fc-c5a2-4828-aa74-3e07d06ddbf5"},"vehicle_type_id":"4","last_reported":1742152007,"current_range_meters":9600,"station_id":"ce4bhb12rcd13ifvqem0","pricing_plan_id":"cebpf4jnsgd1na2vs0mg"},{"bike_id":"9e1ad486-39af-49f6-9b28-fbd37ec9873b","system_id":"levelo_inurba_marseille","lat":43.30602,"lon":5.37217,"is_reserved":false,"is_disabled":false,"rental_uris":{"android":"levelo://app?vid=9e1ad486-39af-49f6-9b28-fbd37ec9873b","ios":"levelo://app?vid=9e1ad486-39af-49f6-9b28-fbd37ec9873b"},"vehicle_type_id":"4","last_reported":1742152007,"current_range_meters":9600,"station_id":"ce4bgqh2rcd13ifvqc4g","pricing_plan_id":"cebpf4jnsgd1na2vs0mg"},{"bike_id":"9d8efe52-4253-46af-b40f-bf8652412f63","system_id":"levelo_inurba_marseille","lat":43.295183,"lon":5.393992,"is_reserved":false,"is_disabled":true,"rental_uris":{"android":"levelo://app?vid=9d8efe52-4253-46af-b40f-bf8652412f63","ios":"levelo://app?vid=9d8efe52-4253-46af-b40f-bf8652412f63"},"vehicle_type_id":"4","last_reported":1742152007,"current_range_meters":9600,"station_id":"ce4bh292rcd13ifvqdf0","pricing_plan_id":"cebpf4jnsgd1na2vs0mg"},{"bike_id":"7099c38a-2986-4dc9-9398-307b562f7d30","system_id":"levelo_inurba_marseille","lat":43.25941,"lon":5.4087,"is_reserved":false,"is_disabled":false,"rental_uris":{"android":"levelo://app?vid=7099c38a-2986-4dc9-9398-307b562f7d30","ios":"levelo://app?vid=7099c38a-2986-4dc9-9398-307b562f7d30"},"vehicle_type_id":"4","last_reported":1742152007,"current_range_meters":9600,"station_id":"ce4bhm92rcd13ifvqglg","pricing_plan_id":"cebpf4jnsgd1na2vs0mg"},{"bike_id":"295f0c22-2582-467f-b9bd-def813f14090","system_id":"levelo_inurba_marseille","lat":43.28663,"lon":5.3636,"is_reserved":false,"is_disabled":false,"rental_uris":{"android":"levelo://app?vid=295f0c22-2582-467f-b9bd-def813f14090","ios":"levelo://app?vid=295f0c22-2582-467f-b9bd-def813f14090"},"vehicle_type_id":"4","last_reported":1742152007,"current_range_meters":9200,"station_id":"ce4bhah2rcd13ifvqej0","pricing_plan_id":"cebpf4jnsgd1na2vs0mg"},{"bike_id":"9fbd07b4-f8ec-47c8-8b77-af3d624fa697","system_id":"levelo_inurba_marseille","lat":43.29893,"lon":5.43663,"is_reserved":false,"is_disabled":false,"rental_uris":{"android":"levelo://app?vid=9fbd07b4-f8ec-47c8-8b77-af3d624fa697","ios":"levelo://app?vid=9fbd07b4-f8ec-47c8-8b77-af3d624fa697"},"vehicle_type_id":"4","last_reported":1742152007,"current_range_meters":9600,"station_id":"ce4bhpp2rcd13ifvqhfg","pricing_plan_id":"cebpf4jnsgd1na2vs0mg"},{"bike_id":"9effa3de-1edf-41af-b491-597dd13ac4b7","system_id":"levelo_inurba_marseille","lat":43.27208,"lon":5.392,"is_reserved":false,"is_disabled":false,"rental_uris":{"android":"levelo://app?vid=9effa3de-1edf-41af-b491-597dd13ac4b7","ios":"levelo://app?vid=9effa3de-1edf-41af-b491-597dd13ac4b7"},"vehicle_type_id":"4","last_reported":1742152007,"current_range_meters":9600,"station_id":"ce4bhhp2rcd13ifvqfm0","pricing_plan_id":"cebpf4jnsgd1na2vs0mg"},{"bike_id":"d2140e8e-fc46-4fb8-a675-866428dbf6bb","system_id":"levelo_inurba_marseille","lat":43.23063,"lon":5.35501,"is_reserved":false,"is_disabled":false,"rental_uris":{"android":"levelo://app?vid=d2140e8e-fc46-4fb8-a675-866428dbf6bb","ios":"levelo://app?vid=d2140e8e-fc46-4fb8-a675-866428dbf6bb"},"vehicle_type_id":"4","last_reported":1742152007,"current_range_meters":9600,"station_id":"cpo3342slgdg3j2ifvpg","pricing_plan_id":"cebpf4jnsgd1na2vs0mg"},{"bike_id":"fb888647-ff34-4bf8-b689-113ca2f21323","system_id":"levelo_inurba_marseille","lat":43.29551,"lon":5.37546,"is_reserved":false,"is_disabled":false,"rental_uris":{"android":"levelo://app?vid=fb888647-ff34-4bf8-b689-113ca2f21323","ios":"levelo://app?vid=fb888647-ff34-4bf8-b689-113ca2f21323"},"vehicle_type_id":"4","last_reported":1742152007,"current_range_meters":9600,"station_id":"ce4bgh92rcd13ifvqb50","pricing_plan_id":"cebpf4jnsgd1na2vs0mg"},{"bike_id":"b881a216-a8e0-47ad-9c6d-ce879391627c","system_id":"levelo_inurba_marseille","lat":43.29945,"lon":5.36527,"is_reserved":false,"is_disabled":true,"rental_uris":{"android":"levelo://app?vid=b881a216-a8e0-47ad-9c6d-ce879391627c","ios":"levelo://app?vid=b881a216-a8e0-47ad-9c6d-ce879391627c"},"vehicle_type_id":"4","last_reported":1742152007,"current_range_meters":10000,"station_id":"ce4bgm92rcd13ifvqbr0","pricing_plan_id":"cebpf4jnsgd1na2vs0mg"},{"bike_id":"10a5dfbf-3aa3-4cf3-ac17-cd4d12fd6782","system_id":"levelo_inurba_marseille","lat":43.32367,"lon":5.36755,"is_reserved":false,"is_disabled":false,"rental_uris":{"android":"levelo://app?vid=10a5dfbf-3aa3-4cf3-ac17-cd4d12fd6782","ios":"levelo://app?vid=10a5dfbf-3aa3-4cf3-ac17-cd4d12fd6782"},"vehicle_type_id":"4","last_reported":1742152007,"current_range_meters":10000,"station_id":"ce4bhsh2rcd13ifvqi2g","pricing_plan_id":"cebpf4jnsgd1na2vs0mg"},{"bike_id":"d258768a-f24f-4c44-97f2-bb4dadff68d3","system_id":"levelo_inurba_marseille","lat":43.31159,"lon":5.38678,"is_reserved":false,"is_disabled":false,"rental_uris":{"android":"levelo://app?vid=d258768a-f24f-4c44-97f2-bb4dadff68d3","ios":"levelo://app?vid=d258768a-f24f-4c44-97f2-bb4dadff68d3"},"vehicle_type_id":"4","last_reported":1742152007,"current_range_meters":10000,"station_id":"ce4bgv12rcd13ifvqcp0","pricing_plan_id":"cebpf4jnsgd1na2vs0mg"},{"bike_id":"25918a15-4b94-4c69-aaa3-b5f5e1c56790","system_id":"levelo_inurba_marseille","lat":43.25025,"lon":5.38947,"is_reserved":false,"is_disabled":false,"rental_uris":{"android":"levelo://app?vid=25918a15-4b94-4c69-aaa3-b5f5e1c56790","ios":"levelo://app?vid=25918a15-4b94-4c69-aaa3-b5f5e1c56790"},"vehicle_type_id":"4","last_reported":1742152007,"current_range_meters":10000,"station_id":"ce4bhgp2rcd13ifvqfd0","pricing_plan_id":"cebpf4jnsgd1na2vs0mg"},{"bike_id":"48464515-ed00-4752-a54a-e2ef86c98058","system_id":"levelo_inurba_marseille","lat":43.2952,"lon":5.39406,"is_reserved":false,"is_disabled":false,"rental_uris":{"android":"levelo://app?vid=48464515-ed00-4752-a54a-e2ef86c98058","ios":"levelo://app?vid=48464515-ed00-4752-a54a-e2ef86c98058"},"vehicle_type_id":"4","last_reported":1742152007,"current_range_meters":10000,"station_id":"ce4bh292rcd13ifvqdf0","pricing_plan_id":"cebpf4jnsgd1na2vs0mg"},{"bike_id":"4b1426cb-648f-45df-a095-ae89ed465b04","system_id":"levelo_inurba_marseille","lat":43.25005,"lon":5.38923,"is_reserved":false,"is_disabled":false,"rental_uris":{"android":"levelo://app?vid=4b1426cb-648f-45df-a095-ae89ed465b04","ios":"levelo://app?vid=4b1426cb-648f-45df-a095-ae89ed465b04"},"vehicle_type_id":"4","last_reported":1742152007,"current_range_meters":10000,"station_id":"ce4bhgp2rcd13ifvqfd0","pricing_plan_id":"cebpf4jnsgd1na2vs0mg"},{"bike_id":"fb92ce7f-273f-42f9-843b-fa211bfbdea0","system_id":"levelo_inurba_marseille","lat":43.2892,"lon":5.38411,"is_reserved":false,"is_disabled":false,"rental_uris":{"android":"levelo://app?vid=fb92ce7f-273f-42f9-843b-fa211bfbdea0","ios":"levelo://app?vid=fb92ce7f-273f-42f9-843b-fa211bfbdea0"},"vehicle_type_id":"4","last_reported":1742152007,"current_range_meters":10000,"station_id":"ce4bh612rcd13ifvqe6g","pricing_plan_id":"cebpf4jnsgd1na2vs0mg"},{"bike_id":"18f33ae7-3acb-407d-a5a7-4c104a302f2a","system_id":"levelo_inurba_marseille","lat":43.27612,"lon":5.36124,"is_reserved":false,"is_disabled":false,"rental_uris":{"android":"levelo://app?vid=18f33ae7-3acb-407d-a5a7-4c104a302f2a","ios":"levelo://app?vid=18f33ae7-3acb-407d-a5a7-4c104a302f2a"},"vehicle_type_id":"4","last_reported":1742152007,"current_range_meters":10000,"station_id":"ce4bgj92rcd13ifvqbe0","pricing_plan_id":"cebpf4jnsgd1na2vs0mg"},{"bike_id":"6d99b028-48e7-4e83-828b-3f64554ffbd8","system_id":"levelo_inurba_marseille","lat":43.27068,"lon":5.42276,"is_reserved":false,"is_disabled":false,"rental_uris":{"android":"levelo://app?vid=6d99b028-48e7-4e83-828b-3f64554ffbd8","ios":"levelo://app?vid=6d99b028-48e7-4e83-828b-3f64554ffbd8"},"vehicle_type_id":"4","last_reported":1742152007,"current_range_meters":10800,"station_id":"ce4bhk92rcd13ifvqgb0","pricing_plan_id":"cebpf4jnsgd1na2vs0mg"},{"bike_id":"b0d2cd6b-a9b2-49f5-b582-3051ba923f33","system_id":"levelo_inurba_marseille","lat":43.25083,"lon":5.39509,"is_reserved":false,"is_disabled":false,"rental_uris":{"android":"levelo://app?vid=b0d2cd6b-a9b2-49f5-b582-3051ba923f33","ios":"levelo://app?vid=b0d2cd6b-a9b2-49f5-b582-3051ba923f33"},"vehicle_type_id":"4","last_reported":1742152007,"current_range_meters":10800,"station_id":"ce4bhm12rcd13ifvqgkg","pricing_plan_id":"cebpf4jnsgd1na2vs0mg"},{"bike_id":"4e12691a-07ff-4c49-894d-e054de7652ca","system_id":"levelo_inurba_marseille","lat":43.30272,"lon":5.40065,"is_reserved":false,"is_disabled":false,"rental_uris":{"android":"levelo://app?vid=4e12691a-07ff-4c49-894d-e054de7652ca","ios":"levelo://app?vid=4e12691a-07ff-4c49-894d-e054de7652ca"},"vehicle_type_id":"4","last_reported":1742152007,"current_range_meters":10800,"station_id":"ce4bgvh2rcd13ifvqcs0","pricing_plan_id":"cebpf4jnsgd1na2vs0mg"},{"bike_id":"54556cf2-31f7-469c-bee8-e1cf802d5d6b","system_id":"levelo_inurba_marseille","lat":43.28109,"lon":5.3989,"is_reserved":false,"is_disabled":false,"rental_uris":{"android":"levelo://app?vid=54556cf2-31f7-469c-bee8-e1cf802d5d6b","ios":"levelo://app?vid=54556cf2-31f7-469c-bee8-e1cf802d5d6b"},"vehicle_type_id":"4","last_reported":1742152007,"current_range_meters":10800,"station_id":"","pricing_plan_id":"cebpf4jnsgd1na2vs0mg"},{"bike_id":"e0235942-62e2-438e-b17e-f579163a1f9f","system_id":"levelo_inurba_marseille","lat":43.29558,"lon":5.37541,"is_reserved":false,"is_disabled":false,"rental_uris":{"android":"levelo://app?vid=e0235942-62e2-438e-b17e-f579163a1f9f","ios":"levelo://app?vid=e0235942-62e2-438e-b17e-f579163a1f9f"},"vehicle_type_id":"4","last_reported":1742152007,"current_range_meters":10800,"station_id":"ce4bgh92rcd13ifvqb50","pricing_plan_id":"cebpf4jnsgd1na2vs0mg"},{"bike_id":"d6cd0df4-ca0d-407c-ac60-8420479f0dd1","system_id":"levelo_inurba_marseille","lat":43.2307,"lon":5.35487,"is_reserved":false,"is_disabled":false,"rental_uris":{"android":"levelo://app?vid=d6cd0df4-ca0d-407c-ac60-8420479f0dd1","ios":"levelo://app?vid=d6cd0df4-ca0d-407c-ac60-8420479f0dd1"},"vehicle_type_id":"4","last_reported":1742152007,"current_range_meters":10800,"station_id":"cpo3342slgdg3j2ifvpg","pricing_plan_id":"cebpf4jnsgd1na2vs0mg"},{"bike_id":"23d4689b-80a0-4957-9106-f572be80fe0e","system_id":"levelo_inurba_marseille","lat":43.27497,"lon":5.42458,"is_reserved":false,"is_disabled":false,"rental_uris":{"android":"levelo://app?vid=23d4689b-80a0-4957-9106-f572be80fe0e","ios":"levelo://app?vid=23d4689b-80a0-4957-9106-f572be80fe0e"},"vehicle_type_id":"4","last_reported":1742152007,"current_range_meters":10800,"station_id":"ce4bhn92rcd13ifvqgrg","pricing_plan_id":"cebpf4jnsgd1na2vs0mg"},{"bike_id":"2e6c3038-6eb8-46ce-bd43-53f0733e5db9","system_id":"levelo_inurba_marseille","lat":43.32113,"lon":5.36833,"is_reserved":false,"is_disabled":false,"rental_uris":{"android":"levelo://app?vid=2e6c3038-6eb8-46ce-bd43-53f0733e5db9","ios":"levelo://app?vid=2e6c3038-6eb8-46ce-bd43-53f0733e5db9"},"vehicle_type_id":"4","last_reported":1742152007,"current_range_meters":10800,"station_id":"","pricing_plan_id":"cebpf4jnsgd1na2vs0mg"},{"bike_id":"761351a1-8385-476b-a1a2-e79666e9463b","system_id":"levelo_inurba_marseille","lat":43.30312,"lon":5.40458,"is_reserved":false,"is_disabled":false,"rental_uris":{"android":"levelo://app?vid=761351a1-8385-476b-a1a2-e79666e9463b","ios":"levelo://app?vid=761351a1-8385-476b-a1a2-e79666e9463b"},"vehicle_type_id":"4","last_reported":1742152007,"current_range_meters":10800,"station_id":"ce4bh012rcd13ifvqd10","pricing_plan_id":"cebpf4jnsgd1na2vs0mg"},{"bike_id":"4a945509-81de-4386-a3ec-0c963fa0f055","system_id":"levelo_inurba_marseille","lat":43.28921,"lon":5.38391,"is_reserved":false,"is_disabled":false,"rental_uris":{"android":"levelo://app?vid=4a945509-81de-4386-a3ec-0c963fa0f055","ios":"levelo://app?vid=4a945509-81de-4386-a3ec-0c963fa0f055"},"vehicle_type_id":"4","last_reported":1742152007,"current_range_meters":10800,"station_id":"ce4bh612rcd13ifvqe6g","pricing_plan_id":"cebpf4jnsgd1na2vs0mg"},{"bike_id":"d58e46ef-6b32-4697-a865-c1ef5e4815f5","system_id":"levelo_inurba_marseille","lat":43.28349,"lon":5.38108,"is_reserved":false,"is_disabled":false,"rental_uris":{"android":"levelo://app?vid=d58e46ef-6b32-4697-a865-c1ef5e4815f5","ios":"levelo://app?vid=d58e46ef-6b32-4697-a865-c1ef5e4815f5"},"vehicle_type_id":"4","last_reported":1742152007,"current_range_meters":10800,"station_id":"ce4bh412rcd13ifvqdr0","pricing_plan_id":"cebpf4jnsgd1na2vs0mg"},{"bike_id":"659cfc6c-f2ba-4758-b6de-6943e7c2dc48","system_id":"levelo_inurba_marseille","lat":43.28701,"lon":5.3739,"is_reserved":false,"is_disabled":true,"rental_uris":{"android":"levelo://app?vid=659cfc6c-f2ba-4758-b6de-6943e7c2dc48","ios":"levelo://app?vid=659cfc6c-f2ba-4758-b6de-6943e7c2dc48"},"vehicle_type_id":"4","last_reported":1742152007,"current_range_meters":10800,"station_id":"ce4bh3p2rcd13ifvqdq0","pricing_plan_id":"cebpf4jnsgd1na2vs0mg"},{"bike_id":"084e5042-5851-4c51-a14d-abd3aeab05d5","system_id":"levelo_inurba_marseille","lat":43.2871,"lon":5.37394,"is_reserved":false,"is_disabled":false,"rental_uris":{"android":"levelo://app?vid=084e5042-5851-4c51-a14d-abd3aeab05d5","ios":"levelo://app?vid=084e5042-5851-4c51-a14d-abd3aeab05d5"},"vehicle_type_id":"4","last_reported":1742152007,"current_range_meters":10800,"station_id":"ce4bh3p2rcd13ifvqdq0","pricing_plan_id":"cebpf4jnsgd1na2vs0mg"},{"bike_id":"c2f488d4-1fa5-41e3-8797-f7db6ced0af9","system_id":"levelo_inurba_marseille","lat":43.29021,"lon":5.38139,"is_reserved":false,"is_disabled":false,"rental_uris":{"android":"levelo://app?vid=c2f488d4-1fa5-41e3-8797-f7db6ced0af9","ios":"levelo://app?vid=c2f488d4-1fa5-41e3-8797-f7db6ced0af9"},"vehicle_type_id":"4","last_reported":1742152007,"current_range_meters":10800,"station_id":"ce4bhap2rcd13ifvqek0","pricing_plan_id":"cebpf4jnsgd1na2vs0mg"},{"bike_id":"c0d14a55-0953-4c59-b0cd-c76953277ffe","system_id":"levelo_inurba_marseille","lat":43.29761,"lon":5.44795,"is_reserved":false,"is_disabled":false,"rental_uris":{"android":"levelo://app?vid=c0d14a55-0953-4c59-b0cd-c76953277ffe","ios":"levelo://app?vid=c0d14a55-0953-4c59-b0cd-c76953277ffe"},"vehicle_type_id":"4","last_reported":1742152007,"current_range_meters":10800,"station_id":"","pricing_plan_id":"cebpf4jnsgd1na2vs0mg"},{"bike_id":"a7399de4-7257-4366-8c51-b1054f1afdcf","system_id":"levelo_inurba_marseille","lat":43.28406,"lon":5.37516,"is_reserved":false,"is_disabled":false,"rental_uris":{"android":"levelo://app?vid=a7399de4-7257-4366-8c51-b1054f1afdcf","ios":"levelo://app?vid=a7399de4-7257-4366-8c51-b1054f1afdcf"},"vehicle_type_id":"4","last_reported":1742152007,"current_range_meters":10800,"station_id":"ce4bh412rcd13ifvqds0","pricing_plan_id":"cebpf4jnsgd1na2vs0mg"},{"bike_id":"1f9a9668-f20a-4b32-9dce-dfb024996834","system_id":"levelo_inurba_marseille","lat":43.29045,"lon":5.38706,"is_reserved":false,"is_disabled":true,"rental_uris":{"android":"levelo://app?vid=1f9a9668-f20a-4b32-9dce-dfb024996834","ios":"levelo://app?vid=1f9a9668-f20a-4b32-9dce-dfb024996834"},"vehicle_type_id":"4","last_reported":1742152007,"current_range_meters":10800,"station_id":"ce4bh4p2rcd13ifvqe0g","pricing_plan_id":"cebpf4jnsgd1na2vs0mg"},{"bike_id":"5347502d-92da-4d7b-94b1-1aa2f08ecf79","system_id":"levelo_inurba_marseille","lat":43.29063,"lon":5.38628,"is_reserved":false,"is_disabled":false,"rental_uris":{"android":"levelo://app?vid=5347502d-92da-4d7b-94b1-1aa2f08ecf79","ios":"levelo://app?vid=5347502d-92da-4d7b-94b1-1aa2f08ecf79"},"vehicle_type_id":"4","last_reported":1742152007,"current_range_meters":10800,"station_id":"ce4bh4p2rcd13ifvqe0g","pricing_plan_id":"cebpf4jnsgd1na2vs0mg"},{"bike_id":"49fea2c2-9361-4fb5-954f-b44bbf354e43","system_id":"levelo_inurba_marseille","lat":43.32365,"lon":5.36755,"is_reserved":false,"is_disabled":false,"rental_uris":{"android":"levelo://app?vid=49fea2c2-9361-4fb5-954f-b44bbf354e43","ios":"levelo://app?vid=49fea2c2-9361-4fb5-954f-b44bbf354e43"},"vehicle_type_id":"4","last_reported":1742152007,"current_range_meters":10800,"station_id":"ce4bhsh2rcd13ifvqi2g","pricing_plan_id":"cebpf4jnsgd1na2vs0mg"},{"bike_id":"1c96b0d2-8612-44d4-96d7-f3d5e4ea6c17","system_id":"levelo_inurba_marseille","lat":43.29583,"lon":5.36727,"is_reserved":false,"is_disabled":false,"rental_uris":{"android":"levelo://app?vid=1c96b0d2-8612-44d4-96d7-f3d5e4ea6c17","ios":"levelo://app?vid=1c96b0d2-8612-44d4-96d7-f3d5e4ea6c17"},"vehicle_type_id":"4","last_reported":1742152007,"current_range_meters":10800,"station_id":"ce4bgph2rcd13ifvqc2g","pricing_plan_id":"cebpf4jnsgd1na2vs0mg"},{"bike_id":"54b2f472-0873-4238-964b-91fb3824c181","system_id":"levelo_inurba_marseille","lat":43.28984,"lon":5.37827,"is_reserved":false,"is_disabled":false,"rental_uris":{"android":"levelo://app?vid=54b2f472-0873-4238-964b-91fb3824c181","ios":"levelo://app?vid=54b2f472-0873-4238-964b-91fb3824c181"},"vehicle_type_id":"4","last_reported":1742152007,"current_range_meters":10800,"station_id":"ce4bh9p2rcd13ifvqed0","pricing_plan_id":"cebpf4jnsgd1na2vs0mg"},{"bike_id":"9f521f2b-5f20-4d05-8811-5ab8a40b264f","system_id":"levelo_inurba_marseille","lat":43.25721,"lon":5.41114,"is_reserved":false,"is_disabled":false,"rental_uris":{"android":"levelo://app?vid=9f521f2b-5f20-4d05-8811-5ab8a40b264f","ios":"levelo://app?vid=9f521f2b-5f20-4d05-8811-5ab8a40b264f"},"vehicle_type_id":"4","last_reported":1742152007,"current_range_meters":11200,"station_id":"ce4bhkp2rcd13ifvqgd0","pricing_plan_id":"cebpf4jnsgd1na2vs0mg"},{"bike_id":"f13cb805-5e8b-468c-97a5-da60b9b8c554","system_id":"levelo_inurba_marseille","lat":43.24385,"lon":5.3706,"is_reserved":false,"is_disabled":false,"rental_uris":{"android":"levelo://app?vid=f13cb805-5e8b-468c-97a5-da60b9b8c554","ios":"levelo://app?vid=f13cb805-5e8b-468c-97a5-da60b9b8c554"},"vehicle_type_id":"4","last_reported":1742152007,"current_range_meters":11200,"station_id":"ce4bhhh2rcd13ifvqfk0","pricing_plan_id":"cebpf4jnsgd1na2vs0mg"},{"bike_id":"92925fb2-d5ff-4b48-a10f-e77f86c8ca05","system_id":"levelo_inurba_marseille","lat":43.28465,"lon":5.38406,"is_reserved":false,"is_disabled":false,"rental_uris":{"android":"levelo://app?vid=92925fb2-d5ff-4b48-a10f-e77f86c8ca05","ios":"levelo://app?vid=92925fb2-d5ff-4b48-a10f-e77f86c8ca05"},"vehicle_type_id":"4","last_reported":1742152007,"current_range_meters":11200,"station_id":"ce4bh512rcd13ifvqe3g","pricing_plan_id":"cebpf4jnsgd1na2vs0mg"},{"bike_id":"5a61a616-683f-484d-83ae-d7f61143d634","system_id":"levelo_inurba_marseille","lat":43.29516,"lon":5.42485,"is_reserved":false,"is_disabled":false,"rental_uris":{"android":"levelo://app?vid=5a61a616-683f-484d-83ae-d7f61143d634","ios":"levelo://app?vid=5a61a616-683f-484d-83ae-d7f61143d634"},"vehicle_type_id":"4","last_reported":1742152007,"current_range_meters":11200,"station_id":"","pricing_plan_id":"cebpf4jnsgd1na2vs0mg"},{"bike_id":"ce157c99-2b38-44c1-b6a5-db708ae225d5","system_id":"levelo_inurba_marseille","lat":43.240835,"lon":5.377508,"is_reserved":false,"is_disabled":false,"rental_uris":{"android":"levelo://app?vid=ce157c99-2b38-44c1-b6a5-db708ae225d5","ios":"levelo://app?vid=ce157c99-2b38-44c1-b6a5-db708ae225d5"},"vehicle_type_id":"4","last_reported":1742152007,"current_range_meters":11200,"station_id":"ce4bhnp2rcd13ifvqgvg","pricing_plan_id":"cebpf4jnsgd1na2vs0mg"},{"bike_id":"859b5968-a4fb-469a-84e1-1ffe2d4aef1d","system_id":"levelo_inurba_marseille","lat":43.31057,"lon":5.37637,"is_reserved":false,"is_disabled":false,"rental_uris":{"android":"levelo://app?vid=859b5968-a4fb-469a-84e1-1ffe2d4aef1d","ios":"levelo://app?vid=859b5968-a4fb-469a-84e1-1ffe2d4aef1d"},"vehicle_type_id":"4","last_reported":1742152007,"current_range_meters":11200,"station_id":"ce4bgv92rcd13ifvqcq0","pricing_plan_id":"cebpf4jnsgd1na2vs0mg"},{"bike_id":"b9bb24cd-eacf-416c-ab97-14284a4d5c58","system_id":"levelo_inurba_marseille","lat":43.24079,"lon":5.37757,"is_reserved":false,"is_disabled":false,"rental_uris":{"android":"levelo://app?vid=b9bb24cd-eacf-416c-ab97-14284a4d5c58","ios":"levelo://app?vid=b9bb24cd-eacf-416c-ab97-14284a4d5c58"},"vehicle_type_id":"4","last_reported":1742152007,"current_range_meters":10800,"station_id":"ce4bhnp2rcd13ifvqgvg","pricing_plan_id":"cebpf4jnsgd1na2vs0mg"},{"bike_id":"8fa7ea8d-156d-42f2-95b3-ae3567fc37ee","system_id":"levelo_inurba_marseille","lat":43.23198,"lon":5.39982,"is_reserved":false,"is_disabled":false,"rental_uris":{"android":"levelo://app?vid=8fa7ea8d-156d-42f2-95b3-ae3567fc37ee","ios":"levelo://app?vid=8fa7ea8d-156d-42f2-95b3-ae3567fc37ee"},"vehicle_type_id":"4","last_reported":1742152007,"current_range_meters":11200,"station_id":"ce4bhn12rcd13ifvqgqg","pricing_plan_id":"cebpf4jnsgd1na2vs0mg"},{"bike_id":"ce94305a-77be-4fec-8849-896816a114ef","system_id":"levelo_inurba_marseille","lat":43.28695,"lon":5.38689,"is_reserved":false,"is_disabled":false,"rental_uris":{"android":"levelo://app?vid=ce94305a-77be-4fec-8849-896816a114ef","ios":"levelo://app?vid=ce94305a-77be-4fec-8849-896816a114ef"},"vehicle_type_id":"4","last_reported":1742152007,"current_range_meters":11200,"station_id":"ce4bh492rcd13ifvqdug","pricing_plan_id":"cebpf4jnsgd1na2vs0mg"},{"bike_id":"d78a64ce-13c2-48bf-808e-e90b3704ad19","system_id":"levelo_inurba_marseille","lat":43.2695,"lon":5.40221,"is_reserved":false,"is_disabled":false,"rental_uris":{"android":"levelo://app?vid=d78a64ce-13c2-48bf-808e-e90b3704ad19","ios":"levelo://app?vid=d78a64ce-13c2-48bf-808e-e90b3704ad19"},"vehicle_type_id":"4","last_reported":1742152007,"current_range_meters":11200,"station_id":"cjm6bp8fraef2m0cb0m0","pricing_plan_id":"cebpf4jnsgd1na2vs0mg"},{"bike_id":"7744a398-14ee-4b67-a148-5c9c6471def4","system_id":"levelo_inurba_marseille","lat":43.25522,"lon":5.37688,"is_reserved":false,"is_disabled":true,"rental_uris":{"android":"levelo://app?vid=7744a398-14ee-4b67-a148-5c9c6471def4","ios":"levelo://app?vid=7744a398-14ee-4b67-a148-5c9c6471def4"},"vehicle_type_id":"4","last_reported":1742152007,"current_range_meters":11200,"station_id":"ce4bhh12rcd13ifvqff0","pricing_plan_id":"cebpf4jnsgd1na2vs0mg"},{"bike_id":"760b38d2-79b4-4c3c-b4bb-02586e46e837","system_id":"levelo_inurba_marseille","lat":43.308028,"lon":5.381554,"is_reserved":false,"is_disabled":true,"rental_uris":{"android":"levelo://app?vid=760b38d2-79b4-4c3c-b4bb-02586e46e837","ios":"levelo://app?vid=760b38d2-79b4-4c3c-b4bb-02586e46e837"},"vehicle_type_id":"4","last_reported":1742152007,"current_range_meters":11200,"station_id":"ce4bgt12rcd13ifvqce0","pricing_plan_id":"cebpf4jnsgd1na2vs0mg"},{"bike_id":"ea3faa2e-2727-4cd3-a354-57574da4893b","system_id":"levelo_inurba_marseille","lat":43.24181,"lon":5.36405,"is_reserved":false,"is_disabled":false,"rental_uris":{"android":"levelo://app?vid=ea3faa2e-2727-4cd3-a354-57574da4893b","ios":"levelo://app?vid=ea3faa2e-2727-4cd3-a354-57574da4893b"},"vehicle_type_id":"4","last_reported":1742152007,"current_range_meters":11200,"station_id":"cpo36qri1sfpv3e86is0","pricing_plan_id":"cebpf4jnsgd1na2vs0mg"},{"bike_id":"bad7f1aa-96e5-4241-b1ba-b25cb7d99152","system_id":"levelo_inurba_marseille","lat":43.30889,"lon":5.39642,"is_reserved":false,"is_disabled":false,"rental_uris":{"android":"levelo://app?vid=bad7f1aa-96e5-4241-b1ba-b25cb7d99152","ios":"levelo://app?vid=bad7f1aa-96e5-4241-b1ba-b25cb7d99152"},"vehicle_type_id":"4","last_reported":1742152007,"current_range_meters":11200,"station_id":"ce4bh012rcd13ifvqcv0","pricing_plan_id":"cebpf4jnsgd1na2vs0mg"},{"bike_id":"dd77c31d-dba1-493d-a5f3-7182fac52861","system_id":"levelo_inurba_marseille","lat":43.30607,"lon":5.37228,"is_reserved":false,"is_disabled":false,"rental_uris":{"android":"levelo://app?vid=dd77c31d-dba1-493d-a5f3-7182fac52861","ios":"levelo://app?vid=dd77c31d-dba1-493d-a5f3-7182fac52861"},"vehicle_type_id":"4","last_reported":1742152007,"current_range_meters":11200,"station_id":"ce4bgqh2rcd13ifvqc4g","pricing_plan_id":"cebpf4jnsgd1na2vs0mg"},{"bike_id":"ec9d1174-e42a-443d-b0b1-7488f75aa02a","system_id":"levelo_inurba_marseille","lat":43.25861,"lon":5.39914,"is_reserved":false,"is_disabled":false,"rental_uris":{"android":"levelo://app?vid=ec9d1174-e42a-443d-b0b1-7488f75aa02a","ios":"levelo://app?vid=ec9d1174-e42a-443d-b0b1-7488f75aa02a"},"vehicle_type_id":"4","last_reported":1742152007,"current_range_meters":11600,"station_id":"ce4bhl92rcd13ifvqghg","pricing_plan_id":"cebpf4jnsgd1na2vs0mg"},{"bike_id":"b2a9b540-5556-439b-ae8d-6d46b27b801c","system_id":"levelo_inurba_marseille","lat":43.28347,"lon":5.38105,"is_reserved":false,"is_disabled":true,"rental_uris":{"android":"levelo://app?vid=b2a9b540-5556-439b-ae8d-6d46b27b801c","ios":"levelo://app?vid=b2a9b540-5556-439b-ae8d-6d46b27b801c"},"vehicle_type_id":"4","last_reported":1742152007,"current_range_meters":11600,"station_id":"ce4bh412rcd13ifvqdr0","pricing_plan_id":"cebpf4jnsgd1na2vs0mg"},{"bike_id":"c8d131e0-ed32-4f94-b594-23b2c09fe02a","system_id":"levelo_inurba_marseille","lat":43.29904,"lon":5.38163,"is_reserved":false,"is_disabled":false,"rental_uris":{"android":"levelo://app?vid=c8d131e0-ed32-4f94-b594-23b2c09fe02a","ios":"levelo://app?vid=c8d131e0-ed32-4f94-b594-23b2c09fe02a"},"vehicle_type_id":"4","last_reported":1742152007,"current_range_meters":11600,"station_id":"ce4bgj12rcd13ifvqbc0","pricing_plan_id":"cebpf4jnsgd1na2vs0mg"},{"bike_id":"7c6c8031-1744-4a73-9608-7a1069801d00","system_id":"levelo_inurba_marseille","lat":43.30795,"lon":5.38155,"is_reserved":false,"is_disabled":false,"rental_uris":{"android":"levelo://app?vid=7c6c8031-1744-4a73-9608-7a1069801d00","ios":"levelo://app?vid=7c6c8031-1744-4a73-9608-7a1069801d00"},"vehicle_type_id":"4","last_reported":1742152007,"current_range_meters":11600,"station_id":"ce4bgt12rcd13ifvqce0","pricing_plan_id":"cebpf4jnsgd1na2vs0mg"},{"bike_id":"90ed8a4a-7ccd-4042-bc24-c1e398736183","system_id":"levelo_inurba_marseille","lat":43.30427,"lon":5.39751,"is_reserved":false,"is_disabled":false,"rental_uris":{"android":"levelo://app?vid=90ed8a4a-7ccd-4042-bc24-c1e398736183","ios":"levelo://app?vid=90ed8a4a-7ccd-4042-bc24-c1e398736183"},"vehicle_type_id":"4","last_reported":1742152007,"current_range_meters":11600,"station_id":"ce4bh092rcd13ifvqd20","pricing_plan_id":"cebpf4jnsgd1na2vs0mg"},{"bike_id":"0e20dd06-a25e-43cc-a91a-ee4fc349821f","system_id":"levelo_inurba_marseille","lat":43.29596,"lon":5.38108,"is_reserved":false,"is_disabled":false,"rental_uris":{"android":"levelo://app?vid=0e20dd06-a25e-43cc-a91a-ee4fc349821f","ios":"levelo://app?vid=0e20dd06-a25e-43cc-a91a-ee4fc349821f"},"vehicle_type_id":"4","last_reported":1742152007,"current_range_meters":11600,"station_id":"ce4bgl12rcd13ifvqbo0","pricing_plan_id":"cebpf4jnsgd1na2vs0mg"},{"bike_id":"502a3b3e-8957-45c1-a4dd-1cb7cf5ee2e2","system_id":"levelo_inurba_marseille","lat":43.3212,"lon":5.36774,"is_reserved":false,"is_disabled":false,"rental_uris":{"android":"levelo://app?vid=502a3b3e-8957-45c1-a4dd-1cb7cf5ee2e2","ios":"levelo://app?vid=502a3b3e-8957-45c1-a4dd-1cb7cf5ee2e2"},"vehicle_type_id":"4","last_reported":1742152007,"current_range_meters":11600,"station_id":"ce4bhrh2rcd13ifvqhug","pricing_plan_id":"cebpf4jnsgd1na2vs0mg"},{"bike_id":"9486efe0-6a91-444d-a091-6f8a7777a0ff","system_id":"levelo_inurba_marseille","lat":43.2902,"lon":5.37543,"is_reserved":false,"is_disabled":false,"rental_uris":{"android":"levelo://app?vid=9486efe0-6a91-444d-a091-6f8a7777a0ff","ios":"levelo://app?vid=9486efe0-6a91-444d-a091-6f8a7777a0ff"},"vehicle_type_id":"4","last_reported":1742152007,"current_range_meters":11600,"station_id":"ce4bh692rcd13ifvqe90","pricing_plan_id":"cebpf4jnsgd1na2vs0mg"},{"bike_id":"fc137773-94c5-4c85-b362-abc199012fb6","system_id":"levelo_inurba_marseille","lat":43.27613,"lon":5.36132,"is_reserved":false,"is_disabled":false,"rental_uris":{"android":"levelo://app?vid=fc137773-94c5-4c85-b362-abc199012fb6","ios":"levelo://app?vid=fc137773-94c5-4c85-b362-abc199012fb6"},"vehicle_type_id":"4","last_reported":1742152007,"current_range_meters":11600,"station_id":"ce4bgj92rcd13ifvqbe0","pricing_plan_id":"cebpf4jnsgd1na2vs0mg"},{"bike_id":"150f3b0b-f102-462e-8efd-f3cec2fa2905","system_id":"levelo_inurba_marseille","lat":43.29624,"lon":5.3715,"is_reserved":false,"is_disabled":false,"rental_uris":{"android":"levelo://app?vid=150f3b0b-f102-462e-8efd-f3cec2fa2905","ios":"levelo://app?vid=150f3b0b-f102-462e-8efd-f3cec2fa2905"},"vehicle_type_id":"4","last_reported":1742152007,"current_range_meters":11200,"station_id":"ce4bgnh2rcd13ifvqc0g","pricing_plan_id":"cebpf4jnsgd1na2vs0mg"},