{"last_updated":1765932801,"ttl":60,"version":"2.2","data":{"bikes":[{"bike_id":"8809623b-bcab-46c3-8a73-160886551c22","system_id":"levelo_inurba_marseille","lat":43.23192,"lon":5.39991,"is_reserved":false,"is_disabled":false,"rental_uris":{"android":"levelo://app?vid=8809623b-bcab-46c3-8a73-160886551c22","ios":"levelo://app?vid=8809623b-bcab-46c3-8a73-160886551c22"},"vehicle_type_id":"4","last_reported":1765932801,"current_range_meters":2800,"station_id":"","pricing_plan_id":"cebpf4jnsgd1na2vs0mg"},{"bike_id":"5cfcac19-e885-4209-96ab-a70a0192b25a","system_id":"levelo_inurba_marseille","lat":43.33782,"lon":5.37437,"is_reserved":false,"is_disabled":false,"rental_uris":{"android":"levelo://app?vid=5cfcac19-e885-4209-96ab-a70a0192b25a","ios":"levelo://app?vid=5cfcac19-e885-4209-96ab-a70a0192b25a"},"vehicle_type_id":"4","last_reported":1765932801,"current_range_meters":3200,"station_id":"","pricing_plan_id":"cebpf4jnsgd1na2vs0mg"},{"bike_id":"b45d2bbe-5126-48a9-aba8-e2d84650bde7","system_id":"levelo_inurba_marseille","lat":43.28406,"lon":5.34986,"is_reserved":false,"is_disabled":false,"rental_uris":{"android":"levelo://app?vid=b45d2bbe-5126-48a9-aba8-e2d84650bde7","ios":"levelo://app?vid=b45d2bbe-5126-48a9-aba8-e2d84650bde7"},"vehicle_type_id":"4","last_reported":1765932801,"current_range_meters":3600,"station_id":"ce4bhbh2rcd13ifvqepg","pricing_plan_id":"cebpf4jnsgd1na2vs0mg"},{"bike_id":"bf4ec8c6-3a04-40b3-b0f1-8aee8feac994","system_id":"levelo_inurba_marseille","lat":43.24182,"lon":5.39728,"is_reserved":false,"is_disabled":false,"rental_uris":{"android":"levelo://app?vid=bf4ec8c6-3a04-40b3-b0f1-8aee8feac994","ios":"levelo://app?vid=bf4ec8c6-3a04-40b3-b0f1-8aee8feac994"},"vehicle_type_id":"4","last_reported":1765932801,"current_range_meters":3600,"station_id":"ce4bhn12rcd13ifvqgpg","pricing_plan_id":"cebpf4jnsgd1na2vs0mg"},{"bike_id":"af60ad45-1773-4b17-8cbf-b5714f9a120e","system_id":"levelo_inurba_marseille","lat":43.337666,"lon":5.374436,"is_reserved":false,"is_disabled":false,"rental_uris":{"android":"levelo://app?vid=af60ad45-1773-4b17-8cbf-b5714f9a120e","ios":"levelo://app?vid=af60ad45-1773-4b17-8cbf-b5714f9a120e"},"vehicle_type_id":"4","last_reported":1765932801,"current_range_meters":4000,"station_id":"","pricing_plan_id":"cebpf4jnsgd1na2vs0mg"},{"bike_id":"07098224-6a3f-4948-8f2d-05646b29d0d7","system_id":"levelo_inurba_marseille","lat":43.290536,"lon":5.386107,"is_reserved":false,"is_disabled":false,"rental_uris":{"android":"levelo://app?vid=07098224-6a3f-4948-8f2d-05646b29d0d7","ios":"levelo://app?vid=07098224-6a3f-4948-8f2d-05646b29d0d7"},"vehicle_type_id":"4","last_reported":1765932801,"current_range_meters":4000,"station_id":"ce4bh4p2rcd13ifvqe0g","pricing_plan_id":"cebpf4jnsgd1na2vs0mg"},{"bike_id":"aac3a556-eab0-4156-bc9c-29564664e6f5","system_id":"levelo_inurba_marseille","lat":43.337725,"lon":5.374316,"is_reserved":false,"is_disabled":false,"rental_uris":{"android":"levelo://app?vid=aac3a556-eab0-4156-bc9c-29564664e6f5","ios":"levelo://app?vid=aac3a556-eab0-4156-bc9c-29564664e6f5"},"vehicle_type_id":"4","last_reported":1765932801,"current_range_meters":4400,"station_id":"","pricing_plan_id":"cebpf4jnsgd1na2vs0mg"},{"bike_id":"30ffdef9-3ee1-4be3-aa4a-5baa21a1b2e0","system_id":"levelo_inurba_marseille","lat":43.27939,"lon":5.41047,"is_reserved":false,"is_disabled":false,"rental_uris":{"android":"levelo://app?vid=30ffdef9-3ee1-4be3-aa4a-5baa21a1b2e0","ios":"levelo://app?vid=30ffdef9-3ee1-4be3-aa4a-5baa21a1b2e0"},"vehicle_type_id":"4","last_reported":1765932801,"current_range_meters":4800,"station_id":"ce4bhnp2rcd13ifvqh0g","pricing_plan_id":"cebpf4jnsgd1na2vs0mg"},{"bike_id":"fcceeac8-34c6-4a4c-898a-276efdf273d7","system_id":"levelo_inurba_marseille","lat":43.309333,"lon":5.401529,"is_reserved":false,"is_disabled":false,"rental_uris":{"android":"levelo://app?vid=fcceeac8-34c6-4a4c-898a-276efdf273d7","ios":"levelo://app?vid=fcceeac8-34c6-4a4c-898a-276efdf273d7"},"vehicle_type_id":"4","last_reported":1765932801,"current_range_meters":4800,"station_id":"ce4bgvp2rcd13ifvqct0","pricing_plan_id":"cebpf4jnsgd1na2vs0mg"},{"bike_id":"7c36070f-bddc-40ed-a333-875a2d58c60c","system_id":"levelo_inurba_marseille","lat":43.26491,"lon":5.39446,"is_reserved":false,"is_disabled":false,"rental_uris":{"android":"levelo://app?vid=7c36070f-bddc-40ed-a333-875a2d58c60c","ios":"levelo://app?vid=7c36070f-bddc-40ed-a333-875a2d58c60c"},"vehicle_type_id":"4","last_reported":1765932801,"current_range_meters":4800,"station_id":"","pricing_plan_id":"cebpf4jnsgd1na2vs0mg"},{"bike_id":"0224f08a-bd8a-4dcc-9ae0-e6df47d6d7f2","system_id":"levelo_inurba_marseille","lat":43.337444,"lon":5.374475,"is_reserved":false,"is_disabled":false,"rental_uris":{"android":"levelo://app?vid=0224f08a-bd8a-4dcc-9ae0-e6df47d6d7f2","ios":"levelo://app?vid=0224f08a-bd8a-4dcc-9ae0-e6df47d6d7f2"},"vehicle_type_id":"4","last_reported":1765932801,"current_range_meters":4800,"station_id":"","pricing_plan_id":"cebpf4jnsgd1na2vs0mg"},{"bike_id":"a1874786-16ef-4c3a-8912-dfef4dd0822e","system_id":"levelo_inurba_marseille","lat":43.311,"lon":5.38362,"is_reserved":false,"is_disabled":false,"rental_uris":{"android":"levelo://app?vid=a1874786-16ef-4c3a-8912-dfef4dd0822e","ios":"levelo://app?vid=a1874786-16ef-4c3a-8912-dfef4dd0822e"},"vehicle_type_id":"4","last_reported":1765932801,"current_range_meters":5600,"station_id":"ce4bgv92rcd13ifvqcr0","pricing_plan_id":"cebpf4jnsgd1na2vs0mg"},{"bike_id":"514830aa-b5fa-4389-bfe9-171ba5aad87c","system_id":"levelo_inurba_marseille","lat":43.28404,"lon":5.3752,"is_reserved":false,"is_disabled":false,"rental_uris":{"android":"levelo://app?vid=514830aa-b5fa-4389-bfe9-171ba5aad87c","ios":"levelo://app?vid=514830aa-b5fa-4389-bfe9-171ba5aad87c"},"vehicle_type_id":"4","last_reported":1765932801,"current_range_meters":5600,"station_id":"ce4bh412rcd13ifvqds0","pricing_plan_id":"cebpf4jnsgd1na2vs0mg"},{"bike_id":"3e7989aa-dd36-4a25-bc5c-e64bc1aaaf70","system_id":"levelo_inurba_marseille","lat":43.2846,"lon":5.35891,"is_reserved":false,"is_disabled":false,"rental_uris":{"android":"levelo://app?vid=3e7989aa-dd36-4a25-bc5c-e64bc1aaaf70","ios":"levelo://app?vid=3e7989aa-dd36-4a25-bc5c-e64bc1aaaf70"},"vehicle_type_id":"4","last_reported":1765932801,"current_range_meters":5600,"station_id":"ce4bhah2rcd13ifvqei0","pricing_plan_id":"cebpf4jnsgd1na2vs0mg"},{"bike_id":"23c44aa6-0e6c-42bb-a106-2c20dde25380","system_id":"levelo_inurba_marseille","lat":43.27804,"lon":5.40711,"is_reserved":false,"is_disabled":false,"rental_uris":{"android":"levelo://app?vid=23c44aa6-0e6c-42bb-a106-2c20dde25380","ios":"levelo://app?vid=23c44aa6-0e6c-42bb-a106-2c20dde25380"},"vehicle_type_id":"4","last_reported":1765932801,"current_range_meters":5600,"station_id":"ce4bhnh2rcd13ifvqgtg","pricing_plan_id":"cebpf4jnsgd1na2vs0mg"},{"bike_id":"a613a717-96a3-4acb-9729-59a3a8cc0b12","system_id":"levelo_inurba_marseille","lat":43.2864,"lon":5.36344,"is_reserved":false,"is_disabled":false,"rental_uris":{"android":"levelo://app?vid=a613a717-96a3-4acb-9729-59a3a8cc0b12","ios":"levelo://app?vid=a613a717-96a3-4acb-9729-59a3a8cc0b12"},"vehicle_type_id":"4","last_reported":1765932801,"current_range_meters":5600,"station_id":"ce4bhah2rcd13ifvqej0","pricing_plan_id":"cebpf4jnsgd1na2vs0mg"},{"bike_id":"a3cf6e32-8a5b-405a-8e1a-e62fc2a41c92","system_id":"levelo_inurba_marseille","lat":43.28026,"lon":5.42128,"is_reserved":false,"is_disabled":false,"rental_uris":{"android":"levelo://app?vid=a3cf6e32-8a5b-405a-8e1a-e62fc2a41c92","ios":"levelo://app?vid=a3cf6e32-8a5b-405a-8e1a-e62fc2a41c92"},"vehicle_type_id":"4","last_reported":1765932801,"current_range_meters":6000,"station_id":"","pricing_plan_id":"cebpf4jnsgd1na2vs0mg"},{"bike_id":"4a03dbba-e5b4-4f11-b0f9-d5d1883ab050","system_id":"levelo_inurba_marseille","lat":43.310852,"lon":5.424316,"is_reserved":false,"is_disabled":false,"rental_uris":{"android":"levelo://app?vid=4a03dbba-e5b4-4f11-b0f9-d5d1883ab050","ios":"levelo://app?vid=4a03dbba-e5b4-4f11-b0f9-d5d1883ab050"},"vehicle_type_id":"4","last_reported":1765932801,"current_range_meters":6000,"station_id":"ce4bhp92rcd13ifvqhag","pricing_plan_id":"cebpf4jnsgd1na2vs0mg"},{"bike_id":"dcf86aea-2e35-4fc9-b06f-cfd052d91d73","system_id":"levelo_inurba_marseille","lat":43.2119,"lon":5.35075,"is_reserved":false,"is_disabled":false,"rental_uris":{"android":"levelo://app?vid=dcf86aea-2e35-4fc9-b06f-cfd052d91d73","ios":"levelo://app?vid=dcf86aea-2e35-4fc9-b06f-cfd052d91d73"},"vehicle_type_id":"4","last_reported":1765932801,"current_range_meters":6000,"station_id":"st_cvj6sg6p6f1abm77japg","pricing_plan_id":"cebpf4jnsgd1na2vs0mg"},{"bike_id":"5e7e082d-c949-4efd-b442-be6d0cf3943e","system_id":"levelo_inurba_marseille","lat":43.2455,"lon":5.39987,"is_reserved":false,"is_disabled":false,"rental_uris":{"android":"levelo://app?vid=5e7e082d-c949-4efd-b442-be6d0cf3943e","ios":"levelo://app?vid=5e7e082d-c949-4efd-b442-be6d0cf3943e"},"vehicle_type_id":"4","last_reported":1765932801,"current_range_meters":6000,"station_id":"","pricing_plan_id":"cebpf4jnsgd1na2vs0mg"},{"bike_id":"e080d691-4951-43e9-9ffd-9277319373bb","system_id":"levelo_inurba_marseille","lat":43.316035,"lon":5.379218,"is_reserved":false,"is_disabled":false,"rental_uris":{"android":"levelo://app?vid=e080d691-4951-43e9-9ffd-9277319373bb","ios":"levelo://app?vid=e080d691-4951-43e9-9ffd-9277319373bb"},"vehicle_type_id":"4","last_reported":1765932801,"current_range_meters":6000,"station_id":"","pricing_plan_id":"cebpf4jnsgd1na2vs0mg"},{"bike_id":"9916aee8-38ee-4718-8ab5-188be146fb87","system_id":"levelo_inurba_marseille","lat":43.30106,"lon":5.36541,"is_reserved":false,"is_disabled":false,"rental_uris":{"android":"levelo://app?vid=9916aee8-38ee-4718-8ab5-188be146fb87","ios":"levelo://app?vid=9916aee8-38ee-4718-8ab5-188be146fb87"},"vehicle_type_id":"4","last_reported":1765932801,"current_range_meters":6000,"station_id":"","pricing_plan_id":"cebpf4jnsgd1na2vs0mg"},{"bike_id":"0e49c737-64fa-42df-b477-b17639740d5d","system_id":"levelo_inurba_marseille","lat":43.21194,"lon":5.35072,"is_reserved":false,"is_disabled":false,"rental_uris":{"android":"levelo://app?vid=0e49c737-64fa-42df-b477-b17639740d5d","ios":"levelo://app?vid=0e49c737-64fa-42df-b477-b17639740d5d"},"vehicle_type_id":"4","last_reported":1765932801,"current_range_meters":6000,"station_id":"","pricing_plan_id":"cebpf4jnsgd1na2vs0mg"},{"bike_id":"ff21a575-7c72-4c57-84fd-92071b5f80e8","system_id":"levelo_inurba_marseille","lat":43.28084,"lon":5.39636,"is_reserved":false,"is_disabled":false,"rental_uris":{"android":"levelo://app?vid=ff21a575-7c72-4c57-84fd-92071b5f80e8","ios":"levelo://app?vid=ff21a575-7c72-4c57-84fd-92071b5f80e8"},"vehicle_type_id":"4","last_reported":1765932801,"current_range_meters":6400,"station_id":"ce4bho12rcd13ifvqh2g","pricing_plan_id":"cebpf4jnsgd1na2vs0mg"},{"bike_id":"8b4ec205-81bb-4fe4-a25a-8d4a5ee131ee","system_id":"levelo_inurba_marseille","lat":43.24823,"lon":5.37458,"is_reserved":false,"is_disabled":false,"rental_uris":{"android":"levelo://app?vid=8b4ec205-81bb-4fe4-a25a-8d4a5ee131ee","ios":"levelo://app?vid=8b4ec205-81bb-4fe4-a25a-8d4a5ee131ee"},"vehicle_type_id":"4","last_reported":1765932801,"current_range_meters":6400,"station_id":"ce4bhgh2rcd13ifvqfb0","pricing_plan_id":"cebpf4jnsgd1na2vs0mg"},{"bike_id":"a0250cd9-047b-4dcb-96a7-b1959783fdaf","system_id":"levelo_inurba_marseille","lat":43.33801,"lon":5.3745,"is_reserved":false,"is_disabled":false,"rental_uris":{"android":"levelo://app?vid=a0250cd9-047b-4dcb-96a7-b1959783fdaf","ios":"levelo://app?vid=a0250cd9-047b-4dcb-96a7-b1959783fdaf"},"vehicle_type_id":"4","last_reported":1765932801,"current_range_meters":6400,"station_id":"","pricing_plan_id":"cebpf4jnsgd1na2vs0mg"},{"bike_id":"850184bc-d4cf-4521-b35e-4473cd72a028","system_id":"levelo_inurba_marseille","lat":43.29089,"lon":5.38121,"is_reserved":false,"is_disabled":false,"rental_uris":{"android":"levelo://app?vid=850184bc-d4cf-4521-b35e-4473cd72a028","ios":"levelo://app?vid=850184bc-d4cf-4521-b35e-4473cd72a028"},"vehicle_type_id":"4","last_reported":1765932801,"current_range_meters":6800,"station_id":"","pricing_plan_id":"cebpf4jnsgd1na2vs0mg"},{"bike_id":"803f08c9-4299-43f5-ac5b-613aa13ac328","system_id":"levelo_inurba_marseille","lat":43.29799,"lon":5.39342,"is_reserved":false,"is_disabled":false,"rental_uris":{"android":"levelo://app?vid=803f08c9-4299-43f5-ac5b-613aa13ac328","ios":"levelo://app?vid=803f08c9-4299-43f5-ac5b-613aa13ac328"},"vehicle_type_id":"4","last_reported":1765932801,"current_range_meters":6800,"station_id":"chh1huq6cuj3fo74tm60","pricing_plan_id":"cebpf4jnsgd1na2vs0mg"},{"bike_id":"6bbeca0d-c7f3-4e46-9950-ab97b480fed0","system_id":"levelo_inurba_marseille","lat":43.28688,"lon":5.37384,"is_reserved":false,"is_disabled":false,"rental_uris":{"android":"levelo://app?vid=6bbeca0d-c7f3-4e46-9950-ab97b480fed0","ios":"levelo://app?vid=6bbeca0d-c7f3-4e46-9950-ab97b480fed0"},"vehicle_type_id":"4","last_reported":1765932801,"current_range_meters":6800,"station_id":"ce4bh3p2rcd13ifvqdq0","pricing_plan_id":"cebpf4jnsgd1na2vs0mg"},{"bike_id":"796fa29f-c42c-43cc-b4cf-6a44b4f28d3c","system_id":"levelo_inurba_marseille","lat":43.28725,"lon":5.3608,"is_reserved":false,"is_disabled":false,"rental_uris":{"android":"levelo://app?vid=796fa29f-c42c-43cc-b4cf-6a44b4f28d3c","ios":"levelo://app?vid=796fa29f-c42c-43cc-b4cf-6a44b4f28d3c"},"vehicle_type_id":"4","last_reported":1765932801,"current_range_meters":6800,"station_id":"cki0cbj6b192h4jlfktg","pricing_plan_id":"cebpf4jnsgd1na2vs0mg"},{"bike_id":"18fe065c-7613-48e7-a632-1efe3afc0a3c","system_id":"levelo_inurba_marseille","lat":43.29948,"lon":5.36527,"is_reserved":false,"is_disabled":false,"rental_uris":{"android":"levelo://app?vid=18fe065c-7613-48e7-a632-1efe3afc0a3c","ios":"levelo://app?vid=18fe065c-7613-48e7-a632-1efe3afc0a3c"},"vehicle_type_id":"4","last_reported":1765932801,"current_range_meters":6800,"station_id":"ce4bgm92rcd13ifvqbr0","pricing_plan_id":"cebpf4jnsgd1na2vs0mg"},{"bike_id":"2415159b-5c18-4eab-8f6a-ab05ead8e969","system_id":"levelo_inurba_marseille","lat":43.29047,"lon":5.35622,"is_reserved":false,"is_disabled":false,"rental_uris":{"android":"levelo://app?vid=2415159b-5c18-4eab-8f6a-ab05ead8e969","ios":"levelo://app?vid=2415159b-5c18-4eab-8f6a-ab05ead8e969"},"vehicle_type_id":"4","last_reported":1765932801,"current_range_meters":7200,"station_id":"ce4bhb92rcd13ifvqen0","pricing_plan_id":"cebpf4jnsgd1na2vs0mg"},{"bike_id":"552583b7-e328-467f-a82b-5d4f28133ee4","system_id":"levelo_inurba_marseille","lat":43.290704,"lon":5.371651,"is_reserved":false,"is_disabled":false,"rental_uris":{"android":"levelo://app?vid=552583b7-e328-467f-a82b-5d4f28133ee4","ios":"levelo://app?vid=552583b7-e328-467f-a82b-5d4f28133ee4"},"vehicle_type_id":"4","last_reported":1765932801,"current_range_meters":7200,"station_id":"cki0cbj6b192h4jlfktg","pricing_plan_id":"cebpf4jnsgd1na2vs0mg"},{"bike_id":"36406f00-2cfb-4829-821d-607d6a12ebc3","system_id":"levelo_inurba_marseille","lat":43.2465,"lon":5.3812,"is_reserved":false,"is_disabled":false,"rental_uris":{"android":"levelo://app?vid=36406f00-2cfb-4829-821d-607d6a12ebc3","ios":"levelo://app?vid=36406f00-2cfb-4829-821d-607d6a12ebc3"},"vehicle_type_id":"4","last_reported":1765932801,"current_range_meters":7200,"station_id":"ce4bhih2rcd13ifvqfr0","pricing_plan_id":"cebpf4jnsgd1na2vs0mg"},{"bike_id":"dd5aa473-c8e7-41f8-9e2a-c088c0cf88de","system_id":"levelo_inurba_marseille","lat":43.26201,"lon":5.37435,"is_reserved":false,"is_disabled":false,"rental_uris":{"android":"levelo://app?vid=dd5aa473-c8e7-41f8-9e2a-c088c0cf88de","ios":"levelo://app?vid=dd5aa473-c8e7-41f8-9e2a-c088c0cf88de"},"vehicle_type_id":"4","last_reported":1765932801,"current_range_meters":7200,"station_id":"ce4bhgp2rcd13ifvqfc0","pricing_plan_id":"cebpf4jnsgd1na2vs0mg"},{"bike_id":"2d2efcce-5065-45a1-902e-54e71a134983","system_id":"levelo_inurba_marseille","lat":43.33608,"lon":5.41024,"is_reserved":false,"is_disabled":false,"rental_uris":{"android":"levelo://app?vid=2d2efcce-5065-45a1-902e-54e71a134983","ios":"levelo://app?vid=2d2efcce-5065-45a1-902e-54e71a134983"},"vehicle_type_id":"4","last_reported":1765932801,"current_range_meters":7200,"station_id":"ce4bhqh2rcd13ifvqhmg","pricing_plan_id":"cebpf4jnsgd1na2vs0mg"},{"bike_id":"974e4159-2dde-48e8-8a68-f52dacedf70d","system_id":"levelo_inurba_marseille","lat":43.29779,"lon":5.36552,"is_reserved":false,"is_disabled":false,"rental_uris":{"android":"levelo://app?vid=974e4159-2dde-48e8-8a68-f52dacedf70d","ios":"levelo://app?vid=974e4159-2dde-48e8-8a68-f52dacedf70d"},"vehicle_type_id":"4","last_reported":1765932801,"current_range_meters":8000,"station_id":"","pricing_plan_id":"cebpf4jnsgd1na2vs0mg"},{"bike_id":"bab596f5-c641-4d99-82b0-0a84ce53cc03","system_id":"levelo_inurba_marseille","lat":43.29408,"lon":5.38396,"is_reserved":false,"is_disabled":false,"rental_uris":{"android":"levelo://app?vid=bab596f5-c641-4d99-82b0-0a84ce53cc03","ios":"levelo://app?vid=bab596f5-c641-4d99-82b0-0a84ce53cc03"},"vehicle_type_id":"4","last_reported":1765932801,"current_range_meters":8000,"station_id":"","pricing_plan_id":"cebpf4jnsgd1na2vs0mg"},{"bike_id":"c31e1273-394a-4341-b3f6-f2bc6199d3db","system_id":"levelo_inurba_marseille","lat":43.282595,"lon":5.350713,"is_reserved":false,"is_disabled":false,"rental_uris":{"android":"levelo://app?vid=c31e1273-394a-4341-b3f6-f2bc6199d3db","ios":"levelo://app?vid=c31e1273-394a-4341-b3f6-f2bc6199d3db"},"vehicle_type_id":"4","last_reported":1765932801,"current_range_meters":8000,"station_id":"ce4bhbp2rcd13ifvqerg","pricing_plan_id":"cebpf4jnsgd1na2vs0mg"},{"bike_id":"162ed67c-5352-41e6-bb39-0b42426a43e1","system_id":"levelo_inurba_marseille","lat":43.2953,"lon":5.3941,"is_reserved":false,"is_disabled":false,"rental_uris":{"android":"levelo://app?vid=162ed67c-5352-41e6-bb39-0b42426a43e1","ios":"levelo://app?vid=162ed67c-5352-41e6-bb39-0b42426a43e1"},"vehicle_type_id":"4","last_reported":1765932801,"current_range_meters":8000,"station_id":"ce4bh292rcd13ifvqdf0","pricing_plan_id":"cebpf4jnsgd1na2vs0mg"},{"bike_id":"1d567078-65b6-458c-86b3-c17f9e793c67","system_id":"levelo_inurba_marseille","lat":43.28467,"lon":5.35875,"is_reserved":false,"is_disabled":false,"rental_uris":{"android":"levelo://app?vid=1d567078-65b6-458c-86b3-c17f9e793c67","ios":"levelo://app?vid=1d567078-65b6-458c-86b3-c17f9e793c67"},"vehicle_type_id":"4","last_reported":1765932801,"current_range_meters":8000,"station_id":"ce4bhah2rcd13ifvqei0","pricing_plan_id":"cebpf4jnsgd1na2vs0mg"},{"bike_id":"4f2c2ae9-cceb-4f6c-925d-23d363970b60","system_id":"levelo_inurba_marseille","lat":43.27599,"lon":5.36117,"is_reserved":false,"is_disabled":false,"rental_uris":{"android":"levelo://app?vid=4f2c2ae9-cceb-4f6c-925d-23d363970b60","ios":"levelo://app?vid=4f2c2ae9-cceb-4f6c-925d-23d363970b60"},"vehicle_type_id":"4","last_reported":1765932801,"current_range_meters":8400,"station_id":"ce4bgj92rcd13ifvqbe0","pricing_plan_id":"cebpf4jnsgd1na2vs0mg"},{"bike_id":"326938aa-2228-4d10-ac06-cb03784dcba0","system_id":"levelo_inurba_marseille","lat":43.29782,"lon":5.4041,"is_reserved":false,"is_disabled":false,"rental_uris":{"android":"levelo://app?vid=326938aa-2228-4d10-ac06-cb03784dcba0","ios":"levelo://app?vid=326938aa-2228-4d10-ac06-cb03784dcba0"},"vehicle_type_id":"4","last_reported":1765932801,"current_range_meters":8400,"station_id":"ce4bh112rcd13ifvqd90","pricing_plan_id":"cebpf4jnsgd1na2vs0mg"},{"bike_id":"8432ee43-e8ef-41b4-926e-02cf4181ecbb","system_id":"levelo_inurba_marseille","lat":43.2928,"lon":5.3685,"is_reserved":false,"is_disabled":false,"rental_uris":{"android":"levelo://app?vid=8432ee43-e8ef-41b4-926e-02cf4181ecbb","ios":"levelo://app?vid=8432ee43-e8ef-41b4-926e-02cf4181ecbb"},"vehicle_type_id":"4","last_reported":1765932801,"current_range_meters":8400,"station_id":"ce4bhbp2rcd13ifvqesg","pricing_plan_id":"cebpf4jnsgd1na2vs0mg"},{"bike_id":"46b9da8e-600f-4b77-a964-111e9eafd3fa","system_id":"levelo_inurba_marseille","lat":43.26461,"lon":5.37359,"is_reserved":false,"is_disabled":false,"rental_uris":{"android":"levelo://app?vid=46b9da8e-600f-4b77-a964-111e9eafd3fa","ios":"levelo://app?vid=46b9da8e-600f-4b77-a964-111e9eafd3fa"},"vehicle_type_id":"4","last_reported":1765932801,"current_range_meters":8800,"station_id":"","pricing_plan_id":"cebpf4jnsgd1na2vs0mg"},{"bike_id":"f863adb9-b7de-4f92-ab5c-6a5e6bf3dd21","system_id":"levelo_inurba_marseille","lat":43.24666,"lon":5.381706,"is_reserved":false,"is_disabled":false,"rental_uris":{"android":"levelo://app?vid=f863adb9-b7de-4f92-ab5c-6a5e6bf3dd21","ios":"levelo://app?vid=f863adb9-b7de-4f92-ab5c-6a5e6bf3dd21"},"vehicle_type_id":"4","last_reported":1765932801,"current_range_meters":8800,"station_id":"ce4bhih2rcd13ifvqfr0","pricing_plan_id":"cebpf4jnsgd1na2vs0mg"},{"bike_id":"a9a3221e-6d0a-404e-bd54-71184c5d5451","system_id":"levelo_inurba_marseille","lat":43.29664,"lon":5.3811,"is_reserved":false,"is_disabled":true,"rental_uris":{"android":"levelo://app?vid=a9a3221e-6d0a-404e-bd54-71184c5d5451","ios":"levelo://app?vid=a9a3221e-6d0a-404e-bd54-71184c5d5451"},"vehicle_type_id":"4","last_reported":1765932801,"current_range_meters":8800,"station_id":"","pricing_plan_id":"cebpf4jnsgd1na2vs0mg"},{"bike_id":"1300bc8f-1c69-4b64-a5aa-fcb6e6de650e","system_id":"levelo_inurba_marseille","lat":43.30883,"lon":5.39655,"is_reserved":false,"is_disabled":false,"rental_uris":{"android":"levelo://app?vid=1300bc8f-1c69-4b64-a5aa-fcb6e6de650e","ios":"levelo://app?vid=1300bc8f-1c69-4b64-a5aa-fcb6e6de650e"},"vehicle_type_id":"4","last_reported":1765932801,"current_range_meters":8800,"station_id":"ce4bh012rcd13ifvqcv0","pricing_plan_id":"cebpf4jnsgd1na2vs0mg"},{"bike_id":"b87a5a4e-f1aa-4157-a322-71a7cf4f7ca0","system_id":"levelo_inurba_marseille","lat":43.31059,"lon":5.39365,"is_reserved":false,"is_disabled":false,"rental_uris":{"android":"levelo://app?vid=b87a5a4e-f1aa-4157-a322-71a7cf4f7ca0","ios":"levelo://app?vid=b87a5a4e-f1aa-4157-a322-71a7cf4f7ca0"},"vehicle_type_id":"4","last_reported":1765932801,"current_range_meters":8800,"station_id":"","pricing_plan_id":"cebpf4jnsgd1na2vs0mg"},{"bike_id":"6df4c56c-c6f5-4fb1-84fc-9f50cb5ef178","system_id":"levelo_inurba_marseille","lat":43.23203,"lon":5.3557,"is_reserved":false,"is_disabled":true,"rental_uris":{"android":"levelo://app?vid=6df4c56c-c6f5-4fb1-84fc-9f50cb5ef178","ios":"levelo://app?vid=6df4c56c-c6f5-4fb1-84fc-9f50cb5ef178"},"vehicle_type_id":"4","last_reported":1765932801,"current_range_meters":9200,"station_id":"ce4bhu92rcd13ifvqi70","pricing_plan_id":"cebpf4jnsgd1na2vs0mg"},{"bike_id":"33a2b083-5c83-46bd-ace8-47e24d0924d4","system_id":"levelo_inurba_marseille","lat":43.28644,"lon":5.3632,"is_reserved":false,"is_disabled":false,"rental_uris":{"android":"levelo://app?vid=33a2b083-5c83-46bd-ace8-47e24d0924d4","ios":"levelo://app?vid=33a2b083-5c83-46bd-ace8-47e24d0924d4"},"vehicle_type_id":"4","last_reported":1765932801,"current_range_meters":9200,"station_id":"ce4bhah2rcd13ifvqej0","pricing_plan_id":"cebpf4jnsgd1na2vs0mg"},{"bike_id":"3654ae97-b203-4383-af3d-8ace8cb0b862","system_id":"levelo_inurba_marseille","lat":43.28456,"lon":5.35881,"is_reserved":false,"is_disabled":false,"rental_uris":{"android":"levelo://app?vid=3654ae97-b203-4383-af3d-8ace8cb0b862","ios":"levelo://app?vid=3654ae97-b203-4383-af3d-8ace8cb0b862"},"vehicle_type_id":"4","last_reported":1765932801,"current_range_meters":9200,"station_id":"ce4bhah2rcd13ifvqei0","pricing_plan_id":"cebpf4jnsgd1na2vs0mg"},{"bike_id":"187e95dd-1ca0-44dd-bfaf-b9ad8a869387","system_id":"levelo_inurba_marseille","lat":43.31441,"lon":5.37424,"is_reserved":false,"is_disabled":false,"rental_uris":{"android":"levelo://app?vid=187e95dd-1ca0-44dd-bfaf-b9ad8a869387","ios":"levelo://app?vid=187e95dd-1ca0-44dd-bfaf-b9ad8a869387"},"vehicle_type_id":"4","last_reported":1765932801,"current_range_meters":9200,"station_id":"","pricing_plan_id":"cebpf4jnsgd1na2vs0mg"},{"bike_id":"fd7fe341-e9e1-43e0-9282-b94a778a6675","system_id":"levelo_inurba_marseille","lat":43.337444,"lon":5.374475,"is_reserved":false,"is_disabled":false,"rental_uris":{"android":"levelo://app?vid=fd7fe341-e9e1-43e0-9282-b94a778a6675","ios":"levelo://app?vid=fd7fe341-e9e1-43e0-9282-b94a778a6675"},"vehicle_type_id":"4","last_reported":1765932801,"current_range_meters":9200,"station_id":"","pricing_plan_id":"cebpf4jnsgd1na2vs0mg"},{"bike_id":"c2dbecdc-0ef9-48e5-a6d6-1106c2dfe04a","system_id":"levelo_inurba_marseille","lat":43.274902,"lon":5.424391,"is_reserved":false,"is_disabled":false,"rental_uris":{"android":"levelo://app?vid=c2dbecdc-0ef9-48e5-a6d6-1106c2dfe04a","ios":"levelo://app?vid=c2dbecdc-0ef9-48e5-a6d6-1106c2dfe04a"},"vehicle_type_id":"4","last_reported":1765932801,"current_range_meters":9200,"station_id":"ce4bhn92rcd13ifvqgrg","pricing_plan_id":"cebpf4jnsgd1na2vs0mg"},{"bike_id":"689366f2-5dc3-46d3-b076-15bda5909247","system_id":"levelo_inurba_marseille","lat":43.308039,"lon":5.381465,"is_reserved":false,"is_disabled":false,"rental_uris":{"android":"levelo://app?vid=689366f2-5dc3-46d3-b076-15bda5909247","ios":"levelo://app?vid=689366f2-5dc3-46d3-b076-15bda5909247"},"vehicle_type_id":"4","last_reported":1765932801,"current_range_meters":9200,"station_id":"ce4bho92rcd13ifvqh4g","pricing_plan_id":"cebpf4jnsgd1na2vs0mg"},{"bike_id":"ebd8bf1b-f660-4eb5-8ea2-2aef2922fbd8","system_id":"levelo_inurba_marseille","lat":43.245511,"lon":5.395216,"is_reserved":false,"is_disabled":true,"rental_uris":{"android":"levelo://app?vid=ebd8bf1b-f660-4eb5-8ea2-2aef2922fbd8","ios":"levelo://app?vid=ebd8bf1b-f660-4eb5-8ea2-2aef2922fbd8"},"vehicle_type_id":"4","last_reported":1765932801,"current_range_meters":9200,"station_id":"ce4bhlp2rcd13ifvqgjg","pricing_plan_id":"cebpf4jnsgd1na2vs0mg"},{"bike_id":"ea881942-7d58-44fd-8f08-d173c0dae020","system_id":"levelo_inurba_marseille","lat":43.24683,"lon":5.43161,"is_reserved":false,"is_disabled":true,"rental_uris":{"android":"levelo://app?vid=ea881942-7d58-44fd-8f08-d173c0dae020","ios":"levelo://app?vid=ea881942-7d58-44fd-8f08-d173c0dae020"},"vehicle_type_id":"4","last_reported":1765932801,"current_range_meters":9200,"station_id":"","pricing_plan_id":"cebpf4jnsgd1na2vs0mg"},{"bike_id":"91462983-47d0-4712-b68d-008b5bbc3453","system_id":"levelo_inurba_marseille","lat":43.30735,"lon":5.4244,"is_reserved":false,"is_disabled":false,"rental_uris":{"android":"levelo://app?vid=91462983-47d0-4712-b68d-008b5bbc3453","ios":"levelo://app?vid=91462983-47d0-4712-b68d-008b5bbc3453"},"vehicle_type_id":"4","last_reported":1765932801,"current_range_meters":9200,"station_id":"st_cvj6ca6bvosntc0bfgr0","pricing_plan_id":"cebpf4jnsgd1na2vs0mg"},{"bike_id":"f371150b-2fd5-4957-af32-bdb4e9dab7ee","system_id":"levelo_inurba_marseille","lat":43.31073,"lon":5.42438,"is_reserved":false,"is_disabled":false,"rental_uris":{"android":"levelo://app?vid=f371150b-2fd5-4957-af32-bdb4e9dab7ee","ios":"levelo://app?vid=f371150b-2fd5-4957-af32-bdb4e9dab7ee"},"vehicle_type_id":"4","last_reported":1765932801,"current_range_meters":9200,"station_id":"ce4bhp92rcd13ifvqhag","pricing_plan_id":"cebpf4jnsgd1na2vs0mg"},{"bike_id":"30373659-1302-4bf2-b36d-72447b8a5e72","system_id":"levelo_inurba_marseille","lat":43.28752,"lon":5.378525,"is_reserved":false,"is_disabled":false,"rental_uris":{"android":"levelo://app?vid=30373659-1302-4bf2-b36d-72447b8a5e72","ios":"levelo://app?vid=30373659-1302-4bf2-b36d-72447b8a5e72"},"vehicle_type_id":"4","last_reported":1765932801,"current_range_meters":9200,"station_id":"","pricing_plan_id":"cebpf4jnsgd1na2vs0mg"},{"bike_id":"27c037aa-092f-45ca-988a-d395e534503e","system_id":"levelo_inurba_marseille","lat":43.28318,"lon":5.35101,"is_reserved":false,"is_disabled":false,"rental_uris":{"android":"levelo://app?vid=27c037aa-092f-45ca-988a-d395e534503e","ios":"levelo://app?vid=27c037aa-092f-45ca-988a-d395e534503e"},"vehicle_type_id":"4","last_reported":1765932801,"current_range_meters":9600,"station_id":"","pricing_plan_id":"cebpf4jnsgd1na2vs0mg"},{"bike_id":"90cd5556-a24c-4dd3-985e-d8a9cae16717","system_id":"levelo_inurba_marseille","lat":43.25577,"lon":5.38239,"is_reserved":false,"is_disabled":false,"rental_uris":{"android":"levelo://app?vid=90cd5556-a24c-4dd3-985e-d8a9cae16717","ios":"levelo://app?vid=90cd5556-a24c-4dd3-985e-d8a9cae16717"},"vehicle_type_id":"4","last_reported":1765932801,"current_range_meters":9600,"station_id":"ce4bhih2rcd13ifvqfs0","pricing_plan_id":"cebpf4jnsgd1na2vs0mg"},{"bike_id":"8f1e215d-7f38-4b5d-954b-5cf04b55b078","system_id":"levelo_inurba_marseille","lat":43.27136,"lon":5.38302,"is_reserved":false,"is_disabled":false,"rental_uris":{"android":"levelo://app?vid=8f1e215d-7f38-4b5d-954b-5cf04b55b078","ios":"levelo://app?vid=8f1e215d-7f38-4b5d-954b-5cf04b55b078"},"vehicle_type_id":"4","last_reported":1765932801,"current_range_meters":9600,"station_id":"st_d3n2fo6cfp8s73cte1j0","pricing_plan_id":"cebpf4jnsgd1na2vs0mg"},{"bike_id":"2ef24484-8e4e-49c0-a3a9-f83b77f53191","system_id":"levelo_inurba_marseille","lat":43.27071,"lon":5.42264,"is_reserved":false,"is_disabled":true,"rental_uris":{"android":"levelo://app?vid=2ef24484-8e4e-49c0-a3a9-f83b77f53191","ios":"levelo://app?vid=2ef24484-8e4e-49c0-a3a9-f83b77f53191"},"vehicle_type_id":"4","last_reported":1765932801,"current_range_meters":9600,"station_id":"ce4bhk92rcd13ifvqgb0","pricing_plan_id":"cebpf4jnsgd1na2vs0mg"},{"bike_id":"5baf169f-bf45-4dd8-bfb0-f5b474d99a69","system_id":"levelo_inurba_marseille","lat":43.28757,"lon":5.38416,"is_reserved":false,"is_disabled":false,"rental_uris":{"android":"levelo://app?vid=5baf169f-bf45-4dd8-bfb0-f5b474d99a69","ios":"levelo://app?vid=5baf169f-bf45-4dd8-bfb0-f5b474d99a69"},"vehicle_type_id":"4","last_reported":1765932801,"current_range_meters":9600,"station_id":"","pricing_plan_id":"cebpf4jnsgd1na2vs0mg"},{"bike_id":"b959cc19-b00a-4f78-bf9b-f737abeb0c3b","system_id":"levelo_inurba_marseille","lat":43.29484,"lon":5.38298,"is_reserved":false,"is_disabled":false,"rental_uris":{"android":"levelo://app?vid=b959cc19-b00a-4f78-bf9b-f737abeb0c3b","ios":"levelo://app?vid=b959cc19-b00a-4f78-bf9b-f737abeb0c3b"},"vehicle_type_id":"4","last_reported":1765932801,"current_range_meters":9600,"station_id":"","pricing_plan_id":"cebpf4jnsgd1na2vs0mg"},{"bike_id":"d6f90051-adc4-44d1-a726-3c1a90bf2e04","system_id":"levelo_inurba_marseille","lat":43.28248,"lon":5.34914,"is_reserved":false,"is_disabled":false,"rental_uris":{"android":"levelo://app?vid=d6f90051-adc4-44d1-a726-3c1a90bf2e04","ios":"levelo://app?vid=d6f90051-adc4-44d1-a726-3c1a90bf2e04"},"vehicle_type_id":"4","last_reported":1765932801,"current_range_meters":10000,"station_id":"","pricing_plan_id":"cebpf4jnsgd1na2vs0mg"},{"bike_id":"9ebcaad2-2e19-4608-9c02-cecea313b5ae","system_id":"levelo_inurba_marseille","lat":43.24641,"lon":5.43149,"is_reserved":false,"is_disabled":false,"rental_uris":{"android":"levelo://app?vid=9ebcaad2-2e19-4608-9c02-cecea313b5ae","ios":"levelo://app?vid=9ebcaad2-2e19-4608-9c02-cecea313b5ae"},"vehicle_type_id":"4","last_reported":1765932801,"current_range_meters":10000,"station_id":"st_d2m6c4gdas8pm72e190g","pricing_plan_id":"cebpf4jnsgd1na2vs0mg"},{"bike_id":"094e6f42-8188-456e-b536-25ce771d7e44","system_id":"levelo_inurba_marseille","lat":43.241664,"lon":5.363884,"is_reserved":false,"is_disabled":false,"rental_uris":{"android":"levelo://app?vid=094e6f42-8188-456e-b536-25ce771d7e44","ios":"levelo://app?vid=094e6f42-8188-456e-b536-25ce771d7e44"},"vehicle_type_id":"4","last_reported":1765932801,"current_range_meters":10000,"station_id":"cpo36qri1sfpv3e86is0","pricing_plan_id":"cebpf4jnsgd1na2vs0mg"},{"bike_id":"7fd28ae0-dd18-4e18-9da6-b62709804343","system_id":"levelo_inurba_marseille","lat":43.28636,"lon":5.36359,"is_reserved":false,"is_disabled":false,"rental_uris":{"android":"levelo://app?vid=7fd28ae0-dd18-4e18-9da6-b62709804343","ios":"levelo://app?vid=7fd28ae0-dd18-4e18-9da6-b62709804343"},"vehicle_type_id":"4","last_reported":1765932801,"current_range_meters":10000,"station_id":"ce4bhah2rcd13ifvqej0","pricing_plan_id":"cebpf4jnsgd1na2vs0mg"},{"bike_id":"42387731-6365-42fa-b845-76984e9ca7ca","system_id":"levelo_inurba_marseille","lat":43.26813,"lon":5.40246,"is_reserved":false,"is_disabled":false,"rental_uris":{"android":"levelo://app?vid=42387731-6365-42fa-b845-76984e9ca7ca","ios":"levelo://app?vid=42387731-6365-42fa-b845-76984e9ca7ca"},"vehicle_type_id":"4","last_reported":1765932801,"current_range_meters":10000,"station_id":"ce501612rcd8frsf0b60","pricing_plan_id":"cebpf4jnsgd1na2vs0mg"},{"bike_id":"b9c17c67-b161-4bc0-a0bb-9f1de3309a6b","system_id":"levelo_inurba_marseille","lat":43.31078,"lon":5.42436,"is_reserved":false,"is_disabled":false,"rental_uris":{"android":"levelo://app?vid=b9c17c67-b161-4bc0-a0bb-9f1de3309a6b","ios":"levelo://app?vid=b9c17c67-b161-4bc0-a0bb-9f1de3309a6b"},"vehicle_type_id":"4","last_reported":1765932801,"current_range_meters":10000,"station_id":"ce4bhp92rcd13ifvqhag","pricing_plan_id":"cebpf4jnsgd1na2vs0mg"},{"bike_id":"63883887-39c0-4b38-b546-2a3cd2d9408c","system_id":"levelo_inurba_marseille","lat":43.33622,"lon":5.41004,"is_reserved":false,"is_disabled":false,"rental_uris":{"android":"levelo://app?vid=63883887-39c0-4b38-b546-2a3cd2d9408c","ios":"levelo://app?vid=63883887-39c0-4b38-b546-2a3cd2d9408c"},"vehicle_type_id":"4","last_reported":1765932801,"current_range_meters":10000,"station_id":"ce4bhqh2rcd13ifvqhmg","pricing_plan_id":"cebpf4jnsgd1na2vs0mg"},{"bike_id":"46979c81-887d-4029-9400-dc1c21dc3e38","system_id":"levelo_inurba_marseille","lat":43.265448,"lon":5.373157,"is_reserved":false,"is_disabled":false,"rental_uris":{"android":"levelo://app?vid=46979c81-887d-4029-9400-dc1c21dc3e38","ios":"levelo://app?vid=46979c81-887d-4029-9400-dc1c21dc3e38"},"vehicle_type_id":"4","last_reported":1765932801,"current_range_meters":10800,"station_id":"ce4bhg12rcd13ifvqf70","pricing_plan_id":"cebpf4jnsgd1na2vs0mg"},{"bike_id":"71508078-6838-4792-8f86-6d1edd517671","system_id":"levelo_inurba_marseille","lat":43.28542,"lon":5.44108,"is_reserved":false,"is_disabled":false,"rental_uris":{"android":"levelo://app?vid=71508078-6838-4792-8f86-6d1edd517671","ios":"levelo://app?vid=71508078-6838-4792-8f86-6d1edd517671"},"vehicle_type_id":"4","last_reported":1765932801,"current_range_meters":10800,"station_id":"st_d3j3df2ikq2c7380ej80","pricing_plan_id":"cebpf4jnsgd1na2vs0mg"},{"bike_id":"4c1c7053-1690-46ae-b248-e8260967b03f","system_id":"levelo_inurba_marseille","lat":43.316791,"lon":5.375612,"is_reserved":false,"is_disabled":false,"rental_uris":{"android":"levelo://app?vid=4c1c7053-1690-46ae-b248-e8260967b03f","ios":"levelo://app?vid=4c1c7053-1690-46ae-b248-e8260967b03f"},"vehicle_type_id":"4","last_reported":1765932801,"current_range_meters":10800,"station_id":"","pricing_plan_id":"cebpf4jnsgd1na2vs0mg"},{"bike_id":"65ef1610-5e5b-4ae4-92ec-9a2a1dd20a47","system_id":"levelo_inurba_marseille","lat":43.25331,"lon":5.42169,"is_reserved":false,"is_disabled":false,"rental_uris":{"android":"levelo://app?vid=65ef1610-5e5b-4ae4-92ec-9a2a1dd20a47","ios":"levelo://app?vid=65ef1610-5e5b-4ae4-92ec-9a2a1dd20a47"},"vehicle_type_id":"4","last_reported":1765932801,"current_range_meters":10800,"station_id":"st_d2m65c5bi1j21697t3ng","pricing_plan_id":"cebpf4jnsgd1na2vs0mg"},{"bike_id":"d3c83fe0-d981-40bd-809a-723ce3ba3f18","system_id":"levelo_inurba_marseille","lat":43.315942,"lon":5.366655,"is_reserved":false,"is_disabled":false,"rental_uris":{"android":"levelo://app?vid=d3c83fe0-d981-40bd-809a-723ce3ba3f18","ios":"levelo://app?vid=d3c83fe0-d981-40bd-809a-723ce3ba3f18"},"vehicle_type_id":"4","last_reported":1765932801,"current_range_meters":10800,"station_id":"","pricing_plan_id":"cebpf4jnsgd1na2vs0mg"},{"bike_id":"37471820-dd47-4ddd-a437-24bc326a493f","system_id":"levelo_inurba_marseille","lat":43.289307,"lon":5.366341,"is_reserved":false,"is_disabled":false,"rental_uris":{"android":"levelo://app?vid=37471820-dd47-4ddd-a437-24bc326a493f","ios":"levelo://app?vid=37471820-dd47-4ddd-a437-24bc326a493f"},"vehicle_type_id":"4","last_reported":1765932801,"current_range_meters":10800,"station_id":"ce4bhap2rcd13ifvqek0","pricing_plan_id":"cebpf4jnsgd1na2vs0mg"},{"bike_id":"5e6d2f4f-45a2-42c7-b61c-14e34160b4c2","system_id":"levelo_inurba_marseille","lat":43.25909,"lon":5.40855,"is_reserved":false,"is_disabled":false,"rental_uris":{"android":"levelo://app?vid=5e6d2f4f-45a2-42c7-b61c-14e34160b4c2","ios":"levelo://app?vid=5e6d2f4f-45a2-42c7-b61c-14e34160b4c2"},"vehicle_type_id":"4","last_reported":1765932801,"current_range_meters":10800,"station_id":"ce4bhm92rcd13ifvqglg","pricing_plan_id":"cebpf4jnsgd1na2vs0mg"},{"bike_id":"516b3289-2209-47cd-8852-dcc2c8e7a52a","system_id":"levelo_inurba_marseille","lat":43.28659,"lon":5.36347,"is_reserved":false,"is_disabled":false,"rental_uris":{"android":"levelo://app?vid=516b3289-2209-47cd-8852-dcc2c8e7a52a","ios":"levelo://app?vid=516b3289-2209-47cd-8852-dcc2c8e7a52a"},"vehicle_type_id":"4","last_reported":1765932801,"current_range_meters":10800,"station_id":"ce4bhah2rcd13ifvqej0","pricing_plan_id":"cebpf4jnsgd1na2vs0mg"},{"bike_id":"e5980e7c-71ff-48a0-bfe5-63b936e86622","system_id":"levelo_inurba_marseille","lat":43.2791,"lon":5.39589,"is_reserved":false,"is_disabled":false,"rental_uris":{"android":"levelo://app?vid=e5980e7c-71ff-48a0-bfe5-63b936e86622","ios":"levelo://app?vid=e5980e7c-71ff-48a0-bfe5-63b936e86622"},"vehicle_type_id":"4","last_reported":1765932801,"current_range_meters":10800,"station_id":"ce4bhf92rcd13ifvqf40","pricing_plan_id":"cebpf4jnsgd1na2vs0mg"},{"bike_id":"2baf383b-6381-419d-bee0-bdbabee5e0e0","system_id":"levelo_inurba_marseille","lat":43.22959,"lon":5.35375,"is_reserved":false,"is_disabled":false,"rental_uris":{"android":"levelo://app?vid=2baf383b-6381-419d-bee0-bdbabee5e0e0","ios":"levelo://app?vid=2baf383b-6381-419d-bee0-bdbabee5e0e0"},"vehicle_type_id":"4","last_reported":1765932801,"current_range_meters":10800,"station_id":"cpo3532slgdg3j2ikp40","pricing_plan_id":"cebpf4jnsgd1na2vs0mg"},{"bike_id":"6785a733-f42a-4cd9-b344-72abcab25882","system_id":"levelo_inurba_marseille","lat":43.28415,"lon":5.37526,"is_reserved":false,"is_disabled":false,"rental_uris":{"android":"levelo://app?vid=6785a733-f42a-4cd9-b344-72abcab25882","ios":"levelo://app?vid=6785a733-f42a-4cd9-b344-72abcab25882"},"vehicle_type_id":"4","last_reported":1765932801,"current_range_meters":10800,"station_id":"ce4bh412rcd13ifvqds0","pricing_plan_id":"cebpf4jnsgd1na2vs0mg"},{"bike_id":"17b1f6e4-cd25-476d-9da4-07bb020a18a5","system_id":"levelo_inurba_marseille","lat":43.30857,"lon":5.39657,"is_reserved":false,"is_disabled":false,"rental_uris":{"android":"levelo://app?vid=17b1f6e4-cd25-476d-9da4-07bb020a18a5","ios":"levelo://app?vid=17b1f6e4-cd25-476d-9da4-07bb020a18a5"},"vehicle_type_id":"4","last_reported":1765932801,"current_range_meters":10800,"station_id":"","pricing_plan_id":"cebpf4jnsgd1na2vs0mg"},{"bike_id":"784c724b-1e00-451a-9341-48d453f22431","system_id":"levelo_inurba_marseille","lat":43.30338,"lon":5.41886,"is_reserved":false,"is_disabled":false,"rental_uris":{"android":"levelo://app?vid=784c724b-1e00-451a-9341-48d453f22431","ios":"levelo://app?vid=784c724b-1e00-451a-9341-48d453f22431"},"vehicle_type_id":"4","last_reported":1765932801,"current_range_meters":10800,"station_id":"","pricing_plan_id":"cebpf4jnsgd1na2vs0mg"},{"bike_id":"e41d969c-d64a-438b-b008-851f2317551a","system_id":"levelo_inurba_marseille","lat":43.26956,"lon":5.38639,"is_reserved":false,"is_disabled":false,"rental_uris":{"android":"levelo://app?vid=e41d969c-d64a-438b-b008-851f2317551a","ios":"levelo://app?vid=e41d969c-d64a-438b-b008-851f2317551a"},"vehicle_type_id":"4","last_reported":1765932801,"current_range_meters":10800,"station_id":"ce4bhh92rcd13ifvqfh0","pricing_plan_id":"cebpf4jnsgd1na2vs0mg"},{"bike_id":"ee16e197-3471-41ea-9e1f-3c48a421e743","system_id":"levelo_inurba_marseille","lat":43.25079,"lon":5.39509,"is_reserved":false,"is_disabled":false,"rental_uris":{"android":"levelo://app?vid=ee16e197-3471-41ea-9e1f-3c48a421e743","ios":"levelo://app?vid=ee16e197-3471-41ea-9e1f-3c48a421e743"},"vehicle_type_id":"4","last_reported":1765932801,"current_range_meters":11200,"station_id":"ce4bhm12rcd13ifvqgkg","pricing_plan_id":"cebpf4jnsgd1na2vs0mg"},{"bike_id":"33ef33cd-94f9-4af3-ad50-bbfaced9b12d","system_id":"levelo_inurba_marseille","lat":43.28341,"lon":5.38106,"is_reserved":false,"is_disabled":false,"rental_uris":{"android":"levelo://app?vid=33ef33cd-94f9-4af3-ad50-bbfaced9b12d","ios":"levelo://app?vid=33ef33cd-94f9-4af3-ad50-bbfaced9b12d"},"vehicle_type_id":"4","last_reported":1765932801,"current_range_meters":11200,"station_id":"ce4bh412rcd13ifvqdr0","pricing_plan_id":"cebpf4jnsgd1na2vs0mg"},{"bike_id":"bcccdbb6-69f5-4866-9e66-4cf8d73fd952","system_id":"levelo_inurba_marseille","lat":43.24947,"lon":5.40487,"is_reserved":false,"is_disabled":false,"rental_uris":{"android":"levelo://app?vid=bcccdbb6-69f5-4866-9e66-4cf8d73fd952","ios":"levelo://app?vid=bcccdbb6-69f5-4866-9e66-4cf8d73fd952"},"vehicle_type_id":"4","last_reported":1765932801,"current_range_meters":11200,"station_id":"st_d2ngiaodas8pm72gd1h0","pricing_plan_id":"cebpf4jnsgd1na2vs0mg"},{"bike_id":"651b29d3-4f51-4bd5-bf59-d7b9bcb7f108","system_id":"levelo_inurba_marseille","lat":43.25353,"lon":5.42164,"is_reserved":false,"is_disabled":true,"rental_uris":{"android":"levelo://app?vid=651b29d3-4f51-4bd5-bf59-d7b9bcb7f108","ios":"levelo://app?vid=651b29d3-4f51-4bd5-bf59-d7b9bcb7f108"},"vehicle_type_id":"4","last_reported":1765932801,"current_range_meters":11200,"station_id":"st_d2m65c5bi1j21697t3ng","pricing_plan_id":"cebpf4jnsgd1na2vs0mg"},{"bike_id":"7acaec4b-efbb-4926-bbc2-557debf9856a","system_id":"levelo_inurba_marseille","lat":43.28852,"lon":5.3584,"is_reserved":false,"is_disabled":false,"rental_uris":{"android":"levelo://app?vid=7acaec4b-efbb-4926-bbc2-557debf9856a","ios":"levelo://app?vid=7acaec4b-efbb-4926-bbc2-557debf9856a"},"vehicle_type_id":"4","last_reported":1765932801,"current_range_meters":11200,"station_id":"ce4bhb12rcd13ifvqem0","pricing_plan_id":"cebpf4jnsgd1na2vs0mg"},{"bike_id":"2e621454-785d-4cf6-8af1-69c603b2aa60","system_id":"levelo_inurba_marseille","lat":43.311737,"lon":5.401414,"is_reserved":false,"is_disabled":false,"rental_uris":{"android":"levelo://app?vid=2e621454-785d-4cf6-8af1-69c603b2aa60","ios":"levelo://app?vid=2e621454-785d-4cf6-8af1-69c603b2aa60"},"vehicle_type_id":"4","last_reported":1765932801,"current_range_meters":11600,"station_id":"ce4bh092rcd13ifvqd30","pricing_plan_id":"cebpf4jnsgd1na2vs0mg"},{"bike_id":"9483486a-df89-4cb9-9a5f-8106cc6e6096","system_id":"levelo_inurba_marseille","lat":43.3015,"lon":5.380674,"is_reserved":false,"is_disabled":false,"rental_uris":{"android":"levelo://app?vid=9483486a-df89-4cb9-9a5f-8106cc6e6096","ios":"levelo://app?vid=9483486a-df89-4cb9-9a5f-8106cc6e6096"},"vehicle_type_id":"4","last_reported":1765932801,"current_range_meters":11600,"station_id":"","pricing_plan_id":"cebpf4jnsgd1na2vs0mg"},{"bike_id":"f96d197e-d68e-4b9e-b261-84222baa54d9","system_id":"levelo_inurba_marseille","lat":43.23784,"lon":5.36635,"is_reserved":false,"is_disabled":false,"rental_uris":{"android":"levelo://app?vid=f96d197e-d68e-4b9e-b261-84222baa54d9","ios":"levelo://app?vid=f96d197e-d68e-4b9e-b261-84222baa54d9"},"vehicle_type_id":"4","last_reported":1765932801,"current_range_meters":11600,"station_id":"st_d3nk18o9ro0c73en2l3g","pricing_plan_id":"cebpf4jnsgd1na2vs0mg"},{"bike_id":"1bd9ea22-b9e9-411b-bbda-1d25ae7ed320","system_id":"levelo_inurba_marseille","lat":43.23187,"lon":5.39984,"is_reserved":false,"is_disabled":false,"rental_uris":{"android":"levelo://app?vid=1bd9ea22-b9e9-411b-bbda-1d25ae7ed320","ios":"levelo://app?vid=1bd9ea22-b9e9-411b-bbda-1d25ae7ed320"},"vehicle_type_id":"4","last_reported":1765932801,"current_range_meters":11600,"station_id":"ce4bhn12rcd13ifvqgqg","pricing_plan_id":"cebpf4jnsgd1na2vs0mg"},{"bike_id":"78c46628-9c4f-473b-91e7-9f8e9f1cf58b","system_id":"levelo_inurba_marseille","lat":43.30204,"lon":5.37441,"is_reserved":false,"is_disabled":false,"rental_uris":{"android":"levelo://app?vid=78c46628-9c4f-473b-91e7-9f8e9f1cf58b","ios":"levelo://app?vid=78c46628-9c4f-473b-91e7-9f8e9f1cf58b"},"vehicle_type_id":"4","last_reported":1765932801,"current_range_meters":11600,"station_id":"ce4bgs92rcd13ifvqcc0","pricing_plan_id":"cebpf4jnsgd1na2vs0mg"},{"bike_id":"76c4fd32-9a7d-4f84-9c75-22df2e2d5430","system_id":"levelo_inurba_marseille","lat":43.30878,"lon":5.39667,"is_reserved":false,"is_disabled":false,"rental_uris":{"android":"levelo://app?vid=76c4fd32-9a7d-4f84-9c75-22df2e2d5430","ios":"levelo://app?vid=76c4fd32-9a7d-4f84-9c75-22df2e2d5430"},"vehicle_type_id":"4","last_reported":1765932801,"current_range_meters":11600,"station_id":"ce4bh012rcd13ifvqcv0","pricing_plan_id":"cebpf4jnsgd1na2vs0mg"},{"bike_id":"8c2c2ce3-73da-4ebf-ba92-d3797395fcb1","system_id":"levelo_inurba_marseille","lat":43.24622,"lon":5.43141,"is_reserved":false,"is_disabled":true,"rental_uris":{"android":"levelo://app?vid=8c2c2ce3-73da-4ebf-ba92-d3797395fcb1","ios":"levelo://app?vid=8c2c2ce3-73da-4ebf-ba92-d3797395fcb1"},"vehicle_type_id":"4","last_reported":1765932801,"current_range_meters":12000,"station_id":"st_d2m6c4gdas8pm72e190g","pricing_plan_id":"cebpf4jnsgd1na2vs0mg"},{"bike_id":"e2cbb5e6-3f9d-4a3d-a899-57d885f29ddd","system_id":"levelo_inurba_marseille","lat":43.337444,"lon":5.374475,"is_reserved":false,"is_disabled":false,"rental_uris":{"android":"levelo://app?vid=e2cbb5e6-3f9d-4a3d-a899-57d885f29ddd","ios":"levelo://app?vid=e2cbb5e6-3f9d-4a3d-a899-57d885f29ddd"},"vehicle_type_id":"4","last_reported":1765932801,"current_range_meters":12000,"station_id":"","pricing_plan_id":"cebpf4jnsgd1na2vs0mg"},{"bike_id":"ddb7d15d-3f99-4d7a-aae0-1a9d45669c33","system_id":"levelo_inurba_marseille","lat":43.23153,"lon":5.43702,"is_reserved":false,"is_disabled":true,"rental_uris":{"android":"levelo://app?vid=ddb7d15d-3f99-4d7a-aae0-1a9d45669c33","ios":"levelo://app?vid=ddb7d15d-3f99-4d7a-aae0-1a9d45669c33"},"vehicle_type_id":"4","last_reported":1765932801,"current_range_meters":12000,"station_id":"ce4bhmp2rcd13ifvqgog","pricing_plan_id":"cebpf4jnsgd1na2vs0mg"},{"bike_id":"19b66638-3211-46a9-8beb-4f12406d7672","system_id":"levelo_inurba_marseille","lat":43.27283,"lon":5.41078,"is_reserved":false,"is_disabled":false,"rental_uris":{"android":"levelo://app?vid=19b66638-3211-46a9-8beb-4f12406d7672","ios":"levelo://app?vid=19b66638-3211-46a9-8beb-4f12406d7672"},"vehicle_type_id":"4","last_reported":1765932801,"current_range_meters":12000,"station_id":"","pricing_plan_id":"cebpf4jnsgd1na2vs0mg"},{"bike_id":"37c64312-bacf-418e-938c-ab682523f7de","system_id":"levelo_inurba_marseille","lat":43.28529,"lon":5.44105,"is_reserved":false,"is_disabled":false,"rental_uris":{"android":"levelo://app?vid=37c64312-bacf-418e-938c-ab682523f7de","ios":"levelo://app?vid=37c64312-bacf-418e-938c-ab682523f7de"},"vehicle_type_id":"4","last_reported":1765932801,"current_range_meters":12000,"station_id":"st_d3j3df2ikq2c7380ej80","pricing_plan_id":"cebpf4jnsgd1na2vs0mg"},{"bike_id":"bf5099b0-d96d-4f3f-af37-2a470a031a41","system_id":"levelo_inurba_marseille","lat":43.30884,"lon":5.39659,"is_reserved":false,"is_disabled":false,"rental_uris":{"android":"levelo://app?vid=bf5099b0-d96d-4f3f-af37-2a470a031a41","ios":"levelo://app?vid=bf5099b0-d96d-4f3f-af37-2a470a031a41"},"vehicle_type_id":"4","last_reported":1765932801,"current_range_meters":12000,"station_id":"ce4bh012rcd13ifvqcv0","pricing_plan_id":"cebpf4jnsgd1na2vs0mg"},{"bike_id":"c6d2068f-5327-49b9-870e-29806015d391","system_id":"levelo_inurba_marseille","lat":43.299042,"lon":5.381454,"is_reserved":false,"is_disabled":false,"rental_uris":{"android":"levelo://app?vid=c6d2068f-5327-49b9-870e-29806015d391","ios":"levelo://app?vid=c6d2068f-5327-49b9-870e-29806015d391"},"vehicle_type_id":"4","last_reported":1765932801,"current_range_meters":12000,"station_id":"ce4bgj12rcd13ifvqbc0","pricing_plan_id":"cebpf4jnsgd1na2vs0mg"},{"bike_id":"77836165-b3d3-41b4-9c19-b050638ed6b2","system_id":"levelo_inurba_marseille","lat":43.28958,"lon":5.36635,"is_reserved":false,"is_disabled":false,"rental_uris":{"android":"levelo://app?vid=77836165-b3d3-41b4-9c19-b050638ed6b2","ios":"levelo://app?vid=77836165-b3d3-41b4-9c19-b050638ed6b2"},"vehicle_type_id":"4","last_reported":1765932801,"current_range_meters":12400,"station_id":"ce4bhap2rcd13ifvqek0","pricing_plan_id":"cebpf4jnsgd1na2vs0mg"},{"bike_id":"5542e50a-0abd-4334-b9c8-d3ed3aed793c","system_id":"levelo_inurba_marseille","lat":43.30435,"lon":5.3709,"is_reserved":false,"is_disabled":false,"rental_uris":{"android":"levelo://app?vid=5542e50a-0abd-4334-b9c8-d3ed3aed793c","ios":"levelo://app?vid=5542e50a-0abd-4334-b9c8-d3ed3aed793c"},"vehicle_type_id":"4","last_reported":1765932801,"current_range_meters":12400,"station_id":"","pricing_plan_id":"cebpf4jnsgd1na2vs0mg"},{"bike_id":"2f55b60b-9e1e-48dc-bbbb-c371d55361ae","system_id":"levelo_inurba_marseille","lat":43.246525,"lon":5.388931,"is_reserved":false,"is_disabled":false,"rental_uris":{"android":"levelo://app?vid=2f55b60b-9e1e-48dc-bbbb-c371d55361ae","ios":"levelo://app?vid=2f55b60b-9e1e-48dc-bbbb-c371d55361ae"},"vehicle_type_id":"4","last_reported":1765932801,"current_range_meters":12400,"station_id":"ce4bhg12rcd13ifvqf60","pricing_plan_id":"cebpf4jnsgd1na2vs0mg"},{"bike_id":"33583a3e-eb6f-4736-a38d-d228e9cd63c0","system_id":"levelo_inurba_marseille","lat":43.29814,"lon":5.44069,"is_reserved":false,"is_disabled":false,"rental_uris":{"android":"levelo://app?vid=33583a3e-eb6f-4736-a38d-d228e9cd63c0","ios":"levelo://app?vid=33583a3e-eb6f-4736-a38d-d228e9cd63c0"},"vehicle_type_id":"4","last_reported":1765932801,"current_range_meters":12400,"station_id":"","pricing_plan_id":"cebpf4jnsgd1na2vs0mg"},{"bike_id":"a5ce9755-a3d9-4161-8f59-a556a439e416","system_id":"levelo_inurba_marseille","lat":43.23795,"lon":5.36575,"is_reserved":false,"is_disabled":false,"rental_uris":{"android":"levelo://app?vid=a5ce9755-a3d9-4161-8f59-a556a439e416","ios":"levelo://app?vid=a5ce9755-a3d9-4161-8f59-a556a439e416"},"vehicle_type_id":"4","last_reported":1765932801,"current_range_meters":12400,"station_id":"st_d3nk18o9ro0c73en2l3g","pricing_plan_id":"cebpf4jnsgd1na2vs0mg"},{"bike_id":"3fd328e0-bf1a-49cd-a05f-3f7fb1cb81a0","system_id":"levelo_inurba_marseille","lat":43.29241,"lon":5.40956,"is_reserved":false,"is_disabled":false,"rental_uris":{"android":"levelo://app?vid=3fd328e0-bf1a-49cd-a05f-3f7fb1cb81a0","ios":"levelo://app?vid=3fd328e0-bf1a-49cd-a05f-3f7fb1cb81a0"},"vehicle_type_id":"4","last_reported":1765932801,"current_range_meters":12400,"station_id":"ce4bh192rcd13ifvqdc0","pricing_plan_id":"cebpf4jnsgd1na2vs0mg"},{"bike_id":"43e98a42-00ee-44db-bbb8-0326349684be","system_id":"levelo_inurba_marseille","lat":43.31739,"lon":5.43716,"is_reserved":false,"is_disabled":false,"rental_uris":{"android":"levelo://app?vid=43e98a42-00ee-44db-bbb8-0326349684be","ios":"levelo://app?vid=43e98a42-00ee-44db-bbb8-0326349684be"},"vehicle_type_id":"4","last_reported":1765932801,"current_range_meters":12400,"station_id":"ce4bhp92rcd13ifvqhcg","pricing_plan_id":"cebpf4jnsgd1na2vs0mg"},{"bike_id":"c8156a52-e3da-4550-b7da-d79e0f9d19d2","system_id":"levelo_inurba_marseille","lat":43.31102,"lon":5.42459,"is_reserved":false,"is_disabled":false,"rental_uris":{"android":"levelo://app?vid=c8156a52-e3da-4550-b7da-d79e0f9d19d2","ios":"levelo://app?vid=c8156a52-e3da-4550-b7da-d79e0f9d19d2"},"vehicle_type_id":"4","last_reported":1765932801,"current_range_meters":12400,"station_id":"ce4bhp92rcd13ifvqhag","pricing_plan_id":"cebpf4jnsgd1na2vs0mg"},{"bike_id":"b972c994-16b3-47fe-974f-b887645957a5","system_id":"levelo_inurba_marseille","lat":43.265576,"lon":5.372854,"is_reserved":false,"is_disabled":false,"rental_uris":{"android":"levelo://app?vid=b972c994-16b3-47fe-974f-b887645957a5","ios":"levelo://app?vid=b972c994-16b3-47fe-974f-b887645957a5"},"vehicle_type_id":"4","last_reported":1765932801,"current_range_meters":12800,"station_id":"ce4bhih2rcd13ifvqfr0","pricing_plan_id":"cebpf4jnsgd1na2vs0mg"},{"bike_id":"4824a2bb-7351-4049-8fb9-1f8b55445bbe","system_id":"levelo_inurba_marseille","lat":43.24172,"lon":5.36398,"is_reserved":false,"is_disabled":false,"rental_uris":{"android":"levelo://app?vid=4824a2bb-7351-4049-8fb9-1f8b55445bbe","ios":"levelo://app?vid=4824a2bb-7351-4049-8fb9-1f8b55445bbe"},"vehicle_type_id":"4","last_reported":1765932801,"current_range_meters":12800,"station_id":"cpo36qri1sfpv3e86is0","pricing_plan_id":"cebpf4jnsgd1na2vs0mg"},{"bike_id":"8fb69c52-e174-4c35-b229-8436cc385bed","system_id":"levelo_inurba_marseille","lat":43.28701,"lon":5.37397,"is_reserved":false,"is_disabled":true,"rental_uris":{"android":"levelo://app?vid=8fb69c52-e174-4c35-b229-8436cc385bed","ios":"levelo://app?vid=8fb69c52-e174-4c35-b229-8436cc385bed"},"vehicle_type_id":"4","last_reported":1765932801,"current_range_meters":12800,"station_id":"ce4bh3p2rcd13ifvqdq0","pricing_plan_id":"cebpf4jnsgd1na2vs0mg"},{"bike_id":"3e6e7e6f-2302-4f68-942b-a1bfdece444a","system_id":"levelo_inurba_marseille","lat":43.284679,"lon":5.35882,"is_reserved":false,"is_disabled":false,"rental_uris":{"android":"levelo://app?vid=3e6e7e6f-2302-4f68-942b-a1bfdece444a","ios":"levelo://app?vid=3e6e7e6f-2302-4f68-942b-a1bfdece444a"},"vehicle_type_id":"4","last_reported":1765932801,"current_range_meters":12800,"station_id":"ce4bhah2rcd13ifvqei0","pricing_plan_id":"cebpf4jnsgd1na2vs0mg"},{"bike_id":"5560bc30-feb5-441e-bb0e-aa8412fb304f","system_id":"levelo_inurba_marseille","lat":43.2677,"lon":5.3932,"is_reserved":false,"is_disabled":false,"rental_uris":{"android":"levelo://app?vid=5560bc30-feb5-441e-bb0e-aa8412fb304f","ios":"levelo://app?vid=5560bc30-feb5-441e-bb0e-aa8412fb304f"},"vehicle_type_id":"4","last_reported":1765932801,"current_range_meters":12800,"station_id":"","pricing_plan_id":"cebpf4jnsgd1na2vs0mg"},{"bike_id":"d969ddc8-1fa1-4359-907e-09087c32195b","system_id":"levelo_inurba_marseille","lat":43.298426,"lon":5.362774,"is_reserved":false,"is_disabled":false,"rental_uris":{"android":"levelo://app?vid=d969ddc8-1fa1-4359-907e-09087c32195b","ios":"levelo://app?vid=d969ddc8-1fa1-4359-907e-09087c32195b"},"vehicle_type_id":"4","last_reported":1765932801,"current_range_meters":12800,"station_id":"ce4bgpp2rcd13ifvqc3g","pricing_plan_id":"cebpf4jnsgd1na2vs0mg"},{"bike_id":"8c7465bb-38d0-4c5c-a95d-c15db3e1fefe","system_id":"levelo_inurba_marseille","lat":43.31974,"lon":5.38128,"is_reserved":false,"is_disabled":false,"rental_uris":{"android":"levelo://app?vid=8c7465bb-38d0-4c5c-a95d-c15db3e1fefe","ios":"levelo://app?vid=8c7465bb-38d0-4c5c-a95d-c15db3e1fefe"},"vehicle_type_id":"4","last_reported":1765932801,"current_range_meters":12800,"station_id":"ce4bhr12rcd13ifvqhpg","pricing_plan_id":"cebpf4jnsgd1na2vs0mg"},{"bike_id":"8f444c81-73e2-4250-8cf4-4c25aa9fc238","system_id":"levelo_inurba_marseille","lat":43.2781,"lon":5.40708,"is_reserved":false,"is_disabled":false,"rental_uris":{"android":"levelo://app?vid=8f444c81-73e2-4250-8cf4-4c25aa9fc238","ios":"levelo://app?vid=8f444c81-73e2-4250-8cf4-4c25aa9fc238"},"vehicle_type_id":"4","last_reported":1765932801,"current_range_meters":12800,"station_id":"ce4bhnh2rcd13ifvqgtg","pricing_plan_id":"cebpf4jnsgd1na2vs0mg"},{"bike_id":"1761dee6-2fc9-43ea-a081-e6bc83df43e8","system_id":"levelo_inurba_marseille","lat":43.31738,"lon":5.3766,"is_reserved":false,"is_disabled":false,"rental_uris":{"android":"levelo://app?vid=1761dee6-2fc9-43ea-a081-e6bc83df43e8","ios":"levelo://app?vid=1761dee6-2fc9-43ea-a081-e6bc83df43e8"},"vehicle_type_id":"4","last_reported":1765932801,"current_range_meters":13600,"station_id":"","pricing_plan_id":"cebpf4jnsgd1na2vs0mg"},{"bike_id":"18c43bbe-2d90-4a5f-ad4c-0f4200ded6cd","system_id":"levelo_inurba_marseille","lat":43.29176,"lon":5.39315,"is_reserved":false,"is_disabled":false,"rental_uris":{"android":"levelo://app?vid=18c43bbe-2d90-4a5f-ad4c-0f4200ded6cd","ios":"levelo://app?vid=18c43bbe-2d90-4a5f-ad4c-0f4200ded6cd"},"vehicle_type_id":"4","last_reported":1765932801,"current_range_meters":13600,"station_id":"ce4bh192rcd13ifvqdd0","pricing_plan_id":"cebpf4jnsgd1na2vs0mg"},{"bike_id":"72b32dc9-2acd-49ac-b486-9ebf5f447810","system_id":"levelo_inurba_marseille","lat":43.301326,"lon":5.39876,"is_reserved":false,"is_disabled":false,"rental_uris":{"android":"levelo://app?vid=72b32dc9-2acd-49ac-b486-9ebf5f447810","ios":"levelo://app?vid=72b32dc9-2acd-49ac-b486-9ebf5f447810"},"vehicle_type_id":"4","last_reported":1765932801,"current_range_meters":13600,"station_id":"ce4bh0h2rcd13ifvqd40","pricing_plan_id":"cebpf4jnsgd1na2vs0mg"},{"bike_id":"ecb1270f-a66e-4863-8763-3506609d0278","system_id":"levelo_inurba_marseille","lat":43.24177,"lon":5.36416,"is_reserved":false,"is_disabled":false,"rental_uris":{"android":"levelo://app?vid=ecb1270f-a66e-4863-8763-3506609d0278","ios":"levelo://app?vid=ecb1270f-a66e-4863-8763-3506609d0278"},"vehicle_type_id":"4","last_reported":1765932801,"current_range_meters":13600,"station_id":"cpo36qri1sfpv3e86is0","pricing_plan_id":"cebpf4jnsgd1na2vs0mg"},{"bike_id":"dcf7f466-451f-4dc2-aa6a-64376446a890","system_id":"levelo_inurba_marseille","lat":43.26951,"lon":5.38661,"is_reserved":false,"is_disabled":false,"rental_uris":{"android":"levelo://app?vid=dcf7f466-451f-4dc2-aa6a-64376446a890","ios":"levelo://app?vid=dcf7f466-451f-4dc2-aa6a-64376446a890"},"vehicle_type_id":"4","last_reported":1765932801,"current_range_meters":13600,"station_id":"ce4bhh92rcd13ifvqfh0","pricing_plan_id":"cebpf4jnsgd1na2vs0mg"},{"bike_id":"bc35052b-9a50-43aa-b752-952486cd54ab","system_id":"levelo_inurba_marseille","lat":43.25746,"lon":5.41124,"is_reserved":false,"is_disabled":false,"rental_uris":{"android":"levelo://app?vid=bc35052b-9a50-43aa-b752-952486cd54ab","ios":"levelo://app?vid=bc35052b-9a50-43aa-b752-952486cd54ab"},"vehicle_type_id":"4","last_reported":1765932801,"current_range_meters":13600,"station_id":"ce4bhkp2rcd13ifvqgd0","pricing_plan_id":"cebpf4jnsgd1na2vs0mg"},{"bike_id":"a46445b0-0e05-4854-90e8-7e9116d714dc","system_id":"levelo_inurba_marseille","lat":43.337634,"lon":5.37441,"is_reserved":false,"is_disabled":false,"rental_uris":{"android":"levelo://app?vid=a46445b0-0e05-4854-90e8-7e9116d714dc","ios":"levelo://app?vid=a46445b0-0e05-4854-90e8-7e9116d714dc"},"vehicle_type_id":"4","last_reported":1765932801,"current_range_meters":13600,"station_id":"","pricing_plan_id":"cebpf4jnsgd1na2vs0mg"},{"bike_id":"3e95ac5b-5978-4d3b-bc9e-777b9d18515b","system_id":"levelo_inurba_marseille","lat":43.298006,"lon":5.393336,"is_reserved":false,"is_disabled":false,"rental_uris":{"android":"levelo://app?vid=3e95ac5b-5978-4d3b-bc9e-777b9d18515b","ios":"levelo://app?vid=3e95ac5b-5978-4d3b-bc9e-777b9d18515b"},"vehicle_type_id":"4","last_reported":1765932801,"current_range_meters":13600,"station_id":"chh1huq6cuj3fo74tm60","pricing_plan_id":"cebpf4jnsgd1na2vs0mg"},{"bike_id":"9107e02a-87cd-4f3d-a7fa-518ba3c3efd7","system_id":"levelo_inurba_marseille","lat":43.30825,"lon":5.38149,"is_reserved":false,"is_disabled":false,"rental_uris":{"android":"levelo://app?vid=9107e02a-87cd-4f3d-a7fa-518ba3c3efd7","ios":"levelo://app?vid=9107e02a-87cd-4f3d-a7fa-518ba3c3efd7"},"vehicle_type_id":"4","last_reported":1765932801,"current_range_meters":13600,"station_id":"ce4bgt12rcd13ifvqce0","pricing_plan_id":"cebpf4jnsgd1na2vs0mg"},{"bike_id":"2d9be9df-3d9b-45f9-8822-775a0a71b6a1","system_id":"levelo_inurba_marseille","lat":43.28149,"lon":5.42637,"is_reserved":false,"is_disabled":false,"rental_uris":{"android":"levelo://app?vid=2d9be9df-3d9b-45f9-8822-775a0a71b6a1","ios":"levelo://app?vid=2d9be9df-3d9b-45f9-8822-775a0a71b6a1"},"vehicle_type_id":"4","last_reported":1765932801,"current_range_meters":13600,"station_id":"ce4bhnh2rcd13ifvqgug","pricing_plan_id":"cebpf4jnsgd1na2vs0mg"},{"bike_id":"ba878d74-e799-463b-ba34-a01afef01353","system_id":"levelo_inurba_marseille","lat":43.312,"lon":5.38696,"is_reserved":false,"is_disabled":false,"rental_uris":{"android":"levelo://app?vid=ba878d74-e799-463b-ba34-a01afef01353","ios":"levelo://app?vid=ba878d74-e799-463b-ba34-a01afef01353"},"vehicle_type_id":"4","last_reported":1765932801,"current_range_meters":13600,"station_id":"ce4bgv12rcd13ifvqcp0","pricing_plan_id":"cebpf4jnsgd1na2vs0mg"},{"bike_id":"abec624c-de7b-4638-80fd-67a911484c32","system_id":"levelo_inurba_marseille","lat":43.289341,"lon":5.366371,"is_reserved":false,"is_disabled":true,"rental_uris":{"android":"levelo://app?vid=abec624c-de7b-4638-80fd-67a911484c32","ios":"levelo://app?vid=abec624c-de7b-4638-80fd-67a911484c32"},"vehicle_type_id":"4","last_reported":1765932801,"current_range_meters":13600,"station_id":"ce4bhap2rcd13ifvqek0","pricing_plan_id":"cebpf4jnsgd1na2vs0mg"},{"bike_id":"8c9125f2-ff55-4322-8386-0785c8a01fb4","system_id":"levelo_inurba_marseille","lat":43.27946,"lon":5.41059,"is_reserved":false,"is_disabled":false,"rental_uris":{"android":"levelo://app?vid=8c9125f2-ff55-4322-8386-0785c8a01fb4","ios":"levelo://app?vid=8c9125f2-ff55-4322-8386-0785c8a01fb4"},"vehicle_type_id":"4","last_reported":1765932801,"current_range_meters":13600,"station_id":"ce4bhnp2rcd13ifvqh0g","pricing_plan_id":"cebpf4jnsgd1na2vs0mg"},{"bike_id":"2b5be759-3802-4dba-938d-a45507775ea6","system_id":"levelo_inurba_marseille","lat":43.31328,"lon":5.39698,"is_reserved":false,"is_disabled":false,"rental_uris":{"android":"levelo://app?vid=2b5be759-3802-4dba-938d-a45507775ea6","ios":"levelo://app?vid=2b5be759-3802-4dba-938d-a45507775ea6"},"vehicle_type_id":"4","last_reported":1765932801,"current_range_meters":13600,"station_id":"ce4bgvp2rcd13ifvqcu0","pricing_plan_id":"cebpf4jnsgd1na2vs0mg"},{"bike_id":"b155b5a9-9c7c-490c-abcd-e3473ddc01de","system_id":"levelo_inurba_marseille","lat":43.30564,"lon":5.38455,"is_reserved":false,"is_disabled":true,"rental_uris":{"android":"levelo://app?vid=b155b5a9-9c7c-490c-abcd-e3473ddc01de","ios":"levelo://app?vid=b155b5a9-9c7c-490c-abcd-e3473ddc01de"},"vehicle_type_id":"4","last_reported":1765932801,"current_range_meters":13600,"station_id":"ce4bgg92rcd13ifvqb30","pricing_plan_id":"cebpf4jnsgd1na2vs0mg"},{"bike_id":"8a978840-3dc9-4313-b4c1-46eaa99f2add","system_id":"levelo_inurba_marseille","lat":43.30648,"lon":5.40085,"is_reserved":false,"is_disabled":false,"rental_uris":{"android":"levelo://app?vid=8a978840-3dc9-4313-b4c1-46eaa99f2add","ios":"levelo://app?vid=8a978840-3dc9-4313-b4c1-46eaa99f2add"},"vehicle_type_id":"4","last_reported":1765932801,"current_range_meters":13600,"station_id":"ce4bh112rcd13ifvqda0","pricing_plan_id":"cebpf4jnsgd1na2vs0mg"},{"bike_id":"6a1c7e85-8e77-445a-88b1-93dccc0c75c2","system_id":"levelo_inurba_marseille","lat":43.31756,"lon":5.39035,"is_reserved":false,"is_disabled":false,"rental_uris":{"android":"levelo://app?vid=6a1c7e85-8e77-445a-88b1-93dccc0c75c2","ios":"levelo://app?vid=6a1c7e85-8e77-445a-88b1-93dccc0c75c2"},"vehicle_type_id":"4","last_reported":1765932801,"current_range_meters":13600,"station_id":"ce4bhqp2rcd13ifvqhng","pricing_plan_id":"cebpf4jnsgd1na2vs0mg"},{"bike_id":"d624ea1e-42c8-428b-8145-fda7a530b4e9","system_id":"levelo_inurba_marseille","lat":43.28604,"lon":5.39889,"is_reserved":false,"is_disabled":false,"rental_uris":{"android":"levelo://app?vid=d624ea1e-42c8-428b-8145-fda7a530b4e9","ios":"levelo://app?vid=d624ea1e-42c8-428b-8145-fda7a530b4e9"},"vehicle_type_id":"4","last_reported":1765932801,"current_range_meters":14000,"station_id":"st_d4a7ka997mjs738ck50g","pricing_plan_id":"cebpf4jnsgd1na2vs0mg"},{"bike_id":"cf03ac1a-09e8-4c44-b64b-412f03f98f41","system_id":"levelo_inurba_marseille","lat":43.311713,"lon":5.387067,"is_reserved":false,"is_disabled":false,"rental_uris":{"android":"levelo://app?vid=cf03ac1a-09e8-4c44-b64b-412f03f98f41","ios":"levelo://app?vid=cf03ac1a-09e8-4c44-b64b-412f03f98f41"},"vehicle_type_id":"4","last_reported":1765932801,"current_range_meters":14000,"station_id":"ce4bgv12rcd13ifvqcp0","pricing_plan_id":"cebpf4jnsgd1na2vs0mg"},{"bike_id":"bef235ce-083c-4ae4-b380-024222f4170f","system_id":"levelo_inurba_marseille","lat":43.308914,"lon":5.368676,"is_reserved":false,"is_disabled":false,"rental_uris":{"android":"levelo://app?vid=bef235ce-083c-4ae4-b380-024222f4170f","ios":"levelo://app?vid=bef235ce-083c-4ae4-b380-024222f4170f"},"vehicle_type_id":"4","last_reported":1765932801,"current_range_meters":14400,"station_id":"ce4bgn92rcd13ifvqbvg","pricing_plan_id":"cebpf4jnsgd1na2vs0mg"},{"bike_id":"966ee9b8-6cc6-4ddb-a687-fdc2139f50ef","system_id":"levelo_inurba_marseille","lat":43.28861,"lon":5.35862,"is_reserved":false,"is_disabled":false,"rental_uris":{"android":"levelo://app?vid=966ee9b8-6cc6-4ddb-a687-fdc2139f50ef","ios":"levelo://app?vid=966ee9b8-6cc6-4ddb-a687-fdc2139f50ef"},"vehicle_type_id":"4","last_reported":1765932801,"current_range_meters":14400,"station_id":"ce4bhb12rcd13ifvqem0","pricing_plan_id":"cebpf4jnsgd1na2vs0mg"},{"bike_id":"47386b70-d1a6-403d-bcde-2b22b9b9b4a4","system_id":"levelo_inurba_marseille","lat":43.29185,"lon":5.39324,"is_reserved":false,"is_disabled":true,"rental_uris":{"android":"levelo://app?vid=47386b70-d1a6-403d-bcde-2b22b9b9b4a4","ios":"levelo://app?vid=47386b70-d1a6-403d-bcde-2b22b9b9b4a4"},"vehicle_type_id":"4","last_reported":1765932801,"current_range_meters":14400,"station_id":"ce4bh192rcd13ifvqdd0","pricing_plan_id":"cebpf4jnsgd1na2vs0mg"},{"bike_id":"6b43d3b9-1459-4d69-b4cc-d5d7836be96a","system_id":"levelo_inurba_marseille","lat":43.27816,"lon":5.40705,"is_reserved":false,"is_disabled":false,"rental_uris":{"android":"levelo://app?vid=6b43d3b9-1459-4d69-b4cc-d5d7836be96a","ios":"levelo://app?vid=6b43d3b9-1459-4d69-b4cc-d5d7836be96a"},"vehicle_type_id":"4","last_reported":1765932801,"current_range_meters":14400,"station_id":"ce4bhnh2rcd13ifvqgtg","pricing_plan_id":"cebpf4jnsgd1na2vs0mg"},{"bike_id":"afa50fe1-539e-4b38-a0ae-4eaf3e417158","system_id":"levelo_inurba_marseille","lat":43.310684,"lon":5.38334,"is_reserved":false,"is_disabled":false,"rental_uris":{"android":"levelo://app?vid=afa50fe1-539e-4b38-a0ae-4eaf3e417158","ios":"levelo://app?vid=afa50fe1-539e-4b38-a0ae-4eaf3e417158"},"vehicle_type_id":"4","last_reported":1765932801,"current_range_meters":14400,"station_id":"ce4bgv92rcd13ifvqcr0","pricing_plan_id":"cebpf4jnsgd1na2vs0mg"},{"bike_id":"129e5c78-64fe-42f8-84b2-cf07cfb75d07","system_id":"levelo_inurba_marseille","lat":43.28986,"lon":5.36657,"is_reserved":false,"is_disabled":false,"rental_uris":{"android":"levelo://app?vid=129e5c78-64fe-42f8-84b2-cf07cfb75d07","ios":"levelo://app?vid=129e5c78-64fe-42f8-84b2-cf07cfb75d07"},"vehicle_type_id":"4","last_reported":1765932801,"current_range_meters":14400,"station_id":"ce4bhap2rcd13ifvqek0","pricing_plan_id":"cebpf4jnsgd1na2vs0mg"},{"bike_id":"c7231bdc-0256-4f5f-b61c-ccce7cc5012b","system_id":"levelo_inurba_marseille","lat":43.24209,"lon":5.39728,"is_reserved":false,"is_disabled":false,"rental_uris":{"android":"levelo://app?vid=c7231bdc-0256-4f5f-b61c-ccce7cc5012b","ios":"levelo://app?vid=c7231bdc-0256-4f5f-b61c-ccce7cc5012b"},"vehicle_type_id":"4","last_reported":1765932801,"current_range_meters":14800,"station_id":"ce4bhn12rcd13ifvqgpg","pricing_plan_id":"cebpf4jnsgd1na2vs0mg"},{"bike_id":"103401f7-dff1-4044-90bd-ee3d2d530810","system_id":"levelo_inurba_marseille","lat":43.24412,"lon":5.37023,"is_reserved":false,"is_disabled":false,"rental_uris":{"android":"levelo://app?vid=103401f7-dff1-4044-90bd-ee3d2d530810","ios":"levelo://app?vid=103401f7-dff1-4044-90bd-ee3d2d530810"},"vehicle_type_id":"4","last_reported":1765932801,"current_range_meters":14800,"station_id":"ce4bhhh2rcd13ifvqfk0","pricing_plan_id":"cebpf4jnsgd1na2vs0mg"},{"bike_id":"e2302dc7-9f08-4aa8-b52a-eb8e874feb84","system_id":"levelo_inurba_marseille","lat":43.27176,"lon":5.40996,"is_reserved":false,"is_disabled":false,"rental_uris":{"android":"levelo://app?vid=e2302dc7-9f08-4aa8-b52a-eb8e874feb84","ios":"levelo://app?vid=e2302dc7-9f08-4aa8-b52a-eb8e874feb84"},"vehicle_type_id":"4","last_reported":1765932801,"current_range_meters":14800,"station_id":"ce4bhl12rcd13ifvqgf0","pricing_plan_id":"cebpf4jnsgd1na2vs0mg"},{"bike_id":"aae25742-9eeb-49ec-a8e5-f2b92e66260e","system_id":"levelo_inurba_marseille","lat":43.28481,"lon":5.48383,"is_reserved":false,"is_disabled":false,"rental_uris":{"android":"levelo://app?vid=aae25742-9eeb-49ec-a8e5-f2b92e66260e","ios":"levelo://app?vid=aae25742-9eeb-49ec-a8e5-f2b92e66260e"},"vehicle_type_id":"4","last_reported":1765932801,"current_range_meters":14800,"station_id":"st_d3svhcjqgbts73a3dn0g","pricing_plan_id":"cebpf4jnsgd1na2vs0mg"},{"bike_id":"1765b530-9151-4df0-968d-51c660c0b20a","system_id":"levelo_inurba_marseille","lat":43.282325,"lon":5.390513,"is_reserved":false,"is_disabled":false,"rental_uris":{"android":"levelo://app?vid=1765b530-9151-4df0-968d-51c660c0b20a","ios":"levelo://app?vid=1765b530-9151-4df0-968d-51c660c0b20a"},"vehicle_type_id":"4","last_reported":1765932801,"current_range_meters":14800,"station_id":"ce4bhn92rcd13ifvqgsg","pricing_plan_id":"cebpf4jnsgd1na2vs0mg"},{"bike_id":"8e42f5bd-0a55-4d3c-9096-d82a20a55cfc","system_id":"levelo_inurba_marseille","lat":43.286,"lon":5.38356,"is_reserved":false,"is_disabled":false,"rental_uris":{"android":"levelo://app?vid=8e42f5bd-0a55-4d3c-9096-d82a20a55cfc","ios":"levelo://app?vid=8e42f5bd-0a55-4d3c-9096-d82a20a55cfc"},"vehicle_type_id":"4","last_reported":1765932801,"current_range_meters":14800,"station_id":"","pricing_plan_id":"cebpf4jnsgd1na2vs0mg"},{"bike_id":"50a5b016-cf9a-497e-8e9c-2f2d39e2c6a3","system_id":"levelo_inurba_marseille","lat":43.32005,"lon":5.3674,"is_reserved":false,"is_disabled":false,"rental_uris":{"android":"levelo://app?vid=50a5b016-cf9a-497e-8e9c-2f2d39e2c6a3","ios":"levelo://app?vid=50a5b016-cf9a-497e-8e9c-2f2d39e2c6a3"},"vehicle_type_id":"4","last_reported":1765932801,"current_range_meters":14800,"station_id":"ce4bhrh2rcd13ifvqhug","pricing_plan_id":"cebpf4jnsgd1na2vs0mg"},{"bike_id":"4515132a-3268-4b1c-81eb-02cb63ec18dc","system_id":"levelo_inurba_marseille","lat":43.33169,"lon":5.37689,"is_reserved":false,"is_disabled":false,"rental_uris":{"android":"levelo://app?vid=4515132a-3268-4b1c-81eb-02cb63ec18dc","ios":"levelo://app?vid=4515132a-3268-4b1c-81eb-02cb63ec18dc"},"vehicle_type_id":"4","last_reported":1765932801,"current_range_meters":14800,"station_id":"st_d46cu089ee8s73dldbu0","pricing_plan_id":"cebpf4jnsgd1na2vs0mg"},{"bike_id":"5cbac56e-f8f8-42b1-94e6-51c79e00ef9d","system_id":"levelo_inurba_marseille","lat":43.27164,"lon":5.40975,"is_reserved":false,"is_disabled":false,"rental_uris":{"android":"levelo://app?vid=5cbac56e-f8f8-42b1-94e6-51c79e00ef9d","ios":"levelo://app?vid=5cbac56e-f8f8-42b1-94e6-51c79e00ef9d"},"vehicle_type_id":"4","last_reported":1765932801,"current_range_meters":14800,"station_id":"ce4bhl12rcd13ifvqgf0","pricing_plan_id":"cebpf4jnsgd1na2vs0mg"},{"bike_id":"50434642-f9bc-48a5-9aa9-e1c1ac067a3f","system_id":"levelo_inurba_marseille","lat":43.2481,"lon":5.37454,"is_reserved":false,"is_disabled":false,"rental_uris":{"android":"levelo://app?vid=50434642-f9bc-48a5-9aa9-e1c1ac067a3f","ios":"levelo://app?vid=50434642-f9bc-48a5-9aa9-e1c1ac067a3f"},"vehicle_type_id":"4","last_reported":1765932801,"current_range_meters":14800,"station_id":"ce4bhgh2rcd13ifvqfb0","pricing_plan_id":"cebpf4jnsgd1na2vs0mg"},{"bike_id":"d726324f-1229-4ee5-babb-773d48683f7d","system_id":"levelo_inurba_marseille","lat":43.25119,"lon":5.40322,"is_reserved":false,"is_disabled":false,"rental_uris":{"android":"levelo://app?vid=d726324f-1229-4ee5-babb-773d48683f7d","ios":"levelo://app?vid=d726324f-1229-4ee5-babb-773d48683f7d"},"vehicle_type_id":"4","last_reported":1765932801,"current_range_meters":15200,"station_id":"ce4bhlh2rcd13ifvqgig","pricing_plan_id":"cebpf4jnsgd1na2vs0mg"},{"bike_id":"ee6e7961-b245-47cf-a408-4b1bcffde8cb","system_id":"levelo_inurba_marseille","lat":43.30352,"lon":5.40461,"is_reserved":false,"is_disabled":false,"rental_uris":{"android":"levelo://app?vid=ee6e7961-b245-47cf-a408-4b1bcffde8cb","ios":"levelo://app?vid=ee6e7961-b245-47cf-a408-4b1bcffde8cb"},"vehicle_type_id":"4","last_reported":1765932801,"current_range_meters":15200,"station_id":"ce4bh012rcd13ifvqd10","pricing_plan_id":"cebpf4jnsgd1na2vs0mg"},{"bike_id":"d0e47d82-46b1-4391-9c6a-cf32785e1c0d","system_id":"levelo_inurba_marseille","lat":43.28479,"lon":5.38444,"is_reserved":false,"is_disabled":false,"rental_uris":{"android":"levelo://app?vid=d0e47d82-46b1-4391-9c6a-cf32785e1c0d","ios":"levelo://app?vid=d0e47d82-46b1-4391-9c6a-cf32785e1c0d"},"vehicle_type_id":"4","last_reported":1765932801,"current_range_meters":15200,"station_id":"ce4bh512rcd13ifvqe3g","pricing_plan_id":"cebpf4jnsgd1na2vs0mg"},{"bike_id":"2beaffa6-8bca-4ec0-8c78-30674bba7f30","system_id":"levelo_inurba_marseille","lat":43.2841,"lon":5.37542,"is_reserved":false,"is_disabled":false,"rental_uris":{"android":"levelo://app?vid=2beaffa6-8bca-4ec0-8c78-30674bba7f30","ios":"levelo://app?vid=2beaffa6-8bca-4ec0-8c78-30674bba7f30"},"vehicle_type_id":"4","last_reported":1765932801,"current_range_meters":15200,"station_id":"ce4bh412rcd13ifvqds0","pricing_plan_id":"cebpf4jnsgd1na2vs0mg"},{"bike_id":"54e1b533-e7ac-4db1-a24b-73f4774512a5","system_id":"levelo_inurba_marseille","lat":43.29618,"lon":5.40568,"is_reserved":false,"is_disabled":false,"rental_uris":{"android":"levelo://app?vid=54e1b533-e7ac-4db1-a24b-73f4774512a5","ios":"levelo://app?vid=54e1b533-e7ac-4db1-a24b-73f4774512a5"},"vehicle_type_id":"4","last_reported":1765932801,"current_range_meters":15200,"station_id":"ce4bh0h2rcd13ifvqd60","pricing_plan_id":"cebpf4jnsgd1na2vs0mg"},{"bike_id":"3138b643-9b4e-4f3f-aa7a-adbe39dc5771","system_id":"levelo_inurba_marseille","lat":43.3061,"lon":5.39366,"is_reserved":false,"is_disabled":false,"rental_uris":{"android":"levelo://app?vid=3138b643-9b4e-4f3f-aa7a-adbe39dc5771","ios":"levelo://app?vid=3138b643-9b4e-4f3f-aa7a-adbe39dc5771"},"vehicle_type_id":"4","last_reported":1765932801,"current_range_meters":15200,"station_id":"ce4bh0p2rcd13ifvqd80","pricing_plan_id":"cebpf4jnsgd1na2vs0mg"},{"bike_id":"22703888-0df8-4a04-b448-79498ff0176e","system_id":"levelo_inurba_marseille","lat":43.24393,"lon":5.37032,"is_reserved":false,"is_disabled":false,"rental_uris":{"android":"levelo://app?vid=22703888-0df8-4a04-b448-79498ff0176e","ios":"levelo://app?vid=22703888-0df8-4a04-b448-79498ff0176e"},"vehicle_type_id":"4","last_reported":1765932801,"current_range_meters":15200,"station_id":"ce4bhhh2rcd13ifvqfk0","pricing_plan_id":"cebpf4jnsgd1na2vs0mg"},{"bike_id":"2f909eee-f9c5-496b-bfae-4e9f2b3e5888","system_id":"levelo_inurba_marseille","lat":43.2407,"lon":5.37756,"is_reserved":false,"is_disabled":false,"rental_uris":{"android":"levelo://app?vid=2f909eee-f9c5-496b-bfae-4e9f2b3e5888","ios":"levelo://app?vid=2f909eee-f9c5-496b-bfae-4e9f2b3e5888"},"vehicle_type_id":"4","last_reported":1765932801,"current_range_meters":15200,"station_id":"ce4bhnp2rcd13ifvqgvg","pricing_plan_id":"cebpf4jnsgd1na2vs0mg"},{"bike_id":"fb31deb4-1b33-4b6b-a960-914cb33129a5","system_id":"levelo_inurba_marseille","lat":43.30331,"lon":5.40455,"is_reserved":false,"is_disabled":false,"rental_uris":{"android":"levelo://app?vid=fb31deb4-1b33-4b6b-a960-914cb33129a5","ios":"levelo://app?vid=fb31deb4-1b33-4b6b-a960-914cb33129a5"},"vehicle_type_id":"4","last_reported":1765932801,"current_range_meters":15200,"station_id":"ce4bh012rcd13ifvqd10","pricing_plan_id":"cebpf4jnsgd1na2vs0mg"},{"bike_id":"de791258-819d-4e7d-87dc-aca7a6b27120","system_id":"levelo_inurba_marseille","lat":43.28107,"lon":5.37829,"is_reserved":false,"is_disabled":false,"rental_uris":{"android":"levelo://app?vid=de791258-819d-4e7d-87dc-aca7a6b27120","ios":"levelo://app?vid=de791258-819d-4e7d-87dc-aca7a6b27120"},"vehicle_type_id":"4","last_reported":1765932801,"current_range_meters":16000,"station_id":"ce4bha12rcd13ifvqee0","pricing_plan_id":"cebpf4jnsgd1na2vs0mg"},{"bike_id":"dcb01274-5e8a-43d9-ad91-618c3ca3f56a","system_id":"levelo_inurba_marseille","lat":43.298548,"lon":5.440709,"is_reserved":false,"is_disabled":false,"rental_uris":{"android":"levelo://app?vid=dcb01274-5e8a-43d9-ad91-618c3ca3f56a","ios":"levelo://app?vid=dcb01274-5e8a-43d9-ad91-618c3ca3f56a"},"vehicle_type_id":"4","last_reported":1765932801,"current_range_meters":16000,"station_id":"","pricing_plan_id":"cebpf4jnsgd1na2vs0mg"},{"bike_id":"4d8305f5-3b23-4d85-b774-71093376b965","system_id":"levelo_inurba_marseille","lat":43.30213,"lon":5.37432,"is_reserved":false,"is_disabled":false,"rental_uris":{"android":"levelo://app?vid=4d8305f5-3b23-4d85-b774-71093376b965","ios":"levelo://app?vid=4d8305f5-3b23-4d85-b774-71093376b965"},"vehicle_type_id":"4","last_reported":1765932801,"current_range_meters":16000,"station_id":"ce4bgs92rcd13ifvqcc0","pricing_plan_id":"cebpf4jnsgd1na2vs0mg"},{"bike_id":"9a30f84f-1824-4a3b-a3e5-7cf716d48de5","system_id":"levelo_inurba_marseille","lat":43.31923,"lon":5.40065,"is_reserved":false,"is_disabled":false,"rental_uris":{"android":"levelo://app?vid=9a30f84f-1824-4a3b-a3e5-7cf716d48de5","ios":"levelo://app?vid=9a30f84f-1824-4a3b-a3e5-7cf716d48de5"},"vehicle_type_id":"4","last_reported":1765932801,"current_range_meters":16000,"station_id":"","pricing_plan_id":"cebpf4jnsgd1na2vs0mg"},{"bike_id":"66198d54-27eb-4c7e-8cb9-cdd1febf5508","system_id":"levelo_inurba_marseille","lat":43.3128,"lon":5.40167,"is_reserved":false,"is_disabled":false,"rental_uris":{"android":"levelo://app?vid=66198d54-27eb-4c7e-8cb9-cdd1febf5508","ios":"levelo://app?vid=66198d54-27eb-4c7e-8cb9-cdd1febf5508"},"vehicle_type_id":"4","last_reported":1765932801,"current_range_meters":16000,"station_id":"ce4bh092rcd13ifvqd30","pricing_plan_id":"cebpf4jnsgd1na2vs0mg"},{"bike_id":"e21f959b-b32b-4121-9b18-45968d8c64ce","system_id":"levelo_inurba_marseille","lat":43.33723,"lon":5.3748,"is_reserved":false,"is_disabled":false,"rental_uris":{"android":"levelo://app?vid=e21f959b-b32b-4121-9b18-45968d8c64ce","ios":"levelo://app?vid=e21f959b-b32b-4121-9b18-45968d8c64ce"},"vehicle_type_id":"4","last_reported":1765932801,"current_range_meters":16000,"station_id":"","pricing_plan_id":"cebpf4jnsgd1na2vs0mg"},{"bike_id":"0db53b82-acdf-4319-9327-46bc8bb85232","system_id":"levelo_inurba_marseille","lat":43.3138,"lon":5.38504,"is_reserved":false,"is_disabled":false,"rental_uris":{"android":"levelo://app?vid=0db53b82-acdf-4319-9327-46bc8bb85232","ios":"levelo://app?vid=0db53b82-acdf-4319-9327-46bc8bb85232"},"vehicle_type_id":"4","last_reported":1765932801,"current_range_meters":16000,"station_id":"ce4bgt92rcd13ifvqcf0","pricing_plan_id":"cebpf4jnsgd1na2vs0mg"},{"bike_id":"cd57c9d5-f8fa-438e-9265-5fd72d0caa2e","system_id":"levelo_inurba_marseille","lat":43.29935,"lon":5.37406,"is_reserved":false,"is_disabled":false,"rental_uris":{"android":"levelo://app?vid=cd57c9d5-f8fa-438e-9265-5fd72d0caa2e","ios":"levelo://app?vid=cd57c9d5-f8fa-438e-9265-5fd72d0caa2e"},"vehicle_type_id":"4","last_reported":1765932801,"current_range_meters":16400,"station_id":"","pricing_plan_id":"cebpf4jnsgd1na2vs0mg"},{"bike_id":"7c81ee1f-b092-44b0-b68a-cd163a9268f6","system_id":"levelo_inurba_marseille","lat":43.262082,"lon":5.374402,"is_reserved":false,"is_disabled":false,"rental_uris":{"android":"levelo://app?vid=7c81ee1f-b092-44b0-b68a-cd163a9268f6","ios":"levelo://app?vid=7c81ee1f-b092-44b0-b68a-cd163a9268f6"},"vehicle_type_id":"4","last_reported":1765932801,"current_range_meters":16400,"station_id":"","pricing_plan_id":"cebpf4jnsgd1na2vs0mg"},{"bike_id":"37715231-2619-4904-ae92-72d042ef2a71","system_id":"levelo_inurba_marseille","lat":43.26548,"lon":5.37301,"is_reserved":false,"is_disabled":false,"rental_uris":{"android":"levelo://app?vid=37715231-2619-4904-ae92-72d042ef2a71","ios":"levelo://app?vid=37715231-2619-4904-ae92-72d042ef2a71"},"vehicle_type_id":"4","last_reported":1765932801,"current_range_meters":16400,"station_id":"ce4bhg12rcd13ifvqf70","pricing_plan_id":"cebpf4jnsgd1na2vs0mg"},{"bike_id":"d3f7e838-9c86-437e-8b22-33798336e317","system_id":"levelo_inurba_marseille","lat":43.265534,"lon":5.372831,"is_reserved":false,"is_disabled":false,"rental_uris":{"android":"levelo://app?vid=d3f7e838-9c86-437e-8b22-33798336e317","ios":"levelo://app?vid=d3f7e838-9c86-437e-8b22-33798336e317"},"vehicle_type_id":"4","last_reported":1765932801,"current_range_meters":16400,"station_id":"ce4bhg12rcd13ifvqf70","pricing_plan_id":"cebpf4jnsgd1na2vs0mg"},{"bike_id":"8bd26cde-5f62-40f9-ba7f-767c13d6f8ec","system_id":"levelo_inurba_marseille","lat":43.29861,"lon":5.37889,"is_reserved":false,"is_disabled":false,"rental_uris":{"android":"levelo://app?vid=8bd26cde-5f62-40f9-ba7f-767c13d6f8ec","ios":"levelo://app?vid=8bd26cde-5f62-40f9-ba7f-767c13d6f8ec"},"vehicle_type_id":"4","last_reported":1765932801,"current_range_meters":16400,"station_id":"","pricing_plan_id":"cebpf4jnsgd1na2vs0mg"},{"bike_id":"f83af38e-8319-48a4-9e6d-4c71475c4147","system_id":"levelo_inurba_marseille","lat":43.3139,"lon":5.38495,"is_reserved":false,"is_disabled":false,"rental_uris":{"android":"levelo://app?vid=f83af38e-8319-48a4-9e6d-4c71475c4147","ios":"levelo://app?vid=f83af38e-8319-48a4-9e6d-4c71475c4147"},"vehicle_type_id":"4","last_reported":1765932801,"current_range_meters":16400,"station_id":"ce4bgt92rcd13ifvqcf0","pricing_plan_id":"cebpf4jnsgd1na2vs0mg"},{"bike_id":"9507a12a-0700-47f0-a47e-608070752d22","system_id":"levelo_inurba_marseille","lat":43.32005,"lon":5.3816,"is_reserved":false,"is_disabled":false,"rental_uris":{"android":"levelo://app?vid=9507a12a-0700-47f0-a47e-608070752d22","ios":"levelo://app?vid=9507a12a-0700-47f0-a47e-608070752d22"},"vehicle_type_id":"4","last_reported":1765932801,"current_range_meters":16400,"station_id":"ce4bhr12rcd13ifvqhpg","pricing_plan_id":"cebpf4jnsgd1na2vs0mg"},{"bike_id":"cb19c46a-9c99-46ca-ae90-dced0257df91","system_id":"levelo_inurba_marseille","lat":43.30146,"lon":5.36848,"is_reserved":false,"is_disabled":false,"rental_uris":{"android":"levelo://app?vid=cb19c46a-9c99-46ca-ae90-dced0257df91","ios":"levelo://app?vid=cb19c46a-9c99-46ca-ae90-dced0257df91"},"vehicle_type_id":"4","last_reported":1765932801,"current_range_meters":16400,"station_id":"","pricing_plan_id":"cebpf4jnsgd1na2vs0mg"},{"bike_id":"c23d8bdf-deca-4d7f-92c5-b23b730afcf9","system_id":"levelo_inurba_marseille","lat":43.24093,"lon":5.3773,"is_reserved":false,"is_disabled":false,"rental_uris":{"android":"levelo://app?vid=c23d8bdf-deca-4d7f-92c5-b23b730afcf9","ios":"levelo://app?vid=c23d8bdf-deca-4d7f-92c5-b23b730afcf9"},"vehicle_type_id":"4","last_reported":1765932801,"current_range_meters":16400,"station_id":"ce4bhnp2rcd13ifvqgvg","pricing_plan_id":"cebpf4jnsgd1na2vs0mg"},{"bike_id":"8a46e599-2fe4-40df-bdb7-4c0d6639579e","system_id":"levelo_inurba_marseille","lat":43.30451,"lon":5.41537,"is_reserved":false,"is_disabled":false,"rental_uris":{"android":"levelo://app?vid=8a46e599-2fe4-40df-bdb7-4c0d6639579e","ios":"levelo://app?vid=8a46e599-2fe4-40df-bdb7-4c0d6639579e"},"vehicle_type_id":"4","last_reported":1765932801,"current_range_meters":16400,"station_id":"","pricing_plan_id":"cebpf4jnsgd1na2vs0mg"},{"bike_id":"c7d74418-6f39-4c89-bf1a-09792a4dec8c","system_id":"levelo_inurba_marseille","lat":43.28493,"lon":5.35901,"is_reserved":false,"is_disabled":true,"rental_uris":{"android":"levelo://app?vid=c7d74418-6f39-4c89-bf1a-09792a4dec8c","ios":"levelo://app?vid=c7d74418-6f39-4c89-bf1a-09792a4dec8c"},"vehicle_type_id":"4","last_reported":1765932801,"current_range_meters":16400,"station_id":"ce4bhah2rcd13ifvqei0","pricing_plan_id":"cebpf4jnsgd1na2vs0mg"},{"bike_id":"d37444e6-4695-4e98-b6f9-bbcb1600d416","system_id":"levelo_inurba_marseille","lat":43.31496,"lon":5.45386,"is_reserved":false,"is_disabled":false,"rental_uris":{"android":"levelo://app?vid=d37444e6-4695-4e98-b6f9-bbcb1600d416","ios":"levelo://app?vid=d37444e6-4695-4e98-b6f9-bbcb1600d416"},"vehicle_type_id":"4","last_reported":1765932801,"current_range_meters":16400,"station_id":"","pricing_plan_id":"cebpf4jnsgd1na2vs0mg"},{"bike_id":"543609c0-9838-4e72-b64b-418471aa6b28","system_id":"levelo_inurba_marseille","lat":43.31171,"lon":5.38712,"is_reserved":false,"is_disabled":false,"rental_uris":{"android":"levelo://app?vid=543609c0-9838-4e72-b64b-418471aa6b28","ios":"levelo://app?vid=543609c0-9838-4e72-b64b-418471aa6b28"},"vehicle_type_id":"4","last_reported":1765932801,"current_range_meters":16800,"station_id":"ce4bgv12rcd13ifvqcp0","pricing_plan_id":"cebpf4jnsgd1na2vs0mg"},{"bike_id":"62d7bf44-19d0-45da-b289-9d7b7270b0d2","system_id":"levelo_inurba_marseille","lat":43.29052,"lon":5.37955,"is_reserved":false,"is_disabled":false,"rental_uris":{"android":"levelo://app?vid=62d7bf44-19d0-45da-b289-9d7b7270b0d2","ios":"levelo://app?vid=62d7bf44-19d0-45da-b289-9d7b7270b0d2"},"vehicle_type_id":"4","last_reported":1765932801,"current_range_meters":16800,"station_id":"","pricing_plan_id":"cebpf4jnsgd1na2vs0mg"},{"bike_id":"beb219cc-608b-4216-8204-8aa828669025","system_id":"levelo_inurba_marseille","lat":43.30792,"lon":5.38147,"is_reserved":false,"is_disabled":false,"rental_uris":{"android":"levelo://app?vid=beb219cc-608b-4216-8204-8aa828669025","ios":"levelo://app?vid=beb219cc-608b-4216-8204-8aa828669025"},"vehicle_type_id":"4","last_reported":1765932801,"current_range_meters":16800,"station_id":"ce4bgt12rcd13ifvqce0","pricing_plan_id":"cebpf4jnsgd1na2vs0mg"},{"bike_id":"01143ee8-bcad-4467-9f86-9fe6c743160a","system_id":"levelo_inurba_marseille","lat":43.31359,"lon":5.39697,"is_reserved":false,"is_disabled":false,"rental_uris":{"android":"levelo://app?vid=01143ee8-bcad-4467-9f86-9fe6c743160a","ios":"levelo://app?vid=01143ee8-bcad-4467-9f86-9fe6c743160a"},"vehicle_type_id":"4","last_reported":1765932801,"current_range_meters":16800,"station_id":"ce4bgvp2rcd13ifvqcu0","pricing_plan_id":"cebpf4jnsgd1na2vs0mg"},{"bike_id":"bda86a63-cd60-4ee8-a5bd-aa15015ebe74","system_id":"levelo_inurba_marseille","lat":43.27061,"lon":5.40251,"is_reserved":false,"is_disabled":false,"rental_uris":{"android":"levelo://app?vid=bda86a63-cd60-4ee8-a5bd-aa15015ebe74","ios":"levelo://app?vid=bda86a63-cd60-4ee8-a5bd-aa15015ebe74"},"vehicle_type_id":"4","last_reported":1765932801,"current_range_meters":16800,"station_id":"ce4bhk92rcd13ifvqgc0","pricing_plan_id":"cebpf4jnsgd1na2vs0mg"},{"bike_id":"f7a7c48a-9529-4a62-870c-83c6bb5fc874","system_id":"levelo_inurba_marseille","lat":43.3121,"lon":5.36586,"is_reserved":false,"is_disabled":false,"rental_uris":{"android":"levelo://app?vid=f7a7c48a-9529-4a62-870c-83c6bb5fc874","ios":"levelo://app?vid=f7a7c48a-9529-4a62-870c-83c6bb5fc874"},"vehicle_type_id":"4","last_reported":1765932801,"current_range_meters":16800,"station_id":"","pricing_plan_id":"cebpf4jnsgd1na2vs0mg"},{"bike_id":"306b636c-e53e-4301-a0e7-bc47e15eb932","system_id":"levelo_inurba_marseille","lat":43.288571,"lon":5.393259,"is_reserved":false,"is_disabled":true,"rental_uris":{"android":"levelo://app?vid=306b636c-e53e-4301-a0e7-bc47e15eb932","ios":"levelo://app?vid=306b636c-e53e-4301-a0e7-bc47e15eb932"},"vehicle_type_id":"4","last_reported":1765932801,"current_range_meters":16800,"station_id":"ce4bh2p2rcd13ifvqdi0","pricing_plan_id":"cebpf4jnsgd1na2vs0mg"},{"bike_id":"0cf21a01-e782-415d-994b-e6f97cf35f44","system_id":"levelo_inurba_marseille","lat":43.27822,"lon":5.40716,"is_reserved":false,"is_disabled":false,"rental_uris":{"android":"levelo://app?vid=0cf21a01-e782-415d-994b-e6f97cf35f44","ios":"levelo://app?vid=0cf21a01-e782-415d-994b-e6f97cf35f44"},"vehicle_type_id":"4","last_reported":1765932801,"current_range_meters":16800,"station_id":"ce4bhnh2rcd13ifvqgtg","pricing_plan_id":"cebpf4jnsgd1na2vs0mg"},{"bike_id":"a8c19996-f300-462d-a9f6-261332e8e963","system_id":"levelo_inurba_marseille","lat":43.23194,"lon":5.43701,"is_reserved":false,"is_disabled":true,"rental_uris":{"android":"levelo://app?vid=a8c19996-f300-462d-a9f6-261332e8e963","ios":"levelo://app?vid=a8c19996-f300-462d-a9f6-261332e8e963"},"vehicle_type_id":"4","last_reported":1765932801,"current_range_meters":16800,"station_id":"ce4bhmp2rcd13ifvqgog","pricing_plan_id":"cebpf4jnsgd1na2vs0mg"},{"bike_id":"7b10dc07-2125-4598-92f3-8802d55146e2","system_id":"levelo_inurba_marseille","lat":43.270552,"lon":5.383082,"is_reserved":false,"is_disabled":false,"rental_uris":{"android":"levelo://app?vid=7b10dc07-2125-4598-92f3-8802d55146e2","ios":"levelo://app?vid=7b10dc07-2125-4598-92f3-8802d55146e2"},"vehicle_type_id":"4","last_reported":1765932801,"current_range_meters":16800,"station_id":"ce4bhbh2rcd13ifvqeo0","pricing_plan_id":"cebpf4jnsgd1na2vs0mg"},{"bike_id":"6dd5b542-725b-469d-afe4-36183c3867e0","system_id":"levelo_inurba_marseille","lat":43.2258,"lon":5.41636,"is_reserved":false,"is_disabled":false,"rental_uris":{"android":"levelo://app?vid=6dd5b542-725b-469d-afe4-36183c3867e0","ios":"levelo://app?vid=6dd5b542-725b-469d-afe4-36183c3867e0"},"vehicle_type_id":"4","last_reported":1765932801,"current_range_meters":16800,"station_id":"st_d2o4gvlbi1j2169b742g","pricing_plan_id":"cebpf4jnsgd1na2vs0mg"},{"bike_id":"4426e565-55ce-4ab9-b08c-86117389e09a","system_id":"levelo_inurba_marseille","lat":43.28032,"lon":5.36955,"is_reserved":false,"is_disabled":false,"rental_uris":{"android":"levelo://app?vid=4426e565-55ce-4ab9-b08c-86117389e09a","ios":"levelo://app?vid=4426e565-55ce-4ab9-b08c-86117389e09a"},"vehicle_type_id":"4","last_reported":1765932801,"current_range_meters":17200,"station_id":"ce4bha12rcd13ifvqef0","pricing_plan_id":"cebpf4jnsgd1na2vs0mg"},{"bike_id":"7d45bae8-42d8-41f1-9287-4349005baefe","system_id":"levelo_inurba_marseille","lat":43.284789,"lon":5.483936,"is_reserved":false,"is_disabled":false,"rental_uris":{"android":"levelo://app?vid=7d45bae8-42d8-41f1-9287-4349005baefe","ios":"levelo://app?vid=7d45bae8-42d8-41f1-9287-4349005baefe"},"vehicle_type_id":"4","last_reported":1765932801,"current_range_meters":17200,"station_id":"st_d3svhcjqgbts73a3dn0g","pricing_plan_id":"cebpf4jnsgd1na2vs0mg"},{"bike_id":"8640dff4-f56c-4538-98ff-cf696b09b8f1","system_id":"levelo_inurba_marseille","lat":43.3089,"lon":5.39636,"is_reserved":false,"is_disabled":false,"rental_uris":{"android":"levelo://app?vid=8640dff4-f56c-4538-98ff-cf696b09b8f1","ios":"levelo://app?vid=8640dff4-f56c-4538-98ff-cf696b09b8f1"},"vehicle_type_id":"4","last_reported":1765932801,"current_range_meters":17200,"station_id":"ce4bh012rcd13ifvqcv0","pricing_plan_id":"cebpf4jnsgd1na2vs0mg"},{"bike_id":"b4f455b1-650d-420b-9c30-347ed9584de3","system_id":"levelo_inurba_marseille","lat":43.24383,"lon":5.37076,"is_reserved":false,"is_disabled":false,"rental_uris":{"android":"levelo://app?vid=b4f455b1-650d-420b-9c30-347ed9584de3","ios":"levelo://app?vid=b4f455b1-650d-420b-9c30-347ed9584de3"},"vehicle_type_id":"4","last_reported":1765932801,"current_range_meters":17200,"station_id":"ce4bhhh2rcd13ifvqfk0","pricing_plan_id":"cebpf4jnsgd1na2vs0mg"},{"bike_id":"5aef10e9-7731-44de-ac85-aecf23e178c2","system_id":"levelo_inurba_marseille","lat":43.28944,"lon":5.36407,"is_reserved":false,"is_disabled":false,"rental_uris":{"android":"levelo://app?vid=5aef10e9-7731-44de-ac85-aecf23e178c2","ios":"levelo://app?vid=5aef10e9-7731-44de-ac85-aecf23e178c2"},"vehicle_type_id":"4","last_reported":1765932801,"current_range_meters":17200,"station_id":"ce4bhc92rcd13ifvqetg","pricing_plan_id":"cebpf4jnsgd1na2vs0mg"},{"bike_id":"f2ccd172-3f70-44f2-8443-a7d56b9fb386","system_id":"levelo_inurba_marseille","lat":43.2932,"lon":5.40937,"is_reserved":false,"is_disabled":false,"rental_uris":{"android":"levelo://app?vid=f2ccd172-3f70-44f2-8443-a7d56b9fb386","ios":"levelo://app?vid=f2ccd172-3f70-44f2-8443-a7d56b9fb386"},"vehicle_type_id":"4","last_reported":1765932801,"current_range_meters":17200,"station_id":"","pricing_plan_id":"cebpf4jnsgd1na2vs0mg"},{"bike_id":"d8c1575c-ce87-4119-aeb4-0b6fa027adf7","system_id":"levelo_inurba_marseille","lat":43.29811,"lon":5.44045,"is_reserved":false,"is_disabled":false,"rental_uris":{"android":"levelo://app?vid=d8c1575c-ce87-4119-aeb4-0b6fa027adf7","ios":"levelo://app?vid=d8c1575c-ce87-4119-aeb4-0b6fa027adf7"},"vehicle_type_id":"4","last_reported":1765932801,"current_range_meters":17200,"station_id":"st_d3jp68qikq2c7381ktn0","pricing_plan_id":"cebpf4jnsgd1na2vs0mg"},{"bike_id":"95a30983-c978-4041-b281-50b0db077a0d","system_id":"levelo_inurba_marseille","lat":43.28641,"lon":5.35076,"is_reserved":false,"is_disabled":true,"rental_uris":{"android":"levelo://app?vid=95a30983-c978-4041-b281-50b0db077a0d","ios":"levelo://app?vid=95a30983-c978-4041-b281-50b0db077a0d"},"vehicle_type_id":"4","last_reported":1765932801,"current_range_meters":17200,"station_id":"ce4bhch2rcd13ifvqeug","pricing_plan_id":"cebpf4jnsgd1na2vs0mg"},{"bike_id":"aa15371c-c7a5-4862-b7ac-faed336d9de4","system_id":"levelo_inurba_marseille","lat":43.32122,"lon":5.36779,"is_reserved":false,"is_disabled":false,"rental_uris":{"android":"levelo://app?vid=aa15371c-c7a5-4862-b7ac-faed336d9de4","ios":"levelo://app?vid=aa15371c-c7a5-4862-b7ac-faed336d9de4"},"vehicle_type_id":"4","last_reported":1765932801,"current_range_meters":17200,"station_id":"ce4bhrh2rcd13ifvqhug","pricing_plan_id":"cebpf4jnsgd1na2vs0mg"},{"bike_id":"1e36bf84-68c4-436e-8bbb-e4609d237cad","system_id":"levelo_inurba_marseille","lat":43.2306,"lon":5.35507,"is_reserved":false,"is_disabled":false,"rental_uris":{"android":"levelo://app?vid=1e36bf84-68c4-436e-8bbb-e4609d237cad","ios":"levelo://app?vid=1e36bf84-68c4-436e-8bbb-e4609d237cad"},"vehicle_type_id":"4","last_reported":1765932801,"current_range_meters":17200,"station_id":"cpo3342slgdg3j2ifvpg","pricing_plan_id":"cebpf4jnsgd1na2vs0mg"},{"bike_id":"63ed059f-0bd8-4fbe-a6d9-24725ddfa2b6","system_id":"levelo_inurba_marseille","lat":43.32355,"lon":5.36733,"is_reserved":false,"is_disabled":false,"rental_uris":{"android":"levelo://app?vid=63ed059f-0bd8-4fbe-a6d9-24725ddfa2b6","ios":"levelo://app?vid=63ed059f-0bd8-4fbe-a6d9-24725ddfa2b6"},"vehicle_type_id":"4","last_reported":1765932801,"current_range_meters":17200,"station_id":"ce4bhsh2rcd13ifvqi2g","pricing_plan_id":"cebpf4jnsgd1na2vs0mg"},{"bike_id":"1c6aa179-1e48-471c-bfaa-7c3096e8b00f","system_id":"levelo_inurba_marseille","lat":43.28532,"lon":5.44088,"is_reserved":false,"is_disabled":false,"rental_uris":{"android":"levelo://app?vid=1c6aa179-1e48-471c-bfaa-7c3096e8b00f","ios":"levelo://app?vid=1c6aa179-1e48-471c-bfaa-7c3096e8b00f"},"vehicle_type_id":"4","last_reported":1765932801,"current_range_meters":17200,"station_id":"st_d3j3df2ikq2c7380ej80","pricing_plan_id":"cebpf4jnsgd1na2vs0mg"},{"bike_id":"62a27870-1e04-4b7b-8580-839494963e78","system_id":"levelo_inurba_marseille","lat":43.29443,"lon":5.39749,"is_reserved":false,"is_disabled":false,"rental_uris":{"android":"levelo://app?vid=62a27870-1e04-4b7b-8580-839494963e78","ios":"levelo://app?vid=62a27870-1e04-4b7b-8580-839494963e78"},"vehicle_type_id":"4","last_reported":1765932801,"current_range_meters":17200,"station_id":"ce4bh3h2rcd13ifvqdo0","pricing_plan_id":"cebpf4jnsgd1na2vs0mg"},{"bike_id":"41eb2ecf-404a-4d9c-a446-50e019663967","system_id":"levelo_inurba_marseille","lat":43.305899,"lon":5.393585,"is_reserved":false,"is_disabled":false,"rental_uris":{"android":"levelo://app?vid=41eb2ecf-404a-4d9c-a446-50e019663967","ios":"levelo://app?vid=41eb2ecf-404a-4d9c-a446-50e019663967"},"vehicle_type_id":"4","last_reported":1765932801,"current_range_meters":17600,"station_id":"ce4bh0p2rcd13ifvqd80","pricing_plan_id":"cebpf4jnsgd1na2vs0mg"},{"bike_id":"c5dfa3e6-3bf1-4e59-aca1-ac9d5201eabd","system_id":"levelo_inurba_marseille","lat":43.23808,"lon":5.36649,"is_reserved":false,"is_disabled":false,"rental_uris":{"android":"levelo://app?vid=c5dfa3e6-3bf1-4e59-aca1-ac9d5201eabd","ios":"levelo://app?vid=c5dfa3e6-3bf1-4e59-aca1-ac9d5201eabd"},"vehicle_type_id":"4","last_reported":1765932801,"current_range_meters":17600,"station_id":"st_d3nk18o9ro0c73en2l3g","pricing_plan_id":"cebpf4jnsgd1na2vs0mg"},{"bike_id":"b5835772-9d8d-43f4-87bf-bb5e0482e17e","system_id":"levelo_inurba_marseille","lat":43.26946,"lon":5.3863,"is_reserved":false,"is_disabled":true,"rental_uris":{"android":"levelo://app?vid=b5835772-9d8d-43f4-87bf-bb5e0482e17e","ios":"levelo://app?vid=b5835772-9d8d-43f4-87bf-bb5e0482e17e"},"vehicle_type_id":"4","last_reported":1765932801,"current_range_meters":17600,"station_id":"ce4bhh92rcd13ifvqfh0","pricing_plan_id":"cebpf4jnsgd1na2vs0mg"},{"bike_id":"e96059bf-8ab9-49e1-8729-f612104306c4","system_id":"levelo_inurba_marseille","lat":43.26676,"lon":5.39614,"is_reserved":false,"is_disabled":false,"rental_uris":{"android":"levelo://app?vid=e96059bf-8ab9-49e1-8729-f612104306c4","ios":"levelo://app?vid=e96059bf-8ab9-49e1-8729-f612104306c4"},"vehicle_type_id":"4","last_reported":1765932801,"current_range_meters":17600,"station_id":"","pricing_plan_id":"cebpf4jnsgd1na2vs0mg"},{"bike_id":"c46d889d-8739-4f48-afd1-aea4a42e3fc9","system_id":"levelo_inurba_marseille","lat":43.29794,"lon":5.39347,"is_reserved":false,"is_disabled":false,"rental_uris":{"android":"levelo://app?vid=c46d889d-8739-4f48-afd1-aea4a42e3fc9","ios":"levelo://app?vid=c46d889d-8739-4f48-afd1-aea4a42e3fc9"},"vehicle_type_id":"4","last_reported":1765932801,"current_range_meters":17600,"station_id":"chh1huq6cuj3fo74tm60","pricing_plan_id":"cebpf4jnsgd1na2vs0mg"},{"bike_id":"54eae3aa-a5ee-4564-bd8c-a0f3e47b5189","system_id":"levelo_inurba_marseille","lat":43.30099,"lon":5.39079,"is_reserved":false,"is_disabled":false,"rental_uris":{"android":"levelo://app?vid=54eae3aa-a5ee-4564-bd8c-a0f3e47b5189","ios":"levelo://app?vid=54eae3aa-a5ee-4564-bd8c-a0f3e47b5189"},"vehicle_type_id":"4","last_reported":1765932801,"current_range_meters":17600,"station_id":"ce4bh192rcd13ifvqdb0","pricing_plan_id":"cebpf4jnsgd1na2vs0mg"},{"bike_id":"4d51d749-d4ea-465c-867b-55f2c802dda5","system_id":"levelo_inurba_marseille","lat":43.25567,"lon":5.38249,"is_reserved":false,"is_disabled":false,"rental_uris":{"android":"levelo://app?vid=4d51d749-d4ea-465c-867b-55f2c802dda5","ios":"levelo://app?vid=4d51d749-d4ea-465c-867b-55f2c802dda5"},"vehicle_type_id":"4","last_reported":1765932801,"current_range_meters":17600,"station_id":"ce4bhih2rcd13ifvqfs0","pricing_plan_id":"cebpf4jnsgd1na2vs0mg"},{"bike_id":"541f1718-a610-4875-9856-1fd4ddb5e437","system_id":"levelo_inurba_marseille","lat":43.30864,"lon":5.39637,"is_reserved":false,"is_disabled":false,"rental_uris":{"android":"levelo://app?vid=541f1718-a610-4875-9856-1fd4ddb5e437","ios":"levelo://app?vid=541f1718-a610-4875-9856-1fd4ddb5e437"},"vehicle_type_id":"4","last_reported":1765932801,"current_range_meters":17600,"station_id":"ce4bh012rcd13ifvqcv0","pricing_plan_id":"cebpf4jnsgd1na2vs0mg"},{"bike_id":"cf076ee1-3867-4054-840d-3605a28e79a0","system_id":"levelo_inurba_marseille","lat":43.33749,"lon":5.37487,"is_reserved":false,"is_disabled":false,"rental_uris":{"android":"levelo://app?vid=cf076ee1-3867-4054-840d-3605a28e79a0","ios":"levelo://app?vid=cf076ee1-3867-4054-840d-3605a28e79a0"},"vehicle_type_id":"4","last_reported":1765932801,"current_range_meters":17600,"station_id":"","pricing_plan_id":"cebpf4jnsgd1na2vs0mg"},{"bike_id":"0c0ad760-3c64-4b61-a284-e4344255a545","system_id":"levelo_inurba_marseille","lat":43.24454,"lon":5.37146,"is_reserved":false,"is_disabled":false,"rental_uris":{"android":"levelo://app?vid=0c0ad760-3c64-4b61-a284-e4344255a545","ios":"levelo://app?vid=0c0ad760-3c64-4b61-a284-e4344255a545"},"vehicle_type_id":"4","last_reported":1765932801,"current_range_meters":17600,"station_id":"ce4bhhh2rcd13ifvqfk0","pricing_plan_id":"cebpf4jnsgd1na2vs0mg"},{"bike_id":"8b743581-9c47-4171-bbaf-c1beed53e2bb","system_id":"levelo_inurba_marseille","lat":43.283513,"lon":5.381316,"is_reserved":false,"is_disabled":false,"rental_uris":{"android":"levelo://app?vid=8b743581-9c47-4171-bbaf-c1beed53e2bb","ios":"levelo://app?vid=8b743581-9c47-4171-bbaf-c1beed53e2bb"},"vehicle_type_id":"4","last_reported":1765932801,"current_range_meters":17600,"station_id":"ce4bh412rcd13ifvqdr0","pricing_plan_id":"cebpf4jnsgd1na2vs0mg"},{"bike_id":"38b85834-b839-442d-9be1-7566b2275643","system_id":"levelo_inurba_marseille","lat":43.24174,"lon":5.36407,"is_reserved":false,"is_disabled":false,"rental_uris":{"android":"levelo://app?vid=38b85834-b839-442d-9be1-7566b2275643","ios":"levelo://app?vid=38b85834-b839-442d-9be1-7566b2275643"},