{"last_updated":1740780503,"ttl":60,"version":"2.2","data":{"bikes":[{"bike_id":"32e84bec-4b4a-483d-a1f9-49a0f12426c4","system_id":"levelo_inurba_marseille","lat":43.32045,"lon":5.41544,"is_reserved":false,"is_disabled":false,"rental_uris":{"android":"levelo://app?vid=32e84bec-4b4a-483d-a1f9-49a0f12426c4","ios":"levelo://app?vid=32e84bec-4b4a-483d-a1f9-49a0f12426c4"},"vehicle_type_id":"4","last_reported":1740780504,"current_range_meters":3200,"station_id":"ce4bhq92rcd13ifvqhkg","pricing_plan_id":"cebpf4jnsgd1na2vs0mg"},{"bike_id":"bcb3dd3d-4bbe-4a55-8cc6-0ab0579bcdbe","system_id":"levelo_inurba_marseille","lat":43.31707,"lon":5.37735,"is_reserved":false,"is_disabled":false,"rental_uris":{"android":"levelo://app?vid=bcb3dd3d-4bbe-4a55-8cc6-0ab0579bcdbe","ios":"levelo://app?vid=bcb3dd3d-4bbe-4a55-8cc6-0ab0579bcdbe"},"vehicle_type_id":"4","last_reported":1740780504,"current_range_meters":3600,"station_id":"ce4bgth2rcd13ifvqch0","pricing_plan_id":"cebpf4jnsgd1na2vs0mg"},{"bike_id":"83c25480-47c1-46eb-89f5-95728d7af2ff","system_id":"levelo_inurba_marseille","lat":43.24665,"lon":5.38165,"is_reserved":false,"is_disabled":false,"rental_uris":{"android":"levelo://app?vid=83c25480-47c1-46eb-89f5-95728d7af2ff","ios":"levelo://app?vid=83c25480-47c1-46eb-89f5-95728d7af2ff"},"vehicle_type_id":"4","last_reported":1740780504,"current_range_meters":4000,"station_id":"ce4bhih2rcd13ifvqfr0","pricing_plan_id":"cebpf4jnsgd1na2vs0mg"},{"bike_id":"dbb938bf-03cb-4b54-bd0d-6b81eaab63cf","system_id":"levelo_inurba_marseille","lat":43.28408,"lon":5.3752,"is_reserved":false,"is_disabled":false,"rental_uris":{"android":"levelo://app?vid=dbb938bf-03cb-4b54-bd0d-6b81eaab63cf","ios":"levelo://app?vid=dbb938bf-03cb-4b54-bd0d-6b81eaab63cf"},"vehicle_type_id":"4","last_reported":1740780504,"current_range_meters":4000,"station_id":"ce4bh412rcd13ifvqds0","pricing_plan_id":"cebpf4jnsgd1na2vs0mg"},{"bike_id":"a8328c72-27ce-4150-a953-d0b7993a21b2","system_id":"levelo_inurba_marseille","lat":43.29248,"lon":5.37613,"is_reserved":false,"is_disabled":false,"rental_uris":{"android":"levelo://app?vid=a8328c72-27ce-4150-a953-d0b7993a21b2","ios":"levelo://app?vid=a8328c72-27ce-4150-a953-d0b7993a21b2"},"vehicle_type_id":"4","last_reported":1740780504,"current_range_meters":4000,"station_id":"ce4bgi12rcd13ifvqb80","pricing_plan_id":"cebpf4jnsgd1na2vs0mg"},{"bike_id":"e9783a72-39c5-49e7-8847-fa0f76b6d257","system_id":"levelo_inurba_marseille","lat":43.29972,"lon":5.38471,"is_reserved":false,"is_disabled":true,"rental_uris":{"android":"levelo://app?vid=e9783a72-39c5-49e7-8847-fa0f76b6d257","ios":"levelo://app?vid=e9783a72-39c5-49e7-8847-fa0f76b6d257"},"vehicle_type_id":"4","last_reported":1740780504,"current_range_meters":4400,"station_id":"ce4bgj92rcd13ifvqbd0","pricing_plan_id":"cebpf4jnsgd1na2vs0mg"},{"bike_id":"2a398520-3240-4d1e-8947-c64008cd4a40","system_id":"levelo_inurba_marseille","lat":43.23965,"lon":5.36633,"is_reserved":false,"is_disabled":false,"rental_uris":{"android":"levelo://app?vid=2a398520-3240-4d1e-8947-c64008cd4a40","ios":"levelo://app?vid=2a398520-3240-4d1e-8947-c64008cd4a40"},"vehicle_type_id":"4","last_reported":1740780504,"current_range_meters":3600,"station_id":"ce4bhi12rcd13ifvqfp0","pricing_plan_id":"cebpf4jnsgd1na2vs0mg"},{"bike_id":"a402dcb0-63b6-4569-b9e8-ad825500c3f8","system_id":"levelo_inurba_marseille","lat":43.28983,"lon":5.35926,"is_reserved":false,"is_disabled":false,"rental_uris":{"android":"levelo://app?vid=a402dcb0-63b6-4569-b9e8-ad825500c3f8","ios":"levelo://app?vid=a402dcb0-63b6-4569-b9e8-ad825500c3f8"},"vehicle_type_id":"4","last_reported":1740780504,"current_range_meters":4400,"station_id":"","pricing_plan_id":"cebpf4jnsgd1na2vs0mg"},{"bike_id":"f1e18a27-104e-4850-8932-b314d011a15d","system_id":"levelo_inurba_marseille","lat":43.28626,"lon":5.35088,"is_reserved":false,"is_disabled":false,"rental_uris":{"android":"levelo://app?vid=f1e18a27-104e-4850-8932-b314d011a15d","ios":"levelo://app?vid=f1e18a27-104e-4850-8932-b314d011a15d"},"vehicle_type_id":"4","last_reported":1740780504,"current_range_meters":4800,"station_id":"ce4bhch2rcd13ifvqeug","pricing_plan_id":"cebpf4jnsgd1na2vs0mg"},{"bike_id":"0317c915-b518-4b85-aa91-67d2abe0b311","system_id":"levelo_inurba_marseille","lat":43.29531,"lon":5.39081,"is_reserved":false,"is_disabled":false,"rental_uris":{"android":"levelo://app?vid=0317c915-b518-4b85-aa91-67d2abe0b311","ios":"levelo://app?vid=0317c915-b518-4b85-aa91-67d2abe0b311"},"vehicle_type_id":"4","last_reported":1740780504,"current_range_meters":5600,"station_id":"ce4bh3p2rcd13ifvqdp0","pricing_plan_id":"cebpf4jnsgd1na2vs0mg"},{"bike_id":"dd3bd756-8d46-4192-bfe6-8a52b08c2cfb","system_id":"levelo_inurba_marseille","lat":43.23962,"lon":5.36629,"is_reserved":false,"is_disabled":false,"rental_uris":{"android":"levelo://app?vid=dd3bd756-8d46-4192-bfe6-8a52b08c2cfb","ios":"levelo://app?vid=dd3bd756-8d46-4192-bfe6-8a52b08c2cfb"},"vehicle_type_id":"4","last_reported":1740780504,"current_range_meters":4400,"station_id":"ce4bhi12rcd13ifvqfp0","pricing_plan_id":"cebpf4jnsgd1na2vs0mg"},{"bike_id":"368b8843-504d-4893-b3c5-ab61414509ca","system_id":"levelo_inurba_marseille","lat":43.30598,"lon":5.39355,"is_reserved":false,"is_disabled":false,"rental_uris":{"android":"levelo://app?vid=368b8843-504d-4893-b3c5-ab61414509ca","ios":"levelo://app?vid=368b8843-504d-4893-b3c5-ab61414509ca"},"vehicle_type_id":"4","last_reported":1740780504,"current_range_meters":6000,"station_id":"ce4bh0p2rcd13ifvqd80","pricing_plan_id":"cebpf4jnsgd1na2vs0mg"},{"bike_id":"4a0ba490-ccf2-4fd4-b1e7-54cfbcc44f39","system_id":"levelo_inurba_marseille","lat":43.28676,"lon":5.38654,"is_reserved":false,"is_disabled":false,"rental_uris":{"android":"levelo://app?vid=4a0ba490-ccf2-4fd4-b1e7-54cfbcc44f39","ios":"levelo://app?vid=4a0ba490-ccf2-4fd4-b1e7-54cfbcc44f39"},"vehicle_type_id":"4","last_reported":1740780504,"current_range_meters":6000,"station_id":"ce4bh492rcd13ifvqdug","pricing_plan_id":"cebpf4jnsgd1na2vs0mg"},{"bike_id":"8f9abc0c-64c0-4575-a7a7-1bcd86d9eeb6","system_id":"levelo_inurba_marseille","lat":43.26565,"lon":5.39012,"is_reserved":false,"is_disabled":false,"rental_uris":{"android":"levelo://app?vid=8f9abc0c-64c0-4575-a7a7-1bcd86d9eeb6","ios":"levelo://app?vid=8f9abc0c-64c0-4575-a7a7-1bcd86d9eeb6"},"vehicle_type_id":"4","last_reported":1740780504,"current_range_meters":6000,"station_id":"ce4bhe12rcd13ifvqf30","pricing_plan_id":"cebpf4jnsgd1na2vs0mg"},{"bike_id":"8842432e-3598-4905-ba3c-96d51a1247fb","system_id":"levelo_inurba_marseille","lat":43.30295,"lon":5.39201,"is_reserved":false,"is_disabled":false,"rental_uris":{"android":"levelo://app?vid=8842432e-3598-4905-ba3c-96d51a1247fb","ios":"levelo://app?vid=8842432e-3598-4905-ba3c-96d51a1247fb"},"vehicle_type_id":"4","last_reported":1740780504,"current_range_meters":6000,"station_id":"ce4bgkh2rcd13ifvqbk0","pricing_plan_id":"cebpf4jnsgd1na2vs0mg"},{"bike_id":"2d151bb7-170e-44c9-853b-131cb86d5796","system_id":"levelo_inurba_marseille","lat":43.26561,"lon":5.39052,"is_reserved":false,"is_disabled":false,"rental_uris":{"android":"levelo://app?vid=2d151bb7-170e-44c9-853b-131cb86d5796","ios":"levelo://app?vid=2d151bb7-170e-44c9-853b-131cb86d5796"},"vehicle_type_id":"4","last_reported":1740780504,"current_range_meters":6000,"station_id":"ce4bhe12rcd13ifvqf30","pricing_plan_id":"cebpf4jnsgd1na2vs0mg"},{"bike_id":"4e21c123-fed3-4db6-ad81-45cccdae0542","system_id":"levelo_inurba_marseille","lat":43.24158,"lon":5.364,"is_reserved":false,"is_disabled":true,"rental_uris":{"android":"levelo://app?vid=4e21c123-fed3-4db6-ad81-45cccdae0542","ios":"levelo://app?vid=4e21c123-fed3-4db6-ad81-45cccdae0542"},"vehicle_type_id":"4","last_reported":1740780504,"current_range_meters":6000,"station_id":"cpo36qri1sfpv3e86is0","pricing_plan_id":"cebpf4jnsgd1na2vs0mg"},{"bike_id":"89a7517e-6658-46c5-a615-9e427ec79029","system_id":"levelo_inurba_marseille","lat":43.257204,"lon":5.418048,"is_reserved":false,"is_disabled":false,"rental_uris":{"android":"levelo://app?vid=89a7517e-6658-46c5-a615-9e427ec79029","ios":"levelo://app?vid=89a7517e-6658-46c5-a615-9e427ec79029"},"vehicle_type_id":"4","last_reported":1740780504,"current_range_meters":6000,"station_id":"","pricing_plan_id":"cebpf4jnsgd1na2vs0mg"},{"bike_id":"a9a19c6c-0bed-4d1f-a200-55a2f4d3052e","system_id":"levelo_inurba_marseille","lat":43.29,"lon":5.42604,"is_reserved":false,"is_disabled":false,"rental_uris":{"android":"levelo://app?vid=a9a19c6c-0bed-4d1f-a200-55a2f4d3052e","ios":"levelo://app?vid=a9a19c6c-0bed-4d1f-a200-55a2f4d3052e"},"vehicle_type_id":"4","last_reported":1740780504,"current_range_meters":6000,"station_id":"","pricing_plan_id":"cebpf4jnsgd1na2vs0mg"},{"bike_id":"0cf57a9c-d86e-4783-8b95-e1a91492d3fd","system_id":"levelo_inurba_marseille","lat":43.32283,"lon":5.38276,"is_reserved":false,"is_disabled":false,"rental_uris":{"android":"levelo://app?vid=0cf57a9c-d86e-4783-8b95-e1a91492d3fd","ios":"levelo://app?vid=0cf57a9c-d86e-4783-8b95-e1a91492d3fd"},"vehicle_type_id":"4","last_reported":1740780504,"current_range_meters":5600,"station_id":"ce4bhr12rcd13ifvqhqg","pricing_plan_id":"cebpf4jnsgd1na2vs0mg"},{"bike_id":"01a50dfe-5779-443a-b6df-212485b278a5","system_id":"levelo_inurba_marseille","lat":43.2929,"lon":5.37463,"is_reserved":false,"is_disabled":false,"rental_uris":{"android":"levelo://app?vid=01a50dfe-5779-443a-b6df-212485b278a5","ios":"levelo://app?vid=01a50dfe-5779-443a-b6df-212485b278a5"},"vehicle_type_id":"4","last_reported":1740780504,"current_range_meters":6400,"station_id":"ce4bgi12rcd13ifvqb70","pricing_plan_id":"cebpf4jnsgd1na2vs0mg"},{"bike_id":"db4a8446-beda-4f58-9bb4-927ab9bcee1d","system_id":"levelo_inurba_marseille","lat":43.28491,"lon":5.38438,"is_reserved":false,"is_disabled":true,"rental_uris":{"android":"levelo://app?vid=db4a8446-beda-4f58-9bb4-927ab9bcee1d","ios":"levelo://app?vid=db4a8446-beda-4f58-9bb4-927ab9bcee1d"},"vehicle_type_id":"4","last_reported":1740780504,"current_range_meters":6400,"station_id":"ce4bh512rcd13ifvqe3g","pricing_plan_id":"cebpf4jnsgd1na2vs0mg"},{"bike_id":"55f306c6-820d-4fa0-bdc4-8b744d1f1eea","system_id":"levelo_inurba_marseille","lat":43.24796,"lon":5.37463,"is_reserved":false,"is_disabled":false,"rental_uris":{"android":"levelo://app?vid=55f306c6-820d-4fa0-bdc4-8b744d1f1eea","ios":"levelo://app?vid=55f306c6-820d-4fa0-bdc4-8b744d1f1eea"},"vehicle_type_id":"4","last_reported":1740780504,"current_range_meters":6400,"station_id":"ce4bhgh2rcd13ifvqfb0","pricing_plan_id":"cebpf4jnsgd1na2vs0mg"},{"bike_id":"4c3cbff4-8fcd-449f-9462-8524115108b2","system_id":"levelo_inurba_marseille","lat":43.26195,"lon":5.37936,"is_reserved":false,"is_disabled":true,"rental_uris":{"android":"levelo://app?vid=4c3cbff4-8fcd-449f-9462-8524115108b2","ios":"levelo://app?vid=4c3cbff4-8fcd-449f-9462-8524115108b2"},"vehicle_type_id":"4","last_reported":1740780504,"current_range_meters":6400,"station_id":"ce4bhjp2rcd13ifvqg90","pricing_plan_id":"cebpf4jnsgd1na2vs0mg"},{"bike_id":"95444a96-7641-4850-b323-dc9a894919ae","system_id":"levelo_inurba_marseille","lat":43.33082,"lon":5.37897,"is_reserved":false,"is_disabled":false,"rental_uris":{"android":"levelo://app?vid=95444a96-7641-4850-b323-dc9a894919ae","ios":"levelo://app?vid=95444a96-7641-4850-b323-dc9a894919ae"},"vehicle_type_id":"4","last_reported":1740780504,"current_range_meters":6800,"station_id":"","pricing_plan_id":"cebpf4jnsgd1na2vs0mg"},{"bike_id":"8feb7610-f7de-48c6-85ca-c5cd50f4d484","system_id":"levelo_inurba_marseille","lat":43.29274,"lon":5.37611,"is_reserved":false,"is_disabled":false,"rental_uris":{"android":"levelo://app?vid=8feb7610-f7de-48c6-85ca-c5cd50f4d484","ios":"levelo://app?vid=8feb7610-f7de-48c6-85ca-c5cd50f4d484"},"vehicle_type_id":"4","last_reported":1740780504,"current_range_meters":6800,"station_id":"ce4bgi12rcd13ifvqb80","pricing_plan_id":"cebpf4jnsgd1na2vs0mg"},{"bike_id":"b2963498-8e90-4473-b367-6fb1f6f4c0cc","system_id":"levelo_inurba_marseille","lat":43.3095,"lon":5.39041,"is_reserved":false,"is_disabled":false,"rental_uris":{"android":"levelo://app?vid=b2963498-8e90-4473-b367-6fb1f6f4c0cc","ios":"levelo://app?vid=b2963498-8e90-4473-b367-6fb1f6f4c0cc"},"vehicle_type_id":"4","last_reported":1740780504,"current_range_meters":6800,"station_id":"ce4bgup2rcd13ifvqco0","pricing_plan_id":"cebpf4jnsgd1na2vs0mg"},{"bike_id":"43c32004-94fe-4598-87ba-734917dbcf43","system_id":"levelo_inurba_marseille","lat":43.29261,"lon":5.37634,"is_reserved":false,"is_disabled":false,"rental_uris":{"android":"levelo://app?vid=43c32004-94fe-4598-87ba-734917dbcf43","ios":"levelo://app?vid=43c32004-94fe-4598-87ba-734917dbcf43"},"vehicle_type_id":"4","last_reported":1740780504,"current_range_meters":6800,"station_id":"ce4bgi12rcd13ifvqb80","pricing_plan_id":"cebpf4jnsgd1na2vs0mg"},{"bike_id":"24b75ac8-6b61-4c73-8394-e4a1dd09f3cb","system_id":"levelo_inurba_marseille","lat":43.28352,"lon":5.38634,"is_reserved":false,"is_disabled":false,"rental_uris":{"android":"levelo://app?vid=24b75ac8-6b61-4c73-8394-e4a1dd09f3cb","ios":"levelo://app?vid=24b75ac8-6b61-4c73-8394-e4a1dd09f3cb"},"vehicle_type_id":"4","last_reported":1740780504,"current_range_meters":6800,"station_id":"ce4bh492rcd13ifvqdvg","pricing_plan_id":"cebpf4jnsgd1na2vs0mg"},{"bike_id":"51dac838-70bd-44dd-918e-f22d4d8e4ad9","system_id":"levelo_inurba_marseille","lat":43.24842,"lon":5.37458,"is_reserved":false,"is_disabled":false,"rental_uris":{"android":"levelo://app?vid=51dac838-70bd-44dd-918e-f22d4d8e4ad9","ios":"levelo://app?vid=51dac838-70bd-44dd-918e-f22d4d8e4ad9"},"vehicle_type_id":"4","last_reported":1740780504,"current_range_meters":6800,"station_id":"","pricing_plan_id":"cebpf4jnsgd1na2vs0mg"},{"bike_id":"17ddbbb5-11e9-4dea-8d48-8df35a23e77a","system_id":"levelo_inurba_marseille","lat":43.31754,"lon":5.39006,"is_reserved":false,"is_disabled":false,"rental_uris":{"android":"levelo://app?vid=17ddbbb5-11e9-4dea-8d48-8df35a23e77a","ios":"levelo://app?vid=17ddbbb5-11e9-4dea-8d48-8df35a23e77a"},"vehicle_type_id":"4","last_reported":1740780504,"current_range_meters":6800,"station_id":"ce4bhqp2rcd13ifvqhng","pricing_plan_id":"cebpf4jnsgd1na2vs0mg"},{"bike_id":"1d423b7c-95b0-4f07-a5c0-fe88800182f7","system_id":"levelo_inurba_marseille","lat":43.33127,"lon":5.3845,"is_reserved":false,"is_disabled":false,"rental_uris":{"android":"levelo://app?vid=1d423b7c-95b0-4f07-a5c0-fe88800182f7","ios":"levelo://app?vid=1d423b7c-95b0-4f07-a5c0-fe88800182f7"},"vehicle_type_id":"4","last_reported":1740780504,"current_range_meters":6800,"station_id":"","pricing_plan_id":"cebpf4jnsgd1na2vs0mg"},{"bike_id":"dcff507d-3819-435b-8033-cab0f880c6a6","system_id":"levelo_inurba_marseille","lat":43.26503,"lon":5.395536,"is_reserved":false,"is_disabled":true,"rental_uris":{"android":"levelo://app?vid=dcff507d-3819-435b-8033-cab0f880c6a6","ios":"levelo://app?vid=dcff507d-3819-435b-8033-cab0f880c6a6"},"vehicle_type_id":"4","last_reported":1740780504,"current_range_meters":6800,"station_id":"ce4bhi12rcd13ifvqfq0","pricing_plan_id":"cebpf4jnsgd1na2vs0mg"},{"bike_id":"121f184f-90a0-4e66-9d33-06a22d0922f3","system_id":"levelo_inurba_marseille","lat":43.24149,"lon":5.36417,"is_reserved":false,"is_disabled":false,"rental_uris":{"android":"levelo://app?vid=121f184f-90a0-4e66-9d33-06a22d0922f3","ios":"levelo://app?vid=121f184f-90a0-4e66-9d33-06a22d0922f3"},"vehicle_type_id":"4","last_reported":1740780504,"current_range_meters":7200,"station_id":"cpo36qri1sfpv3e86is0","pricing_plan_id":"cebpf4jnsgd1na2vs0mg"},{"bike_id":"0da6e0a1-a80c-4bfa-9f42-9441a63191ed","system_id":"levelo_inurba_marseille","lat":43.24815,"lon":5.37462,"is_reserved":false,"is_disabled":false,"rental_uris":{"android":"levelo://app?vid=0da6e0a1-a80c-4bfa-9f42-9441a63191ed","ios":"levelo://app?vid=0da6e0a1-a80c-4bfa-9f42-9441a63191ed"},"vehicle_type_id":"4","last_reported":1740780504,"current_range_meters":7200,"station_id":"ce4bhgh2rcd13ifvqfb0","pricing_plan_id":"cebpf4jnsgd1na2vs0mg"},{"bike_id":"67ce8cfb-6f6b-425f-bc83-c1ca88627e6b","system_id":"levelo_inurba_marseille","lat":43.29266,"lon":5.37602,"is_reserved":false,"is_disabled":false,"rental_uris":{"android":"levelo://app?vid=67ce8cfb-6f6b-425f-bc83-c1ca88627e6b","ios":"levelo://app?vid=67ce8cfb-6f6b-425f-bc83-c1ca88627e6b"},"vehicle_type_id":"4","last_reported":1740780504,"current_range_meters":7200,"station_id":"ce4bgi12rcd13ifvqb80","pricing_plan_id":"cebpf4jnsgd1na2vs0mg"},{"bike_id":"c11d57f8-ea00-4859-a163-fca64e26cdc4","system_id":"levelo_inurba_marseille","lat":43.29272,"lon":5.38334,"is_reserved":false,"is_disabled":false,"rental_uris":{"android":"levelo://app?vid=c11d57f8-ea00-4859-a163-fca64e26cdc4","ios":"levelo://app?vid=c11d57f8-ea00-4859-a163-fca64e26cdc4"},"vehicle_type_id":"4","last_reported":1740780504,"current_range_meters":7200,"station_id":"","pricing_plan_id":"cebpf4jnsgd1na2vs0mg"},{"bike_id":"7f5e9b1b-0a90-4f2d-8633-f54f84995382","system_id":"levelo_inurba_marseille","lat":43.31366,"lon":5.384933,"is_reserved":false,"is_disabled":false,"rental_uris":{"android":"levelo://app?vid=7f5e9b1b-0a90-4f2d-8633-f54f84995382","ios":"levelo://app?vid=7f5e9b1b-0a90-4f2d-8633-f54f84995382"},"vehicle_type_id":"4","last_reported":1740780504,"current_range_meters":6800,"station_id":"ce4bgip2rcd13ifvqbb0","pricing_plan_id":"cebpf4jnsgd1na2vs0mg"},{"bike_id":"0e07936b-b5f4-4ce0-90ff-73c063994f1c","system_id":"levelo_inurba_marseille","lat":43.30483,"lon":5.37241,"is_reserved":false,"is_disabled":false,"rental_uris":{"android":"levelo://app?vid=0e07936b-b5f4-4ce0-90ff-73c063994f1c","ios":"levelo://app?vid=0e07936b-b5f4-4ce0-90ff-73c063994f1c"},"vehicle_type_id":"4","last_reported":1740780504,"current_range_meters":7200,"station_id":"","pricing_plan_id":"cebpf4jnsgd1na2vs0mg"},{"bike_id":"32028d2a-d834-4678-a648-cf11d05314f9","system_id":"levelo_inurba_marseille","lat":43.292391,"lon":5.39666,"is_reserved":false,"is_disabled":false,"rental_uris":{"android":"levelo://app?vid=32028d2a-d834-4678-a648-cf11d05314f9","ios":"levelo://app?vid=32028d2a-d834-4678-a648-cf11d05314f9"},"vehicle_type_id":"4","last_reported":1740780504,"current_range_meters":8000,"station_id":"ce4bhah2rcd13ifvqej0","pricing_plan_id":"cebpf4jnsgd1na2vs0mg"},{"bike_id":"ac7b203d-d8fa-4429-8571-7591c246f7d3","system_id":"levelo_inurba_marseille","lat":43.27815,"lon":5.40714,"is_reserved":false,"is_disabled":false,"rental_uris":{"android":"levelo://app?vid=ac7b203d-d8fa-4429-8571-7591c246f7d3","ios":"levelo://app?vid=ac7b203d-d8fa-4429-8571-7591c246f7d3"},"vehicle_type_id":"4","last_reported":1740780504,"current_range_meters":8000,"station_id":"ce4bhnh2rcd13ifvqgtg","pricing_plan_id":"cebpf4jnsgd1na2vs0mg"},{"bike_id":"aae8a025-6401-433a-a806-56a56b3f1ab1","system_id":"levelo_inurba_marseille","lat":43.28666,"lon":5.38669,"is_reserved":false,"is_disabled":false,"rental_uris":{"android":"levelo://app?vid=aae8a025-6401-433a-a806-56a56b3f1ab1","ios":"levelo://app?vid=aae8a025-6401-433a-a806-56a56b3f1ab1"},"vehicle_type_id":"4","last_reported":1740780504,"current_range_meters":8000,"station_id":"ce4bh492rcd13ifvqdug","pricing_plan_id":"cebpf4jnsgd1na2vs0mg"},{"bike_id":"9753fb54-7bac-4c39-b532-b7089220649f","system_id":"levelo_inurba_marseille","lat":43.31079,"lon":5.4243,"is_reserved":false,"is_disabled":false,"rental_uris":{"android":"levelo://app?vid=9753fb54-7bac-4c39-b532-b7089220649f","ios":"levelo://app?vid=9753fb54-7bac-4c39-b532-b7089220649f"},"vehicle_type_id":"4","last_reported":1740780504,"current_range_meters":8000,"station_id":"ce4bhp92rcd13ifvqhag","pricing_plan_id":"cebpf4jnsgd1na2vs0mg"},{"bike_id":"f26c35c1-6d74-4839-8620-0ecaba4ac374","system_id":"levelo_inurba_marseille","lat":43.25011,"lon":5.38952,"is_reserved":false,"is_disabled":false,"rental_uris":{"android":"levelo://app?vid=f26c35c1-6d74-4839-8620-0ecaba4ac374","ios":"levelo://app?vid=f26c35c1-6d74-4839-8620-0ecaba4ac374"},"vehicle_type_id":"4","last_reported":1740780504,"current_range_meters":8000,"station_id":"ce4bhgp2rcd13ifvqfd0","pricing_plan_id":"cebpf4jnsgd1na2vs0mg"},{"bike_id":"6cca77dd-0649-4eab-bb46-e9401cfc1881","system_id":"levelo_inurba_marseille","lat":43.30887,"lon":5.39646,"is_reserved":false,"is_disabled":false,"rental_uris":{"android":"levelo://app?vid=6cca77dd-0649-4eab-bb46-e9401cfc1881","ios":"levelo://app?vid=6cca77dd-0649-4eab-bb46-e9401cfc1881"},"vehicle_type_id":"4","last_reported":1740780504,"current_range_meters":8000,"station_id":"ce4bh012rcd13ifvqcv0","pricing_plan_id":"cebpf4jnsgd1na2vs0mg"},{"bike_id":"82ad904d-cc53-4d21-821c-1a8820c60367","system_id":"levelo_inurba_marseille","lat":43.30256,"lon":5.40042,"is_reserved":false,"is_disabled":false,"rental_uris":{"android":"levelo://app?vid=82ad904d-cc53-4d21-821c-1a8820c60367","ios":"levelo://app?vid=82ad904d-cc53-4d21-821c-1a8820c60367"},"vehicle_type_id":"4","last_reported":1740780504,"current_range_meters":8000,"station_id":"ce4bgvh2rcd13ifvqcs0","pricing_plan_id":"cebpf4jnsgd1na2vs0mg"},{"bike_id":"55aa0898-60b4-49d3-88a9-d00cf93d12cf","system_id":"levelo_inurba_marseille","lat":43.29277,"lon":5.36846,"is_reserved":false,"is_disabled":false,"rental_uris":{"android":"levelo://app?vid=55aa0898-60b4-49d3-88a9-d00cf93d12cf","ios":"levelo://app?vid=55aa0898-60b4-49d3-88a9-d00cf93d12cf"},"vehicle_type_id":"4","last_reported":1740780504,"current_range_meters":8000,"station_id":"ce4bhbp2rcd13ifvqesg","pricing_plan_id":"cebpf4jnsgd1na2vs0mg"},{"bike_id":"d890b2d3-98c0-4edc-8fcc-fbb93a438bbe","system_id":"levelo_inurba_marseille","lat":43.30928,"lon":5.40141,"is_reserved":false,"is_disabled":false,"rental_uris":{"android":"levelo://app?vid=d890b2d3-98c0-4edc-8fcc-fbb93a438bbe","ios":"levelo://app?vid=d890b2d3-98c0-4edc-8fcc-fbb93a438bbe"},"vehicle_type_id":"4","last_reported":1740780504,"current_range_meters":8000,"station_id":"ce4bgvp2rcd13ifvqct0","pricing_plan_id":"cebpf4jnsgd1na2vs0mg"},{"bike_id":"cdb49f82-26f4-4ee1-ba90-4d28297e46cc","system_id":"levelo_inurba_marseille","lat":43.29301,"lon":5.37178,"is_reserved":false,"is_disabled":false,"rental_uris":{"android":"levelo://app?vid=cdb49f82-26f4-4ee1-ba90-4d28297e46cc","ios":"levelo://app?vid=cdb49f82-26f4-4ee1-ba90-4d28297e46cc"},"vehicle_type_id":"4","last_reported":1740780504,"current_range_meters":8000,"station_id":"ce4bgh92rcd13ifvqb40","pricing_plan_id":"cebpf4jnsgd1na2vs0mg"},{"bike_id":"6ddecca1-f5f1-4828-a1fb-3fbadfaac16c","system_id":"levelo_inurba_marseille","lat":43.2868,"lon":5.38665,"is_reserved":false,"is_disabled":false,"rental_uris":{"android":"levelo://app?vid=6ddecca1-f5f1-4828-a1fb-3fbadfaac16c","ios":"levelo://app?vid=6ddecca1-f5f1-4828-a1fb-3fbadfaac16c"},"vehicle_type_id":"4","last_reported":1740780504,"current_range_meters":8400,"station_id":"ce4bh492rcd13ifvqdug","pricing_plan_id":"cebpf4jnsgd1na2vs0mg"},{"bike_id":"de15dbbd-ae35-44b8-be4b-6a5887186cf2","system_id":"levelo_inurba_marseille","lat":43.2918,"lon":5.3715,"is_reserved":false,"is_disabled":false,"rental_uris":{"android":"levelo://app?vid=de15dbbd-ae35-44b8-be4b-6a5887186cf2","ios":"levelo://app?vid=de15dbbd-ae35-44b8-be4b-6a5887186cf2"},"vehicle_type_id":"4","last_reported":1740780504,"current_range_meters":8400,"station_id":"ce4bha92rcd13ifvqeh0","pricing_plan_id":"cebpf4jnsgd1na2vs0mg"},{"bike_id":"3de9aeda-1f9a-4bbc-8b90-e02a49e56ca9","system_id":"levelo_inurba_marseille","lat":43.2319,"lon":5.35553,"is_reserved":false,"is_disabled":false,"rental_uris":{"android":"levelo://app?vid=3de9aeda-1f9a-4bbc-8b90-e02a49e56ca9","ios":"levelo://app?vid=3de9aeda-1f9a-4bbc-8b90-e02a49e56ca9"},"vehicle_type_id":"4","last_reported":1740780504,"current_range_meters":8400,"station_id":"ce4bhu92rcd13ifvqi70","pricing_plan_id":"cebpf4jnsgd1na2vs0mg"},{"bike_id":"ca140ed1-8e15-46fb-ab05-e9783e7a9a62","system_id":"levelo_inurba_marseille","lat":43.32314,"lon":5.4063,"is_reserved":false,"is_disabled":false,"rental_uris":{"android":"levelo://app?vid=ca140ed1-8e15-46fb-ab05-e9783e7a9a62","ios":"levelo://app?vid=ca140ed1-8e15-46fb-ab05-e9783e7a9a62"},"vehicle_type_id":"4","last_reported":1740780504,"current_range_meters":8400,"station_id":"ce4bhq92rcd13ifvqhjg","pricing_plan_id":"cebpf4jnsgd1na2vs0mg"},{"bike_id":"6eaaeceb-c4e2-4bd5-83b6-a795089c8d27","system_id":"levelo_inurba_marseille","lat":43.29519,"lon":5.39045,"is_reserved":false,"is_disabled":false,"rental_uris":{"android":"levelo://app?vid=6eaaeceb-c4e2-4bd5-83b6-a795089c8d27","ios":"levelo://app?vid=6eaaeceb-c4e2-4bd5-83b6-a795089c8d27"},"vehicle_type_id":"4","last_reported":1740780504,"current_range_meters":6800,"station_id":"ce4bh3p2rcd13ifvqdp0","pricing_plan_id":"cebpf4jnsgd1na2vs0mg"},{"bike_id":"6d66fc76-1515-4e1f-83bc-5db27ddc8a03","system_id":"levelo_inurba_marseille","lat":43.24808,"lon":5.37436,"is_reserved":false,"is_disabled":false,"rental_uris":{"android":"levelo://app?vid=6d66fc76-1515-4e1f-83bc-5db27ddc8a03","ios":"levelo://app?vid=6d66fc76-1515-4e1f-83bc-5db27ddc8a03"},"vehicle_type_id":"4","last_reported":1740780504,"current_range_meters":8800,"station_id":"ce4bhgh2rcd13ifvqfb0","pricing_plan_id":"cebpf4jnsgd1na2vs0mg"},{"bike_id":"5ddaee68-76e8-4bba-ab92-b6462db6b328","system_id":"levelo_inurba_marseille","lat":43.29523,"lon":5.39405,"is_reserved":false,"is_disabled":false,"rental_uris":{"android":"levelo://app?vid=5ddaee68-76e8-4bba-ab92-b6462db6b328","ios":"levelo://app?vid=5ddaee68-76e8-4bba-ab92-b6462db6b328"},"vehicle_type_id":"4","last_reported":1740780504,"current_range_meters":8400,"station_id":"ce4bh292rcd13ifvqdf0","pricing_plan_id":"cebpf4jnsgd1na2vs0mg"},{"bike_id":"6efb4250-e3c1-46c3-9109-1ea5b16d7c43","system_id":"levelo_inurba_marseille","lat":43.31122,"lon":5.37777,"is_reserved":false,"is_disabled":true,"rental_uris":{"android":"levelo://app?vid=6efb4250-e3c1-46c3-9109-1ea5b16d7c43","ios":"levelo://app?vid=6efb4250-e3c1-46c3-9109-1ea5b16d7c43"},"vehicle_type_id":"4","last_reported":1740780504,"current_range_meters":8800,"station_id":"ce4bgt92rcd13ifvqcg0","pricing_plan_id":"cebpf4jnsgd1na2vs0mg"},{"bike_id":"86fa9070-c842-4442-ac3f-c66446720b12","system_id":"levelo_inurba_marseille","lat":43.29306,"lon":5.37458,"is_reserved":false,"is_disabled":false,"rental_uris":{"android":"levelo://app?vid=86fa9070-c842-4442-ac3f-c66446720b12","ios":"levelo://app?vid=86fa9070-c842-4442-ac3f-c66446720b12"},"vehicle_type_id":"4","last_reported":1740780504,"current_range_meters":8800,"station_id":"ce4bgi12rcd13ifvqb70","pricing_plan_id":"cebpf4jnsgd1na2vs0mg"},{"bike_id":"d4918d6a-5525-4be8-b0c4-7af64b54343d","system_id":"levelo_inurba_marseille","lat":43.2416,"lon":5.36384,"is_reserved":false,"is_disabled":false,"rental_uris":{"android":"levelo://app?vid=d4918d6a-5525-4be8-b0c4-7af64b54343d","ios":"levelo://app?vid=d4918d6a-5525-4be8-b0c4-7af64b54343d"},"vehicle_type_id":"4","last_reported":1740780504,"current_range_meters":8800,"station_id":"cpo36qri1sfpv3e86is0","pricing_plan_id":"cebpf4jnsgd1na2vs0mg"},{"bike_id":"5a5f3df2-ad06-4940-98fe-1da2b93c590a","system_id":"levelo_inurba_marseille","lat":43.28434,"lon":5.38075,"is_reserved":false,"is_disabled":false,"rental_uris":{"android":"levelo://app?vid=5a5f3df2-ad06-4940-98fe-1da2b93c590a","ios":"levelo://app?vid=5a5f3df2-ad06-4940-98fe-1da2b93c590a"},"vehicle_type_id":"4","last_reported":1740780504,"current_range_meters":8400,"station_id":"ce4bh9p2rcd13ifvqec0","pricing_plan_id":"cebpf4jnsgd1na2vs0mg"},{"bike_id":"5327f625-0311-4e62-a895-ceadc4ce1f5f","system_id":"levelo_inurba_marseille","lat":43.2707,"lon":5.42284,"is_reserved":false,"is_disabled":false,"rental_uris":{"android":"levelo://app?vid=5327f625-0311-4e62-a895-ceadc4ce1f5f","ios":"levelo://app?vid=5327f625-0311-4e62-a895-ceadc4ce1f5f"},"vehicle_type_id":"4","last_reported":1740780504,"current_range_meters":8800,"station_id":"ce4bhk92rcd13ifvqgb0","pricing_plan_id":"cebpf4jnsgd1na2vs0mg"},{"bike_id":"620ba232-2d97-4cfe-bdaf-3a50962fd2de","system_id":"levelo_inurba_marseille","lat":43.27839,"lon":5.4073,"is_reserved":false,"is_disabled":false,"rental_uris":{"android":"levelo://app?vid=620ba232-2d97-4cfe-bdaf-3a50962fd2de","ios":"levelo://app?vid=620ba232-2d97-4cfe-bdaf-3a50962fd2de"},"vehicle_type_id":"4","last_reported":1740780504,"current_range_meters":8800,"station_id":"ce4bhnh2rcd13ifvqgtg","pricing_plan_id":"cebpf4jnsgd1na2vs0mg"},{"bike_id":"53b23b24-07e8-4870-8ab7-c63d39038125","system_id":"levelo_inurba_marseille","lat":43.29416,"lon":5.38615,"is_reserved":false,"is_disabled":true,"rental_uris":{"android":"levelo://app?vid=53b23b24-07e8-4870-8ab7-c63d39038125","ios":"levelo://app?vid=53b23b24-07e8-4870-8ab7-c63d39038125"},"vehicle_type_id":"4","last_reported":1740780504,"current_range_meters":8800,"station_id":"ce4bh2h2rcd13ifvqdh0","pricing_plan_id":"cebpf4jnsgd1na2vs0mg"},{"bike_id":"de34a7ff-9f0a-456e-b9c9-4a34d4547b34","system_id":"levelo_inurba_marseille","lat":43.2987,"lon":5.39736,"is_reserved":false,"is_disabled":false,"rental_uris":{"android":"levelo://app?vid=de34a7ff-9f0a-456e-b9c9-4a34d4547b34","ios":"levelo://app?vid=de34a7ff-9f0a-456e-b9c9-4a34d4547b34"},"vehicle_type_id":"4","last_reported":1740780504,"current_range_meters":8400,"station_id":"ce4bh0h2rcd13ifvqd50","pricing_plan_id":"cebpf4jnsgd1na2vs0mg"},{"bike_id":"35932287-6009-4332-9e63-5770beb0ca12","system_id":"levelo_inurba_marseille","lat":43.29306,"lon":5.37178,"is_reserved":false,"is_disabled":false,"rental_uris":{"android":"levelo://app?vid=35932287-6009-4332-9e63-5770beb0ca12","ios":"levelo://app?vid=35932287-6009-4332-9e63-5770beb0ca12"},"vehicle_type_id":"4","last_reported":1740780504,"current_range_meters":7200,"station_id":"ce4bgh92rcd13ifvqb40","pricing_plan_id":"cebpf4jnsgd1na2vs0mg"},{"bike_id":"c8d376b2-f91d-452d-9dee-969592deb41b","system_id":"levelo_inurba_marseille","lat":43.28703,"lon":5.39988,"is_reserved":false,"is_disabled":false,"rental_uris":{"android":"levelo://app?vid=c8d376b2-f91d-452d-9dee-969592deb41b","ios":"levelo://app?vid=c8d376b2-f91d-452d-9dee-969592deb41b"},"vehicle_type_id":"4","last_reported":1740780504,"current_range_meters":8800,"station_id":"ce4bho92rcd13ifvqh3g","pricing_plan_id":"cebpf4jnsgd1na2vs0mg"},{"bike_id":"52e8093d-b0dc-48ff-9580-c6968093eb43","system_id":"levelo_inurba_marseille","lat":43.290193,"lon":5.381318,"is_reserved":false,"is_disabled":false,"rental_uris":{"android":"levelo://app?vid=52e8093d-b0dc-48ff-9580-c6968093eb43","ios":"levelo://app?vid=52e8093d-b0dc-48ff-9580-c6968093eb43"},"vehicle_type_id":"4","last_reported":1740780504,"current_range_meters":9200,"station_id":"ce4bh2p2rcd13ifvqdi0","pricing_plan_id":"cebpf4jnsgd1na2vs0mg"},{"bike_id":"07218d0c-edee-4927-8301-a0b5a1c7809f","system_id":"levelo_inurba_marseille","lat":43.25568,"lon":5.38238,"is_reserved":false,"is_disabled":false,"rental_uris":{"android":"levelo://app?vid=07218d0c-edee-4927-8301-a0b5a1c7809f","ios":"levelo://app?vid=07218d0c-edee-4927-8301-a0b5a1c7809f"},"vehicle_type_id":"4","last_reported":1740780504,"current_range_meters":9200,"station_id":"ce4bhih2rcd13ifvqfs0","pricing_plan_id":"cebpf4jnsgd1na2vs0mg"},{"bike_id":"b374d9dc-b81c-42d7-b33f-038a885e17e6","system_id":"levelo_inurba_marseille","lat":43.31974,"lon":5.38739,"is_reserved":false,"is_disabled":false,"rental_uris":{"android":"levelo://app?vid=b374d9dc-b81c-42d7-b33f-038a885e17e6","ios":"levelo://app?vid=b374d9dc-b81c-42d7-b33f-038a885e17e6"},"vehicle_type_id":"4","last_reported":1740780504,"current_range_meters":9200,"station_id":"","pricing_plan_id":"cebpf4jnsgd1na2vs0mg"},{"bike_id":"63fa412d-c5ac-4871-8f86-1682a5c5b5d5","system_id":"levelo_inurba_marseille","lat":43.31422,"lon":5.37394,"is_reserved":false,"is_disabled":false,"rental_uris":{"android":"levelo://app?vid=63fa412d-c5ac-4871-8f86-1682a5c5b5d5","ios":"levelo://app?vid=63fa412d-c5ac-4871-8f86-1682a5c5b5d5"},"vehicle_type_id":"4","last_reported":1740780504,"current_range_meters":9200,"station_id":"","pricing_plan_id":"cebpf4jnsgd1na2vs0mg"},{"bike_id":"04637487-bba0-4fc3-b487-91b0966835a6","system_id":"levelo_inurba_marseille","lat":43.25004,"lon":5.38929,"is_reserved":false,"is_disabled":false,"rental_uris":{"android":"levelo://app?vid=04637487-bba0-4fc3-b487-91b0966835a6","ios":"levelo://app?vid=04637487-bba0-4fc3-b487-91b0966835a6"},"vehicle_type_id":"4","last_reported":1740780504,"current_range_meters":9200,"station_id":"ce4bhgp2rcd13ifvqfd0","pricing_plan_id":"cebpf4jnsgd1na2vs0mg"},{"bike_id":"6c75efed-2c0b-430a-91ac-9b6f4389b69f","system_id":"levelo_inurba_marseille","lat":43.279559,"lon":5.410519,"is_reserved":false,"is_disabled":false,"rental_uris":{"android":"levelo://app?vid=6c75efed-2c0b-430a-91ac-9b6f4389b69f","ios":"levelo://app?vid=6c75efed-2c0b-430a-91ac-9b6f4389b69f"},"vehicle_type_id":"4","last_reported":1740780504,"current_range_meters":9200,"station_id":"","pricing_plan_id":"cebpf4jnsgd1na2vs0mg"},{"bike_id":"d450afcf-676c-402c-8f2f-edc15cb61862","system_id":"levelo_inurba_marseille","lat":43.24805,"lon":5.3746,"is_reserved":false,"is_disabled":false,"rental_uris":{"android":"levelo://app?vid=d450afcf-676c-402c-8f2f-edc15cb61862","ios":"levelo://app?vid=d450afcf-676c-402c-8f2f-edc15cb61862"},"vehicle_type_id":"4","last_reported":1740780504,"current_range_meters":9200,"station_id":"ce4bhgh2rcd13ifvqfb0","pricing_plan_id":"cebpf4jnsgd1na2vs0mg"},{"bike_id":"94d93eb2-b5f5-4f0b-ae0e-88e26f1e4d83","system_id":"levelo_inurba_marseille","lat":43.27428,"lon":5.39412,"is_reserved":false,"is_disabled":false,"rental_uris":{"android":"levelo://app?vid=94d93eb2-b5f5-4f0b-ae0e-88e26f1e4d83","ios":"levelo://app?vid=94d93eb2-b5f5-4f0b-ae0e-88e26f1e4d83"},"vehicle_type_id":"4","last_reported":1740780504,"current_range_meters":9600,"station_id":"ce4bhdp2rcd13ifvqf20","pricing_plan_id":"cebpf4jnsgd1na2vs0mg"},{"bike_id":"abb4df5e-f3b6-49f0-9956-aa5abcc3ede9","system_id":"levelo_inurba_marseille","lat":43.23191,"lon":5.35577,"is_reserved":false,"is_disabled":false,"rental_uris":{"android":"levelo://app?vid=abb4df5e-f3b6-49f0-9956-aa5abcc3ede9","ios":"levelo://app?vid=abb4df5e-f3b6-49f0-9956-aa5abcc3ede9"},"vehicle_type_id":"4","last_reported":1740780504,"current_range_meters":9600,"station_id":"ce4bhu92rcd13ifvqi70","pricing_plan_id":"cebpf4jnsgd1na2vs0mg"},{"bike_id":"44a9b49b-687c-42ec-b31a-1a2a7b71f3f8","system_id":"levelo_inurba_marseille","lat":43.23182,"lon":5.39978,"is_reserved":false,"is_disabled":false,"rental_uris":{"android":"levelo://app?vid=44a9b49b-687c-42ec-b31a-1a2a7b71f3f8","ios":"levelo://app?vid=44a9b49b-687c-42ec-b31a-1a2a7b71f3f8"},"vehicle_type_id":"4","last_reported":1740780504,"current_range_meters":9600,"station_id":"ce4bhn12rcd13ifvqgqg","pricing_plan_id":"cebpf4jnsgd1na2vs0mg"},{"bike_id":"749fee80-dfaa-43de-aa58-d21bbf5e0792","system_id":"levelo_inurba_marseille","lat":43.23197,"lon":5.39979,"is_reserved":false,"is_disabled":false,"rental_uris":{"android":"levelo://app?vid=749fee80-dfaa-43de-aa58-d21bbf5e0792","ios":"levelo://app?vid=749fee80-dfaa-43de-aa58-d21bbf5e0792"},"vehicle_type_id":"4","last_reported":1740780504,"current_range_meters":9600,"station_id":"ce4bhn12rcd13ifvqgqg","pricing_plan_id":"cebpf4jnsgd1na2vs0mg"},{"bike_id":"009ddb8f-553a-4ea3-92b7-24b6f84cd586","system_id":"levelo_inurba_marseille","lat":43.29274,"lon":5.36844,"is_reserved":false,"is_disabled":false,"rental_uris":{"android":"levelo://app?vid=009ddb8f-553a-4ea3-92b7-24b6f84cd586","ios":"levelo://app?vid=009ddb8f-553a-4ea3-92b7-24b6f84cd586"},"vehicle_type_id":"4","last_reported":1740780504,"current_range_meters":9600,"station_id":"ce4bhbp2rcd13ifvqesg","pricing_plan_id":"cebpf4jnsgd1na2vs0mg"},{"bike_id":"d1c5c859-8e75-4522-b064-87fcbfcc29a3","system_id":"levelo_inurba_marseille","lat":43.30208,"lon":5.39464,"is_reserved":false,"is_disabled":false,"rental_uris":{"android":"levelo://app?vid=d1c5c859-8e75-4522-b064-87fcbfcc29a3","ios":"levelo://app?vid=d1c5c859-8e75-4522-b064-87fcbfcc29a3"},"vehicle_type_id":"4","last_reported":1740780504,"current_range_meters":9600,"station_id":"ce4bh0p2rcd13ifvqd70","pricing_plan_id":"cebpf4jnsgd1na2vs0mg"},{"bike_id":"4b7d95b1-35d3-47cc-a9b5-4ba973f3cafd","system_id":"levelo_inurba_marseille","lat":43.24807,"lon":5.37455,"is_reserved":false,"is_disabled":false,"rental_uris":{"android":"levelo://app?vid=4b7d95b1-35d3-47cc-a9b5-4ba973f3cafd","ios":"levelo://app?vid=4b7d95b1-35d3-47cc-a9b5-4ba973f3cafd"},"vehicle_type_id":"4","last_reported":1740780504,"current_range_meters":9600,"station_id":"ce4bhgh2rcd13ifvqfb0","pricing_plan_id":"cebpf4jnsgd1na2vs0mg"},{"bike_id":"c8f101ad-3299-4103-b362-e3fae3ea96b1","system_id":"levelo_inurba_marseille","lat":43.28077,"lon":5.39648,"is_reserved":false,"is_disabled":false,"rental_uris":{"android":"levelo://app?vid=c8f101ad-3299-4103-b362-e3fae3ea96b1","ios":"levelo://app?vid=c8f101ad-3299-4103-b362-e3fae3ea96b1"},"vehicle_type_id":"4","last_reported":1740780504,"current_range_meters":9600,"station_id":"ce4bho12rcd13ifvqh2g","pricing_plan_id":"cebpf4jnsgd1na2vs0mg"},{"bike_id":"193775c1-1f03-454d-ad1e-a837ad7369e6","system_id":"levelo_inurba_marseille","lat":43.31703,"lon":5.37769,"is_reserved":false,"is_disabled":false,"rental_uris":{"android":"levelo://app?vid=193775c1-1f03-454d-ad1e-a837ad7369e6","ios":"levelo://app?vid=193775c1-1f03-454d-ad1e-a837ad7369e6"},"vehicle_type_id":"4","last_reported":1740780504,"current_range_meters":8800,"station_id":"ce4bgth2rcd13ifvqch0","pricing_plan_id":"cebpf4jnsgd1na2vs0mg"},{"bike_id":"5058abfc-fb20-4754-8bb3-466da663ac91","system_id":"levelo_inurba_marseille","lat":43.29432,"lon":5.38616,"is_reserved":false,"is_disabled":false,"rental_uris":{"android":"levelo://app?vid=5058abfc-fb20-4754-8bb3-466da663ac91","ios":"levelo://app?vid=5058abfc-fb20-4754-8bb3-466da663ac91"},"vehicle_type_id":"4","last_reported":1740780504,"current_range_meters":9600,"station_id":"ce4bh2h2rcd13ifvqdh0","pricing_plan_id":"cebpf4jnsgd1na2vs0mg"},{"bike_id":"e8e574a6-d13a-4906-9b60-657faa08b971","system_id":"levelo_inurba_marseille","lat":43.26802,"lon":5.40268,"is_reserved":false,"is_disabled":true,"rental_uris":{"android":"levelo://app?vid=e8e574a6-d13a-4906-9b60-657faa08b971","ios":"levelo://app?vid=e8e574a6-d13a-4906-9b60-657faa08b971"},"vehicle_type_id":"4","last_reported":1740780504,"current_range_meters":9600,"station_id":"ce501612rcd8frsf0b60","pricing_plan_id":"cebpf4jnsgd1na2vs0mg"},{"bike_id":"87e93e74-8cd3-44d1-b4df-fd004e9d2d43","system_id":"levelo_inurba_marseille","lat":43.28088,"lon":5.37841,"is_reserved":false,"is_disabled":false,"rental_uris":{"android":"levelo://app?vid=87e93e74-8cd3-44d1-b4df-fd004e9d2d43","ios":"levelo://app?vid=87e93e74-8cd3-44d1-b4df-fd004e9d2d43"},"vehicle_type_id":"4","last_reported":1740780504,"current_range_meters":9600,"station_id":"ce4bha12rcd13ifvqee0","pricing_plan_id":"cebpf4jnsgd1na2vs0mg"},{"bike_id":"a17c7479-4cb9-4dac-bdfb-ea7d9b9e1277","system_id":"levelo_inurba_marseille","lat":43.29035,"lon":5.38649,"is_reserved":false,"is_disabled":false,"rental_uris":{"android":"levelo://app?vid=a17c7479-4cb9-4dac-bdfb-ea7d9b9e1277","ios":"levelo://app?vid=a17c7479-4cb9-4dac-bdfb-ea7d9b9e1277"},"vehicle_type_id":"4","last_reported":1740780504,"current_range_meters":9600,"station_id":"ce4bh4p2rcd13ifvqe0g","pricing_plan_id":"cebpf4jnsgd1na2vs0mg"},{"bike_id":"339fc872-d35e-45c4-8ec3-41f92e08a676","system_id":"levelo_inurba_marseille","lat":43.28409,"lon":5.37519,"is_reserved":false,"is_disabled":false,"rental_uris":{"android":"levelo://app?vid=339fc872-d35e-45c4-8ec3-41f92e08a676","ios":"levelo://app?vid=339fc872-d35e-45c4-8ec3-41f92e08a676"},"vehicle_type_id":"4","last_reported":1740780504,"current_range_meters":10000,"station_id":"ce4bh412rcd13ifvqds0","pricing_plan_id":"cebpf4jnsgd1na2vs0mg"},{"bike_id":"44b3831f-4abc-4bc0-a9ad-6692bc77ff3f","system_id":"levelo_inurba_marseille","lat":43.29267,"lon":5.38446,"is_reserved":false,"is_disabled":false,"rental_uris":{"android":"levelo://app?vid=44b3831f-4abc-4bc0-a9ad-6692bc77ff3f","ios":"levelo://app?vid=44b3831f-4abc-4bc0-a9ad-6692bc77ff3f"},"vehicle_type_id":"4","last_reported":1740780504,"current_range_meters":10000,"station_id":"ce4bh692rcd13ifvqea0","pricing_plan_id":"cebpf4jnsgd1na2vs0mg"},{"bike_id":"c776e964-75a1-4343-b453-0b5fc1f76818","system_id":"levelo_inurba_marseille","lat":43.3347,"lon":5.38189,"is_reserved":false,"is_disabled":false,"rental_uris":{"android":"levelo://app?vid=c776e964-75a1-4343-b453-0b5fc1f76818","ios":"levelo://app?vid=c776e964-75a1-4343-b453-0b5fc1f76818"},"vehicle_type_id":"4","last_reported":1740780504,"current_range_meters":10000,"station_id":"","pricing_plan_id":"cebpf4jnsgd1na2vs0mg"},{"bike_id":"43d6aa6f-20c7-4a1b-bcb8-31b660876567","system_id":"levelo_inurba_marseille","lat":43.26551,"lon":5.37288,"is_reserved":false,"is_disabled":false,"rental_uris":{"android":"levelo://app?vid=43d6aa6f-20c7-4a1b-bcb8-31b660876567","ios":"levelo://app?vid=43d6aa6f-20c7-4a1b-bcb8-31b660876567"},"vehicle_type_id":"4","last_reported":1740780504,"current_range_meters":10000,"station_id":"ce4bhg12rcd13ifvqf70","pricing_plan_id":"cebpf4jnsgd1na2vs0mg"},{"bike_id":"baa367b9-3363-41e6-bccf-29b77e3c2d11","system_id":"levelo_inurba_marseille","lat":43.292653,"lon":5.384385,"is_reserved":false,"is_disabled":false,"rental_uris":{"android":"levelo://app?vid=baa367b9-3363-41e6-bccf-29b77e3c2d11","ios":"levelo://app?vid=baa367b9-3363-41e6-bccf-29b77e3c2d11"},"vehicle_type_id":"4","last_reported":1740780504,"current_range_meters":7200,"station_id":"ce4bh092rcd13ifvqd30","pricing_plan_id":"cebpf4jnsgd1na2vs0mg"},{"bike_id":"3f0eec1b-0300-4572-98b0-f72417c4ad13","system_id":"levelo_inurba_marseille","lat":43.29417,"lon":5.38613,"is_reserved":false,"is_disabled":false,"rental_uris":{"android":"levelo://app?vid=3f0eec1b-0300-4572-98b0-f72417c4ad13","ios":"levelo://app?vid=3f0eec1b-0300-4572-98b0-f72417c4ad13"},"vehicle_type_id":"4","last_reported":1740780504,"current_range_meters":10000,"station_id":"ce4bh2h2rcd13ifvqdh0","pricing_plan_id":"cebpf4jnsgd1na2vs0mg"},{"bike_id":"26cc7840-ae0e-4bb3-b632-324d66a8f696","system_id":"levelo_inurba_marseille","lat":43.2915,"lon":5.47875,"is_reserved":false,"is_disabled":false,"rental_uris":{"android":"levelo://app?vid=26cc7840-ae0e-4bb3-b632-324d66a8f696","ios":"levelo://app?vid=26cc7840-ae0e-4bb3-b632-324d66a8f696"},"vehicle_type_id":"4","last_reported":1740780504,"current_range_meters":10000,"station_id":"","pricing_plan_id":"cebpf4jnsgd1na2vs0mg"},{"bike_id":"9134e7ce-2e73-449a-8f6e-5585fd856184","system_id":"levelo_inurba_marseille","lat":43.27815,"lon":5.40714,"is_reserved":false,"is_disabled":false,"rental_uris":{"android":"levelo://app?vid=9134e7ce-2e73-449a-8f6e-5585fd856184","ios":"levelo://app?vid=9134e7ce-2e73-449a-8f6e-5585fd856184"},"vehicle_type_id":"4","last_reported":1740780504,"current_range_meters":10000,"station_id":"ce4bhnh2rcd13ifvqgtg","pricing_plan_id":"cebpf4jnsgd1na2vs0mg"},{"bike_id":"7c7cfd37-ef03-4017-8a6f-03e7b17cd25f","system_id":"levelo_inurba_marseille","lat":43.29278,"lon":5.37437,"is_reserved":false,"is_disabled":false,"rental_uris":{"android":"levelo://app?vid=7c7cfd37-ef03-4017-8a6f-03e7b17cd25f","ios":"levelo://app?vid=7c7cfd37-ef03-4017-8a6f-03e7b17cd25f"},"vehicle_type_id":"4","last_reported":1740780504,"current_range_meters":10000,"station_id":"ce4bgi12rcd13ifvqb70","pricing_plan_id":"cebpf4jnsgd1na2vs0mg"},{"bike_id":"81042aa0-4a9c-4b63-88e4-4075564dedee","system_id":"levelo_inurba_marseille","lat":43.293,"lon":5.37181,"is_reserved":false,"is_disabled":false,"rental_uris":{"android":"levelo://app?vid=81042aa0-4a9c-4b63-88e4-4075564dedee","ios":"levelo://app?vid=81042aa0-4a9c-4b63-88e4-4075564dedee"},"vehicle_type_id":"4","last_reported":1740780504,"current_range_meters":10000,"station_id":"ce4bgh92rcd13ifvqb40","pricing_plan_id":"cebpf4jnsgd1na2vs0mg"},{"bike_id":"3f5e4c77-943b-4a46-b257-614bf13afec4","system_id":"levelo_inurba_marseille","lat":43.24167,"lon":5.36404,"is_reserved":false,"is_disabled":false,"rental_uris":{"android":"levelo://app?vid=3f5e4c77-943b-4a46-b257-614bf13afec4","ios":"levelo://app?vid=3f5e4c77-943b-4a46-b257-614bf13afec4"},"vehicle_type_id":"4","last_reported":1740780504,"current_range_meters":10000,"station_id":"cpo36qri1sfpv3e86is0","pricing_plan_id":"cebpf4jnsgd1na2vs0mg"},{"bike_id":"0b685400-e734-49c7-a371-e90b39ea60ca","system_id":"levelo_inurba_marseille","lat":43.29256,"lon":5.3843,"is_reserved":false,"is_disabled":false,"rental_uris":{"android":"levelo://app?vid=0b685400-e734-49c7-a371-e90b39ea60ca","ios":"levelo://app?vid=0b685400-e734-49c7-a371-e90b39ea60ca"},"vehicle_type_id":"4","last_reported":1740780504,"current_range_meters":10000,"station_id":"ce4bh692rcd13ifvqea0","pricing_plan_id":"cebpf4jnsgd1na2vs0mg"},{"bike_id":"d5468aad-116b-4925-85e0-f6f4ad78214e","system_id":"levelo_inurba_marseille","lat":43.29049,"lon":5.38661,"is_reserved":false,"is_disabled":false,"rental_uris":{"android":"levelo://app?vid=d5468aad-116b-4925-85e0-f6f4ad78214e","ios":"levelo://app?vid=d5468aad-116b-4925-85e0-f6f4ad78214e"},"vehicle_type_id":"4","last_reported":1740780504,"current_range_meters":10000,"station_id":"ce4bh4p2rcd13ifvqe0g","pricing_plan_id":"cebpf4jnsgd1na2vs0mg"},{"bike_id":"c35c9fdb-538e-4467-aab5-190b2b20f9f3","system_id":"levelo_inurba_marseille","lat":43.278227,"lon":5.4068,"is_reserved":false,"is_disabled":false,"rental_uris":{"android":"levelo://app?vid=c35c9fdb-538e-4467-aab5-190b2b20f9f3","ios":"levelo://app?vid=c35c9fdb-538e-4467-aab5-190b2b20f9f3"},"vehicle_type_id":"4","last_reported":1740780504,"current_range_meters":10000,"station_id":"ce4bhnh2rcd13ifvqgtg","pricing_plan_id":"cebpf4jnsgd1na2vs0mg"},{"bike_id":"be8abca2-cfa3-4369-a705-d043ef634ac4","system_id":"levelo_inurba_marseille","lat":43.28105,"lon":5.37833,"is_reserved":false,"is_disabled":false,"rental_uris":{"android":"levelo://app?vid=be8abca2-cfa3-4369-a705-d043ef634ac4","ios":"levelo://app?vid=be8abca2-cfa3-4369-a705-d043ef634ac4"},"vehicle_type_id":"4","last_reported":1740780504,"current_range_meters":5600,"station_id":"ce4bha12rcd13ifvqee0","pricing_plan_id":"cebpf4jnsgd1na2vs0mg"},{"bike_id":"9133aa9f-1fe1-4d82-86fe-901632455e42","system_id":"levelo_inurba_marseille","lat":43.31251,"lon":5.4016,"is_reserved":false,"is_disabled":false,"rental_uris":{"android":"levelo://app?vid=9133aa9f-1fe1-4d82-86fe-901632455e42","ios":"levelo://app?vid=9133aa9f-1fe1-4d82-86fe-901632455e42"},"vehicle_type_id":"4","last_reported":1740780504,"current_range_meters":10800,"station_id":"ce4bh092rcd13ifvqd30","pricing_plan_id":"cebpf4jnsgd1na2vs0mg"},{"bike_id":"06c55edf-900a-4461-8fe4-493c269a8875","system_id":"levelo_inurba_marseille","lat":43.27368,"lon":5.36258,"is_reserved":false,"is_disabled":false,"rental_uris":{"android":"levelo://app?vid=06c55edf-900a-4461-8fe4-493c269a8875","ios":"levelo://app?vid=06c55edf-900a-4461-8fe4-493c269a8875"},"vehicle_type_id":"4","last_reported":1740780504,"current_range_meters":10800,"station_id":"ce4bhbh2rcd13ifvqeo0","pricing_plan_id":"cebpf4jnsgd1na2vs0mg"},{"bike_id":"5133fc72-65ce-4545-887a-28c61a41db2c","system_id":"levelo_inurba_marseille","lat":43.28003,"lon":5.40018,"is_reserved":false,"is_disabled":false,"rental_uris":{"android":"levelo://app?vid=5133fc72-65ce-4545-887a-28c61a41db2c","ios":"levelo://app?vid=5133fc72-65ce-4545-887a-28c61a41db2c"},"vehicle_type_id":"4","last_reported":1740780504,"current_range_meters":10800,"station_id":"ce4bho92rcd13ifvqh4g","pricing_plan_id":"cebpf4jnsgd1na2vs0mg"},{"bike_id":"09693ed7-93e7-4f09-92bd-9135ac2e0637","system_id":"levelo_inurba_marseille","lat":43.2586,"lon":5.39899,"is_reserved":false,"is_disabled":false,"rental_uris":{"android":"levelo://app?vid=09693ed7-93e7-4f09-92bd-9135ac2e0637","ios":"levelo://app?vid=09693ed7-93e7-4f09-92bd-9135ac2e0637"},"vehicle_type_id":"4","last_reported":1740780504,"current_range_meters":10000,"station_id":"ce4bhl92rcd13ifvqghg","pricing_plan_id":"cebpf4jnsgd1na2vs0mg"},{"bike_id":"7288e277-6b94-40aa-b631-305fb1dd0599","system_id":"levelo_inurba_marseille","lat":43.3132,"lon":5.39733,"is_reserved":false,"is_disabled":false,"rental_uris":{"android":"levelo://app?vid=7288e277-6b94-40aa-b631-305fb1dd0599","ios":"levelo://app?vid=7288e277-6b94-40aa-b631-305fb1dd0599"},"vehicle_type_id":"4","last_reported":1740780504,"current_range_meters":10800,"station_id":"ce4bgvp2rcd13ifvqcu0","pricing_plan_id":"cebpf4jnsgd1na2vs0mg"},{"bike_id":"5a236465-44d5-40a7-9b67-37f08f961c45","system_id":"levelo_inurba_marseille","lat":43.30129,"lon":5.3989,"is_reserved":false,"is_disabled":false,"rental_uris":{"android":"levelo://app?vid=5a236465-44d5-40a7-9b67-37f08f961c45","ios":"levelo://app?vid=5a236465-44d5-40a7-9b67-37f08f961c45"},"vehicle_type_id":"4","last_reported":1740780504,"current_range_meters":11200,"station_id":"ce4bh0h2rcd13ifvqd40","pricing_plan_id":"cebpf4jnsgd1na2vs0mg"},{"bike_id":"ab245cfe-76c6-40c0-9fb9-a9eecf86e3f4","system_id":"levelo_inurba_marseille","lat":43.28938,"lon":5.36395,"is_reserved":false,"is_disabled":false,"rental_uris":{"android":"levelo://app?vid=ab245cfe-76c6-40c0-9fb9-a9eecf86e3f4","ios":"levelo://app?vid=ab245cfe-76c6-40c0-9fb9-a9eecf86e3f4"},"vehicle_type_id":"4","last_reported":1740780504,"current_range_meters":11200,"station_id":"ce4bhc92rcd13ifvqetg","pricing_plan_id":"cebpf4jnsgd1na2vs0mg"},{"bike_id":"44b7176d-d051-4674-8d09-e94dcd4bc6c9","system_id":"levelo_inurba_marseille","lat":43.30136,"lon":5.39893,"is_reserved":false,"is_disabled":false,"rental_uris":{"android":"levelo://app?vid=44b7176d-d051-4674-8d09-e94dcd4bc6c9","ios":"levelo://app?vid=44b7176d-d051-4674-8d09-e94dcd4bc6c9"},"vehicle_type_id":"4","last_reported":1740780504,"current_range_meters":11200,"station_id":"ce4bh0h2rcd13ifvqd40","pricing_plan_id":"cebpf4jnsgd1na2vs0mg"},{"bike_id":"bcf10ec7-0dc7-4b31-90db-9fddabad3e7a","system_id":"levelo_inurba_marseille","lat":43.30541,"lon":5.36699,"is_reserved":false,"is_disabled":true,"rental_uris":{"android":"levelo://app?vid=bcf10ec7-0dc7-4b31-90db-9fddabad3e7a","ios":"levelo://app?vid=bcf10ec7-0dc7-4b31-90db-9fddabad3e7a"},"vehicle_type_id":"4","last_reported":1740780504,"current_range_meters":11200,"station_id":"ce4bgrp2rcd13ifvqc9g","pricing_plan_id":"cebpf4jnsgd1na2vs0mg"},{"bike_id":"a18dc55b-d88b-4876-af38-a839b391f31e","system_id":"levelo_inurba_marseille","lat":43.30419,"lon":5.38099,"is_reserved":false,"is_disabled":false,"rental_uris":{"android":"levelo://app?vid=a18dc55b-d88b-4876-af38-a839b391f31e","ios":"levelo://app?vid=a18dc55b-d88b-4876-af38-a839b391f31e"},"vehicle_type_id":"4","last_reported":1740780504,"current_range_meters":11600,"station_id":"","pricing_plan_id":"cebpf4jnsgd1na2vs0mg"},{"bike_id":"5c3a88b1-7190-40be-a3bd-0e2b48551239","system_id":"levelo_inurba_marseille","lat":43.30244,"lon":5.40079,"is_reserved":false,"is_disabled":false,"rental_uris":{"android":"levelo://app?vid=5c3a88b1-7190-40be-a3bd-0e2b48551239","ios":"levelo://app?vid=5c3a88b1-7190-40be-a3bd-0e2b48551239"},"vehicle_type_id":"4","last_reported":1740780504,"current_range_meters":11600,"station_id":"ce4bgvh2rcd13ifvqcs0","pricing_plan_id":"cebpf4jnsgd1na2vs0mg"},{"bike_id":"ab6206c6-6f2d-42f0-83b1-182099fb858b","system_id":"levelo_inurba_marseille","lat":43.29533,"lon":5.38542,"is_reserved":false,"is_disabled":false,"rental_uris":{"android":"levelo://app?vid=ab6206c6-6f2d-42f0-83b1-182099fb858b","ios":"levelo://app?vid=ab6206c6-6f2d-42f0-83b1-182099fb858b"},"vehicle_type_id":"4","last_reported":1740780504,"current_range_meters":11600,"station_id":"ce4bgih2rcd13ifvqba0","pricing_plan_id":"cebpf4jnsgd1na2vs0mg"},{"bike_id":"1a44e2f3-b712-436a-9a7d-ebb760b6c14b","system_id":"levelo_inurba_marseille","lat":43.2941,"lon":5.38593,"is_reserved":false,"is_disabled":false,"rental_uris":{"android":"levelo://app?vid=1a44e2f3-b712-436a-9a7d-ebb760b6c14b","ios":"levelo://app?vid=1a44e2f3-b712-436a-9a7d-ebb760b6c14b"},"vehicle_type_id":"4","last_reported":1740780504,"current_range_meters":11600,"station_id":"ce4bh2h2rcd13ifvqdh0","pricing_plan_id":"cebpf4jnsgd1na2vs0mg"},{"bike_id":"a25a4bca-1a72-419f-af06-cf47c412ca14","system_id":"levelo_inurba_marseille","lat":43.308,"lon":5.43541,"is_reserved":false,"is_disabled":false,"rental_uris":{"android":"levelo://app?vid=a25a4bca-1a72-419f-af06-cf47c412ca14","ios":"levelo://app?vid=a25a4bca-1a72-419f-af06-cf47c412ca14"},"vehicle_type_id":"4","last_reported":1740780504,"current_range_meters":11600,"station_id":"ce4bhph2rcd13ifvqheg","pricing_plan_id":"cebpf4jnsgd1na2vs0mg"},{"bike_id":"843d36d5-df7c-471b-973f-9d08aaf2ed09","system_id":"levelo_inurba_marseille","lat":43.2953,"lon":5.3854,"is_reserved":false,"is_disabled":false,"rental_uris":{"android":"levelo://app?vid=843d36d5-df7c-471b-973f-9d08aaf2ed09","ios":"levelo://app?vid=843d36d5-df7c-471b-973f-9d08aaf2ed09"},"vehicle_type_id":"4","last_reported":1740780504,"current_range_meters":11600,"station_id":"ce4bgih2rcd13ifvqba0","pricing_plan_id":"cebpf4jnsgd1na2vs0mg"},{"bike_id":"569ce547-37a1-487f-a123-cf186f9f6063","system_id":"levelo_inurba_marseille","lat":43.29295,"lon":5.37469,"is_reserved":false,"is_disabled":false,"rental_uris":{"android":"levelo://app?vid=569ce547-37a1-487f-a123-cf186f9f6063","ios":"levelo://app?vid=569ce547-37a1-487f-a123-cf186f9f6063"},"vehicle_type_id":"4","last_reported":1740780504,"current_range_meters":11600,"station_id":"ce4bgi12rcd13ifvqb70","pricing_plan_id":"cebpf4jnsgd1na2vs0mg"},{"bike_id":"29a9a1f5-885c-45dd-b4ef-4401198b8963","system_id":"levelo_inurba_marseille","lat":43.28483,"lon":5.3843,"is_reserved":false,"is_disabled":false,"rental_uris":{"android":"levelo://app?vid=29a9a1f5-885c-45dd-b4ef-4401198b8963","ios":"levelo://app?vid=29a9a1f5-885c-45dd-b4ef-4401198b8963"},"vehicle_type_id":"4","last_reported":1740780504,"current_range_meters":11600,"station_id":"ce4bh512rcd13ifvqe3g","pricing_plan_id":"cebpf4jnsgd1na2vs0mg"},{"bike_id":"643ed7ef-6b82-4e0d-80cd-5157d4f1d0d4","system_id":"levelo_inurba_marseille","lat":43.29302,"lon":5.37449,"is_reserved":false,"is_disabled":false,"rental_uris":{"android":"levelo://app?vid=643ed7ef-6b82-4e0d-80cd-5157d4f1d0d4","ios":"levelo://app?vid=643ed7ef-6b82-4e0d-80cd-5157d4f1d0d4"},"vehicle_type_id":"4","last_reported":1740780504,"current_range_meters":11600,"station_id":"ce4bgi12rcd13ifvqb70","pricing_plan_id":"cebpf4jnsgd1na2vs0mg"},{"bike_id":"fb8fc1b8-e5ec-4f19-a40e-d29b11978222","system_id":"levelo_inurba_marseille","lat":43.30142,"lon":5.37416,"is_reserved":false,"is_disabled":false,"rental_uris":{"android":"levelo://app?vid=fb8fc1b8-e5ec-4f19-a40e-d29b11978222","ios":"levelo://app?vid=fb8fc1b8-e5ec-4f19-a40e-d29b11978222"},"vehicle_type_id":"4","last_reported":1740780504,"current_range_meters":11600,"station_id":"ce4bgs92rcd13ifvqcc0","pricing_plan_id":"cebpf4jnsgd1na2vs0mg"},{"bike_id":"ebe3d439-be3f-42d5-8eaf-167e5b2984f8","system_id":"levelo_inurba_marseille","lat":43.29287,"lon":5.37468,"is_reserved":false,"is_disabled":false,"rental_uris":{"android":"levelo://app?vid=ebe3d439-be3f-42d5-8eaf-167e5b2984f8","ios":"levelo://app?vid=ebe3d439-be3f-42d5-8eaf-167e5b2984f8"},"vehicle_type_id":"4","last_reported":1740780504,"current_range_meters":11600,"station_id":"ce4bgi12rcd13ifvqb70","pricing_plan_id":"cebpf4jnsgd1na2vs0mg"},{"bike_id":"593edb3c-7add-4a3d-9dbe-95cef549de0d","system_id":"levelo_inurba_marseille","lat":43.23061,"lon":5.35496,"is_reserved":false,"is_disabled":false,"rental_uris":{"android":"levelo://app?vid=593edb3c-7add-4a3d-9dbe-95cef549de0d","ios":"levelo://app?vid=593edb3c-7add-4a3d-9dbe-95cef549de0d"},"vehicle_type_id":"4","last_reported":1740780504,"current_range_meters":11600,"station_id":"cpo3342slgdg3j2ifvpg","pricing_plan_id":"cebpf4jnsgd1na2vs0mg"},{"bike_id":"da5a6c81-b1c1-4506-9b75-17f4f7a41004","system_id":"levelo_inurba_marseille","lat":43.292501,"lon":5.384269,"is_reserved":false,"is_disabled":false,"rental_uris":{"android":"levelo://app?vid=da5a6c81-b1c1-4506-9b75-17f4f7a41004","ios":"levelo://app?vid=da5a6c81-b1c1-4506-9b75-17f4f7a41004"},"vehicle_type_id":"4","last_reported":1740780504,"current_range_meters":12000,"station_id":"ce4bh692rcd13ifvqea0","pricing_plan_id":"cebpf4jnsgd1na2vs0mg"},{"bike_id":"a841825f-d30a-4442-aacf-c20d378ce259","system_id":"levelo_inurba_marseille","lat":43.27991,"lon":5.4002,"is_reserved":false,"is_disabled":false,"rental_uris":{"android":"levelo://app?vid=a841825f-d30a-4442-aacf-c20d378ce259","ios":"levelo://app?vid=a841825f-d30a-4442-aacf-c20d378ce259"},"vehicle_type_id":"4","last_reported":1740780504,"current_range_meters":12000,"station_id":"ce4bho92rcd13ifvqh4g","pricing_plan_id":"cebpf4jnsgd1na2vs0mg"},{"bike_id":"55131781-8313-40fb-9654-10198a457920","system_id":"levelo_inurba_marseille","lat":43.29291,"lon":5.37444,"is_reserved":false,"is_disabled":false,"rental_uris":{"android":"levelo://app?vid=55131781-8313-40fb-9654-10198a457920","ios":"levelo://app?vid=55131781-8313-40fb-9654-10198a457920"},"vehicle_type_id":"4","last_reported":1740780504,"current_range_meters":12000,"station_id":"ce4bgi12rcd13ifvqb70","pricing_plan_id":"cebpf4jnsgd1na2vs0mg"},{"bike_id":"364b209e-752e-45ea-b26c-06b2552c1833","system_id":"levelo_inurba_marseille","lat":43.2319,"lon":5.35561,"is_reserved":false,"is_disabled":false,"rental_uris":{"android":"levelo://app?vid=364b209e-752e-45ea-b26c-06b2552c1833","ios":"levelo://app?vid=364b209e-752e-45ea-b26c-06b2552c1833"},"vehicle_type_id":"4","last_reported":1740780504,"current_range_meters":12000,"station_id":"ce4bhu92rcd13ifvqi70","pricing_plan_id":"cebpf4jnsgd1na2vs0mg"},{"bike_id":"f5fe4361-1d3d-4314-a7e8-95ca49fcf6f9","system_id":"levelo_inurba_marseille","lat":43.32211,"lon":5.38764,"is_reserved":false,"is_disabled":false,"rental_uris":{"android":"levelo://app?vid=f5fe4361-1d3d-4314-a7e8-95ca49fcf6f9","ios":"levelo://app?vid=f5fe4361-1d3d-4314-a7e8-95ca49fcf6f9"},"vehicle_type_id":"4","last_reported":1740780504,"current_range_meters":12000,"station_id":"","pricing_plan_id":"cebpf4jnsgd1na2vs0mg"},{"bike_id":"8e89a4ec-707f-4b58-b75d-096b7eb5c7f4","system_id":"levelo_inurba_marseille","lat":43.2953,"lon":5.38544,"is_reserved":false,"is_disabled":false,"rental_uris":{"android":"levelo://app?vid=8e89a4ec-707f-4b58-b75d-096b7eb5c7f4","ios":"levelo://app?vid=8e89a4ec-707f-4b58-b75d-096b7eb5c7f4"},"vehicle_type_id":"4","last_reported":1740780504,"current_range_meters":12000,"station_id":"ce4bgih2rcd13ifvqba0","pricing_plan_id":"cebpf4jnsgd1na2vs0mg"},{"bike_id":"be10b658-6853-4344-941a-dc3e450af712","system_id":"levelo_inurba_marseille","lat":43.2508,"lon":5.39519,"is_reserved":false,"is_disabled":false,"rental_uris":{"android":"levelo://app?vid=be10b658-6853-4344-941a-dc3e450af712","ios":"levelo://app?vid=be10b658-6853-4344-941a-dc3e450af712"},"vehicle_type_id":"4","last_reported":1740780504,"current_range_meters":12000,"station_id":"ce4bhm12rcd13ifvqgkg","pricing_plan_id":"cebpf4jnsgd1na2vs0mg"},{"bike_id":"01a3d87a-a630-4d6f-ad97-42ff108b93f0","system_id":"levelo_inurba_marseille","lat":43.29259,"lon":5.38434,"is_reserved":false,"is_disabled":false,"rental_uris":{"android":"levelo://app?vid=01a3d87a-a630-4d6f-ad97-42ff108b93f0","ios":"levelo://app?vid=01a3d87a-a630-4d6f-ad97-42ff108b93f0"},"vehicle_type_id":"4","last_reported":1740780504,"current_range_meters":12000,"station_id":"ce4bh692rcd13ifvqea0","pricing_plan_id":"cebpf4jnsgd1na2vs0mg"},{"bike_id":"49e9cdc7-76a5-4b66-ae2d-61c73beb73a8","system_id":"levelo_inurba_marseille","lat":43.24163,"lon":5.36401,"is_reserved":false,"is_disabled":false,"rental_uris":{"android":"levelo://app?vid=49e9cdc7-76a5-4b66-ae2d-61c73beb73a8","ios":"levelo://app?vid=49e9cdc7-76a5-4b66-ae2d-61c73beb73a8"},"vehicle_type_id":"4","last_reported":1740780504,"current_range_meters":12000,"station_id":"cpo36qri1sfpv3e86is0","pricing_plan_id":"cebpf4jnsgd1na2vs0mg"},{"bike_id":"648b9054-36a1-435a-8f18-51964f3acedf","system_id":"levelo_inurba_marseille","lat":43.29174,"lon":5.37153,"is_reserved":false,"is_disabled":false,"rental_uris":{"android":"levelo://app?vid=648b9054-36a1-435a-8f18-51964f3acedf","ios":"levelo://app?vid=648b9054-36a1-435a-8f18-51964f3acedf"},"vehicle_type_id":"4","last_reported":1740780504,"current_range_meters":12000,"station_id":"ce4bha92rcd13ifvqeh0","pricing_plan_id":"cebpf4jnsgd1na2vs0mg"},{"bike_id":"b02f55ca-2177-47e1-bfdd-cec9b5d90ab4","system_id":"levelo_inurba_marseille","lat":43.29792,"lon":5.39343,"is_reserved":false,"is_disabled":false,"rental_uris":{"android":"levelo://app?vid=b02f55ca-2177-47e1-bfdd-cec9b5d90ab4","ios":"levelo://app?vid=b02f55ca-2177-47e1-bfdd-cec9b5d90ab4"},"vehicle_type_id":"4","last_reported":1740780504,"current_range_meters":12000,"station_id":"chh1huq6cuj3fo74tm60","pricing_plan_id":"cebpf4jnsgd1na2vs0mg"},{"bike_id":"38399708-f7fb-4235-b1e9-d8ae00b06dd3","system_id":"levelo_inurba_marseille","lat":43.29027,"lon":5.38647,"is_reserved":false,"is_disabled":false,"rental_uris":{"android":"levelo://app?vid=38399708-f7fb-4235-b1e9-d8ae00b06dd3","ios":"levelo://app?vid=38399708-f7fb-4235-b1e9-d8ae00b06dd3"},"vehicle_type_id":"4","last_reported":1740780504,"current_range_meters":12400,"station_id":"ce4bh4p2rcd13ifvqe0g","pricing_plan_id":"cebpf4jnsgd1na2vs0mg"},{"bike_id":"38e4208e-f256-4294-9ec9-809b58394803","system_id":"levelo_inurba_marseille","lat":43.31325,"lon":5.39696,"is_reserved":false,"is_disabled":false,"rental_uris":{"android":"levelo://app?vid=38e4208e-f256-4294-9ec9-809b58394803","ios":"levelo://app?vid=38e4208e-f256-4294-9ec9-809b58394803"},"vehicle_type_id":"4","last_reported":1740780504,"current_range_meters":12400,"station_id":"ce4bgvp2rcd13ifvqcu0","pricing_plan_id":"cebpf4jnsgd1na2vs0mg"},{"bike_id":"3f91fb5c-c554-4815-8570-380b0647ca1b","system_id":"levelo_inurba_marseille","lat":43.29273,"lon":5.38436,"is_reserved":false,"is_disabled":false,"rental_uris":{"android":"levelo://app?vid=3f91fb5c-c554-4815-8570-380b0647ca1b","ios":"levelo://app?vid=3f91fb5c-c554-4815-8570-380b0647ca1b"},"vehicle_type_id":"4","last_reported":1740780504,"current_range_meters":12400,"station_id":"ce4bh692rcd13ifvqea0","pricing_plan_id":"cebpf4jnsgd1na2vs0mg"},{"bike_id":"d56036d2-528e-4b8f-a11a-e065c3a57244","system_id":"levelo_inurba_marseille","lat":43.29417,"lon":5.38628,"is_reserved":false,"is_disabled":false,"rental_uris":{"android":"levelo://app?vid=d56036d2-528e-4b8f-a11a-e065c3a57244","ios":"levelo://app?vid=d56036d2-528e-4b8f-a11a-e065c3a57244"},"vehicle_type_id":"4","last_reported":1740780504,"current_range_meters":12400,"station_id":"ce4bh2h2rcd13ifvqdh0","pricing_plan_id":"cebpf4jnsgd1na2vs0mg"},{"bike_id":"52c28c39-66e5-4082-ae42-f81ea043c594","system_id":"levelo_inurba_marseille","lat":43.24803,"lon":5.37452,"is_reserved":false,"is_disabled":false,"rental_uris":{"android":"levelo://app?vid=52c28c39-66e5-4082-ae42-f81ea043c594","ios":"levelo://app?vid=52c28c39-66e5-4082-ae42-f81ea043c594"},"vehicle_type_id":"4","last_reported":1740780504,"current_range_meters":12400,"station_id":"ce4bhgh2rcd13ifvqfb0","pricing_plan_id":"cebpf4jnsgd1na2vs0mg"},{"bike_id":"97299784-6a66-4b2b-966f-f9f0a7fd068f","system_id":"levelo_inurba_marseille","lat":43.2903,"lon":5.38636,"is_reserved":false,"is_disabled":false,"rental_uris":{"android":"levelo://app?vid=97299784-6a66-4b2b-966f-f9f0a7fd068f","ios":"levelo://app?vid=97299784-6a66-4b2b-966f-f9f0a7fd068f"},"vehicle_type_id":"4","last_reported":1740780504,"current_range_meters":12400,"station_id":"ce4bh4p2rcd13ifvqe0g","pricing_plan_id":"cebpf4jnsgd1na2vs0mg"},{"bike_id":"2dabea1c-c2b8-4258-abdc-13e9e45e1bb1","system_id":"levelo_inurba_marseille","lat":43.27811,"lon":5.40703,"is_reserved":false,"is_disabled":false,"rental_uris":{"android":"levelo://app?vid=2dabea1c-c2b8-4258-abdc-13e9e45e1bb1","ios":"levelo://app?vid=2dabea1c-c2b8-4258-abdc-13e9e45e1bb1"},"vehicle_type_id":"4","last_reported":1740780504,"current_range_meters":12400,"station_id":"ce4bhnh2rcd13ifvqgtg","pricing_plan_id":"cebpf4jnsgd1na2vs0mg"},{"bike_id":"202a89fb-23cc-43f6-8a82-08d33c6311cb","system_id":"levelo_inurba_marseille","lat":43.29296,"lon":5.37459,"is_reserved":false,"is_disabled":false,"rental_uris":{"android":"levelo://app?vid=202a89fb-23cc-43f6-8a82-08d33c6311cb","ios":"levelo://app?vid=202a89fb-23cc-43f6-8a82-08d33c6311cb"},"vehicle_type_id":"4","last_reported":1740780504,"current_range_meters":12400,"station_id":"ce4bgi12rcd13ifvqb70","pricing_plan_id":"cebpf4jnsgd1na2vs0mg"},{"bike_id":"7effa7a6-9702-430c-b031-394b39ae0ca0","system_id":"levelo_inurba_marseille","lat":43.29531,"lon":5.38539,"is_reserved":false,"is_disabled":false,"rental_uris":{"android":"levelo://app?vid=7effa7a6-9702-430c-b031-394b39ae0ca0","ios":"levelo://app?vid=7effa7a6-9702-430c-b031-394b39ae0ca0"},"vehicle_type_id":"4","last_reported":1740780504,"current_range_meters":13600,"station_id":"ce4bgih2rcd13ifvqba0","pricing_plan_id":"cebpf4jnsgd1na2vs0mg"},{"bike_id":"8de5a5e6-b804-4146-93a8-276017f406c3","system_id":"levelo_inurba_marseille","lat":43.2931,"lon":5.3718,"is_reserved":false,"is_disabled":false,"rental_uris":{"android":"levelo://app?vid=8de5a5e6-b804-4146-93a8-276017f406c3","ios":"levelo://app?vid=8de5a5e6-b804-4146-93a8-276017f406c3"},"vehicle_type_id":"4","last_reported":1740780504,"current_range_meters":12800,"station_id":"ce4bgh92rcd13ifvqb40","pricing_plan_id":"cebpf4jnsgd1na2vs0mg"},{"bike_id":"a381a5b9-a403-4200-9ffe-4dd1764c25e1","system_id":"levelo_inurba_marseille","lat":43.29533,"lon":5.38542,"is_reserved":false,"is_disabled":false,"rental_uris":{"android":"levelo://app?vid=a381a5b9-a403-4200-9ffe-4dd1764c25e1","ios":"levelo://app?vid=a381a5b9-a403-4200-9ffe-4dd1764c25e1"},"vehicle_type_id":"4","last_reported":1740780504,"current_range_meters":12800,"station_id":"ce4bgih2rcd13ifvqba0","pricing_plan_id":"cebpf4jnsgd1na2vs0mg"},{"bike_id":"eeab2b0f-b74a-40c0-a740-ffe04bdfaf49","system_id":"levelo_inurba_marseille","lat":43.29537,"lon":5.38537,"is_reserved":false,"is_disabled":false,"rental_uris":{"android":"levelo://app?vid=eeab2b0f-b74a-40c0-a740-ffe04bdfaf49","ios":"levelo://app?vid=eeab2b0f-b74a-40c0-a740-ffe04bdfaf49"},"vehicle_type_id":"4","last_reported":1740780504,"current_range_meters":12800,"station_id":"ce4bgih2rcd13ifvqba0","pricing_plan_id":"cebpf4jnsgd1na2vs0mg"},{"bike_id":"8856ea6a-9d67-418d-b686-5b1bf6f3abd4","system_id":"levelo_inurba_marseille","lat":43.27994,"lon":5.41648,"is_reserved":false,"is_disabled":false,"rental_uris":{"android":"levelo://app?vid=8856ea6a-9d67-418d-b686-5b1bf6f3abd4","ios":"levelo://app?vid=8856ea6a-9d67-418d-b686-5b1bf6f3abd4"},"vehicle_type_id":"4","last_reported":1740780504,"current_range_meters":12800,"station_id":"ce4bho12rcd13ifvqh1g","pricing_plan_id":"cebpf4jnsgd1na2vs0mg"},{"bike_id":"597c78d8-1097-48db-b3be-fafc8754eab9","system_id":"levelo_inurba_marseille","lat":43.24165,"lon":5.36399,"is_reserved":false,"is_disabled":false,"rental_uris":{"android":"levelo://app?vid=597c78d8-1097-48db-b3be-fafc8754eab9","ios":"levelo://app?vid=597c78d8-1097-48db-b3be-fafc8754eab9"},"vehicle_type_id":"4","last_reported":1740780504,"current_range_meters":12800,"station_id":"cpo36qri1sfpv3e86is0","pricing_plan_id":"cebpf4jnsgd1na2vs0mg"},{"bike_id":"ab83c181-a0ca-45fb-ab7c-ddbef920cbdb","system_id":"levelo_inurba_marseille","lat":43.24807,"lon":5.37458,"is_reserved":false,"is_disabled":false,"rental_uris":{"android":"levelo://app?vid=ab83c181-a0ca-45fb-ab7c-ddbef920cbdb","ios":"levelo://app?vid=ab83c181-a0ca-45fb-ab7c-ddbef920cbdb"},"vehicle_type_id":"4","last_reported":1740780504,"current_range_meters":13600,"station_id":"ce4bhgh2rcd13ifvqfb0","pricing_plan_id":"cebpf4jnsgd1na2vs0mg"},{"bike_id":"152d5173-ed9c-4346-9b22-eb5f34e49026","system_id":"levelo_inurba_marseille","lat":43.27995,"lon":5.40009,"is_reserved":false,"is_disabled":false,"rental_uris":{"android":"levelo://app?vid=152d5173-ed9c-4346-9b22-eb5f34e49026","ios":"levelo://app?vid=152d5173-ed9c-4346-9b22-eb5f34e49026"},"vehicle_type_id":"4","last_reported":1740780504,"current_range_meters":13600,"station_id":"ce4bho92rcd13ifvqh4g","pricing_plan_id":"cebpf4jnsgd1na2vs0mg"},{"bike_id":"c2e38ea5-8bac-4349-bbb8-7bf515f2b922","system_id":"levelo_inurba_marseille","lat":43.29036,"lon":5.38658,"is_reserved":false,"is_disabled":false,"rental_uris":{"android":"levelo://app?vid=c2e38ea5-8bac-4349-bbb8-7bf515f2b922","ios":"levelo://app?vid=c2e38ea5-8bac-4349-bbb8-7bf515f2b922"},"vehicle_type_id":"4","last_reported":1740780504,"current_range_meters":13600,"station_id":"ce4bh4p2rcd13ifvqe0g","pricing_plan_id":"cebpf4jnsgd1na2vs0mg"},{"bike_id":"db5cedd8-2a5e-4954-9155-1cd4948b2414","system_id":"levelo_inurba_marseille","lat":43.29618,"lon":5.38109,"is_reserved":false,"is_disabled":false,"rental_uris":{"android":"levelo://app?vid=db5cedd8-2a5e-4954-9155-1cd4948b2414","ios":"levelo://app?vid=db5cedd8-2a5e-4954-9155-1cd4948b2414"},"vehicle_type_id":"4","last_reported":1740780504,"current_range_meters":13600,"station_id":"ce4bgl12rcd13ifvqbo0","pricing_plan_id":"cebpf4jnsgd1na2vs0mg"},{"bike_id":"138bb740-c3d4-4b89-ae94-730af0783010","system_id":"levelo_inurba_marseille","lat":43.31759,"lon":5.39014,"is_reserved":false,"is_disabled":false,"rental_uris":{"android":"levelo://app?vid=138bb740-c3d4-4b89-ae94-730af0783010","ios":"levelo://app?vid=138bb740-c3d4-4b89-ae94-730af0783010"},"vehicle_type_id":"4","last_reported":1740780504,"current_range_meters":10800,"station_id":"ce4bhqp2rcd13ifvqhng","pricing_plan_id":"cebpf4jnsgd1na2vs0mg"},{"bike_id":"7f31d5c5-015f-49d7-a6b1-4c49239bd39f","system_id":"levelo_inurba_marseille","lat":43.30877,"lon":5.39656,"is_reserved":false,"is_disabled":false,"rental_uris":{"android":"levelo://app?vid=7f31d5c5-015f-49d7-a6b1-4c49239bd39f","ios":"levelo://app?vid=7f31d5c5-015f-49d7-a6b1-4c49239bd39f"},"vehicle_type_id":"4","last_reported":1740780504,"current_range_meters":13600,"station_id":"ce4bh012rcd13ifvqcv0","pricing_plan_id":"cebpf4jnsgd1na2vs0mg"},{"bike_id":"74bdaba9-ddf5-4116-ac2f-aa7e97c64476","system_id":"levelo_inurba_marseille","lat":43.25013,"lon":5.38928,"is_reserved":false,"is_disabled":false,"rental_uris":{"android":"levelo://app?vid=74bdaba9-ddf5-4116-ac2f-aa7e97c64476","ios":"levelo://app?vid=74bdaba9-ddf5-4116-ac2f-aa7e97c64476"},"vehicle_type_id":"4","last_reported":1740780504,"current_range_meters":14000,"station_id":"ce4bhgp2rcd13ifvqfd0","pricing_plan_id":"cebpf4jnsgd1na2vs0mg"},{"bike_id":"3ae43e61-e460-4942-a7d7-9a08b7b0118e","system_id":"levelo_inurba_marseille","lat":43.24807,"lon":5.37465,"is_reserved":false,"is_disabled":false,"rental_uris":{"android":"levelo://app?vid=3ae43e61-e460-4942-a7d7-9a08b7b0118e","ios":"levelo://app?vid=3ae43e61-e460-4942-a7d7-9a08b7b0118e"},"vehicle_type_id":"4","last_reported":1740780504,"current_range_meters":14000,"station_id":"ce4bhgh2rcd13ifvqfb0","pricing_plan_id":"cebpf4jnsgd1na2vs0mg"},{"bike_id":"7d7c3645-a1b8-4cba-8ed4-36c4931e6932","system_id":"levelo_inurba_marseille","lat":43.25575,"lon":5.38237,"is_reserved":false,"is_disabled":false,"rental_uris":{"android":"levelo://app?vid=7d7c3645-a1b8-4cba-8ed4-36c4931e6932","ios":"levelo://app?vid=7d7c3645-a1b8-4cba-8ed4-36c4931e6932"},"vehicle_type_id":"4","last_reported":1740780504,"current_range_meters":14000,"station_id":"ce4bhih2rcd13ifvqfs0","pricing_plan_id":"cebpf4jnsgd1na2vs0mg"},{"bike_id":"2fd990b0-8119-447c-9a6f-c1a42a96a5b0","system_id":"levelo_inurba_marseille","lat":43.2893,"lon":5.36639,"is_reserved":false,"is_disabled":false,"rental_uris":{"android":"levelo://app?vid=2fd990b0-8119-447c-9a6f-c1a42a96a5b0","ios":"levelo://app?vid=2fd990b0-8119-447c-9a6f-c1a42a96a5b0"},"vehicle_type_id":"4","last_reported":1740780504,"current_range_meters":14000,"station_id":"ce4bhap2rcd13ifvqek0","pricing_plan_id":"cebpf4jnsgd1na2vs0mg"},{"bike_id":"6bec048c-34db-4c52-b4e8-0c34f144a6d2","system_id":"levelo_inurba_marseille","lat":43.27317,"lon":5.39079,"is_reserved":false,"is_disabled":false,"rental_uris":{"android":"levelo://app?vid=6bec048c-34db-4c52-b4e8-0c34f144a6d2","ios":"levelo://app?vid=6bec048c-34db-4c52-b4e8-0c34f144a6d2"},"vehicle_type_id":"4","last_reported":1740780504,"current_range_meters":14800,"station_id":"ce4bhgp2rcd13ifvqfe0","pricing_plan_id":"cebpf4jnsgd1na2vs0mg"},{"bike_id":"64c84504-13b7-4b13-8d0a-fa4922b76c0a","system_id":"levelo_inurba_marseille","lat":43.28562,"lon":5.39499,"is_reserved":false,"is_disabled":false,"rental_uris":{"android":"levelo://app?vid=64c84504-13b7-4b13-8d0a-fa4922b76c0a","ios":"levelo://app?vid=64c84504-13b7-4b13-8d0a-fa4922b76c0a"},"vehicle_type_id":"4","last_reported":1740780504,"current_range_meters":14000,"station_id":"ce4bh292rcd13ifvqdg0","pricing_plan_id":"cebpf4jnsgd1na2vs0mg"},{"bike_id":"8c86cb21-5e53-44c8-a766-70640a93721c","system_id":"levelo_inurba_marseille","lat":43.29153,"lon":5.3756,"is_reserved":false,"is_disabled":false,"rental_uris":{"android":"levelo://app?vid=8c86cb21-5e53-44c8-a766-70640a93721c","ios":"levelo://app?vid=8c86cb21-5e53-44c8-a766-70640a93721c"},"vehicle_type_id":"4","last_reported":1740780504,"current_range_meters":14400,"station_id":"","pricing_plan_id":"cebpf4jnsgd1na2vs0mg"},{"bike_id":"0395e071-5a2b-415c-b481-2f18c2ea3427","system_id":"levelo_inurba_marseille","lat":43.24802,"lon":5.37437,"is_reserved":false,"is_disabled":false,"rental_uris":{"android":"levelo://app?vid=0395e071-5a2b-415c-b481-2f18c2ea3427","ios":"levelo://app?vid=0395e071-5a2b-415c-b481-2f18c2ea3427"},"vehicle_type_id":"4","last_reported":1740780504,"current_range_meters":14400,"station_id":"ce4bhgh2rcd13ifvqfb0","pricing_plan_id":"cebpf4jnsgd1na2vs0mg"},{"bike_id":"ec322bb1-89fe-4287-a5af-b8a16745ae9e","system_id":"levelo_inurba_marseille","lat":43.29028,"lon":5.38646,"is_reserved":false,"is_disabled":false,"rental_uris":{"android":"levelo://app?vid=ec322bb1-89fe-4287-a5af-b8a16745ae9e","ios":"levelo://app?vid=ec322bb1-89fe-4287-a5af-b8a16745ae9e"},"vehicle_type_id":"4","last_reported":1740780504,"current_range_meters":14400,"station_id":"ce4bh4p2rcd13ifvqe0g","pricing_plan_id":"cebpf4jnsgd1na2vs0mg"},{"bike_id":"b7628d05-4c9b-4a74-bf31-ef4329b328ec","system_id":"levelo_inurba_marseille","lat":43.30944,"lon":5.39043,"is_reserved":false,"is_disabled":false,"rental_uris":{"android":"levelo://app?vid=b7628d05-4c9b-4a74-bf31-ef4329b328ec","ios":"levelo://app?vid=b7628d05-4c9b-4a74-bf31-ef4329b328ec"},"vehicle_type_id":"4","last_reported":1740780504,"current_range_meters":14000,"station_id":"ce4bgup2rcd13ifvqco0","pricing_plan_id":"cebpf4jnsgd1na2vs0mg"},{"bike_id":"c4b63aad-d032-4386-8f73-8ac078397d6b","system_id":"levelo_inurba_marseille","lat":43.2737,"lon":5.36264,"is_reserved":false,"is_disabled":false,"rental_uris":{"android":"levelo://app?vid=c4b63aad-d032-4386-8f73-8ac078397d6b","ios":"levelo://app?vid=c4b63aad-d032-4386-8f73-8ac078397d6b"},"vehicle_type_id":"4","last_reported":1740780504,"current_range_meters":14400,"station_id":"ce4bhbh2rcd13ifvqeo0","pricing_plan_id":"cebpf4jnsgd1na2vs0mg"},{"bike_id":"27f8d61f-de01-4772-8b8c-ceceaf4de61e","system_id":"levelo_inurba_marseille","lat":43.29015,"lon":5.37138,"is_reserved":false,"is_disabled":true,"rental_uris":{"android":"levelo://app?vid=27f8d61f-de01-4772-8b8c-ceceaf4de61e","ios":"levelo://app?vid=27f8d61f-de01-4772-8b8c-ceceaf4de61e"},"vehicle_type_id":"4","last_reported":1740780504,"current_range_meters":14400,"station_id":"ce4bh5p2rcd13ifvqe4g","pricing_plan_id":"cebpf4jnsgd1na2vs0mg"},{"bike_id":"128c5a26-431a-4824-8fcd-ffb2e269f063","system_id":"levelo_inurba_marseille","lat":43.29421,"lon":5.38631,"is_reserved":false,"is_disabled":false,"rental_uris":{"android":"levelo://app?vid=128c5a26-431a-4824-8fcd-ffb2e269f063","ios":"levelo://app?vid=128c5a26-431a-4824-8fcd-ffb2e269f063"},"vehicle_type_id":"4","last_reported":1740780504,"current_range_meters":14800,"station_id":"ce4bh2h2rcd13ifvqdh0","pricing_plan_id":"cebpf4jnsgd1na2vs0mg"},{"bike_id":"b24d9915-b204-4967-9edb-c0efe2028efc","system_id":"levelo_inurba_marseille","lat":43.29528,"lon":5.38537,"is_reserved":false,"is_disabled":false,"rental_uris":{"android":"levelo://app?vid=b24d9915-b204-4967-9edb-c0efe2028efc","ios":"levelo://app?vid=b24d9915-b204-4967-9edb-c0efe2028efc"},"vehicle_type_id":"4","last_reported":1740780504,"current_range_meters":14800,"station_id":"ce4bgih2rcd13ifvqba0","pricing_plan_id":"cebpf4jnsgd1na2vs0mg"},{"bike_id":"d013a78a-b275-4446-b2e7-8bba7dd432cb","system_id":"levelo_inurba_marseille","lat":43.2927,"lon":5.3843,"is_reserved":false,"is_disabled":false,"rental_uris":{"android":"levelo://app?vid=d013a78a-b275-4446-b2e7-8bba7dd432cb","ios":"levelo://app?vid=d013a78a-b275-4446-b2e7-8bba7dd432cb"},"vehicle_type_id":"4","last_reported":1740780504,"current_range_meters":14800,"station_id":"ce4bh692rcd13ifvqea0","pricing_plan_id":"cebpf4jnsgd1na2vs0mg"},{"bike_id":"88380df9-96d8-4259-9015-42f88b5705d1","system_id":"levelo_inurba_marseille","lat":43.29021,"lon":5.3865,"is_reserved":false,"is_disabled":false,"rental_uris":{"android":"levelo://app?vid=88380df9-96d8-4259-9015-42f88b5705d1","ios":"levelo://app?vid=88380df9-96d8-4259-9015-42f88b5705d1"},"vehicle_type_id":"4","last_reported":1740780504,"current_range_meters":14800,"station_id":"ce4bh4p2rcd13ifvqe0g","pricing_plan_id":"cebpf4jnsgd1na2vs0mg"},{"bike_id":"52586366-f39b-403f-b467-c8239f9cc964","system_id":"levelo_inurba_marseille","lat":43.30907,"lon":5.39081,"is_reserved":false,"is_disabled":false,"rental_uris":{"android":"levelo://app?vid=52586366-f39b-403f-b467-c8239f9cc964","ios":"levelo://app?vid=52586366-f39b-403f-b467-c8239f9cc964"},"vehicle_type_id":"4","last_reported":1740780504,"current_range_meters":14800,"station_id":"ce4bgup2rcd13ifvqco0","pricing_plan_id":"cebpf4jnsgd1na2vs0mg"},{"bike_id":"69bd9737-2cf3-4064-935f-ce2bb9dba5c4","system_id":"levelo_inurba_marseille","lat":43.28458,"lon":5.3589,"is_reserved":false,"is_disabled":false,"rental_uris":{"android":"levelo://app?vid=69bd9737-2cf3-4064-935f-ce2bb9dba5c4","ios":"levelo://app?vid=69bd9737-2cf3-4064-935f-ce2bb9dba5c4"},"vehicle_type_id":"4","last_reported":1740780504,"current_range_meters":14800,"station_id":"ce4bhah2rcd13ifvqei0","pricing_plan_id":"cebpf4jnsgd1na2vs0mg"},{"bike_id":"d6eec10b-620b-4607-843d-346ffd62a6e7","system_id":"levelo_inurba_marseille","lat":43.26487,"lon":5.39556,"is_reserved":false,"is_disabled":false,"rental_uris":{"android":"levelo://app?vid=d6eec10b-620b-4607-843d-346ffd62a6e7","ios":"levelo://app?vid=d6eec10b-620b-4607-843d-346ffd62a6e7"},"vehicle_type_id":"4","last_reported":1740780504,"current_range_meters":14800,"station_id":"ce4bhi12rcd13ifvqfq0","pricing_plan_id":"cebpf4jnsgd1na2vs0mg"},{"bike_id":"6c7883c2-775d-4e23-81ec-3546ebab04a4","system_id":"levelo_inurba_marseille","lat":43.29264,"lon":5.38432,"is_reserved":false,"is_disabled":false,"rental_uris":{"android":"levelo://app?vid=6c7883c2-775d-4e23-81ec-3546ebab04a4","ios":"levelo://app?vid=6c7883c2-775d-4e23-81ec-3546ebab04a4"},"vehicle_type_id":"4","last_reported":1740780504,"current_range_meters":15200,"station_id":"ce4bh692rcd13ifvqea0","pricing_plan_id":"cebpf4jnsgd1na2vs0mg"},{"bike_id":"aa798091-502e-408b-af0e-bd5daef62d68","system_id":"levelo_inurba_marseille","lat":43.2932,"lon":5.37186,"is_reserved":false,"is_disabled":false,"rental_uris":{"android":"levelo://app?vid=aa798091-502e-408b-af0e-bd5daef62d68","ios":"levelo://app?vid=aa798091-502e-408b-af0e-bd5daef62d68"},"vehicle_type_id":"4","last_reported":1740780504,"current_range_meters":15200,"station_id":"ce4bgh92rcd13ifvqb40","pricing_plan_id":"cebpf4jnsgd1na2vs0mg"},{"bike_id":"15bc69b9-ca74-48a9-8a8c-8c6ea9d87863","system_id":"levelo_inurba_marseille","lat":43.29533,"lon":5.38546,"is_reserved":false,"is_disabled":false,"rental_uris":{"android":"levelo://app?vid=15bc69b9-ca74-48a9-8a8c-8c6ea9d87863","ios":"levelo://app?vid=15bc69b9-ca74-48a9-8a8c-8c6ea9d87863"},"vehicle_type_id":"4","last_reported":1740780504,"current_range_meters":15200,"station_id":"ce4bgih2rcd13ifvqba0","pricing_plan_id":"cebpf4jnsgd1na2vs0mg"},{"bike_id":"a43d23d2-0d6e-4cf7-8691-8ab079a8ff69","system_id":"levelo_inurba_marseille","lat":43.29908,"lon":5.43653,"is_reserved":false,"is_disabled":false,"rental_uris":{"android":"levelo://app?vid=a43d23d2-0d6e-4cf7-8691-8ab079a8ff69","ios":"levelo://app?vid=a43d23d2-0d6e-4cf7-8691-8ab079a8ff69"},"vehicle_type_id":"4","last_reported":1740780504,"current_range_meters":15200,"station_id":"ce4bhpp2rcd13ifvqhfg","pricing_plan_id":"cebpf4jnsgd1na2vs0mg"},{"bike_id":"4015c440-7267-44b4-8be2-f4b87cb51aa9","system_id":"levelo_inurba_marseille","lat":43.25576,"lon":5.38244,"is_reserved":false,"is_disabled":false,"rental_uris":{"android":"levelo://app?vid=4015c440-7267-44b4-8be2-f4b87cb51aa9","ios":"levelo://app?vid=4015c440-7267-44b4-8be2-f4b87cb51aa9"},"vehicle_type_id":"4","last_reported":1740780504,"current_range_meters":15200,"station_id":"ce4bhih2rcd13ifvqfs0","pricing_plan_id":"cebpf4jnsgd1na2vs0mg"},{"bike_id":"dfdb22c1-a8f5-4ade-a971-c2afa8c5770c","system_id":"levelo_inurba_marseille","lat":43.29006,"lon":5.35609,"is_reserved":false,"is_disabled":false,"rental_uris":{"android":"levelo://app?vid=dfdb22c1-a8f5-4ade-a971-c2afa8c5770c","ios":"levelo://app?vid=dfdb22c1-a8f5-4ade-a971-c2afa8c5770c"},"vehicle_type_id":"4","last_reported":1740780504,"current_range_meters":15200,"station_id":"ce4bhb92rcd13ifvqen0","pricing_plan_id":"cebpf4jnsgd1na2vs0mg"},{"bike_id":"20d2ee05-766c-42f5-ad36-8379672e425d","system_id":"levelo_inurba_marseille","lat":43.29624,"lon":5.38102,"is_reserved":false,"is_disabled":false,"rental_uris":{"android":"levelo://app?vid=20d2ee05-766c-42f5-ad36-8379672e425d","ios":"levelo://app?vid=20d2ee05-766c-42f5-ad36-8379672e425d"},"vehicle_type_id":"4","last_reported":1740780504,"current_range_meters":15200,"station_id":"ce4bgl12rcd13ifvqbo0","pricing_plan_id":"cebpf4jnsgd1na2vs0mg"},{"bike_id":"4b71c006-eae5-43d0-8813-6fbdb22fe9dd","system_id":"levelo_inurba_marseille","lat":43.29421,"lon":5.38625,"is_reserved":false,"is_disabled":false,"rental_uris":{"android":"levelo://app?vid=4b71c006-eae5-43d0-8813-6fbdb22fe9dd","ios":"levelo://app?vid=4b71c006-eae5-43d0-8813-6fbdb22fe9dd"},"vehicle_type_id":"4","last_reported":1740780504,"current_range_meters":15200,"station_id":"ce4bh2h2rcd13ifvqdh0","pricing_plan_id":"cebpf4jnsgd1na2vs0mg"},{"bike_id":"8a9aef40-03d7-4306-9229-cb9004cfc2b6","system_id":"levelo_inurba_marseille","lat":43.29224,"lon":5.36066,"is_reserved":false,"is_disabled":false,"rental_uris":{"android":"levelo://app?vid=8a9aef40-03d7-4306-9229-cb9004cfc2b6","ios":"levelo://app?vid=8a9aef40-03d7-4306-9229-cb9004cfc2b6"},"vehicle_type_id":"4","last_reported":1740780504,"current_range_meters":15200,"station_id":"ce4bhbh2rcd13ifvqeqg","pricing_plan_id":"cebpf4jnsgd1na2vs0mg"},{"bike_id":"85d1b766-bdfe-4877-a335-4669a45aabed","system_id":"levelo_inurba_marseille","lat":43.28292,"lon":5.43323,"is_reserved":false,"is_disabled":false,"rental_uris":{"android":"levelo://app?vid=85d1b766-bdfe-4877-a335-4669a45aabed","ios":"levelo://app?vid=85d1b766-bdfe-4877-a335-4669a45aabed"},"vehicle_type_id":"4","last_reported":1740780504,"current_range_meters":15200,"station_id":"","pricing_plan_id":"cebpf4jnsgd1na2vs0mg"},{"bike_id":"c531b9ba-212c-4ee6-a167-5277f2580f33","system_id":"levelo_inurba_marseille","lat":43.288547,"lon":5.393191,"is_reserved":false,"is_disabled":false,"rental_uris":{"android":"levelo://app?vid=c531b9ba-212c-4ee6-a167-5277f2580f33","ios":"levelo://app?vid=c531b9ba-212c-4ee6-a167-5277f2580f33"},"vehicle_type_id":"4","last_reported":1740780504,"current_range_meters":14800,"station_id":"ce4bh2p2rcd13ifvqdi0","pricing_plan_id":"cebpf4jnsgd1na2vs0mg"},{"bike_id":"0693b9d6-4a9d-4e38-bfa2-80f934bcc2e3","system_id":"levelo_inurba_marseille","lat":43.24177,"lon":5.36398,"is_reserved":false,"is_disabled":false,"rental_uris":{"android":"levelo://app?vid=0693b9d6-4a9d-4e38-bfa2-80f934bcc2e3","ios":"levelo://app?vid=0693b9d6-4a9d-4e38-bfa2-80f934bcc2e3"},"vehicle_type_id":"4","last_reported":1740780504,"current_range_meters":16000,"station_id":"cpo36qri1sfpv3e86is0","pricing_plan_id":"cebpf4jnsgd1na2vs0mg"},{"bike_id":"8bc0dc44-90b4-40ed-a177-02b91d7f19d2","system_id":"levelo_inurba_marseille","lat":43.30326,"lon":5.40469,"is_reserved":false,"is_disabled":false,"rental_uris":{"android":"levelo://app?vid=8bc0dc44-90b4-40ed-a177-02b91d7f19d2","ios":"levelo://app?vid=8bc0dc44-90b4-40ed-a177-02b91d7f19d2"},"vehicle_type_id":"4","last_reported":1740780504,"current_range_meters":12000,"station_id":"ce4bh012rcd13ifvqd10","pricing_plan_id":"cebpf4jnsgd1na2vs0mg"},{"bike_id":"26b46454-2287-40b7-b8e4-2709eb7ac86d","system_id":"levelo_inurba_marseille","lat":43.306275,"lon":5.396265,"is_reserved":false,"is_disabled":false,"rental_uris":{"android":"levelo://app?vid=26b46454-2287-40b7-b8e4-2709eb7ac86d","ios":"levelo://app?vid=26b46454-2287-40b7-b8e4-2709eb7ac86d"},"vehicle_type_id":"4","last_reported":1740780504,"current_range_meters":15200,"station_id":"ce4bh092rcd13ifvqd30","pricing_plan_id":"cebpf4jnsgd1na2vs0mg"},{"bike_id":"885afce5-a772-472c-8f00-8fa46534cdaa","system_id":"levelo_inurba_marseille","lat":43.292634,"lon":5.38453,"is_reserved":false,"is_disabled":false,"rental_uris":{"android":"levelo://app?vid=885afce5-a772-472c-8f00-8fa46534cdaa","ios":"levelo://app?vid=885afce5-a772-472c-8f00-8fa46534cdaa"},"vehicle_type_id":"4","last_reported":1740780504,"current_range_meters":16000,"station_id":"ce4bh692rcd13ifvqea0","pricing_plan_id":"cebpf4jnsgd1na2vs0mg"},{"bike_id":"f9f4593d-ec14-43c6-ac64-d227a2c444e7","system_id":"levelo_inurba_marseille","lat":43.29925,"lon":5.3855,"is_reserved":false,"is_disabled":true,"rental_uris":{"android":"levelo://app?vid=f9f4593d-ec14-43c6-ac64-d227a2c444e7","ios":"levelo://app?vid=f9f4593d-ec14-43c6-ac64-d227a2c444e7"},"vehicle_type_id":"4","last_reported":1740780504,"current_range_meters":16000,"station_id":"","pricing_plan_id":"cebpf4jnsgd1na2vs0mg"},{"bike_id":"e81f0452-2d78-4b79-9065-9b2e4f97b0af","system_id":"levelo_inurba_marseille","lat":43.2928,"lon":5.38421,"is_reserved":false,"is_disabled":false,"rental_uris":{"android":"levelo://app?vid=e81f0452-2d78-4b79-9065-9b2e4f97b0af","ios":"levelo://app?vid=e81f0452-2d78-4b79-9065-9b2e4f97b0af"},"vehicle_type_id":"4","last_reported":1740780504,"current_range_meters":16000,"station_id":"ce4bh692rcd13ifvqea0","pricing_plan_id":"cebpf4jnsgd1na2vs0mg"},{"bike_id":"6725b9fa-a9f3-4f27-be5c-e5f5f11c35c1","system_id":"levelo_inurba_marseille","lat":43.31077,"lon":5.38354,"is_reserved":false,"is_disabled":false,"rental_uris":{"android":"levelo://app?vid=6725b9fa-a9f3-4f27-be5c-e5f5f11c35c1","ios":"levelo://app?vid=6725b9fa-a9f3-4f27-be5c-e5f5f11c35c1"},"vehicle_type_id":"4","last_reported":1740780504,"current_range_meters":16000,"station_id":"ce4bgv92rcd13ifvqcr0","pricing_plan_id":"cebpf4jnsgd1na2vs0mg"},{"bike_id":"2636ecb3-7197-4ec8-9534-46ad1b1d5841","system_id":"levelo_inurba_marseille","lat":43.30887,"lon":5.39659,"is_reserved":false,"is_disabled":false,"rental_uris":{"android":"levelo://app?vid=2636ecb3-7197-4ec8-9534-46ad1b1d5841","ios":"levelo://app?vid=2636ecb3-7197-4ec8-9534-46ad1b1d5841"},"vehicle_type_id":"4","last_reported":1740780504,"current_range_meters":16000,"station_id":"ce4bh012rcd13ifvqcv0","pricing_plan_id":"cebpf4jnsgd1na2vs0mg"},{"bike_id":"9f7e403d-3241-4706-bd05-f661b265d93a","system_id":"levelo_inurba_marseille","lat":43.30886,"lon":5.39642,"is_reserved":false,"is_disabled":false,"rental_uris":{"android":"levelo://app?vid=9f7e403d-3241-4706-bd05-f661b265d93a","ios":"levelo://app?vid=9f7e403d-3241-4706-bd05-f661b265d93a"},"vehicle_type_id":"4","last_reported":1740780504,"current_range_meters":16000,"station_id":"ce4bh012rcd13ifvqcv0","pricing_plan_id":"cebpf4jnsgd1na2vs0mg"},{"bike_id":"ed975e1c-021b-4cdc-b71f-e87affbf4678","system_id":"levelo_inurba_marseille","lat":43.28459,"lon":5.35878,"is_reserved":false,"is_disabled":false,"rental_uris":{"android":"levelo://app?vid=ed975e1c-021b-4cdc-b71f-e87affbf4678","ios":"levelo://app?vid=ed975e1c-021b-4cdc-b71f-e87affbf4678"},"vehicle_type_id":"4","last_reported":1740780504,"current_range_meters":16000,"station_id":"ce4bhah2rcd13ifvqei0","pricing_plan_id":"cebpf4jnsgd1na2vs0mg"},{"bike_id":"161d70e9-e213-4bf5-bde1-9c3d7296d89c","system_id":"levelo_inurba_marseille","lat":43.27837,"lon":5.39194,"is_reserved":false,"is_disabled":true,"rental_uris":{"android":"levelo://app?vid=161d70e9-e213-4bf5-bde1-9c3d7296d89c","ios":"levelo://app?vid=161d70e9-e213-4bf5-bde1-9c3d7296d89c"},"vehicle_type_id":"4","last_reported":1740780504,"current_range_meters":16000,"station_id":"ce4bhjp2rcd13ifvqga0","pricing_plan_id":"cebpf4jnsgd1na2vs0mg"},{"bike_id":"3e6eb5ab-3b41-4e51-838d-95c67fde06e4","system_id":"levelo_inurba_marseille","lat":43.29261,"lon":5.37612,"is_reserved":false,"is_disabled":false,"rental_uris":{"android":"levelo://app?vid=3e6eb5ab-3b41-4e51-838d-95c67fde06e4","ios":"levelo://app?vid=3e6eb5ab-3b41-4e51-838d-95c67fde06e4"},"vehicle_type_id":"4","last_reported":1740780504,"current_range_meters":16000,"station_id":"ce4bgi12rcd13ifvqb80","pricing_plan_id":"cebpf4jnsgd1na2vs0mg"},{"bike_id":"43cf1fa7-9038-4235-a5db-81b874461315","system_id":"levelo_inurba_marseille","lat":43.29289,"lon":5.37447,"is_reserved":false,"is_disabled":false,"rental_uris":{"android":"levelo://app?vid=43cf1fa7-9038-4235-a5db-81b874461315","ios":"levelo://app?vid=43cf1fa7-9038-4235-a5db-81b874461315"},"vehicle_type_id":"4","last_reported":1740780504,"current_range_meters":16400,"station_id":"ce4bgi12rcd13ifvqb70","pricing_plan_id":"cebpf4jnsgd1na2vs0mg"},{"bike_id":"d7079f25-1775-4843-a7b0-8d2f90924116","system_id":"levelo_inurba_marseille","lat":43.29419,"lon":5.38618,"is_reserved":false,"is_disabled":false,"rental_uris":{"android":"levelo://app?vid=d7079f25-1775-4843-a7b0-8d2f90924116","ios":"levelo://app?vid=d7079f25-1775-4843-a7b0-8d2f90924116"},"vehicle_type_id":"4","last_reported":1740780504,"current_range_meters":16000,"station_id":"ce4bh2h2rcd13ifvqdh0","pricing_plan_id":"cebpf4jnsgd1na2vs0mg"},{"bike_id":"7212f26c-f684-4c8f-87a8-e8871fe47f2b","system_id":"levelo_inurba_marseille","lat":43.29298,"lon":5.37458,"is_reserved":false,"is_disabled":false,"rental_uris":{"android":"levelo://app?vid=7212f26c-f684-4c8f-87a8-e8871fe47f2b","ios":"levelo://app?vid=7212f26c-f684-4c8f-87a8-e8871fe47f2b"},"vehicle_type_id":"4","last_reported":1740780504,"current_range_meters":16000,"station_id":"ce4bgi12rcd13ifvqb70","pricing_plan_id":"cebpf4jnsgd1na2vs0mg"},{"bike_id":"1f1d4c23-1eb7-4ee6-b2fb-10cfb5c52761","system_id":"levelo_inurba_marseille","lat":43.29253,"lon":5.3845,"is_reserved":false,"is_disabled":false,"rental_uris":{"android":"levelo://app?vid=1f1d4c23-1eb7-4ee6-b2fb-10cfb5c52761","ios":"levelo://app?vid=1f1d4c23-1eb7-4ee6-b2fb-10cfb5c52761"},"vehicle_type_id":"4","last_reported":1740780504,"current_range_meters":16000,"station_id":"ce4bh692rcd13ifvqea0","pricing_plan_id":"cebpf4jnsgd1na2vs0mg"},{"bike_id":"180ac7f9-db35-4465-8bb6-ae073120ef65","system_id":"levelo_inurba_marseille","lat":43.29277,"lon":5.38434,"is_reserved":false,"is_disabled":false,"rental_uris":{"android":"levelo://app?vid=180ac7f9-db35-4465-8bb6-ae073120ef65","ios":"levelo://app?vid=180ac7f9-db35-4465-8bb6-ae073120ef65"},"vehicle_type_id":"4","last_reported":1740780504,"current_range_meters":16400,"station_id":"ce4bh692rcd13ifvqea0","pricing_plan_id":"cebpf4jnsgd1na2vs0mg"},{"bike_id":"6b943fee-c773-41de-b14c-f0080a9319d9","system_id":"levelo_inurba_marseille","lat":43.30311,"lon":5.39205,"is_reserved":false,"is_disabled":false,"rental_uris":{"android":"levelo://app?vid=6b943fee-c773-41de-b14c-f0080a9319d9","ios":"levelo://app?vid=6b943fee-c773-41de-b14c-f0080a9319d9"},"vehicle_type_id":"4","last_reported":1740780504,"current_range_meters":16400,"station_id":"ce4bgkh2rcd13ifvqbk0","pricing_plan_id":"cebpf4jnsgd1na2vs0mg"},{"bike_id":"f043888f-a6c0-4aa5-a054-4aa3833e8db5","system_id":"levelo_inurba_marseille","lat":43.28696,"lon":5.37394,"is_reserved":false,"is_disabled":false,"rental_uris":{"android":"levelo://app?vid=f043888f-a6c0-4aa5-a054-4aa3833e8db5","ios":"levelo://app?vid=f043888f-a6c0-4aa5-a054-4aa3833e8db5"},"vehicle_type_id":"4","last_reported":1740780504,"current_range_meters":15200,"station_id":"ce4bh3p2rcd13ifvqdq0","pricing_plan_id":"cebpf4jnsgd1na2vs0mg"},{"bike_id":"7778bd5d-b9b9-4963-86d9-230254203a27","system_id":"levelo_inurba_marseille","lat":43.30937,"lon":5.39066,"is_reserved":false,"is_disabled":false,"rental_uris":{"android":"levelo://app?vid=7778bd5d-b9b9-4963-86d9-230254203a27","ios":"levelo://app?vid=7778bd5d-b9b9-4963-86d9-230254203a27"},"vehicle_type_id":"4","last_reported":1740780504,"current_range_meters":16400,"station_id":"ce4bgup2rcd13ifvqco0","pricing_plan_id":"cebpf4jnsgd1na2vs0mg"},{"bike_id":"32ceb2c3-2f3b-4092-8d32-8ede67e0cd39","system_id":"levelo_inurba_marseille","lat":43.29899,"lon":5.43663,"is_reserved":false,"is_disabled":false,"rental_uris":{"android":"levelo://app?vid=32ceb2c3-2f3b-4092-8d32-8ede67e0cd39","ios":"levelo://app?vid=32ceb2c3-2f3b-4092-8d32-8ede67e0cd39"},"vehicle_type_id":"4","last_reported":1740780504,"current_range_meters":16400,"station_id":"ce4bhpp2rcd13ifvqhfg","pricing_plan_id":"cebpf4jnsgd1na2vs0mg"},{"bike_id":"5a4cdfa8-99f0-48e3-9aa4-56e87ed1a712","system_id":"levelo_inurba_marseille","lat":43.29627,"lon":5.381,"is_reserved":false,"is_disabled":false,"rental_uris":{"android":"levelo://app?vid=5a4cdfa8-99f0-48e3-9aa4-56e87ed1a712","ios":"levelo://app?vid=5a4cdfa8-99f0-48e3-9aa4-56e87ed1a712"},"vehicle_type_id":"4","last_reported":1740780504,"current_range_meters":16400,"station_id":"ce4bgl12rcd13ifvqbo0","pricing_plan_id":"cebpf4jnsgd1na2vs0mg"},{"bike_id":"60adc713-a582-4c38-9260-7255b75fa31d","system_id":"levelo_inurba_marseille","lat":43.30882,"lon":5.39645,"is_reserved":false,"is_disabled":false,"rental_uris":{"android":"levelo://app?vid=60adc713-a582-4c38-9260-7255b75fa31d","ios":"levelo://app?vid=60adc713-a582-4c38-9260-7255b75fa31d"},"vehicle_type_id":"4","last_reported":1740780504,"current_range_meters":16400,"station_id":"ce4bh012rcd13ifvqcv0","pricing_plan_id":"cebpf4jnsgd1na2vs0mg"},{"bike_id":"467dffb9-fd7d-4d2f-9ddc-1b1d42868f7a","system_id":"levelo_inurba_marseille","lat":43.29262,"lon":5.38436,"is_reserved":false,"is_disabled":false,"rental_uris":{"android":"levelo://app?vid=467dffb9-fd7d-4d2f-9ddc-1b1d42868f7a","ios":"levelo://app?vid=467dffb9-fd7d-4d2f-9ddc-1b1d42868f7a"},"vehicle_type_id":"4","last_reported":1740780504,"current_range_meters":16400,"station_id":"ce4bh692rcd13ifvqea0","pricing_plan_id":"cebpf4jnsgd1na2vs0mg"},{"bike_id":"8a4f99ce-bff4-4a86-963f-023125ea5ae7","system_id":"levelo_inurba_marseille","lat":43.29099,"lon":5.38139,"is_reserved":false,"is_disabled":false,"rental_uris":{"android":"levelo://app?vid=8a4f99ce-bff4-4a86-963f-023125ea5ae7","ios":"levelo://app?vid=8a4f99ce-bff4-4a86-963f-023125ea5ae7"},"vehicle_type_id":"4","last_reported":1740780504,"current_range_meters":16400,"station_id":"","pricing_plan_id":"cebpf4jnsgd1na2vs0mg"},{"bike_id":"cb853248-557f-48ac-928f-efa1fb628a01","system_id":"levelo_inurba_marseille","lat":43.2927,"lon":5.38436,"is_reserved":false,"is_disabled":false,"rental_uris":{"android":"levelo://app?vid=cb853248-557f-48ac-928f-efa1fb628a01","ios":"levelo://app?vid=cb853248-557f-48ac-928f-efa1fb628a01"},"vehicle_type_id":"4","last_reported":1740780504,"current_range_meters":16400,"station_id":"ce4bh692rcd13ifvqea0","pricing_plan_id":"cebpf4jnsgd1na2vs0mg"},{"bike_id":"e88170db-16f1-4691-9945-f363a1a2bbf0","system_id":"levelo_inurba_marseille","lat":43.29279,"lon":5.3844,"is_reserved":false,"is_disabled":false,"rental_uris":{"android":"levelo://app?vid=e88170db-16f1-4691-9945-f363a1a2bbf0","ios":"levelo://app?vid=e88170db-16f1-4691-9945-f363a1a2bbf0"},"vehicle_type_id":"4","last_reported":1740780504,"current_range_meters":16400,"station_id":"ce4bh692rcd13ifvqea0","pricing_plan_id":"cebpf4jnsgd1na2vs0mg"},{"bike_id":"02eeb2eb-ed45-4f33-8d09-994d3cfafe53","system_id":"levelo_inurba_marseille","lat":43.3015,"lon":5.38078,"is_reserved":false,"is_disabled":false,"rental_uris":{"android":"levelo://app?vid=02eeb2eb-ed45-4f33-8d09-994d3cfafe53","ios":"levelo://app?vid=02eeb2eb-ed45-4f33-8d09-994d3cfafe53"},"vehicle_type_id":"4","last_reported":1740780504,"current_range_meters":16400,"station_id":"ce4bgjp2rcd13ifvqbh0","pricing_plan_id":"cebpf4jnsgd1na2vs0mg"},{"bike_id":"a536974c-3eae-4f12-a769-b60dcdaec5a7","system_id":"levelo_inurba_marseille","lat":43.28153,"lon":5.42647,"is_reserved":false,"is_disabled":false,"rental_uris":{"android":"levelo://app?vid=a536974c-3eae-4f12-a769-b60dcdaec5a7","ios":"levelo://app?vid=a536974c-3eae-4f12-a769-b60dcdaec5a7"},"vehicle_type_id":"4","last_reported":1740780504,"current_range_meters":16800,"station_id":"ce4bhnh2rcd13ifvqgug","pricing_plan_id":"cebpf4jnsgd1na2vs0mg"},{"bike_id":"588329a1-39ed-4022-9c50-8be414eaf643","system_id":"levelo_inurba_marseille","lat":43.29421,"lon":5.38619,"is_reserved":false,"is_disabled":false,"rental_uris":{"android":"levelo://app?vid=588329a1-39ed-4022-9c50-8be414eaf643","ios":"levelo://app?vid=588329a1-39ed-4022-9c50-8be414eaf643"},"vehicle_type_id":"4","last_reported":1740780504,"current_range_meters":16800,"station_id":"ce4bh2h2rcd13ifvqdh0","pricing_plan_id":"cebpf4jnsgd1na2vs0mg"},{"bike_id":"8a94d05e-0ac9-4900-afae-8f1bbe4e36de","system_id":"levelo_inurba_marseille","lat":43.30889,"lon":5.39652,"is_reserved":false,"is_disabled":false,"rental_uris":{"android":"levelo://app?vid=8a94d05e-0ac9-4900-afae-8f1bbe4e36de","ios":"levelo://app?vid=8a94d05e-0ac9-4900-afae-8f1bbe4e36de"},"vehicle_type_id":"4","last_reported":1740780504,"current_range_meters":16800,"station_id":"ce4bh012rcd13ifvqcv0","pricing_plan_id":"cebpf4jnsgd1na2vs0mg"},{"bike_id":"3815a125-565a-4577-8461-7a3710056863","system_id":"levelo_inurba_marseille","lat":43.28453,"lon":5.35889,"is_reserved":false,"is_disabled":false,"rental_uris":{"android":"levelo://app?vid=3815a125-565a-4577-8461-7a3710056863","ios":"levelo://app?vid=3815a125-565a-4577-8461-7a3710056863"},"vehicle_type_id":"4","last_reported":1740780504,"current_range_meters":16800,"station_id":"ce4bhah2rcd13ifvqei0","pricing_plan_id":"cebpf4jnsgd1na2vs0mg"},{"bike_id":"2d0f4b31-c28f-4866-b331-a400f1c2a007","system_id":"levelo_inurba_marseille","lat":43.28463,"lon":5.35889,"is_reserved":false,"is_disabled":false,"rental_uris":{"android":"levelo://app?vid=2d0f4b31-c28f-4866-b331-a400f1c2a007","ios":"levelo://app?vid=2d0f4b31-c28f-4866-b331-a400f1c2a007"},"vehicle_type_id":"4","last_reported":1740780504,"current_range_meters":16800,"station_id":"ce4bhah2rcd13ifvqei0","pricing_plan_id":"cebpf4jnsgd1na2vs0mg"},{"bike_id":"9bdf78a2-1207-4aa0-bbb2-db459309b04d","system_id":"levelo_inurba_marseille","lat":43.29536,"lon":5.38542,"is_reserved":false,"is_disabled":false,"rental_uris":{"android":"levelo://app?vid=9bdf78a2-1207-4aa0-bbb2-db459309b04d","ios":"levelo://app?vid=9bdf78a2-1207-4aa0-bbb2-db459309b04d"},"vehicle_type_id":"4","last_reported":1740780504,"current_range_meters":16800,"station_id":"ce4bgih2rcd13ifvqba0","pricing_plan_id":"cebpf4jnsgd1na2vs0mg"},{"bike_id":"24db149f-1618-42c4-af45-9cda7f46d94c","system_id":"levelo_inurba_marseille","lat":43.27069,"lon":5.42273,"is_reserved":false,"is_disabled":false,"rental_uris":{"android":"levelo://app?vid=24db149f-1618-42c4-af45-9cda7f46d94c","ios":"levelo://app?vid=24db149f-1618-42c4-af45-9cda7f46d94c"},"vehicle_type_id":"4","last_reported":1740780504,"current_range_meters":17200,"station_id":"ce4bhk92rcd13ifvqgb0","pricing_plan_id":"cebpf4jnsgd1na2vs0mg"},{"bike_id":"2a88a5d5-485c-4d6b-8ae1-14a2e8299fd8","system_id":"levelo_inurba_marseille","lat":43.33772,"lon":5.3749,"is_reserved":false,"is_disabled":false,"rental_uris":{"android":"levelo://app?vid=2a88a5d5-485c-4d6b-8ae1-14a2e8299fd8","ios":"levelo://app?vid=2a88a5d5-485c-4d6b-8ae1-14a2e8299fd8"},"vehicle_type_id":"4","last_reported":1740780504,"current_range_meters":17200,"station_id":"","pricing_plan_id":"cebpf4jnsgd1na2vs0mg"},{"bike_id":"7a17d56d-c43c-4b67-8871-d84a37f3cbf1","system_id":"levelo_inurba_marseille","lat":43.28918,"lon":5.38391,"is_reserved":false,"is_disabled":false,"rental_uris":{"android":"levelo://app?vid=7a17d56d-c43c-4b67-8871-d84a37f3cbf1","ios":"levelo://app?vid=7a17d56d-c43c-4b67-8871-d84a37f3cbf1"},