{"last_updated":1725811821,"ttl":30,"version":"2.2","data":{"bikes":[{"bike_id":"91c08b05-fb1b-4af9-b5c1-f00b740bfc48","system_id":"levelo_inurba_marseille","lat":43.313391,"lon":5.36706,"is_reserved":false,"is_disabled":false,"rental_uris":{"android":"levelo://app?vid=91c08b05-fb1b-4af9-b5c1-f00b740bfc48","ios":"levelo://app?vid=91c08b05-fb1b-4af9-b5c1-f00b740bfc48"},"vehicle_type_id":"4","last_reported":1725811821,"current_range_meters":24800,"station_id":"ce4bgr92rcd13ifvqc6g","pricing_plan_id":"cebpf4jnsgd1na2vs0mg"},{"bike_id":"60112c5c-789f-4bf2-8442-59cbb4b5eb20","system_id":"levelo_inurba_marseille","lat":43.313391,"lon":5.36706,"is_reserved":false,"is_disabled":false,"rental_uris":{"android":"levelo://app?vid=60112c5c-789f-4bf2-8442-59cbb4b5eb20","ios":"levelo://app?vid=60112c5c-789f-4bf2-8442-59cbb4b5eb20"},"vehicle_type_id":"4","last_reported":1725811821,"current_range_meters":31200,"station_id":"ce4bgr92rcd13ifvqc6g","pricing_plan_id":"cebpf4jnsgd1na2vs0mg"},{"bike_id":"f5b46ba5-a56e-4c98-b318-0dfa1e175bb0","system_id":"levelo_inurba_marseille","lat":43.313391,"lon":5.36706,"is_reserved":false,"is_disabled":false,"rental_uris":{"android":"levelo://app?vid=f5b46ba5-a56e-4c98-b318-0dfa1e175bb0","ios":"levelo://app?vid=f5b46ba5-a56e-4c98-b318-0dfa1e175bb0"},"vehicle_type_id":"4","last_reported":1725811821,"current_range_meters":23200,"station_id":"ce4bgr92rcd13ifvqc6g","pricing_plan_id":"cebpf4jnsgd1na2vs0mg"},{"bike_id":"02df3d47-2f31-4b23-9d90-3b1f37faa2f1","system_id":"levelo_inurba_marseille","lat":43.31341,"lon":5.367098,"is_reserved":false,"is_disabled":false,"rental_uris":{"android":"levelo://app?vid=02df3d47-2f31-4b23-9d90-3b1f37faa2f1","ios":"levelo://app?vid=02df3d47-2f31-4b23-9d90-3b1f37faa2f1"},"vehicle_type_id":"4","last_reported":1725811821,"current_range_meters":31200,"station_id":"ce4bgr92rcd13ifvqc6g","pricing_plan_id":"cebpf4jnsgd1na2vs0mg"},{"bike_id":"70a6ffb9-f26e-40ff-8bcf-13f68300a0be","system_id":"levelo_inurba_marseille","lat":43.312239,"lon":5.368562,"is_reserved":false,"is_disabled":false,"rental_uris":{"android":"levelo://app?vid=70a6ffb9-f26e-40ff-8bcf-13f68300a0be","ios":"levelo://app?vid=70a6ffb9-f26e-40ff-8bcf-13f68300a0be"},"vehicle_type_id":"4","last_reported":1725811821,"current_range_meters":30000,"station_id":"ce4bgl92rcd13ifvqbq0","pricing_plan_id":"cebpf4jnsgd1na2vs0mg"},{"bike_id":"7fcc7692-bf68-4f8c-a6b2-375b5017899d","system_id":"levelo_inurba_marseille","lat":43.312239,"lon":5.368562,"is_reserved":false,"is_disabled":false,"rental_uris":{"android":"levelo://app?vid=7fcc7692-bf68-4f8c-a6b2-375b5017899d","ios":"levelo://app?vid=7fcc7692-bf68-4f8c-a6b2-375b5017899d"},"vehicle_type_id":"4","last_reported":1725811821,"current_range_meters":31200,"station_id":"ce4bgl92rcd13ifvqbq0","pricing_plan_id":"cebpf4jnsgd1na2vs0mg"},{"bike_id":"514dc402-5943-40c6-9d33-acff193c8938","system_id":"levelo_inurba_marseille","lat":43.312239,"lon":5.368562,"is_reserved":false,"is_disabled":false,"rental_uris":{"android":"levelo://app?vid=514dc402-5943-40c6-9d33-acff193c8938","ios":"levelo://app?vid=514dc402-5943-40c6-9d33-acff193c8938"},"vehicle_type_id":"4","last_reported":1725811821,"current_range_meters":18800,"station_id":"ce4bgl92rcd13ifvqbq0","pricing_plan_id":"cebpf4jnsgd1na2vs0mg"},{"bike_id":"115f3221-11f6-40d8-8cbd-aea754a8d036","system_id":"levelo_inurba_marseille","lat":43.309076,"lon":5.368465,"is_reserved":false,"is_disabled":false,"rental_uris":{"android":"levelo://app?vid=115f3221-11f6-40d8-8cbd-aea754a8d036","ios":"levelo://app?vid=115f3221-11f6-40d8-8cbd-aea754a8d036"},"vehicle_type_id":"4","last_reported":1725811821,"current_range_meters":8000,"station_id":"ce4bgn92rcd13ifvqbvg","pricing_plan_id":"cebpf4jnsgd1na2vs0mg"},{"bike_id":"19f1191c-f11e-4e0d-a72d-9e4796d8e2a6","system_id":"levelo_inurba_marseille","lat":43.30914,"lon":5.36846,"is_reserved":false,"is_disabled":false,"rental_uris":{"android":"levelo://app?vid=19f1191c-f11e-4e0d-a72d-9e4796d8e2a6","ios":"levelo://app?vid=19f1191c-f11e-4e0d-a72d-9e4796d8e2a6"},"vehicle_type_id":"4","last_reported":1725811821,"current_range_meters":25200,"station_id":"ce4bgn92rcd13ifvqbvg","pricing_plan_id":"cebpf4jnsgd1na2vs0mg"},{"bike_id":"8f2b80ca-53c8-4d93-8ba0-9105f13ef1ce","system_id":"levelo_inurba_marseille","lat":43.309076,"lon":5.368465,"is_reserved":false,"is_disabled":false,"rental_uris":{"android":"levelo://app?vid=8f2b80ca-53c8-4d93-8ba0-9105f13ef1ce","ios":"levelo://app?vid=8f2b80ca-53c8-4d93-8ba0-9105f13ef1ce"},"vehicle_type_id":"4","last_reported":1725811821,"current_range_meters":17200,"station_id":"ce4bgn92rcd13ifvqbvg","pricing_plan_id":"cebpf4jnsgd1na2vs0mg"},{"bike_id":"0c60899a-b4a5-416f-bc18-28ea28e1901b","system_id":"levelo_inurba_marseille","lat":43.309076,"lon":5.368465,"is_reserved":false,"is_disabled":false,"rental_uris":{"android":"levelo://app?vid=0c60899a-b4a5-416f-bc18-28ea28e1901b","ios":"levelo://app?vid=0c60899a-b4a5-416f-bc18-28ea28e1901b"},"vehicle_type_id":"4","last_reported":1725811821,"current_range_meters":400,"station_id":"ce4bgn92rcd13ifvqbvg","pricing_plan_id":"cebpf4jnsgd1na2vs0mg"},{"bike_id":"307cf12c-209f-459c-bc5b-4c4eed86dc8d","system_id":"levelo_inurba_marseille","lat":43.314811,"lon":5.373103,"is_reserved":false,"is_disabled":false,"rental_uris":{"android":"levelo://app?vid=307cf12c-209f-459c-bc5b-4c4eed86dc8d","ios":"levelo://app?vid=307cf12c-209f-459c-bc5b-4c4eed86dc8d"},"vehicle_type_id":"4","last_reported":1725811821,"current_range_meters":31200,"station_id":"ce4bgt12rcd13ifvqcd0","pricing_plan_id":"cebpf4jnsgd1na2vs0mg"},{"bike_id":"e5628688-2352-47b5-998f-fe03643c12f6","system_id":"levelo_inurba_marseille","lat":43.314984,"lon":5.373059,"is_reserved":false,"is_disabled":false,"rental_uris":{"android":"levelo://app?vid=e5628688-2352-47b5-998f-fe03643c12f6","ios":"levelo://app?vid=e5628688-2352-47b5-998f-fe03643c12f6"},"vehicle_type_id":"4","last_reported":1725811821,"current_range_meters":31200,"station_id":"ce4bgt12rcd13ifvqcd0","pricing_plan_id":"cebpf4jnsgd1na2vs0mg"},{"bike_id":"d4b148ac-889c-41c3-be96-97f7674dc89f","system_id":"levelo_inurba_marseille","lat":43.31779,"lon":5.3722,"is_reserved":false,"is_disabled":false,"rental_uris":{"android":"levelo://app?vid=d4b148ac-889c-41c3-be96-97f7674dc89f","ios":"levelo://app?vid=d4b148ac-889c-41c3-be96-97f7674dc89f"},"vehicle_type_id":"4","last_reported":1725811821,"current_range_meters":19600,"station_id":"","pricing_plan_id":"cebpf4jnsgd1na2vs0mg"},{"bike_id":"3040c273-f133-4d00-a3bd-3f76ecbd5fda","system_id":"levelo_inurba_marseille","lat":43.30552,"lon":5.36703,"is_reserved":false,"is_disabled":false,"rental_uris":{"android":"levelo://app?vid=3040c273-f133-4d00-a3bd-3f76ecbd5fda","ios":"levelo://app?vid=3040c273-f133-4d00-a3bd-3f76ecbd5fda"},"vehicle_type_id":"4","last_reported":1725811821,"current_range_meters":5200,"station_id":"ce4bgrp2rcd13ifvqc9g","pricing_plan_id":"cebpf4jnsgd1na2vs0mg"},{"bike_id":"b92a14fc-cff4-44aa-bf5c-b11e17064948","system_id":"levelo_inurba_marseille","lat":43.305706,"lon":5.365654,"is_reserved":false,"is_disabled":false,"rental_uris":{"android":"levelo://app?vid=b92a14fc-cff4-44aa-bf5c-b11e17064948","ios":"levelo://app?vid=b92a14fc-cff4-44aa-bf5c-b11e17064948"},"vehicle_type_id":"4","last_reported":1725811821,"current_range_meters":28000,"station_id":"ce4bgs12rcd13ifvqcag","pricing_plan_id":"cebpf4jnsgd1na2vs0mg"},{"bike_id":"7ed62d24-2497-4976-ab67-8af9cf4daf62","system_id":"levelo_inurba_marseille","lat":43.30549,"lon":5.36526,"is_reserved":false,"is_disabled":false,"rental_uris":{"android":"levelo://app?vid=7ed62d24-2497-4976-ab67-8af9cf4daf62","ios":"levelo://app?vid=7ed62d24-2497-4976-ab67-8af9cf4daf62"},"vehicle_type_id":"4","last_reported":1725811821,"current_range_meters":0,"station_id":"ce4bgs12rcd13ifvqcag","pricing_plan_id":"cebpf4jnsgd1na2vs0mg"},{"bike_id":"92b816a0-4fd7-4c0d-b404-6c2cacd8fd2b","system_id":"levelo_inurba_marseille","lat":43.305706,"lon":5.365654,"is_reserved":false,"is_disabled":false,"rental_uris":{"android":"levelo://app?vid=92b816a0-4fd7-4c0d-b404-6c2cacd8fd2b","ios":"levelo://app?vid=92b816a0-4fd7-4c0d-b404-6c2cacd8fd2b"},"vehicle_type_id":"4","last_reported":1725811821,"current_range_meters":6400,"station_id":"ce4bgs12rcd13ifvqcag","pricing_plan_id":"cebpf4jnsgd1na2vs0mg"},{"bike_id":"d73f8d5b-c336-4f69-a4da-964e3d2faca2","system_id":"levelo_inurba_marseille","lat":43.30541,"lon":5.36538,"is_reserved":false,"is_disabled":false,"rental_uris":{"android":"levelo://app?vid=d73f8d5b-c336-4f69-a4da-964e3d2faca2","ios":"levelo://app?vid=d73f8d5b-c336-4f69-a4da-964e3d2faca2"},"vehicle_type_id":"4","last_reported":1725811821,"current_range_meters":0,"station_id":"ce4bgs12rcd13ifvqcag","pricing_plan_id":"cebpf4jnsgd1na2vs0mg"},{"bike_id":"34676701-4854-4ff7-b0f1-e68d8bac1eaa","system_id":"levelo_inurba_marseille","lat":43.30611,"lon":5.37224,"is_reserved":false,"is_disabled":false,"rental_uris":{"android":"levelo://app?vid=34676701-4854-4ff7-b0f1-e68d8bac1eaa","ios":"levelo://app?vid=34676701-4854-4ff7-b0f1-e68d8bac1eaa"},"vehicle_type_id":"4","last_reported":1725811821,"current_range_meters":23600,"station_id":"ce4bgqh2rcd13ifvqc4g","pricing_plan_id":"cebpf4jnsgd1na2vs0mg"},{"bike_id":"d3840c2d-4ecd-4040-8939-a6dcea2d3502","system_id":"levelo_inurba_marseille","lat":43.305989,"lon":5.37225,"is_reserved":false,"is_disabled":false,"rental_uris":{"android":"levelo://app?vid=d3840c2d-4ecd-4040-8939-a6dcea2d3502","ios":"levelo://app?vid=d3840c2d-4ecd-4040-8939-a6dcea2d3502"},"vehicle_type_id":"4","last_reported":1725811821,"current_range_meters":25600,"station_id":"ce4bgqh2rcd13ifvqc4g","pricing_plan_id":"cebpf4jnsgd1na2vs0mg"},{"bike_id":"3031a823-6253-4d85-afe0-7a18ee5eab33","system_id":"levelo_inurba_marseille","lat":43.305989,"lon":5.37225,"is_reserved":false,"is_disabled":false,"rental_uris":{"android":"levelo://app?vid=3031a823-6253-4d85-afe0-7a18ee5eab33","ios":"levelo://app?vid=3031a823-6253-4d85-afe0-7a18ee5eab33"},"vehicle_type_id":"4","last_reported":1725811821,"current_range_meters":19600,"station_id":"ce4bgqh2rcd13ifvqc4g","pricing_plan_id":"cebpf4jnsgd1na2vs0mg"},{"bike_id":"ab1e72da-86ff-4722-8726-9b8a7d111bd7","system_id":"levelo_inurba_marseille","lat":43.305989,"lon":5.37225,"is_reserved":false,"is_disabled":false,"rental_uris":{"android":"levelo://app?vid=ab1e72da-86ff-4722-8726-9b8a7d111bd7","ios":"levelo://app?vid=ab1e72da-86ff-4722-8726-9b8a7d111bd7"},"vehicle_type_id":"4","last_reported":1725811821,"current_range_meters":25200,"station_id":"ce4bgqh2rcd13ifvqc4g","pricing_plan_id":"cebpf4jnsgd1na2vs0mg"},{"bike_id":"a337eed5-3319-44ed-bf59-62c86c435ca8","system_id":"levelo_inurba_marseille","lat":43.305989,"lon":5.37225,"is_reserved":false,"is_disabled":false,"rental_uris":{"android":"levelo://app?vid=a337eed5-3319-44ed-bf59-62c86c435ca8","ios":"levelo://app?vid=a337eed5-3319-44ed-bf59-62c86c435ca8"},"vehicle_type_id":"4","last_reported":1725811821,"current_range_meters":3200,"station_id":"ce4bgqh2rcd13ifvqc4g","pricing_plan_id":"cebpf4jnsgd1na2vs0mg"},{"bike_id":"7e86710f-4337-42cc-b8dc-000db9a604f2","system_id":"levelo_inurba_marseille","lat":43.305989,"lon":5.37225,"is_reserved":false,"is_disabled":false,"rental_uris":{"android":"levelo://app?vid=7e86710f-4337-42cc-b8dc-000db9a604f2","ios":"levelo://app?vid=7e86710f-4337-42cc-b8dc-000db9a604f2"},"vehicle_type_id":"4","last_reported":1725811821,"current_range_meters":2800,"station_id":"ce4bgqh2rcd13ifvqc4g","pricing_plan_id":"cebpf4jnsgd1na2vs0mg"},{"bike_id":"df443e1b-046f-45b6-aa13-e32a27217567","system_id":"levelo_inurba_marseille","lat":43.305989,"lon":5.37225,"is_reserved":false,"is_disabled":false,"rental_uris":{"android":"levelo://app?vid=df443e1b-046f-45b6-aa13-e32a27217567","ios":"levelo://app?vid=df443e1b-046f-45b6-aa13-e32a27217567"},"vehicle_type_id":"4","last_reported":1725811821,"current_range_meters":25600,"station_id":"ce4bgqh2rcd13ifvqc4g","pricing_plan_id":"cebpf4jnsgd1na2vs0mg"},{"bike_id":"8a10f8b0-b88c-4da8-a2f8-7deda4e24433","system_id":"levelo_inurba_marseille","lat":43.30785,"lon":5.37646,"is_reserved":false,"is_disabled":false,"rental_uris":{"android":"levelo://app?vid=8a10f8b0-b88c-4da8-a2f8-7deda4e24433","ios":"levelo://app?vid=8a10f8b0-b88c-4da8-a2f8-7deda4e24433"},"vehicle_type_id":"4","last_reported":1725811821,"current_range_meters":17200,"station_id":"ce4bgv92rcd13ifvqcq0","pricing_plan_id":"cebpf4jnsgd1na2vs0mg"},{"bike_id":"cb72cf2b-2fb8-4dd8-8034-84ff0b97ee9d","system_id":"levelo_inurba_marseille","lat":43.307945,"lon":5.376487,"is_reserved":false,"is_disabled":false,"rental_uris":{"android":"levelo://app?vid=cb72cf2b-2fb8-4dd8-8034-84ff0b97ee9d","ios":"levelo://app?vid=cb72cf2b-2fb8-4dd8-8034-84ff0b97ee9d"},"vehicle_type_id":"4","last_reported":1725811821,"current_range_meters":31200,"station_id":"ce4bgv92rcd13ifvqcq0","pricing_plan_id":"cebpf4jnsgd1na2vs0mg"},{"bike_id":"f94766f9-e62d-485d-9c46-c95e702474ab","system_id":"levelo_inurba_marseille","lat":43.317075,"lon":5.377367,"is_reserved":false,"is_disabled":false,"rental_uris":{"android":"levelo://app?vid=f94766f9-e62d-485d-9c46-c95e702474ab","ios":"levelo://app?vid=f94766f9-e62d-485d-9c46-c95e702474ab"},"vehicle_type_id":"4","last_reported":1725811821,"current_range_meters":18800,"station_id":"ce4bgth2rcd13ifvqch0","pricing_plan_id":"cebpf4jnsgd1na2vs0mg"},{"bike_id":"a4adebcc-2100-4f8f-a7df-69b3cc0bca7c","system_id":"levelo_inurba_marseille","lat":43.317075,"lon":5.377367,"is_reserved":false,"is_disabled":false,"rental_uris":{"android":"levelo://app?vid=a4adebcc-2100-4f8f-a7df-69b3cc0bca7c","ios":"levelo://app?vid=a4adebcc-2100-4f8f-a7df-69b3cc0bca7c"},"vehicle_type_id":"4","last_reported":1725811821,"current_range_meters":31200,"station_id":"ce4bgth2rcd13ifvqch0","pricing_plan_id":"cebpf4jnsgd1na2vs0mg"},{"bike_id":"fa6c7b9d-fac4-4050-9d9a-596721631f7e","system_id":"levelo_inurba_marseille","lat":43.317075,"lon":5.377367,"is_reserved":false,"is_disabled":false,"rental_uris":{"android":"levelo://app?vid=fa6c7b9d-fac4-4050-9d9a-596721631f7e","ios":"levelo://app?vid=fa6c7b9d-fac4-4050-9d9a-596721631f7e"},"vehicle_type_id":"4","last_reported":1725811821,"current_range_meters":30800,"station_id":"ce4bgth2rcd13ifvqch0","pricing_plan_id":"cebpf4jnsgd1na2vs0mg"},{"bike_id":"da566e56-6622-4890-bf66-87df86965ede","system_id":"levelo_inurba_marseille","lat":43.31714,"lon":5.37761,"is_reserved":false,"is_disabled":false,"rental_uris":{"android":"levelo://app?vid=da566e56-6622-4890-bf66-87df86965ede","ios":"levelo://app?vid=da566e56-6622-4890-bf66-87df86965ede"},"vehicle_type_id":"4","last_reported":1725811821,"current_range_meters":31200,"station_id":"ce4bgth2rcd13ifvqch0","pricing_plan_id":"cebpf4jnsgd1na2vs0mg"},{"bike_id":"e6240958-5766-4e43-be3c-5414d3e93fa9","system_id":"levelo_inurba_marseille","lat":43.31354,"lon":5.37918,"is_reserved":false,"is_disabled":false,"rental_uris":{"android":"levelo://app?vid=e6240958-5766-4e43-be3c-5414d3e93fa9","ios":"levelo://app?vid=e6240958-5766-4e43-be3c-5414d3e93fa9"},"vehicle_type_id":"4","last_reported":1725811821,"current_range_meters":18800,"station_id":"","pricing_plan_id":"cebpf4jnsgd1na2vs0mg"},{"bike_id":"0aff4386-9eaf-466e-a82c-07c34622b214","system_id":"levelo_inurba_marseille","lat":43.303046,"lon":5.368981,"is_reserved":false,"is_disabled":false,"rental_uris":{"android":"levelo://app?vid=0aff4386-9eaf-466e-a82c-07c34622b214","ios":"levelo://app?vid=0aff4386-9eaf-466e-a82c-07c34622b214"},"vehicle_type_id":"4","last_reported":1725811821,"current_range_meters":19200,"station_id":"ce4bgqh2rcd13ifvqc5g","pricing_plan_id":"cebpf4jnsgd1na2vs0mg"},{"bike_id":"7ab8715e-bd15-4872-86cc-dc0b6a89da37","system_id":"levelo_inurba_marseille","lat":43.315289,"lon":5.380349,"is_reserved":false,"is_disabled":false,"rental_uris":{"android":"levelo://app?vid=7ab8715e-bd15-4872-86cc-dc0b6a89da37","ios":"levelo://app?vid=7ab8715e-bd15-4872-86cc-dc0b6a89da37"},"vehicle_type_id":"4","last_reported":1725811821,"current_range_meters":4800,"station_id":"ce4bhsp2rcd13ifvqi50","pricing_plan_id":"cebpf4jnsgd1na2vs0mg"},{"bike_id":"9dd60971-10f6-4473-9602-c2fc815f1c41","system_id":"levelo_inurba_marseille","lat":43.30734,"lon":5.37892,"is_reserved":false,"is_disabled":false,"rental_uris":{"android":"levelo://app?vid=9dd60971-10f6-4473-9602-c2fc815f1c41","ios":"levelo://app?vid=9dd60971-10f6-4473-9602-c2fc815f1c41"},"vehicle_type_id":"4","last_reported":1725811821,"current_range_meters":13600,"station_id":"","pricing_plan_id":"cebpf4jnsgd1na2vs0mg"},{"bike_id":"160454de-5064-4328-81b5-dcb81f88ea3d","system_id":"levelo_inurba_marseille","lat":43.301939,"lon":5.366286,"is_reserved":false,"is_disabled":false,"rental_uris":{"android":"levelo://app?vid=160454de-5064-4328-81b5-dcb81f88ea3d","ios":"levelo://app?vid=160454de-5064-4328-81b5-dcb81f88ea3d"},"vehicle_type_id":"4","last_reported":1725811821,"current_range_meters":12400,"station_id":"ce4bgrh2rcd13ifvqc8g","pricing_plan_id":"cebpf4jnsgd1na2vs0mg"},{"bike_id":"001d00be-6e46-4905-b455-06ea3e8c07b4","system_id":"levelo_inurba_marseille","lat":43.308012,"lon":5.381511,"is_reserved":false,"is_disabled":false,"rental_uris":{"android":"levelo://app?vid=001d00be-6e46-4905-b455-06ea3e8c07b4","ios":"levelo://app?vid=001d00be-6e46-4905-b455-06ea3e8c07b4"},"vehicle_type_id":"4","last_reported":1725811821,"current_range_meters":1200,"station_id":"ce4bgt12rcd13ifvqce0","pricing_plan_id":"cebpf4jnsgd1na2vs0mg"},{"bike_id":"2e9dfd6d-fc63-4ea0-8325-b5b0c8a97c3d","system_id":"levelo_inurba_marseille","lat":43.308012,"lon":5.381511,"is_reserved":false,"is_disabled":false,"rental_uris":{"android":"levelo://app?vid=2e9dfd6d-fc63-4ea0-8325-b5b0c8a97c3d","ios":"levelo://app?vid=2e9dfd6d-fc63-4ea0-8325-b5b0c8a97c3d"},"vehicle_type_id":"4","last_reported":1725811821,"current_range_meters":30400,"station_id":"ce4bgt12rcd13ifvqce0","pricing_plan_id":"cebpf4jnsgd1na2vs0mg"},{"bike_id":"b9ad2b0d-9760-49d5-8140-febd08b9449c","system_id":"levelo_inurba_marseille","lat":43.308012,"lon":5.381511,"is_reserved":false,"is_disabled":false,"rental_uris":{"android":"levelo://app?vid=b9ad2b0d-9760-49d5-8140-febd08b9449c","ios":"levelo://app?vid=b9ad2b0d-9760-49d5-8140-febd08b9449c"},"vehicle_type_id":"4","last_reported":1725811821,"current_range_meters":17200,"station_id":"ce4bgt12rcd13ifvqce0","pricing_plan_id":"cebpf4jnsgd1na2vs0mg"},{"bike_id":"a5d20f48-17f1-49bf-9d1f-3ed4bbc7be43","system_id":"levelo_inurba_marseille","lat":43.324771,"lon":5.36557,"is_reserved":false,"is_disabled":false,"rental_uris":{"android":"levelo://app?vid=a5d20f48-17f1-49bf-9d1f-3ed4bbc7be43","ios":"levelo://app?vid=a5d20f48-17f1-49bf-9d1f-3ed4bbc7be43"},"vehicle_type_id":"4","last_reported":1725811821,"current_range_meters":29600,"station_id":"ce4bhs12rcd13ifvqhvg","pricing_plan_id":"cebpf4jnsgd1na2vs0mg"},{"bike_id":"dc716742-3945-453f-baf9-a160846dc5c7","system_id":"levelo_inurba_marseille","lat":43.324771,"lon":5.36557,"is_reserved":false,"is_disabled":false,"rental_uris":{"android":"levelo://app?vid=dc716742-3945-453f-baf9-a160846dc5c7","ios":"levelo://app?vid=dc716742-3945-453f-baf9-a160846dc5c7"},"vehicle_type_id":"4","last_reported":1725811821,"current_range_meters":7200,"station_id":"ce4bhs12rcd13ifvqhvg","pricing_plan_id":"cebpf4jnsgd1na2vs0mg"},{"bike_id":"bb633512-5e11-4046-9584-332c2d533b18","system_id":"levelo_inurba_marseille","lat":43.324771,"lon":5.36557,"is_reserved":false,"is_disabled":false,"rental_uris":{"android":"levelo://app?vid=bb633512-5e11-4046-9584-332c2d533b18","ios":"levelo://app?vid=bb633512-5e11-4046-9584-332c2d533b18"},"vehicle_type_id":"4","last_reported":1725811821,"current_range_meters":18400,"station_id":"ce4bhs12rcd13ifvqhvg","pricing_plan_id":"cebpf4jnsgd1na2vs0mg"},{"bike_id":"28102e89-7931-4e77-bc70-d623f03fda83","system_id":"levelo_inurba_marseille","lat":43.324771,"lon":5.36557,"is_reserved":false,"is_disabled":false,"rental_uris":{"android":"levelo://app?vid=28102e89-7931-4e77-bc70-d623f03fda83","ios":"levelo://app?vid=28102e89-7931-4e77-bc70-d623f03fda83"},"vehicle_type_id":"4","last_reported":1725811821,"current_range_meters":18800,"station_id":"ce4bhs12rcd13ifvqhvg","pricing_plan_id":"cebpf4jnsgd1na2vs0mg"},{"bike_id":"8fbc4527-4b78-4a1b-aa7c-5bed902250df","system_id":"levelo_inurba_marseille","lat":43.324771,"lon":5.36557,"is_reserved":false,"is_disabled":false,"rental_uris":{"android":"levelo://app?vid=8fbc4527-4b78-4a1b-aa7c-5bed902250df","ios":"levelo://app?vid=8fbc4527-4b78-4a1b-aa7c-5bed902250df"},"vehicle_type_id":"4","last_reported":1725811821,"current_range_meters":30000,"station_id":"ce4bhs12rcd13ifvqhvg","pricing_plan_id":"cebpf4jnsgd1na2vs0mg"},{"bike_id":"6c61bdbd-6e35-4fea-aaaf-94a58b260f5d","system_id":"levelo_inurba_marseille","lat":43.32484,"lon":5.36569,"is_reserved":false,"is_disabled":false,"rental_uris":{"android":"levelo://app?vid=6c61bdbd-6e35-4fea-aaaf-94a58b260f5d","ios":"levelo://app?vid=6c61bdbd-6e35-4fea-aaaf-94a58b260f5d"},"vehicle_type_id":"4","last_reported":1725811821,"current_range_meters":30400,"station_id":"ce4bhs12rcd13ifvqhvg","pricing_plan_id":"cebpf4jnsgd1na2vs0mg"},{"bike_id":"8111d373-d8ce-46c3-8612-d016e1f13fb5","system_id":"levelo_inurba_marseille","lat":43.324771,"lon":5.36557,"is_reserved":false,"is_disabled":false,"rental_uris":{"android":"levelo://app?vid=8111d373-d8ce-46c3-8612-d016e1f13fb5","ios":"levelo://app?vid=8111d373-d8ce-46c3-8612-d016e1f13fb5"},"vehicle_type_id":"4","last_reported":1725811821,"current_range_meters":28400,"station_id":"ce4bhs12rcd13ifvqhvg","pricing_plan_id":"cebpf4jnsgd1na2vs0mg"},{"bike_id":"021a88da-6eb7-45f6-b343-81e66cc5e7a9","system_id":"levelo_inurba_marseille","lat":43.324771,"lon":5.36557,"is_reserved":false,"is_disabled":false,"rental_uris":{"android":"levelo://app?vid=021a88da-6eb7-45f6-b343-81e66cc5e7a9","ios":"levelo://app?vid=021a88da-6eb7-45f6-b343-81e66cc5e7a9"},"vehicle_type_id":"4","last_reported":1725811821,"current_range_meters":27600,"station_id":"ce4bhs12rcd13ifvqhvg","pricing_plan_id":"cebpf4jnsgd1na2vs0mg"},{"bike_id":"a9f5029c-9b9d-4188-8343-c91f49dc1947","system_id":"levelo_inurba_marseille","lat":43.324771,"lon":5.36557,"is_reserved":false,"is_disabled":false,"rental_uris":{"android":"levelo://app?vid=a9f5029c-9b9d-4188-8343-c91f49dc1947","ios":"levelo://app?vid=a9f5029c-9b9d-4188-8343-c91f49dc1947"},"vehicle_type_id":"4","last_reported":1725811821,"current_range_meters":15200,"station_id":"ce4bhs12rcd13ifvqhvg","pricing_plan_id":"cebpf4jnsgd1na2vs0mg"},{"bike_id":"f4cf2b14-0787-453d-b183-96238c9a5283","system_id":"levelo_inurba_marseille","lat":43.324771,"lon":5.36557,"is_reserved":false,"is_disabled":false,"rental_uris":{"android":"levelo://app?vid=f4cf2b14-0787-453d-b183-96238c9a5283","ios":"levelo://app?vid=f4cf2b14-0787-453d-b183-96238c9a5283"},"vehicle_type_id":"4","last_reported":1725811821,"current_range_meters":31200,"station_id":"ce4bhs12rcd13ifvqhvg","pricing_plan_id":"cebpf4jnsgd1na2vs0mg"},{"bike_id":"1ebee506-a41b-42e5-882e-37dfe4752dd7","system_id":"levelo_inurba_marseille","lat":43.324771,"lon":5.36557,"is_reserved":false,"is_disabled":false,"rental_uris":{"android":"levelo://app?vid=1ebee506-a41b-42e5-882e-37dfe4752dd7","ios":"levelo://app?vid=1ebee506-a41b-42e5-882e-37dfe4752dd7"},"vehicle_type_id":"4","last_reported":1725811821,"current_range_meters":30000,"station_id":"ce4bhs12rcd13ifvqhvg","pricing_plan_id":"cebpf4jnsgd1na2vs0mg"},{"bike_id":"3e30c3b5-34e5-46b9-8398-dc2a237afbd4","system_id":"levelo_inurba_marseille","lat":43.310804,"lon":5.38359,"is_reserved":false,"is_disabled":false,"rental_uris":{"android":"levelo://app?vid=3e30c3b5-34e5-46b9-8398-dc2a237afbd4","ios":"levelo://app?vid=3e30c3b5-34e5-46b9-8398-dc2a237afbd4"},"vehicle_type_id":"4","last_reported":1725811821,"current_range_meters":0,"station_id":"ce4bgv92rcd13ifvqcr0","pricing_plan_id":"cebpf4jnsgd1na2vs0mg"},{"bike_id":"2265d79e-ba4b-4d8c-b19e-c3bfa4a42615","system_id":"levelo_inurba_marseille","lat":43.310804,"lon":5.38359,"is_reserved":false,"is_disabled":false,"rental_uris":{"android":"levelo://app?vid=2265d79e-ba4b-4d8c-b19e-c3bfa4a42615","ios":"levelo://app?vid=2265d79e-ba4b-4d8c-b19e-c3bfa4a42615"},"vehicle_type_id":"4","last_reported":1725811821,"current_range_meters":6800,"station_id":"ce4bgv92rcd13ifvqcr0","pricing_plan_id":"cebpf4jnsgd1na2vs0mg"},{"bike_id":"e5a0cb8b-df3c-4e64-9032-207e6f566ed7","system_id":"levelo_inurba_marseille","lat":43.30143,"lon":5.37413,"is_reserved":false,"is_disabled":false,"rental_uris":{"android":"levelo://app?vid=e5a0cb8b-df3c-4e64-9032-207e6f566ed7","ios":"levelo://app?vid=e5a0cb8b-df3c-4e64-9032-207e6f566ed7"},"vehicle_type_id":"4","last_reported":1725811821,"current_range_meters":0,"station_id":"ce4bgs92rcd13ifvqcc0","pricing_plan_id":"cebpf4jnsgd1na2vs0mg"},{"bike_id":"7494f73e-0664-4a26-96f0-95f6e959d08f","system_id":"levelo_inurba_marseille","lat":43.302784,"lon":5.377158,"is_reserved":false,"is_disabled":false,"rental_uris":{"android":"levelo://app?vid=7494f73e-0664-4a26-96f0-95f6e959d08f","ios":"levelo://app?vid=7494f73e-0664-4a26-96f0-95f6e959d08f"},"vehicle_type_id":"4","last_reported":1725811821,"current_range_meters":20000,"station_id":"ce4bguh2rcd13ifvqcj0","pricing_plan_id":"cebpf4jnsgd1na2vs0mg"},{"bike_id":"8a780604-247b-47f8-8506-9d91af66a595","system_id":"levelo_inurba_marseille","lat":43.302784,"lon":5.377158,"is_reserved":false,"is_disabled":false,"rental_uris":{"android":"levelo://app?vid=8a780604-247b-47f8-8506-9d91af66a595","ios":"levelo://app?vid=8a780604-247b-47f8-8506-9d91af66a595"},"vehicle_type_id":"4","last_reported":1725811821,"current_range_meters":16000,"station_id":"ce4bguh2rcd13ifvqcj0","pricing_plan_id":"cebpf4jnsgd1na2vs0mg"},{"bike_id":"67d4d8cb-6d39-4214-8161-d25f595a39a0","system_id":"levelo_inurba_marseille","lat":43.31994,"lon":5.38152,"is_reserved":false,"is_disabled":false,"rental_uris":{"android":"levelo://app?vid=67d4d8cb-6d39-4214-8161-d25f595a39a0","ios":"levelo://app?vid=67d4d8cb-6d39-4214-8161-d25f595a39a0"},"vehicle_type_id":"4","last_reported":1725811821,"current_range_meters":3600,"station_id":"ce4bhr12rcd13ifvqhpg","pricing_plan_id":"cebpf4jnsgd1na2vs0mg"},{"bike_id":"09df98f6-2f8b-43ca-9136-53bafba49dfb","system_id":"levelo_inurba_marseille","lat":43.319935,"lon":5.381699,"is_reserved":false,"is_disabled":false,"rental_uris":{"android":"levelo://app?vid=09df98f6-2f8b-43ca-9136-53bafba49dfb","ios":"levelo://app?vid=09df98f6-2f8b-43ca-9136-53bafba49dfb"},"vehicle_type_id":"4","last_reported":1725811821,"current_range_meters":24400,"station_id":"ce4bhr12rcd13ifvqhpg","pricing_plan_id":"cebpf4jnsgd1na2vs0mg"},{"bike_id":"fbeeec25-1c37-45e4-b4a8-22c3ea848755","system_id":"levelo_inurba_marseille","lat":43.313571,"lon":5.384829,"is_reserved":false,"is_disabled":false,"rental_uris":{"android":"levelo://app?vid=fbeeec25-1c37-45e4-b4a8-22c3ea848755","ios":"levelo://app?vid=fbeeec25-1c37-45e4-b4a8-22c3ea848755"},"vehicle_type_id":"4","last_reported":1725811821,"current_range_meters":2800,"station_id":"ce4bgt92rcd13ifvqcf0","pricing_plan_id":"cebpf4jnsgd1na2vs0mg"},{"bike_id":"3e3bf617-9efe-48eb-bb9a-16ed12671c55","system_id":"levelo_inurba_marseille","lat":43.299846,"lon":5.371733,"is_reserved":false,"is_disabled":false,"rental_uris":{"android":"levelo://app?vid=3e3bf617-9efe-48eb-bb9a-16ed12671c55","ios":"levelo://app?vid=3e3bf617-9efe-48eb-bb9a-16ed12671c55"},"vehicle_type_id":"4","last_reported":1725811821,"current_range_meters":28000,"station_id":"ce4bgr92rcd13ifvqc7g","pricing_plan_id":"cebpf4jnsgd1na2vs0mg"},{"bike_id":"9214c439-7db5-4e1f-9e2b-9da2d37e7d5d","system_id":"levelo_inurba_marseille","lat":43.299724,"lon":5.371829,"is_reserved":false,"is_disabled":false,"rental_uris":{"android":"levelo://app?vid=9214c439-7db5-4e1f-9e2b-9da2d37e7d5d","ios":"levelo://app?vid=9214c439-7db5-4e1f-9e2b-9da2d37e7d5d"},"vehicle_type_id":"4","last_reported":1725811821,"current_range_meters":8000,"station_id":"ce4bgr92rcd13ifvqc7g","pricing_plan_id":"cebpf4jnsgd1na2vs0mg"},{"bike_id":"c18e1ada-85dd-43cf-b36b-b883c3fb2309","system_id":"levelo_inurba_marseille","lat":43.299724,"lon":5.371829,"is_reserved":false,"is_disabled":false,"rental_uris":{"android":"levelo://app?vid=c18e1ada-85dd-43cf-b36b-b883c3fb2309","ios":"levelo://app?vid=c18e1ada-85dd-43cf-b36b-b883c3fb2309"},"vehicle_type_id":"4","last_reported":1725811821,"current_range_meters":22400,"station_id":"ce4bgr92rcd13ifvqc7g","pricing_plan_id":"cebpf4jnsgd1na2vs0mg"},{"bike_id":"6b52b2fd-1549-4aef-82f7-6b8b9c2a9ebb","system_id":"levelo_inurba_marseille","lat":43.30577,"lon":5.38367,"is_reserved":false,"is_disabled":false,"rental_uris":{"android":"levelo://app?vid=6b52b2fd-1549-4aef-82f7-6b8b9c2a9ebb","ios":"levelo://app?vid=6b52b2fd-1549-4aef-82f7-6b8b9c2a9ebb"},"vehicle_type_id":"4","last_reported":1725811821,"current_range_meters":0,"station_id":"","pricing_plan_id":"cebpf4jnsgd1na2vs0mg"},{"bike_id":"fc8b0865-95fc-4796-956c-7a37a9a5f73e","system_id":"levelo_inurba_marseille","lat":43.311722,"lon":5.387247,"is_reserved":false,"is_disabled":false,"rental_uris":{"android":"levelo://app?vid=fc8b0865-95fc-4796-956c-7a37a9a5f73e","ios":"levelo://app?vid=fc8b0865-95fc-4796-956c-7a37a9a5f73e"},"vehicle_type_id":"4","last_reported":1725811821,"current_range_meters":26800,"station_id":"ce4bgv12rcd13ifvqcp0","pricing_plan_id":"cebpf4jnsgd1na2vs0mg"},{"bike_id":"ededc385-8e6f-4bc4-bcaf-12e7c1c38d5b","system_id":"levelo_inurba_marseille","lat":43.31175,"lon":5.38711,"is_reserved":false,"is_disabled":false,"rental_uris":{"android":"levelo://app?vid=ededc385-8e6f-4bc4-bcaf-12e7c1c38d5b","ios":"levelo://app?vid=ededc385-8e6f-4bc4-bcaf-12e7c1c38d5b"},"vehicle_type_id":"4","last_reported":1725811821,"current_range_meters":29600,"station_id":"ce4bgv12rcd13ifvqcp0","pricing_plan_id":"cebpf4jnsgd1na2vs0mg"},{"bike_id":"f7571495-1e44-4287-86ec-eb398fd233f5","system_id":"levelo_inurba_marseille","lat":43.30155,"lon":5.380787,"is_reserved":false,"is_disabled":false,"rental_uris":{"android":"levelo://app?vid=f7571495-1e44-4287-86ec-eb398fd233f5","ios":"levelo://app?vid=f7571495-1e44-4287-86ec-eb398fd233f5"},"vehicle_type_id":"4","last_reported":1725811821,"current_range_meters":0,"station_id":"ce4bgjp2rcd13ifvqbh0","pricing_plan_id":"cebpf4jnsgd1na2vs0mg"},{"bike_id":"f9388fa4-7de1-491f-8a5a-20295123f7ef","system_id":"levelo_inurba_marseille","lat":43.301417,"lon":5.3809,"is_reserved":false,"is_disabled":false,"rental_uris":{"android":"levelo://app?vid=f9388fa4-7de1-491f-8a5a-20295123f7ef","ios":"levelo://app?vid=f9388fa4-7de1-491f-8a5a-20295123f7ef"},"vehicle_type_id":"4","last_reported":1725811821,"current_range_meters":28400,"station_id":"ce4bgjp2rcd13ifvqbh0","pricing_plan_id":"cebpf4jnsgd1na2vs0mg"},{"bike_id":"62953769-bad5-49c0-81ed-44b4d9f5698f","system_id":"levelo_inurba_marseille","lat":43.297849,"lon":5.371126,"is_reserved":false,"is_disabled":false,"rental_uris":{"android":"levelo://app?vid=62953769-bad5-49c0-81ed-44b4d9f5698f","ios":"levelo://app?vid=62953769-bad5-49c0-81ed-44b4d9f5698f"},"vehicle_type_id":"4","last_reported":1725811821,"current_range_meters":25200,"station_id":"ce4bgop2rcd13ifvqc1g","pricing_plan_id":"cebpf4jnsgd1na2vs0mg"},{"bike_id":"c44588a4-f0c3-4e47-9551-12f24c76e247","system_id":"levelo_inurba_marseille","lat":43.322872,"lon":5.382756,"is_reserved":false,"is_disabled":false,"rental_uris":{"android":"levelo://app?vid=c44588a4-f0c3-4e47-9551-12f24c76e247","ios":"levelo://app?vid=c44588a4-f0c3-4e47-9551-12f24c76e247"},"vehicle_type_id":"4","last_reported":1725811821,"current_range_meters":29600,"station_id":"ce4bhr12rcd13ifvqhqg","pricing_plan_id":"cebpf4jnsgd1na2vs0mg"},{"bike_id":"9d4d4ad3-9fa4-4394-8995-8a5887e80cc8","system_id":"levelo_inurba_marseille","lat":43.322872,"lon":5.382756,"is_reserved":false,"is_disabled":false,"rental_uris":{"android":"levelo://app?vid=9d4d4ad3-9fa4-4394-8995-8a5887e80cc8","ios":"levelo://app?vid=9d4d4ad3-9fa4-4394-8995-8a5887e80cc8"},"vehicle_type_id":"4","last_reported":1725811821,"current_range_meters":6000,"station_id":"ce4bhr12rcd13ifvqhqg","pricing_plan_id":"cebpf4jnsgd1na2vs0mg"},{"bike_id":"2e865a37-4525-4154-bfa5-2e253b800524","system_id":"levelo_inurba_marseille","lat":43.322872,"lon":5.382756,"is_reserved":false,"is_disabled":false,"rental_uris":{"android":"levelo://app?vid=2e865a37-4525-4154-bfa5-2e253b800524","ios":"levelo://app?vid=2e865a37-4525-4154-bfa5-2e253b800524"},"vehicle_type_id":"4","last_reported":1725811821,"current_range_meters":29600,"station_id":"ce4bhr12rcd13ifvqhqg","pricing_plan_id":"cebpf4jnsgd1na2vs0mg"},{"bike_id":"1a5f8300-291b-493d-ad5b-ec07f0eaf598","system_id":"levelo_inurba_marseille","lat":43.322872,"lon":5.382756,"is_reserved":false,"is_disabled":false,"rental_uris":{"android":"levelo://app?vid=1a5f8300-291b-493d-ad5b-ec07f0eaf598","ios":"levelo://app?vid=1a5f8300-291b-493d-ad5b-ec07f0eaf598"},"vehicle_type_id":"4","last_reported":1725811821,"current_range_meters":20800,"station_id":"ce4bhr12rcd13ifvqhqg","pricing_plan_id":"cebpf4jnsgd1na2vs0mg"},{"bike_id":"9f3c2805-cca9-4d7f-85a1-34eb3d61c76a","system_id":"levelo_inurba_marseille","lat":43.322872,"lon":5.382756,"is_reserved":false,"is_disabled":false,"rental_uris":{"android":"levelo://app?vid=9f3c2805-cca9-4d7f-85a1-34eb3d61c76a","ios":"levelo://app?vid=9f3c2805-cca9-4d7f-85a1-34eb3d61c76a"},"vehicle_type_id":"4","last_reported":1725811821,"current_range_meters":16000,"station_id":"ce4bhr12rcd13ifvqhqg","pricing_plan_id":"cebpf4jnsgd1na2vs0mg"},{"bike_id":"9eaf78ea-975f-446c-bb37-4949d6f5be54","system_id":"levelo_inurba_marseille","lat":43.298324,"lon":5.376634,"is_reserved":false,"is_disabled":false,"rental_uris":{"android":"levelo://app?vid=9eaf78ea-975f-446c-bb37-4949d6f5be54","ios":"levelo://app?vid=9eaf78ea-975f-446c-bb37-4949d6f5be54"},"vehicle_type_id":"4","last_reported":1725811821,"current_range_meters":30400,"station_id":"","pricing_plan_id":"cebpf4jnsgd1na2vs0mg"},{"bike_id":"105bc4e8-c71e-4b5d-b34c-269838fe1e0e","system_id":"levelo_inurba_marseille","lat":43.31586,"lon":5.3887,"is_reserved":false,"is_disabled":false,"rental_uris":{"android":"levelo://app?vid=105bc4e8-c71e-4b5d-b34c-269838fe1e0e","ios":"levelo://app?vid=105bc4e8-c71e-4b5d-b34c-269838fe1e0e"},"vehicle_type_id":"4","last_reported":1725811821,"current_range_meters":10000,"station_id":"","pricing_plan_id":"cebpf4jnsgd1na2vs0mg"},{"bike_id":"8a8887de-5c7d-4b1c-91b2-78e9c920b48d","system_id":"levelo_inurba_marseille","lat":43.2968,"lon":5.37291,"is_reserved":false,"is_disabled":false,"rental_uris":{"android":"levelo://app?vid=8a8887de-5c7d-4b1c-91b2-78e9c920b48d","ios":"levelo://app?vid=8a8887de-5c7d-4b1c-91b2-78e9c920b48d"},"vehicle_type_id":"4","last_reported":1725811821,"current_range_meters":29600,"station_id":"ce4bgk12rcd13ifvqbj0","pricing_plan_id":"cebpf4jnsgd1na2vs0mg"},{"bike_id":"a9424301-c620-4953-93e1-9d800a2bc453","system_id":"levelo_inurba_marseille","lat":43.296131,"lon":5.370773,"is_reserved":false,"is_disabled":false,"rental_uris":{"android":"levelo://app?vid=a9424301-c620-4953-93e1-9d800a2bc453","ios":"levelo://app?vid=a9424301-c620-4953-93e1-9d800a2bc453"},"vehicle_type_id":"4","last_reported":1725811821,"current_range_meters":30400,"station_id":"ce4bgnh2rcd13ifvqc0g","pricing_plan_id":"cebpf4jnsgd1na2vs0mg"},{"bike_id":"d66d473e-0f9b-44ba-a6c8-61eb76c50fb6","system_id":"levelo_inurba_marseille","lat":43.296131,"lon":5.370791,"is_reserved":false,"is_disabled":false,"rental_uris":{"android":"levelo://app?vid=d66d473e-0f9b-44ba-a6c8-61eb76c50fb6","ios":"levelo://app?vid=d66d473e-0f9b-44ba-a6c8-61eb76c50fb6"},"vehicle_type_id":"4","last_reported":1725811821,"current_range_meters":1600,"station_id":"ce4bgnh2rcd13ifvqc0g","pricing_plan_id":"cebpf4jnsgd1na2vs0mg"},{"bike_id":"3f160ad9-6a8c-4c16-83be-05e7ff6340e5","system_id":"levelo_inurba_marseille","lat":43.29573,"lon":5.367355,"is_reserved":false,"is_disabled":false,"rental_uris":{"android":"levelo://app?vid=3f160ad9-6a8c-4c16-83be-05e7ff6340e5","ios":"levelo://app?vid=3f160ad9-6a8c-4c16-83be-05e7ff6340e5"},"vehicle_type_id":"4","last_reported":1725811821,"current_range_meters":16800,"station_id":"ce4bgph2rcd13ifvqc2g","pricing_plan_id":"cebpf4jnsgd1na2vs0mg"},{"bike_id":"d11aba0f-ec17-4228-97d9-9484a5c318e0","system_id":"levelo_inurba_marseille","lat":43.29727,"lon":5.37682,"is_reserved":false,"is_disabled":false,"rental_uris":{"android":"levelo://app?vid=d11aba0f-ec17-4228-97d9-9484a5c318e0","ios":"levelo://app?vid=d11aba0f-ec17-4228-97d9-9484a5c318e0"},"vehicle_type_id":"4","last_reported":1725811821,"current_range_meters":15600,"station_id":"ce4bgkh2rcd13ifvqbl0","pricing_plan_id":"cebpf4jnsgd1na2vs0mg"},{"bike_id":"3c1bc459-f948-4bf1-9421-6f9ebed20305","system_id":"levelo_inurba_marseille","lat":43.296935,"lon":5.376544,"is_reserved":false,"is_disabled":false,"rental_uris":{"android":"levelo://app?vid=3c1bc459-f948-4bf1-9421-6f9ebed20305","ios":"levelo://app?vid=3c1bc459-f948-4bf1-9421-6f9ebed20305"},"vehicle_type_id":"4","last_reported":1725811821,"current_range_meters":17600,"station_id":"ce4bgkh2rcd13ifvqbl0","pricing_plan_id":"cebpf4jnsgd1na2vs0mg"},{"bike_id":"3b432336-9d9c-470a-a3d3-904c15f27b67","system_id":"levelo_inurba_marseille","lat":43.299028,"lon":5.381509,"is_reserved":false,"is_disabled":false,"rental_uris":{"android":"levelo://app?vid=3b432336-9d9c-470a-a3d3-904c15f27b67","ios":"levelo://app?vid=3b432336-9d9c-470a-a3d3-904c15f27b67"},"vehicle_type_id":"4","last_reported":1725811821,"current_range_meters":15600,"station_id":"ce4bgj12rcd13ifvqbc0","pricing_plan_id":"cebpf4jnsgd1na2vs0mg"},{"bike_id":"1780098d-4ab1-4aca-a350-3f87d61323e1","system_id":"levelo_inurba_marseille","lat":43.309634,"lon":5.39024,"is_reserved":false,"is_disabled":false,"rental_uris":{"android":"levelo://app?vid=1780098d-4ab1-4aca-a350-3f87d61323e1","ios":"levelo://app?vid=1780098d-4ab1-4aca-a350-3f87d61323e1"},"vehicle_type_id":"4","last_reported":1725811821,"current_range_meters":30000,"station_id":"ce4bgup2rcd13ifvqco0","pricing_plan_id":"cebpf4jnsgd1na2vs0mg"},{"bike_id":"429cf99c-aa1d-4142-9dee-50512f2dc217","system_id":"levelo_inurba_marseille","lat":43.296921,"lon":5.376579,"is_reserved":false,"is_disabled":false,"rental_uris":{"android":"levelo://app?vid=429cf99c-aa1d-4142-9dee-50512f2dc217","ios":"levelo://app?vid=429cf99c-aa1d-4142-9dee-50512f2dc217"},"vehicle_type_id":"4","last_reported":1725811821,"current_range_meters":1200,"station_id":"ce4bgkh2rcd13ifvqbl0","pricing_plan_id":"cebpf4jnsgd1na2vs0mg"},{"bike_id":"20f1196b-cf0f-4ce9-a7ad-2fa8c64471c3","system_id":"levelo_inurba_marseille","lat":43.3095,"lon":5.39025,"is_reserved":false,"is_disabled":false,"rental_uris":{"android":"levelo://app?vid=20f1196b-cf0f-4ce9-a7ad-2fa8c64471c3","ios":"levelo://app?vid=20f1196b-cf0f-4ce9-a7ad-2fa8c64471c3"},"vehicle_type_id":"4","last_reported":1725811821,"current_range_meters":16800,"station_id":"ce4bgup2rcd13ifvqco0","pricing_plan_id":"cebpf4jnsgd1na2vs0mg"},{"bike_id":"a72d345d-6ef5-4a8b-995f-54823381fb33","system_id":"levelo_inurba_marseille","lat":43.30962,"lon":5.3903,"is_reserved":false,"is_disabled":false,"rental_uris":{"android":"levelo://app?vid=a72d345d-6ef5-4a8b-995f-54823381fb33","ios":"levelo://app?vid=a72d345d-6ef5-4a8b-995f-54823381fb33"},"vehicle_type_id":"4","last_reported":1725811821,"current_range_meters":31200,"station_id":"ce4bgup2rcd13ifvqco0","pricing_plan_id":"cebpf4jnsgd1na2vs0mg"},{"bike_id":"06362943-4a97-42c9-baba-eb5c4236cd5f","system_id":"levelo_inurba_marseille","lat":43.309589,"lon":5.390258,"is_reserved":false,"is_disabled":false,"rental_uris":{"android":"levelo://app?vid=06362943-4a97-42c9-baba-eb5c4236cd5f","ios":"levelo://app?vid=06362943-4a97-42c9-baba-eb5c4236cd5f"},"vehicle_type_id":"4","last_reported":1725811821,"current_range_meters":19200,"station_id":"ce4bgup2rcd13ifvqco0","pricing_plan_id":"cebpf4jnsgd1na2vs0mg"},{"bike_id":"b75c0861-e4aa-4e94-8b3d-2865858a06ec","system_id":"levelo_inurba_marseille","lat":43.309589,"lon":5.390258,"is_reserved":false,"is_disabled":false,"rental_uris":{"android":"levelo://app?vid=b75c0861-e4aa-4e94-8b3d-2865858a06ec","ios":"levelo://app?vid=b75c0861-e4aa-4e94-8b3d-2865858a06ec"},"vehicle_type_id":"4","last_reported":1725811821,"current_range_meters":18800,"station_id":"ce4bgup2rcd13ifvqco0","pricing_plan_id":"cebpf4jnsgd1na2vs0mg"},{"bike_id":"6d5fcb52-5e03-4a44-99a9-9e1cb61f7c14","system_id":"levelo_inurba_marseille","lat":43.309589,"lon":5.390258,"is_reserved":false,"is_disabled":false,"rental_uris":{"android":"levelo://app?vid=6d5fcb52-5e03-4a44-99a9-9e1cb61f7c14","ios":"levelo://app?vid=6d5fcb52-5e03-4a44-99a9-9e1cb61f7c14"},"vehicle_type_id":"4","last_reported":1725811821,"current_range_meters":5600,"station_id":"ce4bgup2rcd13ifvqco0","pricing_plan_id":"cebpf4jnsgd1na2vs0mg"},{"bike_id":"2ff78ae9-60e6-41c3-b907-4a614003b34d","system_id":"levelo_inurba_marseille","lat":43.299028,"lon":5.381509,"is_reserved":false,"is_disabled":false,"rental_uris":{"android":"levelo://app?vid=2ff78ae9-60e6-41c3-b907-4a614003b34d","ios":"levelo://app?vid=2ff78ae9-60e6-41c3-b907-4a614003b34d"},"vehicle_type_id":"4","last_reported":1725811821,"current_range_meters":26400,"station_id":"ce4bgj12rcd13ifvqbc0","pricing_plan_id":"cebpf4jnsgd1na2vs0mg"},{"bike_id":"4ef26895-261c-457a-89fb-070021d5228f","system_id":"levelo_inurba_marseille","lat":43.299028,"lon":5.381509,"is_reserved":false,"is_disabled":false,"rental_uris":{"android":"levelo://app?vid=4ef26895-261c-457a-89fb-070021d5228f","ios":"levelo://app?vid=4ef26895-261c-457a-89fb-070021d5228f"},"vehicle_type_id":"4","last_reported":1725811821,"current_range_meters":31200,"station_id":"ce4bgj12rcd13ifvqbc0","pricing_plan_id":"cebpf4jnsgd1na2vs0mg"},{"bike_id":"1563b6ef-082c-4128-8e87-c9809604e6bd","system_id":"levelo_inurba_marseille","lat":43.30962,"lon":5.39034,"is_reserved":false,"is_disabled":false,"rental_uris":{"android":"levelo://app?vid=1563b6ef-082c-4128-8e87-c9809604e6bd","ios":"levelo://app?vid=1563b6ef-082c-4128-8e87-c9809604e6bd"},"vehicle_type_id":"4","last_reported":1725811821,"current_range_meters":24400,"station_id":"ce4bgup2rcd13ifvqco0","pricing_plan_id":"cebpf4jnsgd1na2vs0mg"},{"bike_id":"0012fedf-183d-40a7-a7e4-09178f770822","system_id":"levelo_inurba_marseille","lat":43.30954,"lon":5.39048,"is_reserved":false,"is_disabled":false,"rental_uris":{"android":"levelo://app?vid=0012fedf-183d-40a7-a7e4-09178f770822","ios":"levelo://app?vid=0012fedf-183d-40a7-a7e4-09178f770822"},"vehicle_type_id":"4","last_reported":1725811821,"current_range_meters":3600,"station_id":"ce4bgup2rcd13ifvqco0","pricing_plan_id":"cebpf4jnsgd1na2vs0mg"},{"bike_id":"db7abdc0-f9b8-47dd-9422-2897b2b07c5f","system_id":"levelo_inurba_marseille","lat":43.317557,"lon":5.390173,"is_reserved":false,"is_disabled":false,"rental_uris":{"android":"levelo://app?vid=db7abdc0-f9b8-47dd-9422-2897b2b07c5f","ios":"levelo://app?vid=db7abdc0-f9b8-47dd-9422-2897b2b07c5f"},"vehicle_type_id":"4","last_reported":1725811821,"current_range_meters":21200,"station_id":"ce4bhqp2rcd13ifvqhng","pricing_plan_id":"cebpf4jnsgd1na2vs0mg"},{"bike_id":"1bdcd090-5543-491e-bac6-6bd04b874479","system_id":"levelo_inurba_marseille","lat":43.317557,"lon":5.390173,"is_reserved":false,"is_disabled":false,"rental_uris":{"android":"levelo://app?vid=1bdcd090-5543-491e-bac6-6bd04b874479","ios":"levelo://app?vid=1bdcd090-5543-491e-bac6-6bd04b874479"},"vehicle_type_id":"4","last_reported":1725811821,"current_range_meters":30000,"station_id":"ce4bhqp2rcd13ifvqhng","pricing_plan_id":"cebpf4jnsgd1na2vs0mg"},{"bike_id":"10f69fe8-7773-460f-8cbc-84d5043d302b","system_id":"levelo_inurba_marseille","lat":43.32253,"lon":5.387034,"is_reserved":false,"is_disabled":false,"rental_uris":{"android":"levelo://app?vid=10f69fe8-7773-460f-8cbc-84d5043d302b","ios":"levelo://app?vid=10f69fe8-7773-460f-8cbc-84d5043d302b"},"vehicle_type_id":"4","last_reported":1725811821,"current_range_meters":18800,"station_id":"","pricing_plan_id":"cebpf4jnsgd1na2vs0mg"},{"bike_id":"d04a88e5-3db7-443f-82f2-60e4c7c80e09","system_id":"levelo_inurba_marseille","lat":43.298037,"lon":5.381066,"is_reserved":false,"is_disabled":false,"rental_uris":{"android":"levelo://app?vid=d04a88e5-3db7-443f-82f2-60e4c7c80e09","ios":"levelo://app?vid=d04a88e5-3db7-443f-82f2-60e4c7c80e09"},"vehicle_type_id":"4","last_reported":1725811821,"current_range_meters":0,"station_id":"ce4bgip2rcd13ifvqbb0","pricing_plan_id":"cebpf4jnsgd1na2vs0mg"},{"bike_id":"ae2b9048-2898-4763-8dac-d84745a05f29","system_id":"levelo_inurba_marseille","lat":43.298037,"lon":5.381066,"is_reserved":false,"is_disabled":false,"rental_uris":{"android":"levelo://app?vid=ae2b9048-2898-4763-8dac-d84745a05f29","ios":"levelo://app?vid=ae2b9048-2898-4763-8dac-d84745a05f29"},"vehicle_type_id":"4","last_reported":1725811821,"current_range_meters":16000,"station_id":"ce4bgip2rcd13ifvqbb0","pricing_plan_id":"cebpf4jnsgd1na2vs0mg"},{"bike_id":"85b4bb1c-e353-4a70-abf7-589b8945a104","system_id":"levelo_inurba_marseille","lat":43.29805,"lon":5.38101,"is_reserved":false,"is_disabled":false,"rental_uris":{"android":"levelo://app?vid=85b4bb1c-e353-4a70-abf7-589b8945a104","ios":"levelo://app?vid=85b4bb1c-e353-4a70-abf7-589b8945a104"},"vehicle_type_id":"4","last_reported":1725811821,"current_range_meters":0,"station_id":"ce4bgip2rcd13ifvqbb0","pricing_plan_id":"cebpf4jnsgd1na2vs0mg"},{"bike_id":"53e1d79c-619d-4f0a-9d1d-e473bfaece90","system_id":"levelo_inurba_marseille","lat":43.295748,"lon":5.37522,"is_reserved":false,"is_disabled":false,"rental_uris":{"android":"levelo://app?vid=53e1d79c-619d-4f0a-9d1d-e473bfaece90","ios":"levelo://app?vid=53e1d79c-619d-4f0a-9d1d-e473bfaece90"},"vehicle_type_id":"4","last_reported":1725811821,"current_range_meters":0,"station_id":"ce4bgh92rcd13ifvqb50","pricing_plan_id":"cebpf4jnsgd1na2vs0mg"},{"bike_id":"41171336-d20e-4c16-b0a5-85e023e37175","system_id":"levelo_inurba_marseille","lat":43.304278,"lon":5.388868,"is_reserved":false,"is_disabled":false,"rental_uris":{"android":"levelo://app?vid=41171336-d20e-4c16-b0a5-85e023e37175","ios":"levelo://app?vid=41171336-d20e-4c16-b0a5-85e023e37175"},"vehicle_type_id":"4","last_reported":1725811821,"current_range_meters":6800,"station_id":"ce4bgk12rcd13ifvqbi0","pricing_plan_id":"cebpf4jnsgd1na2vs0mg"},{"bike_id":"ba003971-f06d-4727-adfc-ba990ec4d149","system_id":"levelo_inurba_marseille","lat":43.295748,"lon":5.37522,"is_reserved":false,"is_disabled":false,"rental_uris":{"android":"levelo://app?vid=ba003971-f06d-4727-adfc-ba990ec4d149","ios":"levelo://app?vid=ba003971-f06d-4727-adfc-ba990ec4d149"},"vehicle_type_id":"4","last_reported":1725811821,"current_range_meters":13600,"station_id":"ce4bgh92rcd13ifvqb50","pricing_plan_id":"cebpf4jnsgd1na2vs0mg"},{"bike_id":"91b6a096-9209-4263-bb9c-fbb102713f42","system_id":"levelo_inurba_marseille","lat":43.304274,"lon":5.388873,"is_reserved":false,"is_disabled":false,"rental_uris":{"android":"levelo://app?vid=91b6a096-9209-4263-bb9c-fbb102713f42","ios":"levelo://app?vid=91b6a096-9209-4263-bb9c-fbb102713f42"},"vehicle_type_id":"4","last_reported":1725811821,"current_range_meters":18800,"station_id":"ce4bgk12rcd13ifvqbi0","pricing_plan_id":"cebpf4jnsgd1na2vs0mg"},{"bike_id":"8e2558fc-102d-425e-bbf2-3eaadd80a2e2","system_id":"levelo_inurba_marseille","lat":43.298037,"lon":5.381066,"is_reserved":false,"is_disabled":false,"rental_uris":{"android":"levelo://app?vid=8e2558fc-102d-425e-bbf2-3eaadd80a2e2","ios":"levelo://app?vid=8e2558fc-102d-425e-bbf2-3eaadd80a2e2"},"vehicle_type_id":"4","last_reported":1725811821,"current_range_meters":12000,"station_id":"ce4bgip2rcd13ifvqbb0","pricing_plan_id":"cebpf4jnsgd1na2vs0mg"},{"bike_id":"0f44e104-887a-4316-ace6-04a8a44756ad","system_id":"levelo_inurba_marseille","lat":43.304274,"lon":5.388873,"is_reserved":false,"is_disabled":false,"rental_uris":{"android":"levelo://app?vid=0f44e104-887a-4316-ace6-04a8a44756ad","ios":"levelo://app?vid=0f44e104-887a-4316-ace6-04a8a44756ad"},"vehicle_type_id":"4","last_reported":1725811821,"current_range_meters":16400,"station_id":"ce4bgk12rcd13ifvqbi0","pricing_plan_id":"cebpf4jnsgd1na2vs0mg"},{"bike_id":"9e805a57-a674-4dfa-9bc3-893945d206fb","system_id":"levelo_inurba_marseille","lat":43.298037,"lon":5.381066,"is_reserved":false,"is_disabled":false,"rental_uris":{"android":"levelo://app?vid=9e805a57-a674-4dfa-9bc3-893945d206fb","ios":"levelo://app?vid=9e805a57-a674-4dfa-9bc3-893945d206fb"},"vehicle_type_id":"4","last_reported":1725811821,"current_range_meters":6400,"station_id":"ce4bgip2rcd13ifvqbb0","pricing_plan_id":"cebpf4jnsgd1na2vs0mg"},{"bike_id":"9ddd2700-2ead-4b62-b499-fe86bef8f6f2","system_id":"levelo_inurba_marseille","lat":43.298037,"lon":5.381066,"is_reserved":false,"is_disabled":false,"rental_uris":{"android":"levelo://app?vid=9ddd2700-2ead-4b62-b499-fe86bef8f6f2","ios":"levelo://app?vid=9ddd2700-2ead-4b62-b499-fe86bef8f6f2"},"vehicle_type_id":"4","last_reported":1725811821,"current_range_meters":19200,"station_id":"ce4bgip2rcd13ifvqbb0","pricing_plan_id":"cebpf4jnsgd1na2vs0mg"},{"bike_id":"d8bd0940-b2f1-4aad-afbc-0b7409aff0d1","system_id":"levelo_inurba_marseille","lat":43.298037,"lon":5.381066,"is_reserved":false,"is_disabled":false,"rental_uris":{"android":"levelo://app?vid=d8bd0940-b2f1-4aad-afbc-0b7409aff0d1","ios":"levelo://app?vid=d8bd0940-b2f1-4aad-afbc-0b7409aff0d1"},"vehicle_type_id":"4","last_reported":1725811821,"current_range_meters":26000,"station_id":"ce4bgip2rcd13ifvqbb0","pricing_plan_id":"cebpf4jnsgd1na2vs0mg"},{"bike_id":"0fcb1173-979e-4dbe-b0b8-1c8b39c0b1be","system_id":"levelo_inurba_marseille","lat":43.298037,"lon":5.381066,"is_reserved":false,"is_disabled":false,"rental_uris":{"android":"levelo://app?vid=0fcb1173-979e-4dbe-b0b8-1c8b39c0b1be","ios":"levelo://app?vid=0fcb1173-979e-4dbe-b0b8-1c8b39c0b1be"},"vehicle_type_id":"4","last_reported":1725811821,"current_range_meters":22400,"station_id":"ce4bgip2rcd13ifvqbb0","pricing_plan_id":"cebpf4jnsgd1na2vs0mg"},{"bike_id":"62d21f00-e742-423b-a51f-7175e5affa33","system_id":"levelo_inurba_marseille","lat":43.296277,"lon":5.377108,"is_reserved":false,"is_disabled":false,"rental_uris":{"android":"levelo://app?vid=62d21f00-e742-423b-a51f-7175e5affa33","ios":"levelo://app?vid=62d21f00-e742-423b-a51f-7175e5affa33"},"vehicle_type_id":"4","last_reported":1725811821,"current_range_meters":6400,"station_id":"ce4bgi92rcd13ifvqb90","pricing_plan_id":"cebpf4jnsgd1na2vs0mg"},{"bike_id":"bbb8f484-096f-44c3-9583-b9147b823285","system_id":"levelo_inurba_marseille","lat":43.29615,"lon":5.37713,"is_reserved":false,"is_disabled":false,"rental_uris":{"android":"levelo://app?vid=bbb8f484-096f-44c3-9583-b9147b823285","ios":"levelo://app?vid=bbb8f484-096f-44c3-9583-b9147b823285"},"vehicle_type_id":"4","last_reported":1725811821,"current_range_meters":6000,"station_id":"ce4bgi92rcd13ifvqb90","pricing_plan_id":"cebpf4jnsgd1na2vs0mg"},{"bike_id":"ee483eef-1b84-49c5-8389-c68d4576c131","system_id":"levelo_inurba_marseille","lat":43.294153,"lon":5.386305,"is_reserved":false,"is_disabled":false,"rental_uris":{"android":"levelo://app?vid=ee483eef-1b84-49c5-8389-c68d4576c131","ios":"levelo://app?vid=ee483eef-1b84-49c5-8389-c68d4576c131"},"vehicle_type_id":"4","last_reported":1725811821,"current_range_meters":8400,"station_id":"ce4bh2h2rcd13ifvqdh0","pricing_plan_id":"cebpf4jnsgd1na2vs0mg"},{"bike_id":"c0c679c8-3f6e-4b60-b158-44f4a9e89814","system_id":"levelo_inurba_marseille","lat":43.29976,"lon":5.38477,"is_reserved":false,"is_disabled":false,"rental_uris":{"android":"levelo://app?vid=c0c679c8-3f6e-4b60-b158-44f4a9e89814","ios":"levelo://app?vid=c0c679c8-3f6e-4b60-b158-44f4a9e89814"},"vehicle_type_id":"4","last_reported":1725811821,"current_range_meters":0,"station_id":"ce4bgj92rcd13ifvqbd0","pricing_plan_id":"cebpf4jnsgd1na2vs0mg"},{"bike_id":"876b8935-ebbb-4a9e-8aa2-3d1ecb746979","system_id":"levelo_inurba_marseille","lat":43.299707,"lon":5.384859,"is_reserved":false,"is_disabled":false,"rental_uris":{"android":"levelo://app?vid=876b8935-ebbb-4a9e-8aa2-3d1ecb746979","ios":"levelo://app?vid=876b8935-ebbb-4a9e-8aa2-3d1ecb746979"},"vehicle_type_id":"4","last_reported":1725811821,"current_range_meters":10000,"station_id":"ce4bgj92rcd13ifvqbd0","pricing_plan_id":"cebpf4jnsgd1na2vs0mg"},{"bike_id":"523d89ac-e100-4638-bca5-a90ad00f7626","system_id":"levelo_inurba_marseille","lat":43.299724,"lon":5.384848,"is_reserved":false,"is_disabled":false,"rental_uris":{"android":"levelo://app?vid=523d89ac-e100-4638-bca5-a90ad00f7626","ios":"levelo://app?vid=523d89ac-e100-4638-bca5-a90ad00f7626"},"vehicle_type_id":"4","last_reported":1725811821,"current_range_meters":8800,"station_id":"ce4bgj92rcd13ifvqbd0","pricing_plan_id":"cebpf4jnsgd1na2vs0mg"},{"bike_id":"90f38b5e-1fb8-4999-aaf8-12a4d056d6cb","system_id":"levelo_inurba_marseille","lat":43.299717,"lon":5.384845,"is_reserved":false,"is_disabled":false,"rental_uris":{"android":"levelo://app?vid=90f38b5e-1fb8-4999-aaf8-12a4d056d6cb","ios":"levelo://app?vid=90f38b5e-1fb8-4999-aaf8-12a4d056d6cb"},"vehicle_type_id":"4","last_reported":1725811821,"current_range_meters":26400,"station_id":"ce4bgj92rcd13ifvqbd0","pricing_plan_id":"cebpf4jnsgd1na2vs0mg"},{"bike_id":"6d861f5a-9487-4aa7-8c12-12fa00f5e3c9","system_id":"levelo_inurba_marseille","lat":43.301396,"lon":5.387812,"is_reserved":false,"is_disabled":false,"rental_uris":{"android":"levelo://app?vid=6d861f5a-9487-4aa7-8c12-12fa00f5e3c9","ios":"levelo://app?vid=6d861f5a-9487-4aa7-8c12-12fa00f5e3c9"},"vehicle_type_id":"4","last_reported":1725811821,"current_range_meters":4000,"station_id":"ce4bghh2rcd13ifvqb60","pricing_plan_id":"cebpf4jnsgd1na2vs0mg"},{"bike_id":"6380bbf8-c851-4499-84e4-23b073067ae6","system_id":"levelo_inurba_marseille","lat":43.301396,"lon":5.387812,"is_reserved":false,"is_disabled":false,"rental_uris":{"android":"levelo://app?vid=6380bbf8-c851-4499-84e4-23b073067ae6","ios":"levelo://app?vid=6380bbf8-c851-4499-84e4-23b073067ae6"},"vehicle_type_id":"4","last_reported":1725811821,"current_range_meters":25200,"station_id":"ce4bghh2rcd13ifvqb60","pricing_plan_id":"cebpf4jnsgd1na2vs0mg"},{"bike_id":"70d97f91-ffb7-4d6f-a85b-c83f759c02aa","system_id":"levelo_inurba_marseille","lat":43.3237,"lon":5.38879,"is_reserved":false,"is_disabled":false,"rental_uris":{"android":"levelo://app?vid=70d97f91-ffb7-4d6f-a85b-c83f759c02aa","ios":"levelo://app?vid=70d97f91-ffb7-4d6f-a85b-c83f759c02aa"},"vehicle_type_id":"4","last_reported":1725811821,"current_range_meters":31200,"station_id":"ce4bhqp2rcd13ifvqhog","pricing_plan_id":"cebpf4jnsgd1na2vs0mg"},{"bike_id":"5658eeec-093d-4e3e-acb2-85af2411fae2","system_id":"levelo_inurba_marseille","lat":43.32367,"lon":5.388836,"is_reserved":false,"is_disabled":false,"rental_uris":{"android":"levelo://app?vid=5658eeec-093d-4e3e-acb2-85af2411fae2","ios":"levelo://app?vid=5658eeec-093d-4e3e-acb2-85af2411fae2"},"vehicle_type_id":"4","last_reported":1725811821,"current_range_meters":15600,"station_id":"ce4bhqp2rcd13ifvqhog","pricing_plan_id":"cebpf4jnsgd1na2vs0mg"},{"bike_id":"174fc179-834a-469c-b7e6-512db7e5e8e3","system_id":"levelo_inurba_marseille","lat":43.32367,"lon":5.388836,"is_reserved":false,"is_disabled":false,"rental_uris":{"android":"levelo://app?vid=174fc179-834a-469c-b7e6-512db7e5e8e3","ios":"levelo://app?vid=174fc179-834a-469c-b7e6-512db7e5e8e3"},"vehicle_type_id":"4","last_reported":1725811821,"current_range_meters":8800,"station_id":"ce4bhqp2rcd13ifvqhog","pricing_plan_id":"cebpf4jnsgd1na2vs0mg"},{"bike_id":"bcaa10f7-fd9e-4ad0-b0c8-b8b15c428fe5","system_id":"levelo_inurba_marseille","lat":43.32369,"lon":5.38884,"is_reserved":false,"is_disabled":false,"rental_uris":{"android":"levelo://app?vid=bcaa10f7-fd9e-4ad0-b0c8-b8b15c428fe5","ios":"levelo://app?vid=bcaa10f7-fd9e-4ad0-b0c8-b8b15c428fe5"},"vehicle_type_id":"4","last_reported":1725811821,"current_range_meters":18800,"station_id":"ce4bhqp2rcd13ifvqhog","pricing_plan_id":"cebpf4jnsgd1na2vs0mg"},{"bike_id":"1389f4a0-fe8c-45a8-89e1-761602337135","system_id":"levelo_inurba_marseille","lat":43.32367,"lon":5.38925,"is_reserved":false,"is_disabled":false,"rental_uris":{"android":"levelo://app?vid=1389f4a0-fe8c-45a8-89e1-761602337135","ios":"levelo://app?vid=1389f4a0-fe8c-45a8-89e1-761602337135"},"vehicle_type_id":"4","last_reported":1725811821,"current_range_meters":15600,"station_id":"ce4bhqp2rcd13ifvqhog","pricing_plan_id":"cebpf4jnsgd1na2vs0mg"},{"bike_id":"74c59e3d-56c9-4373-9efe-a345696f9a5c","system_id":"levelo_inurba_marseille","lat":43.3237,"lon":5.38926,"is_reserved":false,"is_disabled":false,"rental_uris":{"android":"levelo://app?vid=74c59e3d-56c9-4373-9efe-a345696f9a5c","ios":"levelo://app?vid=74c59e3d-56c9-4373-9efe-a345696f9a5c"},"vehicle_type_id":"4","last_reported":1725811821,"current_range_meters":20800,"station_id":"","pricing_plan_id":"cebpf4jnsgd1na2vs0mg"},{"bike_id":"41704600-e9e6-4869-aefd-a4a12996605b","system_id":"levelo_inurba_marseille","lat":43.3237,"lon":5.38926,"is_reserved":false,"is_disabled":false,"rental_uris":{"android":"levelo://app?vid=41704600-e9e6-4869-aefd-a4a12996605b","ios":"levelo://app?vid=41704600-e9e6-4869-aefd-a4a12996605b"},"vehicle_type_id":"4","last_reported":1725811821,"current_range_meters":8400,"station_id":"ce4bhqp2rcd13ifvqhog","pricing_plan_id":"cebpf4jnsgd1na2vs0mg"},{"bike_id":"6f37c59d-cd45-4a97-aadb-ecec4a0a2f6a","system_id":"levelo_inurba_marseille","lat":43.29327,"lon":5.37076,"is_reserved":false,"is_disabled":false,"rental_uris":{"android":"levelo://app?vid=6f37c59d-cd45-4a97-aadb-ecec4a0a2f6a","ios":"levelo://app?vid=6f37c59d-cd45-4a97-aadb-ecec4a0a2f6a"},"vehicle_type_id":"4","last_reported":1725811821,"current_range_meters":23600,"station_id":"","pricing_plan_id":"cebpf4jnsgd1na2vs0mg"},{"bike_id":"3163eb09-3a0f-47bf-aa41-bba77f6e6a26","system_id":"levelo_inurba_marseille","lat":43.29293,"lon":5.36874,"is_reserved":false,"is_disabled":false,"rental_uris":{"android":"levelo://app?vid=3163eb09-3a0f-47bf-aa41-bba77f6e6a26","ios":"levelo://app?vid=3163eb09-3a0f-47bf-aa41-bba77f6e6a26"},"vehicle_type_id":"4","last_reported":1725811821,"current_range_meters":0,"station_id":"ce4bhbp2rcd13ifvqesg","pricing_plan_id":"cebpf4jnsgd1na2vs0mg"},{"bike_id":"3d7805df-deb6-45ae-bc50-4a87b2db632c","system_id":"levelo_inurba_marseille","lat":43.293259,"lon":5.371586,"is_reserved":false,"is_disabled":false,"rental_uris":{"android":"levelo://app?vid=3d7805df-deb6-45ae-bc50-4a87b2db632c","ios":"levelo://app?vid=3d7805df-deb6-45ae-bc50-4a87b2db632c"},"vehicle_type_id":"4","last_reported":1725811821,"current_range_meters":24800,"station_id":"ce4bgh92rcd13ifvqb40","pricing_plan_id":"cebpf4jnsgd1na2vs0mg"},{"bike_id":"6a3d8818-fc57-404d-8564-5eb9c721821a","system_id":"levelo_inurba_marseille","lat":43.29303,"lon":5.37464,"is_reserved":false,"is_disabled":false,"rental_uris":{"android":"levelo://app?vid=6a3d8818-fc57-404d-8564-5eb9c721821a","ios":"levelo://app?vid=6a3d8818-fc57-404d-8564-5eb9c721821a"},"vehicle_type_id":"4","last_reported":1725811821,"current_range_meters":800,"station_id":"ce4bgi12rcd13ifvqb70","pricing_plan_id":"cebpf4jnsgd1na2vs0mg"},{"bike_id":"e5fcfc02-079d-4e93-aaa1-e5f1eb0ec50c","system_id":"levelo_inurba_marseille","lat":43.293009,"lon":5.374584,"is_reserved":false,"is_disabled":false,"rental_uris":{"android":"levelo://app?vid=e5fcfc02-079d-4e93-aaa1-e5f1eb0ec50c","ios":"levelo://app?vid=e5fcfc02-079d-4e93-aaa1-e5f1eb0ec50c"},"vehicle_type_id":"4","last_reported":1725811821,"current_range_meters":7600,"station_id":"ce4bgi12rcd13ifvqb70","pricing_plan_id":"cebpf4jnsgd1na2vs0mg"},{"bike_id":"6936e59f-6af7-40dd-a31b-19b9303dae2f","system_id":"levelo_inurba_marseille","lat":43.305994,"lon":5.393687,"is_reserved":false,"is_disabled":false,"rental_uris":{"android":"levelo://app?vid=6936e59f-6af7-40dd-a31b-19b9303dae2f","ios":"levelo://app?vid=6936e59f-6af7-40dd-a31b-19b9303dae2f"},"vehicle_type_id":"4","last_reported":1725811821,"current_range_meters":20800,"station_id":"ce4bh0p2rcd13ifvqd80","pricing_plan_id":"cebpf4jnsgd1na2vs0mg"},{"bike_id":"9309339e-5212-458b-bae6-fb90856266ee","system_id":"levelo_inurba_marseille","lat":43.305994,"lon":5.393687,"is_reserved":false,"is_disabled":false,"rental_uris":{"android":"levelo://app?vid=9309339e-5212-458b-bae6-fb90856266ee","ios":"levelo://app?vid=9309339e-5212-458b-bae6-fb90856266ee"},"vehicle_type_id":"4","last_reported":1725811821,"current_range_meters":21600,"station_id":"ce4bh0p2rcd13ifvqd80","pricing_plan_id":"cebpf4jnsgd1na2vs0mg"},{"bike_id":"1f6aa67f-ae12-44dd-95b0-9bbcdad961e9","system_id":"levelo_inurba_marseille","lat":43.293009,"lon":5.374584,"is_reserved":false,"is_disabled":false,"rental_uris":{"android":"levelo://app?vid=1f6aa67f-ae12-44dd-95b0-9bbcdad961e9","ios":"levelo://app?vid=1f6aa67f-ae12-44dd-95b0-9bbcdad961e9"},"vehicle_type_id":"4","last_reported":1725811821,"current_range_meters":4800,"station_id":"ce4bgi12rcd13ifvqb70","pricing_plan_id":"cebpf4jnsgd1na2vs0mg"},{"bike_id":"58b87ceb-76a0-44c7-bf08-660c15904d3b","system_id":"levelo_inurba_marseille","lat":43.303083,"lon":5.391963,"is_reserved":false,"is_disabled":false,"rental_uris":{"android":"levelo://app?vid=58b87ceb-76a0-44c7-bf08-660c15904d3b","ios":"levelo://app?vid=58b87ceb-76a0-44c7-bf08-660c15904d3b"},"vehicle_type_id":"4","last_reported":1725811821,"current_range_meters":1600,"station_id":"ce4bgkh2rcd13ifvqbk0","pricing_plan_id":"cebpf4jnsgd1na2vs0mg"},{"bike_id":"7fa1e0de-ebb9-49f8-807e-6bf25bf13001","system_id":"levelo_inurba_marseille","lat":43.302992,"lon":5.392136,"is_reserved":false,"is_disabled":false,"rental_uris":{"android":"levelo://app?vid=7fa1e0de-ebb9-49f8-807e-6bf25bf13001","ios":"levelo://app?vid=7fa1e0de-ebb9-49f8-807e-6bf25bf13001"},"vehicle_type_id":"4","last_reported":1725811821,"current_range_meters":0,"station_id":"ce4bgkh2rcd13ifvqbk0","pricing_plan_id":"cebpf4jnsgd1na2vs0mg"},{"bike_id":"77003df4-b23e-40a2-a2ba-290e623a7a29","system_id":"levelo_inurba_marseille","lat":43.29376,"lon":5.37856,"is_reserved":false,"is_disabled":false,"rental_uris":{"android":"levelo://app?vid=77003df4-b23e-40a2-a2ba-290e623a7a29","ios":"levelo://app?vid=77003df4-b23e-40a2-a2ba-290e623a7a29"},"vehicle_type_id":"4","last_reported":1725811821,"current_range_meters":16000,"station_id":"ce4bgjh2rcd13ifvqbf0","pricing_plan_id":"cebpf4jnsgd1na2vs0mg"},{"bike_id":"c64bff7a-5efc-42ed-aeaa-ffbe990b4cd4","system_id":"levelo_inurba_marseille","lat":43.2937,"lon":5.37846,"is_reserved":false,"is_disabled":false,"rental_uris":{"android":"levelo://app?vid=c64bff7a-5efc-42ed-aeaa-ffbe990b4cd4","ios":"levelo://app?vid=c64bff7a-5efc-42ed-aeaa-ffbe990b4cd4"},"vehicle_type_id":"4","last_reported":1725811821,"current_range_meters":24800,"station_id":"ce4bgjh2rcd13ifvqbf0","pricing_plan_id":"cebpf4jnsgd1na2vs0mg"},{"bike_id":"7c065440-dc56-4729-ada8-711850e39c53","system_id":"levelo_inurba_marseille","lat":43.30085,"lon":5.390856,"is_reserved":false,"is_disabled":false,"rental_uris":{"android":"levelo://app?vid=7c065440-dc56-4729-ada8-711850e39c53","ios":"levelo://app?vid=7c065440-dc56-4729-ada8-711850e39c53"},"vehicle_type_id":"4","last_reported":1725811821,"current_range_meters":10000,"station_id":"ce4bh192rcd13ifvqdb0","pricing_plan_id":"cebpf4jnsgd1na2vs0mg"},{"bike_id":"32fe7add-1cef-41e7-9bc8-5e2293d2c5db","system_id":"levelo_inurba_marseille","lat":43.30085,"lon":5.390856,"is_reserved":false,"is_disabled":false,"rental_uris":{"android":"levelo://app?vid=32fe7add-1cef-41e7-9bc8-5e2293d2c5db","ios":"levelo://app?vid=32fe7add-1cef-41e7-9bc8-5e2293d2c5db"},"vehicle_type_id":"4","last_reported":1725811821,"current_range_meters":9600,"station_id":"ce4bh192rcd13ifvqdb0","pricing_plan_id":"cebpf4jnsgd1na2vs0mg"},{"bike_id":"16e39c44-5d4e-45f2-be9b-788defc51973","system_id":"levelo_inurba_marseille","lat":43.291675,"lon":5.371583,"is_reserved":false,"is_disabled":false,"rental_uris":{"android":"levelo://app?vid=16e39c44-5d4e-45f2-be9b-788defc51973","ios":"levelo://app?vid=16e39c44-5d4e-45f2-be9b-788defc51973"},"vehicle_type_id":"4","last_reported":1725811821,"current_range_meters":24800,"station_id":"ce4bha92rcd13ifvqeh0","pricing_plan_id":"cebpf4jnsgd1na2vs0mg"},{"bike_id":"71fb4124-3103-438a-9301-f549910572ce","system_id":"levelo_inurba_marseille","lat":43.291671,"lon":5.371575,"is_reserved":false,"is_disabled":false,"rental_uris":{"android":"levelo://app?vid=71fb4124-3103-438a-9301-f549910572ce","ios":"levelo://app?vid=71fb4124-3103-438a-9301-f549910572ce"},"vehicle_type_id":"4","last_reported":1725811821,"current_range_meters":8400,"station_id":"ce4bha92rcd13ifvqeh0","pricing_plan_id":"cebpf4jnsgd1na2vs0mg"},{"bike_id":"5001116b-389d-46f9-b21e-688a2214c7e5","system_id":"levelo_inurba_marseille","lat":43.298764,"lon":5.388973,"is_reserved":false,"is_disabled":false,"rental_uris":{"android":"levelo://app?vid=5001116b-389d-46f9-b21e-688a2214c7e5","ios":"levelo://app?vid=5001116b-389d-46f9-b21e-688a2214c7e5"},"vehicle_type_id":"4","last_reported":1725811821,"current_range_meters":23200,"station_id":"ce4bh392rcd13ifvqdl0","pricing_plan_id":"cebpf4jnsgd1na2vs0mg"},{"bike_id":"6ea8b1bf-d681-4b47-a396-88bb57de5366","system_id":"levelo_inurba_marseille","lat":43.291671,"lon":5.371575,"is_reserved":false,"is_disabled":false,"rental_uris":{"android":"levelo://app?vid=6ea8b1bf-d681-4b47-a396-88bb57de5366","ios":"levelo://app?vid=6ea8b1bf-d681-4b47-a396-88bb57de5366"},"vehicle_type_id":"4","last_reported":1725811821,"current_range_meters":24000,"station_id":"ce4bha92rcd13ifvqeh0","pricing_plan_id":"cebpf4jnsgd1na2vs0mg"},{"bike_id":"a8528823-e160-47f4-b5bd-d188ea353d8f","system_id":"levelo_inurba_marseille","lat":43.291675,"lon":5.371583,"is_reserved":false,"is_disabled":false,"rental_uris":{"android":"levelo://app?vid=a8528823-e160-47f4-b5bd-d188ea353d8f","ios":"levelo://app?vid=a8528823-e160-47f4-b5bd-d188ea353d8f"},"vehicle_type_id":"4","last_reported":1725811821,"current_range_meters":27600,"station_id":"ce4bha92rcd13ifvqeh0","pricing_plan_id":"cebpf4jnsgd1na2vs0mg"},{"bike_id":"f6a66643-141a-4189-8336-c85969e88166","system_id":"levelo_inurba_marseille","lat":43.30886,"lon":5.39628,"is_reserved":false,"is_disabled":false,"rental_uris":{"android":"levelo://app?vid=f6a66643-141a-4189-8336-c85969e88166","ios":"levelo://app?vid=f6a66643-141a-4189-8336-c85969e88166"},"vehicle_type_id":"4","last_reported":1725811821,"current_range_meters":10400,"station_id":"ce4bh012rcd13ifvqcv0","pricing_plan_id":"cebpf4jnsgd1na2vs0mg"},{"bike_id":"20344ea9-e89d-4318-83f1-f787901612b9","system_id":"levelo_inurba_marseille","lat":43.29196,"lon":5.35817,"is_reserved":false,"is_disabled":false,"rental_uris":{"android":"levelo://app?vid=20344ea9-e89d-4318-83f1-f787901612b9","ios":"levelo://app?vid=20344ea9-e89d-4318-83f1-f787901612b9"},"vehicle_type_id":"4","last_reported":1725811821,"current_range_meters":6400,"station_id":"ce4bhb12rcd13ifvqel0","pricing_plan_id":"cebpf4jnsgd1na2vs0mg"},{"bike_id":"cee1e340-3116-45c8-a434-13c661b3726c","system_id":"levelo_inurba_marseille","lat":43.29193,"lon":5.35806,"is_reserved":false,"is_disabled":false,"rental_uris":{"android":"levelo://app?vid=cee1e340-3116-45c8-a434-13c661b3726c","ios":"levelo://app?vid=cee1e340-3116-45c8-a434-13c661b3726c"},"vehicle_type_id":"4","last_reported":1725811821,"current_range_meters":25600,"station_id":"ce4bhb12rcd13ifvqel0","pricing_plan_id":"cebpf4jnsgd1na2vs0mg"},{"bike_id":"947faf15-289d-404b-9e48-2a6ae048dd1c","system_id":"levelo_inurba_marseille","lat":43.313291,"lon":5.396838,"is_reserved":false,"is_disabled":false,"rental_uris":{"android":"levelo://app?vid=947faf15-289d-404b-9e48-2a6ae048dd1c","ios":"levelo://app?vid=947faf15-289d-404b-9e48-2a6ae048dd1c"},"vehicle_type_id":"4","last_reported":1725811821,"current_range_meters":30400,"station_id":"ce4bgvp2rcd13ifvqcu0","pricing_plan_id":"cebpf4jnsgd1na2vs0mg"},{"bike_id":"1a102be4-490d-4646-9ff5-e36a2c600b73","system_id":"levelo_inurba_marseille","lat":43.309038,"lon":5.396546,"is_reserved":false,"is_disabled":false,"rental_uris":{"android":"levelo://app?vid=1a102be4-490d-4646-9ff5-e36a2c600b73","ios":"levelo://app?vid=1a102be4-490d-4646-9ff5-e36a2c600b73"},"vehicle_type_id":"4","last_reported":1725811821,"current_range_meters":11600,"station_id":"ce4bh012rcd13ifvqcv0","pricing_plan_id":"cebpf4jnsgd1na2vs0mg"},{"bike_id":"ce9a0f71-6778-417e-9daa-a3d7da8fbfca","system_id":"levelo_inurba_marseille","lat":43.309038,"lon":5.396546,"is_reserved":false,"is_disabled":false,"rental_uris":{"android":"levelo://app?vid=ce9a0f71-6778-417e-9daa-a3d7da8fbfca","ios":"levelo://app?vid=ce9a0f71-6778-417e-9daa-a3d7da8fbfca"},"vehicle_type_id":"4","last_reported":1725811821,"current_range_meters":17200,"station_id":"ce4bh012rcd13ifvqcv0","pricing_plan_id":"cebpf4jnsgd1na2vs0mg"},{"bike_id":"c6632ab8-20f9-4ab8-b4b3-f1c336088595","system_id":"levelo_inurba_marseille","lat":43.29544,"lon":5.38549,"is_reserved":false,"is_disabled":false,"rental_uris":{"android":"levelo://app?vid=c6632ab8-20f9-4ab8-b4b3-f1c336088595","ios":"levelo://app?vid=c6632ab8-20f9-4ab8-b4b3-f1c336088595"},"vehicle_type_id":"4","last_reported":1725811821,"current_range_meters":0,"station_id":"ce4bgih2rcd13ifvqba0","pricing_plan_id":"cebpf4jnsgd1na2vs0mg"},{"bike_id":"bea4c3dd-45a8-461d-98b5-42f1a849edbe","system_id":"levelo_inurba_marseille","lat":43.29529,"lon":5.385581,"is_reserved":false,"is_disabled":false,"rental_uris":{"android":"levelo://app?vid=bea4c3dd-45a8-461d-98b5-42f1a849edbe","ios":"levelo://app?vid=bea4c3dd-45a8-461d-98b5-42f1a849edbe"},"vehicle_type_id":"4","last_reported":1725811821,"current_range_meters":22000,"station_id":"ce4bgih2rcd13ifvqba0","pricing_plan_id":"cebpf4jnsgd1na2vs0mg"},{"bike_id":"a01c5d53-e1ce-40b5-9d06-70d4a4436492","system_id":"levelo_inurba_marseille","lat":43.29529,"lon":5.385581,"is_reserved":false,"is_disabled":false,"rental_uris":{"android":"levelo://app?vid=a01c5d53-e1ce-40b5-9d06-70d4a4436492","ios":"levelo://app?vid=a01c5d53-e1ce-40b5-9d06-70d4a4436492"},"vehicle_type_id":"4","last_reported":1725811821,"current_range_meters":14800,"station_id":"ce4bgih2rcd13ifvqba0","pricing_plan_id":"cebpf4jnsgd1na2vs0mg"},{"bike_id":"c92bffd9-ff5e-4ee2-ab40-a6e8929622eb","system_id":"levelo_inurba_marseille","lat":43.29529,"lon":5.385581,"is_reserved":false,"is_disabled":false,"rental_uris":{"android":"levelo://app?vid=c92bffd9-ff5e-4ee2-ab40-a6e8929622eb","ios":"levelo://app?vid=c92bffd9-ff5e-4ee2-ab40-a6e8929622eb"},"vehicle_type_id":"4","last_reported":1725811821,"current_range_meters":10000,"station_id":"ce4bgih2rcd13ifvqba0","pricing_plan_id":"cebpf4jnsgd1na2vs0mg"},{"bike_id":"83878f38-7031-4a1a-a601-bc0ae9d02d79","system_id":"levelo_inurba_marseille","lat":43.29536,"lon":5.38545,"is_reserved":false,"is_disabled":false,"rental_uris":{"android":"levelo://app?vid=83878f38-7031-4a1a-a601-bc0ae9d02d79","ios":"levelo://app?vid=83878f38-7031-4a1a-a601-bc0ae9d02d79"},"vehicle_type_id":"4","last_reported":1725811821,"current_range_meters":0,"station_id":"ce4bgih2rcd13ifvqba0","pricing_plan_id":"cebpf4jnsgd1na2vs0mg"},{"bike_id":"2fc7b7ab-ec8a-439b-8e39-ea219e44c413","system_id":"levelo_inurba_marseille","lat":43.29529,"lon":5.385581,"is_reserved":false,"is_disabled":false,"rental_uris":{"android":"levelo://app?vid=2fc7b7ab-ec8a-439b-8e39-ea219e44c413","ios":"levelo://app?vid=2fc7b7ab-ec8a-439b-8e39-ea219e44c413"},"vehicle_type_id":"4","last_reported":1725811821,"current_range_meters":26000,"station_id":"ce4bgih2rcd13ifvqba0","pricing_plan_id":"cebpf4jnsgd1na2vs0mg"},{"bike_id":"72196c6f-f2d4-4b26-9b95-c8fbefbef160","system_id":"levelo_inurba_marseille","lat":43.29529,"lon":5.385581,"is_reserved":false,"is_disabled":false,"rental_uris":{"android":"levelo://app?vid=72196c6f-f2d4-4b26-9b95-c8fbefbef160","ios":"levelo://app?vid=72196c6f-f2d4-4b26-9b95-c8fbefbef160"},"vehicle_type_id":"4","last_reported":1725811821,"current_range_meters":18400,"station_id":"ce4bgih2rcd13ifvqba0","pricing_plan_id":"cebpf4jnsgd1na2vs0mg"},{"bike_id":"6404ee99-3e3d-4fbc-b1d4-503078a47b60","system_id":"levelo_inurba_marseille","lat":43.29529,"lon":5.385581,"is_reserved":false,"is_disabled":false,"rental_uris":{"android":"levelo://app?vid=6404ee99-3e3d-4fbc-b1d4-503078a47b60","ios":"levelo://app?vid=6404ee99-3e3d-4fbc-b1d4-503078a47b60"},"vehicle_type_id":"4","last_reported":1725811821,"current_range_meters":18000,"station_id":"ce4bgih2rcd13ifvqba0","pricing_plan_id":"cebpf4jnsgd1na2vs0mg"},{"bike_id":"bd7304f0-a5f1-479d-b7c3-8adaf11e8768","system_id":"levelo_inurba_marseille","lat":43.29529,"lon":5.385581,"is_reserved":false,"is_disabled":false,"rental_uris":{"android":"levelo://app?vid=bd7304f0-a5f1-479d-b7c3-8adaf11e8768","ios":"levelo://app?vid=bd7304f0-a5f1-479d-b7c3-8adaf11e8768"},"vehicle_type_id":"4","last_reported":1725811821,"current_range_meters":22400,"station_id":"ce4bgih2rcd13ifvqba0","pricing_plan_id":"cebpf4jnsgd1na2vs0mg"},{"bike_id":"ee1ec5f9-bdd2-4457-80cc-376b40a1d54f","system_id":"levelo_inurba_marseille","lat":43.29529,"lon":5.385581,"is_reserved":false,"is_disabled":false,"rental_uris":{"android":"levelo://app?vid=ee1ec5f9-bdd2-4457-80cc-376b40a1d54f","ios":"levelo://app?vid=ee1ec5f9-bdd2-4457-80cc-376b40a1d54f"},"vehicle_type_id":"4","last_reported":1725811821,"current_range_meters":26400,"station_id":"ce4bgih2rcd13ifvqba0","pricing_plan_id":"cebpf4jnsgd1na2vs0mg"},{"bike_id":"3cdefc0d-c876-4e4c-90fe-f94d6b6a7722","system_id":"levelo_inurba_marseille","lat":43.290779,"lon":5.371482,"is_reserved":false,"is_disabled":false,"rental_uris":{"android":"levelo://app?vid=3cdefc0d-c876-4e4c-90fe-f94d6b6a7722","ios":"levelo://app?vid=3cdefc0d-c876-4e4c-90fe-f94d6b6a7722"},"vehicle_type_id":"4","last_reported":1725811821,"current_range_meters":2800,"station_id":"ce4bh5p2rcd13ifvqe4g","pricing_plan_id":"cebpf4jnsgd1na2vs0mg"},{"bike_id":"0a91557b-d281-49d4-8997-8e1b5475878e","system_id":"levelo_inurba_marseille","lat":43.290779,"lon":5.371482,"is_reserved":false,"is_disabled":false,"rental_uris":{"android":"levelo://app?vid=0a91557b-d281-49d4-8997-8e1b5475878e","ios":"levelo://app?vid=0a91557b-d281-49d4-8997-8e1b5475878e"},"vehicle_type_id":"4","last_reported":1725811821,"current_range_meters":14000,"station_id":"ce4bh5p2rcd13ifvqe4g","pricing_plan_id":"cebpf4jnsgd1na2vs0mg"},{"bike_id":"27507994-5783-480f-bb7a-50a0ca4c706e","system_id":"levelo_inurba_marseille","lat":43.290779,"lon":5.371482,"is_reserved":false,"is_disabled":false,"rental_uris":{"android":"levelo://app?vid=27507994-5783-480f-bb7a-50a0ca4c706e","ios":"levelo://app?vid=27507994-5783-480f-bb7a-50a0ca4c706e"},"vehicle_type_id":"4","last_reported":1725811821,"current_range_meters":3200,"station_id":"ce4bh5p2rcd13ifvqe4g","pricing_plan_id":"cebpf4jnsgd1na2vs0mg"},{"bike_id":"5d1cf832-a55b-4ea9-ac13-10467a393152","system_id":"levelo_inurba_marseille","lat":43.290779,"lon":5.371482,"is_reserved":false,"is_disabled":false,"rental_uris":{"android":"levelo://app?vid=5d1cf832-a55b-4ea9-ac13-10467a393152","ios":"levelo://app?vid=5d1cf832-a55b-4ea9-ac13-10467a393152"},"vehicle_type_id":"4","last_reported":1725811821,"current_range_meters":30800,"station_id":"ce4bh5p2rcd13ifvqe4g","pricing_plan_id":"cebpf4jnsgd1na2vs0mg"},{"bike_id":"f1b38f61-397e-41c5-9e55-4c64262c8c50","system_id":"levelo_inurba_marseille","lat":43.29529,"lon":5.385581,"is_reserved":false,"is_disabled":false,"rental_uris":{"android":"levelo://app?vid=f1b38f61-397e-41c5-9e55-4c64262c8c50","ios":"levelo://app?vid=f1b38f61-397e-41c5-9e55-4c64262c8c50"},"vehicle_type_id":"4","last_reported":1725811821,"current_range_meters":18000,"station_id":"ce4bgih2rcd13ifvqba0","pricing_plan_id":"cebpf4jnsgd1na2vs0mg"},{"bike_id":"b76e5b88-99dc-41ce-966d-60de831bcece","system_id":"levelo_inurba_marseille","lat":43.302008,"lon":5.394694,"is_reserved":false,"is_disabled":false,"rental_uris":{"android":"levelo://app?vid=b76e5b88-99dc-41ce-966d-60de831bcece","ios":"levelo://app?vid=b76e5b88-99dc-41ce-966d-60de831bcece"},"vehicle_type_id":"4","last_reported":1725811821,"current_range_meters":25200,"station_id":"ce4bh0p2rcd13ifvqd70","pricing_plan_id":"cebpf4jnsgd1na2vs0mg"},{"bike_id":"10a43f03-0db9-4b57-a21b-9593464f8822","system_id":"levelo_inurba_marseille","lat":43.28999,"lon":5.37252,"is_reserved":false,"is_disabled":false,"rental_uris":{"android":"levelo://app?vid=10a43f03-0db9-4b57-a21b-9593464f8822","ios":"levelo://app?vid=10a43f03-0db9-4b57-a21b-9593464f8822"},"vehicle_type_id":"4","last_reported":1725811821,"current_range_meters":0,"station_id":"","pricing_plan_id":"cebpf4jnsgd1na2vs0mg"},{"bike_id":"2d399734-52dd-4853-8919-3c6f92a60119","system_id":"levelo_inurba_marseille","lat":43.290319,"lon":5.375732,"is_reserved":false,"is_disabled":false,"rental_uris":{"android":"levelo://app?vid=2d399734-52dd-4853-8919-3c6f92a60119","ios":"levelo://app?vid=2d399734-52dd-4853-8919-3c6f92a60119"},"vehicle_type_id":"4","last_reported":1725811821,"current_range_meters":8400,"station_id":"ce4bh692rcd13ifvqe90","pricing_plan_id":"cebpf4jnsgd1na2vs0mg"},{"bike_id":"29947d1a-f1e8-4b25-984a-5fb759f75323","system_id":"levelo_inurba_marseille","lat":43.294153,"lon":5.386305,"is_reserved":false,"is_disabled":false,"rental_uris":{"android":"levelo://app?vid=29947d1a-f1e8-4b25-984a-5fb759f75323","ios":"levelo://app?vid=29947d1a-f1e8-4b25-984a-5fb759f75323"},"vehicle_type_id":"4","last_reported":1725811821,"current_range_meters":31200,"station_id":"ce4bh2h2rcd13ifvqdh0","pricing_plan_id":"cebpf4jnsgd1na2vs0mg"},{"bike_id":"454b53a7-11c6-4678-9a5e-c75d50166ddc","system_id":"levelo_inurba_marseille","lat":43.290327,"lon":5.375711,"is_reserved":false,"is_disabled":false,"rental_uris":{"android":"levelo://app?vid=454b53a7-11c6-4678-9a5e-c75d50166ddc","ios":"levelo://app?vid=454b53a7-11c6-4678-9a5e-c75d50166ddc"},"vehicle_type_id":"4","last_reported":1725811821,"current_range_meters":28400,"station_id":"ce4bh692rcd13ifvqe90","pricing_plan_id":"cebpf4jnsgd1na2vs0mg"},{"bike_id":"b24bfb4d-c277-4ee0-bc48-c818e32c3690","system_id":"levelo_inurba_marseille","lat":43.294162,"lon":5.386292,"is_reserved":false,"is_disabled":false,"rental_uris":{"android":"levelo://app?vid=b24bfb4d-c277-4ee0-bc48-c818e32c3690","ios":"levelo://app?vid=b24bfb4d-c277-4ee0-bc48-c818e32c3690"},"vehicle_type_id":"4","last_reported":1725811821,"current_range_meters":22800,"station_id":"ce4bh2h2rcd13ifvqdh0","pricing_plan_id":"cebpf4jnsgd1na2vs0mg"},{"bike_id":"f18352c7-9cb1-4ab4-805a-ddffca28c702","system_id":"levelo_inurba_marseille","lat":43.294162,"lon":5.386292,"is_reserved":false,"is_disabled":false,"rental_uris":{"android":"levelo://app?vid=f18352c7-9cb1-4ab4-805a-ddffca28c702","ios":"levelo://app?vid=f18352c7-9cb1-4ab4-805a-ddffca28c702"},"vehicle_type_id":"4","last_reported":1725811821,"current_range_meters":17200,"station_id":"ce4bh2h2rcd13ifvqdh0","pricing_plan_id":"cebpf4jnsgd1na2vs0mg"},{"bike_id":"e9c65cda-e600-4909-aa93-795031f8377c","system_id":"levelo_inurba_marseille","lat":43.294162,"lon":5.386292,"is_reserved":false,"is_disabled":false,"rental_uris":{"android":"levelo://app?vid=e9c65cda-e600-4909-aa93-795031f8377c","ios":"levelo://app?vid=e9c65cda-e600-4909-aa93-795031f8377c"},"vehicle_type_id":"4","last_reported":1725811821,"current_range_meters":3200,"station_id":"ce4bh2h2rcd13ifvqdh0","pricing_plan_id":"cebpf4jnsgd1na2vs0mg"},{"bike_id":"0bd0d898-5b05-404e-a28d-5cab181ca628","system_id":"levelo_inurba_marseille","lat":43.294153,"lon":5.386305,"is_reserved":false,"is_disabled":false,"rental_uris":{"android":"levelo://app?vid=0bd0d898-5b05-404e-a28d-5cab181ca628","ios":"levelo://app?vid=0bd0d898-5b05-404e-a28d-5cab181ca628"},"vehicle_type_id":"4","last_reported":1725811821,"current_range_meters":2800,"station_id":"ce4bh2h2rcd13ifvqdh0","pricing_plan_id":"cebpf4jnsgd1na2vs0mg"},{"bike_id":"90e67d70-495c-46ea-bcb6-2d0b1c46f1e7","system_id":"levelo_inurba_marseille","lat":43.294162,"lon":5.386292,"is_reserved":false,"is_disabled":false,"rental_uris":{"android":"levelo://app?vid=90e67d70-495c-46ea-bcb6-2d0b1c46f1e7","ios":"levelo://app?vid=90e67d70-495c-46ea-bcb6-2d0b1c46f1e7"},"vehicle_type_id":"4","last_reported":1725811821,"current_range_meters":13200,"station_id":"ce4bh2h2rcd13ifvqdh0","pricing_plan_id":"cebpf4jnsgd1na2vs0mg"},{"bike_id":"dd84493c-ccd0-4757-a529-2d12f17b0e6c","system_id":"levelo_inurba_marseille","lat":43.294153,"lon":5.386305,"is_reserved":false,"is_disabled":false,"rental_uris":{"android":"levelo://app?vid=dd84493c-ccd0-4757-a529-2d12f17b0e6c","ios":"levelo://app?vid=dd84493c-ccd0-4757-a529-2d12f17b0e6c"},"vehicle_type_id":"4","last_reported":1725811821,"current_range_meters":18800,"station_id":"ce4bh2h2rcd13ifvqdh0","pricing_plan_id":"cebpf4jnsgd1na2vs0mg"},{"bike_id":"13a8a110-98e9-4c4b-b5de-6889da5b8c5e","system_id":"levelo_inurba_marseille","lat":43.294162,"lon":5.386292,"is_reserved":false,"is_disabled":false,"rental_uris":{"android":"levelo://app?vid=13a8a110-98e9-4c4b-b5de-6889da5b8c5e","ios":"levelo://app?vid=13a8a110-98e9-4c4b-b5de-6889da5b8c5e"},"vehicle_type_id":"4","last_reported":1725811821,"current_range_meters":23200,"station_id":"ce4bh2h2rcd13ifvqdh0","pricing_plan_id":"cebpf4jnsgd1na2vs0mg"},{"bike_id":"335a7d13-7938-4d05-97f7-bcdd7d860a7e","system_id":"levelo_inurba_marseille","lat":43.289184,"lon":5.366408,"is_reserved":false,"is_disabled":false,"rental_uris":{"android":"levelo://app?vid=335a7d13-7938-4d05-97f7-bcdd7d860a7e","ios":"levelo://app?vid=335a7d13-7938-4d05-97f7-bcdd7d860a7e"},"vehicle_type_id":"4","last_reported":1725811821,"current_range_meters":16000,"station_id":"ce4bhap2rcd13ifvqek0","pricing_plan_id":"cebpf4jnsgd1na2vs0mg"},{"bike_id":"57e32c1f-7c52-4f1d-a5b8-c28a0772ceca","system_id":"levelo_inurba_marseille","lat":43.294162,"lon":5.386292,"is_reserved":false,"is_disabled":false,"rental_uris":{"android":"levelo://app?vid=57e32c1f-7c52-4f1d-a5b8-c28a0772ceca","ios":"levelo://app?vid=57e32c1f-7c52-4f1d-a5b8-c28a0772ceca"},"vehicle_type_id":"4","last_reported":1725811821,"current_range_meters":0,"station_id":"ce4bh2h2rcd13ifvqdh0","pricing_plan_id":"cebpf4jnsgd1na2vs0mg"},{"bike_id":"e7acd725-b537-4a7e-a901-349b2eaf9294","system_id":"levelo_inurba_marseille","lat":43.289184,"lon":5.366408,"is_reserved":false,"is_disabled":false,"rental_uris":{"android":"levelo://app?vid=e7acd725-b537-4a7e-a901-349b2eaf9294","ios":"levelo://app?vid=e7acd725-b537-4a7e-a901-349b2eaf9294"},"vehicle_type_id":"4","last_reported":1725811821,"current_range_meters":2000,"station_id":"ce4bhap2rcd13ifvqek0","pricing_plan_id":"cebpf4jnsgd1na2vs0mg"},{"bike_id":"1e70352f-24b9-4582-8a38-0cfd4437c079","system_id":"levelo_inurba_marseille","lat":43.289184,"lon":5.366408,"is_reserved":false,"is_disabled":false,"rental_uris":{"android":"levelo://app?vid=1e70352f-24b9-4582-8a38-0cfd4437c079","ios":"levelo://app?vid=1e70352f-24b9-4582-8a38-0cfd4437c079"},"vehicle_type_id":"4","last_reported":1725811821,"current_range_meters":1200,"station_id":"ce4bhap2rcd13ifvqek0","pricing_plan_id":"cebpf4jnsgd1na2vs0mg"},{"bike_id":"a0ae24d2-20bd-4fa1-afbe-d21e4431b36f","system_id":"levelo_inurba_marseille","lat":43.289468,"lon":5.363719,"is_reserved":false,"is_disabled":false,"rental_uris":{"android":"levelo://app?vid=a0ae24d2-20bd-4fa1-afbe-d21e4431b36f","ios":"levelo://app?vid=a0ae24d2-20bd-4fa1-afbe-d21e4431b36f"},"vehicle_type_id":"4","last_reported":1725811821,"current_range_meters":13200,"station_id":"ce4bhc92rcd13ifvqetg","pricing_plan_id":"cebpf4jnsgd1na2vs0mg"},{"bike_id":"6b17fe94-1c4f-472b-b90a-2a572fb0194a","system_id":"levelo_inurba_marseille","lat":43.292642,"lon":5.384254,"is_reserved":false,"is_disabled":false,"rental_uris":{"android":"levelo://app?vid=6b17fe94-1c4f-472b-b90a-2a572fb0194a","ios":"levelo://app?vid=6b17fe94-1c4f-472b-b90a-2a572fb0194a"},"vehicle_type_id":"4","last_reported":1725811821,"current_range_meters":12000,"station_id":"ce4bh692rcd13ifvqea0","pricing_plan_id":"cebpf4jnsgd1na2vs0mg"},{"bike_id":"52ce513a-2f06-4b4f-a323-19803d477194","system_id":"levelo_inurba_marseille","lat":43.292644,"lon":5.384257,"is_reserved":false,"is_disabled":false,"rental_uris":{"android":"levelo://app?vid=52ce513a-2f06-4b4f-a323-19803d477194","ios":"levelo://app?vid=52ce513a-2f06-4b4f-a323-19803d477194"},"vehicle_type_id":"4","last_reported":1725811821,"current_range_meters":19600,"station_id":"ce4bh692rcd13ifvqea0","pricing_plan_id":"cebpf4jnsgd1na2vs0mg"},{"bike_id":"844065fd-ddaa-488b-86c5-b50217bcab06","system_id":"levelo_inurba_marseille","lat":43.30432,"lon":5.39744,"is_reserved":false,"is_disabled":false,"rental_uris":{"android":"levelo://app?vid=844065fd-ddaa-488b-86c5-b50217bcab06","ios":"levelo://app?vid=844065fd-ddaa-488b-86c5-b50217bcab06"},"vehicle_type_id":"4","last_reported":1725811821,"current_range_meters":0,"station_id":"ce4bh092rcd13ifvqd20","pricing_plan_id":"cebpf4jnsgd1na2vs0mg"},{"bike_id":"70ac98ed-5f2d-4511-9371-54e77cf475a5","system_id":"levelo_inurba_marseille","lat":43.304296,"lon":5.397513,"is_reserved":false,"is_disabled":false,"rental_uris":{"android":"levelo://app?vid=70ac98ed-5f2d-4511-9371-54e77cf475a5","ios":"levelo://app?vid=70ac98ed-5f2d-4511-9371-54e77cf475a5"},"vehicle_type_id":"4","last_reported":1725811821,"current_range_meters":31200,"station_id":"ce4bh092rcd13ifvqd20","pricing_plan_id":"cebpf4jnsgd1na2vs0mg"},{"bike_id":"343ef991-cfe3-4b0d-8b0d-e76df82a1774","system_id":"levelo_inurba_marseille","lat":43.292642,"lon":5.384254,"is_reserved":false,"is_disabled":false,"rental_uris":{"android":"levelo://app?vid=343ef991-cfe3-4b0d-8b0d-e76df82a1774","ios":"levelo://app?vid=343ef991-cfe3-4b0d-8b0d-e76df82a1774"},"vehicle_type_id":"4","last_reported":1725811821,"current_range_meters":3600,"station_id":"ce4bh692rcd13ifvqea0","pricing_plan_id":"cebpf4jnsgd1na2vs0mg"},{"bike_id":"a5699c77-d593-4fcd-9743-dff2a75a97c3","system_id":"levelo_inurba_marseille","lat":43.295169,"lon":5.390426,"is_reserved":false,"is_disabled":false,"rental_uris":{"android":"levelo://app?vid=a5699c77-d593-4fcd-9743-dff2a75a97c3","ios":"levelo://app?vid=a5699c77-d593-4fcd-9743-dff2a75a97c3"},"vehicle_type_id":"4","last_reported":1725811821,"current_range_meters":19200,"station_id":"ce4bh3p2rcd13ifvqdp0","pricing_plan_id":"cebpf4jnsgd1na2vs0mg"},{"bike_id":"d43d20b5-12a7-445b-8f76-43f84e0ad70e","system_id":"levelo_inurba_marseille","lat":43.290104,"lon":5.356111,"is_reserved":false,"is_disabled":false,"rental_uris":{"android":"levelo://app?vid=d43d20b5-12a7-445b-8f76-43f84e0ad70e","ios":"levelo://app?vid=d43d20b5-12a7-445b-8f76-43f84e0ad70e"},"vehicle_type_id":"4","last_reported":1725811821,"current_range_meters":26000,"station_id":"ce4bhb92rcd13ifvqen0","pricing_plan_id":"cebpf4jnsgd1na2vs0mg"},{"bike_id":"e6eba775-7219-442a-a0b5-ae9453d4420f","system_id":"levelo_inurba_marseille","lat":43.290104,"lon":5.356111,"is_reserved":false,"is_disabled":false,"rental_uris":{"android":"levelo://app?vid=e6eba775-7219-442a-a0b5-ae9453d4420f","ios":"levelo://app?vid=e6eba775-7219-442a-a0b5-ae9453d4420f"},"vehicle_type_id":"4","last_reported":1725811821,"current_range_meters":400,"station_id":"ce4bhb92rcd13ifvqen0","pricing_plan_id":"cebpf4jnsgd1na2vs0mg"},{"bike_id":"5d3d0f3e-cfeb-427d-ae85-c686ec813b0d","system_id":"levelo_inurba_marseille","lat":43.290103,"lon":5.356114,"is_reserved":false,"is_disabled":false,"rental_uris":{"android":"levelo://app?vid=5d3d0f3e-cfeb-427d-ae85-c686ec813b0d","ios":"levelo://app?vid=5d3d0f3e-cfeb-427d-ae85-c686ec813b0d"},"vehicle_type_id":"4","last_reported":1725811821,"current_range_meters":800,"station_id":"ce4bhb92rcd13ifvqen0","pricing_plan_id":"cebpf4jnsgd1na2vs0mg"},{"bike_id":"2865a4a8-0536-4220-9610-0f9fc69bcacd","system_id":"levelo_inurba_marseille","lat":43.290995,"lon":5.381361,"is_reserved":false,"is_disabled":false,"rental_uris":{"android":"levelo://app?vid=2865a4a8-0536-4220-9610-0f9fc69bcacd","ios":"levelo://app?vid=2865a4a8-0536-4220-9610-0f9fc69bcacd"},"vehicle_type_id":"4","last_reported":1725811821,"current_range_meters":6000,"station_id":"ce4bh512rcd13ifvqe2g","pricing_plan_id":"cebpf4jnsgd1na2vs0mg"},{"bike_id":"1d0d5ffa-37f1-4a95-b2fd-8b7b07b02778","system_id":"levelo_inurba_marseille","lat":43.297807,"lon":5.393533,"is_reserved":false,"is_disabled":false,"rental_uris":{"android":"levelo://app?vid=1d0d5ffa-37f1-4a95-b2fd-8b7b07b02778","ios":"levelo://app?vid=1d0d5ffa-37f1-4a95-b2fd-8b7b07b02778"},"vehicle_type_id":"4","last_reported":1725811821,"current_range_meters":24000,"station_id":"chh1huq6cuj3fo74tm60","pricing_plan_id":"cebpf4jnsgd1na2vs0mg"},{"bike_id":"8b69a99f-3b5e-4d4d-92e8-6e2187aeed19","system_id":"levelo_inurba_marseille","lat":43.295169,"lon":5.390426,"is_reserved":false,"is_disabled":false,"rental_uris":{"android":"levelo://app?vid=8b69a99f-3b5e-4d4d-92e8-6e2187aeed19","ios":"levelo://app?vid=8b69a99f-3b5e-4d4d-92e8-6e2187aeed19"},"vehicle_type_id":"4","last_reported":1725811821,"current_range_meters":22000,"station_id":"ce4bh3p2rcd13ifvqdp0","pricing_plan_id":"cebpf4jnsgd1na2vs0mg"},{"bike_id":"796c518e-a25c-409d-9c1b-08c9e0185ef2","system_id":"levelo_inurba_marseille","lat":43.330442,"lon":5.389148,"is_reserved":false,"is_disabled":false,"rental_uris":{"android":"levelo://app?vid=796c518e-a25c-409d-9c1b-08c9e0185ef2","ios":"levelo://app?vid=796c518e-a25c-409d-9c1b-08c9e0185ef2"},"vehicle_type_id":"4","last_reported":1725811821,"current_range_meters":31200,"station_id":"ce4bhr92rcd13ifvqhrg","pricing_plan_id":"cebpf4jnsgd1na2vs0mg"},{"bike_id":"d12fb110-b3af-4807-93b8-3a1108d1804c","system_id":"levelo_inurba_marseille","lat":43.295169,"lon":5.390426,"is_reserved":false,"is_disabled":false,"rental_uris":{"android":"levelo://app?vid=d12fb110-b3af-4807-93b8-3a1108d1804c","ios":"levelo://app?vid=d12fb110-b3af-4807-93b8-3a1108d1804c"},"vehicle_type_id":"4","last_reported":1725811821,"current_range_meters":30800,"station_id":"ce4bh3p2rcd13ifvqdp0","pricing_plan_id":"cebpf4jnsgd1na2vs0mg"},{"bike_id":"ed566c35-a845-426c-ae52-2bb50a0abd6b","system_id":"levelo_inurba_marseille","lat":43.330442,"lon":5.389148,"is_reserved":false,"is_disabled":false,"rental_uris":{"android":"levelo://app?vid=ed566c35-a845-426c-ae52-2bb50a0abd6b","ios":"levelo://app?vid=ed566c35-a845-426c-ae52-2bb50a0abd6b"},"vehicle_type_id":"4","last_reported":1725811821,"current_range_meters":31200,"station_id":"ce4bhr92rcd13ifvqhrg","pricing_plan_id":"cebpf4jnsgd1na2vs0mg"},{"bike_id":"374f7d16-6ee0-4f04-b640-ec54d5ce29bc","system_id":"levelo_inurba_marseille","lat":43.330442,"lon":5.389148,"is_reserved":false,"is_disabled":false,"rental_uris":{"android":"levelo://app?vid=374f7d16-6ee0-4f04-b640-ec54d5ce29bc","ios":"levelo://app?vid=374f7d16-6ee0-4f04-b640-ec54d5ce29bc"},"vehicle_type_id":"4","last_reported":1725811821,"current_range_meters":31200,"station_id":"ce4bhr92rcd13ifvqhrg","pricing_plan_id":"cebpf4jnsgd1na2vs0mg"},{"bike_id":"b5679bef-3f92-449d-876f-76820b24a6d9","system_id":"levelo_inurba_marseille","lat":43.330442,"lon":5.389148,"is_reserved":false,"is_disabled":false,"rental_uris":{"android":"levelo://app?vid=b5679bef-3f92-449d-876f-76820b24a6d9","ios":"levelo://app?vid=b5679bef-3f92-449d-876f-76820b24a6d9"},"vehicle_type_id":"4","last_reported":1725811821,"current_range_meters":30800,"station_id":"ce4bhr92rcd13ifvqhrg","pricing_plan_id":"cebpf4jnsgd1na2vs0mg"},{"bike_id":"a4e1f23b-0617-40f6-a9cd-936d021734c0","system_id":"levelo_inurba_marseille","lat":43.330442,"lon":5.389148,"is_reserved":false,"is_disabled":false,"rental_uris":{"android":"levelo://app?vid=a4e1f23b-0617-40f6-a9cd-936d021734c0","ios":"levelo://app?vid=a4e1f23b-0617-40f6-a9cd-936d021734c0"},"vehicle_type_id":"4","last_reported":1725811821,"current_range_meters":25200,"station_id":"ce4bhr92rcd13ifvqhrg","pricing_plan_id":"cebpf4jnsgd1na2vs0mg"},{"bike_id":"d8c7b767-daae-4b75-84be-f4ad5e520968","system_id":"levelo_inurba_marseille","lat":43.330442,"lon":5.389148,"is_reserved":false,"is_disabled":false,"rental_uris":{"android":"levelo://app?vid=d8c7b767-daae-4b75-84be-f4ad5e520968","ios":"levelo://app?vid=d8c7b767-daae-4b75-84be-f4ad5e520968"},"vehicle_type_id":"4","last_reported":1725811821,"current_range_meters":31200,"station_id":"ce4bhr92rcd13ifvqhrg","pricing_plan_id":"cebpf4jnsgd1na2vs0mg"},{"bike_id":"57a83a35-5957-4a23-bb96-87db9ab00bdd","system_id":"levelo_inurba_marseille","lat":43.295169,"lon":5.390426,"is_reserved":false,"is_disabled":false,"rental_uris":{"android":"levelo://app?vid=57a83a35-5957-4a23-bb96-87db9ab00bdd","ios":"levelo://app?vid=57a83a35-5957-4a23-bb96-87db9ab00bdd"},"vehicle_type_id":"4","last_reported":1725811821,"current_range_meters":7200,"station_id":"ce4bh3p2rcd13ifvqdp0","pricing_plan_id":"cebpf4jnsgd1na2vs0mg"},{"bike_id":"b5c88cb3-bb88-45da-a538-65d522f8e634","system_id":"levelo_inurba_marseille","lat":43.330442,"lon":5.389148,"is_reserved":false,"is_disabled":false,"rental_uris":{"android":"levelo://app?vid=b5c88cb3-bb88-45da-a538-65d522f8e634","ios":"levelo://app?vid=b5c88cb3-bb88-45da-a538-65d522f8e634"},"vehicle_type_id":"4","last_reported":1725811821,"current_range_meters":31200,"station_id":"ce4bhr92rcd13ifvqhrg","pricing_plan_id":"cebpf4jnsgd1na2vs0mg"},{"bike_id":"7057c2ae-e265-4bdb-b37f-ad4f3369c8a6","system_id":"levelo_inurba_marseille","lat":43.330442,"lon":5.389148,"is_reserved":false,"is_disabled":false,"rental_uris":{"android":"levelo://app?vid=7057c2ae-e265-4bdb-b37f-ad4f3369c8a6","ios":"levelo://app?vid=7057c2ae-e265-4bdb-b37f-ad4f3369c8a6"},"vehicle_type_id":"4","last_reported":1725811821,"current_range_meters":31200,"station_id":"ce4bhr92rcd13ifvqhrg","pricing_plan_id":"cebpf4jnsgd1na2vs0mg"},{"bike_id":"8f7f5026-877c-40ca-bd29-cf4878fb7a32","system_id":"levelo_inurba_marseille","lat":43.295169,"lon":5.390426,"is_reserved":false,"is_disabled":false,"rental_uris":{"android":"levelo://app?vid=8f7f5026-877c-40ca-bd29-cf4878fb7a32","ios":"levelo://app?vid=8f7f5026-877c-40ca-bd29-cf4878fb7a32"},"vehicle_type_id":"4","last_reported":1725811821,"current_range_meters":19600,"station_id":"ce4bh3p2rcd13ifvqdp0","pricing_plan_id":"cebpf4jnsgd1na2vs0mg"},{"bike_id":"62e71d71-01b1-4797-b126-9c30804a5fdb","system_id":"levelo_inurba_marseille","lat":43.28967,"lon":5.3783,"is_reserved":false,"is_disabled":false,"rental_uris":{"android":"levelo://app?vid=62e71d71-01b1-4797-b126-9c30804a5fdb","ios":"levelo://app?vid=62e71d71-01b1-4797-b126-9c30804a5fdb"},"vehicle_type_id":"4","last_reported":1725811821,"current_range_meters":17200,"station_id":"ce4bh9p2rcd13ifvqed0","pricing_plan_id":"cebpf4jnsgd1na2vs0mg"},{"bike_id":"cf4302cf-43e7-4231-b7ae-3a09b1397346","system_id":"levelo_inurba_marseille","lat":43.295169,"lon":5.390426,"is_reserved":false,"is_disabled":false,"rental_uris":{"android":"levelo://app?vid=cf4302cf-43e7-4231-b7ae-3a09b1397346","ios":"levelo://app?vid=cf4302cf-43e7-4231-b7ae-3a09b1397346"},"vehicle_type_id":"4","last_reported":1725811821,"current_range_meters":27200,"station_id":"ce4bh3p2rcd13ifvqdp0","pricing_plan_id":"cebpf4jnsgd1na2vs0mg"},{"bike_id":"93b047bd-488c-452d-8e23-6ef41cac66e9","system_id":"levelo_inurba_marseille","lat":43.29431,"lon":5.389365,"is_reserved":false,"is_disabled":false,"rental_uris":{"android":"levelo://app?vid=93b047bd-488c-452d-8e23-6ef41cac66e9","ios":"levelo://app?vid=93b047bd-488c-452d-8e23-6ef41cac66e9"},"vehicle_type_id":"4","last_reported":1725811821,"current_range_meters":800,"station_id":"ce4bh3p2rcd13ifvqdp0","pricing_plan_id":"cebpf4jnsgd1na2vs0mg"},{"bike_id":"b86a8ee3-fc4d-4711-a732-429df2ba0f5d","system_id":"levelo_inurba_marseille","lat":43.2901,"lon":5.381269,"is_reserved":false,"is_disabled":false,"rental_uris":{"android":"levelo://app?vid=b86a8ee3-fc4d-4711-a732-429df2ba0f5d","ios":"levelo://app?vid=b86a8ee3-fc4d-4711-a732-429df2ba0f5d"},"vehicle_type_id":"4","last_reported":1725811821,"current_range_meters":12800,"station_id":"ce4bh4p2rcd13ifvqe1g","pricing_plan_id":"cebpf4jnsgd1na2vs0mg"},{"bike_id":"0b5ce5ce-e46a-4664-bb72-a0088f3de8b7","system_id":"levelo_inurba_marseille","lat":43.312609,"lon":5.401662,"is_reserved":false,"is_disabled":false,"rental_uris":{"android":"levelo://app?vid=0b5ce5ce-e46a-4664-bb72-a0088f3de8b7","ios":"levelo://app?vid=0b5ce5ce-e46a-4664-bb72-a0088f3de8b7"},"vehicle_type_id":"4","last_reported":1725811821,"current_range_meters":30400,"station_id":"ce4bh092rcd13ifvqd30","pricing_plan_id":"cebpf4jnsgd1na2vs0mg"},{"bike_id":"b066600e-167c-450c-bfab-531dfa3a9a49","system_id":"levelo_inurba_marseille","lat":43.309371,"lon":5.401449,"is_reserved":false,"is_disabled":false,"rental_uris":{"android":"levelo://app?vid=b066600e-167c-450c-bfab-531dfa3a9a49","ios":"levelo://app?vid=b066600e-167c-450c-bfab-531dfa3a9a49"},"vehicle_type_id":"4","last_reported":1725811821,"current_range_meters":27600,"station_id":"ce4bgvp2rcd13ifvqct0","pricing_plan_id":"cebpf4jnsgd1na2vs0mg"},{"bike_id":"40565d8c-4159-4883-b3f0-28e961f6be9e","system_id":"levelo_inurba_marseille","lat":43.33716,"lon":5.35769,"is_reserved":false,"is_disabled":false,"rental_uris":{"android":"levelo://app?vid=40565d8c-4159-4883-b3f0-28e961f6be9e","ios":"levelo://app?vid=40565d8c-4159-4883-b3f0-28e961f6be9e"},"vehicle_type_id":"4","last_reported":1725811821,"current_range_meters":11200,"station_id":"","pricing_plan_id":"cebpf4jnsgd1na2vs0mg"},{"bike_id":"9e4d0232-f478-4a7f-b3c7-c9265a6be55e","system_id":"levelo_inurba_marseille","lat":43.309371,"lon":5.401449,"is_reserved":false,"is_disabled":false,"rental_uris":{"android":"levelo://app?vid=9e4d0232-f478-4a7f-b3c7-c9265a6be55e","ios":"levelo://app?vid=9e4d0232-f478-4a7f-b3c7-c9265a6be55e"},"vehicle_type_id":"4","last_reported":1725811821,"current_range_meters":26400,"station_id":"ce4bgvp2rcd13ifvqct0","pricing_plan_id":"cebpf4jnsgd1na2vs0mg"},{"bike_id":"3f3244df-bee4-4437-b2a1-ab9135c8e39a","system_id":"levelo_inurba_marseille","lat":43.33755,"lon":5.37455,"is_reserved":false,"is_disabled":false,"rental_uris":{"android":"levelo://app?vid=3f3244df-bee4-4437-b2a1-ab9135c8e39a","ios":"levelo://app?vid=3f3244df-bee4-4437-b2a1-ab9135c8e39a"},"vehicle_type_id":"4","last_reported":1725811821,"current_range_meters":15600,"station_id":"","pricing_plan_id":"cebpf4jnsgd1na2vs0mg"},{"bike_id":"45985ff5-fc75-4626-9a62-c7067a0f7ca9","system_id":"levelo_inurba_marseille","lat":43.337556,"lon":5.374526,"is_reserved":false,"is_disabled":false,"rental_uris":{"android":"levelo://app?vid=45985ff5-fc75-4626-9a62-c7067a0f7ca9","ios":"levelo://app?vid=45985ff5-fc75-4626-9a62-c7067a0f7ca9"},"vehicle_type_id":"4","last_reported":1725811821,"current_range_meters":29200,"station_id":"","pricing_plan_id":"cebpf4jnsgd1na2vs0mg"},{"bike_id":"39f5af82-2d9d-49b5-9de0-0477144a0224","system_id":"levelo_inurba_marseille","lat":43.33756,"lon":5.37457,"is_reserved":false,"is_disabled":false,"rental_uris":{"android":"levelo://app?vid=39f5af82-2d9d-49b5-9de0-0477144a0224","ios":"levelo://app?vid=39f5af82-2d9d-49b5-9de0-0477144a0224"},"vehicle_type_id":"4","last_reported":1725811821,"current_range_meters":18800,"station_id":"","pricing_plan_id":"cebpf4jnsgd1na2vs0mg"},{"bike_id":"28224fc1-1b6b-4589-ba92-28d1e1ecda5f","system_id":"levelo_inurba_marseille","lat":43.30642,"lon":5.401031,"is_reserved":false,"is_disabled":false,"rental_uris":{"android":"levelo://app?vid=28224fc1-1b6b-4589-ba92-28d1e1ecda5f","ios":"levelo://app?vid=28224fc1-1b6b-4589-ba92-28d1e1ecda5f"},"vehicle_type_id":"4","last_reported":1725811821,"current_range_meters":16800,"station_id":"ce4bh112rcd13ifvqda0","pricing_plan_id":"cebpf4jnsgd1na2vs0mg"},{"bike_id":"c0b36ac9-5368-4bc3-8fac-60cfa3f9d4d0","system_id":"levelo_inurba_marseille","lat":43.306412,"lon":5.401035,"is_reserved":false,"is_disabled":false,"rental_uris":{"android":"levelo://app?vid=c0b36ac9-5368-4bc3-8fac-60cfa3f9d4d0","ios":"levelo://app?vid=c0b36ac9-5368-4bc3-8fac-60cfa3f9d4d0"},"vehicle_type_id":"4","last_reported":1725811821,"current_range_meters":7200,"station_id":"ce4bh112rcd13ifvqda0","pricing_plan_id":"cebpf4jnsgd1na2vs0mg"},{"bike_id":"2dea26e2-ebc6-4dce-a1cd-7d1d3e03e597","system_id":"levelo_inurba_marseille","lat":43.301117,"lon":5.398795,"is_reserved":false,"is_disabled":false,"rental_uris":{"android":"levelo://app?vid=2dea26e2-ebc6-4dce-a1cd-7d1d3e03e597","ios":"levelo://app?vid=2dea26e2-ebc6-4dce-a1cd-7d1d3e03e597"},