{"last_updated":1770746025,"ttl":60,"version":"2.2","data":{"bikes":[{"bike_id":"6051b31d-701e-49ad-8b8c-d5a67a21069c","system_id":"levelo_inurba_marseille","lat":43.27987,"lon":5.40015,"is_reserved":false,"is_disabled":false,"rental_uris":{"android":"levelo://app?vid=6051b31d-701e-49ad-8b8c-d5a67a21069c","ios":"levelo://app?vid=6051b31d-701e-49ad-8b8c-d5a67a21069c"},"vehicle_type_id":"4","last_reported":1770746026,"current_range_meters":2800,"station_id":"ce4bho92rcd13ifvqh4g","pricing_plan_id":"cebpf4jnsgd1na2vs0mg"},{"bike_id":"e8bb3f15-b7c5-47d2-b9bc-e4535782c9ef","system_id":"levelo_inurba_marseille","lat":43.25574,"lon":5.38228,"is_reserved":false,"is_disabled":false,"rental_uris":{"android":"levelo://app?vid=e8bb3f15-b7c5-47d2-b9bc-e4535782c9ef","ios":"levelo://app?vid=e8bb3f15-b7c5-47d2-b9bc-e4535782c9ef"},"vehicle_type_id":"4","last_reported":1770746026,"current_range_meters":2800,"station_id":"ce4bhih2rcd13ifvqfs0","pricing_plan_id":"cebpf4jnsgd1na2vs0mg"},{"bike_id":"f30d65b5-9521-460d-bcbc-cdbfe9525002","system_id":"levelo_inurba_marseille","lat":43.28601,"lon":5.39916,"is_reserved":false,"is_disabled":false,"rental_uris":{"android":"levelo://app?vid=f30d65b5-9521-460d-bcbc-cdbfe9525002","ios":"levelo://app?vid=f30d65b5-9521-460d-bcbc-cdbfe9525002"},"vehicle_type_id":"4","last_reported":1770746026,"current_range_meters":2800,"station_id":"st_d4a7ka997mjs738ck50g","pricing_plan_id":"cebpf4jnsgd1na2vs0mg"},{"bike_id":"2deb45fa-cb82-48cc-9169-0ddc074570fe","system_id":"levelo_inurba_marseille","lat":43.31137,"lon":5.44676,"is_reserved":false,"is_disabled":false,"rental_uris":{"android":"levelo://app?vid=2deb45fa-cb82-48cc-9169-0ddc074570fe","ios":"levelo://app?vid=2deb45fa-cb82-48cc-9169-0ddc074570fe"},"vehicle_type_id":"4","last_reported":1770746026,"current_range_meters":2800,"station_id":"","pricing_plan_id":"cebpf4jnsgd1na2vs0mg"},{"bike_id":"4ed74a89-631e-4f3d-9ffb-104dbcec7ce5","system_id":"levelo_inurba_marseille","lat":43.27992,"lon":5.39993,"is_reserved":false,"is_disabled":false,"rental_uris":{"android":"levelo://app?vid=4ed74a89-631e-4f3d-9ffb-104dbcec7ce5","ios":"levelo://app?vid=4ed74a89-631e-4f3d-9ffb-104dbcec7ce5"},"vehicle_type_id":"4","last_reported":1770746026,"current_range_meters":2800,"station_id":"ce4bho92rcd13ifvqh4g","pricing_plan_id":"cebpf4jnsgd1na2vs0mg"},{"bike_id":"a57603aa-6951-4a71-b268-b1feb848b133","system_id":"levelo_inurba_marseille","lat":43.2951,"lon":5.39024,"is_reserved":false,"is_disabled":true,"rental_uris":{"android":"levelo://app?vid=a57603aa-6951-4a71-b268-b1feb848b133","ios":"levelo://app?vid=a57603aa-6951-4a71-b268-b1feb848b133"},"vehicle_type_id":"4","last_reported":1770746026,"current_range_meters":2800,"station_id":"ce4bh3p2rcd13ifvqdp0","pricing_plan_id":"cebpf4jnsgd1na2vs0mg"},{"bike_id":"2aa05e06-5366-4cfd-80c1-a6e66487250b","system_id":"levelo_inurba_marseille","lat":43.28467,"lon":5.484,"is_reserved":false,"is_disabled":false,"rental_uris":{"android":"levelo://app?vid=2aa05e06-5366-4cfd-80c1-a6e66487250b","ios":"levelo://app?vid=2aa05e06-5366-4cfd-80c1-a6e66487250b"},"vehicle_type_id":"4","last_reported":1770746026,"current_range_meters":3200,"station_id":"","pricing_plan_id":"cebpf4jnsgd1na2vs0mg"},{"bike_id":"1b1a105d-da6d-457a-9d35-05d602d24d78","system_id":"levelo_inurba_marseille","lat":43.23119,"lon":5.43739,"is_reserved":false,"is_disabled":false,"rental_uris":{"android":"levelo://app?vid=1b1a105d-da6d-457a-9d35-05d602d24d78","ios":"levelo://app?vid=1b1a105d-da6d-457a-9d35-05d602d24d78"},"vehicle_type_id":"4","last_reported":1770746026,"current_range_meters":3200,"station_id":"ce4bhmp2rcd13ifvqgog","pricing_plan_id":"cebpf4jnsgd1na2vs0mg"},{"bike_id":"c2f2602a-0ce2-46a2-b43e-76f8a68f120d","system_id":"levelo_inurba_marseille","lat":43.292,"lon":5.35798,"is_reserved":false,"is_disabled":false,"rental_uris":{"android":"levelo://app?vid=c2f2602a-0ce2-46a2-b43e-76f8a68f120d","ios":"levelo://app?vid=c2f2602a-0ce2-46a2-b43e-76f8a68f120d"},"vehicle_type_id":"4","last_reported":1770746026,"current_range_meters":3200,"station_id":"ce4bhb12rcd13ifvqel0","pricing_plan_id":"cebpf4jnsgd1na2vs0mg"},{"bike_id":"36ac8fb1-1e6b-4c04-8e8e-9441a471d5f6","system_id":"levelo_inurba_marseille","lat":43.284838,"lon":5.484038,"is_reserved":false,"is_disabled":false,"rental_uris":{"android":"levelo://app?vid=36ac8fb1-1e6b-4c04-8e8e-9441a471d5f6","ios":"levelo://app?vid=36ac8fb1-1e6b-4c04-8e8e-9441a471d5f6"},"vehicle_type_id":"4","last_reported":1770746026,"current_range_meters":3200,"station_id":"st_d3svhcjqgbts73a3dn0g","pricing_plan_id":"cebpf4jnsgd1na2vs0mg"},{"bike_id":"ad9d377e-ddb2-4cc8-be5c-fbf4ada5de5c","system_id":"levelo_inurba_marseille","lat":43.3132,"lon":5.36696,"is_reserved":false,"is_disabled":false,"rental_uris":{"android":"levelo://app?vid=ad9d377e-ddb2-4cc8-be5c-fbf4ada5de5c","ios":"levelo://app?vid=ad9d377e-ddb2-4cc8-be5c-fbf4ada5de5c"},"vehicle_type_id":"4","last_reported":1770746026,"current_range_meters":3200,"station_id":"ce4bgr92rcd13ifvqc6g","pricing_plan_id":"cebpf4jnsgd1na2vs0mg"},{"bike_id":"11577e02-334d-4c5e-a3b1-deee98f48f2d","system_id":"levelo_inurba_marseille","lat":43.30875,"lon":5.39633,"is_reserved":false,"is_disabled":false,"rental_uris":{"android":"levelo://app?vid=11577e02-334d-4c5e-a3b1-deee98f48f2d","ios":"levelo://app?vid=11577e02-334d-4c5e-a3b1-deee98f48f2d"},"vehicle_type_id":"4","last_reported":1770746026,"current_range_meters":3200,"station_id":"ce4bh012rcd13ifvqcv0","pricing_plan_id":"cebpf4jnsgd1na2vs0mg"},{"bike_id":"7e01f57b-ade8-4cc3-81c3-76e88fac1321","system_id":"levelo_inurba_marseille","lat":43.2846,"lon":5.48385,"is_reserved":false,"is_disabled":false,"rental_uris":{"android":"levelo://app?vid=7e01f57b-ade8-4cc3-81c3-76e88fac1321","ios":"levelo://app?vid=7e01f57b-ade8-4cc3-81c3-76e88fac1321"},"vehicle_type_id":"4","last_reported":1770746026,"current_range_meters":3200,"station_id":"st_d3svhcjqgbts73a3dn0g","pricing_plan_id":"cebpf4jnsgd1na2vs0mg"},{"bike_id":"40ca09fe-7866-480e-ac60-f7b7f539bb36","system_id":"levelo_inurba_marseille","lat":43.23375,"lon":5.41223,"is_reserved":false,"is_disabled":false,"rental_uris":{"android":"levelo://app?vid=40ca09fe-7866-480e-ac60-f7b7f539bb36","ios":"levelo://app?vid=40ca09fe-7866-480e-ac60-f7b7f539bb36"},"vehicle_type_id":"4","last_reported":1770746026,"current_range_meters":3200,"station_id":"","pricing_plan_id":"cebpf4jnsgd1na2vs0mg"},{"bike_id":"6ee11a7a-bc33-49df-9cb2-56016579548a","system_id":"levelo_inurba_marseille","lat":43.32045,"lon":5.41534,"is_reserved":false,"is_disabled":false,"rental_uris":{"android":"levelo://app?vid=6ee11a7a-bc33-49df-9cb2-56016579548a","ios":"levelo://app?vid=6ee11a7a-bc33-49df-9cb2-56016579548a"},"vehicle_type_id":"4","last_reported":1770746026,"current_range_meters":3600,"station_id":"ce4bhq92rcd13ifvqhkg","pricing_plan_id":"cebpf4jnsgd1na2vs0mg"},{"bike_id":"0d435044-39b2-4402-857a-610b31675306","system_id":"levelo_inurba_marseille","lat":43.31053,"lon":5.37465,"is_reserved":false,"is_disabled":false,"rental_uris":{"android":"levelo://app?vid=0d435044-39b2-4402-857a-610b31675306","ios":"levelo://app?vid=0d435044-39b2-4402-857a-610b31675306"},"vehicle_type_id":"4","last_reported":1770746026,"current_range_meters":3600,"station_id":"","pricing_plan_id":"cebpf4jnsgd1na2vs0mg"},{"bike_id":"85dd1ff3-48fb-473b-a6b8-2f438c995677","system_id":"levelo_inurba_marseille","lat":43.29901,"lon":5.43661,"is_reserved":false,"is_disabled":false,"rental_uris":{"android":"levelo://app?vid=85dd1ff3-48fb-473b-a6b8-2f438c995677","ios":"levelo://app?vid=85dd1ff3-48fb-473b-a6b8-2f438c995677"},"vehicle_type_id":"4","last_reported":1770746026,"current_range_meters":3600,"station_id":"ce4bhpp2rcd13ifvqhfg","pricing_plan_id":"cebpf4jnsgd1na2vs0mg"},{"bike_id":"c0b6c3eb-4055-48c5-be4e-2f3633e2e95f","system_id":"levelo_inurba_marseille","lat":43.22555,"lon":5.41627,"is_reserved":false,"is_disabled":false,"rental_uris":{"android":"levelo://app?vid=c0b6c3eb-4055-48c5-be4e-2f3633e2e95f","ios":"levelo://app?vid=c0b6c3eb-4055-48c5-be4e-2f3633e2e95f"},"vehicle_type_id":"4","last_reported":1770746026,"current_range_meters":3600,"station_id":"st_d2o4gvlbi1j2169b742g","pricing_plan_id":"cebpf4jnsgd1na2vs0mg"},{"bike_id":"6b6875f2-8544-4f03-be0b-d1fb3e14670e","system_id":"levelo_inurba_marseille","lat":43.28713,"lon":5.37371,"is_reserved":false,"is_disabled":false,"rental_uris":{"android":"levelo://app?vid=6b6875f2-8544-4f03-be0b-d1fb3e14670e","ios":"levelo://app?vid=6b6875f2-8544-4f03-be0b-d1fb3e14670e"},"vehicle_type_id":"4","last_reported":1770746026,"current_range_meters":3600,"station_id":"ce4bh3p2rcd13ifvqdq0","pricing_plan_id":"cebpf4jnsgd1na2vs0mg"},{"bike_id":"d2dd198d-c654-463e-987e-c449690680a1","system_id":"levelo_inurba_marseille","lat":43.28146,"lon":5.42645,"is_reserved":false,"is_disabled":false,"rental_uris":{"android":"levelo://app?vid=d2dd198d-c654-463e-987e-c449690680a1","ios":"levelo://app?vid=d2dd198d-c654-463e-987e-c449690680a1"},"vehicle_type_id":"4","last_reported":1770746026,"current_range_meters":3600,"station_id":"ce4bhnh2rcd13ifvqgug","pricing_plan_id":"cebpf4jnsgd1na2vs0mg"},{"bike_id":"6e13e3c5-3269-4fe3-a85e-c250740ae7c8","system_id":"levelo_inurba_marseille","lat":43.28539,"lon":5.44091,"is_reserved":false,"is_disabled":false,"rental_uris":{"android":"levelo://app?vid=6e13e3c5-3269-4fe3-a85e-c250740ae7c8","ios":"levelo://app?vid=6e13e3c5-3269-4fe3-a85e-c250740ae7c8"},"vehicle_type_id":"4","last_reported":1770746026,"current_range_meters":3600,"station_id":"","pricing_plan_id":"cebpf4jnsgd1na2vs0mg"},{"bike_id":"9262bee5-9530-4e00-973c-a222d7d79242","system_id":"levelo_inurba_marseille","lat":43.25581,"lon":5.38243,"is_reserved":false,"is_disabled":false,"rental_uris":{"android":"levelo://app?vid=9262bee5-9530-4e00-973c-a222d7d79242","ios":"levelo://app?vid=9262bee5-9530-4e00-973c-a222d7d79242"},"vehicle_type_id":"4","last_reported":1770746026,"current_range_meters":4000,"station_id":"ce4bhih2rcd13ifvqfs0","pricing_plan_id":"cebpf4jnsgd1na2vs0mg"},{"bike_id":"649944b5-9077-4012-bb7d-245c08cd3e80","system_id":"levelo_inurba_marseille","lat":43.29282,"lon":5.37626,"is_reserved":false,"is_disabled":false,"rental_uris":{"android":"levelo://app?vid=649944b5-9077-4012-bb7d-245c08cd3e80","ios":"levelo://app?vid=649944b5-9077-4012-bb7d-245c08cd3e80"},"vehicle_type_id":"4","last_reported":1770746026,"current_range_meters":4000,"station_id":"ce4bgi12rcd13ifvqb80","pricing_plan_id":"cebpf4jnsgd1na2vs0mg"},{"bike_id":"54bd52e6-912c-41e4-90a6-85e5c05a7d3d","system_id":"levelo_inurba_marseille","lat":43.22565,"lon":5.41617,"is_reserved":false,"is_disabled":false,"rental_uris":{"android":"levelo://app?vid=54bd52e6-912c-41e4-90a6-85e5c05a7d3d","ios":"levelo://app?vid=54bd52e6-912c-41e4-90a6-85e5c05a7d3d"},"vehicle_type_id":"4","last_reported":1770746026,"current_range_meters":4000,"station_id":"st_d2o4gvlbi1j2169b742g","pricing_plan_id":"cebpf4jnsgd1na2vs0mg"},{"bike_id":"75523808-750b-4e61-8d1e-07a1b0b86673","system_id":"levelo_inurba_marseille","lat":43.23149,"lon":5.43719,"is_reserved":false,"is_disabled":false,"rental_uris":{"android":"levelo://app?vid=75523808-750b-4e61-8d1e-07a1b0b86673","ios":"levelo://app?vid=75523808-750b-4e61-8d1e-07a1b0b86673"},"vehicle_type_id":"4","last_reported":1770746026,"current_range_meters":4000,"station_id":"ce4bhmp2rcd13ifvqgog","pricing_plan_id":"cebpf4jnsgd1na2vs0mg"},{"bike_id":"b35efc6c-bed1-4396-b62d-fc58983a5ff4","system_id":"levelo_inurba_marseille","lat":43.30859,"lon":5.39672,"is_reserved":false,"is_disabled":false,"rental_uris":{"android":"levelo://app?vid=b35efc6c-bed1-4396-b62d-fc58983a5ff4","ios":"levelo://app?vid=b35efc6c-bed1-4396-b62d-fc58983a5ff4"},"vehicle_type_id":"4","last_reported":1770746026,"current_range_meters":4000,"station_id":"","pricing_plan_id":"cebpf4jnsgd1na2vs0mg"},{"bike_id":"78f926c4-083d-45a2-8cae-9a27fb517d32","system_id":"levelo_inurba_marseille","lat":43.29439,"lon":5.39752,"is_reserved":false,"is_disabled":false,"rental_uris":{"android":"levelo://app?vid=78f926c4-083d-45a2-8cae-9a27fb517d32","ios":"levelo://app?vid=78f926c4-083d-45a2-8cae-9a27fb517d32"},"vehicle_type_id":"4","last_reported":1770746026,"current_range_meters":4000,"station_id":"ce4bh3h2rcd13ifvqdo0","pricing_plan_id":"cebpf4jnsgd1na2vs0mg"},{"bike_id":"7805442a-0bdb-4b2b-9908-6c2ab2177ebf","system_id":"levelo_inurba_marseille","lat":43.28879,"lon":5.42525,"is_reserved":false,"is_disabled":false,"rental_uris":{"android":"levelo://app?vid=7805442a-0bdb-4b2b-9908-6c2ab2177ebf","ios":"levelo://app?vid=7805442a-0bdb-4b2b-9908-6c2ab2177ebf"},"vehicle_type_id":"4","last_reported":1770746026,"current_range_meters":4000,"station_id":"st_d3b462108ojc7389ooeg","pricing_plan_id":"cebpf4jnsgd1na2vs0mg"},{"bike_id":"dbc36db1-511a-4cc2-9d8b-7f464e8a9e5f","system_id":"levelo_inurba_marseille","lat":43.24804,"lon":5.37451,"is_reserved":false,"is_disabled":false,"rental_uris":{"android":"levelo://app?vid=dbc36db1-511a-4cc2-9d8b-7f464e8a9e5f","ios":"levelo://app?vid=dbc36db1-511a-4cc2-9d8b-7f464e8a9e5f"},"vehicle_type_id":"4","last_reported":1770746026,"current_range_meters":4000,"station_id":"ce4bhgh2rcd13ifvqfb0","pricing_plan_id":"cebpf4jnsgd1na2vs0mg"},{"bike_id":"853ae00e-2e45-4c65-8dee-d60e2e9e4794","system_id":"levelo_inurba_marseille","lat":43.28616,"lon":5.35101,"is_reserved":false,"is_disabled":false,"rental_uris":{"android":"levelo://app?vid=853ae00e-2e45-4c65-8dee-d60e2e9e4794","ios":"levelo://app?vid=853ae00e-2e45-4c65-8dee-d60e2e9e4794"},"vehicle_type_id":"4","last_reported":1770746026,"current_range_meters":4000,"station_id":"ce4bhch2rcd13ifvqeug","pricing_plan_id":"cebpf4jnsgd1na2vs0mg"},{"bike_id":"91fdd7ab-d339-4963-8616-9757378509a7","system_id":"levelo_inurba_marseille","lat":43.28606,"lon":5.37065,"is_reserved":false,"is_disabled":false,"rental_uris":{"android":"levelo://app?vid=91fdd7ab-d339-4963-8616-9757378509a7","ios":"levelo://app?vid=91fdd7ab-d339-4963-8616-9757378509a7"},"vehicle_type_id":"4","last_reported":1770746026,"current_range_meters":4000,"station_id":"ce4bht12rcd13ifvqi60","pricing_plan_id":"cebpf4jnsgd1na2vs0mg"},{"bike_id":"3f7e55f6-2088-40ae-b4f8-703efb79b7e4","system_id":"levelo_inurba_marseille","lat":43.28414,"lon":5.39169,"is_reserved":false,"is_disabled":false,"rental_uris":{"android":"levelo://app?vid=3f7e55f6-2088-40ae-b4f8-703efb79b7e4","ios":"levelo://app?vid=3f7e55f6-2088-40ae-b4f8-703efb79b7e4"},"vehicle_type_id":"4","last_reported":1770746026,"current_range_meters":4000,"station_id":"","pricing_plan_id":"cebpf4jnsgd1na2vs0mg"},{"bike_id":"795114a0-9ac3-4bc2-9a68-d130e53a3c13","system_id":"levelo_inurba_marseille","lat":43.28944,"lon":5.36376,"is_reserved":false,"is_disabled":false,"rental_uris":{"android":"levelo://app?vid=795114a0-9ac3-4bc2-9a68-d130e53a3c13","ios":"levelo://app?vid=795114a0-9ac3-4bc2-9a68-d130e53a3c13"},"vehicle_type_id":"4","last_reported":1770746026,"current_range_meters":4000,"station_id":"ce4bhc92rcd13ifvqetg","pricing_plan_id":"cebpf4jnsgd1na2vs0mg"},{"bike_id":"6d22b095-ac89-44fb-a85d-e5f85c2365e2","system_id":"levelo_inurba_marseille","lat":43.32094,"lon":5.36786,"is_reserved":false,"is_disabled":false,"rental_uris":{"android":"levelo://app?vid=6d22b095-ac89-44fb-a85d-e5f85c2365e2","ios":"levelo://app?vid=6d22b095-ac89-44fb-a85d-e5f85c2365e2"},"vehicle_type_id":"4","last_reported":1770746026,"current_range_meters":4400,"station_id":"ce4bhrh2rcd13ifvqhug","pricing_plan_id":"cebpf4jnsgd1na2vs0mg"},{"bike_id":"835443a7-ba04-4aa8-9e1e-534acbb40611","system_id":"levelo_inurba_marseille","lat":43.27079,"lon":5.4227,"is_reserved":false,"is_disabled":false,"rental_uris":{"android":"levelo://app?vid=835443a7-ba04-4aa8-9e1e-534acbb40611","ios":"levelo://app?vid=835443a7-ba04-4aa8-9e1e-534acbb40611"},"vehicle_type_id":"4","last_reported":1770746026,"current_range_meters":4400,"station_id":"ce4bhk92rcd13ifvqgb0","pricing_plan_id":"cebpf4jnsgd1na2vs0mg"},{"bike_id":"d917330e-8029-461a-95c3-ed551a62a88f","system_id":"levelo_inurba_marseille","lat":43.22556,"lon":5.41626,"is_reserved":false,"is_disabled":false,"rental_uris":{"android":"levelo://app?vid=d917330e-8029-461a-95c3-ed551a62a88f","ios":"levelo://app?vid=d917330e-8029-461a-95c3-ed551a62a88f"},"vehicle_type_id":"4","last_reported":1770746026,"current_range_meters":4400,"station_id":"st_d2o4gvlbi1j2169b742g","pricing_plan_id":"cebpf4jnsgd1na2vs0mg"},{"bike_id":"9e1a7e49-28b7-4eee-9f6e-f43236d30f6d","system_id":"levelo_inurba_marseille","lat":43.28457,"lon":5.38415,"is_reserved":false,"is_disabled":false,"rental_uris":{"android":"levelo://app?vid=9e1a7e49-28b7-4eee-9f6e-f43236d30f6d","ios":"levelo://app?vid=9e1a7e49-28b7-4eee-9f6e-f43236d30f6d"},"vehicle_type_id":"4","last_reported":1770746026,"current_range_meters":4400,"station_id":"ce4bh512rcd13ifvqe3g","pricing_plan_id":"cebpf4jnsgd1na2vs0mg"},{"bike_id":"fd158031-c8ec-435b-b315-8360533800f5","system_id":"levelo_inurba_marseille","lat":43.2621,"lon":5.40431,"is_reserved":false,"is_disabled":true,"rental_uris":{"android":"levelo://app?vid=fd158031-c8ec-435b-b315-8360533800f5","ios":"levelo://app?vid=fd158031-c8ec-435b-b315-8360533800f5"},"vehicle_type_id":"4","last_reported":1770746026,"current_range_meters":4800,"station_id":"ce4bhmh2rcd13ifvqgmg","pricing_plan_id":"cebpf4jnsgd1na2vs0mg"},{"bike_id":"fe6f8294-65ba-45f1-a4f6-c1ee0f12ef18","system_id":"levelo_inurba_marseille","lat":43.2257,"lon":5.4164,"is_reserved":false,"is_disabled":false,"rental_uris":{"android":"levelo://app?vid=fe6f8294-65ba-45f1-a4f6-c1ee0f12ef18","ios":"levelo://app?vid=fe6f8294-65ba-45f1-a4f6-c1ee0f12ef18"},"vehicle_type_id":"4","last_reported":1770746026,"current_range_meters":4800,"station_id":"st_d2o4gvlbi1j2169b742g","pricing_plan_id":"cebpf4jnsgd1na2vs0mg"},{"bike_id":"f3f6fbc6-43d5-47da-82b6-762e4e722ce6","system_id":"levelo_inurba_marseille","lat":43.27997,"lon":5.41345,"is_reserved":false,"is_disabled":false,"rental_uris":{"android":"levelo://app?vid=f3f6fbc6-43d5-47da-82b6-762e4e722ce6","ios":"levelo://app?vid=f3f6fbc6-43d5-47da-82b6-762e4e722ce6"},"vehicle_type_id":"4","last_reported":1770746026,"current_range_meters":4800,"station_id":"","pricing_plan_id":"cebpf4jnsgd1na2vs0mg"},{"bike_id":"2b259b44-8ea9-412c-9390-6977c9a1db9d","system_id":"levelo_inurba_marseille","lat":43.26943,"lon":5.40245,"is_reserved":false,"is_disabled":false,"rental_uris":{"android":"levelo://app?vid=2b259b44-8ea9-412c-9390-6977c9a1db9d","ios":"levelo://app?vid=2b259b44-8ea9-412c-9390-6977c9a1db9d"},"vehicle_type_id":"4","last_reported":1770746026,"current_range_meters":4800,"station_id":"cjm6bp8fraef2m0cb0m0","pricing_plan_id":"cebpf4jnsgd1na2vs0mg"},{"bike_id":"8f91f29e-0897-43d8-a3cf-8b8240b92337","system_id":"levelo_inurba_marseille","lat":43.29904,"lon":5.43655,"is_reserved":false,"is_disabled":false,"rental_uris":{"android":"levelo://app?vid=8f91f29e-0897-43d8-a3cf-8b8240b92337","ios":"levelo://app?vid=8f91f29e-0897-43d8-a3cf-8b8240b92337"},"vehicle_type_id":"4","last_reported":1770746026,"current_range_meters":4800,"station_id":"ce4bhpp2rcd13ifvqhfg","pricing_plan_id":"cebpf4jnsgd1na2vs0mg"},{"bike_id":"b6ef09ed-d357-4465-bd2f-ee587e4263cc","system_id":"levelo_inurba_marseille","lat":43.2845,"lon":5.40992,"is_reserved":false,"is_disabled":false,"rental_uris":{"android":"levelo://app?vid=b6ef09ed-d357-4465-bd2f-ee587e4263cc","ios":"levelo://app?vid=b6ef09ed-d357-4465-bd2f-ee587e4263cc"},"vehicle_type_id":"4","last_reported":1770746026,"current_range_meters":4800,"station_id":"","pricing_plan_id":"cebpf4jnsgd1na2vs0mg"},{"bike_id":"50dae09a-10cb-4848-9f7f-972e9f45c890","system_id":"levelo_inurba_marseille","lat":43.28731,"lon":5.37921,"is_reserved":false,"is_disabled":false,"rental_uris":{"android":"levelo://app?vid=50dae09a-10cb-4848-9f7f-972e9f45c890","ios":"levelo://app?vid=50dae09a-10cb-4848-9f7f-972e9f45c890"},"vehicle_type_id":"4","last_reported":1770746026,"current_range_meters":4800,"station_id":"ce4bh9p2rcd13ifvqec0","pricing_plan_id":"cebpf4jnsgd1na2vs0mg"},{"bike_id":"6316a440-6079-4cd7-8710-8e12c6c0a2b7","system_id":"levelo_inurba_marseille","lat":43.29899,"lon":5.436509,"is_reserved":false,"is_disabled":false,"rental_uris":{"android":"levelo://app?vid=6316a440-6079-4cd7-8710-8e12c6c0a2b7","ios":"levelo://app?vid=6316a440-6079-4cd7-8710-8e12c6c0a2b7"},"vehicle_type_id":"4","last_reported":1770746026,"current_range_meters":4800,"station_id":"ce4bhpp2rcd13ifvqhfg","pricing_plan_id":"cebpf4jnsgd1na2vs0mg"},{"bike_id":"9a0a4f5b-d5f2-4be0-a4fa-450256499716","system_id":"levelo_inurba_marseille","lat":43.26986,"lon":5.39811,"is_reserved":false,"is_disabled":false,"rental_uris":{"android":"levelo://app?vid=9a0a4f5b-d5f2-4be0-a4fa-450256499716","ios":"levelo://app?vid=9a0a4f5b-d5f2-4be0-a4fa-450256499716"},"vehicle_type_id":"4","last_reported":1770746026,"current_range_meters":4800,"station_id":"","pricing_plan_id":"cebpf4jnsgd1na2vs0mg"},{"bike_id":"0f0b794e-5bcc-4cbf-9c14-da03c4979ecb","system_id":"levelo_inurba_marseille","lat":43.2906,"lon":5.39963,"is_reserved":false,"is_disabled":false,"rental_uris":{"android":"levelo://app?vid=0f0b794e-5bcc-4cbf-9c14-da03c4979ecb","ios":"levelo://app?vid=0f0b794e-5bcc-4cbf-9c14-da03c4979ecb"},"vehicle_type_id":"4","last_reported":1770746026,"current_range_meters":5600,"station_id":"ce4bh392rcd13ifvqdm0","pricing_plan_id":"cebpf4jnsgd1na2vs0mg"},{"bike_id":"877aaecc-1e03-412a-b7fc-49812ef7fbf6","system_id":"levelo_inurba_marseille","lat":43.299618,"lon":5.373501,"is_reserved":false,"is_disabled":false,"rental_uris":{"android":"levelo://app?vid=877aaecc-1e03-412a-b7fc-49812ef7fbf6","ios":"levelo://app?vid=877aaecc-1e03-412a-b7fc-49812ef7fbf6"},"vehicle_type_id":"4","last_reported":1770746026,"current_range_meters":5600,"station_id":"","pricing_plan_id":"cebpf4jnsgd1na2vs0mg"},{"bike_id":"4854d036-e44b-4ef2-aa5a-9450ae076801","system_id":"levelo_inurba_marseille","lat":43.311256,"lon":5.37778,"is_reserved":false,"is_disabled":false,"rental_uris":{"android":"levelo://app?vid=4854d036-e44b-4ef2-aa5a-9450ae076801","ios":"levelo://app?vid=4854d036-e44b-4ef2-aa5a-9450ae076801"},"vehicle_type_id":"4","last_reported":1770746026,"current_range_meters":5600,"station_id":"ce4bgt92rcd13ifvqcg0","pricing_plan_id":"cebpf4jnsgd1na2vs0mg"},{"bike_id":"e20506fc-81c8-45aa-af10-6b0aa01b93ce","system_id":"levelo_inurba_marseille","lat":43.27057,"lon":5.3831,"is_reserved":false,"is_disabled":false,"rental_uris":{"android":"levelo://app?vid=e20506fc-81c8-45aa-af10-6b0aa01b93ce","ios":"levelo://app?vid=e20506fc-81c8-45aa-af10-6b0aa01b93ce"},"vehicle_type_id":"4","last_reported":1770746026,"current_range_meters":5600,"station_id":"st_d3n2fo6cfp8s73cte1j0","pricing_plan_id":"cebpf4jnsgd1na2vs0mg"},{"bike_id":"a09a2871-96ad-4160-bebe-146c5605e78c","system_id":"levelo_inurba_marseille","lat":43.26539,"lon":5.37322,"is_reserved":false,"is_disabled":false,"rental_uris":{"android":"levelo://app?vid=a09a2871-96ad-4160-bebe-146c5605e78c","ios":"levelo://app?vid=a09a2871-96ad-4160-bebe-146c5605e78c"},"vehicle_type_id":"4","last_reported":1770746026,"current_range_meters":5600,"station_id":"ce4bhg12rcd13ifvqf70","pricing_plan_id":"cebpf4jnsgd1na2vs0mg"},{"bike_id":"af109b45-02d2-41f8-be4b-42b484fd3394","system_id":"levelo_inurba_marseille","lat":43.29931,"lon":5.43677,"is_reserved":false,"is_disabled":false,"rental_uris":{"android":"levelo://app?vid=af109b45-02d2-41f8-be4b-42b484fd3394","ios":"levelo://app?vid=af109b45-02d2-41f8-be4b-42b484fd3394"},"vehicle_type_id":"4","last_reported":1770746026,"current_range_meters":5600,"station_id":"","pricing_plan_id":"cebpf4jnsgd1na2vs0mg"},{"bike_id":"76659713-3743-45e3-946a-bbf02481dd3d","system_id":"levelo_inurba_marseille","lat":43.29644,"lon":5.37734,"is_reserved":false,"is_disabled":false,"rental_uris":{"android":"levelo://app?vid=76659713-3743-45e3-946a-bbf02481dd3d","ios":"levelo://app?vid=76659713-3743-45e3-946a-bbf02481dd3d"},"vehicle_type_id":"4","last_reported":1770746026,"current_range_meters":5600,"station_id":"ce4bgi92rcd13ifvqb90","pricing_plan_id":"cebpf4jnsgd1na2vs0mg"},{"bike_id":"9a106465-8093-45b4-be9f-293675a1ce8a","system_id":"levelo_inurba_marseille","lat":43.29627,"lon":5.37162,"is_reserved":false,"is_disabled":false,"rental_uris":{"android":"levelo://app?vid=9a106465-8093-45b4-be9f-293675a1ce8a","ios":"levelo://app?vid=9a106465-8093-45b4-be9f-293675a1ce8a"},"vehicle_type_id":"4","last_reported":1770746026,"current_range_meters":6000,"station_id":"ce4bgnh2rcd13ifvqc0g","pricing_plan_id":"cebpf4jnsgd1na2vs0mg"},{"bike_id":"6c039895-332d-461f-b642-cc8f2ffe3d53","system_id":"levelo_inurba_marseille","lat":43.29061,"lon":5.39935,"is_reserved":false,"is_disabled":false,"rental_uris":{"android":"levelo://app?vid=6c039895-332d-461f-b642-cc8f2ffe3d53","ios":"levelo://app?vid=6c039895-332d-461f-b642-cc8f2ffe3d53"},"vehicle_type_id":"4","last_reported":1770746026,"current_range_meters":6000,"station_id":"ce4bh392rcd13ifvqdm0","pricing_plan_id":"cebpf4jnsgd1na2vs0mg"},{"bike_id":"15e2e152-1ec2-486a-8cc8-d7567c21a107","system_id":"levelo_inurba_marseille","lat":43.29555,"lon":5.42271,"is_reserved":false,"is_disabled":false,"rental_uris":{"android":"levelo://app?vid=15e2e152-1ec2-486a-8cc8-d7567c21a107","ios":"levelo://app?vid=15e2e152-1ec2-486a-8cc8-d7567c21a107"},"vehicle_type_id":"4","last_reported":1770746026,"current_range_meters":6000,"station_id":"ce4bhph2rcd13ifvqhdg","pricing_plan_id":"cebpf4jnsgd1na2vs0mg"},{"bike_id":"3bb52212-08ac-4012-8011-ffe14abdf457","system_id":"levelo_inurba_marseille","lat":43.2903,"lon":5.37808,"is_reserved":false,"is_disabled":false,"rental_uris":{"android":"levelo://app?vid=3bb52212-08ac-4012-8011-ffe14abdf457","ios":"levelo://app?vid=3bb52212-08ac-4012-8011-ffe14abdf457"},"vehicle_type_id":"4","last_reported":1770746026,"current_range_meters":6000,"station_id":"","pricing_plan_id":"cebpf4jnsgd1na2vs0mg"},{"bike_id":"05d628e9-781f-4f77-a9a7-087d759ed084","system_id":"levelo_inurba_marseille","lat":43.22937,"lon":5.35397,"is_reserved":false,"is_disabled":false,"rental_uris":{"android":"levelo://app?vid=05d628e9-781f-4f77-a9a7-087d759ed084","ios":"levelo://app?vid=05d628e9-781f-4f77-a9a7-087d759ed084"},"vehicle_type_id":"4","last_reported":1770746026,"current_range_meters":6000,"station_id":"cpo3532slgdg3j2ikp40","pricing_plan_id":"cebpf4jnsgd1na2vs0mg"},{"bike_id":"3ac3ea71-e69f-4c97-8041-51d5e3ebe8c9","system_id":"levelo_inurba_marseille","lat":43.27942,"lon":5.38703,"is_reserved":false,"is_disabled":false,"rental_uris":{"android":"levelo://app?vid=3ac3ea71-e69f-4c97-8041-51d5e3ebe8c9","ios":"levelo://app?vid=3ac3ea71-e69f-4c97-8041-51d5e3ebe8c9"},"vehicle_type_id":"4","last_reported":1770746026,"current_range_meters":6000,"station_id":"ce4bhg12rcd13ifvqf80","pricing_plan_id":"cebpf4jnsgd1na2vs0mg"},{"bike_id":"c84f98ff-c4b0-498e-bd41-7b5647869b42","system_id":"levelo_inurba_marseille","lat":43.233855,"lon":5.412342,"is_reserved":false,"is_disabled":false,"rental_uris":{"android":"levelo://app?vid=c84f98ff-c4b0-498e-bd41-7b5647869b42","ios":"levelo://app?vid=c84f98ff-c4b0-498e-bd41-7b5647869b42"},"vehicle_type_id":"4","last_reported":1770746026,"current_range_meters":6000,"station_id":"","pricing_plan_id":"cebpf4jnsgd1na2vs0mg"},{"bike_id":"971b48dd-c7a4-4deb-8d64-56d2c1c381de","system_id":"levelo_inurba_marseille","lat":43.26399,"lon":5.41037,"is_reserved":false,"is_disabled":false,"rental_uris":{"android":"levelo://app?vid=971b48dd-c7a4-4deb-8d64-56d2c1c381de","ios":"levelo://app?vid=971b48dd-c7a4-4deb-8d64-56d2c1c381de"},"vehicle_type_id":"4","last_reported":1770746026,"current_range_meters":6000,"station_id":"","pricing_plan_id":"cebpf4jnsgd1na2vs0mg"},{"bike_id":"9181861d-3c4b-4770-b545-363c30923e26","system_id":"levelo_inurba_marseille","lat":43.284906,"lon":5.483668,"is_reserved":false,"is_disabled":false,"rental_uris":{"android":"levelo://app?vid=9181861d-3c4b-4770-b545-363c30923e26","ios":"levelo://app?vid=9181861d-3c4b-4770-b545-363c30923e26"},"vehicle_type_id":"4","last_reported":1770746026,"current_range_meters":6000,"station_id":"st_d3svhcjqgbts73a3dn0g","pricing_plan_id":"cebpf4jnsgd1na2vs0mg"},{"bike_id":"6efe5f0a-6c4f-403e-907f-5428484845d2","system_id":"levelo_inurba_marseille","lat":43.31704,"lon":5.40385,"is_reserved":false,"is_disabled":false,"rental_uris":{"android":"levelo://app?vid=6efe5f0a-6c4f-403e-907f-5428484845d2","ios":"levelo://app?vid=6efe5f0a-6c4f-403e-907f-5428484845d2"},"vehicle_type_id":"4","last_reported":1770746026,"current_range_meters":6000,"station_id":"ce4bh012rcd13ifvqd00","pricing_plan_id":"cebpf4jnsgd1na2vs0mg"},{"bike_id":"8c5df9c2-edca-4c7f-889d-f3ef192b7c99","system_id":"levelo_inurba_marseille","lat":43.30135,"lon":5.3742,"is_reserved":false,"is_disabled":false,"rental_uris":{"android":"levelo://app?vid=8c5df9c2-edca-4c7f-889d-f3ef192b7c99","ios":"levelo://app?vid=8c5df9c2-edca-4c7f-889d-f3ef192b7c99"},"vehicle_type_id":"4","last_reported":1770746026,"current_range_meters":6000,"station_id":"ce4bgs92rcd13ifvqcc0","pricing_plan_id":"cebpf4jnsgd1na2vs0mg"},{"bike_id":"32df9713-f370-4b5b-937c-67632b06730e","system_id":"levelo_inurba_marseille","lat":43.3052,"lon":5.36692,"is_reserved":false,"is_disabled":false,"rental_uris":{"android":"levelo://app?vid=32df9713-f370-4b5b-937c-67632b06730e","ios":"levelo://app?vid=32df9713-f370-4b5b-937c-67632b06730e"},"vehicle_type_id":"4","last_reported":1770746026,"current_range_meters":6000,"station_id":"ce4bgrp2rcd13ifvqc9g","pricing_plan_id":"cebpf4jnsgd1na2vs0mg"},{"bike_id":"02e9af11-2912-44f7-be5c-e2ae093265ba","system_id":"levelo_inurba_marseille","lat":43.26694,"lon":5.38273,"is_reserved":false,"is_disabled":false,"rental_uris":{"android":"levelo://app?vid=02e9af11-2912-44f7-be5c-e2ae093265ba","ios":"levelo://app?vid=02e9af11-2912-44f7-be5c-e2ae093265ba"},"vehicle_type_id":"4","last_reported":1770746026,"current_range_meters":6400,"station_id":"ce4bhg92rcd13ifvqf90","pricing_plan_id":"cebpf4jnsgd1na2vs0mg"},{"bike_id":"606ab2af-e487-4293-a70f-a86c985235d6","system_id":"levelo_inurba_marseille","lat":43.24147,"lon":5.39717,"is_reserved":false,"is_disabled":false,"rental_uris":{"android":"levelo://app?vid=606ab2af-e487-4293-a70f-a86c985235d6","ios":"levelo://app?vid=606ab2af-e487-4293-a70f-a86c985235d6"},"vehicle_type_id":"4","last_reported":1770746026,"current_range_meters":6400,"station_id":"ce4bhn12rcd13ifvqgpg","pricing_plan_id":"cebpf4jnsgd1na2vs0mg"},{"bike_id":"a07cd24c-7e73-437e-917a-60bdbc1072fc","system_id":"levelo_inurba_marseille","lat":43.24397,"lon":5.37075,"is_reserved":false,"is_disabled":false,"rental_uris":{"android":"levelo://app?vid=a07cd24c-7e73-437e-917a-60bdbc1072fc","ios":"levelo://app?vid=a07cd24c-7e73-437e-917a-60bdbc1072fc"},"vehicle_type_id":"4","last_reported":1770746026,"current_range_meters":6400,"station_id":"ce4bhhh2rcd13ifvqfk0","pricing_plan_id":"cebpf4jnsgd1na2vs0mg"},{"bike_id":"8ae193d0-6aa6-49c6-83c9-9ea48a09d2ef","system_id":"levelo_inurba_marseille","lat":43.27349,"lon":5.3909,"is_reserved":false,"is_disabled":false,"rental_uris":{"android":"levelo://app?vid=8ae193d0-6aa6-49c6-83c9-9ea48a09d2ef","ios":"levelo://app?vid=8ae193d0-6aa6-49c6-83c9-9ea48a09d2ef"},"vehicle_type_id":"4","last_reported":1770746026,"current_range_meters":6400,"station_id":"ce4bhgp2rcd13ifvqfe0","pricing_plan_id":"cebpf4jnsgd1na2vs0mg"},{"bike_id":"3b5567a6-efa3-498b-ad01-b9c12c6390c4","system_id":"levelo_inurba_marseille","lat":43.31724,"lon":5.42396,"is_reserved":false,"is_disabled":false,"rental_uris":{"android":"levelo://app?vid=3b5567a6-efa3-498b-ad01-b9c12c6390c4","ios":"levelo://app?vid=3b5567a6-efa3-498b-ad01-b9c12c6390c4"},"vehicle_type_id":"4","last_reported":1770746026,"current_range_meters":6400,"station_id":"ce4bhp92rcd13ifvqhbg","pricing_plan_id":"cebpf4jnsgd1na2vs0mg"},{"bike_id":"6a08a5d6-ffa7-4608-a0aa-b28a2bbac638","system_id":"levelo_inurba_marseille","lat":43.29528,"lon":5.37504,"is_reserved":false,"is_disabled":false,"rental_uris":{"android":"levelo://app?vid=6a08a5d6-ffa7-4608-a0aa-b28a2bbac638","ios":"levelo://app?vid=6a08a5d6-ffa7-4608-a0aa-b28a2bbac638"},"vehicle_type_id":"4","last_reported":1770746026,"current_range_meters":6400,"station_id":"ce4bgkp2rcd13ifvqbmg","pricing_plan_id":"cebpf4jnsgd1na2vs0mg"},{"bike_id":"f566875e-5642-41c3-af4a-390fbf63f0fb","system_id":"levelo_inurba_marseille","lat":43.28338,"lon":5.3807,"is_reserved":false,"is_disabled":false,"rental_uris":{"android":"levelo://app?vid=f566875e-5642-41c3-af4a-390fbf63f0fb","ios":"levelo://app?vid=f566875e-5642-41c3-af4a-390fbf63f0fb"},"vehicle_type_id":"4","last_reported":1770746026,"current_range_meters":6400,"station_id":"ce4bh412rcd13ifvqdr0","pricing_plan_id":"cebpf4jnsgd1na2vs0mg"},{"bike_id":"774647ab-afd2-472c-b3ee-3701d6387862","system_id":"levelo_inurba_marseille","lat":43.30522,"lon":5.36698,"is_reserved":false,"is_disabled":false,"rental_uris":{"android":"levelo://app?vid=774647ab-afd2-472c-b3ee-3701d6387862","ios":"levelo://app?vid=774647ab-afd2-472c-b3ee-3701d6387862"},"vehicle_type_id":"4","last_reported":1770746026,"current_range_meters":6400,"station_id":"ce4bgrp2rcd13ifvqc9g","pricing_plan_id":"cebpf4jnsgd1na2vs0mg"},{"bike_id":"bbe5822a-afd2-454d-8041-18bd1347d006","system_id":"levelo_inurba_marseille","lat":43.30596,"lon":5.36544,"is_reserved":false,"is_disabled":false,"rental_uris":{"android":"levelo://app?vid=bbe5822a-afd2-454d-8041-18bd1347d006","ios":"levelo://app?vid=bbe5822a-afd2-454d-8041-18bd1347d006"},"vehicle_type_id":"4","last_reported":1770746026,"current_range_meters":6400,"station_id":"ce4bgs12rcd13ifvqcag","pricing_plan_id":"cebpf4jnsgd1na2vs0mg"},{"bike_id":"28f6efe4-6cb0-4a5c-960a-72546eb7a2a9","system_id":"levelo_inurba_marseille","lat":43.29559,"lon":5.42291,"is_reserved":false,"is_disabled":false,"rental_uris":{"android":"levelo://app?vid=28f6efe4-6cb0-4a5c-960a-72546eb7a2a9","ios":"levelo://app?vid=28f6efe4-6cb0-4a5c-960a-72546eb7a2a9"},"vehicle_type_id":"4","last_reported":1770746026,"current_range_meters":6400,"station_id":"ce4bhph2rcd13ifvqhdg","pricing_plan_id":"cebpf4jnsgd1na2vs0mg"},{"bike_id":"f5cdd31f-37c8-4ab5-94cb-bbc5a7acf886","system_id":"levelo_inurba_marseille","lat":43.25739,"lon":5.41095,"is_reserved":false,"is_disabled":false,"rental_uris":{"android":"levelo://app?vid=f5cdd31f-37c8-4ab5-94cb-bbc5a7acf886","ios":"levelo://app?vid=f5cdd31f-37c8-4ab5-94cb-bbc5a7acf886"},"vehicle_type_id":"4","last_reported":1770746026,"current_range_meters":6400,"station_id":"ce4bhkp2rcd13ifvqgd0","pricing_plan_id":"cebpf4jnsgd1na2vs0mg"},{"bike_id":"bfc07130-be47-4eef-8325-e33d6610d729","system_id":"levelo_inurba_marseille","lat":43.30137,"lon":5.43096,"is_reserved":false,"is_disabled":false,"rental_uris":{"android":"levelo://app?vid=bfc07130-be47-4eef-8325-e33d6610d729","ios":"levelo://app?vid=bfc07130-be47-4eef-8325-e33d6610d729"},"vehicle_type_id":"4","last_reported":1770746026,"current_range_meters":6800,"station_id":"st_d3js3co5814s73ftftug","pricing_plan_id":"cebpf4jnsgd1na2vs0mg"},{"bike_id":"5b374d1f-8a3c-41b1-951f-fd4d5935bd6a","system_id":"levelo_inurba_marseille","lat":43.29834,"lon":5.36821,"is_reserved":false,"is_disabled":false,"rental_uris":{"android":"levelo://app?vid=5b374d1f-8a3c-41b1-951f-fd4d5935bd6a","ios":"levelo://app?vid=5b374d1f-8a3c-41b1-951f-fd4d5935bd6a"},"vehicle_type_id":"4","last_reported":1770746026,"current_range_meters":6800,"station_id":"","pricing_plan_id":"cebpf4jnsgd1na2vs0mg"},{"bike_id":"05abb5d5-7a0f-4692-a6b6-119f614f1bb6","system_id":"levelo_inurba_marseille","lat":43.270572,"lon":5.38306,"is_reserved":false,"is_disabled":false,"rental_uris":{"android":"levelo://app?vid=05abb5d5-7a0f-4692-a6b6-119f614f1bb6","ios":"levelo://app?vid=05abb5d5-7a0f-4692-a6b6-119f614f1bb6"},"vehicle_type_id":"4","last_reported":1770746026,"current_range_meters":6800,"station_id":"st_d3n2fo6cfp8s73cte1j0","pricing_plan_id":"cebpf4jnsgd1na2vs0mg"},{"bike_id":"4109e4ef-141f-48d2-bf8a-09fdeeebff78","system_id":"levelo_inurba_marseille","lat":43.272897,"lon":5.39995,"is_reserved":false,"is_disabled":false,"rental_uris":{"android":"levelo://app?vid=4109e4ef-141f-48d2-bf8a-09fdeeebff78","ios":"levelo://app?vid=4109e4ef-141f-48d2-bf8a-09fdeeebff78"},"vehicle_type_id":"4","last_reported":1770746026,"current_range_meters":6800,"station_id":"","pricing_plan_id":"cebpf4jnsgd1na2vs0mg"},{"bike_id":"652029fd-7389-40d5-a0bd-e85f7aa43d7c","system_id":"levelo_inurba_marseille","lat":43.2256,"lon":5.41644,"is_reserved":false,"is_disabled":false,"rental_uris":{"android":"levelo://app?vid=652029fd-7389-40d5-a0bd-e85f7aa43d7c","ios":"levelo://app?vid=652029fd-7389-40d5-a0bd-e85f7aa43d7c"},"vehicle_type_id":"4","last_reported":1770746026,"current_range_meters":6800,"station_id":"st_d2o4gvlbi1j2169b742g","pricing_plan_id":"cebpf4jnsgd1na2vs0mg"},{"bike_id":"cd139a94-86c4-4fc7-955f-ecc7f027a59a","system_id":"levelo_inurba_marseille","lat":43.24997,"lon":5.38939,"is_reserved":false,"is_disabled":false,"rental_uris":{"android":"levelo://app?vid=cd139a94-86c4-4fc7-955f-ecc7f027a59a","ios":"levelo://app?vid=cd139a94-86c4-4fc7-955f-ecc7f027a59a"},"vehicle_type_id":"4","last_reported":1770746026,"current_range_meters":6800,"station_id":"ce4bhgp2rcd13ifvqfd0","pricing_plan_id":"cebpf4jnsgd1na2vs0mg"},{"bike_id":"20d7655a-dd73-4aef-83bc-661ec3e777a1","system_id":"levelo_inurba_marseille","lat":43.26704,"lon":5.38246,"is_reserved":false,"is_disabled":false,"rental_uris":{"android":"levelo://app?vid=20d7655a-dd73-4aef-83bc-661ec3e777a1","ios":"levelo://app?vid=20d7655a-dd73-4aef-83bc-661ec3e777a1"},"vehicle_type_id":"4","last_reported":1770746026,"current_range_meters":6800,"station_id":"ce4bhg92rcd13ifvqf90","pricing_plan_id":"cebpf4jnsgd1na2vs0mg"},{"bike_id":"803c01d0-5d35-4b2f-928b-dd14585ab697","system_id":"levelo_inurba_marseille","lat":43.29823,"lon":5.37675,"is_reserved":false,"is_disabled":false,"rental_uris":{"android":"levelo://app?vid=803c01d0-5d35-4b2f-928b-dd14585ab697","ios":"levelo://app?vid=803c01d0-5d35-4b2f-928b-dd14585ab697"},"vehicle_type_id":"4","last_reported":1770746026,"current_range_meters":6800,"station_id":"","pricing_plan_id":"cebpf4jnsgd1na2vs0mg"},{"bike_id":"c3837698-13b9-40c4-a749-ef246691d724","system_id":"levelo_inurba_marseille","lat":43.29024,"lon":5.38131,"is_reserved":false,"is_disabled":false,"rental_uris":{"android":"levelo://app?vid=c3837698-13b9-40c4-a749-ef246691d724","ios":"levelo://app?vid=c3837698-13b9-40c4-a749-ef246691d724"},"vehicle_type_id":"4","last_reported":1770746026,"current_range_meters":6800,"station_id":"ce4bh4p2rcd13ifvqe1g","pricing_plan_id":"cebpf4jnsgd1na2vs0mg"},{"bike_id":"3447b6b2-47a5-4833-b2da-d75f26779948","system_id":"levelo_inurba_marseille","lat":43.26386,"lon":5.41054,"is_reserved":false,"is_disabled":false,"rental_uris":{"android":"levelo://app?vid=3447b6b2-47a5-4833-b2da-d75f26779948","ios":"levelo://app?vid=3447b6b2-47a5-4833-b2da-d75f26779948"},"vehicle_type_id":"4","last_reported":1770746026,"current_range_meters":6800,"station_id":"st_d4e5ca6na9uc73bfl5fg","pricing_plan_id":"cebpf4jnsgd1na2vs0mg"},{"bike_id":"8a1f19b1-39c0-42f4-b119-90f88b9acab9","system_id":"levelo_inurba_marseille","lat":43.26823,"lon":5.39468,"is_reserved":false,"is_disabled":false,"rental_uris":{"android":"levelo://app?vid=8a1f19b1-39c0-42f4-b119-90f88b9acab9","ios":"levelo://app?vid=8a1f19b1-39c0-42f4-b119-90f88b9acab9"},"vehicle_type_id":"4","last_reported":1770746026,"current_range_meters":6800,"station_id":"","pricing_plan_id":"cebpf4jnsgd1na2vs0mg"},{"bike_id":"28604dd7-849e-41fc-8a86-d00e5bb754e7","system_id":"levelo_inurba_marseille","lat":43.29748,"lon":5.3768,"is_reserved":false,"is_disabled":false,"rental_uris":{"android":"levelo://app?vid=28604dd7-849e-41fc-8a86-d00e5bb754e7","ios":"levelo://app?vid=28604dd7-849e-41fc-8a86-d00e5bb754e7"},"vehicle_type_id":"4","last_reported":1770746026,"current_range_meters":6800,"station_id":"ce4bgkh2rcd13ifvqbl0","pricing_plan_id":"cebpf4jnsgd1na2vs0mg"},{"bike_id":"975bd0c0-5c30-478f-a1a3-a05ee365190d","system_id":"levelo_inurba_marseille","lat":43.31315,"lon":5.40779,"is_reserved":false,"is_disabled":false,"rental_uris":{"android":"levelo://app?vid=975bd0c0-5c30-478f-a1a3-a05ee365190d","ios":"levelo://app?vid=975bd0c0-5c30-478f-a1a3-a05ee365190d"},"vehicle_type_id":"4","last_reported":1770746026,"current_range_meters":6800,"station_id":"","pricing_plan_id":"cebpf4jnsgd1na2vs0mg"},{"bike_id":"b1429378-b93e-4184-b373-85f0415c9919","system_id":"levelo_inurba_marseille","lat":43.24633,"lon":5.4314,"is_reserved":false,"is_disabled":false,"rental_uris":{"android":"levelo://app?vid=b1429378-b93e-4184-b373-85f0415c9919","ios":"levelo://app?vid=b1429378-b93e-4184-b373-85f0415c9919"},"vehicle_type_id":"4","last_reported":1770746026,"current_range_meters":6800,"station_id":"st_d2m6c4gdas8pm72e190g","pricing_plan_id":"cebpf4jnsgd1na2vs0mg"},{"bike_id":"3f073bb1-163c-4fe4-af8a-8b439ac670da","system_id":"levelo_inurba_marseille","lat":43.25091,"lon":5.39527,"is_reserved":false,"is_disabled":false,"rental_uris":{"android":"levelo://app?vid=3f073bb1-163c-4fe4-af8a-8b439ac670da","ios":"levelo://app?vid=3f073bb1-163c-4fe4-af8a-8b439ac670da"},"vehicle_type_id":"4","last_reported":1770746026,"current_range_meters":6800,"station_id":"ce4bhm12rcd13ifvqgkg","pricing_plan_id":"cebpf4jnsgd1na2vs0mg"},{"bike_id":"ab8ed30d-dd64-45c7-9d56-1700378f985a","system_id":"levelo_inurba_marseille","lat":43.2709,"lon":5.38319,"is_reserved":false,"is_disabled":false,"rental_uris":{"android":"levelo://app?vid=ab8ed30d-dd64-45c7-9d56-1700378f985a","ios":"levelo://app?vid=ab8ed30d-dd64-45c7-9d56-1700378f985a"},"vehicle_type_id":"4","last_reported":1770746026,"current_range_meters":6800,"station_id":"st_d3n2fo6cfp8s73cte1j0","pricing_plan_id":"cebpf4jnsgd1na2vs0mg"},{"bike_id":"d1006334-eff8-445f-9201-a0c70717fbd7","system_id":"levelo_inurba_marseille","lat":43.27932,"lon":5.41151,"is_reserved":false,"is_disabled":false,"rental_uris":{"android":"levelo://app?vid=d1006334-eff8-445f-9201-a0c70717fbd7","ios":"levelo://app?vid=d1006334-eff8-445f-9201-a0c70717fbd7"},"vehicle_type_id":"4","last_reported":1770746026,"current_range_meters":6800,"station_id":"","pricing_plan_id":"cebpf4jnsgd1na2vs0mg"},{"bike_id":"e6fa3a33-760e-4af7-8040-298f0da91379","system_id":"levelo_inurba_marseille","lat":43.30946,"lon":5.384,"is_reserved":false,"is_disabled":false,"rental_uris":{"android":"levelo://app?vid=e6fa3a33-760e-4af7-8040-298f0da91379","ios":"levelo://app?vid=e6fa3a33-760e-4af7-8040-298f0da91379"},"vehicle_type_id":"4","last_reported":1770746026,"current_range_meters":6800,"station_id":"","pricing_plan_id":"cebpf4jnsgd1na2vs0mg"},{"bike_id":"b472a260-a54c-461c-933d-55c5e369f9af","system_id":"levelo_inurba_marseille","lat":43.26944,"lon":5.38652,"is_reserved":false,"is_disabled":false,"rental_uris":{"android":"levelo://app?vid=b472a260-a54c-461c-933d-55c5e369f9af","ios":"levelo://app?vid=b472a260-a54c-461c-933d-55c5e369f9af"},"vehicle_type_id":"4","last_reported":1770746026,"current_range_meters":6800,"station_id":"ce4bhh92rcd13ifvqfh0","pricing_plan_id":"cebpf4jnsgd1na2vs0mg"},{"bike_id":"22d8d839-db4c-4efa-bd5d-d78efaca55ca","system_id":"levelo_inurba_marseille","lat":43.2706,"lon":5.38302,"is_reserved":false,"is_disabled":false,"rental_uris":{"android":"levelo://app?vid=22d8d839-db4c-4efa-bd5d-d78efaca55ca","ios":"levelo://app?vid=22d8d839-db4c-4efa-bd5d-d78efaca55ca"},"vehicle_type_id":"4","last_reported":1770746026,"current_range_meters":6800,"station_id":"st_d3n2fo6cfp8s73cte1j0","pricing_plan_id":"cebpf4jnsgd1na2vs0mg"},{"bike_id":"3e62a0fd-19ac-4f58-93af-6af710db8a94","system_id":"levelo_inurba_marseille","lat":43.22959,"lon":5.35317,"is_reserved":false,"is_disabled":false,"rental_uris":{"android":"levelo://app?vid=3e62a0fd-19ac-4f58-93af-6af710db8a94","ios":"levelo://app?vid=3e62a0fd-19ac-4f58-93af-6af710db8a94"},"vehicle_type_id":"4","last_reported":1770746026,"current_range_meters":6800,"station_id":"","pricing_plan_id":"cebpf4jnsgd1na2vs0mg"},{"bike_id":"ea8da4c0-d08c-418d-b183-47656f300355","system_id":"levelo_inurba_marseille","lat":43.309061,"lon":5.368556,"is_reserved":false,"is_disabled":false,"rental_uris":{"android":"levelo://app?vid=ea8da4c0-d08c-418d-b183-47656f300355","ios":"levelo://app?vid=ea8da4c0-d08c-418d-b183-47656f300355"},"vehicle_type_id":"4","last_reported":1770746026,"current_range_meters":6800,"station_id":"ce4bgn92rcd13ifvqbvg","pricing_plan_id":"cebpf4jnsgd1na2vs0mg"},{"bike_id":"a77c912b-0b8a-46aa-939d-407a9640bd53","system_id":"levelo_inurba_marseille","lat":43.26686,"lon":5.38264,"is_reserved":false,"is_disabled":false,"rental_uris":{"android":"levelo://app?vid=a77c912b-0b8a-46aa-939d-407a9640bd53","ios":"levelo://app?vid=a77c912b-0b8a-46aa-939d-407a9640bd53"},"vehicle_type_id":"4","last_reported":1770746026,"current_range_meters":6800,"station_id":"ce4bhg92rcd13ifvqf90","pricing_plan_id":"cebpf4jnsgd1na2vs0mg"},{"bike_id":"a5ef3890-8302-4c8a-bac6-540bffa0497d","system_id":"levelo_inurba_marseille","lat":43.22926,"lon":5.35376,"is_reserved":false,"is_disabled":false,"rental_uris":{"android":"levelo://app?vid=a5ef3890-8302-4c8a-bac6-540bffa0497d","ios":"levelo://app?vid=a5ef3890-8302-4c8a-bac6-540bffa0497d"},"vehicle_type_id":"4","last_reported":1770746026,"current_range_meters":7200,"station_id":"cpo3532slgdg3j2ikp40","pricing_plan_id":"cebpf4jnsgd1na2vs0mg"},{"bike_id":"dcffb64c-9bea-40cd-a5fe-c7eeb8475cd8","system_id":"levelo_inurba_marseille","lat":43.30294,"lon":5.37701,"is_reserved":false,"is_disabled":false,"rental_uris":{"android":"levelo://app?vid=dcffb64c-9bea-40cd-a5fe-c7eeb8475cd8","ios":"levelo://app?vid=dcffb64c-9bea-40cd-a5fe-c7eeb8475cd8"},"vehicle_type_id":"4","last_reported":1770746026,"current_range_meters":7200,"station_id":"ce4bguh2rcd13ifvqcj0","pricing_plan_id":"cebpf4jnsgd1na2vs0mg"},{"bike_id":"04872cc4-3668-403a-a968-b4126c856626","system_id":"levelo_inurba_marseille","lat":43.27997,"lon":5.41671,"is_reserved":false,"is_disabled":false,"rental_uris":{"android":"levelo://app?vid=04872cc4-3668-403a-a968-b4126c856626","ios":"levelo://app?vid=04872cc4-3668-403a-a968-b4126c856626"},"vehicle_type_id":"4","last_reported":1770746026,"current_range_meters":7200,"station_id":"ce4bho12rcd13ifvqh1g","pricing_plan_id":"cebpf4jnsgd1na2vs0mg"},{"bike_id":"a55c48a4-265c-4054-86ed-58aff7591eb1","system_id":"levelo_inurba_marseille","lat":43.27064,"lon":5.40255,"is_reserved":false,"is_disabled":false,"rental_uris":{"android":"levelo://app?vid=a55c48a4-265c-4054-86ed-58aff7591eb1","ios":"levelo://app?vid=a55c48a4-265c-4054-86ed-58aff7591eb1"},"vehicle_type_id":"4","last_reported":1770746026,"current_range_meters":7200,"station_id":"ce4bhk92rcd13ifvqgc0","pricing_plan_id":"cebpf4jnsgd1na2vs0mg"},{"bike_id":"690a04a1-182c-4652-992a-2774b1ea7c6b","system_id":"levelo_inurba_marseille","lat":43.22554,"lon":5.4163,"is_reserved":false,"is_disabled":false,"rental_uris":{"android":"levelo://app?vid=690a04a1-182c-4652-992a-2774b1ea7c6b","ios":"levelo://app?vid=690a04a1-182c-4652-992a-2774b1ea7c6b"},"vehicle_type_id":"4","last_reported":1770746026,"current_range_meters":7200,"station_id":"st_d2o4gvlbi1j2169b742g","pricing_plan_id":"cebpf4jnsgd1na2vs0mg"},{"bike_id":"c419d6ff-2dec-4007-bfa6-b30a8ffe9253","system_id":"levelo_inurba_marseille","lat":43.22939,"lon":5.35385,"is_reserved":false,"is_disabled":false,"rental_uris":{"android":"levelo://app?vid=c419d6ff-2dec-4007-bfa6-b30a8ffe9253","ios":"levelo://app?vid=c419d6ff-2dec-4007-bfa6-b30a8ffe9253"},"vehicle_type_id":"4","last_reported":1770746026,"current_range_meters":7200,"station_id":"cpo3532slgdg3j2ikp40","pricing_plan_id":"cebpf4jnsgd1na2vs0mg"},{"bike_id":"508af785-032d-4df0-b8fe-11d0a1bf5f67","system_id":"levelo_inurba_marseille","lat":43.30116,"lon":5.43112,"is_reserved":false,"is_disabled":false,"rental_uris":{"android":"levelo://app?vid=508af785-032d-4df0-b8fe-11d0a1bf5f67","ios":"levelo://app?vid=508af785-032d-4df0-b8fe-11d0a1bf5f67"},"vehicle_type_id":"4","last_reported":1770746026,"current_range_meters":7200,"station_id":"st_d3js3co5814s73ftftug","pricing_plan_id":"cebpf4jnsgd1na2vs0mg"},{"bike_id":"e0450db0-c8b3-4403-bc43-ed5a007877b8","system_id":"levelo_inurba_marseille","lat":43.24627,"lon":5.43142,"is_reserved":false,"is_disabled":false,"rental_uris":{"android":"levelo://app?vid=e0450db0-c8b3-4403-bc43-ed5a007877b8","ios":"levelo://app?vid=e0450db0-c8b3-4403-bc43-ed5a007877b8"},"vehicle_type_id":"4","last_reported":1770746026,"current_range_meters":7200,"station_id":"st_d2m6c4gdas8pm72e190g","pricing_plan_id":"cebpf4jnsgd1na2vs0mg"},{"bike_id":"ee213b40-802c-442b-9390-5e22834db5df","system_id":"levelo_inurba_marseille","lat":43.24178,"lon":5.36393,"is_reserved":false,"is_disabled":false,"rental_uris":{"android":"levelo://app?vid=ee213b40-802c-442b-9390-5e22834db5df","ios":"levelo://app?vid=ee213b40-802c-442b-9390-5e22834db5df"},"vehicle_type_id":"4","last_reported":1770746026,"current_range_meters":7200,"station_id":"cpo36qri1sfpv3e86is0","pricing_plan_id":"cebpf4jnsgd1na2vs0mg"},{"bike_id":"de12dceb-2f10-4d16-b5cb-b0624c897434","system_id":"levelo_inurba_marseille","lat":43.3015,"lon":5.38775,"is_reserved":false,"is_disabled":false,"rental_uris":{"android":"levelo://app?vid=de12dceb-2f10-4d16-b5cb-b0624c897434","ios":"levelo://app?vid=de12dceb-2f10-4d16-b5cb-b0624c897434"},"vehicle_type_id":"4","last_reported":1770746026,"current_range_meters":7200,"station_id":"ce4bghh2rcd13ifvqb60","pricing_plan_id":"cebpf4jnsgd1na2vs0mg"},{"bike_id":"61e7a56e-a3a9-4b6a-8720-cb799648adf1","system_id":"levelo_inurba_marseille","lat":43.30318,"lon":5.36897,"is_reserved":false,"is_disabled":false,"rental_uris":{"android":"levelo://app?vid=61e7a56e-a3a9-4b6a-8720-cb799648adf1","ios":"levelo://app?vid=61e7a56e-a3a9-4b6a-8720-cb799648adf1"},"vehicle_type_id":"4","last_reported":1770746026,"current_range_meters":7200,"station_id":"ce4bgqh2rcd13ifvqc5g","pricing_plan_id":"cebpf4jnsgd1na2vs0mg"},{"bike_id":"77d01ae0-caa8-4229-b1d9-66eebccb18ba","system_id":"levelo_inurba_marseille","lat":43.303165,"lon":5.368915,"is_reserved":false,"is_disabled":false,"rental_uris":{"android":"levelo://app?vid=77d01ae0-caa8-4229-b1d9-66eebccb18ba","ios":"levelo://app?vid=77d01ae0-caa8-4229-b1d9-66eebccb18ba"},"vehicle_type_id":"4","last_reported":1770746026,"current_range_meters":7200,"station_id":"ce4bgqh2rcd13ifvqc5g","pricing_plan_id":"cebpf4jnsgd1na2vs0mg"},{"bike_id":"5f7df976-2770-4b0d-bd16-1a5d3e4bd86a","system_id":"levelo_inurba_marseille","lat":43.260252,"lon":5.375551,"is_reserved":false,"is_disabled":false,"rental_uris":{"android":"levelo://app?vid=5f7df976-2770-4b0d-bd16-1a5d3e4bd86a","ios":"levelo://app?vid=5f7df976-2770-4b0d-bd16-1a5d3e4bd86a"},"vehicle_type_id":"4","last_reported":1770746026,"current_range_meters":7200,"station_id":"ce4bhgh2rcd13ifvqfa0","pricing_plan_id":"cebpf4jnsgd1na2vs0mg"},{"bike_id":"c6bba051-2987-4068-9b3f-af263ee62dbf","system_id":"levelo_inurba_marseille","lat":43.26485,"lon":5.39561,"is_reserved":false,"is_disabled":false,"rental_uris":{"android":"levelo://app?vid=c6bba051-2987-4068-9b3f-af263ee62dbf","ios":"levelo://app?vid=c6bba051-2987-4068-9b3f-af263ee62dbf"},"vehicle_type_id":"4","last_reported":1770746026,"current_range_meters":7200,"station_id":"ce4bhi12rcd13ifvqfq0","pricing_plan_id":"cebpf4jnsgd1na2vs0mg"},{"bike_id":"46b69bcd-f35a-433e-b9f1-16ab03d0ac0e","system_id":"levelo_inurba_marseille","lat":43.25863,"lon":5.39912,"is_reserved":false,"is_disabled":false,"rental_uris":{"android":"levelo://app?vid=46b69bcd-f35a-433e-b9f1-16ab03d0ac0e","ios":"levelo://app?vid=46b69bcd-f35a-433e-b9f1-16ab03d0ac0e"},"vehicle_type_id":"4","last_reported":1770746026,"current_range_meters":7200,"station_id":"ce4bhl92rcd13ifvqghg","pricing_plan_id":"cebpf4jnsgd1na2vs0mg"},{"bike_id":"3f8bfcbc-5200-4097-84a4-35e09cf8d7ef","system_id":"levelo_inurba_marseille","lat":43.27919,"lon":5.3957,"is_reserved":false,"is_disabled":true,"rental_uris":{"android":"levelo://app?vid=3f8bfcbc-5200-4097-84a4-35e09cf8d7ef","ios":"levelo://app?vid=3f8bfcbc-5200-4097-84a4-35e09cf8d7ef"},"vehicle_type_id":"4","last_reported":1770746026,"current_range_meters":7200,"station_id":"ce4bhf92rcd13ifvqf40","pricing_plan_id":"cebpf4jnsgd1na2vs0mg"},{"bike_id":"022495c5-b220-47df-a910-640b30b657d5","system_id":"levelo_inurba_marseille","lat":43.30494,"lon":5.36672,"is_reserved":false,"is_disabled":false,"rental_uris":{"android":"levelo://app?vid=022495c5-b220-47df-a910-640b30b657d5","ios":"levelo://app?vid=022495c5-b220-47df-a910-640b30b657d5"},"vehicle_type_id":"4","last_reported":1770746026,"current_range_meters":7200,"station_id":"","pricing_plan_id":"cebpf4jnsgd1na2vs0mg"},{"bike_id":"77670ed6-0803-4f26-ab0e-acae8a874a81","system_id":"levelo_inurba_marseille","lat":43.31357,"lon":5.38494,"is_reserved":false,"is_disabled":false,"rental_uris":{"android":"levelo://app?vid=77670ed6-0803-4f26-ab0e-acae8a874a81","ios":"levelo://app?vid=77670ed6-0803-4f26-ab0e-acae8a874a81"},"vehicle_type_id":"4","last_reported":1770746026,"current_range_meters":7200,"station_id":"ce4bgt92rcd13ifvqcf0","pricing_plan_id":"cebpf4jnsgd1na2vs0mg"},{"bike_id":"846465c4-57e5-4568-baab-0f3d69ee5503","system_id":"levelo_inurba_marseille","lat":43.2953,"lon":5.38548,"is_reserved":false,"is_disabled":false,"rental_uris":{"android":"levelo://app?vid=846465c4-57e5-4568-baab-0f3d69ee5503","ios":"levelo://app?vid=846465c4-57e5-4568-baab-0f3d69ee5503"},"vehicle_type_id":"4","last_reported":1770746026,"current_range_meters":7200,"station_id":"ce4bgih2rcd13ifvqba0","pricing_plan_id":"cebpf4jnsgd1na2vs0mg"},{"bike_id":"aef51d75-8925-4e9a-b46e-ed13a8fba76f","system_id":"levelo_inurba_marseille","lat":43.25581,"lon":5.38228,"is_reserved":false,"is_disabled":false,"rental_uris":{"android":"levelo://app?vid=aef51d75-8925-4e9a-b46e-ed13a8fba76f","ios":"levelo://app?vid=aef51d75-8925-4e9a-b46e-ed13a8fba76f"},"vehicle_type_id":"4","last_reported":1770746026,"current_range_meters":7200,"station_id":"ce4bhih2rcd13ifvqfs0","pricing_plan_id":"cebpf4jnsgd1na2vs0mg"},{"bike_id":"6f6a04ad-dd00-4f4a-bdfd-a835cfa0cc11","system_id":"levelo_inurba_marseille","lat":43.27095,"lon":5.383,"is_reserved":false,"is_disabled":false,"rental_uris":{"android":"levelo://app?vid=6f6a04ad-dd00-4f4a-bdfd-a835cfa0cc11","ios":"levelo://app?vid=6f6a04ad-dd00-4f4a-bdfd-a835cfa0cc11"},"vehicle_type_id":"4","last_reported":1770746026,"current_range_meters":8000,"station_id":"st_d3n2fo6cfp8s73cte1j0","pricing_plan_id":"cebpf4jnsgd1na2vs0mg"},{"bike_id":"a98cc771-3bb3-4994-81fc-e6c433d1b58d","system_id":"levelo_inurba_marseille","lat":43.30147,"lon":5.43103,"is_reserved":false,"is_disabled":false,"rental_uris":{"android":"levelo://app?vid=a98cc771-3bb3-4994-81fc-e6c433d1b58d","ios":"levelo://app?vid=a98cc771-3bb3-4994-81fc-e6c433d1b58d"},"vehicle_type_id":"4","last_reported":1770746026,"current_range_meters":8000,"station_id":"st_d3js3co5814s73ftftug","pricing_plan_id":"cebpf4jnsgd1na2vs0mg"},{"bike_id":"87b98c89-0f4c-46b0-a01e-43941807bdd2","system_id":"levelo_inurba_marseille","lat":43.28685,"lon":5.38643,"is_reserved":false,"is_disabled":false,"rental_uris":{"android":"levelo://app?vid=87b98c89-0f4c-46b0-a01e-43941807bdd2","ios":"levelo://app?vid=87b98c89-0f4c-46b0-a01e-43941807bdd2"},"vehicle_type_id":"4","last_reported":1770746026,"current_range_meters":8000,"station_id":"ce4bh492rcd13ifvqdug","pricing_plan_id":"cebpf4jnsgd1na2vs0mg"},{"bike_id":"131a45ec-0ade-479c-aab9-8ca5cd2c4eaf","system_id":"levelo_inurba_marseille","lat":43.297166,"lon":5.377034,"is_reserved":false,"is_disabled":false,"rental_uris":{"android":"levelo://app?vid=131a45ec-0ade-479c-aab9-8ca5cd2c4eaf","ios":"levelo://app?vid=131a45ec-0ade-479c-aab9-8ca5cd2c4eaf"},"vehicle_type_id":"4","last_reported":1770746026,"current_range_meters":8000,"station_id":"ce4bgkh2rcd13ifvqbl0","pricing_plan_id":"cebpf4jnsgd1na2vs0mg"},{"bike_id":"475fae78-75f9-4675-8012-304224f10313","system_id":"levelo_inurba_marseille","lat":43.33558,"lon":5.37457,"is_reserved":false,"is_disabled":false,"rental_uris":{"android":"levelo://app?vid=475fae78-75f9-4675-8012-304224f10313","ios":"levelo://app?vid=475fae78-75f9-4675-8012-304224f10313"},"vehicle_type_id":"4","last_reported":1770746026,"current_range_meters":8000,"station_id":"st_d46tts09ee8s73dlu43g","pricing_plan_id":"cebpf4jnsgd1na2vs0mg"},{"bike_id":"eed5ef76-b066-4b16-84aa-78aa146d4302","system_id":"levelo_inurba_marseille","lat":43.28133,"lon":5.35013,"is_reserved":false,"is_disabled":false,"rental_uris":{"android":"levelo://app?vid=eed5ef76-b066-4b16-84aa-78aa146d4302","ios":"levelo://app?vid=eed5ef76-b066-4b16-84aa-78aa146d4302"},"vehicle_type_id":"4","last_reported":1770746026,"current_range_meters":8000,"station_id":"","pricing_plan_id":"cebpf4jnsgd1na2vs0mg"},{"bike_id":"87056c0a-278d-470f-af70-99a4eb084f35","system_id":"levelo_inurba_marseille","lat":43.24634,"lon":5.43145,"is_reserved":false,"is_disabled":false,"rental_uris":{"android":"levelo://app?vid=87056c0a-278d-470f-af70-99a4eb084f35","ios":"levelo://app?vid=87056c0a-278d-470f-af70-99a4eb084f35"},"vehicle_type_id":"4","last_reported":1770746026,"current_range_meters":8000,"station_id":"st_d2m6c4gdas8pm72e190g","pricing_plan_id":"cebpf4jnsgd1na2vs0mg"},{"bike_id":"54cbb20a-9c0c-446d-875c-a232c47863ef","system_id":"levelo_inurba_marseille","lat":43.24681,"lon":5.38147,"is_reserved":false,"is_disabled":false,"rental_uris":{"android":"levelo://app?vid=54cbb20a-9c0c-446d-875c-a232c47863ef","ios":"levelo://app?vid=54cbb20a-9c0c-446d-875c-a232c47863ef"},"vehicle_type_id":"4","last_reported":1770746026,"current_range_meters":8000,"station_id":"ce4bhih2rcd13ifvqfr0","pricing_plan_id":"cebpf4jnsgd1na2vs0mg"},{"bike_id":"987a044c-bb53-44c1-9b4c-d6d8484c2f36","system_id":"levelo_inurba_marseille","lat":43.26492,"lon":5.39542,"is_reserved":false,"is_disabled":false,"rental_uris":{"android":"levelo://app?vid=987a044c-bb53-44c1-9b4c-d6d8484c2f36","ios":"levelo://app?vid=987a044c-bb53-44c1-9b4c-d6d8484c2f36"},"vehicle_type_id":"4","last_reported":1770746026,"current_range_meters":8000,"station_id":"ce4bhi12rcd13ifvqfq0","pricing_plan_id":"cebpf4jnsgd1na2vs0mg"},{"bike_id":"b0577ca1-afa8-48fa-be5c-f4673c1a2294","system_id":"levelo_inurba_marseille","lat":43.28007,"lon":5.41294,"is_reserved":false,"is_disabled":false,"rental_uris":{"android":"levelo://app?vid=b0577ca1-afa8-48fa-be5c-f4673c1a2294","ios":"levelo://app?vid=b0577ca1-afa8-48fa-be5c-f4673c1a2294"},"vehicle_type_id":"4","last_reported":1770746026,"current_range_meters":8000,"station_id":"","pricing_plan_id":"cebpf4jnsgd1na2vs0mg"},{"bike_id":"ffc2b922-f50e-404c-9f74-2f61873637c8","system_id":"levelo_inurba_marseille","lat":43.30539,"lon":5.36533,"is_reserved":false,"is_disabled":false,"rental_uris":{"android":"levelo://app?vid=ffc2b922-f50e-404c-9f74-2f61873637c8","ios":"levelo://app?vid=ffc2b922-f50e-404c-9f74-2f61873637c8"},"vehicle_type_id":"4","last_reported":1770746026,"current_range_meters":8000,"station_id":"ce4bgs12rcd13ifvqcag","pricing_plan_id":"cebpf4jnsgd1na2vs0mg"},{"bike_id":"fbc4de62-94f4-4367-a701-e35b525371c3","system_id":"levelo_inurba_marseille","lat":43.30151,"lon":5.374,"is_reserved":false,"is_disabled":false,"rental_uris":{"android":"levelo://app?vid=fbc4de62-94f4-4367-a701-e35b525371c3","ios":"levelo://app?vid=fbc4de62-94f4-4367-a701-e35b525371c3"},"vehicle_type_id":"4","last_reported":1770746026,"current_range_meters":8000,"station_id":"ce4bgs92rcd13ifvqcc0","pricing_plan_id":"cebpf4jnsgd1na2vs0mg"},{"bike_id":"a2caf7c3-5963-408f-9a3e-6f78075c1d0d","system_id":"levelo_inurba_marseille","lat":43.2394,"lon":5.36637,"is_reserved":false,"is_disabled":false,"rental_uris":{"android":"levelo://app?vid=a2caf7c3-5963-408f-9a3e-6f78075c1d0d","ios":"levelo://app?vid=a2caf7c3-5963-408f-9a3e-6f78075c1d0d"},"vehicle_type_id":"4","last_reported":1770746026,"current_range_meters":8000,"station_id":"ce4bhi12rcd13ifvqfp0","pricing_plan_id":"cebpf4jnsgd1na2vs0mg"},{"bike_id":"4b64deb3-09c3-4bbb-8918-2e6afe1c70b9","system_id":"levelo_inurba_marseille","lat":43.274866,"lon":5.423828,"is_reserved":false,"is_disabled":false,"rental_uris":{"android":"levelo://app?vid=4b64deb3-09c3-4bbb-8918-2e6afe1c70b9","ios":"levelo://app?vid=4b64deb3-09c3-4bbb-8918-2e6afe1c70b9"},"vehicle_type_id":"4","last_reported":1770746026,"current_range_meters":8000,"station_id":"ce4bhn92rcd13ifvqgrg","pricing_plan_id":"cebpf4jnsgd1na2vs0mg"},{"bike_id":"801d129f-8b96-4eb5-a68d-7bd6109615f1","system_id":"levelo_inurba_marseille","lat":43.25369,"lon":5.42171,"is_reserved":false,"is_disabled":false,"rental_uris":{"android":"levelo://app?vid=801d129f-8b96-4eb5-a68d-7bd6109615f1","ios":"levelo://app?vid=801d129f-8b96-4eb5-a68d-7bd6109615f1"},"vehicle_type_id":"4","last_reported":1770746026,"current_range_meters":8000,"station_id":"st_d2m65c5bi1j21697t3ng","pricing_plan_id":"cebpf4jnsgd1na2vs0mg"},{"bike_id":"1d84a6a9-53dd-4546-9d02-4bb696d8451e","system_id":"levelo_inurba_marseille","lat":43.317,"lon":5.37383,"is_reserved":false,"is_disabled":false,"rental_uris":{"android":"levelo://app?vid=1d84a6a9-53dd-4546-9d02-4bb696d8451e","ios":"levelo://app?vid=1d84a6a9-53dd-4546-9d02-4bb696d8451e"},"vehicle_type_id":"4","last_reported":1770746026,"current_range_meters":8000,"station_id":"","pricing_plan_id":"cebpf4jnsgd1na2vs0mg"},{"bike_id":"1204f32f-48a7-4bb4-b62a-774e14312070","system_id":"levelo_inurba_marseille","lat":43.24169,"lon":5.36397,"is_reserved":false,"is_disabled":false,"rental_uris":{"android":"levelo://app?vid=1204f32f-48a7-4bb4-b62a-774e14312070","ios":"levelo://app?vid=1204f32f-48a7-4bb4-b62a-774e14312070"},"vehicle_type_id":"4","last_reported":1770746026,"current_range_meters":8000,"station_id":"cpo36qri1sfpv3e86is0","pricing_plan_id":"cebpf4jnsgd1na2vs0mg"},{"bike_id":"7edf82c3-a0c2-49c5-8d36-32b2ee24ec30","system_id":"levelo_inurba_marseille","lat":43.30165,"lon":5.38087,"is_reserved":false,"is_disabled":false,"rental_uris":{"android":"levelo://app?vid=7edf82c3-a0c2-49c5-8d36-32b2ee24ec30","ios":"levelo://app?vid=7edf82c3-a0c2-49c5-8d36-32b2ee24ec30"},"vehicle_type_id":"4","last_reported":1770746026,"current_range_meters":8000,"station_id":"ce4bgjp2rcd13ifvqbh0","pricing_plan_id":"cebpf4jnsgd1na2vs0mg"},{"bike_id":"100a2a73-4d9e-44eb-a7e3-94a5fa7d2701","system_id":"levelo_inurba_marseille","lat":43.23204,"lon":5.35525,"is_reserved":false,"is_disabled":false,"rental_uris":{"android":"levelo://app?vid=100a2a73-4d9e-44eb-a7e3-94a5fa7d2701","ios":"levelo://app?vid=100a2a73-4d9e-44eb-a7e3-94a5fa7d2701"},"vehicle_type_id":"4","last_reported":1770746026,"current_range_meters":8400,"station_id":"ce4bhu92rcd13ifvqi70","pricing_plan_id":"cebpf4jnsgd1na2vs0mg"},{"bike_id":"fe93e1cf-f714-4e41-9dff-90a24aa5f3b8","system_id":"levelo_inurba_marseille","lat":43.24387,"lon":5.37083,"is_reserved":false,"is_disabled":false,"rental_uris":{"android":"levelo://app?vid=fe93e1cf-f714-4e41-9dff-90a24aa5f3b8","ios":"levelo://app?vid=fe93e1cf-f714-4e41-9dff-90a24aa5f3b8"},"vehicle_type_id":"4","last_reported":1770746026,"current_range_meters":8400,"station_id":"ce4bhhh2rcd13ifvqfk0","pricing_plan_id":"cebpf4jnsgd1na2vs0mg"},{"bike_id":"075ebd2d-4fe0-4fac-a734-f1b335beddf9","system_id":"levelo_inurba_marseille","lat":43.29911,"lon":5.38031,"is_reserved":false,"is_disabled":false,"rental_uris":{"android":"levelo://app?vid=075ebd2d-4fe0-4fac-a734-f1b335beddf9","ios":"levelo://app?vid=075ebd2d-4fe0-4fac-a734-f1b335beddf9"},"vehicle_type_id":"4","last_reported":1770746026,"current_range_meters":8400,"station_id":"","pricing_plan_id":"cebpf4jnsgd1na2vs0mg"},{"bike_id":"0415f26c-4d21-4b4e-aeeb-299f12b793c1","system_id":"levelo_inurba_marseille","lat":43.254915,"lon":5.376509,"is_reserved":false,"is_disabled":false,"rental_uris":{"android":"levelo://app?vid=0415f26c-4d21-4b4e-aeeb-299f12b793c1","ios":"levelo://app?vid=0415f26c-4d21-4b4e-aeeb-299f12b793c1"},"vehicle_type_id":"4","last_reported":1770746026,"current_range_meters":8400,"station_id":"ce4bhh12rcd13ifvqff0","pricing_plan_id":"cebpf4jnsgd1na2vs0mg"},{"bike_id":"eb54f403-f5f5-4152-9cd4-d31f05df5ad8","system_id":"levelo_inurba_marseille","lat":43.262367,"lon":5.404391,"is_reserved":false,"is_disabled":false,"rental_uris":{"android":"levelo://app?vid=eb54f403-f5f5-4152-9cd4-d31f05df5ad8","ios":"levelo://app?vid=eb54f403-f5f5-4152-9cd4-d31f05df5ad8"},"vehicle_type_id":"4","last_reported":1770746026,"current_range_meters":8400,"station_id":"ce4bhmh2rcd13ifvqgmg","pricing_plan_id":"cebpf4jnsgd1na2vs0mg"},{"bike_id":"e3d99e1b-4a86-48a9-a106-90bf0477af3a","system_id":"levelo_inurba_marseille","lat":43.26063,"lon":5.39403,"is_reserved":false,"is_disabled":false,"rental_uris":{"android":"levelo://app?vid=e3d99e1b-4a86-48a9-a106-90bf0477af3a","ios":"levelo://app?vid=e3d99e1b-4a86-48a9-a106-90bf0477af3a"},"vehicle_type_id":"4","last_reported":1770746026,"current_range_meters":8400,"station_id":"ce4bhh92rcd13ifvqfj0","pricing_plan_id":"cebpf4jnsgd1na2vs0mg"},{"bike_id":"777f1f50-9ccf-46db-a1bf-cfe765ca1373","system_id":"levelo_inurba_marseille","lat":43.26059,"lon":5.39392,"is_reserved":false,"is_disabled":true,"rental_uris":{"android":"levelo://app?vid=777f1f50-9ccf-46db-a1bf-cfe765ca1373","ios":"levelo://app?vid=777f1f50-9ccf-46db-a1bf-cfe765ca1373"},"vehicle_type_id":"4","last_reported":1770746026,"current_range_meters":8400,"station_id":"ce4bhh92rcd13ifvqfj0","pricing_plan_id":"cebpf4jnsgd1na2vs0mg"},{"bike_id":"f3631fda-c0c0-441a-a203-114b757c2c60","system_id":"levelo_inurba_marseille","lat":43.2743,"lon":5.3942,"is_reserved":false,"is_disabled":false,"rental_uris":{"android":"levelo://app?vid=f3631fda-c0c0-441a-a203-114b757c2c60","ios":"levelo://app?vid=f3631fda-c0c0-441a-a203-114b757c2c60"},"vehicle_type_id":"4","last_reported":1770746026,"current_range_meters":8400,"station_id":"ce4bhdp2rcd13ifvqf20","pricing_plan_id":"cebpf4jnsgd1na2vs0mg"},{"bike_id":"a595811d-e4a2-4edd-bc38-2905c562c34e","system_id":"levelo_inurba_marseille","lat":43.33584,"lon":5.37448,"is_reserved":false,"is_disabled":false,"rental_uris":{"android":"levelo://app?vid=a595811d-e4a2-4edd-bc38-2905c562c34e","ios":"levelo://app?vid=a595811d-e4a2-4edd-bc38-2905c562c34e"},"vehicle_type_id":"4","last_reported":1770746026,"current_range_meters":8400,"station_id":"st_d46tts09ee8s73dlu43g","pricing_plan_id":"cebpf4jnsgd1na2vs0mg"},{"bike_id":"1dbb4606-c1a9-4fbb-a14f-05aba3a42165","system_id":"levelo_inurba_marseille","lat":43.281538,"lon":5.42639,"is_reserved":false,"is_disabled":false,"rental_uris":{"android":"levelo://app?vid=1dbb4606-c1a9-4fbb-a14f-05aba3a42165","ios":"levelo://app?vid=1dbb4606-c1a9-4fbb-a14f-05aba3a42165"},"vehicle_type_id":"4","last_reported":1770746026,"current_range_meters":8400,"station_id":"ce4bhnh2rcd13ifvqgug","pricing_plan_id":"cebpf4jnsgd1na2vs0mg"},{"bike_id":"49368c56-78f0-470c-a4f8-cbf29f4d321f","system_id":"levelo_inurba_marseille","lat":43.28467,"lon":5.35884,"is_reserved":false,"is_disabled":false,"rental_uris":{"android":"levelo://app?vid=49368c56-78f0-470c-a4f8-cbf29f4d321f","ios":"levelo://app?vid=49368c56-78f0-470c-a4f8-cbf29f4d321f"},"vehicle_type_id":"4","last_reported":1770746026,"current_range_meters":8400,"station_id":"ce4bhah2rcd13ifvqei0","pricing_plan_id":"cebpf4jnsgd1na2vs0mg"},{"bike_id":"8d0a4dcc-8e1c-4caf-a646-ebb6095e5b05","system_id":"levelo_inurba_marseille","lat":43.2963,"lon":5.37712,"is_reserved":false,"is_disabled":false,"rental_uris":{"android":"levelo://app?vid=8d0a4dcc-8e1c-4caf-a646-ebb6095e5b05","ios":"levelo://app?vid=8d0a4dcc-8e1c-4caf-a646-ebb6095e5b05"},"vehicle_type_id":"4","last_reported":1770746026,"current_range_meters":8800,"station_id":"ce4bgi92rcd13ifvqb90","pricing_plan_id":"cebpf4jnsgd1na2vs0mg"},{"bike_id":"30fc210e-04d3-4eee-92db-5f8dc86a7695","system_id":"levelo_inurba_marseille","lat":43.30167,"lon":5.37412,"is_reserved":false,"is_disabled":false,"rental_uris":{"android":"levelo://app?vid=30fc210e-04d3-4eee-92db-5f8dc86a7695","ios":"levelo://app?vid=30fc210e-04d3-4eee-92db-5f8dc86a7695"},"vehicle_type_id":"4","last_reported":1770746026,"current_range_meters":8800,"station_id":"ce4bgs92rcd13ifvqcc0","pricing_plan_id":"cebpf4jnsgd1na2vs0mg"},{"bike_id":"a50f7d21-b786-425e-94eb-3a1750941924","system_id":"levelo_inurba_marseille","lat":43.30143,"lon":5.37422,"is_reserved":false,"is_disabled":false,"rental_uris":{"android":"levelo://app?vid=a50f7d21-b786-425e-94eb-3a1750941924","ios":"levelo://app?vid=a50f7d21-b786-425e-94eb-3a1750941924"},"vehicle_type_id":"4","last_reported":1770746026,"current_range_meters":8800,"station_id":"ce4bgs92rcd13ifvqcc0","pricing_plan_id":"cebpf4jnsgd1na2vs0mg"},{"bike_id":"1c120683-67bc-428a-aa0f-bec572dfb863","system_id":"levelo_inurba_marseille","lat":43.255717,"lon":5.382388,"is_reserved":false,"is_disabled":false,"rental_uris":{"android":"levelo://app?vid=1c120683-67bc-428a-aa0f-bec572dfb863","ios":"levelo://app?vid=1c120683-67bc-428a-aa0f-bec572dfb863"},"vehicle_type_id":"4","last_reported":1770746026,"current_range_meters":8800,"station_id":"ce4bhih2rcd13ifvqfs0","pricing_plan_id":"cebpf4jnsgd1na2vs0mg"},{"bike_id":"4659f5f2-43a6-4213-b84f-184d5dec64b3","system_id":"levelo_inurba_marseille","lat":43.33545,"lon":5.37464,"is_reserved":false,"is_disabled":false,"rental_uris":{"android":"levelo://app?vid=4659f5f2-43a6-4213-b84f-184d5dec64b3","ios":"levelo://app?vid=4659f5f2-43a6-4213-b84f-184d5dec64b3"},"vehicle_type_id":"4","last_reported":1770746026,"current_range_meters":8800,"station_id":"st_d46tts09ee8s73dlu43g","pricing_plan_id":"cebpf4jnsgd1na2vs0mg"},{"bike_id":"6fd6b1cc-3082-486b-9561-0a705a400cc5","system_id":"levelo_inurba_marseille","lat":43.2962,"lon":5.37717,"is_reserved":false,"is_disabled":false,"rental_uris":{"android":"levelo://app?vid=6fd6b1cc-3082-486b-9561-0a705a400cc5","ios":"levelo://app?vid=6fd6b1cc-3082-486b-9561-0a705a400cc5"},"vehicle_type_id":"4","last_reported":1770746026,"current_range_meters":8800,"station_id":"ce4bgi92rcd13ifvqb90","pricing_plan_id":"cebpf4jnsgd1na2vs0mg"},{"bike_id":"8e905147-d2a0-4695-965b-2adafec58efe","system_id":"levelo_inurba_marseille","lat":43.29571,"lon":5.39957,"is_reserved":false,"is_disabled":false,"rental_uris":{"android":"levelo://app?vid=8e905147-d2a0-4695-965b-2adafec58efe","ios":"levelo://app?vid=8e905147-d2a0-4695-965b-2adafec58efe"},"vehicle_type_id":"4","last_reported":1770746026,"current_range_meters":8800,"station_id":"ce4bh312rcd13ifvqdj0","pricing_plan_id":"cebpf4jnsgd1na2vs0mg"},{"bike_id":"5811a671-2285-4099-bf69-3f86de86b17d","system_id":"levelo_inurba_marseille","lat":43.24162,"lon":5.39712,"is_reserved":false,"is_disabled":false,"rental_uris":{"android":"levelo://app?vid=5811a671-2285-4099-bf69-3f86de86b17d","ios":"levelo://app?vid=5811a671-2285-4099-bf69-3f86de86b17d"},"vehicle_type_id":"4","last_reported":1770746026,"current_range_meters":8800,"station_id":"ce4bhn12rcd13ifvqgpg","pricing_plan_id":"cebpf4jnsgd1na2vs0mg"},{"bike_id":"69cb53c0-4939-4da6-a53e-35e4cb2de7f7","system_id":"levelo_inurba_marseille","lat":43.22553,"lon":5.41644,"is_reserved":false,"is_disabled":false,"rental_uris":{"android":"levelo://app?vid=69cb53c0-4939-4da6-a53e-35e4cb2de7f7","ios":"levelo://app?vid=69cb53c0-4939-4da6-a53e-35e4cb2de7f7"},"vehicle_type_id":"4","last_reported":1770746026,"current_range_meters":8800,"station_id":"st_d2o4gvlbi1j2169b742g","pricing_plan_id":"cebpf4jnsgd1na2vs0mg"},{"bike_id":"ecad8e39-3994-426f-a203-097683c275bd","system_id":"levelo_inurba_marseille","lat":43.32541,"lon":5.41434,"is_reserved":false,"is_disabled":false,"rental_uris":{"android":"levelo://app?vid=ecad8e39-3994-426f-a203-097683c275bd","ios":"levelo://app?vid=ecad8e39-3994-426f-a203-097683c275bd"},"vehicle_type_id":"4","last_reported":1770746026,"current_range_meters":8800,"station_id":"ce4bhq12rcd13ifvqhhg","pricing_plan_id":"cebpf4jnsgd1na2vs0mg"},{"bike_id":"8b4b38ac-f6cb-48ed-90a4-30149ea67fd7","system_id":"levelo_inurba_marseille","lat":43.29095,"lon":5.39894,"is_reserved":false,"is_disabled":false,"rental_uris":{"android":"levelo://app?vid=8b4b38ac-f6cb-48ed-90a4-30149ea67fd7","ios":"levelo://app?vid=8b4b38ac-f6cb-48ed-90a4-30149ea67fd7"},"vehicle_type_id":"4","last_reported":1770746026,"current_range_meters":8800,"station_id":"","pricing_plan_id":"cebpf4jnsgd1na2vs0mg"},{"bike_id":"7a13e2ee-f212-4d4c-8d2c-caa534b4faec","system_id":"levelo_inurba_marseille","lat":43.24172,"lon":5.39724,"is_reserved":false,"is_disabled":false,"rental_uris":{"android":"levelo://app?vid=7a13e2ee-f212-4d4c-8d2c-caa534b4faec","ios":"levelo://app?vid=7a13e2ee-f212-4d4c-8d2c-caa534b4faec"},"vehicle_type_id":"4","last_reported":1770746026,"current_range_meters":8800,"station_id":"ce4bhn12rcd13ifvqgpg","pricing_plan_id":"cebpf4jnsgd1na2vs0mg"},{"bike_id":"e746bdcc-4519-4219-b12f-2ce162cafd86","system_id":"levelo_inurba_marseille","lat":43.27843,"lon":5.40722,"is_reserved":false,"is_disabled":false,"rental_uris":{"android":"levelo://app?vid=e746bdcc-4519-4219-b12f-2ce162cafd86","ios":"levelo://app?vid=e746bdcc-4519-4219-b12f-2ce162cafd86"},"vehicle_type_id":"4","last_reported":1770746026,"current_range_meters":9200,"station_id":"ce4bhnh2rcd13ifvqgtg","pricing_plan_id":"cebpf4jnsgd1na2vs0mg"},{"bike_id":"927d93f1-b3c2-4d54-a48c-ac7038efa5f7","system_id":"levelo_inurba_marseille","lat":43.26599,"lon":5.40315,"is_reserved":false,"is_disabled":false,"rental_uris":{"android":"levelo://app?vid=927d93f1-b3c2-4d54-a48c-ac7038efa5f7","ios":"levelo://app?vid=927d93f1-b3c2-4d54-a48c-ac7038efa5f7"},"vehicle_type_id":"4","last_reported":1770746026,"current_range_meters":9200,"station_id":"ce4bhmp2rcd13ifvqgng","pricing_plan_id":"cebpf4jnsgd1na2vs0mg"},{"bike_id":"a8033c18-bf59-458a-9eb0-147256918905","system_id":"levelo_inurba_marseille","lat":43.3106,"lon":5.37186,"is_reserved":false,"is_disabled":false,"rental_uris":{"android":"levelo://app?vid=a8033c18-bf59-458a-9eb0-147256918905","ios":"levelo://app?vid=a8033c18-bf59-458a-9eb0-147256918905"},"vehicle_type_id":"4","last_reported":1770746026,"current_range_meters":9200,"station_id":"st_d4kl2rp97mjs73e7tdfg","pricing_plan_id":"cebpf4jnsgd1na2vs0mg"},{"bike_id":"1c5cf88e-bae0-4a7f-af92-27de33575267","system_id":"levelo_inurba_marseille","lat":43.25878,"lon":5.39887,"is_reserved":false,"is_disabled":false,"rental_uris":{"android":"levelo://app?vid=1c5cf88e-bae0-4a7f-af92-27de33575267","ios":"levelo://app?vid=1c5cf88e-bae0-4a7f-af92-27de33575267"},"vehicle_type_id":"4","last_reported":1770746026,"current_range_meters":9200,"station_id":"ce4bhl92rcd13ifvqghg","pricing_plan_id":"cebpf4jnsgd1na2vs0mg"},{"bike_id":"23a5bcc2-e9f9-42dd-a247-6b44170a6c9b","system_id":"levelo_inurba_marseille","lat":43.29974,"lon":5.38483,"is_reserved":false,"is_disabled":false,"rental_uris":{"android":"levelo://app?vid=23a5bcc2-e9f9-42dd-a247-6b44170a6c9b","ios":"levelo://app?vid=23a5bcc2-e9f9-42dd-a247-6b44170a6c9b"},"vehicle_type_id":"4","last_reported":1770746026,"current_range_meters":9200,"station_id":"ce4bgj92rcd13ifvqbd0","pricing_plan_id":"cebpf4jnsgd1na2vs0mg"},{"bike_id":"aaaa13e1-ac7f-4065-b3e5-d38bcf374743","system_id":"levelo_inurba_marseille","lat":43.31043,"lon":5.37162,"is_reserved":false,"is_disabled":false,"rental_uris":{"android":"levelo://app?vid=aaaa13e1-ac7f-4065-b3e5-d38bcf374743","ios":"levelo://app?vid=aaaa13e1-ac7f-4065-b3e5-d38bcf374743"},"vehicle_type_id":"4","last_reported":1770746026,"current_range_meters":9200,"station_id":"st_d4kl2rp97mjs73e7tdfg","pricing_plan_id":"cebpf4jnsgd1na2vs0mg"},{"bike_id":"7a484bb3-56ca-455b-b22b-b5500ccbeacf","system_id":"levelo_inurba_marseille","lat":43.280009,"lon":5.40025,"is_reserved":false,"is_disabled":false,"rental_uris":{"android":"levelo://app?vid=7a484bb3-56ca-455b-b22b-b5500ccbeacf","ios":"levelo://app?vid=7a484bb3-56ca-455b-b22b-b5500ccbeacf"},"vehicle_type_id":"4","last_reported":1770746026,"current_range_meters":9200,"station_id":"ce4bho92rcd13ifvqh4g","pricing_plan_id":"cebpf4jnsgd1na2vs0mg"},{"bike_id":"8a46381e-d4ee-4229-9413-4f95655526b6","system_id":"levelo_inurba_marseille","lat":43.30144,"lon":5.38072,"is_reserved":false,"is_disabled":false,"rental_uris":{"android":"levelo://app?vid=8a46381e-d4ee-4229-9413-4f95655526b6","ios":"levelo://app?vid=8a46381e-d4ee-4229-9413-4f95655526b6"},"vehicle_type_id":"4","last_reported":1770746026,"current_range_meters":9200,"station_id":"ce4bgjp2rcd13ifvqbh0","pricing_plan_id":"cebpf4jnsgd1na2vs0mg"},{"bike_id":"2f4f57e9-9c21-4cea-be38-122b93ceee4f","system_id":"levelo_inurba_marseille","lat":43.29617,"lon":5.37722,"is_reserved":false,"is_disabled":false,"rental_uris":{"android":"levelo://app?vid=2f4f57e9-9c21-4cea-be38-122b93ceee4f","ios":"levelo://app?vid=2f4f57e9-9c21-4cea-be38-122b93ceee4f"},"vehicle_type_id":"4","last_reported":1770746026,"current_range_meters":9200,"station_id":"ce4bgi92rcd13ifvqb90","pricing_plan_id":"cebpf4jnsgd1na2vs0mg"},{"bike_id":"6815f637-58c9-4d6c-9384-30848ddbef34","system_id":"levelo_inurba_marseille","lat":43.24552,"lon":5.3954,"is_reserved":false,"is_disabled":false,"rental_uris":{"android":"levelo://app?vid=6815f637-58c9-4d6c-9384-30848ddbef34","ios":"levelo://app?vid=6815f637-58c9-4d6c-9384-30848ddbef34"},"vehicle_type_id":"4","last_reported":1770746026,"current_range_meters":9200,"station_id":"ce4bhlp2rcd13ifvqgjg","pricing_plan_id":"cebpf4jnsgd1na2vs0mg"},{"bike_id":"eb096e12-57b4-4b33-b764-abda7442beb5","system_id":"levelo_inurba_marseille","lat":43.29208,"lon":5.3604,"is_reserved":false,"is_disabled":false,"rental_uris":{"android":"levelo://app?vid=eb096e12-57b4-4b33-b764-abda7442beb5","ios":"levelo://app?vid=eb096e12-57b4-4b33-b764-abda7442beb5"},"vehicle_type_id":"4","last_reported":1770746026,"current_range_meters":9200,"station_id":"ce4bhbh2rcd13ifvqeqg","pricing_plan_id":"cebpf4jnsgd1na2vs0mg"},{"bike_id":"9d5f26c4-e1f9-423a-837f-a33fbe90388b","system_id":"levelo_inurba_marseille","lat":43.31724,"lon":5.42376,"is_reserved":false,"is_disabled":false,"rental_uris":{"android":"levelo://app?vid=9d5f26c4-e1f9-423a-837f-a33fbe90388b","ios":"levelo://app?vid=9d5f26c4-e1f9-423a-837f-a33fbe90388b"},"vehicle_type_id":"4","last_reported":1770746026,"current_range_meters":9200,"station_id":"ce4bhp92rcd13ifvqhbg","pricing_plan_id":"cebpf4jnsgd1na2vs0mg"},{"bike_id":"33352d89-c7bd-4d2f-8796-2f3b2fb0783e","system_id":"levelo_inurba_marseille","lat":43.28181,"lon":5.42627,"is_reserved":false,"is_disabled":false,"rental_uris":{"android":"levelo://app?vid=33352d89-c7bd-4d2f-8796-2f3b2fb0783e","ios":"levelo://app?vid=33352d89-c7bd-4d2f-8796-2f3b2fb0783e"},"vehicle_type_id":"4","last_reported":1770746026,"current_range_meters":9200,"station_id":"ce4bhnh2rcd13ifvqgug","pricing_plan_id":"cebpf4jnsgd1na2vs0mg"},{"bike_id":"0ecf7d75-fd4c-4863-ae68-346dd9512cde","system_id":"levelo_inurba_marseille","lat":43.29724,"lon":5.377,"is_reserved":false,"is_disabled":false,"rental_uris":{"android":"levelo://app?vid=0ecf7d75-fd4c-4863-ae68-346dd9512cde","ios":"levelo://app?vid=0ecf7d75-fd4c-4863-ae68-346dd9512cde"},"vehicle_type_id":"4","last_reported":1770746026,"current_range_meters":9200,"station_id":"ce4bgkh2rcd13ifvqbl0","pricing_plan_id":"cebpf4jnsgd1na2vs0mg"},{"bike_id":"0db530a1-9821-453a-878e-fb6063868eb6","system_id":"levelo_inurba_marseille","lat":43.22933,"lon":5.35386,"is_reserved":false,"is_disabled":false,"rental_uris":{"android":"levelo://app?vid=0db530a1-9821-453a-878e-fb6063868eb6","ios":"levelo://app?vid=0db530a1-9821-453a-878e-fb6063868eb6"},"vehicle_type_id":"4","last_reported":1770746026,"current_range_meters":9200,"station_id":"cpo3532slgdg3j2ikp40","pricing_plan_id":"cebpf4jnsgd1na2vs0mg"},{"bike_id":"188c5a9e-4671-4225-837d-75ce79108bf6","system_id":"levelo_inurba_marseille","lat":43.28872,"lon":5.35856,"is_reserved":false,"is_disabled":false,"rental_uris":{"android":"levelo://app?vid=188c5a9e-4671-4225-837d-75ce79108bf6","ios":"levelo://app?vid=188c5a9e-4671-4225-837d-75ce79108bf6"},"vehicle_type_id":"4","last_reported":1770746026,"current_range_meters":9200,"station_id":"ce4bhb12rcd13ifvqem0","pricing_plan_id":"cebpf4jnsgd1na2vs0mg"},{"bike_id":"7c807a3f-7af9-4c3d-a172-9f60b84073b7","system_id":"levelo_inurba_marseille","lat":43.27956,"lon":5.42413,"is_reserved":false,"is_disabled":false,"rental_uris":{"android":"levelo://app?vid=7c807a3f-7af9-4c3d-a172-9f60b84073b7","ios":"levelo://app?vid=7c807a3f-7af9-4c3d-a172-9f60b84073b7"},"vehicle_type_id":"4","last_reported":1770746026,"current_range_meters":9200,"station_id":"","pricing_plan_id":"cebpf4jnsgd1na2vs0mg"},{"bike_id":"c177022f-aaf6-4300-a13b-640a1821171a","system_id":"levelo_inurba_marseille","lat":43.29835,"lon":5.44071,"is_reserved":false,"is_disabled":false,"rental_uris":{"android":"levelo://app?vid=c177022f-aaf6-4300-a13b-640a1821171a","ios":"levelo://app?vid=c177022f-aaf6-4300-a13b-640a1821171a"},"vehicle_type_id":"4","last_reported":1770746026,"current_range_meters":9200,"station_id":"st_d3jp68qikq2c7381ktn0","pricing_plan_id":"cebpf4jnsgd1na2vs0mg"},{"bike_id":"6ef266e1-b28a-4809-9c41-6a2491e4d8ee","system_id":"levelo_inurba_marseille","lat":43.296809,"lon":5.372822,"is_reserved":false,"is_disabled":false,"rental_uris":{"android":"levelo://app?vid=6ef266e1-b28a-4809-9c41-6a2491e4d8ee","ios":"levelo://app?vid=6ef266e1-b28a-4809-9c41-6a2491e4d8ee"},"vehicle_type_id":"4","last_reported":1770746026,"current_range_meters":9600,"station_id":"ce4bgk12rcd13ifvqbj0","pricing_plan_id":"cebpf4jnsgd1na2vs0mg"},{"bike_id":"e532d849-9da4-492c-974e-21e564fe6f6a","system_id":"levelo_inurba_marseille","lat":43.31075,"lon":5.3716,"is_reserved":false,"is_disabled":false,"rental_uris":{"android":"levelo://app?vid=e532d849-9da4-492c-974e-21e564fe6f6a","ios":"levelo://app?vid=e532d849-9da4-492c-974e-21e564fe6f6a"},"vehicle_type_id":"4","last_reported":1770746026,"current_range_meters":9600,"station_id":"st_d4kl2rp97mjs73e7tdfg","pricing_plan_id":"cebpf4jnsgd1na2vs0mg"},{"bike_id":"9c4fa197-e784-47a1-9a3e-1e64aa186f14","system_id":"levelo_inurba_marseille","lat":43.25939,"lon":5.409,"is_reserved":false,"is_disabled":false,"rental_uris":{"android":"levelo://app?vid=9c4fa197-e784-47a1-9a3e-1e64aa186f14","ios":"levelo://app?vid=9c4fa197-e784-47a1-9a3e-1e64aa186f14"},"vehicle_type_id":"4","last_reported":1770746026,"current_range_meters":9600,"station_id":"ce4bhm92rcd13ifvqglg","pricing_plan_id":"cebpf4jnsgd1na2vs0mg"},{"bike_id":"6cd6b999-6341-450a-ac71-75e5a9b56417","system_id":"levelo_inurba_marseille","lat":43.29005,"lon":5.38131,"is_reserved":false,"is_disabled":false,"rental_uris":{"android":"levelo://app?vid=6cd6b999-6341-450a-ac71-75e5a9b56417","ios":"levelo://app?vid=6cd6b999-6341-450a-ac71-75e5a9b56417"},"vehicle_type_id":"4","last_reported":1770746026,"current_range_meters":9600,"station_id":"ce4bh4p2rcd13ifvqe1g","pricing_plan_id":"cebpf4jnsgd1na2vs0mg"},{"bike_id":"d3ff72dc-5551-4917-81f1-dd8f1a42992a","system_id":"levelo_inurba_marseille","lat":43.31366,"lon":5.3671,"is_reserved":false,"is_disabled":false,"rental_uris":{"android":"levelo://app?vid=d3ff72dc-5551-4917-81f1-dd8f1a42992a","ios":"levelo://app?vid=d3ff72dc-5551-4917-81f1-dd8f1a42992a"},"vehicle_type_id":"4","last_reported":1770746026,"current_range_meters":9600,"station_id":"ce4bgr92rcd13ifvqc6g","pricing_plan_id":"cebpf4jnsgd1na2vs0mg"},{"bike_id":"764497c5-c703-433d-92fd-e0895530a07e","system_id":"levelo_inurba_marseille","lat":43.30729,"lon":5.3784,"is_reserved":false,"is_disabled":false,"rental_uris":{"android":"levelo://app?vid=764497c5-c703-433d-92fd-e0895530a07e","ios":"levelo://app?vid=764497c5-c703-433d-92fd-e0895530a07e"},"vehicle_type_id":"4","last_reported":1770746026,"current_range_meters":9600,"station_id":"","pricing_plan_id":"cebpf4jnsgd1na2vs0mg"},{"bike_id":"0d4b82a5-aa43-451c-8c0f-ee433668cdaf","system_id":"levelo_inurba_marseille","lat":43.28837,"lon":5.39324,"is_reserved":false,"is_disabled":true,"rental_uris":{"android":"levelo://app?vid=0d4b82a5-aa43-451c-8c0f-ee433668cdaf","ios":"levelo://app?vid=0d4b82a5-aa43-451c-8c0f-ee433668cdaf"},"vehicle_type_id":"4","last_reported":1770746026,"current_range_meters":9600,"station_id":"ce4bh2p2rcd13ifvqdi0","pricing_plan_id":"cebpf4jnsgd1na2vs0mg"},{"bike_id":"8505f58d-cf8b-4cd3-b336-69093e0d0642","system_id":"levelo_inurba_marseille","lat":43.28921,"lon":5.36643,"is_reserved":false,"is_disabled":false,"rental_uris":{"android":"levelo://app?vid=8505f58d-cf8b-4cd3-b336-69093e0d0642","ios":"levelo://app?vid=8505f58d-cf8b-4cd3-b336-69093e0d0642"},"vehicle_type_id":"4","last_reported":1770746026,"current_range_meters":9600,"station_id":"ce4bhap2rcd13ifvqek0","pricing_plan_id":"cebpf4jnsgd1na2vs0mg"},{"bike_id":"8ff4a9fa-0d2e-4f7f-8193-e7a8dba5ca9a","system_id":"levelo_inurba_marseille","lat":43.25878,"lon":5.39908,"is_reserved":false,"is_disabled":false,"rental_uris":{"android":"levelo://app?vid=8ff4a9fa-0d2e-4f7f-8193-e7a8dba5ca9a","ios":"levelo://app?vid=8ff4a9fa-0d2e-4f7f-8193-e7a8dba5ca9a"},"vehicle_type_id":"4","last_reported":1770746026,"current_range_meters":9600,"station_id":"ce4bhl92rcd13ifvqghg","pricing_plan_id":"cebpf4jnsgd1na2vs0mg"},{"bike_id":"ae861497-9a22-4231-afa9-8238d5c5713c","system_id":"levelo_inurba_marseille","lat":43.24157,"lon":5.36393,"is_reserved":false,"is_disabled":false,"rental_uris":{"android":"levelo://app?vid=ae861497-9a22-4231-afa9-8238d5c5713c","ios":"levelo://app?vid=ae861497-9a22-4231-afa9-8238d5c5713c"},"vehicle_type_id":"4","last_reported":1770746026,"current_range_meters":9600,"station_id":"cpo36qri1sfpv3e86is0","pricing_plan_id":"cebpf4jnsgd1na2vs0mg"},{"bike_id":"bdf2309f-3fe7-4be0-98d8-585b6c560634","system_id":"levelo_inurba_marseille","lat":43.29622,"lon":5.37723,"is_reserved":false,"is_disabled":false,"rental_uris":{"android":"levelo://app?vid=bdf2309f-3fe7-4be0-98d8-585b6c560634","ios":"levelo://app?vid=bdf2309f-3fe7-4be0-98d8-585b6c560634"},"vehicle_type_id":"4","last_reported":1770746026,"current_range_meters":9600,"station_id":"ce4bgi92rcd13ifvqb90","pricing_plan_id":"cebpf4jnsgd1na2vs0mg"},{"bike_id":"85a03983-39b2-4a8f-bec5-06c4614dbce5","system_id":"levelo_inurba_marseille","lat":43.2846,"lon":5.35881,"is_reserved":false,"is_disabled":false,"rental_uris":{"android":"levelo://app?vid=85a03983-39b2-4a8f-bec5-06c4614dbce5","ios":"levelo://app?vid=85a03983-39b2-4a8f-bec5-06c4614dbce5"},"vehicle_type_id":"4","last_reported":1770746026,"current_range_meters":9600,"station_id":"ce4bhah2rcd13ifvqei0","pricing_plan_id":"cebpf4jnsgd1na2vs0mg"},{"bike_id":"c4effc81-2a8b-439f-89b3-07c67cc8aa47","system_id":"levelo_inurba_marseille","lat":43.28106,"lon":5.37839,"is_reserved":false,"is_disabled":false,"rental_uris":{"android":"levelo://app?vid=c4effc81-2a8b-439f-89b3-07c67cc8aa47","ios":"levelo://app?vid=c4effc81-2a8b-439f-89b3-07c67cc8aa47"},"vehicle_type_id":"4","last_reported":1770746026,"current_range_meters":9600,"station_id":"ce4bha12rcd13ifvqee0","pricing_plan_id":"cebpf4jnsgd1na2vs0mg"},{"bike_id":"59e41c6f-f0d8-4ae9-9a68-fc72bf48da44","system_id":"levelo_inurba_marseille","lat":43.23204,"lon":5.39997,"is_reserved":false,"is_disabled":false,"rental_uris":{"android":"levelo://app?vid=59e41c6f-f0d8-4ae9-9a68-fc72bf48da44","ios":"levelo://app?vid=59e41c6f-f0d8-4ae9-9a68-fc72bf48da44"},"vehicle_type_id":"4","last_reported":1770746026,"current_range_meters":9600,"station_id":"ce4bhn12rcd13ifvqgqg","pricing_plan_id":"cebpf4jnsgd1na2vs0mg"},{"bike_id":"5ed0f3ca-c4eb-409c-9eb1-a3eed1b5d0e0","system_id":"levelo_inurba_marseille","lat":43.30381,"lon":5.42485,"is_reserved":false,"is_disabled":false,"rental_uris":{"android":"levelo://app?vid=5ed0f3ca-c4eb-409c-9eb1-a3eed1b5d0e0","ios":"levelo://app?vid=5ed0f3ca-c4eb-409c-9eb1-a3eed1b5d0e0"},"vehicle_type_id":"4","last_reported":1770746026,"current_range_meters":9600,"station_id":"ce4bhoh2rcd13ifvqh6g","pricing_plan_id":"cebpf4jnsgd1na2vs0mg"},{"bike_id":"a09641a8-0461-4697-ba32-1993821cc825","system_id":"levelo_inurba_marseille","lat":43.25847,"lon":5.39424,"is_reserved":false,"is_disabled":false,"rental_uris":{"android":"levelo://app?vid=a09641a8-0461-4697-ba32-1993821cc825","ios":"levelo://app?vid=a09641a8-0461-4697-ba32-1993821cc825"},"vehicle_type_id":"4","last_reported":1770746026,"current_range_meters":9600,"station_id":"ce4bhip2rcd13ifvqft0","pricing_plan_id":"cebpf4jnsgd1na2vs0mg"},{"bike_id":"e511626a-94e2-4f2d-88da-1b682c4eb873","system_id":"levelo_inurba_marseille","lat":43.28963,"lon":5.38397,"is_reserved":false,"is_disabled":false,"rental_uris":{"android":"levelo://app?vid=e511626a-94e2-4f2d-88da-1b682c4eb873","ios":"levelo://app?vid=e511626a-94e2-4f2d-88da-1b682c4eb873"},"vehicle_type_id":"4","last_reported":1770746026,"current_range_meters":9600,"station_id":"ce4bh612rcd13ifvqe6g","pricing_plan_id":"cebpf4jnsgd1na2vs0mg"},{"bike_id":"bb892be4-e333-4eaf-a7b2-824b69309d6c","system_id":"levelo_inurba_marseille","lat":43.3172,"lon":5.42397,"is_reserved":false,"is_disabled":false,"rental_uris":{"android":"levelo://app?vid=bb892be4-e333-4eaf-a7b2-824b69309d6c","ios":"levelo://app?vid=bb892be4-e333-4eaf-a7b2-824b69309d6c"},"vehicle_type_id":"4","last_reported":1770746026,"current_range_meters":9600,"station_id":"ce4bhp92rcd13ifvqhbg","pricing_plan_id":"cebpf4jnsgd1na2vs0mg"},{"bike_id":"3a856aa1-6d68-474f-914c-6c2b356a8cde","system_id":"levelo_inurba_marseille","lat":43.24171,"lon":5.39733,"is_reserved":false,"is_disabled":false,"rental_uris":{"android":"levelo://app?vid=3a856aa1-6d68-474f-914c-6c2b356a8cde","ios":"levelo://app?vid=3a856aa1-6d68-474f-914c-6c2b356a8cde"},"vehicle_type_id":"4","last_reported":1770746026,"current_range_meters":9600,"station_id":"ce4bhn12rcd13ifvqgpg","pricing_plan_id":"cebpf4jnsgd1na2vs0mg"},{"bike_id":"cc43a2a6-4df1-46ee-89a5-e5908a5338ed","system_id":"levelo_inurba_marseille","lat":43.28482,"lon":5.48393,"is_reserved":false,"is_disabled":false,"rental_uris":{"android":"levelo://app?vid=cc43a2a6-4df1-46ee-89a5-e5908a5338ed","ios":"levelo://app?vid=cc43a2a6-4df1-46ee-89a5-e5908a5338ed"},"vehicle_type_id":"4","last_reported":1770746026,"current_range_meters":9600,"station_id":"st_d3svhcjqgbts73a3dn0g","pricing_plan_id":"cebpf4jnsgd1na2vs0mg"},{"bike_id":"86f00316-df1e-43fd-a262-2602fefde1f1","system_id":"levelo_inurba_marseille","lat":43.28487,"lon":5.38552,"is_reserved":false,"is_disabled":false,"rental_uris":{"android":"levelo://app?vid=86f00316-df1e-43fd-a262-2602fefde1f1","ios":"levelo://app?vid=86f00316-df1e-43fd-a262-2602fefde1f1"},"vehicle_type_id":"4","last_reported":1770746026,"current_range_meters":10000,"station_id":"ce4bh8p2rcd13ifvqeb0","pricing_plan_id":"cebpf4jnsgd1na2vs0mg"},{"bike_id":"fd413ed1-5364-48d8-bf77-2aa280c288f5","system_id":"levelo_inurba_marseille","lat":43.26212,"lon":5.37926,"is_reserved":false,"is_disabled":true,"rental_uris":{"android":"levelo://app?vid=fd413ed1-5364-48d8-bf77-2aa280c288f5","ios":"levelo://app?vid=fd413ed1-5364-48d8-bf77-2aa280c288f5"},"vehicle_type_id":"4","last_reported":1770746026,"current_range_meters":10000,"station_id":"ce4bhjp2rcd13ifvqg90","pricing_plan_id":"cebpf4jnsgd1na2vs0mg"},{"bike_id":"fe86c9ba-789d-48cb-b139-57215407552e","system_id":"levelo_inurba_marseille","lat":43.337608,"lon":5.374595,"is_reserved":false,"is_disabled":false,"rental_uris":{"android":"levelo://app?vid=fe86c9ba-789d-48cb-b139-57215407552e","ios":"levelo://app?vid=fe86c9ba-789d-48cb-b139-57215407552e"},"vehicle_type_id":"4","last_reported":1770746026,"current_range_meters":10000,"station_id":"","pricing_plan_id":"cebpf4jnsgd1na2vs0mg"},{"bike_id":"73b19279-ac36-4c30-8d7d-3b7f53c5cebd","system_id":"levelo_inurba_marseille","lat":43.29274,"lon":5.40176,"is_reserved":false,"is_disabled":false,"rental_uris":{"android":"levelo://app?vid=73b19279-ac36-4c30-8d7d-3b7f53c5cebd","ios":"levelo://app?vid=73b19279-ac36-4c30-8d7d-3b7f53c5cebd"},"vehicle_type_id":"4","last_reported":1770746026,"current_range_meters":10000,"station_id":"ce4bh312rcd13ifvqdk0","pricing_plan_id":"cebpf4jnsgd1na2vs0mg"},{"bike_id":"c6176d61-506f-4755-a0d6-6ccb9566f89a","system_id":"levelo_inurba_marseille","lat":43.2569,"lon":5.4113,"is_reserved":false,"is_disabled":false,"rental_uris":{"android":"levelo://app?vid=c6176d61-506f-4755-a0d6-6ccb9566f89a","ios":"levelo://app?vid=c6176d61-506f-4755-a0d6-6ccb9566f89a"},"vehicle_type_id":"4","last_reported":1770746026,"current_range_meters":10000,"station_id":"ce4bhkp2rcd13ifvqgd0","pricing_plan_id":"cebpf4jnsgd1na2vs0mg"},{"bike_id":"bed8121f-57c6-4d1c-9dc6-736c3ca6338b","system_id":"levelo_inurba_marseille","lat":43.29024,"lon":5.38634,"is_reserved":false,"is_disabled":false,"rental_uris":{"android":"levelo://app?vid=bed8121f-57c6-4d1c-9dc6-736c3ca6338b","ios":"levelo://app?vid=bed8121f-57c6-4d1c-9dc6-736c3ca6338b"},"vehicle_type_id":"4","last_reported":1770746026,"current_range_meters":10000,"station_id":"ce4bh4p2rcd13ifvqe0g","pricing_plan_id":"cebpf4jnsgd1na2vs0mg"},{"bike_id":"d997c6b7-acb1-4efa-ae35-2d8c161e2e69","system_id":"levelo_inurba_marseille","lat":43.23154,"lon":5.35629,"is_reserved":false,"is_disabled":false,"rental_uris":{"android":"levelo://app?vid=d997c6b7-acb1-4efa-ae35-2d8c161e2e69","ios":"levelo://app?vid=d997c6b7-acb1-4efa-ae35-2d8c161e2e69"},"vehicle_type_id":"4","last_reported":1770746026,"current_range_meters":10000,"station_id":"","pricing_plan_id":"cebpf4jnsgd1na2vs0mg"},{"bike_id":"2efe9cb7-050f-454c-8115-42db0c14a2c0","system_id":"levelo_inurba_marseille","lat":43.27835,"lon":5.40723,"is_reserved":false,"is_disabled":false,"rental_uris":{"android":"levelo://app?vid=2efe9cb7-050f-454c-8115-42db0c14a2c0","ios":"levelo://app?vid=2efe9cb7-050f-454c-8115-42db0c14a2c0"},"vehicle_type_id":"4","last_reported":1770746026,"current_range_meters":10000,"station_id":"ce4bhnh2rcd13ifvqgtg","pricing_plan_id":"cebpf4jnsgd1na2vs0mg"},{"bike_id":"b93a53da-ae39-470c-b2f2-8ac0bbc0e4e1","system_id":"levelo_inurba_marseille","lat":43.27813,"lon":5.4072,"is_reserved":false,"is_disabled":false,"rental_uris":{"android":"levelo://app?vid=b93a53da-ae39-470c-b2f2-8ac0bbc0e4e1","ios":"levelo://app?vid=b93a53da-ae39-470c-b2f2-8ac0bbc0e4e1"},"vehicle_type_id":"4","last_reported":1770746026,"current_range_meters":10000,"station_id":"ce4bhnh2rcd13ifvqgtg","pricing_plan_id":"cebpf4jnsgd1na2vs0mg"},{"bike_id":"d6b9d7ff-4ec2-4ca9-ba28-5a5dad54cfd3","system_id":"levelo_inurba_marseille","lat":43.284786,"lon":5.483947,"is_reserved":false,"is_disabled":false,"rental_uris":{"android":"levelo://app?vid=d6b9d7ff-4ec2-4ca9-ba28-5a5dad54cfd3","ios":"levelo://app?vid=d6b9d7ff-4ec2-4ca9-ba28-5a5dad54cfd3"},"vehicle_type_id":"4","last_reported":1770746026,"current_range_meters":10000,"station_id":"","pricing_plan_id":"cebpf4jnsgd1na2vs0mg"},{"bike_id":"dce79879-f1a7-44a8-99d2-4fc33b17a4e8","system_id":"levelo_inurba_marseille","lat":43.28708,"lon":5.37944,"is_reserved":false,"is_disabled":false,"rental_uris":{"android":"levelo://app?vid=dce79879-f1a7-44a8-99d2-4fc33b17a4e8","ios":"levelo://app?vid=dce79879-f1a7-44a8-99d2-4fc33b17a4e8"},"vehicle_type_id":"4","last_reported":1770746026,"current_range_meters":10000,"station_id":"ce4bh9p2rcd13ifvqec0","pricing_plan_id":"cebpf4jnsgd1na2vs0mg"},{"bike_id":"3a943705-b4f9-4f55-8a7c-50609b9737f8","system_id":"levelo_inurba_marseille","lat":43.28506,"lon":5.38579,"is_reserved":false,"is_disabled":false,"rental_uris":{"android":"levelo://app?vid=3a943705-b4f9-4f55-8a7c-50609b9737f8","ios":"levelo://app?vid=3a943705-b4f9-4f55-8a7c-50609b9737f8"},"vehicle_type_id":"4","last_reported":1770746026,"current_range_meters":10000,"station_id":"ce4bh8p2rcd13ifvqeb0","pricing_plan_id":"cebpf4jnsgd1na2vs0mg"},{"bike_id":"ac9a885a-fe7d-4871-905c-95e91acf3aa8","system_id":"levelo_inurba_marseille","lat":43.22564,"lon":5.41632,"is_reserved":false,"is_disabled":false,"rental_uris":{"android":"levelo://app?vid=ac9a885a-fe7d-4871-905c-95e91acf3aa8","ios":"levelo://app?vid=ac9a885a-fe7d-4871-905c-95e91acf3aa8"},"vehicle_type_id":"4","last_reported":1770746026,"current_range_meters":10000,"station_id":"st_d2o4gvlbi1j2169b742g","pricing_plan_id":"cebpf4jnsgd1na2vs0mg"},{"bike_id":"39fb8e69-2b6b-438f-8552-9a0b81d00df8","system_id":"levelo_inurba_marseille","lat":43.29889,"lon":5.43672,"is_reserved":false,"is_disabled":false,"rental_uris":{"android":"levelo://app?vid=39fb8e69-2b6b-438f-8552-9a0b81d00df8","ios":"levelo://app?vid=39fb8e69-2b6b-438f-8552-9a0b81d00df8"},"vehicle_type_id":"4","last_reported":1770746026,"current_range_meters":10000,"station_id":"ce4bhpp2rcd13ifvqhfg","pricing_plan_id":"cebpf4jnsgd1na2vs0mg"},{"bike_id":"77dc2865-3576-4e1a-8188-65c317bd4b97","system_id":"levelo_inurba_marseille","lat":43.28205,"lon":5.39055,"is_reserved":false,"is_disabled":false,"rental_uris":{"android":"levelo://app?vid=77dc2865-3576-4e1a-8188-65c317bd4b97","ios":"levelo://app?vid=77dc2865-3576-4e1a-8188-65c317bd4b97"},"vehicle_type_id":"4","last_reported":1770746026,"current_range_meters":10800,"station_id":"ce4bhn92rcd13ifvqgsg","pricing_plan_id":"cebpf4jnsgd1na2vs0mg"},{"bike_id":"2c712c0a-61b1-43e8-917d-b5e825bade74","system_id":"levelo_inurba_marseille","lat":43.25502,"lon":5.37648,"is_reserved":false,"is_disabled":false,"rental_uris":{"android":"levelo://app?vid=2c712c0a-61b1-43e8-917d-b5e825bade74","ios":"levelo://app?vid=2c712c0a-61b1-43e8-917d-b5e825bade74"},"vehicle_type_id":"4","last_reported":1770746026,"current_range_meters":10800,"station_id":"ce4bhh12rcd13ifvqff0","pricing_plan_id":"cebpf4jnsgd1na2vs0mg"},{"bike_id":"b3f0571c-cbde-4477-9bcc-d4343fa06d9b","system_id":"levelo_inurba_marseille","lat":43.31175,"lon":5.38722,"is_reserved":false,"is_disabled":false,"rental_uris":{"android":"levelo://app?vid=b3f0571c-cbde-4477-9bcc-d4343fa06d9b","ios":"levelo://app?vid=b3f0571c-cbde-4477-9bcc-d4343fa06d9b"},"vehicle_type_id":"4","last_reported":1770746026,"current_range_meters":10800,"station_id":"ce4bgv12rcd13ifvqcp0","pricing_plan_id":"cebpf4jnsgd1na2vs0mg"},{"bike_id":"da58e134-53b3-40f6-92d1-017a2db9db9e","system_id":"levelo_inurba_marseille","lat":43.29609,"lon":5.37712,"is_reserved":false,"is_disabled":false,"rental_uris":{"android":"levelo://app?vid=da58e134-53b3-40f6-92d1-017a2db9db9e","ios":"levelo://app?vid=da58e134-53b3-40f6-92d1-017a2db9db9e"},"vehicle_type_id":"4","last_reported":1770746026,"current_range_meters":10800,"station_id":"ce4bgi92rcd13ifvqb90","pricing_plan_id":"cebpf4jnsgd1na2vs0mg"},{"bike_id":"a56ed56e-97a2-4d54-bb39-c008e67c4922","system_id":"levelo_inurba_marseille","lat":43.244045,"lon":5.370826,"is_reserved":false,"is_disabled":false,"rental_uris":{"android":"levelo://app?vid=a56ed56e-97a2-4d54-bb39-c008e67c4922","ios":"levelo://app?vid=a56ed56e-97a2-4d54-bb39-c008e67c4922"},"vehicle_type_id":"4","last_reported":1770746026,"current_range_meters":10800,"station_id":"ce4bhhh2rcd13ifvqfk0","pricing_plan_id":"cebpf4jnsgd1na2vs0mg"},{"bike_id":"6b3495d9-1d6f-4218-8831-c94bc5aad7c9","system_id":"levelo_inurba_marseille","lat":43.30251,"lon":5.40062,"is_reserved":false,"is_disabled":false,"rental_uris":{"android":"levelo://app?vid=6b3495d9-1d6f-4218-8831-c94bc5aad7c9","ios":"levelo://app?vid=6b3495d9-1d6f-4218-8831-c94bc5aad7c9"},"vehicle_type_id":"4","last_reported":1770746026,"current_range_meters":10800,"station_id":"ce4bgvh2rcd13ifvqcs0","pricing_plan_id":"cebpf4jnsgd1na2vs0mg"},{"bike_id":"07548cfa-c4ff-4bcb-ae0f-6feee23db8f3","system_id":"levelo_inurba_marseille","lat":43.22565,"lon":5.4157,"is_reserved":false,"is_disabled":false,"rental_uris":{"android":"levelo://app?vid=07548cfa-c4ff-4bcb-ae0f-6feee23db8f3","ios":"levelo://app?vid=07548cfa-c4ff-4bcb-ae0f-6feee23db8f3"},"vehicle_type_id":"4","last_reported":1770746026,"current_range_meters":10800,"station_id":"st_d2o4gvlbi1j2169b742g","pricing_plan_id":"cebpf4jnsgd1na2vs0mg"},{"bike_id":"958cdd10-7f91-4b57-9cdf-6afd19ea8451","system_id":"levelo_inurba_marseille","lat":43.28158,"lon":5.42643,"is_reserved":false,"is_disabled":false,"rental_uris":{"android":"levelo://app?vid=958cdd10-7f91-4b57-9cdf-6afd19ea8451","ios":"levelo://app?vid=958cdd10-7f91-4b57-9cdf-6afd19ea8451"},"vehicle_type_id":"4","last_reported":1770746026,"current_range_meters":11200,"station_id":"ce4bhnh2rcd13ifvqgug","pricing_plan_id":"cebpf4jnsgd1na2vs0mg"},