{"last_updated":1702375680,"ttl":30,"version":"2.2","data":{"bikes":[{"bike_id":"a1a881a7-a7fc-4869-9d8f-f27ce37dd081","system_id":"levelo_inurba_marseille","lat":43.31341,"lon":5.367098,"is_reserved":false,"is_disabled":false,"rental_uris":{"android":"levelo://app?vid=a1a881a7-a7fc-4869-9d8f-f27ce37dd081","ios":"levelo://app?vid=a1a881a7-a7fc-4869-9d8f-f27ce37dd081"},"vehicle_type_id":"4","last_reported":1702375680,"current_range_meters":17200,"station_id":"ce4bgr92rcd13ifvqc6g","pricing_plan_id":"free"},{"bike_id":"91a6ad9b-fb43-467f-8fb1-c151b8833ea0","system_id":"levelo_inurba_marseille","lat":43.31341,"lon":5.367098,"is_reserved":false,"is_disabled":false,"rental_uris":{"android":"levelo://app?vid=91a6ad9b-fb43-467f-8fb1-c151b8833ea0","ios":"levelo://app?vid=91a6ad9b-fb43-467f-8fb1-c151b8833ea0"},"vehicle_type_id":"4","last_reported":1702375680,"current_range_meters":24400,"station_id":"ce4bgr92rcd13ifvqc6g","pricing_plan_id":"free"},{"bike_id":"002cfb12-6112-4936-a860-5e8ece7463a3","system_id":"levelo_inurba_marseille","lat":43.31341,"lon":5.367098,"is_reserved":false,"is_disabled":false,"rental_uris":{"android":"levelo://app?vid=002cfb12-6112-4936-a860-5e8ece7463a3","ios":"levelo://app?vid=002cfb12-6112-4936-a860-5e8ece7463a3"},"vehicle_type_id":"4","last_reported":1702375680,"current_range_meters":31200,"station_id":"ce4bgr92rcd13ifvqc6g","pricing_plan_id":"free"},{"bike_id":"448c2d1c-c5fc-429a-81a3-ebbfd4ac3390","system_id":"levelo_inurba_marseille","lat":43.313391,"lon":5.36706,"is_reserved":false,"is_disabled":false,"rental_uris":{"android":"levelo://app?vid=448c2d1c-c5fc-429a-81a3-ebbfd4ac3390","ios":"levelo://app?vid=448c2d1c-c5fc-429a-81a3-ebbfd4ac3390"},"vehicle_type_id":"4","last_reported":1702375680,"current_range_meters":18000,"station_id":"ce4bgr92rcd13ifvqc6g","pricing_plan_id":"free"},{"bike_id":"40341bd1-dc5e-4783-946d-7fb035bf9942","system_id":"levelo_inurba_marseille","lat":43.313391,"lon":5.36706,"is_reserved":false,"is_disabled":false,"rental_uris":{"android":"levelo://app?vid=40341bd1-dc5e-4783-946d-7fb035bf9942","ios":"levelo://app?vid=40341bd1-dc5e-4783-946d-7fb035bf9942"},"vehicle_type_id":"4","last_reported":1702375680,"current_range_meters":18000,"station_id":"ce4bgr92rcd13ifvqc6g","pricing_plan_id":"free"},{"bike_id":"225995f4-8a71-478f-a276-8977d37a3f7c","system_id":"levelo_inurba_marseille","lat":43.313391,"lon":5.36706,"is_reserved":false,"is_disabled":false,"rental_uris":{"android":"levelo://app?vid=225995f4-8a71-478f-a276-8977d37a3f7c","ios":"levelo://app?vid=225995f4-8a71-478f-a276-8977d37a3f7c"},"vehicle_type_id":"4","last_reported":1702375680,"current_range_meters":31600,"station_id":"ce4bgr92rcd13ifvqc6g","pricing_plan_id":"free"},{"bike_id":"31a42e56-93e6-413e-9897-e4e6fe4bb8d1","system_id":"levelo_inurba_marseille","lat":43.314811,"lon":5.373103,"is_reserved":false,"is_disabled":false,"rental_uris":{"android":"levelo://app?vid=31a42e56-93e6-413e-9897-e4e6fe4bb8d1","ios":"levelo://app?vid=31a42e56-93e6-413e-9897-e4e6fe4bb8d1"},"vehicle_type_id":"4","last_reported":1702375680,"current_range_meters":22000,"station_id":"ce4bgt12rcd13ifvqcd0","pricing_plan_id":"free"},{"bike_id":"690cea3f-12db-45a1-b4d0-121afbab5e43","system_id":"levelo_inurba_marseille","lat":43.30548,"lon":5.36693,"is_reserved":false,"is_disabled":false,"rental_uris":{"android":"levelo://app?vid=690cea3f-12db-45a1-b4d0-121afbab5e43","ios":"levelo://app?vid=690cea3f-12db-45a1-b4d0-121afbab5e43"},"vehicle_type_id":"4","last_reported":1702375680,"current_range_meters":400,"station_id":"ce4bgrp2rcd13ifvqc9g","pricing_plan_id":"free"},{"bike_id":"9da4132a-6f1b-4c84-8d6c-76109c4c288a","system_id":"levelo_inurba_marseille","lat":43.305428,"lon":5.366964,"is_reserved":false,"is_disabled":false,"rental_uris":{"android":"levelo://app?vid=9da4132a-6f1b-4c84-8d6c-76109c4c288a","ios":"levelo://app?vid=9da4132a-6f1b-4c84-8d6c-76109c4c288a"},"vehicle_type_id":"4","last_reported":1702375680,"current_range_meters":14000,"station_id":"ce4bgrp2rcd13ifvqc9g","pricing_plan_id":"free"},{"bike_id":"dae1ec94-af66-4434-89ec-028fbb451a5c","system_id":"levelo_inurba_marseille","lat":43.30542,"lon":5.36711,"is_reserved":false,"is_disabled":false,"rental_uris":{"android":"levelo://app?vid=dae1ec94-af66-4434-89ec-028fbb451a5c","ios":"levelo://app?vid=dae1ec94-af66-4434-89ec-028fbb451a5c"},"vehicle_type_id":"4","last_reported":1702375680,"current_range_meters":21600,"station_id":"ce4bgrp2rcd13ifvqc9g","pricing_plan_id":"free"},{"bike_id":"d81e989e-0b3b-486c-b400-ebdc2da54e2b","system_id":"levelo_inurba_marseille","lat":43.30546,"lon":5.36534,"is_reserved":false,"is_disabled":false,"rental_uris":{"android":"levelo://app?vid=d81e989e-0b3b-486c-b400-ebdc2da54e2b","ios":"levelo://app?vid=d81e989e-0b3b-486c-b400-ebdc2da54e2b"},"vehicle_type_id":"4","last_reported":1702375680,"current_range_meters":31200,"station_id":"ce4bgs12rcd13ifvqcag","pricing_plan_id":"free"},{"bike_id":"f36debdb-6bea-4678-967a-886219dbe8b9","system_id":"levelo_inurba_marseille","lat":43.305368,"lon":5.367343,"is_reserved":false,"is_disabled":false,"rental_uris":{"android":"levelo://app?vid=f36debdb-6bea-4678-967a-886219dbe8b9","ios":"levelo://app?vid=f36debdb-6bea-4678-967a-886219dbe8b9"},"vehicle_type_id":"4","last_reported":1702375680,"current_range_meters":0,"station_id":"ce4bgrp2rcd13ifvqc9g","pricing_plan_id":"free"},{"bike_id":"cb57c367-17e9-4790-bea6-801fb719723d","system_id":"levelo_inurba_marseille","lat":43.30546,"lon":5.36525,"is_reserved":false,"is_disabled":false,"rental_uris":{"android":"levelo://app?vid=cb57c367-17e9-4790-bea6-801fb719723d","ios":"levelo://app?vid=cb57c367-17e9-4790-bea6-801fb719723d"},"vehicle_type_id":"4","last_reported":1702375680,"current_range_meters":6400,"station_id":"ce4bgs12rcd13ifvqcag","pricing_plan_id":"free"},{"bike_id":"8e998b2a-f0b9-4ac0-92c5-0e138a913250","system_id":"levelo_inurba_marseille","lat":43.305712,"lon":5.365641,"is_reserved":false,"is_disabled":false,"rental_uris":{"android":"levelo://app?vid=8e998b2a-f0b9-4ac0-92c5-0e138a913250","ios":"levelo://app?vid=8e998b2a-f0b9-4ac0-92c5-0e138a913250"},"vehicle_type_id":"4","last_reported":1702375680,"current_range_meters":5200,"station_id":"ce4bgs12rcd13ifvqcag","pricing_plan_id":"free"},{"bike_id":"9687b982-a421-4b2a-9b89-e33a5800d06b","system_id":"levelo_inurba_marseille","lat":43.30539,"lon":5.36558,"is_reserved":false,"is_disabled":false,"rental_uris":{"android":"levelo://app?vid=9687b982-a421-4b2a-9b89-e33a5800d06b","ios":"levelo://app?vid=9687b982-a421-4b2a-9b89-e33a5800d06b"},"vehicle_type_id":"4","last_reported":1702375680,"current_range_meters":8000,"station_id":"ce4bgs12rcd13ifvqcag","pricing_plan_id":"free"},{"bike_id":"55f1035c-70f3-42e2-9037-3e0d3840ad46","system_id":"levelo_inurba_marseille","lat":43.305706,"lon":5.365654,"is_reserved":false,"is_disabled":false,"rental_uris":{"android":"levelo://app?vid=55f1035c-70f3-42e2-9037-3e0d3840ad46","ios":"levelo://app?vid=55f1035c-70f3-42e2-9037-3e0d3840ad46"},"vehicle_type_id":"4","last_reported":1702375680,"current_range_meters":14400,"station_id":"ce4bgs12rcd13ifvqcag","pricing_plan_id":"free"},{"bike_id":"1d30cb85-b722-49be-8873-c7d967578bd8","system_id":"levelo_inurba_marseille","lat":43.305706,"lon":5.365654,"is_reserved":false,"is_disabled":false,"rental_uris":{"android":"levelo://app?vid=1d30cb85-b722-49be-8873-c7d967578bd8","ios":"levelo://app?vid=1d30cb85-b722-49be-8873-c7d967578bd8"},"vehicle_type_id":"4","last_reported":1702375680,"current_range_meters":17200,"station_id":"ce4bgs12rcd13ifvqcag","pricing_plan_id":"free"},{"bike_id":"52a6349c-5504-4a5a-ad4b-5a30f23f5b55","system_id":"levelo_inurba_marseille","lat":43.305706,"lon":5.365654,"is_reserved":false,"is_disabled":false,"rental_uris":{"android":"levelo://app?vid=52a6349c-5504-4a5a-ad4b-5a30f23f5b55","ios":"levelo://app?vid=52a6349c-5504-4a5a-ad4b-5a30f23f5b55"},"vehicle_type_id":"4","last_reported":1702375680,"current_range_meters":22000,"station_id":"ce4bgs12rcd13ifvqcag","pricing_plan_id":"free"},{"bike_id":"4d4614c3-5f53-430f-943b-3151a6948a85","system_id":"levelo_inurba_marseille","lat":43.305706,"lon":5.365654,"is_reserved":false,"is_disabled":false,"rental_uris":{"android":"levelo://app?vid=4d4614c3-5f53-430f-943b-3151a6948a85","ios":"levelo://app?vid=4d4614c3-5f53-430f-943b-3151a6948a85"},"vehicle_type_id":"4","last_reported":1702375680,"current_range_meters":19200,"station_id":"ce4bgs12rcd13ifvqcag","pricing_plan_id":"free"},{"bike_id":"67d7040b-cccd-46c5-8e87-b7669794113e","system_id":"levelo_inurba_marseille","lat":43.305706,"lon":5.365654,"is_reserved":false,"is_disabled":false,"rental_uris":{"android":"levelo://app?vid=67d7040b-cccd-46c5-8e87-b7669794113e","ios":"levelo://app?vid=67d7040b-cccd-46c5-8e87-b7669794113e"},"vehicle_type_id":"4","last_reported":1702375680,"current_range_meters":15200,"station_id":"ce4bgs12rcd13ifvqcag","pricing_plan_id":"free"},{"bike_id":"4ce376a2-9207-4c47-98be-4be2e8cbf753","system_id":"levelo_inurba_marseille","lat":43.305706,"lon":5.365654,"is_reserved":false,"is_disabled":false,"rental_uris":{"android":"levelo://app?vid=4ce376a2-9207-4c47-98be-4be2e8cbf753","ios":"levelo://app?vid=4ce376a2-9207-4c47-98be-4be2e8cbf753"},"vehicle_type_id":"4","last_reported":1702375680,"current_range_meters":20400,"station_id":"ce4bgs12rcd13ifvqcag","pricing_plan_id":"free"},{"bike_id":"6f179f71-9639-4219-80c3-3710070ec185","system_id":"levelo_inurba_marseille","lat":43.305706,"lon":5.365654,"is_reserved":false,"is_disabled":false,"rental_uris":{"android":"levelo://app?vid=6f179f71-9639-4219-80c3-3710070ec185","ios":"levelo://app?vid=6f179f71-9639-4219-80c3-3710070ec185"},"vehicle_type_id":"4","last_reported":1702375680,"current_range_meters":12000,"station_id":"ce4bgs12rcd13ifvqcag","pricing_plan_id":"free"},{"bike_id":"6ddf65a5-04f6-4af6-90da-7d5bfaa7d9e2","system_id":"levelo_inurba_marseille","lat":43.305706,"lon":5.365654,"is_reserved":false,"is_disabled":false,"rental_uris":{"android":"levelo://app?vid=6ddf65a5-04f6-4af6-90da-7d5bfaa7d9e2","ios":"levelo://app?vid=6ddf65a5-04f6-4af6-90da-7d5bfaa7d9e2"},"vehicle_type_id":"4","last_reported":1702375680,"current_range_meters":31600,"station_id":"ce4bgs12rcd13ifvqcag","pricing_plan_id":"free"},{"bike_id":"fa57ce1d-fb12-411e-a183-80319b737feb","system_id":"levelo_inurba_marseille","lat":43.305989,"lon":5.37225,"is_reserved":false,"is_disabled":false,"rental_uris":{"android":"levelo://app?vid=fa57ce1d-fb12-411e-a183-80319b737feb","ios":"levelo://app?vid=fa57ce1d-fb12-411e-a183-80319b737feb"},"vehicle_type_id":"4","last_reported":1702375680,"current_range_meters":24400,"station_id":"ce4bgqh2rcd13ifvqc4g","pricing_plan_id":"free"},{"bike_id":"5e6d790d-6bf6-4855-b87b-b07ea9a51fc8","system_id":"levelo_inurba_marseille","lat":43.31171,"lon":5.37762,"is_reserved":false,"is_disabled":false,"rental_uris":{"android":"levelo://app?vid=5e6d790d-6bf6-4855-b87b-b07ea9a51fc8","ios":"levelo://app?vid=5e6d790d-6bf6-4855-b87b-b07ea9a51fc8"},"vehicle_type_id":"4","last_reported":1702375680,"current_range_meters":6000,"station_id":"","pricing_plan_id":"free"},{"bike_id":"5e6c6bdd-343c-4585-8c98-1fa094990be8","system_id":"levelo_inurba_marseille","lat":43.317075,"lon":5.377367,"is_reserved":false,"is_disabled":false,"rental_uris":{"android":"levelo://app?vid=5e6c6bdd-343c-4585-8c98-1fa094990be8","ios":"levelo://app?vid=5e6c6bdd-343c-4585-8c98-1fa094990be8"},"vehicle_type_id":"4","last_reported":1702375680,"current_range_meters":24800,"station_id":"ce4bgth2rcd13ifvqch0","pricing_plan_id":"free"},{"bike_id":"a0667ddb-9b6c-416d-9f0f-c0537eec704a","system_id":"levelo_inurba_marseille","lat":43.317075,"lon":5.377367,"is_reserved":false,"is_disabled":false,"rental_uris":{"android":"levelo://app?vid=a0667ddb-9b6c-416d-9f0f-c0537eec704a","ios":"levelo://app?vid=a0667ddb-9b6c-416d-9f0f-c0537eec704a"},"vehicle_type_id":"4","last_reported":1702375680,"current_range_meters":13200,"station_id":"ce4bgth2rcd13ifvqch0","pricing_plan_id":"free"},{"bike_id":"c4ebf9de-2105-49ec-84d8-faa16537d1f8","system_id":"levelo_inurba_marseille","lat":43.304274,"lon":5.388873,"is_reserved":false,"is_disabled":false,"rental_uris":{"android":"levelo://app?vid=c4ebf9de-2105-49ec-84d8-faa16537d1f8","ios":"levelo://app?vid=c4ebf9de-2105-49ec-84d8-faa16537d1f8"},"vehicle_type_id":"4","last_reported":1702375680,"current_range_meters":28400,"station_id":"ce4bgk12rcd13ifvqbi0","pricing_plan_id":"free"},{"bike_id":"0acdaee8-d693-432d-9773-7c20815311dc","system_id":"levelo_inurba_marseille","lat":43.30304,"lon":5.368987,"is_reserved":false,"is_disabled":false,"rental_uris":{"android":"levelo://app?vid=0acdaee8-d693-432d-9773-7c20815311dc","ios":"levelo://app?vid=0acdaee8-d693-432d-9773-7c20815311dc"},"vehicle_type_id":"4","last_reported":1702375680,"current_range_meters":28800,"station_id":"ce4bgqh2rcd13ifvqc5g","pricing_plan_id":"free"},{"bike_id":"5ac33104-6285-4e25-ae97-e54b0d336db9","system_id":"levelo_inurba_marseille","lat":43.30304,"lon":5.368987,"is_reserved":false,"is_disabled":false,"rental_uris":{"android":"levelo://app?vid=5ac33104-6285-4e25-ae97-e54b0d336db9","ios":"levelo://app?vid=5ac33104-6285-4e25-ae97-e54b0d336db9"},"vehicle_type_id":"4","last_reported":1702375680,"current_range_meters":1200,"station_id":"ce4bgqh2rcd13ifvqc5g","pricing_plan_id":"free"},{"bike_id":"6a5d63a8-649a-4907-950e-8caa62588880","system_id":"levelo_inurba_marseille","lat":43.30304,"lon":5.368987,"is_reserved":false,"is_disabled":false,"rental_uris":{"android":"levelo://app?vid=6a5d63a8-649a-4907-950e-8caa62588880","ios":"levelo://app?vid=6a5d63a8-649a-4907-950e-8caa62588880"},"vehicle_type_id":"4","last_reported":1702375680,"current_range_meters":14800,"station_id":"ce4bgqh2rcd13ifvqc5g","pricing_plan_id":"free"},{"bike_id":"0a024822-4639-433a-a2d5-47b05ddcb3bc","system_id":"levelo_inurba_marseille","lat":43.301939,"lon":5.366286,"is_reserved":false,"is_disabled":false,"rental_uris":{"android":"levelo://app?vid=0a024822-4639-433a-a2d5-47b05ddcb3bc","ios":"levelo://app?vid=0a024822-4639-433a-a2d5-47b05ddcb3bc"},"vehicle_type_id":"4","last_reported":1702375680,"current_range_meters":17200,"station_id":"ce4bgrh2rcd13ifvqc8g","pricing_plan_id":"free"},{"bike_id":"0cce514b-edc9-4ead-b279-bc8b5a3413f2","system_id":"levelo_inurba_marseille","lat":43.301939,"lon":5.366286,"is_reserved":false,"is_disabled":false,"rental_uris":{"android":"levelo://app?vid=0cce514b-edc9-4ead-b279-bc8b5a3413f2","ios":"levelo://app?vid=0cce514b-edc9-4ead-b279-bc8b5a3413f2"},"vehicle_type_id":"4","last_reported":1702375680,"current_range_meters":27600,"station_id":"ce4bgrh2rcd13ifvqc8g","pricing_plan_id":"free"},{"bike_id":"f5dc9f4c-6a45-44d2-81d3-682788c49fd3","system_id":"levelo_inurba_marseille","lat":43.30475,"lon":5.37902,"is_reserved":false,"is_disabled":false,"rental_uris":{"android":"levelo://app?vid=f5dc9f4c-6a45-44d2-81d3-682788c49fd3","ios":"levelo://app?vid=f5dc9f4c-6a45-44d2-81d3-682788c49fd3"},"vehicle_type_id":"4","last_reported":1702375680,"current_range_meters":20000,"station_id":"ce4bgup2rcd13ifvqcn0","pricing_plan_id":"free"},{"bike_id":"8c7511a8-cf5a-4076-a24d-77dd0897cf49","system_id":"levelo_inurba_marseille","lat":43.3046,"lon":5.37906,"is_reserved":false,"is_disabled":false,"rental_uris":{"android":"levelo://app?vid=8c7511a8-cf5a-4076-a24d-77dd0897cf49","ios":"levelo://app?vid=8c7511a8-cf5a-4076-a24d-77dd0897cf49"},"vehicle_type_id":"4","last_reported":1702375680,"current_range_meters":0,"station_id":"ce4bgup2rcd13ifvqcn0","pricing_plan_id":"free"},{"bike_id":"e434e993-9e2a-447f-95a7-b4882191ed8b","system_id":"levelo_inurba_marseille","lat":43.302784,"lon":5.377158,"is_reserved":false,"is_disabled":false,"rental_uris":{"android":"levelo://app?vid=e434e993-9e2a-447f-95a7-b4882191ed8b","ios":"levelo://app?vid=e434e993-9e2a-447f-95a7-b4882191ed8b"},"vehicle_type_id":"4","last_reported":1702375680,"current_range_meters":15600,"station_id":"ce4bguh2rcd13ifvqcj0","pricing_plan_id":"free"},{"bike_id":"4daeeda4-95c6-4eda-8418-4013a6dbc35e","system_id":"levelo_inurba_marseille","lat":43.301429,"lon":5.37413,"is_reserved":false,"is_disabled":false,"rental_uris":{"android":"levelo://app?vid=4daeeda4-95c6-4eda-8418-4013a6dbc35e","ios":"levelo://app?vid=4daeeda4-95c6-4eda-8418-4013a6dbc35e"},"vehicle_type_id":"4","last_reported":1702375680,"current_range_meters":24400,"station_id":"ce4bgs92rcd13ifvqcc0","pricing_plan_id":"free"},{"bike_id":"8728139c-1be5-4244-9d8d-9b78c70e73a9","system_id":"levelo_inurba_marseille","lat":43.301429,"lon":5.37413,"is_reserved":false,"is_disabled":false,"rental_uris":{"android":"levelo://app?vid=8728139c-1be5-4244-9d8d-9b78c70e73a9","ios":"levelo://app?vid=8728139c-1be5-4244-9d8d-9b78c70e73a9"},"vehicle_type_id":"4","last_reported":1702375680,"current_range_meters":23200,"station_id":"ce4bgs92rcd13ifvqcc0","pricing_plan_id":"free"},{"bike_id":"fb700912-9b49-4108-b90a-66db80c52ac6","system_id":"levelo_inurba_marseille","lat":43.301429,"lon":5.37413,"is_reserved":false,"is_disabled":false,"rental_uris":{"android":"levelo://app?vid=fb700912-9b49-4108-b90a-66db80c52ac6","ios":"levelo://app?vid=fb700912-9b49-4108-b90a-66db80c52ac6"},"vehicle_type_id":"4","last_reported":1702375680,"current_range_meters":20800,"station_id":"ce4bgs92rcd13ifvqcc0","pricing_plan_id":"free"},{"bike_id":"f1025054-b073-473e-b2bc-20a81c102fbe","system_id":"levelo_inurba_marseille","lat":43.313571,"lon":5.384829,"is_reserved":false,"is_disabled":false,"rental_uris":{"android":"levelo://app?vid=f1025054-b073-473e-b2bc-20a81c102fbe","ios":"levelo://app?vid=f1025054-b073-473e-b2bc-20a81c102fbe"},"vehicle_type_id":"4","last_reported":1702375680,"current_range_meters":21600,"station_id":"ce4bgt92rcd13ifvqcf0","pricing_plan_id":"free"},{"bike_id":"df4d049d-b8e6-4243-967e-0826f396041a","system_id":"levelo_inurba_marseille","lat":43.299222,"lon":5.365554,"is_reserved":false,"is_disabled":false,"rental_uris":{"android":"levelo://app?vid=df4d049d-b8e6-4243-967e-0826f396041a","ios":"levelo://app?vid=df4d049d-b8e6-4243-967e-0826f396041a"},"vehicle_type_id":"4","last_reported":1702375680,"current_range_meters":21200,"station_id":"ce4bgm92rcd13ifvqbr0","pricing_plan_id":"free"},{"bike_id":"8d3f7a4b-18da-480c-b0e2-16b766773866","system_id":"levelo_inurba_marseille","lat":43.298433,"lon":5.362774,"is_reserved":false,"is_disabled":false,"rental_uris":{"android":"levelo://app?vid=8d3f7a4b-18da-480c-b0e2-16b766773866","ios":"levelo://app?vid=8d3f7a4b-18da-480c-b0e2-16b766773866"},"vehicle_type_id":"4","last_reported":1702375680,"current_range_meters":21200,"station_id":"ce4bgpp2rcd13ifvqc3g","pricing_plan_id":"free"},{"bike_id":"435a4a87-80bd-4b7f-949d-d1ab669a5cac","system_id":"levelo_inurba_marseille","lat":43.298433,"lon":5.362774,"is_reserved":false,"is_disabled":false,"rental_uris":{"android":"levelo://app?vid=435a4a87-80bd-4b7f-949d-d1ab669a5cac","ios":"levelo://app?vid=435a4a87-80bd-4b7f-949d-d1ab669a5cac"},"vehicle_type_id":"4","last_reported":1702375680,"current_range_meters":28800,"station_id":"ce4bgpp2rcd13ifvqc3g","pricing_plan_id":"free"},{"bike_id":"1ee2e56b-21da-4bd6-bb84-81427f352779","system_id":"levelo_inurba_marseille","lat":43.299243,"lon":5.37481,"is_reserved":false,"is_disabled":false,"rental_uris":{"android":"levelo://app?vid=1ee2e56b-21da-4bd6-bb84-81427f352779","ios":"levelo://app?vid=1ee2e56b-21da-4bd6-bb84-81427f352779"},"vehicle_type_id":"4","last_reported":1702375680,"current_range_meters":29600,"station_id":"ce4bgjh2rcd13ifvqbg0","pricing_plan_id":"free"},{"bike_id":"4190f910-d5a0-4556-ab2a-78f514ef6dc3","system_id":"levelo_inurba_marseille","lat":43.299243,"lon":5.37481,"is_reserved":false,"is_disabled":false,"rental_uris":{"android":"levelo://app?vid=4190f910-d5a0-4556-ab2a-78f514ef6dc3","ios":"levelo://app?vid=4190f910-d5a0-4556-ab2a-78f514ef6dc3"},"vehicle_type_id":"4","last_reported":1702375680,"current_range_meters":8000,"station_id":"ce4bgjh2rcd13ifvqbg0","pricing_plan_id":"free"},{"bike_id":"0de53898-16f8-4dd7-a767-68ece3c6df0c","system_id":"levelo_inurba_marseille","lat":43.297794,"lon":5.370888,"is_reserved":false,"is_disabled":false,"rental_uris":{"android":"levelo://app?vid=0de53898-16f8-4dd7-a767-68ece3c6df0c","ios":"levelo://app?vid=0de53898-16f8-4dd7-a767-68ece3c6df0c"},"vehicle_type_id":"4","last_reported":1702375680,"current_range_meters":29200,"station_id":"ce4bgop2rcd13ifvqc1g","pricing_plan_id":"free"},{"bike_id":"41f60a0b-3ef7-4fd8-81f3-c0f1b227235b","system_id":"levelo_inurba_marseille","lat":43.297774,"lon":5.370875,"is_reserved":false,"is_disabled":false,"rental_uris":{"android":"levelo://app?vid=41f60a0b-3ef7-4fd8-81f3-c0f1b227235b","ios":"levelo://app?vid=41f60a0b-3ef7-4fd8-81f3-c0f1b227235b"},"vehicle_type_id":"4","last_reported":1702375680,"current_range_meters":27200,"station_id":"ce4bgop2rcd13ifvqc1g","pricing_plan_id":"free"},{"bike_id":"ecf18d98-bf5f-40d6-a1dd-4d229e6206e6","system_id":"levelo_inurba_marseille","lat":43.297163,"lon":5.365866,"is_reserved":false,"is_disabled":false,"rental_uris":{"android":"levelo://app?vid=ecf18d98-bf5f-40d6-a1dd-4d229e6206e6","ios":"levelo://app?vid=ecf18d98-bf5f-40d6-a1dd-4d229e6206e6"},"vehicle_type_id":"4","last_reported":1702375680,"current_range_meters":20800,"station_id":"ce4bgn12rcd13ifvqbt0","pricing_plan_id":"free"},{"bike_id":"d960faa4-d882-4830-bb54-4c8dffc1a5e9","system_id":"levelo_inurba_marseille","lat":43.29627,"lon":5.37172,"is_reserved":false,"is_disabled":false,"rental_uris":{"android":"levelo://app?vid=d960faa4-d882-4830-bb54-4c8dffc1a5e9","ios":"levelo://app?vid=d960faa4-d882-4830-bb54-4c8dffc1a5e9"},"vehicle_type_id":"4","last_reported":1702375680,"current_range_meters":26800,"station_id":"ce4bgnh2rcd13ifvqc0g","pricing_plan_id":"free"},{"bike_id":"63a9670d-321c-488a-a9de-161f79f052c8","system_id":"levelo_inurba_marseille","lat":43.29573,"lon":5.367355,"is_reserved":false,"is_disabled":false,"rental_uris":{"android":"levelo://app?vid=63a9670d-321c-488a-a9de-161f79f052c8","ios":"levelo://app?vid=63a9670d-321c-488a-a9de-161f79f052c8"},"vehicle_type_id":"4","last_reported":1702375680,"current_range_meters":29200,"station_id":"ce4bgph2rcd13ifvqc2g","pricing_plan_id":"free"},{"bike_id":"01828269-eece-416d-bebf-cc087598afc9","system_id":"levelo_inurba_marseille","lat":43.29624,"lon":5.37167,"is_reserved":false,"is_disabled":false,"rental_uris":{"android":"levelo://app?vid=01828269-eece-416d-bebf-cc087598afc9","ios":"levelo://app?vid=01828269-eece-416d-bebf-cc087598afc9"},"vehicle_type_id":"4","last_reported":1702375680,"current_range_meters":8000,"station_id":"ce4bgnh2rcd13ifvqc0g","pricing_plan_id":"free"},{"bike_id":"ee45646b-6d22-44f3-aa45-31fc3941dc2b","system_id":"levelo_inurba_marseille","lat":43.296129,"lon":5.370777,"is_reserved":false,"is_disabled":false,"rental_uris":{"android":"levelo://app?vid=ee45646b-6d22-44f3-aa45-31fc3941dc2b","ios":"levelo://app?vid=ee45646b-6d22-44f3-aa45-31fc3941dc2b"},"vehicle_type_id":"4","last_reported":1702375680,"current_range_meters":27200,"station_id":"ce4bgnh2rcd13ifvqc0g","pricing_plan_id":"free"},{"bike_id":"1794aa73-86e1-41a2-931c-ad4a31373372","system_id":"levelo_inurba_marseille","lat":43.29573,"lon":5.367355,"is_reserved":false,"is_disabled":false,"rental_uris":{"android":"levelo://app?vid=1794aa73-86e1-41a2-931c-ad4a31373372","ios":"levelo://app?vid=1794aa73-86e1-41a2-931c-ad4a31373372"},"vehicle_type_id":"4","last_reported":1702375680,"current_range_meters":28400,"station_id":"ce4bgph2rcd13ifvqc2g","pricing_plan_id":"free"},{"bike_id":"02787152-d9d4-4916-ae57-47f96babf3a7","system_id":"levelo_inurba_marseille","lat":43.296129,"lon":5.370777,"is_reserved":false,"is_disabled":false,"rental_uris":{"android":"levelo://app?vid=02787152-d9d4-4916-ae57-47f96babf3a7","ios":"levelo://app?vid=02787152-d9d4-4916-ae57-47f96babf3a7"},"vehicle_type_id":"4","last_reported":1702375680,"current_range_meters":30400,"station_id":"ce4bgnh2rcd13ifvqc0g","pricing_plan_id":"free"},{"bike_id":"f6493c06-b7fc-4507-9955-2861022b8d75","system_id":"levelo_inurba_marseille","lat":43.29585,"lon":5.36742,"is_reserved":false,"is_disabled":false,"rental_uris":{"android":"levelo://app?vid=f6493c06-b7fc-4507-9955-2861022b8d75","ios":"levelo://app?vid=f6493c06-b7fc-4507-9955-2861022b8d75"},"vehicle_type_id":"4","last_reported":1702375680,"current_range_meters":0,"station_id":"ce4bgph2rcd13ifvqc2g","pricing_plan_id":"free"},{"bike_id":"d372d1ae-5055-4acb-a283-7b72cd14845a","system_id":"levelo_inurba_marseille","lat":43.296129,"lon":5.370777,"is_reserved":false,"is_disabled":false,"rental_uris":{"android":"levelo://app?vid=d372d1ae-5055-4acb-a283-7b72cd14845a","ios":"levelo://app?vid=d372d1ae-5055-4acb-a283-7b72cd14845a"},"vehicle_type_id":"4","last_reported":1702375680,"current_range_meters":16000,"station_id":"ce4bgnh2rcd13ifvqc0g","pricing_plan_id":"free"},{"bike_id":"ba224069-42b6-4867-a047-29efa117c07d","system_id":"levelo_inurba_marseille","lat":43.29573,"lon":5.367355,"is_reserved":false,"is_disabled":false,"rental_uris":{"android":"levelo://app?vid=ba224069-42b6-4867-a047-29efa117c07d","ios":"levelo://app?vid=ba224069-42b6-4867-a047-29efa117c07d"},"vehicle_type_id":"4","last_reported":1702375680,"current_range_meters":28800,"station_id":"ce4bgph2rcd13ifvqc2g","pricing_plan_id":"free"},{"bike_id":"30a4fdd9-0fc1-4716-a998-a19879e2f54b","system_id":"levelo_inurba_marseille","lat":43.29573,"lon":5.367355,"is_reserved":false,"is_disabled":false,"rental_uris":{"android":"levelo://app?vid=30a4fdd9-0fc1-4716-a998-a19879e2f54b","ios":"levelo://app?vid=30a4fdd9-0fc1-4716-a998-a19879e2f54b"},"vehicle_type_id":"4","last_reported":1702375680,"current_range_meters":20000,"station_id":"ce4bgph2rcd13ifvqc2g","pricing_plan_id":"free"},{"bike_id":"b97f116f-fef1-4493-bd34-f6745c829e9a","system_id":"levelo_inurba_marseille","lat":43.296935,"lon":5.376544,"is_reserved":false,"is_disabled":false,"rental_uris":{"android":"levelo://app?vid=b97f116f-fef1-4493-bd34-f6745c829e9a","ios":"levelo://app?vid=b97f116f-fef1-4493-bd34-f6745c829e9a"},"vehicle_type_id":"4","last_reported":1702375680,"current_range_meters":25600,"station_id":"ce4bgkh2rcd13ifvqbl0","pricing_plan_id":"free"},{"bike_id":"73e2ffe7-979e-45a8-92bd-37c4dd323d34","system_id":"levelo_inurba_marseille","lat":43.299028,"lon":5.381509,"is_reserved":false,"is_disabled":false,"rental_uris":{"android":"levelo://app?vid=73e2ffe7-979e-45a8-92bd-37c4dd323d34","ios":"levelo://app?vid=73e2ffe7-979e-45a8-92bd-37c4dd323d34"},"vehicle_type_id":"4","last_reported":1702375680,"current_range_meters":20000,"station_id":"ce4bgj12rcd13ifvqbc0","pricing_plan_id":"free"},{"bike_id":"5f1c80c9-6648-4f14-9910-d6e65ee03010","system_id":"levelo_inurba_marseille","lat":43.296921,"lon":5.376579,"is_reserved":false,"is_disabled":false,"rental_uris":{"android":"levelo://app?vid=5f1c80c9-6648-4f14-9910-d6e65ee03010","ios":"levelo://app?vid=5f1c80c9-6648-4f14-9910-d6e65ee03010"},"vehicle_type_id":"4","last_reported":1702375680,"current_range_meters":10000,"station_id":"ce4bgkh2rcd13ifvqbl0","pricing_plan_id":"free"},{"bike_id":"5fedb9e7-85da-4694-bdf0-710551366035","system_id":"levelo_inurba_marseille","lat":43.309589,"lon":5.390258,"is_reserved":false,"is_disabled":false,"rental_uris":{"android":"levelo://app?vid=5fedb9e7-85da-4694-bdf0-710551366035","ios":"levelo://app?vid=5fedb9e7-85da-4694-bdf0-710551366035"},"vehicle_type_id":"4","last_reported":1702375680,"current_range_meters":0,"station_id":"ce4bgup2rcd13ifvqco0","pricing_plan_id":"free"},{"bike_id":"80665e05-a8de-4359-a318-bdc3951e29f2","system_id":"levelo_inurba_marseille","lat":43.295748,"lon":5.37522,"is_reserved":false,"is_disabled":false,"rental_uris":{"android":"levelo://app?vid=80665e05-a8de-4359-a318-bdc3951e29f2","ios":"levelo://app?vid=80665e05-a8de-4359-a318-bdc3951e29f2"},"vehicle_type_id":"4","last_reported":1702375680,"current_range_meters":25200,"station_id":"ce4bgh92rcd13ifvqb50","pricing_plan_id":"free"},{"bike_id":"77a6c46d-d898-4e4f-8846-efa91689c7f0","system_id":"levelo_inurba_marseille","lat":43.297827,"lon":5.38093,"is_reserved":false,"is_disabled":false,"rental_uris":{"android":"levelo://app?vid=77a6c46d-d898-4e4f-8846-efa91689c7f0","ios":"levelo://app?vid=77a6c46d-d898-4e4f-8846-efa91689c7f0"},"vehicle_type_id":"4","last_reported":1702375680,"current_range_meters":0,"station_id":"","pricing_plan_id":"free"},{"bike_id":"582159cd-4d58-44bb-8d0e-5057df5ff9ca","system_id":"levelo_inurba_marseille","lat":43.304274,"lon":5.388873,"is_reserved":false,"is_disabled":false,"rental_uris":{"android":"levelo://app?vid=582159cd-4d58-44bb-8d0e-5057df5ff9ca","ios":"levelo://app?vid=582159cd-4d58-44bb-8d0e-5057df5ff9ca"},"vehicle_type_id":"4","last_reported":1702375680,"current_range_meters":22800,"station_id":"ce4bgk12rcd13ifvqbi0","pricing_plan_id":"free"},{"bike_id":"d0ca745c-d4b1-4961-bede-95a106c00a98","system_id":"levelo_inurba_marseille","lat":43.295748,"lon":5.37522,"is_reserved":false,"is_disabled":false,"rental_uris":{"android":"levelo://app?vid=d0ca745c-d4b1-4961-bede-95a106c00a98","ios":"levelo://app?vid=d0ca745c-d4b1-4961-bede-95a106c00a98"},"vehicle_type_id":"4","last_reported":1702375680,"current_range_meters":7200,"station_id":"ce4bgh92rcd13ifvqb50","pricing_plan_id":"free"},{"bike_id":"fce004ec-0811-472d-96e0-6d67cd1ee266","system_id":"levelo_inurba_marseille","lat":43.296263,"lon":5.377094,"is_reserved":false,"is_disabled":false,"rental_uris":{"android":"levelo://app?vid=fce004ec-0811-472d-96e0-6d67cd1ee266","ios":"levelo://app?vid=fce004ec-0811-472d-96e0-6d67cd1ee266"},"vehicle_type_id":"4","last_reported":1702375680,"current_range_meters":20000,"station_id":"ce4bgi92rcd13ifvqb90","pricing_plan_id":"free"},{"bike_id":"b6ed93b9-2d52-4c7b-a7ee-77fcaa1446b2","system_id":"levelo_inurba_marseille","lat":43.295279,"lon":5.375048,"is_reserved":false,"is_disabled":false,"rental_uris":{"android":"levelo://app?vid=b6ed93b9-2d52-4c7b-a7ee-77fcaa1446b2","ios":"levelo://app?vid=b6ed93b9-2d52-4c7b-a7ee-77fcaa1446b2"},"vehicle_type_id":"4","last_reported":1702375680,"current_range_meters":12000,"station_id":"ce4bgkp2rcd13ifvqbmg","pricing_plan_id":"free"},{"bike_id":"59da21fc-b961-4965-bea4-8f754955db54","system_id":"levelo_inurba_marseille","lat":43.295279,"lon":5.375048,"is_reserved":false,"is_disabled":false,"rental_uris":{"android":"levelo://app?vid=59da21fc-b961-4965-bea4-8f754955db54","ios":"levelo://app?vid=59da21fc-b961-4965-bea4-8f754955db54"},"vehicle_type_id":"4","last_reported":1702375680,"current_range_meters":22400,"station_id":"ce4bgkp2rcd13ifvqbmg","pricing_plan_id":"free"},{"bike_id":"3035cb58-ca05-4cc5-b8f9-63f2c4735011","system_id":"levelo_inurba_marseille","lat":43.299707,"lon":5.384859,"is_reserved":false,"is_disabled":false,"rental_uris":{"android":"levelo://app?vid=3035cb58-ca05-4cc5-b8f9-63f2c4735011","ios":"levelo://app?vid=3035cb58-ca05-4cc5-b8f9-63f2c4735011"},"vehicle_type_id":"4","last_reported":1702375680,"current_range_meters":26000,"station_id":"ce4bgj92rcd13ifvqbd0","pricing_plan_id":"free"},{"bike_id":"b8a0a371-877b-48c3-b6c7-49b39481a9d1","system_id":"levelo_inurba_marseille","lat":43.29565,"lon":5.37753,"is_reserved":false,"is_disabled":false,"rental_uris":{"android":"levelo://app?vid=b8a0a371-877b-48c3-b6c7-49b39481a9d1","ios":"levelo://app?vid=b8a0a371-877b-48c3-b6c7-49b39481a9d1"},"vehicle_type_id":"4","last_reported":1702375680,"current_range_meters":11200,"station_id":"","pricing_plan_id":"free"},{"bike_id":"a9aca3f8-2354-45b6-98e7-8b57e07886b2","system_id":"levelo_inurba_marseille","lat":43.293259,"lon":5.371586,"is_reserved":false,"is_disabled":false,"rental_uris":{"android":"levelo://app?vid=a9aca3f8-2354-45b6-98e7-8b57e07886b2","ios":"levelo://app?vid=a9aca3f8-2354-45b6-98e7-8b57e07886b2"},"vehicle_type_id":"4","last_reported":1702375680,"current_range_meters":15600,"station_id":"ce4bgh92rcd13ifvqb40","pricing_plan_id":"free"},{"bike_id":"a1d99e00-c3bd-4a90-9254-26479b0e2877","system_id":"levelo_inurba_marseille","lat":43.293259,"lon":5.371586,"is_reserved":false,"is_disabled":false,"rental_uris":{"android":"levelo://app?vid=a1d99e00-c3bd-4a90-9254-26479b0e2877","ios":"levelo://app?vid=a1d99e00-c3bd-4a90-9254-26479b0e2877"},"vehicle_type_id":"4","last_reported":1702375680,"current_range_meters":25600,"station_id":"ce4bgh92rcd13ifvqb40","pricing_plan_id":"free"},{"bike_id":"47b1cd6f-44e8-4efb-a4ea-d76db800afbe","system_id":"levelo_inurba_marseille","lat":43.293259,"lon":5.371586,"is_reserved":false,"is_disabled":false,"rental_uris":{"android":"levelo://app?vid=47b1cd6f-44e8-4efb-a4ea-d76db800afbe","ios":"levelo://app?vid=47b1cd6f-44e8-4efb-a4ea-d76db800afbe"},"vehicle_type_id":"4","last_reported":1702375680,"current_range_meters":13600,"station_id":"ce4bgh92rcd13ifvqb40","pricing_plan_id":"free"},{"bike_id":"562cad14-b434-4867-9a5c-f1387a04f9f2","system_id":"levelo_inurba_marseille","lat":43.303002,"lon":5.392142,"is_reserved":false,"is_disabled":false,"rental_uris":{"android":"levelo://app?vid=562cad14-b434-4867-9a5c-f1387a04f9f2","ios":"levelo://app?vid=562cad14-b434-4867-9a5c-f1387a04f9f2"},"vehicle_type_id":"4","last_reported":1702375680,"current_range_meters":24000,"station_id":"ce4bgkh2rcd13ifvqbk0","pricing_plan_id":"free"},{"bike_id":"90c8c61b-917d-47a8-878c-6fea89a585c0","system_id":"levelo_inurba_marseille","lat":43.303002,"lon":5.392142,"is_reserved":false,"is_disabled":false,"rental_uris":{"android":"levelo://app?vid=90c8c61b-917d-47a8-878c-6fea89a585c0","ios":"levelo://app?vid=90c8c61b-917d-47a8-878c-6fea89a585c0"},"vehicle_type_id":"4","last_reported":1702375680,"current_range_meters":24400,"station_id":"ce4bgkh2rcd13ifvqbk0","pricing_plan_id":"free"},{"bike_id":"64a908be-639e-4e6c-af7f-a69949bed1ba","system_id":"levelo_inurba_marseille","lat":43.303002,"lon":5.392142,"is_reserved":false,"is_disabled":false,"rental_uris":{"android":"levelo://app?vid=64a908be-639e-4e6c-af7f-a69949bed1ba","ios":"levelo://app?vid=64a908be-639e-4e6c-af7f-a69949bed1ba"},"vehicle_type_id":"4","last_reported":1702375680,"current_range_meters":31200,"station_id":"ce4bgkh2rcd13ifvqbk0","pricing_plan_id":"free"},{"bike_id":"85e189da-4619-4ad0-8014-282bfef1fd90","system_id":"levelo_inurba_marseille","lat":43.302992,"lon":5.392136,"is_reserved":false,"is_disabled":false,"rental_uris":{"android":"levelo://app?vid=85e189da-4619-4ad0-8014-282bfef1fd90","ios":"levelo://app?vid=85e189da-4619-4ad0-8014-282bfef1fd90"},"vehicle_type_id":"4","last_reported":1702375680,"current_range_meters":4800,"station_id":"ce4bgkh2rcd13ifvqbk0","pricing_plan_id":"free"},{"bike_id":"df0a7762-ad41-4c64-9986-8349f3a8c667","system_id":"levelo_inurba_marseille","lat":43.30085,"lon":5.390856,"is_reserved":false,"is_disabled":false,"rental_uris":{"android":"levelo://app?vid=df0a7762-ad41-4c64-9986-8349f3a8c667","ios":"levelo://app?vid=df0a7762-ad41-4c64-9986-8349f3a8c667"},"vehicle_type_id":"4","last_reported":1702375680,"current_range_meters":28400,"station_id":"ce4bh192rcd13ifvqdb0","pricing_plan_id":"free"},{"bike_id":"4d438d20-58b5-43f1-9aac-4f9849dc8ea2","system_id":"levelo_inurba_marseille","lat":43.291675,"lon":5.371583,"is_reserved":false,"is_disabled":false,"rental_uris":{"android":"levelo://app?vid=4d438d20-58b5-43f1-9aac-4f9849dc8ea2","ios":"levelo://app?vid=4d438d20-58b5-43f1-9aac-4f9849dc8ea2"},"vehicle_type_id":"4","last_reported":1702375680,"current_range_meters":17200,"station_id":"ce4bha92rcd13ifvqeh0","pricing_plan_id":"free"},{"bike_id":"a4d50ccf-c865-45dd-b544-191412ab4643","system_id":"levelo_inurba_marseille","lat":43.291675,"lon":5.371583,"is_reserved":false,"is_disabled":false,"rental_uris":{"android":"levelo://app?vid=a4d50ccf-c865-45dd-b544-191412ab4643","ios":"levelo://app?vid=a4d50ccf-c865-45dd-b544-191412ab4643"},"vehicle_type_id":"4","last_reported":1702375680,"current_range_meters":29600,"station_id":"ce4bha92rcd13ifvqeh0","pricing_plan_id":"free"},{"bike_id":"feedca58-f538-4a18-b841-74c7e0ed823a","system_id":"levelo_inurba_marseille","lat":43.290995,"lon":5.381361,"is_reserved":false,"is_disabled":false,"rental_uris":{"android":"levelo://app?vid=feedca58-f538-4a18-b841-74c7e0ed823a","ios":"levelo://app?vid=feedca58-f538-4a18-b841-74c7e0ed823a"},"vehicle_type_id":"4","last_reported":1702375680,"current_range_meters":30000,"station_id":"ce4bh512rcd13ifvqe2g","pricing_plan_id":"free"},{"bike_id":"e5ed7b31-0009-4b14-ad04-cae2744d038b","system_id":"levelo_inurba_marseille","lat":43.290995,"lon":5.381361,"is_reserved":false,"is_disabled":false,"rental_uris":{"android":"levelo://app?vid=e5ed7b31-0009-4b14-ad04-cae2744d038b","ios":"levelo://app?vid=e5ed7b31-0009-4b14-ad04-cae2744d038b"},"vehicle_type_id":"4","last_reported":1702375680,"current_range_meters":27200,"station_id":"ce4bh512rcd13ifvqe2g","pricing_plan_id":"free"},{"bike_id":"21bec2a6-098f-4481-9a9f-1736b7ea4cbe","system_id":"levelo_inurba_marseille","lat":43.297901,"lon":5.393405,"is_reserved":false,"is_disabled":false,"rental_uris":{"android":"levelo://app?vid=21bec2a6-098f-4481-9a9f-1736b7ea4cbe","ios":"levelo://app?vid=21bec2a6-098f-4481-9a9f-1736b7ea4cbe"},"vehicle_type_id":"4","last_reported":1702375680,"current_range_meters":28400,"station_id":"chh1huq6cuj3fo74tm60","pricing_plan_id":"free"},{"bike_id":"eb7f71a3-581a-485f-a47e-e5ef39f13ea0","system_id":"levelo_inurba_marseille","lat":43.297895,"lon":5.393407,"is_reserved":false,"is_disabled":false,"rental_uris":{"android":"levelo://app?vid=eb7f71a3-581a-485f-a47e-e5ef39f13ea0","ios":"levelo://app?vid=eb7f71a3-581a-485f-a47e-e5ef39f13ea0"},"vehicle_type_id":"4","last_reported":1702375680,"current_range_meters":28000,"station_id":"","pricing_plan_id":"free"},{"bike_id":"6303eecf-faed-4eaa-b06b-204c926aa042","system_id":"levelo_inurba_marseille","lat":43.289743,"lon":5.378304,"is_reserved":false,"is_disabled":false,"rental_uris":{"android":"levelo://app?vid=6303eecf-faed-4eaa-b06b-204c926aa042","ios":"levelo://app?vid=6303eecf-faed-4eaa-b06b-204c926aa042"},"vehicle_type_id":"4","last_reported":1702375680,"current_range_meters":24800,"station_id":"ce4bh9p2rcd13ifvqed0","pricing_plan_id":"free"},{"bike_id":"242676cb-659a-42e6-86ca-a81b96abe874","system_id":"levelo_inurba_marseille","lat":43.2901,"lon":5.381269,"is_reserved":false,"is_disabled":false,"rental_uris":{"android":"levelo://app?vid=242676cb-659a-42e6-86ca-a81b96abe874","ios":"levelo://app?vid=242676cb-659a-42e6-86ca-a81b96abe874"},"vehicle_type_id":"4","last_reported":1702375680,"current_range_meters":30800,"station_id":"ce4bh4p2rcd13ifvqe1g","pricing_plan_id":"free"},{"bike_id":"e1115d16-a177-4b09-99f4-d84a7f0a9df4","system_id":"levelo_inurba_marseille","lat":43.33744,"lon":5.37468,"is_reserved":false,"is_disabled":false,"rental_uris":{"android":"levelo://app?vid=e1115d16-a177-4b09-99f4-d84a7f0a9df4","ios":"levelo://app?vid=e1115d16-a177-4b09-99f4-d84a7f0a9df4"},"vehicle_type_id":"4","last_reported":1702375680,"current_range_meters":24000,"station_id":"","pricing_plan_id":"free"},{"bike_id":"233dd141-4fba-4f78-8adb-fa47769c9ff0","system_id":"levelo_inurba_marseille","lat":43.30931,"lon":5.40144,"is_reserved":false,"is_disabled":false,"rental_uris":{"android":"levelo://app?vid=233dd141-4fba-4f78-8adb-fa47769c9ff0","ios":"levelo://app?vid=233dd141-4fba-4f78-8adb-fa47769c9ff0"},"vehicle_type_id":"4","last_reported":1702375680,"current_range_meters":18800,"station_id":"ce4bgvp2rcd13ifvqct0","pricing_plan_id":"free"},{"bike_id":"1ffa6cab-2192-4490-9617-61044011c6b1","system_id":"levelo_inurba_marseille","lat":43.337454,"lon":5.374703,"is_reserved":false,"is_disabled":false,"rental_uris":{"android":"levelo://app?vid=1ffa6cab-2192-4490-9617-61044011c6b1","ios":"levelo://app?vid=1ffa6cab-2192-4490-9617-61044011c6b1"},"vehicle_type_id":"4","last_reported":1702375680,"current_range_meters":16400,"station_id":"","pricing_plan_id":"free"},{"bike_id":"67dcbfa0-43d1-4b19-8796-1b88e2ecd2c5","system_id":"levelo_inurba_marseille","lat":43.33752,"lon":5.37447,"is_reserved":false,"is_disabled":false,"rental_uris":{"android":"levelo://app?vid=67dcbfa0-43d1-4b19-8796-1b88e2ecd2c5","ios":"levelo://app?vid=67dcbfa0-43d1-4b19-8796-1b88e2ecd2c5"},"vehicle_type_id":"4","last_reported":1702375680,"current_range_meters":20400,"station_id":"","pricing_plan_id":"free"},{"bike_id":"1a9123ca-1ac0-4cbb-b622-534f88bcae20","system_id":"levelo_inurba_marseille","lat":43.337563,"lon":5.374598,"is_reserved":false,"is_disabled":false,"rental_uris":{"android":"levelo://app?vid=1a9123ca-1ac0-4cbb-b622-534f88bcae20","ios":"levelo://app?vid=1a9123ca-1ac0-4cbb-b622-534f88bcae20"},"vehicle_type_id":"4","last_reported":1702375680,"current_range_meters":29200,"station_id":"","pricing_plan_id":"free"},{"bike_id":"c2eec492-212e-481c-b633-b3e7970fc226","system_id":"levelo_inurba_marseille","lat":43.33763,"lon":5.37459,"is_reserved":false,"is_disabled":false,"rental_uris":{"android":"levelo://app?vid=c2eec492-212e-481c-b633-b3e7970fc226","ios":"levelo://app?vid=c2eec492-212e-481c-b633-b3e7970fc226"},"vehicle_type_id":"4","last_reported":1702375680,"current_range_meters":30800,"station_id":"","pricing_plan_id":"free"},{"bike_id":"4d4ac8dc-2c18-4ab9-b1c9-97421c0e5acb","system_id":"levelo_inurba_marseille","lat":43.306412,"lon":5.401035,"is_reserved":false,"is_disabled":false,"rental_uris":{"android":"levelo://app?vid=4d4ac8dc-2c18-4ab9-b1c9-97421c0e5acb","ios":"levelo://app?vid=4d4ac8dc-2c18-4ab9-b1c9-97421c0e5acb"},"vehicle_type_id":"4","last_reported":1702375680,"current_range_meters":31200,"station_id":"ce4bh112rcd13ifvqda0","pricing_plan_id":"free"},{"bike_id":"39f6eb0c-8e54-48d4-bd82-9326bbdf703b","system_id":"levelo_inurba_marseille","lat":43.338149,"lon":5.374117,"is_reserved":false,"is_disabled":false,"rental_uris":{"android":"levelo://app?vid=39f6eb0c-8e54-48d4-bd82-9326bbdf703b","ios":"levelo://app?vid=39f6eb0c-8e54-48d4-bd82-9326bbdf703b"},"vehicle_type_id":"4","last_reported":1702375680,"current_range_meters":2800,"station_id":"","pricing_plan_id":"free"},{"bike_id":"e0a8e5ea-4871-4004-bdea-f31b7c705731","system_id":"levelo_inurba_marseille","lat":43.298681,"lon":5.397225,"is_reserved":false,"is_disabled":false,"rental_uris":{"android":"levelo://app?vid=e0a8e5ea-4871-4004-bdea-f31b7c705731","ios":"levelo://app?vid=e0a8e5ea-4871-4004-bdea-f31b7c705731"},"vehicle_type_id":"4","last_reported":1702375680,"current_range_meters":31200,"station_id":"ce4bh0h2rcd13ifvqd50","pricing_plan_id":"free"},{"bike_id":"e8bfd25d-4e73-4a5c-8ae6-66b0b0c06b15","system_id":"levelo_inurba_marseille","lat":43.286961,"lon":5.373785,"is_reserved":false,"is_disabled":false,"rental_uris":{"android":"levelo://app?vid=e8bfd25d-4e73-4a5c-8ae6-66b0b0c06b15","ios":"levelo://app?vid=e8bfd25d-4e73-4a5c-8ae6-66b0b0c06b15"},"vehicle_type_id":"4","last_reported":1702375680,"current_range_meters":22800,"station_id":"ce4bh3p2rcd13ifvqdq0","pricing_plan_id":"free"},{"bike_id":"16fd1650-4dcc-4df1-b3cd-ce21439e25b6","system_id":"levelo_inurba_marseille","lat":43.286593,"lon":5.363346,"is_reserved":false,"is_disabled":false,"rental_uris":{"android":"levelo://app?vid=16fd1650-4dcc-4df1-b3cd-ce21439e25b6","ios":"levelo://app?vid=16fd1650-4dcc-4df1-b3cd-ce21439e25b6"},"vehicle_type_id":"4","last_reported":1702375680,"current_range_meters":31200,"station_id":"ce4bhah2rcd13ifvqej0","pricing_plan_id":"free"},{"bike_id":"78c209b6-6705-4a70-93f9-c1e483848c66","system_id":"levelo_inurba_marseille","lat":43.289307,"lon":5.38406,"is_reserved":false,"is_disabled":false,"rental_uris":{"android":"levelo://app?vid=78c209b6-6705-4a70-93f9-c1e483848c66","ios":"levelo://app?vid=78c209b6-6705-4a70-93f9-c1e483848c66"},"vehicle_type_id":"4","last_reported":1702375680,"current_range_meters":11200,"station_id":"ce4bh612rcd13ifvqe6g","pricing_plan_id":"free"},{"bike_id":"dd55c571-beb8-4144-9eee-a018fae0dfc2","system_id":"levelo_inurba_marseille","lat":43.286039,"lon":5.370681,"is_reserved":false,"is_disabled":false,"rental_uris":{"android":"levelo://app?vid=dd55c571-beb8-4144-9eee-a018fae0dfc2","ios":"levelo://app?vid=dd55c571-beb8-4144-9eee-a018fae0dfc2"},"vehicle_type_id":"4","last_reported":1702375680,"current_range_meters":24000,"station_id":"ce4bht12rcd13ifvqi60","pricing_plan_id":"free"},{"bike_id":"2b396e1d-2316-4de4-ace1-a67fc7c74730","system_id":"levelo_inurba_marseille","lat":43.284538,"lon":5.358657,"is_reserved":false,"is_disabled":false,"rental_uris":{"android":"levelo://app?vid=2b396e1d-2316-4de4-ace1-a67fc7c74730","ios":"levelo://app?vid=2b396e1d-2316-4de4-ace1-a67fc7c74730"},"vehicle_type_id":"4","last_reported":1702375680,"current_range_meters":3200,"station_id":"ce4bhah2rcd13ifvqei0","pricing_plan_id":"free"},{"bike_id":"2a6e9e2b-f980-44f5-8691-d474359aff81","system_id":"levelo_inurba_marseille","lat":43.284538,"lon":5.358657,"is_reserved":false,"is_disabled":false,"rental_uris":{"android":"levelo://app?vid=2a6e9e2b-f980-44f5-8691-d474359aff81","ios":"levelo://app?vid=2a6e9e2b-f980-44f5-8691-d474359aff81"},"vehicle_type_id":"4","last_reported":1702375680,"current_range_meters":18800,"station_id":"ce4bhah2rcd13ifvqei0","pricing_plan_id":"free"},{"bike_id":"a53f5d02-c724-41b5-bc50-53d39b8c48d9","system_id":"levelo_inurba_marseille","lat":43.323464,"lon":5.406297,"is_reserved":false,"is_disabled":false,"rental_uris":{"android":"levelo://app?vid=a53f5d02-c724-41b5-bc50-53d39b8c48d9","ios":"levelo://app?vid=a53f5d02-c724-41b5-bc50-53d39b8c48d9"},"vehicle_type_id":"4","last_reported":1702375680,"current_range_meters":30800,"station_id":"ce4bhq92rcd13ifvqhjg","pricing_plan_id":"free"},{"bike_id":"3c92ac05-be8b-41eb-9cea-59f74db66b7a","system_id":"levelo_inurba_marseille","lat":43.284217,"lon":5.349697,"is_reserved":false,"is_disabled":false,"rental_uris":{"android":"levelo://app?vid=3c92ac05-be8b-41eb-9cea-59f74db66b7a","ios":"levelo://app?vid=3c92ac05-be8b-41eb-9cea-59f74db66b7a"},"vehicle_type_id":"4","last_reported":1702375680,"current_range_meters":14400,"station_id":"ce4bhbh2rcd13ifvqepg","pricing_plan_id":"free"},{"bike_id":"4ee53fc3-95fe-4ec3-ae50-b9a8cd12442e","system_id":"levelo_inurba_marseille","lat":43.28039,"lon":5.369297,"is_reserved":false,"is_disabled":false,"rental_uris":{"android":"levelo://app?vid=4ee53fc3-95fe-4ec3-ae50-b9a8cd12442e","ios":"levelo://app?vid=4ee53fc3-95fe-4ec3-ae50-b9a8cd12442e"},"vehicle_type_id":"4","last_reported":1702375680,"current_range_meters":26800,"station_id":"ce4bha12rcd13ifvqef0","pricing_plan_id":"free"},{"bike_id":"bbe5f30a-4738-4826-bd7a-95ec16c0ccd2","system_id":"levelo_inurba_marseille","lat":43.280382,"lon":5.369291,"is_reserved":false,"is_disabled":false,"rental_uris":{"android":"levelo://app?vid=bbe5f30a-4738-4826-bd7a-95ec16c0ccd2","ios":"levelo://app?vid=bbe5f30a-4738-4826-bd7a-95ec16c0ccd2"},"vehicle_type_id":"4","last_reported":1702375680,"current_range_meters":29600,"station_id":"ce4bha12rcd13ifvqef0","pricing_plan_id":"free"},{"bike_id":"696bf1ec-ecac-48e5-aca0-6e8a0eb3f4b8","system_id":"levelo_inurba_marseille","lat":43.280312,"lon":5.369402,"is_reserved":false,"is_disabled":false,"rental_uris":{"android":"levelo://app?vid=696bf1ec-ecac-48e5-aca0-6e8a0eb3f4b8","ios":"levelo://app?vid=696bf1ec-ecac-48e5-aca0-6e8a0eb3f4b8"},"vehicle_type_id":"4","last_reported":1702375680,"current_range_meters":26400,"station_id":"ce4bha12rcd13ifvqef0","pricing_plan_id":"free"},{"bike_id":"bf73ba68-795e-43a6-bf54-2ebe5c1bb037","system_id":"levelo_inurba_marseille","lat":43.284462,"lon":5.392121,"is_reserved":false,"is_disabled":false,"rental_uris":{"android":"levelo://app?vid=bf73ba68-795e-43a6-bf54-2ebe5c1bb037","ios":"levelo://app?vid=bf73ba68-795e-43a6-bf54-2ebe5c1bb037"},"vehicle_type_id":"4","last_reported":1702375680,"current_range_meters":20000,"station_id":"ce4bhoh2rcd13ifvqh5g","pricing_plan_id":"free"},{"bike_id":"8803c34a-4000-4d24-8348-d967f1cc3a4e","system_id":"levelo_inurba_marseille","lat":43.284462,"lon":5.392121,"is_reserved":false,"is_disabled":false,"rental_uris":{"android":"levelo://app?vid=8803c34a-4000-4d24-8348-d967f1cc3a4e","ios":"levelo://app?vid=8803c34a-4000-4d24-8348-d967f1cc3a4e"},"vehicle_type_id":"4","last_reported":1702375680,"current_range_meters":24800,"station_id":"ce4bhoh2rcd13ifvqh5g","pricing_plan_id":"free"},{"bike_id":"252be24b-7c7b-419c-af3c-1b04e8806b16","system_id":"levelo_inurba_marseille","lat":43.304188,"lon":5.412904,"is_reserved":false,"is_disabled":false,"rental_uris":{"android":"levelo://app?vid=252be24b-7c7b-419c-af3c-1b04e8806b16","ios":"levelo://app?vid=252be24b-7c7b-419c-af3c-1b04e8806b16"},"vehicle_type_id":"4","last_reported":1702375680,"current_range_meters":28400,"station_id":"ce4bhop2rcd13ifvqh8g","pricing_plan_id":"free"},{"bike_id":"1783bed7-a6b8-441b-a8d3-b1c20b9fcd15","system_id":"levelo_inurba_marseille","lat":43.287154,"lon":5.399979,"is_reserved":false,"is_disabled":false,"rental_uris":{"android":"levelo://app?vid=1783bed7-a6b8-441b-a8d3-b1c20b9fcd15","ios":"levelo://app?vid=1783bed7-a6b8-441b-a8d3-b1c20b9fcd15"},"vehicle_type_id":"4","last_reported":1702375680,"current_range_meters":30000,"station_id":"ce4bho92rcd13ifvqh3g","pricing_plan_id":"free"},{"bike_id":"bcd4ab0d-4d9d-473f-92dc-6733d0b4c49e","system_id":"levelo_inurba_marseille","lat":43.320045,"lon":5.415046,"is_reserved":false,"is_disabled":false,"rental_uris":{"android":"levelo://app?vid=bcd4ab0d-4d9d-473f-92dc-6733d0b4c49e","ios":"levelo://app?vid=bcd4ab0d-4d9d-473f-92dc-6733d0b4c49e"},"vehicle_type_id":"4","last_reported":1702375680,"current_range_meters":26800,"station_id":"ce4bhq92rcd13ifvqhkg","pricing_plan_id":"free"},{"bike_id":"595966b5-7f30-47b9-ad4b-2dbd4b2ed490","system_id":"levelo_inurba_marseille","lat":43.279742,"lon":5.38744,"is_reserved":false,"is_disabled":false,"rental_uris":{"android":"levelo://app?vid=595966b5-7f30-47b9-ad4b-2dbd4b2ed490","ios":"levelo://app?vid=595966b5-7f30-47b9-ad4b-2dbd4b2ed490"},"vehicle_type_id":"4","last_reported":1702375680,"current_range_meters":16800,"station_id":"ce4bhg12rcd13ifvqf80","pricing_plan_id":"free"},{"bike_id":"37ee48a7-36d1-4b6a-b01d-79c94e9a988c","system_id":"levelo_inurba_marseille","lat":43.325233,"lon":5.414318,"is_reserved":false,"is_disabled":false,"rental_uris":{"android":"levelo://app?vid=37ee48a7-36d1-4b6a-b01d-79c94e9a988c","ios":"levelo://app?vid=37ee48a7-36d1-4b6a-b01d-79c94e9a988c"},"vehicle_type_id":"4","last_reported":1702375680,"current_range_meters":28400,"station_id":"ce4bhq12rcd13ifvqhhg","pricing_plan_id":"free"},{"bike_id":"9c5de2c0-7ece-43a5-b6d4-d4765296e485","system_id":"levelo_inurba_marseille","lat":43.27618,"lon":5.361009,"is_reserved":false,"is_disabled":false,"rental_uris":{"android":"levelo://app?vid=9c5de2c0-7ece-43a5-b6d4-d4765296e485","ios":"levelo://app?vid=9c5de2c0-7ece-43a5-b6d4-d4765296e485"},"vehicle_type_id":"4","last_reported":1702375680,"current_range_meters":4000,"station_id":"ce4bgj92rcd13ifvqbe0","pricing_plan_id":"free"},{"bike_id":"0affd34a-26a3-4b23-9979-f74eada3d752","system_id":"levelo_inurba_marseille","lat":43.276213,"lon":5.361091,"is_reserved":false,"is_disabled":false,"rental_uris":{"android":"levelo://app?vid=0affd34a-26a3-4b23-9979-f74eada3d752","ios":"levelo://app?vid=0affd34a-26a3-4b23-9979-f74eada3d752"},"vehicle_type_id":"4","last_reported":1702375680,"current_range_meters":13200,"station_id":"ce4bgj92rcd13ifvqbe0","pricing_plan_id":"free"},{"bike_id":"7cddd4cc-2c7d-4381-9bfa-f684cdc32fa0","system_id":"levelo_inurba_marseille","lat":43.28009,"lon":5.39022,"is_reserved":false,"is_disabled":false,"rental_uris":{"android":"levelo://app?vid=7cddd4cc-2c7d-4381-9bfa-f684cdc32fa0","ios":"levelo://app?vid=7cddd4cc-2c7d-4381-9bfa-f684cdc32fa0"},"vehicle_type_id":"4","last_reported":1702375680,"current_range_meters":15600,"station_id":"","pricing_plan_id":"free"},{"bike_id":"65587601-77ac-4e01-a980-47f6cbfdd6ae","system_id":"levelo_inurba_marseille","lat":43.325233,"lon":5.414318,"is_reserved":false,"is_disabled":false,"rental_uris":{"android":"levelo://app?vid=65587601-77ac-4e01-a980-47f6cbfdd6ae","ios":"levelo://app?vid=65587601-77ac-4e01-a980-47f6cbfdd6ae"},"vehicle_type_id":"4","last_reported":1702375680,"current_range_meters":25200,"station_id":"ce4bhq12rcd13ifvqhhg","pricing_plan_id":"free"},{"bike_id":"65e1ae28-1c77-4a28-8715-8c3739062dc3","system_id":"levelo_inurba_marseille","lat":43.325233,"lon":5.414318,"is_reserved":false,"is_disabled":false,"rental_uris":{"android":"levelo://app?vid=65e1ae28-1c77-4a28-8715-8c3739062dc3","ios":"levelo://app?vid=65e1ae28-1c77-4a28-8715-8c3739062dc3"},"vehicle_type_id":"4","last_reported":1702375680,"current_range_meters":7200,"station_id":"ce4bhq12rcd13ifvqhhg","pricing_plan_id":"free"},{"bike_id":"f1b5931d-d3b9-4483-b874-4227e70f363c","system_id":"levelo_inurba_marseille","lat":43.276179,"lon":5.361009,"is_reserved":false,"is_disabled":false,"rental_uris":{"android":"levelo://app?vid=f1b5931d-d3b9-4483-b874-4227e70f363c","ios":"levelo://app?vid=f1b5931d-d3b9-4483-b874-4227e70f363c"},"vehicle_type_id":"4","last_reported":1702375680,"current_range_meters":30400,"station_id":"ce4bgj92rcd13ifvqbe0","pricing_plan_id":"free"},{"bike_id":"d5ea5ccc-606f-4e22-9e31-95152b58dc5c","system_id":"levelo_inurba_marseille","lat":43.325243,"lon":5.414326,"is_reserved":false,"is_disabled":false,"rental_uris":{"android":"levelo://app?vid=d5ea5ccc-606f-4e22-9e31-95152b58dc5c","ios":"levelo://app?vid=d5ea5ccc-606f-4e22-9e31-95152b58dc5c"},"vehicle_type_id":"4","last_reported":1702375680,"current_range_meters":26000,"station_id":"ce4bhq12rcd13ifvqhhg","pricing_plan_id":"free"},{"bike_id":"a99acea3-1215-42f2-86fb-746ced356554","system_id":"levelo_inurba_marseille","lat":43.280784,"lon":5.396622,"is_reserved":false,"is_disabled":false,"rental_uris":{"android":"levelo://app?vid=a99acea3-1215-42f2-86fb-746ced356554","ios":"levelo://app?vid=a99acea3-1215-42f2-86fb-746ced356554"},"vehicle_type_id":"4","last_reported":1702375680,"current_range_meters":10400,"station_id":"ce4bho12rcd13ifvqh2g","pricing_plan_id":"free"},{"bike_id":"924276fb-5dda-4895-b01f-2e4aee480573","system_id":"levelo_inurba_marseille","lat":43.275625,"lon":5.384392,"is_reserved":false,"is_disabled":false,"rental_uris":{"android":"levelo://app?vid=924276fb-5dda-4895-b01f-2e4aee480573","ios":"levelo://app?vid=924276fb-5dda-4895-b01f-2e4aee480573"},"vehicle_type_id":"4","last_reported":1702375680,"current_range_meters":26800,"station_id":"ce4bhh92rcd13ifvqfi0","pricing_plan_id":"free"},{"bike_id":"83f5b1f4-35d8-49ad-9800-33e00e9d5e3c","system_id":"levelo_inurba_marseille","lat":43.276769,"lon":5.388787,"is_reserved":false,"is_disabled":false,"rental_uris":{"android":"levelo://app?vid=83f5b1f4-35d8-49ad-9800-33e00e9d5e3c","ios":"levelo://app?vid=83f5b1f4-35d8-49ad-9800-33e00e9d5e3c"},"vehicle_type_id":"4","last_reported":1702375680,"current_range_meters":22000,"station_id":"ce4bhi12rcd13ifvqfo0","pricing_plan_id":"free"},{"bike_id":"b42e8174-3c11-407d-b8e0-c6ae42b201e1","system_id":"levelo_inurba_marseille","lat":43.33604,"lon":5.41031,"is_reserved":false,"is_disabled":false,"rental_uris":{"android":"levelo://app?vid=b42e8174-3c11-407d-b8e0-c6ae42b201e1","ios":"levelo://app?vid=b42e8174-3c11-407d-b8e0-c6ae42b201e1"},"vehicle_type_id":"4","last_reported":1702375680,"current_range_meters":13600,"station_id":"ce4bhqh2rcd13ifvqhmg","pricing_plan_id":"free"},{"bike_id":"5b672c33-fef6-4b47-be71-6dce3ae2040f","system_id":"levelo_inurba_marseille","lat":43.33612,"lon":5.410321,"is_reserved":false,"is_disabled":false,"rental_uris":{"android":"levelo://app?vid=5b672c33-fef6-4b47-be71-6dce3ae2040f","ios":"levelo://app?vid=5b672c33-fef6-4b47-be71-6dce3ae2040f"},"vehicle_type_id":"4","last_reported":1702375680,"current_range_meters":31200,"station_id":"ce4bhqh2rcd13ifvqhmg","pricing_plan_id":"free"},{"bike_id":"35c6271e-84c9-493d-bf57-0f3c2760e8b5","system_id":"levelo_inurba_marseille","lat":43.336148,"lon":5.410349,"is_reserved":false,"is_disabled":false,"rental_uris":{"android":"levelo://app?vid=35c6271e-84c9-493d-bf57-0f3c2760e8b5","ios":"levelo://app?vid=35c6271e-84c9-493d-bf57-0f3c2760e8b5"},"vehicle_type_id":"4","last_reported":1702375680,"current_range_meters":31200,"station_id":"ce4bhqh2rcd13ifvqhmg","pricing_plan_id":"free"},{"bike_id":"e7dccaae-489a-4001-b257-4f44d4c69174","system_id":"levelo_inurba_marseille","lat":43.276771,"lon":5.388799,"is_reserved":false,"is_disabled":false,"rental_uris":{"android":"levelo://app?vid=e7dccaae-489a-4001-b257-4f44d4c69174","ios":"levelo://app?vid=e7dccaae-489a-4001-b257-4f44d4c69174"},"vehicle_type_id":"4","last_reported":1702375680,"current_range_meters":15600,"station_id":"ce4bhi12rcd13ifvqfo0","pricing_plan_id":"free"},{"bike_id":"011c9485-03c1-4d5c-834e-1a6c809d6e5b","system_id":"levelo_inurba_marseille","lat":43.276771,"lon":5.388799,"is_reserved":false,"is_disabled":false,"rental_uris":{"android":"levelo://app?vid=011c9485-03c1-4d5c-834e-1a6c809d6e5b","ios":"levelo://app?vid=011c9485-03c1-4d5c-834e-1a6c809d6e5b"},"vehicle_type_id":"4","last_reported":1702375680,"current_range_meters":28000,"station_id":"ce4bhi12rcd13ifvqfo0","pricing_plan_id":"free"},{"bike_id":"b1dafd3a-a440-496f-9523-b1636836b00a","system_id":"levelo_inurba_marseille","lat":43.279975,"lon":5.40009,"is_reserved":false,"is_disabled":false,"rental_uris":{"android":"levelo://app?vid=b1dafd3a-a440-496f-9523-b1636836b00a","ios":"levelo://app?vid=b1dafd3a-a440-496f-9523-b1636836b00a"},"vehicle_type_id":"4","last_reported":1702375680,"current_range_meters":11600,"station_id":"ce4bho92rcd13ifvqh4g","pricing_plan_id":"free"},{"bike_id":"89ce1cae-69a2-46ae-8218-2d6160c73e2d","system_id":"levelo_inurba_marseille","lat":43.279975,"lon":5.40009,"is_reserved":false,"is_disabled":false,"rental_uris":{"android":"levelo://app?vid=89ce1cae-69a2-46ae-8218-2d6160c73e2d","ios":"levelo://app?vid=89ce1cae-69a2-46ae-8218-2d6160c73e2d"},"vehicle_type_id":"4","last_reported":1702375680,"current_range_meters":6800,"station_id":"ce4bho92rcd13ifvqh4g","pricing_plan_id":"free"},{"bike_id":"937f039a-0071-44e3-890f-4bb89446bded","system_id":"levelo_inurba_marseille","lat":43.290327,"lon":5.375711,"is_reserved":false,"is_disabled":false,"rental_uris":{"android":"levelo://app?vid=937f039a-0071-44e3-890f-4bb89446bded","ios":"levelo://app?vid=937f039a-0071-44e3-890f-4bb89446bded"},"vehicle_type_id":"4","last_reported":1702375680,"current_range_meters":23600,"station_id":"ce4bh692rcd13ifvqe90","pricing_plan_id":"free"},{"bike_id":"b1c028eb-0fe1-4afa-b35c-b9783a0e9537","system_id":"levelo_inurba_marseille","lat":43.31723,"lon":5.42405,"is_reserved":false,"is_disabled":false,"rental_uris":{"android":"levelo://app?vid=b1c028eb-0fe1-4afa-b35c-b9783a0e9537","ios":"levelo://app?vid=b1c028eb-0fe1-4afa-b35c-b9783a0e9537"},"vehicle_type_id":"4","last_reported":1702375680,"current_range_meters":6000,"station_id":"ce4bhp92rcd13ifvqhbg","pricing_plan_id":"free"},{"bike_id":"ddf99bab-18c8-4378-a9b2-21510ef2d4df","system_id":"levelo_inurba_marseille","lat":43.273129,"lon":5.390725,"is_reserved":false,"is_disabled":false,"rental_uris":{"android":"levelo://app?vid=ddf99bab-18c8-4378-a9b2-21510ef2d4df","ios":"levelo://app?vid=ddf99bab-18c8-4378-a9b2-21510ef2d4df"},"vehicle_type_id":"4","last_reported":1702375680,"current_range_meters":30400,"station_id":"ce4bhgp2rcd13ifvqfe0","pricing_plan_id":"free"},{"bike_id":"2b2feec3-f347-45aa-bf35-d34213a37064","system_id":"levelo_inurba_marseille","lat":43.274099,"lon":5.394019,"is_reserved":false,"is_disabled":false,"rental_uris":{"android":"levelo://app?vid=2b2feec3-f347-45aa-bf35-d34213a37064","ios":"levelo://app?vid=2b2feec3-f347-45aa-bf35-d34213a37064"},"vehicle_type_id":"4","last_reported":1702375680,"current_range_meters":24400,"station_id":"ce4bhdp2rcd13ifvqf20","pricing_plan_id":"free"},{"bike_id":"0aad31e3-dc11-4b68-9ebe-aefefa2d7c6d","system_id":"levelo_inurba_marseille","lat":43.30415,"lon":5.42542,"is_reserved":false,"is_disabled":false,"rental_uris":{"android":"levelo://app?vid=0aad31e3-dc11-4b68-9ebe-aefefa2d7c6d","ios":"levelo://app?vid=0aad31e3-dc11-4b68-9ebe-aefefa2d7c6d"},"vehicle_type_id":"4","last_reported":1702375680,"current_range_meters":27600,"station_id":"ce4bhoh2rcd13ifvqh6g","pricing_plan_id":"free"},{"bike_id":"18f06cf1-d5a7-4a16-b243-ff63553116c6","system_id":"levelo_inurba_marseille","lat":43.295523,"lon":5.422926,"is_reserved":false,"is_disabled":false,"rental_uris":{"android":"levelo://app?vid=18f06cf1-d5a7-4a16-b243-ff63553116c6","ios":"levelo://app?vid=18f06cf1-d5a7-4a16-b243-ff63553116c6"},"vehicle_type_id":"4","last_reported":1702375680,"current_range_meters":13600,"station_id":"ce4bhph2rcd13ifvqhdg","pricing_plan_id":"free"},{"bike_id":"dab6bfc2-c9fd-4daa-a622-37368ecfa3b2","system_id":"levelo_inurba_marseille","lat":43.295511,"lon":5.422926,"is_reserved":false,"is_disabled":false,"rental_uris":{"android":"levelo://app?vid=dab6bfc2-c9fd-4daa-a622-37368ecfa3b2","ios":"levelo://app?vid=dab6bfc2-c9fd-4daa-a622-37368ecfa3b2"},"vehicle_type_id":"4","last_reported":1702375680,"current_range_meters":31200,"station_id":"ce4bhph2rcd13ifvqhdg","pricing_plan_id":"free"},{"bike_id":"840946d8-d9c9-440b-a8ee-14162bbd15ab","system_id":"levelo_inurba_marseille","lat":43.295511,"lon":5.422926,"is_reserved":false,"is_disabled":false,"rental_uris":{"android":"levelo://app?vid=840946d8-d9c9-440b-a8ee-14162bbd15ab","ios":"levelo://app?vid=840946d8-d9c9-440b-a8ee-14162bbd15ab"},"vehicle_type_id":"4","last_reported":1702375680,"current_range_meters":13200,"station_id":"ce4bhph2rcd13ifvqhdg","pricing_plan_id":"free"},{"bike_id":"bf01dd2b-7083-4cac-aef7-7f6bb3ec0f49","system_id":"levelo_inurba_marseille","lat":43.279465,"lon":5.410561,"is_reserved":false,"is_disabled":false,"rental_uris":{"android":"levelo://app?vid=bf01dd2b-7083-4cac-aef7-7f6bb3ec0f49","ios":"levelo://app?vid=bf01dd2b-7083-4cac-aef7-7f6bb3ec0f49"},"vehicle_type_id":"4","last_reported":1702375680,"current_range_meters":11200,"station_id":"ce4bhnp2rcd13ifvqh0g","pricing_plan_id":"free"},{"bike_id":"17510e92-5f85-45d0-b3ef-f5e8582bea05","system_id":"levelo_inurba_marseille","lat":43.26681,"lon":5.382694,"is_reserved":false,"is_disabled":false,"rental_uris":{"android":"levelo://app?vid=17510e92-5f85-45d0-b3ef-f5e8582bea05","ios":"levelo://app?vid=17510e92-5f85-45d0-b3ef-f5e8582bea05"},"vehicle_type_id":"4","last_reported":1702375680,"current_range_meters":0,"station_id":"ce4bhg92rcd13ifvqf90","pricing_plan_id":"free"},{"bike_id":"36e9f467-7d7b-423a-8423-d5739cf2a8f1","system_id":"levelo_inurba_marseille","lat":43.26681,"lon":5.382694,"is_reserved":false,"is_disabled":false,"rental_uris":{"android":"levelo://app?vid=36e9f467-7d7b-423a-8423-d5739cf2a8f1","ios":"levelo://app?vid=36e9f467-7d7b-423a-8423-d5739cf2a8f1"},"vehicle_type_id":"4","last_reported":1702375680,"current_range_meters":14400,"station_id":"ce4bhg92rcd13ifvqf90","pricing_plan_id":"free"},{"bike_id":"7aff87a6-0602-470f-b435-fe3bba8d34b7","system_id":"levelo_inurba_marseille","lat":43.281548,"lon":5.42643,"is_reserved":false,"is_disabled":false,"rental_uris":{"android":"levelo://app?vid=7aff87a6-0602-470f-b435-fe3bba8d34b7","ios":"levelo://app?vid=7aff87a6-0602-470f-b435-fe3bba8d34b7"},"vehicle_type_id":"4","last_reported":1702375680,"current_range_meters":9600,"station_id":"ce4bhnh2rcd13ifvqgug","pricing_plan_id":"free"},{"bike_id":"c7c8fe7a-0ff8-4906-bee9-be584f8b5f98","system_id":"levelo_inurba_marseille","lat":43.267966,"lon":5.393976,"is_reserved":false,"is_disabled":false,"rental_uris":{"android":"levelo://app?vid=c7c8fe7a-0ff8-4906-bee9-be584f8b5f98","ios":"levelo://app?vid=c7c8fe7a-0ff8-4906-bee9-be584f8b5f98"},"vehicle_type_id":"4","last_reported":1702375680,"current_range_meters":23200,"station_id":"ce4bhh12rcd13ifvqfg0","pricing_plan_id":"free"},{"bike_id":"14bc19f9-c5ac-4814-b202-5604c65f25d1","system_id":"levelo_inurba_marseille","lat":43.30801,"lon":5.43528,"is_reserved":false,"is_disabled":false,"rental_uris":{"android":"levelo://app?vid=14bc19f9-c5ac-4814-b202-5604c65f25d1","ios":"levelo://app?vid=14bc19f9-c5ac-4814-b202-5604c65f25d1"},"vehicle_type_id":"4","last_reported":1702375680,"current_range_meters":18000,"station_id":"ce4bhph2rcd13ifvqheg","pricing_plan_id":"free"},{"bike_id":"c976452c-83bc-4afb-b7d1-c0470614e582","system_id":"levelo_inurba_marseille","lat":43.26944,"lon":5.40244,"is_reserved":false,"is_disabled":false,"rental_uris":{"android":"levelo://app?vid=c976452c-83bc-4afb-b7d1-c0470614e582","ios":"levelo://app?vid=c976452c-83bc-4afb-b7d1-c0470614e582"},"vehicle_type_id":"4","last_reported":1702375680,"current_range_meters":20400,"station_id":"cjm6bp8fraef2m0cb0m0","pricing_plan_id":"free"},{"bike_id":"fe42eb92-961e-4783-9bf0-1606921157ac","system_id":"levelo_inurba_marseille","lat":43.261782,"lon":5.374515,"is_reserved":false,"is_disabled":false,"rental_uris":{"android":"levelo://app?vid=fe42eb92-961e-4783-9bf0-1606921157ac","ios":"levelo://app?vid=fe42eb92-961e-4783-9bf0-1606921157ac"},"vehicle_type_id":"4","last_reported":1702375680,"current_range_meters":19200,"station_id":"ce4bhgp2rcd13ifvqfc0","pricing_plan_id":"free"},{"bike_id":"c37f4bb1-b5d3-432c-b1a9-9f57c890460c","system_id":"levelo_inurba_marseille","lat":43.271368,"lon":5.40928,"is_reserved":false,"is_disabled":false,"rental_uris":{"android":"levelo://app?vid=c37f4bb1-b5d3-432c-b1a9-9f57c890460c","ios":"levelo://app?vid=c37f4bb1-b5d3-432c-b1a9-9f57c890460c"},"vehicle_type_id":"4","last_reported":1702375680,"current_range_meters":30800,"station_id":"ce4bhl12rcd13ifvqgf0","pricing_plan_id":"free"},{"bike_id":"3038d8f5-701c-4930-9cf0-0cbd10643466","system_id":"levelo_inurba_marseille","lat":43.271368,"lon":5.40928,"is_reserved":false,"is_disabled":false,"rental_uris":{"android":"levelo://app?vid=3038d8f5-701c-4930-9cf0-0cbd10643466","ios":"levelo://app?vid=3038d8f5-701c-4930-9cf0-0cbd10643466"},"vehicle_type_id":"4","last_reported":1702375680,"current_range_meters":20000,"station_id":"ce4bhl12rcd13ifvqgf0","pricing_plan_id":"free"},{"bike_id":"ed2a037b-9a83-4b16-b573-d588d78bf987","system_id":"levelo_inurba_marseille","lat":43.267959,"lon":5.402687,"is_reserved":false,"is_disabled":false,"rental_uris":{"android":"levelo://app?vid=ed2a037b-9a83-4b16-b573-d588d78bf987","ios":"levelo://app?vid=ed2a037b-9a83-4b16-b573-d588d78bf987"},"vehicle_type_id":"4","last_reported":1702375680,"current_range_meters":14000,"station_id":"ce501612rcd8frsf0b60","pricing_plan_id":"free"},{"bike_id":"71947f51-3f0a-4007-9b7a-bff5cbf63a6e","system_id":"levelo_inurba_marseille","lat":43.267959,"lon":5.402685,"is_reserved":false,"is_disabled":false,"rental_uris":{"android":"levelo://app?vid=71947f51-3f0a-4007-9b7a-bff5cbf63a6e","ios":"levelo://app?vid=71947f51-3f0a-4007-9b7a-bff5cbf63a6e"},"vehicle_type_id":"4","last_reported":1702375680,"current_range_meters":21200,"station_id":"ce501612rcd8frsf0b60","pricing_plan_id":"free"},{"bike_id":"b93170e5-0d66-4771-86b8-7b2b65ab1044","system_id":"levelo_inurba_marseille","lat":43.281548,"lon":5.42643,"is_reserved":false,"is_disabled":false,"rental_uris":{"android":"levelo://app?vid=b93170e5-0d66-4771-86b8-7b2b65ab1044","ios":"levelo://app?vid=b93170e5-0d66-4771-86b8-7b2b65ab1044"},"vehicle_type_id":"4","last_reported":1702375680,"current_range_meters":28000,"station_id":"ce4bhnh2rcd13ifvqgug","pricing_plan_id":"free"},{"bike_id":"172f63a6-01d8-467f-837a-81a2c940f70c","system_id":"levelo_inurba_marseille","lat":43.275028,"lon":5.424534,"is_reserved":false,"is_disabled":false,"rental_uris":{"android":"levelo://app?vid=172f63a6-01d8-467f-837a-81a2c940f70c","ios":"levelo://app?vid=172f63a6-01d8-467f-837a-81a2c940f70c"},"vehicle_type_id":"4","last_reported":1702375680,"current_range_meters":26000,"station_id":"ce4bhn92rcd13ifvqgrg","pricing_plan_id":"free"},{"bike_id":"a8dd2e3f-74b3-4cc1-b7b6-14f44ef40c5f","system_id":"levelo_inurba_marseille","lat":43.2607,"lon":5.393983,"is_reserved":false,"is_disabled":false,"rental_uris":{"android":"levelo://app?vid=a8dd2e3f-74b3-4cc1-b7b6-14f44ef40c5f","ios":"levelo://app?vid=a8dd2e3f-74b3-4cc1-b7b6-14f44ef40c5f"},"vehicle_type_id":"4","last_reported":1702375680,"current_range_meters":27600,"station_id":"ce4bhh92rcd13ifvqfj0","pricing_plan_id":"free"},{"bike_id":"dec147f5-ddbc-4bf4-ab31-623f88d81b57","system_id":"levelo_inurba_marseille","lat":43.275028,"lon":5.424534,"is_reserved":false,"is_disabled":false,"rental_uris":{"android":"levelo://app?vid=dec147f5-ddbc-4bf4-ab31-623f88d81b57","ios":"levelo://app?vid=dec147f5-ddbc-4bf4-ab31-623f88d81b57"},"vehicle_type_id":"4","last_reported":1702375680,"current_range_meters":21600,"station_id":"ce4bhn92rcd13ifvqgrg","pricing_plan_id":"free"},{"bike_id":"85d55389-78ad-4b5c-a35e-24834617397b","system_id":"levelo_inurba_marseille","lat":43.275028,"lon":5.424534,"is_reserved":false,"is_disabled":false,"rental_uris":{"android":"levelo://app?vid=85d55389-78ad-4b5c-a35e-24834617397b","ios":"levelo://app?vid=85d55389-78ad-4b5c-a35e-24834617397b"},"vehicle_type_id":"4","last_reported":1702375680,"current_range_meters":31200,"station_id":"ce4bhn92rcd13ifvqgrg","pricing_plan_id":"free"},{"bike_id":"bde24fe8-8aa9-4e3d-828f-87958916caef","system_id":"levelo_inurba_marseille","lat":43.275028,"lon":5.424534,"is_reserved":false,"is_disabled":false,"rental_uris":{"android":"levelo://app?vid=bde24fe8-8aa9-4e3d-828f-87958916caef","ios":"levelo://app?vid=bde24fe8-8aa9-4e3d-828f-87958916caef"},"vehicle_type_id":"4","last_reported":1702375680,"current_range_meters":25600,"station_id":"ce4bhn92rcd13ifvqgrg","pricing_plan_id":"free"},{"bike_id":"c51d16be-6729-4d09-978b-9b4e7f7a9fbe","system_id":"levelo_inurba_marseille","lat":43.275028,"lon":5.424534,"is_reserved":false,"is_disabled":false,"rental_uris":{"android":"levelo://app?vid=c51d16be-6729-4d09-978b-9b4e7f7a9fbe","ios":"levelo://app?vid=c51d16be-6729-4d09-978b-9b4e7f7a9fbe"},"vehicle_type_id":"4","last_reported":1702375680,"current_range_meters":31200,"station_id":"ce4bhn92rcd13ifvqgrg","pricing_plan_id":"free"},{"bike_id":"0e5509cc-88fe-4461-8aeb-72ce783dbe39","system_id":"levelo_inurba_marseille","lat":43.275028,"lon":5.424534,"is_reserved":false,"is_disabled":false,"rental_uris":{"android":"levelo://app?vid=0e5509cc-88fe-4461-8aeb-72ce783dbe39","ios":"levelo://app?vid=0e5509cc-88fe-4461-8aeb-72ce783dbe39"},"vehicle_type_id":"4","last_reported":1702375680,"current_range_meters":31200,"station_id":"ce4bhn92rcd13ifvqgrg","pricing_plan_id":"free"},{"bike_id":"db27c65a-0704-437a-9123-16bc6886bfa1","system_id":"levelo_inurba_marseille","lat":43.2609,"lon":5.39761,"is_reserved":false,"is_disabled":false,"rental_uris":{"android":"levelo://app?vid=db27c65a-0704-437a-9123-16bc6886bfa1","ios":"levelo://app?vid=db27c65a-0704-437a-9123-16bc6886bfa1"},"vehicle_type_id":"4","last_reported":1702375680,"current_range_meters":12400,"station_id":"","pricing_plan_id":"free"},{"bike_id":"577a97cb-4f59-4cd1-a29d-1d657ac4c0ea","system_id":"levelo_inurba_marseille","lat":43.275028,"lon":5.424534,"is_reserved":false,"is_disabled":false,"rental_uris":{"android":"levelo://app?vid=577a97cb-4f59-4cd1-a29d-1d657ac4c0ea","ios":"levelo://app?vid=577a97cb-4f59-4cd1-a29d-1d657ac4c0ea"},"vehicle_type_id":"4","last_reported":1702375680,"current_range_meters":31200,"station_id":"ce4bhn92rcd13ifvqgrg","pricing_plan_id":"free"},{"bike_id":"2904fadb-7bd9-4958-ab41-36e416d618b9","system_id":"levelo_inurba_marseille","lat":43.275028,"lon":5.424534,"is_reserved":false,"is_disabled":false,"rental_uris":{"android":"levelo://app?vid=2904fadb-7bd9-4958-ab41-36e416d618b9","ios":"levelo://app?vid=2904fadb-7bd9-4958-ab41-36e416d618b9"},"vehicle_type_id":"4","last_reported":1702375680,"current_range_meters":30000,"station_id":"ce4bhn92rcd13ifvqgrg","pricing_plan_id":"free"},{"bike_id":"0dda4808-002f-4a15-88cd-8bd85bd87743","system_id":"levelo_inurba_marseille","lat":43.275028,"lon":5.424534,"is_reserved":false,"is_disabled":false,"rental_uris":{"android":"levelo://app?vid=0dda4808-002f-4a15-88cd-8bd85bd87743","ios":"levelo://app?vid=0dda4808-002f-4a15-88cd-8bd85bd87743"},"vehicle_type_id":"4","last_reported":1702375680,"current_range_meters":31200,"station_id":"ce4bhn92rcd13ifvqgrg","pricing_plan_id":"free"},{"bike_id":"01274612-b6ca-4c62-b217-d3c00f10189e","system_id":"levelo_inurba_marseille","lat":43.274923,"lon":5.4246,"is_reserved":false,"is_disabled":false,"rental_uris":{"android":"levelo://app?vid=01274612-b6ca-4c62-b217-d3c00f10189e","ios":"levelo://app?vid=01274612-b6ca-4c62-b217-d3c00f10189e"},"vehicle_type_id":"4","last_reported":1702375680,"current_range_meters":26000,"station_id":"ce4bhn92rcd13ifvqgrg","pricing_plan_id":"free"},{"bike_id":"18825a53-5f53-4e3f-9b29-229253e7e46b","system_id":"levelo_inurba_marseille","lat":43.25582,"lon":5.38229,"is_reserved":false,"is_disabled":false,"rental_uris":{"android":"levelo://app?vid=18825a53-5f53-4e3f-9b29-229253e7e46b","ios":"levelo://app?vid=18825a53-5f53-4e3f-9b29-229253e7e46b"},"vehicle_type_id":"4","last_reported":1702375680,"current_range_meters":28000,"station_id":"ce4bhih2rcd13ifvqfs0","pricing_plan_id":"free"},{"bike_id":"b4b605fd-101e-49fb-9a6d-6c2e220da34c","system_id":"levelo_inurba_marseille","lat":43.25579,"lon":5.38226,"is_reserved":false,"is_disabled":false,"rental_uris":{"android":"levelo://app?vid=b4b605fd-101e-49fb-9a6d-6c2e220da34c","ios":"levelo://app?vid=b4b605fd-101e-49fb-9a6d-6c2e220da34c"},"vehicle_type_id":"4","last_reported":1702375680,"current_range_meters":18000,"station_id":"ce4bhih2rcd13ifvqfs0","pricing_plan_id":"free"},{"bike_id":"836e1920-f219-4e2a-8e87-661c31bd214f","system_id":"levelo_inurba_marseille","lat":43.25578,"lon":5.38232,"is_reserved":false,"is_disabled":false,"rental_uris":{"android":"levelo://app?vid=836e1920-f219-4e2a-8e87-661c31bd214f","ios":"levelo://app?vid=836e1920-f219-4e2a-8e87-661c31bd214f"},"vehicle_type_id":"4","last_reported":1702375680,"current_range_meters":7200,"station_id":"ce4bhih2rcd13ifvqfs0","pricing_plan_id":"free"},{"bike_id":"ec5c35e7-2ab1-4ca5-b4ba-70ef350c5778","system_id":"levelo_inurba_marseille","lat":43.25578,"lon":5.38235,"is_reserved":false,"is_disabled":false,"rental_uris":{"android":"levelo://app?vid=ec5c35e7-2ab1-4ca5-b4ba-70ef350c5778","ios":"levelo://app?vid=ec5c35e7-2ab1-4ca5-b4ba-70ef350c5778"},"vehicle_type_id":"4","last_reported":1702375680,"current_range_meters":16400,"station_id":"ce4bhih2rcd13ifvqfs0","pricing_plan_id":"free"},{"bike_id":"94d90881-1272-4be5-bf40-5c21350f4833","system_id":"levelo_inurba_marseille","lat":43.258658,"lon":5.398935,"is_reserved":false,"is_disabled":false,"rental_uris":{"android":"levelo://app?vid=94d90881-1272-4be5-bf40-5c21350f4833","ios":"levelo://app?vid=94d90881-1272-4be5-bf40-5c21350f4833"},"vehicle_type_id":"4","last_reported":1702375680,"current_range_meters":24400,"station_id":"ce4bhl92rcd13ifvqghg","pricing_plan_id":"free"},{"bike_id":"b53c5dbf-1080-415c-88cd-967020f6ef1f","system_id":"levelo_inurba_marseille","lat":43.259013,"lon":5.409301,"is_reserved":false,"is_disabled":false,"rental_uris":{"android":"levelo://app?vid=b53c5dbf-1080-415c-88cd-967020f6ef1f","ios":"levelo://app?vid=b53c5dbf-1080-415c-88cd-967020f6ef1f"},"vehicle_type_id":"4","last_reported":1702375680,"current_range_meters":20000,"station_id":"ce4bhm92rcd13ifvqglg","pricing_plan_id":"free"},{"bike_id":"3dbd92bf-e0af-40c6-9b48-7dbcf151cd06","system_id":"levelo_inurba_marseille","lat":43.25933,"lon":5.40909,"is_reserved":false,"is_disabled":false,"rental_uris":{"android":"levelo://app?vid=3dbd92bf-e0af-40c6-9b48-7dbcf151cd06","ios":"levelo://app?vid=3dbd92bf-e0af-40c6-9b48-7dbcf151cd06"},"vehicle_type_id":"4","last_reported":1702375680,"current_range_meters":18800,"station_id":"ce4bhm92rcd13ifvqglg","pricing_plan_id":"free"},{"bike_id":"f4fee8f4-2ef7-47b0-8906-5345dafd226c","system_id":"levelo_inurba_marseille","lat":43.250009,"lon":5.389195,"is_reserved":false,"is_disabled":false,"rental_uris":{"android":"levelo://app?vid=f4fee8f4-2ef7-47b0-8906-5345dafd226c","ios":"levelo://app?vid=f4fee8f4-2ef7-47b0-8906-5345dafd226c"},"vehicle_type_id":"4","last_reported":1702375680,"current_range_meters":24800,"station_id":"ce4bhgp2rcd13ifvqfd0","pricing_plan_id":"free"},{"bike_id":"694ba153-5c8d-4823-bd4f-be01e5b51b96","system_id":"levelo_inurba_marseille","lat":43.250966,"lon":5.395186,"is_reserved":false,"is_disabled":false,"rental_uris":{"android":"levelo://app?vid=694ba153-5c8d-4823-bd4f-be01e5b51b96","ios":"levelo://app?vid=694ba153-5c8d-4823-bd4f-be01e5b51b96"},"vehicle_type_id":"4","last_reported":1702375680,"current_range_meters":18800,"station_id":"ce4bhm12rcd13ifvqgkg","pricing_plan_id":"free"},{"bike_id":"f60df210-1079-4a1c-9a53-943a65cdd5cd","system_id":"levelo_inurba_marseille","lat":43.24676,"lon":5.38153,"is_reserved":false,"is_disabled":false,"rental_uris":{"android":"levelo://app?vid=f60df210-1079-4a1c-9a53-943a65cdd5cd","ios":"levelo://app?vid=f60df210-1079-4a1c-9a53-943a65cdd5cd"},"vehicle_type_id":"4","last_reported":1702375680,"current_range_meters":4800,"station_id":"ce4bhih2rcd13ifvqfr0","pricing_plan_id":"free"},{"bike_id":"5378bbfc-03c2-412b-8bce-54e71f0939f8","system_id":"levelo_inurba_marseille","lat":43.24693,"lon":5.382096,"is_reserved":false,"is_disabled":false,"rental_uris":{"android":"levelo://app?vid=5378bbfc-03c2-412b-8bce-54e71f0939f8","ios":"levelo://app?vid=5378bbfc-03c2-412b-8bce-54e71f0939f8"},"vehicle_type_id":"4","last_reported":1702375680,"current_range_meters":7600,"station_id":"ce4bhih2rcd13ifvqfr0","pricing_plan_id":"free"},{"bike_id":"c76e1da4-db34-44cf-b1e7-e73aa7c1e00d","system_id":"levelo_inurba_marseille","lat":43.24663,"lon":5.38158,"is_reserved":false,"is_disabled":false,"rental_uris":{"android":"levelo://app?vid=c76e1da4-db34-44cf-b1e7-e73aa7c1e00d","ios":"levelo://app?vid=c76e1da4-db34-44cf-b1e7-e73aa7c1e00d"},"vehicle_type_id":"4","last_reported":1702375680,"current_range_meters":16800,"station_id":"ce4bhih2rcd13ifvqfr0","pricing_plan_id":"free"},{"bike_id":"48a6c0a2-6f84-4616-89bd-6d9ccd42bf32","system_id":"levelo_inurba_marseille","lat":43.25102,"lon":5.403214,"is_reserved":false,"is_disabled":false,"rental_uris":{"android":"levelo://app?vid=48a6c0a2-6f84-4616-89bd-6d9ccd42bf32","ios":"levelo://app?vid=48a6c0a2-6f84-4616-89bd-6d9ccd42bf32"},"vehicle_type_id":"4","last_reported":1702375680,"current_range_meters":24000,"station_id":"ce4bhlh2rcd13ifvqgig","pricing_plan_id":"free"},{"bike_id":"116bf660-cc16-415d-a9ff-29b0926d7c1c","system_id":"levelo_inurba_marseille","lat":43.243884,"lon":5.370737,"is_reserved":false,"is_disabled":false,"rental_uris":{"android":"levelo://app?vid=116bf660-cc16-415d-a9ff-29b0926d7c1c","ios":"levelo://app?vid=116bf660-cc16-415d-a9ff-29b0926d7c1c"},"vehicle_type_id":"4","last_reported":1702375680,"current_range_meters":28800,"station_id":"ce4bhhh2rcd13ifvqfk0","pricing_plan_id":"free"},{"bike_id":"79b57fd5-88de-4c00-b198-904e982e83b5","system_id":"levelo_inurba_marseille","lat":43.245581,"lon":5.395069,"is_reserved":false,"is_disabled":false,"rental_uris":{"android":"levelo://app?vid=79b57fd5-88de-4c00-b198-904e982e83b5","ios":"levelo://app?vid=79b57fd5-88de-4c00-b198-904e982e83b5"},"vehicle_type_id":"4","last_reported":1702375680,"current_range_meters":15200,"station_id":"ce4bhlp2rcd13ifvqgjg","pricing_plan_id":"free"},{"bike_id":"40b46816-5d8f-480e-9ab0-89a22c89c833","system_id":"levelo_inurba_marseille","lat":43.245581,"lon":5.395069,"is_reserved":false,"is_disabled":false,"rental_uris":{"android":"levelo://app?vid=40b46816-5d8f-480e-9ab0-89a22c89c833","ios":"levelo://app?vid=40b46816-5d8f-480e-9ab0-89a22c89c833"},"vehicle_type_id":"4","last_reported":1702375680,"current_range_meters":10800,"station_id":"ce4bhlp2rcd13ifvqgjg","pricing_plan_id":"free"},{"bike_id":"a858f3ae-eb10-4d86-a6e2-f1435cc80342","system_id":"levelo_inurba_marseille","lat":43.245581,"lon":5.395069,"is_reserved":false,"is_disabled":false,"rental_uris":{"android":"levelo://app?vid=a858f3ae-eb10-4d86-a6e2-f1435cc80342","ios":"levelo://app?vid=a858f3ae-eb10-4d86-a6e2-f1435cc80342"},"vehicle_type_id":"4","last_reported":1702375680,"current_range_meters":23600,"station_id":"ce4bhlp2rcd13ifvqgjg","pricing_plan_id":"free"},{"bike_id":"c01505ef-a963-4829-a879-e7ddf0d77ef6","system_id":"levelo_inurba_marseille","lat":43.245581,"lon":5.395069,"is_reserved":false,"is_disabled":false,"rental_uris":{"android":"levelo://app?vid=c01505ef-a963-4829-a879-e7ddf0d77ef6","ios":"levelo://app?vid=c01505ef-a963-4829-a879-e7ddf0d77ef6"},"vehicle_type_id":"4","last_reported":1702375680,"current_range_meters":4400,"station_id":"ce4bhlp2rcd13ifvqgjg","pricing_plan_id":"free"},{"bike_id":"d45c0086-d635-4eef-8bb5-4c02e03aacce","system_id":"levelo_inurba_marseille","lat":43.245581,"lon":5.395069,"is_reserved":false,"is_disabled":false,"rental_uris":{"android":"levelo://app?vid=d45c0086-d635-4eef-8bb5-4c02e03aacce","ios":"levelo://app?vid=d45c0086-d635-4eef-8bb5-4c02e03aacce"},"vehicle_type_id":"4","last_reported":1702375680,"current_range_meters":24400,"station_id":"ce4bhlp2rcd13ifvqgjg","pricing_plan_id":"free"},{"bike_id":"ca732888-20d0-4283-9146-7280dadbaf65","system_id":"levelo_inurba_marseille","lat":43.24077,"lon":5.37753,"is_reserved":false,"is_disabled":false,"rental_uris":{"android":"levelo://app?vid=ca732888-20d0-4283-9146-7280dadbaf65","ios":"levelo://app?vid=ca732888-20d0-4283-9146-7280dadbaf65"},"vehicle_type_id":"4","last_reported":1702375680,"current_range_meters":0,"station_id":"ce4bhnp2rcd13ifvqgvg","pricing_plan_id":"free"},{"bike_id":"ab4ab83c-9573-4892-b386-19aaa2864f1c","system_id":"levelo_inurba_marseille","lat":43.239588,"lon":5.366238,"is_reserved":false,"is_disabled":false,"rental_uris":{"android":"levelo://app?vid=ab4ab83c-9573-4892-b386-19aaa2864f1c","ios":"levelo://app?vid=ab4ab83c-9573-4892-b386-19aaa2864f1c"},"vehicle_type_id":"4","last_reported":1702375680,"current_range_meters":30000,"station_id":"ce4bhi12rcd13ifvqfp0","pricing_plan_id":"free"},{"bike_id":"7f16109b-0556-4b97-951f-9783cbc06adf","system_id":"levelo_inurba_marseille","lat":43.239588,"lon":5.366238,"is_reserved":false,"is_disabled":false,"rental_uris":{"android":"levelo://app?vid=7f16109b-0556-4b97-951f-9783cbc06adf","ios":"levelo://app?vid=7f16109b-0556-4b97-951f-9783cbc06adf"},"vehicle_type_id":"4","last_reported":1702375680,"current_range_meters":26000,"station_id":"ce4bhi12rcd13ifvqfp0","pricing_plan_id":"free"},{"bike_id":"5e95b42a-345d-4d77-b3aa-fdc72634c347","system_id":"levelo_inurba_marseille","lat":43.239588,"lon":5.366238,"is_reserved":false,"is_disabled":false,"rental_uris":{"android":"levelo://app?vid=5e95b42a-345d-4d77-b3aa-fdc72634c347","ios":"levelo://app?vid=5e95b42a-345d-4d77-b3aa-fdc72634c347"},"vehicle_type_id":"4","last_reported":1702375680,"current_range_meters":30400,"station_id":"ce4bhi12rcd13ifvqfp0","pricing_plan_id":"free"},{"bike_id":"bdcfbfec-0af0-4b23-a86d-ce48dfabb003","system_id":"levelo_inurba_marseille","lat":43.239588,"lon":5.366238,"is_reserved":false,"is_disabled":false,"rental_uris":{"android":"levelo://app?vid=bdcfbfec-0af0-4b23-a86d-ce48dfabb003","ios":"levelo://app?vid=bdcfbfec-0af0-4b23-a86d-ce48dfabb003"},"vehicle_type_id":"4","last_reported":1702375680,"current_range_meters":18400,"station_id":"ce4bhi12rcd13ifvqfp0","pricing_plan_id":"free"},{"bike_id":"a252b06b-9958-4176-879b-301288bcf11a","system_id":"levelo_inurba_marseille","lat":43.2418,"lon":5.39725,"is_reserved":false,"is_disabled":false,"rental_uris":{"android":"levelo://app?vid=a252b06b-9958-4176-879b-301288bcf11a","ios":"levelo://app?vid=a252b06b-9958-4176-879b-301288bcf11a"},"vehicle_type_id":"4","last_reported":1702375680,"current_range_meters":20800,"station_id":"ce4bhn12rcd13ifvqgpg","pricing_plan_id":"free"},{"bike_id":"eacd6c12-ad78-4aca-8a4b-0a9c50552238","system_id":"levelo_inurba_marseille","lat":43.24179,"lon":5.3973,"is_reserved":false,"is_disabled":false,"rental_uris":{"android":"levelo://app?vid=eacd6c12-ad78-4aca-8a4b-0a9c50552238","ios":"levelo://app?vid=eacd6c12-ad78-4aca-8a4b-0a9c50552238"},"vehicle_type_id":"4","last_reported":1702375680,"current_range_meters":0,"station_id":"ce4bhn12rcd13ifvqgpg","pricing_plan_id":"free"},{"bike_id":"655b834c-7839-45ef-befc-f1f10c3a37bd","system_id":"levelo_inurba_marseille","lat":43.23194,"lon":5.3555,"is_reserved":false,"is_disabled":false,"rental_uris":{"android":"levelo://app?vid=655b834c-7839-45ef-befc-f1f10c3a37bd","ios":"levelo://app?vid=655b834c-7839-45ef-befc-f1f10c3a37bd"},"vehicle_type_id":"4","last_reported":1702375680,"current_range_meters":11200,"station_id":"ce4bhu92rcd13ifvqi70","pricing_plan_id":"free"},{"bike_id":"e5f8a3f9-ad33-4c96-8f80-c9bb436ceb1b","system_id":"levelo_inurba_marseille","lat":43.235776,"lon":5.410425,"is_reserved":false,"is_disabled":false,"rental_uris":{"android":"levelo://app?vid=e5f8a3f9-ad33-4c96-8f80-c9bb436ceb1b","ios":"levelo://app?vid=e5f8a3f9-ad33-4c96-8f80-c9bb436ceb1b"},"vehicle_type_id":"4","last_reported":1702375680,"current_range_meters":16000,"station_id":"","pricing_plan_id":"free"},{"bike_id":"e51ebd50-a871-4ca2-945d-47be1e8d7fb4","system_id":"levelo_inurba_marseille","lat":43.231562,"lon":5.436933,"is_reserved":false,"is_disabled":false,"rental_uris":{"android":"levelo://app?vid=e51ebd50-a871-4ca2-945d-47be1e8d7fb4","ios":"levelo://app?vid=e51ebd50-a871-4ca2-945d-47be1e8d7fb4"},"vehicle_type_id":"4","last_reported":1702375680,"current_range_meters":14000,"station_id":"ce4bhmp2rcd13ifvqgog","pricing_plan_id":"free"},{"bike_id":"5c5d811b-920e-4dc2-8b5a-a33a7df9bc05","system_id":"levelo_inurba_marseille","lat":43.231562,"lon":5.436933,"is_reserved":false,"is_disabled":false,"rental_uris":{"android":"levelo://app?vid=5c5d811b-920e-4dc2-8b5a-a33a7df9bc05","ios":"levelo://app?vid=5c5d811b-920e-4dc2-8b5a-a33a7df9bc05"},"vehicle_type_id":"4","last_reported":1702375680,"current_range_meters":26000,"station_id":"ce4bhmp2rcd13ifvqgog","pricing_plan_id":"free"},{"bike_id":"8891a0f4-62f7-41f4-a47b-6a9ecbe8bd0d","system_id":"levelo_inurba_marseille","lat":43.231562,"lon":5.436933,"is_reserved":false,"is_disabled":false,"rental_uris":{"android":"levelo://app?vid=8891a0f4-62f7-41f4-a47b-6a9ecbe8bd0d","ios":"levelo://app?vid=8891a0f4-62f7-41f4-a47b-6a9ecbe8bd0d"},"vehicle_type_id":"4","last_reported":1702375680,"current_range_meters":10400,"station_id":"ce4bhmp2rcd13ifvqgog","pricing_plan_id":"free"},{"bike_id":"5b1e43e1-157b-41db-80f1-c39aaeb1c62f","system_id":"levelo_inurba_marseille","lat":43.231562,"lon":5.436933,"is_reserved":false,"is_disabled":false,"rental_uris":{"android":"levelo://app?vid=5b1e43e1-157b-41db-80f1-c39aaeb1c62f","ios":"levelo://app?vid=5b1e43e1-157b-41db-80f1-c39aaeb1c62f"},"vehicle_type_id":"4","last_reported":1702375680,"current_range_meters":10400,"station_id":"ce4bhmp2rcd13ifvqgog","pricing_plan_id":"free"},{"bike_id":"b98a457e-cf5f-41f0-830e-89a07a2fd902","system_id":"levelo_inurba_marseille","lat":43.231562,"lon":5.436933,"is_reserved":false,"is_disabled":false,"rental_uris":{"android":"levelo://app?vid=b98a457e-cf5f-41f0-830e-89a07a2fd902","ios":"levelo://app?vid=b98a457e-cf5f-41f0-830e-89a07a2fd902"},"vehicle_type_id":"4","last_reported":1702375680,"current_range_meters":20800,"station_id":"ce4bhmp2rcd13ifvqgog","pricing_plan_id":"free"},{"bike_id":"b1e3cd70-38f8-4d10-854a-5c0a5d45a7ae","system_id":"levelo_inurba_marseille","lat":43.23151,"lon":5.43718,"is_reserved":false,"is_disabled":false,"rental_uris":{"android":"levelo://app?vid=b1e3cd70-38f8-4d10-854a-5c0a5d45a7ae","ios":"levelo://app?vid=b1e3cd70-38f8-4d10-854a-5c0a5d45a7ae"},"vehicle_type_id":"4","last_reported":1702375680,"current_range_meters":5600,"station_id":"ce4bhmp2rcd13ifvqgog","pricing_plan_id":"free"}]}}