{"last_updated":1727996950,"ttl":60,"version":"2.2","data":{"bikes":[{"bike_id":"9fe5cb08-2bee-4c23-b456-a2fc75bf3c56","system_id":"levelo_inurba_marseille","lat":43.27301,"lon":5.392024,"is_reserved":false,"is_disabled":false,"rental_uris":{"android":"levelo://app?vid=9fe5cb08-2bee-4c23-b456-a2fc75bf3c56","ios":"levelo://app?vid=9fe5cb08-2bee-4c23-b456-a2fc75bf3c56"},"vehicle_type_id":"4","last_reported":1727996950,"current_range_meters":27600,"station_id":"ce4bhdp2rcd13ifvqf20","pricing_plan_id":"cebpf4jnsgd1na2vs0mg"},{"bike_id":"c65f7b1b-8cb1-43d6-936c-e5dc86a23984","system_id":"levelo_inurba_marseille","lat":43.24625,"lon":5.41962,"is_reserved":false,"is_disabled":false,"rental_uris":{"android":"levelo://app?vid=c65f7b1b-8cb1-43d6-936c-e5dc86a23984","ios":"levelo://app?vid=c65f7b1b-8cb1-43d6-936c-e5dc86a23984"},"vehicle_type_id":"4","last_reported":1727996950,"current_range_meters":11600,"station_id":"","pricing_plan_id":"cebpf4jnsgd1na2vs0mg"},{"bike_id":"2c1d28fc-a845-4b20-a246-11f8885282c0","system_id":"levelo_inurba_marseille","lat":43.28032,"lon":5.36952,"is_reserved":false,"is_disabled":false,"rental_uris":{"android":"levelo://app?vid=2c1d28fc-a845-4b20-a246-11f8885282c0","ios":"levelo://app?vid=2c1d28fc-a845-4b20-a246-11f8885282c0"},"vehicle_type_id":"4","last_reported":1727996950,"current_range_meters":28000,"station_id":"ce4bha12rcd13ifvqef0","pricing_plan_id":"cebpf4jnsgd1na2vs0mg"},{"bike_id":"a23d2941-6509-43bd-ab8b-2df671dc648e","system_id":"levelo_inurba_marseille","lat":43.30801,"lon":5.38154,"is_reserved":false,"is_disabled":false,"rental_uris":{"android":"levelo://app?vid=a23d2941-6509-43bd-ab8b-2df671dc648e","ios":"levelo://app?vid=a23d2941-6509-43bd-ab8b-2df671dc648e"},"vehicle_type_id":"4","last_reported":1727996950,"current_range_meters":38000,"station_id":"ce4bgt12rcd13ifvqce0","pricing_plan_id":"cebpf4jnsgd1na2vs0mg"},{"bike_id":"8f2ca0ae-7c75-471f-8ffd-2caa17293137","system_id":"levelo_inurba_marseille","lat":43.31715,"lon":5.37766,"is_reserved":false,"is_disabled":false,"rental_uris":{"android":"levelo://app?vid=8f2ca0ae-7c75-471f-8ffd-2caa17293137","ios":"levelo://app?vid=8f2ca0ae-7c75-471f-8ffd-2caa17293137"},"vehicle_type_id":"4","last_reported":1727996950,"current_range_meters":28800,"station_id":"ce4bgth2rcd13ifvqch0","pricing_plan_id":"cebpf4jnsgd1na2vs0mg"},{"bike_id":"b286b487-e9a5-4615-949e-bb1fe7d4d6d6","system_id":"levelo_inurba_marseille","lat":43.29964,"lon":5.41286,"is_reserved":false,"is_disabled":false,"rental_uris":{"android":"levelo://app?vid=b286b487-e9a5-4615-949e-bb1fe7d4d6d6","ios":"levelo://app?vid=b286b487-e9a5-4615-949e-bb1fe7d4d6d6"},"vehicle_type_id":"4","last_reported":1727996950,"current_range_meters":10800,"station_id":"ce4bhp12rcd13ifvqh9g","pricing_plan_id":"cebpf4jnsgd1na2vs0mg"},{"bike_id":"12de9d2b-489e-4e07-a88a-9d4c4d623dd1","system_id":"levelo_inurba_marseille","lat":43.3168,"lon":5.40468,"is_reserved":false,"is_disabled":false,"rental_uris":{"android":"levelo://app?vid=12de9d2b-489e-4e07-a88a-9d4c4d623dd1","ios":"levelo://app?vid=12de9d2b-489e-4e07-a88a-9d4c4d623dd1"},"vehicle_type_id":"4","last_reported":1727996950,"current_range_meters":20000,"station_id":"ce4bh012rcd13ifvqd00","pricing_plan_id":"cebpf4jnsgd1na2vs0mg"},{"bike_id":"dfa316ed-31fe-4eb7-ae98-3312a562d760","system_id":"levelo_inurba_marseille","lat":43.27184,"lon":5.40996,"is_reserved":false,"is_disabled":false,"rental_uris":{"android":"levelo://app?vid=dfa316ed-31fe-4eb7-ae98-3312a562d760","ios":"levelo://app?vid=dfa316ed-31fe-4eb7-ae98-3312a562d760"},"vehicle_type_id":"4","last_reported":1727996950,"current_range_meters":36800,"station_id":"ce4bhl12rcd13ifvqgf0","pricing_plan_id":"cebpf4jnsgd1na2vs0mg"},{"bike_id":"7c90bb76-cd3d-4776-8fe4-dd8213dd2b7a","system_id":"levelo_inurba_marseille","lat":43.31484,"lon":5.37304,"is_reserved":false,"is_disabled":false,"rental_uris":{"android":"levelo://app?vid=7c90bb76-cd3d-4776-8fe4-dd8213dd2b7a","ios":"levelo://app?vid=7c90bb76-cd3d-4776-8fe4-dd8213dd2b7a"},"vehicle_type_id":"4","last_reported":1727996950,"current_range_meters":11600,"station_id":"ce4bgt12rcd13ifvqcd0","pricing_plan_id":"cebpf4jnsgd1na2vs0mg"},{"bike_id":"756088e4-bd38-4606-aa6f-cbbf1461af00","system_id":"levelo_inurba_marseille","lat":43.22938,"lon":5.3538,"is_reserved":false,"is_disabled":false,"rental_uris":{"android":"levelo://app?vid=756088e4-bd38-4606-aa6f-cbbf1461af00","ios":"levelo://app?vid=756088e4-bd38-4606-aa6f-cbbf1461af00"},"vehicle_type_id":"4","last_reported":1727996950,"current_range_meters":16400,"station_id":"cpo3532slgdg3j2ikp40","pricing_plan_id":"cebpf4jnsgd1na2vs0mg"},{"bike_id":"a2e67e3c-7061-41ef-b621-c916bfea005c","system_id":"levelo_inurba_marseille","lat":43.2651,"lon":5.39551,"is_reserved":false,"is_disabled":false,"rental_uris":{"android":"levelo://app?vid=a2e67e3c-7061-41ef-b621-c916bfea005c","ios":"levelo://app?vid=a2e67e3c-7061-41ef-b621-c916bfea005c"},"vehicle_type_id":"4","last_reported":1727996950,"current_range_meters":30000,"station_id":"ce4bhi12rcd13ifvqfq0","pricing_plan_id":"cebpf4jnsgd1na2vs0mg"},{"bike_id":"9def42de-c8b4-4bc0-8719-dee3a1ae86f0","system_id":"levelo_inurba_marseille","lat":43.28451,"lon":5.35885,"is_reserved":false,"is_disabled":false,"rental_uris":{"android":"levelo://app?vid=9def42de-c8b4-4bc0-8719-dee3a1ae86f0","ios":"levelo://app?vid=9def42de-c8b4-4bc0-8719-dee3a1ae86f0"},"vehicle_type_id":"4","last_reported":1727996950,"current_range_meters":10000,"station_id":"ce4bhah2rcd13ifvqei0","pricing_plan_id":"cebpf4jnsgd1na2vs0mg"},{"bike_id":"9456af3d-12d5-4ff8-9953-8444c47e95c4","system_id":"levelo_inurba_marseille","lat":43.29276,"lon":5.40122,"is_reserved":false,"is_disabled":false,"rental_uris":{"android":"levelo://app?vid=9456af3d-12d5-4ff8-9953-8444c47e95c4","ios":"levelo://app?vid=9456af3d-12d5-4ff8-9953-8444c47e95c4"},"vehicle_type_id":"4","last_reported":1727996950,"current_range_meters":4000,"station_id":"ce4bh312rcd13ifvqdk0","pricing_plan_id":"cebpf4jnsgd1na2vs0mg"},{"bike_id":"bc41810d-3fc6-4e9c-bcc1-3b1d7bce3ce2","system_id":"levelo_inurba_marseille","lat":43.2318,"lon":5.39984,"is_reserved":false,"is_disabled":false,"rental_uris":{"android":"levelo://app?vid=bc41810d-3fc6-4e9c-bcc1-3b1d7bce3ce2","ios":"levelo://app?vid=bc41810d-3fc6-4e9c-bcc1-3b1d7bce3ce2"},"vehicle_type_id":"4","last_reported":1727996950,"current_range_meters":22400,"station_id":"ce4bhn12rcd13ifvqgqg","pricing_plan_id":"cebpf4jnsgd1na2vs0mg"},{"bike_id":"48831eeb-180c-494c-819b-ab6fbaf4655d","system_id":"levelo_inurba_marseille","lat":43.25498,"lon":5.37652,"is_reserved":false,"is_disabled":false,"rental_uris":{"android":"levelo://app?vid=48831eeb-180c-494c-819b-ab6fbaf4655d","ios":"levelo://app?vid=48831eeb-180c-494c-819b-ab6fbaf4655d"},"vehicle_type_id":"4","last_reported":1727996950,"current_range_meters":38400,"station_id":"ce4bhh12rcd13ifvqff0","pricing_plan_id":"cebpf4jnsgd1na2vs0mg"},{"bike_id":"d087af73-7fac-4929-97c8-b53b57c29849","system_id":"levelo_inurba_marseille","lat":43.28455,"lon":5.35893,"is_reserved":false,"is_disabled":false,"rental_uris":{"android":"levelo://app?vid=d087af73-7fac-4929-97c8-b53b57c29849","ios":"levelo://app?vid=d087af73-7fac-4929-97c8-b53b57c29849"},"vehicle_type_id":"4","last_reported":1727996950,"current_range_meters":30000,"station_id":"ce4bhah2rcd13ifvqei0","pricing_plan_id":"cebpf4jnsgd1na2vs0mg"},{"bike_id":"0ae24b9b-4a5c-4ace-bce6-02a1b13a6870","system_id":"levelo_inurba_marseille","lat":43.30417,"lon":5.41289,"is_reserved":false,"is_disabled":false,"rental_uris":{"android":"levelo://app?vid=0ae24b9b-4a5c-4ace-bce6-02a1b13a6870","ios":"levelo://app?vid=0ae24b9b-4a5c-4ace-bce6-02a1b13a6870"},"vehicle_type_id":"4","last_reported":1727996950,"current_range_meters":14800,"station_id":"ce4bhop2rcd13ifvqh8g","pricing_plan_id":"cebpf4jnsgd1na2vs0mg"},{"bike_id":"149797c5-88bb-435c-ae4e-98cca08bfc3f","system_id":"levelo_inurba_marseille","lat":43.2678,"lon":5.39414,"is_reserved":false,"is_disabled":false,"rental_uris":{"android":"levelo://app?vid=149797c5-88bb-435c-ae4e-98cca08bfc3f","ios":"levelo://app?vid=149797c5-88bb-435c-ae4e-98cca08bfc3f"},"vehicle_type_id":"4","last_reported":1727996950,"current_range_meters":28800,"station_id":"ce4bhh12rcd13ifvqfg0","pricing_plan_id":"cebpf4jnsgd1na2vs0mg"},{"bike_id":"5027e841-9475-4eed-9c3e-b6229a636acb","system_id":"levelo_inurba_marseille","lat":43.292483,"lon":5.408997,"is_reserved":false,"is_disabled":false,"rental_uris":{"android":"levelo://app?vid=5027e841-9475-4eed-9c3e-b6229a636acb","ios":"levelo://app?vid=5027e841-9475-4eed-9c3e-b6229a636acb"},"vehicle_type_id":"4","last_reported":1727996950,"current_range_meters":9200,"station_id":"ce4bh192rcd13ifvqdc0","pricing_plan_id":"cebpf4jnsgd1na2vs0mg"},{"bike_id":"c9753217-8459-4f5f-9a51-5d6eb1e88baf","system_id":"levelo_inurba_marseille","lat":43.28001,"lon":5.40014,"is_reserved":false,"is_disabled":false,"rental_uris":{"android":"levelo://app?vid=c9753217-8459-4f5f-9a51-5d6eb1e88baf","ios":"levelo://app?vid=c9753217-8459-4f5f-9a51-5d6eb1e88baf"},"vehicle_type_id":"4","last_reported":1727996950,"current_range_meters":38000,"station_id":"ce4bho92rcd13ifvqh4g","pricing_plan_id":"cebpf4jnsgd1na2vs0mg"},{"bike_id":"541d5aee-85fc-4a22-a550-040a95848043","system_id":"levelo_inurba_marseille","lat":43.289305,"lon":5.383999,"is_reserved":false,"is_disabled":false,"rental_uris":{"android":"levelo://app?vid=541d5aee-85fc-4a22-a550-040a95848043","ios":"levelo://app?vid=541d5aee-85fc-4a22-a550-040a95848043"},"vehicle_type_id":"4","last_reported":1727996950,"current_range_meters":38800,"station_id":"ce4bhh92rcd13ifvqfi0","pricing_plan_id":"cebpf4jnsgd1na2vs0mg"},{"bike_id":"1287138e-fa6c-436c-9adf-a4c35ff244bc","system_id":"levelo_inurba_marseille","lat":43.31759,"lon":5.39014,"is_reserved":false,"is_disabled":false,"rental_uris":{"android":"levelo://app?vid=1287138e-fa6c-436c-9adf-a4c35ff244bc","ios":"levelo://app?vid=1287138e-fa6c-436c-9adf-a4c35ff244bc"},"vehicle_type_id":"4","last_reported":1727996950,"current_range_meters":16800,"station_id":"ce4bhqp2rcd13ifvqhng","pricing_plan_id":"cebpf4jnsgd1na2vs0mg"},{"bike_id":"a99e0887-fb66-4880-8761-33fdb36b8615","system_id":"levelo_inurba_marseille","lat":43.23184,"lon":5.39994,"is_reserved":false,"is_disabled":false,"rental_uris":{"android":"levelo://app?vid=a99e0887-fb66-4880-8761-33fdb36b8615","ios":"levelo://app?vid=a99e0887-fb66-4880-8761-33fdb36b8615"},"vehicle_type_id":"4","last_reported":1727996950,"current_range_meters":14000,"station_id":"ce4bhn12rcd13ifvqgqg","pricing_plan_id":"cebpf4jnsgd1na2vs0mg"},{"bike_id":"545483e1-ca6a-44f0-8b13-786603e4549c","system_id":"levelo_inurba_marseille","lat":43.30431,"lon":5.38887,"is_reserved":false,"is_disabled":false,"rental_uris":{"android":"levelo://app?vid=545483e1-ca6a-44f0-8b13-786603e4549c","ios":"levelo://app?vid=545483e1-ca6a-44f0-8b13-786603e4549c"},"vehicle_type_id":"4","last_reported":1727996950,"current_range_meters":37600,"station_id":"ce4bgk12rcd13ifvqbi0","pricing_plan_id":"cebpf4jnsgd1na2vs0mg"},{"bike_id":"397a2d03-4f85-4289-97cc-f11013459605","system_id":"levelo_inurba_marseille","lat":43.31885,"lon":5.40726,"is_reserved":false,"is_disabled":false,"rental_uris":{"android":"levelo://app?vid=397a2d03-4f85-4289-97cc-f11013459605","ios":"levelo://app?vid=397a2d03-4f85-4289-97cc-f11013459605"},"vehicle_type_id":"4","last_reported":1727996950,"current_range_meters":37600,"station_id":"ce4bhq12rcd13ifvqhig","pricing_plan_id":"cebpf4jnsgd1na2vs0mg"},{"bike_id":"711ebaf3-e5ad-4a91-9158-61808cfe80a7","system_id":"levelo_inurba_marseille","lat":43.3032,"lon":5.40443,"is_reserved":false,"is_disabled":false,"rental_uris":{"android":"levelo://app?vid=711ebaf3-e5ad-4a91-9158-61808cfe80a7","ios":"levelo://app?vid=711ebaf3-e5ad-4a91-9158-61808cfe80a7"},"vehicle_type_id":"4","last_reported":1727996950,"current_range_meters":36800,"station_id":"ce4bh012rcd13ifvqd10","pricing_plan_id":"cebpf4jnsgd1na2vs0mg"},{"bike_id":"042c34d5-e204-4982-8e37-8aa44a6cc98a","system_id":"levelo_inurba_marseille","lat":43.29442,"lon":5.39745,"is_reserved":false,"is_disabled":false,"rental_uris":{"android":"levelo://app?vid=042c34d5-e204-4982-8e37-8aa44a6cc98a","ios":"levelo://app?vid=042c34d5-e204-4982-8e37-8aa44a6cc98a"},"vehicle_type_id":"4","last_reported":1727996950,"current_range_meters":28000,"station_id":"ce4bh3h2rcd13ifvqdo0","pricing_plan_id":"cebpf4jnsgd1na2vs0mg"},{"bike_id":"f3ca8eae-8524-453e-a3ef-ef65e37e2e78","system_id":"levelo_inurba_marseille","lat":43.24671,"lon":5.38172,"is_reserved":false,"is_disabled":false,"rental_uris":{"android":"levelo://app?vid=f3ca8eae-8524-453e-a3ef-ef65e37e2e78","ios":"levelo://app?vid=f3ca8eae-8524-453e-a3ef-ef65e37e2e78"},"vehicle_type_id":"4","last_reported":1727996950,"current_range_meters":22400,"station_id":"ce4bhih2rcd13ifvqfr0","pricing_plan_id":"cebpf4jnsgd1na2vs0mg"},{"bike_id":"c36f12fa-ae32-4b0d-b404-78b57e4f78fe","system_id":"levelo_inurba_marseille","lat":43.29897,"lon":5.43661,"is_reserved":false,"is_disabled":false,"rental_uris":{"android":"levelo://app?vid=c36f12fa-ae32-4b0d-b404-78b57e4f78fe","ios":"levelo://app?vid=c36f12fa-ae32-4b0d-b404-78b57e4f78fe"},"vehicle_type_id":"4","last_reported":1727996950,"current_range_meters":35600,"station_id":"ce4bhpp2rcd13ifvqhfg","pricing_plan_id":"cebpf4jnsgd1na2vs0mg"},{"bike_id":"46233e9e-06c4-4df1-a818-c4c5bad0a987","system_id":"levelo_inurba_marseille","lat":43.28459,"lon":5.35879,"is_reserved":false,"is_disabled":false,"rental_uris":{"android":"levelo://app?vid=46233e9e-06c4-4df1-a818-c4c5bad0a987","ios":"levelo://app?vid=46233e9e-06c4-4df1-a818-c4c5bad0a987"},"vehicle_type_id":"4","last_reported":1727996950,"current_range_meters":16800,"station_id":"ce4bhah2rcd13ifvqei0","pricing_plan_id":"cebpf4jnsgd1na2vs0mg"},{"bike_id":"f14f4064-8df1-48b2-bc6b-a04e9059835f","system_id":"levelo_inurba_marseille","lat":43.280062,"lon":5.409483,"is_reserved":false,"is_disabled":false,"rental_uris":{"android":"levelo://app?vid=f14f4064-8df1-48b2-bc6b-a04e9059835f","ios":"levelo://app?vid=f14f4064-8df1-48b2-bc6b-a04e9059835f"},"vehicle_type_id":"4","last_reported":1727996950,"current_range_meters":5600,"station_id":"ce4bh3h2rcd13ifvqdn0","pricing_plan_id":"cebpf4jnsgd1na2vs0mg"},{"bike_id":"75ae865b-18dc-4981-b8a0-9c762a1bfa9c","system_id":"levelo_inurba_marseille","lat":43.33022,"lon":5.39045,"is_reserved":false,"is_disabled":false,"rental_uris":{"android":"levelo://app?vid=75ae865b-18dc-4981-b8a0-9c762a1bfa9c","ios":"levelo://app?vid=75ae865b-18dc-4981-b8a0-9c762a1bfa9c"},"vehicle_type_id":"4","last_reported":1727996950,"current_range_meters":40000,"station_id":"ce4bhr92rcd13ifvqhrg","pricing_plan_id":"cebpf4jnsgd1na2vs0mg"},{"bike_id":"10db0674-caf9-4a89-9a1c-67516fa498dd","system_id":"levelo_inurba_marseille","lat":43.298,"lon":5.40407,"is_reserved":false,"is_disabled":false,"rental_uris":{"android":"levelo://app?vid=10db0674-caf9-4a89-9a1c-67516fa498dd","ios":"levelo://app?vid=10db0674-caf9-4a89-9a1c-67516fa498dd"},"vehicle_type_id":"4","last_reported":1727996950,"current_range_meters":19600,"station_id":"ce4bh112rcd13ifvqd90","pricing_plan_id":"cebpf4jnsgd1na2vs0mg"},{"bike_id":"d0be878f-e464-4145-b731-583348ca8d98","system_id":"levelo_inurba_marseille","lat":43.272034,"lon":5.391931,"is_reserved":false,"is_disabled":false,"rental_uris":{"android":"levelo://app?vid=d0be878f-e464-4145-b731-583348ca8d98","ios":"levelo://app?vid=d0be878f-e464-4145-b731-583348ca8d98"},"vehicle_type_id":"4","last_reported":1727996950,"current_range_meters":37600,"station_id":"ce4bhhp2rcd13ifvqfm0","pricing_plan_id":"cebpf4jnsgd1na2vs0mg"},{"bike_id":"067137d1-b01e-4db3-8afa-dbe448ff1ea0","system_id":"levelo_inurba_marseille","lat":43.28614,"lon":5.35108,"is_reserved":false,"is_disabled":false,"rental_uris":{"android":"levelo://app?vid=067137d1-b01e-4db3-8afa-dbe448ff1ea0","ios":"levelo://app?vid=067137d1-b01e-4db3-8afa-dbe448ff1ea0"},"vehicle_type_id":"4","last_reported":1727996950,"current_range_meters":28800,"station_id":"ce4bhch2rcd13ifvqeug","pricing_plan_id":"cebpf4jnsgd1na2vs0mg"},{"bike_id":"e6b2df58-b4a0-4aec-933d-a62e42f34d34","system_id":"levelo_inurba_marseille","lat":43.33727,"lon":5.39188,"is_reserved":false,"is_disabled":false,"rental_uris":{"android":"levelo://app?vid=e6b2df58-b4a0-4aec-933d-a62e42f34d34","ios":"levelo://app?vid=e6b2df58-b4a0-4aec-933d-a62e42f34d34"},"vehicle_type_id":"4","last_reported":1727996950,"current_range_meters":24000,"station_id":"ce4bhr92rcd13ifvqhsg","pricing_plan_id":"cebpf4jnsgd1na2vs0mg"},{"bike_id":"c131d4d8-e8ae-449c-9601-db9ad4f71756","system_id":"levelo_inurba_marseille","lat":43.27992,"lon":5.4166,"is_reserved":false,"is_disabled":false,"rental_uris":{"android":"levelo://app?vid=c131d4d8-e8ae-449c-9601-db9ad4f71756","ios":"levelo://app?vid=c131d4d8-e8ae-449c-9601-db9ad4f71756"},"vehicle_type_id":"4","last_reported":1727996950,"current_range_meters":11200,"station_id":"ce4bho12rcd13ifvqh1g","pricing_plan_id":"cebpf4jnsgd1na2vs0mg"},{"bike_id":"b1caede3-9948-4c10-a88e-31db67871077","system_id":"levelo_inurba_marseille","lat":43.31356,"lon":5.38507,"is_reserved":false,"is_disabled":false,"rental_uris":{"android":"levelo://app?vid=b1caede3-9948-4c10-a88e-31db67871077","ios":"levelo://app?vid=b1caede3-9948-4c10-a88e-31db67871077"},"vehicle_type_id":"4","last_reported":1727996950,"current_range_meters":25600,"station_id":"ce4bgt92rcd13ifvqcf0","pricing_plan_id":"cebpf4jnsgd1na2vs0mg"},{"bike_id":"eb43ae52-3f5b-4a7e-9fa5-6a9c95a4cebb","system_id":"levelo_inurba_marseille","lat":43.24514,"lon":5.37352,"is_reserved":false,"is_disabled":false,"rental_uris":{"android":"levelo://app?vid=eb43ae52-3f5b-4a7e-9fa5-6a9c95a4cebb","ios":"levelo://app?vid=eb43ae52-3f5b-4a7e-9fa5-6a9c95a4cebb"},"vehicle_type_id":"4","last_reported":1727996950,"current_range_meters":19600,"station_id":"","pricing_plan_id":"cebpf4jnsgd1na2vs0mg"},{"bike_id":"3715e2ff-3565-400b-b6d0-957e7173a6d2","system_id":"levelo_inurba_marseille","lat":43.31116,"lon":5.37772,"is_reserved":false,"is_disabled":false,"rental_uris":{"android":"levelo://app?vid=3715e2ff-3565-400b-b6d0-957e7173a6d2","ios":"levelo://app?vid=3715e2ff-3565-400b-b6d0-957e7173a6d2"},"vehicle_type_id":"4","last_reported":1727996950,"current_range_meters":38800,"station_id":"ce4bgt92rcd13ifvqcg0","pricing_plan_id":"cebpf4jnsgd1na2vs0mg"},{"bike_id":"56287f66-1668-4a5d-b3e1-733e18339fb8","system_id":"levelo_inurba_marseille","lat":43.32374,"lon":5.38884,"is_reserved":false,"is_disabled":false,"rental_uris":{"android":"levelo://app?vid=56287f66-1668-4a5d-b3e1-733e18339fb8","ios":"levelo://app?vid=56287f66-1668-4a5d-b3e1-733e18339fb8"},"vehicle_type_id":"4","last_reported":1727996950,"current_range_meters":28000,"station_id":"ce4bhqp2rcd13ifvqhog","pricing_plan_id":"cebpf4jnsgd1na2vs0mg"},{"bike_id":"a2a4b699-3677-451a-9074-e0e839b6dd0f","system_id":"levelo_inurba_marseille","lat":43.30931,"lon":5.40149,"is_reserved":false,"is_disabled":false,"rental_uris":{"android":"levelo://app?vid=a2a4b699-3677-451a-9074-e0e839b6dd0f","ios":"levelo://app?vid=a2a4b699-3677-451a-9074-e0e839b6dd0f"},"vehicle_type_id":"4","last_reported":1727996950,"current_range_meters":38400,"station_id":"ce4bgvp2rcd13ifvqct0","pricing_plan_id":"cebpf4jnsgd1na2vs0mg"},{"bike_id":"240aabb2-d30a-4816-bf39-1f44da7634a0","system_id":"levelo_inurba_marseille","lat":43.30911,"lon":5.36858,"is_reserved":false,"is_disabled":false,"rental_uris":{"android":"levelo://app?vid=240aabb2-d30a-4816-bf39-1f44da7634a0","ios":"levelo://app?vid=240aabb2-d30a-4816-bf39-1f44da7634a0"},"vehicle_type_id":"4","last_reported":1727996950,"current_range_meters":29600,"station_id":"ce4bgn92rcd13ifvqbvg","pricing_plan_id":"cebpf4jnsgd1na2vs0mg"},{"bike_id":"b73551f1-4737-42f3-8efd-5f2fca843848","system_id":"levelo_inurba_marseille","lat":43.29893,"lon":5.4367,"is_reserved":false,"is_disabled":false,"rental_uris":{"android":"levelo://app?vid=b73551f1-4737-42f3-8efd-5f2fca843848","ios":"levelo://app?vid=b73551f1-4737-42f3-8efd-5f2fca843848"},"vehicle_type_id":"4","last_reported":1727996950,"current_range_meters":20800,"station_id":"ce4bhpp2rcd13ifvqhfg","pricing_plan_id":"cebpf4jnsgd1na2vs0mg"},{"bike_id":"9f044e34-f516-4aa5-a763-9660f8c5bdf8","system_id":"levelo_inurba_marseille","lat":43.26673,"lon":5.38272,"is_reserved":false,"is_disabled":false,"rental_uris":{"android":"levelo://app?vid=9f044e34-f516-4aa5-a763-9660f8c5bdf8","ios":"levelo://app?vid=9f044e34-f516-4aa5-a763-9660f8c5bdf8"},"vehicle_type_id":"4","last_reported":1727996950,"current_range_meters":16400,"station_id":"ce4bhg92rcd13ifvqf90","pricing_plan_id":"cebpf4jnsgd1na2vs0mg"},{"bike_id":"03ad1baf-eae9-4286-9758-a0f11ca86ec8","system_id":"levelo_inurba_marseille","lat":43.28417,"lon":5.37506,"is_reserved":false,"is_disabled":false,"rental_uris":{"android":"levelo://app?vid=03ad1baf-eae9-4286-9758-a0f11ca86ec8","ios":"levelo://app?vid=03ad1baf-eae9-4286-9758-a0f11ca86ec8"},"vehicle_type_id":"4","last_reported":1727996950,"current_range_meters":36000,"station_id":"ce4bh412rcd13ifvqds0","pricing_plan_id":"cebpf4jnsgd1na2vs0mg"},{"bike_id":"63bae4f0-02bd-4bdc-902b-51044b09603f","system_id":"levelo_inurba_marseille","lat":43.27618,"lon":5.36105,"is_reserved":false,"is_disabled":false,"rental_uris":{"android":"levelo://app?vid=63bae4f0-02bd-4bdc-902b-51044b09603f","ios":"levelo://app?vid=63bae4f0-02bd-4bdc-902b-51044b09603f"},"vehicle_type_id":"4","last_reported":1727996950,"current_range_meters":38000,"station_id":"ce4bgj92rcd13ifvqbe0","pricing_plan_id":"cebpf4jnsgd1na2vs0mg"},{"bike_id":"1d2f50f0-a92b-4cc3-8df7-4e1465139892","system_id":"levelo_inurba_marseille","lat":43.25577,"lon":5.3824,"is_reserved":false,"is_disabled":false,"rental_uris":{"android":"levelo://app?vid=1d2f50f0-a92b-4cc3-8df7-4e1465139892","ios":"levelo://app?vid=1d2f50f0-a92b-4cc3-8df7-4e1465139892"},"vehicle_type_id":"4","last_reported":1727996950,"current_range_meters":39200,"station_id":"ce4bhih2rcd13ifvqfs0","pricing_plan_id":"cebpf4jnsgd1na2vs0mg"},{"bike_id":"437efef6-ee24-442c-93f2-446ad8da25bb","system_id":"levelo_inurba_marseille","lat":43.255802,"lon":5.38242,"is_reserved":false,"is_disabled":false,"rental_uris":{"android":"levelo://app?vid=437efef6-ee24-442c-93f2-446ad8da25bb","ios":"levelo://app?vid=437efef6-ee24-442c-93f2-446ad8da25bb"},"vehicle_type_id":"4","last_reported":1727996950,"current_range_meters":32400,"station_id":"ce4bhih2rcd13ifvqfs0","pricing_plan_id":"cebpf4jnsgd1na2vs0mg"},{"bike_id":"756d993b-c10c-4b9d-8ae5-05c3e6b5e1b2","system_id":"levelo_inurba_marseille","lat":43.30807,"lon":5.38165,"is_reserved":false,"is_disabled":false,"rental_uris":{"android":"levelo://app?vid=756d993b-c10c-4b9d-8ae5-05c3e6b5e1b2","ios":"levelo://app?vid=756d993b-c10c-4b9d-8ae5-05c3e6b5e1b2"},"vehicle_type_id":"4","last_reported":1727996950,"current_range_meters":38800,"station_id":"ce4bgt12rcd13ifvqce0","pricing_plan_id":"cebpf4jnsgd1na2vs0mg"},{"bike_id":"a0feab16-2f1f-4214-9058-21d8b9b7774f","system_id":"levelo_inurba_marseille","lat":43.28,"lon":5.40962,"is_reserved":false,"is_disabled":false,"rental_uris":{"android":"levelo://app?vid=a0feab16-2f1f-4214-9058-21d8b9b7774f","ios":"levelo://app?vid=a0feab16-2f1f-4214-9058-21d8b9b7774f"},"vehicle_type_id":"4","last_reported":1727996950,"current_range_meters":12000,"station_id":"","pricing_plan_id":"cebpf4jnsgd1na2vs0mg"},{"bike_id":"6323c3ea-75d7-47ca-8873-1f720d264584","system_id":"levelo_inurba_marseille","lat":43.25498,"lon":5.37653,"is_reserved":false,"is_disabled":false,"rental_uris":{"android":"levelo://app?vid=6323c3ea-75d7-47ca-8873-1f720d264584","ios":"levelo://app?vid=6323c3ea-75d7-47ca-8873-1f720d264584"},"vehicle_type_id":"4","last_reported":1727996950,"current_range_meters":40000,"station_id":"ce4bhh12rcd13ifvqff0","pricing_plan_id":"cebpf4jnsgd1na2vs0mg"},{"bike_id":"0d38caac-4e1b-4bc6-8634-fba8549655ca","system_id":"levelo_inurba_marseille","lat":43.32109,"lon":5.36773,"is_reserved":false,"is_disabled":false,"rental_uris":{"android":"levelo://app?vid=0d38caac-4e1b-4bc6-8634-fba8549655ca","ios":"levelo://app?vid=0d38caac-4e1b-4bc6-8634-fba8549655ca"},"vehicle_type_id":"4","last_reported":1727996950,"current_range_meters":34000,"station_id":"ce4bhrh2rcd13ifvqhug","pricing_plan_id":"cebpf4jnsgd1na2vs0mg"},{"bike_id":"8fa7713f-cf0d-4b8a-b6f2-cb38acd9ee7c","system_id":"levelo_inurba_marseille","lat":43.29631,"lon":5.40604,"is_reserved":false,"is_disabled":false,"rental_uris":{"android":"levelo://app?vid=8fa7713f-cf0d-4b8a-b6f2-cb38acd9ee7c","ios":"levelo://app?vid=8fa7713f-cf0d-4b8a-b6f2-cb38acd9ee7c"},"vehicle_type_id":"4","last_reported":1727996950,"current_range_meters":12400,"station_id":"ce4bh0h2rcd13ifvqd60","pricing_plan_id":"cebpf4jnsgd1na2vs0mg"},{"bike_id":"f15749ef-8afe-4d39-89e7-4e320961fb28","system_id":"levelo_inurba_marseille","lat":43.24066,"lon":5.37767,"is_reserved":false,"is_disabled":false,"rental_uris":{"android":"levelo://app?vid=f15749ef-8afe-4d39-89e7-4e320961fb28","ios":"levelo://app?vid=f15749ef-8afe-4d39-89e7-4e320961fb28"},"vehicle_type_id":"4","last_reported":1727996950,"current_range_meters":14000,"station_id":"ce4bhnp2rcd13ifvqgvg","pricing_plan_id":"cebpf4jnsgd1na2vs0mg"},{"bike_id":"afcafeaa-39b2-4599-b1ca-199f1988c081","system_id":"levelo_inurba_marseille","lat":43.2963,"lon":5.406,"is_reserved":false,"is_disabled":false,"rental_uris":{"android":"levelo://app?vid=afcafeaa-39b2-4599-b1ca-199f1988c081","ios":"levelo://app?vid=afcafeaa-39b2-4599-b1ca-199f1988c081"},"vehicle_type_id":"4","last_reported":1727996950,"current_range_meters":40000,"station_id":"ce4bh0h2rcd13ifvqd60","pricing_plan_id":"cebpf4jnsgd1na2vs0mg"},{"bike_id":"f6139423-9a75-4754-aa4b-50bb61259845","system_id":"levelo_inurba_marseille","lat":43.31698,"lon":5.40476,"is_reserved":false,"is_disabled":false,"rental_uris":{"android":"levelo://app?vid=f6139423-9a75-4754-aa4b-50bb61259845","ios":"levelo://app?vid=f6139423-9a75-4754-aa4b-50bb61259845"},"vehicle_type_id":"4","last_reported":1727996950,"current_range_meters":27600,"station_id":"ce4bh012rcd13ifvqd00","pricing_plan_id":"cebpf4jnsgd1na2vs0mg"},{"bike_id":"499cb64c-6fb8-4407-89d8-a118e3c5c28d","system_id":"levelo_inurba_marseille","lat":43.28002,"lon":5.4001,"is_reserved":false,"is_disabled":false,"rental_uris":{"android":"levelo://app?vid=499cb64c-6fb8-4407-89d8-a118e3c5c28d","ios":"levelo://app?vid=499cb64c-6fb8-4407-89d8-a118e3c5c28d"},"vehicle_type_id":"4","last_reported":1727996950,"current_range_meters":17600,"station_id":"ce4bho92rcd13ifvqh4g","pricing_plan_id":"cebpf4jnsgd1na2vs0mg"},{"bike_id":"af18da6e-0ce8-4386-a6fd-0590c5b3a4ee","system_id":"levelo_inurba_marseille","lat":43.26798,"lon":5.40271,"is_reserved":false,"is_disabled":false,"rental_uris":{"android":"levelo://app?vid=af18da6e-0ce8-4386-a6fd-0590c5b3a4ee","ios":"levelo://app?vid=af18da6e-0ce8-4386-a6fd-0590c5b3a4ee"},"vehicle_type_id":"4","last_reported":1727996950,"current_range_meters":37600,"station_id":"ce501612rcd8frsf0b60","pricing_plan_id":"cebpf4jnsgd1na2vs0mg"},{"bike_id":"ad9d6e94-a639-469e-9892-0c7fed511f97","system_id":"levelo_inurba_marseille","lat":43.26554,"lon":5.37287,"is_reserved":false,"is_disabled":false,"rental_uris":{"android":"levelo://app?vid=ad9d6e94-a639-469e-9892-0c7fed511f97","ios":"levelo://app?vid=ad9d6e94-a639-469e-9892-0c7fed511f97"},"vehicle_type_id":"4","last_reported":1727996950,"current_range_meters":18000,"station_id":"ce4bhg12rcd13ifvqf70","pricing_plan_id":"cebpf4jnsgd1na2vs0mg"},{"bike_id":"fb07b73d-1fe0-4362-85ce-064ce87af344","system_id":"levelo_inurba_marseille","lat":43.29843,"lon":5.36278,"is_reserved":false,"is_disabled":false,"rental_uris":{"android":"levelo://app?vid=fb07b73d-1fe0-4362-85ce-064ce87af344","ios":"levelo://app?vid=fb07b73d-1fe0-4362-85ce-064ce87af344"},"vehicle_type_id":"4","last_reported":1727996950,"current_range_meters":38800,"station_id":"ce4bgpp2rcd13ifvqc3g","pricing_plan_id":"cebpf4jnsgd1na2vs0mg"},{"bike_id":"ba7a26e7-2ef9-45d4-a227-c30073b5b405","system_id":"levelo_inurba_marseille","lat":43.28671,"lon":5.36347,"is_reserved":false,"is_disabled":false,"rental_uris":{"android":"levelo://app?vid=ba7a26e7-2ef9-45d4-a227-c30073b5b405","ios":"levelo://app?vid=ba7a26e7-2ef9-45d4-a227-c30073b5b405"},"vehicle_type_id":"4","last_reported":1727996950,"current_range_meters":6800,"station_id":"ce4bhah2rcd13ifvqej0","pricing_plan_id":"cebpf4jnsgd1na2vs0mg"},{"bike_id":"55b4e69b-82c1-413f-9c45-a3e32bf02909","system_id":"levelo_inurba_marseille","lat":43.2827,"lon":5.3507,"is_reserved":false,"is_disabled":false,"rental_uris":{"android":"levelo://app?vid=55b4e69b-82c1-413f-9c45-a3e32bf02909","ios":"levelo://app?vid=55b4e69b-82c1-413f-9c45-a3e32bf02909"},"vehicle_type_id":"4","last_reported":1727996950,"current_range_meters":18800,"station_id":"ce4bhbp2rcd13ifvqerg","pricing_plan_id":"cebpf4jnsgd1na2vs0mg"},{"bike_id":"ffa2a68d-7022-4ec2-b2b3-886d4fb8d964","system_id":"levelo_inurba_marseille","lat":43.24261,"lon":5.37968,"is_reserved":false,"is_disabled":false,"rental_uris":{"android":"levelo://app?vid=ffa2a68d-7022-4ec2-b2b3-886d4fb8d964","ios":"levelo://app?vid=ffa2a68d-7022-4ec2-b2b3-886d4fb8d964"},"vehicle_type_id":"4","last_reported":1727996950,"current_range_meters":31200,"station_id":"ce4bhm12rcd13ifvqgkg","pricing_plan_id":"cebpf4jnsgd1na2vs0mg"},{"bike_id":"3c7a2902-2493-40b4-9959-f32e7d43a5eb","system_id":"levelo_inurba_marseille","lat":43.282735,"lon":5.350703,"is_reserved":false,"is_disabled":false,"rental_uris":{"android":"levelo://app?vid=3c7a2902-2493-40b4-9959-f32e7d43a5eb","ios":"levelo://app?vid=3c7a2902-2493-40b4-9959-f32e7d43a5eb"},"vehicle_type_id":"4","last_reported":1727996950,"current_range_meters":26800,"station_id":"ce4bhbp2rcd13ifvqerg","pricing_plan_id":"cebpf4jnsgd1na2vs0mg"},{"bike_id":"9ffef3f2-f17f-4b2c-ac23-bb89887beead","system_id":"levelo_inurba_marseille","lat":43.32332,"lon":5.40614,"is_reserved":false,"is_disabled":false,"rental_uris":{"android":"levelo://app?vid=9ffef3f2-f17f-4b2c-ac23-bb89887beead","ios":"levelo://app?vid=9ffef3f2-f17f-4b2c-ac23-bb89887beead"},"vehicle_type_id":"4","last_reported":1727996950,"current_range_meters":16000,"station_id":"ce4bhq92rcd13ifvqhjg","pricing_plan_id":"cebpf4jnsgd1na2vs0mg"},{"bike_id":"7bfb5721-baf3-4893-bbf9-7c8112a113a1","system_id":"levelo_inurba_marseille","lat":43.27993,"lon":5.40008,"is_reserved":false,"is_disabled":false,"rental_uris":{"android":"levelo://app?vid=7bfb5721-baf3-4893-bbf9-7c8112a113a1","ios":"levelo://app?vid=7bfb5721-baf3-4893-bbf9-7c8112a113a1"},"vehicle_type_id":"4","last_reported":1727996950,"current_range_meters":31200,"station_id":"ce4bho92rcd13ifvqh4g","pricing_plan_id":"cebpf4jnsgd1na2vs0mg"},{"bike_id":"8e7ae72a-2bb9-49f2-9500-cfb31a4b07a4","system_id":"levelo_inurba_marseille","lat":43.28038,"lon":5.36946,"is_reserved":false,"is_disabled":false,"rental_uris":{"android":"levelo://app?vid=8e7ae72a-2bb9-49f2-9500-cfb31a4b07a4","ios":"levelo://app?vid=8e7ae72a-2bb9-49f2-9500-cfb31a4b07a4"},"vehicle_type_id":"4","last_reported":1727996950,"current_range_meters":7200,"station_id":"ce4bha12rcd13ifvqef0","pricing_plan_id":"cebpf4jnsgd1na2vs0mg"},{"bike_id":"0fc7ae8d-9102-4d20-8337-a47ebec4b5f1","system_id":"levelo_inurba_marseille","lat":43.32542,"lon":5.41445,"is_reserved":false,"is_disabled":false,"rental_uris":{"android":"levelo://app?vid=0fc7ae8d-9102-4d20-8337-a47ebec4b5f1","ios":"levelo://app?vid=0fc7ae8d-9102-4d20-8337-a47ebec4b5f1"},"vehicle_type_id":"4","last_reported":1727996950,"current_range_meters":38800,"station_id":"ce4bhq12rcd13ifvqhhg","pricing_plan_id":"cebpf4jnsgd1na2vs0mg"},{"bike_id":"2b824457-e386-4df9-8146-0a41d729db4a","system_id":"levelo_inurba_marseille","lat":43.30784,"lon":5.37654,"is_reserved":false,"is_disabled":false,"rental_uris":{"android":"levelo://app?vid=2b824457-e386-4df9-8146-0a41d729db4a","ios":"levelo://app?vid=2b824457-e386-4df9-8146-0a41d729db4a"},"vehicle_type_id":"4","last_reported":1727996950,"current_range_meters":38000,"station_id":"ce4bgv92rcd13ifvqcq0","pricing_plan_id":"cebpf4jnsgd1na2vs0mg"},{"bike_id":"c4a694ed-b119-43fd-b736-9507c42cc0cb","system_id":"levelo_inurba_marseille","lat":43.23186,"lon":5.39991,"is_reserved":false,"is_disabled":false,"rental_uris":{"android":"levelo://app?vid=c4a694ed-b119-43fd-b736-9507c42cc0cb","ios":"levelo://app?vid=c4a694ed-b119-43fd-b736-9507c42cc0cb"},"vehicle_type_id":"4","last_reported":1727996950,"current_range_meters":25600,"station_id":"ce4bhn12rcd13ifvqgqg","pricing_plan_id":"cebpf4jnsgd1na2vs0mg"},{"bike_id":"436ec581-bc08-4c61-976c-4d412b910106","system_id":"levelo_inurba_marseille","lat":43.30326,"lon":5.4043,"is_reserved":false,"is_disabled":false,"rental_uris":{"android":"levelo://app?vid=436ec581-bc08-4c61-976c-4d412b910106","ios":"levelo://app?vid=436ec581-bc08-4c61-976c-4d412b910106"},"vehicle_type_id":"4","last_reported":1727996950,"current_range_meters":17600,"station_id":"ce4bh012rcd13ifvqd10","pricing_plan_id":"cebpf4jnsgd1na2vs0mg"},{"bike_id":"5b7b7f31-2ad6-409b-8235-1bb722bdf0ca","system_id":"levelo_inurba_marseille","lat":43.23957,"lon":5.36631,"is_reserved":false,"is_disabled":false,"rental_uris":{"android":"levelo://app?vid=5b7b7f31-2ad6-409b-8235-1bb722bdf0ca","ios":"levelo://app?vid=5b7b7f31-2ad6-409b-8235-1bb722bdf0ca"},"vehicle_type_id":"4","last_reported":1727996950,"current_range_meters":20000,"station_id":"ce4bhi12rcd13ifvqfp0","pricing_plan_id":"cebpf4jnsgd1na2vs0mg"},{"bike_id":"2e5684a8-9893-45df-af0c-ae283ad85bea","system_id":"levelo_inurba_marseille","lat":43.30788,"lon":5.37654,"is_reserved":false,"is_disabled":false,"rental_uris":{"android":"levelo://app?vid=2e5684a8-9893-45df-af0c-ae283ad85bea","ios":"levelo://app?vid=2e5684a8-9893-45df-af0c-ae283ad85bea"},"vehicle_type_id":"4","last_reported":1727996950,"current_range_meters":31200,"station_id":"ce4bgv92rcd13ifvqcq0","pricing_plan_id":"cebpf4jnsgd1na2vs0mg"},{"bike_id":"55451df6-dc38-4862-8a04-e6a956919556","system_id":"levelo_inurba_marseille","lat":43.31274,"lon":5.40166,"is_reserved":false,"is_disabled":false,"rental_uris":{"android":"levelo://app?vid=55451df6-dc38-4862-8a04-e6a956919556","ios":"levelo://app?vid=55451df6-dc38-4862-8a04-e6a956919556"},"vehicle_type_id":"4","last_reported":1727996950,"current_range_meters":29600,"station_id":"ce4bh092rcd13ifvqd30","pricing_plan_id":"cebpf4jnsgd1na2vs0mg"},{"bike_id":"85a60867-0292-479f-99a9-23810b153b98","system_id":"levelo_inurba_marseille","lat":43.2707,"lon":5.42282,"is_reserved":false,"is_disabled":false,"rental_uris":{"android":"levelo://app?vid=85a60867-0292-479f-99a9-23810b153b98","ios":"levelo://app?vid=85a60867-0292-479f-99a9-23810b153b98"},"vehicle_type_id":"4","last_reported":1727996950,"current_range_meters":11600,"station_id":"ce4bhk92rcd13ifvqgb0","pricing_plan_id":"cebpf4jnsgd1na2vs0mg"},{"bike_id":"4d7b92bd-fb4a-4851-9d74-ec38fbbbdb1b","system_id":"levelo_inurba_marseille","lat":43.337444,"lon":5.374475,"is_reserved":false,"is_disabled":false,"rental_uris":{"android":"levelo://app?vid=4d7b92bd-fb4a-4851-9d74-ec38fbbbdb1b","ios":"levelo://app?vid=4d7b92bd-fb4a-4851-9d74-ec38fbbbdb1b"},"vehicle_type_id":"4","last_reported":1727996950,"current_range_meters":34000,"station_id":"","pricing_plan_id":"cebpf4jnsgd1na2vs0mg"},{"bike_id":"32ea957b-6ef9-49f4-bead-782ac259c075","system_id":"levelo_inurba_marseille","lat":43.27915,"lon":5.39583,"is_reserved":false,"is_disabled":false,"rental_uris":{"android":"levelo://app?vid=32ea957b-6ef9-49f4-bead-782ac259c075","ios":"levelo://app?vid=32ea957b-6ef9-49f4-bead-782ac259c075"},"vehicle_type_id":"4","last_reported":1727996950,"current_range_meters":33600,"station_id":"ce4bhf92rcd13ifvqf40","pricing_plan_id":"cebpf4jnsgd1na2vs0mg"},{"bike_id":"ec41ce8f-447e-45bb-b5eb-d60c1588620c","system_id":"levelo_inurba_marseille","lat":43.28347,"lon":5.38105,"is_reserved":false,"is_disabled":false,"rental_uris":{"android":"levelo://app?vid=ec41ce8f-447e-45bb-b5eb-d60c1588620c","ios":"levelo://app?vid=ec41ce8f-447e-45bb-b5eb-d60c1588620c"},"vehicle_type_id":"4","last_reported":1727996950,"current_range_meters":32000,"station_id":"ce4bh412rcd13ifvqdr0","pricing_plan_id":"cebpf4jnsgd1na2vs0mg"},{"bike_id":"526110d2-a906-4bd7-a546-c4b5387f9ebb","system_id":"levelo_inurba_marseille","lat":43.31176,"lon":5.38718,"is_reserved":false,"is_disabled":false,"rental_uris":{"android":"levelo://app?vid=526110d2-a906-4bd7-a546-c4b5387f9ebb","ios":"levelo://app?vid=526110d2-a906-4bd7-a546-c4b5387f9ebb"},"vehicle_type_id":"4","last_reported":1727996950,"current_range_meters":24800,"station_id":"ce4bgv12rcd13ifvqcp0","pricing_plan_id":"cebpf4jnsgd1na2vs0mg"},{"bike_id":"73a8aa32-122e-42e5-a71f-815d06db8ffe","system_id":"levelo_inurba_marseille","lat":43.28101,"lon":5.37839,"is_reserved":false,"is_disabled":false,"rental_uris":{"android":"levelo://app?vid=73a8aa32-122e-42e5-a71f-815d06db8ffe","ios":"levelo://app?vid=73a8aa32-122e-42e5-a71f-815d06db8ffe"},"vehicle_type_id":"4","last_reported":1727996950,"current_range_meters":37600,"station_id":"ce4bha12rcd13ifvqee0","pricing_plan_id":"cebpf4jnsgd1na2vs0mg"},{"bike_id":"0c3863dd-5bcb-40ad-bc6c-60f5392a528a","system_id":"levelo_inurba_marseille","lat":43.28661,"lon":5.36351,"is_reserved":false,"is_disabled":false,"rental_uris":{"android":"levelo://app?vid=0c3863dd-5bcb-40ad-bc6c-60f5392a528a","ios":"levelo://app?vid=0c3863dd-5bcb-40ad-bc6c-60f5392a528a"},"vehicle_type_id":"4","last_reported":1727996950,"current_range_meters":40000,"station_id":"ce4bhah2rcd13ifvqej0","pricing_plan_id":"cebpf4jnsgd1na2vs0mg"},{"bike_id":"9259589a-427f-4ada-ba20-e0a1ac34b652","system_id":"levelo_inurba_marseille","lat":43.28838,"lon":5.35844,"is_reserved":false,"is_disabled":false,"rental_uris":{"android":"levelo://app?vid=9259589a-427f-4ada-ba20-e0a1ac34b652","ios":"levelo://app?vid=9259589a-427f-4ada-ba20-e0a1ac34b652"},"vehicle_type_id":"4","last_reported":1727996950,"current_range_meters":8400,"station_id":"ce4bhb12rcd13ifvqem0","pricing_plan_id":"cebpf4jnsgd1na2vs0mg"},{"bike_id":"ebdbb6b1-6d67-4fd7-840a-5f2c87792587","system_id":"levelo_inurba_marseille","lat":43.28699,"lon":5.39975,"is_reserved":false,"is_disabled":false,"rental_uris":{"android":"levelo://app?vid=ebdbb6b1-6d67-4fd7-840a-5f2c87792587","ios":"levelo://app?vid=ebdbb6b1-6d67-4fd7-840a-5f2c87792587"},"vehicle_type_id":"4","last_reported":1727996950,"current_range_meters":29600,"station_id":"ce4bho92rcd13ifvqh3g","pricing_plan_id":"cebpf4jnsgd1na2vs0mg"},{"bike_id":"2e02cc92-145f-42bf-ae64-18ae7f48ff66","system_id":"levelo_inurba_marseille","lat":43.28408,"lon":5.37532,"is_reserved":false,"is_disabled":false,"rental_uris":{"android":"levelo://app?vid=2e02cc92-145f-42bf-ae64-18ae7f48ff66","ios":"levelo://app?vid=2e02cc92-145f-42bf-ae64-18ae7f48ff66"},"vehicle_type_id":"4","last_reported":1727996950,"current_range_meters":36000,"station_id":"ce4bh412rcd13ifvqds0","pricing_plan_id":"cebpf4jnsgd1na2vs0mg"},{"bike_id":"e8b8d4c8-39b2-44d6-8746-b10d06ad76b6","system_id":"levelo_inurba_marseille","lat":43.31529,"lon":5.38028,"is_reserved":false,"is_disabled":false,"rental_uris":{"android":"levelo://app?vid=e8b8d4c8-39b2-44d6-8746-b10d06ad76b6","ios":"levelo://app?vid=e8b8d4c8-39b2-44d6-8746-b10d06ad76b6"},"vehicle_type_id":"4","last_reported":1727996950,"current_range_meters":38800,"station_id":"ce4bhsp2rcd13ifvqi50","pricing_plan_id":"cebpf4jnsgd1na2vs0mg"},{"bike_id":"a0c60498-8205-49ae-a217-2091105b46fa","system_id":"levelo_inurba_marseille","lat":43.29848,"lon":5.36284,"is_reserved":false,"is_disabled":false,"rental_uris":{"android":"levelo://app?vid=a0c60498-8205-49ae-a217-2091105b46fa","ios":"levelo://app?vid=a0c60498-8205-49ae-a217-2091105b46fa"},"vehicle_type_id":"4","last_reported":1727996950,"current_range_meters":38800,"station_id":"ce4bgpp2rcd13ifvqc3g","pricing_plan_id":"cebpf4jnsgd1na2vs0mg"},{"bike_id":"4a5b4e70-55fd-4222-918a-b99e2fd0d8e3","system_id":"levelo_inurba_marseille","lat":43.31686,"lon":5.40469,"is_reserved":false,"is_disabled":false,"rental_uris":{"android":"levelo://app?vid=4a5b4e70-55fd-4222-918a-b99e2fd0d8e3","ios":"levelo://app?vid=4a5b4e70-55fd-4222-918a-b99e2fd0d8e3"},"vehicle_type_id":"4","last_reported":1727996950,"current_range_meters":38800,"station_id":"ce4bh012rcd13ifvqd00","pricing_plan_id":"cebpf4jnsgd1na2vs0mg"},{"bike_id":"fcd79e8f-410f-4dbf-8def-d1f9fed3ec4c","system_id":"levelo_inurba_marseille","lat":43.2511,"lon":5.40314,"is_reserved":false,"is_disabled":false,"rental_uris":{"android":"levelo://app?vid=fcd79e8f-410f-4dbf-8def-d1f9fed3ec4c","ios":"levelo://app?vid=fcd79e8f-410f-4dbf-8def-d1f9fed3ec4c"},"vehicle_type_id":"4","last_reported":1727996950,"current_range_meters":38800,"station_id":"ce4bhlh2rcd13ifvqgig","pricing_plan_id":"cebpf4jnsgd1na2vs0mg"},{"bike_id":"781757d6-91df-4aa1-afd2-cfd41967db46","system_id":"levelo_inurba_marseille","lat":43.25003,"lon":5.38927,"is_reserved":false,"is_disabled":false,"rental_uris":{"android":"levelo://app?vid=781757d6-91df-4aa1-afd2-cfd41967db46","ios":"levelo://app?vid=781757d6-91df-4aa1-afd2-cfd41967db46"},"vehicle_type_id":"4","last_reported":1727996950,"current_range_meters":12400,"station_id":"ce4bhgp2rcd13ifvqfd0","pricing_plan_id":"cebpf4jnsgd1na2vs0mg"},{"bike_id":"f524501b-97a9-49f6-b290-d3c0acde9c9b","system_id":"levelo_inurba_marseille","lat":43.32056,"lon":5.4154,"is_reserved":false,"is_disabled":false,"rental_uris":{"android":"levelo://app?vid=f524501b-97a9-49f6-b290-d3c0acde9c9b","ios":"levelo://app?vid=f524501b-97a9-49f6-b290-d3c0acde9c9b"},"vehicle_type_id":"4","last_reported":1727996950,"current_range_meters":17600,"station_id":"ce4bhq92rcd13ifvqhkg","pricing_plan_id":"cebpf4jnsgd1na2vs0mg"},{"bike_id":"d569267f-419a-4d36-a732-0ebbc564ff43","system_id":"levelo_inurba_marseille","lat":43.26207,"lon":5.37921,"is_reserved":false,"is_disabled":false,"rental_uris":{"android":"levelo://app?vid=d569267f-419a-4d36-a732-0ebbc564ff43","ios":"levelo://app?vid=d569267f-419a-4d36-a732-0ebbc564ff43"},"vehicle_type_id":"4","last_reported":1727996950,"current_range_meters":38800,"station_id":"ce4bhjp2rcd13ifvqg90","pricing_plan_id":"cebpf4jnsgd1na2vs0mg"},{"bike_id":"fd872ba7-9877-4e67-9269-d8995abba644","system_id":"levelo_inurba_marseille","lat":43.22936,"lon":5.35377,"is_reserved":false,"is_disabled":false,"rental_uris":{"android":"levelo://app?vid=fd872ba7-9877-4e67-9269-d8995abba644","ios":"levelo://app?vid=fd872ba7-9877-4e67-9269-d8995abba644"},"vehicle_type_id":"4","last_reported":1727996950,"current_range_meters":24000,"station_id":"cpo3532slgdg3j2ikp40","pricing_plan_id":"cebpf4jnsgd1na2vs0mg"},{"bike_id":"9fb86a20-7907-4afc-930c-d46f6a76a1d1","system_id":"levelo_inurba_marseille","lat":43.30868,"lon":5.39634,"is_reserved":false,"is_disabled":false,"rental_uris":{"android":"levelo://app?vid=9fb86a20-7907-4afc-930c-d46f6a76a1d1","ios":"levelo://app?vid=9fb86a20-7907-4afc-930c-d46f6a76a1d1"},"vehicle_type_id":"4","last_reported":1727996950,"current_range_meters":38800,"station_id":"ce4bh012rcd13ifvqcv0","pricing_plan_id":"cebpf4jnsgd1na2vs0mg"},{"bike_id":"91913e38-2c79-4744-bc0b-e9ceeafdd2e6","system_id":"levelo_inurba_marseille","lat":43.29226,"lon":5.36065,"is_reserved":false,"is_disabled":false,"rental_uris":{"android":"levelo://app?vid=91913e38-2c79-4744-bc0b-e9ceeafdd2e6","ios":"levelo://app?vid=91913e38-2c79-4744-bc0b-e9ceeafdd2e6"},"vehicle_type_id":"4","last_reported":1727996950,"current_range_meters":38800,"station_id":"ce4bhbh2rcd13ifvqeqg","pricing_plan_id":"cebpf4jnsgd1na2vs0mg"},{"bike_id":"c1b845b1-b148-48e3-b795-440066e77ead","system_id":"levelo_inurba_marseille","lat":43.30552,"lon":5.36713,"is_reserved":false,"is_disabled":false,"rental_uris":{"android":"levelo://app?vid=c1b845b1-b148-48e3-b795-440066e77ead","ios":"levelo://app?vid=c1b845b1-b148-48e3-b795-440066e77ead"},"vehicle_type_id":"4","last_reported":1727996950,"current_range_meters":38800,"station_id":"ce4bgrp2rcd13ifvqc9g","pricing_plan_id":"cebpf4jnsgd1na2vs0mg"},{"bike_id":"1dff6269-77de-4259-8d5b-2ea73afb5126","system_id":"levelo_inurba_marseille","lat":43.24666,"lon":5.38163,"is_reserved":false,"is_disabled":false,"rental_uris":{"android":"levelo://app?vid=1dff6269-77de-4259-8d5b-2ea73afb5126","ios":"levelo://app?vid=1dff6269-77de-4259-8d5b-2ea73afb5126"},"vehicle_type_id":"4","last_reported":1727996950,"current_range_meters":38800,"station_id":"ce4bhih2rcd13ifvqfr0","pricing_plan_id":"cebpf4jnsgd1na2vs0mg"},{"bike_id":"702e9c55-751f-4ce7-a531-616a3a8345a6","system_id":"levelo_inurba_marseille","lat":43.30413,"lon":5.41284,"is_reserved":false,"is_disabled":false,"rental_uris":{"android":"levelo://app?vid=702e9c55-751f-4ce7-a531-616a3a8345a6","ios":"levelo://app?vid=702e9c55-751f-4ce7-a531-616a3a8345a6"},"vehicle_type_id":"4","last_reported":1727996950,"current_range_meters":24800,"station_id":"ce4bhop2rcd13ifvqh8g","pricing_plan_id":"cebpf4jnsgd1na2vs0mg"},{"bike_id":"08f8d884-ea33-4876-95c5-27ca37eb95d1","system_id":"levelo_inurba_marseille","lat":43.297918,"lon":5.393496,"is_reserved":false,"is_disabled":false,"rental_uris":{"android":"levelo://app?vid=08f8d884-ea33-4876-95c5-27ca37eb95d1","ios":"levelo://app?vid=08f8d884-ea33-4876-95c5-27ca37eb95d1"},"vehicle_type_id":"4","last_reported":1727996950,"current_range_meters":38000,"station_id":"chh1huq6cuj3fo74tm60","pricing_plan_id":"cebpf4jnsgd1na2vs0mg"},{"bike_id":"9c245083-b5d5-467e-999e-3b86c3163f23","system_id":"levelo_inurba_marseille","lat":43.28457,"lon":5.35894,"is_reserved":false,"is_disabled":false,"rental_uris":{"android":"levelo://app?vid=9c245083-b5d5-467e-999e-3b86c3163f23","ios":"levelo://app?vid=9c245083-b5d5-467e-999e-3b86c3163f23"},"vehicle_type_id":"4","last_reported":1727996950,"current_range_meters":40000,"station_id":"ce4bhah2rcd13ifvqei0","pricing_plan_id":"cebpf4jnsgd1na2vs0mg"},{"bike_id":"1528896e-590d-45aa-930c-f5e190969a0b","system_id":"levelo_inurba_marseille","lat":43.28082,"lon":5.39643,"is_reserved":false,"is_disabled":false,"rental_uris":{"android":"levelo://app?vid=1528896e-590d-45aa-930c-f5e190969a0b","ios":"levelo://app?vid=1528896e-590d-45aa-930c-f5e190969a0b"},"vehicle_type_id":"4","last_reported":1727996950,"current_range_meters":38000,"station_id":"ce4bho12rcd13ifvqh2g","pricing_plan_id":"cebpf4jnsgd1na2vs0mg"},{"bike_id":"2bc06e6f-9d5f-4eeb-b0d9-84fb37e9f025","system_id":"levelo_inurba_marseille","lat":43.27902,"lon":5.3801,"is_reserved":false,"is_disabled":false,"rental_uris":{"android":"levelo://app?vid=2bc06e6f-9d5f-4eeb-b0d9-84fb37e9f025","ios":"levelo://app?vid=2bc06e6f-9d5f-4eeb-b0d9-84fb37e9f025"},"vehicle_type_id":"4","last_reported":1727996950,"current_range_meters":7200,"station_id":"ce4bhf92rcd13ifvqf50","pricing_plan_id":"cebpf4jnsgd1na2vs0mg"},{"bike_id":"b8248326-5d04-423d-9724-3a953d4e8c2c","system_id":"levelo_inurba_marseille","lat":43.28454,"lon":5.35896,"is_reserved":false,"is_disabled":false,"rental_uris":{"android":"levelo://app?vid=b8248326-5d04-423d-9724-3a953d4e8c2c","ios":"levelo://app?vid=b8248326-5d04-423d-9724-3a953d4e8c2c"},"vehicle_type_id":"4","last_reported":1727996950,"current_range_meters":12800,"station_id":"ce4bhah2rcd13ifvqei0","pricing_plan_id":"cebpf4jnsgd1na2vs0mg"},{"bike_id":"a8287693-ee1a-4e37-8147-45dd88d7f731","system_id":"levelo_inurba_marseille","lat":43.28073,"lon":5.39638,"is_reserved":false,"is_disabled":false,"rental_uris":{"android":"levelo://app?vid=a8287693-ee1a-4e37-8147-45dd88d7f731","ios":"levelo://app?vid=a8287693-ee1a-4e37-8147-45dd88d7f731"},"vehicle_type_id":"4","last_reported":1727996950,"current_range_meters":4000,"station_id":"ce4bho12rcd13ifvqh2g","pricing_plan_id":"cebpf4jnsgd1na2vs0mg"},{"bike_id":"ac4e8631-b912-40d0-afbd-f7e7f710a14c","system_id":"levelo_inurba_marseille","lat":43.2922,"lon":5.36078,"is_reserved":false,"is_disabled":false,"rental_uris":{"android":"levelo://app?vid=ac4e8631-b912-40d0-afbd-f7e7f710a14c","ios":"levelo://app?vid=ac4e8631-b912-40d0-afbd-f7e7f710a14c"},"vehicle_type_id":"4","last_reported":1727996950,"current_range_meters":38800,"station_id":"ce4bhbh2rcd13ifvqeqg","pricing_plan_id":"cebpf4jnsgd1na2vs0mg"},{"bike_id":"1a757c2e-e169-407e-a0ea-0da4d6016afe","system_id":"levelo_inurba_marseille","lat":43.26552,"lon":5.37287,"is_reserved":false,"is_disabled":false,"rental_uris":{"android":"levelo://app?vid=1a757c2e-e169-407e-a0ea-0da4d6016afe","ios":"levelo://app?vid=1a757c2e-e169-407e-a0ea-0da4d6016afe"},"vehicle_type_id":"4","last_reported":1727996950,"current_range_meters":29600,"station_id":"ce4bhg12rcd13ifvqf70","pricing_plan_id":"cebpf4jnsgd1na2vs0mg"},{"bike_id":"92b5c022-a316-4370-85f1-cd9056a17cee","system_id":"levelo_inurba_marseille","lat":43.298713,"lon":5.397427,"is_reserved":false,"is_disabled":false,"rental_uris":{"android":"levelo://app?vid=92b5c022-a316-4370-85f1-cd9056a17cee","ios":"levelo://app?vid=92b5c022-a316-4370-85f1-cd9056a17cee"},"vehicle_type_id":"4","last_reported":1727996950,"current_range_meters":12800,"station_id":"ce4bh0h2rcd13ifvqd50","pricing_plan_id":"cebpf4jnsgd1na2vs0mg"},{"bike_id":"74e09656-989f-417c-8e64-04011ab80207","system_id":"levelo_inurba_marseille","lat":43.32334,"lon":5.40615,"is_reserved":false,"is_disabled":false,"rental_uris":{"android":"levelo://app?vid=74e09656-989f-417c-8e64-04011ab80207","ios":"levelo://app?vid=74e09656-989f-417c-8e64-04011ab80207"},"vehicle_type_id":"4","last_reported":1727996950,"current_range_meters":6000,"station_id":"ce4bhq92rcd13ifvqhjg","pricing_plan_id":"cebpf4jnsgd1na2vs0mg"},{"bike_id":"5a02f645-9cc6-4f35-9970-15f726b82b63","system_id":"levelo_inurba_marseille","lat":43.25083,"lon":5.39517,"is_reserved":false,"is_disabled":false,"rental_uris":{"android":"levelo://app?vid=5a02f645-9cc6-4f35-9970-15f726b82b63","ios":"levelo://app?vid=5a02f645-9cc6-4f35-9970-15f726b82b63"},"vehicle_type_id":"4","last_reported":1727996950,"current_range_meters":32000,"station_id":"ce4bhm12rcd13ifvqgkg","pricing_plan_id":"cebpf4jnsgd1na2vs0mg"},{"bike_id":"4061a425-0fa8-4b85-ba2e-dd23d5b416e9","system_id":"levelo_inurba_marseille","lat":43.28839,"lon":5.358413,"is_reserved":false,"is_disabled":false,"rental_uris":{"android":"levelo://app?vid=4061a425-0fa8-4b85-ba2e-dd23d5b416e9","ios":"levelo://app?vid=4061a425-0fa8-4b85-ba2e-dd23d5b416e9"},"vehicle_type_id":"4","last_reported":1727996950,"current_range_meters":36000,"station_id":"ce4bhb12rcd13ifvqem0","pricing_plan_id":"cebpf4jnsgd1na2vs0mg"},{"bike_id":"525e851f-b6fd-4226-b024-d76bd655edd1","system_id":"levelo_inurba_marseille","lat":43.23189,"lon":5.3999,"is_reserved":false,"is_disabled":false,"rental_uris":{"android":"levelo://app?vid=525e851f-b6fd-4226-b024-d76bd655edd1","ios":"levelo://app?vid=525e851f-b6fd-4226-b024-d76bd655edd1"},"vehicle_type_id":"4","last_reported":1727996950,"current_range_meters":30000,"station_id":"ce4bhn12rcd13ifvqgqg","pricing_plan_id":"cebpf4jnsgd1na2vs0mg"},{"bike_id":"23ea3717-b4ed-444e-aeab-56fb429d247d","system_id":"levelo_inurba_marseille","lat":43.29195,"lon":5.35806,"is_reserved":false,"is_disabled":false,"rental_uris":{"android":"levelo://app?vid=23ea3717-b4ed-444e-aeab-56fb429d247d","ios":"levelo://app?vid=23ea3717-b4ed-444e-aeab-56fb429d247d"},"vehicle_type_id":"4","last_reported":1727996950,"current_range_meters":38800,"station_id":"ce4bhb12rcd13ifvqel0","pricing_plan_id":"cebpf4jnsgd1na2vs0mg"},{"bike_id":"f9377f29-a9cf-4a7c-bb67-7be4ef2eeafe","system_id":"levelo_inurba_marseille","lat":43.31706,"lon":5.37769,"is_reserved":false,"is_disabled":false,"rental_uris":{"android":"levelo://app?vid=f9377f29-a9cf-4a7c-bb67-7be4ef2eeafe","ios":"levelo://app?vid=f9377f29-a9cf-4a7c-bb67-7be4ef2eeafe"},"vehicle_type_id":"4","last_reported":1727996950,"current_range_meters":22000,"station_id":"ce4bgth2rcd13ifvqch0","pricing_plan_id":"cebpf4jnsgd1na2vs0mg"},{"bike_id":"6da47532-9fc9-4d10-96d6-e86fc1354559","system_id":"levelo_inurba_marseille","lat":43.28705,"lon":5.39987,"is_reserved":false,"is_disabled":false,"rental_uris":{"android":"levelo://app?vid=6da47532-9fc9-4d10-96d6-e86fc1354559","ios":"levelo://app?vid=6da47532-9fc9-4d10-96d6-e86fc1354559"},"vehicle_type_id":"4","last_reported":1727996950,"current_range_meters":17600,"station_id":"ce4bho92rcd13ifvqh3g","pricing_plan_id":"cebpf4jnsgd1na2vs0mg"},{"bike_id":"97cca60a-be6b-447f-a75e-09e346abb21c","system_id":"levelo_inurba_marseille","lat":43.25821,"lon":5.394306,"is_reserved":false,"is_disabled":false,"rental_uris":{"android":"levelo://app?vid=97cca60a-be6b-447f-a75e-09e346abb21c","ios":"levelo://app?vid=97cca60a-be6b-447f-a75e-09e346abb21c"},"vehicle_type_id":"4","last_reported":1727996950,"current_range_meters":38800,"station_id":"ce4bhip2rcd13ifvqft0","pricing_plan_id":"cebpf4jnsgd1na2vs0mg"},{"bike_id":"16a50fa2-597a-4294-a3d5-c35e56ef70a0","system_id":"levelo_inurba_marseille","lat":43.32554,"lon":5.41448,"is_reserved":false,"is_disabled":false,"rental_uris":{"android":"levelo://app?vid=16a50fa2-597a-4294-a3d5-c35e56ef70a0","ios":"levelo://app?vid=16a50fa2-597a-4294-a3d5-c35e56ef70a0"},"vehicle_type_id":"4","last_reported":1727996950,"current_range_meters":38000,"station_id":"ce4bhq12rcd13ifvqhhg","pricing_plan_id":"cebpf4jnsgd1na2vs0mg"},{"bike_id":"81293a8e-e273-4d5d-a50a-a1b9253b0a28","system_id":"levelo_inurba_marseille","lat":43.32647,"lon":5.41001,"is_reserved":false,"is_disabled":false,"rental_uris":{"android":"levelo://app?vid=81293a8e-e273-4d5d-a50a-a1b9253b0a28","ios":"levelo://app?vid=81293a8e-e273-4d5d-a50a-a1b9253b0a28"},"vehicle_type_id":"4","last_reported":1727996950,"current_range_meters":33200,"station_id":"ce4bhpp2rcd13ifvqhgg","pricing_plan_id":"cebpf4jnsgd1na2vs0mg"},{"bike_id":"a9ef501c-515d-463d-91c8-6a5dc6196e08","system_id":"levelo_inurba_marseille","lat":43.30891,"lon":5.37185,"is_reserved":false,"is_disabled":false,"rental_uris":{"android":"levelo://app?vid=a9ef501c-515d-463d-91c8-6a5dc6196e08","ios":"levelo://app?vid=a9ef501c-515d-463d-91c8-6a5dc6196e08"},"vehicle_type_id":"4","last_reported":1727996950,"current_range_meters":32000,"station_id":"ce4bguh2rcd13ifvqckg","pricing_plan_id":"cebpf4jnsgd1na2vs0mg"},{"bike_id":"53c6fe7a-c5f0-4c29-bdb6-08c6c7db5c71","system_id":"levelo_inurba_marseille","lat":43.3211,"lon":5.36776,"is_reserved":false,"is_disabled":false,"rental_uris":{"android":"levelo://app?vid=53c6fe7a-c5f0-4c29-bdb6-08c6c7db5c71","ios":"levelo://app?vid=53c6fe7a-c5f0-4c29-bdb6-08c6c7db5c71"},"vehicle_type_id":"4","last_reported":1727996950,"current_range_meters":8000,"station_id":"ce4bhrh2rcd13ifvqhug","pricing_plan_id":"cebpf4jnsgd1na2vs0mg"},{"bike_id":"3cc954e3-013b-47f6-b1e5-c5a81185f52b","system_id":"levelo_inurba_marseille","lat":43.30958,"lon":5.39654,"is_reserved":false,"is_disabled":false,"rental_uris":{"android":"levelo://app?vid=3cc954e3-013b-47f6-b1e5-c5a81185f52b","ios":"levelo://app?vid=3cc954e3-013b-47f6-b1e5-c5a81185f52b"},"vehicle_type_id":"4","last_reported":1727996950,"current_range_meters":21600,"station_id":"","pricing_plan_id":"cebpf4jnsgd1na2vs0mg"},{"bike_id":"920f7d12-78b0-49d3-84c9-fb80e5d4b6f7","system_id":"levelo_inurba_marseille","lat":43.24653,"lon":5.38894,"is_reserved":false,"is_disabled":false,"rental_uris":{"android":"levelo://app?vid=920f7d12-78b0-49d3-84c9-fb80e5d4b6f7","ios":"levelo://app?vid=920f7d12-78b0-49d3-84c9-fb80e5d4b6f7"},"vehicle_type_id":"4","last_reported":1727996950,"current_range_meters":5600,"station_id":"ce4bhg12rcd13ifvqf60","pricing_plan_id":"cebpf4jnsgd1na2vs0mg"},{"bike_id":"6ce60676-3f86-4aaa-a5df-572436c32ad4","system_id":"levelo_inurba_marseille","lat":43.23189,"lon":5.35544,"is_reserved":false,"is_disabled":false,"rental_uris":{"android":"levelo://app?vid=6ce60676-3f86-4aaa-a5df-572436c32ad4","ios":"levelo://app?vid=6ce60676-3f86-4aaa-a5df-572436c32ad4"},"vehicle_type_id":"4","last_reported":1727996950,"current_range_meters":17600,"station_id":"ce4bhu92rcd13ifvqi70","pricing_plan_id":"cebpf4jnsgd1na2vs0mg"},{"bike_id":"bb1d45c3-f50a-4ba0-9942-1edc9ffd3ed6","system_id":"levelo_inurba_marseille","lat":43.25001,"lon":5.38924,"is_reserved":false,"is_disabled":false,"rental_uris":{"android":"levelo://app?vid=bb1d45c3-f50a-4ba0-9942-1edc9ffd3ed6","ios":"levelo://app?vid=bb1d45c3-f50a-4ba0-9942-1edc9ffd3ed6"},"vehicle_type_id":"4","last_reported":1727996950,"current_range_meters":36400,"station_id":"ce4bhgp2rcd13ifvqfd0","pricing_plan_id":"cebpf4jnsgd1na2vs0mg"},{"bike_id":"e8c477a4-caa8-423e-b195-4fc1063e05c8","system_id":"levelo_inurba_marseille","lat":43.27983,"lon":5.38739,"is_reserved":false,"is_disabled":false,"rental_uris":{"android":"levelo://app?vid=e8c477a4-caa8-423e-b195-4fc1063e05c8","ios":"levelo://app?vid=e8c477a4-caa8-423e-b195-4fc1063e05c8"},"vehicle_type_id":"4","last_reported":1727996950,"current_range_meters":31200,"station_id":"ce4bhg12rcd13ifvqf80","pricing_plan_id":"cebpf4jnsgd1na2vs0mg"},{"bike_id":"3abf463e-56e4-4a6c-9167-6be6cc4ff307","system_id":"levelo_inurba_marseille","lat":43.28572,"lon":5.39504,"is_reserved":false,"is_disabled":false,"rental_uris":{"android":"levelo://app?vid=3abf463e-56e4-4a6c-9167-6be6cc4ff307","ios":"levelo://app?vid=3abf463e-56e4-4a6c-9167-6be6cc4ff307"},"vehicle_type_id":"4","last_reported":1727996950,"current_range_meters":39200,"station_id":"ce4bh292rcd13ifvqdg0","pricing_plan_id":"cebpf4jnsgd1na2vs0mg"},{"bike_id":"662f738e-b790-43ea-9d44-7b029b468d99","system_id":"levelo_inurba_marseille","lat":43.24179,"lon":5.39725,"is_reserved":false,"is_disabled":false,"rental_uris":{"android":"levelo://app?vid=662f738e-b790-43ea-9d44-7b029b468d99","ios":"levelo://app?vid=662f738e-b790-43ea-9d44-7b029b468d99"},"vehicle_type_id":"4","last_reported":1727996950,"current_range_meters":38800,"station_id":"ce4bhn12rcd13ifvqgpg","pricing_plan_id":"cebpf4jnsgd1na2vs0mg"},{"bike_id":"632bf4ef-fc05-4f3a-a527-d8a2cc756366","system_id":"levelo_inurba_marseille","lat":43.2919,"lon":5.39334,"is_reserved":false,"is_disabled":false,"rental_uris":{"android":"levelo://app?vid=632bf4ef-fc05-4f3a-a527-d8a2cc756366","ios":"levelo://app?vid=632bf4ef-fc05-4f3a-a527-d8a2cc756366"},"vehicle_type_id":"4","last_reported":1727996950,"current_range_meters":35200,"station_id":"ce4bh192rcd13ifvqdd0","pricing_plan_id":"cebpf4jnsgd1na2vs0mg"},{"bike_id":"7871e31a-50c3-4ce1-9cc5-64ff471333a0","system_id":"levelo_inurba_marseille","lat":43.28278,"lon":5.35085,"is_reserved":false,"is_disabled":false,"rental_uris":{"android":"levelo://app?vid=7871e31a-50c3-4ce1-9cc5-64ff471333a0","ios":"levelo://app?vid=7871e31a-50c3-4ce1-9cc5-64ff471333a0"},"vehicle_type_id":"4","last_reported":1727996950,"current_range_meters":39200,"station_id":"ce4bhbp2rcd13ifvqerg","pricing_plan_id":"cebpf4jnsgd1na2vs0mg"},{"bike_id":"f68a167a-b932-4f2d-ae85-c9173152e6ec","system_id":"levelo_inurba_marseille","lat":43.30801,"lon":5.38165,"is_reserved":false,"is_disabled":false,"rental_uris":{"android":"levelo://app?vid=f68a167a-b932-4f2d-ae85-c9173152e6ec","ios":"levelo://app?vid=f68a167a-b932-4f2d-ae85-c9173152e6ec"},"vehicle_type_id":"4","last_reported":1727996950,"current_range_meters":36800,"station_id":"ce4bgt12rcd13ifvqce0","pricing_plan_id":"cebpf4jnsgd1na2vs0mg"},{"bike_id":"e11e5dbf-f7e2-498d-94f0-51a7d383d050","system_id":"levelo_inurba_marseille","lat":43.29881,"lon":5.3974,"is_reserved":false,"is_disabled":false,"rental_uris":{"android":"levelo://app?vid=e11e5dbf-f7e2-498d-94f0-51a7d383d050","ios":"levelo://app?vid=e11e5dbf-f7e2-498d-94f0-51a7d383d050"},"vehicle_type_id":"4","last_reported":1727996950,"current_range_meters":24800,"station_id":"ce4bh0h2rcd13ifvqd50","pricing_plan_id":"cebpf4jnsgd1na2vs0mg"},{"bike_id":"14457725-1dad-4705-8dc9-35dee84023ac","system_id":"levelo_inurba_marseille","lat":43.31723,"lon":5.42398,"is_reserved":false,"is_disabled":false,"rental_uris":{"android":"levelo://app?vid=14457725-1dad-4705-8dc9-35dee84023ac","ios":"levelo://app?vid=14457725-1dad-4705-8dc9-35dee84023ac"},"vehicle_type_id":"4","last_reported":1727996950,"current_range_meters":30400,"station_id":"ce4bhp92rcd13ifvqhbg","pricing_plan_id":"cebpf4jnsgd1na2vs0mg"},{"bike_id":"ac491eed-1fef-4832-b4ca-d42b5b54f337","system_id":"levelo_inurba_marseille","lat":43.28425,"lon":5.34986,"is_reserved":false,"is_disabled":false,"rental_uris":{"android":"levelo://app?vid=ac491eed-1fef-4832-b4ca-d42b5b54f337","ios":"levelo://app?vid=ac491eed-1fef-4832-b4ca-d42b5b54f337"},"vehicle_type_id":"4","last_reported":1727996950,"current_range_meters":38400,"station_id":"ce4bhbh2rcd13ifvqepg","pricing_plan_id":"cebpf4jnsgd1na2vs0mg"},{"bike_id":"1c43f958-4590-430c-a11e-68d1ba018349","system_id":"levelo_inurba_marseille","lat":43.284171,"lon":5.375154,"is_reserved":false,"is_disabled":false,"rental_uris":{"android":"levelo://app?vid=1c43f958-4590-430c-a11e-68d1ba018349","ios":"levelo://app?vid=1c43f958-4590-430c-a11e-68d1ba018349"},"vehicle_type_id":"4","last_reported":1727996950,"current_range_meters":36800,"station_id":"ce4bh412rcd13ifvqds0","pricing_plan_id":"cebpf4jnsgd1na2vs0mg"},{"bike_id":"abffd650-273d-42e7-be8c-f37c9c43a60a","system_id":"levelo_inurba_marseille","lat":43.28004,"lon":5.4001,"is_reserved":false,"is_disabled":false,"rental_uris":{"android":"levelo://app?vid=abffd650-273d-42e7-be8c-f37c9c43a60a","ios":"levelo://app?vid=abffd650-273d-42e7-be8c-f37c9c43a60a"},"vehicle_type_id":"4","last_reported":1727996950,"current_range_meters":33600,"station_id":"ce4bho92rcd13ifvqh4g","pricing_plan_id":"cebpf4jnsgd1na2vs0mg"},{"bike_id":"bfb52033-51bc-4a6b-9961-821f92dd3f3a","system_id":"levelo_inurba_marseille","lat":43.29551,"lon":5.42283,"is_reserved":false,"is_disabled":false,"rental_uris":{"android":"levelo://app?vid=bfb52033-51bc-4a6b-9961-821f92dd3f3a","ios":"levelo://app?vid=bfb52033-51bc-4a6b-9961-821f92dd3f3a"},"vehicle_type_id":"4","last_reported":1727996950,"current_range_meters":14000,"station_id":"ce4bhph2rcd13ifvqhdg","pricing_plan_id":"cebpf4jnsgd1na2vs0mg"},{"bike_id":"7fed4edd-fced-4cac-8f5a-8f088e4cd963","system_id":"levelo_inurba_marseille","lat":43.26556,"lon":5.37288,"is_reserved":false,"is_disabled":false,"rental_uris":{"android":"levelo://app?vid=7fed4edd-fced-4cac-8f5a-8f088e4cd963","ios":"levelo://app?vid=7fed4edd-fced-4cac-8f5a-8f088e4cd963"},"vehicle_type_id":"4","last_reported":1727996950,"current_range_meters":5600,"station_id":"ce4bhg12rcd13ifvqf70","pricing_plan_id":"cebpf4jnsgd1na2vs0mg"},{"bike_id":"a6692f1f-5525-4523-bd49-a7c219bc26c1","system_id":"levelo_inurba_marseille","lat":43.26561,"lon":5.37288,"is_reserved":false,"is_disabled":false,"rental_uris":{"android":"levelo://app?vid=a6692f1f-5525-4523-bd49-a7c219bc26c1","ios":"levelo://app?vid=a6692f1f-5525-4523-bd49-a7c219bc26c1"},"vehicle_type_id":"4","last_reported":1727996950,"current_range_meters":36400,"station_id":"ce4bhg12rcd13ifvqf70","pricing_plan_id":"cebpf4jnsgd1na2vs0mg"},{"bike_id":"dc56530e-8e90-4c40-b3e7-479b56e7787b","system_id":"levelo_inurba_marseille","lat":43.24661,"lon":5.38168,"is_reserved":false,"is_disabled":false,"rental_uris":{"android":"levelo://app?vid=dc56530e-8e90-4c40-b3e7-479b56e7787b","ios":"levelo://app?vid=dc56530e-8e90-4c40-b3e7-479b56e7787b"},"vehicle_type_id":"4","last_reported":1727996950,"current_range_meters":34800,"station_id":"ce4bhih2rcd13ifvqfr0","pricing_plan_id":"cebpf4jnsgd1na2vs0mg"},{"bike_id":"329973a4-e8ec-4473-9781-6423f1ce3eb7","system_id":"levelo_inurba_marseille","lat":43.31714,"lon":5.43707,"is_reserved":false,"is_disabled":false,"rental_uris":{"android":"levelo://app?vid=329973a4-e8ec-4473-9781-6423f1ce3eb7","ios":"levelo://app?vid=329973a4-e8ec-4473-9781-6423f1ce3eb7"},"vehicle_type_id":"4","last_reported":1727996950,"current_range_meters":3600,"station_id":"ce4bhp92rcd13ifvqhcg","pricing_plan_id":"cebpf4jnsgd1na2vs0mg"},{"bike_id":"51b75ede-96df-4370-a9b1-0dfe434f9ba7","system_id":"levelo_inurba_marseille","lat":43.25092,"lon":5.39512,"is_reserved":false,"is_disabled":false,"rental_uris":{"android":"levelo://app?vid=51b75ede-96df-4370-a9b1-0dfe434f9ba7","ios":"levelo://app?vid=51b75ede-96df-4370-a9b1-0dfe434f9ba7"},"vehicle_type_id":"4","last_reported":1727996950,"current_range_meters":38800,"station_id":"ce4bhm12rcd13ifvqgkg","pricing_plan_id":"cebpf4jnsgd1na2vs0mg"},{"bike_id":"f28532ab-2844-4c68-acee-baaa073b03fa","system_id":"levelo_inurba_marseille","lat":43.32485,"lon":5.36566,"is_reserved":false,"is_disabled":false,"rental_uris":{"android":"levelo://app?vid=f28532ab-2844-4c68-acee-baaa073b03fa","ios":"levelo://app?vid=f28532ab-2844-4c68-acee-baaa073b03fa"},"vehicle_type_id":"4","last_reported":1727996950,"current_range_meters":38800,"station_id":"ce4bhs12rcd13ifvqhvg","pricing_plan_id":"cebpf4jnsgd1na2vs0mg"},{"bike_id":"c2af3ceb-8e0f-4621-8126-93c82628c817","system_id":"levelo_inurba_marseille","lat":43.29557,"lon":5.42278,"is_reserved":false,"is_disabled":false,"rental_uris":{"android":"levelo://app?vid=c2af3ceb-8e0f-4621-8126-93c82628c817","ios":"levelo://app?vid=c2af3ceb-8e0f-4621-8126-93c82628c817"},"vehicle_type_id":"4","last_reported":1727996950,"current_range_meters":20800,"station_id":"ce4bhph2rcd13ifvqhdg","pricing_plan_id":"cebpf4jnsgd1na2vs0mg"},{"bike_id":"481b9ab3-5db0-4170-9e70-1b72e769f60e","system_id":"levelo_inurba_marseille","lat":43.28665,"lon":5.36351,"is_reserved":false,"is_disabled":false,"rental_uris":{"android":"levelo://app?vid=481b9ab3-5db0-4170-9e70-1b72e769f60e","ios":"levelo://app?vid=481b9ab3-5db0-4170-9e70-1b72e769f60e"},"vehicle_type_id":"4","last_reported":1727996950,"current_range_meters":26800,"station_id":"ce4bhah2rcd13ifvqej0","pricing_plan_id":"cebpf4jnsgd1na2vs0mg"},{"bike_id":"a3d3cd89-c952-4a75-923b-43064477c9e2","system_id":"levelo_inurba_marseille","lat":43.31485,"lon":5.37308,"is_reserved":false,"is_disabled":false,"rental_uris":{"android":"levelo://app?vid=a3d3cd89-c952-4a75-923b-43064477c9e2","ios":"levelo://app?vid=a3d3cd89-c952-4a75-923b-43064477c9e2"},"vehicle_type_id":"4","last_reported":1727996950,"current_range_meters":2000,"station_id":"ce4bgt12rcd13ifvqcd0","pricing_plan_id":"cebpf4jnsgd1na2vs0mg"},{"bike_id":"8458457e-e745-4af8-9f7c-89ed4057da4e","system_id":"levelo_inurba_marseille","lat":43.2925,"lon":5.409,"is_reserved":false,"is_disabled":false,"rental_uris":{"android":"levelo://app?vid=8458457e-e745-4af8-9f7c-89ed4057da4e","ios":"levelo://app?vid=8458457e-e745-4af8-9f7c-89ed4057da4e"},"vehicle_type_id":"4","last_reported":1727996950,"current_range_meters":39200,"station_id":"ce4bh192rcd13ifvqdc0","pricing_plan_id":"cebpf4jnsgd1na2vs0mg"},{"bike_id":"fffa3ecd-8333-4e1c-914a-66e6b8be3b1d","system_id":"levelo_inurba_marseille","lat":43.2811,"lon":5.37842,"is_reserved":false,"is_disabled":false,"rental_uris":{"android":"levelo://app?vid=fffa3ecd-8333-4e1c-914a-66e6b8be3b1d","ios":"levelo://app?vid=fffa3ecd-8333-4e1c-914a-66e6b8be3b1d"},"vehicle_type_id":"4","last_reported":1727996950,"current_range_meters":30000,"station_id":"ce4bha12rcd13ifvqee0","pricing_plan_id":"cebpf4jnsgd1na2vs0mg"},{"bike_id":"e5c27dcf-3d6e-41a5-8a35-01e9d92ac648","system_id":"levelo_inurba_marseille","lat":43.275078,"lon":5.424246,"is_reserved":false,"is_disabled":false,"rental_uris":{"android":"levelo://app?vid=e5c27dcf-3d6e-41a5-8a35-01e9d92ac648","ios":"levelo://app?vid=e5c27dcf-3d6e-41a5-8a35-01e9d92ac648"},"vehicle_type_id":"4","last_reported":1727996950,"current_range_meters":36800,"station_id":"ce4bhn92rcd13ifvqgrg","pricing_plan_id":"cebpf4jnsgd1na2vs0mg"},{"bike_id":"b1ab5d8b-a038-425e-aceb-c8ee3229c242","system_id":"levelo_inurba_marseille","lat":43.28851,"lon":5.35866,"is_reserved":false,"is_disabled":false,"rental_uris":{"android":"levelo://app?vid=b1ab5d8b-a038-425e-aceb-c8ee3229c242","ios":"levelo://app?vid=b1ab5d8b-a038-425e-aceb-c8ee3229c242"},"vehicle_type_id":"4","last_reported":1727996950,"current_range_meters":32000,"station_id":"ce4bhb12rcd13ifvqem0","pricing_plan_id":"cebpf4jnsgd1na2vs0mg"},{"bike_id":"4c080020-1ddb-47a2-9710-9824df23c04b","system_id":"levelo_inurba_marseille","lat":43.25497,"lon":5.37655,"is_reserved":false,"is_disabled":false,"rental_uris":{"android":"levelo://app?vid=4c080020-1ddb-47a2-9710-9824df23c04b","ios":"levelo://app?vid=4c080020-1ddb-47a2-9710-9824df23c04b"},"vehicle_type_id":"4","last_reported":1727996950,"current_range_meters":23200,"station_id":"ce4bhh12rcd13ifvqff0","pricing_plan_id":"cebpf4jnsgd1na2vs0mg"},{"bike_id":"dfc32ef4-5233-4b6f-85f2-c49f918d8e8d","system_id":"levelo_inurba_marseille","lat":43.30888,"lon":5.39651,"is_reserved":false,"is_disabled":false,"rental_uris":{"android":"levelo://app?vid=dfc32ef4-5233-4b6f-85f2-c49f918d8e8d","ios":"levelo://app?vid=dfc32ef4-5233-4b6f-85f2-c49f918d8e8d"},"vehicle_type_id":"4","last_reported":1727996950,"current_range_meters":38400,"station_id":"ce4bh012rcd13ifvqcv0","pricing_plan_id":"cebpf4jnsgd1na2vs0mg"},{"bike_id":"a8fb4039-3839-42ea-9d1b-4f453dca4e0d","system_id":"levelo_inurba_marseille","lat":43.2925,"lon":5.40899,"is_reserved":false,"is_disabled":false,"rental_uris":{"android":"levelo://app?vid=a8fb4039-3839-42ea-9d1b-4f453dca4e0d","ios":"levelo://app?vid=a8fb4039-3839-42ea-9d1b-4f453dca4e0d"},"vehicle_type_id":"4","last_reported":1727996950,"current_range_meters":17600,"station_id":"ce4bh192rcd13ifvqdc0","pricing_plan_id":"cebpf4jnsgd1na2vs0mg"},{"bike_id":"7112ef8d-8142-4d4d-816c-51780c5cff4c","system_id":"levelo_inurba_marseille","lat":43.28414,"lon":5.37515,"is_reserved":false,"is_disabled":false,"rental_uris":{"android":"levelo://app?vid=7112ef8d-8142-4d4d-816c-51780c5cff4c","ios":"levelo://app?vid=7112ef8d-8142-4d4d-816c-51780c5cff4c"},"vehicle_type_id":"4","last_reported":1727996950,"current_range_meters":9200,"station_id":"ce4bh412rcd13ifvqds0","pricing_plan_id":"cebpf4jnsgd1na2vs0mg"},{"bike_id":"dbf4aadd-78b0-48d7-84dd-1a7fec82af07","system_id":"levelo_inurba_marseille","lat":43.24661,"lon":5.38155,"is_reserved":false,"is_disabled":false,"rental_uris":{"android":"levelo://app?vid=dbf4aadd-78b0-48d7-84dd-1a7fec82af07","ios":"levelo://app?vid=dbf4aadd-78b0-48d7-84dd-1a7fec82af07"},"vehicle_type_id":"4","last_reported":1727996950,"current_range_meters":37600,"station_id":"ce4bhih2rcd13ifvqfr0","pricing_plan_id":"cebpf4jnsgd1na2vs0mg"},{"bike_id":"47911c3a-70d6-4541-ae40-328b24ae278f","system_id":"levelo_inurba_marseille","lat":43.28073,"lon":5.39662,"is_reserved":false,"is_disabled":false,"rental_uris":{"android":"levelo://app?vid=47911c3a-70d6-4541-ae40-328b24ae278f","ios":"levelo://app?vid=47911c3a-70d6-4541-ae40-328b24ae278f"},"vehicle_type_id":"4","last_reported":1727996950,"current_range_meters":38800,"station_id":"ce4bho12rcd13ifvqh2g","pricing_plan_id":"cebpf4jnsgd1na2vs0mg"},{"bike_id":"958e7c33-252b-4123-876d-02665709c655","system_id":"levelo_inurba_marseille","lat":43.28661,"lon":5.36352,"is_reserved":false,"is_disabled":false,"rental_uris":{"android":"levelo://app?vid=958e7c33-252b-4123-876d-02665709c655","ios":"levelo://app?vid=958e7c33-252b-4123-876d-02665709c655"},"vehicle_type_id":"4","last_reported":1727996950,"current_range_meters":40000,"station_id":"ce4bhah2rcd13ifvqej0","pricing_plan_id":"cebpf4jnsgd1na2vs0mg"},{"bike_id":"c8e4ff73-620c-4248-92f7-758d5098242c","system_id":"levelo_inurba_marseille","lat":43.22928,"lon":5.35376,"is_reserved":false,"is_disabled":false,"rental_uris":{"android":"levelo://app?vid=c8e4ff73-620c-4248-92f7-758d5098242c","ios":"levelo://app?vid=c8e4ff73-620c-4248-92f7-758d5098242c"},"vehicle_type_id":"4","last_reported":1727996950,"current_range_meters":24800,"station_id":"cpo3532slgdg3j2ikp40","pricing_plan_id":"cebpf4jnsgd1na2vs0mg"},{"bike_id":"dee1da8e-35eb-49de-951a-16bbe888ae61","system_id":"levelo_inurba_marseille","lat":43.29935,"lon":5.36534,"is_reserved":false,"is_disabled":false,"rental_uris":{"android":"levelo://app?vid=dee1da8e-35eb-49de-951a-16bbe888ae61","ios":"levelo://app?vid=dee1da8e-35eb-49de-951a-16bbe888ae61"},"vehicle_type_id":"4","last_reported":1727996950,"current_range_meters":38000,"station_id":"ce4bgm92rcd13ifvqbr0","pricing_plan_id":"cebpf4jnsgd1na2vs0mg"},{"bike_id":"dcdbca43-b62a-4cb5-98d2-50d7d427de4b","system_id":"levelo_inurba_marseille","lat":43.3361,"lon":5.41023,"is_reserved":false,"is_disabled":false,"rental_uris":{"android":"levelo://app?vid=dcdbca43-b62a-4cb5-98d2-50d7d427de4b","ios":"levelo://app?vid=dcdbca43-b62a-4cb5-98d2-50d7d427de4b"},"vehicle_type_id":"4","last_reported":1727996950,"current_range_meters":25600,"station_id":"ce4bhqh2rcd13ifvqhmg","pricing_plan_id":"cebpf4jnsgd1na2vs0mg"},{"bike_id":"583eb2a3-c703-4842-8648-2706b2b88008","system_id":"levelo_inurba_marseille","lat":43.28154,"lon":5.4264,"is_reserved":false,"is_disabled":false,"rental_uris":{"android":"levelo://app?vid=583eb2a3-c703-4842-8648-2706b2b88008","ios":"levelo://app?vid=583eb2a3-c703-4842-8648-2706b2b88008"},"vehicle_type_id":"4","last_reported":1727996950,"current_range_meters":8400,"station_id":"ce4bhnh2rcd13ifvqgug","pricing_plan_id":"cebpf4jnsgd1na2vs0mg"},{"bike_id":"595be7d7-6dd6-443d-bbd0-34d9a1335cfc","system_id":"levelo_inurba_marseille","lat":43.31488,"lon":5.36824,"is_reserved":false,"is_disabled":false,"rental_uris":{"android":"levelo://app?vid=595be7d7-6dd6-443d-bbd0-34d9a1335cfc","ios":"levelo://app?vid=595be7d7-6dd6-443d-bbd0-34d9a1335cfc"},"vehicle_type_id":"4","last_reported":1727996950,"current_range_meters":16800,"station_id":"","pricing_plan_id":"cebpf4jnsgd1na2vs0mg"},{"bike_id":"0946268e-451b-4eae-9c53-f76e2b977f3f","system_id":"levelo_inurba_marseille","lat":43.32476,"lon":5.36564,"is_reserved":false,"is_disabled":false,"rental_uris":{"android":"levelo://app?vid=0946268e-451b-4eae-9c53-f76e2b977f3f","ios":"levelo://app?vid=0946268e-451b-4eae-9c53-f76e2b977f3f"},"vehicle_type_id":"4","last_reported":1727996950,"current_range_meters":25200,"station_id":"ce4bhs12rcd13ifvqhvg","pricing_plan_id":"cebpf4jnsgd1na2vs0mg"},{"bike_id":"97dfb8ba-6036-4a05-93ee-69da66794484","system_id":"levelo_inurba_marseille","lat":43.30414,"lon":5.41283,"is_reserved":false,"is_disabled":false,"rental_uris":{"android":"levelo://app?vid=97dfb8ba-6036-4a05-93ee-69da66794484","ios":"levelo://app?vid=97dfb8ba-6036-4a05-93ee-69da66794484"},"vehicle_type_id":"4","last_reported":1727996950,"current_range_meters":38800,"station_id":"ce4bhop2rcd13ifvqh8g","pricing_plan_id":"cebpf4jnsgd1na2vs0mg"},{"bike_id":"51234694-4a24-470a-bb96-0d40cf984866","system_id":"levelo_inurba_marseille","lat":43.30886,"lon":5.39641,"is_reserved":false,"is_disabled":false,"rental_uris":{"android":"levelo://app?vid=51234694-4a24-470a-bb96-0d40cf984866","ios":"levelo://app?vid=51234694-4a24-470a-bb96-0d40cf984866"},"vehicle_type_id":"4","last_reported":1727996950,"current_range_meters":40000,"station_id":"ce4bh012rcd13ifvqcv0","pricing_plan_id":"cebpf4jnsgd1na2vs0mg"},{"bike_id":"9111912f-5f92-4e01-9623-79e0ea71aff6","system_id":"levelo_inurba_marseille","lat":43.3228,"lon":5.38251,"is_reserved":false,"is_disabled":false,"rental_uris":{"android":"levelo://app?vid=9111912f-5f92-4e01-9623-79e0ea71aff6","ios":"levelo://app?vid=9111912f-5f92-4e01-9623-79e0ea71aff6"},"vehicle_type_id":"4","last_reported":1727996950,"current_range_meters":35600,"station_id":"ce4bhr12rcd13ifvqhqg","pricing_plan_id":"cebpf4jnsgd1na2vs0mg"},{"bike_id":"09648bcd-aff3-4e5d-a358-b65c5d88ce54","system_id":"levelo_inurba_marseille","lat":43.24999,"lon":5.38936,"is_reserved":false,"is_disabled":false,"rental_uris":{"android":"levelo://app?vid=09648bcd-aff3-4e5d-a358-b65c5d88ce54","ios":"levelo://app?vid=09648bcd-aff3-4e5d-a358-b65c5d88ce54"},"vehicle_type_id":"4","last_reported":1727996950,"current_range_meters":36800,"station_id":"ce4bhgp2rcd13ifvqfd0","pricing_plan_id":"cebpf4jnsgd1na2vs0mg"},{"bike_id":"d1c29cc8-4a89-46c6-bcf6-9521d03600ac","system_id":"levelo_inurba_marseille","lat":43.28456,"lon":5.35891,"is_reserved":false,"is_disabled":false,"rental_uris":{"android":"levelo://app?vid=d1c29cc8-4a89-46c6-bcf6-9521d03600ac","ios":"levelo://app?vid=d1c29cc8-4a89-46c6-bcf6-9521d03600ac"},"vehicle_type_id":"4","last_reported":1727996950,"current_range_meters":12400,"station_id":"ce4bhah2rcd13ifvqei0","pricing_plan_id":"cebpf4jnsgd1na2vs0mg"},{"bike_id":"4a141fd2-634f-4564-afbf-0784bd537519","system_id":"levelo_inurba_marseille","lat":43.31753,"lon":5.39016,"is_reserved":false,"is_disabled":false,"rental_uris":{"android":"levelo://app?vid=4a141fd2-634f-4564-afbf-0784bd537519","ios":"levelo://app?vid=4a141fd2-634f-4564-afbf-0784bd537519"},"vehicle_type_id":"4","last_reported":1727996950,"current_range_meters":22400,"station_id":"ce4bhqp2rcd13ifvqhng","pricing_plan_id":"cebpf4jnsgd1na2vs0mg"},{"bike_id":"91ce5286-9976-41ad-9183-3cbc030fde18","system_id":"levelo_inurba_marseille","lat":43.30328,"lon":5.40445,"is_reserved":false,"is_disabled":false,"rental_uris":{"android":"levelo://app?vid=91ce5286-9976-41ad-9183-3cbc030fde18","ios":"levelo://app?vid=91ce5286-9976-41ad-9183-3cbc030fde18"},"vehicle_type_id":"4","last_reported":1727996950,"current_range_meters":38400,"station_id":"ce4bh012rcd13ifvqd10","pricing_plan_id":"cebpf4jnsgd1na2vs0mg"},{"bike_id":"b891bbb3-9c76-4c36-90cc-235048eff1c4","system_id":"levelo_inurba_marseille","lat":43.29446,"lon":5.3975,"is_reserved":false,"is_disabled":false,"rental_uris":{"android":"levelo://app?vid=b891bbb3-9c76-4c36-90cc-235048eff1c4","ios":"levelo://app?vid=b891bbb3-9c76-4c36-90cc-235048eff1c4"},"vehicle_type_id":"4","last_reported":1727996950,"current_range_meters":24000,"station_id":"ce4bh3h2rcd13ifvqdo0","pricing_plan_id":"cebpf4jnsgd1na2vs0mg"},{"bike_id":"71a85321-cdd0-4b0c-9a38-c490afade47c","system_id":"levelo_inurba_marseille","lat":43.29217,"lon":5.36043,"is_reserved":false,"is_disabled":false,"rental_uris":{"android":"levelo://app?vid=71a85321-cdd0-4b0c-9a38-c490afade47c","ios":"levelo://app?vid=71a85321-cdd0-4b0c-9a38-c490afade47c"},"vehicle_type_id":"4","last_reported":1727996950,"current_range_meters":38800,"station_id":"ce4bhbh2rcd13ifvqeqg","pricing_plan_id":"cebpf4jnsgd1na2vs0mg"},{"bike_id":"1c7a7275-9b7b-4b9d-a061-fc9cd445baa4","system_id":"levelo_inurba_marseille","lat":43.29525,"lon":5.39406,"is_reserved":false,"is_disabled":false,"rental_uris":{"android":"levelo://app?vid=1c7a7275-9b7b-4b9d-a061-fc9cd445baa4","ios":"levelo://app?vid=1c7a7275-9b7b-4b9d-a061-fc9cd445baa4"},"vehicle_type_id":"4","last_reported":1727996950,"current_range_meters":7200,"station_id":"ce4bh292rcd13ifvqdf0","pricing_plan_id":"cebpf4jnsgd1na2vs0mg"},{"bike_id":"106822a0-7626-4888-be87-a65dfe1f49c8","system_id":"levelo_inurba_marseille","lat":43.31686,"lon":5.40469,"is_reserved":false,"is_disabled":false,"rental_uris":{"android":"levelo://app?vid=106822a0-7626-4888-be87-a65dfe1f49c8","ios":"levelo://app?vid=106822a0-7626-4888-be87-a65dfe1f49c8"},"vehicle_type_id":"4","last_reported":1727996950,"current_range_meters":23200,"station_id":"ce4bh012rcd13ifvqd00","pricing_plan_id":"cebpf4jnsgd1na2vs0mg"},{"bike_id":"690c1146-a8cd-495f-94f6-c94b70c09ae9","system_id":"levelo_inurba_marseille","lat":43.26686,"lon":5.38276,"is_reserved":false,"is_disabled":false,"rental_uris":{"android":"levelo://app?vid=690c1146-a8cd-495f-94f6-c94b70c09ae9","ios":"levelo://app?vid=690c1146-a8cd-495f-94f6-c94b70c09ae9"},"vehicle_type_id":"4","last_reported":1727996950,"current_range_meters":38800,"station_id":"ce4bhg92rcd13ifvqf90","pricing_plan_id":"cebpf4jnsgd1na2vs0mg"},{"bike_id":"ae15a7a4-1b5d-4659-968e-f0d4a2bcd06d","system_id":"levelo_inurba_marseille","lat":43.30889,"lon":5.39637,"is_reserved":false,"is_disabled":false,"rental_uris":{"android":"levelo://app?vid=ae15a7a4-1b5d-4659-968e-f0d4a2bcd06d","ios":"levelo://app?vid=ae15a7a4-1b5d-4659-968e-f0d4a2bcd06d"},"vehicle_type_id":"4","last_reported":1727996950,"current_range_meters":36400,"station_id":"ce4bh012rcd13ifvqcv0","pricing_plan_id":"cebpf4jnsgd1na2vs0mg"},{"bike_id":"3b94b7a4-6c69-4758-a0b8-bde50566d681","system_id":"levelo_inurba_marseille","lat":43.27171,"lon":5.40991,"is_reserved":false,"is_disabled":false,"rental_uris":{"android":"levelo://app?vid=3b94b7a4-6c69-4758-a0b8-bde50566d681","ios":"levelo://app?vid=3b94b7a4-6c69-4758-a0b8-bde50566d681"},"vehicle_type_id":"4","last_reported":1727996950,"current_range_meters":38400,"station_id":"ce4bhl12rcd13ifvqgf0","pricing_plan_id":"cebpf4jnsgd1na2vs0mg"},{"bike_id":"47096975-bede-4100-b73f-a5cbb9ab9117","system_id":"levelo_inurba_marseille","lat":43.31174,"lon":5.38719,"is_reserved":false,"is_disabled":false,"rental_uris":{"android":"levelo://app?vid=47096975-bede-4100-b73f-a5cbb9ab9117","ios":"levelo://app?vid=47096975-bede-4100-b73f-a5cbb9ab9117"},"vehicle_type_id":"4","last_reported":1727996950,"current_range_meters":40000,"station_id":"ce4bgv12rcd13ifvqcp0","pricing_plan_id":"cebpf4jnsgd1na2vs0mg"},{"bike_id":"fefbc6d8-bb70-4b63-8f5a-d9b315c1eafa","system_id":"levelo_inurba_marseille","lat":43.24544,"lon":5.39525,"is_reserved":false,"is_disabled":false,"rental_uris":{"android":"levelo://app?vid=fefbc6d8-bb70-4b63-8f5a-d9b315c1eafa","ios":"levelo://app?vid=fefbc6d8-bb70-4b63-8f5a-d9b315c1eafa"},"vehicle_type_id":"4","last_reported":1727996950,"current_range_meters":33200,"station_id":"ce4bhlp2rcd13ifvqgjg","pricing_plan_id":"cebpf4jnsgd1na2vs0mg"},{"bike_id":"638ea2d4-cb56-475a-9712-21b4df19cbce","system_id":"levelo_inurba_marseille","lat":43.31758,"lon":5.39,"is_reserved":false,"is_disabled":false,"rental_uris":{"android":"levelo://app?vid=638ea2d4-cb56-475a-9712-21b4df19cbce","ios":"levelo://app?vid=638ea2d4-cb56-475a-9712-21b4df19cbce"},"vehicle_type_id":"4","last_reported":1727996950,"current_range_meters":30800,"station_id":"ce4bhqp2rcd13ifvqhng","pricing_plan_id":"cebpf4jnsgd1na2vs0mg"},{"bike_id":"f0b899b3-ea09-4c19-ba3f-b6bff2e53be7","system_id":"levelo_inurba_marseille","lat":43.24548,"lon":5.39525,"is_reserved":false,"is_disabled":false,"rental_uris":{"android":"levelo://app?vid=f0b899b3-ea09-4c19-ba3f-b6bff2e53be7","ios":"levelo://app?vid=f0b899b3-ea09-4c19-ba3f-b6bff2e53be7"},"vehicle_type_id":"4","last_reported":1727996950,"current_range_meters":9600,"station_id":"ce4bhlp2rcd13ifvqgjg","pricing_plan_id":"cebpf4jnsgd1na2vs0mg"},{"bike_id":"430bc2be-c3ee-47ad-a72c-6925b611a5fe","system_id":"levelo_inurba_marseille","lat":43.30938,"lon":5.40145,"is_reserved":false,"is_disabled":false,"rental_uris":{"android":"levelo://app?vid=430bc2be-c3ee-47ad-a72c-6925b611a5fe","ios":"levelo://app?vid=430bc2be-c3ee-47ad-a72c-6925b611a5fe"},"vehicle_type_id":"4","last_reported":1727996950,"current_range_meters":37600,"station_id":"ce4bgvp2rcd13ifvqct0","pricing_plan_id":"cebpf4jnsgd1na2vs0mg"},{"bike_id":"b3fc85ee-a1ba-419c-825b-044ff953c285","system_id":"levelo_inurba_marseille","lat":43.31493,"lon":5.37306,"is_reserved":false,"is_disabled":false,"rental_uris":{"android":"levelo://app?vid=b3fc85ee-a1ba-419c-825b-044ff953c285","ios":"levelo://app?vid=b3fc85ee-a1ba-419c-825b-044ff953c285"},"vehicle_type_id":"4","last_reported":1727996950,"current_range_meters":33600,"station_id":"ce4bgt12rcd13ifvqcd0","pricing_plan_id":"cebpf4jnsgd1na2vs0mg"},{"bike_id":"dc086a08-bc01-4a19-b785-58f21f6829ae","system_id":"levelo_inurba_marseille","lat":43.25499,"lon":5.37649,"is_reserved":false,"is_disabled":false,"rental_uris":{"android":"levelo://app?vid=dc086a08-bc01-4a19-b785-58f21f6829ae","ios":"levelo://app?vid=dc086a08-bc01-4a19-b785-58f21f6829ae"},"vehicle_type_id":"4","last_reported":1727996950,"current_range_meters":9600,"station_id":"ce4bhh12rcd13ifvqff0","pricing_plan_id":"cebpf4jnsgd1na2vs0mg"},{"bike_id":"7211bed2-8514-4169-9df5-9ea6b7b446bf","system_id":"levelo_inurba_marseille","lat":43.2862,"lon":5.35104,"is_reserved":false,"is_disabled":false,"rental_uris":{"android":"levelo://app?vid=7211bed2-8514-4169-9df5-9ea6b7b446bf","ios":"levelo://app?vid=7211bed2-8514-4169-9df5-9ea6b7b446bf"},"vehicle_type_id":"4","last_reported":1727996950,"current_range_meters":10800,"station_id":"ce4bhch2rcd13ifvqeug","pricing_plan_id":"cebpf4jnsgd1na2vs0mg"},{"bike_id":"51cd1e64-29e5-4462-9089-bd96bb4a1dcf","system_id":"levelo_inurba_marseille","lat":43.28437,"lon":5.39194,"is_reserved":false,"is_disabled":false,"rental_uris":{"android":"levelo://app?vid=51cd1e64-29e5-4462-9089-bd96bb4a1dcf","ios":"levelo://app?vid=51cd1e64-29e5-4462-9089-bd96bb4a1dcf"},"vehicle_type_id":"4","last_reported":1727996950,"current_range_meters":12400,"station_id":"ce4bhoh2rcd13ifvqh5g","pricing_plan_id":"cebpf4jnsgd1na2vs0mg"},{"bike_id":"4e4322ae-ccc0-445e-b427-24bb2e02216e","system_id":"levelo_inurba_marseille","lat":43.24546,"lon":5.39522,"is_reserved":false,"is_disabled":false,"rental_uris":{"android":"levelo://app?vid=4e4322ae-ccc0-445e-b427-24bb2e02216e","ios":"levelo://app?vid=4e4322ae-ccc0-445e-b427-24bb2e02216e"},"vehicle_type_id":"4","last_reported":1727996950,"current_range_meters":6000,"station_id":"ce4bhlp2rcd13ifvqgjg","pricing_plan_id":"cebpf4jnsgd1na2vs0mg"},{"bike_id":"0fe5dd14-3bf7-41c4-8bf0-6fc6624c2399","system_id":"levelo_inurba_marseille","lat":43.27493,"lon":5.42458,"is_reserved":false,"is_disabled":false,"rental_uris":{"android":"levelo://app?vid=0fe5dd14-3bf7-41c4-8bf0-6fc6624c2399","ios":"levelo://app?vid=0fe5dd14-3bf7-41c4-8bf0-6fc6624c2399"},"vehicle_type_id":"4","last_reported":1727996950,"current_range_meters":36000,"station_id":"ce4bhn92rcd13ifvqgrg","pricing_plan_id":"cebpf4jnsgd1na2vs0mg"},{"bike_id":"0ff18546-e094-4087-aa0a-d40e08d58328","system_id":"levelo_inurba_marseille","lat":43.29254,"lon":5.40919,"is_reserved":false,"is_disabled":false,"rental_uris":{"android":"levelo://app?vid=0ff18546-e094-4087-aa0a-d40e08d58328","ios":"levelo://app?vid=0ff18546-e094-4087-aa0a-d40e08d58328"},"vehicle_type_id":"4","last_reported":1727996950,"current_range_meters":24000,"station_id":"ce4bh192rcd13ifvqdc0","pricing_plan_id":"cebpf4jnsgd1na2vs0mg"},{"bike_id":"b1de2d2c-06c8-4cd3-a9c2-6a5c17f5b3bb","system_id":"levelo_inurba_marseille","lat":43.32202,"lon":5.38556,"is_reserved":false,"is_disabled":false,"rental_uris":{"android":"levelo://app?vid=b1de2d2c-06c8-4cd3-a9c2-6a5c17f5b3bb","ios":"levelo://app?vid=b1de2d2c-06c8-4cd3-a9c2-6a5c17f5b3bb"},"vehicle_type_id":"4","last_reported":1727996950,"current_range_meters":12800,"station_id":"","pricing_plan_id":"cebpf4jnsgd1na2vs0mg"},{"bike_id":"ed0db05c-7ead-4cb3-b68f-851526467de3","system_id":"levelo_inurba_marseille","lat":43.26558,"lon":5.37285,"is_reserved":false,"is_disabled":false,"rental_uris":{"android":"levelo://app?vid=ed0db05c-7ead-4cb3-b68f-851526467de3","ios":"levelo://app?vid=ed0db05c-7ead-4cb3-b68f-851526467de3"},"vehicle_type_id":"4","last_reported":1727996950,"current_range_meters":16800,"station_id":"ce4bhg12rcd13ifvqf70","pricing_plan_id":"cebpf4jnsgd1na2vs0mg"},{"bike_id":"db32e16b-47d6-490e-8168-654a5eebd6ce","system_id":"levelo_inurba_marseille","lat":43.22933,"lon":5.35378,"is_reserved":false,"is_disabled":false,"rental_uris":{"android":"levelo://app?vid=db32e16b-47d6-490e-8168-654a5eebd6ce","ios":"levelo://app?vid=db32e16b-47d6-490e-8168-654a5eebd6ce"},"vehicle_type_id":"4","last_reported":1727996950,"current_range_meters":37600,"station_id":"cpo3532slgdg3j2ikp40","pricing_plan_id":"cebpf4jnsgd1na2vs0mg"},{"bike_id":"3abd7063-56b4-4bd1-abe8-e097f110e528","system_id":"levelo_inurba_marseille","lat":43.25722,"lon":5.41118,"is_reserved":false,"is_disabled":false,"rental_uris":{"android":"levelo://app?vid=3abd7063-56b4-4bd1-abe8-e097f110e528","ios":"levelo://app?vid=3abd7063-56b4-4bd1-abe8-e097f110e528"},"vehicle_type_id":"4","last_reported":1727996950,"current_range_meters":16000,"station_id":"ce4bhkp2rcd13ifvqgd0","pricing_plan_id":"cebpf4jnsgd1na2vs0mg"},{"bike_id":"ba268cfb-32df-4ac2-8d53-f107185f5557","system_id":"levelo_inurba_marseille","lat":43.27617,"lon":5.36104,"is_reserved":false,"is_disabled":false,"rental_uris":{"android":"levelo://app?vid=ba268cfb-32df-4ac2-8d53-f107185f5557","ios":"levelo://app?vid=ba268cfb-32df-4ac2-8d53-f107185f5557"},"vehicle_type_id":"4","last_reported":1727996950,"current_range_meters":36800,"station_id":"ce4bgj92rcd13ifvqbe0","pricing_plan_id":"cebpf4jnsgd1na2vs0mg"},{"bike_id":"bcfe97c2-ed46-4f1b-861f-691116da68d9","system_id":"levelo_inurba_marseille","lat":43.23184,"lon":5.39984,"is_reserved":false,"is_disabled":false,"rental_uris":{"android":"levelo://app?vid=bcfe97c2-ed46-4f1b-861f-691116da68d9","ios":"levelo://app?vid=bcfe97c2-ed46-4f1b-861f-691116da68d9"},"vehicle_type_id":"4","last_reported":1727996950,"current_range_meters":27200,"station_id":"ce4bhn12rcd13ifvqgqg","pricing_plan_id":"cebpf4jnsgd1na2vs0mg"},{"bike_id":"1398dc47-b34f-4042-b7f7-58c2a3a048c7","system_id":"levelo_inurba_marseille","lat":43.31495,"lon":5.37313,"is_reserved":false,"is_disabled":false,"rental_uris":{"android":"levelo://app?vid=1398dc47-b34f-4042-b7f7-58c2a3a048c7","ios":"levelo://app?vid=1398dc47-b34f-4042-b7f7-58c2a3a048c7"},"vehicle_type_id":"4","last_reported":1727996950,"current_range_meters":25200,"station_id":"ce4bgt12rcd13ifvqcd0","pricing_plan_id":"cebpf4jnsgd1na2vs0mg"},{"bike_id":"0fdfbc62-8090-4c2c-a1d7-119aa834ad6d","system_id":"levelo_inurba_marseille","lat":43.28107,"lon":5.37836,"is_reserved":false,"is_disabled":false,"rental_uris":{"android":"levelo://app?vid=0fdfbc62-8090-4c2c-a1d7-119aa834ad6d","ios":"levelo://app?vid=0fdfbc62-8090-4c2c-a1d7-119aa834ad6d"},"vehicle_type_id":"4","last_reported":1727996950,"current_range_meters":33200,"station_id":"ce4bha12rcd13ifvqee0","pricing_plan_id":"cebpf4jnsgd1na2vs0mg"},{"bike_id":"6068d828-93e1-4f7d-b30e-9b117ee387eb","system_id":"levelo_inurba_marseille","lat":43.26496,"lon":5.39546,"is_reserved":false,"is_disabled":false,"rental_uris":{"android":"levelo://app?vid=6068d828-93e1-4f7d-b30e-9b117ee387eb","ios":"levelo://app?vid=6068d828-93e1-4f7d-b30e-9b117ee387eb"},"vehicle_type_id":"4","last_reported":1727996950,"current_range_meters":36400,"station_id":"ce4bhi12rcd13ifvqfq0","pricing_plan_id":"cebpf4jnsgd1na2vs0mg"},{"bike_id":"38ccb47c-cec4-440c-a317-244788fef8a1","system_id":"levelo_inurba_marseille","lat":43.23964,"lon":5.36637,"is_reserved":false,"is_disabled":false,"rental_uris":{"android":"levelo://app?vid=38ccb47c-cec4-440c-a317-244788fef8a1","ios":"levelo://app?vid=38ccb47c-cec4-440c-a317-244788fef8a1"},"vehicle_type_id":"4","last_reported":1727996950,"current_range_meters":40000,"station_id":"ce4bhi12rcd13ifvqfp0","pricing_plan_id":"cebpf4jnsgd1na2vs0mg"},{"bike_id":"f7cd4d60-3937-40d2-ae08-cc6e01e01e27","system_id":"levelo_inurba_marseille","lat":43.28158,"lon":5.42647,"is_reserved":false,"is_disabled":false,"rental_uris":{"android":"levelo://app?vid=f7cd4d60-3937-40d2-ae08-cc6e01e01e27","ios":"levelo://app?vid=f7cd4d60-3937-40d2-ae08-cc6e01e01e27"},"vehicle_type_id":"4","last_reported":1727996950,"current_range_meters":2800,"station_id":"ce4bhnh2rcd13ifvqgug","pricing_plan_id":"cebpf4jnsgd1na2vs0mg"},{"bike_id":"5d5b11ce-f883-42d7-9c6b-8420681d00ec","system_id":"levelo_inurba_marseille","lat":43.31534,"lon":5.38026,"is_reserved":false,"is_disabled":false,"rental_uris":{"android":"levelo://app?vid=5d5b11ce-f883-42d7-9c6b-8420681d00ec","ios":"levelo://app?vid=5d5b11ce-f883-42d7-9c6b-8420681d00ec"},"vehicle_type_id":"4","last_reported":1727996950,"current_range_meters":12000,"station_id":"ce4bhsp2rcd13ifvqi50","pricing_plan_id":"cebpf4jnsgd1na2vs0mg"},{"bike_id":"3b1360ba-7979-49d2-9333-b33d3f5875be","system_id":"levelo_inurba_marseille","lat":43.287323,"lon":5.380943,"is_reserved":false,"is_disabled":false,"rental_uris":{"android":"levelo://app?vid=3b1360ba-7979-49d2-9333-b33d3f5875be","ios":"levelo://app?vid=3b1360ba-7979-49d2-9333-b33d3f5875be"},"vehicle_type_id":"4","last_reported":1727996950,"current_range_meters":38800,"station_id":"ce4bh312rcd13ifvqdk0","pricing_plan_id":"cebpf4jnsgd1na2vs0mg"},{"bike_id":"d7877609-6b5f-4f1b-b1e9-67841d44573b","system_id":"levelo_inurba_marseille","lat":43.29553,"lon":5.42287,"is_reserved":false,"is_disabled":false,"rental_uris":{"android":"levelo://app?vid=d7877609-6b5f-4f1b-b1e9-67841d44573b","ios":"levelo://app?vid=d7877609-6b5f-4f1b-b1e9-67841d44573b"},"vehicle_type_id":"4","last_reported":1727996950,"current_range_meters":25200,"station_id":"ce4bhph2rcd13ifvqhdg","pricing_plan_id":"cebpf4jnsgd1na2vs0mg"},{"bike_id":"411a622e-0c64-4ae7-ab3a-3b4f2603408c","system_id":"levelo_inurba_marseille","lat":43.29898,"lon":5.4367,"is_reserved":false,"is_disabled":false,"rental_uris":{"android":"levelo://app?vid=411a622e-0c64-4ae7-ab3a-3b4f2603408c","ios":"levelo://app?vid=411a622e-0c64-4ae7-ab3a-3b4f2603408c"},"vehicle_type_id":"4","last_reported":1727996950,"current_range_meters":24800,"station_id":"ce4bhpp2rcd13ifvqhfg","pricing_plan_id":"cebpf4jnsgd1na2vs0mg"},{"bike_id":"d9513a24-3235-43a7-b9a5-1c5cfe37603f","system_id":"levelo_inurba_marseille","lat":43.23059,"lon":5.3549,"is_reserved":false,"is_disabled":false,"rental_uris":{"android":"levelo://app?vid=d9513a24-3235-43a7-b9a5-1c5cfe37603f","ios":"levelo://app?vid=d9513a24-3235-43a7-b9a5-1c5cfe37603f"},"vehicle_type_id":"4","last_reported":1727996950,"current_range_meters":28000,"station_id":"cpo3342slgdg3j2ifvpg","pricing_plan_id":"cebpf4jnsgd1na2vs0mg"},{"bike_id":"b2614638-9dd4-4c23-a030-2abaad2e9464","system_id":"levelo_inurba_marseille","lat":43.286621,"lon":5.363487,"is_reserved":false,"is_disabled":false,"rental_uris":{"android":"levelo://app?vid=b2614638-9dd4-4c23-a030-2abaad2e9464","ios":"levelo://app?vid=b2614638-9dd4-4c23-a030-2abaad2e9464"},"vehicle_type_id":"4","last_reported":1727996950,"current_range_meters":10800,"station_id":"ce4bhah2rcd13ifvqej0","pricing_plan_id":"cebpf4jnsgd1na2vs0mg"},{"bike_id":"a74649b1-5942-4c72-8414-9c00a1ae1ab2","system_id":"levelo_inurba_marseille","lat":43.28845,"lon":5.35848,"is_reserved":false,"is_disabled":false,"rental_uris":{"android":"levelo://app?vid=a74649b1-5942-4c72-8414-9c00a1ae1ab2","ios":"levelo://app?vid=a74649b1-5942-4c72-8414-9c00a1ae1ab2"},"vehicle_type_id":"4","last_reported":1727996950,"current_range_meters":6000,"station_id":"ce4bhb12rcd13ifvqem0","pricing_plan_id":"cebpf4jnsgd1na2vs0mg"},{"bike_id":"75521999-1824-45fc-a7dc-a509b363a327","system_id":"levelo_inurba_marseille","lat":43.31492,"lon":5.37295,"is_reserved":false,"is_disabled":false,"rental_uris":{"android":"levelo://app?vid=75521999-1824-45fc-a7dc-a509b363a327","ios":"levelo://app?vid=75521999-1824-45fc-a7dc-a509b363a327"},"vehicle_type_id":"4","last_reported":1727996950,"current_range_meters":15200,"station_id":"ce4bgt12rcd13ifvqcd0","pricing_plan_id":"cebpf4jnsgd1na2vs0mg"},{"bike_id":"66538481-5974-4170-80ef-c603c4459cc1","system_id":"levelo_inurba_marseille","lat":43.24169,"lon":5.39743,"is_reserved":false,"is_disabled":false,"rental_uris":{"android":"levelo://app?vid=66538481-5974-4170-80ef-c603c4459cc1","ios":"levelo://app?vid=66538481-5974-4170-80ef-c603c4459cc1"},"vehicle_type_id":"4","last_reported":1727996950,"current_range_meters":38800,"station_id":"ce4bhn12rcd13ifvqgpg","pricing_plan_id":"cebpf4jnsgd1na2vs0mg"},{"bike_id":"8e72ccae-9ded-4430-b9ba-2e7d0a57edcb","system_id":"levelo_inurba_marseille","lat":43.27949,"lon":5.41036,"is_reserved":false,"is_disabled":false,"rental_uris":{"android":"levelo://app?vid=8e72ccae-9ded-4430-b9ba-2e7d0a57edcb","ios":"levelo://app?vid=8e72ccae-9ded-4430-b9ba-2e7d0a57edcb"},"vehicle_type_id":"4","last_reported":1727996950,"current_range_meters":33600,"station_id":"ce4bhnp2rcd13ifvqh0g","pricing_plan_id":"cebpf4jnsgd1na2vs0mg"},{"bike_id":"348648cb-25e3-4cb7-bd4d-d936d3037838","system_id":"levelo_inurba_marseille","lat":43.279,"lon":5.38022,"is_reserved":false,"is_disabled":false,"rental_uris":{"android":"levelo://app?vid=348648cb-25e3-4cb7-bd4d-d936d3037838","ios":"levelo://app?vid=348648cb-25e3-4cb7-bd4d-d936d3037838"},"vehicle_type_id":"4","last_reported":1727996950,"current_range_meters":23200,"station_id":"ce4bhf92rcd13ifvqf50","pricing_plan_id":"cebpf4jnsgd1na2vs0mg"},{"bike_id":"411a63d9-4064-4435-b9f0-11753a1c29a2","system_id":"levelo_inurba_marseille","lat":43.30782,"lon":5.37651,"is_reserved":false,"is_disabled":false,"rental_uris":{"android":"levelo://app?vid=411a63d9-4064-4435-b9f0-11753a1c29a2","ios":"levelo://app?vid=411a63d9-4064-4435-b9f0-11753a1c29a2"},"vehicle_type_id":"4","last_reported":1727996950,"current_range_meters":11200,"station_id":"ce4bgv92rcd13ifvqcq0","pricing_plan_id":"cebpf4jnsgd1na2vs0mg"},{"bike_id":"702e794a-26b3-4630-a4a6-dcbe273f4aaa","system_id":"levelo_inurba_marseille","lat":43.28454,"lon":5.35879,"is_reserved":false,"is_disabled":false,"rental_uris":{"android":"levelo://app?vid=702e794a-26b3-4630-a4a6-dcbe273f4aaa","ios":"levelo://app?vid=702e794a-26b3-4630-a4a6-dcbe273f4aaa"},"vehicle_type_id":"4","last_reported":1727996950,"current_range_meters":32400,"station_id":"ce4bhah2rcd13ifvqei0","pricing_plan_id":"cebpf4jnsgd1na2vs0mg"},{"bike_id":"2ea0b90a-ee42-42eb-88b7-c289f9e72cb7","system_id":"levelo_inurba_marseille","lat":43.30796,"lon":5.43526,"is_reserved":false,"is_disabled":false,"rental_uris":{"android":"levelo://app?vid=2ea0b90a-ee42-42eb-88b7-c289f9e72cb7","ios":"levelo://app?vid=2ea0b90a-ee42-42eb-88b7-c289f9e72cb7"},"vehicle_type_id":"4","last_reported":1727996950,"current_range_meters":34800,"station_id":"ce4bhph2rcd13ifvqheg","pricing_plan_id":"cebpf4jnsgd1na2vs0mg"},{"bike_id":"d5ac08ae-117b-4356-80a9-fbe2030466ac","system_id":"levelo_inurba_marseille","lat":43.30798,"lon":5.38151,"is_reserved":false,"is_disabled":false,"rental_uris":{"android":"levelo://app?vid=d5ac08ae-117b-4356-80a9-fbe2030466ac","ios":"levelo://app?vid=d5ac08ae-117b-4356-80a9-fbe2030466ac"},"vehicle_type_id":"4","last_reported":1727996950,"current_range_meters":38800,"station_id":"ce4bgt12rcd13ifvqce0","pricing_plan_id":"cebpf4jnsgd1na2vs0mg"},{"bike_id":"c5205723-8014-4731-b731-b003d540dd7d","system_id":"levelo_inurba_marseille","lat":43.29188,"lon":5.35813,"is_reserved":false,"is_disabled":false,"rental_uris":{"android":"levelo://app?vid=c5205723-8014-4731-b731-b003d540dd7d","ios":"levelo://app?vid=c5205723-8014-4731-b731-b003d540dd7d"},"vehicle_type_id":"4","last_reported":1727996950,"current_range_meters":38800,"station_id":"ce4bhb12rcd13ifvqel0","pricing_plan_id":"cebpf4jnsgd1na2vs0mg"},{"bike_id":"eee1dc5a-9ffe-417d-a588-57898aac93ea","system_id":"levelo_inurba_marseille","lat":43.28074,"lon":5.39659,"is_reserved":false,"is_disabled":false,"rental_uris":{"android":"levelo://app?vid=eee1dc5a-9ffe-417d-a588-57898aac93ea","ios":"levelo://app?vid=eee1dc5a-9ffe-417d-a588-57898aac93ea"},"vehicle_type_id":"4","last_reported":1727996950,"current_range_meters":22800,"station_id":"ce4bho12rcd13ifvqh2g","pricing_plan_id":"cebpf4jnsgd1na2vs0mg"},{"bike_id":"72005ed2-b08a-48cd-bde5-345bc51b6eef","system_id":"levelo_inurba_marseille","lat":43.29037,"lon":5.35921,"is_reserved":false,"is_disabled":false,"rental_uris":{"android":"levelo://app?vid=72005ed2-b08a-48cd-bde5-345bc51b6eef","ios":"levelo://app?vid=72005ed2-b08a-48cd-bde5-345bc51b6eef"},"vehicle_type_id":"4","last_reported":1727996950,"current_range_meters":31200,"station_id":"ce4bha92rcd13ifvqeg0","pricing_plan_id":"cebpf4jnsgd1na2vs0mg"},{"bike_id":"219974ba-c8d7-4c5f-b74f-8c75358a64c1","system_id":"levelo_inurba_marseille","lat":43.30934,"lon":5.40146,"is_reserved":false,"is_disabled":false,"rental_uris":{"android":"levelo://app?vid=219974ba-c8d7-4c5f-b74f-8c75358a64c1","ios":"levelo://app?vid=219974ba-c8d7-4c5f-b74f-8c75358a64c1"},"vehicle_type_id":"4","last_reported":1727996950,"current_range_meters":38000,"station_id":"ce4bgvp2rcd13ifvqct0","pricing_plan_id":"cebpf4jnsgd1na2vs0mg"},{"bike_id":"c9042dc2-c87b-4431-931a-55dd455c372b","system_id":"levelo_inurba_marseille","lat":43.31482,"lon":5.37306,"is_reserved":false,"is_disabled":false,"rental_uris":{"android":"levelo://app?vid=c9042dc2-c87b-4431-931a-55dd455c372b","ios":"levelo://app?vid=c9042dc2-c87b-4431-931a-55dd455c372b"},"vehicle_type_id":"4","last_reported":1727996950,"current_range_meters":12000,"station_id":"ce4bgt12rcd13ifvqcd0","pricing_plan_id":"cebpf4jnsgd1na2vs0mg"},{"bike_id":"b353c13d-95b5-4054-8b91-aee183cd7b21","system_id":"levelo_inurba_marseille","lat":43.31995,"lon":5.38147,"is_reserved":false,"is_disabled":false,"rental_uris":{"android":"levelo://app?vid=b353c13d-95b5-4054-8b91-aee183cd7b21","ios":"levelo://app?vid=b353c13d-95b5-4054-8b91-aee183cd7b21"},"vehicle_type_id":"4","last_reported":1727996950,"current_range_meters":38800,"station_id":"ce4bhr12rcd13ifvqhpg","pricing_plan_id":"cebpf4jnsgd1na2vs0mg"},