{"last_updated":1752567387,"ttl":60,"version":"2.2","data":{"bikes":[{"bike_id":"feb1ed1d-b0db-45cc-9e1b-7311a8d72058","system_id":"levelo_inurba_marseille","lat":43.33747,"lon":5.37463,"is_reserved":false,"is_disabled":false,"rental_uris":{"android":"levelo://app?vid=feb1ed1d-b0db-45cc-9e1b-7311a8d72058","ios":"levelo://app?vid=feb1ed1d-b0db-45cc-9e1b-7311a8d72058"},"vehicle_type_id":"1","last_reported":1752567387,"current_range_meters":34000,"station_id":"","pricing_plan_id":"cebpf4jnsgd1na2vs0mg"},{"bike_id":"6cabfdb8-ef3a-454a-8b83-d82c006810c9","system_id":"levelo_inurba_marseille","lat":43.299735,"lon":5.41323,"is_reserved":false,"is_disabled":false,"rental_uris":{"android":"levelo://app?vid=6cabfdb8-ef3a-454a-8b83-d82c006810c9","ios":"levelo://app?vid=6cabfdb8-ef3a-454a-8b83-d82c006810c9"},"vehicle_type_id":"4","last_reported":1752567387,"current_range_meters":3600,"station_id":"ce4bhp12rcd13ifvqh9g","pricing_plan_id":"cebpf4jnsgd1na2vs0mg"},{"bike_id":"3018b945-a9ef-4710-9a9e-1c600d262c5f","system_id":"levelo_inurba_marseille","lat":43.30605,"lon":5.39355,"is_reserved":false,"is_disabled":false,"rental_uris":{"android":"levelo://app?vid=3018b945-a9ef-4710-9a9e-1c600d262c5f","ios":"levelo://app?vid=3018b945-a9ef-4710-9a9e-1c600d262c5f"},"vehicle_type_id":"4","last_reported":1752567387,"current_range_meters":3600,"station_id":"ce4bh0p2rcd13ifvqd80","pricing_plan_id":"cebpf4jnsgd1na2vs0mg"},{"bike_id":"9203de14-941b-48af-b793-9099b8009894","system_id":"levelo_inurba_marseille","lat":43.27122,"lon":5.41803,"is_reserved":false,"is_disabled":false,"rental_uris":{"android":"levelo://app?vid=9203de14-941b-48af-b793-9099b8009894","ios":"levelo://app?vid=9203de14-941b-48af-b793-9099b8009894"},"vehicle_type_id":"4","last_reported":1752567387,"current_range_meters":4400,"station_id":"","pricing_plan_id":"cebpf4jnsgd1na2vs0mg"},{"bike_id":"748d3fec-8221-498c-bebf-345a96756901","system_id":"levelo_inurba_marseille","lat":43.29272,"lon":5.36834,"is_reserved":false,"is_disabled":false,"rental_uris":{"android":"levelo://app?vid=748d3fec-8221-498c-bebf-345a96756901","ios":"levelo://app?vid=748d3fec-8221-498c-bebf-345a96756901"},"vehicle_type_id":"4","last_reported":1752567387,"current_range_meters":4400,"station_id":"","pricing_plan_id":"cebpf4jnsgd1na2vs0mg"},{"bike_id":"6f603e6b-5437-434c-9780-f1082a040efa","system_id":"levelo_inurba_marseille","lat":43.25617,"lon":5.38718,"is_reserved":false,"is_disabled":false,"rental_uris":{"android":"levelo://app?vid=6f603e6b-5437-434c-9780-f1082a040efa","ios":"levelo://app?vid=6f603e6b-5437-434c-9780-f1082a040efa"},"vehicle_type_id":"4","last_reported":1752567387,"current_range_meters":4400,"station_id":"","pricing_plan_id":"cebpf4jnsgd1na2vs0mg"},{"bike_id":"8eec3b7b-dfad-45e1-a377-55894312b7c8","system_id":"levelo_inurba_marseille","lat":43.3041,"lon":5.4129,"is_reserved":false,"is_disabled":false,"rental_uris":{"android":"levelo://app?vid=8eec3b7b-dfad-45e1-a377-55894312b7c8","ios":"levelo://app?vid=8eec3b7b-dfad-45e1-a377-55894312b7c8"},"vehicle_type_id":"4","last_reported":1752567387,"current_range_meters":4800,"station_id":"ce4bhop2rcd13ifvqh8g","pricing_plan_id":"cebpf4jnsgd1na2vs0mg"},{"bike_id":"97116945-f406-4dcc-971e-deff2ff8d4fa","system_id":"levelo_inurba_marseille","lat":43.32353,"lon":5.36744,"is_reserved":false,"is_disabled":false,"rental_uris":{"android":"levelo://app?vid=97116945-f406-4dcc-971e-deff2ff8d4fa","ios":"levelo://app?vid=97116945-f406-4dcc-971e-deff2ff8d4fa"},"vehicle_type_id":"4","last_reported":1752567387,"current_range_meters":6400,"station_id":"ce4bhsh2rcd13ifvqi2g","pricing_plan_id":"cebpf4jnsgd1na2vs0mg"},{"bike_id":"b10f440c-4032-4ed5-b34d-b7935416dea9","system_id":"levelo_inurba_marseille","lat":43.24158,"lon":5.39738,"is_reserved":false,"is_disabled":false,"rental_uris":{"android":"levelo://app?vid=b10f440c-4032-4ed5-b34d-b7935416dea9","ios":"levelo://app?vid=b10f440c-4032-4ed5-b34d-b7935416dea9"},"vehicle_type_id":"4","last_reported":1752567387,"current_range_meters":6400,"station_id":"ce4bhn12rcd13ifvqgpg","pricing_plan_id":"cebpf4jnsgd1na2vs0mg"},{"bike_id":"e3c4fd92-b642-4c9f-947d-dece528cbad9","system_id":"levelo_inurba_marseille","lat":43.27836,"lon":5.39206,"is_reserved":false,"is_disabled":false,"rental_uris":{"android":"levelo://app?vid=e3c4fd92-b642-4c9f-947d-dece528cbad9","ios":"levelo://app?vid=e3c4fd92-b642-4c9f-947d-dece528cbad9"},"vehicle_type_id":"4","last_reported":1752567387,"current_range_meters":6400,"station_id":"ce4bhjp2rcd13ifvqga0","pricing_plan_id":"cebpf4jnsgd1na2vs0mg"},{"bike_id":"b4460205-37b7-4483-a48f-fb16378eb2f8","system_id":"levelo_inurba_marseille","lat":43.29051,"lon":5.35913,"is_reserved":false,"is_disabled":false,"rental_uris":{"android":"levelo://app?vid=b4460205-37b7-4483-a48f-fb16378eb2f8","ios":"levelo://app?vid=b4460205-37b7-4483-a48f-fb16378eb2f8"},"vehicle_type_id":"4","last_reported":1752567387,"current_range_meters":6400,"station_id":"ce4bha92rcd13ifvqeg0","pricing_plan_id":"cebpf4jnsgd1na2vs0mg"},{"bike_id":"efe45218-8e6a-40cf-97b5-9e7b67c12ca7","system_id":"levelo_inurba_marseille","lat":43.28361,"lon":5.38631,"is_reserved":false,"is_disabled":false,"rental_uris":{"android":"levelo://app?vid=efe45218-8e6a-40cf-97b5-9e7b67c12ca7","ios":"levelo://app?vid=efe45218-8e6a-40cf-97b5-9e7b67c12ca7"},"vehicle_type_id":"4","last_reported":1752567387,"current_range_meters":6800,"station_id":"ce4bh492rcd13ifvqdvg","pricing_plan_id":"cebpf4jnsgd1na2vs0mg"},{"bike_id":"0b7d41b3-0cfd-4d29-96d0-1a42e44f3dcd","system_id":"levelo_inurba_marseille","lat":43.24185,"lon":5.39735,"is_reserved":false,"is_disabled":false,"rental_uris":{"android":"levelo://app?vid=0b7d41b3-0cfd-4d29-96d0-1a42e44f3dcd","ios":"levelo://app?vid=0b7d41b3-0cfd-4d29-96d0-1a42e44f3dcd"},"vehicle_type_id":"4","last_reported":1752567387,"current_range_meters":7200,"station_id":"ce4bhn12rcd13ifvqgpg","pricing_plan_id":"cebpf4jnsgd1na2vs0mg"},{"bike_id":"7203c0d5-ea15-46c1-805c-8ecc9fe7f557","system_id":"levelo_inurba_marseille","lat":43.22499,"lon":5.34781,"is_reserved":false,"is_disabled":false,"rental_uris":{"android":"levelo://app?vid=7203c0d5-ea15-46c1-805c-8ecc9fe7f557","ios":"levelo://app?vid=7203c0d5-ea15-46c1-805c-8ecc9fe7f557"},"vehicle_type_id":"4","last_reported":1752567387,"current_range_meters":7200,"station_id":"st_cvj5dfep6f1abm77gieg","pricing_plan_id":"cebpf4jnsgd1na2vs0mg"},{"bike_id":"a58ea047-81c4-4f20-999c-6c49dfa8dd2d","system_id":"levelo_inurba_marseille","lat":43.29275,"lon":5.38463,"is_reserved":false,"is_disabled":false,"rental_uris":{"android":"levelo://app?vid=a58ea047-81c4-4f20-999c-6c49dfa8dd2d","ios":"levelo://app?vid=a58ea047-81c4-4f20-999c-6c49dfa8dd2d"},"vehicle_type_id":"4","last_reported":1752567387,"current_range_meters":7200,"station_id":"ce4bh692rcd13ifvqea0","pricing_plan_id":"cebpf4jnsgd1na2vs0mg"},{"bike_id":"2c66c6a3-c3a9-4faf-bc13-2dec19484e98","system_id":"levelo_inurba_marseille","lat":43.303717,"lon":5.424737,"is_reserved":false,"is_disabled":false,"rental_uris":{"android":"levelo://app?vid=2c66c6a3-c3a9-4faf-bc13-2dec19484e98","ios":"levelo://app?vid=2c66c6a3-c3a9-4faf-bc13-2dec19484e98"},"vehicle_type_id":"4","last_reported":1752567387,"current_range_meters":7200,"station_id":"ce4bhoh2rcd13ifvqh6g","pricing_plan_id":"cebpf4jnsgd1na2vs0mg"},{"bike_id":"07b80ba8-94f7-4006-b883-d44157aa02a8","system_id":"levelo_inurba_marseille","lat":43.211958,"lon":5.350627,"is_reserved":false,"is_disabled":false,"rental_uris":{"android":"levelo://app?vid=07b80ba8-94f7-4006-b883-d44157aa02a8","ios":"levelo://app?vid=07b80ba8-94f7-4006-b883-d44157aa02a8"},"vehicle_type_id":"4","last_reported":1752567387,"current_range_meters":8000,"station_id":"st_cvj6sg6p6f1abm77japg","pricing_plan_id":"cebpf4jnsgd1na2vs0mg"},{"bike_id":"4026c91c-d6e8-4686-b762-11d3714cecf8","system_id":"levelo_inurba_marseille","lat":43.29195,"lon":5.35918,"is_reserved":false,"is_disabled":true,"rental_uris":{"android":"levelo://app?vid=4026c91c-d6e8-4686-b762-11d3714cecf8","ios":"levelo://app?vid=4026c91c-d6e8-4686-b762-11d3714cecf8"},"vehicle_type_id":"4","last_reported":1752567387,"current_range_meters":8400,"station_id":"","pricing_plan_id":"cebpf4jnsgd1na2vs0mg"},{"bike_id":"08871abd-6758-4cce-aa0d-4fb2cd904604","system_id":"levelo_inurba_marseille","lat":43.292724,"lon":5.401191,"is_reserved":false,"is_disabled":false,"rental_uris":{"android":"levelo://app?vid=08871abd-6758-4cce-aa0d-4fb2cd904604","ios":"levelo://app?vid=08871abd-6758-4cce-aa0d-4fb2cd904604"},"vehicle_type_id":"4","last_reported":1752567387,"current_range_meters":8400,"station_id":"ce4bh312rcd13ifvqdk0","pricing_plan_id":"cebpf4jnsgd1na2vs0mg"},{"bike_id":"875e90c6-f554-4474-b019-f236ef1ee1d2","system_id":"levelo_inurba_marseille","lat":43.30548,"lon":5.3652,"is_reserved":false,"is_disabled":false,"rental_uris":{"android":"levelo://app?vid=875e90c6-f554-4474-b019-f236ef1ee1d2","ios":"levelo://app?vid=875e90c6-f554-4474-b019-f236ef1ee1d2"},"vehicle_type_id":"4","last_reported":1752567387,"current_range_meters":8400,"station_id":"ce4bgs12rcd13ifvqcag","pricing_plan_id":"cebpf4jnsgd1na2vs0mg"},{"bike_id":"7b7fb125-1e21-4d9b-b9b6-967459d426be","system_id":"levelo_inurba_marseille","lat":43.30322,"lon":5.40428,"is_reserved":false,"is_disabled":false,"rental_uris":{"android":"levelo://app?vid=7b7fb125-1e21-4d9b-b9b6-967459d426be","ios":"levelo://app?vid=7b7fb125-1e21-4d9b-b9b6-967459d426be"},"vehicle_type_id":"4","last_reported":1752567387,"current_range_meters":8400,"station_id":"ce4bh012rcd13ifvqd10","pricing_plan_id":"cebpf4jnsgd1na2vs0mg"},{"bike_id":"9bfee813-6ea1-447b-ae06-8ea791cc5bfd","system_id":"levelo_inurba_marseille","lat":43.320421,"lon":5.41551,"is_reserved":false,"is_disabled":false,"rental_uris":{"android":"levelo://app?vid=9bfee813-6ea1-447b-ae06-8ea791cc5bfd","ios":"levelo://app?vid=9bfee813-6ea1-447b-ae06-8ea791cc5bfd"},"vehicle_type_id":"4","last_reported":1752567387,"current_range_meters":8800,"station_id":"ce4bhq92rcd13ifvqhkg","pricing_plan_id":"cebpf4jnsgd1na2vs0mg"},{"bike_id":"1fbaf219-67be-45b8-aacc-64d6722df546","system_id":"levelo_inurba_marseille","lat":43.29023,"lon":5.38641,"is_reserved":false,"is_disabled":false,"rental_uris":{"android":"levelo://app?vid=1fbaf219-67be-45b8-aacc-64d6722df546","ios":"levelo://app?vid=1fbaf219-67be-45b8-aacc-64d6722df546"},"vehicle_type_id":"4","last_reported":1752567387,"current_range_meters":8800,"station_id":"ce4bh4p2rcd13ifvqe0g","pricing_plan_id":"cebpf4jnsgd1na2vs0mg"},{"bike_id":"aa6cf808-3789-4abe-bc4e-3b9f44cadf70","system_id":"levelo_inurba_marseille","lat":43.306817,"lon":5.400089,"is_reserved":false,"is_disabled":false,"rental_uris":{"android":"levelo://app?vid=aa6cf808-3789-4abe-bc4e-3b9f44cadf70","ios":"levelo://app?vid=aa6cf808-3789-4abe-bc4e-3b9f44cadf70"},"vehicle_type_id":"4","last_reported":1752567387,"current_range_meters":8400,"station_id":"ce4bgvp2rcd13ifvqct0","pricing_plan_id":"cebpf4jnsgd1na2vs0mg"},{"bike_id":"bbecebd5-e169-4f4b-95d1-a6ea918615be","system_id":"levelo_inurba_marseille","lat":43.28941,"lon":5.36397,"is_reserved":false,"is_disabled":false,"rental_uris":{"android":"levelo://app?vid=bbecebd5-e169-4f4b-95d1-a6ea918615be","ios":"levelo://app?vid=bbecebd5-e169-4f4b-95d1-a6ea918615be"},"vehicle_type_id":"4","last_reported":1752567387,"current_range_meters":8800,"station_id":"ce4bhc92rcd13ifvqetg","pricing_plan_id":"cebpf4jnsgd1na2vs0mg"},{"bike_id":"a6b3227f-b701-4da1-bc51-facedb90843a","system_id":"levelo_inurba_marseille","lat":43.272096,"lon":5.391795,"is_reserved":false,"is_disabled":false,"rental_uris":{"android":"levelo://app?vid=a6b3227f-b701-4da1-bc51-facedb90843a","ios":"levelo://app?vid=a6b3227f-b701-4da1-bc51-facedb90843a"},"vehicle_type_id":"4","last_reported":1752567387,"current_range_meters":8800,"station_id":"ce4bhhp2rcd13ifvqfm0","pricing_plan_id":"cebpf4jnsgd1na2vs0mg"},{"bike_id":"c14947c2-7b5b-4c03-b04b-d7f22fccfd67","system_id":"levelo_inurba_marseille","lat":43.211879,"lon":5.350691,"is_reserved":false,"is_disabled":false,"rental_uris":{"android":"levelo://app?vid=c14947c2-7b5b-4c03-b04b-d7f22fccfd67","ios":"levelo://app?vid=c14947c2-7b5b-4c03-b04b-d7f22fccfd67"},"vehicle_type_id":"4","last_reported":1752567387,"current_range_meters":9200,"station_id":"st_cvj6sg6p6f1abm77japg","pricing_plan_id":"cebpf4jnsgd1na2vs0mg"},{"bike_id":"41749a03-e217-4c61-b124-6ae00886bb57","system_id":"levelo_inurba_marseille","lat":43.241835,"lon":5.397145,"is_reserved":false,"is_disabled":false,"rental_uris":{"android":"levelo://app?vid=41749a03-e217-4c61-b124-6ae00886bb57","ios":"levelo://app?vid=41749a03-e217-4c61-b124-6ae00886bb57"},"vehicle_type_id":"4","last_reported":1752567387,"current_range_meters":9200,"station_id":"ce4bhn12rcd13ifvqgpg","pricing_plan_id":"cebpf4jnsgd1na2vs0mg"},{"bike_id":"76450138-a009-4e51-b025-56d894dfe988","system_id":"levelo_inurba_marseille","lat":43.28276,"lon":5.35075,"is_reserved":false,"is_disabled":false,"rental_uris":{"android":"levelo://app?vid=76450138-a009-4e51-b025-56d894dfe988","ios":"levelo://app?vid=76450138-a009-4e51-b025-56d894dfe988"},"vehicle_type_id":"4","last_reported":1752567387,"current_range_meters":14400,"station_id":"ce4bhbp2rcd13ifvqerg","pricing_plan_id":"cebpf4jnsgd1na2vs0mg"},{"bike_id":"8a01e88a-8371-4085-9838-47ae11897cd3","system_id":"levelo_inurba_marseille","lat":43.28155,"lon":5.42629,"is_reserved":false,"is_disabled":true,"rental_uris":{"android":"levelo://app?vid=8a01e88a-8371-4085-9838-47ae11897cd3","ios":"levelo://app?vid=8a01e88a-8371-4085-9838-47ae11897cd3"},"vehicle_type_id":"4","last_reported":1752567387,"current_range_meters":9200,"station_id":"ce4bhnh2rcd13ifvqgug","pricing_plan_id":"cebpf4jnsgd1na2vs0mg"},{"bike_id":"cd5ee8c6-466d-4b4c-843c-548d4ad29d89","system_id":"levelo_inurba_marseille","lat":43.30545,"lon":5.36554,"is_reserved":false,"is_disabled":false,"rental_uris":{"android":"levelo://app?vid=cd5ee8c6-466d-4b4c-843c-548d4ad29d89","ios":"levelo://app?vid=cd5ee8c6-466d-4b4c-843c-548d4ad29d89"},"vehicle_type_id":"4","last_reported":1752567387,"current_range_meters":9600,"station_id":"ce4bgs12rcd13ifvqcag","pricing_plan_id":"cebpf4jnsgd1na2vs0mg"},{"bike_id":"a4d07f45-19f9-4df9-9728-be6623530a64","system_id":"levelo_inurba_marseille","lat":43.23693,"lon":5.38848,"is_reserved":false,"is_disabled":false,"rental_uris":{"android":"levelo://app?vid=a4d07f45-19f9-4df9-9728-be6623530a64","ios":"levelo://app?vid=a4d07f45-19f9-4df9-9728-be6623530a64"},"vehicle_type_id":"4","last_reported":1752567387,"current_range_meters":9600,"station_id":"","pricing_plan_id":"cebpf4jnsgd1na2vs0mg"},{"bike_id":"c42e290e-23db-4f15-822b-cf6b5e788a74","system_id":"levelo_inurba_marseille","lat":43.29894,"lon":5.43647,"is_reserved":false,"is_disabled":false,"rental_uris":{"android":"levelo://app?vid=c42e290e-23db-4f15-822b-cf6b5e788a74","ios":"levelo://app?vid=c42e290e-23db-4f15-822b-cf6b5e788a74"},"vehicle_type_id":"4","last_reported":1752567387,"current_range_meters":9600,"station_id":"ce4bhpp2rcd13ifvqhfg","pricing_plan_id":"cebpf4jnsgd1na2vs0mg"},{"bike_id":"a6825b7f-92a2-4805-ae26-cb57994f41de","system_id":"levelo_inurba_marseille","lat":43.295277,"lon":5.385378,"is_reserved":false,"is_disabled":false,"rental_uris":{"android":"levelo://app?vid=a6825b7f-92a2-4805-ae26-cb57994f41de","ios":"levelo://app?vid=a6825b7f-92a2-4805-ae26-cb57994f41de"},"vehicle_type_id":"4","last_reported":1752567387,"current_range_meters":9600,"station_id":"ce4bgih2rcd13ifvqba0","pricing_plan_id":"cebpf4jnsgd1na2vs0mg"},{"bike_id":"856f2d23-2d4b-4e7d-9b18-dff24c595dd3","system_id":"levelo_inurba_marseille","lat":43.26769,"lon":5.39414,"is_reserved":false,"is_disabled":false,"rental_uris":{"android":"levelo://app?vid=856f2d23-2d4b-4e7d-9b18-dff24c595dd3","ios":"levelo://app?vid=856f2d23-2d4b-4e7d-9b18-dff24c595dd3"},"vehicle_type_id":"4","last_reported":1752567387,"current_range_meters":9600,"station_id":"ce4bhh12rcd13ifvqfg0","pricing_plan_id":"cebpf4jnsgd1na2vs0mg"},{"bike_id":"c8c4de1a-846f-4f5b-aace-9fb14bf7ad52","system_id":"levelo_inurba_marseille","lat":43.211908,"lon":5.3507,"is_reserved":false,"is_disabled":false,"rental_uris":{"android":"levelo://app?vid=c8c4de1a-846f-4f5b-aace-9fb14bf7ad52","ios":"levelo://app?vid=c8c4de1a-846f-4f5b-aace-9fb14bf7ad52"},"vehicle_type_id":"4","last_reported":1752567387,"current_range_meters":9600,"station_id":"st_cvj6sg6p6f1abm77japg","pricing_plan_id":"cebpf4jnsgd1na2vs0mg"},{"bike_id":"9b5b4e32-407e-4b07-8f0f-0e8bc33d0172","system_id":"levelo_inurba_marseille","lat":43.29612,"lon":5.37721,"is_reserved":false,"is_disabled":false,"rental_uris":{"android":"levelo://app?vid=9b5b4e32-407e-4b07-8f0f-0e8bc33d0172","ios":"levelo://app?vid=9b5b4e32-407e-4b07-8f0f-0e8bc33d0172"},"vehicle_type_id":"4","last_reported":1752567387,"current_range_meters":9600,"station_id":"ce4bgi92rcd13ifvqb90","pricing_plan_id":"cebpf4jnsgd1na2vs0mg"},{"bike_id":"b2bb59b7-8de4-4bdc-a4ce-5624e67ff176","system_id":"levelo_inurba_marseille","lat":43.29924,"lon":5.3655,"is_reserved":false,"is_disabled":false,"rental_uris":{"android":"levelo://app?vid=b2bb59b7-8de4-4bdc-a4ce-5624e67ff176","ios":"levelo://app?vid=b2bb59b7-8de4-4bdc-a4ce-5624e67ff176"},"vehicle_type_id":"4","last_reported":1752567387,"current_range_meters":9600,"station_id":"ce4bgm92rcd13ifvqbr0","pricing_plan_id":"cebpf4jnsgd1na2vs0mg"},{"bike_id":"697d5fc4-b988-4a4e-8323-c1ce5ed61a61","system_id":"levelo_inurba_marseille","lat":43.21193,"lon":5.35058,"is_reserved":false,"is_disabled":false,"rental_uris":{"android":"levelo://app?vid=697d5fc4-b988-4a4e-8323-c1ce5ed61a61","ios":"levelo://app?vid=697d5fc4-b988-4a4e-8323-c1ce5ed61a61"},"vehicle_type_id":"4","last_reported":1752567387,"current_range_meters":10000,"station_id":"st_cvj6sg6p6f1abm77japg","pricing_plan_id":"cebpf4jnsgd1na2vs0mg"},{"bike_id":"ffa5ccb4-905c-4e50-802b-1c1f9b2cbe03","system_id":"levelo_inurba_marseille","lat":43.211915,"lon":5.350743,"is_reserved":false,"is_disabled":true,"rental_uris":{"android":"levelo://app?vid=ffa5ccb4-905c-4e50-802b-1c1f9b2cbe03","ios":"levelo://app?vid=ffa5ccb4-905c-4e50-802b-1c1f9b2cbe03"},"vehicle_type_id":"4","last_reported":1752567387,"current_range_meters":10000,"station_id":"st_cvj6sg6p6f1abm77japg","pricing_plan_id":"cebpf4jnsgd1na2vs0mg"},{"bike_id":"9b1afee0-5d71-42b1-bfb3-0f11fa1e097d","system_id":"levelo_inurba_marseille","lat":43.292534,"lon":5.376396,"is_reserved":false,"is_disabled":false,"rental_uris":{"android":"levelo://app?vid=9b1afee0-5d71-42b1-bfb3-0f11fa1e097d","ios":"levelo://app?vid=9b1afee0-5d71-42b1-bfb3-0f11fa1e097d"},"vehicle_type_id":"4","last_reported":1752567387,"current_range_meters":10000,"station_id":"","pricing_plan_id":"cebpf4jnsgd1na2vs0mg"},{"bike_id":"ccc8188a-8f50-4813-9218-1b8f56b61c33","system_id":"levelo_inurba_marseille","lat":43.25894,"lon":5.40889,"is_reserved":false,"is_disabled":false,"rental_uris":{"android":"levelo://app?vid=ccc8188a-8f50-4813-9218-1b8f56b61c33","ios":"levelo://app?vid=ccc8188a-8f50-4813-9218-1b8f56b61c33"},"vehicle_type_id":"4","last_reported":1752567387,"current_range_meters":10000,"station_id":"ce4bhm92rcd13ifvqglg","pricing_plan_id":"cebpf4jnsgd1na2vs0mg"},{"bike_id":"06f20a59-a5d0-4543-b35a-5e1cb795eca0","system_id":"levelo_inurba_marseille","lat":43.27312,"lon":5.39122,"is_reserved":false,"is_disabled":false,"rental_uris":{"android":"levelo://app?vid=06f20a59-a5d0-4543-b35a-5e1cb795eca0","ios":"levelo://app?vid=06f20a59-a5d0-4543-b35a-5e1cb795eca0"},"vehicle_type_id":"4","last_reported":1752567387,"current_range_meters":10000,"station_id":"ce4bhgp2rcd13ifvqfe0","pricing_plan_id":"cebpf4jnsgd1na2vs0mg"},{"bike_id":"e91ced2f-2041-4b38-8446-0d5d97adec95","system_id":"levelo_inurba_marseille","lat":43.255763,"lon":5.382306,"is_reserved":false,"is_disabled":true,"rental_uris":{"android":"levelo://app?vid=e91ced2f-2041-4b38-8446-0d5d97adec95","ios":"levelo://app?vid=e91ced2f-2041-4b38-8446-0d5d97adec95"},"vehicle_type_id":"4","last_reported":1752567387,"current_range_meters":10000,"station_id":"ce4bhih2rcd13ifvqfs0","pricing_plan_id":"cebpf4jnsgd1na2vs0mg"},{"bike_id":"b395f40b-7294-4f93-86ea-d0af43e298e3","system_id":"levelo_inurba_marseille","lat":43.29518,"lon":5.39405,"is_reserved":false,"is_disabled":false,"rental_uris":{"android":"levelo://app?vid=b395f40b-7294-4f93-86ea-d0af43e298e3","ios":"levelo://app?vid=b395f40b-7294-4f93-86ea-d0af43e298e3"},"vehicle_type_id":"4","last_reported":1752567387,"current_range_meters":10000,"station_id":"ce4bh292rcd13ifvqdf0","pricing_plan_id":"cebpf4jnsgd1na2vs0mg"},{"bike_id":"2a0aedde-7f30-493f-9aae-d292c759cf7c","system_id":"levelo_inurba_marseille","lat":43.27914,"lon":5.39589,"is_reserved":false,"is_disabled":true,"rental_uris":{"android":"levelo://app?vid=2a0aedde-7f30-493f-9aae-d292c759cf7c","ios":"levelo://app?vid=2a0aedde-7f30-493f-9aae-d292c759cf7c"},"vehicle_type_id":"4","last_reported":1752567387,"current_range_meters":10000,"station_id":"ce4bhf92rcd13ifvqf40","pricing_plan_id":"cebpf4jnsgd1na2vs0mg"},{"bike_id":"df737b47-6e09-4542-8d35-f3681d0e6a4d","system_id":"levelo_inurba_marseille","lat":43.27613,"lon":5.36126,"is_reserved":false,"is_disabled":true,"rental_uris":{"android":"levelo://app?vid=df737b47-6e09-4542-8d35-f3681d0e6a4d","ios":"levelo://app?vid=df737b47-6e09-4542-8d35-f3681d0e6a4d"},"vehicle_type_id":"4","last_reported":1752567387,"current_range_meters":10800,"station_id":"ce4bgj92rcd13ifvqbe0","pricing_plan_id":"cebpf4jnsgd1na2vs0mg"},{"bike_id":"6ac174d4-75c5-4a9c-9699-97cd631c6e65","system_id":"levelo_inurba_marseille","lat":43.25464,"lon":5.39935,"is_reserved":false,"is_disabled":false,"rental_uris":{"android":"levelo://app?vid=6ac174d4-75c5-4a9c-9699-97cd631c6e65","ios":"levelo://app?vid=6ac174d4-75c5-4a9c-9699-97cd631c6e65"},"vehicle_type_id":"4","last_reported":1752567387,"current_range_meters":10800,"station_id":"","pricing_plan_id":"cebpf4jnsgd1na2vs0mg"},{"bike_id":"f5a47db5-6fb2-46bd-a2de-efa4ad13bf60","system_id":"levelo_inurba_marseille","lat":43.21193,"lon":5.35069,"is_reserved":false,"is_disabled":false,"rental_uris":{"android":"levelo://app?vid=f5a47db5-6fb2-46bd-a2de-efa4ad13bf60","ios":"levelo://app?vid=f5a47db5-6fb2-46bd-a2de-efa4ad13bf60"},"vehicle_type_id":"4","last_reported":1752567387,"current_range_meters":10800,"station_id":"st_cvj6sg6p6f1abm77japg","pricing_plan_id":"cebpf4jnsgd1na2vs0mg"},{"bike_id":"08dbf31c-b540-4ca6-b57d-3481ea73d97b","system_id":"levelo_inurba_marseille","lat":43.225032,"lon":5.347858,"is_reserved":false,"is_disabled":false,"rental_uris":{"android":"levelo://app?vid=08dbf31c-b540-4ca6-b57d-3481ea73d97b","ios":"levelo://app?vid=08dbf31c-b540-4ca6-b57d-3481ea73d97b"},"vehicle_type_id":"4","last_reported":1752567387,"current_range_meters":10800,"station_id":"st_cvj5dfep6f1abm77gieg","pricing_plan_id":"cebpf4jnsgd1na2vs0mg"},{"bike_id":"39dce06d-1ef7-48f7-9c9b-40b259869ec1","system_id":"levelo_inurba_marseille","lat":43.33612,"lon":5.41036,"is_reserved":false,"is_disabled":false,"rental_uris":{"android":"levelo://app?vid=39dce06d-1ef7-48f7-9c9b-40b259869ec1","ios":"levelo://app?vid=39dce06d-1ef7-48f7-9c9b-40b259869ec1"},"vehicle_type_id":"4","last_reported":1752567387,"current_range_meters":10800,"station_id":"ce4bhqh2rcd13ifvqhmg","pricing_plan_id":"cebpf4jnsgd1na2vs0mg"},{"bike_id":"affb3f7a-a227-4528-9d14-09d0b60aecf5","system_id":"levelo_inurba_marseille","lat":43.30377,"lon":5.4247,"is_reserved":false,"is_disabled":false,"rental_uris":{"android":"levelo://app?vid=affb3f7a-a227-4528-9d14-09d0b60aecf5","ios":"levelo://app?vid=affb3f7a-a227-4528-9d14-09d0b60aecf5"},"vehicle_type_id":"4","last_reported":1752567387,"current_range_meters":11200,"station_id":"ce4bhoh2rcd13ifvqh6g","pricing_plan_id":"cebpf4jnsgd1na2vs0mg"},{"bike_id":"e39d72a8-1c3e-4dce-a3c9-7069cc0fb06f","system_id":"levelo_inurba_marseille","lat":43.27938,"lon":5.41037,"is_reserved":false,"is_disabled":false,"rental_uris":{"android":"levelo://app?vid=e39d72a8-1c3e-4dce-a3c9-7069cc0fb06f","ios":"levelo://app?vid=e39d72a8-1c3e-4dce-a3c9-7069cc0fb06f"},"vehicle_type_id":"4","last_reported":1752567387,"current_range_meters":11200,"station_id":"ce4bhnp2rcd13ifvqh0g","pricing_plan_id":"cebpf4jnsgd1na2vs0mg"},{"bike_id":"ed74f810-226b-4edb-a7d8-2c9a86d071a4","system_id":"levelo_inurba_marseille","lat":43.21193,"lon":5.35071,"is_reserved":false,"is_disabled":false,"rental_uris":{"android":"levelo://app?vid=ed74f810-226b-4edb-a7d8-2c9a86d071a4","ios":"levelo://app?vid=ed74f810-226b-4edb-a7d8-2c9a86d071a4"},"vehicle_type_id":"4","last_reported":1752567387,"current_range_meters":11200,"station_id":"st_cvj6sg6p6f1abm77japg","pricing_plan_id":"cebpf4jnsgd1na2vs0mg"},{"bike_id":"72e6e8fa-abf7-4aee-9fcb-466d436e68dc","system_id":"levelo_inurba_marseille","lat":43.27174,"lon":5.40986,"is_reserved":false,"is_disabled":false,"rental_uris":{"android":"levelo://app?vid=72e6e8fa-abf7-4aee-9fcb-466d436e68dc","ios":"levelo://app?vid=72e6e8fa-abf7-4aee-9fcb-466d436e68dc"},"vehicle_type_id":"4","last_reported":1752567387,"current_range_meters":11200,"station_id":"ce4bhl12rcd13ifvqgf0","pricing_plan_id":"cebpf4jnsgd1na2vs0mg"},{"bike_id":"41e47ab4-31d6-4e54-b9bb-9741e0f94162","system_id":"levelo_inurba_marseille","lat":43.22928,"lon":5.35366,"is_reserved":false,"is_disabled":true,"rental_uris":{"android":"levelo://app?vid=41e47ab4-31d6-4e54-b9bb-9741e0f94162","ios":"levelo://app?vid=41e47ab4-31d6-4e54-b9bb-9741e0f94162"},"vehicle_type_id":"4","last_reported":1752567387,"current_range_meters":11600,"station_id":"cpo3532slgdg3j2ikp40","pricing_plan_id":"cebpf4jnsgd1na2vs0mg"},{"bike_id":"68271f2c-d116-4bee-8e06-9f87e5a7a022","system_id":"levelo_inurba_marseille","lat":43.292793,"lon":5.40135,"is_reserved":false,"is_disabled":false,"rental_uris":{"android":"levelo://app?vid=68271f2c-d116-4bee-8e06-9f87e5a7a022","ios":"levelo://app?vid=68271f2c-d116-4bee-8e06-9f87e5a7a022"},"vehicle_type_id":"4","last_reported":1752567387,"current_range_meters":11600,"station_id":"ce4bh312rcd13ifvqdk0","pricing_plan_id":"cebpf4jnsgd1na2vs0mg"},{"bike_id":"6aaa64ca-8112-45b7-81b4-7d65a9c90bf8","system_id":"levelo_inurba_marseille","lat":43.28266,"lon":5.35057,"is_reserved":false,"is_disabled":false,"rental_uris":{"android":"levelo://app?vid=6aaa64ca-8112-45b7-81b4-7d65a9c90bf8","ios":"levelo://app?vid=6aaa64ca-8112-45b7-81b4-7d65a9c90bf8"},"vehicle_type_id":"4","last_reported":1752567387,"current_range_meters":11600,"station_id":"ce4bhbp2rcd13ifvqerg","pricing_plan_id":"cebpf4jnsgd1na2vs0mg"},{"bike_id":"e54d9ba4-d17a-4a42-ab61-c933b6d03a23","system_id":"levelo_inurba_marseille","lat":43.25935,"lon":5.40908,"is_reserved":false,"is_disabled":false,"rental_uris":{"android":"levelo://app?vid=e54d9ba4-d17a-4a42-ab61-c933b6d03a23","ios":"levelo://app?vid=e54d9ba4-d17a-4a42-ab61-c933b6d03a23"},"vehicle_type_id":"4","last_reported":1752567387,"current_range_meters":11600,"station_id":"ce4bhm92rcd13ifvqglg","pricing_plan_id":"cebpf4jnsgd1na2vs0mg"},{"bike_id":"4ff6aa90-dc8c-4d26-8b6b-f12c0a1fa40a","system_id":"levelo_inurba_marseille","lat":43.25939,"lon":5.40902,"is_reserved":false,"is_disabled":false,"rental_uris":{"android":"levelo://app?vid=4ff6aa90-dc8c-4d26-8b6b-f12c0a1fa40a","ios":"levelo://app?vid=4ff6aa90-dc8c-4d26-8b6b-f12c0a1fa40a"},"vehicle_type_id":"4","last_reported":1752567387,"current_range_meters":11600,"station_id":"ce4bhm92rcd13ifvqglg","pricing_plan_id":"cebpf4jnsgd1na2vs0mg"},{"bike_id":"161bd474-f3db-4ccd-8c11-835d0465ea56","system_id":"levelo_inurba_marseille","lat":43.292,"lon":5.35787,"is_reserved":false,"is_disabled":true,"rental_uris":{"android":"levelo://app?vid=161bd474-f3db-4ccd-8c11-835d0465ea56","ios":"levelo://app?vid=161bd474-f3db-4ccd-8c11-835d0465ea56"},"vehicle_type_id":"4","last_reported":1752567387,"current_range_meters":11600,"station_id":"ce4bhb12rcd13ifvqel0","pricing_plan_id":"cebpf4jnsgd1na2vs0mg"},{"bike_id":"20694b13-cd51-4026-8f97-ec0360b86b1a","system_id":"levelo_inurba_marseille","lat":43.29853,"lon":5.36262,"is_reserved":false,"is_disabled":false,"rental_uris":{"android":"levelo://app?vid=20694b13-cd51-4026-8f97-ec0360b86b1a","ios":"levelo://app?vid=20694b13-cd51-4026-8f97-ec0360b86b1a"},"vehicle_type_id":"4","last_reported":1752567387,"current_range_meters":12000,"station_id":"ce4bgpp2rcd13ifvqc3g","pricing_plan_id":"cebpf4jnsgd1na2vs0mg"},{"bike_id":"bc778bf2-5e72-4f38-aab3-520ddd347ba7","system_id":"levelo_inurba_marseille","lat":43.30917,"lon":5.3685,"is_reserved":false,"is_disabled":false,"rental_uris":{"android":"levelo://app?vid=bc778bf2-5e72-4f38-aab3-520ddd347ba7","ios":"levelo://app?vid=bc778bf2-5e72-4f38-aab3-520ddd347ba7"},"vehicle_type_id":"4","last_reported":1752567387,"current_range_meters":12000,"station_id":"ce4bgn92rcd13ifvqbvg","pricing_plan_id":"cebpf4jnsgd1na2vs0mg"},{"bike_id":"af1eb9db-514d-4b8f-85e5-450ef4483445","system_id":"levelo_inurba_marseille","lat":43.29571,"lon":5.3908,"is_reserved":false,"is_disabled":false,"rental_uris":{"android":"levelo://app?vid=af1eb9db-514d-4b8f-85e5-450ef4483445","ios":"levelo://app?vid=af1eb9db-514d-4b8f-85e5-450ef4483445"},"vehicle_type_id":"4","last_reported":1752567387,"current_range_meters":12000,"station_id":"","pricing_plan_id":"cebpf4jnsgd1na2vs0mg"},{"bike_id":"6ac53aaf-35af-46ab-8dd7-f7b897e5005c","system_id":"levelo_inurba_marseille","lat":43.24181,"lon":5.39725,"is_reserved":false,"is_disabled":false,"rental_uris":{"android":"levelo://app?vid=6ac53aaf-35af-46ab-8dd7-f7b897e5005c","ios":"levelo://app?vid=6ac53aaf-35af-46ab-8dd7-f7b897e5005c"},"vehicle_type_id":"4","last_reported":1752567387,"current_range_meters":12000,"station_id":"ce4bhn12rcd13ifvqgpg","pricing_plan_id":"cebpf4jnsgd1na2vs0mg"},{"bike_id":"10c723c7-3dbc-4ad4-bcfd-d5fa03b53b09","system_id":"levelo_inurba_marseille","lat":43.27301,"lon":5.39129,"is_reserved":false,"is_disabled":false,"rental_uris":{"android":"levelo://app?vid=10c723c7-3dbc-4ad4-bcfd-d5fa03b53b09","ios":"levelo://app?vid=10c723c7-3dbc-4ad4-bcfd-d5fa03b53b09"},"vehicle_type_id":"4","last_reported":1752567387,"current_range_meters":12000,"station_id":"ce4bhgp2rcd13ifvqfe0","pricing_plan_id":"cebpf4jnsgd1na2vs0mg"},{"bike_id":"70b4ffb5-edda-4ad2-b17f-168b7d57906f","system_id":"levelo_inurba_marseille","lat":43.31705,"lon":5.37678,"is_reserved":false,"is_disabled":false,"rental_uris":{"android":"levelo://app?vid=70b4ffb5-edda-4ad2-b17f-168b7d57906f","ios":"levelo://app?vid=70b4ffb5-edda-4ad2-b17f-168b7d57906f"},"vehicle_type_id":"4","last_reported":1752567387,"current_range_meters":12000,"station_id":"ce4bgth2rcd13ifvqch0","pricing_plan_id":"cebpf4jnsgd1na2vs0mg"},{"bike_id":"62fac126-5057-4e56-b458-9d1093a7332e","system_id":"levelo_inurba_marseille","lat":43.25897,"lon":5.40918,"is_reserved":false,"is_disabled":false,"rental_uris":{"android":"levelo://app?vid=62fac126-5057-4e56-b458-9d1093a7332e","ios":"levelo://app?vid=62fac126-5057-4e56-b458-9d1093a7332e"},"vehicle_type_id":"4","last_reported":1752567387,"current_range_meters":12400,"station_id":"ce4bhm92rcd13ifvqglg","pricing_plan_id":"cebpf4jnsgd1na2vs0mg"},{"bike_id":"fc596da9-9f61-4d64-825a-637114e9ef48","system_id":"levelo_inurba_marseille","lat":43.26587,"lon":5.39483,"is_reserved":false,"is_disabled":false,"rental_uris":{"android":"levelo://app?vid=fc596da9-9f61-4d64-825a-637114e9ef48","ios":"levelo://app?vid=fc596da9-9f61-4d64-825a-637114e9ef48"},"vehicle_type_id":"4","last_reported":1752567387,"current_range_meters":12400,"station_id":"","pricing_plan_id":"cebpf4jnsgd1na2vs0mg"},{"bike_id":"2ab5e94c-5417-4029-92b3-02a3578ad673","system_id":"levelo_inurba_marseille","lat":43.290249,"lon":5.381227,"is_reserved":false,"is_disabled":true,"rental_uris":{"android":"levelo://app?vid=2ab5e94c-5417-4029-92b3-02a3578ad673","ios":"levelo://app?vid=2ab5e94c-5417-4029-92b3-02a3578ad673"},"vehicle_type_id":"4","last_reported":1752567387,"current_range_meters":12400,"station_id":"","pricing_plan_id":"cebpf4jnsgd1na2vs0mg"},{"bike_id":"96404d04-512d-4e45-b57c-350a79134d38","system_id":"levelo_inurba_marseille","lat":43.21191,"lon":5.35064,"is_reserved":false,"is_disabled":false,"rental_uris":{"android":"levelo://app?vid=96404d04-512d-4e45-b57c-350a79134d38","ios":"levelo://app?vid=96404d04-512d-4e45-b57c-350a79134d38"},"vehicle_type_id":"4","last_reported":1752567387,"current_range_meters":12400,"station_id":"st_cvj6sg6p6f1abm77japg","pricing_plan_id":"cebpf4jnsgd1na2vs0mg"},{"bike_id":"1fee386a-4b32-4a67-9474-f50b228f909b","system_id":"levelo_inurba_marseille","lat":43.31188,"lon":5.38715,"is_reserved":false,"is_disabled":false,"rental_uris":{"android":"levelo://app?vid=1fee386a-4b32-4a67-9474-f50b228f909b","ios":"levelo://app?vid=1fee386a-4b32-4a67-9474-f50b228f909b"},"vehicle_type_id":"4","last_reported":1752567387,"current_range_meters":12400,"station_id":"ce4bgv12rcd13ifvqcp0","pricing_plan_id":"cebpf4jnsgd1na2vs0mg"},{"bike_id":"21e4850d-b049-4411-adc4-b58334ff7b41","system_id":"levelo_inurba_marseille","lat":43.30538,"lon":5.3652,"is_reserved":false,"is_disabled":false,"rental_uris":{"android":"levelo://app?vid=21e4850d-b049-4411-adc4-b58334ff7b41","ios":"levelo://app?vid=21e4850d-b049-4411-adc4-b58334ff7b41"},"vehicle_type_id":"4","last_reported":1752567387,"current_range_meters":12800,"station_id":"ce4bgs12rcd13ifvqcag","pricing_plan_id":"cebpf4jnsgd1na2vs0mg"},{"bike_id":"21f7d18d-a034-4492-8948-eae01efbc2d6","system_id":"levelo_inurba_marseille","lat":43.29901,"lon":5.38122,"is_reserved":false,"is_disabled":false,"rental_uris":{"android":"levelo://app?vid=21f7d18d-a034-4492-8948-eae01efbc2d6","ios":"levelo://app?vid=21f7d18d-a034-4492-8948-eae01efbc2d6"},"vehicle_type_id":"4","last_reported":1752567387,"current_range_meters":13600,"station_id":"ce4bgj12rcd13ifvqbc0","pricing_plan_id":"cebpf4jnsgd1na2vs0mg"},{"bike_id":"9b967b79-e940-4225-b115-b60caf68c15a","system_id":"levelo_inurba_marseille","lat":43.28658,"lon":5.36343,"is_reserved":false,"is_disabled":false,"rental_uris":{"android":"levelo://app?vid=9b967b79-e940-4225-b115-b60caf68c15a","ios":"levelo://app?vid=9b967b79-e940-4225-b115-b60caf68c15a"},"vehicle_type_id":"4","last_reported":1752567387,"current_range_meters":12800,"station_id":"ce4bhah2rcd13ifvqej0","pricing_plan_id":"cebpf4jnsgd1na2vs0mg"},{"bike_id":"d0f90c24-dd03-411b-9731-55305f76b7c8","system_id":"levelo_inurba_marseille","lat":43.21188,"lon":5.35068,"is_reserved":false,"is_disabled":false,"rental_uris":{"android":"levelo://app?vid=d0f90c24-dd03-411b-9731-55305f76b7c8","ios":"levelo://app?vid=d0f90c24-dd03-411b-9731-55305f76b7c8"},"vehicle_type_id":"4","last_reported":1752567387,"current_range_meters":12800,"station_id":"st_cvj6sg6p6f1abm77japg","pricing_plan_id":"cebpf4jnsgd1na2vs0mg"},{"bike_id":"aac218cd-f764-48c5-a074-bf8aa6e2343a","system_id":"levelo_inurba_marseille","lat":43.23158,"lon":5.4371,"is_reserved":false,"is_disabled":false,"rental_uris":{"android":"levelo://app?vid=aac218cd-f764-48c5-a074-bf8aa6e2343a","ios":"levelo://app?vid=aac218cd-f764-48c5-a074-bf8aa6e2343a"},"vehicle_type_id":"4","last_reported":1752567387,"current_range_meters":12800,"station_id":"ce4bhmp2rcd13ifvqgog","pricing_plan_id":"cebpf4jnsgd1na2vs0mg"},{"bike_id":"c365d8d3-e046-4aab-b8b8-2e61ade18368","system_id":"levelo_inurba_marseille","lat":43.29379,"lon":5.37848,"is_reserved":false,"is_disabled":false,"rental_uris":{"android":"levelo://app?vid=c365d8d3-e046-4aab-b8b8-2e61ade18368","ios":"levelo://app?vid=c365d8d3-e046-4aab-b8b8-2e61ade18368"},"vehicle_type_id":"4","last_reported":1752567387,"current_range_meters":13600,"station_id":"ce4bgjh2rcd13ifvqbf0","pricing_plan_id":"cebpf4jnsgd1na2vs0mg"},{"bike_id":"48a72147-d63a-4fad-9403-9184689656c8","system_id":"levelo_inurba_marseille","lat":43.24385,"lon":5.3705,"is_reserved":false,"is_disabled":false,"rental_uris":{"android":"levelo://app?vid=48a72147-d63a-4fad-9403-9184689656c8","ios":"levelo://app?vid=48a72147-d63a-4fad-9403-9184689656c8"},"vehicle_type_id":"4","last_reported":1752567387,"current_range_meters":13600,"station_id":"ce4bhhh2rcd13ifvqfk0","pricing_plan_id":"cebpf4jnsgd1na2vs0mg"},{"bike_id":"e604067d-3800-4ac2-9860-8fea46e837e8","system_id":"levelo_inurba_marseille","lat":43.26566,"lon":5.40333,"is_reserved":false,"is_disabled":false,"rental_uris":{"android":"levelo://app?vid=e604067d-3800-4ac2-9860-8fea46e837e8","ios":"levelo://app?vid=e604067d-3800-4ac2-9860-8fea46e837e8"},"vehicle_type_id":"4","last_reported":1752567387,"current_range_meters":13600,"station_id":"","pricing_plan_id":"cebpf4jnsgd1na2vs0mg"},{"bike_id":"470d1e9d-8c05-40b8-a6b2-039f183b9f6a","system_id":"levelo_inurba_marseille","lat":43.23196,"lon":5.35543,"is_reserved":false,"is_disabled":false,"rental_uris":{"android":"levelo://app?vid=470d1e9d-8c05-40b8-a6b2-039f183b9f6a","ios":"levelo://app?vid=470d1e9d-8c05-40b8-a6b2-039f183b9f6a"},"vehicle_type_id":"4","last_reported":1752567387,"current_range_meters":12800,"station_id":"ce4bhu92rcd13ifvqi70","pricing_plan_id":"cebpf4jnsgd1na2vs0mg"},{"bike_id":"4874a9ef-400f-427c-89bf-5887015cf1b5","system_id":"levelo_inurba_marseille","lat":43.24386,"lon":5.3706,"is_reserved":false,"is_disabled":false,"rental_uris":{"android":"levelo://app?vid=4874a9ef-400f-427c-89bf-5887015cf1b5","ios":"levelo://app?vid=4874a9ef-400f-427c-89bf-5887015cf1b5"},"vehicle_type_id":"4","last_reported":1752567387,"current_range_meters":13600,"station_id":"ce4bhhh2rcd13ifvqfk0","pricing_plan_id":"cebpf4jnsgd1na2vs0mg"},{"bike_id":"93f72f67-b54e-44c4-a367-16c06a5c24ce","system_id":"levelo_inurba_marseille","lat":43.31344,"lon":5.36706,"is_reserved":false,"is_disabled":false,"rental_uris":{"android":"levelo://app?vid=93f72f67-b54e-44c4-a367-16c06a5c24ce","ios":"levelo://app?vid=93f72f67-b54e-44c4-a367-16c06a5c24ce"},"vehicle_type_id":"4","last_reported":1752567387,"current_range_meters":14000,"station_id":"ce4bgr92rcd13ifvqc6g","pricing_plan_id":"cebpf4jnsgd1na2vs0mg"},{"bike_id":"6c6d4d9a-6141-481c-9c1a-8e61054bdc43","system_id":"levelo_inurba_marseille","lat":43.247919,"lon":5.418058,"is_reserved":false,"is_disabled":false,"rental_uris":{"android":"levelo://app?vid=6c6d4d9a-6141-481c-9c1a-8e61054bdc43","ios":"levelo://app?vid=6c6d4d9a-6141-481c-9c1a-8e61054bdc43"},"vehicle_type_id":"4","last_reported":1752567387,"current_range_meters":14000,"station_id":"","pricing_plan_id":"cebpf4jnsgd1na2vs0mg"},{"bike_id":"3cd6263a-01f8-4ff3-b532-b26060163c3f","system_id":"levelo_inurba_marseille","lat":43.21189,"lon":5.35076,"is_reserved":false,"is_disabled":false,"rental_uris":{"android":"levelo://app?vid=3cd6263a-01f8-4ff3-b532-b26060163c3f","ios":"levelo://app?vid=3cd6263a-01f8-4ff3-b532-b26060163c3f"},"vehicle_type_id":"4","last_reported":1752567387,"current_range_meters":14000,"station_id":"","pricing_plan_id":"cebpf4jnsgd1na2vs0mg"},{"bike_id":"e4cc9422-b66a-4b54-b535-b17a3b695b97","system_id":"levelo_inurba_marseille","lat":43.28356,"lon":5.37385,"is_reserved":false,"is_disabled":false,"rental_uris":{"android":"levelo://app?vid=e4cc9422-b66a-4b54-b535-b17a3b695b97","ios":"levelo://app?vid=e4cc9422-b66a-4b54-b535-b17a3b695b97"},"vehicle_type_id":"4","last_reported":1752567387,"current_range_meters":14000,"station_id":"","pricing_plan_id":"cebpf4jnsgd1na2vs0mg"},{"bike_id":"39c44a48-4dfb-445b-9367-027595ee798c","system_id":"levelo_inurba_marseille","lat":43.25116,"lon":5.40305,"is_reserved":false,"is_disabled":false,"rental_uris":{"android":"levelo://app?vid=39c44a48-4dfb-445b-9367-027595ee798c","ios":"levelo://app?vid=39c44a48-4dfb-445b-9367-027595ee798c"},"vehicle_type_id":"4","last_reported":1752567387,"current_range_meters":14000,"station_id":"ce4bhlh2rcd13ifvqgig","pricing_plan_id":"cebpf4jnsgd1na2vs0mg"},{"bike_id":"9630306a-c1b8-4288-b013-b1627b3f3a88","system_id":"levelo_inurba_marseille","lat":43.25585,"lon":5.3823,"is_reserved":false,"is_disabled":false,"rental_uris":{"android":"levelo://app?vid=9630306a-c1b8-4288-b013-b1627b3f3a88","ios":"levelo://app?vid=9630306a-c1b8-4288-b013-b1627b3f3a88"},"vehicle_type_id":"4","last_reported":1752567387,"current_range_meters":14000,"station_id":"ce4bhih2rcd13ifvqfs0","pricing_plan_id":"cebpf4jnsgd1na2vs0mg"},{"bike_id":"3e49fa8d-e433-4862-be3c-8847eca64d4b","system_id":"levelo_inurba_marseille","lat":43.29046,"lon":5.35904,"is_reserved":false,"is_disabled":false,"rental_uris":{"android":"levelo://app?vid=3e49fa8d-e433-4862-be3c-8847eca64d4b","ios":"levelo://app?vid=3e49fa8d-e433-4862-be3c-8847eca64d4b"},"vehicle_type_id":"4","last_reported":1752567387,"current_range_meters":14400,"station_id":"ce4bha92rcd13ifvqeg0","pricing_plan_id":"cebpf4jnsgd1na2vs0mg"},{"bike_id":"fd2a2c09-7868-4fc4-ac77-33e4bb2244d3","system_id":"levelo_inurba_marseille","lat":43.30552,"lon":5.36512,"is_reserved":false,"is_disabled":false,"rental_uris":{"android":"levelo://app?vid=fd2a2c09-7868-4fc4-ac77-33e4bb2244d3","ios":"levelo://app?vid=fd2a2c09-7868-4fc4-ac77-33e4bb2244d3"},"vehicle_type_id":"4","last_reported":1752567387,"current_range_meters":14400,"station_id":"ce4bgs12rcd13ifvqcag","pricing_plan_id":"cebpf4jnsgd1na2vs0mg"},{"bike_id":"f10941ce-d19a-4475-b0ba-1c38d332727e","system_id":"levelo_inurba_marseille","lat":43.321597,"lon":5.387238,"is_reserved":false,"is_disabled":false,"rental_uris":{"android":"levelo://app?vid=f10941ce-d19a-4475-b0ba-1c38d332727e","ios":"levelo://app?vid=f10941ce-d19a-4475-b0ba-1c38d332727e"},"vehicle_type_id":"4","last_reported":1752567387,"current_range_meters":14400,"station_id":"","pricing_plan_id":"cebpf4jnsgd1na2vs0mg"},{"bike_id":"2a74c118-5915-42ae-a5b6-acad51f5ceb5","system_id":"levelo_inurba_marseille","lat":43.275631,"lon":5.384392,"is_reserved":false,"is_disabled":true,"rental_uris":{"android":"levelo://app?vid=2a74c118-5915-42ae-a5b6-acad51f5ceb5","ios":"levelo://app?vid=2a74c118-5915-42ae-a5b6-acad51f5ceb5"},"vehicle_type_id":"4","last_reported":1752567387,"current_range_meters":14400,"station_id":"ce4bhh92rcd13ifvqfi0","pricing_plan_id":"cebpf4jnsgd1na2vs0mg"},{"bike_id":"c28921dd-6deb-4e14-be31-fb8d09680729","system_id":"levelo_inurba_marseille","lat":43.30888,"lon":5.3687,"is_reserved":false,"is_disabled":false,"rental_uris":{"android":"levelo://app?vid=c28921dd-6deb-4e14-be31-fb8d09680729","ios":"levelo://app?vid=c28921dd-6deb-4e14-be31-fb8d09680729"},"vehicle_type_id":"4","last_reported":1752567387,"current_range_meters":14400,"station_id":"ce4bgn92rcd13ifvqbvg","pricing_plan_id":"cebpf4jnsgd1na2vs0mg"},{"bike_id":"d7112c54-f9dc-425f-acf8-196623bf4ba2","system_id":"levelo_inurba_marseille","lat":43.24046,"lon":5.37762,"is_reserved":false,"is_disabled":false,"rental_uris":{"android":"levelo://app?vid=d7112c54-f9dc-425f-acf8-196623bf4ba2","ios":"levelo://app?vid=d7112c54-f9dc-425f-acf8-196623bf4ba2"},"vehicle_type_id":"4","last_reported":1752567387,"current_range_meters":14400,"station_id":"ce4bhnp2rcd13ifvqgvg","pricing_plan_id":"cebpf4jnsgd1na2vs0mg"},{"bike_id":"c3eb31c9-e106-4cd2-bb91-f2d0ee3e7a6f","system_id":"levelo_inurba_marseille","lat":43.2403,"lon":5.3625,"is_reserved":false,"is_disabled":false,"rental_uris":{"android":"levelo://app?vid=c3eb31c9-e106-4cd2-bb91-f2d0ee3e7a6f","ios":"levelo://app?vid=c3eb31c9-e106-4cd2-bb91-f2d0ee3e7a6f"},"vehicle_type_id":"4","last_reported":1752567387,"current_range_meters":14400,"station_id":"","pricing_plan_id":"cebpf4jnsgd1na2vs0mg"},{"bike_id":"2ad84a3d-4c9e-4bc0-bf26-0632e817f06d","system_id":"levelo_inurba_marseille","lat":43.292762,"lon":5.376099,"is_reserved":false,"is_disabled":false,"rental_uris":{"android":"levelo://app?vid=2ad84a3d-4c9e-4bc0-bf26-0632e817f06d","ios":"levelo://app?vid=2ad84a3d-4c9e-4bc0-bf26-0632e817f06d"},"vehicle_type_id":"4","last_reported":1752567387,"current_range_meters":14400,"station_id":"ce4bgi12rcd13ifvqb80","pricing_plan_id":"cebpf4jnsgd1na2vs0mg"},{"bike_id":"b2dff6c3-4008-4891-939a-d920ad29a59e","system_id":"levelo_inurba_marseille","lat":43.27313,"lon":5.39074,"is_reserved":false,"is_disabled":false,"rental_uris":{"android":"levelo://app?vid=b2dff6c3-4008-4891-939a-d920ad29a59e","ios":"levelo://app?vid=b2dff6c3-4008-4891-939a-d920ad29a59e"},"vehicle_type_id":"4","last_reported":1752567387,"current_range_meters":14400,"station_id":"ce4bhgp2rcd13ifvqfe0","pricing_plan_id":"cebpf4jnsgd1na2vs0mg"},{"bike_id":"7da72a15-d4a5-40d8-9205-78a0a34f5247","system_id":"levelo_inurba_marseille","lat":43.24854,"lon":5.42522,"is_reserved":false,"is_disabled":false,"rental_uris":{"android":"levelo://app?vid=7da72a15-d4a5-40d8-9205-78a0a34f5247","ios":"levelo://app?vid=7da72a15-d4a5-40d8-9205-78a0a34f5247"},"vehicle_type_id":"4","last_reported":1752567387,"current_range_meters":14800,"station_id":"","pricing_plan_id":"cebpf4jnsgd1na2vs0mg"},{"bike_id":"bf22a5a2-741d-49a2-9b4d-d893d9015767","system_id":"levelo_inurba_marseille","lat":43.29898,"lon":5.43669,"is_reserved":false,"is_disabled":false,"rental_uris":{"android":"levelo://app?vid=bf22a5a2-741d-49a2-9b4d-d893d9015767","ios":"levelo://app?vid=bf22a5a2-741d-49a2-9b4d-d893d9015767"},"vehicle_type_id":"4","last_reported":1752567387,"current_range_meters":14800,"station_id":"ce4bhpp2rcd13ifvqhfg","pricing_plan_id":"cebpf4jnsgd1na2vs0mg"},{"bike_id":"350581ae-ef08-42d1-9ec2-9812e1602ed6","system_id":"levelo_inurba_marseille","lat":43.30904,"lon":5.36847,"is_reserved":false,"is_disabled":false,"rental_uris":{"android":"levelo://app?vid=350581ae-ef08-42d1-9ec2-9812e1602ed6","ios":"levelo://app?vid=350581ae-ef08-42d1-9ec2-9812e1602ed6"},"vehicle_type_id":"4","last_reported":1752567387,"current_range_meters":14800,"station_id":"ce4bgn92rcd13ifvqbvg","pricing_plan_id":"cebpf4jnsgd1na2vs0mg"},{"bike_id":"68a86088-e3e2-4227-b2d1-31a14f48b8a6","system_id":"levelo_inurba_marseille","lat":43.258601,"lon":5.399063,"is_reserved":false,"is_disabled":false,"rental_uris":{"android":"levelo://app?vid=68a86088-e3e2-4227-b2d1-31a14f48b8a6","ios":"levelo://app?vid=68a86088-e3e2-4227-b2d1-31a14f48b8a6"},"vehicle_type_id":"4","last_reported":1752567387,"current_range_meters":14800,"station_id":"","pricing_plan_id":"cebpf4jnsgd1na2vs0mg"},{"bike_id":"6a5bdfb5-44e8-42af-a1d8-aada0ea5cffd","system_id":"levelo_inurba_marseille","lat":43.292772,"lon":5.401321,"is_reserved":false,"is_disabled":false,"rental_uris":{"android":"levelo://app?vid=6a5bdfb5-44e8-42af-a1d8-aada0ea5cffd","ios":"levelo://app?vid=6a5bdfb5-44e8-42af-a1d8-aada0ea5cffd"},"vehicle_type_id":"4","last_reported":1752567387,"current_range_meters":15200,"station_id":"ce4bh312rcd13ifvqdk0","pricing_plan_id":"cebpf4jnsgd1na2vs0mg"},{"bike_id":"8ff79917-70b1-4485-bd2f-f557cbff6cf7","system_id":"levelo_inurba_marseille","lat":43.290421,"lon":5.359118,"is_reserved":false,"is_disabled":true,"rental_uris":{"android":"levelo://app?vid=8ff79917-70b1-4485-bd2f-f557cbff6cf7","ios":"levelo://app?vid=8ff79917-70b1-4485-bd2f-f557cbff6cf7"},"vehicle_type_id":"4","last_reported":1752567387,"current_range_meters":15200,"station_id":"","pricing_plan_id":"cebpf4jnsgd1na2vs0mg"},{"bike_id":"75e77369-afa8-47b1-8890-89fd06359699","system_id":"levelo_inurba_marseille","lat":43.2418,"lon":5.39726,"is_reserved":false,"is_disabled":false,"rental_uris":{"android":"levelo://app?vid=75e77369-afa8-47b1-8890-89fd06359699","ios":"levelo://app?vid=75e77369-afa8-47b1-8890-89fd06359699"},"vehicle_type_id":"4","last_reported":1752567387,"current_range_meters":16000,"station_id":"ce4bhn12rcd13ifvqgpg","pricing_plan_id":"cebpf4jnsgd1na2vs0mg"},{"bike_id":"903197e4-3da2-471b-9537-d88bae7e31c4","system_id":"levelo_inurba_marseille","lat":43.2649,"lon":5.39544,"is_reserved":false,"is_disabled":true,"rental_uris":{"android":"levelo://app?vid=903197e4-3da2-471b-9537-d88bae7e31c4","ios":"levelo://app?vid=903197e4-3da2-471b-9537-d88bae7e31c4"},"vehicle_type_id":"4","last_reported":1752567387,"current_range_meters":16000,"station_id":"ce4bhi12rcd13ifvqfq0","pricing_plan_id":"cebpf4jnsgd1na2vs0mg"},{"bike_id":"d199b05c-bf49-40ff-8185-8d98f4140722","system_id":"levelo_inurba_marseille","lat":43.331476,"lon":5.381736,"is_reserved":false,"is_disabled":false,"rental_uris":{"android":"levelo://app?vid=d199b05c-bf49-40ff-8185-8d98f4140722","ios":"levelo://app?vid=d199b05c-bf49-40ff-8185-8d98f4140722"},"vehicle_type_id":"4","last_reported":1752567387,"current_range_meters":16000,"station_id":"","pricing_plan_id":"cebpf4jnsgd1na2vs0mg"},{"bike_id":"9c6b3a09-9422-4986-a81f-a7a9a126b0ad","system_id":"levelo_inurba_marseille","lat":43.23155,"lon":5.437136,"is_reserved":false,"is_disabled":false,"rental_uris":{"android":"levelo://app?vid=9c6b3a09-9422-4986-a81f-a7a9a126b0ad","ios":"levelo://app?vid=9c6b3a09-9422-4986-a81f-a7a9a126b0ad"},"vehicle_type_id":"4","last_reported":1752567387,"current_range_meters":16000,"station_id":"ce4bhmp2rcd13ifvqgog","pricing_plan_id":"cebpf4jnsgd1na2vs0mg"},{"bike_id":"590e8a59-7dcc-42c4-80cd-31312d6a701b","system_id":"levelo_inurba_marseille","lat":43.23189,"lon":5.35546,"is_reserved":false,"is_disabled":false,"rental_uris":{"android":"levelo://app?vid=590e8a59-7dcc-42c4-80cd-31312d6a701b","ios":"levelo://app?vid=590e8a59-7dcc-42c4-80cd-31312d6a701b"},"vehicle_type_id":"4","last_reported":1752567387,"current_range_meters":16000,"station_id":"ce4bhu92rcd13ifvqi70","pricing_plan_id":"cebpf4jnsgd1na2vs0mg"},{"bike_id":"0ed9cc96-3e4f-401e-8ecc-2faf694ad5a0","system_id":"levelo_inurba_marseille","lat":43.30319,"lon":5.36889,"is_reserved":false,"is_disabled":false,"rental_uris":{"android":"levelo://app?vid=0ed9cc96-3e4f-401e-8ecc-2faf694ad5a0","ios":"levelo://app?vid=0ed9cc96-3e4f-401e-8ecc-2faf694ad5a0"},"vehicle_type_id":"4","last_reported":1752567387,"current_range_meters":16000,"station_id":"ce4bgqh2rcd13ifvqc5g","pricing_plan_id":"cebpf4jnsgd1na2vs0mg"},{"bike_id":"2be1e3e2-4587-468e-8af6-2b87e937a4d8","system_id":"levelo_inurba_marseille","lat":43.23155,"lon":5.43715,"is_reserved":false,"is_disabled":false,"rental_uris":{"android":"levelo://app?vid=2be1e3e2-4587-468e-8af6-2b87e937a4d8","ios":"levelo://app?vid=2be1e3e2-4587-468e-8af6-2b87e937a4d8"},"vehicle_type_id":"4","last_reported":1752567387,"current_range_meters":16000,"station_id":"ce4bhmp2rcd13ifvqgog","pricing_plan_id":"cebpf4jnsgd1na2vs0mg"},{"bike_id":"6b665749-5d83-4001-bfa6-ddbce97a8df7","system_id":"levelo_inurba_marseille","lat":43.23964,"lon":5.3663,"is_reserved":false,"is_disabled":false,"rental_uris":{"android":"levelo://app?vid=6b665749-5d83-4001-bfa6-ddbce97a8df7","ios":"levelo://app?vid=6b665749-5d83-4001-bfa6-ddbce97a8df7"},"vehicle_type_id":"4","last_reported":1752567387,"current_range_meters":16000,"station_id":"ce4bhi12rcd13ifvqfp0","pricing_plan_id":"cebpf4jnsgd1na2vs0mg"},{"bike_id":"50e91a77-2a36-44c1-b2f6-88ec08664fa3","system_id":"levelo_inurba_marseille","lat":43.26221,"lon":5.40447,"is_reserved":false,"is_disabled":false,"rental_uris":{"android":"levelo://app?vid=50e91a77-2a36-44c1-b2f6-88ec08664fa3","ios":"levelo://app?vid=50e91a77-2a36-44c1-b2f6-88ec08664fa3"},"vehicle_type_id":"4","last_reported":1752567387,"current_range_meters":16000,"station_id":"ce4bhmh2rcd13ifvqgmg","pricing_plan_id":"cebpf4jnsgd1na2vs0mg"},{"bike_id":"277581c9-02e8-4d56-838d-c73954e3b9c5","system_id":"levelo_inurba_marseille","lat":43.27021,"lon":5.3874,"is_reserved":false,"is_disabled":false,"rental_uris":{"android":"levelo://app?vid=277581c9-02e8-4d56-838d-c73954e3b9c5","ios":"levelo://app?vid=277581c9-02e8-4d56-838d-c73954e3b9c5"},"vehicle_type_id":"4","last_reported":1752567387,"current_range_meters":16000,"station_id":"","pricing_plan_id":"cebpf4jnsgd1na2vs0mg"},{"bike_id":"de3c7479-ad03-448f-a78e-88898eddd51a","system_id":"levelo_inurba_marseille","lat":43.32966,"lon":5.39739,"is_reserved":false,"is_disabled":false,"rental_uris":{"android":"levelo://app?vid=de3c7479-ad03-448f-a78e-88898eddd51a","ios":"levelo://app?vid=de3c7479-ad03-448f-a78e-88898eddd51a"},"vehicle_type_id":"4","last_reported":1752567387,"current_range_meters":16400,"station_id":"","pricing_plan_id":"cebpf4jnsgd1na2vs0mg"},{"bike_id":"90d8578f-7619-4279-84b6-4ed88aa377e2","system_id":"levelo_inurba_marseille","lat":43.21187,"lon":5.35071,"is_reserved":false,"is_disabled":false,"rental_uris":{"android":"levelo://app?vid=90d8578f-7619-4279-84b6-4ed88aa377e2","ios":"levelo://app?vid=90d8578f-7619-4279-84b6-4ed88aa377e2"},"vehicle_type_id":"4","last_reported":1752567387,"current_range_meters":16400,"station_id":"st_cvj6sg6p6f1abm77japg","pricing_plan_id":"cebpf4jnsgd1na2vs0mg"},{"bike_id":"474d0eb6-38ba-4a3d-b185-eec1551078f4","system_id":"levelo_inurba_marseille","lat":43.27618,"lon":5.36111,"is_reserved":false,"is_disabled":true,"rental_uris":{"android":"levelo://app?vid=474d0eb6-38ba-4a3d-b185-eec1551078f4","ios":"levelo://app?vid=474d0eb6-38ba-4a3d-b185-eec1551078f4"},"vehicle_type_id":"4","last_reported":1752567387,"current_range_meters":16400,"station_id":"ce4bgj92rcd13ifvqbe0","pricing_plan_id":"cebpf4jnsgd1na2vs0mg"},{"bike_id":"7bce7a34-5113-458d-9330-3d00164f4612","system_id":"levelo_inurba_marseille","lat":43.21187,"lon":5.35064,"is_reserved":false,"is_disabled":false,"rental_uris":{"android":"levelo://app?vid=7bce7a34-5113-458d-9330-3d00164f4612","ios":"levelo://app?vid=7bce7a34-5113-458d-9330-3d00164f4612"},"vehicle_type_id":"4","last_reported":1752567387,"current_range_meters":16400,"station_id":"st_cvj6sg6p6f1abm77japg","pricing_plan_id":"cebpf4jnsgd1na2vs0mg"},{"bike_id":"2bcc0ed5-261b-4e84-bfe4-ce2479b810f6","system_id":"levelo_inurba_marseille","lat":43.2841,"lon":5.37515,"is_reserved":false,"is_disabled":true,"rental_uris":{"android":"levelo://app?vid=2bcc0ed5-261b-4e84-bfe4-ce2479b810f6","ios":"levelo://app?vid=2bcc0ed5-261b-4e84-bfe4-ce2479b810f6"},"vehicle_type_id":"4","last_reported":1752567387,"current_range_meters":16400,"station_id":"ce4bh412rcd13ifvqds0","pricing_plan_id":"cebpf4jnsgd1na2vs0mg"},{"bike_id":"967df707-4721-472b-a65b-fc5f7c1a8c06","system_id":"levelo_inurba_marseille","lat":43.24179,"lon":5.39725,"is_reserved":false,"is_disabled":false,"rental_uris":{"android":"levelo://app?vid=967df707-4721-472b-a65b-fc5f7c1a8c06","ios":"levelo://app?vid=967df707-4721-472b-a65b-fc5f7c1a8c06"},"vehicle_type_id":"4","last_reported":1752567387,"current_range_meters":16400,"station_id":"ce4bhn12rcd13ifvqgpg","pricing_plan_id":"cebpf4jnsgd1na2vs0mg"},{"bike_id":"36fe69a3-bcb1-4181-8ed6-b93e807e4e94","system_id":"levelo_inurba_marseille","lat":43.316852,"lon":5.404721,"is_reserved":false,"is_disabled":false,"rental_uris":{"android":"levelo://app?vid=36fe69a3-bcb1-4181-8ed6-b93e807e4e94","ios":"levelo://app?vid=36fe69a3-bcb1-4181-8ed6-b93e807e4e94"},"vehicle_type_id":"4","last_reported":1752567387,"current_range_meters":16400,"station_id":"ce4bh012rcd13ifvqd00","pricing_plan_id":"cebpf4jnsgd1na2vs0mg"},{"bike_id":"a043714e-0ca7-4bd2-9fac-0a949ab5c01f","system_id":"levelo_inurba_marseille","lat":43.28166,"lon":5.42351,"is_reserved":false,"is_disabled":false,"rental_uris":{"android":"levelo://app?vid=a043714e-0ca7-4bd2-9fac-0a949ab5c01f","ios":"levelo://app?vid=a043714e-0ca7-4bd2-9fac-0a949ab5c01f"},"vehicle_type_id":"4","last_reported":1752567387,"current_range_meters":16400,"station_id":"","pricing_plan_id":"cebpf4jnsgd1na2vs0mg"},{"bike_id":"ac928612-476b-4e4b-8c2b-a3f75e53d945","system_id":"levelo_inurba_marseille","lat":43.2251,"lon":5.34778,"is_reserved":false,"is_disabled":false,"rental_uris":{"android":"levelo://app?vid=ac928612-476b-4e4b-8c2b-a3f75e53d945","ios":"levelo://app?vid=ac928612-476b-4e4b-8c2b-a3f75e53d945"},"vehicle_type_id":"4","last_reported":1752567387,"current_range_meters":16800,"station_id":"st_cvj5dfep6f1abm77gieg","pricing_plan_id":"cebpf4jnsgd1na2vs0mg"},{"bike_id":"8a9f8ceb-0274-4ada-8a43-1bc35cd2deb7","system_id":"levelo_inurba_marseille","lat":43.289402,"lon":5.366318,"is_reserved":false,"is_disabled":true,"rental_uris":{"android":"levelo://app?vid=8a9f8ceb-0274-4ada-8a43-1bc35cd2deb7","ios":"levelo://app?vid=8a9f8ceb-0274-4ada-8a43-1bc35cd2deb7"},"vehicle_type_id":"4","last_reported":1752567387,"current_range_meters":16800,"station_id":"ce4bhap2rcd13ifvqek0","pricing_plan_id":"cebpf4jnsgd1na2vs0mg"},{"bike_id":"00cb507e-055e-4d2b-af95-ad44a9a2d9b3","system_id":"levelo_inurba_marseille","lat":43.28274,"lon":5.3508,"is_reserved":false,"is_disabled":false,"rental_uris":{"android":"levelo://app?vid=00cb507e-055e-4d2b-af95-ad44a9a2d9b3","ios":"levelo://app?vid=00cb507e-055e-4d2b-af95-ad44a9a2d9b3"},"vehicle_type_id":"4","last_reported":1752567387,"current_range_meters":16400,"station_id":"ce4bhbp2rcd13ifvqerg","pricing_plan_id":"cebpf4jnsgd1na2vs0mg"},{"bike_id":"544a3cd0-dc03-417d-ad91-062b4e852c60","system_id":"levelo_inurba_marseille","lat":43.26558,"lon":5.37266,"is_reserved":false,"is_disabled":false,"rental_uris":{"android":"levelo://app?vid=544a3cd0-dc03-417d-ad91-062b4e852c60","ios":"levelo://app?vid=544a3cd0-dc03-417d-ad91-062b4e852c60"},"vehicle_type_id":"4","last_reported":1752567387,"current_range_meters":16800,"station_id":"ce4bhg12rcd13ifvqf70","pricing_plan_id":"cebpf4jnsgd1na2vs0mg"},{"bike_id":"19562d97-eea7-4bf7-be75-d340473f80db","system_id":"levelo_inurba_marseille","lat":43.31065,"lon":5.38348,"is_reserved":false,"is_disabled":false,"rental_uris":{"android":"levelo://app?vid=19562d97-eea7-4bf7-be75-d340473f80db","ios":"levelo://app?vid=19562d97-eea7-4bf7-be75-d340473f80db"},"vehicle_type_id":"4","last_reported":1752567387,"current_range_meters":17200,"station_id":"ce4bgv92rcd13ifvqcr0","pricing_plan_id":"cebpf4jnsgd1na2vs0mg"},{"bike_id":"62f77b15-4488-46fa-be9f-344999992987","system_id":"levelo_inurba_marseille","lat":43.30936,"lon":5.39032,"is_reserved":false,"is_disabled":false,"rental_uris":{"android":"levelo://app?vid=62f77b15-4488-46fa-be9f-344999992987","ios":"levelo://app?vid=62f77b15-4488-46fa-be9f-344999992987"},"vehicle_type_id":"4","last_reported":1752567387,"current_range_meters":16800,"station_id":"ce4bgup2rcd13ifvqco0","pricing_plan_id":"cebpf4jnsgd1na2vs0mg"},{"bike_id":"909f6472-6aa9-4f24-9b22-16754d4de822","system_id":"levelo_inurba_marseille","lat":43.302,"lon":5.36622,"is_reserved":false,"is_disabled":false,"rental_uris":{"android":"levelo://app?vid=909f6472-6aa9-4f24-9b22-16754d4de822","ios":"levelo://app?vid=909f6472-6aa9-4f24-9b22-16754d4de822"},"vehicle_type_id":"4","last_reported":1752567387,"current_range_meters":16800,"station_id":"ce4bgrh2rcd13ifvqc8g","pricing_plan_id":"cebpf4jnsgd1na2vs0mg"},{"bike_id":"5e875fc0-5dbf-4c16-a845-dc6c96f0d424","system_id":"levelo_inurba_marseille","lat":43.31366,"lon":5.36764,"is_reserved":false,"is_disabled":false,"rental_uris":{"android":"levelo://app?vid=5e875fc0-5dbf-4c16-a845-dc6c96f0d424","ios":"levelo://app?vid=5e875fc0-5dbf-4c16-a845-dc6c96f0d424"},"vehicle_type_id":"4","last_reported":1752567387,"current_range_meters":16800,"station_id":"","pricing_plan_id":"cebpf4jnsgd1na2vs0mg"},{"bike_id":"ce23b02e-6d65-4c0d-9e4c-0269a519d803","system_id":"levelo_inurba_marseille","lat":43.24178,"lon":5.39727,"is_reserved":false,"is_disabled":false,"rental_uris":{"android":"levelo://app?vid=ce23b02e-6d65-4c0d-9e4c-0269a519d803","ios":"levelo://app?vid=ce23b02e-6d65-4c0d-9e4c-0269a519d803"},"vehicle_type_id":"4","last_reported":1752567387,"current_range_meters":16800,"station_id":"ce4bhn12rcd13ifvqgpg","pricing_plan_id":"cebpf4jnsgd1na2vs0mg"},{"bike_id":"36f721d5-3374-42c8-aa4a-d5cd847d81fb","system_id":"levelo_inurba_marseille","lat":43.28706,"lon":5.39977,"is_reserved":false,"is_disabled":false,"rental_uris":{"android":"levelo://app?vid=36f721d5-3374-42c8-aa4a-d5cd847d81fb","ios":"levelo://app?vid=36f721d5-3374-42c8-aa4a-d5cd847d81fb"},"vehicle_type_id":"4","last_reported":1752567387,"current_range_meters":16800,"station_id":"ce4bho92rcd13ifvqh3g","pricing_plan_id":"cebpf4jnsgd1na2vs0mg"},{"bike_id":"4c5cc625-984e-4fa4-a0bd-99e815e4e876","system_id":"levelo_inurba_marseille","lat":43.25003,"lon":5.38931,"is_reserved":false,"is_disabled":false,"rental_uris":{"android":"levelo://app?vid=4c5cc625-984e-4fa4-a0bd-99e815e4e876","ios":"levelo://app?vid=4c5cc625-984e-4fa4-a0bd-99e815e4e876"},"vehicle_type_id":"4","last_reported":1752567387,"current_range_meters":16800,"station_id":"ce4bhgp2rcd13ifvqfd0","pricing_plan_id":"cebpf4jnsgd1na2vs0mg"},{"bike_id":"8e86dc36-ec7c-45ba-9f53-61bc0e1a90f7","system_id":"levelo_inurba_marseille","lat":43.262145,"lon":5.37435,"is_reserved":false,"is_disabled":false,"rental_uris":{"android":"levelo://app?vid=8e86dc36-ec7c-45ba-9f53-61bc0e1a90f7","ios":"levelo://app?vid=8e86dc36-ec7c-45ba-9f53-61bc0e1a90f7"},"vehicle_type_id":"4","last_reported":1752567387,"current_range_meters":16800,"station_id":"ce4bhgp2rcd13ifvqfc0","pricing_plan_id":"cebpf4jnsgd1na2vs0mg"},{"bike_id":"09a93a64-fbb1-49a9-be1f-f86a34310e71","system_id":"levelo_inurba_marseille","lat":43.212041,"lon":5.350764,"is_reserved":false,"is_disabled":false,"rental_uris":{"android":"levelo://app?vid=09a93a64-fbb1-49a9-be1f-f86a34310e71","ios":"levelo://app?vid=09a93a64-fbb1-49a9-be1f-f86a34310e71"},"vehicle_type_id":"4","last_reported":1752567387,"current_range_meters":16800,"station_id":"st_cvj6sg6p6f1abm77japg","pricing_plan_id":"cebpf4jnsgd1na2vs0mg"},{"bike_id":"cfd41f41-ef76-4081-a81b-40505eed6422","system_id":"levelo_inurba_marseille","lat":43.24996,"lon":5.38932,"is_reserved":false,"is_disabled":false,"rental_uris":{"android":"levelo://app?vid=cfd41f41-ef76-4081-a81b-40505eed6422","ios":"levelo://app?vid=cfd41f41-ef76-4081-a81b-40505eed6422"},"vehicle_type_id":"4","last_reported":1752567387,"current_range_meters":16800,"station_id":"ce4bhgp2rcd13ifvqfd0","pricing_plan_id":"cebpf4jnsgd1na2vs0mg"},{"bike_id":"1e4e1de4-1642-4009-adbe-610acebad86e","system_id":"levelo_inurba_marseille","lat":43.25931,"lon":5.40886,"is_reserved":false,"is_disabled":false,"rental_uris":{"android":"levelo://app?vid=1e4e1de4-1642-4009-adbe-610acebad86e","ios":"levelo://app?vid=1e4e1de4-1642-4009-adbe-610acebad86e"},"vehicle_type_id":"4","last_reported":1752567387,"current_range_meters":17200,"station_id":"ce4bhm92rcd13ifvqglg","pricing_plan_id":"cebpf4jnsgd1na2vs0mg"},{"bike_id":"7e296367-f9dc-4f6b-a050-e61b373d7f1d","system_id":"levelo_inurba_marseille","lat":43.297801,"lon":5.371023,"is_reserved":false,"is_disabled":true,"rental_uris":{"android":"levelo://app?vid=7e296367-f9dc-4f6b-a050-e61b373d7f1d","ios":"levelo://app?vid=7e296367-f9dc-4f6b-a050-e61b373d7f1d"},"vehicle_type_id":"4","last_reported":1752567387,"current_range_meters":17200,"station_id":"","pricing_plan_id":"cebpf4jnsgd1na2vs0mg"},{"bike_id":"0f0bbb1c-6bf1-40db-a279-76da4a41271b","system_id":"levelo_inurba_marseille","lat":43.29297,"lon":5.37452,"is_reserved":false,"is_disabled":false,"rental_uris":{"android":"levelo://app?vid=0f0bbb1c-6bf1-40db-a279-76da4a41271b","ios":"levelo://app?vid=0f0bbb1c-6bf1-40db-a279-76da4a41271b"},"vehicle_type_id":"4","last_reported":1752567387,"current_range_meters":17200,"station_id":"ce4bgi12rcd13ifvqb70","pricing_plan_id":"cebpf4jnsgd1na2vs0mg"},{"bike_id":"32a9ade4-420d-49fe-ada0-640a197840b4","system_id":"levelo_inurba_marseille","lat":43.29171,"lon":5.37154,"is_reserved":false,"is_disabled":false,"rental_uris":{"android":"levelo://app?vid=32a9ade4-420d-49fe-ada0-640a197840b4","ios":"levelo://app?vid=32a9ade4-420d-49fe-ada0-640a197840b4"},"vehicle_type_id":"4","last_reported":1752567387,"current_range_meters":17200,"station_id":"ce4bha92rcd13ifvqeh0","pricing_plan_id":"cebpf4jnsgd1na2vs0mg"},{"bike_id":"bd774279-77ab-46c3-b3e1-ae7a45d761a0","system_id":"levelo_inurba_marseille","lat":43.29029,"lon":5.38635,"is_reserved":false,"is_disabled":false,"rental_uris":{"android":"levelo://app?vid=bd774279-77ab-46c3-b3e1-ae7a45d761a0","ios":"levelo://app?vid=bd774279-77ab-46c3-b3e1-ae7a45d761a0"},"vehicle_type_id":"4","last_reported":1752567387,"current_range_meters":17200,"station_id":"ce4bh4p2rcd13ifvqe0g","pricing_plan_id":"cebpf4jnsgd1na2vs0mg"},{"bike_id":"d64d6d6b-ded6-47c7-9cc5-25d09df96130","system_id":"levelo_inurba_marseille","lat":43.25577,"lon":5.38227,"is_reserved":false,"is_disabled":false,"rental_uris":{"android":"levelo://app?vid=d64d6d6b-ded6-47c7-9cc5-25d09df96130","ios":"levelo://app?vid=d64d6d6b-ded6-47c7-9cc5-25d09df96130"},"vehicle_type_id":"4","last_reported":1752567387,"current_range_meters":17200,"station_id":"ce4bhih2rcd13ifvqfs0","pricing_plan_id":"cebpf4jnsgd1na2vs0mg"},{"bike_id":"aaffeafc-b726-4eeb-93a4-95bb0be1eec2","system_id":"levelo_inurba_marseille","lat":43.241763,"lon":5.397078,"is_reserved":false,"is_disabled":false,"rental_uris":{"android":"levelo://app?vid=aaffeafc-b726-4eeb-93a4-95bb0be1eec2","ios":"levelo://app?vid=aaffeafc-b726-4eeb-93a4-95bb0be1eec2"},"vehicle_type_id":"4","last_reported":1752567387,"current_range_meters":17600,"station_id":"ce4bhn12rcd13ifvqgpg","pricing_plan_id":"cebpf4jnsgd1na2vs0mg"},{"bike_id":"4f6880f3-9c9a-47a2-b214-5eca03832db6","system_id":"levelo_inurba_marseille","lat":43.32114,"lon":5.36762,"is_reserved":false,"is_disabled":false,"rental_uris":{"android":"levelo://app?vid=4f6880f3-9c9a-47a2-b214-5eca03832db6","ios":"levelo://app?vid=4f6880f3-9c9a-47a2-b214-5eca03832db6"},"vehicle_type_id":"4","last_reported":1752567387,"current_range_meters":17600,"station_id":"ce4bhrh2rcd13ifvqhug","pricing_plan_id":"cebpf4jnsgd1na2vs0mg"},{"bike_id":"68c3cd12-30dd-461a-bc78-0c7437ce93a5","system_id":"levelo_inurba_marseille","lat":43.31998,"lon":5.38139,"is_reserved":false,"is_disabled":false,"rental_uris":{"android":"levelo://app?vid=68c3cd12-30dd-461a-bc78-0c7437ce93a5","ios":"levelo://app?vid=68c3cd12-30dd-461a-bc78-0c7437ce93a5"},"vehicle_type_id":"4","last_reported":1752567387,"current_range_meters":17600,"station_id":"ce4bhr12rcd13ifvqhpg","pricing_plan_id":"cebpf4jnsgd1na2vs0mg"},{"bike_id":"2b0febdd-f781-4960-8ee7-b8683b09d2ab","system_id":"levelo_inurba_marseille","lat":43.24388,"lon":5.37054,"is_reserved":false,"is_disabled":false,"rental_uris":{"android":"levelo://app?vid=2b0febdd-f781-4960-8ee7-b8683b09d2ab","ios":"levelo://app?vid=2b0febdd-f781-4960-8ee7-b8683b09d2ab"},"vehicle_type_id":"4","last_reported":1752567387,"current_range_meters":17600,"station_id":"ce4bhhh2rcd13ifvqfk0","pricing_plan_id":"cebpf4jnsgd1na2vs0mg"},{"bike_id":"3d76d82f-e252-4a4a-bf09-21ea73c969ca","system_id":"levelo_inurba_marseille","lat":43.24184,"lon":5.3971,"is_reserved":false,"is_disabled":false,"rental_uris":{"android":"levelo://app?vid=3d76d82f-e252-4a4a-bf09-21ea73c969ca","ios":"levelo://app?vid=3d76d82f-e252-4a4a-bf09-21ea73c969ca"},"vehicle_type_id":"4","last_reported":1752567387,"current_range_meters":17600,"station_id":"ce4bhn12rcd13ifvqgpg","pricing_plan_id":"cebpf4jnsgd1na2vs0mg"},{"bike_id":"e875ba05-0311-438b-a1ff-af174969b660","system_id":"levelo_inurba_marseille","lat":43.27982,"lon":5.41054,"is_reserved":false,"is_disabled":true,"rental_uris":{"android":"levelo://app?vid=e875ba05-0311-438b-a1ff-af174969b660","ios":"levelo://app?vid=e875ba05-0311-438b-a1ff-af174969b660"},"vehicle_type_id":"4","last_reported":1752567387,"current_range_meters":17600,"station_id":"ce4bhnp2rcd13ifvqh0g","pricing_plan_id":"cebpf4jnsgd1na2vs0mg"},{"bike_id":"146f1be0-fe0d-4054-bbb1-cd7d8289d830","system_id":"levelo_inurba_marseille","lat":43.2931,"lon":5.37168,"is_reserved":false,"is_disabled":false,"rental_uris":{"android":"levelo://app?vid=146f1be0-fe0d-4054-bbb1-cd7d8289d830","ios":"levelo://app?vid=146f1be0-fe0d-4054-bbb1-cd7d8289d830"},"vehicle_type_id":"4","last_reported":1752567387,"current_range_meters":17600,"station_id":"ce4bgh92rcd13ifvqb40","pricing_plan_id":"cebpf4jnsgd1na2vs0mg"},{"bike_id":"0da36d1c-3ba1-49df-9c20-f86f1bf9eb74","system_id":"levelo_inurba_marseille","lat":43.27943,"lon":5.41038,"is_reserved":false,"is_disabled":false,"rental_uris":{"android":"levelo://app?vid=0da36d1c-3ba1-49df-9c20-f86f1bf9eb74","ios":"levelo://app?vid=0da36d1c-3ba1-49df-9c20-f86f1bf9eb74"},"vehicle_type_id":"4","last_reported":1752567387,"current_range_meters":17600,"station_id":"ce4bhnp2rcd13ifvqh0g","pricing_plan_id":"cebpf4jnsgd1na2vs0mg"},{"bike_id":"80f5da49-2d6d-43cb-b79d-c73e3874d0a5","system_id":"levelo_inurba_marseille","lat":43.27662,"lon":5.38918,"is_reserved":false,"is_disabled":false,"rental_uris":{"android":"levelo://app?vid=80f5da49-2d6d-43cb-b79d-c73e3874d0a5","ios":"levelo://app?vid=80f5da49-2d6d-43cb-b79d-c73e3874d0a5"},"vehicle_type_id":"4","last_reported":1752567387,"current_range_meters":17600,"station_id":"ce4bhi12rcd13ifvqfo0","pricing_plan_id":"cebpf4jnsgd1na2vs0mg"},{"bike_id":"2d65b583-39d0-45fd-8638-d56b87571939","system_id":"levelo_inurba_marseille","lat":43.30377,"lon":5.42479,"is_reserved":false,"is_disabled":false,"rental_uris":{"android":"levelo://app?vid=2d65b583-39d0-45fd-8638-d56b87571939","ios":"levelo://app?vid=2d65b583-39d0-45fd-8638-d56b87571939"},"vehicle_type_id":"4","last_reported":1752567387,"current_range_meters":18000,"station_id":"ce4bhoh2rcd13ifvqh6g","pricing_plan_id":"cebpf4jnsgd1na2vs0mg"},{"bike_id":"56ab7976-2404-43ff-adb5-af81ded6987e","system_id":"levelo_inurba_marseille","lat":43.31433,"lon":5.40433,"is_reserved":false,"is_disabled":false,"rental_uris":{"android":"levelo://app?vid=56ab7976-2404-43ff-adb5-af81ded6987e","ios":"levelo://app?vid=56ab7976-2404-43ff-adb5-af81ded6987e"},"vehicle_type_id":"4","last_reported":1752567387,"current_range_meters":18000,"station_id":"","pricing_plan_id":"cebpf4jnsgd1na2vs0mg"},{"bike_id":"c5b4c9fc-2f46-4903-9bd5-3b80e4e030c8","system_id":"levelo_inurba_marseille","lat":43.280693,"lon":5.396577,"is_reserved":false,"is_disabled":false,"rental_uris":{"android":"levelo://app?vid=c5b4c9fc-2f46-4903-9bd5-3b80e4e030c8","ios":"levelo://app?vid=c5b4c9fc-2f46-4903-9bd5-3b80e4e030c8"},"vehicle_type_id":"4","last_reported":1752567387,"current_range_meters":18000,"station_id":"ce4bho12rcd13ifvqh2g","pricing_plan_id":"cebpf4jnsgd1na2vs0mg"},{"bike_id":"83e2541b-7202-4285-acbb-f0aff27aea77","system_id":"levelo_inurba_marseille","lat":43.27667,"lon":5.38901,"is_reserved":false,"is_disabled":true,"rental_uris":{"android":"levelo://app?vid=83e2541b-7202-4285-acbb-f0aff27aea77","ios":"levelo://app?vid=83e2541b-7202-4285-acbb-f0aff27aea77"},"vehicle_type_id":"4","last_reported":1752567387,"current_range_meters":18000,"station_id":"ce4bhi12rcd13ifvqfo0","pricing_plan_id":"cebpf4jnsgd1na2vs0mg"},{"bike_id":"8a3c7a9b-da04-4232-b94d-88afe10b78aa","system_id":"levelo_inurba_marseille","lat":43.2424,"lon":5.36935,"is_reserved":false,"is_disabled":false,"rental_uris":{"android":"levelo://app?vid=8a3c7a9b-da04-4232-b94d-88afe10b78aa","ios":"levelo://app?vid=8a3c7a9b-da04-4232-b94d-88afe10b78aa"},"vehicle_type_id":"4","last_reported":1752567387,"current_range_meters":18000,"station_id":"","pricing_plan_id":"cebpf4jnsgd1na2vs0mg"},{"bike_id":"22ccfe7f-b8aa-475d-8f58-a670cd3948b4","system_id":"levelo_inurba_marseille","lat":43.32914,"lon":5.39024,"is_reserved":false,"is_disabled":false,"rental_uris":{"android":"levelo://app?vid=22ccfe7f-b8aa-475d-8f58-a670cd3948b4","ios":"levelo://app?vid=22ccfe7f-b8aa-475d-8f58-a670cd3948b4"},"vehicle_type_id":"4","last_reported":1752567387,"current_range_meters":18000,"station_id":"","pricing_plan_id":"cebpf4jnsgd1na2vs0mg"},{"bike_id":"857f0036-99cc-4f3a-a507-368e444b1ed7","system_id":"levelo_inurba_marseille","lat":43.24202,"lon":5.39716,"is_reserved":false,"is_disabled":false,"rental_uris":{"android":"levelo://app?vid=857f0036-99cc-4f3a-a507-368e444b1ed7","ios":"levelo://app?vid=857f0036-99cc-4f3a-a507-368e444b1ed7"},"vehicle_type_id":"4","last_reported":1752567387,"current_range_meters":18000,"station_id":"ce4bhn12rcd13ifvqgpg","pricing_plan_id":"cebpf4jnsgd1na2vs0mg"},{"bike_id":"37f393c5-717a-4601-ac3d-e99cf486af7b","system_id":"levelo_inurba_marseille","lat":43.28373,"lon":5.38641,"is_reserved":false,"is_disabled":true,"rental_uris":{"android":"levelo://app?vid=37f393c5-717a-4601-ac3d-e99cf486af7b","ios":"levelo://app?vid=37f393c5-717a-4601-ac3d-e99cf486af7b"},"vehicle_type_id":"4","last_reported":1752567387,"current_range_meters":18000,"station_id":"ce4bh492rcd13ifvqdvg","pricing_plan_id":"cebpf4jnsgd1na2vs0mg"},{"bike_id":"437475e4-104a-454f-8f38-3c47dc312761","system_id":"levelo_inurba_marseille","lat":43.299919,"lon":5.365973,"is_reserved":false,"is_disabled":false,"rental_uris":{"android":"levelo://app?vid=437475e4-104a-454f-8f38-3c47dc312761","ios":"levelo://app?vid=437475e4-104a-454f-8f38-3c47dc312761"},"vehicle_type_id":"4","last_reported":1752567387,"current_range_meters":18000,"station_id":"","pricing_plan_id":"cebpf4jnsgd1na2vs0mg"},{"bike_id":"111689b3-8a45-4b5f-8470-811fcbda968a","system_id":"levelo_inurba_marseille","lat":43.27945,"lon":5.41041,"is_reserved":false,"is_disabled":false,"rental_uris":{"android":"levelo://app?vid=111689b3-8a45-4b5f-8470-811fcbda968a","ios":"levelo://app?vid=111689b3-8a45-4b5f-8470-811fcbda968a"},"vehicle_type_id":"4","last_reported":1752567387,"current_range_meters":18800,"station_id":"ce4bhnp2rcd13ifvqh0g","pricing_plan_id":"cebpf4jnsgd1na2vs0mg"},{"bike_id":"acea0d95-3622-4981-b315-d1078b503b06","system_id":"levelo_inurba_marseille","lat":43.289191,"lon":5.383885,"is_reserved":false,"is_disabled":true,"rental_uris":{"android":"levelo://app?vid=acea0d95-3622-4981-b315-d1078b503b06","ios":"levelo://app?vid=acea0d95-3622-4981-b315-d1078b503b06"},"vehicle_type_id":"4","last_reported":1752567387,"current_range_meters":18800,"station_id":"ce4bh612rcd13ifvqe6g","pricing_plan_id":"cebpf4jnsgd1na2vs0mg"},{"bike_id":"9ed3d99a-66b7-4bc5-9756-3493b1b9a5b5","system_id":"levelo_inurba_marseille","lat":43.287201,"lon":5.379401,"is_reserved":false,"is_disabled":false,"rental_uris":{"android":"levelo://app?vid=9ed3d99a-66b7-4bc5-9756-3493b1b9a5b5","ios":"levelo://app?vid=9ed3d99a-66b7-4bc5-9756-3493b1b9a5b5"},"vehicle_type_id":"4","last_reported":1752567387,"current_range_meters":18800,"station_id":"ce4bh9p2rcd13ifvqec0","pricing_plan_id":"cebpf4jnsgd1na2vs0mg"},{"bike_id":"69470280-c898-4c61-913d-814206528e10","system_id":"levelo_inurba_marseille","lat":43.211939,"lon":5.350654,"is_reserved":false,"is_disabled":false,"rental_uris":{"android":"levelo://app?vid=69470280-c898-4c61-913d-814206528e10","ios":"levelo://app?vid=69470280-c898-4c61-913d-814206528e10"},"vehicle_type_id":"4","last_reported":1752567387,"current_range_meters":18800,"station_id":"st_cvj6sg6p6f1abm77japg","pricing_plan_id":"cebpf4jnsgd1na2vs0mg"},{"bike_id":"08c49efc-a78b-427b-a12a-b69613f0ce96","system_id":"levelo_inurba_marseille","lat":43.29985,"lon":5.37179,"is_reserved":false,"is_disabled":false,"rental_uris":{"android":"levelo://app?vid=08c49efc-a78b-427b-a12a-b69613f0ce96","ios":"levelo://app?vid=08c49efc-a78b-427b-a12a-b69613f0ce96"},"vehicle_type_id":"4","last_reported":1752567387,"current_range_meters":19200,"station_id":"ce4bgr92rcd13ifvqc7g","pricing_plan_id":"cebpf4jnsgd1na2vs0mg"},{"bike_id":"810d78e0-59b4-4a2a-b52d-b9bc38991ce7","system_id":"levelo_inurba_marseille","lat":43.30944,"lon":5.3903,"is_reserved":false,"is_disabled":false,"rental_uris":{"android":"levelo://app?vid=810d78e0-59b4-4a2a-b52d-b9bc38991ce7","ios":"levelo://app?vid=810d78e0-59b4-4a2a-b52d-b9bc38991ce7"},"vehicle_type_id":"4","last_reported":1752567387,"current_range_meters":19200,"station_id":"ce4bgup2rcd13ifvqco0","pricing_plan_id":"cebpf4jnsgd1na2vs0mg"},{"bike_id":"84dc63d2-f157-4029-9e3a-a02c7b32543b","system_id":"levelo_inurba_marseille","lat":43.27958,"lon":5.38688,"is_reserved":false,"is_disabled":false,"rental_uris":{"android":"levelo://app?vid=84dc63d2-f157-4029-9e3a-a02c7b32543b","ios":"levelo://app?vid=84dc63d2-f157-4029-9e3a-a02c7b32543b"},"vehicle_type_id":"4","last_reported":1752567387,"current_range_meters":19200,"station_id":"ce4bhg12rcd13ifvqf80","pricing_plan_id":"cebpf4jnsgd1na2vs0mg"},{"bike_id":"d39b4cc4-f770-4f48-84a3-0a943035a6f2","system_id":"levelo_inurba_marseille","lat":43.30947,"lon":5.3903,"is_reserved":false,"is_disabled":false,"rental_uris":{"android":"levelo://app?vid=d39b4cc4-f770-4f48-84a3-0a943035a6f2","ios":"levelo://app?vid=d39b4cc4-f770-4f48-84a3-0a943035a6f2"},"vehicle_type_id":"4","last_reported":1752567387,"current_range_meters":19200,"station_id":"ce4bgup2rcd13ifvqco0","pricing_plan_id":"cebpf4jnsgd1na2vs0mg"},{"bike_id":"614a9842-6b4c-4268-a646-599bfcb46bbe","system_id":"levelo_inurba_marseille","lat":43.2595,"lon":5.40918,"is_reserved":false,"is_disabled":false,"rental_uris":{"android":"levelo://app?vid=614a9842-6b4c-4268-a646-599bfcb46bbe","ios":"levelo://app?vid=614a9842-6b4c-4268-a646-599bfcb46bbe"},"vehicle_type_id":"4","last_reported":1752567387,"current_range_meters":19200,"station_id":"ce4bhm92rcd13ifvqglg","pricing_plan_id":"cebpf4jnsgd1na2vs0mg"},{"bike_id":"f3e4a14e-8992-4198-9f2a-7d57a260053a","system_id":"levelo_inurba_marseille","lat":43.279973,"lon":5.41661,"is_reserved":false,"is_disabled":false,"rental_uris":{"android":"levelo://app?vid=f3e4a14e-8992-4198-9f2a-7d57a260053a","ios":"levelo://app?vid=f3e4a14e-8992-4198-9f2a-7d57a260053a"},"vehicle_type_id":"4","last_reported":1752567387,"current_range_meters":19200,"station_id":"ce4bho12rcd13ifvqh1g","pricing_plan_id":"cebpf4jnsgd1na2vs0mg"},{"bike_id":"69a98ef8-9b4f-490a-b1e7-11ae49fc387b","system_id":"levelo_inurba_marseille","lat":43.211892,"lon":5.350711,"is_reserved":false,"is_disabled":false,"rental_uris":{"android":"levelo://app?vid=69a98ef8-9b4f-490a-b1e7-11ae49fc387b","ios":"levelo://app?vid=69a98ef8-9b4f-490a-b1e7-11ae49fc387b"},"vehicle_type_id":"4","last_reported":1752567387,"current_range_meters":19200,"station_id":"st_cvj6sg6p6f1abm77japg","pricing_plan_id":"cebpf4jnsgd1na2vs0mg"},{"bike_id":"10bde535-5721-4821-a8f0-c5d2649b01a5","system_id":"levelo_inurba_marseille","lat":43.29085,"lon":5.40047,"is_reserved":false,"is_disabled":true,"rental_uris":{"android":"levelo://app?vid=10bde535-5721-4821-a8f0-c5d2649b01a5","ios":"levelo://app?vid=10bde535-5721-4821-a8f0-c5d2649b01a5"},"vehicle_type_id":"4","last_reported":1752567387,"current_range_meters":19200,"station_id":"","pricing_plan_id":"cebpf4jnsgd1na2vs0mg"},{"bike_id":"33134a80-38af-4759-a83b-eb44ea22bcb9","system_id":"levelo_inurba_marseille","lat":43.278267,"lon":5.407172,"is_reserved":false,"is_disabled":false,"rental_uris":{"android":"levelo://app?vid=33134a80-38af-4759-a83b-eb44ea22bcb9","ios":"levelo://app?vid=33134a80-38af-4759-a83b-eb44ea22bcb9"},"vehicle_type_id":"4","last_reported":1752567387,"current_range_meters":19200,"station_id":"ce4bhnh2rcd13ifvqgtg","pricing_plan_id":"cebpf4jnsgd1na2vs0mg"},{"bike_id":"a0cd4a16-a19b-4d45-9bd3-59156b0003ae","system_id":"levelo_inurba_marseille","lat":43.26954,"lon":5.38629,"is_reserved":false,"is_disabled":false,"rental_uris":{"android":"levelo://app?vid=a0cd4a16-a19b-4d45-9bd3-59156b0003ae","ios":"levelo://app?vid=a0cd4a16-a19b-4d45-9bd3-59156b0003ae"},"vehicle_type_id":"4","last_reported":1752567387,"current_range_meters":19200,"station_id":"ce4bhh92rcd13ifvqfh0","pricing_plan_id":"cebpf4jnsgd1na2vs0mg"},{"bike_id":"ed686993-1ad4-450f-8452-2fa0ece886d6","system_id":"levelo_inurba_marseille","lat":43.31992,"lon":5.38158,"is_reserved":false,"is_disabled":false,"rental_uris":{"android":"levelo://app?vid=ed686993-1ad4-450f-8452-2fa0ece886d6","ios":"levelo://app?vid=ed686993-1ad4-450f-8452-2fa0ece886d6"},"vehicle_type_id":"4","last_reported":1752567387,"current_range_meters":19200,"station_id":"ce4bhr12rcd13ifvqhpg","pricing_plan_id":"cebpf4jnsgd1na2vs0mg"},{"bike_id":"d8d60ab6-c488-42ca-96e4-553e790a9162","system_id":"levelo_inurba_marseille","lat":43.211961,"lon":5.350658,"is_reserved":false,"is_disabled":false,"rental_uris":{"android":"levelo://app?vid=d8d60ab6-c488-42ca-96e4-553e790a9162","ios":"levelo://app?vid=d8d60ab6-c488-42ca-96e4-553e790a9162"},"vehicle_type_id":"4","last_reported":1752567387,"current_range_meters":19200,"station_id":"st_cvj6sg6p6f1abm77japg","pricing_plan_id":"cebpf4jnsgd1na2vs0mg"},{"bike_id":"486c36cd-bb8d-435f-a933-802c2d5d2447","system_id":"levelo_inurba_marseille","lat":43.211939,"lon":5.350667,"is_reserved":false,"is_disabled":false,"rental_uris":{"android":"levelo://app?vid=486c36cd-bb8d-435f-a933-802c2d5d2447","ios":"levelo://app?vid=486c36cd-bb8d-435f-a933-802c2d5d2447"},"vehicle_type_id":"4","last_reported":1752567387,"current_range_meters":19200,"station_id":"st_cvj6sg6p6f1abm77japg","pricing_plan_id":"cebpf4jnsgd1na2vs0mg"},{"bike_id":"bcebfcee-8da2-47fd-8a43-59f9ef81bb1f","system_id":"levelo_inurba_marseille","lat":43.231777,"lon":5.437335,"is_reserved":false,"is_disabled":false,"rental_uris":{"android":"levelo://app?vid=bcebfcee-8da2-47fd-8a43-59f9ef81bb1f","ios":"levelo://app?vid=bcebfcee-8da2-47fd-8a43-59f9ef81bb1f"},"vehicle_type_id":"4","last_reported":1752567387,"current_range_meters":19600,"station_id":"ce4bhmp2rcd13ifvqgog","pricing_plan_id":"cebpf4jnsgd1na2vs0mg"},{"bike_id":"b433af72-b4f5-4f79-ad97-b03c22bf68a5","system_id":"levelo_inurba_marseille","lat":43.25934,"lon":5.40932,"is_reserved":false,"is_disabled":false,"rental_uris":{"android":"levelo://app?vid=b433af72-b4f5-4f79-ad97-b03c22bf68a5","ios":"levelo://app?vid=b433af72-b4f5-4f79-ad97-b03c22bf68a5"},"vehicle_type_id":"4","last_reported":1752567387,"current_range_meters":19600,"station_id":"ce4bhm92rcd13ifvqglg","pricing_plan_id":"cebpf4jnsgd1na2vs0mg"},{"bike_id":"28287f7e-657f-4aee-865b-d9e799e3b248","system_id":"levelo_inurba_marseille","lat":43.337444,"lon":5.374475,"is_reserved":false,"is_disabled":false,"rental_uris":{"android":"levelo://app?vid=28287f7e-657f-4aee-865b-d9e799e3b248","ios":"levelo://app?vid=28287f7e-657f-4aee-865b-d9e799e3b248"},"vehicle_type_id":"4","last_reported":1752567387,"current_range_meters":19600,"station_id":"","pricing_plan_id":"cebpf4jnsgd1na2vs0mg"},{"bike_id":"b0f129b0-df2d-4827-8f93-3d6fb00f5fe2","system_id":"levelo_inurba_marseille","lat":43.284929,"lon":5.371025,"is_reserved":false,"is_disabled":true,"rental_uris":{"android":"levelo://app?vid=b0f129b0-df2d-4827-8f93-3d6fb00f5fe2","ios":"levelo://app?vid=b0f129b0-df2d-4827-8f93-3d6fb00f5fe2"},"vehicle_type_id":"4","last_reported":1752567387,"current_range_meters":19600,"station_id":"","pricing_plan_id":"cebpf4jnsgd1na2vs0mg"},{"bike_id":"bf95a944-b4b7-4fdb-8a53-c9018d844ab8","system_id":"levelo_inurba_marseille","lat":43.25927,"lon":5.40903,"is_reserved":false,"is_disabled":false,"rental_uris":{"android":"levelo://app?vid=bf95a944-b4b7-4fdb-8a53-c9018d844ab8","ios":"levelo://app?vid=bf95a944-b4b7-4fdb-8a53-c9018d844ab8"},"vehicle_type_id":"4","last_reported":1752567387,"current_range_meters":19600,"station_id":"ce4bhm92rcd13ifvqglg","pricing_plan_id":"cebpf4jnsgd1na2vs0mg"},{"bike_id":"0d68ece9-d421-4de0-88bb-464e887e7c5f","system_id":"levelo_inurba_marseille","lat":43.3125,"lon":5.38135,"is_reserved":false,"is_disabled":false,"rental_uris":{"android":"levelo://app?vid=0d68ece9-d421-4de0-88bb-464e887e7c5f","ios":"levelo://app?vid=0d68ece9-d421-4de0-88bb-464e887e7c5f"},"vehicle_type_id":"4","last_reported":1752567387,"current_range_meters":20000,"station_id":"","pricing_plan_id":"cebpf4jnsgd1na2vs0mg"},{"bike_id":"5b6a2ab6-b1d3-4a2d-aeb0-053cd29becfa","system_id":"levelo_inurba_marseille","lat":43.28494,"lon":5.38411,"is_reserved":false,"is_disabled":false,"rental_uris":{"android":"levelo://app?vid=5b6a2ab6-b1d3-4a2d-aeb0-053cd29becfa","ios":"levelo://app?vid=5b6a2ab6-b1d3-4a2d-aeb0-053cd29becfa"},"vehicle_type_id":"4","last_reported":1752567387,"current_range_meters":19600,"station_id":"ce4bh512rcd13ifvqe3g","pricing_plan_id":"cebpf4jnsgd1na2vs0mg"},{"bike_id":"5d58bac3-010f-4287-a2a5-d8431617834e","system_id":"levelo_inurba_marseille","lat":43.21189,"lon":5.350683,"is_reserved":false,"is_disabled":false,"rental_uris":{"android":"levelo://app?vid=5d58bac3-010f-4287-a2a5-d8431617834e","ios":"levelo://app?vid=5d58bac3-010f-4287-a2a5-d8431617834e"},"vehicle_type_id":"4","last_reported":1752567387,"current_range_meters":19600,"station_id":"st_cvj6sg6p6f1abm77japg","pricing_plan_id":"cebpf4jnsgd1na2vs0mg"},{"bike_id":"0e0ca525-dd45-4514-8a8e-bc4d44ff13a9","system_id":"levelo_inurba_marseille","lat":43.279893,"lon":5.41652,"is_reserved":false,"is_disabled":true,"rental_uris":{"android":"levelo://app?vid=0e0ca525-dd45-4514-8a8e-bc4d44ff13a9","ios":"levelo://app?vid=0e0ca525-dd45-4514-8a8e-bc4d44ff13a9"},"vehicle_type_id":"4","last_reported":1752567387,"current_range_meters":19600,"station_id":"ce4bho12rcd13ifvqh1g","pricing_plan_id":"cebpf4jnsgd1na2vs0mg"},{"bike_id":"136befe3-f7b6-4af2-b1af-4902e0ba9d29","system_id":"levelo_inurba_marseille","lat":43.28274,"lon":5.35062,"is_reserved":false,"is_disabled":false,"rental_uris":{"android":"levelo://app?vid=136befe3-f7b6-4af2-b1af-4902e0ba9d29","ios":"levelo://app?vid=136befe3-f7b6-4af2-b1af-4902e0ba9d29"},"vehicle_type_id":"4","last_reported":1752567387,"current_range_meters":19600,"station_id":"ce4bhbp2rcd13ifvqerg","pricing_plan_id":"cebpf4jnsgd1na2vs0mg"},{"bike_id":"ebb3d117-4f42-44f4-93b4-0fc6b11c29ba","system_id":"levelo_inurba_marseille","lat":43.30552,"lon":5.36703,"is_reserved":false,"is_disabled":false,"rental_uris":{"android":"levelo://app?vid=ebb3d117-4f42-44f4-93b4-0fc6b11c29ba","ios":"levelo://app?vid=ebb3d117-4f42-44f4-93b4-0fc6b11c29ba"},"vehicle_type_id":"4","last_reported":1752567387,"current_range_meters":20000,"station_id":"ce4bgrp2rcd13ifvqc9g","pricing_plan_id":"cebpf4jnsgd1na2vs0mg"},{"bike_id":"dc12862d-2cbe-426f-9d1f-5eaa7851b23c","system_id":"levelo_inurba_marseille","lat":43.2418,"lon":5.39723,"is_reserved":false,"is_disabled":false,"rental_uris":{"android":"levelo://app?vid=dc12862d-2cbe-426f-9d1f-5eaa7851b23c","ios":"levelo://app?vid=dc12862d-2cbe-426f-9d1f-5eaa7851b23c"},"vehicle_type_id":"4","last_reported":1752567387,"current_range_meters":20000,"station_id":"ce4bhn12rcd13ifvqgpg","pricing_plan_id":"cebpf4jnsgd1na2vs0mg"},{"bike_id":"3fb182b2-ec1b-4258-a166-7f2a6919486d","system_id":"levelo_inurba_marseille","lat":43.28486,"lon":5.38426,"is_reserved":false,"is_disabled":false,"rental_uris":{"android":"levelo://app?vid=3fb182b2-ec1b-4258-a166-7f2a6919486d","ios":"levelo://app?vid=3fb182b2-ec1b-4258-a166-7f2a6919486d"},"vehicle_type_id":"4","last_reported":1752567387,"current_range_meters":20000,"station_id":"ce4bh512rcd13ifvqe3g","pricing_plan_id":"cebpf4jnsgd1na2vs0mg"},{"bike_id":"8fd72403-f6be-4cee-97aa-9dd54933902e","system_id":"levelo_inurba_marseille","lat":43.24157,"lon":5.39694,"is_reserved":false,"is_disabled":false,"rental_uris":{"android":"levelo://app?vid=8fd72403-f6be-4cee-97aa-9dd54933902e","ios":"levelo://app?vid=8fd72403-f6be-4cee-97aa-9dd54933902e"},"vehicle_type_id":"4","last_reported":1752567387,"current_range_meters":20000,"station_id":"ce4bhn12rcd13ifvqgpg","pricing_plan_id":"cebpf4jnsgd1na2vs0mg"},{"bike_id":"c2ab978f-22e9-484d-a675-181c157137d4","system_id":"levelo_inurba_marseille","lat":43.323625,"lon":5.388748,"is_reserved":false,"is_disabled":false,"rental_uris":{"android":"levelo://app?vid=c2ab978f-22e9-484d-a675-181c157137d4","ios":"levelo://app?vid=c2ab978f-22e9-484d-a675-181c157137d4"},"vehicle_type_id":"4","last_reported":1752567387,"current_range_meters":20000,"station_id":"ce4bhqp2rcd13ifvqhog","pricing_plan_id":"cebpf4jnsgd1na2vs0mg"},{"bike_id":"83c14a7d-97f9-4ac5-a330-4f32d2a71e85","system_id":"levelo_inurba_marseille","lat":43.31359,"lon":5.3672,"is_reserved":false,"is_disabled":false,"rental_uris":{"android":"levelo://app?vid=83c14a7d-97f9-4ac5-a330-4f32d2a71e85","ios":"levelo://app?vid=83c14a7d-97f9-4ac5-a330-4f32d2a71e85"},"vehicle_type_id":"4","last_reported":1752567387,"current_range_meters":20000,"station_id":"ce4bgr92rcd13ifvqc6g","pricing_plan_id":"cebpf4jnsgd1na2vs0mg"},{"bike_id":"97d47192-800a-4d74-9996-e590dd89399a","system_id":"levelo_inurba_marseille","lat":43.26638,"lon":5.38263,"is_reserved":false,"is_disabled":false,"rental_uris":{"android":"levelo://app?vid=97d47192-800a-4d74-9996-e590dd89399a","ios":"levelo://app?vid=97d47192-800a-4d74-9996-e590dd89399a"},"vehicle_type_id":"4","last_reported":1752567387,"current_range_meters":20000,"station_id":"ce4bhg92rcd13ifvqf90","pricing_plan_id":"cebpf4jnsgd1na2vs0mg"},{"bike_id":"5335adad-7b61-4313-832b-07723a125b64","system_id":"levelo_inurba_marseille","lat":43.29229,"lon":5.36031,"is_reserved":false,"is_disabled":true,"rental_uris":{"android":"levelo://app?vid=5335adad-7b61-4313-832b-07723a125b64","ios":"levelo://app?vid=5335adad-7b61-4313-832b-07723a125b64"},"vehicle_type_id":"4","last_reported":1752567387,"current_range_meters":20000,"station_id":"ce4bhbh2rcd13ifvqeqg","pricing_plan_id":"cebpf4jnsgd1na2vs0mg"},{"bike_id":"aefd79db-bf8d-4180-92af-a9ef470139d0","system_id":"levelo_inurba_marseille","lat":43.29,"lon":5.35612,"is_reserved":false,"is_disabled":true,"rental_uris":{"android":"levelo://app?vid=aefd79db-bf8d-4180-92af-a9ef470139d0","ios":"levelo://app?vid=aefd79db-bf8d-4180-92af-a9ef470139d0"},"vehicle_type_id":"4","last_reported":1752567387,"current_range_meters":20400,"station_id":"ce4bhb92rcd13ifvqen0","pricing_plan_id":"cebpf4jnsgd1na2vs0mg"},{"bike_id":"8a5e3217-4c0c-47f6-aff3-05cefd0a5de2","system_id":"levelo_inurba_marseille","lat":43.25,"lon":5.38928,"is_reserved":false,"is_disabled":false,"rental_uris":{"android":"levelo://app?vid=8a5e3217-4c0c-47f6-aff3-05cefd0a5de2","ios":"levelo://app?vid=8a5e3217-4c0c-47f6-aff3-05cefd0a5de2"},"vehicle_type_id":"4","last_reported":1752567387,"current_range_meters":20400,"station_id":"ce4bhgp2rcd13ifvqfd0","pricing_plan_id":"cebpf4jnsgd1na2vs0mg"},{"bike_id":"e3151a9b-c556-450e-bc2c-7098bb0dfdee","system_id":"levelo_inurba_marseille","lat":43.24167,"lon":5.36393,"is_reserved":false,"is_disabled":false,"rental_uris":{"android":"levelo://app?vid=e3151a9b-c556-450e-bc2c-7098bb0dfdee","ios":"levelo://app?vid=e3151a9b-c556-450e-bc2c-7098bb0dfdee"},"vehicle_type_id":"4","last_reported":1752567387,"current_range_meters":20400,"station_id":"cpo36qri1sfpv3e86is0","pricing_plan_id":"cebpf4jnsgd1na2vs0mg"},{"bike_id":"091fe711-2ea4-4237-a18d-c9ad056acae5","system_id":"levelo_inurba_marseille","lat":43.32081,"lon":5.38756,"is_reserved":false,"is_disabled":false,"rental_uris":{"android":"levelo://app?vid=091fe711-2ea4-4237-a18d-c9ad056acae5","ios":"levelo://app?vid=091fe711-2ea4-4237-a18d-c9ad056acae5"},"vehicle_type_id":"4","last_reported":1752567387,"current_range_meters":20400,"station_id":"","pricing_plan_id":"cebpf4jnsgd1na2vs0mg"},{"bike_id":"ddefa569-4878-4dd2-b279-a383470093db","system_id":"levelo_inurba_marseille","lat":43.29895,"lon":5.436664,"is_reserved":false,"is_disabled":false,"rental_uris":{"android":"levelo://app?vid=ddefa569-4878-4dd2-b279-a383470093db","ios":"levelo://app?vid=ddefa569-4878-4dd2-b279-a383470093db"},"vehicle_type_id":"4","last_reported":1752567387,"current_range_meters":20400,"station_id":"ce4bhpp2rcd13ifvqhfg","pricing_plan_id":"cebpf4jnsgd1na2vs0mg"},{"bike_id":"8448cec3-0c4c-4a88-bedd-57e8311da484","system_id":"levelo_inurba_marseille","lat":43.2656,"lon":5.37283,"is_reserved":false,"is_disabled":false,"rental_uris":{"android":"levelo://app?vid=8448cec3-0c4c-4a88-bedd-57e8311da484","ios":"levelo://app?vid=8448cec3-0c4c-4a88-bedd-57e8311da484"},"vehicle_type_id":"4","last_reported":1752567387,"current_range_meters":20400,"station_id":"ce4bhg12rcd13ifvqf70","pricing_plan_id":"cebpf4jnsgd1na2vs0mg"},{"bike_id":"52e7a37c-fd09-472d-a3fb-2d8640d4ca27","system_id":"levelo_inurba_marseille","lat":43.23159,"lon":5.43692,"is_reserved":false,"is_disabled":false,"rental_uris":{"android":"levelo://app?vid=52e7a37c-fd09-472d-a3fb-2d8640d4ca27","ios":"levelo://app?vid=52e7a37c-fd09-472d-a3fb-2d8640d4ca27"},"vehicle_type_id":"4","last_reported":1752567387,"current_range_meters":20400,"station_id":"ce4bhmp2rcd13ifvqgog","pricing_plan_id":"cebpf4jnsgd1na2vs0mg"},{"bike_id":"10f0ef82-3817-40f8-b5b8-a215b61408c8","system_id":"levelo_inurba_marseille","lat":43.231887,"lon":5.399804,"is_reserved":false,"is_disabled":false,"rental_uris":{"android":"levelo://app?vid=10f0ef82-3817-40f8-b5b8-a215b61408c8","ios":"levelo://app?vid=10f0ef82-3817-40f8-b5b8-a215b61408c8"},"vehicle_type_id":"4","last_reported":1752567387,"current_range_meters":20400,"station_id":"ce4bhn12rcd13ifvqgqg","pricing_plan_id":"cebpf4jnsgd1na2vs0mg"},{"bike_id":"6a3f9ca8-e792-4eb9-9f87-250365bdaf59","system_id":"levelo_inurba_marseille","lat":43.33603,"lon":5.41038,"is_reserved":false,"is_disabled":false,"rental_uris":{"android":"levelo://app?vid=6a3f9ca8-e792-4eb9-9f87-250365bdaf59","ios":"levelo://app?vid=6a3f9ca8-e792-4eb9-9f87-250365bdaf59"},"vehicle_type_id":"4","last_reported":1752567387,"current_range_meters":20400,"station_id":"ce4bhqh2rcd13ifvqhmg","pricing_plan_id":"cebpf4jnsgd1na2vs0mg"},{"bike_id":"e9e55811-9f4d-4760-888c-11239f0304b4","system_id":"levelo_inurba_marseille","lat":43.29024,"lon":5.38126,"is_reserved":false,"is_disabled":false,"rental_uris":{"android":"levelo://app?vid=e9e55811-9f4d-4760-888c-11239f0304b4","ios":"levelo://app?vid=e9e55811-9f4d-4760-888c-11239f0304b4"},"vehicle_type_id":"4","last_reported":1752567387,"current_range_meters":20400,"station_id":"ce4bh4p2rcd13ifvqe1g","pricing_plan_id":"cebpf4jnsgd1na2vs0mg"},{"bike_id":"b5cd3af6-ce6d-4728-a68e-8b7c39734edd","system_id":"levelo_inurba_marseille","lat":43.2799,"lon":5.40025,"is_reserved":false,"is_disabled":false,"rental_uris":{"android":"levelo://app?vid=b5cd3af6-ce6d-4728-a68e-8b7c39734edd","ios":"levelo://app?vid=b5cd3af6-ce6d-4728-a68e-8b7c39734edd"},"vehicle_type_id":"4","last_reported":1752567387,"current_range_meters":20800,"station_id":"ce4bho92rcd13ifvqh4g","pricing_plan_id":"cebpf4jnsgd1na2vs0mg"},{"bike_id":"9b8d13e7-4408-43a7-b2bd-e3a173987dad","system_id":"levelo_inurba_marseille","lat":43.279456,"lon":5.410459,"is_reserved":false,"is_disabled":false,"rental_uris":{"android":"levelo://app?vid=9b8d13e7-4408-43a7-b2bd-e3a173987dad","ios":"levelo://app?vid=9b8d13e7-4408-43a7-b2bd-e3a173987dad"},"vehicle_type_id":"4","last_reported":1752567387,"current_range_meters":20800,"station_id":"ce4bhnp2rcd13ifvqh0g","pricing_plan_id":"cebpf4jnsgd1na2vs0mg"},{"bike_id":"66650424-32bc-4b01-a5ce-ec6ca67f74ef","system_id":"levelo_inurba_marseille","lat":43.25005,"lon":5.38934,"is_reserved":false,"is_disabled":false,"rental_uris":{"android":"levelo://app?vid=66650424-32bc-4b01-a5ce-ec6ca67f74ef","ios":"levelo://app?vid=66650424-32bc-4b01-a5ce-ec6ca67f74ef"},"vehicle_type_id":"4","last_reported":1752567387,"current_range_meters":20800,"station_id":"ce4bhgp2rcd13ifvqfd0","pricing_plan_id":"cebpf4jnsgd1na2vs0mg"},{"bike_id":"4bb87d5d-dd63-4e5f-8dd1-727eb79ff27b","system_id":"levelo_inurba_marseille","lat":43.292239,"lon":5.360282,"is_reserved":false,"is_disabled":true,"rental_uris":{"android":"levelo://app?vid=4bb87d5d-dd63-4e5f-8dd1-727eb79ff27b","ios":"levelo://app?vid=4bb87d5d-dd63-4e5f-8dd1-727eb79ff27b"},"vehicle_type_id":"4","last_reported":1752567387,"current_range_meters":20800,"station_id":"","pricing_plan_id":"cebpf4jnsgd1na2vs0mg"},{"bike_id":"eb0c9335-0aa2-4480-9437-ef42971facd3","system_id":"levelo_inurba_marseille","lat":43.2795,"lon":5.4104,"is_reserved":false,"is_disabled":false,"rental_uris":{"android":"levelo://app?vid=eb0c9335-0aa2-4480-9437-ef42971facd3","ios":"levelo://app?vid=eb0c9335-0aa2-4480-9437-ef42971facd3"},"vehicle_type_id":"4","last_reported":1752567387,"current_range_meters":20800,"station_id":"ce4bhnp2rcd13ifvqh0g","pricing_plan_id":"cebpf4jnsgd1na2vs0mg"},{"bike_id":"dbb886ba-28e6-4e9e-ba83-1e6bdfc30380","system_id":"levelo_inurba_marseille","lat":43.29021,"lon":5.35917,"is_reserved":false,"is_disabled":true,"rental_uris":{"android":"levelo://app?vid=dbb886ba-28e6-4e9e-ba83-1e6bdfc30380","ios":"levelo://app?vid=dbb886ba-28e6-4e9e-ba83-1e6bdfc30380"},"vehicle_type_id":"4","last_reported":1752567387,"current_range_meters":20800,"station_id":"ce4bha92rcd13ifvqeg0","pricing_plan_id":"cebpf4jnsgd1na2vs0mg"},{"bike_id":"2012535f-0452-487b-a858-118750978ac2","system_id":"levelo_inurba_marseille","lat":43.29968,"lon":5.38495,"is_reserved":false,"is_disabled":false,"rental_uris":{"android":"levelo://app?vid=2012535f-0452-487b-a858-118750978ac2","ios":"levelo://app?vid=2012535f-0452-487b-a858-118750978ac2"},"vehicle_type_id":"4","last_reported":1752567387,"current_range_meters":20800,"station_id":"ce4bgj92rcd13ifvqbd0","pricing_plan_id":"cebpf4jnsgd1na2vs0mg"},{"bike_id":"692f4c3d-5308-44c1-a334-547b88a7122f","system_id":"levelo_inurba_marseille","lat":43.21193,"lon":5.35067,"is_reserved":false,"is_disabled":false,"rental_uris":{"android":"levelo://app?vid=692f4c3d-5308-44c1-a334-547b88a7122f","ios":"levelo://app?vid=692f4c3d-5308-44c1-a334-547b88a7122f"},"vehicle_type_id":"4","last_reported":1752567387,"current_range_meters":20800,"station_id":"st_cvj6sg6p6f1abm77japg","pricing_plan_id":"cebpf4jnsgd1na2vs0mg"},{"bike_id":"6700b51b-07c0-4145-a57b-9d057d757789","system_id":"levelo_inurba_marseille","lat":43.29521,"lon":5.37504,"is_reserved":false,"is_disabled":false,"rental_uris":{"android":"levelo://app?vid=6700b51b-07c0-4145-a57b-9d057d757789","ios":"levelo://app?vid=6700b51b-07c0-4145-a57b-9d057d757789"},"vehicle_type_id":"4","last_reported":1752567387,"current_range_meters":20800,"station_id":"ce4bgkp2rcd13ifvqbmg","pricing_plan_id":"cebpf4jnsgd1na2vs0mg"},{"bike_id":"715d022f-28d0-4c32-9336-41c485904164","system_id":"levelo_inurba_marseille","lat":43.321011,"lon":5.367785,"is_reserved":false,"is_disabled":false,"rental_uris":{"android":"levelo://app?vid=715d022f-28d0-4c32-9336-41c485904164","ios":"levelo://app?vid=715d022f-28d0-4c32-9336-41c485904164"},"vehicle_type_id":"4","last_reported":1752567387,"current_range_meters":20800,"station_id":"ce4bhrh2rcd13ifvqhug","pricing_plan_id":"cebpf4jnsgd1na2vs0mg"},{"bike_id":"87a33e75-96c7-413d-a9bb-6fb09e17c7e5","system_id":"levelo_inurba_marseille","lat":43.32006,"lon":5.38147,"is_reserved":false,"is_disabled":false,"rental_uris":{"android":"levelo://app?vid=87a33e75-96c7-413d-a9bb-6fb09e17c7e5","ios":"levelo://app?vid=87a33e75-96c7-413d-a9bb-6fb09e17c7e5"},"vehicle_type_id":"4","last_reported":1752567387,"current_range_meters":20800,"station_id":"ce4bhr12rcd13ifvqhpg","pricing_plan_id":"cebpf4jnsgd1na2vs0mg"},{"bike_id":"5ac9071c-48d7-4d25-95b4-f57599d509c5","system_id":"levelo_inurba_marseille","lat":43.293,"lon":5.3717,"is_reserved":false,"is_disabled":false,"rental_uris":{"android":"levelo://app?vid=5ac9071c-48d7-4d25-95b4-f57599d509c5","ios":"levelo://app?vid=5ac9071c-48d7-4d25-95b4-f57599d509c5"},"vehicle_type_id":"4","last_reported":1752567387,"current_range_meters":20800,"station_id":"ce4bgh92rcd13ifvqb40","pricing_plan_id":"cebpf4jnsgd1na2vs0mg"},{"bike_id":"8e720a20-a99d-4a02-8310-2e5e454b1115","system_id":"levelo_inurba_marseille","lat":43.27209,"lon":5.3918,"is_reserved":false,"is_disabled":false,"rental_uris":{"android":"levelo://app?vid=8e720a20-a99d-4a02-8310-2e5e454b1115","ios":"levelo://app?vid=8e720a20-a99d-4a02-8310-2e5e454b1115"},"vehicle_type_id":"4","last_reported":1752567387,"current_range_meters":20800,"station_id":"ce4bhhp2rcd13ifvqfm0","pricing_plan_id":"cebpf4jnsgd1na2vs0mg"},{"bike_id":"c838d01b-3da4-40c3-ad03-4d4889bbf8fb","system_id":"levelo_inurba_marseille","lat":43.29377,"lon":5.37851,"is_reserved":false,"is_disabled":true,"rental_uris":{"android":"levelo://app?vid=c838d01b-3da4-40c3-ad03-4d4889bbf8fb","ios":"levelo://app?vid=c838d01b-3da4-40c3-ad03-4d4889bbf8fb"},"vehicle_type_id":"4","last_reported":1752567387,"current_range_meters":21600,"station_id":"ce4bgjh2rcd13ifvqbf0","pricing_plan_id":"cebpf4jnsgd1na2vs0mg"},{"bike_id":"9fb27a59-0b5b-487c-9bad-95aa7b967bb3","system_id":"levelo_inurba_marseille","lat":43.26693,"lon":5.38275,"is_reserved":false,"is_disabled":true,"rental_uris":{"android":"levelo://app?vid=9fb27a59-0b5b-487c-9bad-95aa7b967bb3","ios":"levelo://app?vid=9fb27a59-0b5b-487c-9bad-95aa7b967bb3"},"vehicle_type_id":"4","last_reported":1752567387,"current_range_meters":21600,"station_id":"ce4bhg92rcd13ifvqf90","pricing_plan_id":"cebpf4jnsgd1na2vs0mg"},{"bike_id":"fb85a64a-900e-44ff-9776-252ef9dafee5","system_id":"levelo_inurba_marseille","lat":43.33603,"lon":5.41032,"is_reserved":false,"is_disabled":false,"rental_uris":{"android":"levelo://app?vid=fb85a64a-900e-44ff-9776-252ef9dafee5","ios":"levelo://app?vid=fb85a64a-900e-44ff-9776-252ef9dafee5"},"vehicle_type_id":"4","last_reported":1752567387,"current_range_meters":21600,"station_id":"ce4bhqh2rcd13ifvqhmg","pricing_plan_id":"cebpf4jnsgd1na2vs0mg"},