{"last_updated":1724343024,"ttl":30,"version":"2.2","data":{"bikes":[{"bike_id":"174be223-9944-4345-996a-b543fb449098","system_id":"levelo_inurba_marseille","lat":43.312239,"lon":5.368562,"is_reserved":false,"is_disabled":false,"rental_uris":{"android":"levelo://app?vid=174be223-9944-4345-996a-b543fb449098","ios":"levelo://app?vid=174be223-9944-4345-996a-b543fb449098"},"vehicle_type_id":"4","last_reported":1724343025,"current_range_meters":18800,"station_id":"ce4bgl92rcd13ifvqbq0","pricing_plan_id":"cebpf4jnsgd1na2vs0mg"},{"bike_id":"0dd7a93a-8afe-4fc0-afc2-94b31f19439a","system_id":"levelo_inurba_marseille","lat":43.3146,"lon":5.37564,"is_reserved":false,"is_disabled":false,"rental_uris":{"android":"levelo://app?vid=0dd7a93a-8afe-4fc0-afc2-94b31f19439a","ios":"levelo://app?vid=0dd7a93a-8afe-4fc0-afc2-94b31f19439a"},"vehicle_type_id":"4","last_reported":1724343025,"current_range_meters":25600,"station_id":"","pricing_plan_id":"cebpf4jnsgd1na2vs0mg"},{"bike_id":"3bedd0e6-638d-41f2-a8cb-878dca073566","system_id":"levelo_inurba_marseille","lat":43.30559,"lon":5.3654,"is_reserved":false,"is_disabled":false,"rental_uris":{"android":"levelo://app?vid=3bedd0e6-638d-41f2-a8cb-878dca073566","ios":"levelo://app?vid=3bedd0e6-638d-41f2-a8cb-878dca073566"},"vehicle_type_id":"4","last_reported":1724343025,"current_range_meters":400,"station_id":"ce4bgs12rcd13ifvqcag","pricing_plan_id":"cebpf4jnsgd1na2vs0mg"},{"bike_id":"4b132c74-e19a-4bd1-bbd3-b93b62055999","system_id":"levelo_inurba_marseille","lat":43.30537,"lon":5.367345,"is_reserved":false,"is_disabled":false,"rental_uris":{"android":"levelo://app?vid=4b132c74-e19a-4bd1-bbd3-b93b62055999","ios":"levelo://app?vid=4b132c74-e19a-4bd1-bbd3-b93b62055999"},"vehicle_type_id":"4","last_reported":1724343025,"current_range_meters":13600,"station_id":"ce4bgrp2rcd13ifvqc9g","pricing_plan_id":"cebpf4jnsgd1na2vs0mg"},{"bike_id":"0b7f51d1-1aff-40c0-b93a-ea974facd91c","system_id":"levelo_inurba_marseille","lat":43.305714,"lon":5.365633,"is_reserved":false,"is_disabled":false,"rental_uris":{"android":"levelo://app?vid=0b7f51d1-1aff-40c0-b93a-ea974facd91c","ios":"levelo://app?vid=0b7f51d1-1aff-40c0-b93a-ea974facd91c"},"vehicle_type_id":"4","last_reported":1724343025,"current_range_meters":0,"station_id":"ce4bgs12rcd13ifvqcag","pricing_plan_id":"cebpf4jnsgd1na2vs0mg"},{"bike_id":"1c6b64af-0f60-4045-895b-522f9f323870","system_id":"levelo_inurba_marseille","lat":43.305989,"lon":5.37225,"is_reserved":false,"is_disabled":false,"rental_uris":{"android":"levelo://app?vid=1c6b64af-0f60-4045-895b-522f9f323870","ios":"levelo://app?vid=1c6b64af-0f60-4045-895b-522f9f323870"},"vehicle_type_id":"4","last_reported":1724343025,"current_range_meters":12800,"station_id":"ce4bgqh2rcd13ifvqc4g","pricing_plan_id":"cebpf4jnsgd1na2vs0mg"},{"bike_id":"26961570-3c66-40ac-9c5c-a0ed7f074dca","system_id":"levelo_inurba_marseille","lat":43.305989,"lon":5.37225,"is_reserved":false,"is_disabled":false,"rental_uris":{"android":"levelo://app?vid=26961570-3c66-40ac-9c5c-a0ed7f074dca","ios":"levelo://app?vid=26961570-3c66-40ac-9c5c-a0ed7f074dca"},"vehicle_type_id":"4","last_reported":1724343025,"current_range_meters":800,"station_id":"ce4bgqh2rcd13ifvqc4g","pricing_plan_id":"cebpf4jnsgd1na2vs0mg"},{"bike_id":"b44d313e-90c4-4d0e-b225-ce1071fda081","system_id":"levelo_inurba_marseille","lat":43.30605,"lon":5.372335,"is_reserved":false,"is_disabled":false,"rental_uris":{"android":"levelo://app?vid=b44d313e-90c4-4d0e-b225-ce1071fda081","ios":"levelo://app?vid=b44d313e-90c4-4d0e-b225-ce1071fda081"},"vehicle_type_id":"4","last_reported":1724343025,"current_range_meters":0,"station_id":"ce4bgqh2rcd13ifvqc4g","pricing_plan_id":"cebpf4jnsgd1na2vs0mg"},{"bike_id":"37bf3efc-9620-4e47-bae5-47f7efefabb2","system_id":"levelo_inurba_marseille","lat":43.307945,"lon":5.376487,"is_reserved":false,"is_disabled":false,"rental_uris":{"android":"levelo://app?vid=37bf3efc-9620-4e47-bae5-47f7efefabb2","ios":"levelo://app?vid=37bf3efc-9620-4e47-bae5-47f7efefabb2"},"vehicle_type_id":"4","last_reported":1724343025,"current_range_meters":4000,"station_id":"ce4bgv92rcd13ifvqcq0","pricing_plan_id":"cebpf4jnsgd1na2vs0mg"},{"bike_id":"bb9bbbf8-d536-4fc1-b2e6-c6c53f98d844","system_id":"levelo_inurba_marseille","lat":43.307945,"lon":5.376487,"is_reserved":false,"is_disabled":false,"rental_uris":{"android":"levelo://app?vid=bb9bbbf8-d536-4fc1-b2e6-c6c53f98d844","ios":"levelo://app?vid=bb9bbbf8-d536-4fc1-b2e6-c6c53f98d844"},"vehicle_type_id":"4","last_reported":1724343025,"current_range_meters":0,"station_id":"ce4bgv92rcd13ifvqcq0","pricing_plan_id":"cebpf4jnsgd1na2vs0mg"},{"bike_id":"ed5b5913-2563-46c4-be2b-4c59618e3518","system_id":"levelo_inurba_marseille","lat":43.307945,"lon":5.376487,"is_reserved":false,"is_disabled":false,"rental_uris":{"android":"levelo://app?vid=ed5b5913-2563-46c4-be2b-4c59618e3518","ios":"levelo://app?vid=ed5b5913-2563-46c4-be2b-4c59618e3518"},"vehicle_type_id":"4","last_reported":1724343025,"current_range_meters":27200,"station_id":"ce4bgv92rcd13ifvqcq0","pricing_plan_id":"cebpf4jnsgd1na2vs0mg"},{"bike_id":"3c47f79d-190c-40f6-ba11-6a5a14292a2d","system_id":"levelo_inurba_marseille","lat":43.307945,"lon":5.376487,"is_reserved":false,"is_disabled":false,"rental_uris":{"android":"levelo://app?vid=3c47f79d-190c-40f6-ba11-6a5a14292a2d","ios":"levelo://app?vid=3c47f79d-190c-40f6-ba11-6a5a14292a2d"},"vehicle_type_id":"4","last_reported":1724343025,"current_range_meters":1600,"station_id":"ce4bgv92rcd13ifvqcq0","pricing_plan_id":"cebpf4jnsgd1na2vs0mg"},{"bike_id":"b136af98-21b3-4423-a9bd-25153207f702","system_id":"levelo_inurba_marseille","lat":43.317075,"lon":5.377367,"is_reserved":false,"is_disabled":false,"rental_uris":{"android":"levelo://app?vid=b136af98-21b3-4423-a9bd-25153207f702","ios":"levelo://app?vid=b136af98-21b3-4423-a9bd-25153207f702"},"vehicle_type_id":"4","last_reported":1724343025,"current_range_meters":26400,"station_id":"ce4bgth2rcd13ifvqch0","pricing_plan_id":"cebpf4jnsgd1na2vs0mg"},{"bike_id":"24efbcea-22db-49ae-9a2d-81159a810b76","system_id":"levelo_inurba_marseille","lat":43.317075,"lon":5.377367,"is_reserved":false,"is_disabled":false,"rental_uris":{"android":"levelo://app?vid=24efbcea-22db-49ae-9a2d-81159a810b76","ios":"levelo://app?vid=24efbcea-22db-49ae-9a2d-81159a810b76"},"vehicle_type_id":"4","last_reported":1724343025,"current_range_meters":30800,"station_id":"ce4bgth2rcd13ifvqch0","pricing_plan_id":"cebpf4jnsgd1na2vs0mg"},{"bike_id":"d0981a1a-a3c9-4718-b4e3-6f6c3989be58","system_id":"levelo_inurba_marseille","lat":43.311722,"lon":5.387247,"is_reserved":false,"is_disabled":false,"rental_uris":{"android":"levelo://app?vid=d0981a1a-a3c9-4718-b4e3-6f6c3989be58","ios":"levelo://app?vid=d0981a1a-a3c9-4718-b4e3-6f6c3989be58"},"vehicle_type_id":"4","last_reported":1724343025,"current_range_meters":0,"station_id":"ce4bgv12rcd13ifvqcp0","pricing_plan_id":"cebpf4jnsgd1na2vs0mg"},{"bike_id":"79b34194-ade0-441f-afaf-d03ea8cc1e52","system_id":"levelo_inurba_marseille","lat":43.31144,"lon":5.38002,"is_reserved":false,"is_disabled":false,"rental_uris":{"android":"levelo://app?vid=79b34194-ade0-441f-afaf-d03ea8cc1e52","ios":"levelo://app?vid=79b34194-ade0-441f-afaf-d03ea8cc1e52"},"vehicle_type_id":"4","last_reported":1724343025,"current_range_meters":14000,"station_id":"","pricing_plan_id":"cebpf4jnsgd1na2vs0mg"},{"bike_id":"30f43148-359b-4688-a0a2-5a4d4e337e7d","system_id":"levelo_inurba_marseille","lat":43.315289,"lon":5.380349,"is_reserved":false,"is_disabled":false,"rental_uris":{"android":"levelo://app?vid=30f43148-359b-4688-a0a2-5a4d4e337e7d","ios":"levelo://app?vid=30f43148-359b-4688-a0a2-5a4d4e337e7d"},"vehicle_type_id":"4","last_reported":1724343025,"current_range_meters":22400,"station_id":"ce4bhsp2rcd13ifvqi50","pricing_plan_id":"cebpf4jnsgd1na2vs0mg"},{"bike_id":"11fc8c60-1ec2-4787-ace1-bda69eb3a427","system_id":"levelo_inurba_marseille","lat":43.315289,"lon":5.380349,"is_reserved":false,"is_disabled":false,"rental_uris":{"android":"levelo://app?vid=11fc8c60-1ec2-4787-ace1-bda69eb3a427","ios":"levelo://app?vid=11fc8c60-1ec2-4787-ace1-bda69eb3a427"},"vehicle_type_id":"4","last_reported":1724343025,"current_range_meters":4000,"station_id":"ce4bhsp2rcd13ifvqi50","pricing_plan_id":"cebpf4jnsgd1na2vs0mg"},{"bike_id":"ddd8004e-159e-4917-b275-ef2efeac4cc9","system_id":"levelo_inurba_marseille","lat":43.315289,"lon":5.380349,"is_reserved":false,"is_disabled":false,"rental_uris":{"android":"levelo://app?vid=ddd8004e-159e-4917-b275-ef2efeac4cc9","ios":"levelo://app?vid=ddd8004e-159e-4917-b275-ef2efeac4cc9"},"vehicle_type_id":"4","last_reported":1724343025,"current_range_meters":6000,"station_id":"ce4bhsp2rcd13ifvqi50","pricing_plan_id":"cebpf4jnsgd1na2vs0mg"},{"bike_id":"4d5e8383-aed0-4fbc-82b2-2d3a43d777e1","system_id":"levelo_inurba_marseille","lat":43.301939,"lon":5.366286,"is_reserved":false,"is_disabled":false,"rental_uris":{"android":"levelo://app?vid=4d5e8383-aed0-4fbc-82b2-2d3a43d777e1","ios":"levelo://app?vid=4d5e8383-aed0-4fbc-82b2-2d3a43d777e1"},"vehicle_type_id":"4","last_reported":1724343025,"current_range_meters":6800,"station_id":"ce4bgrh2rcd13ifvqc8g","pricing_plan_id":"cebpf4jnsgd1na2vs0mg"},{"bike_id":"7a99afd5-827c-4853-b9c9-73b83b96cb5d","system_id":"levelo_inurba_marseille","lat":43.304606,"lon":5.379026,"is_reserved":false,"is_disabled":false,"rental_uris":{"android":"levelo://app?vid=7a99afd5-827c-4853-b9c9-73b83b96cb5d","ios":"levelo://app?vid=7a99afd5-827c-4853-b9c9-73b83b96cb5d"},"vehicle_type_id":"4","last_reported":1724343025,"current_range_meters":9600,"station_id":"ce4bgup2rcd13ifvqcn0","pricing_plan_id":"cebpf4jnsgd1na2vs0mg"},{"bike_id":"5afd734a-631f-44cb-98f2-c68c67b98804","system_id":"levelo_inurba_marseille","lat":43.32482,"lon":5.36588,"is_reserved":false,"is_disabled":false,"rental_uris":{"android":"levelo://app?vid=5afd734a-631f-44cb-98f2-c68c67b98804","ios":"levelo://app?vid=5afd734a-631f-44cb-98f2-c68c67b98804"},"vehicle_type_id":"4","last_reported":1724343025,"current_range_meters":31200,"station_id":"ce4bhs12rcd13ifvqhvg","pricing_plan_id":"cebpf4jnsgd1na2vs0mg"},{"bike_id":"cece115d-85e2-4f86-bf16-6cb396f8a350","system_id":"levelo_inurba_marseille","lat":43.32486,"lon":5.36573,"is_reserved":false,"is_disabled":false,"rental_uris":{"android":"levelo://app?vid=cece115d-85e2-4f86-bf16-6cb396f8a350","ios":"levelo://app?vid=cece115d-85e2-4f86-bf16-6cb396f8a350"},"vehicle_type_id":"4","last_reported":1724343025,"current_range_meters":23200,"station_id":"ce4bhs12rcd13ifvqhvg","pricing_plan_id":"cebpf4jnsgd1na2vs0mg"},{"bike_id":"3f561d9f-c091-4490-b074-279c6277ca90","system_id":"levelo_inurba_marseille","lat":43.32486,"lon":5.36572,"is_reserved":false,"is_disabled":false,"rental_uris":{"android":"levelo://app?vid=3f561d9f-c091-4490-b074-279c6277ca90","ios":"levelo://app?vid=3f561d9f-c091-4490-b074-279c6277ca90"},"vehicle_type_id":"4","last_reported":1724343025,"current_range_meters":20000,"station_id":"ce4bhs12rcd13ifvqhvg","pricing_plan_id":"cebpf4jnsgd1na2vs0mg"},{"bike_id":"4b068ad2-1221-4476-9487-2b7eb5619d8a","system_id":"levelo_inurba_marseille","lat":43.31366,"lon":5.38364,"is_reserved":false,"is_disabled":false,"rental_uris":{"android":"levelo://app?vid=4b068ad2-1221-4476-9487-2b7eb5619d8a","ios":"levelo://app?vid=4b068ad2-1221-4476-9487-2b7eb5619d8a"},"vehicle_type_id":"4","last_reported":1724343025,"current_range_meters":14000,"station_id":"","pricing_plan_id":"cebpf4jnsgd1na2vs0mg"},{"bike_id":"6bb3c37b-710a-454a-a579-f2207b151d06","system_id":"levelo_inurba_marseille","lat":43.310804,"lon":5.38359,"is_reserved":false,"is_disabled":false,"rental_uris":{"android":"levelo://app?vid=6bb3c37b-710a-454a-a579-f2207b151d06","ios":"levelo://app?vid=6bb3c37b-710a-454a-a579-f2207b151d06"},"vehicle_type_id":"4","last_reported":1724343025,"current_range_meters":400,"station_id":"ce4bgv92rcd13ifvqcr0","pricing_plan_id":"cebpf4jnsgd1na2vs0mg"},{"bike_id":"3d167b3d-97ef-4413-88e3-ca5e8b4657a2","system_id":"levelo_inurba_marseille","lat":43.301429,"lon":5.37413,"is_reserved":false,"is_disabled":false,"rental_uris":{"android":"levelo://app?vid=3d167b3d-97ef-4413-88e3-ca5e8b4657a2","ios":"levelo://app?vid=3d167b3d-97ef-4413-88e3-ca5e8b4657a2"},"vehicle_type_id":"4","last_reported":1724343025,"current_range_meters":30400,"station_id":"ce4bgs92rcd13ifvqcc0","pricing_plan_id":"cebpf4jnsgd1na2vs0mg"},{"bike_id":"04ea2dcc-4d19-4b0a-9a4b-4aa9bcd1e874","system_id":"levelo_inurba_marseille","lat":43.301429,"lon":5.37413,"is_reserved":false,"is_disabled":false,"rental_uris":{"android":"levelo://app?vid=04ea2dcc-4d19-4b0a-9a4b-4aa9bcd1e874","ios":"levelo://app?vid=04ea2dcc-4d19-4b0a-9a4b-4aa9bcd1e874"},"vehicle_type_id":"4","last_reported":1724343025,"current_range_meters":400,"station_id":"ce4bgs92rcd13ifvqcc0","pricing_plan_id":"cebpf4jnsgd1na2vs0mg"},{"bike_id":"299827e3-fd94-4ac3-9fe6-4ef434edccf0","system_id":"levelo_inurba_marseille","lat":43.30146,"lon":5.37418,"is_reserved":false,"is_disabled":false,"rental_uris":{"android":"levelo://app?vid=299827e3-fd94-4ac3-9fe6-4ef434edccf0","ios":"levelo://app?vid=299827e3-fd94-4ac3-9fe6-4ef434edccf0"},"vehicle_type_id":"4","last_reported":1724343025,"current_range_meters":0,"station_id":"ce4bgs92rcd13ifvqcc0","pricing_plan_id":"cebpf4jnsgd1na2vs0mg"},{"bike_id":"313eddae-9783-4c36-b680-1be143459463","system_id":"levelo_inurba_marseille","lat":43.301429,"lon":5.37413,"is_reserved":false,"is_disabled":false,"rental_uris":{"android":"levelo://app?vid=313eddae-9783-4c36-b680-1be143459463","ios":"levelo://app?vid=313eddae-9783-4c36-b680-1be143459463"},"vehicle_type_id":"4","last_reported":1724343025,"current_range_meters":22400,"station_id":"ce4bgs92rcd13ifvqcc0","pricing_plan_id":"cebpf4jnsgd1na2vs0mg"},{"bike_id":"bc1ba1be-8326-42bf-bc58-66211f176d4c","system_id":"levelo_inurba_marseille","lat":43.30138,"lon":5.37422,"is_reserved":false,"is_disabled":false,"rental_uris":{"android":"levelo://app?vid=bc1ba1be-8326-42bf-bc58-66211f176d4c","ios":"levelo://app?vid=bc1ba1be-8326-42bf-bc58-66211f176d4c"},"vehicle_type_id":"4","last_reported":1724343025,"current_range_meters":0,"station_id":"ce4bgs92rcd13ifvqcc0","pricing_plan_id":"cebpf4jnsgd1na2vs0mg"},{"bike_id":"21836ab7-e8c9-4d89-a4a0-5c446c256060","system_id":"levelo_inurba_marseille","lat":43.319935,"lon":5.381699,"is_reserved":false,"is_disabled":false,"rental_uris":{"android":"levelo://app?vid=21836ab7-e8c9-4d89-a4a0-5c446c256060","ios":"levelo://app?vid=21836ab7-e8c9-4d89-a4a0-5c446c256060"},"vehicle_type_id":"4","last_reported":1724343025,"current_range_meters":31600,"station_id":"ce4bhr12rcd13ifvqhpg","pricing_plan_id":"cebpf4jnsgd1na2vs0mg"},{"bike_id":"b52d43b4-5b1e-4c42-a19b-f68dca8c3ef6","system_id":"levelo_inurba_marseille","lat":43.31998,"lon":5.3816,"is_reserved":false,"is_disabled":false,"rental_uris":{"android":"levelo://app?vid=b52d43b4-5b1e-4c42-a19b-f68dca8c3ef6","ios":"levelo://app?vid=b52d43b4-5b1e-4c42-a19b-f68dca8c3ef6"},"vehicle_type_id":"4","last_reported":1724343025,"current_range_meters":5600,"station_id":"ce4bhr12rcd13ifvqhpg","pricing_plan_id":"cebpf4jnsgd1na2vs0mg"},{"bike_id":"edbf5063-1c28-4a07-84e4-b7bce7bca15d","system_id":"levelo_inurba_marseille","lat":43.319935,"lon":5.381699,"is_reserved":false,"is_disabled":false,"rental_uris":{"android":"levelo://app?vid=edbf5063-1c28-4a07-84e4-b7bce7bca15d","ios":"levelo://app?vid=edbf5063-1c28-4a07-84e4-b7bce7bca15d"},"vehicle_type_id":"4","last_reported":1724343025,"current_range_meters":11600,"station_id":"ce4bhr12rcd13ifvqhpg","pricing_plan_id":"cebpf4jnsgd1na2vs0mg"},{"bike_id":"2e7083c3-e6f7-4e7a-bee0-fc9febc4e81d","system_id":"levelo_inurba_marseille","lat":43.299724,"lon":5.371829,"is_reserved":false,"is_disabled":false,"rental_uris":{"android":"levelo://app?vid=2e7083c3-e6f7-4e7a-bee0-fc9febc4e81d","ios":"levelo://app?vid=2e7083c3-e6f7-4e7a-bee0-fc9febc4e81d"},"vehicle_type_id":"4","last_reported":1724343025,"current_range_meters":25200,"station_id":"ce4bgr92rcd13ifvqc7g","pricing_plan_id":"cebpf4jnsgd1na2vs0mg"},{"bike_id":"ac993d24-e741-4d00-a2e3-d7b232870ead","system_id":"levelo_inurba_marseille","lat":43.298586,"lon":5.362934,"is_reserved":false,"is_disabled":false,"rental_uris":{"android":"levelo://app?vid=ac993d24-e741-4d00-a2e3-d7b232870ead","ios":"levelo://app?vid=ac993d24-e741-4d00-a2e3-d7b232870ead"},"vehicle_type_id":"4","last_reported":1724343025,"current_range_meters":7600,"station_id":"","pricing_plan_id":"cebpf4jnsgd1na2vs0mg"},{"bike_id":"cceeeef0-a309-4e40-bed0-953744016b1d","system_id":"levelo_inurba_marseille","lat":43.305364,"lon":5.384119,"is_reserved":false,"is_disabled":false,"rental_uris":{"android":"levelo://app?vid=cceeeef0-a309-4e40-bed0-953744016b1d","ios":"levelo://app?vid=cceeeef0-a309-4e40-bed0-953744016b1d"},"vehicle_type_id":"4","last_reported":1724343025,"current_range_meters":5200,"station_id":"ce4bgg92rcd13ifvqb30","pricing_plan_id":"cebpf4jnsgd1na2vs0mg"},{"bike_id":"4ef58a47-9690-40bc-bb79-680560bbb3d8","system_id":"levelo_inurba_marseille","lat":43.305364,"lon":5.384119,"is_reserved":false,"is_disabled":false,"rental_uris":{"android":"levelo://app?vid=4ef58a47-9690-40bc-bb79-680560bbb3d8","ios":"levelo://app?vid=4ef58a47-9690-40bc-bb79-680560bbb3d8"},"vehicle_type_id":"4","last_reported":1724343025,"current_range_meters":10000,"station_id":"ce4bgg92rcd13ifvqb30","pricing_plan_id":"cebpf4jnsgd1na2vs0mg"},{"bike_id":"583c8931-fdb6-42c9-92c8-9248d35199a0","system_id":"levelo_inurba_marseille","lat":43.297794,"lon":5.370888,"is_reserved":false,"is_disabled":false,"rental_uris":{"android":"levelo://app?vid=583c8931-fdb6-42c9-92c8-9248d35199a0","ios":"levelo://app?vid=583c8931-fdb6-42c9-92c8-9248d35199a0"},"vehicle_type_id":"4","last_reported":1724343025,"current_range_meters":3600,"station_id":"ce4bgop2rcd13ifvqc1g","pricing_plan_id":"cebpf4jnsgd1na2vs0mg"},{"bike_id":"6930e43f-dd0e-41e7-a1cc-9937a154f096","system_id":"levelo_inurba_marseille","lat":43.301417,"lon":5.3809,"is_reserved":false,"is_disabled":false,"rental_uris":{"android":"levelo://app?vid=6930e43f-dd0e-41e7-a1cc-9937a154f096","ios":"levelo://app?vid=6930e43f-dd0e-41e7-a1cc-9937a154f096"},"vehicle_type_id":"4","last_reported":1724343025,"current_range_meters":22800,"station_id":"ce4bgjp2rcd13ifvqbh0","pricing_plan_id":"cebpf4jnsgd1na2vs0mg"},{"bike_id":"5113d3bc-5022-459e-ac54-7ecac75a4976","system_id":"levelo_inurba_marseille","lat":43.297774,"lon":5.370875,"is_reserved":false,"is_disabled":false,"rental_uris":{"android":"levelo://app?vid=5113d3bc-5022-459e-ac54-7ecac75a4976","ios":"levelo://app?vid=5113d3bc-5022-459e-ac54-7ecac75a4976"},"vehicle_type_id":"4","last_reported":1724343025,"current_range_meters":0,"station_id":"ce4bgop2rcd13ifvqc1g","pricing_plan_id":"cebpf4jnsgd1na2vs0mg"},{"bike_id":"6be97a80-0f00-45b0-a990-a1f7082d4045","system_id":"levelo_inurba_marseille","lat":43.322872,"lon":5.382756,"is_reserved":false,"is_disabled":false,"rental_uris":{"android":"levelo://app?vid=6be97a80-0f00-45b0-a990-a1f7082d4045","ios":"levelo://app?vid=6be97a80-0f00-45b0-a990-a1f7082d4045"},"vehicle_type_id":"4","last_reported":1724343025,"current_range_meters":31200,"station_id":"ce4bhr12rcd13ifvqhqg","pricing_plan_id":"cebpf4jnsgd1na2vs0mg"},{"bike_id":"ee94d47a-2f31-4988-80cb-8969ddfa3ced","system_id":"levelo_inurba_marseille","lat":43.297163,"lon":5.365866,"is_reserved":false,"is_disabled":false,"rental_uris":{"android":"levelo://app?vid=ee94d47a-2f31-4988-80cb-8969ddfa3ced","ios":"levelo://app?vid=ee94d47a-2f31-4988-80cb-8969ddfa3ced"},"vehicle_type_id":"4","last_reported":1724343025,"current_range_meters":0,"station_id":"ce4bgn12rcd13ifvqbt0","pricing_plan_id":"cebpf4jnsgd1na2vs0mg"},{"bike_id":"eae2b499-4a07-4e0b-a814-d0cb883d3cbe","system_id":"levelo_inurba_marseille","lat":43.297163,"lon":5.365866,"is_reserved":false,"is_disabled":false,"rental_uris":{"android":"levelo://app?vid=eae2b499-4a07-4e0b-a814-d0cb883d3cbe","ios":"levelo://app?vid=eae2b499-4a07-4e0b-a814-d0cb883d3cbe"},"vehicle_type_id":"4","last_reported":1724343025,"current_range_meters":25600,"station_id":"ce4bgn12rcd13ifvqbt0","pricing_plan_id":"cebpf4jnsgd1na2vs0mg"},{"bike_id":"1f3dc607-a368-49c6-b26e-b3d1207563e1","system_id":"levelo_inurba_marseille","lat":43.297129,"lon":5.36618,"is_reserved":false,"is_disabled":false,"rental_uris":{"android":"levelo://app?vid=1f3dc607-a368-49c6-b26e-b3d1207563e1","ios":"levelo://app?vid=1f3dc607-a368-49c6-b26e-b3d1207563e1"},"vehicle_type_id":"4","last_reported":1724343025,"current_range_meters":11200,"station_id":"ce4bgn12rcd13ifvqbt0","pricing_plan_id":"cebpf4jnsgd1na2vs0mg"},{"bike_id":"902b63c7-cb3e-40bc-8fbf-be94e6c553e3","system_id":"levelo_inurba_marseille","lat":43.297163,"lon":5.365866,"is_reserved":false,"is_disabled":false,"rental_uris":{"android":"levelo://app?vid=902b63c7-cb3e-40bc-8fbf-be94e6c553e3","ios":"levelo://app?vid=902b63c7-cb3e-40bc-8fbf-be94e6c553e3"},"vehicle_type_id":"4","last_reported":1724343025,"current_range_meters":7200,"station_id":"ce4bgn12rcd13ifvqbt0","pricing_plan_id":"cebpf4jnsgd1na2vs0mg"},{"bike_id":"f4e58072-a300-436b-b982-ede360225075","system_id":"levelo_inurba_marseille","lat":43.297163,"lon":5.365866,"is_reserved":false,"is_disabled":false,"rental_uris":{"android":"levelo://app?vid=f4e58072-a300-436b-b982-ede360225075","ios":"levelo://app?vid=f4e58072-a300-436b-b982-ede360225075"},"vehicle_type_id":"4","last_reported":1724343025,"current_range_meters":27200,"station_id":"ce4bgn12rcd13ifvqbt0","pricing_plan_id":"cebpf4jnsgd1na2vs0mg"},{"bike_id":"94b64759-c117-4421-8485-84e9d841f125","system_id":"levelo_inurba_marseille","lat":43.297163,"lon":5.365866,"is_reserved":false,"is_disabled":false,"rental_uris":{"android":"levelo://app?vid=94b64759-c117-4421-8485-84e9d841f125","ios":"levelo://app?vid=94b64759-c117-4421-8485-84e9d841f125"},"vehicle_type_id":"4","last_reported":1724343025,"current_range_meters":31600,"station_id":"ce4bgn12rcd13ifvqbt0","pricing_plan_id":"cebpf4jnsgd1na2vs0mg"},{"bike_id":"925184a1-52d6-4ec0-9f12-08f480e292ba","system_id":"levelo_inurba_marseille","lat":43.297098,"lon":5.36611,"is_reserved":false,"is_disabled":false,"rental_uris":{"android":"levelo://app?vid=925184a1-52d6-4ec0-9f12-08f480e292ba","ios":"levelo://app?vid=925184a1-52d6-4ec0-9f12-08f480e292ba"},"vehicle_type_id":"4","last_reported":1724343025,"current_range_meters":19600,"station_id":"ce4bgn12rcd13ifvqbt0","pricing_plan_id":"cebpf4jnsgd1na2vs0mg"},{"bike_id":"ecea03ca-325f-4416-a8eb-a53445273551","system_id":"levelo_inurba_marseille","lat":43.297163,"lon":5.365866,"is_reserved":false,"is_disabled":false,"rental_uris":{"android":"levelo://app?vid=ecea03ca-325f-4416-a8eb-a53445273551","ios":"levelo://app?vid=ecea03ca-325f-4416-a8eb-a53445273551"},"vehicle_type_id":"4","last_reported":1724343025,"current_range_meters":30800,"station_id":"ce4bgn12rcd13ifvqbt0","pricing_plan_id":"cebpf4jnsgd1na2vs0mg"},{"bike_id":"c7ba0f99-d809-4a72-b9bb-b7bd9280e2b6","system_id":"levelo_inurba_marseille","lat":43.297163,"lon":5.365866,"is_reserved":false,"is_disabled":false,"rental_uris":{"android":"levelo://app?vid=c7ba0f99-d809-4a72-b9bb-b7bd9280e2b6","ios":"levelo://app?vid=c7ba0f99-d809-4a72-b9bb-b7bd9280e2b6"},"vehicle_type_id":"4","last_reported":1724343025,"current_range_meters":7600,"station_id":"ce4bgn12rcd13ifvqbt0","pricing_plan_id":"cebpf4jnsgd1na2vs0mg"},{"bike_id":"0fce1b2e-7c11-4070-bb88-6e0beb4cee48","system_id":"levelo_inurba_marseille","lat":43.29587,"lon":5.36738,"is_reserved":false,"is_disabled":false,"rental_uris":{"android":"levelo://app?vid=0fce1b2e-7c11-4070-bb88-6e0beb4cee48","ios":"levelo://app?vid=0fce1b2e-7c11-4070-bb88-6e0beb4cee48"},"vehicle_type_id":"4","last_reported":1724343025,"current_range_meters":15200,"station_id":"ce4bgph2rcd13ifvqc2g","pricing_plan_id":"cebpf4jnsgd1na2vs0mg"},{"bike_id":"94587f2d-3773-446f-9f1a-195bd748368a","system_id":"levelo_inurba_marseille","lat":43.296131,"lon":5.370791,"is_reserved":false,"is_disabled":false,"rental_uris":{"android":"levelo://app?vid=94587f2d-3773-446f-9f1a-195bd748368a","ios":"levelo://app?vid=94587f2d-3773-446f-9f1a-195bd748368a"},"vehicle_type_id":"4","last_reported":1724343025,"current_range_meters":19200,"station_id":"ce4bgnh2rcd13ifvqc0g","pricing_plan_id":"cebpf4jnsgd1na2vs0mg"},{"bike_id":"67ab0c3e-8294-4543-a68c-db90c34a0a8b","system_id":"levelo_inurba_marseille","lat":43.29585,"lon":5.36743,"is_reserved":false,"is_disabled":false,"rental_uris":{"android":"levelo://app?vid=67ab0c3e-8294-4543-a68c-db90c34a0a8b","ios":"levelo://app?vid=67ab0c3e-8294-4543-a68c-db90c34a0a8b"},"vehicle_type_id":"4","last_reported":1724343025,"current_range_meters":2000,"station_id":"ce4bgph2rcd13ifvqc2g","pricing_plan_id":"cebpf4jnsgd1na2vs0mg"},{"bike_id":"e4e8adef-6aa1-4417-b1a7-81124ad7162c","system_id":"levelo_inurba_marseille","lat":43.29573,"lon":5.367355,"is_reserved":false,"is_disabled":false,"rental_uris":{"android":"levelo://app?vid=e4e8adef-6aa1-4417-b1a7-81124ad7162c","ios":"levelo://app?vid=e4e8adef-6aa1-4417-b1a7-81124ad7162c"},"vehicle_type_id":"4","last_reported":1724343025,"current_range_meters":20000,"station_id":"ce4bgph2rcd13ifvqc2g","pricing_plan_id":"cebpf4jnsgd1na2vs0mg"},{"bike_id":"0da0f7c3-7818-4708-b0f8-9fe0b7110f83","system_id":"levelo_inurba_marseille","lat":43.309589,"lon":5.390258,"is_reserved":false,"is_disabled":false,"rental_uris":{"android":"levelo://app?vid=0da0f7c3-7818-4708-b0f8-9fe0b7110f83","ios":"levelo://app?vid=0da0f7c3-7818-4708-b0f8-9fe0b7110f83"},"vehicle_type_id":"4","last_reported":1724343025,"current_range_meters":4400,"station_id":"ce4bgup2rcd13ifvqco0","pricing_plan_id":"cebpf4jnsgd1na2vs0mg"},{"bike_id":"7a328019-70fa-4010-acbc-f976e792a345","system_id":"levelo_inurba_marseille","lat":43.31491,"lon":5.39113,"is_reserved":false,"is_disabled":false,"rental_uris":{"android":"levelo://app?vid=7a328019-70fa-4010-acbc-f976e792a345","ios":"levelo://app?vid=7a328019-70fa-4010-acbc-f976e792a345"},"vehicle_type_id":"4","last_reported":1724343025,"current_range_meters":4000,"station_id":"","pricing_plan_id":"cebpf4jnsgd1na2vs0mg"},{"bike_id":"974c1628-c378-41cf-a333-490ed3789158","system_id":"levelo_inurba_marseille","lat":43.29794,"lon":5.38084,"is_reserved":false,"is_disabled":false,"rental_uris":{"android":"levelo://app?vid=974c1628-c378-41cf-a333-490ed3789158","ios":"levelo://app?vid=974c1628-c378-41cf-a333-490ed3789158"},"vehicle_type_id":"4","last_reported":1724343025,"current_range_meters":1200,"station_id":"ce4bgip2rcd13ifvqbb0","pricing_plan_id":"cebpf4jnsgd1na2vs0mg"},{"bike_id":"17c9e69e-7776-45e1-a49a-f06f749a8fae","system_id":"levelo_inurba_marseille","lat":43.298037,"lon":5.381066,"is_reserved":false,"is_disabled":false,"rental_uris":{"android":"levelo://app?vid=17c9e69e-7776-45e1-a49a-f06f749a8fae","ios":"levelo://app?vid=17c9e69e-7776-45e1-a49a-f06f749a8fae"},"vehicle_type_id":"4","last_reported":1724343025,"current_range_meters":20400,"station_id":"ce4bgip2rcd13ifvqbb0","pricing_plan_id":"cebpf4jnsgd1na2vs0mg"},{"bike_id":"ec8759bb-f988-4898-a50a-24a18cb9a7e9","system_id":"levelo_inurba_marseille","lat":43.2979,"lon":5.38093,"is_reserved":false,"is_disabled":false,"rental_uris":{"android":"levelo://app?vid=ec8759bb-f988-4898-a50a-24a18cb9a7e9","ios":"levelo://app?vid=ec8759bb-f988-4898-a50a-24a18cb9a7e9"},"vehicle_type_id":"4","last_reported":1724343025,"current_range_meters":12800,"station_id":"ce4bgip2rcd13ifvqbb0","pricing_plan_id":"cebpf4jnsgd1na2vs0mg"},{"bike_id":"aef1c4fe-474a-4c50-aa19-8e9e8f3a4f6e","system_id":"levelo_inurba_marseille","lat":43.295748,"lon":5.37522,"is_reserved":false,"is_disabled":false,"rental_uris":{"android":"levelo://app?vid=aef1c4fe-474a-4c50-aa19-8e9e8f3a4f6e","ios":"levelo://app?vid=aef1c4fe-474a-4c50-aa19-8e9e8f3a4f6e"},"vehicle_type_id":"4","last_reported":1724343025,"current_range_meters":22400,"station_id":"ce4bgh92rcd13ifvqb50","pricing_plan_id":"cebpf4jnsgd1na2vs0mg"},{"bike_id":"54a54609-5162-44a6-83f7-0a839df08c0a","system_id":"levelo_inurba_marseille","lat":43.295748,"lon":5.37522,"is_reserved":false,"is_disabled":false,"rental_uris":{"android":"levelo://app?vid=54a54609-5162-44a6-83f7-0a839df08c0a","ios":"levelo://app?vid=54a54609-5162-44a6-83f7-0a839df08c0a"},"vehicle_type_id":"4","last_reported":1724343025,"current_range_meters":17600,"station_id":"ce4bgh92rcd13ifvqb50","pricing_plan_id":"cebpf4jnsgd1na2vs0mg"},{"bike_id":"928b0bdf-7f80-41c4-9d32-058de69bd7cc","system_id":"levelo_inurba_marseille","lat":43.29572,"lon":5.37523,"is_reserved":false,"is_disabled":false,"rental_uris":{"android":"levelo://app?vid=928b0bdf-7f80-41c4-9d32-058de69bd7cc","ios":"levelo://app?vid=928b0bdf-7f80-41c4-9d32-058de69bd7cc"},"vehicle_type_id":"4","last_reported":1724343025,"current_range_meters":16000,"station_id":"ce4bgh92rcd13ifvqb50","pricing_plan_id":"cebpf4jnsgd1na2vs0mg"},{"bike_id":"2999f5e5-2d70-4316-bda9-2a91d275291e","system_id":"levelo_inurba_marseille","lat":43.296277,"lon":5.377108,"is_reserved":false,"is_disabled":false,"rental_uris":{"android":"levelo://app?vid=2999f5e5-2d70-4316-bda9-2a91d275291e","ios":"levelo://app?vid=2999f5e5-2d70-4316-bda9-2a91d275291e"},"vehicle_type_id":"4","last_reported":1724343025,"current_range_meters":10400,"station_id":"ce4bgi92rcd13ifvqb90","pricing_plan_id":"cebpf4jnsgd1na2vs0mg"},{"bike_id":"a65a7a13-ce86-401f-ba64-72f3a31e592c","system_id":"levelo_inurba_marseille","lat":43.295748,"lon":5.37522,"is_reserved":false,"is_disabled":false,"rental_uris":{"android":"levelo://app?vid=a65a7a13-ce86-401f-ba64-72f3a31e592c","ios":"levelo://app?vid=a65a7a13-ce86-401f-ba64-72f3a31e592c"},"vehicle_type_id":"4","last_reported":1724343025,"current_range_meters":0,"station_id":"ce4bgh92rcd13ifvqb50","pricing_plan_id":"cebpf4jnsgd1na2vs0mg"},{"bike_id":"46301d08-e110-4af0-b75c-1da9976bfbba","system_id":"levelo_inurba_marseille","lat":43.299717,"lon":5.384845,"is_reserved":false,"is_disabled":false,"rental_uris":{"android":"levelo://app?vid=46301d08-e110-4af0-b75c-1da9976bfbba","ios":"levelo://app?vid=46301d08-e110-4af0-b75c-1da9976bfbba"},"vehicle_type_id":"4","last_reported":1724343025,"current_range_meters":13200,"station_id":"ce4bgj92rcd13ifvqbd0","pricing_plan_id":"cebpf4jnsgd1na2vs0mg"},{"bike_id":"d91f82c0-0b87-41ea-afd1-b789790ef5e6","system_id":"levelo_inurba_marseille","lat":43.299717,"lon":5.384845,"is_reserved":false,"is_disabled":false,"rental_uris":{"android":"levelo://app?vid=d91f82c0-0b87-41ea-afd1-b789790ef5e6","ios":"levelo://app?vid=d91f82c0-0b87-41ea-afd1-b789790ef5e6"},"vehicle_type_id":"4","last_reported":1724343025,"current_range_meters":0,"station_id":"ce4bgj92rcd13ifvqbd0","pricing_plan_id":"cebpf4jnsgd1na2vs0mg"},{"bike_id":"8a3922fa-2c0d-43d2-9960-95e5a4ca6f77","system_id":"levelo_inurba_marseille","lat":43.301396,"lon":5.387812,"is_reserved":false,"is_disabled":false,"rental_uris":{"android":"levelo://app?vid=8a3922fa-2c0d-43d2-9960-95e5a4ca6f77","ios":"levelo://app?vid=8a3922fa-2c0d-43d2-9960-95e5a4ca6f77"},"vehicle_type_id":"4","last_reported":1724343025,"current_range_meters":0,"station_id":"ce4bghh2rcd13ifvqb60","pricing_plan_id":"cebpf4jnsgd1na2vs0mg"},{"bike_id":"310672ef-f8b1-4772-9695-0214b1bed693","system_id":"levelo_inurba_marseille","lat":43.29622,"lon":5.38057,"is_reserved":false,"is_disabled":false,"rental_uris":{"android":"levelo://app?vid=310672ef-f8b1-4772-9695-0214b1bed693","ios":"levelo://app?vid=310672ef-f8b1-4772-9695-0214b1bed693"},"vehicle_type_id":"4","last_reported":1724343025,"current_range_meters":2400,"station_id":"","pricing_plan_id":"cebpf4jnsgd1na2vs0mg"},{"bike_id":"f0a72038-4515-4cf1-b798-eee5c87d7f81","system_id":"levelo_inurba_marseille","lat":43.32367,"lon":5.388836,"is_reserved":false,"is_disabled":false,"rental_uris":{"android":"levelo://app?vid=f0a72038-4515-4cf1-b798-eee5c87d7f81","ios":"levelo://app?vid=f0a72038-4515-4cf1-b798-eee5c87d7f81"},"vehicle_type_id":"4","last_reported":1724343025,"current_range_meters":10800,"station_id":"ce4bhqp2rcd13ifvqhog","pricing_plan_id":"cebpf4jnsgd1na2vs0mg"},{"bike_id":"d000fa1d-b44a-4369-9098-3923cf12b7ce","system_id":"levelo_inurba_marseille","lat":43.293259,"lon":5.371586,"is_reserved":false,"is_disabled":false,"rental_uris":{"android":"levelo://app?vid=d000fa1d-b44a-4369-9098-3923cf12b7ce","ios":"levelo://app?vid=d000fa1d-b44a-4369-9098-3923cf12b7ce"},"vehicle_type_id":"4","last_reported":1724343025,"current_range_meters":800,"station_id":"ce4bgh92rcd13ifvqb40","pricing_plan_id":"cebpf4jnsgd1na2vs0mg"},{"bike_id":"51b280fd-80ff-4470-98fe-2a9481d2d0e3","system_id":"levelo_inurba_marseille","lat":43.292749,"lon":5.368398,"is_reserved":false,"is_disabled":false,"rental_uris":{"android":"levelo://app?vid=51b280fd-80ff-4470-98fe-2a9481d2d0e3","ios":"levelo://app?vid=51b280fd-80ff-4470-98fe-2a9481d2d0e3"},"vehicle_type_id":"4","last_reported":1724343025,"current_range_meters":800,"station_id":"ce4bhbp2rcd13ifvqesg","pricing_plan_id":"cebpf4jnsgd1na2vs0mg"},{"bike_id":"99265fdd-f199-4546-a47c-a2db69ac0c0d","system_id":"levelo_inurba_marseille","lat":43.293259,"lon":5.371586,"is_reserved":false,"is_disabled":false,"rental_uris":{"android":"levelo://app?vid=99265fdd-f199-4546-a47c-a2db69ac0c0d","ios":"levelo://app?vid=99265fdd-f199-4546-a47c-a2db69ac0c0d"},"vehicle_type_id":"4","last_reported":1724343025,"current_range_meters":1200,"station_id":"ce4bgh92rcd13ifvqb40","pricing_plan_id":"cebpf4jnsgd1na2vs0mg"},{"bike_id":"002e05dd-adce-4267-a642-ceec2b7ab2cc","system_id":"levelo_inurba_marseille","lat":43.292749,"lon":5.368398,"is_reserved":false,"is_disabled":false,"rental_uris":{"android":"levelo://app?vid=002e05dd-adce-4267-a642-ceec2b7ab2cc","ios":"levelo://app?vid=002e05dd-adce-4267-a642-ceec2b7ab2cc"},"vehicle_type_id":"4","last_reported":1724343025,"current_range_meters":2400,"station_id":"ce4bhbp2rcd13ifvqesg","pricing_plan_id":"cebpf4jnsgd1na2vs0mg"},{"bike_id":"b425bed0-fe0d-4ad2-bd3c-7c438e42695d","system_id":"levelo_inurba_marseille","lat":43.29304,"lon":5.37449,"is_reserved":false,"is_disabled":false,"rental_uris":{"android":"levelo://app?vid=b425bed0-fe0d-4ad2-bd3c-7c438e42695d","ios":"levelo://app?vid=b425bed0-fe0d-4ad2-bd3c-7c438e42695d"},"vehicle_type_id":"4","last_reported":1724343025,"current_range_meters":0,"station_id":"ce4bgi12rcd13ifvqb70","pricing_plan_id":"cebpf4jnsgd1na2vs0mg"},{"bike_id":"d064689f-8c40-4f15-87ec-e613f535a8ee","system_id":"levelo_inurba_marseille","lat":43.29302,"lon":5.37448,"is_reserved":false,"is_disabled":false,"rental_uris":{"android":"levelo://app?vid=d064689f-8c40-4f15-87ec-e613f535a8ee","ios":"levelo://app?vid=d064689f-8c40-4f15-87ec-e613f535a8ee"},"vehicle_type_id":"4","last_reported":1724343025,"current_range_meters":12000,"station_id":"ce4bgi12rcd13ifvqb70","pricing_plan_id":"cebpf4jnsgd1na2vs0mg"},{"bike_id":"fd902cd1-5526-44da-a104-081a3b2c19df","system_id":"levelo_inurba_marseille","lat":43.29302,"lon":5.37458,"is_reserved":false,"is_disabled":false,"rental_uris":{"android":"levelo://app?vid=fd902cd1-5526-44da-a104-081a3b2c19df","ios":"levelo://app?vid=fd902cd1-5526-44da-a104-081a3b2c19df"},"vehicle_type_id":"4","last_reported":1724343025,"current_range_meters":8800,"station_id":"ce4bgi12rcd13ifvqb70","pricing_plan_id":"cebpf4jnsgd1na2vs0mg"},{"bike_id":"2aae9c52-7e81-4ed6-8b25-4b17fe165d77","system_id":"levelo_inurba_marseille","lat":43.293023,"lon":5.374724,"is_reserved":false,"is_disabled":false,"rental_uris":{"android":"levelo://app?vid=2aae9c52-7e81-4ed6-8b25-4b17fe165d77","ios":"levelo://app?vid=2aae9c52-7e81-4ed6-8b25-4b17fe165d77"},"vehicle_type_id":"4","last_reported":1724343025,"current_range_meters":6800,"station_id":"","pricing_plan_id":"cebpf4jnsgd1na2vs0mg"},{"bike_id":"8d227f01-ac34-4024-bcde-258f18756d3d","system_id":"levelo_inurba_marseille","lat":43.2936,"lon":5.37835,"is_reserved":false,"is_disabled":false,"rental_uris":{"android":"levelo://app?vid=8d227f01-ac34-4024-bcde-258f18756d3d","ios":"levelo://app?vid=8d227f01-ac34-4024-bcde-258f18756d3d"},"vehicle_type_id":"4","last_reported":1724343025,"current_range_meters":1600,"station_id":"ce4bgjh2rcd13ifvqbf0","pricing_plan_id":"cebpf4jnsgd1na2vs0mg"},{"bike_id":"dc685db0-65bd-4233-9fac-c1865c9ec124","system_id":"levelo_inurba_marseille","lat":43.292311,"lon":5.360731,"is_reserved":false,"is_disabled":false,"rental_uris":{"android":"levelo://app?vid=dc685db0-65bd-4233-9fac-c1865c9ec124","ios":"levelo://app?vid=dc685db0-65bd-4233-9fac-c1865c9ec124"},"vehicle_type_id":"4","last_reported":1724343025,"current_range_meters":28000,"station_id":"ce4bhbh2rcd13ifvqeqg","pricing_plan_id":"cebpf4jnsgd1na2vs0mg"},{"bike_id":"edb0a2a1-c06b-44cc-bcc3-a9db7d7361e6","system_id":"levelo_inurba_marseille","lat":43.292749,"lon":5.368402,"is_reserved":false,"is_disabled":false,"rental_uris":{"android":"levelo://app?vid=edb0a2a1-c06b-44cc-bcc3-a9db7d7361e6","ios":"levelo://app?vid=edb0a2a1-c06b-44cc-bcc3-a9db7d7361e6"},"vehicle_type_id":"4","last_reported":1724343025,"current_range_meters":10000,"station_id":"ce4bhbp2rcd13ifvqesg","pricing_plan_id":"cebpf4jnsgd1na2vs0mg"},{"bike_id":"01137c5d-bfdb-4294-b3e3-30fddc2e8da2","system_id":"levelo_inurba_marseille","lat":43.29226,"lon":5.36065,"is_reserved":false,"is_disabled":false,"rental_uris":{"android":"levelo://app?vid=01137c5d-bfdb-4294-b3e3-30fddc2e8da2","ios":"levelo://app?vid=01137c5d-bfdb-4294-b3e3-30fddc2e8da2"},"vehicle_type_id":"4","last_reported":1724343025,"current_range_meters":28800,"station_id":"ce4bhbh2rcd13ifvqeqg","pricing_plan_id":"cebpf4jnsgd1na2vs0mg"},{"bike_id":"47dd8b8d-a250-44f2-b8d3-f32280fb76ec","system_id":"levelo_inurba_marseille","lat":43.29227,"lon":5.36056,"is_reserved":false,"is_disabled":false,"rental_uris":{"android":"levelo://app?vid=47dd8b8d-a250-44f2-b8d3-f32280fb76ec","ios":"levelo://app?vid=47dd8b8d-a250-44f2-b8d3-f32280fb76ec"},"vehicle_type_id":"4","last_reported":1724343025,"current_range_meters":22800,"station_id":"ce4bhbh2rcd13ifvqeqg","pricing_plan_id":"cebpf4jnsgd1na2vs0mg"},{"bike_id":"b667f2d8-b99d-47c6-b257-52d0c1f71884","system_id":"levelo_inurba_marseille","lat":43.29226,"lon":5.36046,"is_reserved":false,"is_disabled":false,"rental_uris":{"android":"levelo://app?vid=b667f2d8-b99d-47c6-b257-52d0c1f71884","ios":"levelo://app?vid=b667f2d8-b99d-47c6-b257-52d0c1f71884"},"vehicle_type_id":"4","last_reported":1724343025,"current_range_meters":0,"station_id":"ce4bhbh2rcd13ifvqeqg","pricing_plan_id":"cebpf4jnsgd1na2vs0mg"},{"bike_id":"83242654-1456-4ce9-b506-ef4cb79c9ad0","system_id":"levelo_inurba_marseille","lat":43.300852,"lon":5.390859,"is_reserved":false,"is_disabled":false,"rental_uris":{"android":"levelo://app?vid=83242654-1456-4ce9-b506-ef4cb79c9ad0","ios":"levelo://app?vid=83242654-1456-4ce9-b506-ef4cb79c9ad0"},"vehicle_type_id":"4","last_reported":1724343025,"current_range_meters":4800,"station_id":"ce4bh192rcd13ifvqdb0","pricing_plan_id":"cebpf4jnsgd1na2vs0mg"},{"bike_id":"0c7b19ba-5858-4ca8-b2e5-5bb15ff19ea7","system_id":"levelo_inurba_marseille","lat":43.31365,"lon":5.3959,"is_reserved":false,"is_disabled":false,"rental_uris":{"android":"levelo://app?vid=0c7b19ba-5858-4ca8-b2e5-5bb15ff19ea7","ios":"levelo://app?vid=0c7b19ba-5858-4ca8-b2e5-5bb15ff19ea7"},"vehicle_type_id":"4","last_reported":1724343025,"current_range_meters":0,"station_id":"","pricing_plan_id":"cebpf4jnsgd1na2vs0mg"},{"bike_id":"7205f390-82b8-4819-84b9-9c57c7f2444c","system_id":"levelo_inurba_marseille","lat":43.29894,"lon":5.38909,"is_reserved":false,"is_disabled":false,"rental_uris":{"android":"levelo://app?vid=7205f390-82b8-4819-84b9-9c57c7f2444c","ios":"levelo://app?vid=7205f390-82b8-4819-84b9-9c57c7f2444c"},"vehicle_type_id":"4","last_reported":1724343025,"current_range_meters":0,"station_id":"ce4bh392rcd13ifvqdl0","pricing_plan_id":"cebpf4jnsgd1na2vs0mg"},{"bike_id":"07371258-92c9-41c2-9b89-6dc0e0d5e138","system_id":"levelo_inurba_marseille","lat":43.30367,"lon":5.3933,"is_reserved":false,"is_disabled":false,"rental_uris":{"android":"levelo://app?vid=07371258-92c9-41c2-9b89-6dc0e0d5e138","ios":"levelo://app?vid=07371258-92c9-41c2-9b89-6dc0e0d5e138"},"vehicle_type_id":"4","last_reported":1724343025,"current_range_meters":0,"station_id":"","pricing_plan_id":"cebpf4jnsgd1na2vs0mg"},{"bike_id":"fa0fe243-86ba-4e87-9b4b-4b64b9884e4c","system_id":"levelo_inurba_marseille","lat":43.292005,"lon":5.357875,"is_reserved":false,"is_disabled":false,"rental_uris":{"android":"levelo://app?vid=fa0fe243-86ba-4e87-9b4b-4b64b9884e4c","ios":"levelo://app?vid=fa0fe243-86ba-4e87-9b4b-4b64b9884e4c"},"vehicle_type_id":"4","last_reported":1724343025,"current_range_meters":1600,"station_id":"ce4bhb12rcd13ifvqel0","pricing_plan_id":"cebpf4jnsgd1na2vs0mg"},{"bike_id":"2def0941-f7cb-4a81-a335-8a3211841758","system_id":"levelo_inurba_marseille","lat":43.292005,"lon":5.357875,"is_reserved":false,"is_disabled":false,"rental_uris":{"android":"levelo://app?vid=2def0941-f7cb-4a81-a335-8a3211841758","ios":"levelo://app?vid=2def0941-f7cb-4a81-a335-8a3211841758"},"vehicle_type_id":"4","last_reported":1724343025,"current_range_meters":4400,"station_id":"ce4bhb12rcd13ifvqel0","pricing_plan_id":"cebpf4jnsgd1na2vs0mg"},{"bike_id":"a9fe295b-021a-436f-a0b0-26d34559385e","system_id":"levelo_inurba_marseille","lat":43.29194,"lon":5.35798,"is_reserved":false,"is_disabled":false,"rental_uris":{"android":"levelo://app?vid=a9fe295b-021a-436f-a0b0-26d34559385e","ios":"levelo://app?vid=a9fe295b-021a-436f-a0b0-26d34559385e"},"vehicle_type_id":"4","last_reported":1724343025,"current_range_meters":6800,"station_id":"ce4bhb12rcd13ifvqel0","pricing_plan_id":"cebpf4jnsgd1na2vs0mg"},{"bike_id":"2da50b82-ba26-4d08-9435-0f31f7c5efbc","system_id":"levelo_inurba_marseille","lat":43.313291,"lon":5.396838,"is_reserved":false,"is_disabled":false,"rental_uris":{"android":"levelo://app?vid=2da50b82-ba26-4d08-9435-0f31f7c5efbc","ios":"levelo://app?vid=2da50b82-ba26-4d08-9435-0f31f7c5efbc"},"vehicle_type_id":"4","last_reported":1724343025,"current_range_meters":14000,"station_id":"ce4bgvp2rcd13ifvqcu0","pricing_plan_id":"cebpf4jnsgd1na2vs0mg"},{"bike_id":"a50cd041-bf24-497f-a882-9c40de218780","system_id":"levelo_inurba_marseille","lat":43.309047,"lon":5.396551,"is_reserved":false,"is_disabled":false,"rental_uris":{"android":"levelo://app?vid=a50cd041-bf24-497f-a882-9c40de218780","ios":"levelo://app?vid=a50cd041-bf24-497f-a882-9c40de218780"},"vehicle_type_id":"4","last_reported":1724343025,"current_range_meters":1600,"station_id":"ce4bh012rcd13ifvqcv0","pricing_plan_id":"cebpf4jnsgd1na2vs0mg"},{"bike_id":"7617d1e5-e6a8-4c5e-86de-2533ee7edaf9","system_id":"levelo_inurba_marseille","lat":43.29529,"lon":5.385581,"is_reserved":false,"is_disabled":false,"rental_uris":{"android":"levelo://app?vid=7617d1e5-e6a8-4c5e-86de-2533ee7edaf9","ios":"levelo://app?vid=7617d1e5-e6a8-4c5e-86de-2533ee7edaf9"},"vehicle_type_id":"4","last_reported":1724343025,"current_range_meters":17600,"station_id":"ce4bgih2rcd13ifvqba0","pricing_plan_id":"cebpf4jnsgd1na2vs0mg"},{"bike_id":"cfbb3cb5-d116-492c-acf1-725f9c584602","system_id":"levelo_inurba_marseille","lat":43.29529,"lon":5.385581,"is_reserved":false,"is_disabled":false,"rental_uris":{"android":"levelo://app?vid=cfbb3cb5-d116-492c-acf1-725f9c584602","ios":"levelo://app?vid=cfbb3cb5-d116-492c-acf1-725f9c584602"},"vehicle_type_id":"4","last_reported":1724343025,"current_range_meters":0,"station_id":"ce4bgih2rcd13ifvqba0","pricing_plan_id":"cebpf4jnsgd1na2vs0mg"},{"bike_id":"9357235f-d88d-4534-b6b3-92caed7163a3","system_id":"levelo_inurba_marseille","lat":43.3135,"lon":5.39736,"is_reserved":false,"is_disabled":false,"rental_uris":{"android":"levelo://app?vid=9357235f-d88d-4534-b6b3-92caed7163a3","ios":"levelo://app?vid=9357235f-d88d-4534-b6b3-92caed7163a3"},"vehicle_type_id":"4","last_reported":1724343025,"current_range_meters":25200,"station_id":"ce4bgvp2rcd13ifvqcu0","pricing_plan_id":"cebpf4jnsgd1na2vs0mg"},{"bike_id":"73912344-5459-4272-85ee-f64b2b0de00a","system_id":"levelo_inurba_marseille","lat":43.29057,"lon":5.35901,"is_reserved":false,"is_disabled":false,"rental_uris":{"android":"levelo://app?vid=73912344-5459-4272-85ee-f64b2b0de00a","ios":"levelo://app?vid=73912344-5459-4272-85ee-f64b2b0de00a"},"vehicle_type_id":"4","last_reported":1724343025,"current_range_meters":400,"station_id":"ce4bha92rcd13ifvqeg0","pricing_plan_id":"cebpf4jnsgd1na2vs0mg"},{"bike_id":"c508ebd3-6b82-47e6-9f96-19b56e440400","system_id":"levelo_inurba_marseille","lat":43.29052,"lon":5.35892,"is_reserved":false,"is_disabled":false,"rental_uris":{"android":"levelo://app?vid=c508ebd3-6b82-47e6-9f96-19b56e440400","ios":"levelo://app?vid=c508ebd3-6b82-47e6-9f96-19b56e440400"},"vehicle_type_id":"4","last_reported":1724343025,"current_range_meters":1600,"station_id":"ce4bha92rcd13ifvqeg0","pricing_plan_id":"cebpf4jnsgd1na2vs0mg"},{"bike_id":"767943df-20c4-4328-a572-cc3dfd495ebb","system_id":"levelo_inurba_marseille","lat":43.2942,"lon":5.38623,"is_reserved":false,"is_disabled":false,"rental_uris":{"android":"levelo://app?vid=767943df-20c4-4328-a572-cc3dfd495ebb","ios":"levelo://app?vid=767943df-20c4-4328-a572-cc3dfd495ebb"},"vehicle_type_id":"4","last_reported":1724343025,"current_range_meters":0,"station_id":"ce4bh2h2rcd13ifvqdh0","pricing_plan_id":"cebpf4jnsgd1na2vs0mg"},{"bike_id":"e83734ed-ab98-4931-a744-f01d50c21eb5","system_id":"levelo_inurba_marseille","lat":43.294144,"lon":5.386224,"is_reserved":false,"is_disabled":false,"rental_uris":{"android":"levelo://app?vid=e83734ed-ab98-4931-a744-f01d50c21eb5","ios":"levelo://app?vid=e83734ed-ab98-4931-a744-f01d50c21eb5"},"vehicle_type_id":"4","last_reported":1724343025,"current_range_meters":0,"station_id":"ce4bh2h2rcd13ifvqdh0","pricing_plan_id":"cebpf4jnsgd1na2vs0mg"},{"bike_id":"dc7c68e6-424c-4a45-ab65-94132d23a9f8","system_id":"levelo_inurba_marseille","lat":43.289184,"lon":5.366408,"is_reserved":false,"is_disabled":false,"rental_uris":{"android":"levelo://app?vid=dc7c68e6-424c-4a45-ab65-94132d23a9f8","ios":"levelo://app?vid=dc7c68e6-424c-4a45-ab65-94132d23a9f8"},"vehicle_type_id":"4","last_reported":1724343025,"current_range_meters":6800,"station_id":"ce4bhap2rcd13ifvqek0","pricing_plan_id":"cebpf4jnsgd1na2vs0mg"},{"bike_id":"17e2f36a-5639-4b6e-82f6-f10371bcfd51","system_id":"levelo_inurba_marseille","lat":43.289184,"lon":5.366408,"is_reserved":false,"is_disabled":false,"rental_uris":{"android":"levelo://app?vid=17e2f36a-5639-4b6e-82f6-f10371bcfd51","ios":"levelo://app?vid=17e2f36a-5639-4b6e-82f6-f10371bcfd51"},"vehicle_type_id":"4","last_reported":1724343025,"current_range_meters":9200,"station_id":"ce4bhap2rcd13ifvqek0","pricing_plan_id":"cebpf4jnsgd1na2vs0mg"},{"bike_id":"c388a110-6598-4b21-bf6f-2aef1ca97618","system_id":"levelo_inurba_marseille","lat":43.28937,"lon":5.36391,"is_reserved":false,"is_disabled":false,"rental_uris":{"android":"levelo://app?vid=c388a110-6598-4b21-bf6f-2aef1ca97618","ios":"levelo://app?vid=c388a110-6598-4b21-bf6f-2aef1ca97618"},"vehicle_type_id":"4","last_reported":1724343025,"current_range_meters":0,"station_id":"ce4bhc92rcd13ifvqetg","pricing_plan_id":"cebpf4jnsgd1na2vs0mg"},{"bike_id":"3383aac5-79a5-451f-8079-7c14995d7cf9","system_id":"levelo_inurba_marseille","lat":43.292644,"lon":5.384257,"is_reserved":false,"is_disabled":false,"rental_uris":{"android":"levelo://app?vid=3383aac5-79a5-451f-8079-7c14995d7cf9","ios":"levelo://app?vid=3383aac5-79a5-451f-8079-7c14995d7cf9"},"vehicle_type_id":"4","last_reported":1724343025,"current_range_meters":7600,"station_id":"ce4bh692rcd13ifvqea0","pricing_plan_id":"cebpf4jnsgd1na2vs0mg"},{"bike_id":"ac7c0892-2faf-485d-97a7-0b98a31dc3f4","system_id":"levelo_inurba_marseille","lat":43.29267,"lon":5.38429,"is_reserved":false,"is_disabled":false,"rental_uris":{"android":"levelo://app?vid=ac7c0892-2faf-485d-97a7-0b98a31dc3f4","ios":"levelo://app?vid=ac7c0892-2faf-485d-97a7-0b98a31dc3f4"},"vehicle_type_id":"4","last_reported":1724343025,"current_range_meters":0,"station_id":"ce4bh692rcd13ifvqea0","pricing_plan_id":"cebpf4jnsgd1na2vs0mg"},{"bike_id":"17ca3a29-90e2-4451-abcd-46f678e256cc","system_id":"levelo_inurba_marseille","lat":43.29265,"lon":5.38432,"is_reserved":false,"is_disabled":false,"rental_uris":{"android":"levelo://app?vid=17ca3a29-90e2-4451-abcd-46f678e256cc","ios":"levelo://app?vid=17ca3a29-90e2-4451-abcd-46f678e256cc"},"vehicle_type_id":"4","last_reported":1724343025,"current_range_meters":28800,"station_id":"ce4bh692rcd13ifvqea0","pricing_plan_id":"cebpf4jnsgd1na2vs0mg"},{"bike_id":"93476d4e-9170-43a8-ac4b-246b74501472","system_id":"levelo_inurba_marseille","lat":43.290104,"lon":5.356111,"is_reserved":false,"is_disabled":false,"rental_uris":{"android":"levelo://app?vid=93476d4e-9170-43a8-ac4b-246b74501472","ios":"levelo://app?vid=93476d4e-9170-43a8-ac4b-246b74501472"},"vehicle_type_id":"4","last_reported":1724343025,"current_range_meters":4800,"station_id":"ce4bhb92rcd13ifvqen0","pricing_plan_id":"cebpf4jnsgd1na2vs0mg"},{"bike_id":"fe714750-b742-4711-92b5-79860824bad9","system_id":"levelo_inurba_marseille","lat":43.290104,"lon":5.356111,"is_reserved":false,"is_disabled":false,"rental_uris":{"android":"levelo://app?vid=fe714750-b742-4711-92b5-79860824bad9","ios":"levelo://app?vid=fe714750-b742-4711-92b5-79860824bad9"},"vehicle_type_id":"4","last_reported":1724343025,"current_range_meters":28400,"station_id":"ce4bhb92rcd13ifvqen0","pricing_plan_id":"cebpf4jnsgd1na2vs0mg"},{"bike_id":"8785a298-3f13-44c2-98d3-f70ddc021e6c","system_id":"levelo_inurba_marseille","lat":43.29005,"lon":5.35624,"is_reserved":false,"is_disabled":false,"rental_uris":{"android":"levelo://app?vid=8785a298-3f13-44c2-98d3-f70ddc021e6c","ios":"levelo://app?vid=8785a298-3f13-44c2-98d3-f70ddc021e6c"},"vehicle_type_id":"4","last_reported":1724343025,"current_range_meters":19200,"station_id":"ce4bhb92rcd13ifvqen0","pricing_plan_id":"cebpf4jnsgd1na2vs0mg"},{"bike_id":"eea21823-0e0b-4113-838b-c83e4e523e2e","system_id":"levelo_inurba_marseille","lat":43.290104,"lon":5.356111,"is_reserved":false,"is_disabled":false,"rental_uris":{"android":"levelo://app?vid=eea21823-0e0b-4113-838b-c83e4e523e2e","ios":"levelo://app?vid=eea21823-0e0b-4113-838b-c83e4e523e2e"},"vehicle_type_id":"4","last_reported":1724343025,"current_range_meters":28000,"station_id":"ce4bhb92rcd13ifvqen0","pricing_plan_id":"cebpf4jnsgd1na2vs0mg"},{"bike_id":"c131770b-ed1b-4ff6-849d-46e02d69187c","system_id":"levelo_inurba_marseille","lat":43.290104,"lon":5.356111,"is_reserved":false,"is_disabled":false,"rental_uris":{"android":"levelo://app?vid=c131770b-ed1b-4ff6-849d-46e02d69187c","ios":"levelo://app?vid=c131770b-ed1b-4ff6-849d-46e02d69187c"},"vehicle_type_id":"4","last_reported":1724343025,"current_range_meters":15600,"station_id":"ce4bhb92rcd13ifvqen0","pricing_plan_id":"cebpf4jnsgd1na2vs0mg"},{"bike_id":"48b2a920-c5e5-4df8-824f-2c1fe1a077eb","system_id":"levelo_inurba_marseille","lat":43.290103,"lon":5.356114,"is_reserved":false,"is_disabled":false,"rental_uris":{"android":"levelo://app?vid=48b2a920-c5e5-4df8-824f-2c1fe1a077eb","ios":"levelo://app?vid=48b2a920-c5e5-4df8-824f-2c1fe1a077eb"},"vehicle_type_id":"4","last_reported":1724343025,"current_range_meters":18800,"station_id":"ce4bhb92rcd13ifvqen0","pricing_plan_id":"cebpf4jnsgd1na2vs0mg"},{"bike_id":"032781e7-0b7f-4141-befa-57fbaffd9f11","system_id":"levelo_inurba_marseille","lat":43.290104,"lon":5.356111,"is_reserved":false,"is_disabled":false,"rental_uris":{"android":"levelo://app?vid=032781e7-0b7f-4141-befa-57fbaffd9f11","ios":"levelo://app?vid=032781e7-0b7f-4141-befa-57fbaffd9f11"},"vehicle_type_id":"4","last_reported":1724343025,"current_range_meters":9600,"station_id":"ce4bhb92rcd13ifvqen0","pricing_plan_id":"cebpf4jnsgd1na2vs0mg"},{"bike_id":"84a455fb-fbf2-4d4b-a07b-27372c45b7db","system_id":"levelo_inurba_marseille","lat":43.290104,"lon":5.356111,"is_reserved":false,"is_disabled":false,"rental_uris":{"android":"levelo://app?vid=84a455fb-fbf2-4d4b-a07b-27372c45b7db","ios":"levelo://app?vid=84a455fb-fbf2-4d4b-a07b-27372c45b7db"},"vehicle_type_id":"4","last_reported":1724343025,"current_range_meters":2400,"station_id":"ce4bhb92rcd13ifvqen0","pricing_plan_id":"cebpf4jnsgd1na2vs0mg"},{"bike_id":"94c8019c-2f1d-4912-9de7-a84bd8c87712","system_id":"levelo_inurba_marseille","lat":43.290103,"lon":5.356114,"is_reserved":false,"is_disabled":false,"rental_uris":{"android":"levelo://app?vid=94c8019c-2f1d-4912-9de7-a84bd8c87712","ios":"levelo://app?vid=94c8019c-2f1d-4912-9de7-a84bd8c87712"},"vehicle_type_id":"4","last_reported":1724343025,"current_range_meters":31200,"station_id":"ce4bhb92rcd13ifvqen0","pricing_plan_id":"cebpf4jnsgd1na2vs0mg"},{"bike_id":"ae7920cd-d5e0-47d3-8087-97b95145ebb6","system_id":"levelo_inurba_marseille","lat":43.290103,"lon":5.356114,"is_reserved":false,"is_disabled":false,"rental_uris":{"android":"levelo://app?vid=ae7920cd-d5e0-47d3-8087-97b95145ebb6","ios":"levelo://app?vid=ae7920cd-d5e0-47d3-8087-97b95145ebb6"},"vehicle_type_id":"4","last_reported":1724343025,"current_range_meters":24400,"station_id":"ce4bhb92rcd13ifvqen0","pricing_plan_id":"cebpf4jnsgd1na2vs0mg"},{"bike_id":"e6ab0a6b-bc49-4c9d-b98e-cbc5320a53b5","system_id":"levelo_inurba_marseille","lat":43.290104,"lon":5.356111,"is_reserved":false,"is_disabled":false,"rental_uris":{"android":"levelo://app?vid=e6ab0a6b-bc49-4c9d-b98e-cbc5320a53b5","ios":"levelo://app?vid=e6ab0a6b-bc49-4c9d-b98e-cbc5320a53b5"},"vehicle_type_id":"4","last_reported":1724343025,"current_range_meters":28400,"station_id":"ce4bhb92rcd13ifvqen0","pricing_plan_id":"cebpf4jnsgd1na2vs0mg"},{"bike_id":"fd64ef17-c4e6-464b-9d98-bb00bb8b2509","system_id":"levelo_inurba_marseille","lat":43.290104,"lon":5.356111,"is_reserved":false,"is_disabled":false,"rental_uris":{"android":"levelo://app?vid=fd64ef17-c4e6-464b-9d98-bb00bb8b2509","ios":"levelo://app?vid=fd64ef17-c4e6-464b-9d98-bb00bb8b2509"},"vehicle_type_id":"4","last_reported":1724343025,"current_range_meters":11600,"station_id":"ce4bhb92rcd13ifvqen0","pricing_plan_id":"cebpf4jnsgd1na2vs0mg"},{"bike_id":"a9ee4867-7f51-4d69-ad89-29a09937a4cd","system_id":"levelo_inurba_marseille","lat":43.290104,"lon":5.356111,"is_reserved":false,"is_disabled":false,"rental_uris":{"android":"levelo://app?vid=a9ee4867-7f51-4d69-ad89-29a09937a4cd","ios":"levelo://app?vid=a9ee4867-7f51-4d69-ad89-29a09937a4cd"},"vehicle_type_id":"4","last_reported":1724343025,"current_range_meters":24800,"station_id":"ce4bhb92rcd13ifvqen0","pricing_plan_id":"cebpf4jnsgd1na2vs0mg"},{"bike_id":"e1cc9be1-786d-4a4a-8ebb-9c5fa3645549","system_id":"levelo_inurba_marseille","lat":43.290103,"lon":5.356114,"is_reserved":false,"is_disabled":false,"rental_uris":{"android":"levelo://app?vid=e1cc9be1-786d-4a4a-8ebb-9c5fa3645549","ios":"levelo://app?vid=e1cc9be1-786d-4a4a-8ebb-9c5fa3645549"},"vehicle_type_id":"4","last_reported":1724343025,"current_range_meters":23600,"station_id":"ce4bhb92rcd13ifvqen0","pricing_plan_id":"cebpf4jnsgd1na2vs0mg"},{"bike_id":"9eb928ec-0cba-4df9-b921-2c092be75916","system_id":"levelo_inurba_marseille","lat":43.28998,"lon":5.35612,"is_reserved":false,"is_disabled":false,"rental_uris":{"android":"levelo://app?vid=9eb928ec-0cba-4df9-b921-2c092be75916","ios":"levelo://app?vid=9eb928ec-0cba-4df9-b921-2c092be75916"},"vehicle_type_id":"4","last_reported":1724343025,"current_range_meters":31200,"station_id":"ce4bhb92rcd13ifvqen0","pricing_plan_id":"cebpf4jnsgd1na2vs0mg"},{"bike_id":"a8c67acb-9167-47a4-a17f-d538ec3c2589","system_id":"levelo_inurba_marseille","lat":43.290103,"lon":5.356114,"is_reserved":false,"is_disabled":false,"rental_uris":{"android":"levelo://app?vid=a8c67acb-9167-47a4-a17f-d538ec3c2589","ios":"levelo://app?vid=a8c67acb-9167-47a4-a17f-d538ec3c2589"},"vehicle_type_id":"4","last_reported":1724343025,"current_range_meters":29200,"station_id":"ce4bhb92rcd13ifvqen0","pricing_plan_id":"cebpf4jnsgd1na2vs0mg"},{"bike_id":"1cf67a21-11a0-440c-b51f-64a4b39572e7","system_id":"levelo_inurba_marseille","lat":43.312609,"lon":5.401662,"is_reserved":false,"is_disabled":false,"rental_uris":{"android":"levelo://app?vid=1cf67a21-11a0-440c-b51f-64a4b39572e7","ios":"levelo://app?vid=1cf67a21-11a0-440c-b51f-64a4b39572e7"},"vehicle_type_id":"4","last_reported":1724343025,"current_range_meters":10000,"station_id":"ce4bh092rcd13ifvqd30","pricing_plan_id":"cebpf4jnsgd1na2vs0mg"},{"bike_id":"aa7949c2-dcfa-4f9d-8443-311530b6949e","system_id":"levelo_inurba_marseille","lat":43.330442,"lon":5.389148,"is_reserved":false,"is_disabled":false,"rental_uris":{"android":"levelo://app?vid=aa7949c2-dcfa-4f9d-8443-311530b6949e","ios":"levelo://app?vid=aa7949c2-dcfa-4f9d-8443-311530b6949e"},"vehicle_type_id":"4","last_reported":1724343025,"current_range_meters":7600,"station_id":"ce4bhr92rcd13ifvqhrg","pricing_plan_id":"cebpf4jnsgd1na2vs0mg"},{"bike_id":"5578050e-1e37-4d53-82ae-24dad0765d1e","system_id":"levelo_inurba_marseille","lat":43.295169,"lon":5.390426,"is_reserved":false,"is_disabled":false,"rental_uris":{"android":"levelo://app?vid=5578050e-1e37-4d53-82ae-24dad0765d1e","ios":"levelo://app?vid=5578050e-1e37-4d53-82ae-24dad0765d1e"},"vehicle_type_id":"4","last_reported":1724343025,"current_range_meters":5200,"station_id":"ce4bh3p2rcd13ifvqdp0","pricing_plan_id":"cebpf4jnsgd1na2vs0mg"},{"bike_id":"5cb121c0-c61a-4a79-8d9a-b4448132f03b","system_id":"levelo_inurba_marseille","lat":43.330442,"lon":5.389148,"is_reserved":false,"is_disabled":false,"rental_uris":{"android":"levelo://app?vid=5cb121c0-c61a-4a79-8d9a-b4448132f03b","ios":"levelo://app?vid=5cb121c0-c61a-4a79-8d9a-b4448132f03b"},"vehicle_type_id":"4","last_reported":1724343025,"current_range_meters":11600,"station_id":"ce4bhr92rcd13ifvqhrg","pricing_plan_id":"cebpf4jnsgd1na2vs0mg"},{"bike_id":"517fefd0-0c1a-448a-96c6-d12538ee37fe","system_id":"levelo_inurba_marseille","lat":43.28968,"lon":5.37834,"is_reserved":false,"is_disabled":false,"rental_uris":{"android":"levelo://app?vid=517fefd0-0c1a-448a-96c6-d12538ee37fe","ios":"levelo://app?vid=517fefd0-0c1a-448a-96c6-d12538ee37fe"},"vehicle_type_id":"4","last_reported":1724343025,"current_range_meters":2000,"station_id":"ce4bh9p2rcd13ifvqed0","pricing_plan_id":"cebpf4jnsgd1na2vs0mg"},{"bike_id":"2c9ed9d0-f2b0-4f60-ab38-ced874aa7696","system_id":"levelo_inurba_marseille","lat":43.289741,"lon":5.378306,"is_reserved":false,"is_disabled":false,"rental_uris":{"android":"levelo://app?vid=2c9ed9d0-f2b0-4f60-ab38-ced874aa7696","ios":"levelo://app?vid=2c9ed9d0-f2b0-4f60-ab38-ced874aa7696"},"vehicle_type_id":"4","last_reported":1724343025,"current_range_meters":18800,"station_id":"ce4bh9p2rcd13ifvqed0","pricing_plan_id":"cebpf4jnsgd1na2vs0mg"},{"bike_id":"fc59e4a4-bead-451a-a35d-8886379137bc","system_id":"levelo_inurba_marseille","lat":43.310742,"lon":5.400675,"is_reserved":false,"is_disabled":false,"rental_uris":{"android":"levelo://app?vid=fc59e4a4-bead-451a-a35d-8886379137bc","ios":"levelo://app?vid=fc59e4a4-bead-451a-a35d-8886379137bc"},"vehicle_type_id":"4","last_reported":1724343025,"current_range_meters":24800,"station_id":"","pricing_plan_id":"cebpf4jnsgd1na2vs0mg"},{"bike_id":"5f2c02e7-fbc3-4626-96ea-a40286185259","system_id":"levelo_inurba_marseille","lat":43.28856,"lon":5.358371,"is_reserved":false,"is_disabled":false,"rental_uris":{"android":"levelo://app?vid=5f2c02e7-fbc3-4626-96ea-a40286185259","ios":"levelo://app?vid=5f2c02e7-fbc3-4626-96ea-a40286185259"},"vehicle_type_id":"4","last_reported":1724343025,"current_range_meters":4400,"station_id":"ce4bhb12rcd13ifvqem0","pricing_plan_id":"cebpf4jnsgd1na2vs0mg"},{"bike_id":"f3985ca7-5c07-4153-9f25-e807d200c04a","system_id":"levelo_inurba_marseille","lat":43.28856,"lon":5.358371,"is_reserved":false,"is_disabled":false,"rental_uris":{"android":"levelo://app?vid=f3985ca7-5c07-4153-9f25-e807d200c04a","ios":"levelo://app?vid=f3985ca7-5c07-4153-9f25-e807d200c04a"},"vehicle_type_id":"4","last_reported":1724343025,"current_range_meters":24400,"station_id":"ce4bhb12rcd13ifvqem0","pricing_plan_id":"cebpf4jnsgd1na2vs0mg"},{"bike_id":"2063e5e4-a5f6-4f31-a3ff-e16665b515ef","system_id":"levelo_inurba_marseille","lat":43.28856,"lon":5.358371,"is_reserved":false,"is_disabled":false,"rental_uris":{"android":"levelo://app?vid=2063e5e4-a5f6-4f31-a3ff-e16665b515ef","ios":"levelo://app?vid=2063e5e4-a5f6-4f31-a3ff-e16665b515ef"},"vehicle_type_id":"4","last_reported":1724343025,"current_range_meters":22400,"station_id":"ce4bhb12rcd13ifvqem0","pricing_plan_id":"cebpf4jnsgd1na2vs0mg"},{"bike_id":"3be619fc-60de-4363-9f81-ed515ff86a44","system_id":"levelo_inurba_marseille","lat":43.28855,"lon":5.35846,"is_reserved":false,"is_disabled":false,"rental_uris":{"android":"levelo://app?vid=3be619fc-60de-4363-9f81-ed515ff86a44","ios":"levelo://app?vid=3be619fc-60de-4363-9f81-ed515ff86a44"},"vehicle_type_id":"4","last_reported":1724343025,"current_range_meters":0,"station_id":"ce4bhb12rcd13ifvqem0","pricing_plan_id":"cebpf4jnsgd1na2vs0mg"},{"bike_id":"c53d3127-a7b9-4b20-be09-3873db72f3eb","system_id":"levelo_inurba_marseille","lat":43.312609,"lon":5.401662,"is_reserved":false,"is_disabled":false,"rental_uris":{"android":"levelo://app?vid=c53d3127-a7b9-4b20-be09-3873db72f3eb","ios":"levelo://app?vid=c53d3127-a7b9-4b20-be09-3873db72f3eb"},"vehicle_type_id":"4","last_reported":1724343025,"current_range_meters":6400,"station_id":"ce4bh092rcd13ifvqd30","pricing_plan_id":"cebpf4jnsgd1na2vs0mg"},{"bike_id":"97cd000d-87bf-4c87-823c-7390bc4cb614","system_id":"levelo_inurba_marseille","lat":43.337488,"lon":5.374666,"is_reserved":false,"is_disabled":false,"rental_uris":{"android":"levelo://app?vid=97cd000d-87bf-4c87-823c-7390bc4cb614","ios":"levelo://app?vid=97cd000d-87bf-4c87-823c-7390bc4cb614"},"vehicle_type_id":"4","last_reported":1724343025,"current_range_meters":27200,"station_id":"","pricing_plan_id":"cebpf4jnsgd1na2vs0mg"},{"bike_id":"fca3a5e1-166e-43f6-a3ca-ff3bf106e3d7","system_id":"levelo_inurba_marseille","lat":43.30644,"lon":5.40081,"is_reserved":false,"is_disabled":false,"rental_uris":{"android":"levelo://app?vid=fca3a5e1-166e-43f6-a3ca-ff3bf106e3d7","ios":"levelo://app?vid=fca3a5e1-166e-43f6-a3ca-ff3bf106e3d7"},"vehicle_type_id":"4","last_reported":1724343025,"current_range_meters":0,"station_id":"ce4bh112rcd13ifvqda0","pricing_plan_id":"cebpf4jnsgd1na2vs0mg"},{"bike_id":"918cb1a9-6210-4e52-bb66-383836a14f2f","system_id":"levelo_inurba_marseille","lat":43.337621,"lon":5.374623,"is_reserved":false,"is_disabled":false,"rental_uris":{"android":"levelo://app?vid=918cb1a9-6210-4e52-bb66-383836a14f2f","ios":"levelo://app?vid=918cb1a9-6210-4e52-bb66-383836a14f2f"},"vehicle_type_id":"4","last_reported":1724343025,"current_range_meters":7200,"station_id":"","pricing_plan_id":"cebpf4jnsgd1na2vs0mg"},{"bike_id":"1b635017-1f6d-4ccf-887c-5535d999fc49","system_id":"levelo_inurba_marseille","lat":43.33768,"lon":5.37436,"is_reserved":false,"is_disabled":false,"rental_uris":{"android":"levelo://app?vid=1b635017-1f6d-4ccf-887c-5535d999fc49","ios":"levelo://app?vid=1b635017-1f6d-4ccf-887c-5535d999fc49"},"vehicle_type_id":"4","last_reported":1724343025,"current_range_meters":21600,"station_id":"","pricing_plan_id":"cebpf4jnsgd1na2vs0mg"},{"bike_id":"4b5e2e06-b149-4ffa-bc13-2e67758dd8cc","system_id":"levelo_inurba_marseille","lat":43.301117,"lon":5.398795,"is_reserved":false,"is_disabled":false,"rental_uris":{"android":"levelo://app?vid=4b5e2e06-b149-4ffa-bc13-2e67758dd8cc","ios":"levelo://app?vid=4b5e2e06-b149-4ffa-bc13-2e67758dd8cc"},"vehicle_type_id":"4","last_reported":1724343025,"current_range_meters":0,"station_id":"ce4bh0h2rcd13ifvqd40","pricing_plan_id":"cebpf4jnsgd1na2vs0mg"},{"bike_id":"5756ed56-d9e4-453e-91ed-eda2637bbf6a","system_id":"levelo_inurba_marseille","lat":43.301117,"lon":5.398795,"is_reserved":false,"is_disabled":false,"rental_uris":{"android":"levelo://app?vid=5756ed56-d9e4-453e-91ed-eda2637bbf6a","ios":"levelo://app?vid=5756ed56-d9e4-453e-91ed-eda2637bbf6a"},"vehicle_type_id":"4","last_reported":1724343025,"current_range_meters":15200,"station_id":"ce4bh0h2rcd13ifvqd40","pricing_plan_id":"cebpf4jnsgd1na2vs0mg"},{"bike_id":"9b47a0b4-7bde-452c-8144-4141c4d95e21","system_id":"levelo_inurba_marseille","lat":43.301117,"lon":5.398795,"is_reserved":false,"is_disabled":false,"rental_uris":{"android":"levelo://app?vid=9b47a0b4-7bde-452c-8144-4141c4d95e21","ios":"levelo://app?vid=9b47a0b4-7bde-452c-8144-4141c4d95e21"},"vehicle_type_id":"4","last_reported":1724343025,"current_range_meters":24000,"station_id":"ce4bh0h2rcd13ifvqd40","pricing_plan_id":"cebpf4jnsgd1na2vs0mg"},{"bike_id":"a87c0c36-7388-48b1-be56-703baea4c6ab","system_id":"levelo_inurba_marseille","lat":43.301117,"lon":5.398795,"is_reserved":false,"is_disabled":false,"rental_uris":{"android":"levelo://app?vid=a87c0c36-7388-48b1-be56-703baea4c6ab","ios":"levelo://app?vid=a87c0c36-7388-48b1-be56-703baea4c6ab"},"vehicle_type_id":"4","last_reported":1724343025,"current_range_meters":25600,"station_id":"ce4bh0h2rcd13ifvqd40","pricing_plan_id":"cebpf4jnsgd1na2vs0mg"},{"bike_id":"b31761e9-30b6-4b61-9a85-5d0577c16ed8","system_id":"levelo_inurba_marseille","lat":43.28727,"lon":5.36078,"is_reserved":false,"is_disabled":false,"rental_uris":{"android":"levelo://app?vid=b31761e9-30b6-4b61-9a85-5d0577c16ed8","ios":"levelo://app?vid=b31761e9-30b6-4b61-9a85-5d0577c16ed8"},"vehicle_type_id":"4","last_reported":1724343025,"current_range_meters":18000,"station_id":"cki0cbj6b192h4jlfktg","pricing_plan_id":"cebpf4jnsgd1na2vs0mg"},{"bike_id":"0e926fca-d18c-4cb8-8718-df41d6a0375c","system_id":"levelo_inurba_marseille","lat":43.28727,"lon":5.36078,"is_reserved":false,"is_disabled":false,"rental_uris":{"android":"levelo://app?vid=0e926fca-d18c-4cb8-8718-df41d6a0375c","ios":"levelo://app?vid=0e926fca-d18c-4cb8-8718-df41d6a0375c"},"vehicle_type_id":"4","last_reported":1724343025,"current_range_meters":31200,"station_id":"cki0cbj6b192h4jlfktg","pricing_plan_id":"cebpf4jnsgd1na2vs0mg"},{"bike_id":"f4c20ea6-8628-43aa-ad9f-ce21315f0ba6","system_id":"levelo_inurba_marseille","lat":43.28727,"lon":5.36078,"is_reserved":false,"is_disabled":false,"rental_uris":{"android":"levelo://app?vid=f4c20ea6-8628-43aa-ad9f-ce21315f0ba6","ios":"levelo://app?vid=f4c20ea6-8628-43aa-ad9f-ce21315f0ba6"},"vehicle_type_id":"4","last_reported":1724343025,"current_range_meters":24400,"station_id":"cki0cbj6b192h4jlfktg","pricing_plan_id":"cebpf4jnsgd1na2vs0mg"},{"bike_id":"ba0ff403-e376-4c60-974f-41db5661ca36","system_id":"levelo_inurba_marseille","lat":43.28727,"lon":5.36078,"is_reserved":false,"is_disabled":false,"rental_uris":{"android":"levelo://app?vid=ba0ff403-e376-4c60-974f-41db5661ca36","ios":"levelo://app?vid=ba0ff403-e376-4c60-974f-41db5661ca36"},"vehicle_type_id":"4","last_reported":1724343025,"current_range_meters":8400,"station_id":"cki0cbj6b192h4jlfktg","pricing_plan_id":"cebpf4jnsgd1na2vs0mg"},{"bike_id":"5086441f-868b-42e1-900c-17265a68e4d4","system_id":"levelo_inurba_marseille","lat":43.298681,"lon":5.397225,"is_reserved":false,"is_disabled":false,"rental_uris":{"android":"levelo://app?vid=5086441f-868b-42e1-900c-17265a68e4d4","ios":"levelo://app?vid=5086441f-868b-42e1-900c-17265a68e4d4"},"vehicle_type_id":"4","last_reported":1724343025,"current_range_meters":27200,"station_id":"ce4bh0h2rcd13ifvqd50","pricing_plan_id":"cebpf4jnsgd1na2vs0mg"},{"bike_id":"ab9851a2-a920-4609-ad33-0a42eb52d9c2","system_id":"levelo_inurba_marseille","lat":43.286961,"lon":5.373785,"is_reserved":false,"is_disabled":false,"rental_uris":{"android":"levelo://app?vid=ab9851a2-a920-4609-ad33-0a42eb52d9c2","ios":"levelo://app?vid=ab9851a2-a920-4609-ad33-0a42eb52d9c2"},"vehicle_type_id":"4","last_reported":1724343025,"current_range_meters":4800,"station_id":"ce4bh3p2rcd13ifvqdq0","pricing_plan_id":"cebpf4jnsgd1na2vs0mg"},{"bike_id":"2e12a3d9-b570-4a92-b257-61b353816fc3","system_id":"levelo_inurba_marseille","lat":43.28703,"lon":5.37388,"is_reserved":false,"is_disabled":false,"rental_uris":{"android":"levelo://app?vid=2e12a3d9-b570-4a92-b257-61b353816fc3","ios":"levelo://app?vid=2e12a3d9-b570-4a92-b257-61b353816fc3"},"vehicle_type_id":"4","last_reported":1724343025,"current_range_meters":17200,"station_id":"ce4bh3p2rcd13ifvqdq0","pricing_plan_id":"cebpf4jnsgd1na2vs0mg"},{"bike_id":"692c7e16-4d0d-4eac-a3bd-9cf380506119","system_id":"levelo_inurba_marseille","lat":43.286961,"lon":5.373785,"is_reserved":false,"is_disabled":false,"rental_uris":{"android":"levelo://app?vid=692c7e16-4d0d-4eac-a3bd-9cf380506119","ios":"levelo://app?vid=692c7e16-4d0d-4eac-a3bd-9cf380506119"},"vehicle_type_id":"4","last_reported":1724343025,"current_range_meters":3200,"station_id":"ce4bh3p2rcd13ifvqdq0","pricing_plan_id":"cebpf4jnsgd1na2vs0mg"},{"bike_id":"d6326c1a-e8fe-48b8-a616-14c63f28bf21","system_id":"levelo_inurba_marseille","lat":43.286593,"lon":5.363346,"is_reserved":false,"is_disabled":false,"rental_uris":{"android":"levelo://app?vid=d6326c1a-e8fe-48b8-a616-14c63f28bf21","ios":"levelo://app?vid=d6326c1a-e8fe-48b8-a616-14c63f28bf21"},"vehicle_type_id":"4","last_reported":1724343025,"current_range_meters":13200,"station_id":"ce4bhah2rcd13ifvqej0","pricing_plan_id":"cebpf4jnsgd1na2vs0mg"},{"bike_id":"20bc627f-c88d-4cbc-879d-f4359220db91","system_id":"levelo_inurba_marseille","lat":43.286593,"lon":5.363346,"is_reserved":false,"is_disabled":false,"rental_uris":{"android":"levelo://app?vid=20bc627f-c88d-4cbc-879d-f4359220db91","ios":"levelo://app?vid=20bc627f-c88d-4cbc-879d-f4359220db91"},"vehicle_type_id":"4","last_reported":1724343025,"current_range_meters":14800,"station_id":"ce4bhah2rcd13ifvqej0","pricing_plan_id":"cebpf4jnsgd1na2vs0mg"},{"bike_id":"eeb79140-c38e-43f6-9112-4ffddbe00d36","system_id":"levelo_inurba_marseille","lat":43.29034,"lon":5.38637,"is_reserved":false,"is_disabled":false,"rental_uris":{"android":"levelo://app?vid=eeb79140-c38e-43f6-9112-4ffddbe00d36","ios":"levelo://app?vid=eeb79140-c38e-43f6-9112-4ffddbe00d36"},"vehicle_type_id":"4","last_reported":1724343025,"current_range_meters":0,"station_id":"ce4bh4p2rcd13ifvqe0g","pricing_plan_id":"cebpf4jnsgd1na2vs0mg"},{"bike_id":"8127606d-e7c9-4153-8efe-5c38107aa08d","system_id":"levelo_inurba_marseille","lat":43.289307,"lon":5.38406,"is_reserved":false,"is_disabled":false,"rental_uris":{"android":"levelo://app?vid=8127606d-e7c9-4153-8efe-5c38107aa08d","ios":"levelo://app?vid=8127606d-e7c9-4153-8efe-5c38107aa08d"},"vehicle_type_id":"4","last_reported":1724343025,"current_range_meters":0,"station_id":"ce4bh612rcd13ifvqe6g","pricing_plan_id":"cebpf4jnsgd1na2vs0mg"},{"bike_id":"c92b5e30-b735-4206-81e1-2eef39296d52","system_id":"levelo_inurba_marseille","lat":43.290336,"lon":5.386425,"is_reserved":false,"is_disabled":false,"rental_uris":{"android":"levelo://app?vid=c92b5e30-b735-4206-81e1-2eef39296d52","ios":"levelo://app?vid=c92b5e30-b735-4206-81e1-2eef39296d52"},"vehicle_type_id":"4","last_reported":1724343025,"current_range_meters":3600,"station_id":"ce4bh4p2rcd13ifvqe0g","pricing_plan_id":"cebpf4jnsgd1na2vs0mg"},{"bike_id":"c6416f79-ab11-4dac-a8e2-dbedac5d395c","system_id":"levelo_inurba_marseille","lat":43.29028,"lon":5.38642,"is_reserved":false,"is_disabled":false,"rental_uris":{"android":"levelo://app?vid=c6416f79-ab11-4dac-a8e2-dbedac5d395c","ios":"levelo://app?vid=c6416f79-ab11-4dac-a8e2-dbedac5d395c"},"vehicle_type_id":"4","last_reported":1724343025,"current_range_meters":2000,"station_id":"ce4bh4p2rcd13ifvqe0g","pricing_plan_id":"cebpf4jnsgd1na2vs0mg"},{"bike_id":"84959e79-b215-44bc-959b-81366fd7b596","system_id":"levelo_inurba_marseille","lat":43.29032,"lon":5.38652,"is_reserved":false,"is_disabled":false,"rental_uris":{"android":"levelo://app?vid=84959e79-b215-44bc-959b-81366fd7b596","ios":"levelo://app?vid=84959e79-b215-44bc-959b-81366fd7b596"},"vehicle_type_id":"4","last_reported":1724343025,"current_range_meters":1200,"station_id":"ce4bh4p2rcd13ifvqe0g","pricing_plan_id":"cebpf4jnsgd1na2vs0mg"},{"bike_id":"5ba0f7e3-ef44-4df2-86fb-08c871aa76bf","system_id":"levelo_inurba_marseille","lat":43.30245,"lon":5.4006,"is_reserved":false,"is_disabled":false,"rental_uris":{"android":"levelo://app?vid=5ba0f7e3-ef44-4df2-86fb-08c871aa76bf","ios":"levelo://app?vid=5ba0f7e3-ef44-4df2-86fb-08c871aa76bf"},"vehicle_type_id":"4","last_reported":1724343025,"current_range_meters":0,"station_id":"ce4bgvh2rcd13ifvqcs0","pricing_plan_id":"cebpf4jnsgd1na2vs0mg"},{"bike_id":"f15a41a2-28b7-42fe-bc26-699971622f87","system_id":"levelo_inurba_marseille","lat":43.29028,"lon":5.38645,"is_reserved":false,"is_disabled":false,"rental_uris":{"android":"levelo://app?vid=f15a41a2-28b7-42fe-bc26-699971622f87","ios":"levelo://app?vid=f15a41a2-28b7-42fe-bc26-699971622f87"},"vehicle_type_id":"4","last_reported":1724343025,"current_range_meters":20800,"station_id":"ce4bh4p2rcd13ifvqe0g","pricing_plan_id":"cebpf4jnsgd1na2vs0mg"},{"bike_id":"458c4571-4e8a-480a-8cee-54791ab794a0","system_id":"levelo_inurba_marseille","lat":43.289307,"lon":5.38406,"is_reserved":false,"is_disabled":false,"rental_uris":{"android":"levelo://app?vid=458c4571-4e8a-480a-8cee-54791ab794a0","ios":"levelo://app?vid=458c4571-4e8a-480a-8cee-54791ab794a0"},"vehicle_type_id":"4","last_reported":1724343025,"current_range_meters":28000,"station_id":"ce4bh612rcd13ifvqe6g","pricing_plan_id":"cebpf4jnsgd1na2vs0mg"},{"bike_id":"96e6fe80-f4fa-4535-a5ab-1572585ac2de","system_id":"levelo_inurba_marseille","lat":43.289307,"lon":5.38406,"is_reserved":false,"is_disabled":false,"rental_uris":{"android":"levelo://app?vid=96e6fe80-f4fa-4535-a5ab-1572585ac2de","ios":"levelo://app?vid=96e6fe80-f4fa-4535-a5ab-1572585ac2de"},"vehicle_type_id":"4","last_reported":1724343025,"current_range_meters":12000,"station_id":"ce4bh612rcd13ifvqe6g","pricing_plan_id":"cebpf4jnsgd1na2vs0mg"},{"bike_id":"8a1ad458-449f-456a-961d-7f74f1014cb9","system_id":"levelo_inurba_marseille","lat":43.290308,"lon":5.386527,"is_reserved":false,"is_disabled":false,"rental_uris":{"android":"levelo://app?vid=8a1ad458-449f-456a-961d-7f74f1014cb9","ios":"levelo://app?vid=8a1ad458-449f-456a-961d-7f74f1014cb9"},"vehicle_type_id":"4","last_reported":1724343025,"current_range_meters":10800,"station_id":"ce4bh4p2rcd13ifvqe0g","pricing_plan_id":"cebpf4jnsgd1na2vs0mg"},{"bike_id":"01de5cbb-a48a-4219-81ca-ccdd01263ae2","system_id":"levelo_inurba_marseille","lat":43.286039,"lon":5.370679,"is_reserved":false,"is_disabled":false,"rental_uris":{"android":"levelo://app?vid=01de5cbb-a48a-4219-81ca-ccdd01263ae2","ios":"levelo://app?vid=01de5cbb-a48a-4219-81ca-ccdd01263ae2"},"vehicle_type_id":"4","last_reported":1724343025,"current_range_meters":5200,"station_id":"ce4bht12rcd13ifvqi60","pricing_plan_id":"cebpf4jnsgd1na2vs0mg"},{"bike_id":"6f2d533e-dd1d-4886-9804-d35735eb0507","system_id":"levelo_inurba_marseille","lat":43.286039,"lon":5.370679,"is_reserved":false,"is_disabled":false,"rental_uris":{"android":"levelo://app?vid=6f2d533e-dd1d-4886-9804-d35735eb0507","ios":"levelo://app?vid=6f2d533e-dd1d-4886-9804-d35735eb0507"},"vehicle_type_id":"4","last_reported":1724343025,"current_range_meters":16800,"station_id":"ce4bht12rcd13ifvqi60","pricing_plan_id":"cebpf4jnsgd1na2vs0mg"},{"bike_id":"ff5642c4-674e-4c85-a9ab-9742eca53e57","system_id":"levelo_inurba_marseille","lat":43.287184,"lon":5.37937,"is_reserved":false,"is_disabled":false,"rental_uris":{"android":"levelo://app?vid=ff5642c4-674e-4c85-a9ab-9742eca53e57","ios":"levelo://app?vid=ff5642c4-674e-4c85-a9ab-9742eca53e57"},"vehicle_type_id":"4","last_reported":1724343025,"current_range_meters":6400,"station_id":"ce4bh9p2rcd13ifvqec0","pricing_plan_id":"cebpf4jnsgd1na2vs0mg"},{"bike_id":"ccd3ed03-d395-46d7-8f20-bd76f04644a5","system_id":"levelo_inurba_marseille","lat":43.287184,"lon":5.37937,"is_reserved":false,"is_disabled":false,"rental_uris":{"android":"levelo://app?vid=ccd3ed03-d395-46d7-8f20-bd76f04644a5","ios":"levelo://app?vid=ccd3ed03-d395-46d7-8f20-bd76f04644a5"},"vehicle_type_id":"4","last_reported":1724343025,"current_range_meters":19200,"station_id":"ce4bh9p2rcd13ifvqec0","pricing_plan_id":"cebpf4jnsgd1na2vs0mg"},{"bike_id":"fecb36de-f6f0-4f7a-9f9e-a7643defbfdd","system_id":"levelo_inurba_marseille","lat":43.287184,"lon":5.37937,"is_reserved":false,"is_disabled":false,"rental_uris":{"android":"levelo://app?vid=fecb36de-f6f0-4f7a-9f9e-a7643defbfdd","ios":"levelo://app?vid=fecb36de-f6f0-4f7a-9f9e-a7643defbfdd"},"vehicle_type_id":"4","last_reported":1724343025,"current_range_meters":28000,"station_id":"ce4bh9p2rcd13ifvqec0","pricing_plan_id":"cebpf4jnsgd1na2vs0mg"},{"bike_id":"98b261b1-fb2e-4536-9b8e-6759fd00b33b","system_id":"levelo_inurba_marseille","lat":43.291994,"lon":5.392907,"is_reserved":false,"is_disabled":false,"rental_uris":{"android":"levelo://app?vid=98b261b1-fb2e-4536-9b8e-6759fd00b33b","ios":"levelo://app?vid=98b261b1-fb2e-4536-9b8e-6759fd00b33b"},"vehicle_type_id":"4","last_reported":1724343025,"current_range_meters":5600,"station_id":"ce4bh192rcd13ifvqdd0","pricing_plan_id":"cebpf4jnsgd1na2vs0mg"},{"bike_id":"457f322d-f0a3-4a51-90ea-c37a864e81b3","system_id":"levelo_inurba_marseille","lat":43.291994,"lon":5.392907,"is_reserved":false,"is_disabled":false,"rental_uris":{"android":"levelo://app?vid=457f322d-f0a3-4a51-90ea-c37a864e81b3","ios":"levelo://app?vid=457f322d-f0a3-4a51-90ea-c37a864e81b3"},"vehicle_type_id":"4","last_reported":1724343025,"current_range_meters":7600,"station_id":"ce4bh192rcd13ifvqdd0","pricing_plan_id":"cebpf4jnsgd1na2vs0mg"},{"bike_id":"bcae4e02-a003-4946-8c1e-40ec00a9e4ca","system_id":"levelo_inurba_marseille","lat":43.291994,"lon":5.392907,"is_reserved":false,"is_disabled":false,"rental_uris":{"android":"levelo://app?vid=bcae4e02-a003-4946-8c1e-40ec00a9e4ca","ios":"levelo://app?vid=bcae4e02-a003-4946-8c1e-40ec00a9e4ca"},"vehicle_type_id":"4","last_reported":1724343025,"current_range_meters":24400,"station_id":"ce4bh192rcd13ifvqdd0","pricing_plan_id":"cebpf4jnsgd1na2vs0mg"},{"bike_id":"2363c257-0874-4454-af63-f81b49a9486d","system_id":"levelo_inurba_marseille","lat":43.291994,"lon":5.392907,"is_reserved":false,"is_disabled":false,"rental_uris":{"android":"levelo://app?vid=2363c257-0874-4454-af63-f81b49a9486d","ios":"levelo://app?vid=2363c257-0874-4454-af63-f81b49a9486d"},"vehicle_type_id":"4","last_reported":1724343025,"current_range_meters":6400,"station_id":"ce4bh192rcd13ifvqdd0","pricing_plan_id":"cebpf4jnsgd1na2vs0mg"},{"bike_id":"2bcef329-b63e-445c-9795-0f9186af4c1c","system_id":"levelo_inurba_marseille","lat":43.291994,"lon":5.392907,"is_reserved":false,"is_disabled":false,"rental_uris":{"android":"levelo://app?vid=2bcef329-b63e-445c-9795-0f9186af4c1c","ios":"levelo://app?vid=2bcef329-b63e-445c-9795-0f9186af4c1c"},"vehicle_type_id":"4","last_reported":1724343025,"current_range_meters":3600,"station_id":"ce4bh192rcd13ifvqdd0","pricing_plan_id":"cebpf4jnsgd1na2vs0mg"},{"bike_id":"5453d772-6ffe-4dab-9b71-2899b072cb0b","system_id":"levelo_inurba_marseille","lat":43.284534,"lon":5.358662,"is_reserved":false,"is_disabled":false,"rental_uris":{"android":"levelo://app?vid=5453d772-6ffe-4dab-9b71-2899b072cb0b","ios":"levelo://app?vid=5453d772-6ffe-4dab-9b71-2899b072cb0b"},"vehicle_type_id":"4","last_reported":1724343025,"current_range_meters":7600,"station_id":"ce4bhah2rcd13ifvqei0","pricing_plan_id":"cebpf4jnsgd1na2vs0mg"},{"bike_id":"7f13313a-9136-4a90-ba6c-15a5df7d2b13","system_id":"levelo_inurba_marseille","lat":43.28468,"lon":5.35859,"is_reserved":false,"is_disabled":false,"rental_uris":{"android":"levelo://app?vid=7f13313a-9136-4a90-ba6c-15a5df7d2b13","ios":"levelo://app?vid=7f13313a-9136-4a90-ba6c-15a5df7d2b13"},"vehicle_type_id":"4","last_reported":1724343025,"current_range_meters":30000,"station_id":"ce4bhah2rcd13ifvqei0","pricing_plan_id":"cebpf4jnsgd1na2vs0mg"},{"bike_id":"03fc1ece-a075-4530-a3c1-f09169cabd68","system_id":"levelo_inurba_marseille","lat":43.28465,"lon":5.35878,"is_reserved":false,"is_disabled":false,"rental_uris":{"android":"levelo://app?vid=03fc1ece-a075-4530-a3c1-f09169cabd68","ios":"levelo://app?vid=03fc1ece-a075-4530-a3c1-f09169cabd68"},"vehicle_type_id":"4","last_reported":1724343025,"current_range_meters":31200,"station_id":"ce4bhah2rcd13ifvqei0","pricing_plan_id":"cebpf4jnsgd1na2vs0mg"},{"bike_id":"e997c4fb-16fb-4968-8e43-3e9cfce0778e","system_id":"levelo_inurba_marseille","lat":43.284534,"lon":5.358662,"is_reserved":false,"is_disabled":false,"rental_uris":{"android":"levelo://app?vid=e997c4fb-16fb-4968-8e43-3e9cfce0778e","ios":"levelo://app?vid=e997c4fb-16fb-4968-8e43-3e9cfce0778e"},"vehicle_type_id":"4","last_reported":1724343025,"current_range_meters":28000,"station_id":"ce4bhah2rcd13ifvqei0","pricing_plan_id":"cebpf4jnsgd1na2vs0mg"},{"bike_id":"d77a5d50-8649-456e-aa7e-9bebac7f6afa","system_id":"levelo_inurba_marseille","lat":43.28461,"lon":5.35889,"is_reserved":false,"is_disabled":false,"rental_uris":{"android":"levelo://app?vid=d77a5d50-8649-456e-aa7e-9bebac7f6afa","ios":"levelo://app?vid=d77a5d50-8649-456e-aa7e-9bebac7f6afa"},"vehicle_type_id":"4","last_reported":1724343025,"current_range_meters":24800,"station_id":"ce4bhah2rcd13ifvqei0","pricing_plan_id":"cebpf4jnsgd1na2vs0mg"},{"bike_id":"e7fea720-513f-4b49-bc45-839418ada7a1","system_id":"levelo_inurba_marseille","lat":43.2846,"lon":5.35891,"is_reserved":false,"is_disabled":false,"rental_uris":{"android":"levelo://app?vid=e7fea720-513f-4b49-bc45-839418ada7a1","ios":"levelo://app?vid=e7fea720-513f-4b49-bc45-839418ada7a1"},"vehicle_type_id":"4","last_reported":1724343025,"current_range_meters":28800,"station_id":"ce4bhah2rcd13ifvqei0","pricing_plan_id":"cebpf4jnsgd1na2vs0mg"},{"bike_id":"fa73a8af-bcad-417c-bb5a-717025c477dd","system_id":"levelo_inurba_marseille","lat":43.28462,"lon":5.35876,"is_reserved":false,"is_disabled":false,"rental_uris":{"android":"levelo://app?vid=fa73a8af-bcad-417c-bb5a-717025c477dd","ios":"levelo://app?vid=fa73a8af-bcad-417c-bb5a-717025c477dd"},"vehicle_type_id":"4","last_reported":1724343025,"current_range_meters":8400,"station_id":"ce4bhah2rcd13ifvqei0","pricing_plan_id":"cebpf4jnsgd1na2vs0mg"},{"bike_id":"50dd1176-7355-4bca-b277-2f8d2fb29512","system_id":"levelo_inurba_marseille","lat":43.284534,"lon":5.358662,"is_reserved":false,"is_disabled":false,"rental_uris":{"android":"levelo://app?vid=50dd1176-7355-4bca-b277-2f8d2fb29512","ios":"levelo://app?vid=50dd1176-7355-4bca-b277-2f8d2fb29512"},"vehicle_type_id":"4","last_reported":1724343025,"current_range_meters":30000,"station_id":"ce4bhah2rcd13ifvqei0","pricing_plan_id":"cebpf4jnsgd1na2vs0mg"},{"bike_id":"128fd85b-c427-4468-8432-2818051a4396","system_id":"levelo_inurba_marseille","lat":43.284534,"lon":5.358662,"is_reserved":false,"is_disabled":false,"rental_uris":{"android":"levelo://app?vid=128fd85b-c427-4468-8432-2818051a4396","ios":"levelo://app?vid=128fd85b-c427-4468-8432-2818051a4396"},"vehicle_type_id":"4","last_reported":1724343025,"current_range_meters":26000,"station_id":"ce4bhah2rcd13ifvqei0","pricing_plan_id":"cebpf4jnsgd1na2vs0mg"},{"bike_id":"240e1998-ee30-4427-9337-44d6969da59b","system_id":"levelo_inurba_marseille","lat":43.284534,"lon":5.358662,"is_reserved":false,"is_disabled":false,"rental_uris":{"android":"levelo://app?vid=240e1998-ee30-4427-9337-44d6969da59b","ios":"levelo://app?vid=240e1998-ee30-4427-9337-44d6969da59b"},"vehicle_type_id":"4","last_reported":1724343025,"current_range_meters":18000,"station_id":"ce4bhah2rcd13ifvqei0","pricing_plan_id":"cebpf4jnsgd1na2vs0mg"},{"bike_id":"bed69eeb-ba42-47f5-a0a6-32767aead0d2","system_id":"levelo_inurba_marseille","lat":43.294314,"lon":5.397498,"is_reserved":false,"is_disabled":false,"rental_uris":{"android":"levelo://app?vid=bed69eeb-ba42-47f5-a0a6-32767aead0d2","ios":"levelo://app?vid=bed69eeb-ba42-47f5-a0a6-32767aead0d2"},"vehicle_type_id":"4","last_reported":1724343025,"current_range_meters":800,"station_id":"ce4bh3h2rcd13ifvqdo0","pricing_plan_id":"cebpf4jnsgd1na2vs0mg"},{"bike_id":"ab8d7466-a201-4468-9259-7db9d4a7e25e","system_id":"levelo_inurba_marseille","lat":43.284538,"lon":5.358657,"is_reserved":false,"is_disabled":false,"rental_uris":{"android":"levelo://app?vid=ab8d7466-a201-4468-9259-7db9d4a7e25e","ios":"levelo://app?vid=ab8d7466-a201-4468-9259-7db9d4a7e25e"},"vehicle_type_id":"4","last_reported":1724343025,"current_range_meters":26800,"station_id":"ce4bhah2rcd13ifvqei0","pricing_plan_id":"cebpf4jnsgd1na2vs0mg"},{"bike_id":"21945db9-328c-447f-a966-ec776e231db7","system_id":"levelo_inurba_marseille","lat":43.284534,"lon":5.358662,"is_reserved":false,"is_disabled":false,"rental_uris":{"android":"levelo://app?vid=21945db9-328c-447f-a966-ec776e231db7","ios":"levelo://app?vid=21945db9-328c-447f-a966-ec776e231db7"},"vehicle_type_id":"4","last_reported":1724343025,"current_range_meters":31200,"station_id":"ce4bhah2rcd13ifvqei0","pricing_plan_id":"cebpf4jnsgd1na2vs0mg"},{"bike_id":"daa1f095-1877-458c-9107-aeb7a5fe2648","system_id":"levelo_inurba_marseille","lat":43.284538,"lon":5.358657,"is_reserved":false,"is_disabled":false,"rental_uris":{"android":"levelo://app?vid=daa1f095-1877-458c-9107-aeb7a5fe2648","ios":"levelo://app?vid=daa1f095-1877-458c-9107-aeb7a5fe2648"},"vehicle_type_id":"4","last_reported":1724343025,"current_range_meters":30000,"station_id":"ce4bhah2rcd13ifvqei0","pricing_plan_id":"cebpf4jnsgd1na2vs0mg"},{"bike_id":"b77798cd-b8fd-43d2-9e12-8d3a34089d96","system_id":"levelo_inurba_marseille","lat":43.284534,"lon":5.358662,"is_reserved":false,"is_disabled":false,"rental_uris":{"android":"levelo://app?vid=b77798cd-b8fd-43d2-9e12-8d3a34089d96","ios":"levelo://app?vid=b77798cd-b8fd-43d2-9e12-8d3a34089d96"},"vehicle_type_id":"4","last_reported":1724343025,"current_range_meters":10400,"station_id":"ce4bhah2rcd13ifvqei0","pricing_plan_id":"cebpf4jnsgd1na2vs0mg"},{"bike_id":"dff24fc4-22fd-41a1-ba8c-447f60954c7b","system_id":"levelo_inurba_marseille","lat":43.294314,"lon":5.397498,"is_reserved":false,"is_disabled":false,"rental_uris":{"android":"levelo://app?vid=dff24fc4-22fd-41a1-ba8c-447f60954c7b","ios":"levelo://app?vid=dff24fc4-22fd-41a1-ba8c-447f60954c7b"},"vehicle_type_id":"4","last_reported":1724343025,"current_range_meters":800,"station_id":"ce4bh3h2rcd13ifvqdo0","pricing_plan_id":"cebpf4jnsgd1na2vs0mg"},{"bike_id":"96b1f83a-6a39-4f96-894a-da9fe2f94a3a","system_id":"levelo_inurba_marseille","lat":43.294314,"lon":5.397498,"is_reserved":false,"is_disabled":false,"rental_uris":{"android":"levelo://app?vid=96b1f83a-6a39-4f96-894a-da9fe2f94a3a","ios":"levelo://app?vid=96b1f83a-6a39-4f96-894a-da9fe2f94a3a"},"vehicle_type_id":"4","last_reported":1724343025,"current_range_meters":0,"station_id":"ce4bh3h2rcd13ifvqdo0","pricing_plan_id":"cebpf4jnsgd1na2vs0mg"},{"bike_id":"0b0669ce-0ddc-42e5-9985-debaff5f342a","system_id":"levelo_inurba_marseille","lat":43.28619,"lon":5.35108,"is_reserved":false,"is_disabled":false,"rental_uris":{"android":"levelo://app?vid=0b0669ce-0ddc-42e5-9985-debaff5f342a","ios":"levelo://app?vid=0b0669ce-0ddc-42e5-9985-debaff5f342a"},"vehicle_type_id":"4","last_reported":1724343025,"current_range_meters":30000,"station_id":"ce4bhch2rcd13ifvqeug","pricing_plan_id":"cebpf4jnsgd1na2vs0mg"},{"bike_id":"3cd462a5-28ed-487a-b899-414c4dac6c3a","system_id":"levelo_inurba_marseille","lat":43.285856,"lon":5.350771,"is_reserved":false,"is_disabled":false,"rental_uris":{"android":"levelo://app?vid=3cd462a5-28ed-487a-b899-414c4dac6c3a","ios":"levelo://app?vid=3cd462a5-28ed-487a-b899-414c4dac6c3a"},"vehicle_type_id":"4","last_reported":1724343025,"current_range_meters":13200,"station_id":"ce4bhch2rcd13ifvqeug","pricing_plan_id":"cebpf4jnsgd1na2vs0mg"},{"bike_id":"c504353f-9528-4f02-be2a-8b0368f0be64","system_id":"levelo_inurba_marseille","lat":43.28618,"lon":5.35104,"is_reserved":false,"is_disabled":false,"rental_uris":{"android":"levelo://app?vid=c504353f-9528-4f02-be2a-8b0368f0be64","ios":"levelo://app?vid=c504353f-9528-4f02-be2a-8b0368f0be64"},"vehicle_type_id":"4","last_reported":1724343025,"current_range_meters":31200,"station_id":"ce4bhch2rcd13ifvqeug","pricing_plan_id":"cebpf4jnsgd1na2vs0mg"},{"bike_id":"0835f362-012b-4e00-963e-0d4a236a2e93","system_id":"levelo_inurba_marseille","lat":43.285856,"lon":5.350771,"is_reserved":false,"is_disabled":false,"rental_uris":{"android":"levelo://app?vid=0835f362-012b-4e00-963e-0d4a236a2e93","ios":"levelo://app?vid=0835f362-012b-4e00-963e-0d4a236a2e93"},"vehicle_type_id":"4","last_reported":1724343025,"current_range_meters":24800,"station_id":"ce4bhch2rcd13ifvqeug","pricing_plan_id":"cebpf4jnsgd1na2vs0mg"},{"bike_id":"3d97d5c8-ad1a-4da1-ba4c-67d6598272f9","system_id":"levelo_inurba_marseille","lat":43.28617,"lon":5.35102,"is_reserved":false,"is_disabled":false,"rental_uris":{"android":"levelo://app?vid=3d97d5c8-ad1a-4da1-ba4c-67d6598272f9","ios":"levelo://app?vid=3d97d5c8-ad1a-4da1-ba4c-67d6598272f9"},"vehicle_type_id":"4","last_reported":1724343025,"current_range_meters":23200,"station_id":"ce4bhch2rcd13ifvqeug","pricing_plan_id":"cebpf4jnsgd1na2vs0mg"},{"bike_id":"74db5f33-d1e7-44d0-95f9-688a069990b0","system_id":"levelo_inurba_marseille","lat":43.28618,"lon":5.35098,"is_reserved":false,"is_disabled":false,"rental_uris":{"android":"levelo://app?vid=74db5f33-d1e7-44d0-95f9-688a069990b0","ios":"levelo://app?vid=74db5f33-d1e7-44d0-95f9-688a069990b0"},"vehicle_type_id":"4","last_reported":1724343025,"current_range_meters":12800,"station_id":"ce4bhch2rcd13ifvqeug","pricing_plan_id":"cebpf4jnsgd1na2vs0mg"},{"bike_id":"5baae450-9774-4085-8c16-b6f5d9afff7f","system_id":"levelo_inurba_marseille","lat":43.28618,"lon":5.35097,"is_reserved":false,"is_disabled":false,"rental_uris":{"android":"levelo://app?vid=5baae450-9774-4085-8c16-b6f5d9afff7f","ios":"levelo://app?vid=5baae450-9774-4085-8c16-b6f5d9afff7f"},"vehicle_type_id":"4","last_reported":1724343025,"current_range_meters":29600,"station_id":"ce4bhch2rcd13ifvqeug","pricing_plan_id":"cebpf4jnsgd1na2vs0mg"},{"bike_id":"1ae676ca-0db8-4a57-976b-3c9672c3bd94","system_id":"levelo_inurba_marseille","lat":43.28615,"lon":5.35106,"is_reserved":false,"is_disabled":false,"rental_uris":{"android":"levelo://app?vid=1ae676ca-0db8-4a57-976b-3c9672c3bd94","ios":"levelo://app?vid=1ae676ca-0db8-4a57-976b-3c9672c3bd94"},"vehicle_type_id":"4","last_reported":1724343025,"current_range_meters":27200,"station_id":"ce4bhch2rcd13ifvqeug","pricing_plan_id":"cebpf4jnsgd1na2vs0mg"},{"bike_id":"263c9e5d-8a6b-41f7-a313-8bc81c67a2dc","system_id":"levelo_inurba_marseille","lat":43.28616,"lon":5.35102,"is_reserved":false,"is_disabled":false,"rental_uris":{"android":"levelo://app?vid=263c9e5d-8a6b-41f7-a313-8bc81c67a2dc","ios":"levelo://app?vid=263c9e5d-8a6b-41f7-a313-8bc81c67a2dc"},"vehicle_type_id":"4","last_reported":1724343025,"current_range_meters":30000,"station_id":"","pricing_plan_id":"cebpf4jnsgd1na2vs0mg"},{"bike_id":"1df6285f-438c-4c1d-94c6-bc035a09a978","system_id":"levelo_inurba_marseille","lat":43.28615,"lon":5.35104,"is_reserved":false,"is_disabled":false,"rental_uris":{"android":"levelo://app?vid=1df6285f-438c-4c1d-94c6-bc035a09a978","ios":"levelo://app?vid=1df6285f-438c-4c1d-94c6-bc035a09a978"},"vehicle_type_id":"4","last_reported":1724343025,"current_range_meters":16000,"station_id":"ce4bhch2rcd13ifvqeug","pricing_plan_id":"cebpf4jnsgd1na2vs0mg"},{"bike_id":"7b0e6faa-e420-41b4-a665-5c475bfd5657","system_id":"levelo_inurba_marseille","lat":43.28613,"lon":5.35105,"is_reserved":false,"is_disabled":false,"rental_uris":{"android":"levelo://app?vid=7b0e6faa-e420-41b4-a665-5c475bfd5657","ios":"levelo://app?vid=7b0e6faa-e420-41b4-a665-5c475bfd5657"},"vehicle_type_id":"4","last_reported":1724343025,"current_range_meters":31200,"station_id":"ce4bhch2rcd13ifvqeug","pricing_plan_id":"cebpf4jnsgd1na2vs0mg"},{"bike_id":"7bcd3548-19bb-4e83-b898-f0316cfbc924","system_id":"levelo_inurba_marseille","lat":43.28613,"lon":5.35101,"is_reserved":false,"is_disabled":false,"rental_uris":{"android":"levelo://app?vid=7bcd3548-19bb-4e83-b898-f0316cfbc924","ios":"levelo://app?vid=7bcd3548-19bb-4e83-b898-f0316cfbc924"},"vehicle_type_id":"4","last_reported":1724343025,"current_range_meters":28000,"station_id":"ce4bhch2rcd13ifvqeug","pricing_plan_id":"cebpf4jnsgd1na2vs0mg"},{"bike_id":"6d1e5133-ccff-44fd-927b-f472be80c523","system_id":"levelo_inurba_marseille","lat":43.28611,"lon":5.35104,"is_reserved":false,"is_disabled":false,"rental_uris":{"android":"levelo://app?vid=6d1e5133-ccff-44fd-927b-f472be80c523","ios":"levelo://app?vid=6d1e5133-ccff-44fd-927b-f472be80c523"},"vehicle_type_id":"4","last_reported":1724343025,"current_range_meters":14400,"station_id":"ce4bhch2rcd13ifvqeug","pricing_plan_id":"cebpf4jnsgd1na2vs0mg"},{"bike_id":"e9c61760-ff73-4352-b161-97d771c5c6a5","system_id":"levelo_inurba_marseille","lat":43.28613,"lon":5.35097,"is_reserved":false,"is_disabled":false,"rental_uris":{"android":"levelo://app?vid=e9c61760-ff73-4352-b161-97d771c5c6a5","ios":"levelo://app?vid=e9c61760-ff73-4352-b161-97d771c5c6a5"},"vehicle_type_id":"4","last_reported":1724343025,"current_range_meters":31200,"station_id":"ce4bhch2rcd13ifvqeug","pricing_plan_id":"cebpf4jnsgd1na2vs0mg"},{"bike_id":"d4d1b4ee-408b-4768-a7f7-b350762d4c74","system_id":"levelo_inurba_marseille","lat":43.286058,"lon":5.350998,"is_reserved":false,"is_disabled":false,"rental_uris":{"android":"levelo://app?vid=d4d1b4ee-408b-4768-a7f7-b350762d4c74","ios":"levelo://app?vid=d4d1b4ee-408b-4768-a7f7-b350762d4c74"},"vehicle_type_id":"4","last_reported":1724343025,"current_range_meters":6800,"station_id":"ce4bhch2rcd13ifvqeug","pricing_plan_id":"cebpf4jnsgd1na2vs0mg"},{"bike_id":"af05f9bf-9053-4606-af25-252bdff40b37","system_id":"levelo_inurba_marseille","lat":43.284128,"lon":5.375125,"is_reserved":false,"is_disabled":false,"rental_uris":{"android":"levelo://app?vid=af05f9bf-9053-4606-af25-252bdff40b37","ios":"levelo://app?vid=af05f9bf-9053-4606-af25-252bdff40b37"},"vehicle_type_id":"4","last_reported":1724343025,"current_range_meters":0,"station_id":"ce4bh412rcd13ifvqds0","pricing_plan_id":"cebpf4jnsgd1na2vs0mg"},{"bike_id":"97d1c602-a1b6-460a-b89f-8669135f4562","system_id":"levelo_inurba_marseille","lat":43.295713,"lon":5.399639,"is_reserved":false,"is_disabled":false,"rental_uris":{"android":"levelo://app?vid=97d1c602-a1b6-460a-b89f-8669135f4562","ios":"levelo://app?vid=97d1c602-a1b6-460a-b89f-8669135f4562"},"vehicle_type_id":"4","last_reported":1724343025,"current_range_meters":13600,"station_id":"ce4bh312rcd13ifvqdj0","pricing_plan_id":"cebpf4jnsgd1na2vs0mg"},{"bike_id":"c12f76c5-3f9b-411b-ac69-96cbdc51943d","system_id":"levelo_inurba_marseille","lat":43.295713,"lon":5.399639,"is_reserved":false,"is_disabled":false,"rental_uris":{"android":"levelo://app?vid=c12f76c5-3f9b-411b-ac69-96cbdc51943d","ios":"levelo://app?vid=c12f76c5-3f9b-411b-ac69-96cbdc51943d"},"vehicle_type_id":"4","last_reported":1724343025,"current_range_meters":5200,"station_id":"ce4bh312rcd13ifvqdj0","pricing_plan_id":"cebpf4jnsgd1na2vs0mg"},{"bike_id":"a0a5aa4e-8674-4453-a24d-21921ee17d21","system_id":"levelo_inurba_marseille","lat":43.283998,"lon":5.375062,"is_reserved":false,"is_disabled":false,"rental_uris":{"android":"levelo://app?vid=a0a5aa4e-8674-4453-a24d-21921ee17d21","ios":"levelo://app?vid=a0a5aa4e-8674-4453-a24d-21921ee17d21"},"vehicle_type_id":"4","last_reported":1724343025,"current_range_meters":2400,"station_id":"ce4bh412rcd13ifvqds0","pricing_plan_id":"cebpf4jnsgd1na2vs0mg"},{"bike_id":"584a8b9c-5648-469c-b233-6b39d82ee394","system_id":"levelo_inurba_marseille","lat":43.283998,"lon":5.375062,"is_reserved":false,"is_disabled":false,"rental_uris":{"android":"levelo://app?vid=584a8b9c-5648-469c-b233-6b39d82ee394","ios":"levelo://app?vid=584a8b9c-5648-469c-b233-6b39d82ee394"},"vehicle_type_id":"4","last_reported":1724343025,"current_range_meters":22400,"station_id":"ce4bh412rcd13ifvqds0","pricing_plan_id":"cebpf4jnsgd1na2vs0mg"},{"bike_id":"f9f614f2-d3be-4302-a6be-312b1ff3b328","system_id":"levelo_inurba_marseille","lat":43.295713,"lon":5.399639,"is_reserved":false,"is_disabled":false,"rental_uris":{"android":"levelo://app?vid=f9f614f2-d3be-4302-a6be-312b1ff3b328","ios":"levelo://app?vid=f9f614f2-d3be-4302-a6be-312b1ff3b328"},"vehicle_type_id":"4","last_reported":1724343025,"current_range_meters":9600,"station_id":"ce4bh312rcd13ifvqdj0","pricing_plan_id":"cebpf4jnsgd1na2vs0mg"},{"bike_id":"ec01848e-deba-4a62-92a3-6a05fb539baf","system_id":"levelo_inurba_marseille","lat":43.295713,"lon":5.399639,"is_reserved":false,"is_disabled":false,"rental_uris":{"android":"levelo://app?vid=ec01848e-deba-4a62-92a3-6a05fb539baf","ios":"levelo://app?vid=ec01848e-deba-4a62-92a3-6a05fb539baf"},"vehicle_type_id":"4","last_reported":1724343025,"current_range_meters":12800,"station_id":"ce4bh312rcd13ifvqdj0","pricing_plan_id":"cebpf4jnsgd1na2vs0mg"},{"bike_id":"d74a1bee-3253-44b2-9e53-6719128e8c68","system_id":"levelo_inurba_marseille","lat":43.28677,"lon":5.38655,"is_reserved":false,"is_disabled":false,"rental_uris":{"android":"levelo://app?vid=d74a1bee-3253-44b2-9e53-6719128e8c68","ios":"levelo://app?vid=d74a1bee-3253-44b2-9e53-6719128e8c68"},"vehicle_type_id":"4","last_reported":1724343025,"current_range_meters":21200,"station_id":"","pricing_plan_id":"cebpf4jnsgd1na2vs0mg"},{"bike_id":"7f71eded-d29d-4b51-8112-f200e2b528d6","system_id":"levelo_inurba_marseille","lat":43.28665,"lon":5.38652,"is_reserved":false,"is_disabled":false,"rental_uris":{"android":"levelo://app?vid=7f71eded-d29d-4b51-8112-f200e2b528d6","ios":"levelo://app?vid=7f71eded-d29d-4b51-8112-f200e2b528d6"},"vehicle_type_id":"4","last_reported":1724343025,"current_range_meters":0,"station_id":"ce4bh492rcd13ifvqdug","pricing_plan_id":"cebpf4jnsgd1na2vs0mg"},{"bike_id":"8996c44e-eb65-475f-80cf-ae1f3010a205","system_id":"levelo_inurba_marseille","lat":43.319179,"lon":5.407725,"is_reserved":false,"is_disabled":false,"rental_uris":{"android":"levelo://app?vid=8996c44e-eb65-475f-80cf-ae1f3010a205","ios":"levelo://app?vid=8996c44e-eb65-475f-80cf-ae1f3010a205"},"vehicle_type_id":"4","last_reported":1724343025,"current_range_meters":25200,"station_id":"ce4bhq12rcd13ifvqhig","pricing_plan_id":"cebpf4jnsgd1na2vs0mg"},{"bike_id":"91a681d2-ca34-4cbd-a89c-f391d403b6a7","system_id":"levelo_inurba_marseille","lat":43.319179,"lon":5.407725,"is_reserved":false,"is_disabled":false,"rental_uris":{"android":"levelo://app?vid=91a681d2-ca34-4cbd-a89c-f391d403b6a7","ios":"levelo://app?vid=91a681d2-ca34-4cbd-a89c-f391d403b6a7"},"vehicle_type_id":"4","last_reported":1724343025,"current_range_meters":17600,"station_id":"ce4bhq12rcd13ifvqhig","pricing_plan_id":"cebpf4jnsgd1na2vs0mg"},{"bike_id":"80867849-d6b3-4947-a775-47b5a95050fe","system_id":"levelo_inurba_marseille","lat":43.337168,"lon":5.391825,"is_reserved":false,"is_disabled":false,"rental_uris":{"android":"levelo://app?vid=80867849-d6b3-4947-a775-47b5a95050fe","ios":"levelo://app?vid=80867849-d6b3-4947-a775-47b5a95050fe"},"vehicle_type_id":"4","last_reported":1724343025,"current_range_meters":2800,"station_id":"ce4bhr92rcd13ifvqhsg","pricing_plan_id":"cebpf4jnsgd1na2vs0mg"},{"bike_id":"5e2e1a9b-e8e9-4a67-aa16-916285293a91","system_id":"levelo_inurba_marseille","lat":43.28476,"lon":5.38409,"is_reserved":false,"is_disabled":false,"rental_uris":{"android":"levelo://app?vid=5e2e1a9b-e8e9-4a67-aa16-916285293a91","ios":"levelo://app?vid=5e2e1a9b-e8e9-4a67-aa16-916285293a91"},"vehicle_type_id":"4","last_reported":1724343025,"current_range_meters":0,"station_id":"ce4bh512rcd13ifvqe3g","pricing_plan_id":"cebpf4jnsgd1na2vs0mg"},{"bike_id":"429a83bb-184a-432b-998f-f924cc9651f3","system_id":"levelo_inurba_marseille","lat":43.322376,"lon":5.407026,"is_reserved":false,"is_disabled":false,"rental_uris":{"android":"levelo://app?vid=429a83bb-184a-432b-998f-f924cc9651f3","ios":"levelo://app?vid=429a83bb-184a-432b-998f-f924cc9651f3"},"vehicle_type_id":"4","last_reported":1724343025,"current_range_meters":6800,"station_id":"","pricing_plan_id":"cebpf4jnsgd1na2vs0mg"},{"bike_id":"50baadeb-99f7-4525-9e6f-2b4df0c9edf4","system_id":"levelo_inurba_marseille","lat":43.28851,"lon":5.39316,"is_reserved":false,"is_disabled":false,"rental_uris":{"android":"levelo://app?vid=50baadeb-99f7-4525-9e6f-2b4df0c9edf4","ios":"levelo://app?vid=50baadeb-99f7-4525-9e6f-2b4df0c9edf4"},"vehicle_type_id":"4","last_reported":1724343025,"current_range_meters":4800,"station_id":"ce4bh2p2rcd13ifvqdi0","pricing_plan_id":"cebpf4jnsgd1na2vs0mg"},