{"last_updated":1774653710,"ttl":60,"version":"2.2","data":{"bikes":[{"bike_id":"e2fabea8-fec8-4403-91af-ad7f2d964bb9","system_id":"levelo_inurba_marseille","lat":43.29897,"lon":5.4208,"is_reserved":false,"is_disabled":false,"rental_uris":{"android":"levelo://app?vid=e2fabea8-fec8-4403-91af-ad7f2d964bb9","ios":"levelo://app?vid=e2fabea8-fec8-4403-91af-ad7f2d964bb9"},"vehicle_type_id":"4","last_reported":1774653711,"current_range_meters":2800,"station_id":"st_d6tc004otcvc738tfe70","pricing_plan_id":"cebpf4jnsgd1na2vs0mg"},{"bike_id":"adea36a4-ddd4-4178-9ee5-5dbf4ed0af73","system_id":"levelo_inurba_marseille","lat":43.30645,"lon":5.40091,"is_reserved":false,"is_disabled":false,"rental_uris":{"android":"levelo://app?vid=adea36a4-ddd4-4178-9ee5-5dbf4ed0af73","ios":"levelo://app?vid=adea36a4-ddd4-4178-9ee5-5dbf4ed0af73"},"vehicle_type_id":"4","last_reported":1774653711,"current_range_meters":2800,"station_id":"ce4bh112rcd13ifvqda0","pricing_plan_id":"cebpf4jnsgd1na2vs0mg"},{"bike_id":"4bf5ee1a-db28-4d49-a9e5-e023cbb5efa9","system_id":"levelo_inurba_marseille","lat":43.2651,"lon":5.37945,"is_reserved":false,"is_disabled":false,"rental_uris":{"android":"levelo://app?vid=4bf5ee1a-db28-4d49-a9e5-e023cbb5efa9","ios":"levelo://app?vid=4bf5ee1a-db28-4d49-a9e5-e023cbb5efa9"},"vehicle_type_id":"4","last_reported":1774653711,"current_range_meters":2800,"station_id":"","pricing_plan_id":"cebpf4jnsgd1na2vs0mg"},{"bike_id":"a206a1fc-ad71-47c7-8011-84675fafc178","system_id":"levelo_inurba_marseille","lat":43.31254,"lon":5.36814,"is_reserved":false,"is_disabled":false,"rental_uris":{"android":"levelo://app?vid=a206a1fc-ad71-47c7-8011-84675fafc178","ios":"levelo://app?vid=a206a1fc-ad71-47c7-8011-84675fafc178"},"vehicle_type_id":"4","last_reported":1774653711,"current_range_meters":2800,"station_id":"ce4bgl92rcd13ifvqbq0","pricing_plan_id":"cebpf4jnsgd1na2vs0mg"},{"bike_id":"45202320-c796-4854-b1d3-901e1f274551","system_id":"levelo_inurba_marseille","lat":43.30599,"lon":5.3733,"is_reserved":false,"is_disabled":false,"rental_uris":{"android":"levelo://app?vid=45202320-c796-4854-b1d3-901e1f274551","ios":"levelo://app?vid=45202320-c796-4854-b1d3-901e1f274551"},"vehicle_type_id":"4","last_reported":1774653711,"current_range_meters":2800,"station_id":"","pricing_plan_id":"cebpf4jnsgd1na2vs0mg"},{"bike_id":"3ab98d54-0020-4383-9198-d1ae40e931d7","system_id":"levelo_inurba_marseille","lat":43.26207,"lon":5.40417,"is_reserved":false,"is_disabled":false,"rental_uris":{"android":"levelo://app?vid=3ab98d54-0020-4383-9198-d1ae40e931d7","ios":"levelo://app?vid=3ab98d54-0020-4383-9198-d1ae40e931d7"},"vehicle_type_id":"4","last_reported":1774653711,"current_range_meters":2800,"station_id":"ce4bhmh2rcd13ifvqgmg","pricing_plan_id":"cebpf4jnsgd1na2vs0mg"},{"bike_id":"ee15650d-762e-4f94-b99d-67f85971e841","system_id":"levelo_inurba_marseille","lat":43.27474,"lon":5.41612,"is_reserved":false,"is_disabled":true,"rental_uris":{"android":"levelo://app?vid=ee15650d-762e-4f94-b99d-67f85971e841","ios":"levelo://app?vid=ee15650d-762e-4f94-b99d-67f85971e841"},"vehicle_type_id":"4","last_reported":1774653711,"current_range_meters":2800,"station_id":"st_d6im8g6chgec73a5pndg","pricing_plan_id":"cebpf4jnsgd1na2vs0mg"},{"bike_id":"5d50e5a1-2776-45f5-b9ff-1dc20663f1a3","system_id":"levelo_inurba_marseille","lat":43.27185,"lon":5.40994,"is_reserved":false,"is_disabled":false,"rental_uris":{"android":"levelo://app?vid=5d50e5a1-2776-45f5-b9ff-1dc20663f1a3","ios":"levelo://app?vid=5d50e5a1-2776-45f5-b9ff-1dc20663f1a3"},"vehicle_type_id":"4","last_reported":1774653711,"current_range_meters":2800,"station_id":"ce4bhl12rcd13ifvqgf0","pricing_plan_id":"cebpf4jnsgd1na2vs0mg"},{"bike_id":"0f56ada4-0139-4533-81b0-539cec19117a","system_id":"levelo_inurba_marseille","lat":43.3003,"lon":5.37699,"is_reserved":false,"is_disabled":false,"rental_uris":{"android":"levelo://app?vid=0f56ada4-0139-4533-81b0-539cec19117a","ios":"levelo://app?vid=0f56ada4-0139-4533-81b0-539cec19117a"},"vehicle_type_id":"4","last_reported":1774653711,"current_range_meters":2800,"station_id":"","pricing_plan_id":"cebpf4jnsgd1na2vs0mg"},{"bike_id":"d9f1e599-9996-4001-a299-ae38459379b5","system_id":"levelo_inurba_marseille","lat":43.31889,"lon":5.36806,"is_reserved":false,"is_disabled":false,"rental_uris":{"android":"levelo://app?vid=d9f1e599-9996-4001-a299-ae38459379b5","ios":"levelo://app?vid=d9f1e599-9996-4001-a299-ae38459379b5"},"vehicle_type_id":"4","last_reported":1774653711,"current_range_meters":2800,"station_id":"","pricing_plan_id":"cebpf4jnsgd1na2vs0mg"},{"bike_id":"21c4807f-b8cf-4a1d-bee8-7bc7a16a116a","system_id":"levelo_inurba_marseille","lat":43.24659,"lon":5.38888,"is_reserved":false,"is_disabled":false,"rental_uris":{"android":"levelo://app?vid=21c4807f-b8cf-4a1d-bee8-7bc7a16a116a","ios":"levelo://app?vid=21c4807f-b8cf-4a1d-bee8-7bc7a16a116a"},"vehicle_type_id":"4","last_reported":1774653711,"current_range_meters":2800,"station_id":"ce4bhg12rcd13ifvqf60","pricing_plan_id":"cebpf4jnsgd1na2vs0mg"},{"bike_id":"99fdde14-d00f-4b87-a06e-d19f16d9d69a","system_id":"levelo_inurba_marseille","lat":43.30214,"lon":5.38034,"is_reserved":false,"is_disabled":false,"rental_uris":{"android":"levelo://app?vid=99fdde14-d00f-4b87-a06e-d19f16d9d69a","ios":"levelo://app?vid=99fdde14-d00f-4b87-a06e-d19f16d9d69a"},"vehicle_type_id":"4","last_reported":1774653711,"current_range_meters":2800,"station_id":"","pricing_plan_id":"cebpf4jnsgd1na2vs0mg"},{"bike_id":"4397ae44-635b-43b0-a1ea-4e1a061d0889","system_id":"levelo_inurba_marseille","lat":43.2417,"lon":5.36384,"is_reserved":false,"is_disabled":false,"rental_uris":{"android":"levelo://app?vid=4397ae44-635b-43b0-a1ea-4e1a061d0889","ios":"levelo://app?vid=4397ae44-635b-43b0-a1ea-4e1a061d0889"},"vehicle_type_id":"4","last_reported":1774653711,"current_range_meters":2800,"station_id":"cpo36qri1sfpv3e86is0","pricing_plan_id":"cebpf4jnsgd1na2vs0mg"},{"bike_id":"aed38822-4a89-4001-8ec7-4728e59654bf","system_id":"levelo_inurba_marseille","lat":43.29694,"lon":5.36612,"is_reserved":false,"is_disabled":false,"rental_uris":{"android":"levelo://app?vid=aed38822-4a89-4001-8ec7-4728e59654bf","ios":"levelo://app?vid=aed38822-4a89-4001-8ec7-4728e59654bf"},"vehicle_type_id":"4","last_reported":1774653711,"current_range_meters":3200,"station_id":"ce4bgn12rcd13ifvqbt0","pricing_plan_id":"cebpf4jnsgd1na2vs0mg"},{"bike_id":"da0a8908-faad-411e-8f65-b09804151e6d","system_id":"levelo_inurba_marseille","lat":43.30321,"lon":5.40435,"is_reserved":false,"is_disabled":false,"rental_uris":{"android":"levelo://app?vid=da0a8908-faad-411e-8f65-b09804151e6d","ios":"levelo://app?vid=da0a8908-faad-411e-8f65-b09804151e6d"},"vehicle_type_id":"4","last_reported":1774653711,"current_range_meters":3200,"station_id":"ce4bh012rcd13ifvqd10","pricing_plan_id":"cebpf4jnsgd1na2vs0mg"},{"bike_id":"7287bb3e-5f59-4528-92d4-15993944531f","system_id":"levelo_inurba_marseille","lat":43.31342,"lon":5.39687,"is_reserved":false,"is_disabled":false,"rental_uris":{"android":"levelo://app?vid=7287bb3e-5f59-4528-92d4-15993944531f","ios":"levelo://app?vid=7287bb3e-5f59-4528-92d4-15993944531f"},"vehicle_type_id":"4","last_reported":1774653711,"current_range_meters":3200,"station_id":"ce4bgvp2rcd13ifvqcu0","pricing_plan_id":"cebpf4jnsgd1na2vs0mg"},{"bike_id":"47f0208f-ee52-4031-be3f-94d72fca0043","system_id":"levelo_inurba_marseille","lat":43.26491,"lon":5.39547,"is_reserved":false,"is_disabled":false,"rental_uris":{"android":"levelo://app?vid=47f0208f-ee52-4031-be3f-94d72fca0043","ios":"levelo://app?vid=47f0208f-ee52-4031-be3f-94d72fca0043"},"vehicle_type_id":"4","last_reported":1774653711,"current_range_meters":3200,"station_id":"ce4bhi12rcd13ifvqfq0","pricing_plan_id":"cebpf4jnsgd1na2vs0mg"},{"bike_id":"c72cae50-df5a-4b52-8310-3fb16a8d9463","system_id":"levelo_inurba_marseille","lat":43.30135,"lon":5.38807,"is_reserved":false,"is_disabled":false,"rental_uris":{"android":"levelo://app?vid=c72cae50-df5a-4b52-8310-3fb16a8d9463","ios":"levelo://app?vid=c72cae50-df5a-4b52-8310-3fb16a8d9463"},"vehicle_type_id":"4","last_reported":1774653711,"current_range_meters":3200,"station_id":"ce4bghh2rcd13ifvqb60","pricing_plan_id":"cebpf4jnsgd1na2vs0mg"},{"bike_id":"b19e5624-4374-4010-938d-5e0b4aa14c30","system_id":"levelo_inurba_marseille","lat":43.24161,"lon":5.39751,"is_reserved":false,"is_disabled":false,"rental_uris":{"android":"levelo://app?vid=b19e5624-4374-4010-938d-5e0b4aa14c30","ios":"levelo://app?vid=b19e5624-4374-4010-938d-5e0b4aa14c30"},"vehicle_type_id":"4","last_reported":1774653711,"current_range_meters":3200,"station_id":"ce4bhn12rcd13ifvqgpg","pricing_plan_id":"cebpf4jnsgd1na2vs0mg"},{"bike_id":"43e1c4a9-10fe-4f87-ba76-132a3f20c545","system_id":"levelo_inurba_marseille","lat":43.25578,"lon":5.3826,"is_reserved":false,"is_disabled":false,"rental_uris":{"android":"levelo://app?vid=43e1c4a9-10fe-4f87-ba76-132a3f20c545","ios":"levelo://app?vid=43e1c4a9-10fe-4f87-ba76-132a3f20c545"},"vehicle_type_id":"4","last_reported":1774653711,"current_range_meters":3600,"station_id":"ce4bhih2rcd13ifvqfs0","pricing_plan_id":"cebpf4jnsgd1na2vs0mg"},{"bike_id":"beca5126-c985-47d5-859f-464bcda92937","system_id":"levelo_inurba_marseille","lat":43.23781,"lon":5.36623,"is_reserved":false,"is_disabled":false,"rental_uris":{"android":"levelo://app?vid=beca5126-c985-47d5-859f-464bcda92937","ios":"levelo://app?vid=beca5126-c985-47d5-859f-464bcda92937"},"vehicle_type_id":"4","last_reported":1774653711,"current_range_meters":3600,"station_id":"st_d3nk18o9ro0c73en2l3g","pricing_plan_id":"cebpf4jnsgd1na2vs0mg"},{"bike_id":"c8b12c06-8b68-4507-a195-201b6ea51cb4","system_id":"levelo_inurba_marseille","lat":43.28468,"lon":5.35871,"is_reserved":false,"is_disabled":false,"rental_uris":{"android":"levelo://app?vid=c8b12c06-8b68-4507-a195-201b6ea51cb4","ios":"levelo://app?vid=c8b12c06-8b68-4507-a195-201b6ea51cb4"},"vehicle_type_id":"4","last_reported":1774653711,"current_range_meters":3600,"station_id":"ce4bhah2rcd13ifvqei0","pricing_plan_id":"cebpf4jnsgd1na2vs0mg"},{"bike_id":"5757dbbf-3667-4f8f-8e79-fcc94757427f","system_id":"levelo_inurba_marseille","lat":43.25095,"lon":5.39511,"is_reserved":false,"is_disabled":false,"rental_uris":{"android":"levelo://app?vid=5757dbbf-3667-4f8f-8e79-fcc94757427f","ios":"levelo://app?vid=5757dbbf-3667-4f8f-8e79-fcc94757427f"},"vehicle_type_id":"4","last_reported":1774653711,"current_range_meters":3600,"station_id":"ce4bhm12rcd13ifvqgkg","pricing_plan_id":"cebpf4jnsgd1na2vs0mg"},{"bike_id":"0a197c59-36ff-4476-ba15-27bca31c9b66","system_id":"levelo_inurba_marseille","lat":43.27429,"lon":5.39416,"is_reserved":false,"is_disabled":false,"rental_uris":{"android":"levelo://app?vid=0a197c59-36ff-4476-ba15-27bca31c9b66","ios":"levelo://app?vid=0a197c59-36ff-4476-ba15-27bca31c9b66"},"vehicle_type_id":"4","last_reported":1774653711,"current_range_meters":3600,"station_id":"ce4bhdp2rcd13ifvqf20","pricing_plan_id":"cebpf4jnsgd1na2vs0mg"},{"bike_id":"f736f208-97df-4b5e-983a-870833672ee2","system_id":"levelo_inurba_marseille","lat":43.26225,"lon":5.40453,"is_reserved":false,"is_disabled":false,"rental_uris":{"android":"levelo://app?vid=f736f208-97df-4b5e-983a-870833672ee2","ios":"levelo://app?vid=f736f208-97df-4b5e-983a-870833672ee2"},"vehicle_type_id":"4","last_reported":1774653711,"current_range_meters":3600,"station_id":"ce4bhmh2rcd13ifvqgmg","pricing_plan_id":"cebpf4jnsgd1na2vs0mg"},{"bike_id":"711aca0d-dc9c-4d5d-9939-051623714de5","system_id":"levelo_inurba_marseille","lat":43.29365,"lon":5.37827,"is_reserved":false,"is_disabled":false,"rental_uris":{"android":"levelo://app?vid=711aca0d-dc9c-4d5d-9939-051623714de5","ios":"levelo://app?vid=711aca0d-dc9c-4d5d-9939-051623714de5"},"vehicle_type_id":"4","last_reported":1774653711,"current_range_meters":3600,"station_id":"ce4bgjh2rcd13ifvqbf0","pricing_plan_id":"cebpf4jnsgd1na2vs0mg"},{"bike_id":"d4841df1-22c8-4402-a664-57cd227ce550","system_id":"levelo_inurba_marseille","lat":43.24811,"lon":5.37457,"is_reserved":false,"is_disabled":false,"rental_uris":{"android":"levelo://app?vid=d4841df1-22c8-4402-a664-57cd227ce550","ios":"levelo://app?vid=d4841df1-22c8-4402-a664-57cd227ce550"},"vehicle_type_id":"4","last_reported":1774653711,"current_range_meters":3600,"station_id":"ce4bhgh2rcd13ifvqfb0","pricing_plan_id":"cebpf4jnsgd1na2vs0mg"},{"bike_id":"85bdb241-1791-4f04-a822-f7254e070a54","system_id":"levelo_inurba_marseille","lat":43.25593,"lon":5.38246,"is_reserved":false,"is_disabled":false,"rental_uris":{"android":"levelo://app?vid=85bdb241-1791-4f04-a822-f7254e070a54","ios":"levelo://app?vid=85bdb241-1791-4f04-a822-f7254e070a54"},"vehicle_type_id":"4","last_reported":1774653711,"current_range_meters":3600,"station_id":"ce4bhih2rcd13ifvqfs0","pricing_plan_id":"cebpf4jnsgd1na2vs0mg"},{"bike_id":"6a14e0d7-e036-4a7a-988c-bd4c5dc1ab7f","system_id":"levelo_inurba_marseille","lat":43.33162,"lon":5.37675,"is_reserved":false,"is_disabled":false,"rental_uris":{"android":"levelo://app?vid=6a14e0d7-e036-4a7a-988c-bd4c5dc1ab7f","ios":"levelo://app?vid=6a14e0d7-e036-4a7a-988c-bd4c5dc1ab7f"},"vehicle_type_id":"4","last_reported":1774653711,"current_range_meters":3600,"station_id":"st_d46cu089ee8s73dldbu0","pricing_plan_id":"cebpf4jnsgd1na2vs0mg"},{"bike_id":"b5114d54-1a10-4d09-9c82-f6aa7d7d3f8c","system_id":"levelo_inurba_marseille","lat":43.22553,"lon":5.41635,"is_reserved":false,"is_disabled":false,"rental_uris":{"android":"levelo://app?vid=b5114d54-1a10-4d09-9c82-f6aa7d7d3f8c","ios":"levelo://app?vid=b5114d54-1a10-4d09-9c82-f6aa7d7d3f8c"},"vehicle_type_id":"4","last_reported":1774653711,"current_range_meters":4000,"station_id":"st_d2o4gvlbi1j2169b742g","pricing_plan_id":"cebpf4jnsgd1na2vs0mg"},{"bike_id":"74fb782a-19b0-4231-98b9-83ac4118f09e","system_id":"levelo_inurba_marseille","lat":43.28418,"lon":5.3751,"is_reserved":false,"is_disabled":false,"rental_uris":{"android":"levelo://app?vid=74fb782a-19b0-4231-98b9-83ac4118f09e","ios":"levelo://app?vid=74fb782a-19b0-4231-98b9-83ac4118f09e"},"vehicle_type_id":"4","last_reported":1774653711,"current_range_meters":4000,"station_id":"ce4bh412rcd13ifvqds0","pricing_plan_id":"cebpf4jnsgd1na2vs0mg"},{"bike_id":"e19b1881-fb03-4fdf-884f-c0632c67b0bb","system_id":"levelo_inurba_marseille","lat":43.30954,"lon":5.3907,"is_reserved":false,"is_disabled":false,"rental_uris":{"android":"levelo://app?vid=e19b1881-fb03-4fdf-884f-c0632c67b0bb","ios":"levelo://app?vid=e19b1881-fb03-4fdf-884f-c0632c67b0bb"},"vehicle_type_id":"4","last_reported":1774653711,"current_range_meters":4000,"station_id":"ce4bgup2rcd13ifvqco0","pricing_plan_id":"cebpf4jnsgd1na2vs0mg"},{"bike_id":"d98423cf-94ce-4749-89f6-e8a1ee474779","system_id":"levelo_inurba_marseille","lat":43.28444,"lon":5.34966,"is_reserved":false,"is_disabled":false,"rental_uris":{"android":"levelo://app?vid=d98423cf-94ce-4749-89f6-e8a1ee474779","ios":"levelo://app?vid=d98423cf-94ce-4749-89f6-e8a1ee474779"},"vehicle_type_id":"4","last_reported":1774653711,"current_range_meters":4000,"station_id":"ce4bhbh2rcd13ifvqepg","pricing_plan_id":"cebpf4jnsgd1na2vs0mg"},{"bike_id":"b232958c-f579-4df5-b475-5c07b6b3956a","system_id":"levelo_inurba_marseille","lat":43.30299,"lon":5.39215,"is_reserved":false,"is_disabled":false,"rental_uris":{"android":"levelo://app?vid=b232958c-f579-4df5-b475-5c07b6b3956a","ios":"levelo://app?vid=b232958c-f579-4df5-b475-5c07b6b3956a"},"vehicle_type_id":"4","last_reported":1774653711,"current_range_meters":4000,"station_id":"ce4bgkh2rcd13ifvqbk0","pricing_plan_id":"cebpf4jnsgd1na2vs0mg"},{"bike_id":"608267f4-4761-45de-af62-b388500b9fc0","system_id":"levelo_inurba_marseille","lat":43.26085,"lon":5.39402,"is_reserved":false,"is_disabled":false,"rental_uris":{"android":"levelo://app?vid=608267f4-4761-45de-af62-b388500b9fc0","ios":"levelo://app?vid=608267f4-4761-45de-af62-b388500b9fc0"},"vehicle_type_id":"4","last_reported":1774653711,"current_range_meters":4000,"station_id":"ce4bhh92rcd13ifvqfj0","pricing_plan_id":"cebpf4jnsgd1na2vs0mg"},{"bike_id":"b6e8f2fa-fae4-4140-af91-d0651531ab91","system_id":"levelo_inurba_marseille","lat":43.22568,"lon":5.41614,"is_reserved":false,"is_disabled":false,"rental_uris":{"android":"levelo://app?vid=b6e8f2fa-fae4-4140-af91-d0651531ab91","ios":"levelo://app?vid=b6e8f2fa-fae4-4140-af91-d0651531ab91"},"vehicle_type_id":"4","last_reported":1774653711,"current_range_meters":4400,"station_id":"st_d2o4gvlbi1j2169b742g","pricing_plan_id":"cebpf4jnsgd1na2vs0mg"},{"bike_id":"bfd7cb66-3073-4920-8151-129c410ea860","system_id":"levelo_inurba_marseille","lat":43.33544,"lon":5.3747,"is_reserved":false,"is_disabled":false,"rental_uris":{"android":"levelo://app?vid=bfd7cb66-3073-4920-8151-129c410ea860","ios":"levelo://app?vid=bfd7cb66-3073-4920-8151-129c410ea860"},"vehicle_type_id":"4","last_reported":1774653711,"current_range_meters":4400,"station_id":"st_d46tts09ee8s73dlu43g","pricing_plan_id":"cebpf4jnsgd1na2vs0mg"},{"bike_id":"90f7d4f2-6fe5-4eb5-96f2-e94a95c790d9","system_id":"levelo_inurba_marseille","lat":43.31379,"lon":5.38486,"is_reserved":false,"is_disabled":false,"rental_uris":{"android":"levelo://app?vid=90f7d4f2-6fe5-4eb5-96f2-e94a95c790d9","ios":"levelo://app?vid=90f7d4f2-6fe5-4eb5-96f2-e94a95c790d9"},"vehicle_type_id":"4","last_reported":1774653711,"current_range_meters":4400,"station_id":"ce4bgt92rcd13ifvqcf0","pricing_plan_id":"cebpf4jnsgd1na2vs0mg"},{"bike_id":"19488896-6834-47f6-be9b-c7e289cb4f1c","system_id":"levelo_inurba_marseille","lat":43.33534,"lon":5.37473,"is_reserved":false,"is_disabled":false,"rental_uris":{"android":"levelo://app?vid=19488896-6834-47f6-be9b-c7e289cb4f1c","ios":"levelo://app?vid=19488896-6834-47f6-be9b-c7e289cb4f1c"},"vehicle_type_id":"4","last_reported":1774653711,"current_range_meters":4400,"station_id":"st_d46tts09ee8s73dlu43g","pricing_plan_id":"cebpf4jnsgd1na2vs0mg"},{"bike_id":"1adad637-1908-4174-a787-2e8567faf86a","system_id":"levelo_inurba_marseille","lat":43.29876,"lon":5.39733,"is_reserved":false,"is_disabled":false,"rental_uris":{"android":"levelo://app?vid=1adad637-1908-4174-a787-2e8567faf86a","ios":"levelo://app?vid=1adad637-1908-4174-a787-2e8567faf86a"},"vehicle_type_id":"4","last_reported":1774653711,"current_range_meters":4400,"station_id":"ce4bh0h2rcd13ifvqd50","pricing_plan_id":"cebpf4jnsgd1na2vs0mg"},{"bike_id":"ff8ae3a2-ed57-4605-b3a1-3210cf1f9700","system_id":"levelo_inurba_marseille","lat":43.30012,"lon":5.36832,"is_reserved":false,"is_disabled":false,"rental_uris":{"android":"levelo://app?vid=ff8ae3a2-ed57-4605-b3a1-3210cf1f9700","ios":"levelo://app?vid=ff8ae3a2-ed57-4605-b3a1-3210cf1f9700"},"vehicle_type_id":"4","last_reported":1774653711,"current_range_meters":4400,"station_id":"","pricing_plan_id":"cebpf4jnsgd1na2vs0mg"},{"bike_id":"7ea8f1f2-125e-42dd-953c-158217317120","system_id":"levelo_inurba_marseille","lat":43.30809,"lon":5.38169,"is_reserved":false,"is_disabled":false,"rental_uris":{"android":"levelo://app?vid=7ea8f1f2-125e-42dd-953c-158217317120","ios":"levelo://app?vid=7ea8f1f2-125e-42dd-953c-158217317120"},"vehicle_type_id":"4","last_reported":1774653711,"current_range_meters":4400,"station_id":"ce4bgt12rcd13ifvqce0","pricing_plan_id":"cebpf4jnsgd1na2vs0mg"},{"bike_id":"2457fc1b-679d-4a71-90e9-ad408ab6ed9d","system_id":"levelo_inurba_marseille","lat":43.33381,"lon":5.38004,"is_reserved":false,"is_disabled":false,"rental_uris":{"android":"levelo://app?vid=2457fc1b-679d-4a71-90e9-ad408ab6ed9d","ios":"levelo://app?vid=2457fc1b-679d-4a71-90e9-ad408ab6ed9d"},"vehicle_type_id":"4","last_reported":1774653711,"current_range_meters":4800,"station_id":"","pricing_plan_id":"cebpf4jnsgd1na2vs0mg"},{"bike_id":"02c9173a-1cf1-433f-9d8a-bb3a1bbf12b0","system_id":"levelo_inurba_marseille","lat":43.29536,"lon":5.38545,"is_reserved":false,"is_disabled":false,"rental_uris":{"android":"levelo://app?vid=02c9173a-1cf1-433f-9d8a-bb3a1bbf12b0","ios":"levelo://app?vid=02c9173a-1cf1-433f-9d8a-bb3a1bbf12b0"},"vehicle_type_id":"4","last_reported":1774653711,"current_range_meters":4800,"station_id":"ce4bgih2rcd13ifvqba0","pricing_plan_id":"cebpf4jnsgd1na2vs0mg"},{"bike_id":"23be74d2-ce83-46ca-84ff-255c94fa9235","system_id":"levelo_inurba_marseille","lat":43.29688,"lon":5.36705,"is_reserved":false,"is_disabled":false,"rental_uris":{"android":"levelo://app?vid=23be74d2-ce83-46ca-84ff-255c94fa9235","ios":"levelo://app?vid=23be74d2-ce83-46ca-84ff-255c94fa9235"},"vehicle_type_id":"4","last_reported":1774653711,"current_range_meters":4800,"station_id":"","pricing_plan_id":"cebpf4jnsgd1na2vs0mg"},{"bike_id":"a2dc3a3f-4e0d-496d-b246-5d2073e3cd10","system_id":"levelo_inurba_marseille","lat":43.23773,"lon":5.36631,"is_reserved":false,"is_disabled":false,"rental_uris":{"android":"levelo://app?vid=a2dc3a3f-4e0d-496d-b246-5d2073e3cd10","ios":"levelo://app?vid=a2dc3a3f-4e0d-496d-b246-5d2073e3cd10"},"vehicle_type_id":"4","last_reported":1774653711,"current_range_meters":4800,"station_id":"st_d3nk18o9ro0c73en2l3g","pricing_plan_id":"cebpf4jnsgd1na2vs0mg"},{"bike_id":"2555a893-6a3e-4c23-8e6c-9c60bcd40259","system_id":"levelo_inurba_marseille","lat":43.2985,"lon":5.3628,"is_reserved":false,"is_disabled":false,"rental_uris":{"android":"levelo://app?vid=2555a893-6a3e-4c23-8e6c-9c60bcd40259","ios":"levelo://app?vid=2555a893-6a3e-4c23-8e6c-9c60bcd40259"},"vehicle_type_id":"4","last_reported":1774653711,"current_range_meters":4800,"station_id":"ce4bgpp2rcd13ifvqc3g","pricing_plan_id":"cebpf4jnsgd1na2vs0mg"},{"bike_id":"ac130e88-9e2f-4bea-b0d7-97afed67ab83","system_id":"levelo_inurba_marseille","lat":43.32349,"lon":5.36746,"is_reserved":false,"is_disabled":false,"rental_uris":{"android":"levelo://app?vid=ac130e88-9e2f-4bea-b0d7-97afed67ab83","ios":"levelo://app?vid=ac130e88-9e2f-4bea-b0d7-97afed67ab83"},"vehicle_type_id":"4","last_reported":1774653711,"current_range_meters":4800,"station_id":"ce4bhsh2rcd13ifvqi2g","pricing_plan_id":"cebpf4jnsgd1na2vs0mg"},{"bike_id":"d8fd56be-d07f-4686-ae37-29486016c6f4","system_id":"levelo_inurba_marseille","lat":43.28463,"lon":5.35877,"is_reserved":false,"is_disabled":false,"rental_uris":{"android":"levelo://app?vid=d8fd56be-d07f-4686-ae37-29486016c6f4","ios":"levelo://app?vid=d8fd56be-d07f-4686-ae37-29486016c6f4"},"vehicle_type_id":"4","last_reported":1774653711,"current_range_meters":4800,"station_id":"ce4bhah2rcd13ifvqei0","pricing_plan_id":"cebpf4jnsgd1na2vs0mg"},{"bike_id":"8398ca6b-8834-4b7b-bb8a-825d41a1101d","system_id":"levelo_inurba_marseille","lat":43.30661,"lon":5.40052,"is_reserved":false,"is_disabled":false,"rental_uris":{"android":"levelo://app?vid=8398ca6b-8834-4b7b-bb8a-825d41a1101d","ios":"levelo://app?vid=8398ca6b-8834-4b7b-bb8a-825d41a1101d"},"vehicle_type_id":"4","last_reported":1774653711,"current_range_meters":4800,"station_id":"ce4bh112rcd13ifvqda0","pricing_plan_id":"cebpf4jnsgd1na2vs0mg"},{"bike_id":"b38373c4-334e-43c0-8346-e67621fa9685","system_id":"levelo_inurba_marseille","lat":43.21177,"lon":5.35057,"is_reserved":false,"is_disabled":false,"rental_uris":{"android":"levelo://app?vid=b38373c4-334e-43c0-8346-e67621fa9685","ios":"levelo://app?vid=b38373c4-334e-43c0-8346-e67621fa9685"},"vehicle_type_id":"4","last_reported":1774653711,"current_range_meters":4800,"station_id":"st_cvj6sg6p6f1abm77japg","pricing_plan_id":"cebpf4jnsgd1na2vs0mg"},{"bike_id":"ed9b8903-fd7a-4bcd-a2f1-b692211d5c75","system_id":"levelo_inurba_marseille","lat":43.29816,"lon":5.44068,"is_reserved":false,"is_disabled":false,"rental_uris":{"android":"levelo://app?vid=ed9b8903-fd7a-4bcd-a2f1-b692211d5c75","ios":"levelo://app?vid=ed9b8903-fd7a-4bcd-a2f1-b692211d5c75"},"vehicle_type_id":"4","last_reported":1774653711,"current_range_meters":4800,"station_id":"st_d3jp68qikq2c7381ktn0","pricing_plan_id":"cebpf4jnsgd1na2vs0mg"},{"bike_id":"191527cf-a1b6-4389-818c-27fca759ee34","system_id":"levelo_inurba_marseille","lat":43.30583,"lon":5.424885,"is_reserved":false,"is_disabled":false,"rental_uris":{"android":"levelo://app?vid=191527cf-a1b6-4389-818c-27fca759ee34","ios":"levelo://app?vid=191527cf-a1b6-4389-818c-27fca759ee34"},"vehicle_type_id":"4","last_reported":1774653711,"current_range_meters":4800,"station_id":"st_cvj6ca6bvosntc0bfgr0","pricing_plan_id":"cebpf4jnsgd1na2vs0mg"},{"bike_id":"cd347054-1cce-44e8-82d6-3f596a109d56","system_id":"levelo_inurba_marseille","lat":43.27206,"lon":5.39191,"is_reserved":false,"is_disabled":false,"rental_uris":{"android":"levelo://app?vid=cd347054-1cce-44e8-82d6-3f596a109d56","ios":"levelo://app?vid=cd347054-1cce-44e8-82d6-3f596a109d56"},"vehicle_type_id":"4","last_reported":1774653711,"current_range_meters":4800,"station_id":"ce4bhhp2rcd13ifvqfm0","pricing_plan_id":"cebpf4jnsgd1na2vs0mg"},{"bike_id":"a8d11488-67ea-4224-a78d-f94774516fb0","system_id":"levelo_inurba_marseille","lat":43.2869,"lon":5.39968,"is_reserved":false,"is_disabled":false,"rental_uris":{"android":"levelo://app?vid=a8d11488-67ea-4224-a78d-f94774516fb0","ios":"levelo://app?vid=a8d11488-67ea-4224-a78d-f94774516fb0"},"vehicle_type_id":"4","last_reported":1774653711,"current_range_meters":5600,"station_id":"ce4bho92rcd13ifvqh3g","pricing_plan_id":"cebpf4jnsgd1na2vs0mg"},{"bike_id":"91bd31f2-be9b-436a-b78a-8cf5541031ec","system_id":"levelo_inurba_marseille","lat":43.33764,"lon":5.37482,"is_reserved":false,"is_disabled":false,"rental_uris":{"android":"levelo://app?vid=91bd31f2-be9b-436a-b78a-8cf5541031ec","ios":"levelo://app?vid=91bd31f2-be9b-436a-b78a-8cf5541031ec"},"vehicle_type_id":"4","last_reported":1774653711,"current_range_meters":5600,"station_id":"","pricing_plan_id":"cebpf4jnsgd1na2vs0mg"},{"bike_id":"e9dc9846-a1fb-4f3a-a8d5-dbd68cc5808d","system_id":"levelo_inurba_marseille","lat":43.30838,"lon":5.39979,"is_reserved":false,"is_disabled":false,"rental_uris":{"android":"levelo://app?vid=e9dc9846-a1fb-4f3a-a8d5-dbd68cc5808d","ios":"levelo://app?vid=e9dc9846-a1fb-4f3a-a8d5-dbd68cc5808d"},"vehicle_type_id":"4","last_reported":1774653711,"current_range_meters":5600,"station_id":"","pricing_plan_id":"cebpf4jnsgd1na2vs0mg"},{"bike_id":"f7d3ee9e-b897-4e04-8889-90fe2281df5c","system_id":"levelo_inurba_marseille","lat":43.30329,"lon":5.40437,"is_reserved":false,"is_disabled":false,"rental_uris":{"android":"levelo://app?vid=f7d3ee9e-b897-4e04-8889-90fe2281df5c","ios":"levelo://app?vid=f7d3ee9e-b897-4e04-8889-90fe2281df5c"},"vehicle_type_id":"4","last_reported":1774653711,"current_range_meters":5600,"station_id":"ce4bh012rcd13ifvqd10","pricing_plan_id":"cebpf4jnsgd1na2vs0mg"},{"bike_id":"4402d669-42b4-42dc-9f19-b38fb47f9383","system_id":"levelo_inurba_marseille","lat":43.309531,"lon":5.390287,"is_reserved":false,"is_disabled":false,"rental_uris":{"android":"levelo://app?vid=4402d669-42b4-42dc-9f19-b38fb47f9383","ios":"levelo://app?vid=4402d669-42b4-42dc-9f19-b38fb47f9383"},"vehicle_type_id":"4","last_reported":1774653711,"current_range_meters":5600,"station_id":"","pricing_plan_id":"cebpf4jnsgd1na2vs0mg"},{"bike_id":"41215aec-5f35-41c4-8875-01313ebb4475","system_id":"levelo_inurba_marseille","lat":43.28884,"lon":5.43769,"is_reserved":false,"is_disabled":false,"rental_uris":{"android":"levelo://app?vid=41215aec-5f35-41c4-8875-01313ebb4475","ios":"levelo://app?vid=41215aec-5f35-41c4-8875-01313ebb4475"},"vehicle_type_id":"4","last_reported":1774653711,"current_range_meters":5600,"station_id":"","pricing_plan_id":"cebpf4jnsgd1na2vs0mg"},{"bike_id":"20ba71e0-3d55-4d07-b402-43fab81f2269","system_id":"levelo_inurba_marseille","lat":43.30736,"lon":5.36832,"is_reserved":false,"is_disabled":false,"rental_uris":{"android":"levelo://app?vid=20ba71e0-3d55-4d07-b402-43fab81f2269","ios":"levelo://app?vid=20ba71e0-3d55-4d07-b402-43fab81f2269"},"vehicle_type_id":"4","last_reported":1774653711,"current_range_meters":5600,"station_id":"ce4bgn92rcd13ifvqbvg","pricing_plan_id":"cebpf4jnsgd1na2vs0mg"},{"bike_id":"80db360c-7472-4e5e-a72d-ff0ab9900c5d","system_id":"levelo_inurba_marseille","lat":43.29201,"lon":5.42611,"is_reserved":false,"is_disabled":false,"rental_uris":{"android":"levelo://app?vid=80db360c-7472-4e5e-a72d-ff0ab9900c5d","ios":"levelo://app?vid=80db360c-7472-4e5e-a72d-ff0ab9900c5d"},"vehicle_type_id":"4","last_reported":1774653711,"current_range_meters":5600,"station_id":"","pricing_plan_id":"cebpf4jnsgd1na2vs0mg"},{"bike_id":"69d97792-bca8-45a3-897f-1516594769da","system_id":"levelo_inurba_marseille","lat":43.3033,"lon":5.40434,"is_reserved":false,"is_disabled":false,"rental_uris":{"android":"levelo://app?vid=69d97792-bca8-45a3-897f-1516594769da","ios":"levelo://app?vid=69d97792-bca8-45a3-897f-1516594769da"},"vehicle_type_id":"4","last_reported":1774653711,"current_range_meters":5600,"station_id":"ce4bh012rcd13ifvqd10","pricing_plan_id":"cebpf4jnsgd1na2vs0mg"},{"bike_id":"3b012a64-b985-4c6d-8edf-00a5a52c92fb","system_id":"levelo_inurba_marseille","lat":43.24162,"lon":5.36393,"is_reserved":false,"is_disabled":false,"rental_uris":{"android":"levelo://app?vid=3b012a64-b985-4c6d-8edf-00a5a52c92fb","ios":"levelo://app?vid=3b012a64-b985-4c6d-8edf-00a5a52c92fb"},"vehicle_type_id":"4","last_reported":1774653711,"current_range_meters":6000,"station_id":"cpo36qri1sfpv3e86is0","pricing_plan_id":"cebpf4jnsgd1na2vs0mg"},{"bike_id":"2168fd10-874c-476f-97d1-11a52fc14733","system_id":"levelo_inurba_marseille","lat":43.27908,"lon":5.38013,"is_reserved":false,"is_disabled":false,"rental_uris":{"android":"levelo://app?vid=2168fd10-874c-476f-97d1-11a52fc14733","ios":"levelo://app?vid=2168fd10-874c-476f-97d1-11a52fc14733"},"vehicle_type_id":"4","last_reported":1774653711,"current_range_meters":6000,"station_id":"ce4bhf92rcd13ifvqf50","pricing_plan_id":"cebpf4jnsgd1na2vs0mg"},{"bike_id":"057e86f1-0eb5-4bdd-a301-8874b457906a","system_id":"levelo_inurba_marseille","lat":43.28688,"lon":5.38662,"is_reserved":false,"is_disabled":false,"rental_uris":{"android":"levelo://app?vid=057e86f1-0eb5-4bdd-a301-8874b457906a","ios":"levelo://app?vid=057e86f1-0eb5-4bdd-a301-8874b457906a"},"vehicle_type_id":"4","last_reported":1774653711,"current_range_meters":6000,"station_id":"ce4bh492rcd13ifvqdug","pricing_plan_id":"cebpf4jnsgd1na2vs0mg"},{"bike_id":"ed1c38d6-1fc8-495a-8905-02d589ca57a4","system_id":"levelo_inurba_marseille","lat":43.28104,"lon":5.37846,"is_reserved":false,"is_disabled":false,"rental_uris":{"android":"levelo://app?vid=ed1c38d6-1fc8-495a-8905-02d589ca57a4","ios":"levelo://app?vid=ed1c38d6-1fc8-495a-8905-02d589ca57a4"},"vehicle_type_id":"4","last_reported":1774653711,"current_range_meters":6000,"station_id":"ce4bha12rcd13ifvqee0","pricing_plan_id":"cebpf4jnsgd1na2vs0mg"},{"bike_id":"ae758492-79f2-476f-b0b6-5b6613e02dd5","system_id":"levelo_inurba_marseille","lat":43.21194,"lon":5.3507,"is_reserved":false,"is_disabled":false,"rental_uris":{"android":"levelo://app?vid=ae758492-79f2-476f-b0b6-5b6613e02dd5","ios":"levelo://app?vid=ae758492-79f2-476f-b0b6-5b6613e02dd5"},"vehicle_type_id":"4","last_reported":1774653711,"current_range_meters":6000,"station_id":"st_cvj6sg6p6f1abm77japg","pricing_plan_id":"cebpf4jnsgd1na2vs0mg"},{"bike_id":"33c4c740-db80-485d-9c0e-f3083e547def","system_id":"levelo_inurba_marseille","lat":43.22531,"lon":5.41581,"is_reserved":false,"is_disabled":false,"rental_uris":{"android":"levelo://app?vid=33c4c740-db80-485d-9c0e-f3083e547def","ios":"levelo://app?vid=33c4c740-db80-485d-9c0e-f3083e547def"},"vehicle_type_id":"4","last_reported":1774653711,"current_range_meters":6000,"station_id":"st_d2o4gvlbi1j2169b742g","pricing_plan_id":"cebpf4jnsgd1na2vs0mg"},{"bike_id":"ac3b6943-e98f-4439-bd7d-1c4f508b6393","system_id":"levelo_inurba_marseille","lat":43.27908,"lon":5.39581,"is_reserved":false,"is_disabled":false,"rental_uris":{"android":"levelo://app?vid=ac3b6943-e98f-4439-bd7d-1c4f508b6393","ios":"levelo://app?vid=ac3b6943-e98f-4439-bd7d-1c4f508b6393"},"vehicle_type_id":"4","last_reported":1774653711,"current_range_meters":6000,"station_id":"ce4bhf92rcd13ifvqf40","pricing_plan_id":"cebpf4jnsgd1na2vs0mg"},{"bike_id":"fa372a24-fd55-41a9-a5b8-f02db8793b0c","system_id":"levelo_inurba_marseille","lat":43.31194,"lon":5.38723,"is_reserved":false,"is_disabled":false,"rental_uris":{"android":"levelo://app?vid=fa372a24-fd55-41a9-a5b8-f02db8793b0c","ios":"levelo://app?vid=fa372a24-fd55-41a9-a5b8-f02db8793b0c"},"vehicle_type_id":"4","last_reported":1774653711,"current_range_meters":6000,"station_id":"ce4bgv12rcd13ifvqcp0","pricing_plan_id":"cebpf4jnsgd1na2vs0mg"},{"bike_id":"7577d704-4358-4b6d-bf28-c0c3843fa2c6","system_id":"levelo_inurba_marseille","lat":43.24645,"lon":5.3816,"is_reserved":false,"is_disabled":false,"rental_uris":{"android":"levelo://app?vid=7577d704-4358-4b6d-bf28-c0c3843fa2c6","ios":"levelo://app?vid=7577d704-4358-4b6d-bf28-c0c3843fa2c6"},"vehicle_type_id":"4","last_reported":1774653711,"current_range_meters":6000,"station_id":"ce4bhih2rcd13ifvqfr0","pricing_plan_id":"cebpf4jnsgd1na2vs0mg"},{"bike_id":"5932235d-cbff-495e-b5b6-d51c9d64b5a1","system_id":"levelo_inurba_marseille","lat":43.28836,"lon":5.35853,"is_reserved":false,"is_disabled":false,"rental_uris":{"android":"levelo://app?vid=5932235d-cbff-495e-b5b6-d51c9d64b5a1","ios":"levelo://app?vid=5932235d-cbff-495e-b5b6-d51c9d64b5a1"},"vehicle_type_id":"4","last_reported":1774653711,"current_range_meters":6000,"station_id":"ce4bhb12rcd13ifvqem0","pricing_plan_id":"cebpf4jnsgd1na2vs0mg"},{"bike_id":"d6d88029-64b8-4411-919c-483ad9a8dd34","system_id":"levelo_inurba_marseille","lat":43.21257,"lon":5.35087,"is_reserved":false,"is_disabled":false,"rental_uris":{"android":"levelo://app?vid=d6d88029-64b8-4411-919c-483ad9a8dd34","ios":"levelo://app?vid=d6d88029-64b8-4411-919c-483ad9a8dd34"},"vehicle_type_id":"4","last_reported":1774653711,"current_range_meters":6400,"station_id":"","pricing_plan_id":"cebpf4jnsgd1na2vs0mg"},{"bike_id":"4d2c428a-06db-49bc-a222-2cbc52db76c0","system_id":"levelo_inurba_marseille","lat":43.24196,"lon":5.39729,"is_reserved":false,"is_disabled":false,"rental_uris":{"android":"levelo://app?vid=4d2c428a-06db-49bc-a222-2cbc52db76c0","ios":"levelo://app?vid=4d2c428a-06db-49bc-a222-2cbc52db76c0"},"vehicle_type_id":"4","last_reported":1774653711,"current_range_meters":6400,"station_id":"ce4bhn12rcd13ifvqgpg","pricing_plan_id":"cebpf4jnsgd1na2vs0mg"},{"bike_id":"17d73893-b959-49b0-bcd9-9313e364dabf","system_id":"levelo_inurba_marseille","lat":43.28358,"lon":5.38104,"is_reserved":false,"is_disabled":false,"rental_uris":{"android":"levelo://app?vid=17d73893-b959-49b0-bcd9-9313e364dabf","ios":"levelo://app?vid=17d73893-b959-49b0-bcd9-9313e364dabf"},"vehicle_type_id":"4","last_reported":1774653711,"current_range_meters":6400,"station_id":"ce4bh412rcd13ifvqdr0","pricing_plan_id":"cebpf4jnsgd1na2vs0mg"},{"bike_id":"840fa7f8-f73c-4869-b10d-0c4cf0e4042b","system_id":"levelo_inurba_marseille","lat":43.29015,"lon":5.38141,"is_reserved":false,"is_disabled":false,"rental_uris":{"android":"levelo://app?vid=840fa7f8-f73c-4869-b10d-0c4cf0e4042b","ios":"levelo://app?vid=840fa7f8-f73c-4869-b10d-0c4cf0e4042b"},"vehicle_type_id":"4","last_reported":1774653711,"current_range_meters":6400,"station_id":"ce4bh4p2rcd13ifvqe1g","pricing_plan_id":"cebpf4jnsgd1na2vs0mg"},{"bike_id":"8f4dc9a3-d66b-4a9c-993d-ff57f54adf36","system_id":"levelo_inurba_marseille","lat":43.28921,"lon":5.38386,"is_reserved":false,"is_disabled":false,"rental_uris":{"android":"levelo://app?vid=8f4dc9a3-d66b-4a9c-993d-ff57f54adf36","ios":"levelo://app?vid=8f4dc9a3-d66b-4a9c-993d-ff57f54adf36"},"vehicle_type_id":"4","last_reported":1774653711,"current_range_meters":6400,"station_id":"ce4bh612rcd13ifvqe6g","pricing_plan_id":"cebpf4jnsgd1na2vs0mg"},{"bike_id":"2be154c8-07c5-4efd-b699-88ca30c66e21","system_id":"levelo_inurba_marseille","lat":43.23788,"lon":5.36614,"is_reserved":false,"is_disabled":false,"rental_uris":{"android":"levelo://app?vid=2be154c8-07c5-4efd-b699-88ca30c66e21","ios":"levelo://app?vid=2be154c8-07c5-4efd-b699-88ca30c66e21"},"vehicle_type_id":"4","last_reported":1774653711,"current_range_meters":6400,"station_id":"st_d3nk18o9ro0c73en2l3g","pricing_plan_id":"cebpf4jnsgd1na2vs0mg"},{"bike_id":"458e1c48-7d3d-4d80-92bd-ab71f6e61068","system_id":"levelo_inurba_marseille","lat":43.26672,"lon":5.38265,"is_reserved":false,"is_disabled":false,"rental_uris":{"android":"levelo://app?vid=458e1c48-7d3d-4d80-92bd-ab71f6e61068","ios":"levelo://app?vid=458e1c48-7d3d-4d80-92bd-ab71f6e61068"},"vehicle_type_id":"4","last_reported":1774653711,"current_range_meters":6400,"station_id":"ce4bhg92rcd13ifvqf90","pricing_plan_id":"cebpf4jnsgd1na2vs0mg"},{"bike_id":"3a7a5274-52da-4834-9314-923d3e961efc","system_id":"levelo_inurba_marseille","lat":43.30544,"lon":5.38418,"is_reserved":false,"is_disabled":false,"rental_uris":{"android":"levelo://app?vid=3a7a5274-52da-4834-9314-923d3e961efc","ios":"levelo://app?vid=3a7a5274-52da-4834-9314-923d3e961efc"},"vehicle_type_id":"4","last_reported":1774653711,"current_range_meters":6400,"station_id":"ce4bgg92rcd13ifvqb30","pricing_plan_id":"cebpf4jnsgd1na2vs0mg"},{"bike_id":"299c1db8-8b1c-4e76-8016-cf4f1472636c","system_id":"levelo_inurba_marseille","lat":43.30935,"lon":5.39977,"is_reserved":false,"is_disabled":false,"rental_uris":{"android":"levelo://app?vid=299c1db8-8b1c-4e76-8016-cf4f1472636c","ios":"levelo://app?vid=299c1db8-8b1c-4e76-8016-cf4f1472636c"},"vehicle_type_id":"4","last_reported":1774653711,"current_range_meters":6400,"station_id":"","pricing_plan_id":"cebpf4jnsgd1na2vs0mg"},{"bike_id":"361bff30-6f65-4179-8930-4ff3d21333ec","system_id":"levelo_inurba_marseille","lat":43.27177,"lon":5.40989,"is_reserved":false,"is_disabled":false,"rental_uris":{"android":"levelo://app?vid=361bff30-6f65-4179-8930-4ff3d21333ec","ios":"levelo://app?vid=361bff30-6f65-4179-8930-4ff3d21333ec"},"vehicle_type_id":"4","last_reported":1774653711,"current_range_meters":6800,"station_id":"ce4bhl12rcd13ifvqgf0","pricing_plan_id":"cebpf4jnsgd1na2vs0mg"},{"bike_id":"687f743b-96ab-4b3e-8fbd-b7a59036f888","system_id":"levelo_inurba_marseille","lat":43.28707,"lon":5.46691,"is_reserved":false,"is_disabled":false,"rental_uris":{"android":"levelo://app?vid=687f743b-96ab-4b3e-8fbd-b7a59036f888","ios":"levelo://app?vid=687f743b-96ab-4b3e-8fbd-b7a59036f888"},"vehicle_type_id":"4","last_reported":1774653711,"current_range_meters":6800,"station_id":"st_d6tc3vkotcvc738tfjhg","pricing_plan_id":"cebpf4jnsgd1na2vs0mg"},{"bike_id":"18a91529-06e5-4b51-b178-940cb96e7217","system_id":"levelo_inurba_marseille","lat":43.238,"lon":5.36632,"is_reserved":false,"is_disabled":false,"rental_uris":{"android":"levelo://app?vid=18a91529-06e5-4b51-b178-940cb96e7217","ios":"levelo://app?vid=18a91529-06e5-4b51-b178-940cb96e7217"},"vehicle_type_id":"4","last_reported":1774653711,"current_range_meters":6800,"station_id":"st_d3nk18o9ro0c73en2l3g","pricing_plan_id":"cebpf4jnsgd1na2vs0mg"},{"bike_id":"94715b80-3e33-415f-9eed-f07a3176da16","system_id":"levelo_inurba_marseille","lat":43.28665,"lon":5.35077,"is_reserved":false,"is_disabled":false,"rental_uris":{"android":"levelo://app?vid=94715b80-3e33-415f-9eed-f07a3176da16","ios":"levelo://app?vid=94715b80-3e33-415f-9eed-f07a3176da16"},"vehicle_type_id":"4","last_reported":1774653711,"current_range_meters":6800,"station_id":"","pricing_plan_id":"cebpf4jnsgd1na2vs0mg"},{"bike_id":"ee67d274-4fbd-4321-906c-22d4e8f3bac5","system_id":"levelo_inurba_marseille","lat":43.32515,"lon":5.36522,"is_reserved":false,"is_disabled":false,"rental_uris":{"android":"levelo://app?vid=ee67d274-4fbd-4321-906c-22d4e8f3bac5","ios":"levelo://app?vid=ee67d274-4fbd-4321-906c-22d4e8f3bac5"},"vehicle_type_id":"4","last_reported":1774653711,"current_range_meters":6800,"station_id":"","pricing_plan_id":"cebpf4jnsgd1na2vs0mg"},{"bike_id":"6eabe795-7b91-4368-ada9-bf2b6d212386","system_id":"levelo_inurba_marseille","lat":43.29933,"lon":5.36546,"is_reserved":false,"is_disabled":false,"rental_uris":{"android":"levelo://app?vid=6eabe795-7b91-4368-ada9-bf2b6d212386","ios":"levelo://app?vid=6eabe795-7b91-4368-ada9-bf2b6d212386"},"vehicle_type_id":"4","last_reported":1774653711,"current_range_meters":6800,"station_id":"ce4bgm92rcd13ifvqbr0","pricing_plan_id":"cebpf4jnsgd1na2vs0mg"},{"bike_id":"e4b97950-5826-475e-8558-d2e5bcc219f8","system_id":"levelo_inurba_marseille","lat":43.29792,"lon":5.36531,"is_reserved":false,"is_disabled":false,"rental_uris":{"android":"levelo://app?vid=e4b97950-5826-475e-8558-d2e5bcc219f8","ios":"levelo://app?vid=e4b97950-5826-475e-8558-d2e5bcc219f8"},"vehicle_type_id":"4","last_reported":1774653711,"current_range_meters":6800,"station_id":"","pricing_plan_id":"cebpf4jnsgd1na2vs0mg"},{"bike_id":"69cff9de-0f9a-491a-a171-3a100c70d5b8","system_id":"levelo_inurba_marseille","lat":43.29908,"lon":5.3814,"is_reserved":false,"is_disabled":false,"rental_uris":{"android":"levelo://app?vid=69cff9de-0f9a-491a-a171-3a100c70d5b8","ios":"levelo://app?vid=69cff9de-0f9a-491a-a171-3a100c70d5b8"},"vehicle_type_id":"4","last_reported":1774653711,"current_range_meters":6800,"station_id":"ce4bgj12rcd13ifvqbc0","pricing_plan_id":"cebpf4jnsgd1na2vs0mg"},{"bike_id":"8a927669-3c1a-4573-98bd-585f9b534d2d","system_id":"levelo_inurba_marseille","lat":43.2446,"lon":5.42536,"is_reserved":false,"is_disabled":false,"rental_uris":{"android":"levelo://app?vid=8a927669-3c1a-4573-98bd-585f9b534d2d","ios":"levelo://app?vid=8a927669-3c1a-4573-98bd-585f9b534d2d"},"vehicle_type_id":"4","last_reported":1774653711,"current_range_meters":6800,"station_id":"st_d4a3vfp97mjs738cd8kg","pricing_plan_id":"cebpf4jnsgd1na2vs0mg"},{"bike_id":"ace30790-d9f4-4362-b049-53b5308efc6b","system_id":"levelo_inurba_marseille","lat":43.32061,"lon":5.38143,"is_reserved":false,"is_disabled":false,"rental_uris":{"android":"levelo://app?vid=ace30790-d9f4-4362-b049-53b5308efc6b","ios":"levelo://app?vid=ace30790-d9f4-4362-b049-53b5308efc6b"},"vehicle_type_id":"4","last_reported":1774653711,"current_range_meters":6800,"station_id":"","pricing_plan_id":"cebpf4jnsgd1na2vs0mg"},{"bike_id":"e369da6f-cf9a-43c1-bdbc-66801ef116da","system_id":"levelo_inurba_marseille","lat":43.28638,"lon":5.35092,"is_reserved":false,"is_disabled":false,"rental_uris":{"android":"levelo://app?vid=e369da6f-cf9a-43c1-bdbc-66801ef116da","ios":"levelo://app?vid=e369da6f-cf9a-43c1-bdbc-66801ef116da"},"vehicle_type_id":"4","last_reported":1774653711,"current_range_meters":6800,"station_id":"ce4bhch2rcd13ifvqeug","pricing_plan_id":"cebpf4jnsgd1na2vs0mg"},{"bike_id":"e628d9e0-46fc-4a83-b8b9-bc1c83645fd3","system_id":"levelo_inurba_marseille","lat":43.31494,"lon":5.37311,"is_reserved":false,"is_disabled":false,"rental_uris":{"android":"levelo://app?vid=e628d9e0-46fc-4a83-b8b9-bc1c83645fd3","ios":"levelo://app?vid=e628d9e0-46fc-4a83-b8b9-bc1c83645fd3"},"vehicle_type_id":"4","last_reported":1774653711,"current_range_meters":6800,"station_id":"ce4bgt12rcd13ifvqcd0","pricing_plan_id":"cebpf4jnsgd1na2vs0mg"},{"bike_id":"ae41cbc6-d358-4357-b3d8-ebb2fb9aaa47","system_id":"levelo_inurba_marseille","lat":43.30685,"lon":5.40059,"is_reserved":false,"is_disabled":false,"rental_uris":{"android":"levelo://app?vid=ae41cbc6-d358-4357-b3d8-ebb2fb9aaa47","ios":"levelo://app?vid=ae41cbc6-d358-4357-b3d8-ebb2fb9aaa47"},"vehicle_type_id":"4","last_reported":1774653711,"current_range_meters":6800,"station_id":"","pricing_plan_id":"cebpf4jnsgd1na2vs0mg"},{"bike_id":"8ffdd7b7-8cff-47bc-91bd-bae3f6fe0153","system_id":"levelo_inurba_marseille","lat":43.28273,"lon":5.35063,"is_reserved":false,"is_disabled":false,"rental_uris":{"android":"levelo://app?vid=8ffdd7b7-8cff-47bc-91bd-bae3f6fe0153","ios":"levelo://app?vid=8ffdd7b7-8cff-47bc-91bd-bae3f6fe0153"},"vehicle_type_id":"4","last_reported":1774653711,"current_range_meters":6800,"station_id":"ce4bhbp2rcd13ifvqerg","pricing_plan_id":"cebpf4jnsgd1na2vs0mg"},{"bike_id":"c660ff5d-69c1-4f2d-9f07-9d322d4df5ec","system_id":"levelo_inurba_marseille","lat":43.31368,"lon":5.38494,"is_reserved":false,"is_disabled":false,"rental_uris":{"android":"levelo://app?vid=c660ff5d-69c1-4f2d-9f07-9d322d4df5ec","ios":"levelo://app?vid=c660ff5d-69c1-4f2d-9f07-9d322d4df5ec"},"vehicle_type_id":"4","last_reported":1774653711,"current_range_meters":6800,"station_id":"ce4bgt92rcd13ifvqcf0","pricing_plan_id":"cebpf4jnsgd1na2vs0mg"},{"bike_id":"27f65587-f91a-41b1-aacf-8da5e702b79e","system_id":"levelo_inurba_marseille","lat":43.29756,"lon":5.42768,"is_reserved":false,"is_disabled":false,"rental_uris":{"android":"levelo://app?vid=27f65587-f91a-41b1-aacf-8da5e702b79e","ios":"levelo://app?vid=27f65587-f91a-41b1-aacf-8da5e702b79e"},"vehicle_type_id":"4","last_reported":1774653711,"current_range_meters":6800,"station_id":"st_d3md5207bmas73dh9klg","pricing_plan_id":"cebpf4jnsgd1na2vs0mg"},{"bike_id":"5969c3f9-bb5c-48df-9b54-f62d28d08c6a","system_id":"levelo_inurba_marseille","lat":43.26067,"lon":5.39373,"is_reserved":false,"is_disabled":false,"rental_uris":{"android":"levelo://app?vid=5969c3f9-bb5c-48df-9b54-f62d28d08c6a","ios":"levelo://app?vid=5969c3f9-bb5c-48df-9b54-f62d28d08c6a"},"vehicle_type_id":"4","last_reported":1774653711,"current_range_meters":6800,"station_id":"ce4bhh92rcd13ifvqfj0","pricing_plan_id":"cebpf4jnsgd1na2vs0mg"},{"bike_id":"46f6803e-5296-48df-aced-7e954eeebc6d","system_id":"levelo_inurba_marseille","lat":43.30137,"lon":5.38788,"is_reserved":false,"is_disabled":false,"rental_uris":{"android":"levelo://app?vid=46f6803e-5296-48df-aced-7e954eeebc6d","ios":"levelo://app?vid=46f6803e-5296-48df-aced-7e954eeebc6d"},"vehicle_type_id":"4","last_reported":1774653711,"current_range_meters":6800,"station_id":"ce4bghh2rcd13ifvqb60","pricing_plan_id":"cebpf4jnsgd1na2vs0mg"},{"bike_id":"b7625c79-0764-431e-a46b-12f2aa718a88","system_id":"levelo_inurba_marseille","lat":43.27069,"lon":5.42277,"is_reserved":false,"is_disabled":false,"rental_uris":{"android":"levelo://app?vid=b7625c79-0764-431e-a46b-12f2aa718a88","ios":"levelo://app?vid=b7625c79-0764-431e-a46b-12f2aa718a88"},"vehicle_type_id":"4","last_reported":1774653711,"current_range_meters":6800,"station_id":"ce4bhk92rcd13ifvqgb0","pricing_plan_id":"cebpf4jnsgd1na2vs0mg"},{"bike_id":"9bc0b937-b0d9-43c5-9555-6ff47bb13b73","system_id":"levelo_inurba_marseille","lat":43.33161,"lon":5.37695,"is_reserved":false,"is_disabled":false,"rental_uris":{"android":"levelo://app?vid=9bc0b937-b0d9-43c5-9555-6ff47bb13b73","ios":"levelo://app?vid=9bc0b937-b0d9-43c5-9555-6ff47bb13b73"},"vehicle_type_id":"4","last_reported":1774653711,"current_range_meters":6800,"station_id":"st_d46cu089ee8s73dldbu0","pricing_plan_id":"cebpf4jnsgd1na2vs0mg"},{"bike_id":"add0eccb-9adc-4a7a-9c4e-4d512b8e5e9d","system_id":"levelo_inurba_marseille","lat":43.24787,"lon":5.37457,"is_reserved":false,"is_disabled":false,"rental_uris":{"android":"levelo://app?vid=add0eccb-9adc-4a7a-9c4e-4d512b8e5e9d","ios":"levelo://app?vid=add0eccb-9adc-4a7a-9c4e-4d512b8e5e9d"},"vehicle_type_id":"4","last_reported":1774653711,"current_range_meters":6800,"station_id":"ce4bhgh2rcd13ifvqfb0","pricing_plan_id":"cebpf4jnsgd1na2vs0mg"},{"bike_id":"29b8f791-7789-4e9b-8e39-c750aefccf04","system_id":"levelo_inurba_marseille","lat":43.23795,"lon":5.36645,"is_reserved":false,"is_disabled":false,"rental_uris":{"android":"levelo://app?vid=29b8f791-7789-4e9b-8e39-c750aefccf04","ios":"levelo://app?vid=29b8f791-7789-4e9b-8e39-c750aefccf04"},"vehicle_type_id":"4","last_reported":1774653711,"current_range_meters":6800,"station_id":"st_d3nk18o9ro0c73en2l3g","pricing_plan_id":"cebpf4jnsgd1na2vs0mg"},{"bike_id":"cdc858bc-c15a-4522-80b1-24c5ddc8bbbf","system_id":"levelo_inurba_marseille","lat":43.30646,"lon":5.40089,"is_reserved":false,"is_disabled":false,"rental_uris":{"android":"levelo://app?vid=cdc858bc-c15a-4522-80b1-24c5ddc8bbbf","ios":"levelo://app?vid=cdc858bc-c15a-4522-80b1-24c5ddc8bbbf"},"vehicle_type_id":"4","last_reported":1774653711,"current_range_meters":6800,"station_id":"ce4bh112rcd13ifvqda0","pricing_plan_id":"cebpf4jnsgd1na2vs0mg"},{"bike_id":"53349f23-1850-48cf-8057-6c978f190eed","system_id":"levelo_inurba_marseille","lat":43.24645,"lon":5.38892,"is_reserved":false,"is_disabled":false,"rental_uris":{"android":"levelo://app?vid=53349f23-1850-48cf-8057-6c978f190eed","ios":"levelo://app?vid=53349f23-1850-48cf-8057-6c978f190eed"},"vehicle_type_id":"4","last_reported":1774653711,"current_range_meters":6800,"station_id":"ce4bhg12rcd13ifvqf60","pricing_plan_id":"cebpf4jnsgd1na2vs0mg"},{"bike_id":"1d7503c3-20ca-4fb6-92d0-5b5a5f6d18ec","system_id":"levelo_inurba_marseille","lat":43.22951,"lon":5.35369,"is_reserved":false,"is_disabled":false,"rental_uris":{"android":"levelo://app?vid=1d7503c3-20ca-4fb6-92d0-5b5a5f6d18ec","ios":"levelo://app?vid=1d7503c3-20ca-4fb6-92d0-5b5a5f6d18ec"},"vehicle_type_id":"4","last_reported":1774653711,"current_range_meters":7200,"station_id":"cpo3532slgdg3j2ikp40","pricing_plan_id":"cebpf4jnsgd1na2vs0mg"},{"bike_id":"a2f555f0-8477-4e2f-8ae4-66fef759dc8e","system_id":"levelo_inurba_marseille","lat":43.29532,"lon":5.38532,"is_reserved":false,"is_disabled":false,"rental_uris":{"android":"levelo://app?vid=a2f555f0-8477-4e2f-8ae4-66fef759dc8e","ios":"levelo://app?vid=a2f555f0-8477-4e2f-8ae4-66fef759dc8e"},"vehicle_type_id":"4","last_reported":1774653711,"current_range_meters":7200,"station_id":"ce4bgih2rcd13ifvqba0","pricing_plan_id":"cebpf4jnsgd1na2vs0mg"},{"bike_id":"3137e3ea-7797-4cae-a237-2a996dd9ad4a","system_id":"levelo_inurba_marseille","lat":43.28478,"lon":5.484,"is_reserved":false,"is_disabled":false,"rental_uris":{"android":"levelo://app?vid=3137e3ea-7797-4cae-a237-2a996dd9ad4a","ios":"levelo://app?vid=3137e3ea-7797-4cae-a237-2a996dd9ad4a"},"vehicle_type_id":"4","last_reported":1774653711,"current_range_meters":7200,"station_id":"","pricing_plan_id":"cebpf4jnsgd1na2vs0mg"},{"bike_id":"6a7fd2aa-a90b-461a-8118-a8f8d903c462","system_id":"levelo_inurba_marseille","lat":43.28497,"lon":5.48408,"is_reserved":false,"is_disabled":false,"rental_uris":{"android":"levelo://app?vid=6a7fd2aa-a90b-461a-8118-a8f8d903c462","ios":"levelo://app?vid=6a7fd2aa-a90b-461a-8118-a8f8d903c462"},"vehicle_type_id":"4","last_reported":1774653711,"current_range_meters":7200,"station_id":"","pricing_plan_id":"cebpf4jnsgd1na2vs0mg"},{"bike_id":"2873a201-01ad-44f0-a3f4-1c2939d32934","system_id":"levelo_inurba_marseille","lat":43.31544,"lon":5.38011,"is_reserved":false,"is_disabled":false,"rental_uris":{"android":"levelo://app?vid=2873a201-01ad-44f0-a3f4-1c2939d32934","ios":"levelo://app?vid=2873a201-01ad-44f0-a3f4-1c2939d32934"},"vehicle_type_id":"4","last_reported":1774653711,"current_range_meters":7200,"station_id":"ce4bhsp2rcd13ifvqi50","pricing_plan_id":"cebpf4jnsgd1na2vs0mg"},{"bike_id":"b836b627-7d6b-4d6a-b7a4-321fcf60833a","system_id":"levelo_inurba_marseille","lat":43.2899,"lon":5.38158,"is_reserved":false,"is_disabled":true,"rental_uris":{"android":"levelo://app?vid=b836b627-7d6b-4d6a-b7a4-321fcf60833a","ios":"levelo://app?vid=b836b627-7d6b-4d6a-b7a4-321fcf60833a"},"vehicle_type_id":"4","last_reported":1774653711,"current_range_meters":7200,"station_id":"ce4bh4p2rcd13ifvqe1g","pricing_plan_id":"cebpf4jnsgd1na2vs0mg"},{"bike_id":"989ce2b3-a034-4c7f-9f61-575993dafa1a","system_id":"levelo_inurba_marseille","lat":43.29291,"lon":5.37151,"is_reserved":false,"is_disabled":false,"rental_uris":{"android":"levelo://app?vid=989ce2b3-a034-4c7f-9f61-575993dafa1a","ios":"levelo://app?vid=989ce2b3-a034-4c7f-9f61-575993dafa1a"},"vehicle_type_id":"4","last_reported":1774653711,"current_range_meters":7200,"station_id":"ce4bgh92rcd13ifvqb40","pricing_plan_id":"cebpf4jnsgd1na2vs0mg"},{"bike_id":"e09635f2-3658-4918-b539-7b49fe18b12f","system_id":"levelo_inurba_marseille","lat":43.2894,"lon":5.3665,"is_reserved":false,"is_disabled":false,"rental_uris":{"android":"levelo://app?vid=e09635f2-3658-4918-b539-7b49fe18b12f","ios":"levelo://app?vid=e09635f2-3658-4918-b539-7b49fe18b12f"},"vehicle_type_id":"4","last_reported":1774653711,"current_range_meters":7200,"station_id":"ce4bhap2rcd13ifvqek0","pricing_plan_id":"cebpf4jnsgd1na2vs0mg"},{"bike_id":"6faf2e98-a430-4842-96a4-4399ed83b405","system_id":"levelo_inurba_marseille","lat":43.26231,"lon":5.40448,"is_reserved":false,"is_disabled":false,"rental_uris":{"android":"levelo://app?vid=6faf2e98-a430-4842-96a4-4399ed83b405","ios":"levelo://app?vid=6faf2e98-a430-4842-96a4-4399ed83b405"},"vehicle_type_id":"4","last_reported":1774653711,"current_range_meters":7200,"station_id":"ce4bhmh2rcd13ifvqgmg","pricing_plan_id":"cebpf4jnsgd1na2vs0mg"},{"bike_id":"626586ec-28e3-4304-9e76-1354fc5b82e3","system_id":"levelo_inurba_marseille","lat":43.29592,"lon":5.38094,"is_reserved":false,"is_disabled":false,"rental_uris":{"android":"levelo://app?vid=626586ec-28e3-4304-9e76-1354fc5b82e3","ios":"levelo://app?vid=626586ec-28e3-4304-9e76-1354fc5b82e3"},"vehicle_type_id":"4","last_reported":1774653711,"current_range_meters":7200,"station_id":"ce4bgl12rcd13ifvqbo0","pricing_plan_id":"cebpf4jnsgd1na2vs0mg"},{"bike_id":"2d0fdc3d-338a-4727-826c-caea44a0cbfa","system_id":"levelo_inurba_marseille","lat":43.29818,"lon":5.44067,"is_reserved":false,"is_disabled":false,"rental_uris":{"android":"levelo://app?vid=2d0fdc3d-338a-4727-826c-caea44a0cbfa","ios":"levelo://app?vid=2d0fdc3d-338a-4727-826c-caea44a0cbfa"},"vehicle_type_id":"4","last_reported":1774653711,"current_range_meters":7200,"station_id":"st_d3jp68qikq2c7381ktn0","pricing_plan_id":"cebpf4jnsgd1na2vs0mg"},{"bike_id":"e444ce47-216c-4011-bdbf-b8da472f76f6","system_id":"levelo_inurba_marseille","lat":43.28949,"lon":5.38397,"is_reserved":false,"is_disabled":false,"rental_uris":{"android":"levelo://app?vid=e444ce47-216c-4011-bdbf-b8da472f76f6","ios":"levelo://app?vid=e444ce47-216c-4011-bdbf-b8da472f76f6"},"vehicle_type_id":"4","last_reported":1774653711,"current_range_meters":7200,"station_id":"ce4bh612rcd13ifvqe6g","pricing_plan_id":"cebpf4jnsgd1na2vs0mg"},{"bike_id":"248e7202-bf14-41af-ab35-7275ee6c4d6f","system_id":"levelo_inurba_marseille","lat":43.23373,"lon":5.41258,"is_reserved":false,"is_disabled":false,"rental_uris":{"android":"levelo://app?vid=248e7202-bf14-41af-ab35-7275ee6c4d6f","ios":"levelo://app?vid=248e7202-bf14-41af-ab35-7275ee6c4d6f"},"vehicle_type_id":"4","last_reported":1774653711,"current_range_meters":7200,"station_id":"","pricing_plan_id":"cebpf4jnsgd1na2vs0mg"},{"bike_id":"d96c824b-3735-4dc5-b0d1-e7ed7c37a40f","system_id":"levelo_inurba_marseille","lat":43.28465,"lon":5.35884,"is_reserved":false,"is_disabled":false,"rental_uris":{"android":"levelo://app?vid=d96c824b-3735-4dc5-b0d1-e7ed7c37a40f","ios":"levelo://app?vid=d96c824b-3735-4dc5-b0d1-e7ed7c37a40f"},"vehicle_type_id":"4","last_reported":1774653711,"current_range_meters":7200,"station_id":"ce4bhah2rcd13ifvqei0","pricing_plan_id":"cebpf4jnsgd1na2vs0mg"},{"bike_id":"78faeff2-3458-4c7c-93e6-a835ce300a53","system_id":"levelo_inurba_marseille","lat":43.25088,"lon":5.39528,"is_reserved":false,"is_disabled":false,"rental_uris":{"android":"levelo://app?vid=78faeff2-3458-4c7c-93e6-a835ce300a53","ios":"levelo://app?vid=78faeff2-3458-4c7c-93e6-a835ce300a53"},"vehicle_type_id":"4","last_reported":1774653711,"current_range_meters":7200,"station_id":"ce4bhm12rcd13ifvqgkg","pricing_plan_id":"cebpf4jnsgd1na2vs0mg"},{"bike_id":"fe839865-1079-4781-8b66-8162bc898e10","system_id":"levelo_inurba_marseille","lat":43.28416,"lon":5.37503,"is_reserved":false,"is_disabled":false,"rental_uris":{"android":"levelo://app?vid=fe839865-1079-4781-8b66-8162bc898e10","ios":"levelo://app?vid=fe839865-1079-4781-8b66-8162bc898e10"},"vehicle_type_id":"4","last_reported":1774653711,"current_range_meters":7200,"station_id":"ce4bh412rcd13ifvqds0","pricing_plan_id":"cebpf4jnsgd1na2vs0mg"},{"bike_id":"44f87e39-e26f-4728-8652-1862807ccc8f","system_id":"levelo_inurba_marseille","lat":43.23898,"lon":5.37449,"is_reserved":false,"is_disabled":false,"rental_uris":{"android":"levelo://app?vid=44f87e39-e26f-4728-8652-1862807ccc8f","ios":"levelo://app?vid=44f87e39-e26f-4728-8652-1862807ccc8f"},"vehicle_type_id":"4","last_reported":1774653711,"current_range_meters":7200,"station_id":"st_d6sm7csbq4hs73f8fpjg","pricing_plan_id":"cebpf4jnsgd1na2vs0mg"},{"bike_id":"2f21b0e4-0bb7-4099-869c-5271759321fb","system_id":"levelo_inurba_marseille","lat":43.29533,"lon":5.38544,"is_reserved":false,"is_disabled":false,"rental_uris":{"android":"levelo://app?vid=2f21b0e4-0bb7-4099-869c-5271759321fb","ios":"levelo://app?vid=2f21b0e4-0bb7-4099-869c-5271759321fb"},"vehicle_type_id":"4","last_reported":1774653711,"current_range_meters":7200,"station_id":"ce4bgih2rcd13ifvqba0","pricing_plan_id":"cebpf4jnsgd1na2vs0mg"},{"bike_id":"b12c43e7-0317-46fc-b125-bd9b38039a95","system_id":"levelo_inurba_marseille","lat":43.28604,"lon":5.37059,"is_reserved":false,"is_disabled":false,"rental_uris":{"android":"levelo://app?vid=b12c43e7-0317-46fc-b125-bd9b38039a95","ios":"levelo://app?vid=b12c43e7-0317-46fc-b125-bd9b38039a95"},"vehicle_type_id":"4","last_reported":1774653711,"current_range_meters":7200,"station_id":"ce4bht12rcd13ifvqi60","pricing_plan_id":"cebpf4jnsgd1na2vs0mg"},{"bike_id":"b9864c72-e2bb-4767-bc5a-9ec99d2f0f89","system_id":"levelo_inurba_marseille","lat":43.28453,"lon":5.39185,"is_reserved":false,"is_disabled":false,"rental_uris":{"android":"levelo://app?vid=b9864c72-e2bb-4767-bc5a-9ec99d2f0f89","ios":"levelo://app?vid=b9864c72-e2bb-4767-bc5a-9ec99d2f0f89"},"vehicle_type_id":"4","last_reported":1774653711,"current_range_meters":7200,"station_id":"ce4bhoh2rcd13ifvqh5g","pricing_plan_id":"cebpf4jnsgd1na2vs0mg"},{"bike_id":"83bb9578-ccdf-4d89-8ebc-4d2a0840499e","system_id":"levelo_inurba_marseille","lat":43.28108,"lon":5.37834,"is_reserved":false,"is_disabled":false,"rental_uris":{"android":"levelo://app?vid=83bb9578-ccdf-4d89-8ebc-4d2a0840499e","ios":"levelo://app?vid=83bb9578-ccdf-4d89-8ebc-4d2a0840499e"},"vehicle_type_id":"4","last_reported":1774653711,"current_range_meters":7200,"station_id":"ce4bha12rcd13ifvqee0","pricing_plan_id":"cebpf4jnsgd1na2vs0mg"},{"bike_id":"a858ea89-34aa-421e-b0a5-1ea8bb4dbce1","system_id":"levelo_inurba_marseille","lat":43.29271,"lon":5.36848,"is_reserved":false,"is_disabled":false,"rental_uris":{"android":"levelo://app?vid=a858ea89-34aa-421e-b0a5-1ea8bb4dbce1","ios":"levelo://app?vid=a858ea89-34aa-421e-b0a5-1ea8bb4dbce1"},"vehicle_type_id":"4","last_reported":1774653711,"current_range_meters":7200,"station_id":"ce4bhbp2rcd13ifvqesg","pricing_plan_id":"cebpf4jnsgd1na2vs0mg"},{"bike_id":"5c23e0f0-3718-460a-acbf-0792e1920dc6","system_id":"levelo_inurba_marseille","lat":43.28426,"lon":5.34986,"is_reserved":false,"is_disabled":false,"rental_uris":{"android":"levelo://app?vid=5c23e0f0-3718-460a-acbf-0792e1920dc6","ios":"levelo://app?vid=5c23e0f0-3718-460a-acbf-0792e1920dc6"},"vehicle_type_id":"4","last_reported":1774653711,"current_range_meters":7200,"station_id":"ce4bhbh2rcd13ifvqepg","pricing_plan_id":"cebpf4jnsgd1na2vs0mg"},{"bike_id":"0de071f4-3c2c-445f-8a90-8c859a51a07b","system_id":"levelo_inurba_marseille","lat":43.31166,"lon":5.38725,"is_reserved":false,"is_disabled":false,"rental_uris":{"android":"levelo://app?vid=0de071f4-3c2c-445f-8a90-8c859a51a07b","ios":"levelo://app?vid=0de071f4-3c2c-445f-8a90-8c859a51a07b"},"vehicle_type_id":"4","last_reported":1774653711,"current_range_meters":7200,"station_id":"ce4bgv12rcd13ifvqcp0","pricing_plan_id":"cebpf4jnsgd1na2vs0mg"},{"bike_id":"6671c61a-045c-4d83-b5a9-69cb797098b8","system_id":"levelo_inurba_marseille","lat":43.34337,"lon":5.35959,"is_reserved":false,"is_disabled":false,"rental_uris":{"android":"levelo://app?vid=6671c61a-045c-4d83-b5a9-69cb797098b8","ios":"levelo://app?vid=6671c61a-045c-4d83-b5a9-69cb797098b8"},"vehicle_type_id":"4","last_reported":1774653711,"current_range_meters":7200,"station_id":"","pricing_plan_id":"cebpf4jnsgd1na2vs0mg"},{"bike_id":"b51d43d0-b538-4b30-b0d5-e5c1be881443","system_id":"levelo_inurba_marseille","lat":43.28717,"lon":5.46674,"is_reserved":false,"is_disabled":false,"rental_uris":{"android":"levelo://app?vid=b51d43d0-b538-4b30-b0d5-e5c1be881443","ios":"levelo://app?vid=b51d43d0-b538-4b30-b0d5-e5c1be881443"},"vehicle_type_id":"4","last_reported":1774653711,"current_range_meters":7200,"station_id":"st_d6tc3vkotcvc738tfjhg","pricing_plan_id":"cebpf4jnsgd1na2vs0mg"},{"bike_id":"aa6eb777-c9be-4964-beb1-ce00e8883a0c","system_id":"levelo_inurba_marseille","lat":43.30869,"lon":5.39584,"is_reserved":false,"is_disabled":true,"rental_uris":{"android":"levelo://app?vid=aa6eb777-c9be-4964-beb1-ce00e8883a0c","ios":"levelo://app?vid=aa6eb777-c9be-4964-beb1-ce00e8883a0c"},"vehicle_type_id":"4","last_reported":1774653711,"current_range_meters":8000,"station_id":"","pricing_plan_id":"cebpf4jnsgd1na2vs0mg"},{"bike_id":"8ea3dde5-31c9-4bbb-8b64-61d835a9d054","system_id":"levelo_inurba_marseille","lat":43.286643,"lon":5.386699,"is_reserved":false,"is_disabled":false,"rental_uris":{"android":"levelo://app?vid=8ea3dde5-31c9-4bbb-8b64-61d835a9d054","ios":"levelo://app?vid=8ea3dde5-31c9-4bbb-8b64-61d835a9d054"},"vehicle_type_id":"4","last_reported":1774653711,"current_range_meters":8000,"station_id":"ce4bh492rcd13ifvqdug","pricing_plan_id":"cebpf4jnsgd1na2vs0mg"},{"bike_id":"8b44b9ba-553c-4a19-bbbe-b5eddb2ee588","system_id":"levelo_inurba_marseille","lat":43.30095,"lon":5.37648,"is_reserved":false,"is_disabled":false,"rental_uris":{"android":"levelo://app?vid=8b44b9ba-553c-4a19-bbbe-b5eddb2ee588","ios":"levelo://app?vid=8b44b9ba-553c-4a19-bbbe-b5eddb2ee588"},"vehicle_type_id":"4","last_reported":1774653711,"current_range_meters":8000,"station_id":"","pricing_plan_id":"cebpf4jnsgd1na2vs0mg"},{"bike_id":"b6aa15bf-370e-46c3-b523-008b4f5832ab","system_id":"levelo_inurba_marseille","lat":43.28463,"lon":5.35884,"is_reserved":false,"is_disabled":false,"rental_uris":{"android":"levelo://app?vid=b6aa15bf-370e-46c3-b523-008b4f5832ab","ios":"levelo://app?vid=b6aa15bf-370e-46c3-b523-008b4f5832ab"},"vehicle_type_id":"4","last_reported":1774653711,"current_range_meters":8000,"station_id":"ce4bhah2rcd13ifvqei0","pricing_plan_id":"cebpf4jnsgd1na2vs0mg"},{"bike_id":"52ebcde0-91fe-4e89-a214-c0683cdd1eea","system_id":"levelo_inurba_marseille","lat":43.26474,"lon":5.39555,"is_reserved":false,"is_disabled":false,"rental_uris":{"android":"levelo://app?vid=52ebcde0-91fe-4e89-a214-c0683cdd1eea","ios":"levelo://app?vid=52ebcde0-91fe-4e89-a214-c0683cdd1eea"},"vehicle_type_id":"4","last_reported":1774653711,"current_range_meters":8000,"station_id":"ce4bhi12rcd13ifvqfq0","pricing_plan_id":"cebpf4jnsgd1na2vs0mg"},{"bike_id":"7d38c45a-0011-4d05-9bbf-54b7323ff394","system_id":"levelo_inurba_marseille","lat":43.26384,"lon":5.41087,"is_reserved":false,"is_disabled":false,"rental_uris":{"android":"levelo://app?vid=7d38c45a-0011-4d05-9bbf-54b7323ff394","ios":"levelo://app?vid=7d38c45a-0011-4d05-9bbf-54b7323ff394"},"vehicle_type_id":"4","last_reported":1774653711,"current_range_meters":8000,"station_id":"st_d4e5ca6na9uc73bfl5fg","pricing_plan_id":"cebpf4jnsgd1na2vs0mg"},{"bike_id":"6d1dd35d-1ce3-4297-9706-721b82716928","system_id":"levelo_inurba_marseille","lat":43.2379,"lon":5.36628,"is_reserved":false,"is_disabled":false,"rental_uris":{"android":"levelo://app?vid=6d1dd35d-1ce3-4297-9706-721b82716928","ios":"levelo://app?vid=6d1dd35d-1ce3-4297-9706-721b82716928"},"vehicle_type_id":"4","last_reported":1774653711,"current_range_meters":8000,"station_id":"st_d3nk18o9ro0c73en2l3g","pricing_plan_id":"cebpf4jnsgd1na2vs0mg"},{"bike_id":"9910be75-2a19-4a77-bce6-04d40c71f069","system_id":"levelo_inurba_marseille","lat":43.29016,"lon":5.38634,"is_reserved":false,"is_disabled":false,"rental_uris":{"android":"levelo://app?vid=9910be75-2a19-4a77-bce6-04d40c71f069","ios":"levelo://app?vid=9910be75-2a19-4a77-bce6-04d40c71f069"},"vehicle_type_id":"4","last_reported":1774653711,"current_range_meters":8000,"station_id":"ce4bh4p2rcd13ifvqe0g","pricing_plan_id":"cebpf4jnsgd1na2vs0mg"},{"bike_id":"544a8289-9b8e-4503-ab70-a48cd8243531","system_id":"levelo_inurba_marseille","lat":43.29029,"lon":5.38132,"is_reserved":false,"is_disabled":false,"rental_uris":{"android":"levelo://app?vid=544a8289-9b8e-4503-ab70-a48cd8243531","ios":"levelo://app?vid=544a8289-9b8e-4503-ab70-a48cd8243531"},"vehicle_type_id":"4","last_reported":1774653711,"current_range_meters":8000,"station_id":"ce4bh4p2rcd13ifvqe1g","pricing_plan_id":"cebpf4jnsgd1na2vs0mg"},{"bike_id":"422a2883-6925-49a2-bbe5-524094b240da","system_id":"levelo_inurba_marseille","lat":43.29694,"lon":5.38543,"is_reserved":false,"is_disabled":false,"rental_uris":{"android":"levelo://app?vid=422a2883-6925-49a2-bbe5-524094b240da","ios":"levelo://app?vid=422a2883-6925-49a2-bbe5-524094b240da"},"vehicle_type_id":"4","last_reported":1774653711,"current_range_meters":8000,"station_id":"","pricing_plan_id":"cebpf4jnsgd1na2vs0mg"},{"bike_id":"dbf1a75b-a120-4a15-b7eb-c03220aab5d4","system_id":"levelo_inurba_marseille","lat":43.29621,"lon":5.38086,"is_reserved":false,"is_disabled":true,"rental_uris":{"android":"levelo://app?vid=dbf1a75b-a120-4a15-b7eb-c03220aab5d4","ios":"levelo://app?vid=dbf1a75b-a120-4a15-b7eb-c03220aab5d4"},"vehicle_type_id":"4","last_reported":1774653711,"current_range_meters":8000,"station_id":"ce4bgl12rcd13ifvqbo0","pricing_plan_id":"cebpf4jnsgd1na2vs0mg"},{"bike_id":"17e3f408-b356-4224-950a-afe1dac08938","system_id":"levelo_inurba_marseille","lat":43.28279,"lon":5.35082,"is_reserved":false,"is_disabled":false,"rental_uris":{"android":"levelo://app?vid=17e3f408-b356-4224-950a-afe1dac08938","ios":"levelo://app?vid=17e3f408-b356-4224-950a-afe1dac08938"},"vehicle_type_id":"4","last_reported":1774653711,"current_range_meters":8000,"station_id":"ce4bhbp2rcd13ifvqerg","pricing_plan_id":"cebpf4jnsgd1na2vs0mg"},{"bike_id":"6abbab12-4981-44ae-b28c-805675ab377c","system_id":"levelo_inurba_marseille","lat":43.309,"lon":5.39887,"is_reserved":false,"is_disabled":false,"rental_uris":{"android":"levelo://app?vid=6abbab12-4981-44ae-b28c-805675ab377c","ios":"levelo://app?vid=6abbab12-4981-44ae-b28c-805675ab377c"},"vehicle_type_id":"4","last_reported":1774653711,"current_range_meters":8000,"station_id":"","pricing_plan_id":"cebpf4jnsgd1na2vs0mg"},{"bike_id":"c87935e1-6944-4bca-b8a5-aff1e993d25a","system_id":"levelo_inurba_marseille","lat":43.28847,"lon":5.35829,"is_reserved":false,"is_disabled":false,"rental_uris":{"android":"levelo://app?vid=c87935e1-6944-4bca-b8a5-aff1e993d25a","ios":"levelo://app?vid=c87935e1-6944-4bca-b8a5-aff1e993d25a"},"vehicle_type_id":"4","last_reported":1774653711,"current_range_meters":8000,"station_id":"ce4bhb12rcd13ifvqem0","pricing_plan_id":"cebpf4jnsgd1na2vs0mg"},{"bike_id":"2cb0ae82-1cb6-4c7f-add6-a204988a4fab","system_id":"levelo_inurba_marseille","lat":43.27991,"lon":5.41661,"is_reserved":false,"is_disabled":false,"rental_uris":{"android":"levelo://app?vid=2cb0ae82-1cb6-4c7f-add6-a204988a4fab","ios":"levelo://app?vid=2cb0ae82-1cb6-4c7f-add6-a204988a4fab"},"vehicle_type_id":"4","last_reported":1774653711,"current_range_meters":8000,"station_id":"ce4bho12rcd13ifvqh1g","pricing_plan_id":"cebpf4jnsgd1na2vs0mg"},{"bike_id":"4e6d1a89-5d87-4da0-bfe1-6ed4846a5f3f","system_id":"levelo_inurba_marseille","lat":43.30804,"lon":5.38161,"is_reserved":false,"is_disabled":false,"rental_uris":{"android":"levelo://app?vid=4e6d1a89-5d87-4da0-bfe1-6ed4846a5f3f","ios":"levelo://app?vid=4e6d1a89-5d87-4da0-bfe1-6ed4846a5f3f"},"vehicle_type_id":"4","last_reported":1774653711,"current_range_meters":8000,"station_id":"ce4bgt12rcd13ifvqce0","pricing_plan_id":"cebpf4jnsgd1na2vs0mg"},{"bike_id":"30e88e0e-470b-46c9-8ebc-1994865cdbf4","system_id":"levelo_inurba_marseille","lat":43.26234,"lon":5.40466,"is_reserved":false,"is_disabled":false,"rental_uris":{"android":"levelo://app?vid=30e88e0e-470b-46c9-8ebc-1994865cdbf4","ios":"levelo://app?vid=30e88e0e-470b-46c9-8ebc-1994865cdbf4"},"vehicle_type_id":"4","last_reported":1774653711,"current_range_meters":8000,"station_id":"ce4bhmh2rcd13ifvqgmg","pricing_plan_id":"cebpf4jnsgd1na2vs0mg"},{"bike_id":"7f5f4a35-fda4-4a33-b7ae-332aa08e4387","system_id":"levelo_inurba_marseille","lat":43.29766,"lon":5.42784,"is_reserved":false,"is_disabled":false,"rental_uris":{"android":"levelo://app?vid=7f5f4a35-fda4-4a33-b7ae-332aa08e4387","ios":"levelo://app?vid=7f5f4a35-fda4-4a33-b7ae-332aa08e4387"},"vehicle_type_id":"4","last_reported":1774653711,"current_range_meters":8000,"station_id":"st_d3md5207bmas73dh9klg","pricing_plan_id":"cebpf4jnsgd1na2vs0mg"},{"bike_id":"653c1697-ecc4-4927-882c-de4e9516a458","system_id":"levelo_inurba_marseille","lat":43.26067,"lon":5.39392,"is_reserved":false,"is_disabled":false,"rental_uris":{"android":"levelo://app?vid=653c1697-ecc4-4927-882c-de4e9516a458","ios":"levelo://app?vid=653c1697-ecc4-4927-882c-de4e9516a458"},"vehicle_type_id":"4","last_reported":1774653711,"current_range_meters":8000,"station_id":"ce4bhh92rcd13ifvqfj0","pricing_plan_id":"cebpf4jnsgd1na2vs0mg"},{"bike_id":"520303ea-3d98-4cf2-b3e4-219d6bfc14f1","system_id":"levelo_inurba_marseille","lat":43.24801,"lon":5.37452,"is_reserved":false,"is_disabled":false,"rental_uris":{"android":"levelo://app?vid=520303ea-3d98-4cf2-b3e4-219d6bfc14f1","ios":"levelo://app?vid=520303ea-3d98-4cf2-b3e4-219d6bfc14f1"},"vehicle_type_id":"4","last_reported":1774653711,"current_range_meters":8000,"station_id":"ce4bhgh2rcd13ifvqfb0","pricing_plan_id":"cebpf4jnsgd1na2vs0mg"},{"bike_id":"9c448445-1c60-4520-a1cb-98a7a7992b90","system_id":"levelo_inurba_marseille","lat":43.28489,"lon":5.48389,"is_reserved":false,"is_disabled":false,"rental_uris":{"android":"levelo://app?vid=9c448445-1c60-4520-a1cb-98a7a7992b90","ios":"levelo://app?vid=9c448445-1c60-4520-a1cb-98a7a7992b90"},"vehicle_type_id":"4","last_reported":1774653711,"current_range_meters":8000,"station_id":"","pricing_plan_id":"cebpf4jnsgd1na2vs0mg"},{"bike_id":"f06c9d92-ab59-4133-a097-5ad3d933db5d","system_id":"levelo_inurba_marseille","lat":43.3136,"lon":5.38491,"is_reserved":false,"is_disabled":false,"rental_uris":{"android":"levelo://app?vid=f06c9d92-ab59-4133-a097-5ad3d933db5d","ios":"levelo://app?vid=f06c9d92-ab59-4133-a097-5ad3d933db5d"},"vehicle_type_id":"4","last_reported":1774653711,"current_range_meters":8000,"station_id":"ce4bgt92rcd13ifvqcf0","pricing_plan_id":"cebpf4jnsgd1na2vs0mg"},{"bike_id":"4c89b9ce-52ed-4fac-8617-1a28e06018e5","system_id":"levelo_inurba_marseille","lat":43.24801,"lon":5.3745,"is_reserved":false,"is_disabled":false,"rental_uris":{"android":"levelo://app?vid=4c89b9ce-52ed-4fac-8617-1a28e06018e5","ios":"levelo://app?vid=4c89b9ce-52ed-4fac-8617-1a28e06018e5"},"vehicle_type_id":"4","last_reported":1774653711,"current_range_meters":8000,"station_id":"ce4bhgh2rcd13ifvqfb0","pricing_plan_id":"cebpf4jnsgd1na2vs0mg"},{"bike_id":"6fb40cb3-c7f6-49a5-83e6-a899167619c0","system_id":"levelo_inurba_marseille","lat":43.30322,"lon":5.40438,"is_reserved":false,"is_disabled":false,"rental_uris":{"android":"levelo://app?vid=6fb40cb3-c7f6-49a5-83e6-a899167619c0","ios":"levelo://app?vid=6fb40cb3-c7f6-49a5-83e6-a899167619c0"},"vehicle_type_id":"4","last_reported":1774653711,"current_range_meters":8000,"station_id":"ce4bh012rcd13ifvqd10","pricing_plan_id":"cebpf4jnsgd1na2vs0mg"},{"bike_id":"5b317fd6-5ad5-4b24-9284-e5a7bd2848a3","system_id":"levelo_inurba_marseille","lat":43.28615,"lon":5.37055,"is_reserved":false,"is_disabled":false,"rental_uris":{"android":"levelo://app?vid=5b317fd6-5ad5-4b24-9284-e5a7bd2848a3","ios":"levelo://app?vid=5b317fd6-5ad5-4b24-9284-e5a7bd2848a3"},"vehicle_type_id":"4","last_reported":1774653711,"current_range_meters":8000,"station_id":"ce4bht12rcd13ifvqi60","pricing_plan_id":"cebpf4jnsgd1na2vs0mg"},{"bike_id":"f967aac8-bff7-4d61-9c8d-307b8d7b6ffd","system_id":"levelo_inurba_marseille","lat":43.25338,"lon":5.42178,"is_reserved":false,"is_disabled":false,"rental_uris":{"android":"levelo://app?vid=f967aac8-bff7-4d61-9c8d-307b8d7b6ffd","ios":"levelo://app?vid=f967aac8-bff7-4d61-9c8d-307b8d7b6ffd"},"vehicle_type_id":"4","last_reported":1774653711,"current_range_meters":8400,"station_id":"st_d2m65c5bi1j21697t3ng","pricing_plan_id":"cebpf4jnsgd1na2vs0mg"},{"bike_id":"309b17b4-dde1-4b76-a5cb-a744226da27a","system_id":"levelo_inurba_marseille","lat":43.28461,"lon":5.35879,"is_reserved":false,"is_disabled":false,"rental_uris":{"android":"levelo://app?vid=309b17b4-dde1-4b76-a5cb-a744226da27a","ios":"levelo://app?vid=309b17b4-dde1-4b76-a5cb-a744226da27a"},"vehicle_type_id":"4","last_reported":1774653711,"current_range_meters":8400,"station_id":"ce4bhah2rcd13ifvqei0","pricing_plan_id":"cebpf4jnsgd1na2vs0mg"},{"bike_id":"13758e40-3343-4461-81bb-b6a3001d9426","system_id":"levelo_inurba_marseille","lat":43.32487,"lon":5.36571,"is_reserved":false,"is_disabled":false,"rental_uris":{"android":"levelo://app?vid=13758e40-3343-4461-81bb-b6a3001d9426","ios":"levelo://app?vid=13758e40-3343-4461-81bb-b6a3001d9426"},"vehicle_type_id":"4","last_reported":1774653711,"current_range_meters":8400,"station_id":"ce4bhs12rcd13ifvqhvg","pricing_plan_id":"cebpf4jnsgd1na2vs0mg"},{"bike_id":"3629b600-0973-43f7-911e-b3eb2f49b025","system_id":"levelo_inurba_marseille","lat":43.3354,"lon":5.37472,"is_reserved":false,"is_disabled":false,"rental_uris":{"android":"levelo://app?vid=3629b600-0973-43f7-911e-b3eb2f49b025","ios":"levelo://app?vid=3629b600-0973-43f7-911e-b3eb2f49b025"},"vehicle_type_id":"4","last_reported":1774653711,"current_range_meters":8400,"station_id":"st_d46tts09ee8s73dlu43g","pricing_plan_id":"cebpf4jnsgd1na2vs0mg"},{"bike_id":"017cc899-a510-41b6-b2c0-841cd8ab0838","system_id":"levelo_inurba_marseille","lat":43.31241,"lon":5.36869,"is_reserved":false,"is_disabled":false,"rental_uris":{"android":"levelo://app?vid=017cc899-a510-41b6-b2c0-841cd8ab0838","ios":"levelo://app?vid=017cc899-a510-41b6-b2c0-841cd8ab0838"},"vehicle_type_id":"4","last_reported":1774653711,"current_range_meters":8400,"station_id":"ce4bgl92rcd13ifvqbq0","pricing_plan_id":"cebpf4jnsgd1na2vs0mg"},{"bike_id":"e4b8931c-03ca-41c7-bb73-d8e8fdaf8d69","system_id":"levelo_inurba_marseille","lat":43.25569,"lon":5.38233,"is_reserved":false,"is_disabled":false,"rental_uris":{"android":"levelo://app?vid=e4b8931c-03ca-41c7-bb73-d8e8fdaf8d69","ios":"levelo://app?vid=e4b8931c-03ca-41c7-bb73-d8e8fdaf8d69"},"vehicle_type_id":"4","last_reported":1774653711,"current_range_meters":8400,"station_id":"ce4bhih2rcd13ifvqfs0","pricing_plan_id":"cebpf4jnsgd1na2vs0mg"},{"bike_id":"3cf37742-558c-4f25-9c21-256b80b90180","system_id":"levelo_inurba_marseille","lat":43.29224,"lon":5.36063,"is_reserved":false,"is_disabled":false,"rental_uris":{"android":"levelo://app?vid=3cf37742-558c-4f25-9c21-256b80b90180","ios":"levelo://app?vid=3cf37742-558c-4f25-9c21-256b80b90180"},"vehicle_type_id":"4","last_reported":1774653711,"current_range_meters":8400,"station_id":"ce4bhbh2rcd13ifvqeqg","pricing_plan_id":"cebpf4jnsgd1na2vs0mg"},{"bike_id":"e9b8ad5b-1d5b-4488-b88b-9400678d2ccf","system_id":"levelo_inurba_marseille","lat":43.27575,"lon":5.38422,"is_reserved":false,"is_disabled":false,"rental_uris":{"android":"levelo://app?vid=e9b8ad5b-1d5b-4488-b88b-9400678d2ccf","ios":"levelo://app?vid=e9b8ad5b-1d5b-4488-b88b-9400678d2ccf"},"vehicle_type_id":"4","last_reported":1774653711,"current_range_meters":8400,"station_id":"ce4bhh92rcd13ifvqfi0","pricing_plan_id":"cebpf4jnsgd1na2vs0mg"},{"bike_id":"dd21cd2f-ab57-4cd4-a438-b1fa2bdb0a92","system_id":"levelo_inurba_marseille","lat":43.31278,"lon":5.36808,"is_reserved":false,"is_disabled":false,"rental_uris":{"android":"levelo://app?vid=dd21cd2f-ab57-4cd4-a438-b1fa2bdb0a92","ios":"levelo://app?vid=dd21cd2f-ab57-4cd4-a438-b1fa2bdb0a92"},"vehicle_type_id":"4","last_reported":1774653711,"current_range_meters":8400,"station_id":"ce4bgl92rcd13ifvqbq0","pricing_plan_id":"cebpf4jnsgd1na2vs0mg"},{"bike_id":"0eac7103-fa91-4cc3-9de1-b4f74d7ff4a0","system_id":"levelo_inurba_marseille","lat":43.23178,"lon":5.39972,"is_reserved":false,"is_disabled":false,"rental_uris":{"android":"levelo://app?vid=0eac7103-fa91-4cc3-9de1-b4f74d7ff4a0","ios":"levelo://app?vid=0eac7103-fa91-4cc3-9de1-b4f74d7ff4a0"},"vehicle_type_id":"4","last_reported":1774653711,"current_range_meters":8400,"station_id":"ce4bhn12rcd13ifvqgqg","pricing_plan_id":"cebpf4jnsgd1na2vs0mg"},{"bike_id":"f3d47af6-5b42-4057-b9f6-c501bdc25d75","system_id":"levelo_inurba_marseille","lat":43.23381,"lon":5.41241,"is_reserved":false,"is_disabled":false,"rental_uris":{"android":"levelo://app?vid=f3d47af6-5b42-4057-b9f6-c501bdc25d75","ios":"levelo://app?vid=f3d47af6-5b42-4057-b9f6-c501bdc25d75"},"vehicle_type_id":"4","last_reported":1774653711,"current_range_meters":8400,"station_id":"","pricing_plan_id":"cebpf4jnsgd1na2vs0mg"},{"bike_id":"915ccf51-81c4-4a81-94b6-b9522edf5a8e","system_id":"levelo_inurba_marseille","lat":43.32666,"lon":5.40921,"is_reserved":false,"is_disabled":false,"rental_uris":{"android":"levelo://app?vid=915ccf51-81c4-4a81-94b6-b9522edf5a8e","ios":"levelo://app?vid=915ccf51-81c4-4a81-94b6-b9522edf5a8e"},"vehicle_type_id":"4","last_reported":1774653711,"current_range_meters":8400,"station_id":"","pricing_plan_id":"cebpf4jnsgd1na2vs0mg"},{"bike_id":"04d04abc-8a1d-4aab-aaf5-99ff4aabc908","system_id":"levelo_inurba_marseille","lat":43.29541,"lon":5.38544,"is_reserved":false,"is_disabled":false,"rental_uris":{"android":"levelo://app?vid=04d04abc-8a1d-4aab-aaf5-99ff4aabc908","ios":"levelo://app?vid=04d04abc-8a1d-4aab-aaf5-99ff4aabc908"},"vehicle_type_id":"4","last_reported":1774653711,"current_range_meters":8400,"station_id":"ce4bgih2rcd13ifvqba0","pricing_plan_id":"cebpf4jnsgd1na2vs0mg"},{"bike_id":"5be616c9-ebbb-4de5-a513-cba194a4c0f4","system_id":"levelo_inurba_marseille","lat":43.28431,"lon":5.39195,"is_reserved":false,"is_disabled":false,"rental_uris":{"android":"levelo://app?vid=5be616c9-ebbb-4de5-a513-cba194a4c0f4","ios":"levelo://app?vid=5be616c9-ebbb-4de5-a513-cba194a4c0f4"},"vehicle_type_id":"4","last_reported":1774653711,"current_range_meters":8400,"station_id":"ce4bhoh2rcd13ifvqh5g","pricing_plan_id":"cebpf4jnsgd1na2vs0mg"},{"bike_id":"fbd013e2-8567-4cc4-a7c6-24dd8fd5e924","system_id":"levelo_inurba_marseille","lat":43.28994,"lon":5.3554,"is_reserved":false,"is_disabled":false,"rental_uris":{"android":"levelo://app?vid=fbd013e2-8567-4cc4-a7c6-24dd8fd5e924","ios":"levelo://app?vid=fbd013e2-8567-4cc4-a7c6-24dd8fd5e924"},"vehicle_type_id":"4","last_reported":1774653711,"current_range_meters":8400,"station_id":"","pricing_plan_id":"cebpf4jnsgd1na2vs0mg"},{"bike_id":"a0e1fe6f-1b0c-4b69-b699-3f3295a2fce0","system_id":"levelo_inurba_marseille","lat":43.28409,"lon":5.34993,"is_reserved":false,"is_disabled":false,"rental_uris":{"android":"levelo://app?vid=a0e1fe6f-1b0c-4b69-b699-3f3295a2fce0","ios":"levelo://app?vid=a0e1fe6f-1b0c-4b69-b699-3f3295a2fce0"},"vehicle_type_id":"4","last_reported":1774653711,"current_range_meters":8800,"station_id":"ce4bhbh2rcd13ifvqepg","pricing_plan_id":"cebpf4jnsgd1na2vs0mg"},{"bike_id":"ac1a9d6c-17a0-4e01-9607-d886e691e83d","system_id":"levelo_inurba_marseille","lat":43.24396,"lon":5.37078,"is_reserved":false,"is_disabled":false,"rental_uris":{"android":"levelo://app?vid=ac1a9d6c-17a0-4e01-9607-d886e691e83d","ios":"levelo://app?vid=ac1a9d6c-17a0-4e01-9607-d886e691e83d"},"vehicle_type_id":"4","last_reported":1774653711,"current_range_meters":8800,"station_id":"ce4bhhh2rcd13ifvqfk0","pricing_plan_id":"cebpf4jnsgd1na2vs0mg"},{"bike_id":"2f019591-3087-43f0-affb-e2eede13213e","system_id":"levelo_inurba_marseille","lat":43.24211,"lon":5.36636,"is_reserved":false,"is_disabled":false,"rental_uris":{"android":"levelo://app?vid=2f019591-3087-43f0-affb-e2eede13213e","ios":"levelo://app?vid=2f019591-3087-43f0-affb-e2eede13213e"},"vehicle_type_id":"4","last_reported":1774653711,"current_range_meters":8800,"station_id":"","pricing_plan_id":"cebpf4jnsgd1na2vs0mg"},{"bike_id":"edac6523-df16-47dc-adeb-975cdf805ce1","system_id":"levelo_inurba_marseille","lat":43.2657,"lon":5.39058,"is_reserved":false,"is_disabled":false,"rental_uris":{"android":"levelo://app?vid=edac6523-df16-47dc-adeb-975cdf805ce1","ios":"levelo://app?vid=edac6523-df16-47dc-adeb-975cdf805ce1"},"vehicle_type_id":"4","last_reported":1774653711,"current_range_meters":8800,"station_id":"ce4bhe12rcd13ifvqf30","pricing_plan_id":"cebpf4jnsgd1na2vs0mg"},{"bike_id":"b4f7f0b9-7d56-42ad-a631-1e0eab6073dc","system_id":"levelo_inurba_marseille","lat":43.30547,"lon":5.36539,"is_reserved":false,"is_disabled":false,"rental_uris":{"android":"levelo://app?vid=b4f7f0b9-7d56-42ad-a631-1e0eab6073dc","ios":"levelo://app?vid=b4f7f0b9-7d56-42ad-a631-1e0eab6073dc"},"vehicle_type_id":"4","last_reported":1774653711,"current_range_meters":8800,"station_id":"ce4bgs12rcd13ifvqcag","pricing_plan_id":"cebpf4jnsgd1na2vs0mg"},{"bike_id":"57538898-287c-47df-8281-4c237c4286e2","system_id":"levelo_inurba_marseille","lat":43.2315,"lon":5.43717,"is_reserved":false,"is_disabled":false,"rental_uris":{"android":"levelo://app?vid=57538898-287c-47df-8281-4c237c4286e2","ios":"levelo://app?vid=57538898-287c-47df-8281-4c237c4286e2"},"vehicle_type_id":"4","last_reported":1774653711,"current_range_meters":8800,"station_id":"ce4bhmp2rcd13ifvqgog","pricing_plan_id":"cebpf4jnsgd1na2vs0mg"},{"bike_id":"7544caae-8ed7-428f-a32f-5c190fab3750","system_id":"levelo_inurba_marseille","lat":43.29251,"lon":5.40909,"is_reserved":false,"is_disabled":false,"rental_uris":{"android":"levelo://app?vid=7544caae-8ed7-428f-a32f-5c190fab3750","ios":"levelo://app?vid=7544caae-8ed7-428f-a32f-5c190fab3750"},"vehicle_type_id":"4","last_reported":1774653711,"current_range_meters":8800,"station_id":"ce4bh192rcd13ifvqdc0","pricing_plan_id":"cebpf4jnsgd1na2vs0mg"},{"bike_id":"a36b32fe-3c3c-4e8e-bdc5-ac9d34714bd2","system_id":"levelo_inurba_marseille","lat":43.29892,"lon":5.42079,"is_reserved":false,"is_disabled":false,"rental_uris":{"android":"levelo://app?vid=a36b32fe-3c3c-4e8e-bdc5-ac9d34714bd2","ios":"levelo://app?vid=a36b32fe-3c3c-4e8e-bdc5-ac9d34714bd2"},"vehicle_type_id":"4","last_reported":1774653711,"current_range_meters":8800,"station_id":"st_d6tc004otcvc738tfe70","pricing_plan_id":"cebpf4jnsgd1na2vs0mg"},{"bike_id":"ccae95a5-965a-472f-8138-32ecadf6ef35","system_id":"levelo_inurba_marseille","lat":43.25337,"lon":5.42181,"is_reserved":false,"is_disabled":false,"rental_uris":{"android":"levelo://app?vid=ccae95a5-965a-472f-8138-32ecadf6ef35","ios":"levelo://app?vid=ccae95a5-965a-472f-8138-32ecadf6ef35"},"vehicle_type_id":"4","last_reported":1774653711,"current_range_meters":8800,"station_id":"st_d2m65c5bi1j21697t3ng","pricing_plan_id":"cebpf4jnsgd1na2vs0mg"},{"bike_id":"b74978cb-5b51-4041-8c1c-97c8f4ca71d2","system_id":"levelo_inurba_marseille","lat":43.3118,"lon":5.4063,"is_reserved":false,"is_disabled":false,"rental_uris":{"android":"levelo://app?vid=b74978cb-5b51-4041-8c1c-97c8f4ca71d2","ios":"levelo://app?vid=b74978cb-5b51-4041-8c1c-97c8f4ca71d2"},"vehicle_type_id":"4","last_reported":1774653711,"current_range_meters":8800,"station_id":"","pricing_plan_id":"cebpf4jnsgd1na2vs0mg"},{"bike_id":"c36bd0d3-a76a-4b18-844b-3d88afc7db56","system_id":"levelo_inurba_marseille","lat":43.29198,"lon":5.39314,"is_reserved":false,"is_disabled":false,"rental_uris":{"android":"levelo://app?vid=c36bd0d3-a76a-4b18-844b-3d88afc7db56","ios":"levelo://app?vid=c36bd0d3-a76a-4b18-844b-3d88afc7db56"},"vehicle_type_id":"4","last_reported":1774653711,"current_range_meters":8800,"station_id":"ce4bh192rcd13ifvqdd0","pricing_plan_id":"cebpf4jnsgd1na2vs0mg"},{"bike_id":"28483bf5-dea0-476c-af06-fd95f4e48f8f","system_id":"levelo_inurba_marseille","lat":43.33483,"lon":5.36369,"is_reserved":false,"is_disabled":false,"rental_uris":{"android":"levelo://app?vid=28483bf5-dea0-476c-af06-fd95f4e48f8f","ios":"levelo://app?vid=28483bf5-dea0-476c-af06-fd95f4e48f8f"},"vehicle_type_id":"4","last_reported":1774653711,"current_range_meters":8800,"station_id":"","pricing_plan_id":"cebpf4jnsgd1na2vs0mg"},{"bike_id":"ab7fd825-ef8d-408d-822b-c49a4b49450f","system_id":"levelo_inurba_marseille","lat":43.29522,"lon":5.38528,"is_reserved":false,"is_disabled":false,"rental_uris":{"android":"levelo://app?vid=ab7fd825-ef8d-408d-822b-c49a4b49450f","ios":"levelo://app?vid=ab7fd825-ef8d-408d-822b-c49a4b49450f"},"vehicle_type_id":"4","last_reported":1774653711,"current_range_meters":8800,"station_id":"ce4bgih2rcd13ifvqba0","pricing_plan_id":"cebpf4jnsgd1na2vs0mg"},{"bike_id":"6d106594-19d4-410a-8438-74af7bf89a11","system_id":"levelo_inurba_marseille","lat":43.28423,"lon":5.34981,"is_reserved":false,"is_disabled":false,"rental_uris":{"android":"levelo://app?vid=6d106594-19d4-410a-8438-74af7bf89a11","ios":"levelo://app?vid=6d106594-19d4-410a-8438-74af7bf89a11"},"vehicle_type_id":"4","last_reported":1774653711,"current_range_meters":8800,"station_id":"ce4bhbh2rcd13ifvqepg","pricing_plan_id":"cebpf4jnsgd1na2vs0mg"},{"bike_id":"2d5262be-582c-4d87-a7a2-b4c3f4ed4d38","system_id":"levelo_inurba_marseille","lat":43.22568,"lon":5.41626,"is_reserved":false,"is_disabled":false,"rental_uris":{"android":"levelo://app?vid=2d5262be-582c-4d87-a7a2-b4c3f4ed4d38","ios":"levelo://app?vid=2d5262be-582c-4d87-a7a2-b4c3f4ed4d38"},"vehicle_type_id":"4","last_reported":1774653711,"current_range_meters":8800,"station_id":"st_d2o4gvlbi1j2169b742g","pricing_plan_id":"cebpf4jnsgd1na2vs0mg"},{"bike_id":"204b948f-70fe-4193-81e9-e85160b5b49d","system_id":"levelo_inurba_marseille","lat":43.32499,"lon":5.38291,"is_reserved":false,"is_disabled":false,"rental_uris":{"android":"levelo://app?vid=204b948f-70fe-4193-81e9-e85160b5b49d","ios":"levelo://app?vid=204b948f-70fe-4193-81e9-e85160b5b49d"},"vehicle_type_id":"4","last_reported":1774653711,"current_range_meters":8800,"station_id":"st_d4asgbiv49dc73anf9m0","pricing_plan_id":"cebpf4jnsgd1na2vs0mg"},{"bike_id":"774799ad-8ed5-4ecd-bc18-16e4fd314b6c","system_id":"levelo_inurba_marseille","lat":43.28852,"lon":5.3931,"is_reserved":false,"is_disabled":false,"rental_uris":{"android":"levelo://app?vid=774799ad-8ed5-4ecd-bc18-16e4fd314b6c","ios":"levelo://app?vid=774799ad-8ed5-4ecd-bc18-16e4fd314b6c"},"vehicle_type_id":"4","last_reported":1774653711,"current_range_meters":8800,"station_id":"ce4bh2p2rcd13ifvqdi0","pricing_plan_id":"cebpf4jnsgd1na2vs0mg"},{"bike_id":"21efa572-cbd8-43ca-9b73-85bd0edf6d7d","system_id":"levelo_inurba_marseille","lat":43.30895,"lon":5.39621,"is_reserved":false,"is_disabled":false,"rental_uris":{"android":"levelo://app?vid=21efa572-cbd8-43ca-9b73-85bd0edf6d7d","ios":"levelo://app?vid=21efa572-cbd8-43ca-9b73-85bd0edf6d7d"},"vehicle_type_id":"4","last_reported":1774653711,"current_range_meters":8800,"station_id":"ce4bh012rcd13ifvqcv0","pricing_plan_id":"cebpf4jnsgd1na2vs0mg"},{"bike_id":"c7af05b3-4ddb-499c-ae8b-c6fd8683ba94","system_id":"levelo_inurba_marseille","lat":43.29564,"lon":5.3837,"is_reserved":false,"is_disabled":false,"rental_uris":{"android":"levelo://app?vid=c7af05b3-4ddb-499c-ae8b-c6fd8683ba94","ios":"levelo://app?vid=c7af05b3-4ddb-499c-ae8b-c6fd8683ba94"},"vehicle_type_id":"4","last_reported":1774653711,"current_range_meters":8800,"station_id":"","pricing_plan_id":"cebpf4jnsgd1na2vs0mg"},{"bike_id":"fa1cf32b-219e-482f-8f48-62ab358ef348","system_id":"levelo_inurba_marseille","lat":43.28409,"lon":5.34981,"is_reserved":false,"is_disabled":false,"rental_uris":{"android":"levelo://app?vid=fa1cf32b-219e-482f-8f48-62ab358ef348","ios":"levelo://app?vid=fa1cf32b-219e-482f-8f48-62ab358ef348"},"vehicle_type_id":"4","last_reported":1774653711,"current_range_meters":8800,"station_id":"ce4bhbh2rcd13ifvqepg","pricing_plan_id":"cebpf4jnsgd1na2vs0mg"},{"bike_id":"d0d2e10c-c6b7-4e68-96d3-9619711217dd","system_id":"levelo_inurba_marseille","lat":43.24671,"lon":5.38144,"is_reserved":false,"is_disabled":false,"rental_uris":{"android":"levelo://app?vid=d0d2e10c-c6b7-4e68-96d3-9619711217dd","ios":"levelo://app?vid=d0d2e10c-c6b7-4e68-96d3-9619711217dd"},"vehicle_type_id":"4","last_reported":1774653711,"current_range_meters":8800,"station_id":"ce4bhih2rcd13ifvqfr0","pricing_plan_id":"cebpf4jnsgd1na2vs0mg"},{"bike_id":"088a93b0-ace0-4afd-80ba-9af6556fbe71","system_id":"levelo_inurba_marseille","lat":43.28384,"lon":5.37545,"is_reserved":false,"is_disabled":false,"rental_uris":{"android":"levelo://app?vid=088a93b0-ace0-4afd-80ba-9af6556fbe71","ios":"levelo://app?vid=088a93b0-ace0-4afd-80ba-9af6556fbe71"},"vehicle_type_id":"4","last_reported":1774653711,"current_range_meters":8800,"station_id":"ce4bh412rcd13ifvqds0","pricing_plan_id":"cebpf4jnsgd1na2vs0mg"},{"bike_id":"01c8f8c8-f2cf-4759-8a7a-5c0d7b034a8b","system_id":"levelo_inurba_marseille","lat":43.27748,"lon":5.4078,"is_reserved":false,"is_disabled":false,"rental_uris":{"android":"levelo://app?vid=01c8f8c8-f2cf-4759-8a7a-5c0d7b034a8b","ios":"levelo://app?vid=01c8f8c8-f2cf-4759-8a7a-5c0d7b034a8b"},"vehicle_type_id":"4","last_reported":1774653711,"current_range_meters":8800,"station_id":"","pricing_plan_id":"cebpf4jnsgd1na2vs0mg"},{"bike_id":"77ee92e1-c2bc-4362-b69e-28dbe2b54f10","system_id":"levelo_inurba_marseille","lat":43.24062,"lon":5.37754,"is_reserved":false,"is_disabled":false,"rental_uris":{"android":"levelo://app?vid=77ee92e1-c2bc-4362-b69e-28dbe2b54f10","ios":"levelo://app?vid=77ee92e1-c2bc-4362-b69e-28dbe2b54f10"},"vehicle_type_id":"4","last_reported":1774653711,"current_range_meters":8800,"station_id":"ce4bhnp2rcd13ifvqgvg","pricing_plan_id":"cebpf4jnsgd1na2vs0mg"},{"bike_id":"efd1ef5c-8346-4bd1-be93-977bc5769041","system_id":"levelo_inurba_marseille","lat":43.2893,"lon":5.36638,"is_reserved":false,"is_disabled":false,"rental_uris":{"android":"levelo://app?vid=efd1ef5c-8346-4bd1-be93-977bc5769041","ios":"levelo://app?vid=efd1ef5c-8346-4bd1-be93-977bc5769041"},"vehicle_type_id":"4","last_reported":1774653711,"current_range_meters":9200,"station_id":"ce4bhap2rcd13ifvqek0","pricing_plan_id":"cebpf4jnsgd1na2vs0mg"},{"bike_id":"899c9f36-9b83-4ce9-bd7d-0f95dd541b6a","system_id":"levelo_inurba_marseille","lat":43.32353,"lon":5.36764,"is_reserved":false,"is_disabled":false,"rental_uris":{"android":"levelo://app?vid=899c9f36-9b83-4ce9-bd7d-0f95dd541b6a","ios":"levelo://app?vid=899c9f36-9b83-4ce9-bd7d-0f95dd541b6a"},"vehicle_type_id":"4","last_reported":1774653711,"current_range_meters":9200,"station_id":"ce4bhsh2rcd13ifvqi2g","pricing_plan_id":"cebpf4jnsgd1na2vs0mg"},{"bike_id":"c420f719-a4cc-4702-b6da-68e6d0f37e6c","system_id":"levelo_inurba_marseille","lat":43.28541,"lon":5.44104,"is_reserved":false,"is_disabled":false,"rental_uris":{"android":"levelo://app?vid=c420f719-a4cc-4702-b6da-68e6d0f37e6c","ios":"levelo://app?vid=c420f719-a4cc-4702-b6da-68e6d0f37e6c"},"vehicle_type_id":"4","last_reported":1774653711,"current_range_meters":9200,"station_id":"st_d3j3df2ikq2c7380ej80","pricing_plan_id":"cebpf4jnsgd1na2vs0mg"},{"bike_id":"5afc8403-6d30-4cf0-9969-def159c6d031","system_id":"levelo_inurba_marseille","lat":43.24396,"lon":5.37068,"is_reserved":false,"is_disabled":false,"rental_uris":{"android":"levelo://app?vid=5afc8403-6d30-4cf0-9969-def159c6d031","ios":"levelo://app?vid=5afc8403-6d30-4cf0-9969-def159c6d031"},"vehicle_type_id":"4","last_reported":1774653711,"current_range_meters":9200,"station_id":"ce4bhhh2rcd13ifvqfk0","pricing_plan_id":"cebpf4jnsgd1na2vs0mg"},{"bike_id":"ac2e9358-091d-44de-957c-d4124f6108c8","system_id":"levelo_inurba_marseille","lat":43.29544,"lon":5.38553,"is_reserved":false,"is_disabled":false,"rental_uris":{"android":"levelo://app?vid=ac2e9358-091d-44de-957c-d4124f6108c8","ios":"levelo://app?vid=ac2e9358-091d-44de-957c-d4124f6108c8"},"vehicle_type_id":"4","last_reported":1774653711,"current_range_meters":9200,"station_id":"ce4bgih2rcd13ifvqba0","pricing_plan_id":"cebpf4jnsgd1na2vs0mg"},{"bike_id":"0c2c994c-f14a-4957-8502-3656740281f4","system_id":"levelo_inurba_marseille","lat":43.24665,"lon":5.38144,"is_reserved":false,"is_disabled":false,"rental_uris":{"android":"levelo://app?vid=0c2c994c-f14a-4957-8502-3656740281f4","ios":"levelo://app?vid=0c2c994c-f14a-4957-8502-3656740281f4"},"vehicle_type_id":"4","last_reported":1774653711,"current_range_meters":9200,"station_id":"ce4bhih2rcd13ifvqfr0","pricing_plan_id":"cebpf4jnsgd1na2vs0mg"},{"bike_id":"326414e6-66a2-45e9-9aea-2a50dfc22af0","system_id":"levelo_inurba_marseille","lat":43.28612,"lon":5.35096,"is_reserved":false,"is_disabled":false,"rental_uris":{"android":"levelo://app?vid=326414e6-66a2-45e9-9aea-2a50dfc22af0","ios":"levelo://app?vid=326414e6-66a2-45e9-9aea-2a50dfc22af0"},"vehicle_type_id":"4","last_reported":1774653711,"current_range_meters":9200,"station_id":"ce4bhch2rcd13ifvqeug","pricing_plan_id":"cebpf4jnsgd1na2vs0mg"},{"bike_id":"4b1f9bea-2381-4561-9a13-bead8a1cc7e5","system_id":"levelo_inurba_marseille","lat":43.28707,"lon":5.39997,"is_reserved":false,"is_disabled":false,"rental_uris":{"android":"levelo://app?vid=4b1f9bea-2381-4561-9a13-bead8a1cc7e5","ios":"levelo://app?vid=4b1f9bea-2381-4561-9a13-bead8a1cc7e5"},"vehicle_type_id":"4","last_reported":1774653711,"current_range_meters":9200,"station_id":"ce4bho92rcd13ifvqh3g","pricing_plan_id":"cebpf4jnsgd1na2vs0mg"},{"bike_id":"bd581b45-6d41-4368-87be-209c3d117d4a","system_id":"levelo_inurba_marseille","lat":43.27207,"lon":5.39177,"is_reserved":false,"is_disabled":false,"rental_uris":{"android":"levelo://app?vid=bd581b45-6d41-4368-87be-209c3d117d4a","ios":"levelo://app?vid=bd581b45-6d41-4368-87be-209c3d117d4a"},"vehicle_type_id":"4","last_reported":1774653711,"current_range_meters":9200,"station_id":"ce4bhhp2rcd13ifvqfm0","pricing_plan_id":"cebpf4jnsgd1na2vs0mg"},{"bike_id":"2aa3016f-740a-4fe0-9e81-26a1c19692ec","system_id":"levelo_inurba_marseille","lat":43.29524,"lon":5.38545,"is_reserved":false,"is_disabled":false,"rental_uris":{"android":"levelo://app?vid=2aa3016f-740a-4fe0-9e81-26a1c19692ec","ios":"levelo://app?vid=2aa3016f-740a-4fe0-9e81-26a1c19692ec"},"vehicle_type_id":"4","last_reported":1774653711,"current_range_meters":9200,"station_id":"ce4bgih2rcd13ifvqba0","pricing_plan_id":"cebpf4jnsgd1na2vs0mg"},{"bike_id":"073caac0-7818-4f5c-8d2f-2564c47cf9e2","system_id":"levelo_inurba_marseille","lat":43.26688,"lon":5.38271,"is_reserved":false,"is_disabled":false,"rental_uris":{"android":"levelo://app?vid=073caac0-7818-4f5c-8d2f-2564c47cf9e2","ios":"levelo://app?vid=073caac0-7818-4f5c-8d2f-2564c47cf9e2"},"vehicle_type_id":"4","last_reported":1774653711,"current_range_meters":9200,"station_id":"ce4bhg92rcd13ifvqf90","pricing_plan_id":"cebpf4jnsgd1na2vs0mg"},{"bike_id":"e8df83cf-6381-4e7e-9379-074a8e881801","system_id":"levelo_inurba_marseille","lat":43.31902,"lon":5.36799,"is_reserved":false,"is_disabled":false,"rental_uris":{"android":"levelo://app?vid=e8df83cf-6381-4e7e-9379-074a8e881801","ios":"levelo://app?vid=e8df83cf-6381-4e7e-9379-074a8e881801"},"vehicle_type_id":"4","last_reported":1774653711,"current_range_meters":9200,"station_id":"","pricing_plan_id":"cebpf4jnsgd1na2vs0mg"},{"bike_id":"5e6afa94-4346-4d26-8463-508819ab433c","system_id":"levelo_inurba_marseille","lat":43.29845,"lon":5.36259,"is_reserved":false,"is_disabled":false,"rental_uris":{"android":"levelo://app?vid=5e6afa94-4346-4d26-8463-508819ab433c","ios":"levelo://app?vid=5e6afa94-4346-4d26-8463-508819ab433c"},"vehicle_type_id":"4","last_reported":1774653711,"current_range_meters":9200,"station_id":"ce4bgpp2rcd13ifvqc3g","pricing_plan_id":"cebpf4jnsgd1na2vs0mg"},{"bike_id":"67c1c6e6-4211-4250-be02-a52880e1c23a","system_id":"levelo_inurba_marseille","lat":43.26491,"lon":5.4073,"is_reserved":false,"is_disabled":false,"rental_uris":{"android":"levelo://app?vid=67c1c6e6-4211-4250-be02-a52880e1c23a","ios":"levelo://app?vid=67c1c6e6-4211-4250-be02-a52880e1c23a"},"vehicle_type_id":"4","last_reported":1774653711,"current_range_meters":9200,"station_id":"","pricing_plan_id":"cebpf4jnsgd1na2vs0mg"},{"bike_id":"4f5cf7ef-ddb5-4d25-9c0b-bec33f5f4447","system_id":"levelo_inurba_marseille","lat":43.30953,"lon":5.3685,"is_reserved":false,"is_disabled":false,"rental_uris":{"android":"levelo://app?vid=4f5cf7ef-ddb5-4d25-9c0b-bec33f5f4447","ios":"levelo://app?vid=4f5cf7ef-ddb5-4d25-9c0b-bec33f5f4447"},"vehicle_type_id":"4","last_reported":1774653711,"current_range_meters":9200,"station_id":"","pricing_plan_id":"cebpf4jnsgd1na2vs0mg"},{"bike_id":"c5ffcb6e-94c8-46bc-bcbe-82a7f99bb502","system_id":"levelo_inurba_marseille","lat":43.27842,"lon":5.39198,"is_reserved":false,"is_disabled":true,"rental_uris":{"android":"levelo://app?vid=c5ffcb6e-94c8-46bc-bcbe-82a7f99bb502","ios":"levelo://app?vid=c5ffcb6e-94c8-46bc-bcbe-82a7f99bb502"},"vehicle_type_id":"4","last_reported":1774653711,"current_range_meters":9600,"station_id":"ce4bhjp2rcd13ifvqga0","pricing_plan_id":"cebpf4jnsgd1na2vs0mg"},{"bike_id":"b4b19b25-9b5f-47b6-b435-6d102ce90ad0","system_id":"levelo_inurba_marseille","lat":43.30658,"lon":5.40071,"is_reserved":false,"is_disabled":false,"rental_uris":{"android":"levelo://app?vid=b4b19b25-9b5f-47b6-b435-6d102ce90ad0","ios":"levelo://app?vid=b4b19b25-9b5f-47b6-b435-6d102ce90ad0"},"vehicle_type_id":"4","last_reported":1774653711,"current_range_meters":9600,"station_id":"ce4bh112rcd13ifvqda0","pricing_plan_id":"cebpf4jnsgd1na2vs0mg"},{"bike_id":"8e059a72-2c7f-4eeb-af9b-4a1e83973ab8","system_id":"levelo_inurba_marseille","lat":43.29851,"lon":5.36298,"is_reserved":false,"is_disabled":false,"rental_uris":{"android":"levelo://app?vid=8e059a72-2c7f-4eeb-af9b-4a1e83973ab8","ios":"levelo://app?vid=8e059a72-2c7f-4eeb-af9b-4a1e83973ab8"},"vehicle_type_id":"4","last_reported":1774653711,"current_range_meters":9600,"station_id":"ce4bgpp2rcd13ifvqc3g","pricing_plan_id":"cebpf4jnsgd1na2vs0mg"},{"bike_id":"92cb4986-12bc-44d4-ad49-496427bf2b45","system_id":"levelo_inurba_marseille","lat":43.28526,"lon":5.44095,"is_reserved":false,"is_disabled":false,"rental_uris":{"android":"levelo://app?vid=92cb4986-12bc-44d4-ad49-496427bf2b45","ios":"levelo://app?vid=92cb4986-12bc-44d4-ad49-496427bf2b45"},"vehicle_type_id":"4","last_reported":1774653711,"current_range_meters":9600,"station_id":"st_d3j3df2ikq2c7380ej80","pricing_plan_id":"cebpf4jnsgd1na2vs0mg"},{"bike_id":"08ec576b-f8b2-4dc3-9428-e6d6eb14420f","system_id":"levelo_inurba_marseille","lat":43.28949,"lon":5.36622,"is_reserved":false,"is_disabled":true,"rental_uris":{"android":"levelo://app?vid=08ec576b-f8b2-4dc3-9428-e6d6eb14420f","ios":"levelo://app?vid=08ec576b-f8b2-4dc3-9428-e6d6eb14420f"},"vehicle_type_id":"4","last_reported":1774653711,"current_range_meters":9600,"station_id":"ce4bhap2rcd13ifvqek0","pricing_plan_id":"cebpf4jnsgd1na2vs0mg"},{"bike_id":"fadd83d2-5a56-4dab-abd3-4fc024887366","system_id":"levelo_inurba_marseille","lat":43.28483,"lon":5.48396,"is_reserved":false,"is_disabled":false,"rental_uris":{"android":"levelo://app?vid=fadd83d2-5a56-4dab-abd3-4fc024887366","ios":"levelo://app?vid=fadd83d2-5a56-4dab-abd3-4fc024887366"},"vehicle_type_id":"4","last_reported":1774653711,"current_range_meters":9600,"station_id":"","pricing_plan_id":"cebpf4jnsgd1na2vs0mg"},{"bike_id":"6627d87e-d8cc-4315-9870-c98a872f12b5","system_id":"levelo_inurba_marseille","lat":43.24672,"lon":5.3816,"is_reserved":false,"is_disabled":false,"rental_uris":{"android":"levelo://app?vid=6627d87e-d8cc-4315-9870-c98a872f12b5","ios":"levelo://app?vid=6627d87e-d8cc-4315-9870-c98a872f12b5"},"vehicle_type_id":"4","last_reported":1774653711,"current_range_meters":9600,"station_id":"ce4bhih2rcd13ifvqfr0","pricing_plan_id":"cebpf4jnsgd1na2vs0mg"},{"bike_id":"1fce7f1d-4e59-45d5-ad05-440b881821b7","system_id":"levelo_inurba_marseille","lat":43.238,"lon":5.36631,"is_reserved":false,"is_disabled":false,"rental_uris":{"android":"levelo://app?vid=1fce7f1d-4e59-45d5-ad05-440b881821b7","ios":"levelo://app?vid=1fce7f1d-4e59-45d5-ad05-440b881821b7"},"vehicle_type_id":"4","last_reported":1774653711,"current_range_meters":9600,"station_id":"st_d3nk18o9ro0c73en2l3g","pricing_plan_id":"cebpf4jnsgd1na2vs0mg"},{"bike_id":"ceafad9d-a500-41ad-9e31-0938466572d1","system_id":"levelo_inurba_marseille","lat":43.32372,"lon":5.38881,"is_reserved":false,"is_disabled":false,"rental_uris":{"android":"levelo://app?vid=ceafad9d-a500-41ad-9e31-0938466572d1","ios":"levelo://app?vid=ceafad9d-a500-41ad-9e31-0938466572d1"},"vehicle_type_id":"4","last_reported":1774653711,"current_range_meters":9600,"station_id":"ce4bhqp2rcd13ifvqhog","pricing_plan_id":"cebpf4jnsgd1na2vs0mg"},{"bike_id":"7bbe5da5-0d54-4ebc-85ac-6bfd30c27b79","system_id":"levelo_inurba_marseille","lat":43.28278,"lon":5.35075,"is_reserved":false,"is_disabled":false,"rental_uris":{"android":"levelo://app?vid=7bbe5da5-0d54-4ebc-85ac-6bfd30c27b79","ios":"levelo://app?vid=7bbe5da5-0d54-4ebc-85ac-6bfd30c27b79"},