{"last_updated":1728572963,"ttl":60,"version":"2.2","data":{"bikes":[{"bike_id":"b9a4a9aa-63bd-420e-9bc4-25eeff4d8cca","system_id":"levelo_inurba_marseille","lat":43.29034,"lon":5.37563,"is_reserved":false,"is_disabled":false,"rental_uris":{"android":"levelo://app?vid=b9a4a9aa-63bd-420e-9bc4-25eeff4d8cca","ios":"levelo://app?vid=b9a4a9aa-63bd-420e-9bc4-25eeff4d8cca"},"vehicle_type_id":"4","last_reported":1728572963,"current_range_meters":38400,"station_id":"ce4bh692rcd13ifvqe90","pricing_plan_id":"cebpf4jnsgd1na2vs0mg"},{"bike_id":"ddb9679b-c37e-4bea-beb9-d80ba93eccb3","system_id":"levelo_inurba_marseille","lat":43.30189,"lon":5.36619,"is_reserved":false,"is_disabled":false,"rental_uris":{"android":"levelo://app?vid=ddb9679b-c37e-4bea-beb9-d80ba93eccb3","ios":"levelo://app?vid=ddb9679b-c37e-4bea-beb9-d80ba93eccb3"},"vehicle_type_id":"4","last_reported":1728572963,"current_range_meters":20400,"station_id":"ce4bgrh2rcd13ifvqc8g","pricing_plan_id":"cebpf4jnsgd1na2vs0mg"},{"bike_id":"342a1f50-2f95-49d3-a407-54ad2fd07c5b","system_id":"levelo_inurba_marseille","lat":43.29005,"lon":5.3561,"is_reserved":false,"is_disabled":false,"rental_uris":{"android":"levelo://app?vid=342a1f50-2f95-49d3-a407-54ad2fd07c5b","ios":"levelo://app?vid=342a1f50-2f95-49d3-a407-54ad2fd07c5b"},"vehicle_type_id":"4","last_reported":1728572963,"current_range_meters":38400,"station_id":"ce4bhb92rcd13ifvqen0","pricing_plan_id":"cebpf4jnsgd1na2vs0mg"},{"bike_id":"9b480003-6b61-4a3a-a9e3-c1c657b101dd","system_id":"levelo_inurba_marseille","lat":43.30887,"lon":5.39662,"is_reserved":false,"is_disabled":false,"rental_uris":{"android":"levelo://app?vid=9b480003-6b61-4a3a-a9e3-c1c657b101dd","ios":"levelo://app?vid=9b480003-6b61-4a3a-a9e3-c1c657b101dd"},"vehicle_type_id":"4","last_reported":1728572963,"current_range_meters":8800,"station_id":"ce4bh012rcd13ifvqcv0","pricing_plan_id":"cebpf4jnsgd1na2vs0mg"},{"bike_id":"fc61c697-0405-4d7e-bb40-cfe30b19f812","system_id":"levelo_inurba_marseille","lat":43.26552,"lon":5.37292,"is_reserved":false,"is_disabled":false,"rental_uris":{"android":"levelo://app?vid=fc61c697-0405-4d7e-bb40-cfe30b19f812","ios":"levelo://app?vid=fc61c697-0405-4d7e-bb40-cfe30b19f812"},"vehicle_type_id":"4","last_reported":1728572963,"current_range_meters":8000,"station_id":"ce4bhg12rcd13ifvqf70","pricing_plan_id":"cebpf4jnsgd1na2vs0mg"},{"bike_id":"69e77010-a535-4398-8159-24f48f4c7d15","system_id":"levelo_inurba_marseille","lat":43.23066,"lon":5.35502,"is_reserved":false,"is_disabled":false,"rental_uris":{"android":"levelo://app?vid=69e77010-a535-4398-8159-24f48f4c7d15","ios":"levelo://app?vid=69e77010-a535-4398-8159-24f48f4c7d15"},"vehicle_type_id":"4","last_reported":1728572963,"current_range_meters":2800,"station_id":"cpo3342slgdg3j2ifvpg","pricing_plan_id":"cebpf4jnsgd1na2vs0mg"},{"bike_id":"b4f286dc-a4de-42a1-945f-cd2fc5184189","system_id":"levelo_inurba_marseille","lat":43.32047,"lon":5.4157,"is_reserved":false,"is_disabled":false,"rental_uris":{"android":"levelo://app?vid=b4f286dc-a4de-42a1-945f-cd2fc5184189","ios":"levelo://app?vid=b4f286dc-a4de-42a1-945f-cd2fc5184189"},"vehicle_type_id":"4","last_reported":1728572963,"current_range_meters":6800,"station_id":"ce4bhq92rcd13ifvqhkg","pricing_plan_id":"cebpf4jnsgd1na2vs0mg"},{"bike_id":"88fdfdd6-484a-4d1f-b406-2d619f38c49c","system_id":"levelo_inurba_marseille","lat":43.29927,"lon":5.36538,"is_reserved":false,"is_disabled":false,"rental_uris":{"android":"levelo://app?vid=88fdfdd6-484a-4d1f-b406-2d619f38c49c","ios":"levelo://app?vid=88fdfdd6-484a-4d1f-b406-2d619f38c49c"},"vehicle_type_id":"4","last_reported":1728572963,"current_range_meters":37600,"station_id":"ce4bgm92rcd13ifvqbr0","pricing_plan_id":"cebpf4jnsgd1na2vs0mg"},{"bike_id":"6bfd4af9-f820-4cc4-a220-f0656ea4c165","system_id":"levelo_inurba_marseille","lat":43.28269,"lon":5.35068,"is_reserved":false,"is_disabled":false,"rental_uris":{"android":"levelo://app?vid=6bfd4af9-f820-4cc4-a220-f0656ea4c165","ios":"levelo://app?vid=6bfd4af9-f820-4cc4-a220-f0656ea4c165"},"vehicle_type_id":"4","last_reported":1728572963,"current_range_meters":10800,"station_id":"ce4bhbp2rcd13ifvqerg","pricing_plan_id":"cebpf4jnsgd1na2vs0mg"},{"bike_id":"51e4ada5-8e62-4368-818a-b5f4e9f4ce27","system_id":"levelo_inurba_marseille","lat":43.30433,"lon":5.39748,"is_reserved":false,"is_disabled":false,"rental_uris":{"android":"levelo://app?vid=51e4ada5-8e62-4368-818a-b5f4e9f4ce27","ios":"levelo://app?vid=51e4ada5-8e62-4368-818a-b5f4e9f4ce27"},"vehicle_type_id":"4","last_reported":1728572963,"current_range_meters":20400,"station_id":"ce4bh092rcd13ifvqd20","pricing_plan_id":"cebpf4jnsgd1na2vs0mg"},{"bike_id":"81860f0d-2504-4467-8bac-20ad80b3bbc1","system_id":"levelo_inurba_marseille","lat":43.25108,"lon":5.4033,"is_reserved":false,"is_disabled":false,"rental_uris":{"android":"levelo://app?vid=81860f0d-2504-4467-8bac-20ad80b3bbc1","ios":"levelo://app?vid=81860f0d-2504-4467-8bac-20ad80b3bbc1"},"vehicle_type_id":"4","last_reported":1728572963,"current_range_meters":38000,"station_id":"ce4bhlh2rcd13ifvqgig","pricing_plan_id":"cebpf4jnsgd1na2vs0mg"},{"bike_id":"6cb2fd54-0aca-4f7d-aadb-bc057dc4fb59","system_id":"levelo_inurba_marseille","lat":43.23063,"lon":5.35492,"is_reserved":false,"is_disabled":false,"rental_uris":{"android":"levelo://app?vid=6cb2fd54-0aca-4f7d-aadb-bc057dc4fb59","ios":"levelo://app?vid=6cb2fd54-0aca-4f7d-aadb-bc057dc4fb59"},"vehicle_type_id":"4","last_reported":1728572963,"current_range_meters":32800,"station_id":"cpo3342slgdg3j2ifvpg","pricing_plan_id":"cebpf4jnsgd1na2vs0mg"},{"bike_id":"cfe9fbc1-1d26-4e4e-a6a8-bed106055ea0","system_id":"levelo_inurba_marseille","lat":43.25113,"lon":5.40321,"is_reserved":false,"is_disabled":false,"rental_uris":{"android":"levelo://app?vid=cfe9fbc1-1d26-4e4e-a6a8-bed106055ea0","ios":"levelo://app?vid=cfe9fbc1-1d26-4e4e-a6a8-bed106055ea0"},"vehicle_type_id":"4","last_reported":1728572963,"current_range_meters":20000,"station_id":"ce4bhlh2rcd13ifvqgig","pricing_plan_id":"cebpf4jnsgd1na2vs0mg"},{"bike_id":"81d9c9e9-e0d5-424f-91b7-cd58673e35cc","system_id":"levelo_inurba_marseille","lat":43.2885,"lon":5.35857,"is_reserved":false,"is_disabled":false,"rental_uris":{"android":"levelo://app?vid=81d9c9e9-e0d5-424f-91b7-cd58673e35cc","ios":"levelo://app?vid=81d9c9e9-e0d5-424f-91b7-cd58673e35cc"},"vehicle_type_id":"4","last_reported":1728572963,"current_range_meters":33600,"station_id":"ce4bhb12rcd13ifvqem0","pricing_plan_id":"cebpf4jnsgd1na2vs0mg"},{"bike_id":"ddce1e7b-dd38-426f-b81e-50615c0b72f0","system_id":"levelo_inurba_marseille","lat":43.30087,"lon":5.39104,"is_reserved":false,"is_disabled":false,"rental_uris":{"android":"levelo://app?vid=ddce1e7b-dd38-426f-b81e-50615c0b72f0","ios":"levelo://app?vid=ddce1e7b-dd38-426f-b81e-50615c0b72f0"},"vehicle_type_id":"4","last_reported":1728572963,"current_range_meters":24800,"station_id":"ce4bh192rcd13ifvqdb0","pricing_plan_id":"cebpf4jnsgd1na2vs0mg"},{"bike_id":"fe1386ee-6194-4218-a1fa-d1785afff62e","system_id":"levelo_inurba_marseille","lat":43.2681,"lon":5.40262,"is_reserved":false,"is_disabled":false,"rental_uris":{"android":"levelo://app?vid=fe1386ee-6194-4218-a1fa-d1785afff62e","ios":"levelo://app?vid=fe1386ee-6194-4218-a1fa-d1785afff62e"},"vehicle_type_id":"4","last_reported":1728572963,"current_range_meters":38800,"station_id":"ce501612rcd8frsf0b60","pricing_plan_id":"cebpf4jnsgd1na2vs0mg"},{"bike_id":"dd95b125-f60f-4a9b-978c-a450ed00647c","system_id":"levelo_inurba_marseille","lat":43.29262,"lon":5.4091,"is_reserved":false,"is_disabled":false,"rental_uris":{"android":"levelo://app?vid=dd95b125-f60f-4a9b-978c-a450ed00647c","ios":"levelo://app?vid=dd95b125-f60f-4a9b-978c-a450ed00647c"},"vehicle_type_id":"4","last_reported":1728572963,"current_range_meters":24800,"station_id":"ce4bh192rcd13ifvqdc0","pricing_plan_id":"cebpf4jnsgd1na2vs0mg"},{"bike_id":"0696bcda-3c4b-4fc6-a52a-646387bd3f39","system_id":"levelo_inurba_marseille","lat":43.31325,"lon":5.39698,"is_reserved":false,"is_disabled":false,"rental_uris":{"android":"levelo://app?vid=0696bcda-3c4b-4fc6-a52a-646387bd3f39","ios":"levelo://app?vid=0696bcda-3c4b-4fc6-a52a-646387bd3f39"},"vehicle_type_id":"4","last_reported":1728572963,"current_range_meters":27200,"station_id":"ce4bgvp2rcd13ifvqcu0","pricing_plan_id":"cebpf4jnsgd1na2vs0mg"},{"bike_id":"2d5a0a53-2f29-46d7-89ee-b824b28b60a3","system_id":"levelo_inurba_marseille","lat":43.27999,"lon":5.40014,"is_reserved":false,"is_disabled":false,"rental_uris":{"android":"levelo://app?vid=2d5a0a53-2f29-46d7-89ee-b824b28b60a3","ios":"levelo://app?vid=2d5a0a53-2f29-46d7-89ee-b824b28b60a3"},"vehicle_type_id":"4","last_reported":1728572963,"current_range_meters":36400,"station_id":"ce4bho92rcd13ifvqh4g","pricing_plan_id":"cebpf4jnsgd1na2vs0mg"},{"bike_id":"e872fc30-3c57-4a83-b46e-c9748d4c279a","system_id":"levelo_inurba_marseille","lat":43.33723,"lon":5.39185,"is_reserved":false,"is_disabled":false,"rental_uris":{"android":"levelo://app?vid=e872fc30-3c57-4a83-b46e-c9748d4c279a","ios":"levelo://app?vid=e872fc30-3c57-4a83-b46e-c9748d4c279a"},"vehicle_type_id":"4","last_reported":1728572963,"current_range_meters":25200,"station_id":"ce4bhr92rcd13ifvqhsg","pricing_plan_id":"cebpf4jnsgd1na2vs0mg"},{"bike_id":"8fd52a26-edb1-4575-bac7-84ab2b847ac9","system_id":"levelo_inurba_marseille","lat":43.251079,"lon":5.403204,"is_reserved":false,"is_disabled":false,"rental_uris":{"android":"levelo://app?vid=8fd52a26-edb1-4575-bac7-84ab2b847ac9","ios":"levelo://app?vid=8fd52a26-edb1-4575-bac7-84ab2b847ac9"},"vehicle_type_id":"4","last_reported":1728572963,"current_range_meters":12400,"station_id":"ce4bhlh2rcd13ifvqgig","pricing_plan_id":"cebpf4jnsgd1na2vs0mg"},{"bike_id":"21334fa1-b638-4353-bfe6-7c86a8c6c0ba","system_id":"levelo_inurba_marseille","lat":43.29681,"lon":5.37291,"is_reserved":false,"is_disabled":false,"rental_uris":{"android":"levelo://app?vid=21334fa1-b638-4353-bfe6-7c86a8c6c0ba","ios":"levelo://app?vid=21334fa1-b638-4353-bfe6-7c86a8c6c0ba"},"vehicle_type_id":"4","last_reported":1728572963,"current_range_meters":16400,"station_id":"ce4bgk12rcd13ifvqbj0","pricing_plan_id":"cebpf4jnsgd1na2vs0mg"},{"bike_id":"2bb7dedb-f9bf-4c59-891d-c9267e0971a3","system_id":"levelo_inurba_marseille","lat":43.3371,"lon":5.37523,"is_reserved":false,"is_disabled":false,"rental_uris":{"android":"levelo://app?vid=2bb7dedb-f9bf-4c59-891d-c9267e0971a3","ios":"levelo://app?vid=2bb7dedb-f9bf-4c59-891d-c9267e0971a3"},"vehicle_type_id":"4","last_reported":1728572963,"current_range_meters":19200,"station_id":"","pricing_plan_id":"cebpf4jnsgd1na2vs0mg"},{"bike_id":"75cb4fda-41f4-428c-8010-6b9d5365617f","system_id":"levelo_inurba_marseille","lat":43.31884,"lon":5.40737,"is_reserved":false,"is_disabled":false,"rental_uris":{"android":"levelo://app?vid=75cb4fda-41f4-428c-8010-6b9d5365617f","ios":"levelo://app?vid=75cb4fda-41f4-428c-8010-6b9d5365617f"},"vehicle_type_id":"4","last_reported":1728572963,"current_range_meters":2800,"station_id":"ce4bhq12rcd13ifvqhig","pricing_plan_id":"cebpf4jnsgd1na2vs0mg"},{"bike_id":"1724a986-206e-44c4-acc6-99c3f365633c","system_id":"levelo_inurba_marseille","lat":43.23188,"lon":5.35559,"is_reserved":false,"is_disabled":false,"rental_uris":{"android":"levelo://app?vid=1724a986-206e-44c4-acc6-99c3f365633c","ios":"levelo://app?vid=1724a986-206e-44c4-acc6-99c3f365633c"},"vehicle_type_id":"4","last_reported":1728572963,"current_range_meters":18000,"station_id":"ce4bhu92rcd13ifvqi70","pricing_plan_id":"cebpf4jnsgd1na2vs0mg"},{"bike_id":"c245575d-cabc-429f-a684-5c79021eb0ec","system_id":"levelo_inurba_marseille","lat":43.33753,"lon":5.37463,"is_reserved":false,"is_disabled":false,"rental_uris":{"android":"levelo://app?vid=c245575d-cabc-429f-a684-5c79021eb0ec","ios":"levelo://app?vid=c245575d-cabc-429f-a684-5c79021eb0ec"},"vehicle_type_id":"4","last_reported":1728572963,"current_range_meters":33600,"station_id":"","pricing_plan_id":"cebpf4jnsgd1na2vs0mg"},{"bike_id":"9dc9c635-fef8-4ad8-ae59-4883150add94","system_id":"levelo_inurba_marseille","lat":43.32366,"lon":5.38889,"is_reserved":false,"is_disabled":false,"rental_uris":{"android":"levelo://app?vid=9dc9c635-fef8-4ad8-ae59-4883150add94","ios":"levelo://app?vid=9dc9c635-fef8-4ad8-ae59-4883150add94"},"vehicle_type_id":"4","last_reported":1728572963,"current_range_meters":20400,"station_id":"ce4bhqp2rcd13ifvqhog","pricing_plan_id":"cebpf4jnsgd1na2vs0mg"},{"bike_id":"7de829ad-f25b-4402-bf74-60e6cd97cd62","system_id":"levelo_inurba_marseille","lat":43.28418,"lon":5.34993,"is_reserved":false,"is_disabled":false,"rental_uris":{"android":"levelo://app?vid=7de829ad-f25b-4402-bf74-60e6cd97cd62","ios":"levelo://app?vid=7de829ad-f25b-4402-bf74-60e6cd97cd62"},"vehicle_type_id":"4","last_reported":1728572963,"current_range_meters":6400,"station_id":"ce4bhbh2rcd13ifvqepg","pricing_plan_id":"cebpf4jnsgd1na2vs0mg"},{"bike_id":"9db4d985-7949-4b7f-b898-6a0ca7ba3693","system_id":"levelo_inurba_marseille","lat":43.33727,"lon":5.37425,"is_reserved":false,"is_disabled":false,"rental_uris":{"android":"levelo://app?vid=9db4d985-7949-4b7f-b898-6a0ca7ba3693","ios":"levelo://app?vid=9db4d985-7949-4b7f-b898-6a0ca7ba3693"},"vehicle_type_id":"4","last_reported":1728572963,"current_range_meters":36000,"station_id":"ce4rr2p2rcd13i802rgg","pricing_plan_id":"cebpf4jnsgd1na2vs0mg"},{"bike_id":"c4ac309e-be14-40fe-8e42-41d71e378c32","system_id":"levelo_inurba_marseille","lat":43.31721,"lon":5.42401,"is_reserved":false,"is_disabled":false,"rental_uris":{"android":"levelo://app?vid=c4ac309e-be14-40fe-8e42-41d71e378c32","ios":"levelo://app?vid=c4ac309e-be14-40fe-8e42-41d71e378c32"},"vehicle_type_id":"4","last_reported":1728572963,"current_range_meters":38000,"station_id":"ce4bhp92rcd13ifvqhbg","pricing_plan_id":"cebpf4jnsgd1na2vs0mg"},{"bike_id":"320453ba-8315-4ffa-b37e-512ccc122084","system_id":"levelo_inurba_marseille","lat":43.301331,"lon":5.374021,"is_reserved":false,"is_disabled":false,"rental_uris":{"android":"levelo://app?vid=320453ba-8315-4ffa-b37e-512ccc122084","ios":"levelo://app?vid=320453ba-8315-4ffa-b37e-512ccc122084"},"vehicle_type_id":"4","last_reported":1728572963,"current_range_meters":31200,"station_id":"ce4bgs92rcd13ifvqcc0","pricing_plan_id":"cebpf4jnsgd1na2vs0mg"},{"bike_id":"c2709d8c-182c-4c66-9678-32143d413767","system_id":"levelo_inurba_marseille","lat":43.22936,"lon":5.35378,"is_reserved":false,"is_disabled":false,"rental_uris":{"android":"levelo://app?vid=c2709d8c-182c-4c66-9678-32143d413767","ios":"levelo://app?vid=c2709d8c-182c-4c66-9678-32143d413767"},"vehicle_type_id":"4","last_reported":1728572963,"current_range_meters":36400,"station_id":"cpo3532slgdg3j2ikp40","pricing_plan_id":"cebpf4jnsgd1na2vs0mg"},{"bike_id":"ec63c6e9-432c-4339-881b-b1c70a7e2cfb","system_id":"levelo_inurba_marseille","lat":43.282693,"lon":5.350803,"is_reserved":false,"is_disabled":false,"rental_uris":{"android":"levelo://app?vid=ec63c6e9-432c-4339-881b-b1c70a7e2cfb","ios":"levelo://app?vid=ec63c6e9-432c-4339-881b-b1c70a7e2cfb"},"vehicle_type_id":"4","last_reported":1728572963,"current_range_meters":10800,"station_id":"ce4bhbp2rcd13ifvqerg","pricing_plan_id":"cebpf4jnsgd1na2vs0mg"},{"bike_id":"15e60342-2492-4d11-bdc8-7431e6ce324c","system_id":"levelo_inurba_marseille","lat":43.23957,"lon":5.36641,"is_reserved":false,"is_disabled":false,"rental_uris":{"android":"levelo://app?vid=15e60342-2492-4d11-bdc8-7431e6ce324c","ios":"levelo://app?vid=15e60342-2492-4d11-bdc8-7431e6ce324c"},"vehicle_type_id":"4","last_reported":1728572963,"current_range_meters":31200,"station_id":"ce4bhi12rcd13ifvqfp0","pricing_plan_id":"cebpf4jnsgd1na2vs0mg"},{"bike_id":"6275f824-c0e3-4bb5-bd73-911d14f1aa67","system_id":"levelo_inurba_marseille","lat":43.30417,"lon":5.41286,"is_reserved":false,"is_disabled":false,"rental_uris":{"android":"levelo://app?vid=6275f824-c0e3-4bb5-bd73-911d14f1aa67","ios":"levelo://app?vid=6275f824-c0e3-4bb5-bd73-911d14f1aa67"},"vehicle_type_id":"4","last_reported":1728572963,"current_range_meters":17200,"station_id":"ce4bhop2rcd13ifvqh8g","pricing_plan_id":"cebpf4jnsgd1na2vs0mg"},{"bike_id":"bacd12ec-04a1-4f48-9874-6d6d42beac4c","system_id":"levelo_inurba_marseille","lat":43.27674,"lon":5.38887,"is_reserved":false,"is_disabled":false,"rental_uris":{"android":"levelo://app?vid=bacd12ec-04a1-4f48-9874-6d6d42beac4c","ios":"levelo://app?vid=bacd12ec-04a1-4f48-9874-6d6d42beac4c"},"vehicle_type_id":"4","last_reported":1728572963,"current_range_meters":35200,"station_id":"ce4bhi12rcd13ifvqfo0","pricing_plan_id":"cebpf4jnsgd1na2vs0mg"},{"bike_id":"13d715de-b35b-4444-8387-bc657f2f3ac4","system_id":"levelo_inurba_marseille","lat":43.30303,"lon":5.369,"is_reserved":false,"is_disabled":false,"rental_uris":{"android":"levelo://app?vid=13d715de-b35b-4444-8387-bc657f2f3ac4","ios":"levelo://app?vid=13d715de-b35b-4444-8387-bc657f2f3ac4"},"vehicle_type_id":"4","last_reported":1728572963,"current_range_meters":27600,"station_id":"ce4bgqh2rcd13ifvqc5g","pricing_plan_id":"cebpf4jnsgd1na2vs0mg"},{"bike_id":"f92a9fb8-9f73-4cf9-bc9b-2bdf5b520248","system_id":"levelo_inurba_marseille","lat":43.32552,"lon":5.41447,"is_reserved":false,"is_disabled":false,"rental_uris":{"android":"levelo://app?vid=f92a9fb8-9f73-4cf9-bc9b-2bdf5b520248","ios":"levelo://app?vid=f92a9fb8-9f73-4cf9-bc9b-2bdf5b520248"},"vehicle_type_id":"4","last_reported":1728572963,"current_range_meters":38800,"station_id":"ce4bhq12rcd13ifvqhhg","pricing_plan_id":"cebpf4jnsgd1na2vs0mg"},{"bike_id":"3fb144be-ca8c-475b-b267-9ea237b075a8","system_id":"levelo_inurba_marseille","lat":43.29275,"lon":5.38439,"is_reserved":false,"is_disabled":false,"rental_uris":{"android":"levelo://app?vid=3fb144be-ca8c-475b-b267-9ea237b075a8","ios":"levelo://app?vid=3fb144be-ca8c-475b-b267-9ea237b075a8"},"vehicle_type_id":"4","last_reported":1728572963,"current_range_meters":6000,"station_id":"ce4bh692rcd13ifvqea0","pricing_plan_id":"cebpf4jnsgd1na2vs0mg"},{"bike_id":"50aa4af7-94b4-48c9-959d-eeec3eaec001","system_id":"levelo_inurba_marseille","lat":43.23199,"lon":5.35548,"is_reserved":false,"is_disabled":false,"rental_uris":{"android":"levelo://app?vid=50aa4af7-94b4-48c9-959d-eeec3eaec001","ios":"levelo://app?vid=50aa4af7-94b4-48c9-959d-eeec3eaec001"},"vehicle_type_id":"4","last_reported":1728572963,"current_range_meters":6800,"station_id":"ce4bhu92rcd13ifvqi70","pricing_plan_id":"cebpf4jnsgd1na2vs0mg"},{"bike_id":"14f502d5-27f3-48d2-aad1-6ec9ba344c93","system_id":"levelo_inurba_marseille","lat":43.26683,"lon":5.38275,"is_reserved":false,"is_disabled":false,"rental_uris":{"android":"levelo://app?vid=14f502d5-27f3-48d2-aad1-6ec9ba344c93","ios":"levelo://app?vid=14f502d5-27f3-48d2-aad1-6ec9ba344c93"},"vehicle_type_id":"4","last_reported":1728572963,"current_range_meters":33600,"station_id":"ce4bhg92rcd13ifvqf90","pricing_plan_id":"cebpf4jnsgd1na2vs0mg"},{"bike_id":"e3e25626-2016-4c0c-bc89-45a13f5c2aec","system_id":"levelo_inurba_marseille","lat":43.26211,"lon":5.37442,"is_reserved":false,"is_disabled":false,"rental_uris":{"android":"levelo://app?vid=e3e25626-2016-4c0c-bc89-45a13f5c2aec","ios":"levelo://app?vid=e3e25626-2016-4c0c-bc89-45a13f5c2aec"},"vehicle_type_id":"4","last_reported":1728572963,"current_range_meters":16800,"station_id":"ce4bhgp2rcd13ifvqfc0","pricing_plan_id":"cebpf4jnsgd1na2vs0mg"},{"bike_id":"255093a8-c98a-4773-851f-60ca2d6fabdf","system_id":"levelo_inurba_marseille","lat":43.32275,"lon":5.38277,"is_reserved":false,"is_disabled":false,"rental_uris":{"android":"levelo://app?vid=255093a8-c98a-4773-851f-60ca2d6fabdf","ios":"levelo://app?vid=255093a8-c98a-4773-851f-60ca2d6fabdf"},"vehicle_type_id":"4","last_reported":1728572963,"current_range_meters":35200,"station_id":"ce4bhr12rcd13ifvqhqg","pricing_plan_id":"cebpf4jnsgd1na2vs0mg"},{"bike_id":"732911a4-7cd9-412a-b014-8ab4fba09f8a","system_id":"levelo_inurba_marseille","lat":43.29258,"lon":5.38449,"is_reserved":false,"is_disabled":false,"rental_uris":{"android":"levelo://app?vid=732911a4-7cd9-412a-b014-8ab4fba09f8a","ios":"levelo://app?vid=732911a4-7cd9-412a-b014-8ab4fba09f8a"},"vehicle_type_id":"4","last_reported":1728572963,"current_range_meters":3200,"station_id":"ce4bh692rcd13ifvqea0","pricing_plan_id":"cebpf4jnsgd1na2vs0mg"},{"bike_id":"1eda9a62-3980-4c15-b6d5-579365675c4b","system_id":"levelo_inurba_marseille","lat":43.29033,"lon":5.37775,"is_reserved":false,"is_disabled":false,"rental_uris":{"android":"levelo://app?vid=1eda9a62-3980-4c15-b6d5-579365675c4b","ios":"levelo://app?vid=1eda9a62-3980-4c15-b6d5-579365675c4b"},"vehicle_type_id":"4","last_reported":1728572963,"current_range_meters":14400,"station_id":"","pricing_plan_id":"cebpf4jnsgd1na2vs0mg"},{"bike_id":"52799f7c-437d-4392-9ce1-0dc74f861eb0","system_id":"levelo_inurba_marseille","lat":43.28458,"lon":5.3589,"is_reserved":false,"is_disabled":false,"rental_uris":{"android":"levelo://app?vid=52799f7c-437d-4392-9ce1-0dc74f861eb0","ios":"levelo://app?vid=52799f7c-437d-4392-9ce1-0dc74f861eb0"},"vehicle_type_id":"4","last_reported":1728572963,"current_range_meters":19600,"station_id":"ce4bhah2rcd13ifvqei0","pricing_plan_id":"cebpf4jnsgd1na2vs0mg"},{"bike_id":"ff68b789-7173-415f-860f-fb58c1b9d01d","system_id":"levelo_inurba_marseille","lat":43.22928,"lon":5.35376,"is_reserved":false,"is_disabled":false,"rental_uris":{"android":"levelo://app?vid=ff68b789-7173-415f-860f-fb58c1b9d01d","ios":"levelo://app?vid=ff68b789-7173-415f-860f-fb58c1b9d01d"},"vehicle_type_id":"4","last_reported":1728572963,"current_range_meters":36400,"station_id":"cpo3532slgdg3j2ikp40","pricing_plan_id":"cebpf4jnsgd1na2vs0mg"},{"bike_id":"924a9ed1-ca4e-44c4-a003-5955b143b28c","system_id":"levelo_inurba_marseille","lat":43.23193,"lon":5.35543,"is_reserved":false,"is_disabled":false,"rental_uris":{"android":"levelo://app?vid=924a9ed1-ca4e-44c4-a003-5955b143b28c","ios":"levelo://app?vid=924a9ed1-ca4e-44c4-a003-5955b143b28c"},"vehicle_type_id":"4","last_reported":1728572963,"current_range_meters":9600,"station_id":"ce4bhu92rcd13ifvqi70","pricing_plan_id":"cebpf4jnsgd1na2vs0mg"},{"bike_id":"fc34a4c2-5dda-43dc-8c76-0302a62a6427","system_id":"levelo_inurba_marseille","lat":43.23191,"lon":5.35558,"is_reserved":false,"is_disabled":false,"rental_uris":{"android":"levelo://app?vid=fc34a4c2-5dda-43dc-8c76-0302a62a6427","ios":"levelo://app?vid=fc34a4c2-5dda-43dc-8c76-0302a62a6427"},"vehicle_type_id":"4","last_reported":1728572963,"current_range_meters":36000,"station_id":"ce4bhu92rcd13ifvqi70","pricing_plan_id":"cebpf4jnsgd1na2vs0mg"},{"bike_id":"9e1f9c6e-503c-4326-9835-9ac83bd1e500","system_id":"levelo_inurba_marseille","lat":43.26941,"lon":5.40243,"is_reserved":false,"is_disabled":false,"rental_uris":{"android":"levelo://app?vid=9e1f9c6e-503c-4326-9835-9ac83bd1e500","ios":"levelo://app?vid=9e1f9c6e-503c-4326-9835-9ac83bd1e500"},"vehicle_type_id":"4","last_reported":1728572963,"current_range_meters":15200,"station_id":"cjm6bp8fraef2m0cb0m0","pricing_plan_id":"cebpf4jnsgd1na2vs0mg"},{"bike_id":"8c8a0ee1-3ab0-407d-b80f-5a93c65fda5f","system_id":"levelo_inurba_marseille","lat":43.27377,"lon":5.36254,"is_reserved":false,"is_disabled":false,"rental_uris":{"android":"levelo://app?vid=8c8a0ee1-3ab0-407d-b80f-5a93c65fda5f","ios":"levelo://app?vid=8c8a0ee1-3ab0-407d-b80f-5a93c65fda5f"},"vehicle_type_id":"4","last_reported":1728572963,"current_range_meters":28800,"station_id":"ce4bhbh2rcd13ifvqeo0","pricing_plan_id":"cebpf4jnsgd1na2vs0mg"},{"bike_id":"b43e010f-69ea-40f6-9796-119442586a51","system_id":"levelo_inurba_marseille","lat":43.31334,"lon":5.39702,"is_reserved":false,"is_disabled":false,"rental_uris":{"android":"levelo://app?vid=b43e010f-69ea-40f6-9796-119442586a51","ios":"levelo://app?vid=b43e010f-69ea-40f6-9796-119442586a51"},"vehicle_type_id":"4","last_reported":1728572963,"current_range_meters":9200,"station_id":"ce4bgvp2rcd13ifvqcu0","pricing_plan_id":"cebpf4jnsgd1na2vs0mg"},{"bike_id":"f925f1f4-39e5-49bb-8e44-f683fd7b61f6","system_id":"levelo_inurba_marseille","lat":43.25864,"lon":5.39901,"is_reserved":false,"is_disabled":false,"rental_uris":{"android":"levelo://app?vid=f925f1f4-39e5-49bb-8e44-f683fd7b61f6","ios":"levelo://app?vid=f925f1f4-39e5-49bb-8e44-f683fd7b61f6"},"vehicle_type_id":"4","last_reported":1728572963,"current_range_meters":12400,"station_id":"ce4bhl92rcd13ifvqghg","pricing_plan_id":"cebpf4jnsgd1na2vs0mg"},{"bike_id":"bf7fccda-45d0-4e09-8e2b-22f6035b5cf5","system_id":"levelo_inurba_marseille","lat":43.28937,"lon":5.39626,"is_reserved":false,"is_disabled":false,"rental_uris":{"android":"levelo://app?vid=bf7fccda-45d0-4e09-8e2b-22f6035b5cf5","ios":"levelo://app?vid=bf7fccda-45d0-4e09-8e2b-22f6035b5cf5"},"vehicle_type_id":"4","last_reported":1728572963,"current_range_meters":17600,"station_id":"ce4bh3h2rcd13ifvqdn0","pricing_plan_id":"cebpf4jnsgd1na2vs0mg"},{"bike_id":"b88acc46-208f-442f-82c2-468418a3d08f","system_id":"levelo_inurba_marseille","lat":43.33721,"lon":5.39179,"is_reserved":false,"is_disabled":false,"rental_uris":{"android":"levelo://app?vid=b88acc46-208f-442f-82c2-468418a3d08f","ios":"levelo://app?vid=b88acc46-208f-442f-82c2-468418a3d08f"},"vehicle_type_id":"4","last_reported":1728572963,"current_range_meters":37600,"station_id":"ce4bhr92rcd13ifvqhsg","pricing_plan_id":"cebpf4jnsgd1na2vs0mg"},{"bike_id":"6e28e480-4556-4204-b183-1df4c906a045","system_id":"levelo_inurba_marseille","lat":43.27057,"lon":5.40263,"is_reserved":false,"is_disabled":false,"rental_uris":{"android":"levelo://app?vid=6e28e480-4556-4204-b183-1df4c906a045","ios":"levelo://app?vid=6e28e480-4556-4204-b183-1df4c906a045"},"vehicle_type_id":"4","last_reported":1728572963,"current_range_meters":19200,"station_id":"ce4bhk92rcd13ifvqgc0","pricing_plan_id":"cebpf4jnsgd1na2vs0mg"},{"bike_id":"396156cd-4f15-4895-9ae4-aeea856ca80d","system_id":"levelo_inurba_marseille","lat":43.25866,"lon":5.39896,"is_reserved":false,"is_disabled":false,"rental_uris":{"android":"levelo://app?vid=396156cd-4f15-4895-9ae4-aeea856ca80d","ios":"levelo://app?vid=396156cd-4f15-4895-9ae4-aeea856ca80d"},"vehicle_type_id":"4","last_reported":1728572963,"current_range_meters":17200,"station_id":"ce4bhl92rcd13ifvqghg","pricing_plan_id":"cebpf4jnsgd1na2vs0mg"},{"bike_id":"c28acb4e-6934-486d-9f1c-8f5cfe164ce9","system_id":"levelo_inurba_marseille","lat":43.25722,"lon":5.41117,"is_reserved":false,"is_disabled":false,"rental_uris":{"android":"levelo://app?vid=c28acb4e-6934-486d-9f1c-8f5cfe164ce9","ios":"levelo://app?vid=c28acb4e-6934-486d-9f1c-8f5cfe164ce9"},"vehicle_type_id":"4","last_reported":1728572963,"current_range_meters":24800,"station_id":"ce4bhkp2rcd13ifvqgd0","pricing_plan_id":"cebpf4jnsgd1na2vs0mg"},{"bike_id":"2c320775-be5e-496e-a5b8-68d2e183dc03","system_id":"levelo_inurba_marseille","lat":43.26556,"lon":5.37287,"is_reserved":false,"is_disabled":false,"rental_uris":{"android":"levelo://app?vid=2c320775-be5e-496e-a5b8-68d2e183dc03","ios":"levelo://app?vid=2c320775-be5e-496e-a5b8-68d2e183dc03"},"vehicle_type_id":"4","last_reported":1728572963,"current_range_meters":24000,"station_id":"ce4bhg12rcd13ifvqf70","pricing_plan_id":"cebpf4jnsgd1na2vs0mg"},{"bike_id":"aa3ddc57-3baf-4cf5-95db-2129a84df61b","system_id":"levelo_inurba_marseille","lat":43.24392,"lon":5.37063,"is_reserved":false,"is_disabled":false,"rental_uris":{"android":"levelo://app?vid=aa3ddc57-3baf-4cf5-95db-2129a84df61b","ios":"levelo://app?vid=aa3ddc57-3baf-4cf5-95db-2129a84df61b"},"vehicle_type_id":"4","last_reported":1728572963,"current_range_meters":27600,"station_id":"ce4bhhh2rcd13ifvqfk0","pricing_plan_id":"cebpf4jnsgd1na2vs0mg"},{"bike_id":"f90ca49f-87e5-4ffa-83bf-89fbe4726d17","system_id":"levelo_inurba_marseille","lat":43.23191,"lon":5.35547,"is_reserved":false,"is_disabled":false,"rental_uris":{"android":"levelo://app?vid=f90ca49f-87e5-4ffa-83bf-89fbe4726d17","ios":"levelo://app?vid=f90ca49f-87e5-4ffa-83bf-89fbe4726d17"},"vehicle_type_id":"4","last_reported":1728572963,"current_range_meters":35200,"station_id":"ce4bhu92rcd13ifvqi70","pricing_plan_id":"cebpf4jnsgd1na2vs0mg"},{"bike_id":"59e1be74-60ad-42e6-8fa9-a2d743c44f24","system_id":"levelo_inurba_marseille","lat":43.30315,"lon":5.40449,"is_reserved":false,"is_disabled":false,"rental_uris":{"android":"levelo://app?vid=59e1be74-60ad-42e6-8fa9-a2d743c44f24","ios":"levelo://app?vid=59e1be74-60ad-42e6-8fa9-a2d743c44f24"},"vehicle_type_id":"4","last_reported":1728572963,"current_range_meters":9200,"station_id":"ce4bh012rcd13ifvqd10","pricing_plan_id":"cebpf4jnsgd1na2vs0mg"},{"bike_id":"17fff274-6ef9-473f-af51-0c398815f487","system_id":"levelo_inurba_marseille","lat":43.25722,"lon":5.41115,"is_reserved":false,"is_disabled":false,"rental_uris":{"android":"levelo://app?vid=17fff274-6ef9-473f-af51-0c398815f487","ios":"levelo://app?vid=17fff274-6ef9-473f-af51-0c398815f487"},"vehicle_type_id":"4","last_reported":1728572963,"current_range_meters":36000,"station_id":"ce4bhkp2rcd13ifvqgd0","pricing_plan_id":"cebpf4jnsgd1na2vs0mg"},{"bike_id":"42ce40d3-b420-4d3e-84b0-fed6905cf5c3","system_id":"levelo_inurba_marseille","lat":43.292851,"lon":5.374489,"is_reserved":false,"is_disabled":false,"rental_uris":{"android":"levelo://app?vid=42ce40d3-b420-4d3e-84b0-fed6905cf5c3","ios":"levelo://app?vid=42ce40d3-b420-4d3e-84b0-fed6905cf5c3"},"vehicle_type_id":"4","last_reported":1728572963,"current_range_meters":4400,"station_id":"ce4bgi12rcd13ifvqb70","pricing_plan_id":"cebpf4jnsgd1na2vs0mg"},{"bike_id":"3cf6c230-2735-44a8-84cf-d46bc6ce4052","system_id":"levelo_inurba_marseille","lat":43.28273,"lon":5.35065,"is_reserved":false,"is_disabled":false,"rental_uris":{"android":"levelo://app?vid=3cf6c230-2735-44a8-84cf-d46bc6ce4052","ios":"levelo://app?vid=3cf6c230-2735-44a8-84cf-d46bc6ce4052"},"vehicle_type_id":"4","last_reported":1728572963,"current_range_meters":30800,"station_id":"ce4bhbp2rcd13ifvqerg","pricing_plan_id":"cebpf4jnsgd1na2vs0mg"},{"bike_id":"4fcf2b94-aff7-43b6-a63f-629eb1700e40","system_id":"levelo_inurba_marseille","lat":43.29565,"lon":5.3751,"is_reserved":false,"is_disabled":false,"rental_uris":{"android":"levelo://app?vid=4fcf2b94-aff7-43b6-a63f-629eb1700e40","ios":"levelo://app?vid=4fcf2b94-aff7-43b6-a63f-629eb1700e40"},"vehicle_type_id":"4","last_reported":1728572963,"current_range_meters":36800,"station_id":"ce4bgh92rcd13ifvqb50","pricing_plan_id":"cebpf4jnsgd1na2vs0mg"},{"bike_id":"087bd128-ca94-42b8-b1a6-fc89ea87714f","system_id":"levelo_inurba_marseille","lat":43.23054,"lon":5.35498,"is_reserved":false,"is_disabled":false,"rental_uris":{"android":"levelo://app?vid=087bd128-ca94-42b8-b1a6-fc89ea87714f","ios":"levelo://app?vid=087bd128-ca94-42b8-b1a6-fc89ea87714f"},"vehicle_type_id":"4","last_reported":1728572963,"current_range_meters":3600,"station_id":"cpo3342slgdg3j2ifvpg","pricing_plan_id":"cebpf4jnsgd1na2vs0mg"},{"bike_id":"c7592312-79ba-4acb-a9df-13a762ab6455","system_id":"levelo_inurba_marseille","lat":43.32049,"lon":5.41562,"is_reserved":false,"is_disabled":false,"rental_uris":{"android":"levelo://app?vid=c7592312-79ba-4acb-a9df-13a762ab6455","ios":"levelo://app?vid=c7592312-79ba-4acb-a9df-13a762ab6455"},"vehicle_type_id":"4","last_reported":1728572963,"current_range_meters":26000,"station_id":"ce4bhq92rcd13ifvqhkg","pricing_plan_id":"cebpf4jnsgd1na2vs0mg"},{"bike_id":"b3e9416b-3c96-4d10-978b-bd0136109af7","system_id":"levelo_inurba_marseille","lat":43.30797,"lon":5.43523,"is_reserved":false,"is_disabled":false,"rental_uris":{"android":"levelo://app?vid=b3e9416b-3c96-4d10-978b-bd0136109af7","ios":"levelo://app?vid=b3e9416b-3c96-4d10-978b-bd0136109af7"},"vehicle_type_id":"4","last_reported":1728572963,"current_range_meters":17600,"station_id":"ce4bhph2rcd13ifvqheg","pricing_plan_id":"cebpf4jnsgd1na2vs0mg"},{"bike_id":"f8aa0514-4282-4b21-94bc-fd6e59fd6f93","system_id":"levelo_inurba_marseille","lat":43.31372,"lon":5.38494,"is_reserved":false,"is_disabled":false,"rental_uris":{"android":"levelo://app?vid=f8aa0514-4282-4b21-94bc-fd6e59fd6f93","ios":"levelo://app?vid=f8aa0514-4282-4b21-94bc-fd6e59fd6f93"},"vehicle_type_id":"4","last_reported":1728572963,"current_range_meters":36400,"station_id":"ce4bgt92rcd13ifvqcf0","pricing_plan_id":"cebpf4jnsgd1na2vs0mg"},{"bike_id":"6621e1af-9ca0-463c-a3ad-f651030b0dd3","system_id":"levelo_inurba_marseille","lat":43.23193,"lon":5.35549,"is_reserved":false,"is_disabled":false,"rental_uris":{"android":"levelo://app?vid=6621e1af-9ca0-463c-a3ad-f651030b0dd3","ios":"levelo://app?vid=6621e1af-9ca0-463c-a3ad-f651030b0dd3"},"vehicle_type_id":"4","last_reported":1728572963,"current_range_meters":36000,"station_id":"ce4bhu92rcd13ifvqi70","pricing_plan_id":"cebpf4jnsgd1na2vs0mg"},{"bike_id":"7c5e5b46-415e-48f9-a7e9-7abd8697d8e4","system_id":"levelo_inurba_marseille","lat":43.32024,"lon":5.41549,"is_reserved":false,"is_disabled":false,"rental_uris":{"android":"levelo://app?vid=7c5e5b46-415e-48f9-a7e9-7abd8697d8e4","ios":"levelo://app?vid=7c5e5b46-415e-48f9-a7e9-7abd8697d8e4"},"vehicle_type_id":"4","last_reported":1728572963,"current_range_meters":38800,"station_id":"ce4bhq92rcd13ifvqhkg","pricing_plan_id":"cebpf4jnsgd1na2vs0mg"},{"bike_id":"387db537-4e5a-4058-99f0-08e1b16a651a","system_id":"levelo_inurba_marseille","lat":43.28722,"lon":5.36091,"is_reserved":false,"is_disabled":false,"rental_uris":{"android":"levelo://app?vid=387db537-4e5a-4058-99f0-08e1b16a651a","ios":"levelo://app?vid=387db537-4e5a-4058-99f0-08e1b16a651a"},"vehicle_type_id":"4","last_reported":1728572963,"current_range_meters":8400,"station_id":"cki0cbj6b192h4jlfktg","pricing_plan_id":"cebpf4jnsgd1na2vs0mg"},{"bike_id":"f9f58199-e11e-4e6c-9593-917711b0cef6","system_id":"levelo_inurba_marseille","lat":43.29959,"lon":5.41323,"is_reserved":false,"is_disabled":false,"rental_uris":{"android":"levelo://app?vid=f9f58199-e11e-4e6c-9593-917711b0cef6","ios":"levelo://app?vid=f9f58199-e11e-4e6c-9593-917711b0cef6"},"vehicle_type_id":"4","last_reported":1728572963,"current_range_meters":36800,"station_id":"ce4bhp12rcd13ifvqh9g","pricing_plan_id":"cebpf4jnsgd1na2vs0mg"},{"bike_id":"3372ba1c-93af-4ac9-8ffa-34868b7baae2","system_id":"levelo_inurba_marseille","lat":43.31755,"lon":5.39022,"is_reserved":false,"is_disabled":false,"rental_uris":{"android":"levelo://app?vid=3372ba1c-93af-4ac9-8ffa-34868b7baae2","ios":"levelo://app?vid=3372ba1c-93af-4ac9-8ffa-34868b7baae2"},"vehicle_type_id":"4","last_reported":1728572963,"current_range_meters":17600,"station_id":"ce4bhqp2rcd13ifvqhng","pricing_plan_id":"cebpf4jnsgd1na2vs0mg"},{"bike_id":"1d313a65-6f77-4146-b119-1002ec9ab53f","system_id":"levelo_inurba_marseille","lat":43.29533,"lon":5.38534,"is_reserved":false,"is_disabled":false,"rental_uris":{"android":"levelo://app?vid=1d313a65-6f77-4146-b119-1002ec9ab53f","ios":"levelo://app?vid=1d313a65-6f77-4146-b119-1002ec9ab53f"},"vehicle_type_id":"4","last_reported":1728572963,"current_range_meters":16000,"station_id":"ce4bgih2rcd13ifvqba0","pricing_plan_id":"cebpf4jnsgd1na2vs0mg"},{"bike_id":"d536ef4b-b253-4bee-9285-eb782f8f6cab","system_id":"levelo_inurba_marseille","lat":43.3259,"lon":5.40466,"is_reserved":false,"is_disabled":false,"rental_uris":{"android":"levelo://app?vid=d536ef4b-b253-4bee-9285-eb782f8f6cab","ios":"levelo://app?vid=d536ef4b-b253-4bee-9285-eb782f8f6cab"},"vehicle_type_id":"4","last_reported":1728572963,"current_range_meters":30800,"station_id":"","pricing_plan_id":"cebpf4jnsgd1na2vs0mg"},{"bike_id":"5c59208d-7cc8-4d18-97aa-5b2f019839a8","system_id":"levelo_inurba_marseille","lat":43.25726,"lon":5.41099,"is_reserved":false,"is_disabled":false,"rental_uris":{"android":"levelo://app?vid=5c59208d-7cc8-4d18-97aa-5b2f019839a8","ios":"levelo://app?vid=5c59208d-7cc8-4d18-97aa-5b2f019839a8"},"vehicle_type_id":"4","last_reported":1728572963,"current_range_meters":38800,"station_id":"ce4bhkp2rcd13ifvqgd0","pricing_plan_id":"cebpf4jnsgd1na2vs0mg"},{"bike_id":"b66f82f5-f86a-4509-84b1-7c971854c2e2","system_id":"levelo_inurba_marseille","lat":43.248033,"lon":5.374494,"is_reserved":false,"is_disabled":false,"rental_uris":{"android":"levelo://app?vid=b66f82f5-f86a-4509-84b1-7c971854c2e2","ios":"levelo://app?vid=b66f82f5-f86a-4509-84b1-7c971854c2e2"},"vehicle_type_id":"4","last_reported":1728572963,"current_range_meters":2800,"station_id":"ce4bhgh2rcd13ifvqfb0","pricing_plan_id":"cebpf4jnsgd1na2vs0mg"},{"bike_id":"c4864cc8-0c9a-410c-98a7-96a53d7cf71b","system_id":"levelo_inurba_marseille","lat":43.32296,"lon":5.38261,"is_reserved":false,"is_disabled":false,"rental_uris":{"android":"levelo://app?vid=c4864cc8-0c9a-410c-98a7-96a53d7cf71b","ios":"levelo://app?vid=c4864cc8-0c9a-410c-98a7-96a53d7cf71b"},"vehicle_type_id":"4","last_reported":1728572963,"current_range_meters":35200,"station_id":"ce4bhr12rcd13ifvqhqg","pricing_plan_id":"cebpf4jnsgd1na2vs0mg"},{"bike_id":"46824399-b4f3-429a-bfef-c93fcf32b7ef","system_id":"levelo_inurba_marseille","lat":43.31706,"lon":5.37761,"is_reserved":false,"is_disabled":false,"rental_uris":{"android":"levelo://app?vid=46824399-b4f3-429a-bfef-c93fcf32b7ef","ios":"levelo://app?vid=46824399-b4f3-429a-bfef-c93fcf32b7ef"},"vehicle_type_id":"4","last_reported":1728572963,"current_range_meters":20000,"station_id":"ce4bgth2rcd13ifvqch0","pricing_plan_id":"cebpf4jnsgd1na2vs0mg"},{"bike_id":"78ce5455-08f4-4aae-bbd7-b271fe598894","system_id":"levelo_inurba_marseille","lat":43.251095,"lon":5.403186,"is_reserved":false,"is_disabled":false,"rental_uris":{"android":"levelo://app?vid=78ce5455-08f4-4aae-bbd7-b271fe598894","ios":"levelo://app?vid=78ce5455-08f4-4aae-bbd7-b271fe598894"},"vehicle_type_id":"4","last_reported":1728572963,"current_range_meters":24400,"station_id":"ce4bhlh2rcd13ifvqgig","pricing_plan_id":"cebpf4jnsgd1na2vs0mg"},{"bike_id":"d2bcd16e-6acf-48c0-9dd8-b544f47c5235","system_id":"levelo_inurba_marseille","lat":43.28927,"lon":5.38397,"is_reserved":false,"is_disabled":false,"rental_uris":{"android":"levelo://app?vid=d2bcd16e-6acf-48c0-9dd8-b544f47c5235","ios":"levelo://app?vid=d2bcd16e-6acf-48c0-9dd8-b544f47c5235"},"vehicle_type_id":"4","last_reported":1728572963,"current_range_meters":37600,"station_id":"ce4bh612rcd13ifvqe6g","pricing_plan_id":"cebpf4jnsgd1na2vs0mg"},{"bike_id":"8034954c-a6c8-46de-8165-a51114fd0886","system_id":"levelo_inurba_marseille","lat":43.29854,"lon":5.36292,"is_reserved":false,"is_disabled":false,"rental_uris":{"android":"levelo://app?vid=8034954c-a6c8-46de-8165-a51114fd0886","ios":"levelo://app?vid=8034954c-a6c8-46de-8165-a51114fd0886"},"vehicle_type_id":"4","last_reported":1728572963,"current_range_meters":19600,"station_id":"ce4bgpp2rcd13ifvqc3g","pricing_plan_id":"cebpf4jnsgd1na2vs0mg"},{"bike_id":"ebc34268-580f-4c22-938b-3fa75e6b2fba","system_id":"levelo_inurba_marseille","lat":43.28667,"lon":5.38675,"is_reserved":false,"is_disabled":false,"rental_uris":{"android":"levelo://app?vid=ebc34268-580f-4c22-938b-3fa75e6b2fba","ios":"levelo://app?vid=ebc34268-580f-4c22-938b-3fa75e6b2fba"},"vehicle_type_id":"4","last_reported":1728572963,"current_range_meters":24400,"station_id":"ce4bh492rcd13ifvqdug","pricing_plan_id":"cebpf4jnsgd1na2vs0mg"},{"bike_id":"0a914b9b-1fcc-4758-a91b-1f2a11f6cf7a","system_id":"levelo_inurba_marseille","lat":43.27183,"lon":5.40997,"is_reserved":false,"is_disabled":false,"rental_uris":{"android":"levelo://app?vid=0a914b9b-1fcc-4758-a91b-1f2a11f6cf7a","ios":"levelo://app?vid=0a914b9b-1fcc-4758-a91b-1f2a11f6cf7a"},"vehicle_type_id":"4","last_reported":1728572963,"current_range_meters":16400,"station_id":"ce4bhl12rcd13ifvqgf0","pricing_plan_id":"cebpf4jnsgd1na2vs0mg"},{"bike_id":"0260ea70-100f-4754-8723-99015eb8d25f","system_id":"levelo_inurba_marseille","lat":43.30638,"lon":5.36689,"is_reserved":false,"is_disabled":false,"rental_uris":{"android":"levelo://app?vid=0260ea70-100f-4754-8723-99015eb8d25f","ios":"levelo://app?vid=0260ea70-100f-4754-8723-99015eb8d25f"},"vehicle_type_id":"4","last_reported":1728572963,"current_range_meters":36800,"station_id":"","pricing_plan_id":"cebpf4jnsgd1na2vs0mg"},{"bike_id":"8665fe75-7b1c-4b25-955b-a02aa16eff4b","system_id":"levelo_inurba_marseille","lat":43.28796,"lon":5.36355,"is_reserved":false,"is_disabled":false,"rental_uris":{"android":"levelo://app?vid=8665fe75-7b1c-4b25-955b-a02aa16eff4b","ios":"levelo://app?vid=8665fe75-7b1c-4b25-955b-a02aa16eff4b"},"vehicle_type_id":"4","last_reported":1728572963,"current_range_meters":16800,"station_id":"","pricing_plan_id":"cebpf4jnsgd1na2vs0mg"},{"bike_id":"7c8269d7-3d49-4995-9446-32dd48e54ecd","system_id":"levelo_inurba_marseille","lat":43.31993,"lon":5.38152,"is_reserved":false,"is_disabled":false,"rental_uris":{"android":"levelo://app?vid=7c8269d7-3d49-4995-9446-32dd48e54ecd","ios":"levelo://app?vid=7c8269d7-3d49-4995-9446-32dd48e54ecd"},"vehicle_type_id":"4","last_reported":1728572963,"current_range_meters":37600,"station_id":"ce4bhr12rcd13ifvqhpg","pricing_plan_id":"cebpf4jnsgd1na2vs0mg"},{"bike_id":"37f3f6b6-21b0-4ec8-93c1-6870b7fbef6b","system_id":"levelo_inurba_marseille","lat":43.28615,"lon":5.35108,"is_reserved":false,"is_disabled":false,"rental_uris":{"android":"levelo://app?vid=37f3f6b6-21b0-4ec8-93c1-6870b7fbef6b","ios":"levelo://app?vid=37f3f6b6-21b0-4ec8-93c1-6870b7fbef6b"},"vehicle_type_id":"4","last_reported":1728572963,"current_range_meters":13600,"station_id":"ce4bhch2rcd13ifvqeug","pricing_plan_id":"cebpf4jnsgd1na2vs0mg"},{"bike_id":"48158b6e-aa15-46fa-b108-be5bdb7a3a31","system_id":"levelo_inurba_marseille","lat":43.3374,"lon":5.37468,"is_reserved":false,"is_disabled":false,"rental_uris":{"android":"levelo://app?vid=48158b6e-aa15-46fa-b108-be5bdb7a3a31","ios":"levelo://app?vid=48158b6e-aa15-46fa-b108-be5bdb7a3a31"},"vehicle_type_id":"4","last_reported":1728572963,"current_range_meters":28000,"station_id":"","pricing_plan_id":"cebpf4jnsgd1na2vs0mg"},{"bike_id":"c0466242-0db1-440f-9417-a849cf0799b8","system_id":"levelo_inurba_marseille","lat":43.3015,"lon":5.39863,"is_reserved":false,"is_disabled":false,"rental_uris":{"android":"levelo://app?vid=c0466242-0db1-440f-9417-a849cf0799b8","ios":"levelo://app?vid=c0466242-0db1-440f-9417-a849cf0799b8"},"vehicle_type_id":"4","last_reported":1728572963,"current_range_meters":24800,"station_id":"ce4bh0h2rcd13ifvqd40","pricing_plan_id":"cebpf4jnsgd1na2vs0mg"},{"bike_id":"74b51eaa-19c3-42d8-b347-cdd0662439e4","system_id":"levelo_inurba_marseille","lat":43.3133,"lon":5.39691,"is_reserved":false,"is_disabled":false,"rental_uris":{"android":"levelo://app?vid=74b51eaa-19c3-42d8-b347-cdd0662439e4","ios":"levelo://app?vid=74b51eaa-19c3-42d8-b347-cdd0662439e4"},"vehicle_type_id":"4","last_reported":1728572963,"current_range_meters":38800,"station_id":"ce4bgvp2rcd13ifvqcu0","pricing_plan_id":"cebpf4jnsgd1na2vs0mg"},{"bike_id":"3b42e296-6e3c-4453-a28f-9b4710fb1bae","system_id":"levelo_inurba_marseille","lat":43.30191,"lon":5.36611,"is_reserved":false,"is_disabled":false,"rental_uris":{"android":"levelo://app?vid=3b42e296-6e3c-4453-a28f-9b4710fb1bae","ios":"levelo://app?vid=3b42e296-6e3c-4453-a28f-9b4710fb1bae"},"vehicle_type_id":"4","last_reported":1728572963,"current_range_meters":36800,"station_id":"ce4bgrh2rcd13ifvqc8g","pricing_plan_id":"cebpf4jnsgd1na2vs0mg"},{"bike_id":"fbee0c7d-9644-40cf-9261-4975b07ed7ba","system_id":"levelo_inurba_marseille","lat":43.2843,"lon":5.34991,"is_reserved":false,"is_disabled":false,"rental_uris":{"android":"levelo://app?vid=fbee0c7d-9644-40cf-9261-4975b07ed7ba","ios":"levelo://app?vid=fbee0c7d-9644-40cf-9261-4975b07ed7ba"},"vehicle_type_id":"4","last_reported":1728572963,"current_range_meters":18800,"station_id":"ce4bhbh2rcd13ifvqepg","pricing_plan_id":"cebpf4jnsgd1na2vs0mg"},{"bike_id":"9649c59c-3801-49a5-a883-d5eb539992cb","system_id":"levelo_inurba_marseille","lat":43.286131,"lon":5.370699,"is_reserved":false,"is_disabled":false,"rental_uris":{"android":"levelo://app?vid=9649c59c-3801-49a5-a883-d5eb539992cb","ios":"levelo://app?vid=9649c59c-3801-49a5-a883-d5eb539992cb"},"vehicle_type_id":"4","last_reported":1728572963,"current_range_meters":6000,"station_id":"ce4bht12rcd13ifvqi60","pricing_plan_id":"cebpf4jnsgd1na2vs0mg"},{"bike_id":"ebeccde6-fccf-4ee5-9134-8234f202c805","system_id":"levelo_inurba_marseille","lat":43.28948,"lon":5.36645,"is_reserved":false,"is_disabled":false,"rental_uris":{"android":"levelo://app?vid=ebeccde6-fccf-4ee5-9134-8234f202c805","ios":"levelo://app?vid=ebeccde6-fccf-4ee5-9134-8234f202c805"},"vehicle_type_id":"4","last_reported":1728572963,"current_range_meters":8800,"station_id":"ce4bhap2rcd13ifvqek0","pricing_plan_id":"cebpf4jnsgd1na2vs0mg"},{"bike_id":"e7c750e6-023e-4daf-9d88-3dd9049dc1d0","system_id":"levelo_inurba_marseille","lat":43.29566,"lon":5.37537,"is_reserved":false,"is_disabled":false,"rental_uris":{"android":"levelo://app?vid=e7c750e6-023e-4daf-9d88-3dd9049dc1d0","ios":"levelo://app?vid=e7c750e6-023e-4daf-9d88-3dd9049dc1d0"},"vehicle_type_id":"4","last_reported":1728572963,"current_range_meters":38400,"station_id":"ce4bgh92rcd13ifvqb50","pricing_plan_id":"cebpf4jnsgd1na2vs0mg"},{"bike_id":"e7fc4033-58e4-4e85-a478-5ee5ab2043b2","system_id":"levelo_inurba_marseille","lat":43.260356,"lon":5.37544,"is_reserved":false,"is_disabled":false,"rental_uris":{"android":"levelo://app?vid=e7fc4033-58e4-4e85-a478-5ee5ab2043b2","ios":"levelo://app?vid=e7fc4033-58e4-4e85-a478-5ee5ab2043b2"},"vehicle_type_id":"4","last_reported":1728572963,"current_range_meters":3600,"station_id":"ce4bhgh2rcd13ifvqfa0","pricing_plan_id":"cebpf4jnsgd1na2vs0mg"},{"bike_id":"aa75c41c-1391-4d5a-b0ad-fb29c317877d","system_id":"levelo_inurba_marseille","lat":43.23063,"lon":5.35498,"is_reserved":false,"is_disabled":false,"rental_uris":{"android":"levelo://app?vid=aa75c41c-1391-4d5a-b0ad-fb29c317877d","ios":"levelo://app?vid=aa75c41c-1391-4d5a-b0ad-fb29c317877d"},"vehicle_type_id":"4","last_reported":1728572963,"current_range_meters":10800,"station_id":"cpo3342slgdg3j2ifvpg","pricing_plan_id":"cebpf4jnsgd1na2vs0mg"},{"bike_id":"4c8e231d-8d09-43dd-a56c-bb27fa390b8e","system_id":"levelo_inurba_marseille","lat":43.30892,"lon":5.39649,"is_reserved":false,"is_disabled":false,"rental_uris":{"android":"levelo://app?vid=4c8e231d-8d09-43dd-a56c-bb27fa390b8e","ios":"levelo://app?vid=4c8e231d-8d09-43dd-a56c-bb27fa390b8e"},"vehicle_type_id":"4","last_reported":1728572963,"current_range_meters":38800,"station_id":"ce4bh012rcd13ifvqcv0","pricing_plan_id":"cebpf4jnsgd1na2vs0mg"},{"bike_id":"52f49add-8e1d-4838-8c90-fc3a3010e410","system_id":"levelo_inurba_marseille","lat":43.28456,"lon":5.35886,"is_reserved":false,"is_disabled":false,"rental_uris":{"android":"levelo://app?vid=52f49add-8e1d-4838-8c90-fc3a3010e410","ios":"levelo://app?vid=52f49add-8e1d-4838-8c90-fc3a3010e410"},"vehicle_type_id":"4","last_reported":1728572963,"current_range_meters":12400,"station_id":"ce4bhah2rcd13ifvqei0","pricing_plan_id":"cebpf4jnsgd1na2vs0mg"},{"bike_id":"9f6194d2-c0c6-4cbe-a406-421321ebd7e6","system_id":"levelo_inurba_marseille","lat":43.29276,"lon":5.38452,"is_reserved":false,"is_disabled":false,"rental_uris":{"android":"levelo://app?vid=9f6194d2-c0c6-4cbe-a406-421321ebd7e6","ios":"levelo://app?vid=9f6194d2-c0c6-4cbe-a406-421321ebd7e6"},"vehicle_type_id":"4","last_reported":1728572963,"current_range_meters":28400,"station_id":"ce4bh692rcd13ifvqea0","pricing_plan_id":"cebpf4jnsgd1na2vs0mg"},{"bike_id":"35f9a75b-18fd-4a5f-8ea9-3d136ac6333b","system_id":"levelo_inurba_marseille","lat":43.27316,"lon":5.3909,"is_reserved":false,"is_disabled":false,"rental_uris":{"android":"levelo://app?vid=35f9a75b-18fd-4a5f-8ea9-3d136ac6333b","ios":"levelo://app?vid=35f9a75b-18fd-4a5f-8ea9-3d136ac6333b"},"vehicle_type_id":"4","last_reported":1728572963,"current_range_meters":38800,"station_id":"ce4bhgp2rcd13ifvqfe0","pricing_plan_id":"cebpf4jnsgd1na2vs0mg"},{"bike_id":"509bd9bd-1730-4320-925d-dd24347823f9","system_id":"levelo_inurba_marseille","lat":43.31753,"lon":5.39025,"is_reserved":false,"is_disabled":false,"rental_uris":{"android":"levelo://app?vid=509bd9bd-1730-4320-925d-dd24347823f9","ios":"levelo://app?vid=509bd9bd-1730-4320-925d-dd24347823f9"},"vehicle_type_id":"4","last_reported":1728572963,"current_range_meters":25200,"station_id":"ce4bhqp2rcd13ifvqhng","pricing_plan_id":"cebpf4jnsgd1na2vs0mg"},{"bike_id":"c39d5983-1fe2-4d9a-b87a-dab8eccb7d2e","system_id":"levelo_inurba_marseille","lat":43.31271,"lon":5.40183,"is_reserved":false,"is_disabled":false,"rental_uris":{"android":"levelo://app?vid=c39d5983-1fe2-4d9a-b87a-dab8eccb7d2e","ios":"levelo://app?vid=c39d5983-1fe2-4d9a-b87a-dab8eccb7d2e"},"vehicle_type_id":"4","last_reported":1728572963,"current_range_meters":3200,"station_id":"ce4bh092rcd13ifvqd30","pricing_plan_id":"cebpf4jnsgd1na2vs0mg"},{"bike_id":"298381b1-805f-4c2f-9b6c-21686469caea","system_id":"levelo_inurba_marseille","lat":43.28689,"lon":5.39981,"is_reserved":false,"is_disabled":false,"rental_uris":{"android":"levelo://app?vid=298381b1-805f-4c2f-9b6c-21686469caea","ios":"levelo://app?vid=298381b1-805f-4c2f-9b6c-21686469caea"},"vehicle_type_id":"4","last_reported":1728572963,"current_range_meters":5600,"station_id":"ce4bho92rcd13ifvqh3g","pricing_plan_id":"cebpf4jnsgd1na2vs0mg"},{"bike_id":"df7d3c45-f83f-4dec-ac3e-332d8f29703c","system_id":"levelo_inurba_marseille","lat":43.29572,"lon":5.37512,"is_reserved":false,"is_disabled":false,"rental_uris":{"android":"levelo://app?vid=df7d3c45-f83f-4dec-ac3e-332d8f29703c","ios":"levelo://app?vid=df7d3c45-f83f-4dec-ac3e-332d8f29703c"},"vehicle_type_id":"4","last_reported":1728572963,"current_range_meters":24800,"station_id":"ce4bgh92rcd13ifvqb50","pricing_plan_id":"cebpf4jnsgd1na2vs0mg"},{"bike_id":"97de9bdc-a1c4-400a-88f2-721adcfb96fb","system_id":"levelo_inurba_marseille","lat":43.32656,"lon":5.40992,"is_reserved":false,"is_disabled":false,"rental_uris":{"android":"levelo://app?vid=97de9bdc-a1c4-400a-88f2-721adcfb96fb","ios":"levelo://app?vid=97de9bdc-a1c4-400a-88f2-721adcfb96fb"},"vehicle_type_id":"4","last_reported":1728572963,"current_range_meters":31200,"station_id":"ce4bhpp2rcd13ifvqhgg","pricing_plan_id":"cebpf4jnsgd1na2vs0mg"},{"bike_id":"00461047-e766-414e-a8b5-27a06462d187","system_id":"levelo_inurba_marseille","lat":43.302098,"lon":5.38233,"is_reserved":false,"is_disabled":false,"rental_uris":{"android":"levelo://app?vid=00461047-e766-414e-a8b5-27a06462d187","ios":"levelo://app?vid=00461047-e766-414e-a8b5-27a06462d187"},"vehicle_type_id":"4","last_reported":1728572963,"current_range_meters":8000,"station_id":"ce4bgjp2rcd13ifvqbh0","pricing_plan_id":"cebpf4jnsgd1na2vs0mg"},{"bike_id":"b23acee4-5720-4575-91af-11c4e23edb2d","system_id":"levelo_inurba_marseille","lat":43.337444,"lon":5.374475,"is_reserved":false,"is_disabled":false,"rental_uris":{"android":"levelo://app?vid=b23acee4-5720-4575-91af-11c4e23edb2d","ios":"levelo://app?vid=b23acee4-5720-4575-91af-11c4e23edb2d"},"vehicle_type_id":"4","last_reported":1728572963,"current_range_meters":38800,"station_id":"ce4rr2p2rcd13i802rgg","pricing_plan_id":"cebpf4jnsgd1na2vs0mg"},{"bike_id":"7f019fea-61a6-43bc-8331-c03ed7ce15e5","system_id":"levelo_inurba_marseille","lat":43.27842,"lon":5.39213,"is_reserved":false,"is_disabled":false,"rental_uris":{"android":"levelo://app?vid=7f019fea-61a6-43bc-8331-c03ed7ce15e5","ios":"levelo://app?vid=7f019fea-61a6-43bc-8331-c03ed7ce15e5"},"vehicle_type_id":"4","last_reported":1728572963,"current_range_meters":2800,"station_id":"ce4bhjp2rcd13ifvqga0","pricing_plan_id":"cebpf4jnsgd1na2vs0mg"},{"bike_id":"75eaab46-be85-49b6-8e2e-1cab03938e18","system_id":"levelo_inurba_marseille","lat":43.2791,"lon":5.38018,"is_reserved":false,"is_disabled":false,"rental_uris":{"android":"levelo://app?vid=75eaab46-be85-49b6-8e2e-1cab03938e18","ios":"levelo://app?vid=75eaab46-be85-49b6-8e2e-1cab03938e18"},"vehicle_type_id":"4","last_reported":1728572963,"current_range_meters":28000,"station_id":"ce4bhf92rcd13ifvqf50","pricing_plan_id":"cebpf4jnsgd1na2vs0mg"},{"bike_id":"62f352ec-e233-4d7f-8753-6a5615214777","system_id":"levelo_inurba_marseille","lat":43.32283,"lon":5.3827,"is_reserved":false,"is_disabled":false,"rental_uris":{"android":"levelo://app?vid=62f352ec-e233-4d7f-8753-6a5615214777","ios":"levelo://app?vid=62f352ec-e233-4d7f-8753-6a5615214777"},"vehicle_type_id":"4","last_reported":1728572963,"current_range_meters":38800,"station_id":"ce4bhr12rcd13ifvqhqg","pricing_plan_id":"cebpf4jnsgd1na2vs0mg"},{"bike_id":"8cab9cb6-8d03-4051-aedb-4909734955da","system_id":"levelo_inurba_marseille","lat":43.26489,"lon":5.39548,"is_reserved":false,"is_disabled":false,"rental_uris":{"android":"levelo://app?vid=8cab9cb6-8d03-4051-aedb-4909734955da","ios":"levelo://app?vid=8cab9cb6-8d03-4051-aedb-4909734955da"},"vehicle_type_id":"4","last_reported":1728572963,"current_range_meters":10800,"station_id":"ce4bhi12rcd13ifvqfq0","pricing_plan_id":"cebpf4jnsgd1na2vs0mg"},{"bike_id":"9db9b41c-1bbd-4c19-9955-265ab2eb6641","system_id":"levelo_inurba_marseille","lat":43.29854,"lon":5.37408,"is_reserved":false,"is_disabled":false,"rental_uris":{"android":"levelo://app?vid=9db9b41c-1bbd-4c19-9955-265ab2eb6641","ios":"levelo://app?vid=9db9b41c-1bbd-4c19-9955-265ab2eb6641"},"vehicle_type_id":"4","last_reported":1728572963,"current_range_meters":9200,"station_id":"","pricing_plan_id":"cebpf4jnsgd1na2vs0mg"},{"bike_id":"3d58a7ad-a157-42d8-b735-3cd3d47f09e4","system_id":"levelo_inurba_marseille","lat":43.271724,"lon":5.410004,"is_reserved":false,"is_disabled":false,"rental_uris":{"android":"levelo://app?vid=3d58a7ad-a157-42d8-b735-3cd3d47f09e4","ios":"levelo://app?vid=3d58a7ad-a157-42d8-b735-3cd3d47f09e4"},"vehicle_type_id":"4","last_reported":1728572963,"current_range_meters":10800,"station_id":"ce4bhh92rcd13ifvqfj0","pricing_plan_id":"cebpf4jnsgd1na2vs0mg"},{"bike_id":"be7033e7-6e91-4c8a-92b3-b955f1b56206","system_id":"levelo_inurba_marseille","lat":43.29681,"lon":5.3728,"is_reserved":false,"is_disabled":false,"rental_uris":{"android":"levelo://app?vid=be7033e7-6e91-4c8a-92b3-b955f1b56206","ios":"levelo://app?vid=be7033e7-6e91-4c8a-92b3-b955f1b56206"},"vehicle_type_id":"4","last_reported":1728572963,"current_range_meters":20400,"station_id":"ce4bgk12rcd13ifvqbj0","pricing_plan_id":"cebpf4jnsgd1na2vs0mg"},{"bike_id":"9d6831e0-4cbd-4b82-aa61-2dcd43291e12","system_id":"levelo_inurba_marseille","lat":43.25498,"lon":5.37667,"is_reserved":false,"is_disabled":false,"rental_uris":{"android":"levelo://app?vid=9d6831e0-4cbd-4b82-aa61-2dcd43291e12","ios":"levelo://app?vid=9d6831e0-4cbd-4b82-aa61-2dcd43291e12"},"vehicle_type_id":"4","last_reported":1728572963,"current_range_meters":16000,"station_id":"ce4bhh12rcd13ifvqff0","pricing_plan_id":"cebpf4jnsgd1na2vs0mg"},{"bike_id":"7e9118c7-ac91-4dfd-a123-fd0171c1170c","system_id":"levelo_inurba_marseille","lat":43.318398,"lon":5.373898,"is_reserved":false,"is_disabled":false,"rental_uris":{"android":"levelo://app?vid=7e9118c7-ac91-4dfd-a123-fd0171c1170c","ios":"levelo://app?vid=7e9118c7-ac91-4dfd-a123-fd0171c1170c"},"vehicle_type_id":"4","last_reported":1728572963,"current_range_meters":8000,"station_id":"","pricing_plan_id":"cebpf4jnsgd1na2vs0mg"},{"bike_id":"37bd8ca0-8651-4332-ba7d-b93c2a193aca","system_id":"levelo_inurba_marseille","lat":43.30885,"lon":5.39655,"is_reserved":false,"is_disabled":false,"rental_uris":{"android":"levelo://app?vid=37bd8ca0-8651-4332-ba7d-b93c2a193aca","ios":"levelo://app?vid=37bd8ca0-8651-4332-ba7d-b93c2a193aca"},"vehicle_type_id":"4","last_reported":1728572963,"current_range_meters":39200,"station_id":"ce4bh012rcd13ifvqcv0","pricing_plan_id":"cebpf4jnsgd1na2vs0mg"},{"bike_id":"253e0894-85b4-479e-bade-7f586f791f9c","system_id":"levelo_inurba_marseille","lat":43.31754,"lon":5.39019,"is_reserved":false,"is_disabled":false,"rental_uris":{"android":"levelo://app?vid=253e0894-85b4-479e-bade-7f586f791f9c","ios":"levelo://app?vid=253e0894-85b4-479e-bade-7f586f791f9c"},"vehicle_type_id":"4","last_reported":1728572963,"current_range_meters":32400,"station_id":"ce4bhqp2rcd13ifvqhng","pricing_plan_id":"cebpf4jnsgd1na2vs0mg"},{"bike_id":"789aac11-cc9d-48a9-ba75-fa69bb8593e1","system_id":"levelo_inurba_marseille","lat":43.24807,"lon":5.37459,"is_reserved":false,"is_disabled":false,"rental_uris":{"android":"levelo://app?vid=789aac11-cc9d-48a9-ba75-fa69bb8593e1","ios":"levelo://app?vid=789aac11-cc9d-48a9-ba75-fa69bb8593e1"},"vehicle_type_id":"4","last_reported":1728572963,"current_range_meters":24400,"station_id":"ce4bhgh2rcd13ifvqfb0","pricing_plan_id":"cebpf4jnsgd1na2vs0mg"},{"bike_id":"9989751a-5ba3-4917-888d-5e73437eaa51","system_id":"levelo_inurba_marseille","lat":43.29414,"lon":5.38635,"is_reserved":false,"is_disabled":false,"rental_uris":{"android":"levelo://app?vid=9989751a-5ba3-4917-888d-5e73437eaa51","ios":"levelo://app?vid=9989751a-5ba3-4917-888d-5e73437eaa51"},"vehicle_type_id":"4","last_reported":1728572963,"current_range_meters":24400,"station_id":"ce4bh2h2rcd13ifvqdh0","pricing_plan_id":"cebpf4jnsgd1na2vs0mg"},{"bike_id":"0487a7ec-8339-4b8c-af95-061038c8db99","system_id":"levelo_inurba_marseille","lat":43.27684,"lon":5.3888,"is_reserved":false,"is_disabled":false,"rental_uris":{"android":"levelo://app?vid=0487a7ec-8339-4b8c-af95-061038c8db99","ios":"levelo://app?vid=0487a7ec-8339-4b8c-af95-061038c8db99"},"vehicle_type_id":"4","last_reported":1728572963,"current_range_meters":8000,"station_id":"ce4bhi12rcd13ifvqfo0","pricing_plan_id":"cebpf4jnsgd1na2vs0mg"},{"bike_id":"b3c5eab7-f50b-4fb8-ba0f-81f34bbfb9a3","system_id":"levelo_inurba_marseille","lat":43.29057,"lon":5.35583,"is_reserved":false,"is_disabled":false,"rental_uris":{"android":"levelo://app?vid=b3c5eab7-f50b-4fb8-ba0f-81f34bbfb9a3","ios":"levelo://app?vid=b3c5eab7-f50b-4fb8-ba0f-81f34bbfb9a3"},"vehicle_type_id":"4","last_reported":1728572963,"current_range_meters":26800,"station_id":"","pricing_plan_id":"cebpf4jnsgd1na2vs0mg"},{"bike_id":"03ad01d0-07b1-4e81-8b89-4ff8d70c69b2","system_id":"levelo_inurba_marseille","lat":43.24811,"lon":5.37457,"is_reserved":false,"is_disabled":false,"rental_uris":{"android":"levelo://app?vid=03ad01d0-07b1-4e81-8b89-4ff8d70c69b2","ios":"levelo://app?vid=03ad01d0-07b1-4e81-8b89-4ff8d70c69b2"},"vehicle_type_id":"4","last_reported":1728572963,"current_range_meters":38800,"station_id":"ce4bhgh2rcd13ifvqfb0","pricing_plan_id":"cebpf4jnsgd1na2vs0mg"},{"bike_id":"3ae18fed-f345-4ef0-8ed2-3540202f3e73","system_id":"levelo_inurba_marseille","lat":43.33748,"lon":5.37444,"is_reserved":false,"is_disabled":false,"rental_uris":{"android":"levelo://app?vid=3ae18fed-f345-4ef0-8ed2-3540202f3e73","ios":"levelo://app?vid=3ae18fed-f345-4ef0-8ed2-3540202f3e73"},"vehicle_type_id":"4","last_reported":1728572963,"current_range_meters":33200,"station_id":"ce4rr2p2rcd13i802rgg","pricing_plan_id":"cebpf4jnsgd1na2vs0mg"},{"bike_id":"70dce404-2ce3-44df-8c0a-4fe12bc179e5","system_id":"levelo_inurba_marseille","lat":43.25869,"lon":5.39898,"is_reserved":false,"is_disabled":false,"rental_uris":{"android":"levelo://app?vid=70dce404-2ce3-44df-8c0a-4fe12bc179e5","ios":"levelo://app?vid=70dce404-2ce3-44df-8c0a-4fe12bc179e5"},"vehicle_type_id":"4","last_reported":1728572963,"current_range_meters":12400,"station_id":"ce4bhl92rcd13ifvqghg","pricing_plan_id":"cebpf4jnsgd1na2vs0mg"},{"bike_id":"e0f6e71a-7ca2-4194-8245-64d6c6e6aad8","system_id":"levelo_inurba_marseille","lat":43.30805,"lon":5.43529,"is_reserved":false,"is_disabled":false,"rental_uris":{"android":"levelo://app?vid=e0f6e71a-7ca2-4194-8245-64d6c6e6aad8","ios":"levelo://app?vid=e0f6e71a-7ca2-4194-8245-64d6c6e6aad8"},"vehicle_type_id":"4","last_reported":1728572963,"current_range_meters":24000,"station_id":"ce4bhph2rcd13ifvqheg","pricing_plan_id":"cebpf4jnsgd1na2vs0mg"},{"bike_id":"aa1d64ad-1c83-4348-a042-434e11535344","system_id":"levelo_inurba_marseille","lat":43.29278,"lon":5.36844,"is_reserved":false,"is_disabled":false,"rental_uris":{"android":"levelo://app?vid=aa1d64ad-1c83-4348-a042-434e11535344","ios":"levelo://app?vid=aa1d64ad-1c83-4348-a042-434e11535344"},"vehicle_type_id":"4","last_reported":1728572963,"current_range_meters":14800,"station_id":"ce4bhbp2rcd13ifvqesg","pricing_plan_id":"cebpf4jnsgd1na2vs0mg"},{"bike_id":"86020feb-27d0-41ac-8158-586a2f872179","system_id":"levelo_inurba_marseille","lat":43.29708,"lon":5.37697,"is_reserved":false,"is_disabled":false,"rental_uris":{"android":"levelo://app?vid=86020feb-27d0-41ac-8158-586a2f872179","ios":"levelo://app?vid=86020feb-27d0-41ac-8158-586a2f872179"},"vehicle_type_id":"4","last_reported":1728572963,"current_range_meters":38400,"station_id":"ce4bgkh2rcd13ifvqbl0","pricing_plan_id":"cebpf4jnsgd1na2vs0mg"},{"bike_id":"47b907fa-9497-47c6-b524-47a227a5865f","system_id":"levelo_inurba_marseille","lat":43.305506,"lon":5.3653,"is_reserved":false,"is_disabled":false,"rental_uris":{"android":"levelo://app?vid=47b907fa-9497-47c6-b524-47a227a5865f","ios":"levelo://app?vid=47b907fa-9497-47c6-b524-47a227a5865f"},"vehicle_type_id":"4","last_reported":1728572963,"current_range_meters":38800,"station_id":"ce4bgs12rcd13ifvqcag","pricing_plan_id":"cebpf4jnsgd1na2vs0mg"},{"bike_id":"b248e603-3e4d-4485-8791-1b7af73ba04d","system_id":"levelo_inurba_marseille","lat":43.30116,"lon":5.39886,"is_reserved":false,"is_disabled":false,"rental_uris":{"android":"levelo://app?vid=b248e603-3e4d-4485-8791-1b7af73ba04d","ios":"levelo://app?vid=b248e603-3e4d-4485-8791-1b7af73ba04d"},"vehicle_type_id":"4","last_reported":1728572963,"current_range_meters":37600,"station_id":"ce4bh0h2rcd13ifvqd40","pricing_plan_id":"cebpf4jnsgd1na2vs0mg"},{"bike_id":"20c905c9-8c75-410f-be04-368942b49a89","system_id":"levelo_inurba_marseille","lat":43.29002,"lon":5.35607,"is_reserved":false,"is_disabled":false,"rental_uris":{"android":"levelo://app?vid=20c905c9-8c75-410f-be04-368942b49a89","ios":"levelo://app?vid=20c905c9-8c75-410f-be04-368942b49a89"},"vehicle_type_id":"4","last_reported":1728572963,"current_range_meters":38800,"station_id":"ce4bhb92rcd13ifvqen0","pricing_plan_id":"cebpf4jnsgd1na2vs0mg"},{"bike_id":"147d423d-4d72-4060-9dc3-e24777760c80","system_id":"levelo_inurba_marseille","lat":43.3204,"lon":5.41559,"is_reserved":false,"is_disabled":false,"rental_uris":{"android":"levelo://app?vid=147d423d-4d72-4060-9dc3-e24777760c80","ios":"levelo://app?vid=147d423d-4d72-4060-9dc3-e24777760c80"},"vehicle_type_id":"4","last_reported":1728572963,"current_range_meters":19600,"station_id":"ce4bhq92rcd13ifvqhkg","pricing_plan_id":"cebpf4jnsgd1na2vs0mg"},{"bike_id":"76cf75bc-bc12-491b-bb2c-c29161c3f3c4","system_id":"levelo_inurba_marseille","lat":43.293368,"lon":5.403298,"is_reserved":false,"is_disabled":false,"rental_uris":{"android":"levelo://app?vid=76cf75bc-bc12-491b-bb2c-c29161c3f3c4","ios":"levelo://app?vid=76cf75bc-bc12-491b-bb2c-c29161c3f3c4"},"vehicle_type_id":"4","last_reported":1728572963,"current_range_meters":33200,"station_id":"ce4bh192rcd13ifvqdc0","pricing_plan_id":"cebpf4jnsgd1na2vs0mg"},{"bike_id":"4e1efc57-b490-4dd9-9a2b-3c62a9bbddeb","system_id":"levelo_inurba_marseille","lat":43.27374,"lon":5.36253,"is_reserved":false,"is_disabled":false,"rental_uris":{"android":"levelo://app?vid=4e1efc57-b490-4dd9-9a2b-3c62a9bbddeb","ios":"levelo://app?vid=4e1efc57-b490-4dd9-9a2b-3c62a9bbddeb"},"vehicle_type_id":"4","last_reported":1728572963,"current_range_meters":14400,"station_id":"ce4bhbh2rcd13ifvqeo0","pricing_plan_id":"cebpf4jnsgd1na2vs0mg"},{"bike_id":"fbf92bad-cd5c-455a-80bb-d9e65302e187","system_id":"levelo_inurba_marseille","lat":43.31309,"lon":5.39714,"is_reserved":false,"is_disabled":false,"rental_uris":{"android":"levelo://app?vid=fbf92bad-cd5c-455a-80bb-d9e65302e187","ios":"levelo://app?vid=fbf92bad-cd5c-455a-80bb-d9e65302e187"},"vehicle_type_id":"4","last_reported":1728572963,"current_range_meters":38800,"station_id":"ce4bgvp2rcd13ifvqcu0","pricing_plan_id":"cebpf4jnsgd1na2vs0mg"},{"bike_id":"75a468f1-2b8a-404a-bb27-f7dc62731948","system_id":"levelo_inurba_marseille","lat":43.25119,"lon":5.40322,"is_reserved":false,"is_disabled":false,"rental_uris":{"android":"levelo://app?vid=75a468f1-2b8a-404a-bb27-f7dc62731948","ios":"levelo://app?vid=75a468f1-2b8a-404a-bb27-f7dc62731948"},"vehicle_type_id":"4","last_reported":1728572963,"current_range_meters":22000,"station_id":"ce4bhlh2rcd13ifvqgig","pricing_plan_id":"cebpf4jnsgd1na2vs0mg"},{"bike_id":"27dbf793-2ca2-4c4a-b172-d5e3fdbcd84b","system_id":"levelo_inurba_marseille","lat":43.31698,"lon":5.3776,"is_reserved":false,"is_disabled":false,"rental_uris":{"android":"levelo://app?vid=27dbf793-2ca2-4c4a-b172-d5e3fdbcd84b","ios":"levelo://app?vid=27dbf793-2ca2-4c4a-b172-d5e3fdbcd84b"},"vehicle_type_id":"4","last_reported":1728572963,"current_range_meters":38800,"station_id":"ce4bgth2rcd13ifvqch0","pricing_plan_id":"cebpf4jnsgd1na2vs0mg"},{"bike_id":"b038e78e-b789-4ba6-bf03-6c68d348c828","system_id":"levelo_inurba_marseille","lat":43.29922,"lon":5.37456,"is_reserved":false,"is_disabled":false,"rental_uris":{"android":"levelo://app?vid=b038e78e-b789-4ba6-bf03-6c68d348c828","ios":"levelo://app?vid=b038e78e-b789-4ba6-bf03-6c68d348c828"},"vehicle_type_id":"4","last_reported":1728572963,"current_range_meters":9600,"station_id":"ce4bgjh2rcd13ifvqbg0","pricing_plan_id":"cebpf4jnsgd1na2vs0mg"},{"bike_id":"3885cdd1-8ff5-41db-85bb-9fc3680bd938","system_id":"levelo_inurba_marseille","lat":43.298817,"lon":5.365562,"is_reserved":false,"is_disabled":false,"rental_uris":{"android":"levelo://app?vid=3885cdd1-8ff5-41db-85bb-9fc3680bd938","ios":"levelo://app?vid=3885cdd1-8ff5-41db-85bb-9fc3680bd938"},"vehicle_type_id":"4","last_reported":1728572963,"current_range_meters":39200,"station_id":"ce4bgm92rcd13ifvqbr0","pricing_plan_id":"cebpf4jnsgd1na2vs0mg"},{"bike_id":"0e5dc71c-04b1-4de3-8e03-f041458b286c","system_id":"levelo_inurba_marseille","lat":43.29226,"lon":5.36068,"is_reserved":false,"is_disabled":false,"rental_uris":{"android":"levelo://app?vid=0e5dc71c-04b1-4de3-8e03-f041458b286c","ios":"levelo://app?vid=0e5dc71c-04b1-4de3-8e03-f041458b286c"},"vehicle_type_id":"4","last_reported":1728572963,"current_range_meters":12800,"station_id":"ce4bhbh2rcd13ifvqeqg","pricing_plan_id":"cebpf4jnsgd1na2vs0mg"},{"bike_id":"1ae2ab72-a100-426a-bdff-9a5aec036875","system_id":"levelo_inurba_marseille","lat":43.29008,"lon":5.35604,"is_reserved":false,"is_disabled":false,"rental_uris":{"android":"levelo://app?vid=1ae2ab72-a100-426a-bdff-9a5aec036875","ios":"levelo://app?vid=1ae2ab72-a100-426a-bdff-9a5aec036875"},"vehicle_type_id":"4","last_reported":1728572963,"current_range_meters":24800,"station_id":"ce4bhb92rcd13ifvqen0","pricing_plan_id":"cebpf4jnsgd1na2vs0mg"},{"bike_id":"49c714f6-7eba-4362-b062-c797acfa656b","system_id":"levelo_inurba_marseille","lat":43.28983,"lon":5.37843,"is_reserved":false,"is_disabled":false,"rental_uris":{"android":"levelo://app?vid=49c714f6-7eba-4362-b062-c797acfa656b","ios":"levelo://app?vid=49c714f6-7eba-4362-b062-c797acfa656b"},"vehicle_type_id":"4","last_reported":1728572963,"current_range_meters":36800,"station_id":"ce4bh9p2rcd13ifvqed0","pricing_plan_id":"cebpf4jnsgd1na2vs0mg"},{"bike_id":"229b8b9f-c28b-4675-bf1d-080ad732fbdc","system_id":"levelo_inurba_marseille","lat":43.29972,"lon":5.37197,"is_reserved":false,"is_disabled":false,"rental_uris":{"android":"levelo://app?vid=229b8b9f-c28b-4675-bf1d-080ad732fbdc","ios":"levelo://app?vid=229b8b9f-c28b-4675-bf1d-080ad732fbdc"},"vehicle_type_id":"4","last_reported":1728572963,"current_range_meters":38800,"station_id":"ce4bgr92rcd13ifvqc7g","pricing_plan_id":"cebpf4jnsgd1na2vs0mg"},{"bike_id":"fea82609-bde5-402e-b140-d5514c9c8c19","system_id":"levelo_inurba_marseille","lat":43.25113,"lon":5.40322,"is_reserved":false,"is_disabled":false,"rental_uris":{"android":"levelo://app?vid=fea82609-bde5-402e-b140-d5514c9c8c19","ios":"levelo://app?vid=fea82609-bde5-402e-b140-d5514c9c8c19"},"vehicle_type_id":"4","last_reported":1728572963,"current_range_meters":36800,"station_id":"ce4bhlh2rcd13ifvqgig","pricing_plan_id":"cebpf4jnsgd1na2vs0mg"},{"bike_id":"5276ee12-5cb2-46e9-992e-7babb87844cb","system_id":"levelo_inurba_marseille","lat":43.29535,"lon":5.38539,"is_reserved":false,"is_disabled":false,"rental_uris":{"android":"levelo://app?vid=5276ee12-5cb2-46e9-992e-7babb87844cb","ios":"levelo://app?vid=5276ee12-5cb2-46e9-992e-7babb87844cb"},"vehicle_type_id":"4","last_reported":1728572963,"current_range_meters":39200,"station_id":"ce4bgih2rcd13ifvqba0","pricing_plan_id":"cebpf4jnsgd1na2vs0mg"},{"bike_id":"5363bae7-e446-4946-b0ec-c6650b8b5b79","system_id":"levelo_inurba_marseille","lat":43.24401,"lon":5.37057,"is_reserved":false,"is_disabled":false,"rental_uris":{"android":"levelo://app?vid=5363bae7-e446-4946-b0ec-c6650b8b5b79","ios":"levelo://app?vid=5363bae7-e446-4946-b0ec-c6650b8b5b79"},"vehicle_type_id":"4","last_reported":1728572963,"current_range_meters":26000,"station_id":"ce4bhhh2rcd13ifvqfk0","pricing_plan_id":"cebpf4jnsgd1na2vs0mg"},{"bike_id":"70d06291-a8b8-4928-ad0f-ba5d2c2fffb7","system_id":"levelo_inurba_marseille","lat":43.29915,"lon":5.38161,"is_reserved":false,"is_disabled":false,"rental_uris":{"android":"levelo://app?vid=70d06291-a8b8-4928-ad0f-ba5d2c2fffb7","ios":"levelo://app?vid=70d06291-a8b8-4928-ad0f-ba5d2c2fffb7"},"vehicle_type_id":"4","last_reported":1728572963,"current_range_meters":26000,"station_id":"ce4bgj12rcd13ifvqbc0","pricing_plan_id":"cebpf4jnsgd1na2vs0mg"},{"bike_id":"f04772d8-e887-4f2c-a69e-b1e49980bef1","system_id":"levelo_inurba_marseille","lat":43.3026,"lon":5.40085,"is_reserved":false,"is_disabled":false,"rental_uris":{"android":"levelo://app?vid=f04772d8-e887-4f2c-a69e-b1e49980bef1","ios":"levelo://app?vid=f04772d8-e887-4f2c-a69e-b1e49980bef1"},"vehicle_type_id":"4","last_reported":1728572963,"current_range_meters":14000,"station_id":"ce4bgvh2rcd13ifvqcs0","pricing_plan_id":"cebpf4jnsgd1na2vs0mg"},{"bike_id":"2a59f393-0bcb-4e0b-b50f-648c0e29b5ca","system_id":"levelo_inurba_marseille","lat":43.30243,"lon":5.40083,"is_reserved":false,"is_disabled":false,"rental_uris":{"android":"levelo://app?vid=2a59f393-0bcb-4e0b-b50f-648c0e29b5ca","ios":"levelo://app?vid=2a59f393-0bcb-4e0b-b50f-648c0e29b5ca"},"vehicle_type_id":"4","last_reported":1728572963,"current_range_meters":11600,"station_id":"ce4bhap2rcd13ifvqek0","pricing_plan_id":"cebpf4jnsgd1na2vs0mg"},{"bike_id":"4a3be654-8ab7-4157-aed4-8afa1d8571b5","system_id":"levelo_inurba_marseille","lat":43.32342,"lon":5.40625,"is_reserved":false,"is_disabled":false,"rental_uris":{"android":"levelo://app?vid=4a3be654-8ab7-4157-aed4-8afa1d8571b5","ios":"levelo://app?vid=4a3be654-8ab7-4157-aed4-8afa1d8571b5"},"vehicle_type_id":"4","last_reported":1728572963,"current_range_meters":22800,"station_id":"ce4bhq92rcd13ifvqhjg","pricing_plan_id":"cebpf4jnsgd1na2vs0mg"},{"bike_id":"24c5f768-ee64-4c37-b4d6-41a2bb819cb4","system_id":"levelo_inurba_marseille","lat":43.285171,"lon":5.398829,"is_reserved":false,"is_disabled":false,"rental_uris":{"android":"levelo://app?vid=24c5f768-ee64-4c37-b4d6-41a2bb819cb4","ios":"levelo://app?vid=24c5f768-ee64-4c37-b4d6-41a2bb819cb4"},"vehicle_type_id":"4","last_reported":1728572963,"current_range_meters":4800,"station_id":"cjm6bp8fraef2m0cb0m0","pricing_plan_id":"cebpf4jnsgd1na2vs0mg"},{"bike_id":"daa275ea-ac44-47b4-ac61-333e5afbc9ef","system_id":"levelo_inurba_marseille","lat":43.31716,"lon":5.42405,"is_reserved":false,"is_disabled":false,"rental_uris":{"android":"levelo://app?vid=daa275ea-ac44-47b4-ac61-333e5afbc9ef","ios":"levelo://app?vid=daa275ea-ac44-47b4-ac61-333e5afbc9ef"},"vehicle_type_id":"4","last_reported":1728572963,"current_range_meters":26800,"station_id":"ce4bhp92rcd13ifvqhbg","pricing_plan_id":"cebpf4jnsgd1na2vs0mg"},{"bike_id":"8fe856d8-47b2-4fc1-8199-91320a3a8f23","system_id":"levelo_inurba_marseille","lat":43.30135,"lon":5.37414,"is_reserved":false,"is_disabled":false,"rental_uris":{"android":"levelo://app?vid=8fe856d8-47b2-4fc1-8199-91320a3a8f23","ios":"levelo://app?vid=8fe856d8-47b2-4fc1-8199-91320a3a8f23"},"vehicle_type_id":"4","last_reported":1728572963,"current_range_meters":38800,"station_id":"ce4bh192rcd13ifvqdb0","pricing_plan_id":"cebpf4jnsgd1na2vs0mg"},{"bike_id":"5af31814-3cf4-4d4b-9686-c4a93722c71d","system_id":"levelo_inurba_marseille","lat":43.24662,"lon":5.38171,"is_reserved":false,"is_disabled":false,"rental_uris":{"android":"levelo://app?vid=5af31814-3cf4-4d4b-9686-c4a93722c71d","ios":"levelo://app?vid=5af31814-3cf4-4d4b-9686-c4a93722c71d"},"vehicle_type_id":"4","last_reported":1728572963,"current_range_meters":27200,"station_id":"ce4bhih2rcd13ifvqfr0","pricing_plan_id":"cebpf4jnsgd1na2vs0mg"},{"bike_id":"44bcb941-b243-4ac9-9d3f-e3f7f100255b","system_id":"levelo_inurba_marseille","lat":43.26207,"lon":5.37928,"is_reserved":false,"is_disabled":false,"rental_uris":{"android":"levelo://app?vid=44bcb941-b243-4ac9-9d3f-e3f7f100255b","ios":"levelo://app?vid=44bcb941-b243-4ac9-9d3f-e3f7f100255b"},"vehicle_type_id":"4","last_reported":1728572963,"current_range_meters":38000,"station_id":"ce4bhjp2rcd13ifvqg90","pricing_plan_id":"cebpf4jnsgd1na2vs0mg"},{"bike_id":"9cf3db70-1431-4372-b452-2d0770d0c15d","system_id":"levelo_inurba_marseille","lat":43.23194,"lon":5.35553,"is_reserved":false,"is_disabled":false,"rental_uris":{"android":"levelo://app?vid=9cf3db70-1431-4372-b452-2d0770d0c15d","ios":"levelo://app?vid=9cf3db70-1431-4372-b452-2d0770d0c15d"},"vehicle_type_id":"4","last_reported":1728572963,"current_range_meters":36000,"station_id":"ce4bhu92rcd13ifvqi70","pricing_plan_id":"cebpf4jnsgd1na2vs0mg"},{"bike_id":"27b2b588-5bcc-4f07-8dcb-e39a84a5743e","system_id":"levelo_inurba_marseille","lat":43.30638,"lon":5.40082,"is_reserved":false,"is_disabled":false,"rental_uris":{"android":"levelo://app?vid=27b2b588-5bcc-4f07-8dcb-e39a84a5743e","ios":"levelo://app?vid=27b2b588-5bcc-4f07-8dcb-e39a84a5743e"},"vehicle_type_id":"4","last_reported":1728572963,"current_range_meters":12000,"station_id":"ce4bh112rcd13ifvqda0","pricing_plan_id":"cebpf4jnsgd1na2vs0mg"},{"bike_id":"95426710-b305-4e94-a023-3bd2288b2f2b","system_id":"levelo_inurba_marseille","lat":43.25107,"lon":5.40325,"is_reserved":false,"is_disabled":false,"rental_uris":{"android":"levelo://app?vid=95426710-b305-4e94-a023-3bd2288b2f2b","ios":"levelo://app?vid=95426710-b305-4e94-a023-3bd2288b2f2b"},"vehicle_type_id":"4","last_reported":1728572963,"current_range_meters":10800,"station_id":"ce4bhlh2rcd13ifvqgig","pricing_plan_id":"cebpf4jnsgd1na2vs0mg"},{"bike_id":"800704c5-22ff-4987-bcce-5fb01ce1f78c","system_id":"levelo_inurba_marseille","lat":43.28422,"lon":5.34984,"is_reserved":false,"is_disabled":false,"rental_uris":{"android":"levelo://app?vid=800704c5-22ff-4987-bcce-5fb01ce1f78c","ios":"levelo://app?vid=800704c5-22ff-4987-bcce-5fb01ce1f78c"},"vehicle_type_id":"4","last_reported":1728572963,"current_range_meters":38800,"station_id":"ce4bhbh2rcd13ifvqepg","pricing_plan_id":"cebpf4jnsgd1na2vs0mg"},{"bike_id":"3c25dded-f8d5-4193-a336-9fad641c4aac","system_id":"levelo_inurba_marseille","lat":43.33766,"lon":5.37447,"is_reserved":false,"is_disabled":false,"rental_uris":{"android":"levelo://app?vid=3c25dded-f8d5-4193-a336-9fad641c4aac","ios":"levelo://app?vid=3c25dded-f8d5-4193-a336-9fad641c4aac"},"vehicle_type_id":"4","last_reported":1728572963,"current_range_meters":16400,"station_id":"","pricing_plan_id":"cebpf4jnsgd1na2vs0mg"},{"bike_id":"c45c4812-ee99-4f30-8c10-331993c489db","system_id":"levelo_inurba_marseille","lat":43.24168,"lon":5.36391,"is_reserved":false,"is_disabled":false,"rental_uris":{"android":"levelo://app?vid=c45c4812-ee99-4f30-8c10-331993c489db","ios":"levelo://app?vid=c45c4812-ee99-4f30-8c10-331993c489db"},"vehicle_type_id":"4","last_reported":1728572963,"current_range_meters":9600,"station_id":"cpo36qri1sfpv3e86is0","pricing_plan_id":"cebpf4jnsgd1na2vs0mg"},{"bike_id":"51e440de-d209-499b-8449-09a2771da369","system_id":"levelo_inurba_marseille","lat":43.28106,"lon":5.37841,"is_reserved":false,"is_disabled":false,"rental_uris":{"android":"levelo://app?vid=51e440de-d209-499b-8449-09a2771da369","ios":"levelo://app?vid=51e440de-d209-499b-8449-09a2771da369"},"vehicle_type_id":"4","last_reported":1728572963,"current_range_meters":32800,"station_id":"ce4bha12rcd13ifvqee0","pricing_plan_id":"cebpf4jnsgd1na2vs0mg"},{"bike_id":"07379426-6bdd-4cf4-b913-84ab965126d9","system_id":"levelo_inurba_marseille","lat":43.30245,"lon":5.40075,"is_reserved":false,"is_disabled":false,"rental_uris":{"android":"levelo://app?vid=07379426-6bdd-4cf4-b913-84ab965126d9","ios":"levelo://app?vid=07379426-6bdd-4cf4-b913-84ab965126d9"},"vehicle_type_id":"4","last_reported":1728572963,"current_range_meters":25600,"station_id":"ce4bgvh2rcd13ifvqcs0","pricing_plan_id":"cebpf4jnsgd1na2vs0mg"},{"bike_id":"8e15b378-5e61-4219-9195-60fcffeb4a4a","system_id":"levelo_inurba_marseille","lat":43.29416,"lon":5.38623,"is_reserved":false,"is_disabled":false,"rental_uris":{"android":"levelo://app?vid=8e15b378-5e61-4219-9195-60fcffeb4a4a","ios":"levelo://app?vid=8e15b378-5e61-4219-9195-60fcffeb4a4a"},"vehicle_type_id":"4","last_reported":1728572963,"current_range_meters":22800,"station_id":"ce4bh2h2rcd13ifvqdh0","pricing_plan_id":"cebpf4jnsgd1na2vs0mg"},{"bike_id":"7975faaf-f260-41c7-87cd-147b9a3b3ebf","system_id":"levelo_inurba_marseille","lat":43.23057,"lon":5.3549,"is_reserved":false,"is_disabled":false,"rental_uris":{"android":"levelo://app?vid=7975faaf-f260-41c7-87cd-147b9a3b3ebf","ios":"levelo://app?vid=7975faaf-f260-41c7-87cd-147b9a3b3ebf"},"vehicle_type_id":"4","last_reported":1728572963,"current_range_meters":19600,"station_id":"cpo3342slgdg3j2ifvpg","pricing_plan_id":"cebpf4jnsgd1na2vs0mg"},{"bike_id":"e2dbd352-0617-4b0a-a708-07d554e99653","system_id":"levelo_inurba_marseille","lat":43.24812,"lon":5.37456,"is_reserved":false,"is_disabled":false,"rental_uris":{"android":"levelo://app?vid=e2dbd352-0617-4b0a-a708-07d554e99653","ios":"levelo://app?vid=e2dbd352-0617-4b0a-a708-07d554e99653"},"vehicle_type_id":"4","last_reported":1728572963,"current_range_meters":10000,"station_id":"ce4bhgh2rcd13ifvqfb0","pricing_plan_id":"cebpf4jnsgd1na2vs0mg"},{"bike_id":"703d5faf-e8f5-42e8-a15c-36acb1ae64d2","system_id":"levelo_inurba_marseille","lat":43.22932,"lon":5.35382,"is_reserved":false,"is_disabled":false,"rental_uris":{"android":"levelo://app?vid=703d5faf-e8f5-42e8-a15c-36acb1ae64d2","ios":"levelo://app?vid=703d5faf-e8f5-42e8-a15c-36acb1ae64d2"},"vehicle_type_id":"4","last_reported":1728572963,"current_range_meters":8400,"station_id":"cpo3532slgdg3j2ikp40","pricing_plan_id":"cebpf4jnsgd1na2vs0mg"},{"bike_id":"0fe8fa8c-305a-4991-9dc5-5a5d1dddcb9c","system_id":"levelo_inurba_marseille","lat":43.29685,"lon":5.3729,"is_reserved":false,"is_disabled":false,"rental_uris":{"android":"levelo://app?vid=0fe8fa8c-305a-4991-9dc5-5a5d1dddcb9c","ios":"levelo://app?vid=0fe8fa8c-305a-4991-9dc5-5a5d1dddcb9c"},"vehicle_type_id":"4","last_reported":1728572963,"current_range_meters":8400,"station_id":"ce4bgk12rcd13ifvqbj0","pricing_plan_id":"cebpf4jnsgd1na2vs0mg"},{"bike_id":"4b65e5e5-d568-4114-bfd6-70b281240118","system_id":"levelo_inurba_marseille","lat":43.31718,"lon":5.42401,"is_reserved":false,"is_disabled":false,"rental_uris":{"android":"levelo://app?vid=4b65e5e5-d568-4114-bfd6-70b281240118","ios":"levelo://app?vid=4b65e5e5-d568-4114-bfd6-70b281240118"},"vehicle_type_id":"4","last_reported":1728572963,"current_range_meters":16000,"station_id":"ce4bhp92rcd13ifvqhbg","pricing_plan_id":"cebpf4jnsgd1na2vs0mg"},{"bike_id":"025c140d-65b2-41b6-9163-0b2e78e3db0e","system_id":"levelo_inurba_marseille","lat":43.3211,"lon":5.36773,"is_reserved":false,"is_disabled":false,"rental_uris":{"android":"levelo://app?vid=025c140d-65b2-41b6-9163-0b2e78e3db0e","ios":"levelo://app?vid=025c140d-65b2-41b6-9163-0b2e78e3db0e"},"vehicle_type_id":"4","last_reported":1728572963,"current_range_meters":6800,"station_id":"ce4bhrh2rcd13ifvqhug","pricing_plan_id":"cebpf4jnsgd1na2vs0mg"},{"bike_id":"e2bb9133-05e6-45b3-9cdf-adab19c67cfe","system_id":"levelo_inurba_marseille","lat":43.29844,"lon":5.36259,"is_reserved":false,"is_disabled":false,"rental_uris":{"android":"levelo://app?vid=e2bb9133-05e6-45b3-9cdf-adab19c67cfe","ios":"levelo://app?vid=e2bb9133-05e6-45b3-9cdf-adab19c67cfe"},"vehicle_type_id":"4","last_reported":1728572963,"current_range_meters":37600,"station_id":"ce4bgpp2rcd13ifvqc3g","pricing_plan_id":"cebpf4jnsgd1na2vs0mg"},{"bike_id":"516bcc61-fb1e-45f2-a3d5-1f65a16b037e","system_id":"levelo_inurba_marseille","lat":43.25109,"lon":5.40332,"is_reserved":false,"is_disabled":false,"rental_uris":{"android":"levelo://app?vid=516bcc61-fb1e-45f2-a3d5-1f65a16b037e","ios":"levelo://app?vid=516bcc61-fb1e-45f2-a3d5-1f65a16b037e"},"vehicle_type_id":"4","last_reported":1728572963,"current_range_meters":22000,"station_id":"ce4bhlh2rcd13ifvqgig","pricing_plan_id":"cebpf4jnsgd1na2vs0mg"},{"bike_id":"b50304bb-a0ba-4cf5-aee1-bbe78f403e46","system_id":"levelo_inurba_marseille","lat":43.25866,"lon":5.39899,"is_reserved":false,"is_disabled":false,"rental_uris":{"android":"levelo://app?vid=b50304bb-a0ba-4cf5-aee1-bbe78f403e46","ios":"levelo://app?vid=b50304bb-a0ba-4cf5-aee1-bbe78f403e46"},"vehicle_type_id":"4","last_reported":1728572963,"current_range_meters":5600,"station_id":"ce4bhl92rcd13ifvqghg","pricing_plan_id":"cebpf4jnsgd1na2vs0mg"},{"bike_id":"ea666fbe-c573-4d5c-947e-1dc97cadefaf","system_id":"levelo_inurba_marseille","lat":43.30136,"lon":5.3876,"is_reserved":false,"is_disabled":false,"rental_uris":{"android":"levelo://app?vid=ea666fbe-c573-4d5c-947e-1dc97cadefaf","ios":"levelo://app?vid=ea666fbe-c573-4d5c-947e-1dc97cadefaf"},"vehicle_type_id":"4","last_reported":1728572963,"current_range_meters":36800,"station_id":"ce4bghh2rcd13ifvqb60","pricing_plan_id":"cebpf4jnsgd1na2vs0mg"},{"bike_id":"84a49278-868b-4c37-bb40-7ba8dea4bcae","system_id":"levelo_inurba_marseille","lat":43.30385,"lon":5.41928,"is_reserved":false,"is_disabled":false,"rental_uris":{"android":"levelo://app?vid=84a49278-868b-4c37-bb40-7ba8dea4bcae","ios":"levelo://app?vid=84a49278-868b-4c37-bb40-7ba8dea4bcae"},"vehicle_type_id":"4","last_reported":1728572963,"current_range_meters":38800,"station_id":"ce4bhop2rcd13ifvqh7g","pricing_plan_id":"cebpf4jnsgd1na2vs0mg"},{"bike_id":"32b7e550-1d43-44f8-b9be-3dc89d8a539f","system_id":"levelo_inurba_marseille","lat":43.32286,"lon":5.38265,"is_reserved":false,"is_disabled":false,"rental_uris":{"android":"levelo://app?vid=32b7e550-1d43-44f8-b9be-3dc89d8a539f","ios":"levelo://app?vid=32b7e550-1d43-44f8-b9be-3dc89d8a539f"},"vehicle_type_id":"4","last_reported":1728572963,"current_range_meters":26800,"station_id":"ce4bhr12rcd13ifvqhqg","pricing_plan_id":"cebpf4jnsgd1na2vs0mg"},{"bike_id":"c25ed6d6-6a22-4563-beca-687cd116c481","system_id":"levelo_inurba_marseille","lat":43.268005,"lon":5.402719,"is_reserved":false,"is_disabled":false,"rental_uris":{"android":"levelo://app?vid=c25ed6d6-6a22-4563-beca-687cd116c481","ios":"levelo://app?vid=c25ed6d6-6a22-4563-beca-687cd116c481"},"vehicle_type_id":"4","last_reported":1728572963,"current_range_meters":21600,"station_id":"ce501612rcd8frsf0b60","pricing_plan_id":"cebpf4jnsgd1na2vs0mg"},{"bike_id":"e7b49636-cefa-450a-ba52-4d5362cb1c52","system_id":"levelo_inurba_marseille","lat":43.23193,"lon":5.3555,"is_reserved":false,"is_disabled":false,"rental_uris":{"android":"levelo://app?vid=e7b49636-cefa-450a-ba52-4d5362cb1c52","ios":"levelo://app?vid=e7b49636-cefa-450a-ba52-4d5362cb1c52"},"vehicle_type_id":"4","last_reported":1728572963,"current_range_meters":28000,"station_id":"ce4bhu92rcd13ifvqi70","pricing_plan_id":"cebpf4jnsgd1na2vs0mg"},{"bike_id":"b0b732bd-ebcb-42a6-9774-3a276fbb8e1e","system_id":"levelo_inurba_marseille","lat":43.305389,"lon":5.384524,"is_reserved":false,"is_disabled":false,"rental_uris":{"android":"levelo://app?vid=b0b732bd-ebcb-42a6-9774-3a276fbb8e1e","ios":"levelo://app?vid=b0b732bd-ebcb-42a6-9774-3a276fbb8e1e"},"vehicle_type_id":"4","last_reported":1728572963,"current_range_meters":20000,"station_id":"ce4bgg92rcd13ifvqb30","pricing_plan_id":"cebpf4jnsgd1na2vs0mg"},{"bike_id":"58883524-b8f4-4bb2-a1a2-bca9763eea8e","system_id":"levelo_inurba_marseille","lat":43.324856,"lon":5.365593,"is_reserved":false,"is_disabled":false,"rental_uris":{"android":"levelo://app?vid=58883524-b8f4-4bb2-a1a2-bca9763eea8e","ios":"levelo://app?vid=58883524-b8f4-4bb2-a1a2-bca9763eea8e"},"vehicle_type_id":"4","last_reported":1728572963,"current_range_meters":22400,"station_id":"ce4bhs12rcd13ifvqhvg","pricing_plan_id":"cebpf4jnsgd1na2vs0mg"},{"bike_id":"1e41cc49-bee2-4c7c-990a-9cccf842bf25","system_id":"levelo_inurba_marseille","lat":43.27373,"lon":5.3627,"is_reserved":false,"is_disabled":false,"rental_uris":{"android":"levelo://app?vid=1e41cc49-bee2-4c7c-990a-9cccf842bf25","ios":"levelo://app?vid=1e41cc49-bee2-4c7c-990a-9cccf842bf25"},"vehicle_type_id":"4","last_reported":1728572963,"current_range_meters":39200,"station_id":"ce4bhbh2rcd13ifvqeo0","pricing_plan_id":"cebpf4jnsgd1na2vs0mg"},{"bike_id":"d5c6e2de-4e25-4800-8930-c2655fe101b6","system_id":"levelo_inurba_marseille","lat":43.29782,"lon":5.37109,"is_reserved":false,"is_disabled":false,"rental_uris":{"android":"levelo://app?vid=d5c6e2de-4e25-4800-8930-c2655fe101b6","ios":"levelo://app?vid=d5c6e2de-4e25-4800-8930-c2655fe101b6"},"vehicle_type_id":"4","last_reported":1728572963,"current_range_meters":2800,"station_id":"ce4bgop2rcd13ifvqc1g","pricing_plan_id":"cebpf4jnsgd1na2vs0mg"},{"bike_id":"ea502861-5d3e-424b-8456-9592c3c477f7","system_id":"levelo_inurba_marseille","lat":43.23155,"lon":5.43704,"is_reserved":false,"is_disabled":false,"rental_uris":{"android":"levelo://app?vid=ea502861-5d3e-424b-8456-9592c3c477f7","ios":"levelo://app?vid=ea502861-5d3e-424b-8456-9592c3c477f7"},"vehicle_type_id":"4","last_reported":1728572963,"current_range_meters":25600,"station_id":"ce4bhmp2rcd13ifvqgog","pricing_plan_id":"cebpf4jnsgd1na2vs0mg"},{"bike_id":"df949ca6-58ac-437f-aa8b-8a3c50e7dee0","system_id":"levelo_inurba_marseille","lat":43.2794,"lon":5.4105,"is_reserved":false,"is_disabled":false,"rental_uris":{"android":"levelo://app?vid=df949ca6-58ac-437f-aa8b-8a3c50e7dee0","ios":"levelo://app?vid=df949ca6-58ac-437f-aa8b-8a3c50e7dee0"},"vehicle_type_id":"4","last_reported":1728572963,"current_range_meters":24400,"station_id":"ce4bhnp2rcd13ifvqh0g","pricing_plan_id":"cebpf4jnsgd1na2vs0mg"},{"bike_id":"4ef19926-8977-4bff-ab9d-c1b0b8c550ca","system_id":"levelo_inurba_marseille","lat":43.28149,"lon":5.42655,"is_reserved":false,"is_disabled":false,"rental_uris":{"android":"levelo://app?vid=4ef19926-8977-4bff-ab9d-c1b0b8c550ca","ios":"levelo://app?vid=4ef19926-8977-4bff-ab9d-c1b0b8c550ca"},"vehicle_type_id":"4","last_reported":1728572963,"current_range_meters":8000,"station_id":"ce4bhnh2rcd13ifvqgug","pricing_plan_id":"cebpf4jnsgd1na2vs0mg"},{"bike_id":"dd00998d-5002-40eb-b368-b03fc1a5db94","system_id":"levelo_inurba_marseille","lat":43.28406,"lon":5.43553,"is_reserved":false,"is_disabled":false,"rental_uris":{"android":"levelo://app?vid=dd00998d-5002-40eb-b368-b03fc1a5db94","ios":"levelo://app?vid=dd00998d-5002-40eb-b368-b03fc1a5db94"},"vehicle_type_id":"4","last_reported":1728572963,"current_range_meters":27600,"station_id":"ce4bhnh2rcd13ifvqgug","pricing_plan_id":"cebpf4jnsgd1na2vs0mg"},{"bike_id":"29f88de8-76b9-410b-8896-9a159c11ba30","system_id":"levelo_inurba_marseille","lat":43.27053,"lon":5.40266,"is_reserved":false,"is_disabled":false,"rental_uris":{"android":"levelo://app?vid=29f88de8-76b9-410b-8896-9a159c11ba30","ios":"levelo://app?vid=29f88de8-76b9-410b-8896-9a159c11ba30"},"vehicle_type_id":"4","last_reported":1728572963,"current_range_meters":28000,"station_id":"ce4bhk92rcd13ifvqgc0","pricing_plan_id":"cebpf4jnsgd1na2vs0mg"},{"bike_id":"7423281e-87bc-49fb-b730-2977551e859f","system_id":"levelo_inurba_marseille","lat":43.29622,"lon":5.37713,"is_reserved":false,"is_disabled":false,"rental_uris":{"android":"levelo://app?vid=7423281e-87bc-49fb-b730-2977551e859f","ios":"levelo://app?vid=7423281e-87bc-49fb-b730-2977551e859f"},"vehicle_type_id":"4","last_reported":1728572963,"current_range_meters":38400,"station_id":"ce4bgi92rcd13ifvqb90","pricing_plan_id":"cebpf4jnsgd1na2vs0mg"},{"bike_id":"360014e4-7639-46f2-aa56-787962ffb9ba","system_id":"levelo_inurba_marseille","lat":43.241899,"lon":5.397142,"is_reserved":false,"is_disabled":false,"rental_uris":{"android":"levelo://app?vid=360014e4-7639-46f2-aa56-787962ffb9ba","ios":"levelo://app?vid=360014e4-7639-46f2-aa56-787962ffb9ba"},"vehicle_type_id":"4","last_reported":1728572963,"current_range_meters":8800,"station_id":"ce4bhn12rcd13ifvqgpg","pricing_plan_id":"cebpf4jnsgd1na2vs0mg"},{"bike_id":"fc8d7404-4cda-4728-aa21-d7e28a8a82ab","system_id":"levelo_inurba_marseille","lat":43.28271,"lon":5.35073,"is_reserved":false,"is_disabled":false,"rental_uris":{"android":"levelo://app?vid=fc8d7404-4cda-4728-aa21-d7e28a8a82ab","ios":"levelo://app?vid=fc8d7404-4cda-4728-aa21-d7e28a8a82ab"},"vehicle_type_id":"4","last_reported":1728572963,"current_range_meters":27200,"station_id":"ce4bhbp2rcd13ifvqerg","pricing_plan_id":"cebpf4jnsgd1na2vs0mg"},{"bike_id":"245fbd72-a8ea-4a50-b396-f3860863893b","system_id":"levelo_inurba_marseille","lat":43.23195,"lon":5.3555,"is_reserved":false,"is_disabled":false,"rental_uris":{"android":"levelo://app?vid=245fbd72-a8ea-4a50-b396-f3860863893b","ios":"levelo://app?vid=245fbd72-a8ea-4a50-b396-f3860863893b"},"vehicle_type_id":"4","last_reported":1728572963,"current_range_meters":36800,"station_id":"ce4bhu92rcd13ifvqi70","pricing_plan_id":"cebpf4jnsgd1na2vs0mg"},{"bike_id":"e464c0dc-e893-4736-9610-09d86045dcb6","system_id":"levelo_inurba_marseille","lat":43.26947,"lon":5.40246,"is_reserved":false,"is_disabled":false,"rental_uris":{"android":"levelo://app?vid=e464c0dc-e893-4736-9610-09d86045dcb6","ios":"levelo://app?vid=e464c0dc-e893-4736-9610-09d86045dcb6"},"vehicle_type_id":"4","last_reported":1728572963,"current_range_meters":17200,"station_id":"cjm6bp8fraef2m0cb0m0","pricing_plan_id":"cebpf4jnsgd1na2vs0mg"},{"bike_id":"73d5fb82-9480-41f7-b14b-c3d672331667","system_id":"levelo_inurba_marseille","lat":43.29532,"lon":5.3855,"is_reserved":false,"is_disabled":false,"rental_uris":{"android":"levelo://app?vid=73d5fb82-9480-41f7-b14b-c3d672331667","ios":"levelo://app?vid=73d5fb82-9480-41f7-b14b-c3d672331667"},"vehicle_type_id":"4","last_reported":1728572963,"current_range_meters":35200,"station_id":"ce4bgih2rcd13ifvqba0","pricing_plan_id":"cebpf4jnsgd1na2vs0mg"},{"bike_id":"18fda87a-fc9c-4756-b58c-bca19ee737ad","system_id":"levelo_inurba_marseille","lat":43.29931,"lon":5.36529,"is_reserved":false,"is_disabled":false,"rental_uris":{"android":"levelo://app?vid=18fda87a-fc9c-4756-b58c-bca19ee737ad","ios":"levelo://app?vid=18fda87a-fc9c-4756-b58c-bca19ee737ad"},"vehicle_type_id":"4","last_reported":1728572963,"current_range_meters":24400,"station_id":"ce4bgm92rcd13ifvqbr0","pricing_plan_id":"cebpf4jnsgd1na2vs0mg"},{"bike_id":"d0af47d5-71a2-4e6e-a4f7-a2d225b8e53a","system_id":"levelo_inurba_marseille","lat":43.23056,"lon":5.35489,"is_reserved":false,"is_disabled":false,"rental_uris":{"android":"levelo://app?vid=d0af47d5-71a2-4e6e-a4f7-a2d225b8e53a","ios":"levelo://app?vid=d0af47d5-71a2-4e6e-a4f7-a2d225b8e53a"},"vehicle_type_id":"4","last_reported":1728572963,"current_range_meters":20800,"station_id":"cpo3342slgdg3j2ifvpg","pricing_plan_id":"cebpf4jnsgd1na2vs0mg"},{"bike_id":"adc38916-872b-4bf0-8093-0470216a0af8","system_id":"levelo_inurba_marseille","lat":43.23187,"lon":5.35559,"is_reserved":false,"is_disabled":false,"rental_uris":{"android":"levelo://app?vid=adc38916-872b-4bf0-8093-0470216a0af8","ios":"levelo://app?vid=adc38916-872b-4bf0-8093-0470216a0af8"},"vehicle_type_id":"4","last_reported":1728572963,"current_range_meters":29600,"station_id":"ce4bhu92rcd13ifvqi70","pricing_plan_id":"cebpf4jnsgd1na2vs0mg"},{"bike_id":"a2ced3b9-99bf-497a-9ad4-345da2fb1c1e","system_id":"levelo_inurba_marseille","lat":43.270294,"lon":5.402301,"is_reserved":false,"is_disabled":false,"rental_uris":{"android":"levelo://app?vid=a2ced3b9-99bf-497a-9ad4-345da2fb1c1e","ios":"levelo://app?vid=a2ced3b9-99bf-497a-9ad4-345da2fb1c1e"},"vehicle_type_id":"4","last_reported":1728572963,"current_range_meters":31200,"station_id":"ce4bhk92rcd13ifvqgc0","pricing_plan_id":"cebpf4jnsgd1na2vs0mg"},{"bike_id":"8dd12afd-7c46-440e-9647-4b5e32c06ba9","system_id":"levelo_inurba_marseille","lat":43.25873,"lon":5.399,"is_reserved":false,"is_disabled":false,"rental_uris":{"android":"levelo://app?vid=8dd12afd-7c46-440e-9647-4b5e32c06ba9","ios":"levelo://app?vid=8dd12afd-7c46-440e-9647-4b5e32c06ba9"},"vehicle_type_id":"4","last_reported":1728572963,"current_range_meters":26000,"station_id":"ce4bhl92rcd13ifvqghg","pricing_plan_id":"cebpf4jnsgd1na2vs0mg"},{"bike_id":"06756a06-99f2-4b1d-99ae-8c41b42ed81b","system_id":"levelo_inurba_marseille","lat":43.29613,"lon":5.3727,"is_reserved":false,"is_disabled":false,"rental_uris":{"android":"levelo://app?vid=06756a06-99f2-4b1d-99ae-8c41b42ed81b","ios":"levelo://app?vid=06756a06-99f2-4b1d-99ae-8c41b42ed81b"},"vehicle_type_id":"4","last_reported":1728572963,"current_range_meters":20000,"station_id":"","pricing_plan_id":"cebpf4jnsgd1na2vs0mg"},{"bike_id":"843dbfec-12d3-4133-82cf-92f31441fe7c","system_id":"levelo_inurba_marseille","lat":43.30094,"lon":5.39081,"is_reserved":false,"is_disabled":false,"rental_uris":{"android":"levelo://app?vid=843dbfec-12d3-4133-82cf-92f31441fe7c","ios":"levelo://app?vid=843dbfec-12d3-4133-82cf-92f31441fe7c"},"vehicle_type_id":"4","last_reported":1728572963,"current_range_meters":8400,"station_id":"ce4bh192rcd13ifvqdb0","pricing_plan_id":"cebpf4jnsgd1na2vs0mg"},{"bike_id":"b75c6a44-b605-4dcb-8106-c627e49fd75d","system_id":"levelo_inurba_marseille","lat":43.27175,"lon":5.41002,"is_reserved":false,"is_disabled":false,"rental_uris":{"android":"levelo://app?vid=b75c6a44-b605-4dcb-8106-c627e49fd75d","ios":"levelo://app?vid=b75c6a44-b605-4dcb-8106-c627e49fd75d"},"vehicle_type_id":"4","last_reported":1728572963,"current_range_meters":5600,"station_id":"ce4bhl12rcd13ifvqgf0","pricing_plan_id":"cebpf4jnsgd1na2vs0mg"},{"bike_id":"cdd86c5e-fd80-44de-97d0-69597ca3493d","system_id":"levelo_inurba_marseille","lat":43.30315,"lon":5.36914,"is_reserved":false,"is_disabled":false,"rental_uris":{"android":"levelo://app?vid=cdd86c5e-fd80-44de-97d0-69597ca3493d","ios":"levelo://app?vid=cdd86c5e-fd80-44de-97d0-69597ca3493d"},"vehicle_type_id":"4","last_reported":1728572963,"current_range_meters":5600,"station_id":"ce4bgqh2rcd13ifvqc5g","pricing_plan_id":"cebpf4jnsgd1na2vs0mg"},{"bike_id":"c937cf02-0dc7-4253-b303-f10956f0f218","system_id":"levelo_inurba_marseille","lat":43.27611,"lon":5.36116,"is_reserved":false,"is_disabled":false,"rental_uris":{"android":"levelo://app?vid=c937cf02-0dc7-4253-b303-f10956f0f218","ios":"levelo://app?vid=c937cf02-0dc7-4253-b303-f10956f0f218"},"vehicle_type_id":"4","last_reported":1728572963,"current_range_meters":8400,"station_id":"ce4bgj92rcd13ifvqbe0","pricing_plan_id":"cebpf4jnsgd1na2vs0mg"},{"bike_id":"8a4e2d29-bb30-4146-ba3c-7bd29aea480e","system_id":"levelo_inurba_marseille","lat":43.24801,"lon":5.37457,"is_reserved":false,"is_disabled":false,"rental_uris":{"android":"levelo://app?vid=8a4e2d29-bb30-4146-ba3c-7bd29aea480e","ios":"levelo://app?vid=8a4e2d29-bb30-4146-ba3c-7bd29aea480e"},"vehicle_type_id":"4","last_reported":1728572963,"current_range_meters":6800,"station_id":"ce4bhgh2rcd13ifvqfb0","pricing_plan_id":"cebpf4jnsgd1na2vs0mg"},{"bike_id":"5f40933f-2e9e-4664-8bdc-740fcaa33445","system_id":"levelo_inurba_marseille","lat":43.30888,"lon":5.39658,"is_reserved":false,"is_disabled":false,"rental_uris":{"android":"levelo://app?vid=5f40933f-2e9e-4664-8bdc-740fcaa33445","ios":"levelo://app?vid=5f40933f-2e9e-4664-8bdc-740fcaa33445"},"vehicle_type_id":"4","last_reported":1728572963,"current_range_meters":22400,"station_id":"ce4bh012rcd13ifvqcv0","pricing_plan_id":"cebpf4jnsgd1na2vs0mg"},{"bike_id":"2f60232e-80a9-4fe4-bdac-65d624308f3e","system_id":"levelo_inurba_marseille","lat":43.28415,"lon":5.34988,"is_reserved":false,"is_disabled":false,"rental_uris":{"android":"levelo://app?vid=2f60232e-80a9-4fe4-bdac-65d624308f3e","ios":"levelo://app?vid=2f60232e-80a9-4fe4-bdac-65d624308f3e"},"vehicle_type_id":"4","last_reported":1728572963,"current_range_meters":27600,"station_id":"ce4bhbh2rcd13ifvqepg","pricing_plan_id":"cebpf4jnsgd1na2vs0mg"},{"bike_id":"95010204-2589-4476-b046-e2298451da50","system_id":"levelo_inurba_marseille","lat":43.28573,"lon":5.39498,"is_reserved":false,"is_disabled":false,"rental_uris":{"android":"levelo://app?vid=95010204-2589-4476-b046-e2298451da50","ios":"levelo://app?vid=95010204-2589-4476-b046-e2298451da50"},"vehicle_type_id":"4","last_reported":1728572963,"current_range_meters":16800,"station_id":"ce4bh292rcd13ifvqdg0","pricing_plan_id":"cebpf4jnsgd1na2vs0mg"},{"bike_id":"e79b5603-6312-4b6c-852c-9c5e42afa6e1","system_id":"levelo_inurba_marseille","lat":43.2587,"lon":5.39899,"is_reserved":false,"is_disabled":false,"rental_uris":{"android":"levelo://app?vid=e79b5603-6312-4b6c-852c-9c5e42afa6e1","ios":"levelo://app?vid=e79b5603-6312-4b6c-852c-9c5e42afa6e1"},"vehicle_type_id":"4","last_reported":1728572963,"current_range_meters":29600,"station_id":"ce4bhl92rcd13ifvqghg","pricing_plan_id":"cebpf4jnsgd1na2vs0mg"},{"bike_id":"a090bf10-58fd-47cc-9686-623b4e62b9d0","system_id":"levelo_inurba_marseille","lat":43.25503,"lon":5.3765,"is_reserved":false,"is_disabled":false,"rental_uris":{"android":"levelo://app?vid=a090bf10-58fd-47cc-9686-623b4e62b9d0","ios":"levelo://app?vid=a090bf10-58fd-47cc-9686-623b4e62b9d0"},"vehicle_type_id":"4","last_reported":1728572963,"current_range_meters":22000,"station_id":"ce4bhh12rcd13ifvqff0","pricing_plan_id":"cebpf4jnsgd1na2vs0mg"},{"bike_id":"f9cfc9c6-d61d-4004-a37a-1dfe43ad0d0f","system_id":"levelo_inurba_marseille","lat":43.29967,"lon":5.38494,"is_reserved":false,"is_disabled":false,"rental_uris":{"android":"levelo://app?vid=f9cfc9c6-d61d-4004-a37a-1dfe43ad0d0f","ios":"levelo://app?vid=f9cfc9c6-d61d-4004-a37a-1dfe43ad0d0f"},"vehicle_type_id":"4","last_reported":1728572963,"current_range_meters":22800,"station_id":"ce4bgj92rcd13ifvqbd0","pricing_plan_id":"cebpf4jnsgd1na2vs0mg"},{"bike_id":"bc65f5bc-ccd4-43b8-a2e0-7aa77a23518b","system_id":"levelo_inurba_marseille","lat":43.326458,"lon":5.413617,"is_reserved":false,"is_disabled":false,"rental_uris":{"android":"levelo://app?vid=bc65f5bc-ccd4-43b8-a2e0-7aa77a23518b","ios":"levelo://app?vid=bc65f5bc-ccd4-43b8-a2e0-7aa77a23518b"},"vehicle_type_id":"4","last_reported":1728572963,"current_range_meters":20800,"station_id":"ce4bhq12rcd13ifvqhhg","pricing_plan_id":"cebpf4jnsgd1na2vs0mg"},{"bike_id":"620c9541-1f74-491d-8abc-88ed069a0a8e","system_id":"levelo_inurba_marseille","lat":43.29935,"lon":5.36543,"is_reserved":false,"is_disabled":false,"rental_uris":{"android":"levelo://app?vid=620c9541-1f74-491d-8abc-88ed069a0a8e","ios":"levelo://app?vid=620c9541-1f74-491d-8abc-88ed069a0a8e"},"vehicle_type_id":"4","last_reported":1728572963,"current_range_meters":22800,"station_id":"ce4bgm92rcd13ifvqbr0","pricing_plan_id":"cebpf4jnsgd1na2vs0mg"},{"bike_id":"9119bfed-6fe0-44c1-92af-8f9f407caeeb","system_id":"levelo_inurba_marseille","lat":43.22933,"lon":5.3538,"is_reserved":false,"is_disabled":false,"rental_uris":{"android":"levelo://app?vid=9119bfed-6fe0-44c1-92af-8f9f407caeeb","ios":"levelo://app?vid=9119bfed-6fe0-44c1-92af-8f9f407caeeb"},"vehicle_type_id":"4","last_reported":1728572963,"current_range_meters":36800,"station_id":"cpo3532slgdg3j2ikp40","pricing_plan_id":"cebpf4jnsgd1na2vs0mg"},{"bike_id":"d57a39eb-0558-4bef-b94b-9bbd89888d8c","system_id":"levelo_inurba_marseille","lat":43.27909,"lon":5.39585,"is_reserved":false,"is_disabled":false,"rental_uris":{"android":"levelo://app?vid=d57a39eb-0558-4bef-b94b-9bbd89888d8c","ios":"levelo://app?vid=d57a39eb-0558-4bef-b94b-9bbd89888d8c"},"vehicle_type_id":"4","last_reported":1728572963,"current_range_meters":7200,"station_id":"ce4bhf92rcd13ifvqf40","pricing_plan_id":"cebpf4jnsgd1na2vs0mg"},{"bike_id":"e1b502d1-96fd-488a-9d77-1fe3f08e9a67","system_id":"levelo_inurba_marseille","lat":43.3172,"lon":5.42406,"is_reserved":false,"is_disabled":false,"rental_uris":{"android":"levelo://app?vid=e1b502d1-96fd-488a-9d77-1fe3f08e9a67","ios":"levelo://app?vid=e1b502d1-96fd-488a-9d77-1fe3f08e9a67"},"vehicle_type_id":"4","last_reported":1728572963,"current_range_meters":28400,"station_id":"ce4bhp92rcd13ifvqhbg","pricing_plan_id":"cebpf4jnsgd1na2vs0mg"},