{"last_updated":1712855185,"ttl":30,"version":"2.2","data":{"bikes":[{"bike_id":"af14cec0-f787-4f93-9346-86889ba10dee","system_id":"levelo_inurba_marseille","lat":43.313391,"lon":5.36706,"is_reserved":false,"is_disabled":false,"rental_uris":{"android":"levelo://app?vid=af14cec0-f787-4f93-9346-86889ba10dee","ios":"levelo://app?vid=af14cec0-f787-4f93-9346-86889ba10dee"},"vehicle_type_id":"4","last_reported":1712855185,"current_range_meters":0,"station_id":"ce4bgr92rcd13ifvqc6g","pricing_plan_id":"cebpf4jnsgd1na2vs0mg"},{"bike_id":"d680fc73-83bb-4190-9b3d-f58147e1c367","system_id":"levelo_inurba_marseille","lat":43.309076,"lon":5.368465,"is_reserved":false,"is_disabled":false,"rental_uris":{"android":"levelo://app?vid=d680fc73-83bb-4190-9b3d-f58147e1c367","ios":"levelo://app?vid=d680fc73-83bb-4190-9b3d-f58147e1c367"},"vehicle_type_id":"4","last_reported":1712855185,"current_range_meters":400,"station_id":"ce4bgn92rcd13ifvqbvg","pricing_plan_id":"cebpf4jnsgd1na2vs0mg"},{"bike_id":"97c305c5-8435-4b15-ae4a-fad64f5206a4","system_id":"levelo_inurba_marseille","lat":43.30906,"lon":5.36834,"is_reserved":false,"is_disabled":false,"rental_uris":{"android":"levelo://app?vid=97c305c5-8435-4b15-ae4a-fad64f5206a4","ios":"levelo://app?vid=97c305c5-8435-4b15-ae4a-fad64f5206a4"},"vehicle_type_id":"4","last_reported":1712855185,"current_range_meters":0,"station_id":"ce4bgn92rcd13ifvqbvg","pricing_plan_id":"cebpf4jnsgd1na2vs0mg"},{"bike_id":"dc7a45f6-352f-4fca-9e12-b323bfa737f9","system_id":"levelo_inurba_marseille","lat":43.311125,"lon":5.377624,"is_reserved":false,"is_disabled":false,"rental_uris":{"android":"levelo://app?vid=dc7a45f6-352f-4fca-9e12-b323bfa737f9","ios":"levelo://app?vid=dc7a45f6-352f-4fca-9e12-b323bfa737f9"},"vehicle_type_id":"4","last_reported":1712855185,"current_range_meters":12400,"station_id":"ce4bgt92rcd13ifvqcg0","pricing_plan_id":"cebpf4jnsgd1na2vs0mg"},{"bike_id":"01f7a027-d61f-4d51-b618-cd35a09a733b","system_id":"levelo_inurba_marseille","lat":43.3149,"lon":5.37315,"is_reserved":false,"is_disabled":false,"rental_uris":{"android":"levelo://app?vid=01f7a027-d61f-4d51-b618-cd35a09a733b","ios":"levelo://app?vid=01f7a027-d61f-4d51-b618-cd35a09a733b"},"vehicle_type_id":"4","last_reported":1712855185,"current_range_meters":0,"station_id":"ce4bgt12rcd13ifvqcd0","pricing_plan_id":"cebpf4jnsgd1na2vs0mg"},{"bike_id":"a7727f51-bbd9-49e9-854a-d3080e675171","system_id":"levelo_inurba_marseille","lat":43.305714,"lon":5.365633,"is_reserved":false,"is_disabled":false,"rental_uris":{"android":"levelo://app?vid=a7727f51-bbd9-49e9-854a-d3080e675171","ios":"levelo://app?vid=a7727f51-bbd9-49e9-854a-d3080e675171"},"vehicle_type_id":"4","last_reported":1712855185,"current_range_meters":0,"station_id":"ce4bgs12rcd13ifvqcag","pricing_plan_id":"cebpf4jnsgd1na2vs0mg"},{"bike_id":"ad6088c4-95d9-44c4-8f5f-9e7d67a72f1c","system_id":"levelo_inurba_marseille","lat":43.306075,"lon":5.372383,"is_reserved":false,"is_disabled":false,"rental_uris":{"android":"levelo://app?vid=ad6088c4-95d9-44c4-8f5f-9e7d67a72f1c","ios":"levelo://app?vid=ad6088c4-95d9-44c4-8f5f-9e7d67a72f1c"},"vehicle_type_id":"4","last_reported":1712855185,"current_range_meters":0,"station_id":"ce4bgqh2rcd13ifvqc4g","pricing_plan_id":"cebpf4jnsgd1na2vs0mg"},{"bike_id":"c09695d8-841b-4714-998d-cfe0bed870a3","system_id":"levelo_inurba_marseille","lat":43.311125,"lon":5.377624,"is_reserved":false,"is_disabled":false,"rental_uris":{"android":"levelo://app?vid=c09695d8-841b-4714-998d-cfe0bed870a3","ios":"levelo://app?vid=c09695d8-841b-4714-998d-cfe0bed870a3"},"vehicle_type_id":"4","last_reported":1712855185,"current_range_meters":18000,"station_id":"ce4bgt92rcd13ifvqcg0","pricing_plan_id":"cebpf4jnsgd1na2vs0mg"},{"bike_id":"5ac17b3b-d013-4c28-813c-e2e714055aa6","system_id":"levelo_inurba_marseille","lat":43.305256,"lon":5.372716,"is_reserved":false,"is_disabled":false,"rental_uris":{"android":"levelo://app?vid=5ac17b3b-d013-4c28-813c-e2e714055aa6","ios":"levelo://app?vid=5ac17b3b-d013-4c28-813c-e2e714055aa6"},"vehicle_type_id":"4","last_reported":1712855185,"current_range_meters":0,"station_id":"","pricing_plan_id":"cebpf4jnsgd1na2vs0mg"},{"bike_id":"1e8f9fab-ba1f-43ed-bdac-21c0ca738bd7","system_id":"levelo_inurba_marseille","lat":43.317075,"lon":5.377367,"is_reserved":false,"is_disabled":false,"rental_uris":{"android":"levelo://app?vid=1e8f9fab-ba1f-43ed-bdac-21c0ca738bd7","ios":"levelo://app?vid=1e8f9fab-ba1f-43ed-bdac-21c0ca738bd7"},"vehicle_type_id":"4","last_reported":1712855185,"current_range_meters":24400,"station_id":"ce4bgth2rcd13ifvqch0","pricing_plan_id":"cebpf4jnsgd1na2vs0mg"},{"bike_id":"595bdbb3-3352-49d4-9bcb-48c0a80be858","system_id":"levelo_inurba_marseille","lat":43.303046,"lon":5.368981,"is_reserved":false,"is_disabled":false,"rental_uris":{"android":"levelo://app?vid=595bdbb3-3352-49d4-9bcb-48c0a80be858","ios":"levelo://app?vid=595bdbb3-3352-49d4-9bcb-48c0a80be858"},"vehicle_type_id":"4","last_reported":1712855185,"current_range_meters":0,"station_id":"ce4bgqh2rcd13ifvqc5g","pricing_plan_id":"cebpf4jnsgd1na2vs0mg"},{"bike_id":"80159a97-7666-42c4-8b8c-2fd28707e3e5","system_id":"levelo_inurba_marseille","lat":43.301939,"lon":5.366286,"is_reserved":false,"is_disabled":false,"rental_uris":{"android":"levelo://app?vid=80159a97-7666-42c4-8b8c-2fd28707e3e5","ios":"levelo://app?vid=80159a97-7666-42c4-8b8c-2fd28707e3e5"},"vehicle_type_id":"4","last_reported":1712855185,"current_range_meters":400,"station_id":"ce4bgrh2rcd13ifvqc8g","pricing_plan_id":"cebpf4jnsgd1na2vs0mg"},{"bike_id":"c520b7b9-0bdb-46e0-9dfd-abd26d401dde","system_id":"levelo_inurba_marseille","lat":43.301939,"lon":5.366286,"is_reserved":false,"is_disabled":false,"rental_uris":{"android":"levelo://app?vid=c520b7b9-0bdb-46e0-9dfd-abd26d401dde","ios":"levelo://app?vid=c520b7b9-0bdb-46e0-9dfd-abd26d401dde"},"vehicle_type_id":"4","last_reported":1712855185,"current_range_meters":9600,"station_id":"ce4bgrh2rcd13ifvqc8g","pricing_plan_id":"cebpf4jnsgd1na2vs0mg"},{"bike_id":"b59f41db-90cd-4558-b47a-5af60abec512","system_id":"levelo_inurba_marseille","lat":43.30431,"lon":5.37804,"is_reserved":false,"is_disabled":false,"rental_uris":{"android":"levelo://app?vid=b59f41db-90cd-4558-b47a-5af60abec512","ios":"levelo://app?vid=b59f41db-90cd-4558-b47a-5af60abec512"},"vehicle_type_id":"4","last_reported":1712855185,"current_range_meters":0,"station_id":"","pricing_plan_id":"cebpf4jnsgd1na2vs0mg"},{"bike_id":"11a86042-5717-4984-8737-39c549a736d2","system_id":"levelo_inurba_marseille","lat":43.312609,"lon":5.401662,"is_reserved":false,"is_disabled":false,"rental_uris":{"android":"levelo://app?vid=11a86042-5717-4984-8737-39c549a736d2","ios":"levelo://app?vid=11a86042-5717-4984-8737-39c549a736d2"},"vehicle_type_id":"4","last_reported":1712855185,"current_range_meters":21600,"station_id":"ce4bh092rcd13ifvqd30","pricing_plan_id":"cebpf4jnsgd1na2vs0mg"},{"bike_id":"495c6a15-cb23-45cb-a3eb-cc066c0fdbe6","system_id":"levelo_inurba_marseille","lat":43.324771,"lon":5.36557,"is_reserved":false,"is_disabled":false,"rental_uris":{"android":"levelo://app?vid=495c6a15-cb23-45cb-a3eb-cc066c0fdbe6","ios":"levelo://app?vid=495c6a15-cb23-45cb-a3eb-cc066c0fdbe6"},"vehicle_type_id":"4","last_reported":1712855185,"current_range_meters":17200,"station_id":"ce4bhs12rcd13ifvqhvg","pricing_plan_id":"cebpf4jnsgd1na2vs0mg"},{"bike_id":"7861f4be-718b-406f-9e8f-11dc07f2c8e6","system_id":"levelo_inurba_marseille","lat":43.324771,"lon":5.36557,"is_reserved":false,"is_disabled":false,"rental_uris":{"android":"levelo://app?vid=7861f4be-718b-406f-9e8f-11dc07f2c8e6","ios":"levelo://app?vid=7861f4be-718b-406f-9e8f-11dc07f2c8e6"},"vehicle_type_id":"4","last_reported":1712855185,"current_range_meters":4400,"station_id":"ce4bhs12rcd13ifvqhvg","pricing_plan_id":"cebpf4jnsgd1na2vs0mg"},{"bike_id":"a756998d-01e6-40a3-ac42-bf464b1f7bf6","system_id":"levelo_inurba_marseille","lat":43.330442,"lon":5.389148,"is_reserved":false,"is_disabled":false,"rental_uris":{"android":"levelo://app?vid=a756998d-01e6-40a3-ac42-bf464b1f7bf6","ios":"levelo://app?vid=a756998d-01e6-40a3-ac42-bf464b1f7bf6"},"vehicle_type_id":"4","last_reported":1712855185,"current_range_meters":8000,"station_id":"ce4bhr92rcd13ifvqhrg","pricing_plan_id":"cebpf4jnsgd1na2vs0mg"},{"bike_id":"57061ed1-b059-4da0-b3d3-2764f3c10c5f","system_id":"levelo_inurba_marseille","lat":43.324771,"lon":5.36557,"is_reserved":false,"is_disabled":false,"rental_uris":{"android":"levelo://app?vid=57061ed1-b059-4da0-b3d3-2764f3c10c5f","ios":"levelo://app?vid=57061ed1-b059-4da0-b3d3-2764f3c10c5f"},"vehicle_type_id":"4","last_reported":1712855185,"current_range_meters":0,"station_id":"ce4bhs12rcd13ifvqhvg","pricing_plan_id":"cebpf4jnsgd1na2vs0mg"},{"bike_id":"f4f4022a-d0d8-4223-9adc-432aedb97ef8","system_id":"levelo_inurba_marseille","lat":43.324771,"lon":5.36557,"is_reserved":false,"is_disabled":false,"rental_uris":{"android":"levelo://app?vid=f4f4022a-d0d8-4223-9adc-432aedb97ef8","ios":"levelo://app?vid=f4f4022a-d0d8-4223-9adc-432aedb97ef8"},"vehicle_type_id":"4","last_reported":1712855185,"current_range_meters":4400,"station_id":"ce4bhs12rcd13ifvqhvg","pricing_plan_id":"cebpf4jnsgd1na2vs0mg"},{"bike_id":"eed14c14-fe83-4318-a692-8391ee8b9ca6","system_id":"levelo_inurba_marseille","lat":43.324771,"lon":5.36557,"is_reserved":false,"is_disabled":false,"rental_uris":{"android":"levelo://app?vid=eed14c14-fe83-4318-a692-8391ee8b9ca6","ios":"levelo://app?vid=eed14c14-fe83-4318-a692-8391ee8b9ca6"},"vehicle_type_id":"4","last_reported":1712855185,"current_range_meters":25200,"station_id":"ce4bhs12rcd13ifvqhvg","pricing_plan_id":"cebpf4jnsgd1na2vs0mg"},{"bike_id":"c4211ae3-de91-4445-8826-f375d6073e1f","system_id":"levelo_inurba_marseille","lat":43.31071,"lon":5.38348,"is_reserved":false,"is_disabled":false,"rental_uris":{"android":"levelo://app?vid=c4211ae3-de91-4445-8826-f375d6073e1f","ios":"levelo://app?vid=c4211ae3-de91-4445-8826-f375d6073e1f"},"vehicle_type_id":"4","last_reported":1712855185,"current_range_meters":6400,"station_id":"ce4bgv92rcd13ifvqcr0","pricing_plan_id":"cebpf4jnsgd1na2vs0mg"},{"bike_id":"dd4cfa80-6cb3-4790-8b0b-6f70dbddcd2a","system_id":"levelo_inurba_marseille","lat":43.310727,"lon":5.383496,"is_reserved":false,"is_disabled":false,"rental_uris":{"android":"levelo://app?vid=dd4cfa80-6cb3-4790-8b0b-6f70dbddcd2a","ios":"levelo://app?vid=dd4cfa80-6cb3-4790-8b0b-6f70dbddcd2a"},"vehicle_type_id":"4","last_reported":1712855185,"current_range_meters":0,"station_id":"ce4bgv92rcd13ifvqcr0","pricing_plan_id":"cebpf4jnsgd1na2vs0mg"},{"bike_id":"2d60e52a-fed1-41e1-bff5-bcbd3cd74431","system_id":"levelo_inurba_marseille","lat":43.310804,"lon":5.38359,"is_reserved":false,"is_disabled":false,"rental_uris":{"android":"levelo://app?vid=2d60e52a-fed1-41e1-bff5-bcbd3cd74431","ios":"levelo://app?vid=2d60e52a-fed1-41e1-bff5-bcbd3cd74431"},"vehicle_type_id":"4","last_reported":1712855185,"current_range_meters":0,"station_id":"ce4bgv92rcd13ifvqcr0","pricing_plan_id":"cebpf4jnsgd1na2vs0mg"},{"bike_id":"ae4ce20e-d920-4860-b5e4-4f3cd59e0e8e","system_id":"levelo_inurba_marseille","lat":43.302784,"lon":5.377158,"is_reserved":false,"is_disabled":false,"rental_uris":{"android":"levelo://app?vid=ae4ce20e-d920-4860-b5e4-4f3cd59e0e8e","ios":"levelo://app?vid=ae4ce20e-d920-4860-b5e4-4f3cd59e0e8e"},"vehicle_type_id":"4","last_reported":1712855185,"current_range_meters":25200,"station_id":"ce4bguh2rcd13ifvqcj0","pricing_plan_id":"cebpf4jnsgd1na2vs0mg"},{"bike_id":"14c11c63-028c-4d74-93fd-11782f1d90ea","system_id":"levelo_inurba_marseille","lat":43.301494,"lon":5.374094,"is_reserved":false,"is_disabled":false,"rental_uris":{"android":"levelo://app?vid=14c11c63-028c-4d74-93fd-11782f1d90ea","ios":"levelo://app?vid=14c11c63-028c-4d74-93fd-11782f1d90ea"},"vehicle_type_id":"4","last_reported":1712855185,"current_range_meters":20000,"station_id":"ce4bgs92rcd13ifvqcc0","pricing_plan_id":"cebpf4jnsgd1na2vs0mg"},{"bike_id":"57865a64-3731-47d8-8b9f-52b569402175","system_id":"levelo_inurba_marseille","lat":43.30143,"lon":5.37411,"is_reserved":false,"is_disabled":false,"rental_uris":{"android":"levelo://app?vid=57865a64-3731-47d8-8b9f-52b569402175","ios":"levelo://app?vid=57865a64-3731-47d8-8b9f-52b569402175"},"vehicle_type_id":"4","last_reported":1712855185,"current_range_meters":0,"station_id":"ce4bgs92rcd13ifvqcc0","pricing_plan_id":"cebpf4jnsgd1na2vs0mg"},{"bike_id":"55e39ee5-ccc8-4659-b011-2a6fa20dfadf","system_id":"levelo_inurba_marseille","lat":43.319935,"lon":5.381699,"is_reserved":false,"is_disabled":false,"rental_uris":{"android":"levelo://app?vid=55e39ee5-ccc8-4659-b011-2a6fa20dfadf","ios":"levelo://app?vid=55e39ee5-ccc8-4659-b011-2a6fa20dfadf"},"vehicle_type_id":"4","last_reported":1712855185,"current_range_meters":0,"station_id":"ce4bhr12rcd13ifvqhpg","pricing_plan_id":"cebpf4jnsgd1na2vs0mg"},{"bike_id":"48b57d22-4f6d-4cb6-b627-5a5a80aeaecd","system_id":"levelo_inurba_marseille","lat":43.31355,"lon":5.38495,"is_reserved":false,"is_disabled":false,"rental_uris":{"android":"levelo://app?vid=48b57d22-4f6d-4cb6-b627-5a5a80aeaecd","ios":"levelo://app?vid=48b57d22-4f6d-4cb6-b627-5a5a80aeaecd"},"vehicle_type_id":"4","last_reported":1712855185,"current_range_meters":0,"station_id":"ce4bgt92rcd13ifvqcf0","pricing_plan_id":"cebpf4jnsgd1na2vs0mg"},{"bike_id":"2beb9685-26c5-4d94-8519-f8a8da65ff0c","system_id":"levelo_inurba_marseille","lat":43.313571,"lon":5.384829,"is_reserved":false,"is_disabled":false,"rental_uris":{"android":"levelo://app?vid=2beb9685-26c5-4d94-8519-f8a8da65ff0c","ios":"levelo://app?vid=2beb9685-26c5-4d94-8519-f8a8da65ff0c"},"vehicle_type_id":"4","last_reported":1712855185,"current_range_meters":10000,"station_id":"ce4bgt92rcd13ifvqcf0","pricing_plan_id":"cebpf4jnsgd1na2vs0mg"},{"bike_id":"38520a05-4d43-4b9a-9b57-75ab97bec8de","system_id":"levelo_inurba_marseille","lat":43.313571,"lon":5.384829,"is_reserved":false,"is_disabled":false,"rental_uris":{"android":"levelo://app?vid=38520a05-4d43-4b9a-9b57-75ab97bec8de","ios":"levelo://app?vid=38520a05-4d43-4b9a-9b57-75ab97bec8de"},"vehicle_type_id":"4","last_reported":1712855185,"current_range_meters":30400,"station_id":"ce4bgt92rcd13ifvqcf0","pricing_plan_id":"cebpf4jnsgd1na2vs0mg"},{"bike_id":"39c81f3f-09c3-4cb8-8a66-6ff0b5f121a2","system_id":"levelo_inurba_marseille","lat":43.299724,"lon":5.371829,"is_reserved":false,"is_disabled":false,"rental_uris":{"android":"levelo://app?vid=39c81f3f-09c3-4cb8-8a66-6ff0b5f121a2","ios":"levelo://app?vid=39c81f3f-09c3-4cb8-8a66-6ff0b5f121a2"},"vehicle_type_id":"4","last_reported":1712855185,"current_range_meters":0,"station_id":"ce4bgr92rcd13ifvqc7g","pricing_plan_id":"cebpf4jnsgd1na2vs0mg"},{"bike_id":"61070cdd-412c-4075-b15e-3c42430c64c4","system_id":"levelo_inurba_marseille","lat":43.29946,"lon":5.3653,"is_reserved":false,"is_disabled":false,"rental_uris":{"android":"levelo://app?vid=61070cdd-412c-4075-b15e-3c42430c64c4","ios":"levelo://app?vid=61070cdd-412c-4075-b15e-3c42430c64c4"},"vehicle_type_id":"4","last_reported":1712855185,"current_range_meters":0,"station_id":"","pricing_plan_id":"cebpf4jnsgd1na2vs0mg"},{"bike_id":"107df3dc-3067-42db-ae81-5a3ed728bdf2","system_id":"levelo_inurba_marseille","lat":43.299724,"lon":5.371829,"is_reserved":false,"is_disabled":false,"rental_uris":{"android":"levelo://app?vid=107df3dc-3067-42db-ae81-5a3ed728bdf2","ios":"levelo://app?vid=107df3dc-3067-42db-ae81-5a3ed728bdf2"},"vehicle_type_id":"4","last_reported":1712855185,"current_range_meters":0,"station_id":"ce4bgr92rcd13ifvqc7g","pricing_plan_id":"cebpf4jnsgd1na2vs0mg"},{"bike_id":"42f5e387-af2a-4331-9106-001c05d4be28","system_id":"levelo_inurba_marseille","lat":43.305364,"lon":5.384119,"is_reserved":false,"is_disabled":false,"rental_uris":{"android":"levelo://app?vid=42f5e387-af2a-4331-9106-001c05d4be28","ios":"levelo://app?vid=42f5e387-af2a-4331-9106-001c05d4be28"},"vehicle_type_id":"4","last_reported":1712855185,"current_range_meters":31200,"station_id":"ce4bgg92rcd13ifvqb30","pricing_plan_id":"cebpf4jnsgd1na2vs0mg"},{"bike_id":"2b5cb94f-3ab6-4a68-a382-2821f6e01859","system_id":"levelo_inurba_marseille","lat":43.29849,"lon":5.36274,"is_reserved":false,"is_disabled":false,"rental_uris":{"android":"levelo://app?vid=2b5cb94f-3ab6-4a68-a382-2821f6e01859","ios":"levelo://app?vid=2b5cb94f-3ab6-4a68-a382-2821f6e01859"},"vehicle_type_id":"4","last_reported":1712855185,"current_range_meters":0,"station_id":"ce4bgpp2rcd13ifvqc3g","pricing_plan_id":"cebpf4jnsgd1na2vs0mg"},{"bike_id":"645f546c-8326-404b-98b3-54044d447783","system_id":"levelo_inurba_marseille","lat":43.29848,"lon":5.36274,"is_reserved":false,"is_disabled":false,"rental_uris":{"android":"levelo://app?vid=645f546c-8326-404b-98b3-54044d447783","ios":"levelo://app?vid=645f546c-8326-404b-98b3-54044d447783"},"vehicle_type_id":"4","last_reported":1712855185,"current_range_meters":0,"station_id":"ce4bgpp2rcd13ifvqc3g","pricing_plan_id":"cebpf4jnsgd1na2vs0mg"},{"bike_id":"95d08d02-41ee-4b0b-959a-720914ebe7fb","system_id":"levelo_inurba_marseille","lat":43.298433,"lon":5.362774,"is_reserved":false,"is_disabled":false,"rental_uris":{"android":"levelo://app?vid=95d08d02-41ee-4b0b-959a-720914ebe7fb","ios":"levelo://app?vid=95d08d02-41ee-4b0b-959a-720914ebe7fb"},"vehicle_type_id":"4","last_reported":1712855185,"current_range_meters":10400,"station_id":"ce4bgpp2rcd13ifvqc3g","pricing_plan_id":"cebpf4jnsgd1na2vs0mg"},{"bike_id":"35d340b2-5d58-4460-a4d4-cc34045c647b","system_id":"levelo_inurba_marseille","lat":43.311722,"lon":5.387247,"is_reserved":false,"is_disabled":false,"rental_uris":{"android":"levelo://app?vid=35d340b2-5d58-4460-a4d4-cc34045c647b","ios":"levelo://app?vid=35d340b2-5d58-4460-a4d4-cc34045c647b"},"vehicle_type_id":"4","last_reported":1712855185,"current_range_meters":0,"station_id":"ce4bgv12rcd13ifvqcp0","pricing_plan_id":"cebpf4jnsgd1na2vs0mg"},{"bike_id":"5933a4e1-5c23-4a59-b671-a56fe614ea6b","system_id":"levelo_inurba_marseille","lat":43.31177,"lon":5.38714,"is_reserved":false,"is_disabled":false,"rental_uris":{"android":"levelo://app?vid=5933a4e1-5c23-4a59-b671-a56fe614ea6b","ios":"levelo://app?vid=5933a4e1-5c23-4a59-b671-a56fe614ea6b"},"vehicle_type_id":"4","last_reported":1712855185,"current_range_meters":1600,"station_id":"ce4bgv12rcd13ifvqcp0","pricing_plan_id":"cebpf4jnsgd1na2vs0mg"},{"bike_id":"6c7ac19b-fb0f-42c1-aa61-f9fcf5682769","system_id":"levelo_inurba_marseille","lat":43.311722,"lon":5.387247,"is_reserved":false,"is_disabled":false,"rental_uris":{"android":"levelo://app?vid=6c7ac19b-fb0f-42c1-aa61-f9fcf5682769","ios":"levelo://app?vid=6c7ac19b-fb0f-42c1-aa61-f9fcf5682769"},"vehicle_type_id":"4","last_reported":1712855185,"current_range_meters":1600,"station_id":"ce4bgv12rcd13ifvqcp0","pricing_plan_id":"cebpf4jnsgd1na2vs0mg"},{"bike_id":"2efc7c69-3050-4fd0-830e-a883a4dbeb89","system_id":"levelo_inurba_marseille","lat":43.311722,"lon":5.387247,"is_reserved":false,"is_disabled":false,"rental_uris":{"android":"levelo://app?vid=2efc7c69-3050-4fd0-830e-a883a4dbeb89","ios":"levelo://app?vid=2efc7c69-3050-4fd0-830e-a883a4dbeb89"},"vehicle_type_id":"4","last_reported":1712855185,"current_range_meters":2400,"station_id":"ce4bgv12rcd13ifvqcp0","pricing_plan_id":"cebpf4jnsgd1na2vs0mg"},{"bike_id":"0deda45f-1d0c-4c30-9eb2-239bbdccdca0","system_id":"levelo_inurba_marseille","lat":43.297774,"lon":5.370875,"is_reserved":false,"is_disabled":false,"rental_uris":{"android":"levelo://app?vid=0deda45f-1d0c-4c30-9eb2-239bbdccdca0","ios":"levelo://app?vid=0deda45f-1d0c-4c30-9eb2-239bbdccdca0"},"vehicle_type_id":"4","last_reported":1712855185,"current_range_meters":20800,"station_id":"ce4bgop2rcd13ifvqc1g","pricing_plan_id":"cebpf4jnsgd1na2vs0mg"},{"bike_id":"419ecc75-d9b1-411a-8326-108c7f7dc838","system_id":"levelo_inurba_marseille","lat":43.322872,"lon":5.382756,"is_reserved":false,"is_disabled":false,"rental_uris":{"android":"levelo://app?vid=419ecc75-d9b1-411a-8326-108c7f7dc838","ios":"levelo://app?vid=419ecc75-d9b1-411a-8326-108c7f7dc838"},"vehicle_type_id":"4","last_reported":1712855185,"current_range_meters":24000,"station_id":"ce4bhr12rcd13ifvqhqg","pricing_plan_id":"cebpf4jnsgd1na2vs0mg"},{"bike_id":"622889ea-8ffc-4dcb-8d4f-a257ac52e57c","system_id":"levelo_inurba_marseille","lat":43.322872,"lon":5.382756,"is_reserved":false,"is_disabled":false,"rental_uris":{"android":"levelo://app?vid=622889ea-8ffc-4dcb-8d4f-a257ac52e57c","ios":"levelo://app?vid=622889ea-8ffc-4dcb-8d4f-a257ac52e57c"},"vehicle_type_id":"4","last_reported":1712855185,"current_range_meters":7200,"station_id":"ce4bhr12rcd13ifvqhqg","pricing_plan_id":"cebpf4jnsgd1na2vs0mg"},{"bike_id":"fcc7b74f-5892-4e84-bde4-570d3a3c7877","system_id":"levelo_inurba_marseille","lat":43.322872,"lon":5.382756,"is_reserved":false,"is_disabled":false,"rental_uris":{"android":"levelo://app?vid=fcc7b74f-5892-4e84-bde4-570d3a3c7877","ios":"levelo://app?vid=fcc7b74f-5892-4e84-bde4-570d3a3c7877"},"vehicle_type_id":"4","last_reported":1712855185,"current_range_meters":14800,"station_id":"ce4bhr12rcd13ifvqhqg","pricing_plan_id":"cebpf4jnsgd1na2vs0mg"},{"bike_id":"df83776a-bfc5-47e7-9b22-6f070ff90bc4","system_id":"levelo_inurba_marseille","lat":43.322872,"lon":5.382756,"is_reserved":false,"is_disabled":false,"rental_uris":{"android":"levelo://app?vid=df83776a-bfc5-47e7-9b22-6f070ff90bc4","ios":"levelo://app?vid=df83776a-bfc5-47e7-9b22-6f070ff90bc4"},"vehicle_type_id":"4","last_reported":1712855185,"current_range_meters":19200,"station_id":"ce4bhr12rcd13ifvqhqg","pricing_plan_id":"cebpf4jnsgd1na2vs0mg"},{"bike_id":"0b7e360a-8784-48e6-ab2f-172180d37d99","system_id":"levelo_inurba_marseille","lat":43.311722,"lon":5.387247,"is_reserved":false,"is_disabled":false,"rental_uris":{"android":"levelo://app?vid=0b7e360a-8784-48e6-ab2f-172180d37d99","ios":"levelo://app?vid=0b7e360a-8784-48e6-ab2f-172180d37d99"},"vehicle_type_id":"4","last_reported":1712855185,"current_range_meters":6000,"station_id":"ce4bgv12rcd13ifvqcp0","pricing_plan_id":"cebpf4jnsgd1na2vs0mg"},{"bike_id":"0e73c717-7d72-4151-8b9a-6405cfc2f068","system_id":"levelo_inurba_marseille","lat":43.322872,"lon":5.382756,"is_reserved":false,"is_disabled":false,"rental_uris":{"android":"levelo://app?vid=0e73c717-7d72-4151-8b9a-6405cfc2f068","ios":"levelo://app?vid=0e73c717-7d72-4151-8b9a-6405cfc2f068"},"vehicle_type_id":"4","last_reported":1712855185,"current_range_meters":10000,"station_id":"ce4bhr12rcd13ifvqhqg","pricing_plan_id":"cebpf4jnsgd1na2vs0mg"},{"bike_id":"2d00a795-a555-4eba-a4b0-314d6d78e7b7","system_id":"levelo_inurba_marseille","lat":43.264958,"lon":5.395433,"is_reserved":false,"is_disabled":false,"rental_uris":{"android":"levelo://app?vid=2d00a795-a555-4eba-a4b0-314d6d78e7b7","ios":"levelo://app?vid=2d00a795-a555-4eba-a4b0-314d6d78e7b7"},"vehicle_type_id":"4","last_reported":1712855185,"current_range_meters":12400,"station_id":"ce4bhi12rcd13ifvqfq0","pricing_plan_id":"cebpf4jnsgd1na2vs0mg"},{"bike_id":"c1cedd02-a4b9-4d67-a4c9-3f381e3d22a1","system_id":"levelo_inurba_marseille","lat":43.31762,"lon":5.388208,"is_reserved":false,"is_disabled":false,"rental_uris":{"android":"levelo://app?vid=c1cedd02-a4b9-4d67-a4c9-3f381e3d22a1","ios":"levelo://app?vid=c1cedd02-a4b9-4d67-a4c9-3f381e3d22a1"},"vehicle_type_id":"4","last_reported":1712855185,"current_range_meters":6400,"station_id":"ce4bhqp2rcd13ifvqhng","pricing_plan_id":"cebpf4jnsgd1na2vs0mg"},{"bike_id":"9424f6dd-ede3-47a3-af09-99d281b159c7","system_id":"levelo_inurba_marseille","lat":43.317465,"lon":5.388468,"is_reserved":false,"is_disabled":false,"rental_uris":{"android":"levelo://app?vid=9424f6dd-ede3-47a3-af09-99d281b159c7","ios":"levelo://app?vid=9424f6dd-ede3-47a3-af09-99d281b159c7"},"vehicle_type_id":"4","last_reported":1712855185,"current_range_meters":30400,"station_id":"","pricing_plan_id":"cebpf4jnsgd1na2vs0mg"},{"bike_id":"1ab193ef-3692-4a5d-ac70-574a8854fc82","system_id":"levelo_inurba_marseille","lat":43.313291,"lon":5.396838,"is_reserved":false,"is_disabled":false,"rental_uris":{"android":"levelo://app?vid=1ab193ef-3692-4a5d-ac70-574a8854fc82","ios":"levelo://app?vid=1ab193ef-3692-4a5d-ac70-574a8854fc82"},"vehicle_type_id":"4","last_reported":1712855185,"current_range_meters":7200,"station_id":"ce4bgvp2rcd13ifvqcu0","pricing_plan_id":"cebpf4jnsgd1na2vs0mg"},{"bike_id":"db302445-ab6b-4852-8847-ed9b07b31a6e","system_id":"levelo_inurba_marseille","lat":43.296131,"lon":5.370791,"is_reserved":false,"is_disabled":false,"rental_uris":{"android":"levelo://app?vid=db302445-ab6b-4852-8847-ed9b07b31a6e","ios":"levelo://app?vid=db302445-ab6b-4852-8847-ed9b07b31a6e"},"vehicle_type_id":"4","last_reported":1712855185,"current_range_meters":28800,"station_id":"ce4bgnh2rcd13ifvqc0g","pricing_plan_id":"cebpf4jnsgd1na2vs0mg"},{"bike_id":"0c7a188b-295f-4744-86bd-b12f7fdab242","system_id":"levelo_inurba_marseille","lat":43.29573,"lon":5.367355,"is_reserved":false,"is_disabled":false,"rental_uris":{"android":"levelo://app?vid=0c7a188b-295f-4744-86bd-b12f7fdab242","ios":"levelo://app?vid=0c7a188b-295f-4744-86bd-b12f7fdab242"},"vehicle_type_id":"4","last_reported":1712855185,"current_range_meters":800,"station_id":"ce4bgph2rcd13ifvqc2g","pricing_plan_id":"cebpf4jnsgd1na2vs0mg"},{"bike_id":"7dabb484-6017-4fb2-9701-4edccfdc59a9","system_id":"levelo_inurba_marseille","lat":43.313291,"lon":5.396838,"is_reserved":false,"is_disabled":false,"rental_uris":{"android":"levelo://app?vid=7dabb484-6017-4fb2-9701-4edccfdc59a9","ios":"levelo://app?vid=7dabb484-6017-4fb2-9701-4edccfdc59a9"},"vehicle_type_id":"4","last_reported":1712855185,"current_range_meters":0,"station_id":"ce4bgvp2rcd13ifvqcu0","pricing_plan_id":"cebpf4jnsgd1na2vs0mg"},{"bike_id":"1462ef58-4ce3-4d9a-af79-1f8b1cad6052","system_id":"levelo_inurba_marseille","lat":43.296935,"lon":5.376544,"is_reserved":false,"is_disabled":false,"rental_uris":{"android":"levelo://app?vid=1462ef58-4ce3-4d9a-af79-1f8b1cad6052","ios":"levelo://app?vid=1462ef58-4ce3-4d9a-af79-1f8b1cad6052"},"vehicle_type_id":"4","last_reported":1712855185,"current_range_meters":20400,"station_id":"ce4bgkh2rcd13ifvqbl0","pricing_plan_id":"cebpf4jnsgd1na2vs0mg"},{"bike_id":"7f6a77bf-aad8-4b25-afad-f7159a9277cd","system_id":"levelo_inurba_marseille","lat":43.298037,"lon":5.381066,"is_reserved":false,"is_disabled":false,"rental_uris":{"android":"levelo://app?vid=7f6a77bf-aad8-4b25-afad-f7159a9277cd","ios":"levelo://app?vid=7f6a77bf-aad8-4b25-afad-f7159a9277cd"},"vehicle_type_id":"4","last_reported":1712855185,"current_range_meters":8000,"station_id":"ce4bgip2rcd13ifvqbb0","pricing_plan_id":"cebpf4jnsgd1na2vs0mg"},{"bike_id":"ee716adf-3263-4d39-9aa2-8b5290a22797","system_id":"levelo_inurba_marseille","lat":43.296921,"lon":5.376579,"is_reserved":false,"is_disabled":false,"rental_uris":{"android":"levelo://app?vid=ee716adf-3263-4d39-9aa2-8b5290a22797","ios":"levelo://app?vid=ee716adf-3263-4d39-9aa2-8b5290a22797"},"vehicle_type_id":"4","last_reported":1712855185,"current_range_meters":3600,"station_id":"ce4bgkh2rcd13ifvqbl0","pricing_plan_id":"cebpf4jnsgd1na2vs0mg"},{"bike_id":"c0648116-e916-4dc0-bd6e-445f18da6341","system_id":"levelo_inurba_marseille","lat":43.30947,"lon":5.39018,"is_reserved":false,"is_disabled":false,"rental_uris":{"android":"levelo://app?vid=c0648116-e916-4dc0-bd6e-445f18da6341","ios":"levelo://app?vid=c0648116-e916-4dc0-bd6e-445f18da6341"},"vehicle_type_id":"4","last_reported":1712855185,"current_range_meters":0,"station_id":"ce4bgup2rcd13ifvqco0","pricing_plan_id":"cebpf4jnsgd1na2vs0mg"},{"bike_id":"766b1f0c-27e9-46b9-8b14-d1f432028c0d","system_id":"levelo_inurba_marseille","lat":43.309589,"lon":5.390258,"is_reserved":false,"is_disabled":false,"rental_uris":{"android":"levelo://app?vid=766b1f0c-27e9-46b9-8b14-d1f432028c0d","ios":"levelo://app?vid=766b1f0c-27e9-46b9-8b14-d1f432028c0d"},"vehicle_type_id":"4","last_reported":1712855185,"current_range_meters":1600,"station_id":"ce4bgup2rcd13ifvqco0","pricing_plan_id":"cebpf4jnsgd1na2vs0mg"},{"bike_id":"b46a452c-794b-4a61-ab60-3fcd3bf1435d","system_id":"levelo_inurba_marseille","lat":43.309589,"lon":5.390258,"is_reserved":false,"is_disabled":false,"rental_uris":{"android":"levelo://app?vid=b46a452c-794b-4a61-ab60-3fcd3bf1435d","ios":"levelo://app?vid=b46a452c-794b-4a61-ab60-3fcd3bf1435d"},"vehicle_type_id":"4","last_reported":1712855185,"current_range_meters":2400,"station_id":"ce4bgup2rcd13ifvqco0","pricing_plan_id":"cebpf4jnsgd1na2vs0mg"},{"bike_id":"f71612c0-0e55-42f8-abac-0facc67e7413","system_id":"levelo_inurba_marseille","lat":43.30958,"lon":5.390312,"is_reserved":false,"is_disabled":false,"rental_uris":{"android":"levelo://app?vid=f71612c0-0e55-42f8-abac-0facc67e7413","ios":"levelo://app?vid=f71612c0-0e55-42f8-abac-0facc67e7413"},"vehicle_type_id":"4","last_reported":1712855185,"current_range_meters":0,"station_id":"ce4bgup2rcd13ifvqco0","pricing_plan_id":"cebpf4jnsgd1na2vs0mg"},{"bike_id":"b9013126-31f1-468b-bf18-1c9d05a8d7fe","system_id":"levelo_inurba_marseille","lat":43.309589,"lon":5.390258,"is_reserved":false,"is_disabled":false,"rental_uris":{"android":"levelo://app?vid=b9013126-31f1-468b-bf18-1c9d05a8d7fe","ios":"levelo://app?vid=b9013126-31f1-468b-bf18-1c9d05a8d7fe"},"vehicle_type_id":"4","last_reported":1712855185,"current_range_meters":3200,"station_id":"ce4bgup2rcd13ifvqco0","pricing_plan_id":"cebpf4jnsgd1na2vs0mg"},{"bike_id":"c6a2a7e8-4a54-4733-bbcb-47a85a127b51","system_id":"levelo_inurba_marseille","lat":43.317557,"lon":5.390173,"is_reserved":false,"is_disabled":false,"rental_uris":{"android":"levelo://app?vid=c6a2a7e8-4a54-4733-bbcb-47a85a127b51","ios":"levelo://app?vid=c6a2a7e8-4a54-4733-bbcb-47a85a127b51"},"vehicle_type_id":"4","last_reported":1712855185,"current_range_meters":22000,"station_id":"ce4bhqp2rcd13ifvqhng","pricing_plan_id":"cebpf4jnsgd1na2vs0mg"},{"bike_id":"a282ba32-d9dc-4c12-b5d5-6dc241774d4d","system_id":"levelo_inurba_marseille","lat":43.317557,"lon":5.390173,"is_reserved":false,"is_disabled":false,"rental_uris":{"android":"levelo://app?vid=a282ba32-d9dc-4c12-b5d5-6dc241774d4d","ios":"levelo://app?vid=a282ba32-d9dc-4c12-b5d5-6dc241774d4d"},"vehicle_type_id":"4","last_reported":1712855185,"current_range_meters":26000,"station_id":"ce4bhqp2rcd13ifvqhng","pricing_plan_id":"cebpf4jnsgd1na2vs0mg"},{"bike_id":"2b395bff-1e96-4689-bdb5-53e9579da9c8","system_id":"levelo_inurba_marseille","lat":43.317557,"lon":5.390173,"is_reserved":false,"is_disabled":false,"rental_uris":{"android":"levelo://app?vid=2b395bff-1e96-4689-bdb5-53e9579da9c8","ios":"levelo://app?vid=2b395bff-1e96-4689-bdb5-53e9579da9c8"},"vehicle_type_id":"4","last_reported":1712855185,"current_range_meters":14000,"station_id":"ce4bhqp2rcd13ifvqhng","pricing_plan_id":"cebpf4jnsgd1na2vs0mg"},{"bike_id":"bb171d16-60fe-47a4-a636-0b4cacea4cb6","system_id":"levelo_inurba_marseille","lat":43.317557,"lon":5.390173,"is_reserved":false,"is_disabled":false,"rental_uris":{"android":"levelo://app?vid=bb171d16-60fe-47a4-a636-0b4cacea4cb6","ios":"levelo://app?vid=bb171d16-60fe-47a4-a636-0b4cacea4cb6"},"vehicle_type_id":"4","last_reported":1712855185,"current_range_meters":9200,"station_id":"ce4bhqp2rcd13ifvqhng","pricing_plan_id":"cebpf4jnsgd1na2vs0mg"},{"bike_id":"289c62dc-a97b-4fe3-849b-2dcb351b5b5c","system_id":"levelo_inurba_marseille","lat":43.299243,"lon":5.37481,"is_reserved":false,"is_disabled":false,"rental_uris":{"android":"levelo://app?vid=289c62dc-a97b-4fe3-849b-2dcb351b5b5c","ios":"levelo://app?vid=289c62dc-a97b-4fe3-849b-2dcb351b5b5c"},"vehicle_type_id":"4","last_reported":1712855185,"current_range_meters":8400,"station_id":"ce4bgjh2rcd13ifvqbg0","pricing_plan_id":"cebpf4jnsgd1na2vs0mg"},{"bike_id":"68097103-7148-41b7-94ae-f982f025d81a","system_id":"levelo_inurba_marseille","lat":43.29789,"lon":5.38083,"is_reserved":false,"is_disabled":false,"rental_uris":{"android":"levelo://app?vid=68097103-7148-41b7-94ae-f982f025d81a","ios":"levelo://app?vid=68097103-7148-41b7-94ae-f982f025d81a"},"vehicle_type_id":"4","last_reported":1712855185,"current_range_meters":0,"station_id":"ce4bgip2rcd13ifvqbb0","pricing_plan_id":"cebpf4jnsgd1na2vs0mg"},{"bike_id":"508873f6-e620-4019-a45b-47fbcb71f842","system_id":"levelo_inurba_marseille","lat":43.298037,"lon":5.381066,"is_reserved":false,"is_disabled":false,"rental_uris":{"android":"levelo://app?vid=508873f6-e620-4019-a45b-47fbcb71f842","ios":"levelo://app?vid=508873f6-e620-4019-a45b-47fbcb71f842"},"vehicle_type_id":"4","last_reported":1712855185,"current_range_meters":0,"station_id":"ce4bgip2rcd13ifvqbb0","pricing_plan_id":"cebpf4jnsgd1na2vs0mg"},{"bike_id":"6c60e4d9-50a5-4399-8b42-3168a41817ed","system_id":"levelo_inurba_marseille","lat":43.304274,"lon":5.388873,"is_reserved":false,"is_disabled":false,"rental_uris":{"android":"levelo://app?vid=6c60e4d9-50a5-4399-8b42-3168a41817ed","ios":"levelo://app?vid=6c60e4d9-50a5-4399-8b42-3168a41817ed"},"vehicle_type_id":"4","last_reported":1712855185,"current_range_meters":0,"station_id":"ce4bgk12rcd13ifvqbi0","pricing_plan_id":"cebpf4jnsgd1na2vs0mg"},{"bike_id":"bb2ef9a2-c316-46b8-a6be-a80d8c963b47","system_id":"levelo_inurba_marseille","lat":43.304274,"lon":5.388873,"is_reserved":false,"is_disabled":false,"rental_uris":{"android":"levelo://app?vid=bb2ef9a2-c316-46b8-a6be-a80d8c963b47","ios":"levelo://app?vid=bb2ef9a2-c316-46b8-a6be-a80d8c963b47"},"vehicle_type_id":"4","last_reported":1712855185,"current_range_meters":10000,"station_id":"ce4bgk12rcd13ifvqbi0","pricing_plan_id":"cebpf4jnsgd1na2vs0mg"},{"bike_id":"f2edfba6-1f07-4d07-ba25-819740e1f219","system_id":"levelo_inurba_marseille","lat":43.295748,"lon":5.37522,"is_reserved":false,"is_disabled":false,"rental_uris":{"android":"levelo://app?vid=f2edfba6-1f07-4d07-ba25-819740e1f219","ios":"levelo://app?vid=f2edfba6-1f07-4d07-ba25-819740e1f219"},"vehicle_type_id":"4","last_reported":1712855185,"current_range_meters":1600,"station_id":"ce4bgh92rcd13ifvqb50","pricing_plan_id":"cebpf4jnsgd1na2vs0mg"},{"bike_id":"c9c489cd-3dad-4cd8-983e-cf96e8ea62f4","system_id":"levelo_inurba_marseille","lat":43.304274,"lon":5.388873,"is_reserved":false,"is_disabled":false,"rental_uris":{"android":"levelo://app?vid=c9c489cd-3dad-4cd8-983e-cf96e8ea62f4","ios":"levelo://app?vid=c9c489cd-3dad-4cd8-983e-cf96e8ea62f4"},"vehicle_type_id":"4","last_reported":1712855185,"current_range_meters":0,"station_id":"ce4bgk12rcd13ifvqbi0","pricing_plan_id":"cebpf4jnsgd1na2vs0mg"},{"bike_id":"d0bdf76f-5a2c-4ef8-98f6-3bba6edac8cf","system_id":"levelo_inurba_marseille","lat":43.296263,"lon":5.377094,"is_reserved":false,"is_disabled":false,"rental_uris":{"android":"levelo://app?vid=d0bdf76f-5a2c-4ef8-98f6-3bba6edac8cf","ios":"levelo://app?vid=d0bdf76f-5a2c-4ef8-98f6-3bba6edac8cf"},"vehicle_type_id":"4","last_reported":1712855185,"current_range_meters":800,"station_id":"ce4bgi92rcd13ifvqb90","pricing_plan_id":"cebpf4jnsgd1na2vs0mg"},{"bike_id":"b516dee7-0000-4aa9-a51e-67e10ec9078d","system_id":"levelo_inurba_marseille","lat":43.299707,"lon":5.384859,"is_reserved":false,"is_disabled":false,"rental_uris":{"android":"levelo://app?vid=b516dee7-0000-4aa9-a51e-67e10ec9078d","ios":"levelo://app?vid=b516dee7-0000-4aa9-a51e-67e10ec9078d"},"vehicle_type_id":"4","last_reported":1712855185,"current_range_meters":25600,"station_id":"ce4bgj92rcd13ifvqbd0","pricing_plan_id":"cebpf4jnsgd1na2vs0mg"},{"bike_id":"414700fa-06b5-4a10-8cc0-2a590bc71f45","system_id":"levelo_inurba_marseille","lat":43.29541,"lon":5.37497,"is_reserved":false,"is_disabled":false,"rental_uris":{"android":"levelo://app?vid=414700fa-06b5-4a10-8cc0-2a590bc71f45","ios":"levelo://app?vid=414700fa-06b5-4a10-8cc0-2a590bc71f45"},"vehicle_type_id":"4","last_reported":1712855185,"current_range_meters":0,"station_id":"ce4bgkp2rcd13ifvqbmg","pricing_plan_id":"cebpf4jnsgd1na2vs0mg"},{"bike_id":"8864fdac-00f4-4f83-a4eb-f47b2eaac076","system_id":"levelo_inurba_marseille","lat":43.299707,"lon":5.384859,"is_reserved":false,"is_disabled":false,"rental_uris":{"android":"levelo://app?vid=8864fdac-00f4-4f83-a4eb-f47b2eaac076","ios":"levelo://app?vid=8864fdac-00f4-4f83-a4eb-f47b2eaac076"},"vehicle_type_id":"4","last_reported":1712855185,"current_range_meters":2000,"station_id":"ce4bgj92rcd13ifvqbd0","pricing_plan_id":"cebpf4jnsgd1na2vs0mg"},{"bike_id":"0e301c03-8acc-4090-a435-daf090b7a333","system_id":"levelo_inurba_marseille","lat":43.299724,"lon":5.384848,"is_reserved":false,"is_disabled":false,"rental_uris":{"android":"levelo://app?vid=0e301c03-8acc-4090-a435-daf090b7a333","ios":"levelo://app?vid=0e301c03-8acc-4090-a435-daf090b7a333"},"vehicle_type_id":"4","last_reported":1712855185,"current_range_meters":0,"station_id":"ce4bgj92rcd13ifvqbd0","pricing_plan_id":"cebpf4jnsgd1na2vs0mg"},{"bike_id":"29aa8a79-0aec-4525-8298-8df5babec3b7","system_id":"levelo_inurba_marseille","lat":43.299717,"lon":5.384845,"is_reserved":false,"is_disabled":false,"rental_uris":{"android":"levelo://app?vid=29aa8a79-0aec-4525-8298-8df5babec3b7","ios":"levelo://app?vid=29aa8a79-0aec-4525-8298-8df5babec3b7"},"vehicle_type_id":"4","last_reported":1712855185,"current_range_meters":0,"station_id":"ce4bgj92rcd13ifvqbd0","pricing_plan_id":"cebpf4jnsgd1na2vs0mg"},{"bike_id":"0ab0d330-3b4a-4755-9419-ebe3f19e1b9d","system_id":"levelo_inurba_marseille","lat":43.295279,"lon":5.375048,"is_reserved":false,"is_disabled":false,"rental_uris":{"android":"levelo://app?vid=0ab0d330-3b4a-4755-9419-ebe3f19e1b9d","ios":"levelo://app?vid=0ab0d330-3b4a-4755-9419-ebe3f19e1b9d"},"vehicle_type_id":"4","last_reported":1712855185,"current_range_meters":9600,"station_id":"ce4bgkp2rcd13ifvqbmg","pricing_plan_id":"cebpf4jnsgd1na2vs0mg"},{"bike_id":"18233e3d-5734-4de6-b55c-f4cb9f2fae20","system_id":"levelo_inurba_marseille","lat":43.299707,"lon":5.384859,"is_reserved":false,"is_disabled":false,"rental_uris":{"android":"levelo://app?vid=18233e3d-5734-4de6-b55c-f4cb9f2fae20","ios":"levelo://app?vid=18233e3d-5734-4de6-b55c-f4cb9f2fae20"},"vehicle_type_id":"4","last_reported":1712855185,"current_range_meters":4400,"station_id":"ce4bgj92rcd13ifvqbd0","pricing_plan_id":"cebpf4jnsgd1na2vs0mg"},{"bike_id":"a6adf04b-c385-4569-bca6-3640601781d6","system_id":"levelo_inurba_marseille","lat":43.29976,"lon":5.38492,"is_reserved":false,"is_disabled":false,"rental_uris":{"android":"levelo://app?vid=a6adf04b-c385-4569-bca6-3640601781d6","ios":"levelo://app?vid=a6adf04b-c385-4569-bca6-3640601781d6"},"vehicle_type_id":"4","last_reported":1712855185,"current_range_meters":0,"station_id":"ce4bgj92rcd13ifvqbd0","pricing_plan_id":"cebpf4jnsgd1na2vs0mg"},{"bike_id":"9e9dc878-adf7-4e7a-b75a-bb800c19fef6","system_id":"levelo_inurba_marseille","lat":43.299717,"lon":5.384845,"is_reserved":false,"is_disabled":false,"rental_uris":{"android":"levelo://app?vid=9e9dc878-adf7-4e7a-b75a-bb800c19fef6","ios":"levelo://app?vid=9e9dc878-adf7-4e7a-b75a-bb800c19fef6"},"vehicle_type_id":"4","last_reported":1712855185,"current_range_meters":8800,"station_id":"ce4bgj92rcd13ifvqbd0","pricing_plan_id":"cebpf4jnsgd1na2vs0mg"},{"bike_id":"dbe75634-6fa9-46c8-a4bc-137a93aa0656","system_id":"levelo_inurba_marseille","lat":43.299717,"lon":5.384845,"is_reserved":false,"is_disabled":false,"rental_uris":{"android":"levelo://app?vid=dbe75634-6fa9-46c8-a4bc-137a93aa0656","ios":"levelo://app?vid=dbe75634-6fa9-46c8-a4bc-137a93aa0656"},"vehicle_type_id":"4","last_reported":1712855185,"current_range_meters":800,"station_id":"ce4bgj92rcd13ifvqbd0","pricing_plan_id":"cebpf4jnsgd1na2vs0mg"},{"bike_id":"fa08c1ac-791b-4596-8c92-4744afc9e012","system_id":"levelo_inurba_marseille","lat":43.299665,"lon":5.384974,"is_reserved":false,"is_disabled":false,"rental_uris":{"android":"levelo://app?vid=fa08c1ac-791b-4596-8c92-4744afc9e012","ios":"levelo://app?vid=fa08c1ac-791b-4596-8c92-4744afc9e012"},"vehicle_type_id":"4","last_reported":1712855185,"current_range_meters":0,"station_id":"ce4bgj92rcd13ifvqbd0","pricing_plan_id":"cebpf4jnsgd1na2vs0mg"},{"bike_id":"2f7244d1-5898-4bba-9ef6-33788aad910e","system_id":"levelo_inurba_marseille","lat":43.299646,"lon":5.384973,"is_reserved":false,"is_disabled":false,"rental_uris":{"android":"levelo://app?vid=2f7244d1-5898-4bba-9ef6-33788aad910e","ios":"levelo://app?vid=2f7244d1-5898-4bba-9ef6-33788aad910e"},"vehicle_type_id":"4","last_reported":1712855185,"current_range_meters":0,"station_id":"ce4bgj92rcd13ifvqbd0","pricing_plan_id":"cebpf4jnsgd1na2vs0mg"},{"bike_id":"27a7ac8e-d531-4977-a799-1f35017dad59","system_id":"levelo_inurba_marseille","lat":43.299724,"lon":5.384848,"is_reserved":false,"is_disabled":false,"rental_uris":{"android":"levelo://app?vid=27a7ac8e-d531-4977-a799-1f35017dad59","ios":"levelo://app?vid=27a7ac8e-d531-4977-a799-1f35017dad59"},"vehicle_type_id":"4","last_reported":1712855185,"current_range_meters":2400,"station_id":"ce4bgj92rcd13ifvqbd0","pricing_plan_id":"cebpf4jnsgd1na2vs0mg"},{"bike_id":"cbba4e3e-c285-479d-9bfa-1ef776cf3893","system_id":"levelo_inurba_marseille","lat":43.299724,"lon":5.384848,"is_reserved":false,"is_disabled":false,"rental_uris":{"android":"levelo://app?vid=cbba4e3e-c285-479d-9bfa-1ef776cf3893","ios":"levelo://app?vid=cbba4e3e-c285-479d-9bfa-1ef776cf3893"},"vehicle_type_id":"4","last_reported":1712855185,"current_range_meters":16000,"station_id":"ce4bgj92rcd13ifvqbd0","pricing_plan_id":"cebpf4jnsgd1na2vs0mg"},{"bike_id":"7ede25c1-bc43-4172-8991-17eaf102151a","system_id":"levelo_inurba_marseille","lat":43.304274,"lon":5.388873,"is_reserved":false,"is_disabled":false,"rental_uris":{"android":"levelo://app?vid=7ede25c1-bc43-4172-8991-17eaf102151a","ios":"levelo://app?vid=7ede25c1-bc43-4172-8991-17eaf102151a"},"vehicle_type_id":"4","last_reported":1712855185,"current_range_meters":23200,"station_id":"ce4bgk12rcd13ifvqbi0","pricing_plan_id":"cebpf4jnsgd1na2vs0mg"},{"bike_id":"476dbb01-0f50-4ad9-bc3a-204aecd2f512","system_id":"levelo_inurba_marseille","lat":43.294531,"lon":5.374496,"is_reserved":false,"is_disabled":false,"rental_uris":{"android":"levelo://app?vid=476dbb01-0f50-4ad9-bc3a-204aecd2f512","ios":"levelo://app?vid=476dbb01-0f50-4ad9-bc3a-204aecd2f512"},"vehicle_type_id":"4","last_reported":1712855185,"current_range_meters":0,"station_id":"ce4bgkp2rcd13ifvqbmg","pricing_plan_id":"cebpf4jnsgd1na2vs0mg"},{"bike_id":"fc5cbf16-ea4c-49c2-a365-cbd103ca1040","system_id":"levelo_inurba_marseille","lat":43.32346,"lon":5.38893,"is_reserved":false,"is_disabled":false,"rental_uris":{"android":"levelo://app?vid=fc5cbf16-ea4c-49c2-a365-cbd103ca1040","ios":"levelo://app?vid=fc5cbf16-ea4c-49c2-a365-cbd103ca1040"},"vehicle_type_id":"4","last_reported":1712855185,"current_range_meters":6800,"station_id":"ce4bhqp2rcd13ifvqhog","pricing_plan_id":"cebpf4jnsgd1na2vs0mg"},{"bike_id":"cff8f0d3-9a2a-4105-9ab5-fe6dd9a69055","system_id":"levelo_inurba_marseille","lat":43.32367,"lon":5.388836,"is_reserved":false,"is_disabled":false,"rental_uris":{"android":"levelo://app?vid=cff8f0d3-9a2a-4105-9ab5-fe6dd9a69055","ios":"levelo://app?vid=cff8f0d3-9a2a-4105-9ab5-fe6dd9a69055"},"vehicle_type_id":"4","last_reported":1712855185,"current_range_meters":20400,"station_id":"ce4bhqp2rcd13ifvqhog","pricing_plan_id":"cebpf4jnsgd1na2vs0mg"},{"bike_id":"1bcd02ca-cc10-425c-92f0-fd55b4032e08","system_id":"levelo_inurba_marseille","lat":43.32367,"lon":5.388836,"is_reserved":false,"is_disabled":false,"rental_uris":{"android":"levelo://app?vid=1bcd02ca-cc10-425c-92f0-fd55b4032e08","ios":"levelo://app?vid=1bcd02ca-cc10-425c-92f0-fd55b4032e08"},"vehicle_type_id":"4","last_reported":1712855185,"current_range_meters":3600,"station_id":"ce4bhqp2rcd13ifvqhog","pricing_plan_id":"cebpf4jnsgd1na2vs0mg"},{"bike_id":"04b3be18-8f06-437c-a41f-af09f53bd760","system_id":"levelo_inurba_marseille","lat":43.32367,"lon":5.388836,"is_reserved":false,"is_disabled":false,"rental_uris":{"android":"levelo://app?vid=04b3be18-8f06-437c-a41f-af09f53bd760","ios":"levelo://app?vid=04b3be18-8f06-437c-a41f-af09f53bd760"},"vehicle_type_id":"4","last_reported":1712855185,"current_range_meters":1600,"station_id":"ce4bhqp2rcd13ifvqhog","pricing_plan_id":"cebpf4jnsgd1na2vs0mg"},{"bike_id":"1d5a3237-552f-4176-a474-2cfb55f167c7","system_id":"levelo_inurba_marseille","lat":43.32371,"lon":5.38884,"is_reserved":false,"is_disabled":false,"rental_uris":{"android":"levelo://app?vid=1d5a3237-552f-4176-a474-2cfb55f167c7","ios":"levelo://app?vid=1d5a3237-552f-4176-a474-2cfb55f167c7"},"vehicle_type_id":"4","last_reported":1712855185,"current_range_meters":0,"station_id":"ce4bhqp2rcd13ifvqhog","pricing_plan_id":"cebpf4jnsgd1na2vs0mg"},{"bike_id":"6ff5a4d9-431a-4c7c-93d5-6c17c4f580fc","system_id":"levelo_inurba_marseille","lat":43.32367,"lon":5.388836,"is_reserved":false,"is_disabled":false,"rental_uris":{"android":"levelo://app?vid=6ff5a4d9-431a-4c7c-93d5-6c17c4f580fc","ios":"levelo://app?vid=6ff5a4d9-431a-4c7c-93d5-6c17c4f580fc"},"vehicle_type_id":"4","last_reported":1712855185,"current_range_meters":21200,"station_id":"ce4bhqp2rcd13ifvqhog","pricing_plan_id":"cebpf4jnsgd1na2vs0mg"},{"bike_id":"8cd33ee9-6dcc-407f-9d54-7dd999133194","system_id":"levelo_inurba_marseille","lat":43.29602,"lon":5.381084,"is_reserved":false,"is_disabled":false,"rental_uris":{"android":"levelo://app?vid=8cd33ee9-6dcc-407f-9d54-7dd999133194","ios":"levelo://app?vid=8cd33ee9-6dcc-407f-9d54-7dd999133194"},"vehicle_type_id":"4","last_reported":1712855185,"current_range_meters":5600,"station_id":"ce4bgl12rcd13ifvqbo0","pricing_plan_id":"cebpf4jnsgd1na2vs0mg"},{"bike_id":"cee6cfc9-9938-479a-a662-5f86d9d78683","system_id":"levelo_inurba_marseille","lat":43.293259,"lon":5.371586,"is_reserved":false,"is_disabled":false,"rental_uris":{"android":"levelo://app?vid=cee6cfc9-9938-479a-a662-5f86d9d78683","ios":"levelo://app?vid=cee6cfc9-9938-479a-a662-5f86d9d78683"},"vehicle_type_id":"4","last_reported":1712855185,"current_range_meters":16800,"station_id":"ce4bgh92rcd13ifvqb40","pricing_plan_id":"cebpf4jnsgd1na2vs0mg"},{"bike_id":"a3cd2c90-68f1-468e-89de-1d939c891eac","system_id":"levelo_inurba_marseille","lat":43.292311,"lon":5.360731,"is_reserved":false,"is_disabled":false,"rental_uris":{"android":"levelo://app?vid=a3cd2c90-68f1-468e-89de-1d939c891eac","ios":"levelo://app?vid=a3cd2c90-68f1-468e-89de-1d939c891eac"},"vehicle_type_id":"4","last_reported":1712855185,"current_range_meters":8000,"station_id":"ce4bhbh2rcd13ifvqeqg","pricing_plan_id":"cebpf4jnsgd1na2vs0mg"},{"bike_id":"b6cf34ec-38a1-4c42-9410-d4652ca4c5a3","system_id":"levelo_inurba_marseille","lat":43.295279,"lon":5.375048,"is_reserved":false,"is_disabled":false,"rental_uris":{"android":"levelo://app?vid=b6cf34ec-38a1-4c42-9410-d4652ca4c5a3","ios":"levelo://app?vid=b6cf34ec-38a1-4c42-9410-d4652ca4c5a3"},"vehicle_type_id":"4","last_reported":1712855185,"current_range_meters":3600,"station_id":"ce4bgkp2rcd13ifvqbmg","pricing_plan_id":"cebpf4jnsgd1na2vs0mg"},{"bike_id":"5cfe6278-1034-45a5-b462-ec08fe3a241c","system_id":"levelo_inurba_marseille","lat":43.295447,"lon":5.38145,"is_reserved":false,"is_disabled":false,"rental_uris":{"android":"levelo://app?vid=5cfe6278-1034-45a5-b462-ec08fe3a241c","ios":"levelo://app?vid=5cfe6278-1034-45a5-b462-ec08fe3a241c"},"vehicle_type_id":"4","last_reported":1712855185,"current_range_meters":400,"station_id":"","pricing_plan_id":"cebpf4jnsgd1na2vs0mg"},{"bike_id":"854bf663-8256-498b-8b1a-6a0999aa9e0f","system_id":"levelo_inurba_marseille","lat":43.293009,"lon":5.374584,"is_reserved":false,"is_disabled":false,"rental_uris":{"android":"levelo://app?vid=854bf663-8256-498b-8b1a-6a0999aa9e0f","ios":"levelo://app?vid=854bf663-8256-498b-8b1a-6a0999aa9e0f"},"vehicle_type_id":"4","last_reported":1712855185,"current_range_meters":8800,"station_id":"ce4bgi12rcd13ifvqb70","pricing_plan_id":"cebpf4jnsgd1na2vs0mg"},{"bike_id":"ee716b96-642d-439e-a299-5dd78e8388b8","system_id":"levelo_inurba_marseille","lat":43.293009,"lon":5.374584,"is_reserved":false,"is_disabled":false,"rental_uris":{"android":"levelo://app?vid=ee716b96-642d-439e-a299-5dd78e8388b8","ios":"levelo://app?vid=ee716b96-642d-439e-a299-5dd78e8388b8"},"vehicle_type_id":"4","last_reported":1712855185,"current_range_meters":0,"station_id":"ce4bgi12rcd13ifvqb70","pricing_plan_id":"cebpf4jnsgd1na2vs0mg"},{"bike_id":"01d2146e-a1f5-44e4-b1c0-39703f35bfab","system_id":"levelo_inurba_marseille","lat":43.29233,"lon":5.36061,"is_reserved":false,"is_disabled":false,"rental_uris":{"android":"levelo://app?vid=01d2146e-a1f5-44e4-b1c0-39703f35bfab","ios":"levelo://app?vid=01d2146e-a1f5-44e4-b1c0-39703f35bfab"},"vehicle_type_id":"4","last_reported":1712855185,"current_range_meters":12800,"station_id":"ce4bhbh2rcd13ifvqeqg","pricing_plan_id":"cebpf4jnsgd1na2vs0mg"},{"bike_id":"cdb6b5c1-8751-4186-9502-7994b60c0158","system_id":"levelo_inurba_marseille","lat":43.2923,"lon":5.36072,"is_reserved":false,"is_disabled":false,"rental_uris":{"android":"levelo://app?vid=cdb6b5c1-8751-4186-9502-7994b60c0158","ios":"levelo://app?vid=cdb6b5c1-8751-4186-9502-7994b60c0158"},"vehicle_type_id":"4","last_reported":1712855185,"current_range_meters":1200,"station_id":"ce4bhbh2rcd13ifvqeqg","pricing_plan_id":"cebpf4jnsgd1na2vs0mg"},{"bike_id":"6134c940-3e19-4423-9d28-b27341143b6d","system_id":"levelo_inurba_marseille","lat":43.292308,"lon":5.36061,"is_reserved":false,"is_disabled":false,"rental_uris":{"android":"levelo://app?vid=6134c940-3e19-4423-9d28-b27341143b6d","ios":"levelo://app?vid=6134c940-3e19-4423-9d28-b27341143b6d"},"vehicle_type_id":"4","last_reported":1712855185,"current_range_meters":0,"station_id":"ce4bhbh2rcd13ifvqeqg","pricing_plan_id":"cebpf4jnsgd1na2vs0mg"},{"bike_id":"3682064a-03b3-42b3-a53e-a4bdd9a848b3","system_id":"levelo_inurba_marseille","lat":43.292273,"lon":5.360733,"is_reserved":false,"is_disabled":false,"rental_uris":{"android":"levelo://app?vid=3682064a-03b3-42b3-a53e-a4bdd9a848b3","ios":"levelo://app?vid=3682064a-03b3-42b3-a53e-a4bdd9a848b3"},"vehicle_type_id":"4","last_reported":1712855185,"current_range_meters":1200,"station_id":"ce4bhbh2rcd13ifvqeqg","pricing_plan_id":"cebpf4jnsgd1na2vs0mg"},{"bike_id":"c4b76e37-cb15-49f3-a25d-f33bae9d3e8a","system_id":"levelo_inurba_marseille","lat":43.30353,"lon":5.3928,"is_reserved":false,"is_disabled":false,"rental_uris":{"android":"levelo://app?vid=c4b76e37-cb15-49f3-a25d-f33bae9d3e8a","ios":"levelo://app?vid=c4b76e37-cb15-49f3-a25d-f33bae9d3e8a"},"vehicle_type_id":"4","last_reported":1712855185,"current_range_meters":0,"station_id":"","pricing_plan_id":"cebpf4jnsgd1na2vs0mg"},{"bike_id":"ca058975-93f7-4697-a198-0f20081c59af","system_id":"levelo_inurba_marseille","lat":43.292288,"lon":5.360595,"is_reserved":false,"is_disabled":false,"rental_uris":{"android":"levelo://app?vid=ca058975-93f7-4697-a198-0f20081c59af","ios":"levelo://app?vid=ca058975-93f7-4697-a198-0f20081c59af"},"vehicle_type_id":"4","last_reported":1712855185,"current_range_meters":6400,"station_id":"ce4bhbh2rcd13ifvqeqg","pricing_plan_id":"cebpf4jnsgd1na2vs0mg"},{"bike_id":"6ade45b5-5616-49a2-80a1-f949c85e47fd","system_id":"levelo_inurba_marseille","lat":43.29226,"lon":5.36054,"is_reserved":false,"is_disabled":false,"rental_uris":{"android":"levelo://app?vid=6ade45b5-5616-49a2-80a1-f949c85e47fd","ios":"levelo://app?vid=6ade45b5-5616-49a2-80a1-f949c85e47fd"},"vehicle_type_id":"4","last_reported":1712855185,"current_range_meters":800,"station_id":"ce4bhbh2rcd13ifvqeqg","pricing_plan_id":"cebpf4jnsgd1na2vs0mg"},{"bike_id":"78c9c9d9-09de-4319-a91e-c1ee77217ff5","system_id":"levelo_inurba_marseille","lat":43.29226,"lon":5.36054,"is_reserved":false,"is_disabled":false,"rental_uris":{"android":"levelo://app?vid=78c9c9d9-09de-4319-a91e-c1ee77217ff5","ios":"levelo://app?vid=78c9c9d9-09de-4319-a91e-c1ee77217ff5"},"vehicle_type_id":"4","last_reported":1712855185,"current_range_meters":0,"station_id":"ce4bhbh2rcd13ifvqeqg","pricing_plan_id":"cebpf4jnsgd1na2vs0mg"},{"bike_id":"d721365b-d003-4ed6-ab59-321e524eec15","system_id":"levelo_inurba_marseille","lat":43.298764,"lon":5.388973,"is_reserved":false,"is_disabled":false,"rental_uris":{"android":"levelo://app?vid=d721365b-d003-4ed6-ab59-321e524eec15","ios":"levelo://app?vid=d721365b-d003-4ed6-ab59-321e524eec15"},"vehicle_type_id":"4","last_reported":1712855185,"current_range_meters":2400,"station_id":"ce4bh392rcd13ifvqdl0","pricing_plan_id":"cebpf4jnsgd1na2vs0mg"},{"bike_id":"e37beb1d-f06b-43cd-8dd3-89535ecd934e","system_id":"levelo_inurba_marseille","lat":43.29169,"lon":5.37161,"is_reserved":false,"is_disabled":false,"rental_uris":{"android":"levelo://app?vid=e37beb1d-f06b-43cd-8dd3-89535ecd934e","ios":"levelo://app?vid=e37beb1d-f06b-43cd-8dd3-89535ecd934e"},"vehicle_type_id":"4","last_reported":1712855185,"current_range_meters":0,"station_id":"ce4bha92rcd13ifvqeh0","pricing_plan_id":"cebpf4jnsgd1na2vs0mg"},{"bike_id":"25ed1ef8-a448-4e86-8e41-948fc3b99d7f","system_id":"levelo_inurba_marseille","lat":43.291388,"lon":5.371882,"is_reserved":false,"is_disabled":false,"rental_uris":{"android":"levelo://app?vid=25ed1ef8-a448-4e86-8e41-948fc3b99d7f","ios":"levelo://app?vid=25ed1ef8-a448-4e86-8e41-948fc3b99d7f"},"vehicle_type_id":"4","last_reported":1712855185,"current_range_meters":0,"station_id":"ce4bha92rcd13ifvqeh0","pricing_plan_id":"cebpf4jnsgd1na2vs0mg"},{"bike_id":"83880404-d715-4793-9a0e-99c79a5976a9","system_id":"levelo_inurba_marseille","lat":43.292005,"lon":5.357875,"is_reserved":false,"is_disabled":false,"rental_uris":{"android":"levelo://app?vid=83880404-d715-4793-9a0e-99c79a5976a9","ios":"levelo://app?vid=83880404-d715-4793-9a0e-99c79a5976a9"},"vehicle_type_id":"4","last_reported":1712855185,"current_range_meters":10400,"station_id":"ce4bhb12rcd13ifvqel0","pricing_plan_id":"cebpf4jnsgd1na2vs0mg"},{"bike_id":"02d735ba-e7f9-4bfb-adcc-ec7698773bc3","system_id":"levelo_inurba_marseille","lat":43.292005,"lon":5.357875,"is_reserved":false,"is_disabled":false,"rental_uris":{"android":"levelo://app?vid=02d735ba-e7f9-4bfb-adcc-ec7698773bc3","ios":"levelo://app?vid=02d735ba-e7f9-4bfb-adcc-ec7698773bc3"},"vehicle_type_id":"4","last_reported":1712855185,"current_range_meters":0,"station_id":"ce4bhb12rcd13ifvqel0","pricing_plan_id":"cebpf4jnsgd1na2vs0mg"},{"bike_id":"172b1834-add1-4103-bf8a-1e211180f839","system_id":"levelo_inurba_marseille","lat":43.313291,"lon":5.396838,"is_reserved":false,"is_disabled":false,"rental_uris":{"android":"levelo://app?vid=172b1834-add1-4103-bf8a-1e211180f839","ios":"levelo://app?vid=172b1834-add1-4103-bf8a-1e211180f839"},"vehicle_type_id":"4","last_reported":1712855185,"current_range_meters":31200,"station_id":"ce4bgvp2rcd13ifvqcu0","pricing_plan_id":"cebpf4jnsgd1na2vs0mg"},{"bike_id":"9aba2046-c4fd-40d3-8d91-faafd2bcefa2","system_id":"levelo_inurba_marseille","lat":43.291994,"lon":5.357886,"is_reserved":false,"is_disabled":false,"rental_uris":{"android":"levelo://app?vid=9aba2046-c4fd-40d3-8d91-faafd2bcefa2","ios":"levelo://app?vid=9aba2046-c4fd-40d3-8d91-faafd2bcefa2"},"vehicle_type_id":"4","last_reported":1712855185,"current_range_meters":10000,"station_id":"ce4bhb12rcd13ifvqel0","pricing_plan_id":"cebpf4jnsgd1na2vs0mg"},{"bike_id":"0158756a-eeba-4f9c-a04d-a9250c114e99","system_id":"levelo_inurba_marseille","lat":43.291994,"lon":5.357886,"is_reserved":false,"is_disabled":false,"rental_uris":{"android":"levelo://app?vid=0158756a-eeba-4f9c-a04d-a9250c114e99","ios":"levelo://app?vid=0158756a-eeba-4f9c-a04d-a9250c114e99"},"vehicle_type_id":"4","last_reported":1712855185,"current_range_meters":0,"station_id":"ce4bhb12rcd13ifvqel0","pricing_plan_id":"cebpf4jnsgd1na2vs0mg"},{"bike_id":"fbee46c8-38a2-4a7e-9e73-96db8c43fd7b","system_id":"levelo_inurba_marseille","lat":43.29196,"lon":5.35807,"is_reserved":false,"is_disabled":false,"rental_uris":{"android":"levelo://app?vid=fbee46c8-38a2-4a7e-9e73-96db8c43fd7b","ios":"levelo://app?vid=fbee46c8-38a2-4a7e-9e73-96db8c43fd7b"},"vehicle_type_id":"4","last_reported":1712855185,"current_range_meters":6000,"station_id":"ce4bhb12rcd13ifvqel0","pricing_plan_id":"cebpf4jnsgd1na2vs0mg"},{"bike_id":"203e1ca0-5d20-4e45-946c-82dfb1270c11","system_id":"levelo_inurba_marseille","lat":43.291994,"lon":5.357886,"is_reserved":false,"is_disabled":false,"rental_uris":{"android":"levelo://app?vid=203e1ca0-5d20-4e45-946c-82dfb1270c11","ios":"levelo://app?vid=203e1ca0-5d20-4e45-946c-82dfb1270c11"},"vehicle_type_id":"4","last_reported":1712855185,"current_range_meters":10000,"station_id":"ce4bhb12rcd13ifvqel0","pricing_plan_id":"cebpf4jnsgd1na2vs0mg"},{"bike_id":"fb4868a4-1358-45bc-b6aa-10cc91e4d5ee","system_id":"levelo_inurba_marseille","lat":43.31331,"lon":5.39686,"is_reserved":false,"is_disabled":false,"rental_uris":{"android":"levelo://app?vid=fb4868a4-1358-45bc-b6aa-10cc91e4d5ee","ios":"levelo://app?vid=fb4868a4-1358-45bc-b6aa-10cc91e4d5ee"},"vehicle_type_id":"4","last_reported":1712855185,"current_range_meters":15600,"station_id":"ce4bgvp2rcd13ifvqcu0","pricing_plan_id":"cebpf4jnsgd1na2vs0mg"},{"bike_id":"64abe3ab-eb4f-4aa7-a407-081340158b12","system_id":"levelo_inurba_marseille","lat":43.308902,"lon":5.396539,"is_reserved":false,"is_disabled":false,"rental_uris":{"android":"levelo://app?vid=64abe3ab-eb4f-4aa7-a407-081340158b12","ios":"levelo://app?vid=64abe3ab-eb4f-4aa7-a407-081340158b12"},"vehicle_type_id":"4","last_reported":1712855185,"current_range_meters":0,"station_id":"ce4bh012rcd13ifvqcv0","pricing_plan_id":"cebpf4jnsgd1na2vs0mg"},{"bike_id":"8745a48d-c68a-4260-b161-9f348a961199","system_id":"levelo_inurba_marseille","lat":43.29529,"lon":5.385581,"is_reserved":false,"is_disabled":false,"rental_uris":{"android":"levelo://app?vid=8745a48d-c68a-4260-b161-9f348a961199","ios":"levelo://app?vid=8745a48d-c68a-4260-b161-9f348a961199"},"vehicle_type_id":"4","last_reported":1712855185,"current_range_meters":4800,"station_id":"ce4bgih2rcd13ifvqba0","pricing_plan_id":"cebpf4jnsgd1na2vs0mg"},{"bike_id":"d807b60c-c50c-416b-9e02-539680b5bcf9","system_id":"levelo_inurba_marseille","lat":43.29529,"lon":5.385581,"is_reserved":false,"is_disabled":false,"rental_uris":{"android":"levelo://app?vid=d807b60c-c50c-416b-9e02-539680b5bcf9","ios":"levelo://app?vid=d807b60c-c50c-416b-9e02-539680b5bcf9"},"vehicle_type_id":"4","last_reported":1712855185,"current_range_meters":24000,"station_id":"ce4bgih2rcd13ifvqba0","pricing_plan_id":"cebpf4jnsgd1na2vs0mg"},{"bike_id":"bba34456-e37e-4723-97c1-9c205a9fd73d","system_id":"levelo_inurba_marseille","lat":43.295359,"lon":5.385462,"is_reserved":false,"is_disabled":false,"rental_uris":{"android":"levelo://app?vid=bba34456-e37e-4723-97c1-9c205a9fd73d","ios":"levelo://app?vid=bba34456-e37e-4723-97c1-9c205a9fd73d"},"vehicle_type_id":"4","last_reported":1712855185,"current_range_meters":0,"station_id":"ce4bgih2rcd13ifvqba0","pricing_plan_id":"cebpf4jnsgd1na2vs0mg"},{"bike_id":"23b7d436-b90e-40b7-bb5f-9f8c2a8c50d4","system_id":"levelo_inurba_marseille","lat":43.29529,"lon":5.385581,"is_reserved":false,"is_disabled":false,"rental_uris":{"android":"levelo://app?vid=23b7d436-b90e-40b7-bb5f-9f8c2a8c50d4","ios":"levelo://app?vid=23b7d436-b90e-40b7-bb5f-9f8c2a8c50d4"},"vehicle_type_id":"4","last_reported":1712855185,"current_range_meters":7600,"station_id":"ce4bgih2rcd13ifvqba0","pricing_plan_id":"cebpf4jnsgd1na2vs0mg"},{"bike_id":"344fb1c7-ef54-4224-b7e7-544bed5e3762","system_id":"levelo_inurba_marseille","lat":43.29529,"lon":5.385581,"is_reserved":false,"is_disabled":false,"rental_uris":{"android":"levelo://app?vid=344fb1c7-ef54-4224-b7e7-544bed5e3762","ios":"levelo://app?vid=344fb1c7-ef54-4224-b7e7-544bed5e3762"},"vehicle_type_id":"4","last_reported":1712855185,"current_range_meters":0,"station_id":"ce4bgih2rcd13ifvqba0","pricing_plan_id":"cebpf4jnsgd1na2vs0mg"},{"bike_id":"6c70ff53-c1da-45c2-97a2-943501258b7e","system_id":"levelo_inurba_marseille","lat":43.29529,"lon":5.385581,"is_reserved":false,"is_disabled":false,"rental_uris":{"android":"levelo://app?vid=6c70ff53-c1da-45c2-97a2-943501258b7e","ios":"levelo://app?vid=6c70ff53-c1da-45c2-97a2-943501258b7e"},"vehicle_type_id":"4","last_reported":1712855185,"current_range_meters":11600,"station_id":"ce4bgih2rcd13ifvqba0","pricing_plan_id":"cebpf4jnsgd1na2vs0mg"},{"bike_id":"133c6d29-0a41-4893-aa03-b6e3f054037d","system_id":"levelo_inurba_marseille","lat":43.295554,"lon":5.38607,"is_reserved":false,"is_disabled":false,"rental_uris":{"android":"levelo://app?vid=133c6d29-0a41-4893-aa03-b6e3f054037d","ios":"levelo://app?vid=133c6d29-0a41-4893-aa03-b6e3f054037d"},"vehicle_type_id":"4","last_reported":1712855185,"current_range_meters":5600,"station_id":"ce4bh2h2rcd13ifvqdh0","pricing_plan_id":"cebpf4jnsgd1na2vs0mg"},{"bike_id":"31e9e168-751e-4acf-ac58-b9c2b7a3e9a4","system_id":"levelo_inurba_marseille","lat":43.290779,"lon":5.371482,"is_reserved":false,"is_disabled":false,"rental_uris":{"android":"levelo://app?vid=31e9e168-751e-4acf-ac58-b9c2b7a3e9a4","ios":"levelo://app?vid=31e9e168-751e-4acf-ac58-b9c2b7a3e9a4"},"vehicle_type_id":"4","last_reported":1712855185,"current_range_meters":25600,"station_id":"ce4bh5p2rcd13ifvqe4g","pricing_plan_id":"cebpf4jnsgd1na2vs0mg"},{"bike_id":"0236b561-1ed2-4897-a72d-f23179ef3975","system_id":"levelo_inurba_marseille","lat":43.290779,"lon":5.371482,"is_reserved":false,"is_disabled":false,"rental_uris":{"android":"levelo://app?vid=0236b561-1ed2-4897-a72d-f23179ef3975","ios":"levelo://app?vid=0236b561-1ed2-4897-a72d-f23179ef3975"},"vehicle_type_id":"4","last_reported":1712855185,"current_range_meters":0,"station_id":"ce4bh5p2rcd13ifvqe4g","pricing_plan_id":"cebpf4jnsgd1na2vs0mg"},{"bike_id":"5248b92d-bdfd-4b4f-9f4d-afe51a839d3e","system_id":"levelo_inurba_marseille","lat":43.305714,"lon":5.365633,"is_reserved":false,"is_disabled":false,"rental_uris":{"android":"levelo://app?vid=5248b92d-bdfd-4b4f-9f4d-afe51a839d3e","ios":"levelo://app?vid=5248b92d-bdfd-4b4f-9f4d-afe51a839d3e"},"vehicle_type_id":"4","last_reported":1712855185,"current_range_meters":22800,"station_id":"ce4bgs12rcd13ifvqcag","pricing_plan_id":"cebpf4jnsgd1na2vs0mg"},{"bike_id":"156418ca-8eee-43d4-9395-7c393a8b3b2d","system_id":"levelo_inurba_marseille","lat":43.30208,"lon":5.39458,"is_reserved":false,"is_disabled":false,"rental_uris":{"android":"levelo://app?vid=156418ca-8eee-43d4-9395-7c393a8b3b2d","ios":"levelo://app?vid=156418ca-8eee-43d4-9395-7c393a8b3b2d"},"vehicle_type_id":"4","last_reported":1712855185,"current_range_meters":0,"station_id":"ce4bh0p2rcd13ifvqd70","pricing_plan_id":"cebpf4jnsgd1na2vs0mg"},{"bike_id":"46e63c00-60d5-4dfd-aca7-c3e97392effc","system_id":"levelo_inurba_marseille","lat":43.298681,"lon":5.397225,"is_reserved":false,"is_disabled":false,"rental_uris":{"android":"levelo://app?vid=46e63c00-60d5-4dfd-aca7-c3e97392effc","ios":"levelo://app?vid=46e63c00-60d5-4dfd-aca7-c3e97392effc"},"vehicle_type_id":"4","last_reported":1712855185,"current_range_meters":0,"station_id":"ce4bh0h2rcd13ifvqd50","pricing_plan_id":"cebpf4jnsgd1na2vs0mg"},{"bike_id":"ec6291d4-0e52-46b0-9afd-5b7bc41290c8","system_id":"levelo_inurba_marseille","lat":43.290624,"lon":5.359245,"is_reserved":false,"is_disabled":false,"rental_uris":{"android":"levelo://app?vid=ec6291d4-0e52-46b0-9afd-5b7bc41290c8","ios":"levelo://app?vid=ec6291d4-0e52-46b0-9afd-5b7bc41290c8"},"vehicle_type_id":"4","last_reported":1712855185,"current_range_meters":5200,"station_id":"ce4bha92rcd13ifvqeg0","pricing_plan_id":"cebpf4jnsgd1na2vs0mg"},{"bike_id":"3f51d383-c742-4f12-bd50-016c42bbdc8b","system_id":"levelo_inurba_marseille","lat":43.290631,"lon":5.359244,"is_reserved":false,"is_disabled":false,"rental_uris":{"android":"levelo://app?vid=3f51d383-c742-4f12-bd50-016c42bbdc8b","ios":"levelo://app?vid=3f51d383-c742-4f12-bd50-016c42bbdc8b"},"vehicle_type_id":"4","last_reported":1712855185,"current_range_meters":0,"station_id":"ce4bha92rcd13ifvqeg0","pricing_plan_id":"cebpf4jnsgd1na2vs0mg"},{"bike_id":"e217bcc0-3371-4ca7-887c-32db526caa15","system_id":"levelo_inurba_marseille","lat":43.29424,"lon":5.38616,"is_reserved":false,"is_disabled":false,"rental_uris":{"android":"levelo://app?vid=e217bcc0-3371-4ca7-887c-32db526caa15","ios":"levelo://app?vid=e217bcc0-3371-4ca7-887c-32db526caa15"},"vehicle_type_id":"4","last_reported":1712855185,"current_range_meters":0,"station_id":"ce4bh2h2rcd13ifvqdh0","pricing_plan_id":"cebpf4jnsgd1na2vs0mg"},{"bike_id":"0e0fe91a-7170-4dc0-8bbd-51cc7e8a3737","system_id":"levelo_inurba_marseille","lat":43.29422,"lon":5.38617,"is_reserved":false,"is_disabled":false,"rental_uris":{"android":"levelo://app?vid=0e0fe91a-7170-4dc0-8bbd-51cc7e8a3737","ios":"levelo://app?vid=0e0fe91a-7170-4dc0-8bbd-51cc7e8a3737"},"vehicle_type_id":"4","last_reported":1712855185,"current_range_meters":20800,"station_id":"ce4bh2h2rcd13ifvqdh0","pricing_plan_id":"cebpf4jnsgd1na2vs0mg"},{"bike_id":"a888e49a-c89d-488f-b91d-df873d03aed2","system_id":"levelo_inurba_marseille","lat":43.294162,"lon":5.386292,"is_reserved":false,"is_disabled":false,"rental_uris":{"android":"levelo://app?vid=a888e49a-c89d-488f-b91d-df873d03aed2","ios":"levelo://app?vid=a888e49a-c89d-488f-b91d-df873d03aed2"},"vehicle_type_id":"4","last_reported":1712855185,"current_range_meters":29600,"station_id":"ce4bh2h2rcd13ifvqdh0","pricing_plan_id":"cebpf4jnsgd1na2vs0mg"},{"bike_id":"5285eaa7-f9fe-4e8a-b5b2-6fc913744af3","system_id":"levelo_inurba_marseille","lat":43.294208,"lon":5.386162,"is_reserved":false,"is_disabled":false,"rental_uris":{"android":"levelo://app?vid=5285eaa7-f9fe-4e8a-b5b2-6fc913744af3","ios":"levelo://app?vid=5285eaa7-f9fe-4e8a-b5b2-6fc913744af3"},"vehicle_type_id":"4","last_reported":1712855185,"current_range_meters":5600,"station_id":"chh1huq6cuj3fo74tm60","pricing_plan_id":"cebpf4jnsgd1na2vs0mg"},{"bike_id":"2827467e-e2ec-4a00-b809-f072c827b4f9","system_id":"levelo_inurba_marseille","lat":43.29421,"lon":5.38617,"is_reserved":false,"is_disabled":false,"rental_uris":{"android":"levelo://app?vid=2827467e-e2ec-4a00-b809-f072c827b4f9","ios":"levelo://app?vid=2827467e-e2ec-4a00-b809-f072c827b4f9"},"vehicle_type_id":"4","last_reported":1712855185,"current_range_meters":1200,"station_id":"ce4bh2h2rcd13ifvqdh0","pricing_plan_id":"cebpf4jnsgd1na2vs0mg"},{"bike_id":"63ebe8c8-99eb-44f8-939d-92fe1ce285c2","system_id":"levelo_inurba_marseille","lat":43.29422,"lon":5.38619,"is_reserved":false,"is_disabled":false,"rental_uris":{"android":"levelo://app?vid=63ebe8c8-99eb-44f8-939d-92fe1ce285c2","ios":"levelo://app?vid=63ebe8c8-99eb-44f8-939d-92fe1ce285c2"},"vehicle_type_id":"4","last_reported":1712855185,"current_range_meters":3200,"station_id":"ce4bh2h2rcd13ifvqdh0","pricing_plan_id":"cebpf4jnsgd1na2vs0mg"},{"bike_id":"7f650142-0e4c-4d52-a88d-6d901bde7d65","system_id":"levelo_inurba_marseille","lat":43.294162,"lon":5.386292,"is_reserved":false,"is_disabled":false,"rental_uris":{"android":"levelo://app?vid=7f650142-0e4c-4d52-a88d-6d901bde7d65","ios":"levelo://app?vid=7f650142-0e4c-4d52-a88d-6d901bde7d65"},"vehicle_type_id":"4","last_reported":1712855185,"current_range_meters":9600,"station_id":"ce4bh2h2rcd13ifvqdh0","pricing_plan_id":"cebpf4jnsgd1na2vs0mg"},{"bike_id":"7b665136-55b8-4399-a951-d5c9dc438791","system_id":"levelo_inurba_marseille","lat":43.29415,"lon":5.38612,"is_reserved":false,"is_disabled":false,"rental_uris":{"android":"levelo://app?vid=7b665136-55b8-4399-a951-d5c9dc438791","ios":"levelo://app?vid=7b665136-55b8-4399-a951-d5c9dc438791"},"vehicle_type_id":"4","last_reported":1712855185,"current_range_meters":0,"station_id":"ce4bh2h2rcd13ifvqdh0","pricing_plan_id":"cebpf4jnsgd1na2vs0mg"},{"bike_id":"9ad509e2-e81e-4ae1-b67a-8dbf5f283fc0","system_id":"levelo_inurba_marseille","lat":43.294162,"lon":5.386292,"is_reserved":false,"is_disabled":false,"rental_uris":{"android":"levelo://app?vid=9ad509e2-e81e-4ae1-b67a-8dbf5f283fc0","ios":"levelo://app?vid=9ad509e2-e81e-4ae1-b67a-8dbf5f283fc0"},"vehicle_type_id":"4","last_reported":1712855185,"current_range_meters":21200,"station_id":"ce4bh2h2rcd13ifvqdh0","pricing_plan_id":"cebpf4jnsgd1na2vs0mg"},{"bike_id":"379f0e03-9dcc-42e0-8dc4-d31f74bd2dff","system_id":"levelo_inurba_marseille","lat":43.29419,"lon":5.38621,"is_reserved":false,"is_disabled":false,"rental_uris":{"android":"levelo://app?vid=379f0e03-9dcc-42e0-8dc4-d31f74bd2dff","ios":"levelo://app?vid=379f0e03-9dcc-42e0-8dc4-d31f74bd2dff"},"vehicle_type_id":"4","last_reported":1712855185,"current_range_meters":8000,"station_id":"ce4bh2h2rcd13ifvqdh0","pricing_plan_id":"cebpf4jnsgd1na2vs0mg"},{"bike_id":"7ffa6386-1499-49cb-89e1-201437953b79","system_id":"levelo_inurba_marseille","lat":43.294162,"lon":5.386292,"is_reserved":false,"is_disabled":false,"rental_uris":{"android":"levelo://app?vid=7ffa6386-1499-49cb-89e1-201437953b79","ios":"levelo://app?vid=7ffa6386-1499-49cb-89e1-201437953b79"},"vehicle_type_id":"4","last_reported":1712855185,"current_range_meters":16800,"station_id":"ce4bh2h2rcd13ifvqdh0","pricing_plan_id":"cebpf4jnsgd1na2vs0mg"},{"bike_id":"9ebfbeee-f36c-4a28-85b8-630e084b2692","system_id":"levelo_inurba_marseille","lat":43.294162,"lon":5.386292,"is_reserved":false,"is_disabled":false,"rental_uris":{"android":"levelo://app?vid=9ebfbeee-f36c-4a28-85b8-630e084b2692","ios":"levelo://app?vid=9ebfbeee-f36c-4a28-85b8-630e084b2692"},"vehicle_type_id":"4","last_reported":1712855185,"current_range_meters":0,"station_id":"ce4bh2h2rcd13ifvqdh0","pricing_plan_id":"cebpf4jnsgd1na2vs0mg"},{"bike_id":"c830862e-d8f5-45ff-bb51-7a0dd738ed3c","system_id":"levelo_inurba_marseille","lat":43.29415,"lon":5.38621,"is_reserved":false,"is_disabled":false,"rental_uris":{"android":"levelo://app?vid=c830862e-d8f5-45ff-bb51-7a0dd738ed3c","ios":"levelo://app?vid=c830862e-d8f5-45ff-bb51-7a0dd738ed3c"},"vehicle_type_id":"4","last_reported":1712855185,"current_range_meters":0,"station_id":"ce4bh2h2rcd13ifvqdh0","pricing_plan_id":"cebpf4jnsgd1na2vs0mg"},{"bike_id":"8ca6311a-3b76-4b41-b437-ea38a1cd5633","system_id":"levelo_inurba_marseille","lat":43.289468,"lon":5.363719,"is_reserved":false,"is_disabled":false,"rental_uris":{"android":"levelo://app?vid=8ca6311a-3b76-4b41-b437-ea38a1cd5633","ios":"levelo://app?vid=8ca6311a-3b76-4b41-b437-ea38a1cd5633"},"vehicle_type_id":"4","last_reported":1712855185,"current_range_meters":24000,"station_id":"ce4bhc92rcd13ifvqetg","pricing_plan_id":"cebpf4jnsgd1na2vs0mg"},{"bike_id":"6c2a04ab-290e-445c-aaf5-38ae005a476f","system_id":"levelo_inurba_marseille","lat":43.294121,"lon":5.386181,"is_reserved":false,"is_disabled":false,"rental_uris":{"android":"levelo://app?vid=6c2a04ab-290e-445c-aaf5-38ae005a476f","ios":"levelo://app?vid=6c2a04ab-290e-445c-aaf5-38ae005a476f"},"vehicle_type_id":"4","last_reported":1712855185,"current_range_meters":13600,"station_id":"ce4bh2h2rcd13ifvqdh0","pricing_plan_id":"cebpf4jnsgd1na2vs0mg"},{"bike_id":"99fc7b90-9e51-46ca-9e08-ccd75156cc7f","system_id":"levelo_inurba_marseille","lat":43.294162,"lon":5.386292,"is_reserved":false,"is_disabled":false,"rental_uris":{"android":"levelo://app?vid=99fc7b90-9e51-46ca-9e08-ccd75156cc7f","ios":"levelo://app?vid=99fc7b90-9e51-46ca-9e08-ccd75156cc7f"},"vehicle_type_id":"4","last_reported":1712855185,"current_range_meters":2800,"station_id":"ce4bh2h2rcd13ifvqdh0","pricing_plan_id":"cebpf4jnsgd1na2vs0mg"},{"bike_id":"026ceb6d-8d33-4396-8704-c68cb84f1ae1","system_id":"levelo_inurba_marseille","lat":43.289468,"lon":5.363719,"is_reserved":false,"is_disabled":false,"rental_uris":{"android":"levelo://app?vid=026ceb6d-8d33-4396-8704-c68cb84f1ae1","ios":"levelo://app?vid=026ceb6d-8d33-4396-8704-c68cb84f1ae1"},"vehicle_type_id":"4","last_reported":1712855185,"current_range_meters":0,"station_id":"ce4bhc92rcd13ifvqetg","pricing_plan_id":"cebpf4jnsgd1na2vs0mg"},{"bike_id":"4b07b5ee-7703-4777-8dfc-f9262d06b967","system_id":"levelo_inurba_marseille","lat":43.289184,"lon":5.366408,"is_reserved":false,"is_disabled":false,"rental_uris":{"android":"levelo://app?vid=4b07b5ee-7703-4777-8dfc-f9262d06b967","ios":"levelo://app?vid=4b07b5ee-7703-4777-8dfc-f9262d06b967"},"vehicle_type_id":"4","last_reported":1712855185,"current_range_meters":0,"station_id":"ce4bhap2rcd13ifvqek0","pricing_plan_id":"cebpf4jnsgd1na2vs0mg"},{"bike_id":"276923c0-8aa5-4bcd-a3ad-d407ed5fd908","system_id":"levelo_inurba_marseille","lat":43.294162,"lon":5.386292,"is_reserved":false,"is_disabled":false,"rental_uris":{"android":"levelo://app?vid=276923c0-8aa5-4bcd-a3ad-d407ed5fd908","ios":"levelo://app?vid=276923c0-8aa5-4bcd-a3ad-d407ed5fd908"},"vehicle_type_id":"4","last_reported":1712855185,"current_range_meters":18400,"station_id":"ce4bh2h2rcd13ifvqdh0","pricing_plan_id":"cebpf4jnsgd1na2vs0mg"},{"bike_id":"4f33d952-897b-4c85-88e8-8dd38aae4bdf","system_id":"levelo_inurba_marseille","lat":43.289184,"lon":5.366408,"is_reserved":false,"is_disabled":false,"rental_uris":{"android":"levelo://app?vid=4f33d952-897b-4c85-88e8-8dd38aae4bdf","ios":"levelo://app?vid=4f33d952-897b-4c85-88e8-8dd38aae4bdf"},"vehicle_type_id":"4","last_reported":1712855185,"current_range_meters":0,"station_id":"ce4bhap2rcd13ifvqek0","pricing_plan_id":"cebpf4jnsgd1na2vs0mg"},{"bike_id":"9c1cbfaf-9dba-45a2-8efd-7319686f1a2f","system_id":"levelo_inurba_marseille","lat":43.289184,"lon":5.366408,"is_reserved":false,"is_disabled":false,"rental_uris":{"android":"levelo://app?vid=9c1cbfaf-9dba-45a2-8efd-7319686f1a2f","ios":"levelo://app?vid=9c1cbfaf-9dba-45a2-8efd-7319686f1a2f"},"vehicle_type_id":"4","last_reported":1712855185,"current_range_meters":23200,"station_id":"ce4bhap2rcd13ifvqek0","pricing_plan_id":"cebpf4jnsgd1na2vs0mg"},{"bike_id":"5784e868-7539-4bc5-b38d-584bd404bd3b","system_id":"levelo_inurba_marseille","lat":43.29412,"lon":5.38631,"is_reserved":false,"is_disabled":false,"rental_uris":{"android":"levelo://app?vid=5784e868-7539-4bc5-b38d-584bd404bd3b","ios":"levelo://app?vid=5784e868-7539-4bc5-b38d-584bd404bd3b"},"vehicle_type_id":"4","last_reported":1712855185,"current_range_meters":3600,"station_id":"ce4bh2h2rcd13ifvqdh0","pricing_plan_id":"cebpf4jnsgd1na2vs0mg"},{"bike_id":"3e995f22-bd7f-40c9-9855-0fef54761f69","system_id":"levelo_inurba_marseille","lat":43.28937,"lon":5.36635,"is_reserved":false,"is_disabled":false,"rental_uris":{"android":"levelo://app?vid=3e995f22-bd7f-40c9-9855-0fef54761f69","ios":"levelo://app?vid=3e995f22-bd7f-40c9-9855-0fef54761f69"},"vehicle_type_id":"4","last_reported":1712855185,"current_range_meters":7200,"station_id":"ce4bhap2rcd13ifvqek0","pricing_plan_id":"cebpf4jnsgd1na2vs0mg"},{"bike_id":"9ef888ef-9669-4c45-93d4-070bd8c60f8f","system_id":"levelo_inurba_marseille","lat":43.289468,"lon":5.363719,"is_reserved":false,"is_disabled":false,"rental_uris":{"android":"levelo://app?vid=9ef888ef-9669-4c45-93d4-070bd8c60f8f","ios":"levelo://app?vid=9ef888ef-9669-4c45-93d4-070bd8c60f8f"},"vehicle_type_id":"4","last_reported":1712855185,"current_range_meters":7600,"station_id":"ce4bhc92rcd13ifvqetg","pricing_plan_id":"cebpf4jnsgd1na2vs0mg"},{"bike_id":"1c40440e-d348-4da4-bb05-acf066d987e9","system_id":"levelo_inurba_marseille","lat":43.289409,"lon":5.363943,"is_reserved":false,"is_disabled":false,"rental_uris":{"android":"levelo://app?vid=1c40440e-d348-4da4-bb05-acf066d987e9","ios":"levelo://app?vid=1c40440e-d348-4da4-bb05-acf066d987e9"},"vehicle_type_id":"4","last_reported":1712855185,"current_range_meters":30400,"station_id":"ce4bhc92rcd13ifvqetg","pricing_plan_id":"cebpf4jnsgd1na2vs0mg"},{"bike_id":"b92c4b92-e476-44f0-806e-3ff3839e12d1","system_id":"levelo_inurba_marseille","lat":43.289184,"lon":5.366408,"is_reserved":false,"is_disabled":false,"rental_uris":{"android":"levelo://app?vid=b92c4b92-e476-44f0-806e-3ff3839e12d1","ios":"levelo://app?vid=b92c4b92-e476-44f0-806e-3ff3839e12d1"},"vehicle_type_id":"4","last_reported":1712855185,"current_range_meters":16000,"station_id":"ce4bhap2rcd13ifvqek0","pricing_plan_id":"cebpf4jnsgd1na2vs0mg"},{"bike_id":"9d69bc32-1341-4cc2-969f-bdfdf7bc2aaf","system_id":"levelo_inurba_marseille","lat":43.292644,"lon":5.384257,"is_reserved":false,"is_disabled":false,"rental_uris":{"android":"levelo://app?vid=9d69bc32-1341-4cc2-969f-bdfdf7bc2aaf","ios":"levelo://app?vid=9d69bc32-1341-4cc2-969f-bdfdf7bc2aaf"},"vehicle_type_id":"4","last_reported":1712855185,"current_range_meters":13200,"station_id":"ce4bh692rcd13ifvqea0","pricing_plan_id":"cebpf4jnsgd1na2vs0mg"},{"bike_id":"0918dbb3-f82e-46ae-8f30-b627d16d3684","system_id":"levelo_inurba_marseille","lat":43.292644,"lon":5.384257,"is_reserved":false,"is_disabled":false,"rental_uris":{"android":"levelo://app?vid=0918dbb3-f82e-46ae-8f30-b627d16d3684","ios":"levelo://app?vid=0918dbb3-f82e-46ae-8f30-b627d16d3684"},"vehicle_type_id":"4","last_reported":1712855185,"current_range_meters":0,"station_id":"ce4bh692rcd13ifvqea0","pricing_plan_id":"cebpf4jnsgd1na2vs0mg"},{"bike_id":"2956d6ab-1423-4670-846d-c47757f6ee39","system_id":"levelo_inurba_marseille","lat":43.292571,"lon":5.409107,"is_reserved":false,"is_disabled":false,"rental_uris":{"android":"levelo://app?vid=2956d6ab-1423-4670-846d-c47757f6ee39","ios":"levelo://app?vid=2956d6ab-1423-4670-846d-c47757f6ee39"},"vehicle_type_id":"4","last_reported":1712855185,"current_range_meters":2800,"station_id":"ce4bh192rcd13ifvqdc0","pricing_plan_id":"cebpf4jnsgd1na2vs0mg"},{"bike_id":"b651ddac-c375-49fe-8f1f-43ac78522e98","system_id":"levelo_inurba_marseille","lat":43.292644,"lon":5.384257,"is_reserved":false,"is_disabled":false,"rental_uris":{"android":"levelo://app?vid=b651ddac-c375-49fe-8f1f-43ac78522e98","ios":"levelo://app?vid=b651ddac-c375-49fe-8f1f-43ac78522e98"},"vehicle_type_id":"4","last_reported":1712855185,"current_range_meters":16400,"station_id":"ce4bh692rcd13ifvqea0","pricing_plan_id":"cebpf4jnsgd1na2vs0mg"},{"bike_id":"d3cabc19-0235-4806-b46b-e7417a00f9a2","system_id":"levelo_inurba_marseille","lat":43.29271,"lon":5.38441,"is_reserved":false,"is_disabled":false,"rental_uris":{"android":"levelo://app?vid=d3cabc19-0235-4806-b46b-e7417a00f9a2","ios":"levelo://app?vid=d3cabc19-0235-4806-b46b-e7417a00f9a2"},"vehicle_type_id":"4","last_reported":1712855185,"current_range_meters":0,"station_id":"ce4bh692rcd13ifvqea0","pricing_plan_id":"cebpf4jnsgd1na2vs0mg"},{"bike_id":"e4fe4f65-ac2b-4d58-bc14-a2e2f1a6387c","system_id":"levelo_inurba_marseille","lat":43.292626,"lon":5.38433,"is_reserved":false,"is_disabled":false,"rental_uris":{"android":"levelo://app?vid=e4fe4f65-ac2b-4d58-bc14-a2e2f1a6387c","ios":"levelo://app?vid=e4fe4f65-ac2b-4d58-bc14-a2e2f1a6387c"},"vehicle_type_id":"4","last_reported":1712855185,"current_range_meters":0,"station_id":"ce4bh692rcd13ifvqea0","pricing_plan_id":"cebpf4jnsgd1na2vs0mg"},{"bike_id":"25e3da33-a126-41c1-8b04-c70a1dcd4f85","system_id":"levelo_inurba_marseille","lat":43.292642,"lon":5.384254,"is_reserved":false,"is_disabled":false,"rental_uris":{"android":"levelo://app?vid=25e3da33-a126-41c1-8b04-c70a1dcd4f85","ios":"levelo://app?vid=25e3da33-a126-41c1-8b04-c70a1dcd4f85"},"vehicle_type_id":"4","last_reported":1712855185,"current_range_meters":11200,"station_id":"ce4bh692rcd13ifvqea0","pricing_plan_id":"cebpf4jnsgd1na2vs0mg"},{"bike_id":"28e0463d-4e22-489e-850a-15a467a4f5fc","system_id":"levelo_inurba_marseille","lat":43.292642,"lon":5.384254,"is_reserved":false,"is_disabled":false,"rental_uris":{"android":"levelo://app?vid=28e0463d-4e22-489e-850a-15a467a4f5fc","ios":"levelo://app?vid=28e0463d-4e22-489e-850a-15a467a4f5fc"},"vehicle_type_id":"4","last_reported":1712855185,"current_range_meters":0,"station_id":"ce4bh692rcd13ifvqea0","pricing_plan_id":"cebpf4jnsgd1na2vs0mg"},{"bike_id":"54422edd-b7e8-442f-938e-982a208b2a54","system_id":"levelo_inurba_marseille","lat":43.292642,"lon":5.384254,"is_reserved":false,"is_disabled":false,"rental_uris":{"android":"levelo://app?vid=54422edd-b7e8-442f-938e-982a208b2a54","ios":"levelo://app?vid=54422edd-b7e8-442f-938e-982a208b2a54"},"vehicle_type_id":"4","last_reported":1712855185,"current_range_meters":0,"station_id":"ce4bh692rcd13ifvqea0","pricing_plan_id":"cebpf4jnsgd1na2vs0mg"},{"bike_id":"3a325f11-004c-498b-8da2-18430ffed96b","system_id":"levelo_inurba_marseille","lat":43.29258,"lon":5.3844,"is_reserved":false,"is_disabled":false,"rental_uris":{"android":"levelo://app?vid=3a325f11-004c-498b-8da2-18430ffed96b","ios":"levelo://app?vid=3a325f11-004c-498b-8da2-18430ffed96b"},"vehicle_type_id":"4","last_reported":1712855185,"current_range_meters":0,"station_id":"ce4bh692rcd13ifvqea0","pricing_plan_id":"cebpf4jnsgd1na2vs0mg"},{"bike_id":"35d6a050-bc5b-4c7a-8333-75b1d09ccef4","system_id":"levelo_inurba_marseille","lat":43.290103,"lon":5.356114,"is_reserved":false,"is_disabled":false,"rental_uris":{"android":"levelo://app?vid=35d6a050-bc5b-4c7a-8333-75b1d09ccef4","ios":"levelo://app?vid=35d6a050-bc5b-4c7a-8333-75b1d09ccef4"},"vehicle_type_id":"4","last_reported":1712855185,"current_range_meters":0,"station_id":"ce4bhb92rcd13ifvqen0","pricing_plan_id":"cebpf4jnsgd1na2vs0mg"},{"bike_id":"bc060772-de40-4b1c-899c-b047a4dbeefe","system_id":"levelo_inurba_marseille","lat":43.290104,"lon":5.356111,"is_reserved":false,"is_disabled":false,"rental_uris":{"android":"levelo://app?vid=bc060772-de40-4b1c-899c-b047a4dbeefe","ios":"levelo://app?vid=bc060772-de40-4b1c-899c-b047a4dbeefe"},"vehicle_type_id":"4","last_reported":1712855185,"current_range_meters":0,"station_id":"ce4bhb92rcd13ifvqen0","pricing_plan_id":"cebpf4jnsgd1na2vs0mg"},{"bike_id":"b5f34276-2200-450d-a6f3-d320d48ab6b3","system_id":"levelo_inurba_marseille","lat":43.29122,"lon":5.38186,"is_reserved":false,"is_disabled":false,"rental_uris":{"android":"levelo://app?vid=b5f34276-2200-450d-a6f3-d320d48ab6b3","ios":"levelo://app?vid=b5f34276-2200-450d-a6f3-d320d48ab6b3"},"vehicle_type_id":"4","last_reported":1712855185,"current_range_meters":0,"station_id":"ce4bh692rcd13ifvqea0","pricing_plan_id":"cebpf4jnsgd1na2vs0mg"},{"bike_id":"de2affa6-53e0-413d-9fc4-28913f43c439","system_id":"levelo_inurba_marseille","lat":43.290995,"lon":5.381361,"is_reserved":false,"is_disabled":false,"rental_uris":{"android":"levelo://app?vid=de2affa6-53e0-413d-9fc4-28913f43c439","ios":"levelo://app?vid=de2affa6-53e0-413d-9fc4-28913f43c439"},"vehicle_type_id":"4","last_reported":1712855185,"current_range_meters":0,"station_id":"ce4bh512rcd13ifvqe2g","pricing_plan_id":"cebpf4jnsgd1na2vs0mg"},{"bike_id":"8f4f16fb-4803-46ad-a7d6-54175d1ba5d6","system_id":"levelo_inurba_marseille","lat":43.291039,"lon":5.381481,"is_reserved":false,"is_disabled":false,"rental_uris":{"android":"levelo://app?vid=8f4f16fb-4803-46ad-a7d6-54175d1ba5d6","ios":"levelo://app?vid=8f4f16fb-4803-46ad-a7d6-54175d1ba5d6"},"vehicle_type_id":"4","last_reported":1712855185,"current_range_meters":0,"station_id":"ce4bh512rcd13ifvqe2g","pricing_plan_id":"cebpf4jnsgd1na2vs0mg"},{"bike_id":"4edced82-0959-4a01-9e9e-7aeb4acd452c","system_id":"levelo_inurba_marseille","lat":43.295169,"lon":5.390426,"is_reserved":false,"is_disabled":false,"rental_uris":{"android":"levelo://app?vid=4edced82-0959-4a01-9e9e-7aeb4acd452c","ios":"levelo://app?vid=4edced82-0959-4a01-9e9e-7aeb4acd452c"},"vehicle_type_id":"4","last_reported":1712855185,"current_range_meters":0,"station_id":"ce4bh3p2rcd13ifvqdp0","pricing_plan_id":"cebpf4jnsgd1na2vs0mg"},{"bike_id":"183772e8-d444-463c-b892-984fa6af91c8","system_id":"levelo_inurba_marseille","lat":43.297815,"lon":5.393548,"is_reserved":false,"is_disabled":false,"rental_uris":{"android":"levelo://app?vid=183772e8-d444-463c-b892-984fa6af91c8","ios":"levelo://app?vid=183772e8-d444-463c-b892-984fa6af91c8"},"vehicle_type_id":"4","last_reported":1712855185,"current_range_meters":2000,"station_id":"chh1huq6cuj3fo74tm60","pricing_plan_id":"cebpf4jnsgd1na2vs0mg"},{"bike_id":"ad5d9acc-c450-4293-ab2c-33b31989bed2","system_id":"levelo_inurba_marseille","lat":43.29789,"lon":5.39337,"is_reserved":false,"is_disabled":false,"rental_uris":{"android":"levelo://app?vid=ad5d9acc-c450-4293-ab2c-33b31989bed2","ios":"levelo://app?vid=ad5d9acc-c450-4293-ab2c-33b31989bed2"},"vehicle_type_id":"4","last_reported":1712855185,"current_range_meters":4800,"station_id":"chh1huq6cuj3fo74tm60","pricing_plan_id":"cebpf4jnsgd1na2vs0mg"},{"bike_id":"fb912791-ab0b-4744-968e-6e63c4798a33","system_id":"levelo_inurba_marseille","lat":43.29788,"lon":5.39337,"is_reserved":false,"is_disabled":false,"rental_uris":{"android":"levelo://app?vid=fb912791-ab0b-4744-968e-6e63c4798a33","ios":"levelo://app?vid=fb912791-ab0b-4744-968e-6e63c4798a33"},"vehicle_type_id":"4","last_reported":1712855185,"current_range_meters":28400,"station_id":"chh1huq6cuj3fo74tm60","pricing_plan_id":"cebpf4jnsgd1na2vs0mg"},{"bike_id":"7cfc206b-6061-40fe-b2ba-ea7a1ccd9ca9","system_id":"levelo_inurba_marseille","lat":43.295169,"lon":5.390426,"is_reserved":false,"is_disabled":false,"rental_uris":{"android":"levelo://app?vid=7cfc206b-6061-40fe-b2ba-ea7a1ccd9ca9","ios":"levelo://app?vid=7cfc206b-6061-40fe-b2ba-ea7a1ccd9ca9"},"vehicle_type_id":"4","last_reported":1712855185,"current_range_meters":0,"station_id":"ce4bh3p2rcd13ifvqdp0","pricing_plan_id":"cebpf4jnsgd1na2vs0mg"},{"bike_id":"5b578a2a-16f5-43d7-baec-d692ce8c4135","system_id":"levelo_inurba_marseille","lat":43.289743,"lon":5.378304,"is_reserved":false,"is_disabled":false,"rental_uris":{"android":"levelo://app?vid=5b578a2a-16f5-43d7-baec-d692ce8c4135","ios":"levelo://app?vid=5b578a2a-16f5-43d7-baec-d692ce8c4135"},"vehicle_type_id":"4","last_reported":1712855185,"current_range_meters":2400,"station_id":"ce4bh9p2rcd13ifvqed0","pricing_plan_id":"cebpf4jnsgd1na2vs0mg"},{"bike_id":"93607ea6-723d-4fd6-8a22-23ed94d24e8f","system_id":"levelo_inurba_marseille","lat":43.297755,"lon":5.393382,"is_reserved":false,"is_disabled":false,"rental_uris":{"android":"levelo://app?vid=93607ea6-723d-4fd6-8a22-23ed94d24e8f","ios":"levelo://app?vid=93607ea6-723d-4fd6-8a22-23ed94d24e8f"},"vehicle_type_id":"4","last_reported":1712855185,"current_range_meters":2000,"station_id":"chh1huq6cuj3fo74tm60","pricing_plan_id":"cebpf4jnsgd1na2vs0mg"},{"bike_id":"78517779-c493-4879-ada4-7b69debe33ba","system_id":"levelo_inurba_marseille","lat":43.330442,"lon":5.389148,"is_reserved":false,"is_disabled":false,"rental_uris":{"android":"levelo://app?vid=78517779-c493-4879-ada4-7b69debe33ba","ios":"levelo://app?vid=78517779-c493-4879-ada4-7b69debe33ba"},"vehicle_type_id":"4","last_reported":1712855185,"current_range_meters":11600,"station_id":"ce4bhr92rcd13ifvqhrg","pricing_plan_id":"cebpf4jnsgd1na2vs0mg"},{"bike_id":"8bc583c5-31aa-487b-9511-c0100c4be551","system_id":"levelo_inurba_marseille","lat":43.330442,"lon":5.389148,"is_reserved":false,"is_disabled":false,"rental_uris":{"android":"levelo://app?vid=8bc583c5-31aa-487b-9511-c0100c4be551","ios":"levelo://app?vid=8bc583c5-31aa-487b-9511-c0100c4be551"},"vehicle_type_id":"4","last_reported":1712855185,"current_range_meters":18800,"station_id":"ce4bhr92rcd13ifvqhrg","pricing_plan_id":"cebpf4jnsgd1na2vs0mg"},{"bike_id":"2fffdea9-594e-4d0b-b660-293ca35b0c21","system_id":"levelo_inurba_marseille","lat":43.297815,"lon":5.393548,"is_reserved":false,"is_disabled":false,"rental_uris":{"android":"levelo://app?vid=2fffdea9-594e-4d0b-b660-293ca35b0c21","ios":"levelo://app?vid=2fffdea9-594e-4d0b-b660-293ca35b0c21"},"vehicle_type_id":"4","last_reported":1712855185,"current_range_meters":7600,"station_id":"chh1huq6cuj3fo74tm60","pricing_plan_id":"cebpf4jnsgd1na2vs0mg"},{"bike_id":"2a5c3dd4-9bdd-4b40-8d60-209f65e0c0f8","system_id":"levelo_inurba_marseille","lat":43.330442,"lon":5.389148,"is_reserved":false,"is_disabled":false,"rental_uris":{"android":"levelo://app?vid=2a5c3dd4-9bdd-4b40-8d60-209f65e0c0f8","ios":"levelo://app?vid=2a5c3dd4-9bdd-4b40-8d60-209f65e0c0f8"},"vehicle_type_id":"4","last_reported":1712855185,"current_range_meters":18400,"station_id":"ce4bhr92rcd13ifvqhrg","pricing_plan_id":"cebpf4jnsgd1na2vs0mg"},{"bike_id":"f46d0860-8590-4f27-90b6-3d854993c614","system_id":"levelo_inurba_marseille","lat":43.330442,"lon":5.389148,"is_reserved":false,"is_disabled":false,"rental_uris":{"android":"levelo://app?vid=f46d0860-8590-4f27-90b6-3d854993c614","ios":"levelo://app?vid=f46d0860-8590-4f27-90b6-3d854993c614"},"vehicle_type_id":"4","last_reported":1712855185,"current_range_meters":19200,"station_id":"ce4bhr92rcd13ifvqhrg","pricing_plan_id":"cebpf4jnsgd1na2vs0mg"},{"bike_id":"a0afbe5e-1443-45a8-a782-b48da0079d78","system_id":"levelo_inurba_marseille","lat":43.295169,"lon":5.390426,"is_reserved":false,"is_disabled":false,"rental_uris":{"android":"levelo://app?vid=a0afbe5e-1443-45a8-a782-b48da0079d78","ios":"levelo://app?vid=a0afbe5e-1443-45a8-a782-b48da0079d78"},"vehicle_type_id":"4","last_reported":1712855185,"current_range_meters":0,"station_id":"ce4bh3p2rcd13ifvqdp0","pricing_plan_id":"cebpf4jnsgd1na2vs0mg"},{"bike_id":"648bed5a-421d-4717-a20a-d8bbe9efda5c","system_id":"levelo_inurba_marseille","lat":43.330442,"lon":5.389148,"is_reserved":false,"is_disabled":false,"rental_uris":{"android":"levelo://app?vid=648bed5a-421d-4717-a20a-d8bbe9efda5c","ios":"levelo://app?vid=648bed5a-421d-4717-a20a-d8bbe9efda5c"},"vehicle_type_id":"4","last_reported":1712855185,"current_range_meters":24800,"station_id":"ce4bhr92rcd13ifvqhrg","pricing_plan_id":"cebpf4jnsgd1na2vs0mg"},{"bike_id":"d9969e43-427f-41c1-af29-3933256042f7","system_id":"levelo_inurba_marseille","lat":43.295713,"lon":5.399639,"is_reserved":false,"is_disabled":false,"rental_uris":{"android":"levelo://app?vid=d9969e43-427f-41c1-af29-3933256042f7","ios":"levelo://app?vid=d9969e43-427f-41c1-af29-3933256042f7"},"vehicle_type_id":"4","last_reported":1712855185,"current_range_meters":23600,"station_id":"ce4bh312rcd13ifvqdj0","pricing_plan_id":"cebpf4jnsgd1na2vs0mg"},{"bike_id":"7d826902-8ca0-4c6c-b0f1-18d578f7f2ac","system_id":"levelo_inurba_marseille","lat":43.330442,"lon":5.389148,"is_reserved":false,"is_disabled":false,"rental_uris":{"android":"levelo://app?vid=7d826902-8ca0-4c6c-b0f1-18d578f7f2ac","ios":"levelo://app?vid=7d826902-8ca0-4c6c-b0f1-18d578f7f2ac"},"vehicle_type_id":"4","last_reported":1712855185,"current_range_meters":5200,"station_id":"ce4bhr92rcd13ifvqhrg","pricing_plan_id":"cebpf4jnsgd1na2vs0mg"},{"bike_id":"bcd20e96-5dad-44c3-91e4-4b44da0cba65","system_id":"levelo_inurba_marseille","lat":43.33026,"lon":5.39046,"is_reserved":false,"is_disabled":false,"rental_uris":{"android":"levelo://app?vid=bcd20e96-5dad-44c3-91e4-4b44da0cba65","ios":"levelo://app?vid=bcd20e96-5dad-44c3-91e4-4b44da0cba65"},"vehicle_type_id":"4","last_reported":1712855185,"current_range_meters":6000,"station_id":"ce4bhr92rcd13ifvqhrg","pricing_plan_id":"cebpf4jnsgd1na2vs0mg"},{"bike_id":"fcde5477-c89a-440f-b7bd-15b7e7a8d0bf","system_id":"levelo_inurba_marseille","lat":43.288725,"lon":5.359115,"is_reserved":false,"is_disabled":false,"rental_uris":{"android":"levelo://app?vid=fcde5477-c89a-440f-b7bd-15b7e7a8d0bf","ios":"levelo://app?vid=fcde5477-c89a-440f-b7bd-15b7e7a8d0bf"},"vehicle_type_id":"4","last_reported":1712855185,"current_range_meters":0,"station_id":"","pricing_plan_id":"cebpf4jnsgd1na2vs0mg"},{"bike_id":"70689af9-00c0-46a0-9706-c84b082a174a","system_id":"levelo_inurba_marseille","lat":43.290094,"lon":5.381264,"is_reserved":false,"is_disabled":false,"rental_uris":{"android":"levelo://app?vid=70689af9-00c0-46a0-9706-c84b082a174a","ios":"levelo://app?vid=70689af9-00c0-46a0-9706-c84b082a174a"},"vehicle_type_id":"4","last_reported":1712855185,"current_range_meters":26800,"station_id":"ce4bh4p2rcd13ifvqe1g","pricing_plan_id":"cebpf4jnsgd1na2vs0mg"},{"bike_id":"c16cdbdb-5282-45f1-a211-85452f6b6799","system_id":"levelo_inurba_marseille","lat":43.28856,"lon":5.358371,"is_reserved":false,"is_disabled":false,"rental_uris":{"android":"levelo://app?vid=c16cdbdb-5282-45f1-a211-85452f6b6799","ios":"levelo://app?vid=c16cdbdb-5282-45f1-a211-85452f6b6799"},"vehicle_type_id":"4","last_reported":1712855185,"current_range_meters":16400,"station_id":"ce4bhb12rcd13ifvqem0","pricing_plan_id":"cebpf4jnsgd1na2vs0mg"},{"bike_id":"9dd685c4-4425-437a-9477-ff4b59b59661","system_id":"levelo_inurba_marseille","lat":43.28856,"lon":5.358371,"is_reserved":false,"is_disabled":false,"rental_uris":{"android":"levelo://app?vid=9dd685c4-4425-437a-9477-ff4b59b59661","ios":"levelo://app?vid=9dd685c4-4425-437a-9477-ff4b59b59661"},"vehicle_type_id":"4","last_reported":1712855185,"current_range_meters":17200,"station_id":"ce4bhb12rcd13ifvqem0","pricing_plan_id":"cebpf4jnsgd1na2vs0mg"},{"bike_id":"fabd7161-a934-4c92-b0a9-2f876fefe391","system_id":"levelo_inurba_marseille","lat":43.28856,"lon":5.358371,"is_reserved":false,"is_disabled":false,"rental_uris":{"android":"levelo://app?vid=fabd7161-a934-4c92-b0a9-2f876fefe391","ios":"levelo://app?vid=fabd7161-a934-4c92-b0a9-2f876fefe391"},"vehicle_type_id":"4","last_reported":1712855185,"current_range_meters":14000,"station_id":"ce4bhb12rcd13ifvqem0","pricing_plan_id":"cebpf4jnsgd1na2vs0mg"},{"bike_id":"53e74182-3a1d-4c30-a4a2-3bb3a8d555c3","system_id":"levelo_inurba_marseille","lat":43.28856,"lon":5.35838,"is_reserved":false,"is_disabled":false,"rental_uris":{"android":"levelo://app?vid=53e74182-3a1d-4c30-a4a2-3bb3a8d555c3","ios":"levelo://app?vid=53e74182-3a1d-4c30-a4a2-3bb3a8d555c3"},"vehicle_type_id":"4","last_reported":1712855185,"current_range_meters":0,"station_id":"ce4bhb12rcd13ifvqem0","pricing_plan_id":"cebpf4jnsgd1na2vs0mg"},{"bike_id":"5e408dfa-c707-4715-8600-6f88a62ae86a","system_id":"levelo_inurba_marseille","lat":43.28856,"lon":5.358371,"is_reserved":false,"is_disabled":false,"rental_uris":{"android":"levelo://app?vid=5e408dfa-c707-4715-8600-6f88a62ae86a","ios":"levelo://app?vid=5e408dfa-c707-4715-8600-6f88a62ae86a"},"vehicle_type_id":"4","last_reported":1712855185,"current_range_meters":20400,"station_id":"ce4bhb12rcd13ifvqem0","pricing_plan_id":"cebpf4jnsgd1na2vs0mg"},{"bike_id":"46c37948-8780-491c-92de-8a3a2559f1e2","system_id":"levelo_inurba_marseille","lat":43.28856,"lon":5.358371,"is_reserved":false,"is_disabled":false,"rental_uris":{"android":"levelo://app?vid=46c37948-8780-491c-92de-8a3a2559f1e2","ios":"levelo://app?vid=46c37948-8780-491c-92de-8a3a2559f1e2"},"vehicle_type_id":"4","last_reported":1712855185,"current_range_meters":24000,"station_id":"ce4bhb12rcd13ifvqem0","pricing_plan_id":"cebpf4jnsgd1na2vs0mg"},{"bike_id":"899e6aea-f7ed-4685-9a91-15e469e09ed2","system_id":"levelo_inurba_marseille","lat":43.312609,"lon":5.401662,"is_reserved":false,"is_disabled":false,"rental_uris":{"android":"levelo://app?vid=899e6aea-f7ed-4685-9a91-15e469e09ed2","ios":"levelo://app?vid=899e6aea-f7ed-4685-9a91-15e469e09ed2"},"vehicle_type_id":"4","last_reported":1712855185,"current_range_meters":2000,"station_id":"ce4bh092rcd13ifvqd30","pricing_plan_id":"cebpf4jnsgd1na2vs0mg"},{"bike_id":"85919e90-07ac-401a-94e9-96533a59bbf3","system_id":"levelo_inurba_marseille","lat":43.312609,"lon":5.401662,"is_reserved":false,"is_disabled":false,"rental_uris":{"android":"levelo://app?vid=85919e90-07ac-401a-94e9-96533a59bbf3","ios":"levelo://app?vid=85919e90-07ac-401a-94e9-96533a59bbf3"},"vehicle_type_id":"4","last_reported":1712855185,"current_range_meters":10400,"station_id":"ce4bh092rcd13ifvqd30","pricing_plan_id":"cebpf4jnsgd1na2vs0mg"},{"bike_id":"c5815bb1-ab39-4bbc-98bc-8c43eb3cbca9","system_id":"levelo_inurba_marseille","lat":43.312609,"lon":5.401662,"is_reserved":false,"is_disabled":false,"rental_uris":{"android":"levelo://app?vid=c5815bb1-ab39-4bbc-98bc-8c43eb3cbca9","ios":"levelo://app?vid=c5815bb1-ab39-4bbc-98bc-8c43eb3cbca9"},"vehicle_type_id":"4","last_reported":1712855185,"current_range_meters":3200,"station_id":"ce4bh092rcd13ifvqd30","pricing_plan_id":"cebpf4jnsgd1na2vs0mg"},{"bike_id":"b35db11a-3e15-4cf4-a1c4-7a67fe4d1bff","system_id":"levelo_inurba_marseille","lat":43.290723,"lon":5.384091,"is_reserved":false,"is_disabled":false,"rental_uris":{"android":"levelo://app?vid=b35db11a-3e15-4cf4-a1c4-7a67fe4d1bff","ios":"levelo://app?vid=b35db11a-3e15-4cf4-a1c4-7a67fe4d1bff"},"vehicle_type_id":"4","last_reported":1712855185,"current_range_meters":8000,"station_id":"","pricing_plan_id":"cebpf4jnsgd1na2vs0mg"},{"bike_id":"5f1dad3c-ad9c-4b03-a6b9-43eb23b32e4b","system_id":"levelo_inurba_marseille","lat":43.309841,"lon":5.401523,"is_reserved":false,"is_disabled":false,"rental_uris":{"android":"levelo://app?vid=5f1dad3c-ad9c-4b03-a6b9-43eb23b32e4b","ios":"levelo://app?vid=5f1dad3c-ad9c-4b03-a6b9-43eb23b32e4b"},"vehicle_type_id":"4","last_reported":1712855185,"current_range_meters":0,"station_id":"ce4bgvp2rcd13ifvqct0","pricing_plan_id":"cebpf4jnsgd1na2vs0mg"},{"bike_id":"1fd11aa9-94e6-49bc-b0ea-f31625ee84bc","system_id":"levelo_inurba_marseille","lat":43.33754,"lon":5.374806,"is_reserved":false,"is_disabled":false,"rental_uris":{"android":"levelo://app?vid=1fd11aa9-94e6-49bc-b0ea-f31625ee84bc","ios":"levelo://app?vid=1fd11aa9-94e6-49bc-b0ea-f31625ee84bc"},"vehicle_type_id":"4","last_reported":1712855185,"current_range_meters":5600,"station_id":"","pricing_plan_id":"cebpf4jnsgd1na2vs0mg"},{"bike_id":"667f8f58-208e-4a14-a8d8-126b9b425913","system_id":"levelo_inurba_marseille","lat":43.306412,"lon":5.401035,"is_reserved":false,"is_disabled":false,"rental_uris":{"android":"levelo://app?vid=667f8f58-208e-4a14-a8d8-126b9b425913","ios":"levelo://app?vid=667f8f58-208e-4a14-a8d8-126b9b425913"},"vehicle_type_id":"4","last_reported":1712855185,"current_range_meters":0,"station_id":"ce4bh112rcd13ifvqda0","pricing_plan_id":"cebpf4jnsgd1na2vs0mg"},{"bike_id":"a14e8725-d87f-430b-ba9d-080307dc7ff0","system_id":"levelo_inurba_marseille","lat":43.30642,"lon":5.401031,"is_reserved":false,"is_disabled":false,"rental_uris":{"android":"levelo://app?vid=a14e8725-d87f-430b-ba9d-080307dc7ff0","ios":"levelo://app?vid=a14e8725-d87f-430b-ba9d-080307dc7ff0"},"vehicle_type_id":"4","last_reported":1712855185,"current_range_meters":7200,"station_id":"ce4bh112rcd13ifvqda0","pricing_plan_id":"cebpf4jnsgd1na2vs0mg"},{"bike_id":"566dfe94-13f8-4a6d-9849-91a99a01024d","system_id":"levelo_inurba_marseille","lat":43.30131,"lon":5.39846,"is_reserved":false,"is_disabled":false,"rental_uris":{"android":"levelo://app?vid=566dfe94-13f8-4a6d-9849-91a99a01024d","ios":"levelo://app?vid=566dfe94-13f8-4a6d-9849-91a99a01024d"},"vehicle_type_id":"4","last_reported":1712855185,"current_range_meters":3200,"station_id":"ce4bh0h2rcd13ifvqd40","pricing_plan_id":"cebpf4jnsgd1na2vs0mg"},{"bike_id":"740bae49-0a91-4748-9950-750d3405360f","system_id":"levelo_inurba_marseille","lat":43.30123,"lon":5.39844,"is_reserved":false,"is_disabled":false,"rental_uris":{"android":"levelo://app?vid=740bae49-0a91-4748-9950-750d3405360f","ios":"levelo://app?vid=740bae49-0a91-4748-9950-750d3405360f"},"vehicle_type_id":"4","last_reported":1712855185,"current_range_meters":800,"station_id":"ce4bh0h2rcd13ifvqd40","pricing_plan_id":"cebpf4jnsgd1na2vs0mg"},{"bike_id":"3aebea8a-cacb-4e39-a8ca-89587a884c94","system_id":"levelo_inurba_marseille","lat":43.3014,"lon":5.39859,"is_reserved":false,"is_disabled":false,"rental_uris":{"android":"levelo://app?vid=3aebea8a-cacb-4e39-a8ca-89587a884c94","ios":"levelo://app?vid=3aebea8a-cacb-4e39-a8ca-89587a884c94"},"vehicle_type_id":"4","last_reported":1712855185,"current_range_meters":0,"station_id":"ce4bh0h2rcd13ifvqd40","pricing_plan_id":"cebpf4jnsgd1na2vs0mg"},{"bike_id":"76411439-8920-4793-8947-b513e6dc638c","system_id":"levelo_inurba_marseille","lat":43.28727,"lon":5.36078,"is_reserved":false,"is_disabled":false,"rental_uris":{"android":"levelo://app?vid=76411439-8920-4793-8947-b513e6dc638c","ios":"levelo://app?vid=76411439-8920-4793-8947-b513e6dc638c"},"vehicle_type_id":"4","last_reported":1712855185,"current_range_meters":22000,"station_id":"cki0cbj6b192h4jlfktg","pricing_plan_id":"cebpf4jnsgd1na2vs0mg"},{"bike_id":"6174b604-a56d-4b7b-bd85-8079d7efce6c","system_id":"levelo_inurba_marseille","lat":43.28727,"lon":5.36078,"is_reserved":false,"is_disabled":false,"rental_uris":{"android":"levelo://app?vid=6174b604-a56d-4b7b-bd85-8079d7efce6c","ios":"levelo://app?vid=6174b604-a56d-4b7b-bd85-8079d7efce6c"},"vehicle_type_id":"4","last_reported":1712855185,"current_range_meters":17200,"station_id":"cki0cbj6b192h4jlfktg","pricing_plan_id":"cebpf4jnsgd1na2vs0mg"},{"bike_id":"0031f6c6-6c93-45bb-97d7-c1330b431032","system_id":"levelo_inurba_marseille","lat":43.301423,"lon":5.398897,"is_reserved":false,"is_disabled":false,"rental_uris":{"android":"levelo://app?vid=0031f6c6-6c93-45bb-97d7-c1330b431032","ios":"levelo://app?vid=0031f6c6-6c93-45bb-97d7-c1330b431032"},"vehicle_type_id":"4","last_reported":1712855185,"current_range_meters":5200,"station_id":"ce4bh0h2rcd13ifvqd40","pricing_plan_id":"cebpf4jnsgd1na2vs0mg"},