{"last_updated":1751447625,"ttl":60,"version":"2.2","data":{"bikes":[{"bike_id":"3da29fb8-fc97-44c6-b9ac-31dd456b2fd4","system_id":"levelo_inurba_marseille","lat":43.33771,"lon":5.37424,"is_reserved":false,"is_disabled":true,"rental_uris":{"android":"levelo://app?vid=3da29fb8-fc97-44c6-b9ac-31dd456b2fd4","ios":"levelo://app?vid=3da29fb8-fc97-44c6-b9ac-31dd456b2fd4"},"vehicle_type_id":"4","last_reported":1751447626,"current_range_meters":0,"station_id":"","pricing_plan_id":"cebpf4jnsgd1na2vs0mg"},{"bike_id":"01861ad8-a8d7-4be6-816e-651927c87584","system_id":"levelo_inurba_marseille","lat":43.33751,"lon":5.37456,"is_reserved":false,"is_disabled":true,"rental_uris":{"android":"levelo://app?vid=01861ad8-a8d7-4be6-816e-651927c87584","ios":"levelo://app?vid=01861ad8-a8d7-4be6-816e-651927c87584"},"vehicle_type_id":"4","last_reported":1751447626,"current_range_meters":0,"station_id":"","pricing_plan_id":"cebpf4jnsgd1na2vs0mg"},{"bike_id":"754343a6-eb52-4c16-91cb-4c257cf9bb72","system_id":"levelo_inurba_marseille","lat":43.314888,"lon":5.3731,"is_reserved":false,"is_disabled":true,"rental_uris":{"android":"levelo://app?vid=754343a6-eb52-4c16-91cb-4c257cf9bb72","ios":"levelo://app?vid=754343a6-eb52-4c16-91cb-4c257cf9bb72"},"vehicle_type_id":"4","last_reported":1751447626,"current_range_meters":0,"station_id":"ce4bgt12rcd13ifvqcd0","pricing_plan_id":"cebpf4jnsgd1na2vs0mg"},{"bike_id":"f7c30a3e-ad1a-4612-89b6-e87b87bdee80","system_id":"levelo_inurba_marseille","lat":43.28733,"lon":5.37939,"is_reserved":false,"is_disabled":true,"rental_uris":{"android":"levelo://app?vid=f7c30a3e-ad1a-4612-89b6-e87b87bdee80","ios":"levelo://app?vid=f7c30a3e-ad1a-4612-89b6-e87b87bdee80"},"vehicle_type_id":"4","last_reported":1751447626,"current_range_meters":0,"station_id":"ce4bh9p2rcd13ifvqec0","pricing_plan_id":"cebpf4jnsgd1na2vs0mg"},{"bike_id":"facb2ccc-2fc3-4d56-9c6e-0263c231de6d","system_id":"levelo_inurba_marseille","lat":43.289398,"lon":5.366395,"is_reserved":false,"is_disabled":true,"rental_uris":{"android":"levelo://app?vid=facb2ccc-2fc3-4d56-9c6e-0263c231de6d","ios":"levelo://app?vid=facb2ccc-2fc3-4d56-9c6e-0263c231de6d"},"vehicle_type_id":"4","last_reported":1751447626,"current_range_meters":0,"station_id":"ce4bhap2rcd13ifvqek0","pricing_plan_id":"cebpf4jnsgd1na2vs0mg"},{"bike_id":"02a6e3c2-fad0-4d52-aae0-b29b620958c9","system_id":"levelo_inurba_marseille","lat":43.27364,"lon":5.36245,"is_reserved":false,"is_disabled":true,"rental_uris":{"android":"levelo://app?vid=02a6e3c2-fad0-4d52-aae0-b29b620958c9","ios":"levelo://app?vid=02a6e3c2-fad0-4d52-aae0-b29b620958c9"},"vehicle_type_id":"4","last_reported":1751447626,"current_range_meters":0,"station_id":"ce4bhbh2rcd13ifvqeo0","pricing_plan_id":"cebpf4jnsgd1na2vs0mg"},{"bike_id":"51f93386-23e4-450b-946b-bce75b800e2e","system_id":"levelo_inurba_marseille","lat":43.31709,"lon":5.3775,"is_reserved":false,"is_disabled":true,"rental_uris":{"android":"levelo://app?vid=51f93386-23e4-450b-946b-bce75b800e2e","ios":"levelo://app?vid=51f93386-23e4-450b-946b-bce75b800e2e"},"vehicle_type_id":"4","last_reported":1751447626,"current_range_meters":400,"station_id":"ce4bgth2rcd13ifvqch0","pricing_plan_id":"cebpf4jnsgd1na2vs0mg"},{"bike_id":"f6054310-f1c5-45e0-b1e4-c5d17d4d04dc","system_id":"levelo_inurba_marseille","lat":43.31892,"lon":5.40733,"is_reserved":false,"is_disabled":true,"rental_uris":{"android":"levelo://app?vid=f6054310-f1c5-45e0-b1e4-c5d17d4d04dc","ios":"levelo://app?vid=f6054310-f1c5-45e0-b1e4-c5d17d4d04dc"},"vehicle_type_id":"4","last_reported":1751447626,"current_range_meters":400,"station_id":"ce4bhq12rcd13ifvqhig","pricing_plan_id":"cebpf4jnsgd1na2vs0mg"},{"bike_id":"2b79eac2-8d7f-455a-ab7b-57d1965acf5f","system_id":"levelo_inurba_marseille","lat":43.32014,"lon":5.38137,"is_reserved":false,"is_disabled":true,"rental_uris":{"android":"levelo://app?vid=2b79eac2-8d7f-455a-ab7b-57d1965acf5f","ios":"levelo://app?vid=2b79eac2-8d7f-455a-ab7b-57d1965acf5f"},"vehicle_type_id":"4","last_reported":1751447626,"current_range_meters":400,"station_id":"ce4bhr12rcd13ifvqhpg","pricing_plan_id":"cebpf4jnsgd1na2vs0mg"},{"bike_id":"81aac694-02b8-489f-840b-1831a4aaac87","system_id":"levelo_inurba_marseille","lat":43.2953,"lon":5.38544,"is_reserved":false,"is_disabled":true,"rental_uris":{"android":"levelo://app?vid=81aac694-02b8-489f-840b-1831a4aaac87","ios":"levelo://app?vid=81aac694-02b8-489f-840b-1831a4aaac87"},"vehicle_type_id":"4","last_reported":1751447626,"current_range_meters":800,"station_id":"ce4bgih2rcd13ifvqba0","pricing_plan_id":"cebpf4jnsgd1na2vs0mg"},{"bike_id":"083e00bc-1317-4b70-aa97-63eacb2d59ec","system_id":"levelo_inurba_marseille","lat":43.297202,"lon":5.376932,"is_reserved":false,"is_disabled":true,"rental_uris":{"android":"levelo://app?vid=083e00bc-1317-4b70-aa97-63eacb2d59ec","ios":"levelo://app?vid=083e00bc-1317-4b70-aa97-63eacb2d59ec"},"vehicle_type_id":"4","last_reported":1751447626,"current_range_meters":800,"station_id":"ce4bgkh2rcd13ifvqbl0","pricing_plan_id":"cebpf4jnsgd1na2vs0mg"},{"bike_id":"513c5f71-34a8-4a84-abd0-175c6579afc2","system_id":"levelo_inurba_marseille","lat":43.2872,"lon":5.37939,"is_reserved":false,"is_disabled":true,"rental_uris":{"android":"levelo://app?vid=513c5f71-34a8-4a84-abd0-175c6579afc2","ios":"levelo://app?vid=513c5f71-34a8-4a84-abd0-175c6579afc2"},"vehicle_type_id":"4","last_reported":1751447626,"current_range_meters":1200,"station_id":"ce4bh9p2rcd13ifvqec0","pricing_plan_id":"cebpf4jnsgd1na2vs0mg"},{"bike_id":"162af4e6-d224-4240-aeac-6cb0ae06de53","system_id":"levelo_inurba_marseille","lat":43.29915,"lon":5.37817,"is_reserved":false,"is_disabled":true,"rental_uris":{"android":"levelo://app?vid=162af4e6-d224-4240-aeac-6cb0ae06de53","ios":"levelo://app?vid=162af4e6-d224-4240-aeac-6cb0ae06de53"},"vehicle_type_id":"4","last_reported":1751447626,"current_range_meters":1600,"station_id":"","pricing_plan_id":"cebpf4jnsgd1na2vs0mg"},{"bike_id":"238ef741-607d-4f3a-b7e0-9fa652927691","system_id":"levelo_inurba_marseille","lat":43.23189,"lon":5.39981,"is_reserved":false,"is_disabled":true,"rental_uris":{"android":"levelo://app?vid=238ef741-607d-4f3a-b7e0-9fa652927691","ios":"levelo://app?vid=238ef741-607d-4f3a-b7e0-9fa652927691"},"vehicle_type_id":"4","last_reported":1751447626,"current_range_meters":1600,"station_id":"ce4bhn12rcd13ifvqgqg","pricing_plan_id":"cebpf4jnsgd1na2vs0mg"},{"bike_id":"d54d20e4-11f0-4db8-825e-01cd594caa7e","system_id":"levelo_inurba_marseille","lat":43.21746,"lon":5.34593,"is_reserved":false,"is_disabled":true,"rental_uris":{"android":"levelo://app?vid=d54d20e4-11f0-4db8-825e-01cd594caa7e","ios":"levelo://app?vid=d54d20e4-11f0-4db8-825e-01cd594caa7e"},"vehicle_type_id":"4","last_reported":1751447626,"current_range_meters":1600,"station_id":"st_cvj6r9ubvosntc0bgbag","pricing_plan_id":"cebpf4jnsgd1na2vs0mg"},{"bike_id":"21e2c51d-4563-4efd-afbf-0ddeff93c862","system_id":"levelo_inurba_marseille","lat":43.21757,"lon":5.34597,"is_reserved":false,"is_disabled":false,"rental_uris":{"android":"levelo://app?vid=21e2c51d-4563-4efd-afbf-0ddeff93c862","ios":"levelo://app?vid=21e2c51d-4563-4efd-afbf-0ddeff93c862"},"vehicle_type_id":"4","last_reported":1751447626,"current_range_meters":2800,"station_id":"st_cvj6r9ubvosntc0bgbag","pricing_plan_id":"cebpf4jnsgd1na2vs0mg"},{"bike_id":"13624bb3-72a8-4556-9dfe-f9b87c8c465f","system_id":"levelo_inurba_marseille","lat":43.28714,"lon":5.38918,"is_reserved":false,"is_disabled":false,"rental_uris":{"android":"levelo://app?vid=13624bb3-72a8-4556-9dfe-f9b87c8c465f","ios":"levelo://app?vid=13624bb3-72a8-4556-9dfe-f9b87c8c465f"},"vehicle_type_id":"4","last_reported":1751447626,"current_range_meters":3200,"station_id":"","pricing_plan_id":"cebpf4jnsgd1na2vs0mg"},{"bike_id":"a2017121-8342-439c-9853-789b6ff0806f","system_id":"levelo_inurba_marseille","lat":43.2119,"lon":5.35058,"is_reserved":false,"is_disabled":false,"rental_uris":{"android":"levelo://app?vid=a2017121-8342-439c-9853-789b6ff0806f","ios":"levelo://app?vid=a2017121-8342-439c-9853-789b6ff0806f"},"vehicle_type_id":"4","last_reported":1751447626,"current_range_meters":3200,"station_id":"st_cvj6sg6p6f1abm77japg","pricing_plan_id":"cebpf4jnsgd1na2vs0mg"},{"bike_id":"020dbb93-80cf-4aea-a1af-23f7777cd800","system_id":"levelo_inurba_marseille","lat":43.28366,"lon":5.38101,"is_reserved":false,"is_disabled":false,"rental_uris":{"android":"levelo://app?vid=020dbb93-80cf-4aea-a1af-23f7777cd800","ios":"levelo://app?vid=020dbb93-80cf-4aea-a1af-23f7777cd800"},"vehicle_type_id":"4","last_reported":1751447626,"current_range_meters":3600,"station_id":"ce4bh412rcd13ifvqdr0","pricing_plan_id":"cebpf4jnsgd1na2vs0mg"},{"bike_id":"cec2516a-0ca8-4930-b9da-8f4ea05491b3","system_id":"levelo_inurba_marseille","lat":43.28276,"lon":5.35064,"is_reserved":false,"is_disabled":false,"rental_uris":{"android":"levelo://app?vid=cec2516a-0ca8-4930-b9da-8f4ea05491b3","ios":"levelo://app?vid=cec2516a-0ca8-4930-b9da-8f4ea05491b3"},"vehicle_type_id":"4","last_reported":1751447626,"current_range_meters":4000,"station_id":"ce4bhbp2rcd13ifvqerg","pricing_plan_id":"cebpf4jnsgd1na2vs0mg"},{"bike_id":"97533356-3f8f-476a-a521-deac6548f954","system_id":"levelo_inurba_marseille","lat":43.293058,"lon":5.374491,"is_reserved":false,"is_disabled":false,"rental_uris":{"android":"levelo://app?vid=97533356-3f8f-476a-a521-deac6548f954","ios":"levelo://app?vid=97533356-3f8f-476a-a521-deac6548f954"},"vehicle_type_id":"4","last_reported":1751447626,"current_range_meters":4400,"station_id":"ce4bgi12rcd13ifvqb70","pricing_plan_id":"cebpf4jnsgd1na2vs0mg"},{"bike_id":"1a7bd66e-b729-468e-9731-6800639d29ec","system_id":"levelo_inurba_marseille","lat":43.25939,"lon":5.40894,"is_reserved":false,"is_disabled":false,"rental_uris":{"android":"levelo://app?vid=1a7bd66e-b729-468e-9731-6800639d29ec","ios":"levelo://app?vid=1a7bd66e-b729-468e-9731-6800639d29ec"},"vehicle_type_id":"4","last_reported":1751447626,"current_range_meters":4800,"station_id":"ce4bhm92rcd13ifvqglg","pricing_plan_id":"cebpf4jnsgd1na2vs0mg"},{"bike_id":"e9497a27-6e1d-4fe1-b21d-2c97e21c8559","system_id":"levelo_inurba_marseille","lat":43.32072,"lon":5.41563,"is_reserved":false,"is_disabled":false,"rental_uris":{"android":"levelo://app?vid=e9497a27-6e1d-4fe1-b21d-2c97e21c8559","ios":"levelo://app?vid=e9497a27-6e1d-4fe1-b21d-2c97e21c8559"},"vehicle_type_id":"4","last_reported":1751447626,"current_range_meters":4800,"station_id":"ce4bhq92rcd13ifvqhkg","pricing_plan_id":"cebpf4jnsgd1na2vs0mg"},{"bike_id":"63b344e1-3471-4ff3-9099-c1100f5219e1","system_id":"levelo_inurba_marseille","lat":43.29624,"lon":5.37717,"is_reserved":false,"is_disabled":false,"rental_uris":{"android":"levelo://app?vid=63b344e1-3471-4ff3-9099-c1100f5219e1","ios":"levelo://app?vid=63b344e1-3471-4ff3-9099-c1100f5219e1"},"vehicle_type_id":"4","last_reported":1751447626,"current_range_meters":6000,"station_id":"ce4bgi92rcd13ifvqb90","pricing_plan_id":"cebpf4jnsgd1na2vs0mg"},{"bike_id":"8252b44a-d048-4379-9209-2efa2e627825","system_id":"levelo_inurba_marseille","lat":43.292256,"lon":5.405618,"is_reserved":false,"is_disabled":false,"rental_uris":{"android":"levelo://app?vid=8252b44a-d048-4379-9209-2efa2e627825","ios":"levelo://app?vid=8252b44a-d048-4379-9209-2efa2e627825"},"vehicle_type_id":"4","last_reported":1751447626,"current_range_meters":6400,"station_id":"","pricing_plan_id":"cebpf4jnsgd1na2vs0mg"},{"bike_id":"e3ff2741-2c53-4741-96b7-d2ff3c39c0e2","system_id":"levelo_inurba_marseille","lat":43.30773,"lon":5.37607,"is_reserved":false,"is_disabled":false,"rental_uris":{"android":"levelo://app?vid=e3ff2741-2c53-4741-96b7-d2ff3c39c0e2","ios":"levelo://app?vid=e3ff2741-2c53-4741-96b7-d2ff3c39c0e2"},"vehicle_type_id":"4","last_reported":1751447626,"current_range_meters":6400,"station_id":"ce4bgv92rcd13ifvqcq0","pricing_plan_id":"cebpf4jnsgd1na2vs0mg"},{"bike_id":"e10f8c65-dc6d-4061-b24e-b72ace6ed43b","system_id":"levelo_inurba_marseille","lat":43.31714,"lon":5.43704,"is_reserved":false,"is_disabled":false,"rental_uris":{"android":"levelo://app?vid=e10f8c65-dc6d-4061-b24e-b72ace6ed43b","ios":"levelo://app?vid=e10f8c65-dc6d-4061-b24e-b72ace6ed43b"},"vehicle_type_id":"4","last_reported":1751447626,"current_range_meters":6400,"station_id":"ce4bhp92rcd13ifvqhcg","pricing_plan_id":"cebpf4jnsgd1na2vs0mg"},{"bike_id":"8c7ab9d7-6623-422f-8a4c-79f620d0c337","system_id":"levelo_inurba_marseille","lat":43.31125,"lon":5.37768,"is_reserved":false,"is_disabled":false,"rental_uris":{"android":"levelo://app?vid=8c7ab9d7-6623-422f-8a4c-79f620d0c337","ios":"levelo://app?vid=8c7ab9d7-6623-422f-8a4c-79f620d0c337"},"vehicle_type_id":"4","last_reported":1751447626,"current_range_meters":6800,"station_id":"ce4bgt92rcd13ifvqcg0","pricing_plan_id":"cebpf4jnsgd1na2vs0mg"},{"bike_id":"27283166-6602-47b0-b7ac-ba0898231f7b","system_id":"levelo_inurba_marseille","lat":43.3376,"lon":5.37451,"is_reserved":false,"is_disabled":false,"rental_uris":{"android":"levelo://app?vid=27283166-6602-47b0-b7ac-ba0898231f7b","ios":"levelo://app?vid=27283166-6602-47b0-b7ac-ba0898231f7b"},"vehicle_type_id":"4","last_reported":1751447626,"current_range_meters":7200,"station_id":"","pricing_plan_id":"cebpf4jnsgd1na2vs0mg"},{"bike_id":"6d9829b3-0cbe-410d-adb2-38ce7eee1135","system_id":"levelo_inurba_marseille","lat":43.30303,"lon":5.39221,"is_reserved":false,"is_disabled":false,"rental_uris":{"android":"levelo://app?vid=6d9829b3-0cbe-410d-adb2-38ce7eee1135","ios":"levelo://app?vid=6d9829b3-0cbe-410d-adb2-38ce7eee1135"},"vehicle_type_id":"4","last_reported":1751447626,"current_range_meters":8000,"station_id":"ce4bgkh2rcd13ifvqbk0","pricing_plan_id":"cebpf4jnsgd1na2vs0mg"},{"bike_id":"483ba61c-e9d3-4100-9ca2-9f76b3853385","system_id":"levelo_inurba_marseille","lat":43.33595,"lon":5.41012,"is_reserved":false,"is_disabled":false,"rental_uris":{"android":"levelo://app?vid=483ba61c-e9d3-4100-9ca2-9f76b3853385","ios":"levelo://app?vid=483ba61c-e9d3-4100-9ca2-9f76b3853385"},"vehicle_type_id":"4","last_reported":1751447626,"current_range_meters":8000,"station_id":"ce4bhqh2rcd13ifvqhmg","pricing_plan_id":"cebpf4jnsgd1na2vs0mg"},{"bike_id":"2726f14f-8d32-4e17-9b3e-62cc809675e1","system_id":"levelo_inurba_marseille","lat":43.32108,"lon":5.367748,"is_reserved":false,"is_disabled":false,"rental_uris":{"android":"levelo://app?vid=2726f14f-8d32-4e17-9b3e-62cc809675e1","ios":"levelo://app?vid=2726f14f-8d32-4e17-9b3e-62cc809675e1"},"vehicle_type_id":"4","last_reported":1751447626,"current_range_meters":8400,"station_id":"ce4bhrh2rcd13ifvqhug","pricing_plan_id":"cebpf4jnsgd1na2vs0mg"},{"bike_id":"b2ec7371-4e1a-4f7b-ae6c-60c5a54c237b","system_id":"levelo_inurba_marseille","lat":43.21199,"lon":5.35069,"is_reserved":false,"is_disabled":false,"rental_uris":{"android":"levelo://app?vid=b2ec7371-4e1a-4f7b-ae6c-60c5a54c237b","ios":"levelo://app?vid=b2ec7371-4e1a-4f7b-ae6c-60c5a54c237b"},"vehicle_type_id":"4","last_reported":1751447626,"current_range_meters":8400,"station_id":"st_cvj6sg6p6f1abm77japg","pricing_plan_id":"cebpf4jnsgd1na2vs0mg"},{"bike_id":"649c9944-eeea-4752-80b8-f8850fe76f12","system_id":"levelo_inurba_marseille","lat":43.30464,"lon":5.37899,"is_reserved":false,"is_disabled":false,"rental_uris":{"android":"levelo://app?vid=649c9944-eeea-4752-80b8-f8850fe76f12","ios":"levelo://app?vid=649c9944-eeea-4752-80b8-f8850fe76f12"},"vehicle_type_id":"4","last_reported":1751447626,"current_range_meters":8800,"station_id":"ce4bgup2rcd13ifvqcn0","pricing_plan_id":"cebpf4jnsgd1na2vs0mg"},{"bike_id":"86bc87d1-cf0e-4403-a81a-dd1a662cd80b","system_id":"levelo_inurba_marseille","lat":43.284825,"lon":5.385668,"is_reserved":false,"is_disabled":false,"rental_uris":{"android":"levelo://app?vid=86bc87d1-cf0e-4403-a81a-dd1a662cd80b","ios":"levelo://app?vid=86bc87d1-cf0e-4403-a81a-dd1a662cd80b"},"vehicle_type_id":"4","last_reported":1751447626,"current_range_meters":8800,"station_id":"ce4bh8p2rcd13ifvqeb0","pricing_plan_id":"cebpf4jnsgd1na2vs0mg"},{"bike_id":"a5b098f2-1248-4c05-94c4-ab06241751c4","system_id":"levelo_inurba_marseille","lat":43.25924,"lon":5.40907,"is_reserved":false,"is_disabled":false,"rental_uris":{"android":"levelo://app?vid=a5b098f2-1248-4c05-94c4-ab06241751c4","ios":"levelo://app?vid=a5b098f2-1248-4c05-94c4-ab06241751c4"},"vehicle_type_id":"4","last_reported":1751447626,"current_range_meters":8800,"station_id":"ce4bhm92rcd13ifvqglg","pricing_plan_id":"cebpf4jnsgd1na2vs0mg"},{"bike_id":"b28aa0a0-791c-4a08-9a16-c7bf6ea0ed5a","system_id":"levelo_inurba_marseille","lat":43.225012,"lon":5.347799,"is_reserved":false,"is_disabled":false,"rental_uris":{"android":"levelo://app?vid=b28aa0a0-791c-4a08-9a16-c7bf6ea0ed5a","ios":"levelo://app?vid=b28aa0a0-791c-4a08-9a16-c7bf6ea0ed5a"},"vehicle_type_id":"4","last_reported":1751447626,"current_range_meters":8800,"station_id":"st_cvj5dfep6f1abm77gieg","pricing_plan_id":"cebpf4jnsgd1na2vs0mg"},{"bike_id":"c2b72fe0-bae6-4c7b-ad48-9e771b203dc8","system_id":"levelo_inurba_marseille","lat":43.313594,"lon":5.384509,"is_reserved":false,"is_disabled":false,"rental_uris":{"android":"levelo://app?vid=c2b72fe0-bae6-4c7b-ad48-9e771b203dc8","ios":"levelo://app?vid=c2b72fe0-bae6-4c7b-ad48-9e771b203dc8"},"vehicle_type_id":"4","last_reported":1751447626,"current_range_meters":9200,"station_id":"ce4bgt92rcd13ifvqcf0","pricing_plan_id":"cebpf4jnsgd1na2vs0mg"},{"bike_id":"3f51ceec-447c-4a8a-af78-5029e9c36989","system_id":"levelo_inurba_marseille","lat":43.30879,"lon":5.37194,"is_reserved":false,"is_disabled":false,"rental_uris":{"android":"levelo://app?vid=3f51ceec-447c-4a8a-af78-5029e9c36989","ios":"levelo://app?vid=3f51ceec-447c-4a8a-af78-5029e9c36989"},"vehicle_type_id":"4","last_reported":1751447626,"current_range_meters":9200,"station_id":"ce4bguh2rcd13ifvqckg","pricing_plan_id":"cebpf4jnsgd1na2vs0mg"},{"bike_id":"e8d7fcf5-14a0-430b-a247-ddceafd06b95","system_id":"levelo_inurba_marseille","lat":43.225043,"lon":5.347864,"is_reserved":false,"is_disabled":false,"rental_uris":{"android":"levelo://app?vid=e8d7fcf5-14a0-430b-a247-ddceafd06b95","ios":"levelo://app?vid=e8d7fcf5-14a0-430b-a247-ddceafd06b95"},"vehicle_type_id":"4","last_reported":1751447626,"current_range_meters":9200,"station_id":"st_cvj5dfep6f1abm77gieg","pricing_plan_id":"cebpf4jnsgd1na2vs0mg"},{"bike_id":"8f10a9ab-b2d1-48a1-84c5-75424f1b18f7","system_id":"levelo_inurba_marseille","lat":43.211889,"lon":5.350733,"is_reserved":false,"is_disabled":false,"rental_uris":{"android":"levelo://app?vid=8f10a9ab-b2d1-48a1-84c5-75424f1b18f7","ios":"levelo://app?vid=8f10a9ab-b2d1-48a1-84c5-75424f1b18f7"},"vehicle_type_id":"4","last_reported":1751447626,"current_range_meters":9200,"station_id":"st_cvj6sg6p6f1abm77japg","pricing_plan_id":"cebpf4jnsgd1na2vs0mg"},{"bike_id":"a4c87940-19c9-4db1-bf1c-99d8c94cd6bd","system_id":"levelo_inurba_marseille","lat":43.29374,"lon":5.37822,"is_reserved":false,"is_disabled":false,"rental_uris":{"android":"levelo://app?vid=a4c87940-19c9-4db1-bf1c-99d8c94cd6bd","ios":"levelo://app?vid=a4c87940-19c9-4db1-bf1c-99d8c94cd6bd"},"vehicle_type_id":"4","last_reported":1751447626,"current_range_meters":9600,"station_id":"ce4bgjh2rcd13ifvqbf0","pricing_plan_id":"cebpf4jnsgd1na2vs0mg"},{"bike_id":"0412bffd-b2a6-4d05-90e2-7d5656422088","system_id":"levelo_inurba_marseille","lat":43.28501,"lon":5.38416,"is_reserved":false,"is_disabled":false,"rental_uris":{"android":"levelo://app?vid=0412bffd-b2a6-4d05-90e2-7d5656422088","ios":"levelo://app?vid=0412bffd-b2a6-4d05-90e2-7d5656422088"},"vehicle_type_id":"4","last_reported":1751447626,"current_range_meters":9600,"station_id":"ce4bh512rcd13ifvqe3g","pricing_plan_id":"cebpf4jnsgd1na2vs0mg"},{"bike_id":"4539862f-de03-4529-b396-d5edf8009073","system_id":"levelo_inurba_marseille","lat":43.25821,"lon":5.39433,"is_reserved":false,"is_disabled":false,"rental_uris":{"android":"levelo://app?vid=4539862f-de03-4529-b396-d5edf8009073","ios":"levelo://app?vid=4539862f-de03-4529-b396-d5edf8009073"},"vehicle_type_id":"4","last_reported":1751447626,"current_range_meters":9600,"station_id":"ce4bhip2rcd13ifvqft0","pricing_plan_id":"cebpf4jnsgd1na2vs0mg"},{"bike_id":"b17fc6fb-d31b-4c72-91dd-f8e10ff9036a","system_id":"levelo_inurba_marseille","lat":43.32449,"lon":5.36602,"is_reserved":false,"is_disabled":false,"rental_uris":{"android":"levelo://app?vid=b17fc6fb-d31b-4c72-91dd-f8e10ff9036a","ios":"levelo://app?vid=b17fc6fb-d31b-4c72-91dd-f8e10ff9036a"},"vehicle_type_id":"4","last_reported":1751447626,"current_range_meters":9600,"station_id":"ce4bhs12rcd13ifvqhvg","pricing_plan_id":"cebpf4jnsgd1na2vs0mg"},{"bike_id":"34ef8d19-abd3-418b-af23-9942dadb071a","system_id":"levelo_inurba_marseille","lat":43.211955,"lon":5.350658,"is_reserved":false,"is_disabled":false,"rental_uris":{"android":"levelo://app?vid=34ef8d19-abd3-418b-af23-9942dadb071a","ios":"levelo://app?vid=34ef8d19-abd3-418b-af23-9942dadb071a"},"vehicle_type_id":"4","last_reported":1751447626,"current_range_meters":9600,"station_id":"st_cvj6sg6p6f1abm77japg","pricing_plan_id":"cebpf4jnsgd1na2vs0mg"},{"bike_id":"c61036a9-1a66-4480-8bd4-cd2fb585b287","system_id":"levelo_inurba_marseille","lat":43.27005,"lon":5.40531,"is_reserved":false,"is_disabled":false,"rental_uris":{"android":"levelo://app?vid=c61036a9-1a66-4480-8bd4-cd2fb585b287","ios":"levelo://app?vid=c61036a9-1a66-4480-8bd4-cd2fb585b287"},"vehicle_type_id":"4","last_reported":1751447626,"current_range_meters":10800,"station_id":"","pricing_plan_id":"cebpf4jnsgd1na2vs0mg"},{"bike_id":"63e48e06-b91f-4043-a5fb-572d5a600b5e","system_id":"levelo_inurba_marseille","lat":43.309561,"lon":5.390342,"is_reserved":false,"is_disabled":false,"rental_uris":{"android":"levelo://app?vid=63e48e06-b91f-4043-a5fb-572d5a600b5e","ios":"levelo://app?vid=63e48e06-b91f-4043-a5fb-572d5a600b5e"},"vehicle_type_id":"4","last_reported":1751447626,"current_range_meters":10800,"station_id":"ce4bgup2rcd13ifvqco0","pricing_plan_id":"cebpf4jnsgd1na2vs0mg"},{"bike_id":"a0ffdf28-d659-45dc-b870-b2d591eeef83","system_id":"levelo_inurba_marseille","lat":43.25724,"lon":5.41103,"is_reserved":false,"is_disabled":false,"rental_uris":{"android":"levelo://app?vid=a0ffdf28-d659-45dc-b870-b2d591eeef83","ios":"levelo://app?vid=a0ffdf28-d659-45dc-b870-b2d591eeef83"},"vehicle_type_id":"4","last_reported":1751447626,"current_range_meters":10800,"station_id":"ce4bhkp2rcd13ifvqgd0","pricing_plan_id":"cebpf4jnsgd1na2vs0mg"},{"bike_id":"ddf528b1-4427-4205-b74c-58daba4bcb9d","system_id":"levelo_inurba_marseille","lat":43.32549,"lon":5.4148,"is_reserved":false,"is_disabled":false,"rental_uris":{"android":"levelo://app?vid=ddf528b1-4427-4205-b74c-58daba4bcb9d","ios":"levelo://app?vid=ddf528b1-4427-4205-b74c-58daba4bcb9d"},"vehicle_type_id":"4","last_reported":1751447626,"current_range_meters":10800,"station_id":"ce4bhq12rcd13ifvqhhg","pricing_plan_id":"cebpf4jnsgd1na2vs0mg"},{"bike_id":"86c8e1a5-b5c2-42b1-99f8-14e6e2096d9b","system_id":"levelo_inurba_marseille","lat":43.3137,"lon":5.36721,"is_reserved":false,"is_disabled":false,"rental_uris":{"android":"levelo://app?vid=86c8e1a5-b5c2-42b1-99f8-14e6e2096d9b","ios":"levelo://app?vid=86c8e1a5-b5c2-42b1-99f8-14e6e2096d9b"},"vehicle_type_id":"4","last_reported":1751447626,"current_range_meters":11200,"station_id":"ce4bgr92rcd13ifvqc6g","pricing_plan_id":"cebpf4jnsgd1na2vs0mg"},{"bike_id":"ea941b66-9d02-4afa-b7b4-eed1b5f90138","system_id":"levelo_inurba_marseille","lat":43.29798,"lon":5.40393,"is_reserved":false,"is_disabled":false,"rental_uris":{"android":"levelo://app?vid=ea941b66-9d02-4afa-b7b4-eed1b5f90138","ios":"levelo://app?vid=ea941b66-9d02-4afa-b7b4-eed1b5f90138"},"vehicle_type_id":"4","last_reported":1751447626,"current_range_meters":11200,"station_id":"ce4bh112rcd13ifvqd90","pricing_plan_id":"cebpf4jnsgd1na2vs0mg"},{"bike_id":"f5a5cbfc-bb71-46a3-8125-b7e4e529edb2","system_id":"levelo_inurba_marseille","lat":43.27379,"lon":5.36261,"is_reserved":false,"is_disabled":false,"rental_uris":{"android":"levelo://app?vid=f5a5cbfc-bb71-46a3-8125-b7e4e529edb2","ios":"levelo://app?vid=f5a5cbfc-bb71-46a3-8125-b7e4e529edb2"},"vehicle_type_id":"4","last_reported":1751447626,"current_range_meters":11200,"station_id":"ce4bhbh2rcd13ifvqeo0","pricing_plan_id":"cebpf4jnsgd1na2vs0mg"},{"bike_id":"7fe4de49-0fed-4c3e-b77c-3305ebed1a68","system_id":"levelo_inurba_marseille","lat":43.31692,"lon":5.40467,"is_reserved":false,"is_disabled":false,"rental_uris":{"android":"levelo://app?vid=7fe4de49-0fed-4c3e-b77c-3305ebed1a68","ios":"levelo://app?vid=7fe4de49-0fed-4c3e-b77c-3305ebed1a68"},"vehicle_type_id":"4","last_reported":1751447626,"current_range_meters":11600,"station_id":"ce4bh012rcd13ifvqd00","pricing_plan_id":"cebpf4jnsgd1na2vs0mg"},{"bike_id":"86fa6ce7-8cbe-47ff-b5d3-c2b4938fd05c","system_id":"levelo_inurba_marseille","lat":43.21198,"lon":5.35066,"is_reserved":false,"is_disabled":false,"rental_uris":{"android":"levelo://app?vid=86fa6ce7-8cbe-47ff-b5d3-c2b4938fd05c","ios":"levelo://app?vid=86fa6ce7-8cbe-47ff-b5d3-c2b4938fd05c"},"vehicle_type_id":"4","last_reported":1751447626,"current_range_meters":11600,"station_id":"st_cvj6sg6p6f1abm77japg","pricing_plan_id":"cebpf4jnsgd1na2vs0mg"},{"bike_id":"282852d0-af67-46a4-a478-b04fb0fa04a4","system_id":"levelo_inurba_marseille","lat":43.31351,"lon":5.36773,"is_reserved":false,"is_disabled":false,"rental_uris":{"android":"levelo://app?vid=282852d0-af67-46a4-a478-b04fb0fa04a4","ios":"levelo://app?vid=282852d0-af67-46a4-a478-b04fb0fa04a4"},"vehicle_type_id":"4","last_reported":1751447626,"current_range_meters":12000,"station_id":"","pricing_plan_id":"cebpf4jnsgd1na2vs0mg"},{"bike_id":"a9154496-5a6f-421b-9a90-a7c8afda9b21","system_id":"levelo_inurba_marseille","lat":43.30806,"lon":5.3816,"is_reserved":false,"is_disabled":false,"rental_uris":{"android":"levelo://app?vid=a9154496-5a6f-421b-9a90-a7c8afda9b21","ios":"levelo://app?vid=a9154496-5a6f-421b-9a90-a7c8afda9b21"},"vehicle_type_id":"4","last_reported":1751447626,"current_range_meters":12000,"station_id":"ce4bgt12rcd13ifvqce0","pricing_plan_id":"cebpf4jnsgd1na2vs0mg"},{"bike_id":"7b5b79bc-d53f-4711-a2d9-9d1599958f27","system_id":"levelo_inurba_marseille","lat":43.27374,"lon":5.36254,"is_reserved":false,"is_disabled":false,"rental_uris":{"android":"levelo://app?vid=7b5b79bc-d53f-4711-a2d9-9d1599958f27","ios":"levelo://app?vid=7b5b79bc-d53f-4711-a2d9-9d1599958f27"},"vehicle_type_id":"4","last_reported":1751447626,"current_range_meters":12000,"station_id":"ce4bhbh2rcd13ifvqeo0","pricing_plan_id":"cebpf4jnsgd1na2vs0mg"},{"bike_id":"617abdb6-0a3b-41f0-8138-2b6bd92183fe","system_id":"levelo_inurba_marseille","lat":43.25949,"lon":5.40887,"is_reserved":false,"is_disabled":false,"rental_uris":{"android":"levelo://app?vid=617abdb6-0a3b-41f0-8138-2b6bd92183fe","ios":"levelo://app?vid=617abdb6-0a3b-41f0-8138-2b6bd92183fe"},"vehicle_type_id":"4","last_reported":1751447626,"current_range_meters":12000,"station_id":"ce4bhm92rcd13ifvqglg","pricing_plan_id":"cebpf4jnsgd1na2vs0mg"},{"bike_id":"5ea1dd93-3c49-4f8f-bb7f-00d3c982b0ae","system_id":"levelo_inurba_marseille","lat":43.229301,"lon":5.353648,"is_reserved":false,"is_disabled":false,"rental_uris":{"android":"levelo://app?vid=5ea1dd93-3c49-4f8f-bb7f-00d3c982b0ae","ios":"levelo://app?vid=5ea1dd93-3c49-4f8f-bb7f-00d3c982b0ae"},"vehicle_type_id":"4","last_reported":1751447626,"current_range_meters":12000,"station_id":"cpo3532slgdg3j2ikp40","pricing_plan_id":"cebpf4jnsgd1na2vs0mg"},{"bike_id":"bf9a42f0-3236-41b2-aead-463e94f79ff6","system_id":"levelo_inurba_marseille","lat":43.23293,"lon":5.35406,"is_reserved":false,"is_disabled":false,"rental_uris":{"android":"levelo://app?vid=bf9a42f0-3236-41b2-aead-463e94f79ff6","ios":"levelo://app?vid=bf9a42f0-3236-41b2-aead-463e94f79ff6"},"vehicle_type_id":"4","last_reported":1751447626,"current_range_meters":12400,"station_id":"","pricing_plan_id":"cebpf4jnsgd1na2vs0mg"},{"bike_id":"c176876a-4a9d-4955-8b4b-ef400edf6f01","system_id":"levelo_inurba_marseille","lat":43.27321,"lon":5.39088,"is_reserved":false,"is_disabled":false,"rental_uris":{"android":"levelo://app?vid=c176876a-4a9d-4955-8b4b-ef400edf6f01","ios":"levelo://app?vid=c176876a-4a9d-4955-8b4b-ef400edf6f01"},"vehicle_type_id":"4","last_reported":1751447626,"current_range_meters":12400,"station_id":"ce4bhgp2rcd13ifvqfe0","pricing_plan_id":"cebpf4jnsgd1na2vs0mg"},{"bike_id":"295e24d6-0cf4-40e8-94ca-c831c6afcd19","system_id":"levelo_inurba_marseille","lat":43.27208,"lon":5.39179,"is_reserved":false,"is_disabled":false,"rental_uris":{"android":"levelo://app?vid=295e24d6-0cf4-40e8-94ca-c831c6afcd19","ios":"levelo://app?vid=295e24d6-0cf4-40e8-94ca-c831c6afcd19"},"vehicle_type_id":"4","last_reported":1751447626,"current_range_meters":12400,"station_id":"ce4bhhp2rcd13ifvqfm0","pricing_plan_id":"cebpf4jnsgd1na2vs0mg"},{"bike_id":"b91f0c35-1074-4055-9ea4-8bce700995fc","system_id":"levelo_inurba_marseille","lat":43.25932,"lon":5.40907,"is_reserved":false,"is_disabled":false,"rental_uris":{"android":"levelo://app?vid=b91f0c35-1074-4055-9ea4-8bce700995fc","ios":"levelo://app?vid=b91f0c35-1074-4055-9ea4-8bce700995fc"},"vehicle_type_id":"4","last_reported":1751447626,"current_range_meters":12400,"station_id":"ce4bhm92rcd13ifvqglg","pricing_plan_id":"cebpf4jnsgd1na2vs0mg"},{"bike_id":"4810f33f-d5e0-4478-89ab-5e50f6676b57","system_id":"levelo_inurba_marseille","lat":43.25731,"lon":5.41099,"is_reserved":false,"is_disabled":false,"rental_uris":{"android":"levelo://app?vid=4810f33f-d5e0-4478-89ab-5e50f6676b57","ios":"levelo://app?vid=4810f33f-d5e0-4478-89ab-5e50f6676b57"},"vehicle_type_id":"4","last_reported":1751447626,"current_range_meters":12800,"station_id":"ce4bhkp2rcd13ifvqgd0","pricing_plan_id":"cebpf4jnsgd1na2vs0mg"},{"bike_id":"7c65c4b3-f4fa-4b54-8076-2af6b2629340","system_id":"levelo_inurba_marseille","lat":43.25897,"lon":5.409,"is_reserved":false,"is_disabled":false,"rental_uris":{"android":"levelo://app?vid=7c65c4b3-f4fa-4b54-8076-2af6b2629340","ios":"levelo://app?vid=7c65c4b3-f4fa-4b54-8076-2af6b2629340"},"vehicle_type_id":"4","last_reported":1751447626,"current_range_meters":12800,"station_id":"ce4bhm92rcd13ifvqglg","pricing_plan_id":"cebpf4jnsgd1na2vs0mg"},{"bike_id":"0c1b4f74-5294-4b59-932d-b742ce647d9e","system_id":"levelo_inurba_marseille","lat":43.21191,"lon":5.350759,"is_reserved":false,"is_disabled":false,"rental_uris":{"android":"levelo://app?vid=0c1b4f74-5294-4b59-932d-b742ce647d9e","ios":"levelo://app?vid=0c1b4f74-5294-4b59-932d-b742ce647d9e"},"vehicle_type_id":"4","last_reported":1751447626,"current_range_meters":12800,"station_id":"st_cvj6sg6p6f1abm77japg","pricing_plan_id":"cebpf4jnsgd1na2vs0mg"},{"bike_id":"8a74f5cd-9efa-4362-bea7-a32db4dcc85c","system_id":"levelo_inurba_marseille","lat":43.21194,"lon":5.35062,"is_reserved":false,"is_disabled":false,"rental_uris":{"android":"levelo://app?vid=8a74f5cd-9efa-4362-bea7-a32db4dcc85c","ios":"levelo://app?vid=8a74f5cd-9efa-4362-bea7-a32db4dcc85c"},"vehicle_type_id":"4","last_reported":1751447626,"current_range_meters":12800,"station_id":"st_cvj6sg6p6f1abm77japg","pricing_plan_id":"cebpf4jnsgd1na2vs0mg"},{"bike_id":"f40ba1e0-17fd-40c6-9d0c-d7eba8bdb3b1","system_id":"levelo_inurba_marseille","lat":43.29709,"lon":5.37699,"is_reserved":false,"is_disabled":false,"rental_uris":{"android":"levelo://app?vid=f40ba1e0-17fd-40c6-9d0c-d7eba8bdb3b1","ios":"levelo://app?vid=f40ba1e0-17fd-40c6-9d0c-d7eba8bdb3b1"},"vehicle_type_id":"4","last_reported":1751447626,"current_range_meters":13600,"station_id":"ce4bgkh2rcd13ifvqbl0","pricing_plan_id":"cebpf4jnsgd1na2vs0mg"},{"bike_id":"7c54c7ee-11df-48dc-ae40-fbf500f63382","system_id":"levelo_inurba_marseille","lat":43.2923,"lon":5.36061,"is_reserved":false,"is_disabled":false,"rental_uris":{"android":"levelo://app?vid=7c54c7ee-11df-48dc-ae40-fbf500f63382","ios":"levelo://app?vid=7c54c7ee-11df-48dc-ae40-fbf500f63382"},"vehicle_type_id":"4","last_reported":1751447626,"current_range_meters":13600,"station_id":"ce4bhbh2rcd13ifvqeqg","pricing_plan_id":"cebpf4jnsgd1na2vs0mg"},{"bike_id":"38ee6243-2178-4cf3-9f21-a4abb7a49d9e","system_id":"levelo_inurba_marseille","lat":43.29573,"lon":5.3753,"is_reserved":false,"is_disabled":false,"rental_uris":{"android":"levelo://app?vid=38ee6243-2178-4cf3-9f21-a4abb7a49d9e","ios":"levelo://app?vid=38ee6243-2178-4cf3-9f21-a4abb7a49d9e"},"vehicle_type_id":"4","last_reported":1751447626,"current_range_meters":14000,"station_id":"ce4bgh92rcd13ifvqb50","pricing_plan_id":"cebpf4jnsgd1na2vs0mg"},{"bike_id":"a0f5d7dc-2b79-4c1f-931d-eeafeae0ba6f","system_id":"levelo_inurba_marseille","lat":43.26561,"lon":5.37285,"is_reserved":false,"is_disabled":false,"rental_uris":{"android":"levelo://app?vid=a0f5d7dc-2b79-4c1f-931d-eeafeae0ba6f","ios":"levelo://app?vid=a0f5d7dc-2b79-4c1f-931d-eeafeae0ba6f"},"vehicle_type_id":"4","last_reported":1751447626,"current_range_meters":14000,"station_id":"ce4bhg12rcd13ifvqf70","pricing_plan_id":"cebpf4jnsgd1na2vs0mg"},{"bike_id":"c2cc3873-3136-4ba7-984d-6514f2a6bcc2","system_id":"levelo_inurba_marseille","lat":43.26692,"lon":5.3827,"is_reserved":false,"is_disabled":false,"rental_uris":{"android":"levelo://app?vid=c2cc3873-3136-4ba7-984d-6514f2a6bcc2","ios":"levelo://app?vid=c2cc3873-3136-4ba7-984d-6514f2a6bcc2"},"vehicle_type_id":"4","last_reported":1751447626,"current_range_meters":14000,"station_id":"ce4bhg92rcd13ifvqf90","pricing_plan_id":"cebpf4jnsgd1na2vs0mg"},{"bike_id":"77e652d2-27e3-4b7e-8763-af4a4bbd0999","system_id":"levelo_inurba_marseille","lat":43.26211,"lon":5.37438,"is_reserved":false,"is_disabled":false,"rental_uris":{"android":"levelo://app?vid=77e652d2-27e3-4b7e-8763-af4a4bbd0999","ios":"levelo://app?vid=77e652d2-27e3-4b7e-8763-af4a4bbd0999"},"vehicle_type_id":"4","last_reported":1751447626,"current_range_meters":14000,"station_id":"ce4bhgp2rcd13ifvqfc0","pricing_plan_id":"cebpf4jnsgd1na2vs0mg"},{"bike_id":"c899bdeb-e8c8-487d-a5a5-00dc09ddabfe","system_id":"levelo_inurba_marseille","lat":43.34147,"lon":5.40904,"is_reserved":false,"is_disabled":false,"rental_uris":{"android":"levelo://app?vid=c899bdeb-e8c8-487d-a5a5-00dc09ddabfe","ios":"levelo://app?vid=c899bdeb-e8c8-487d-a5a5-00dc09ddabfe"},"vehicle_type_id":"4","last_reported":1751447626,"current_range_meters":14000,"station_id":"ce4bhqh2rcd13ifvqhlg","pricing_plan_id":"cebpf4jnsgd1na2vs0mg"},{"bike_id":"ee0317a9-0b3d-4631-9294-b4dddc155611","system_id":"levelo_inurba_marseille","lat":43.32357,"lon":5.36746,"is_reserved":false,"is_disabled":false,"rental_uris":{"android":"levelo://app?vid=ee0317a9-0b3d-4631-9294-b4dddc155611","ios":"levelo://app?vid=ee0317a9-0b3d-4631-9294-b4dddc155611"},"vehicle_type_id":"4","last_reported":1751447626,"current_range_meters":14000,"station_id":"ce4bhsh2rcd13ifvqi2g","pricing_plan_id":"cebpf4jnsgd1na2vs0mg"},{"bike_id":"d16b9dec-c438-4000-91c8-6cda5b0545dc","system_id":"levelo_inurba_marseille","lat":43.24891,"lon":5.37515,"is_reserved":false,"is_disabled":false,"rental_uris":{"android":"levelo://app?vid=d16b9dec-c438-4000-91c8-6cda5b0545dc","ios":"levelo://app?vid=d16b9dec-c438-4000-91c8-6cda5b0545dc"},"vehicle_type_id":"4","last_reported":1751447626,"current_range_meters":14400,"station_id":"","pricing_plan_id":"cebpf4jnsgd1na2vs0mg"},{"bike_id":"a615a8e5-a679-472f-a522-5ae71d0a509e","system_id":"levelo_inurba_marseille","lat":43.29039,"lon":5.37569,"is_reserved":false,"is_disabled":false,"rental_uris":{"android":"levelo://app?vid=a615a8e5-a679-472f-a522-5ae71d0a509e","ios":"levelo://app?vid=a615a8e5-a679-472f-a522-5ae71d0a509e"},"vehicle_type_id":"4","last_reported":1751447626,"current_range_meters":14400,"station_id":"ce4bh692rcd13ifvqe90","pricing_plan_id":"cebpf4jnsgd1na2vs0mg"},{"bike_id":"5091ffd1-c699-4109-91a5-57ef3652efa9","system_id":"levelo_inurba_marseille","lat":43.27371,"lon":5.36249,"is_reserved":false,"is_disabled":false,"rental_uris":{"android":"levelo://app?vid=5091ffd1-c699-4109-91a5-57ef3652efa9","ios":"levelo://app?vid=5091ffd1-c699-4109-91a5-57ef3652efa9"},"vehicle_type_id":"4","last_reported":1751447626,"current_range_meters":14400,"station_id":"ce4bhbh2rcd13ifvqeo0","pricing_plan_id":"cebpf4jnsgd1na2vs0mg"},{"bike_id":"e837fa48-0ec9-4f80-87ee-0291cff35317","system_id":"levelo_inurba_marseille","lat":43.31711,"lon":5.43703,"is_reserved":false,"is_disabled":false,"rental_uris":{"android":"levelo://app?vid=e837fa48-0ec9-4f80-87ee-0291cff35317","ios":"levelo://app?vid=e837fa48-0ec9-4f80-87ee-0291cff35317"},"vehicle_type_id":"4","last_reported":1751447626,"current_range_meters":14400,"station_id":"ce4bhp92rcd13ifvqhcg","pricing_plan_id":"cebpf4jnsgd1na2vs0mg"},{"bike_id":"f00e3044-9bd1-48b5-b342-151af21b34fa","system_id":"levelo_inurba_marseille","lat":43.299891,"lon":5.374073,"is_reserved":false,"is_disabled":false,"rental_uris":{"android":"levelo://app?vid=f00e3044-9bd1-48b5-b342-151af21b34fa","ios":"levelo://app?vid=f00e3044-9bd1-48b5-b342-151af21b34fa"},"vehicle_type_id":"4","last_reported":1751447626,"current_range_meters":14800,"station_id":"","pricing_plan_id":"cebpf4jnsgd1na2vs0mg"},{"bike_id":"ff5aa8bb-415a-44da-a879-077a3c8245f5","system_id":"levelo_inurba_marseille","lat":43.30951,"lon":5.39034,"is_reserved":false,"is_disabled":false,"rental_uris":{"android":"levelo://app?vid=ff5aa8bb-415a-44da-a879-077a3c8245f5","ios":"levelo://app?vid=ff5aa8bb-415a-44da-a879-077a3c8245f5"},"vehicle_type_id":"4","last_reported":1751447626,"current_range_meters":14800,"station_id":"ce4bgup2rcd13ifvqco0","pricing_plan_id":"cebpf4jnsgd1na2vs0mg"},{"bike_id":"6c992314-cd9f-4571-9085-76039c8cb9c5","system_id":"levelo_inurba_marseille","lat":43.246139,"lon":5.389027,"is_reserved":false,"is_disabled":false,"rental_uris":{"android":"levelo://app?vid=6c992314-cd9f-4571-9085-76039c8cb9c5","ios":"levelo://app?vid=6c992314-cd9f-4571-9085-76039c8cb9c5"},"vehicle_type_id":"4","last_reported":1751447626,"current_range_meters":14800,"station_id":"cpo36qri1sfpv3e86is0","pricing_plan_id":"cebpf4jnsgd1na2vs0mg"},{"bike_id":"d0f90c24-dd03-411b-9731-55305f76b7c8","system_id":"levelo_inurba_marseille","lat":43.21193,"lon":5.35072,"is_reserved":false,"is_disabled":false,"rental_uris":{"android":"levelo://app?vid=d0f90c24-dd03-411b-9731-55305f76b7c8","ios":"levelo://app?vid=d0f90c24-dd03-411b-9731-55305f76b7c8"},"vehicle_type_id":"4","last_reported":1751447626,"current_range_meters":14800,"station_id":"st_cvj6sg6p6f1abm77japg","pricing_plan_id":"cebpf4jnsgd1na2vs0mg"},{"bike_id":"8e868cc4-faed-48eb-b836-3b1c261fdddc","system_id":"levelo_inurba_marseille","lat":43.31196,"lon":5.3683,"is_reserved":false,"is_disabled":false,"rental_uris":{"android":"levelo://app?vid=8e868cc4-faed-48eb-b836-3b1c261fdddc","ios":"levelo://app?vid=8e868cc4-faed-48eb-b836-3b1c261fdddc"},"vehicle_type_id":"4","last_reported":1751447626,"current_range_meters":15200,"station_id":"ce4bgl92rcd13ifvqbq0","pricing_plan_id":"cebpf4jnsgd1na2vs0mg"},{"bike_id":"e895fd8c-cc0a-4b16-b25f-1442b0afb049","system_id":"levelo_inurba_marseille","lat":43.29166,"lon":5.37162,"is_reserved":false,"is_disabled":false,"rental_uris":{"android":"levelo://app?vid=e895fd8c-cc0a-4b16-b25f-1442b0afb049","ios":"levelo://app?vid=e895fd8c-cc0a-4b16-b25f-1442b0afb049"},"vehicle_type_id":"4","last_reported":1751447626,"current_range_meters":15200,"station_id":"ce4bha92rcd13ifvqeh0","pricing_plan_id":"cebpf4jnsgd1na2vs0mg"},{"bike_id":"dbe6a7d8-6edc-4015-8658-f68eeb46a661","system_id":"levelo_inurba_marseille","lat":43.3358,"lon":5.39867,"is_reserved":false,"is_disabled":false,"rental_uris":{"android":"levelo://app?vid=dbe6a7d8-6edc-4015-8658-f68eeb46a661","ios":"levelo://app?vid=dbe6a7d8-6edc-4015-8658-f68eeb46a661"},"vehicle_type_id":"4","last_reported":1751447626,"current_range_meters":16000,"station_id":"","pricing_plan_id":"cebpf4jnsgd1na2vs0mg"},{"bike_id":"7e62b058-a7ed-4634-80f1-04d3de596de7","system_id":"levelo_inurba_marseille","lat":43.298471,"lon":5.36809,"is_reserved":false,"is_disabled":false,"rental_uris":{"android":"levelo://app?vid=7e62b058-a7ed-4634-80f1-04d3de596de7","ios":"levelo://app?vid=7e62b058-a7ed-4634-80f1-04d3de596de7"},"vehicle_type_id":"4","last_reported":1751447626,"current_range_meters":16000,"station_id":"","pricing_plan_id":"cebpf4jnsgd1na2vs0mg"},{"bike_id":"b6530d49-bdd1-4077-9dd5-293328581a17","system_id":"levelo_inurba_marseille","lat":43.28281,"lon":5.35063,"is_reserved":false,"is_disabled":false,"rental_uris":{"android":"levelo://app?vid=b6530d49-bdd1-4077-9dd5-293328581a17","ios":"levelo://app?vid=b6530d49-bdd1-4077-9dd5-293328581a17"},"vehicle_type_id":"4","last_reported":1751447626,"current_range_meters":16000,"station_id":"ce4bhbp2rcd13ifvqerg","pricing_plan_id":"cebpf4jnsgd1na2vs0mg"},{"bike_id":"787f40b1-0d42-445e-9952-38e165cf513d","system_id":"levelo_inurba_marseille","lat":43.24801,"lon":5.37444,"is_reserved":false,"is_disabled":false,"rental_uris":{"android":"levelo://app?vid=787f40b1-0d42-445e-9952-38e165cf513d","ios":"levelo://app?vid=787f40b1-0d42-445e-9952-38e165cf513d"},"vehicle_type_id":"4","last_reported":1751447626,"current_range_meters":16000,"station_id":"ce4bhgh2rcd13ifvqfb0","pricing_plan_id":"cebpf4jnsgd1na2vs0mg"},{"bike_id":"b6db9e3f-26b1-4030-aaa1-6ee95deb3e82","system_id":"levelo_inurba_marseille","lat":43.25009,"lon":5.38909,"is_reserved":false,"is_disabled":false,"rental_uris":{"android":"levelo://app?vid=b6db9e3f-26b1-4030-aaa1-6ee95deb3e82","ios":"levelo://app?vid=b6db9e3f-26b1-4030-aaa1-6ee95deb3e82"},"vehicle_type_id":"4","last_reported":1751447626,"current_range_meters":16000,"station_id":"ce4bhgp2rcd13ifvqfd0","pricing_plan_id":"cebpf4jnsgd1na2vs0mg"},{"bike_id":"d68dacc3-2ebb-4596-94df-9035662fd853","system_id":"levelo_inurba_marseille","lat":43.2571,"lon":5.41129,"is_reserved":false,"is_disabled":false,"rental_uris":{"android":"levelo://app?vid=d68dacc3-2ebb-4596-94df-9035662fd853","ios":"levelo://app?vid=d68dacc3-2ebb-4596-94df-9035662fd853"},"vehicle_type_id":"4","last_reported":1751447626,"current_range_meters":16000,"station_id":"ce4bhkp2rcd13ifvqgd0","pricing_plan_id":"cebpf4jnsgd1na2vs0mg"},{"bike_id":"4fd602b9-b9fc-471c-b938-5990c9f13902","system_id":"levelo_inurba_marseille","lat":43.32373,"lon":5.3889,"is_reserved":false,"is_disabled":false,"rental_uris":{"android":"levelo://app?vid=4fd602b9-b9fc-471c-b938-5990c9f13902","ios":"levelo://app?vid=4fd602b9-b9fc-471c-b938-5990c9f13902"},"vehicle_type_id":"4","last_reported":1751447626,"current_range_meters":16000,"station_id":"ce4bhqp2rcd13ifvqhog","pricing_plan_id":"cebpf4jnsgd1na2vs0mg"},{"bike_id":"cfc0aa67-590a-4038-b894-cb7b8f074cc7","system_id":"levelo_inurba_marseille","lat":43.21762,"lon":5.34588,"is_reserved":false,"is_disabled":false,"rental_uris":{"android":"levelo://app?vid=cfc0aa67-590a-4038-b894-cb7b8f074cc7","ios":"levelo://app?vid=cfc0aa67-590a-4038-b894-cb7b8f074cc7"},"vehicle_type_id":"4","last_reported":1751447626,"current_range_meters":16000,"station_id":"st_cvj6r9ubvosntc0bgbag","pricing_plan_id":"cebpf4jnsgd1na2vs0mg"},{"bike_id":"cd59e480-10d7-4a4d-8e30-2f96cd6fc7ab","system_id":"levelo_inurba_marseille","lat":43.29849,"lon":5.36276,"is_reserved":false,"is_disabled":false,"rental_uris":{"android":"levelo://app?vid=cd59e480-10d7-4a4d-8e30-2f96cd6fc7ab","ios":"levelo://app?vid=cd59e480-10d7-4a4d-8e30-2f96cd6fc7ab"},"vehicle_type_id":"4","last_reported":1751447626,"current_range_meters":16400,"station_id":"ce4bgpp2rcd13ifvqc3g","pricing_plan_id":"cebpf4jnsgd1na2vs0mg"},{"bike_id":"b696af2c-41b3-423f-a4b0-447ccba26af2","system_id":"levelo_inurba_marseille","lat":43.2418,"lon":5.39716,"is_reserved":false,"is_disabled":false,"rental_uris":{"android":"levelo://app?vid=b696af2c-41b3-423f-a4b0-447ccba26af2","ios":"levelo://app?vid=b696af2c-41b3-423f-a4b0-447ccba26af2"},"vehicle_type_id":"4","last_reported":1751447626,"current_range_meters":16400,"station_id":"ce4bhn12rcd13ifvqgpg","pricing_plan_id":"cebpf4jnsgd1na2vs0mg"},{"bike_id":"16a8afe6-e43e-4d1b-a7bd-ed83d113735a","system_id":"levelo_inurba_marseille","lat":43.32436,"lon":5.41185,"is_reserved":false,"is_disabled":false,"rental_uris":{"android":"levelo://app?vid=16a8afe6-e43e-4d1b-a7bd-ed83d113735a","ios":"levelo://app?vid=16a8afe6-e43e-4d1b-a7bd-ed83d113735a"},"vehicle_type_id":"4","last_reported":1751447626,"current_range_meters":16800,"station_id":"","pricing_plan_id":"cebpf4jnsgd1na2vs0mg"},{"bike_id":"0967585e-0f2f-46f1-a6ae-b235d4e34c0d","system_id":"levelo_inurba_marseille","lat":43.29624,"lon":5.37715,"is_reserved":false,"is_disabled":false,"rental_uris":{"android":"levelo://app?vid=0967585e-0f2f-46f1-a6ae-b235d4e34c0d","ios":"levelo://app?vid=0967585e-0f2f-46f1-a6ae-b235d4e34c0d"},"vehicle_type_id":"4","last_reported":1751447626,"current_range_meters":16800,"station_id":"ce4bgi92rcd13ifvqb90","pricing_plan_id":"cebpf4jnsgd1na2vs0mg"},{"bike_id":"b2231018-2cc0-4aa5-9924-2db2b48df34d","system_id":"levelo_inurba_marseille","lat":43.29439,"lon":5.3975,"is_reserved":false,"is_disabled":false,"rental_uris":{"android":"levelo://app?vid=b2231018-2cc0-4aa5-9924-2db2b48df34d","ios":"levelo://app?vid=b2231018-2cc0-4aa5-9924-2db2b48df34d"},"vehicle_type_id":"4","last_reported":1751447626,"current_range_meters":16800,"station_id":"ce4bh3h2rcd13ifvqdo0","pricing_plan_id":"cebpf4jnsgd1na2vs0mg"},{"bike_id":"c2f01fb1-132d-45a4-a7bc-c28f7a300f91","system_id":"levelo_inurba_marseille","lat":43.28452,"lon":5.34989,"is_reserved":false,"is_disabled":false,"rental_uris":{"android":"levelo://app?vid=c2f01fb1-132d-45a4-a7bc-c28f7a300f91","ios":"levelo://app?vid=c2f01fb1-132d-45a4-a7bc-c28f7a300f91"},"vehicle_type_id":"4","last_reported":1751447626,"current_range_meters":16800,"station_id":"ce4bhbh2rcd13ifvqepg","pricing_plan_id":"cebpf4jnsgd1na2vs0mg"},{"bike_id":"1d6e7452-a4be-4fd0-a8f3-ece6fa1059a6","system_id":"levelo_inurba_marseille","lat":43.26682,"lon":5.38268,"is_reserved":false,"is_disabled":false,"rental_uris":{"android":"levelo://app?vid=1d6e7452-a4be-4fd0-a8f3-ece6fa1059a6","ios":"levelo://app?vid=1d6e7452-a4be-4fd0-a8f3-ece6fa1059a6"},"vehicle_type_id":"4","last_reported":1751447626,"current_range_meters":16800,"station_id":"ce4bhg92rcd13ifvqf90","pricing_plan_id":"cebpf4jnsgd1na2vs0mg"},{"bike_id":"9a9f5932-c99e-4251-9873-1762f9509bb6","system_id":"levelo_inurba_marseille","lat":43.254964,"lon":5.376455,"is_reserved":false,"is_disabled":false,"rental_uris":{"android":"levelo://app?vid=9a9f5932-c99e-4251-9873-1762f9509bb6","ios":"levelo://app?vid=9a9f5932-c99e-4251-9873-1762f9509bb6"},"vehicle_type_id":"4","last_reported":1751447626,"current_range_meters":16800,"station_id":"ce4bhh12rcd13ifvqff0","pricing_plan_id":"cebpf4jnsgd1na2vs0mg"},{"bike_id":"7440a83d-d2eb-4aec-843d-e9a2bc12e9e7","system_id":"levelo_inurba_marseille","lat":43.24178,"lon":5.39724,"is_reserved":false,"is_disabled":false,"rental_uris":{"android":"levelo://app?vid=7440a83d-d2eb-4aec-843d-e9a2bc12e9e7","ios":"levelo://app?vid=7440a83d-d2eb-4aec-843d-e9a2bc12e9e7"},"vehicle_type_id":"4","last_reported":1751447626,"current_range_meters":16800,"station_id":"ce4bhn12rcd13ifvqgpg","pricing_plan_id":"cebpf4jnsgd1na2vs0mg"},{"bike_id":"56eb3fdf-ea87-4fcf-85df-3680fa66363e","system_id":"levelo_inurba_marseille","lat":43.22505,"lon":5.347849,"is_reserved":false,"is_disabled":false,"rental_uris":{"android":"levelo://app?vid=56eb3fdf-ea87-4fcf-85df-3680fa66363e","ios":"levelo://app?vid=56eb3fdf-ea87-4fcf-85df-3680fa66363e"},"vehicle_type_id":"4","last_reported":1751447626,"current_range_meters":16800,"station_id":"st_cvj5dfep6f1abm77gieg","pricing_plan_id":"cebpf4jnsgd1na2vs0mg"},{"bike_id":"a0cef316-ad95-4855-8f78-a31341a2b90e","system_id":"levelo_inurba_marseille","lat":43.3128,"lon":5.37747,"is_reserved":false,"is_disabled":false,"rental_uris":{"android":"levelo://app?vid=a0cef316-ad95-4855-8f78-a31341a2b90e","ios":"levelo://app?vid=a0cef316-ad95-4855-8f78-a31341a2b90e"},"vehicle_type_id":"4","last_reported":1751447626,"current_range_meters":17200,"station_id":"","pricing_plan_id":"cebpf4jnsgd1na2vs0mg"},{"bike_id":"0e030323-4386-4e72-9a0d-0f6a2ff539de","system_id":"levelo_inurba_marseille","lat":43.29608,"lon":5.40548,"is_reserved":false,"is_disabled":false,"rental_uris":{"android":"levelo://app?vid=0e030323-4386-4e72-9a0d-0f6a2ff539de","ios":"levelo://app?vid=0e030323-4386-4e72-9a0d-0f6a2ff539de"},"vehicle_type_id":"4","last_reported":1751447626,"current_range_meters":17200,"station_id":"ce4bh0h2rcd13ifvqd60","pricing_plan_id":"cebpf4jnsgd1na2vs0mg"},{"bike_id":"0d221ce1-781b-46a9-9112-f304b77478f3","system_id":"levelo_inurba_marseille","lat":43.30644,"lon":5.40098,"is_reserved":false,"is_disabled":false,"rental_uris":{"android":"levelo://app?vid=0d221ce1-781b-46a9-9112-f304b77478f3","ios":"levelo://app?vid=0d221ce1-781b-46a9-9112-f304b77478f3"},"vehicle_type_id":"4","last_reported":1751447626,"current_range_meters":17200,"station_id":"ce4bh112rcd13ifvqda0","pricing_plan_id":"cebpf4jnsgd1na2vs0mg"},{"bike_id":"ebceaf31-51b9-4502-92e9-09bf5c46df39","system_id":"levelo_inurba_marseille","lat":43.248031,"lon":5.374546,"is_reserved":false,"is_disabled":false,"rental_uris":{"android":"levelo://app?vid=ebceaf31-51b9-4502-92e9-09bf5c46df39","ios":"levelo://app?vid=ebceaf31-51b9-4502-92e9-09bf5c46df39"},"vehicle_type_id":"4","last_reported":1751447626,"current_range_meters":17200,"station_id":"ce4bhgh2rcd13ifvqfb0","pricing_plan_id":"cebpf4jnsgd1na2vs0mg"},{"bike_id":"110be0f7-19b6-4419-935c-8afdb1f29359","system_id":"levelo_inurba_marseille","lat":43.21213,"lon":5.35103,"is_reserved":false,"is_disabled":false,"rental_uris":{"android":"levelo://app?vid=110be0f7-19b6-4419-935c-8afdb1f29359","ios":"levelo://app?vid=110be0f7-19b6-4419-935c-8afdb1f29359"},"vehicle_type_id":"4","last_reported":1751447626,"current_range_meters":17200,"station_id":"st_cvj6sg6p6f1abm77japg","pricing_plan_id":"cebpf4jnsgd1na2vs0mg"},{"bike_id":"bcfd0eda-b9ab-4bec-9ca3-3f2b86617415","system_id":"levelo_inurba_marseille","lat":43.21194,"lon":5.35067,"is_reserved":false,"is_disabled":false,"rental_uris":{"android":"levelo://app?vid=bcfd0eda-b9ab-4bec-9ca3-3f2b86617415","ios":"levelo://app?vid=bcfd0eda-b9ab-4bec-9ca3-3f2b86617415"},"vehicle_type_id":"4","last_reported":1751447626,"current_range_meters":17200,"station_id":"st_cvj6sg6p6f1abm77japg","pricing_plan_id":"cebpf4jnsgd1na2vs0mg"},{"bike_id":"959e6f20-8ed0-4d36-bc1d-3efb82d6190b","system_id":"levelo_inurba_marseille","lat":43.211911,"lon":5.350767,"is_reserved":false,"is_disabled":false,"rental_uris":{"android":"levelo://app?vid=959e6f20-8ed0-4d36-bc1d-3efb82d6190b","ios":"levelo://app?vid=959e6f20-8ed0-4d36-bc1d-3efb82d6190b"},"vehicle_type_id":"4","last_reported":1751447626,"current_range_meters":17200,"station_id":"st_cvj6sg6p6f1abm77japg","pricing_plan_id":"cebpf4jnsgd1na2vs0mg"},{"bike_id":"87a6552b-43fd-4f0e-85e1-8e5813aeca8e","system_id":"levelo_inurba_marseille","lat":43.29564,"lon":5.37535,"is_reserved":false,"is_disabled":false,"rental_uris":{"android":"levelo://app?vid=87a6552b-43fd-4f0e-85e1-8e5813aeca8e","ios":"levelo://app?vid=87a6552b-43fd-4f0e-85e1-8e5813aeca8e"},"vehicle_type_id":"4","last_reported":1751447626,"current_range_meters":17600,"station_id":"ce4bgh92rcd13ifvqb50","pricing_plan_id":"cebpf4jnsgd1na2vs0mg"},{"bike_id":"09a94feb-8911-4d3d-9f22-a7f611710ea1","system_id":"levelo_inurba_marseille","lat":43.211913,"lon":5.350734,"is_reserved":false,"is_disabled":false,"rental_uris":{"android":"levelo://app?vid=09a94feb-8911-4d3d-9f22-a7f611710ea1","ios":"levelo://app?vid=09a94feb-8911-4d3d-9f22-a7f611710ea1"},"vehicle_type_id":"4","last_reported":1751447626,"current_range_meters":17600,"station_id":"st_cvj6sg6p6f1abm77japg","pricing_plan_id":"cebpf4jnsgd1na2vs0mg"},{"bike_id":"90deedad-5729-44ac-95e8-3f24aa141e8f","system_id":"levelo_inurba_marseille","lat":43.30952,"lon":5.39029,"is_reserved":false,"is_disabled":false,"rental_uris":{"android":"levelo://app?vid=90deedad-5729-44ac-95e8-3f24aa141e8f","ios":"levelo://app?vid=90deedad-5729-44ac-95e8-3f24aa141e8f"},"vehicle_type_id":"4","last_reported":1751447626,"current_range_meters":18000,"station_id":"ce4bgup2rcd13ifvqco0","pricing_plan_id":"cebpf4jnsgd1na2vs0mg"},{"bike_id":"40dca022-4b5e-4fc0-b087-b5b80c1d2556","system_id":"levelo_inurba_marseille","lat":43.29224,"lon":5.3604,"is_reserved":false,"is_disabled":false,"rental_uris":{"android":"levelo://app?vid=40dca022-4b5e-4fc0-b087-b5b80c1d2556","ios":"levelo://app?vid=40dca022-4b5e-4fc0-b087-b5b80c1d2556"},"vehicle_type_id":"4","last_reported":1751447626,"current_range_meters":18000,"station_id":"ce4bhbh2rcd13ifvqeqg","pricing_plan_id":"cebpf4jnsgd1na2vs0mg"},{"bike_id":"8bf0d992-d2a0-428e-940a-091ee9b7c2a4","system_id":"levelo_inurba_marseille","lat":43.21209,"lon":5.35069,"is_reserved":false,"is_disabled":false,"rental_uris":{"android":"levelo://app?vid=8bf0d992-d2a0-428e-940a-091ee9b7c2a4","ios":"levelo://app?vid=8bf0d992-d2a0-428e-940a-091ee9b7c2a4"},"vehicle_type_id":"4","last_reported":1751447626,"current_range_meters":18000,"station_id":"st_cvj6sg6p6f1abm77japg","pricing_plan_id":"cebpf4jnsgd1na2vs0mg"},{"bike_id":"6d2da863-a742-45db-855b-55a94467cfa4","system_id":"levelo_inurba_marseille","lat":43.32592,"lon":5.42721,"is_reserved":false,"is_disabled":false,"rental_uris":{"android":"levelo://app?vid=6d2da863-a742-45db-855b-55a94467cfa4","ios":"levelo://app?vid=6d2da863-a742-45db-855b-55a94467cfa4"},"vehicle_type_id":"4","last_reported":1751447626,"current_range_meters":18800,"station_id":"","pricing_plan_id":"cebpf4jnsgd1na2vs0mg"},{"bike_id":"0b52d53f-0bd6-47f1-b5e3-7fc98dc501bd","system_id":"levelo_inurba_marseille","lat":43.30557,"lon":5.36544,"is_reserved":false,"is_disabled":false,"rental_uris":{"android":"levelo://app?vid=0b52d53f-0bd6-47f1-b5e3-7fc98dc501bd","ios":"levelo://app?vid=0b52d53f-0bd6-47f1-b5e3-7fc98dc501bd"},"vehicle_type_id":"4","last_reported":1751447626,"current_range_meters":18800,"station_id":"ce4bgs12rcd13ifvqcag","pricing_plan_id":"cebpf4jnsgd1na2vs0mg"},{"bike_id":"f0f76aab-c59e-4cd6-801a-5e3094c243d6","system_id":"levelo_inurba_marseille","lat":43.29198,"lon":5.358,"is_reserved":false,"is_disabled":false,"rental_uris":{"android":"levelo://app?vid=f0f76aab-c59e-4cd6-801a-5e3094c243d6","ios":"levelo://app?vid=f0f76aab-c59e-4cd6-801a-5e3094c243d6"},"vehicle_type_id":"4","last_reported":1751447626,"current_range_meters":18800,"station_id":"ce4bhb12rcd13ifvqel0","pricing_plan_id":"cebpf4jnsgd1na2vs0mg"},{"bike_id":"9c33b604-65ec-48e4-94d1-29f790f3303f","system_id":"levelo_inurba_marseille","lat":43.255835,"lon":5.382292,"is_reserved":false,"is_disabled":false,"rental_uris":{"android":"levelo://app?vid=9c33b604-65ec-48e4-94d1-29f790f3303f","ios":"levelo://app?vid=9c33b604-65ec-48e4-94d1-29f790f3303f"},"vehicle_type_id":"4","last_reported":1751447626,"current_range_meters":18800,"station_id":"ce4bhih2rcd13ifvqfs0","pricing_plan_id":"cebpf4jnsgd1na2vs0mg"},{"bike_id":"2079a3bc-2800-4acf-8843-fca1c0d8af56","system_id":"levelo_inurba_marseille","lat":43.23152,"lon":5.43705,"is_reserved":false,"is_disabled":false,"rental_uris":{"android":"levelo://app?vid=2079a3bc-2800-4acf-8843-fca1c0d8af56","ios":"levelo://app?vid=2079a3bc-2800-4acf-8843-fca1c0d8af56"},"vehicle_type_id":"4","last_reported":1751447626,"current_range_meters":18800,"station_id":"ce4bhmp2rcd13ifvqgog","pricing_plan_id":"cebpf4jnsgd1na2vs0mg"},{"bike_id":"4aec5da3-08df-44e2-8c33-7ab1f3c36943","system_id":"levelo_inurba_marseille","lat":43.24166,"lon":5.3639,"is_reserved":false,"is_disabled":false,"rental_uris":{"android":"levelo://app?vid=4aec5da3-08df-44e2-8c33-7ab1f3c36943","ios":"levelo://app?vid=4aec5da3-08df-44e2-8c33-7ab1f3c36943"},"vehicle_type_id":"4","last_reported":1751447626,"current_range_meters":18800,"station_id":"cpo36qri1sfpv3e86is0","pricing_plan_id":"cebpf4jnsgd1na2vs0mg"},{"bike_id":"c10a4283-320d-4e64-8d75-ff83e94026ba","system_id":"levelo_inurba_marseille","lat":43.21197,"lon":5.35076,"is_reserved":false,"is_disabled":false,"rental_uris":{"android":"levelo://app?vid=c10a4283-320d-4e64-8d75-ff83e94026ba","ios":"levelo://app?vid=c10a4283-320d-4e64-8d75-ff83e94026ba"},"vehicle_type_id":"4","last_reported":1751447626,"current_range_meters":18800,"station_id":"st_cvj6sg6p6f1abm77japg","pricing_plan_id":"cebpf4jnsgd1na2vs0mg"},{"bike_id":"8c9371b2-692d-48da-b841-7893055c2b2f","system_id":"levelo_inurba_marseille","lat":43.30543,"lon":5.36561,"is_reserved":false,"is_disabled":false,"rental_uris":{"android":"levelo://app?vid=8c9371b2-692d-48da-b841-7893055c2b2f","ios":"levelo://app?vid=8c9371b2-692d-48da-b841-7893055c2b2f"},"vehicle_type_id":"4","last_reported":1751447626,"current_range_meters":19200,"station_id":"ce4bgs12rcd13ifvqcag","pricing_plan_id":"cebpf4jnsgd1na2vs0mg"},{"bike_id":"b0847cd6-3da2-4c96-b631-22dc7523d236","system_id":"levelo_inurba_marseille","lat":43.30554,"lon":5.36555,"is_reserved":false,"is_disabled":false,"rental_uris":{"android":"levelo://app?vid=b0847cd6-3da2-4c96-b631-22dc7523d236","ios":"levelo://app?vid=b0847cd6-3da2-4c96-b631-22dc7523d236"},"vehicle_type_id":"4","last_reported":1751447626,"current_range_meters":19200,"station_id":"ce4bgs12rcd13ifvqcag","pricing_plan_id":"cebpf4jnsgd1na2vs0mg"},{"bike_id":"145aa8bf-de65-4236-b017-63c83f1e3931","system_id":"levelo_inurba_marseille","lat":43.30951,"lon":5.39039,"is_reserved":false,"is_disabled":false,"rental_uris":{"android":"levelo://app?vid=145aa8bf-de65-4236-b017-63c83f1e3931","ios":"levelo://app?vid=145aa8bf-de65-4236-b017-63c83f1e3931"},"vehicle_type_id":"4","last_reported":1751447626,"current_range_meters":19200,"station_id":"ce4bgup2rcd13ifvqco0","pricing_plan_id":"cebpf4jnsgd1na2vs0mg"},{"bike_id":"6ca4e9a0-f238-4827-ab90-37a874cbe48b","system_id":"levelo_inurba_marseille","lat":43.29231,"lon":5.36076,"is_reserved":false,"is_disabled":false,"rental_uris":{"android":"levelo://app?vid=6ca4e9a0-f238-4827-ab90-37a874cbe48b","ios":"levelo://app?vid=6ca4e9a0-f238-4827-ab90-37a874cbe48b"},"vehicle_type_id":"4","last_reported":1751447626,"current_range_meters":19200,"station_id":"ce4bhbh2rcd13ifvqeqg","pricing_plan_id":"cebpf4jnsgd1na2vs0mg"},{"bike_id":"bfa88f67-5f5b-49db-81cc-e4921c6889b1","system_id":"levelo_inurba_marseille","lat":43.32106,"lon":5.36772,"is_reserved":false,"is_disabled":false,"rental_uris":{"android":"levelo://app?vid=bfa88f67-5f5b-49db-81cc-e4921c6889b1","ios":"levelo://app?vid=bfa88f67-5f5b-49db-81cc-e4921c6889b1"},"vehicle_type_id":"4","last_reported":1751447626,"current_range_meters":19200,"station_id":"ce4bhrh2rcd13ifvqhug","pricing_plan_id":"cebpf4jnsgd1na2vs0mg"},{"bike_id":"d393009a-4549-46b8-9394-75871ff606d4","system_id":"levelo_inurba_marseille","lat":43.32365,"lon":5.36765,"is_reserved":false,"is_disabled":false,"rental_uris":{"android":"levelo://app?vid=d393009a-4549-46b8-9394-75871ff606d4","ios":"levelo://app?vid=d393009a-4549-46b8-9394-75871ff606d4"},"vehicle_type_id":"4","last_reported":1751447626,"current_range_meters":19200,"station_id":"ce4bhsh2rcd13ifvqi2g","pricing_plan_id":"cebpf4jnsgd1na2vs0mg"},{"bike_id":"ad6acd49-abff-41c7-bad6-8f9cc30c9c62","system_id":"levelo_inurba_marseille","lat":43.30255,"lon":5.40076,"is_reserved":false,"is_disabled":false,"rental_uris":{"android":"levelo://app?vid=ad6acd49-abff-41c7-bad6-8f9cc30c9c62","ios":"levelo://app?vid=ad6acd49-abff-41c7-bad6-8f9cc30c9c62"},"vehicle_type_id":"4","last_reported":1751447626,"current_range_meters":19600,"station_id":"ce4bgvh2rcd13ifvqcs0","pricing_plan_id":"cebpf4jnsgd1na2vs0mg"},{"bike_id":"ca3d7c96-184e-4f9f-b293-cbfecd580bd2","system_id":"levelo_inurba_marseille","lat":43.29202,"lon":5.39317,"is_reserved":false,"is_disabled":false,"rental_uris":{"android":"levelo://app?vid=ca3d7c96-184e-4f9f-b293-cbfecd580bd2","ios":"levelo://app?vid=ca3d7c96-184e-4f9f-b293-cbfecd580bd2"},"vehicle_type_id":"4","last_reported":1751447626,"current_range_meters":19600,"station_id":"ce4bh192rcd13ifvqdd0","pricing_plan_id":"cebpf4jnsgd1na2vs0mg"},{"bike_id":"4904f86e-36bc-461c-972b-8fa19fa5c329","system_id":"levelo_inurba_marseille","lat":43.25723,"lon":5.41098,"is_reserved":false,"is_disabled":false,"rental_uris":{"android":"levelo://app?vid=4904f86e-36bc-461c-972b-8fa19fa5c329","ios":"levelo://app?vid=4904f86e-36bc-461c-972b-8fa19fa5c329"},"vehicle_type_id":"4","last_reported":1751447626,"current_range_meters":19600,"station_id":"ce4bhkp2rcd13ifvqgd0","pricing_plan_id":"cebpf4jnsgd1na2vs0mg"},{"bike_id":"ba6e6b2d-31bf-4249-a44a-b455ed4ef971","system_id":"levelo_inurba_marseille","lat":43.24179,"lon":5.39716,"is_reserved":false,"is_disabled":false,"rental_uris":{"android":"levelo://app?vid=ba6e6b2d-31bf-4249-a44a-b455ed4ef971","ios":"levelo://app?vid=ba6e6b2d-31bf-4249-a44a-b455ed4ef971"},"vehicle_type_id":"4","last_reported":1751447626,"current_range_meters":19600,"station_id":"ce4bhn12rcd13ifvqgpg","pricing_plan_id":"cebpf4jnsgd1na2vs0mg"},{"bike_id":"b7c4f4e7-ddbb-4243-982d-1ca4f75e59a6","system_id":"levelo_inurba_marseille","lat":43.32376,"lon":5.3676,"is_reserved":false,"is_disabled":false,"rental_uris":{"android":"levelo://app?vid=b7c4f4e7-ddbb-4243-982d-1ca4f75e59a6","ios":"levelo://app?vid=b7c4f4e7-ddbb-4243-982d-1ca4f75e59a6"},"vehicle_type_id":"4","last_reported":1751447626,"current_range_meters":19600,"station_id":"ce4bhsh2rcd13ifvqi2g","pricing_plan_id":"cebpf4jnsgd1na2vs0mg"},{"bike_id":"0f590c2a-c81e-469d-a7d1-2741de3642a2","system_id":"levelo_inurba_marseille","lat":43.212004,"lon":5.350689,"is_reserved":false,"is_disabled":false,"rental_uris":{"android":"levelo://app?vid=0f590c2a-c81e-469d-a7d1-2741de3642a2","ios":"levelo://app?vid=0f590c2a-c81e-469d-a7d1-2741de3642a2"},"vehicle_type_id":"4","last_reported":1751447626,"current_range_meters":19600,"station_id":"st_cvj6sg6p6f1abm77japg","pricing_plan_id":"cebpf4jnsgd1na2vs0mg"},{"bike_id":"fe84177e-dc24-423c-bc2b-77abf3163fe9","system_id":"levelo_inurba_marseille","lat":43.30219,"lon":5.38241,"is_reserved":false,"is_disabled":false,"rental_uris":{"android":"levelo://app?vid=fe84177e-dc24-423c-bc2b-77abf3163fe9","ios":"levelo://app?vid=fe84177e-dc24-423c-bc2b-77abf3163fe9"},"vehicle_type_id":"4","last_reported":1751447626,"current_range_meters":20000,"station_id":"","pricing_plan_id":"cebpf4jnsgd1na2vs0mg"},{"bike_id":"b2325bea-9a74-459a-a713-509c2ba84f3e","system_id":"levelo_inurba_marseille","lat":43.283181,"lon":5.412882,"is_reserved":false,"is_disabled":false,"rental_uris":{"android":"levelo://app?vid=b2325bea-9a74-459a-a713-509c2ba84f3e","ios":"levelo://app?vid=b2325bea-9a74-459a-a713-509c2ba84f3e"},"vehicle_type_id":"4","last_reported":1751447626,"current_range_meters":20000,"station_id":"","pricing_plan_id":"cebpf4jnsgd1na2vs0mg"},{"bike_id":"48c99b8c-5966-41e3-b8b1-bac99a76cd4d","system_id":"levelo_inurba_marseille","lat":43.29702,"lon":5.36593,"is_reserved":false,"is_disabled":false,"rental_uris":{"android":"levelo://app?vid=48c99b8c-5966-41e3-b8b1-bac99a76cd4d","ios":"levelo://app?vid=48c99b8c-5966-41e3-b8b1-bac99a76cd4d"},"vehicle_type_id":"4","last_reported":1751447626,"current_range_meters":20000,"station_id":"ce4bgn12rcd13ifvqbt0","pricing_plan_id":"cebpf4jnsgd1na2vs0mg"},{"bike_id":"3be62267-12fe-43bf-bd19-64ff695cb725","system_id":"levelo_inurba_marseille","lat":43.30539,"lon":5.36537,"is_reserved":false,"is_disabled":false,"rental_uris":{"android":"levelo://app?vid=3be62267-12fe-43bf-bd19-64ff695cb725","ios":"levelo://app?vid=3be62267-12fe-43bf-bd19-64ff695cb725"},"vehicle_type_id":"4","last_reported":1751447626,"current_range_meters":20000,"station_id":"ce4bgs12rcd13ifvqcag","pricing_plan_id":"cebpf4jnsgd1na2vs0mg"},{"bike_id":"8447e610-9c2c-41ca-a89f-223cdc746dd7","system_id":"levelo_inurba_marseille","lat":43.296338,"lon":5.40596,"is_reserved":false,"is_disabled":false,"rental_uris":{"android":"levelo://app?vid=8447e610-9c2c-41ca-a89f-223cdc746dd7","ios":"levelo://app?vid=8447e610-9c2c-41ca-a89f-223cdc746dd7"},"vehicle_type_id":"4","last_reported":1751447626,"current_range_meters":20000,"station_id":"ce4bh0h2rcd13ifvqd60","pricing_plan_id":"cebpf4jnsgd1na2vs0mg"},{"bike_id":"f3ec6263-4fe2-4924-acdb-1daa3d7bc2fc","system_id":"levelo_inurba_marseille","lat":43.26697,"lon":5.38262,"is_reserved":false,"is_disabled":false,"rental_uris":{"android":"levelo://app?vid=f3ec6263-4fe2-4924-acdb-1daa3d7bc2fc","ios":"levelo://app?vid=f3ec6263-4fe2-4924-acdb-1daa3d7bc2fc"},"vehicle_type_id":"4","last_reported":1751447626,"current_range_meters":20000,"station_id":"ce4bhg92rcd13ifvqf90","pricing_plan_id":"cebpf4jnsgd1na2vs0mg"},{"bike_id":"a5dd1495-37bd-4d52-bdbd-ac33ef851954","system_id":"levelo_inurba_marseille","lat":43.23152,"lon":5.43716,"is_reserved":false,"is_disabled":false,"rental_uris":{"android":"levelo://app?vid=a5dd1495-37bd-4d52-bdbd-ac33ef851954","ios":"levelo://app?vid=a5dd1495-37bd-4d52-bdbd-ac33ef851954"},"vehicle_type_id":"4","last_reported":1751447626,"current_range_meters":20000,"station_id":"ce4bhmp2rcd13ifvqgog","pricing_plan_id":"cebpf4jnsgd1na2vs0mg"},{"bike_id":"8433bf94-a287-463f-bc6d-4c8bc510dc0a","system_id":"levelo_inurba_marseille","lat":43.29918,"lon":5.374641,"is_reserved":false,"is_disabled":false,"rental_uris":{"android":"levelo://app?vid=8433bf94-a287-463f-bc6d-4c8bc510dc0a","ios":"levelo://app?vid=8433bf94-a287-463f-bc6d-4c8bc510dc0a"},"vehicle_type_id":"4","last_reported":1751447626,"current_range_meters":20400,"station_id":"ce4bgjh2rcd13ifvqbg0","pricing_plan_id":"cebpf4jnsgd1na2vs0mg"},{"bike_id":"79a3aeb2-a2b2-4cad-9b86-ba6ca4824427","system_id":"levelo_inurba_marseille","lat":43.3015,"lon":5.38095,"is_reserved":false,"is_disabled":false,"rental_uris":{"android":"levelo://app?vid=79a3aeb2-a2b2-4cad-9b86-ba6ca4824427","ios":"levelo://app?vid=79a3aeb2-a2b2-4cad-9b86-ba6ca4824427"},"vehicle_type_id":"4","last_reported":1751447626,"current_range_meters":20400,"station_id":"ce4bgjp2rcd13ifvqbh0","pricing_plan_id":"cebpf4jnsgd1na2vs0mg"},{"bike_id":"5bcf8532-ee23-43f5-945d-e93709f1359f","system_id":"levelo_inurba_marseille","lat":43.25582,"lon":5.38233,"is_reserved":false,"is_disabled":false,"rental_uris":{"android":"levelo://app?vid=5bcf8532-ee23-43f5-945d-e93709f1359f","ios":"levelo://app?vid=5bcf8532-ee23-43f5-945d-e93709f1359f"},"vehicle_type_id":"4","last_reported":1751447626,"current_range_meters":20400,"station_id":"ce4bhih2rcd13ifvqfs0","pricing_plan_id":"cebpf4jnsgd1na2vs0mg"},{"bike_id":"9df2c538-ff65-4fc9-b504-87c87f04b757","system_id":"levelo_inurba_marseille","lat":43.32506,"lon":5.36551,"is_reserved":false,"is_disabled":false,"rental_uris":{"android":"levelo://app?vid=9df2c538-ff65-4fc9-b504-87c87f04b757","ios":"levelo://app?vid=9df2c538-ff65-4fc9-b504-87c87f04b757"},"vehicle_type_id":"4","last_reported":1751447626,"current_range_meters":20400,"station_id":"ce4bhs12rcd13ifvqhvg","pricing_plan_id":"cebpf4jnsgd1na2vs0mg"},{"bike_id":"48a8b866-9a64-4b58-8b3a-d988de0d4af0","system_id":"levelo_inurba_marseille","lat":43.241735,"lon":5.363923,"is_reserved":false,"is_disabled":false,"rental_uris":{"android":"levelo://app?vid=48a8b866-9a64-4b58-8b3a-d988de0d4af0","ios":"levelo://app?vid=48a8b866-9a64-4b58-8b3a-d988de0d4af0"},"vehicle_type_id":"4","last_reported":1751447626,"current_range_meters":20400,"station_id":"cpo36qri1sfpv3e86is0","pricing_plan_id":"cebpf4jnsgd1na2vs0mg"},{"bike_id":"515ec3ca-f5c6-46fa-a700-b09851f49068","system_id":"levelo_inurba_marseille","lat":43.211885,"lon":5.350714,"is_reserved":false,"is_disabled":false,"rental_uris":{"android":"levelo://app?vid=515ec3ca-f5c6-46fa-a700-b09851f49068","ios":"levelo://app?vid=515ec3ca-f5c6-46fa-a700-b09851f49068"},"vehicle_type_id":"4","last_reported":1751447626,"current_range_meters":20400,"station_id":"st_cvj6sg6p6f1abm77japg","pricing_plan_id":"cebpf4jnsgd1na2vs0mg"},{"bike_id":"37b84a38-055a-4a6e-a56a-8ff3d0c1b2ec","system_id":"levelo_inurba_marseille","lat":43.211939,"lon":5.350746,"is_reserved":false,"is_disabled":false,"rental_uris":{"android":"levelo://app?vid=37b84a38-055a-4a6e-a56a-8ff3d0c1b2ec","ios":"levelo://app?vid=37b84a38-055a-4a6e-a56a-8ff3d0c1b2ec"},"vehicle_type_id":"4","last_reported":1751447626,"current_range_meters":20400,"station_id":"st_cvj6sg6p6f1abm77japg","pricing_plan_id":"cebpf4jnsgd1na2vs0mg"},{"bike_id":"ab45b811-765d-42ec-8576-450879ffcd53","system_id":"levelo_inurba_marseille","lat":43.29609,"lon":5.37723,"is_reserved":false,"is_disabled":false,"rental_uris":{"android":"levelo://app?vid=ab45b811-765d-42ec-8576-450879ffcd53","ios":"levelo://app?vid=ab45b811-765d-42ec-8576-450879ffcd53"},"vehicle_type_id":"4","last_reported":1751447626,"current_range_meters":20800,"station_id":"ce4bgi92rcd13ifvqb90","pricing_plan_id":"cebpf4jnsgd1na2vs0mg"},{"bike_id":"e18e94ab-0f57-4709-a8e0-594be1c2822b","system_id":"levelo_inurba_marseille","lat":43.30101,"lon":5.39075,"is_reserved":false,"is_disabled":false,"rental_uris":{"android":"levelo://app?vid=e18e94ab-0f57-4709-a8e0-594be1c2822b","ios":"levelo://app?vid=e18e94ab-0f57-4709-a8e0-594be1c2822b"},"vehicle_type_id":"4","last_reported":1751447626,"current_range_meters":20800,"station_id":"ce4bh192rcd13ifvqdb0","pricing_plan_id":"cebpf4jnsgd1na2vs0mg"},{"bike_id":"184295c9-46b8-4ed1-a711-8f21b8946f1c","system_id":"levelo_inurba_marseille","lat":43.29041,"lon":5.3756,"is_reserved":false,"is_disabled":false,"rental_uris":{"android":"levelo://app?vid=184295c9-46b8-4ed1-a711-8f21b8946f1c","ios":"levelo://app?vid=184295c9-46b8-4ed1-a711-8f21b8946f1c"},"vehicle_type_id":"4","last_reported":1751447626,"current_range_meters":20800,"station_id":"ce4bh692rcd13ifvqe90","pricing_plan_id":"cebpf4jnsgd1na2vs0mg"},{"bike_id":"2d7ab8c9-ccb6-4168-91f8-ffbbd54cc09d","system_id":"levelo_inurba_marseille","lat":43.29708,"lon":5.36992,"is_reserved":false,"is_disabled":false,"rental_uris":{"android":"levelo://app?vid=2d7ab8c9-ccb6-4168-91f8-ffbbd54cc09d","ios":"levelo://app?vid=2d7ab8c9-ccb6-4168-91f8-ffbbd54cc09d"},"vehicle_type_id":"4","last_reported":1751447626,"current_range_meters":21600,"station_id":"","pricing_plan_id":"cebpf4jnsgd1na2vs0mg"},{"bike_id":"b0496903-e4e2-480d-b2e6-4fcaae2cd474","system_id":"levelo_inurba_marseille","lat":43.3136,"lon":5.36693,"is_reserved":false,"is_disabled":false,"rental_uris":{"android":"levelo://app?vid=b0496903-e4e2-480d-b2e6-4fcaae2cd474","ios":"levelo://app?vid=b0496903-e4e2-480d-b2e6-4fcaae2cd474"},"vehicle_type_id":"4","last_reported":1751447626,"current_range_meters":21600,"station_id":"ce4bgr92rcd13ifvqc6g","pricing_plan_id":"cebpf4jnsgd1na2vs0mg"},{"bike_id":"aaae32df-99f5-43e3-813f-c870b5943dc8","system_id":"levelo_inurba_marseille","lat":43.30545,"lon":5.36516,"is_reserved":false,"is_disabled":false,"rental_uris":{"android":"levelo://app?vid=aaae32df-99f5-43e3-813f-c870b5943dc8","ios":"levelo://app?vid=aaae32df-99f5-43e3-813f-c870b5943dc8"},"vehicle_type_id":"4","last_reported":1751447626,"current_range_meters":21600,"station_id":"ce4bgs12rcd13ifvqcag","pricing_plan_id":"cebpf4jnsgd1na2vs0mg"},{"bike_id":"26ea36f0-4bc6-4834-ad15-df6df86c753d","system_id":"levelo_inurba_marseille","lat":43.26687,"lon":5.3826,"is_reserved":false,"is_disabled":false,"rental_uris":{"android":"levelo://app?vid=26ea36f0-4bc6-4834-ad15-df6df86c753d","ios":"levelo://app?vid=26ea36f0-4bc6-4834-ad15-df6df86c753d"},"vehicle_type_id":"4","last_reported":1751447626,"current_range_meters":21600,"station_id":"ce4bhg92rcd13ifvqf90","pricing_plan_id":"cebpf4jnsgd1na2vs0mg"},{"bike_id":"9796a8d1-9d58-4fd8-8a18-676239ebd72b","system_id":"levelo_inurba_marseille","lat":43.26785,"lon":5.3943,"is_reserved":false,"is_disabled":false,"rental_uris":{"android":"levelo://app?vid=9796a8d1-9d58-4fd8-8a18-676239ebd72b","ios":"levelo://app?vid=9796a8d1-9d58-4fd8-8a18-676239ebd72b"},"vehicle_type_id":"4","last_reported":1751447626,"current_range_meters":21600,"station_id":"ce4bhh12rcd13ifvqfg0","pricing_plan_id":"cebpf4jnsgd1na2vs0mg"},{"bike_id":"1c450dea-ee23-4edd-9938-762b07be9340","system_id":"levelo_inurba_marseille","lat":43.26501,"lon":5.395356,"is_reserved":false,"is_disabled":false,"rental_uris":{"android":"levelo://app?vid=1c450dea-ee23-4edd-9938-762b07be9340","ios":"levelo://app?vid=1c450dea-ee23-4edd-9938-762b07be9340"},"vehicle_type_id":"4","last_reported":1751447626,"current_range_meters":21600,"station_id":"ce4bhi12rcd13ifvqfq0","pricing_plan_id":"cebpf4jnsgd1na2vs0mg"},{"bike_id":"4d4995e7-0bba-4ac2-a238-afd84a5e99b5","system_id":"levelo_inurba_marseille","lat":43.304848,"lon":5.398345,"is_reserved":false,"is_disabled":false,"rental_uris":{"android":"levelo://app?vid=4d4995e7-0bba-4ac2-a238-afd84a5e99b5","ios":"levelo://app?vid=4d4995e7-0bba-4ac2-a238-afd84a5e99b5"},"vehicle_type_id":"4","last_reported":1751447626,"current_range_meters":22000,"station_id":"","pricing_plan_id":"cebpf4jnsgd1na2vs0mg"},{"bike_id":"50bb0fdb-2cc1-4d8d-af26-b7febba54985","system_id":"levelo_inurba_marseille","lat":43.274139,"lon":5.39007,"is_reserved":false,"is_disabled":false,"rental_uris":{"android":"levelo://app?vid=50bb0fdb-2cc1-4d8d-af26-b7febba54985","ios":"levelo://app?vid=50bb0fdb-2cc1-4d8d-af26-b7febba54985"},"vehicle_type_id":"4","last_reported":1751447626,"current_range_meters":22000,"station_id":"","pricing_plan_id":"cebpf4jnsgd1na2vs0mg"},{"bike_id":"16504a59-4656-4891-a755-d61c05675ceb","system_id":"levelo_inurba_marseille","lat":43.29298,"lon":5.37449,"is_reserved":false,"is_disabled":false,"rental_uris":{"android":"levelo://app?vid=16504a59-4656-4891-a755-d61c05675ceb","ios":"levelo://app?vid=16504a59-4656-4891-a755-d61c05675ceb"},"vehicle_type_id":"4","last_reported":1751447626,"current_range_meters":22000,"station_id":"ce4bgi12rcd13ifvqb70","pricing_plan_id":"cebpf4jnsgd1na2vs0mg"},{"bike_id":"04e3f494-bf78-44a4-8d6e-c7b83f264f6f","system_id":"levelo_inurba_marseille","lat":43.22928,"lon":5.35372,"is_reserved":false,"is_disabled":false,"rental_uris":{"android":"levelo://app?vid=04e3f494-bf78-44a4-8d6e-c7b83f264f6f","ios":"levelo://app?vid=04e3f494-bf78-44a4-8d6e-c7b83f264f6f"},"vehicle_type_id":"4","last_reported":1751447626,"current_range_meters":22000,"station_id":"cpo3532slgdg3j2ikp40","pricing_plan_id":"cebpf4jnsgd1na2vs0mg"},{"bike_id":"84fe93f6-d5ae-40c7-b760-d82650982324","system_id":"levelo_inurba_marseille","lat":43.21193,"lon":5.35059,"is_reserved":false,"is_disabled":false,"rental_uris":{"android":"levelo://app?vid=84fe93f6-d5ae-40c7-b760-d82650982324","ios":"levelo://app?vid=84fe93f6-d5ae-40c7-b760-d82650982324"},"vehicle_type_id":"4","last_reported":1751447626,"current_range_meters":22000,"station_id":"st_cvj6sg6p6f1abm77japg","pricing_plan_id":"cebpf4jnsgd1na2vs0mg"},{"bike_id":"f81e644d-f8df-4148-a0bc-331bd7f602a0","system_id":"levelo_inurba_marseille","lat":43.29532,"lon":5.38532,"is_reserved":false,"is_disabled":false,"rental_uris":{"android":"levelo://app?vid=f81e644d-f8df-4148-a0bc-331bd7f602a0","ios":"levelo://app?vid=f81e644d-f8df-4148-a0bc-331bd7f602a0"},"vehicle_type_id":"4","last_reported":1751447626,"current_range_meters":22400,"station_id":"ce4bgih2rcd13ifvqba0","pricing_plan_id":"cebpf4jnsgd1na2vs0mg"},{"bike_id":"26e1cd53-ce80-4f26-8f93-18bdcecac2a5","system_id":"levelo_inurba_marseille","lat":43.305374,"lon":5.365439,"is_reserved":false,"is_disabled":false,"rental_uris":{"android":"levelo://app?vid=26e1cd53-ce80-4f26-8f93-18bdcecac2a5","ios":"levelo://app?vid=26e1cd53-ce80-4f26-8f93-18bdcecac2a5"},"vehicle_type_id":"4","last_reported":1751447626,"current_range_meters":22400,"station_id":"ce4bgs12rcd13ifvqcag","pricing_plan_id":"cebpf4jnsgd1na2vs0mg"},{"bike_id":"f865c311-655f-48fa-8c8b-ae36728850ec","system_id":"levelo_inurba_marseille","lat":43.24179,"lon":5.39721,"is_reserved":false,"is_disabled":false,"rental_uris":{"android":"levelo://app?vid=f865c311-655f-48fa-8c8b-ae36728850ec","ios":"levelo://app?vid=f865c311-655f-48fa-8c8b-ae36728850ec"},"vehicle_type_id":"4","last_reported":1751447626,"current_range_meters":22400,"station_id":"ce4bhn12rcd13ifvqgpg","pricing_plan_id":"cebpf4jnsgd1na2vs0mg"},{"bike_id":"a6715104-7492-4ec6-a996-23050baf8551","system_id":"levelo_inurba_marseille","lat":43.225033,"lon":5.347853,"is_reserved":false,"is_disabled":false,"rental_uris":{"android":"levelo://app?vid=a6715104-7492-4ec6-a996-23050baf8551","ios":"levelo://app?vid=a6715104-7492-4ec6-a996-23050baf8551"},"vehicle_type_id":"4","last_reported":1751447626,"current_range_meters":22400,"station_id":"st_cvj5dfep6f1abm77gieg","pricing_plan_id":"cebpf4jnsgd1na2vs0mg"},{"bike_id":"0cfd5722-060e-44a3-93b0-f27c4b13a4f2","system_id":"levelo_inurba_marseille","lat":43.29528,"lon":5.38532,"is_reserved":false,"is_disabled":false,"rental_uris":{"android":"levelo://app?vid=0cfd5722-060e-44a3-93b0-f27c4b13a4f2","ios":"levelo://app?vid=0cfd5722-060e-44a3-93b0-f27c4b13a4f2"},"vehicle_type_id":"4","last_reported":1751447626,"current_range_meters":22800,"station_id":"ce4bgih2rcd13ifvqba0","pricing_plan_id":"cebpf4jnsgd1na2vs0mg"},{"bike_id":"4c78f0cb-2737-4938-bebd-8475b30d0838","system_id":"levelo_inurba_marseille","lat":43.31371,"lon":5.38496,"is_reserved":false,"is_disabled":false,"rental_uris":{"android":"levelo://app?vid=4c78f0cb-2737-4938-bebd-8475b30d0838","ios":"levelo://app?vid=4c78f0cb-2737-4938-bebd-8475b30d0838"},"vehicle_type_id":"4","last_reported":1751447626,"current_range_meters":22800,"station_id":"ce4bgt92rcd13ifvqcf0","pricing_plan_id":"cebpf4jnsgd1na2vs0mg"},{"bike_id":"e744b957-96c1-4b4a-8a74-f022edc32ad9","system_id":"levelo_inurba_marseille","lat":43.28037,"lon":5.36944,"is_reserved":false,"is_disabled":false,"rental_uris":{"android":"levelo://app?vid=e744b957-96c1-4b4a-8a74-f022edc32ad9","ios":"levelo://app?vid=e744b957-96c1-4b4a-8a74-f022edc32ad9"},"vehicle_type_id":"4","last_reported":1751447626,"current_range_meters":22800,"station_id":"ce4bha12rcd13ifvqef0","pricing_plan_id":"cebpf4jnsgd1na2vs0mg"},{"bike_id":"569027a7-02b0-4149-af7e-21ec913c321e","system_id":"levelo_inurba_marseille","lat":43.26032,"lon":5.37545,"is_reserved":false,"is_disabled":false,"rental_uris":{"android":"levelo://app?vid=569027a7-02b0-4149-af7e-21ec913c321e","ios":"levelo://app?vid=569027a7-02b0-4149-af7e-21ec913c321e"},"vehicle_type_id":"4","last_reported":1751447626,"current_range_meters":22800,"station_id":"ce4bhgh2rcd13ifvqfa0","pricing_plan_id":"cebpf4jnsgd1na2vs0mg"},{"bike_id":"6bfe02e3-3199-43e6-ac38-ac744da5dbb0","system_id":"levelo_inurba_marseille","lat":43.26942,"lon":5.38906,"is_reserved":false,"is_disabled":false,"rental_uris":{"android":"levelo://app?vid=6bfe02e3-3199-43e6-ac38-ac744da5dbb0","ios":"levelo://app?vid=6bfe02e3-3199-43e6-ac38-ac744da5dbb0"},"vehicle_type_id":"4","last_reported":1751447626,"current_range_meters":22800,"station_id":"ce4bhhh2rcd13ifvqfl0","pricing_plan_id":"cebpf4jnsgd1na2vs0mg"},{"bike_id":"bed3e8a6-b151-4512-8ecd-b49dd3969a2c","system_id":"levelo_inurba_marseille","lat":43.32104,"lon":5.3678,"is_reserved":false,"is_disabled":false,"rental_uris":{"android":"levelo://app?vid=bed3e8a6-b151-4512-8ecd-b49dd3969a2c","ios":"levelo://app?vid=bed3e8a6-b151-4512-8ecd-b49dd3969a2c"},"vehicle_type_id":"4","last_reported":1751447626,"current_range_meters":22800,"station_id":"ce4bhrh2rcd13ifvqhug","pricing_plan_id":"cebpf4jnsgd1na2vs0mg"},{"bike_id":"1c8ab180-05fd-405f-9922-b2b2c2d5142f","system_id":"levelo_inurba_marseille","lat":43.33794,"lon":5.38114,"is_reserved":false,"is_disabled":false,"rental_uris":{"android":"levelo://app?vid=1c8ab180-05fd-405f-9922-b2b2c2d5142f","ios":"levelo://app?vid=1c8ab180-05fd-405f-9922-b2b2c2d5142f"},"vehicle_type_id":"4","last_reported":1751447626,"current_range_meters":23200,"station_id":"","pricing_plan_id":"cebpf4jnsgd1na2vs0mg"},{"bike_id":"06ff0bd2-2ce6-4b38-aec3-c3ad0fb14979","system_id":"levelo_inurba_marseille","lat":43.30545,"lon":5.3669,"is_reserved":false,"is_disabled":false,"rental_uris":{"android":"levelo://app?vid=06ff0bd2-2ce6-4b38-aec3-c3ad0fb14979","ios":"levelo://app?vid=06ff0bd2-2ce6-4b38-aec3-c3ad0fb14979"},"vehicle_type_id":"4","last_reported":1751447626,"current_range_meters":23200,"station_id":"ce4bgrp2rcd13ifvqc9g","pricing_plan_id":"cebpf4jnsgd1na2vs0mg"},{"bike_id":"0d90bd42-80f6-481f-b1de-91270327c5d3","system_id":"levelo_inurba_marseille","lat":43.30099,"lon":5.39073,"is_reserved":false,"is_disabled":false,"rental_uris":{"android":"levelo://app?vid=0d90bd42-80f6-481f-b1de-91270327c5d3","ios":"levelo://app?vid=0d90bd42-80f6-481f-b1de-91270327c5d3"},"vehicle_type_id":"4","last_reported":1751447626,"current_range_meters":23200,"station_id":"ce4bh192rcd13ifvqdb0","pricing_plan_id":"cebpf4jnsgd1na2vs0mg"},{"bike_id":"5849db54-c91b-4960-8561-aa0767a09d87","system_id":"levelo_inurba_marseille","lat":43.27371,"lon":5.36254,"is_reserved":false,"is_disabled":false,"rental_uris":{"android":"levelo://app?vid=5849db54-c91b-4960-8561-aa0767a09d87","ios":"levelo://app?vid=5849db54-c91b-4960-8561-aa0767a09d87"},"vehicle_type_id":"4","last_reported":1751447626,"current_range_meters":23200,"station_id":"ce4bhbh2rcd13ifvqeo0","pricing_plan_id":"cebpf4jnsgd1na2vs0mg"},{"bike_id":"88131bff-4a69-4d44-9625-2e48861d5cdf","system_id":"levelo_inurba_marseille","lat":43.26192,"lon":5.3744,"is_reserved":false,"is_disabled":false,"rental_uris":{"android":"levelo://app?vid=88131bff-4a69-4d44-9625-2e48861d5cdf","ios":"levelo://app?vid=88131bff-4a69-4d44-9625-2e48861d5cdf"},"vehicle_type_id":"4","last_reported":1751447626,"current_range_meters":23200,"station_id":"ce4bhgp2rcd13ifvqfc0","pricing_plan_id":"cebpf4jnsgd1na2vs0mg"},{"bike_id":"a0480f1d-3573-45b7-8d76-2022e256c551","system_id":"levelo_inurba_marseille","lat":43.25924,"lon":5.40915,"is_reserved":false,"is_disabled":false,"rental_uris":{"android":"levelo://app?vid=a0480f1d-3573-45b7-8d76-2022e256c551","ios":"levelo://app?vid=a0480f1d-3573-45b7-8d76-2022e256c551"},"vehicle_type_id":"4","last_reported":1751447626,"current_range_meters":23200,"station_id":"ce4bhm92rcd13ifvqglg","pricing_plan_id":"cebpf4jnsgd1na2vs0mg"},{"bike_id":"6f79c6d4-5dd3-454d-aa34-73bae7a4c409","system_id":"levelo_inurba_marseille","lat":43.30423,"lon":5.41276,"is_reserved":false,"is_disabled":false,"rental_uris":{"android":"levelo://app?vid=6f79c6d4-5dd3-454d-aa34-73bae7a4c409","ios":"levelo://app?vid=6f79c6d4-5dd3-454d-aa34-73bae7a4c409"},"vehicle_type_id":"4","last_reported":1751447626,"current_range_meters":23200,"station_id":"ce4bhop2rcd13ifvqh8g","pricing_plan_id":"cebpf4jnsgd1na2vs0mg"},{"bike_id":"cc04118e-9312-4bf8-9106-d64e829afbaa","system_id":"levelo_inurba_marseille","lat":43.21195,"lon":5.35073,"is_reserved":false,"is_disabled":false,"rental_uris":{"android":"levelo://app?vid=cc04118e-9312-4bf8-9106-d64e829afbaa","ios":"levelo://app?vid=cc04118e-9312-4bf8-9106-d64e829afbaa"},"vehicle_type_id":"4","last_reported":1751447626,"current_range_meters":23200,"station_id":"st_cvj6sg6p6f1abm77japg","pricing_plan_id":"cebpf4jnsgd1na2vs0mg"},{"bike_id":"879367be-d1fe-4d9b-9652-4d4a7987e13f","system_id":"levelo_inurba_marseille","lat":43.309172,"lon":5.368543,"is_reserved":false,"is_disabled":false,"rental_uris":{"android":"levelo://app?vid=879367be-d1fe-4d9b-9652-4d4a7987e13f","ios":"levelo://app?vid=879367be-d1fe-4d9b-9652-4d4a7987e13f"},"vehicle_type_id":"4","last_reported":1751447626,"current_range_meters":24000,"station_id":"ce4bgn92rcd13ifvqbvg","pricing_plan_id":"cebpf4jnsgd1na2vs0mg"},{"bike_id":"80691743-252b-456e-aa42-2ea804dade02","system_id":"levelo_inurba_marseille","lat":43.255033,"lon":5.376467,"is_reserved":false,"is_disabled":false,"rental_uris":{"android":"levelo://app?vid=80691743-252b-456e-aa42-2ea804dade02","ios":"levelo://app?vid=80691743-252b-456e-aa42-2ea804dade02"},"vehicle_type_id":"4","last_reported":1751447626,"current_range_meters":24000,"station_id":"ce4bhh12rcd13ifvqff0","pricing_plan_id":"cebpf4jnsgd1na2vs0mg"},{"bike_id":"bf3a7ea3-39df-418d-9fc6-ab3d5bc1a92b","system_id":"levelo_inurba_marseille","lat":43.257278,"lon":5.411046,"is_reserved":false,"is_disabled":false,"rental_uris":{"android":"levelo://app?vid=bf3a7ea3-39df-418d-9fc6-ab3d5bc1a92b","ios":"levelo://app?vid=bf3a7ea3-39df-418d-9fc6-ab3d5bc1a92b"},"vehicle_type_id":"4","last_reported":1751447626,"current_range_meters":24000,"station_id":"ce4bhkp2rcd13ifvqgd0","pricing_plan_id":"cebpf4jnsgd1na2vs0mg"},{"bike_id":"02e0325b-4923-4994-92cd-cc109d4590ac","system_id":"levelo_inurba_marseille","lat":43.24155,"lon":5.39709,"is_reserved":false,"is_disabled":false,"rental_uris":{"android":"levelo://app?vid=02e0325b-4923-4994-92cd-cc109d4590ac","ios":"levelo://app?vid=02e0325b-4923-4994-92cd-cc109d4590ac"},"vehicle_type_id":"4","last_reported":1751447626,"current_range_meters":24000,"station_id":"ce4bhn12rcd13ifvqgpg","pricing_plan_id":"cebpf4jnsgd1na2vs0mg"},{"bike_id":"b204fbc1-c021-4a2d-830e-37201905b48d","system_id":"levelo_inurba_marseille","lat":43.29307,"lon":5.37158,"is_reserved":false,"is_disabled":false,"rental_uris":{"android":"levelo://app?vid=b204fbc1-c021-4a2d-830e-37201905b48d","ios":"levelo://app?vid=b204fbc1-c021-4a2d-830e-37201905b48d"},"vehicle_type_id":"4","last_reported":1751447626,"current_range_meters":24400,"station_id":"ce4bgh92rcd13ifvqb40","pricing_plan_id":"cebpf4jnsgd1na2vs0mg"},{"bike_id":"83b34858-668e-4e70-9b1e-65a23d701724","system_id":"levelo_inurba_marseille","lat":43.29735,"lon":5.37681,"is_reserved":false,"is_disabled":false,"rental_uris":{"android":"levelo://app?vid=83b34858-668e-4e70-9b1e-65a23d701724","ios":"levelo://app?vid=83b34858-668e-4e70-9b1e-65a23d701724"},"vehicle_type_id":"4","last_reported":1751447626,"current_range_meters":24400,"station_id":"ce4bgkh2rcd13ifvqbl0","pricing_plan_id":"cebpf4jnsgd1na2vs0mg"},{"bike_id":"8dcbd70c-d9da-48c4-b21d-3510ccca8727","system_id":"levelo_inurba_marseille","lat":43.313507,"lon":5.368244,"is_reserved":false,"is_disabled":false,"rental_uris":{"android":"levelo://app?vid=8dcbd70c-d9da-48c4-b21d-3510ccca8727","ios":"levelo://app?vid=8dcbd70c-d9da-48c4-b21d-3510ccca8727"},"vehicle_type_id":"4","last_reported":1751447626,"current_range_meters":24400,"station_id":"ce4bgr92rcd13ifvqc6g","pricing_plan_id":"cebpf4jnsgd1na2vs0mg"},{"bike_id":"dd419159-28d4-41c3-8748-034775b2af06","system_id":"levelo_inurba_marseille","lat":43.2957,"lon":5.39967,"is_reserved":false,"is_disabled":false,"rental_uris":{"android":"levelo://app?vid=dd419159-28d4-41c3-8748-034775b2af06","ios":"levelo://app?vid=dd419159-28d4-41c3-8748-034775b2af06"},"vehicle_type_id":"4","last_reported":1751447626,"current_range_meters":24400,"station_id":"ce4bh312rcd13ifvqdj0","pricing_plan_id":"cebpf4jnsgd1na2vs0mg"},{"bike_id":"e1e7c15b-5724-49e7-b0fb-d736d8c51249","system_id":"levelo_inurba_marseille","lat":43.24166,"lon":5.39718,"is_reserved":false,"is_disabled":false,"rental_uris":{"android":"levelo://app?vid=e1e7c15b-5724-49e7-b0fb-d736d8c51249","ios":"levelo://app?vid=e1e7c15b-5724-49e7-b0fb-d736d8c51249"},"vehicle_type_id":"4","last_reported":1751447626,"current_range_meters":24400,"station_id":"ce4bhn12rcd13ifvqgpg","pricing_plan_id":"cebpf4jnsgd1na2vs0mg"},{"bike_id":"5f1e5526-9ff8-4075-8194-48a897f058b4","system_id":"levelo_inurba_marseille","lat":43.21211,"lon":5.3506,"is_reserved":false,"is_disabled":false,"rental_uris":{"android":"levelo://app?vid=5f1e5526-9ff8-4075-8194-48a897f058b4","ios":"levelo://app?vid=5f1e5526-9ff8-4075-8194-48a897f058b4"},"vehicle_type_id":"4","last_reported":1751447626,"current_range_meters":24400,"station_id":"st_cvj6sg6p6f1abm77japg","pricing_plan_id":"cebpf4jnsgd1na2vs0mg"},{"bike_id":"3eabe1e2-f9f5-41cb-a4ed-73ca7f909c5c","system_id":"levelo_inurba_marseille","lat":43.211904,"lon":5.350746,"is_reserved":false,"is_disabled":false,"rental_uris":{"android":"levelo://app?vid=3eabe1e2-f9f5-41cb-a4ed-73ca7f909c5c","ios":"levelo://app?vid=3eabe1e2-f9f5-41cb-a4ed-73ca7f909c5c"},"vehicle_type_id":"4","last_reported":1751447626,"current_range_meters":24400,"station_id":"st_cvj6sg6p6f1abm77japg","pricing_plan_id":"cebpf4jnsgd1na2vs0mg"},{"bike_id":"9b2223f8-b86e-473a-b366-d8c36ecf3872","system_id":"levelo_inurba_marseille","lat":43.29816,"lon":5.37508,"is_reserved":false,"is_disabled":false,"rental_uris":{"android":"levelo://app?vid=9b2223f8-b86e-473a-b366-d8c36ecf3872","ios":"levelo://app?vid=9b2223f8-b86e-473a-b366-d8c36ecf3872"},"vehicle_type_id":"4","last_reported":1751447626,"current_range_meters":24800,"station_id":"","pricing_plan_id":"cebpf4jnsgd1na2vs0mg"},{"bike_id":"7712491c-e18b-4b09-bb79-30880b357c07","system_id":"levelo_inurba_marseille","lat":43.21195,"lon":5.35046,"is_reserved":false,"is_disabled":false,"rental_uris":{"android":"levelo://app?vid=7712491c-e18b-4b09-bb79-30880b357c07","ios":"levelo://app?vid=7712491c-e18b-4b09-bb79-30880b357c07"},"vehicle_type_id":"4","last_reported":1751447626,"current_range_meters":24800,"station_id":"","pricing_plan_id":"cebpf4jnsgd1na2vs0mg"},{"bike_id":"592be7a5-5037-4e4a-b75c-ffe83ae0992e","system_id":"levelo_inurba_marseille","lat":43.31371,"lon":5.36676,"is_reserved":false,"is_disabled":false,"rental_uris":{"android":"levelo://app?vid=592be7a5-5037-4e4a-b75c-ffe83ae0992e","ios":"levelo://app?vid=592be7a5-5037-4e4a-b75c-ffe83ae0992e"},"vehicle_type_id":"4","last_reported":1751447626,"current_range_meters":24800,"station_id":"ce4bgr92rcd13ifvqc6g","pricing_plan_id":"cebpf4jnsgd1na2vs0mg"},{"bike_id":"9756ade4-13f9-4a4b-ae9f-660cdfd8556b","system_id":"levelo_inurba_marseille","lat":43.30528,"lon":5.36531,"is_reserved":false,"is_disabled":false,"rental_uris":{"android":"levelo://app?vid=9756ade4-13f9-4a4b-ae9f-660cdfd8556b","ios":"levelo://app?vid=9756ade4-13f9-4a4b-ae9f-660cdfd8556b"},"vehicle_type_id":"4","last_reported":1751447626,"current_range_meters":24800,"station_id":"ce4bgs12rcd13ifvqcag","pricing_plan_id":"cebpf4jnsgd1na2vs0mg"},{"bike_id":"ace8ee1f-f91b-4cc0-bb58-a05dd50bcd0d","system_id":"levelo_inurba_marseille","lat":43.2903,"lon":5.37558,"is_reserved":false,"is_disabled":false,"rental_uris":{"android":"levelo://app?vid=ace8ee1f-f91b-4cc0-bb58-a05dd50bcd0d","ios":"levelo://app?vid=ace8ee1f-f91b-4cc0-bb58-a05dd50bcd0d"},"vehicle_type_id":"4","last_reported":1751447626,"current_range_meters":24800,"station_id":"ce4bh692rcd13ifvqe90","pricing_plan_id":"cebpf4jnsgd1na2vs0mg"},{"bike_id":"6bf15a13-69c3-4689-a902-7d7338e9c2ef","system_id":"levelo_inurba_marseille","lat":43.292297,"lon":5.360554,"is_reserved":false,"is_disabled":false,"rental_uris":{"android":"levelo://app?vid=6bf15a13-69c3-4689-a902-7d7338e9c2ef","ios":"levelo://app?vid=6bf15a13-69c3-4689-a902-7d7338e9c2ef"},"vehicle_type_id":"4","last_reported":1751447626,"current_range_meters":24800,"station_id":"ce4bhbh2rcd13ifvqeqg","pricing_plan_id":"cebpf4jnsgd1na2vs0mg"},{"bike_id":"cf252ee4-5d03-4a19-9608-f83436404133","system_id":"levelo_inurba_marseille","lat":43.26936,"lon":5.3892,"is_reserved":false,"is_disabled":false,"rental_uris":{"android":"levelo://app?vid=cf252ee4-5d03-4a19-9608-f83436404133","ios":"levelo://app?vid=cf252ee4-5d03-4a19-9608-f83436404133"},"vehicle_type_id":"4","last_reported":1751447626,"current_range_meters":24800,"station_id":"ce4bhhh2rcd13ifvqfl0","pricing_plan_id":"cebpf4jnsgd1na2vs0mg"},{"bike_id":"8f8b2517-9401-40c6-a273-8f8414eb55b7","system_id":"levelo_inurba_marseille","lat":43.2469,"lon":5.38148,"is_reserved":false,"is_disabled":false,"rental_uris":{"android":"levelo://app?vid=8f8b2517-9401-40c6-a273-8f8414eb55b7","ios":"levelo://app?vid=8f8b2517-9401-40c6-a273-8f8414eb55b7"},"vehicle_type_id":"4","last_reported":1751447626,"current_range_meters":24800,"station_id":"ce4bhih2rcd13ifvqfr0","pricing_plan_id":"cebpf4jnsgd1na2vs0mg"},{"bike_id":"f89c4b4e-8496-4009-a879-494292d7747b","system_id":"levelo_inurba_marseille","lat":43.245761,"lon":5.394761,"is_reserved":false,"is_disabled":false,"rental_uris":{"android":"levelo://app?vid=f89c4b4e-8496-4009-a879-494292d7747b","ios":"levelo://app?vid=f89c4b4e-8496-4009-a879-494292d7747b"},"vehicle_type_id":"4","last_reported":1751447626,"current_range_meters":24800,"station_id":"ce4bhlp2rcd13ifvqgjg","pricing_plan_id":"cebpf4jnsgd1na2vs0mg"},{"bike_id":"31fab6ac-cee8-4404-87e8-15e94cf1944e","system_id":"levelo_inurba_marseille","lat":43.24171,"lon":5.3639,"is_reserved":false,"is_disabled":false,"rental_uris":{"android":"levelo://app?vid=31fab6ac-cee8-4404-87e8-15e94cf1944e","ios":"levelo://app?vid=31fab6ac-cee8-4404-87e8-15e94cf1944e"},"vehicle_type_id":"4","last_reported":1751447626,"current_range_meters":24800,"station_id":"cpo36qri1sfpv3e86is0","pricing_plan_id":"cebpf4jnsgd1na2vs0mg"},{"bike_id":"ba926bfc-9632-4680-b0ed-32a040d6fb83","system_id":"levelo_inurba_marseille","lat":43.21196,"lon":5.3506,"is_reserved":false,"is_disabled":false,"rental_uris":{"android":"levelo://app?vid=ba926bfc-9632-4680-b0ed-32a040d6fb83","ios":"levelo://app?vid=ba926bfc-9632-4680-b0ed-32a040d6fb83"},"vehicle_type_id":"4","last_reported":1751447626,"current_range_meters":24800,"station_id":"st_cvj6sg6p6f1abm77japg","pricing_plan_id":"cebpf4jnsgd1na2vs0mg"},{"bike_id":"b13877a6-4825-4d82-b46b-67fa8ad66c5d","system_id":"levelo_inurba_marseille","lat":43.21197,"lon":5.35054,"is_reserved":false,"is_disabled":false,"rental_uris":{"android":"levelo://app?vid=b13877a6-4825-4d82-b46b-67fa8ad66c5d","ios":"levelo://app?vid=b13877a6-4825-4d82-b46b-67fa8ad66c5d"},"vehicle_type_id":"4","last_reported":1751447626,"current_range_meters":24800,"station_id":"st_cvj6sg6p6f1abm77japg","pricing_plan_id":"cebpf4jnsgd1na2vs0mg"},{"bike_id":"7af9f78b-8216-43ee-a369-4a24baea425e","system_id":"levelo_inurba_marseille","lat":43.31323,"lon":5.36894,"is_reserved":false,"is_disabled":false,"rental_uris":{"android":"levelo://app?vid=7af9f78b-8216-43ee-a369-4a24baea425e","ios":"levelo://app?vid=7af9f78b-8216-43ee-a369-4a24baea425e"},"vehicle_type_id":"4","last_reported":1751447626,"current_range_meters":25200,"station_id":"ce4bgl92rcd13ifvqbq0","pricing_plan_id":"cebpf4jnsgd1na2vs0mg"},{"bike_id":"0a3dfcb1-1042-49e8-989a-145199f2ad51","system_id":"levelo_inurba_marseille","lat":43.3055,"lon":5.36705,"is_reserved":false,"is_disabled":false,"rental_uris":{"android":"levelo://app?vid=0a3dfcb1-1042-49e8-989a-145199f2ad51","ios":"levelo://app?vid=0a3dfcb1-1042-49e8-989a-145199f2ad51"},"vehicle_type_id":"4","last_reported":1751447626,"current_range_meters":25200,"station_id":"ce4bgrp2rcd13ifvqc9g","pricing_plan_id":"cebpf4jnsgd1na2vs0mg"},{"bike_id":"37e221f2-e062-4e7b-aaa4-6a9751a3f49f","system_id":"levelo_inurba_marseille","lat":43.30541,"lon":5.3653,"is_reserved":false,"is_disabled":false,"rental_uris":{"android":"levelo://app?vid=37e221f2-e062-4e7b-aaa4-6a9751a3f49f","ios":"levelo://app?vid=37e221f2-e062-4e7b-aaa4-6a9751a3f49f"},"vehicle_type_id":"4","last_reported":1751447626,"current_range_meters":25200,"station_id":"ce4bgs12rcd13ifvqcag","pricing_plan_id":"cebpf4jnsgd1na2vs0mg"},{"bike_id":"ce10ab80-019d-4fc2-b09b-5a352265878a","system_id":"levelo_inurba_marseille","lat":43.29274,"lon":5.36843,"is_reserved":false,"is_disabled":false,"rental_uris":{"android":"levelo://app?vid=ce10ab80-019d-4fc2-b09b-5a352265878a","ios":"levelo://app?vid=ce10ab80-019d-4fc2-b09b-5a352265878a"},"vehicle_type_id":"4","last_reported":1751447626,"current_range_meters":25200,"station_id":"ce4bhbp2rcd13ifvqesg","pricing_plan_id":"cebpf4jnsgd1na2vs0mg"},{"bike_id":"45ced9af-06b9-41df-bacb-644359277690","system_id":"levelo_inurba_marseille","lat":43.24688,"lon":5.38127,"is_reserved":false,"is_disabled":false,"rental_uris":{"android":"levelo://app?vid=45ced9af-06b9-41df-bacb-644359277690","ios":"levelo://app?vid=45ced9af-06b9-41df-bacb-644359277690"},"vehicle_type_id":"4","last_reported":1751447626,"current_range_meters":25200,"station_id":"ce4bhih2rcd13ifvqfr0","pricing_plan_id":"cebpf4jnsgd1na2vs0mg"},{"bike_id":"8428ec38-a237-4e17-93c1-84abfb7573c3","system_id":"levelo_inurba_marseille","lat":43.25134,"lon":5.40346,"is_reserved":false,"is_disabled":false,"rental_uris":{"android":"levelo://app?vid=8428ec38-a237-4e17-93c1-84abfb7573c3","ios":"levelo://app?vid=8428ec38-a237-4e17-93c1-84abfb7573c3"},"vehicle_type_id":"4","last_reported":1751447626,"current_range_meters":25200,"station_id":"ce4bhlh2rcd13ifvqgig","pricing_plan_id":"cebpf4jnsgd1na2vs0mg"},{"bike_id":"559ed6ee-7ed1-41b8-a7b9-94151f20221c","system_id":"levelo_inurba_marseille","lat":43.32013,"lon":5.3678,"is_reserved":false,"is_disabled":false,"rental_uris":{"android":"levelo://app?vid=559ed6ee-7ed1-41b8-a7b9-94151f20221c","ios":"levelo://app?vid=559ed6ee-7ed1-41b8-a7b9-94151f20221c"},"vehicle_type_id":"4","last_reported":1751447626,"current_range_meters":25200,"station_id":"ce4bhrh2rcd13ifvqhug","pricing_plan_id":"cebpf4jnsgd1na2vs0mg"},{"bike_id":"4b42c3b2-e769-43c7-8dde-8611710e4fbf","system_id":"levelo_inurba_marseille","lat":43.30086,"lon":5.39078,"is_reserved":false,"is_disabled":false,"rental_uris":{"android":"levelo://app?vid=4b42c3b2-e769-43c7-8dde-8611710e4fbf","ios":"levelo://app?vid=4b42c3b2-e769-43c7-8dde-8611710e4fbf"},"vehicle_type_id":"4","last_reported":1751447626,"current_range_meters":25600,"station_id":"ce4bh192rcd13ifvqdb0","pricing_plan_id":"cebpf4jnsgd1na2vs0mg"},{"bike_id":"27e3e57e-ec97-4cd1-8b2b-c4e95ada0d3b","system_id":"levelo_inurba_marseille","lat":43.29235,"lon":5.36036,"is_reserved":false,"is_disabled":false,"rental_uris":{"android":"levelo://app?vid=27e3e57e-ec97-4cd1-8b2b-c4e95ada0d3b","ios":"levelo://app?vid=27e3e57e-ec97-4cd1-8b2b-c4e95ada0d3b"},"vehicle_type_id":"4","last_reported":1751447626,"current_range_meters":25600,"station_id":"ce4bhbh2rcd13ifvqeqg","pricing_plan_id":"cebpf4jnsgd1na2vs0mg"},{"bike_id":"c3193cfd-2de1-44a8-a53b-ca1e22e7593b","system_id":"levelo_inurba_marseille","lat":43.26561,"lon":5.37287,"is_reserved":false,"is_disabled":false,"rental_uris":{"android":"levelo://app?vid=c3193cfd-2de1-44a8-a53b-ca1e22e7593b","ios":"levelo://app?vid=c3193cfd-2de1-44a8-a53b-ca1e22e7593b"},"vehicle_type_id":"4","last_reported":1751447626,"current_range_meters":25600,"station_id":"ce4bhg12rcd13ifvqf70","pricing_plan_id":"cebpf4jnsgd1na2vs0mg"},{"bike_id":"9a99bb6d-63c4-49ed-b89b-7e34262bbc5d","system_id":"levelo_inurba_marseille","lat":43.26558,"lon":5.3728,"is_reserved":false,"is_disabled":false,"rental_uris":{"android":"levelo://app?vid=9a99bb6d-63c4-49ed-b89b-7e34262bbc5d","ios":"levelo://app?vid=9a99bb6d-63c4-49ed-b89b-7e34262bbc5d"},"vehicle_type_id":"4","last_reported":1751447626,"current_range_meters":25600,"station_id":"ce4bhg12rcd13ifvqf70","pricing_plan_id":"cebpf4jnsgd1na2vs0mg"},{"bike_id":"f494afae-e4a6-4ccc-bfa5-5700adaae146","system_id":"levelo_inurba_marseille","lat":43.27316,"lon":5.39068,"is_reserved":false,"is_disabled":false,"rental_uris":{"android":"levelo://app?vid=f494afae-e4a6-4ccc-bfa5-5700adaae146","ios":"levelo://app?vid=f494afae-e4a6-4ccc-bfa5-5700adaae146"},"vehicle_type_id":"4","last_reported":1751447626,"current_range_meters":25600,"station_id":"ce4bhgp2rcd13ifvqfe0","pricing_plan_id":"cebpf4jnsgd1na2vs0mg"},{"bike_id":"4810ea37-96e2-4658-a4ae-61ecf5afcf05","system_id":"levelo_inurba_marseille","lat":43.25909,"lon":5.40882,"is_reserved":false,"is_disabled":false,"rental_uris":{"android":"levelo://app?vid=4810ea37-96e2-4658-a4ae-61ecf5afcf05","ios":"levelo://app?vid=4810ea37-96e2-4658-a4ae-61ecf5afcf05"},"vehicle_type_id":"4","last_reported":1751447626,"current_range_meters":25600,"station_id":"ce4bhm92rcd13ifvqglg","pricing_plan_id":"cebpf4jnsgd1na2vs0mg"},{"bike_id":"abd1416b-81f1-4449-a615-560af9c0d4f4","system_id":"levelo_inurba_marseille","lat":43.323607,"lon":5.367587,"is_reserved":false,"is_disabled":false,"rental_uris":{"android":"levelo://app?vid=abd1416b-81f1-4449-a615-560af9c0d4f4","ios":"levelo://app?vid=abd1416b-81f1-4449-a615-560af9c0d4f4"},"vehicle_type_id":"4","last_reported":1751447626,"current_range_meters":25600,"station_id":"ce4bhsh2rcd13ifvqi2g","pricing_plan_id":"cebpf4jnsgd1na2vs0mg"},{"bike_id":"b3d7a6ac-4ad8-404e-91ae-53d96dbbd9fb","system_id":"levelo_inurba_marseille","lat":43.21197,"lon":5.35054,"is_reserved":false,"is_disabled":false,"rental_uris":{"android":"levelo://app?vid=b3d7a6ac-4ad8-404e-91ae-53d96dbbd9fb","ios":"levelo://app?vid=b3d7a6ac-4ad8-404e-91ae-53d96dbbd9fb"},"vehicle_type_id":"4","last_reported":1751447626,"current_range_meters":25600,"station_id":"st_cvj6sg6p6f1abm77japg","pricing_plan_id":"cebpf4jnsgd1na2vs0mg"},