{"last_updated":1745345644,"ttl":60,"version":"2.2","data":{"bikes":[{"bike_id":"21008f01-fae0-4cb9-9733-7111bd4f4fa4","system_id":"levelo_inurba_marseille","lat":43.30916,"lon":5.4015,"is_reserved":false,"is_disabled":false,"rental_uris":{"android":"levelo://app?vid=21008f01-fae0-4cb9-9733-7111bd4f4fa4","ios":"levelo://app?vid=21008f01-fae0-4cb9-9733-7111bd4f4fa4"},"vehicle_type_id":"4","last_reported":1745345644,"current_range_meters":2800,"station_id":"ce4bgvp2rcd13ifvqct0","pricing_plan_id":"cebpf4jnsgd1na2vs0mg"},{"bike_id":"1ba01b83-43d3-475a-a8dc-41c7ecf78e4b","system_id":"levelo_inurba_marseille","lat":43.31762,"lon":5.39024,"is_reserved":false,"is_disabled":false,"rental_uris":{"android":"levelo://app?vid=1ba01b83-43d3-475a-a8dc-41c7ecf78e4b","ios":"levelo://app?vid=1ba01b83-43d3-475a-a8dc-41c7ecf78e4b"},"vehicle_type_id":"4","last_reported":1745345644,"current_range_meters":2800,"station_id":"ce4bhqp2rcd13ifvqhng","pricing_plan_id":"cebpf4jnsgd1na2vs0mg"},{"bike_id":"08adba7b-eac3-4cfc-9923-2ccf0cc4ffef","system_id":"levelo_inurba_marseille","lat":43.24553,"lon":5.41299,"is_reserved":false,"is_disabled":false,"rental_uris":{"android":"levelo://app?vid=08adba7b-eac3-4cfc-9923-2ccf0cc4ffef","ios":"levelo://app?vid=08adba7b-eac3-4cfc-9923-2ccf0cc4ffef"},"vehicle_type_id":"4","last_reported":1745345644,"current_range_meters":3200,"station_id":"","pricing_plan_id":"cebpf4jnsgd1na2vs0mg"},{"bike_id":"c712a562-aa83-4b6a-a7b0-67fb4d6a7319","system_id":"levelo_inurba_marseille","lat":43.21211,"lon":5.35082,"is_reserved":false,"is_disabled":false,"rental_uris":{"android":"levelo://app?vid=c712a562-aa83-4b6a-a7b0-67fb4d6a7319","ios":"levelo://app?vid=c712a562-aa83-4b6a-a7b0-67fb4d6a7319"},"vehicle_type_id":"4","last_reported":1745345644,"current_range_meters":3200,"station_id":"st_cvj6sg6p6f1abm77japg","pricing_plan_id":"cebpf4jnsgd1na2vs0mg"},{"bike_id":"f97f0ed7-0afa-487c-bacf-2d5aae60fa25","system_id":"levelo_inurba_marseille","lat":43.31882,"lon":5.4074,"is_reserved":false,"is_disabled":false,"rental_uris":{"android":"levelo://app?vid=f97f0ed7-0afa-487c-bacf-2d5aae60fa25","ios":"levelo://app?vid=f97f0ed7-0afa-487c-bacf-2d5aae60fa25"},"vehicle_type_id":"4","last_reported":1745345644,"current_range_meters":2800,"station_id":"ce4bhq12rcd13ifvqhig","pricing_plan_id":"cebpf4jnsgd1na2vs0mg"},{"bike_id":"9fd00bbc-d600-4798-ac6a-c54c2fdcc85c","system_id":"levelo_inurba_marseille","lat":43.24389,"lon":5.37052,"is_reserved":false,"is_disabled":false,"rental_uris":{"android":"levelo://app?vid=9fd00bbc-d600-4798-ac6a-c54c2fdcc85c","ios":"levelo://app?vid=9fd00bbc-d600-4798-ac6a-c54c2fdcc85c"},"vehicle_type_id":"4","last_reported":1745345644,"current_range_meters":3200,"station_id":"ce4bhhh2rcd13ifvqfk0","pricing_plan_id":"cebpf4jnsgd1na2vs0mg"},{"bike_id":"e909aaf5-90a2-49e5-ac24-afa776b67ef2","system_id":"levelo_inurba_marseille","lat":43.28722,"lon":5.37941,"is_reserved":false,"is_disabled":false,"rental_uris":{"android":"levelo://app?vid=e909aaf5-90a2-49e5-ac24-afa776b67ef2","ios":"levelo://app?vid=e909aaf5-90a2-49e5-ac24-afa776b67ef2"},"vehicle_type_id":"4","last_reported":1745345644,"current_range_meters":3200,"station_id":"ce4bh9p2rcd13ifvqec0","pricing_plan_id":"cebpf4jnsgd1na2vs0mg"},{"bike_id":"504dfd36-bd2c-47c5-9b10-dc47c22085f3","system_id":"levelo_inurba_marseille","lat":43.22931,"lon":5.35372,"is_reserved":false,"is_disabled":false,"rental_uris":{"android":"levelo://app?vid=504dfd36-bd2c-47c5-9b10-dc47c22085f3","ios":"levelo://app?vid=504dfd36-bd2c-47c5-9b10-dc47c22085f3"},"vehicle_type_id":"4","last_reported":1745345644,"current_range_meters":3600,"station_id":"cpo3532slgdg3j2ikp40","pricing_plan_id":"cebpf4jnsgd1na2vs0mg"},{"bike_id":"f5f00e0a-20a8-422d-b04b-70d93a8a8a40","system_id":"levelo_inurba_marseille","lat":43.31079,"lon":5.38355,"is_reserved":false,"is_disabled":false,"rental_uris":{"android":"levelo://app?vid=f5f00e0a-20a8-422d-b04b-70d93a8a8a40","ios":"levelo://app?vid=f5f00e0a-20a8-422d-b04b-70d93a8a8a40"},"vehicle_type_id":"4","last_reported":1745345644,"current_range_meters":3600,"station_id":"ce4bgv92rcd13ifvqcr0","pricing_plan_id":"cebpf4jnsgd1na2vs0mg"},{"bike_id":"037dd3ef-5d19-4966-a1a9-3ed394790d4d","system_id":"levelo_inurba_marseille","lat":43.29603,"lon":5.36741,"is_reserved":false,"is_disabled":false,"rental_uris":{"android":"levelo://app?vid=037dd3ef-5d19-4966-a1a9-3ed394790d4d","ios":"levelo://app?vid=037dd3ef-5d19-4966-a1a9-3ed394790d4d"},"vehicle_type_id":"4","last_reported":1745345644,"current_range_meters":3600,"station_id":"ce4bgph2rcd13ifvqc2g","pricing_plan_id":"cebpf4jnsgd1na2vs0mg"},{"bike_id":"61d66442-baed-4145-8626-98a7e8974b6a","system_id":"levelo_inurba_marseille","lat":43.29306,"lon":5.371629,"is_reserved":false,"is_disabled":false,"rental_uris":{"android":"levelo://app?vid=61d66442-baed-4145-8626-98a7e8974b6a","ios":"levelo://app?vid=61d66442-baed-4145-8626-98a7e8974b6a"},"vehicle_type_id":"4","last_reported":1745345644,"current_range_meters":3200,"station_id":"ce4bhhh2rcd13ifvqfk0","pricing_plan_id":"cebpf4jnsgd1na2vs0mg"},{"bike_id":"93b685f9-8d1d-400a-bb66-6801bb889615","system_id":"levelo_inurba_marseille","lat":43.28856,"lon":5.35855,"is_reserved":false,"is_disabled":false,"rental_uris":{"android":"levelo://app?vid=93b685f9-8d1d-400a-bb66-6801bb889615","ios":"levelo://app?vid=93b685f9-8d1d-400a-bb66-6801bb889615"},"vehicle_type_id":"4","last_reported":1745345644,"current_range_meters":3600,"station_id":"ce4bhb12rcd13ifvqem0","pricing_plan_id":"cebpf4jnsgd1na2vs0mg"},{"bike_id":"4c316196-52b1-499e-a188-9fcdc2be58fa","system_id":"levelo_inurba_marseille","lat":43.25124,"lon":5.40316,"is_reserved":false,"is_disabled":false,"rental_uris":{"android":"levelo://app?vid=4c316196-52b1-499e-a188-9fcdc2be58fa","ios":"levelo://app?vid=4c316196-52b1-499e-a188-9fcdc2be58fa"},"vehicle_type_id":"4","last_reported":1745345644,"current_range_meters":3600,"station_id":"ce4bhlh2rcd13ifvqgig","pricing_plan_id":"cebpf4jnsgd1na2vs0mg"},{"bike_id":"0ef23631-dbd2-4c68-adc1-77243fd0c5dd","system_id":"levelo_inurba_marseille","lat":43.29266,"lon":5.38539,"is_reserved":false,"is_disabled":false,"rental_uris":{"android":"levelo://app?vid=0ef23631-dbd2-4c68-adc1-77243fd0c5dd","ios":"levelo://app?vid=0ef23631-dbd2-4c68-adc1-77243fd0c5dd"},"vehicle_type_id":"4","last_reported":1745345644,"current_range_meters":3600,"station_id":"","pricing_plan_id":"cebpf4jnsgd1na2vs0mg"},{"bike_id":"77d4d515-1cc3-43d4-b58f-49d9463a138d","system_id":"levelo_inurba_marseille","lat":43.28399,"lon":5.37524,"is_reserved":false,"is_disabled":false,"rental_uris":{"android":"levelo://app?vid=77d4d515-1cc3-43d4-b58f-49d9463a138d","ios":"levelo://app?vid=77d4d515-1cc3-43d4-b58f-49d9463a138d"},"vehicle_type_id":"4","last_reported":1745345644,"current_range_meters":3600,"station_id":"ce4bh412rcd13ifvqds0","pricing_plan_id":"cebpf4jnsgd1na2vs0mg"},{"bike_id":"27cd1387-25bb-448b-8933-1b1b32f90017","system_id":"levelo_inurba_marseille","lat":43.303715,"lon":5.397868,"is_reserved":false,"is_disabled":false,"rental_uris":{"android":"levelo://app?vid=27cd1387-25bb-448b-8933-1b1b32f90017","ios":"levelo://app?vid=27cd1387-25bb-448b-8933-1b1b32f90017"},"vehicle_type_id":"4","last_reported":1745345644,"current_range_meters":3600,"station_id":"ce4bh012rcd13ifvqd10","pricing_plan_id":"cebpf4jnsgd1na2vs0mg"},{"bike_id":"cedce4e7-bc01-470b-9e26-9ebdc7f2833d","system_id":"levelo_inurba_marseille","lat":43.29012,"lon":5.37561,"is_reserved":false,"is_disabled":false,"rental_uris":{"android":"levelo://app?vid=cedce4e7-bc01-470b-9e26-9ebdc7f2833d","ios":"levelo://app?vid=cedce4e7-bc01-470b-9e26-9ebdc7f2833d"},"vehicle_type_id":"4","last_reported":1745345644,"current_range_meters":4000,"station_id":"ce4bh692rcd13ifvqe90","pricing_plan_id":"cebpf4jnsgd1na2vs0mg"},{"bike_id":"0e305fa8-3959-4c79-9975-6c9754330520","system_id":"levelo_inurba_marseille","lat":43.31161,"lon":5.3873,"is_reserved":false,"is_disabled":false,"rental_uris":{"android":"levelo://app?vid=0e305fa8-3959-4c79-9975-6c9754330520","ios":"levelo://app?vid=0e305fa8-3959-4c79-9975-6c9754330520"},"vehicle_type_id":"4","last_reported":1745345644,"current_range_meters":4000,"station_id":"ce4bgv12rcd13ifvqcp0","pricing_plan_id":"cebpf4jnsgd1na2vs0mg"},{"bike_id":"f66cefe3-072a-4acf-9a24-4d9349d29ee0","system_id":"levelo_inurba_marseille","lat":43.302926,"lon":5.400717,"is_reserved":false,"is_disabled":false,"rental_uris":{"android":"levelo://app?vid=f66cefe3-072a-4acf-9a24-4d9349d29ee0","ios":"levelo://app?vid=f66cefe3-072a-4acf-9a24-4d9349d29ee0"},"vehicle_type_id":"4","last_reported":1745345644,"current_range_meters":4000,"station_id":"ce4bhop2rcd13ifvqh8g","pricing_plan_id":"cebpf4jnsgd1na2vs0mg"},{"bike_id":"385fa5af-20fe-4791-86e1-41841b705f09","system_id":"levelo_inurba_marseille","lat":43.2847,"lon":5.38439,"is_reserved":false,"is_disabled":false,"rental_uris":{"android":"levelo://app?vid=385fa5af-20fe-4791-86e1-41841b705f09","ios":"levelo://app?vid=385fa5af-20fe-4791-86e1-41841b705f09"},"vehicle_type_id":"4","last_reported":1745345644,"current_range_meters":4000,"station_id":"ce4bh512rcd13ifvqe3g","pricing_plan_id":"cebpf4jnsgd1na2vs0mg"},{"bike_id":"44d590ef-a96f-43c1-92ef-68c4f1a0b1ca","system_id":"levelo_inurba_marseille","lat":43.2862,"lon":5.35113,"is_reserved":false,"is_disabled":false,"rental_uris":{"android":"levelo://app?vid=44d590ef-a96f-43c1-92ef-68c4f1a0b1ca","ios":"levelo://app?vid=44d590ef-a96f-43c1-92ef-68c4f1a0b1ca"},"vehicle_type_id":"4","last_reported":1745345644,"current_range_meters":4000,"station_id":"ce4bhch2rcd13ifvqeug","pricing_plan_id":"cebpf4jnsgd1na2vs0mg"},{"bike_id":"f882010f-ebbf-4f14-a8a8-858fc3192343","system_id":"levelo_inurba_marseille","lat":43.26223,"lon":5.40448,"is_reserved":false,"is_disabled":false,"rental_uris":{"android":"levelo://app?vid=f882010f-ebbf-4f14-a8a8-858fc3192343","ios":"levelo://app?vid=f882010f-ebbf-4f14-a8a8-858fc3192343"},"vehicle_type_id":"4","last_reported":1745345644,"current_range_meters":4000,"station_id":"ce4bhmh2rcd13ifvqgmg","pricing_plan_id":"cebpf4jnsgd1na2vs0mg"},{"bike_id":"522a4ba2-da2f-40ba-968b-795aa13625ed","system_id":"levelo_inurba_marseille","lat":43.29063,"lon":5.37174,"is_reserved":false,"is_disabled":false,"rental_uris":{"android":"levelo://app?vid=522a4ba2-da2f-40ba-968b-795aa13625ed","ios":"levelo://app?vid=522a4ba2-da2f-40ba-968b-795aa13625ed"},"vehicle_type_id":"4","last_reported":1745345644,"current_range_meters":4000,"station_id":"ce4bh5p2rcd13ifvqe4g","pricing_plan_id":"cebpf4jnsgd1na2vs0mg"},{"bike_id":"cb33acc2-5eea-45c0-9b15-8f533d6ae3df","system_id":"levelo_inurba_marseille","lat":43.28573,"lon":5.38742,"is_reserved":false,"is_disabled":false,"rental_uris":{"android":"levelo://app?vid=cb33acc2-5eea-45c0-9b15-8f533d6ae3df","ios":"levelo://app?vid=cb33acc2-5eea-45c0-9b15-8f533d6ae3df"},"vehicle_type_id":"4","last_reported":1745345644,"current_range_meters":4000,"station_id":"","pricing_plan_id":"cebpf4jnsgd1na2vs0mg"},{"bike_id":"5998d8fc-5a1e-406c-9371-48ef06c26faf","system_id":"levelo_inurba_marseille","lat":43.29535,"lon":5.38539,"is_reserved":false,"is_disabled":false,"rental_uris":{"android":"levelo://app?vid=5998d8fc-5a1e-406c-9371-48ef06c26faf","ios":"levelo://app?vid=5998d8fc-5a1e-406c-9371-48ef06c26faf"},"vehicle_type_id":"4","last_reported":1745345644,"current_range_meters":4400,"station_id":"ce4bgih2rcd13ifvqba0","pricing_plan_id":"cebpf4jnsgd1na2vs0mg"},{"bike_id":"c8298497-1a74-4e58-8d35-3d0b9a42165f","system_id":"levelo_inurba_marseille","lat":43.30416,"lon":5.41281,"is_reserved":false,"is_disabled":false,"rental_uris":{"android":"levelo://app?vid=c8298497-1a74-4e58-8d35-3d0b9a42165f","ios":"levelo://app?vid=c8298497-1a74-4e58-8d35-3d0b9a42165f"},"vehicle_type_id":"4","last_reported":1745345644,"current_range_meters":4400,"station_id":"ce4bhop2rcd13ifvqh8g","pricing_plan_id":"cebpf4jnsgd1na2vs0mg"},{"bike_id":"5c2f292a-681d-443a-97ac-35acb01964c9","system_id":"levelo_inurba_marseille","lat":43.28705,"lon":5.39977,"is_reserved":false,"is_disabled":false,"rental_uris":{"android":"levelo://app?vid=5c2f292a-681d-443a-97ac-35acb01964c9","ios":"levelo://app?vid=5c2f292a-681d-443a-97ac-35acb01964c9"},"vehicle_type_id":"4","last_reported":1745345644,"current_range_meters":4400,"station_id":"ce4bho92rcd13ifvqh3g","pricing_plan_id":"cebpf4jnsgd1na2vs0mg"},{"bike_id":"a27077fe-31fa-44e3-96df-b62368d95479","system_id":"levelo_inurba_marseille","lat":43.294201,"lon":5.386256,"is_reserved":false,"is_disabled":false,"rental_uris":{"android":"levelo://app?vid=a27077fe-31fa-44e3-96df-b62368d95479","ios":"levelo://app?vid=a27077fe-31fa-44e3-96df-b62368d95479"},"vehicle_type_id":"4","last_reported":1745345644,"current_range_meters":4400,"station_id":"ce4bh2h2rcd13ifvqdh0","pricing_plan_id":"cebpf4jnsgd1na2vs0mg"},{"bike_id":"a02d7c3c-0c2e-4192-ad6f-cc22fa3efccb","system_id":"levelo_inurba_marseille","lat":43.30463,"lon":5.37899,"is_reserved":false,"is_disabled":false,"rental_uris":{"android":"levelo://app?vid=a02d7c3c-0c2e-4192-ad6f-cc22fa3efccb","ios":"levelo://app?vid=a02d7c3c-0c2e-4192-ad6f-cc22fa3efccb"},"vehicle_type_id":"4","last_reported":1745345644,"current_range_meters":4400,"station_id":"ce4bgup2rcd13ifvqcn0","pricing_plan_id":"cebpf4jnsgd1na2vs0mg"},{"bike_id":"39b7ee85-9cbf-4904-a10a-75042515f95d","system_id":"levelo_inurba_marseille","lat":43.36271,"lon":5.34761,"is_reserved":false,"is_disabled":false,"rental_uris":{"android":"levelo://app?vid=39b7ee85-9cbf-4904-a10a-75042515f95d","ios":"levelo://app?vid=39b7ee85-9cbf-4904-a10a-75042515f95d"},"vehicle_type_id":"4","last_reported":1745345644,"current_range_meters":4400,"station_id":"","pricing_plan_id":"cebpf4jnsgd1na2vs0mg"},{"bike_id":"35343a84-0926-4597-8d56-8d29218cb226","system_id":"levelo_inurba_marseille","lat":43.27945,"lon":5.41042,"is_reserved":false,"is_disabled":false,"rental_uris":{"android":"levelo://app?vid=35343a84-0926-4597-8d56-8d29218cb226","ios":"levelo://app?vid=35343a84-0926-4597-8d56-8d29218cb226"},"vehicle_type_id":"4","last_reported":1745345644,"current_range_meters":4800,"station_id":"ce4bhnp2rcd13ifvqh0g","pricing_plan_id":"cebpf4jnsgd1na2vs0mg"},{"bike_id":"6f0ff3df-91b5-4299-98e0-3c49587cb61d","system_id":"levelo_inurba_marseille","lat":43.229317,"lon":5.353802,"is_reserved":false,"is_disabled":false,"rental_uris":{"android":"levelo://app?vid=6f0ff3df-91b5-4299-98e0-3c49587cb61d","ios":"levelo://app?vid=6f0ff3df-91b5-4299-98e0-3c49587cb61d"},"vehicle_type_id":"4","last_reported":1745345644,"current_range_meters":4800,"station_id":"cpo3532slgdg3j2ikp40","pricing_plan_id":"cebpf4jnsgd1na2vs0mg"},{"bike_id":"412c8200-3791-4688-8a64-2b8c184c5f37","system_id":"levelo_inurba_marseille","lat":43.24644,"lon":5.38894,"is_reserved":false,"is_disabled":false,"rental_uris":{"android":"levelo://app?vid=412c8200-3791-4688-8a64-2b8c184c5f37","ios":"levelo://app?vid=412c8200-3791-4688-8a64-2b8c184c5f37"},"vehicle_type_id":"4","last_reported":1745345644,"current_range_meters":4800,"station_id":"ce4bhg12rcd13ifvqf60","pricing_plan_id":"cebpf4jnsgd1na2vs0mg"},{"bike_id":"e46493f8-fcf1-4f35-bdd3-1708ecb2ed13","system_id":"levelo_inurba_marseille","lat":43.24804,"lon":5.37452,"is_reserved":false,"is_disabled":false,"rental_uris":{"android":"levelo://app?vid=e46493f8-fcf1-4f35-bdd3-1708ecb2ed13","ios":"levelo://app?vid=e46493f8-fcf1-4f35-bdd3-1708ecb2ed13"},"vehicle_type_id":"4","last_reported":1745345644,"current_range_meters":5600,"station_id":"ce4bhgh2rcd13ifvqfb0","pricing_plan_id":"cebpf4jnsgd1na2vs0mg"},{"bike_id":"4ccb40f1-3398-4d6b-aac4-f47349efcbd2","system_id":"levelo_inurba_marseille","lat":43.28616,"lon":5.35108,"is_reserved":false,"is_disabled":false,"rental_uris":{"android":"levelo://app?vid=4ccb40f1-3398-4d6b-aac4-f47349efcbd2","ios":"levelo://app?vid=4ccb40f1-3398-4d6b-aac4-f47349efcbd2"},"vehicle_type_id":"4","last_reported":1745345644,"current_range_meters":5600,"station_id":"ce4bhch2rcd13ifvqeug","pricing_plan_id":"cebpf4jnsgd1na2vs0mg"},{"bike_id":"c6b9caaf-85ad-42fe-a85b-41a4e6f02d6e","system_id":"levelo_inurba_marseille","lat":43.2841,"lon":5.34991,"is_reserved":false,"is_disabled":false,"rental_uris":{"android":"levelo://app?vid=c6b9caaf-85ad-42fe-a85b-41a4e6f02d6e","ios":"levelo://app?vid=c6b9caaf-85ad-42fe-a85b-41a4e6f02d6e"},"vehicle_type_id":"4","last_reported":1745345644,"current_range_meters":5600,"station_id":"ce4bhbh2rcd13ifvqepg","pricing_plan_id":"cebpf4jnsgd1na2vs0mg"},{"bike_id":"f1be5a6c-1c8f-432a-a7b0-10dc430323f2","system_id":"levelo_inurba_marseille","lat":43.291672,"lon":5.371565,"is_reserved":false,"is_disabled":false,"rental_uris":{"android":"levelo://app?vid=f1be5a6c-1c8f-432a-a7b0-10dc430323f2","ios":"levelo://app?vid=f1be5a6c-1c8f-432a-a7b0-10dc430323f2"},"vehicle_type_id":"4","last_reported":1745345644,"current_range_meters":5600,"station_id":"ce4bha92rcd13ifvqeh0","pricing_plan_id":"cebpf4jnsgd1na2vs0mg"},{"bike_id":"e38f08b3-1241-4144-9cf2-d89679ca95bd","system_id":"levelo_inurba_marseille","lat":43.323644,"lon":5.388856,"is_reserved":false,"is_disabled":false,"rental_uris":{"android":"levelo://app?vid=e38f08b3-1241-4144-9cf2-d89679ca95bd","ios":"levelo://app?vid=e38f08b3-1241-4144-9cf2-d89679ca95bd"},"vehicle_type_id":"4","last_reported":1745345644,"current_range_meters":5600,"station_id":"ce4bhqp2rcd13ifvqhog","pricing_plan_id":"cebpf4jnsgd1na2vs0mg"},{"bike_id":"1d3a0460-6bc0-448a-b462-36cefb251332","system_id":"levelo_inurba_marseille","lat":43.28157,"lon":5.426363,"is_reserved":false,"is_disabled":false,"rental_uris":{"android":"levelo://app?vid=1d3a0460-6bc0-448a-b462-36cefb251332","ios":"levelo://app?vid=1d3a0460-6bc0-448a-b462-36cefb251332"},"vehicle_type_id":"4","last_reported":1745345644,"current_range_meters":4800,"station_id":"ce4bhnh2rcd13ifvqgug","pricing_plan_id":"cebpf4jnsgd1na2vs0mg"},{"bike_id":"4e187655-ea25-4a18-8297-af3e6c0e8273","system_id":"levelo_inurba_marseille","lat":43.301452,"lon":5.380712,"is_reserved":false,"is_disabled":false,"rental_uris":{"android":"levelo://app?vid=4e187655-ea25-4a18-8297-af3e6c0e8273","ios":"levelo://app?vid=4e187655-ea25-4a18-8297-af3e6c0e8273"},"vehicle_type_id":"4","last_reported":1745345644,"current_range_meters":4800,"station_id":"ce4bhlp2rcd13ifvqgjg","pricing_plan_id":"cebpf4jnsgd1na2vs0mg"},{"bike_id":"e0a2edff-ea80-41a1-b039-465b85da29c3","system_id":"levelo_inurba_marseille","lat":43.27964,"lon":5.38752,"is_reserved":false,"is_disabled":false,"rental_uris":{"android":"levelo://app?vid=e0a2edff-ea80-41a1-b039-465b85da29c3","ios":"levelo://app?vid=e0a2edff-ea80-41a1-b039-465b85da29c3"},"vehicle_type_id":"4","last_reported":1745345644,"current_range_meters":5600,"station_id":"ce4bhg12rcd13ifvqf80","pricing_plan_id":"cebpf4jnsgd1na2vs0mg"},{"bike_id":"604e1570-d782-4c72-a5c9-25055630dc26","system_id":"levelo_inurba_marseille","lat":43.29428,"lon":5.38611,"is_reserved":false,"is_disabled":false,"rental_uris":{"android":"levelo://app?vid=604e1570-d782-4c72-a5c9-25055630dc26","ios":"levelo://app?vid=604e1570-d782-4c72-a5c9-25055630dc26"},"vehicle_type_id":"4","last_reported":1745345644,"current_range_meters":5600,"station_id":"ce4bh2h2rcd13ifvqdh0","pricing_plan_id":"cebpf4jnsgd1na2vs0mg"},{"bike_id":"59540ae1-2eee-4577-bdf6-2562ccc8d946","system_id":"levelo_inurba_marseille","lat":43.27893,"lon":5.3961,"is_reserved":false,"is_disabled":false,"rental_uris":{"android":"levelo://app?vid=59540ae1-2eee-4577-bdf6-2562ccc8d946","ios":"levelo://app?vid=59540ae1-2eee-4577-bdf6-2562ccc8d946"},"vehicle_type_id":"4","last_reported":1745345644,"current_range_meters":5600,"station_id":"ce4bhf92rcd13ifvqf40","pricing_plan_id":"cebpf4jnsgd1na2vs0mg"},{"bike_id":"db5cd0aa-81d3-4585-9e95-b54c6ac8a043","system_id":"levelo_inurba_marseille","lat":43.31222,"lon":5.3686,"is_reserved":false,"is_disabled":false,"rental_uris":{"android":"levelo://app?vid=db5cd0aa-81d3-4585-9e95-b54c6ac8a043","ios":"levelo://app?vid=db5cd0aa-81d3-4585-9e95-b54c6ac8a043"},"vehicle_type_id":"4","last_reported":1745345644,"current_range_meters":6000,"station_id":"ce4bgl92rcd13ifvqbq0","pricing_plan_id":"cebpf4jnsgd1na2vs0mg"},{"bike_id":"449eb88b-5703-41ca-b5bb-8a3b718d4273","system_id":"levelo_inurba_marseille","lat":43.28673,"lon":5.38668,"is_reserved":false,"is_disabled":false,"rental_uris":{"android":"levelo://app?vid=449eb88b-5703-41ca-b5bb-8a3b718d4273","ios":"levelo://app?vid=449eb88b-5703-41ca-b5bb-8a3b718d4273"},"vehicle_type_id":"4","last_reported":1745345644,"current_range_meters":6000,"station_id":"ce4bh492rcd13ifvqdug","pricing_plan_id":"cebpf4jnsgd1na2vs0mg"},{"bike_id":"d07805c4-1e79-4c51-a811-591c48e7215c","system_id":"levelo_inurba_marseille","lat":43.26208,"lon":5.37443,"is_reserved":false,"is_disabled":false,"rental_uris":{"android":"levelo://app?vid=d07805c4-1e79-4c51-a811-591c48e7215c","ios":"levelo://app?vid=d07805c4-1e79-4c51-a811-591c48e7215c"},"vehicle_type_id":"4","last_reported":1745345644,"current_range_meters":6000,"station_id":"ce4bhgp2rcd13ifvqfc0","pricing_plan_id":"cebpf4jnsgd1na2vs0mg"},{"bike_id":"6b87ccdc-66bd-42a1-bad7-6615d0405689","system_id":"levelo_inurba_marseille","lat":43.23966,"lon":5.36632,"is_reserved":false,"is_disabled":false,"rental_uris":{"android":"levelo://app?vid=6b87ccdc-66bd-42a1-bad7-6615d0405689","ios":"levelo://app?vid=6b87ccdc-66bd-42a1-bad7-6615d0405689"},"vehicle_type_id":"4","last_reported":1745345644,"current_range_meters":6000,"station_id":"ce4bhi12rcd13ifvqfp0","pricing_plan_id":"cebpf4jnsgd1na2vs0mg"},{"bike_id":"836132af-88f8-4d8d-ad3f-77433414cc82","system_id":"levelo_inurba_marseille","lat":43.29534,"lon":5.38538,"is_reserved":false,"is_disabled":false,"rental_uris":{"android":"levelo://app?vid=836132af-88f8-4d8d-ad3f-77433414cc82","ios":"levelo://app?vid=836132af-88f8-4d8d-ad3f-77433414cc82"},"vehicle_type_id":"4","last_reported":1745345644,"current_range_meters":6000,"station_id":"ce4bgih2rcd13ifvqba0","pricing_plan_id":"cebpf4jnsgd1na2vs0mg"},{"bike_id":"5f14430f-5186-4094-825f-173d1124cb23","system_id":"levelo_inurba_marseille","lat":43.28154,"lon":5.42651,"is_reserved":false,"is_disabled":false,"rental_uris":{"android":"levelo://app?vid=5f14430f-5186-4094-825f-173d1124cb23","ios":"levelo://app?vid=5f14430f-5186-4094-825f-173d1124cb23"},"vehicle_type_id":"4","last_reported":1745345644,"current_range_meters":6000,"station_id":"ce4bhnh2rcd13ifvqgug","pricing_plan_id":"cebpf4jnsgd1na2vs0mg"},{"bike_id":"3d8ef3de-b93e-4224-a6a0-d6e4aaac200c","system_id":"levelo_inurba_marseille","lat":43.30328,"lon":5.40435,"is_reserved":false,"is_disabled":false,"rental_uris":{"android":"levelo://app?vid=3d8ef3de-b93e-4224-a6a0-d6e4aaac200c","ios":"levelo://app?vid=3d8ef3de-b93e-4224-a6a0-d6e4aaac200c"},"vehicle_type_id":"4","last_reported":1745345644,"current_range_meters":6000,"station_id":"ce4bh012rcd13ifvqd10","pricing_plan_id":"cebpf4jnsgd1na2vs0mg"},{"bike_id":"faeabb8b-e7f1-45f1-b7c4-b9173bffd40b","system_id":"levelo_inurba_marseille","lat":43.28106,"lon":5.37839,"is_reserved":false,"is_disabled":false,"rental_uris":{"android":"levelo://app?vid=faeabb8b-e7f1-45f1-b7c4-b9173bffd40b","ios":"levelo://app?vid=faeabb8b-e7f1-45f1-b7c4-b9173bffd40b"},"vehicle_type_id":"4","last_reported":1745345644,"current_range_meters":6400,"station_id":"ce4bha12rcd13ifvqee0","pricing_plan_id":"cebpf4jnsgd1na2vs0mg"},{"bike_id":"b4d998c8-d498-4f00-b0c3-55efa14351ff","system_id":"levelo_inurba_marseille","lat":43.3073,"lon":5.4243,"is_reserved":false,"is_disabled":false,"rental_uris":{"android":"levelo://app?vid=b4d998c8-d498-4f00-b0c3-55efa14351ff","ios":"levelo://app?vid=b4d998c8-d498-4f00-b0c3-55efa14351ff"},"vehicle_type_id":"4","last_reported":1745345644,"current_range_meters":6400,"station_id":"st_cvj6ca6bvosntc0bfgr0","pricing_plan_id":"cebpf4jnsgd1na2vs0mg"},{"bike_id":"9d92ea9b-be21-4f08-a481-fb60999764df","system_id":"levelo_inurba_marseille","lat":43.29004,"lon":5.35616,"is_reserved":false,"is_disabled":false,"rental_uris":{"android":"levelo://app?vid=9d92ea9b-be21-4f08-a481-fb60999764df","ios":"levelo://app?vid=9d92ea9b-be21-4f08-a481-fb60999764df"},"vehicle_type_id":"4","last_reported":1745345644,"current_range_meters":6000,"station_id":"ce4bhb92rcd13ifvqen0","pricing_plan_id":"cebpf4jnsgd1na2vs0mg"},{"bike_id":"f232544d-a366-4720-8200-0fbeee56940d","system_id":"levelo_inurba_marseille","lat":43.26235,"lon":5.40451,"is_reserved":false,"is_disabled":false,"rental_uris":{"android":"levelo://app?vid=f232544d-a366-4720-8200-0fbeee56940d","ios":"levelo://app?vid=f232544d-a366-4720-8200-0fbeee56940d"},"vehicle_type_id":"4","last_reported":1745345644,"current_range_meters":6400,"station_id":"ce4bhmh2rcd13ifvqgmg","pricing_plan_id":"cebpf4jnsgd1na2vs0mg"},{"bike_id":"d9e7c123-d16b-46e6-8cfb-8cfc1c4fcf87","system_id":"levelo_inurba_marseille","lat":43.2868,"lon":5.38661,"is_reserved":false,"is_disabled":false,"rental_uris":{"android":"levelo://app?vid=d9e7c123-d16b-46e6-8cfb-8cfc1c4fcf87","ios":"levelo://app?vid=d9e7c123-d16b-46e6-8cfb-8cfc1c4fcf87"},"vehicle_type_id":"4","last_reported":1745345644,"current_range_meters":6400,"station_id":"ce4bh492rcd13ifvqdug","pricing_plan_id":"cebpf4jnsgd1na2vs0mg"},{"bike_id":"951ded4c-b11b-40e8-9500-3ead807b8c27","system_id":"levelo_inurba_marseille","lat":43.26625,"lon":5.38974,"is_reserved":false,"is_disabled":false,"rental_uris":{"android":"levelo://app?vid=951ded4c-b11b-40e8-9500-3ead807b8c27","ios":"levelo://app?vid=951ded4c-b11b-40e8-9500-3ead807b8c27"},"vehicle_type_id":"4","last_reported":1745345644,"current_range_meters":6400,"station_id":"ce4bhe12rcd13ifvqf30","pricing_plan_id":"cebpf4jnsgd1na2vs0mg"},{"bike_id":"bd3c1754-f5f3-4d87-8dc7-96dd2b03d4d2","system_id":"levelo_inurba_marseille","lat":43.33445,"lon":5.40091,"is_reserved":false,"is_disabled":false,"rental_uris":{"android":"levelo://app?vid=bd3c1754-f5f3-4d87-8dc7-96dd2b03d4d2","ios":"levelo://app?vid=bd3c1754-f5f3-4d87-8dc7-96dd2b03d4d2"},"vehicle_type_id":"4","last_reported":1745345644,"current_range_meters":6400,"station_id":"","pricing_plan_id":"cebpf4jnsgd1na2vs0mg"},{"bike_id":"67d52871-19ad-43e1-88b0-db1ed11b5b9b","system_id":"levelo_inurba_marseille","lat":43.32368,"lon":5.36754,"is_reserved":false,"is_disabled":false,"rental_uris":{"android":"levelo://app?vid=67d52871-19ad-43e1-88b0-db1ed11b5b9b","ios":"levelo://app?vid=67d52871-19ad-43e1-88b0-db1ed11b5b9b"},"vehicle_type_id":"4","last_reported":1745345644,"current_range_meters":6800,"station_id":"ce4bhsh2rcd13ifvqi2g","pricing_plan_id":"cebpf4jnsgd1na2vs0mg"},{"bike_id":"eb613738-fcdb-4c92-a9d3-e5b2de692e33","system_id":"levelo_inurba_marseille","lat":43.22932,"lon":5.35376,"is_reserved":false,"is_disabled":false,"rental_uris":{"android":"levelo://app?vid=eb613738-fcdb-4c92-a9d3-e5b2de692e33","ios":"levelo://app?vid=eb613738-fcdb-4c92-a9d3-e5b2de692e33"},"vehicle_type_id":"4","last_reported":1745345644,"current_range_meters":6800,"station_id":"cpo3532slgdg3j2ikp40","pricing_plan_id":"cebpf4jnsgd1na2vs0mg"},{"bike_id":"410cd2ed-cb87-41e3-9b34-edd4d4348483","system_id":"levelo_inurba_marseille","lat":43.27435,"lon":5.39417,"is_reserved":false,"is_disabled":false,"rental_uris":{"android":"levelo://app?vid=410cd2ed-cb87-41e3-9b34-edd4d4348483","ios":"levelo://app?vid=410cd2ed-cb87-41e3-9b34-edd4d4348483"},"vehicle_type_id":"4","last_reported":1745345644,"current_range_meters":6800,"station_id":"ce4bhdp2rcd13ifvqf20","pricing_plan_id":"cebpf4jnsgd1na2vs0mg"},{"bike_id":"de48a635-da88-4fcc-8749-c56c951dd46b","system_id":"levelo_inurba_marseille","lat":43.28468,"lon":5.35898,"is_reserved":false,"is_disabled":false,"rental_uris":{"android":"levelo://app?vid=de48a635-da88-4fcc-8749-c56c951dd46b","ios":"levelo://app?vid=de48a635-da88-4fcc-8749-c56c951dd46b"},"vehicle_type_id":"4","last_reported":1745345644,"current_range_meters":6800,"station_id":"ce4bhah2rcd13ifvqei0","pricing_plan_id":"cebpf4jnsgd1na2vs0mg"},{"bike_id":"e6c712d1-a904-4f9e-94a6-49863912f03a","system_id":"levelo_inurba_marseille","lat":43.27917,"lon":5.39576,"is_reserved":false,"is_disabled":false,"rental_uris":{"android":"levelo://app?vid=e6c712d1-a904-4f9e-94a6-49863912f03a","ios":"levelo://app?vid=e6c712d1-a904-4f9e-94a6-49863912f03a"},"vehicle_type_id":"4","last_reported":1745345644,"current_range_meters":7200,"station_id":"ce4bhf92rcd13ifvqf40","pricing_plan_id":"cebpf4jnsgd1na2vs0mg"},{"bike_id":"1c755526-7610-4241-9257-348acde561d3","system_id":"levelo_inurba_marseille","lat":43.24861,"lon":5.38202,"is_reserved":false,"is_disabled":false,"rental_uris":{"android":"levelo://app?vid=1c755526-7610-4241-9257-348acde561d3","ios":"levelo://app?vid=1c755526-7610-4241-9257-348acde561d3"},"vehicle_type_id":"4","last_reported":1745345644,"current_range_meters":7200,"station_id":"","pricing_plan_id":"cebpf4jnsgd1na2vs0mg"},{"bike_id":"927ebabc-1cd7-4390-b5bd-5646fe25ec01","system_id":"levelo_inurba_marseille","lat":43.29983,"lon":5.37226,"is_reserved":false,"is_disabled":false,"rental_uris":{"android":"levelo://app?vid=927ebabc-1cd7-4390-b5bd-5646fe25ec01","ios":"levelo://app?vid=927ebabc-1cd7-4390-b5bd-5646fe25ec01"},"vehicle_type_id":"4","last_reported":1745345644,"current_range_meters":7200,"station_id":"ce4bgr92rcd13ifvqc7g","pricing_plan_id":"cebpf4jnsgd1na2vs0mg"},{"bike_id":"d42da8b3-5312-4608-a60b-fef54c0c16d1","system_id":"levelo_inurba_marseille","lat":43.28079,"lon":5.39665,"is_reserved":false,"is_disabled":false,"rental_uris":{"android":"levelo://app?vid=d42da8b3-5312-4608-a60b-fef54c0c16d1","ios":"levelo://app?vid=d42da8b3-5312-4608-a60b-fef54c0c16d1"},"vehicle_type_id":"4","last_reported":1745345644,"current_range_meters":8000,"station_id":"ce4bho12rcd13ifvqh2g","pricing_plan_id":"cebpf4jnsgd1na2vs0mg"},{"bike_id":"28dbeddd-838b-456e-82ff-c5881d62245f","system_id":"levelo_inurba_marseille","lat":43.22928,"lon":5.35375,"is_reserved":false,"is_disabled":false,"rental_uris":{"android":"levelo://app?vid=28dbeddd-838b-456e-82ff-c5881d62245f","ios":"levelo://app?vid=28dbeddd-838b-456e-82ff-c5881d62245f"},"vehicle_type_id":"4","last_reported":1745345644,"current_range_meters":8000,"station_id":"cpo3532slgdg3j2ikp40","pricing_plan_id":"cebpf4jnsgd1na2vs0mg"},{"bike_id":"c7ed2a53-72b1-4786-91b0-e85dfa4ae1b5","system_id":"levelo_inurba_marseille","lat":43.2923,"lon":5.40895,"is_reserved":false,"is_disabled":false,"rental_uris":{"android":"levelo://app?vid=c7ed2a53-72b1-4786-91b0-e85dfa4ae1b5","ios":"levelo://app?vid=c7ed2a53-72b1-4786-91b0-e85dfa4ae1b5"},"vehicle_type_id":"4","last_reported":1745345644,"current_range_meters":8000,"station_id":"ce4bh192rcd13ifvqdc0","pricing_plan_id":"cebpf4jnsgd1na2vs0mg"},{"bike_id":"31f5a335-2884-4f35-9868-5afd0ef13454","system_id":"levelo_inurba_marseille","lat":43.29041,"lon":5.3757,"is_reserved":false,"is_disabled":false,"rental_uris":{"android":"levelo://app?vid=31f5a335-2884-4f35-9868-5afd0ef13454","ios":"levelo://app?vid=31f5a335-2884-4f35-9868-5afd0ef13454"},"vehicle_type_id":"4","last_reported":1745345644,"current_range_meters":7200,"station_id":"ce4bh692rcd13ifvqe90","pricing_plan_id":"cebpf4jnsgd1na2vs0mg"},{"bike_id":"192e5b58-fdd0-4d69-8650-e31ffe281e6a","system_id":"levelo_inurba_marseille","lat":43.29534,"lon":5.38547,"is_reserved":false,"is_disabled":false,"rental_uris":{"android":"levelo://app?vid=192e5b58-fdd0-4d69-8650-e31ffe281e6a","ios":"levelo://app?vid=192e5b58-fdd0-4d69-8650-e31ffe281e6a"},"vehicle_type_id":"4","last_reported":1745345644,"current_range_meters":8000,"station_id":"ce4bgih2rcd13ifvqba0","pricing_plan_id":"cebpf4jnsgd1na2vs0mg"},{"bike_id":"5bbf78c3-9ff4-43fd-addb-7db8c52f9edd","system_id":"levelo_inurba_marseille","lat":43.32366,"lon":5.38888,"is_reserved":false,"is_disabled":false,"rental_uris":{"android":"levelo://app?vid=5bbf78c3-9ff4-43fd-addb-7db8c52f9edd","ios":"levelo://app?vid=5bbf78c3-9ff4-43fd-addb-7db8c52f9edd"},"vehicle_type_id":"4","last_reported":1745345644,"current_range_meters":8400,"station_id":"ce4bhqp2rcd13ifvqhog","pricing_plan_id":"cebpf4jnsgd1na2vs0mg"},{"bike_id":"99f50a97-fcb7-4d42-b6f5-4d52ab29c28d","system_id":"levelo_inurba_marseille","lat":43.27908,"lon":5.39652,"is_reserved":false,"is_disabled":false,"rental_uris":{"android":"levelo://app?vid=99f50a97-fcb7-4d42-b6f5-4d52ab29c28d","ios":"levelo://app?vid=99f50a97-fcb7-4d42-b6f5-4d52ab29c28d"},"vehicle_type_id":"4","last_reported":1745345644,"current_range_meters":8400,"station_id":"ce4bhf92rcd13ifvqf40","pricing_plan_id":"cebpf4jnsgd1na2vs0mg"},{"bike_id":"9397a6bb-7010-489e-bda6-146bdeb4d6d1","system_id":"levelo_inurba_marseille","lat":43.28103,"lon":5.37834,"is_reserved":false,"is_disabled":false,"rental_uris":{"android":"levelo://app?vid=9397a6bb-7010-489e-bda6-146bdeb4d6d1","ios":"levelo://app?vid=9397a6bb-7010-489e-bda6-146bdeb4d6d1"},"vehicle_type_id":"4","last_reported":1745345644,"current_range_meters":8400,"station_id":"ce4bha12rcd13ifvqee0","pricing_plan_id":"cebpf4jnsgd1na2vs0mg"},{"bike_id":"9c5758bf-33b5-4a52-afd2-c8734b4dca48","system_id":"levelo_inurba_marseille","lat":43.31076,"lon":5.38349,"is_reserved":false,"is_disabled":false,"rental_uris":{"android":"levelo://app?vid=9c5758bf-33b5-4a52-afd2-c8734b4dca48","ios":"levelo://app?vid=9c5758bf-33b5-4a52-afd2-c8734b4dca48"},"vehicle_type_id":"4","last_reported":1745345644,"current_range_meters":8400,"station_id":"ce4bgv92rcd13ifvqcr0","pricing_plan_id":"cebpf4jnsgd1na2vs0mg"},{"bike_id":"cee1878f-b1bd-451c-9225-a51e25740ce4","system_id":"levelo_inurba_marseille","lat":43.29045,"lon":5.35927,"is_reserved":false,"is_disabled":false,"rental_uris":{"android":"levelo://app?vid=cee1878f-b1bd-451c-9225-a51e25740ce4","ios":"levelo://app?vid=cee1878f-b1bd-451c-9225-a51e25740ce4"},"vehicle_type_id":"4","last_reported":1745345644,"current_range_meters":8400,"station_id":"ce4bha92rcd13ifvqeg0","pricing_plan_id":"cebpf4jnsgd1na2vs0mg"},{"bike_id":"2f76372e-4c67-41c6-8345-65afa6f04837","system_id":"levelo_inurba_marseille","lat":43.2407,"lon":5.37767,"is_reserved":false,"is_disabled":false,"rental_uris":{"android":"levelo://app?vid=2f76372e-4c67-41c6-8345-65afa6f04837","ios":"levelo://app?vid=2f76372e-4c67-41c6-8345-65afa6f04837"},"vehicle_type_id":"4","last_reported":1745345644,"current_range_meters":8400,"station_id":"ce4bhnp2rcd13ifvqgvg","pricing_plan_id":"cebpf4jnsgd1na2vs0mg"},{"bike_id":"6da9da5c-9297-4da1-bbaf-0f124523da2c","system_id":"levelo_inurba_marseille","lat":43.29514,"lon":5.38551,"is_reserved":false,"is_disabled":false,"rental_uris":{"android":"levelo://app?vid=6da9da5c-9297-4da1-bbaf-0f124523da2c","ios":"levelo://app?vid=6da9da5c-9297-4da1-bbaf-0f124523da2c"},"vehicle_type_id":"4","last_reported":1745345644,"current_range_meters":8400,"station_id":"ce4bgih2rcd13ifvqba0","pricing_plan_id":"cebpf4jnsgd1na2vs0mg"},{"bike_id":"c542ea12-8121-49cc-97f6-20faa529896c","system_id":"levelo_inurba_marseille","lat":43.2805,"lon":5.36954,"is_reserved":false,"is_disabled":false,"rental_uris":{"android":"levelo://app?vid=c542ea12-8121-49cc-97f6-20faa529896c","ios":"levelo://app?vid=c542ea12-8121-49cc-97f6-20faa529896c"},"vehicle_type_id":"4","last_reported":1745345644,"current_range_meters":8400,"station_id":"ce4bha12rcd13ifvqef0","pricing_plan_id":"cebpf4jnsgd1na2vs0mg"},{"bike_id":"35c3e88a-bcc9-4f95-8653-a4639025b82d","system_id":"levelo_inurba_marseille","lat":43.29262,"lon":5.38439,"is_reserved":false,"is_disabled":false,"rental_uris":{"android":"levelo://app?vid=35c3e88a-bcc9-4f95-8653-a4639025b82d","ios":"levelo://app?vid=35c3e88a-bcc9-4f95-8653-a4639025b82d"},"vehicle_type_id":"4","last_reported":1745345644,"current_range_meters":8400,"station_id":"ce4bh692rcd13ifvqea0","pricing_plan_id":"cebpf4jnsgd1na2vs0mg"},{"bike_id":"57302910-72b2-4519-8e87-1de1e1c62bad","system_id":"levelo_inurba_marseille","lat":43.24386,"lon":5.37061,"is_reserved":false,"is_disabled":false,"rental_uris":{"android":"levelo://app?vid=57302910-72b2-4519-8e87-1de1e1c62bad","ios":"levelo://app?vid=57302910-72b2-4519-8e87-1de1e1c62bad"},"vehicle_type_id":"4","last_reported":1745345644,"current_range_meters":8400,"station_id":"ce4bhhh2rcd13ifvqfk0","pricing_plan_id":"cebpf4jnsgd1na2vs0mg"},{"bike_id":"5aa9a154-32e5-4f14-af5c-8aab8e6fe380","system_id":"levelo_inurba_marseille","lat":43.28677,"lon":5.38662,"is_reserved":false,"is_disabled":false,"rental_uris":{"android":"levelo://app?vid=5aa9a154-32e5-4f14-af5c-8aab8e6fe380","ios":"levelo://app?vid=5aa9a154-32e5-4f14-af5c-8aab8e6fe380"},"vehicle_type_id":"4","last_reported":1745345644,"current_range_meters":8400,"station_id":"ce4bh492rcd13ifvqdug","pricing_plan_id":"cebpf4jnsgd1na2vs0mg"},{"bike_id":"669149db-ba61-4100-ad97-c077f7583df5","system_id":"levelo_inurba_marseille","lat":43.28418,"lon":5.34988,"is_reserved":false,"is_disabled":false,"rental_uris":{"android":"levelo://app?vid=669149db-ba61-4100-ad97-c077f7583df5","ios":"levelo://app?vid=669149db-ba61-4100-ad97-c077f7583df5"},"vehicle_type_id":"4","last_reported":1745345644,"current_range_meters":8400,"station_id":"ce4bhbh2rcd13ifvqepg","pricing_plan_id":"cebpf4jnsgd1na2vs0mg"},{"bike_id":"06344de5-5570-4bfd-bbbc-2682f2456e82","system_id":"levelo_inurba_marseille","lat":43.29267,"lon":5.37606,"is_reserved":false,"is_disabled":false,"rental_uris":{"android":"levelo://app?vid=06344de5-5570-4bfd-bbbc-2682f2456e82","ios":"levelo://app?vid=06344de5-5570-4bfd-bbbc-2682f2456e82"},"vehicle_type_id":"4","last_reported":1745345644,"current_range_meters":8400,"station_id":"ce4bgi12rcd13ifvqb80","pricing_plan_id":"cebpf4jnsgd1na2vs0mg"},{"bike_id":"dd4bab0b-9209-4627-ad9d-509b17e2c445","system_id":"levelo_inurba_marseille","lat":43.29163,"lon":5.37167,"is_reserved":false,"is_disabled":false,"rental_uris":{"android":"levelo://app?vid=dd4bab0b-9209-4627-ad9d-509b17e2c445","ios":"levelo://app?vid=dd4bab0b-9209-4627-ad9d-509b17e2c445"},"vehicle_type_id":"4","last_reported":1745345644,"current_range_meters":8400,"station_id":"ce4bha92rcd13ifvqeh0","pricing_plan_id":"cebpf4jnsgd1na2vs0mg"},{"bike_id":"570d3bef-dd3f-4471-80a3-02c993b2e48d","system_id":"levelo_inurba_marseille","lat":43.28099,"lon":5.3783,"is_reserved":false,"is_disabled":false,"rental_uris":{"android":"levelo://app?vid=570d3bef-dd3f-4471-80a3-02c993b2e48d","ios":"levelo://app?vid=570d3bef-dd3f-4471-80a3-02c993b2e48d"},"vehicle_type_id":"4","last_reported":1745345644,"current_range_meters":8800,"station_id":"ce4bha12rcd13ifvqee0","pricing_plan_id":"cebpf4jnsgd1na2vs0mg"},{"bike_id":"c3404225-de3f-4fc9-80db-92a3fe26ad94","system_id":"levelo_inurba_marseille","lat":43.28451,"lon":5.392,"is_reserved":false,"is_disabled":false,"rental_uris":{"android":"levelo://app?vid=c3404225-de3f-4fc9-80db-92a3fe26ad94","ios":"levelo://app?vid=c3404225-de3f-4fc9-80db-92a3fe26ad94"},"vehicle_type_id":"4","last_reported":1745345644,"current_range_meters":8800,"station_id":"ce4bhoh2rcd13ifvqh5g","pricing_plan_id":"cebpf4jnsgd1na2vs0mg"},{"bike_id":"387d26c6-56fc-42bc-9893-71d58c70d24a","system_id":"levelo_inurba_marseille","lat":43.27912,"lon":5.39576,"is_reserved":false,"is_disabled":false,"rental_uris":{"android":"levelo://app?vid=387d26c6-56fc-42bc-9893-71d58c70d24a","ios":"levelo://app?vid=387d26c6-56fc-42bc-9893-71d58c70d24a"},"vehicle_type_id":"4","last_reported":1745345644,"current_range_meters":8800,"station_id":"ce4bhf92rcd13ifvqf40","pricing_plan_id":"cebpf4jnsgd1na2vs0mg"},{"bike_id":"ab1abe19-f6a4-4cb1-8715-385a140b1daa","system_id":"levelo_inurba_marseille","lat":43.29262,"lon":5.40901,"is_reserved":false,"is_disabled":false,"rental_uris":{"android":"levelo://app?vid=ab1abe19-f6a4-4cb1-8715-385a140b1daa","ios":"levelo://app?vid=ab1abe19-f6a4-4cb1-8715-385a140b1daa"},"vehicle_type_id":"4","last_reported":1745345644,"current_range_meters":8800,"station_id":"ce4bh192rcd13ifvqdc0","pricing_plan_id":"cebpf4jnsgd1na2vs0mg"},{"bike_id":"05f23e54-eff2-455b-99e5-052adf134699","system_id":"levelo_inurba_marseille","lat":43.255,"lon":5.37659,"is_reserved":false,"is_disabled":false,"rental_uris":{"android":"levelo://app?vid=05f23e54-eff2-455b-99e5-052adf134699","ios":"levelo://app?vid=05f23e54-eff2-455b-99e5-052adf134699"},"vehicle_type_id":"4","last_reported":1745345644,"current_range_meters":8800,"station_id":"ce4bhh12rcd13ifvqff0","pricing_plan_id":"cebpf4jnsgd1na2vs0mg"},{"bike_id":"3d8d2c12-9656-4d82-8331-81cc6ad0b9a7","system_id":"levelo_inurba_marseille","lat":43.26681,"lon":5.38267,"is_reserved":false,"is_disabled":false,"rental_uris":{"android":"levelo://app?vid=3d8d2c12-9656-4d82-8331-81cc6ad0b9a7","ios":"levelo://app?vid=3d8d2c12-9656-4d82-8331-81cc6ad0b9a7"},"vehicle_type_id":"4","last_reported":1745345644,"current_range_meters":8400,"station_id":"ce4bhg92rcd13ifvqf90","pricing_plan_id":"cebpf4jnsgd1na2vs0mg"},{"bike_id":"1bdc1f25-e665-430e-bcfa-cbd051309fba","system_id":"levelo_inurba_marseille","lat":43.28107,"lon":5.37835,"is_reserved":false,"is_disabled":false,"rental_uris":{"android":"levelo://app?vid=1bdc1f25-e665-430e-bcfa-cbd051309fba","ios":"levelo://app?vid=1bdc1f25-e665-430e-bcfa-cbd051309fba"},"vehicle_type_id":"4","last_reported":1745345644,"current_range_meters":8800,"station_id":"ce4bha12rcd13ifvqee0","pricing_plan_id":"cebpf4jnsgd1na2vs0mg"},{"bike_id":"f2fb74cd-b6a8-439b-bc4a-db70ea3d1f35","system_id":"levelo_inurba_marseille","lat":43.28948,"lon":5.36635,"is_reserved":false,"is_disabled":false,"rental_uris":{"android":"levelo://app?vid=f2fb74cd-b6a8-439b-bc4a-db70ea3d1f35","ios":"levelo://app?vid=f2fb74cd-b6a8-439b-bc4a-db70ea3d1f35"},"vehicle_type_id":"4","last_reported":1745345644,"current_range_meters":8800,"station_id":"ce4bhap2rcd13ifvqek0","pricing_plan_id":"cebpf4jnsgd1na2vs0mg"},{"bike_id":"66172e05-dbdd-4a9c-97cd-66c9f74d5566","system_id":"levelo_inurba_marseille","lat":43.28706,"lon":5.39999,"is_reserved":false,"is_disabled":false,"rental_uris":{"android":"levelo://app?vid=66172e05-dbdd-4a9c-97cd-66c9f74d5566","ios":"levelo://app?vid=66172e05-dbdd-4a9c-97cd-66c9f74d5566"},"vehicle_type_id":"4","last_reported":1745345644,"current_range_meters":8800,"station_id":"ce4bho92rcd13ifvqh3g","pricing_plan_id":"cebpf4jnsgd1na2vs0mg"},{"bike_id":"cb202309-9fc0-4a5e-9412-26b8c4ce3cfd","system_id":"levelo_inurba_marseille","lat":43.27988,"lon":5.40022,"is_reserved":false,"is_disabled":false,"rental_uris":{"android":"levelo://app?vid=cb202309-9fc0-4a5e-9412-26b8c4ce3cfd","ios":"levelo://app?vid=cb202309-9fc0-4a5e-9412-26b8c4ce3cfd"},"vehicle_type_id":"4","last_reported":1745345644,"current_range_meters":8800,"station_id":"ce4bho92rcd13ifvqh4g","pricing_plan_id":"cebpf4jnsgd1na2vs0mg"},{"bike_id":"aa10e686-cb40-4ad2-9e42-be6417ad5c7d","system_id":"levelo_inurba_marseille","lat":43.28103,"lon":5.37843,"is_reserved":false,"is_disabled":false,"rental_uris":{"android":"levelo://app?vid=aa10e686-cb40-4ad2-9e42-be6417ad5c7d","ios":"levelo://app?vid=aa10e686-cb40-4ad2-9e42-be6417ad5c7d"},"vehicle_type_id":"4","last_reported":1745345644,"current_range_meters":9200,"station_id":"ce4bha12rcd13ifvqee0","pricing_plan_id":"cebpf4jnsgd1na2vs0mg"},{"bike_id":"2dc4e79a-33a8-48b0-bf03-f6328f1dc1f6","system_id":"levelo_inurba_marseille","lat":43.32373,"lon":5.38934,"is_reserved":false,"is_disabled":true,"rental_uris":{"android":"levelo://app?vid=2dc4e79a-33a8-48b0-bf03-f6328f1dc1f6","ios":"levelo://app?vid=2dc4e79a-33a8-48b0-bf03-f6328f1dc1f6"},"vehicle_type_id":"4","last_reported":1745345644,"current_range_meters":9200,"station_id":"ce4bhqp2rcd13ifvqhog","pricing_plan_id":"cebpf4jnsgd1na2vs0mg"},{"bike_id":"c1d6e6a7-33c5-4405-a4a7-39a5701a1992","system_id":"levelo_inurba_marseille","lat":43.29324,"lon":5.37192,"is_reserved":false,"is_disabled":true,"rental_uris":{"android":"levelo://app?vid=c1d6e6a7-33c5-4405-a4a7-39a5701a1992","ios":"levelo://app?vid=c1d6e6a7-33c5-4405-a4a7-39a5701a1992"},"vehicle_type_id":"4","last_reported":1745345644,"current_range_meters":9200,"station_id":"ce4bgh92rcd13ifvqb40","pricing_plan_id":"cebpf4jnsgd1na2vs0mg"},{"bike_id":"0d437e9b-4369-4e8a-a8d2-872010ff5160","system_id":"levelo_inurba_marseille","lat":43.25104,"lon":5.40318,"is_reserved":false,"is_disabled":false,"rental_uris":{"android":"levelo://app?vid=0d437e9b-4369-4e8a-a8d2-872010ff5160","ios":"levelo://app?vid=0d437e9b-4369-4e8a-a8d2-872010ff5160"},"vehicle_type_id":"4","last_reported":1745345644,"current_range_meters":9200,"station_id":"ce4bhlh2rcd13ifvqgig","pricing_plan_id":"cebpf4jnsgd1na2vs0mg"},{"bike_id":"7feed048-446b-4184-86b1-00f6eb29920f","system_id":"levelo_inurba_marseille","lat":43.2439,"lon":5.37054,"is_reserved":false,"is_disabled":false,"rental_uris":{"android":"levelo://app?vid=7feed048-446b-4184-86b1-00f6eb29920f","ios":"levelo://app?vid=7feed048-446b-4184-86b1-00f6eb29920f"},"vehicle_type_id":"4","last_reported":1745345644,"current_range_meters":9200,"station_id":"ce4bhhh2rcd13ifvqfk0","pricing_plan_id":"cebpf4jnsgd1na2vs0mg"},{"bike_id":"bdb7ea9f-025a-457c-9919-0112c8f3604f","system_id":"levelo_inurba_marseille","lat":43.2744,"lon":5.39433,"is_reserved":false,"is_disabled":false,"rental_uris":{"android":"levelo://app?vid=bdb7ea9f-025a-457c-9919-0112c8f3604f","ios":"levelo://app?vid=bdb7ea9f-025a-457c-9919-0112c8f3604f"},"vehicle_type_id":"4","last_reported":1745345644,"current_range_meters":8800,"station_id":"ce4bhdp2rcd13ifvqf20","pricing_plan_id":"cebpf4jnsgd1na2vs0mg"},{"bike_id":"d8d27387-fb66-4c0a-90dc-eef7a69dc87d","system_id":"levelo_inurba_marseille","lat":43.21218,"lon":5.35072,"is_reserved":false,"is_disabled":false,"rental_uris":{"android":"levelo://app?vid=d8d27387-fb66-4c0a-90dc-eef7a69dc87d","ios":"levelo://app?vid=d8d27387-fb66-4c0a-90dc-eef7a69dc87d"},"vehicle_type_id":"4","last_reported":1745345644,"current_range_meters":9200,"station_id":"ce4bgh92rcd13ifvqb40","pricing_plan_id":"cebpf4jnsgd1na2vs0mg"},{"bike_id":"2edc8615-adb9-4764-bba8-80b8c3bc3223","system_id":"levelo_inurba_marseille","lat":43.27173,"lon":5.40991,"is_reserved":false,"is_disabled":false,"rental_uris":{"android":"levelo://app?vid=2edc8615-adb9-4764-bba8-80b8c3bc3223","ios":"levelo://app?vid=2edc8615-adb9-4764-bba8-80b8c3bc3223"},"vehicle_type_id":"4","last_reported":1745345644,"current_range_meters":9200,"station_id":"ce4bhl12rcd13ifvqgf0","pricing_plan_id":"cebpf4jnsgd1na2vs0mg"},{"bike_id":"a45ae1a9-c8cc-4065-9f5d-cdcd6714c67f","system_id":"levelo_inurba_marseille","lat":43.33729,"lon":5.39187,"is_reserved":false,"is_disabled":false,"rental_uris":{"android":"levelo://app?vid=a45ae1a9-c8cc-4065-9f5d-cdcd6714c67f","ios":"levelo://app?vid=a45ae1a9-c8cc-4065-9f5d-cdcd6714c67f"},"vehicle_type_id":"4","last_reported":1745345644,"current_range_meters":9600,"station_id":"ce4bhr92rcd13ifvqhsg","pricing_plan_id":"cebpf4jnsgd1na2vs0mg"},{"bike_id":"81d77fcb-8f24-4079-9c51-181359394190","system_id":"levelo_inurba_marseille","lat":43.28619,"lon":5.351,"is_reserved":false,"is_disabled":false,"rental_uris":{"android":"levelo://app?vid=81d77fcb-8f24-4079-9c51-181359394190","ios":"levelo://app?vid=81d77fcb-8f24-4079-9c51-181359394190"},"vehicle_type_id":"4","last_reported":1745345644,"current_range_meters":9600,"station_id":"ce4bhch2rcd13ifvqeug","pricing_plan_id":"cebpf4jnsgd1na2vs0mg"},{"bike_id":"c10f08af-18b7-447a-8b67-bff77e4a8080","system_id":"levelo_inurba_marseille","lat":43.32354,"lon":5.36754,"is_reserved":false,"is_disabled":false,"rental_uris":{"android":"levelo://app?vid=c10f08af-18b7-447a-8b67-bff77e4a8080","ios":"levelo://app?vid=c10f08af-18b7-447a-8b67-bff77e4a8080"},"vehicle_type_id":"4","last_reported":1745345644,"current_range_meters":9600,"station_id":"ce4bhsh2rcd13ifvqi2g","pricing_plan_id":"cebpf4jnsgd1na2vs0mg"},{"bike_id":"7f832f32-0f76-4b53-9890-10d59814f7c7","system_id":"levelo_inurba_marseille","lat":43.29261,"lon":5.38435,"is_reserved":false,"is_disabled":false,"rental_uris":{"android":"levelo://app?vid=7f832f32-0f76-4b53-9890-10d59814f7c7","ios":"levelo://app?vid=7f832f32-0f76-4b53-9890-10d59814f7c7"},"vehicle_type_id":"4","last_reported":1745345644,"current_range_meters":9600,"station_id":"ce4bh692rcd13ifvqea0","pricing_plan_id":"cebpf4jnsgd1na2vs0mg"},{"bike_id":"ecbdb4d8-c80c-4a11-b50b-aff98695a59d","system_id":"levelo_inurba_marseille","lat":43.27927,"lon":5.39592,"is_reserved":false,"is_disabled":false,"rental_uris":{"android":"levelo://app?vid=ecbdb4d8-c80c-4a11-b50b-aff98695a59d","ios":"levelo://app?vid=ecbdb4d8-c80c-4a11-b50b-aff98695a59d"},"vehicle_type_id":"4","last_reported":1745345644,"current_range_meters":9600,"station_id":"ce4bhf92rcd13ifvqf40","pricing_plan_id":"cebpf4jnsgd1na2vs0mg"},{"bike_id":"88e1c0af-e29a-45e2-863b-4408514239a7","system_id":"levelo_inurba_marseille","lat":43.26198,"lon":5.37933,"is_reserved":false,"is_disabled":false,"rental_uris":{"android":"levelo://app?vid=88e1c0af-e29a-45e2-863b-4408514239a7","ios":"levelo://app?vid=88e1c0af-e29a-45e2-863b-4408514239a7"},"vehicle_type_id":"4","last_reported":1745345644,"current_range_meters":9600,"station_id":"ce4bhjp2rcd13ifvqg90","pricing_plan_id":"cebpf4jnsgd1na2vs0mg"},{"bike_id":"a1d2c54b-b333-496c-a72c-10a072c70acc","system_id":"levelo_inurba_marseille","lat":43.28613,"lon":5.35099,"is_reserved":false,"is_disabled":false,"rental_uris":{"android":"levelo://app?vid=a1d2c54b-b333-496c-a72c-10a072c70acc","ios":"levelo://app?vid=a1d2c54b-b333-496c-a72c-10a072c70acc"},"vehicle_type_id":"4","last_reported":1745345644,"current_range_meters":10000,"station_id":"ce4bhch2rcd13ifvqeug","pricing_plan_id":"cebpf4jnsgd1na2vs0mg"},{"bike_id":"5d1f41e2-d4c3-46ec-9970-a9bac3c240b0","system_id":"levelo_inurba_marseille","lat":43.2872,"lon":5.36101,"is_reserved":false,"is_disabled":false,"rental_uris":{"android":"levelo://app?vid=5d1f41e2-d4c3-46ec-9970-a9bac3c240b0","ios":"levelo://app?vid=5d1f41e2-d4c3-46ec-9970-a9bac3c240b0"},"vehicle_type_id":"4","last_reported":1745345644,"current_range_meters":10800,"station_id":"cki0cbj6b192h4jlfktg","pricing_plan_id":"cebpf4jnsgd1na2vs0mg"},{"bike_id":"d815f7dc-a4ff-4b0d-b301-070dd6799d63","system_id":"levelo_inurba_marseille","lat":43.29274,"lon":5.36841,"is_reserved":false,"is_disabled":false,"rental_uris":{"android":"levelo://app?vid=d815f7dc-a4ff-4b0d-b301-070dd6799d63","ios":"levelo://app?vid=d815f7dc-a4ff-4b0d-b301-070dd6799d63"},"vehicle_type_id":"4","last_reported":1745345644,"current_range_meters":10800,"station_id":"ce4bhbp2rcd13ifvqesg","pricing_plan_id":"cebpf4jnsgd1na2vs0mg"},{"bike_id":"8d5ae3bb-b4b0-4f20-9a9c-311e37b0f399","system_id":"levelo_inurba_marseille","lat":43.23179,"lon":5.3999,"is_reserved":false,"is_disabled":false,"rental_uris":{"android":"levelo://app?vid=8d5ae3bb-b4b0-4f20-9a9c-311e37b0f399","ios":"levelo://app?vid=8d5ae3bb-b4b0-4f20-9a9c-311e37b0f399"},"vehicle_type_id":"4","last_reported":1745345644,"current_range_meters":9600,"station_id":"ce4bhn12rcd13ifvqgqg","pricing_plan_id":"cebpf4jnsgd1na2vs0mg"},{"bike_id":"7d19d159-3baf-469f-ac9d-4d32abdf1b8b","system_id":"levelo_inurba_marseille","lat":43.25715,"lon":5.41113,"is_reserved":false,"is_disabled":false,"rental_uris":{"android":"levelo://app?vid=7d19d159-3baf-469f-ac9d-4d32abdf1b8b","ios":"levelo://app?vid=7d19d159-3baf-469f-ac9d-4d32abdf1b8b"},"vehicle_type_id":"4","last_reported":1745345644,"current_range_meters":10800,"station_id":"ce4bhkp2rcd13ifvqgd0","pricing_plan_id":"cebpf4jnsgd1na2vs0mg"},{"bike_id":"f0ecc8cb-9612-4a8c-98d3-fffe0580f983","system_id":"levelo_inurba_marseille","lat":43.287258,"lon":5.379381,"is_reserved":false,"is_disabled":false,"rental_uris":{"android":"levelo://app?vid=f0ecc8cb-9612-4a8c-98d3-fffe0580f983","ios":"levelo://app?vid=f0ecc8cb-9612-4a8c-98d3-fffe0580f983"},"vehicle_type_id":"4","last_reported":1745345644,"current_range_meters":11200,"station_id":"ce4bhjp2rcd13ifvqga0","pricing_plan_id":"cebpf4jnsgd1na2vs0mg"},{"bike_id":"b3e7941b-b966-498f-a283-c1af5245bb3c","system_id":"levelo_inurba_marseille","lat":43.29538,"lon":5.39399,"is_reserved":false,"is_disabled":false,"rental_uris":{"android":"levelo://app?vid=b3e7941b-b966-498f-a283-c1af5245bb3c","ios":"levelo://app?vid=b3e7941b-b966-498f-a283-c1af5245bb3c"},"vehicle_type_id":"4","last_reported":1745345644,"current_range_meters":10800,"station_id":"ce4bh292rcd13ifvqdf0","pricing_plan_id":"cebpf4jnsgd1na2vs0mg"},{"bike_id":"9bd24143-7046-472c-b30c-fa7808af552e","system_id":"levelo_inurba_marseille","lat":43.28727,"lon":5.36075,"is_reserved":false,"is_disabled":false,"rental_uris":{"android":"levelo://app?vid=9bd24143-7046-472c-b30c-fa7808af552e","ios":"levelo://app?vid=9bd24143-7046-472c-b30c-fa7808af552e"},"vehicle_type_id":"4","last_reported":1745345644,"current_range_meters":11200,"station_id":"cki0cbj6b192h4jlfktg","pricing_plan_id":"cebpf4jnsgd1na2vs0mg"},{"bike_id":"4121b3d1-b41b-4c58-84f2-fc2f0d70e4bc","system_id":"levelo_inurba_marseille","lat":43.30428,"lon":5.38887,"is_reserved":false,"is_disabled":false,"rental_uris":{"android":"levelo://app?vid=4121b3d1-b41b-4c58-84f2-fc2f0d70e4bc","ios":"levelo://app?vid=4121b3d1-b41b-4c58-84f2-fc2f0d70e4bc"},"vehicle_type_id":"4","last_reported":1745345644,"current_range_meters":11200,"station_id":"ce4bgk12rcd13ifvqbi0","pricing_plan_id":"cebpf4jnsgd1na2vs0mg"},{"bike_id":"cde58abb-e471-49a0-b5b1-fcfce4e67920","system_id":"levelo_inurba_marseille","lat":43.31994,"lon":5.38163,"is_reserved":false,"is_disabled":false,"rental_uris":{"android":"levelo://app?vid=cde58abb-e471-49a0-b5b1-fcfce4e67920","ios":"levelo://app?vid=cde58abb-e471-49a0-b5b1-fcfce4e67920"},"vehicle_type_id":"4","last_reported":1745345644,"current_range_meters":11200,"station_id":"ce4bhr12rcd13ifvqhpg","pricing_plan_id":"cebpf4jnsgd1na2vs0mg"},{"bike_id":"43a0f92d-cd0b-4bb3-8a97-9fc1ddd6a9af","system_id":"levelo_inurba_marseille","lat":43.29198,"lon":5.358011,"is_reserved":false,"is_disabled":false,"rental_uris":{"android":"levelo://app?vid=43a0f92d-cd0b-4bb3-8a97-9fc1ddd6a9af","ios":"levelo://app?vid=43a0f92d-cd0b-4bb3-8a97-9fc1ddd6a9af"},"vehicle_type_id":"4","last_reported":1745345644,"current_range_meters":10800,"station_id":"ce4bhb12rcd13ifvqel0","pricing_plan_id":"cebpf4jnsgd1na2vs0mg"},{"bike_id":"47768a28-4fff-4fc1-b4c4-b5ec8d452deb","system_id":"levelo_inurba_marseille","lat":43.29604,"lon":5.38136,"is_reserved":false,"is_disabled":true,"rental_uris":{"android":"levelo://app?vid=47768a28-4fff-4fc1-b4c4-b5ec8d452deb","ios":"levelo://app?vid=47768a28-4fff-4fc1-b4c4-b5ec8d452deb"},"vehicle_type_id":"4","last_reported":1745345644,"current_range_meters":11200,"station_id":"ce4bgl12rcd13ifvqbo0","pricing_plan_id":"cebpf4jnsgd1na2vs0mg"},{"bike_id":"0d1ebedd-3512-4ce4-87fe-745c17edfd96","system_id":"levelo_inurba_marseille","lat":43.27883,"lon":5.35445,"is_reserved":false,"is_disabled":true,"rental_uris":{"android":"levelo://app?vid=0d1ebedd-3512-4ce4-87fe-745c17edfd96","ios":"levelo://app?vid=0d1ebedd-3512-4ce4-87fe-745c17edfd96"},"vehicle_type_id":"4","last_reported":1745345644,"current_range_meters":11600,"station_id":"","pricing_plan_id":"cebpf4jnsgd1na2vs0mg"},{"bike_id":"f1300840-291d-4ece-a09c-172514b0678c","system_id":"levelo_inurba_marseille","lat":43.29459,"lon":5.39765,"is_reserved":false,"is_disabled":true,"rental_uris":{"android":"levelo://app?vid=f1300840-291d-4ece-a09c-172514b0678c","ios":"levelo://app?vid=f1300840-291d-4ece-a09c-172514b0678c"},"vehicle_type_id":"4","last_reported":1745345644,"current_range_meters":11600,"station_id":"ce4bh3h2rcd13ifvqdo0","pricing_plan_id":"cebpf4jnsgd1na2vs0mg"},{"bike_id":"58c37351-b169-465d-a718-c2ffad80e23a","system_id":"levelo_inurba_marseille","lat":43.274204,"lon":5.394171,"is_reserved":false,"is_disabled":false,"rental_uris":{"android":"levelo://app?vid=58c37351-b169-465d-a718-c2ffad80e23a","ios":"levelo://app?vid=58c37351-b169-465d-a718-c2ffad80e23a"},"vehicle_type_id":"4","last_reported":1745345644,"current_range_meters":11600,"station_id":"ce4bhdp2rcd13ifvqf20","pricing_plan_id":"cebpf4jnsgd1na2vs0mg"},{"bike_id":"af66a236-21f6-4dac-9f5b-1a08e21d4696","system_id":"levelo_inurba_marseille","lat":43.29524,"lon":5.3904,"is_reserved":false,"is_disabled":false,"rental_uris":{"android":"levelo://app?vid=af66a236-21f6-4dac-9f5b-1a08e21d4696","ios":"levelo://app?vid=af66a236-21f6-4dac-9f5b-1a08e21d4696"},"vehicle_type_id":"4","last_reported":1745345644,"current_range_meters":11600,"station_id":"ce4bh3p2rcd13ifvqdp0","pricing_plan_id":"cebpf4jnsgd1na2vs0mg"},{"bike_id":"311be29b-ec97-4e26-8eeb-a8007381649d","system_id":"levelo_inurba_marseille","lat":43.29919,"lon":5.37454,"is_reserved":false,"is_disabled":false,"rental_uris":{"android":"levelo://app?vid=311be29b-ec97-4e26-8eeb-a8007381649d","ios":"levelo://app?vid=311be29b-ec97-4e26-8eeb-a8007381649d"},"vehicle_type_id":"4","last_reported":1745345644,"current_range_meters":11200,"station_id":"ce4bgjh2rcd13ifvqbg0","pricing_plan_id":"cebpf4jnsgd1na2vs0mg"},{"bike_id":"ecd9c509-3120-4166-8927-f60518d66aaa","system_id":"levelo_inurba_marseille","lat":43.295397,"lon":5.394147,"is_reserved":false,"is_disabled":true,"rental_uris":{"android":"levelo://app?vid=ecd9c509-3120-4166-8927-f60518d66aaa","ios":"levelo://app?vid=ecd9c509-3120-4166-8927-f60518d66aaa"},"vehicle_type_id":"4","last_reported":1745345644,"current_range_meters":12000,"station_id":"ce4bh292rcd13ifvqdf0","pricing_plan_id":"cebpf4jnsgd1na2vs0mg"},{"bike_id":"34f9db44-45b9-4488-abf2-e54f268186bd","system_id":"levelo_inurba_marseille","lat":43.23175,"lon":5.39981,"is_reserved":false,"is_disabled":false,"rental_uris":{"android":"levelo://app?vid=34f9db44-45b9-4488-abf2-e54f268186bd","ios":"levelo://app?vid=34f9db44-45b9-4488-abf2-e54f268186bd"},"vehicle_type_id":"4","last_reported":1745345644,"current_range_meters":12000,"station_id":"ce4bhn12rcd13ifvqgqg","pricing_plan_id":"cebpf4jnsgd1na2vs0mg"},{"bike_id":"a756bae3-49c1-4d6c-89e8-fcb7b0e7d2e2","system_id":"levelo_inurba_marseille","lat":43.29039,"lon":5.35911,"is_reserved":false,"is_disabled":true,"rental_uris":{"android":"levelo://app?vid=a756bae3-49c1-4d6c-89e8-fcb7b0e7d2e2","ios":"levelo://app?vid=a756bae3-49c1-4d6c-89e8-fcb7b0e7d2e2"},"vehicle_type_id":"4","last_reported":1745345644,"current_range_meters":12000,"station_id":"ce4bha92rcd13ifvqeg0","pricing_plan_id":"cebpf4jnsgd1na2vs0mg"},{"bike_id":"a0d972eb-2e86-471e-b0d2-489bd671acad","system_id":"levelo_inurba_marseille","lat":43.31753,"lon":5.39022,"is_reserved":false,"is_disabled":false,"rental_uris":{"android":"levelo://app?vid=a0d972eb-2e86-471e-b0d2-489bd671acad","ios":"levelo://app?vid=a0d972eb-2e86-471e-b0d2-489bd671acad"},"vehicle_type_id":"4","last_reported":1745345644,"current_range_meters":12000,"station_id":"ce4bhqp2rcd13ifvqhng","pricing_plan_id":"cebpf4jnsgd1na2vs0mg"},{"bike_id":"f4675a21-b353-4735-aa54-0c50aca91666","system_id":"levelo_inurba_marseille","lat":43.28937,"lon":5.36634,"is_reserved":false,"is_disabled":false,"rental_uris":{"android":"levelo://app?vid=f4675a21-b353-4735-aa54-0c50aca91666","ios":"levelo://app?vid=f4675a21-b353-4735-aa54-0c50aca91666"},"vehicle_type_id":"4","last_reported":1745345644,"current_range_meters":12000,"station_id":"ce4bhap2rcd13ifvqek0","pricing_plan_id":"cebpf4jnsgd1na2vs0mg"},{"bike_id":"c10256a6-8742-4a70-8e64-f2c56713d90b","system_id":"levelo_inurba_marseille","lat":43.28407,"lon":5.37516,"is_reserved":false,"is_disabled":false,"rental_uris":{"android":"levelo://app?vid=c10256a6-8742-4a70-8e64-f2c56713d90b","ios":"levelo://app?vid=c10256a6-8742-4a70-8e64-f2c56713d90b"},"vehicle_type_id":"4","last_reported":1745345644,"current_range_meters":12000,"station_id":"ce4bh412rcd13ifvqds0","pricing_plan_id":"cebpf4jnsgd1na2vs0mg"},{"bike_id":"7d3d7f9f-b40c-4d9b-92ee-efcaa523c886","system_id":"levelo_inurba_marseille","lat":43.28264,"lon":5.3506,"is_reserved":false,"is_disabled":false,"rental_uris":{"android":"levelo://app?vid=7d3d7f9f-b40c-4d9b-92ee-efcaa523c886","ios":"levelo://app?vid=7d3d7f9f-b40c-4d9b-92ee-efcaa523c886"},"vehicle_type_id":"4","last_reported":1745345644,"current_range_meters":11600,"station_id":"ce4bhbp2rcd13ifvqerg","pricing_plan_id":"cebpf4jnsgd1na2vs0mg"},{"bike_id":"bb520379-4ae6-4bdd-8d82-9c3b802786f3","system_id":"levelo_inurba_marseille","lat":43.31281,"lon":5.40171,"is_reserved":false,"is_disabled":false,"rental_uris":{"android":"levelo://app?vid=bb520379-4ae6-4bdd-8d82-9c3b802786f3","ios":"levelo://app?vid=bb520379-4ae6-4bdd-8d82-9c3b802786f3"},"vehicle_type_id":"4","last_reported":1745345644,"current_range_meters":12000,"station_id":"ce4bh092rcd13ifvqd30","pricing_plan_id":"cebpf4jnsgd1na2vs0mg"},{"bike_id":"d5fa6a7e-ae6f-48cd-8dc8-6ec1473fc099","system_id":"levelo_inurba_marseille","lat":43.313854,"lon":5.367105,"is_reserved":false,"is_disabled":true,"rental_uris":{"android":"levelo://app?vid=d5fa6a7e-ae6f-48cd-8dc8-6ec1473fc099","ios":"levelo://app?vid=d5fa6a7e-ae6f-48cd-8dc8-6ec1473fc099"},"vehicle_type_id":"4","last_reported":1745345644,"current_range_meters":12000,"station_id":"ce4bgr92rcd13ifvqc6g","pricing_plan_id":"cebpf4jnsgd1na2vs0mg"},{"bike_id":"bf2b26e5-ea44-4767-9cbc-0248a2e222cf","system_id":"levelo_inurba_marseille","lat":43.27071,"lon":5.42283,"is_reserved":false,"is_disabled":false,"rental_uris":{"android":"levelo://app?vid=bf2b26e5-ea44-4767-9cbc-0248a2e222cf","ios":"levelo://app?vid=bf2b26e5-ea44-4767-9cbc-0248a2e222cf"},"vehicle_type_id":"4","last_reported":1745345644,"current_range_meters":11600,"station_id":"ce4bhk92rcd13ifvqgb0","pricing_plan_id":"cebpf4jnsgd1na2vs0mg"},{"bike_id":"c06ebb7a-5300-429f-80f2-d553134bf4ac","system_id":"levelo_inurba_marseille","lat":43.29267,"lon":5.38438,"is_reserved":false,"is_disabled":false,"rental_uris":{"android":"levelo://app?vid=c06ebb7a-5300-429f-80f2-d553134bf4ac","ios":"levelo://app?vid=c06ebb7a-5300-429f-80f2-d553134bf4ac"},"vehicle_type_id":"4","last_reported":1745345644,"current_range_meters":12400,"station_id":"ce4bh692rcd13ifvqea0","pricing_plan_id":"cebpf4jnsgd1na2vs0mg"},{"bike_id":"362b571d-d73d-46a9-91a8-a8db360906ca","system_id":"levelo_inurba_marseille","lat":43.27962,"lon":5.3874,"is_reserved":false,"is_disabled":false,"rental_uris":{"android":"levelo://app?vid=362b571d-d73d-46a9-91a8-a8db360906ca","ios":"levelo://app?vid=362b571d-d73d-46a9-91a8-a8db360906ca"},"vehicle_type_id":"4","last_reported":1745345644,"current_range_meters":12400,"station_id":"ce4bhg12rcd13ifvqf80","pricing_plan_id":"cebpf4jnsgd1na2vs0mg"},{"bike_id":"8c0d14bb-4242-4f4f-8a62-e312c5b2bf57","system_id":"levelo_inurba_marseille","lat":43.29434,"lon":5.38621,"is_reserved":false,"is_disabled":false,"rental_uris":{"android":"levelo://app?vid=8c0d14bb-4242-4f4f-8a62-e312c5b2bf57","ios":"levelo://app?vid=8c0d14bb-4242-4f4f-8a62-e312c5b2bf57"},"vehicle_type_id":"4","last_reported":1745345644,"current_range_meters":12400,"station_id":"ce4bh2h2rcd13ifvqdh0","pricing_plan_id":"cebpf4jnsgd1na2vs0mg"},{"bike_id":"fc26c568-6eba-4b74-8a19-5ceaf4729d48","system_id":"levelo_inurba_marseille","lat":43.26564,"lon":5.39012,"is_reserved":false,"is_disabled":false,"rental_uris":{"android":"levelo://app?vid=fc26c568-6eba-4b74-8a19-5ceaf4729d48","ios":"levelo://app?vid=fc26c568-6eba-4b74-8a19-5ceaf4729d48"},"vehicle_type_id":"4","last_reported":1745345644,"current_range_meters":12400,"station_id":"ce4bhe12rcd13ifvqf30","pricing_plan_id":"cebpf4jnsgd1na2vs0mg"},{"bike_id":"bcf59123-c0ca-4689-b22c-166c9c055995","system_id":"levelo_inurba_marseille","lat":43.32034,"lon":5.41589,"is_reserved":false,"is_disabled":false,"rental_uris":{"android":"levelo://app?vid=bcf59123-c0ca-4689-b22c-166c9c055995","ios":"levelo://app?vid=bcf59123-c0ca-4689-b22c-166c9c055995"},"vehicle_type_id":"4","last_reported":1745345644,"current_range_meters":12400,"station_id":"ce4bhq92rcd13ifvqhkg","pricing_plan_id":"cebpf4jnsgd1na2vs0mg"},{"bike_id":"2dec9cfb-711f-491c-9925-bbeb0f290b29","system_id":"levelo_inurba_marseille","lat":43.29195,"lon":5.358,"is_reserved":false,"is_disabled":false,"rental_uris":{"android":"levelo://app?vid=2dec9cfb-711f-491c-9925-bbeb0f290b29","ios":"levelo://app?vid=2dec9cfb-711f-491c-9925-bbeb0f290b29"},"vehicle_type_id":"4","last_reported":1745345644,"current_range_meters":12400,"station_id":"ce4bhb12rcd13ifvqel0","pricing_plan_id":"cebpf4jnsgd1na2vs0mg"},{"bike_id":"8d7533b3-5585-4b66-b684-60807f9907c2","system_id":"levelo_inurba_marseille","lat":43.28892,"lon":5.35838,"is_reserved":false,"is_disabled":false,"rental_uris":{"android":"levelo://app?vid=8d7533b3-5585-4b66-b684-60807f9907c2","ios":"levelo://app?vid=8d7533b3-5585-4b66-b684-60807f9907c2"},"vehicle_type_id":"4","last_reported":1745345644,"current_range_meters":12800,"station_id":"ce4bhb12rcd13ifvqem0","pricing_plan_id":"cebpf4jnsgd1na2vs0mg"},{"bike_id":"20605c86-d6f9-4d18-8368-04d34dff0852","system_id":"levelo_inurba_marseille","lat":43.2953,"lon":5.38534,"is_reserved":false,"is_disabled":false,"rental_uris":{"android":"levelo://app?vid=20605c86-d6f9-4d18-8368-04d34dff0852","ios":"levelo://app?vid=20605c86-d6f9-4d18-8368-04d34dff0852"},"vehicle_type_id":"4","last_reported":1745345644,"current_range_meters":12800,"station_id":"ce4bgih2rcd13ifvqba0","pricing_plan_id":"cebpf4jnsgd1na2vs0mg"},{"bike_id":"00f9085c-490f-405b-8a75-9e3c8031e0c5","system_id":"levelo_inurba_marseille","lat":43.28399,"lon":5.37517,"is_reserved":false,"is_disabled":false,"rental_uris":{"android":"levelo://app?vid=00f9085c-490f-405b-8a75-9e3c8031e0c5","ios":"levelo://app?vid=00f9085c-490f-405b-8a75-9e3c8031e0c5"},"vehicle_type_id":"4","last_reported":1745345644,"current_range_meters":12800,"station_id":"ce4bh412rcd13ifvqds0","pricing_plan_id":"cebpf4jnsgd1na2vs0mg"},{"bike_id":"48966b8c-5396-470a-81bd-24bc07f644ce","system_id":"levelo_inurba_marseille","lat":43.292917,"lon":5.408106,"is_reserved":false,"is_disabled":false,"rental_uris":{"android":"levelo://app?vid=48966b8c-5396-470a-81bd-24bc07f644ce","ios":"levelo://app?vid=48966b8c-5396-470a-81bd-24bc07f644ce"},"vehicle_type_id":"4","last_reported":1745345644,"current_range_meters":12800,"station_id":"ce4bh192rcd13ifvqdc0","pricing_plan_id":"cebpf4jnsgd1na2vs0mg"},{"bike_id":"e9e21459-0141-43a3-9f99-2d720b6a2b30","system_id":"levelo_inurba_marseille","lat":43.28621,"lon":5.35098,"is_reserved":false,"is_disabled":false,"rental_uris":{"android":"levelo://app?vid=e9e21459-0141-43a3-9f99-2d720b6a2b30","ios":"levelo://app?vid=e9e21459-0141-43a3-9f99-2d720b6a2b30"},"vehicle_type_id":"4","last_reported":1745345644,"current_range_meters":12800,"station_id":"ce4bhch2rcd13ifvqeug","pricing_plan_id":"cebpf4jnsgd1na2vs0mg"},{"bike_id":"7d970223-5879-4975-b33d-ca030065e66d","system_id":"levelo_inurba_marseille","lat":43.26199,"lon":5.37936,"is_reserved":false,"is_disabled":false,"rental_uris":{"android":"levelo://app?vid=7d970223-5879-4975-b33d-ca030065e66d","ios":"levelo://app?vid=7d970223-5879-4975-b33d-ca030065e66d"},"vehicle_type_id":"4","last_reported":1745345644,"current_range_meters":12800,"station_id":"ce4bhjp2rcd13ifvqg90","pricing_plan_id":"cebpf4jnsgd1na2vs0mg"},{"bike_id":"b95554b9-8292-4c24-80f8-8ff298af665b","system_id":"levelo_inurba_marseille","lat":43.28354,"lon":5.38102,"is_reserved":false,"is_disabled":false,"rental_uris":{"android":"levelo://app?vid=b95554b9-8292-4c24-80f8-8ff298af665b","ios":"levelo://app?vid=b95554b9-8292-4c24-80f8-8ff298af665b"},"vehicle_type_id":"4","last_reported":1745345644,"current_range_meters":12800,"station_id":"ce4bh412rcd13ifvqdr0","pricing_plan_id":"cebpf4jnsgd1na2vs0mg"},{"bike_id":"6080f48f-3c6c-4441-9b68-3acd718d8a47","system_id":"levelo_inurba_marseille","lat":43.25113,"lon":5.40321,"is_reserved":false,"is_disabled":false,"rental_uris":{"android":"levelo://app?vid=6080f48f-3c6c-4441-9b68-3acd718d8a47","ios":"levelo://app?vid=6080f48f-3c6c-4441-9b68-3acd718d8a47"},"vehicle_type_id":"4","last_reported":1745345644,"current_range_meters":12400,"station_id":"ce4bhlh2rcd13ifvqgig","pricing_plan_id":"cebpf4jnsgd1na2vs0mg"},{"bike_id":"b2f1a741-390e-4a92-b69f-b95617e9cc3f","system_id":"levelo_inurba_marseille","lat":43.29263,"lon":5.38428,"is_reserved":false,"is_disabled":false,"rental_uris":{"android":"levelo://app?vid=b2f1a741-390e-4a92-b69f-b95617e9cc3f","ios":"levelo://app?vid=b2f1a741-390e-4a92-b69f-b95617e9cc3f"},"vehicle_type_id":"4","last_reported":1745345644,"current_range_meters":12400,"station_id":"ce4bh692rcd13ifvqea0","pricing_plan_id":"cebpf4jnsgd1na2vs0mg"},{"bike_id":"46b4fe35-f673-4d9b-9cb6-0c775755a614","system_id":"levelo_inurba_marseille","lat":43.27919,"lon":5.41046,"is_reserved":false,"is_disabled":false,"rental_uris":{"android":"levelo://app?vid=46b4fe35-f673-4d9b-9cb6-0c775755a614","ios":"levelo://app?vid=46b4fe35-f673-4d9b-9cb6-0c775755a614"},"vehicle_type_id":"4","last_reported":1745345644,"current_range_meters":13600,"station_id":"ce4bhnp2rcd13ifvqh0g","pricing_plan_id":"cebpf4jnsgd1na2vs0mg"},{"bike_id":"376d0250-1e25-488b-bee2-bae11388c063","system_id":"levelo_inurba_marseille","lat":43.28477,"lon":5.38452,"is_reserved":false,"is_disabled":false,"rental_uris":{"android":"levelo://app?vid=376d0250-1e25-488b-bee2-bae11388c063","ios":"levelo://app?vid=376d0250-1e25-488b-bee2-bae11388c063"},"vehicle_type_id":"4","last_reported":1745345644,"current_range_meters":13600,"station_id":"ce4bh512rcd13ifvqe3g","pricing_plan_id":"cebpf4jnsgd1na2vs0mg"},{"bike_id":"e0167655-4eb0-4d74-8780-031d999fb81d","system_id":"levelo_inurba_marseille","lat":43.31276,"lon":5.40169,"is_reserved":false,"is_disabled":false,"rental_uris":{"android":"levelo://app?vid=e0167655-4eb0-4d74-8780-031d999fb81d","ios":"levelo://app?vid=e0167655-4eb0-4d74-8780-031d999fb81d"},"vehicle_type_id":"4","last_reported":1745345644,"current_range_meters":13600,"station_id":"ce4bh092rcd13ifvqd30","pricing_plan_id":"cebpf4jnsgd1na2vs0mg"},{"bike_id":"d4740572-81fc-4a45-b7ed-160bd1098baa","system_id":"levelo_inurba_marseille","lat":43.29006,"lon":5.35591,"is_reserved":false,"is_disabled":false,"rental_uris":{"android":"levelo://app?vid=d4740572-81fc-4a45-b7ed-160bd1098baa","ios":"levelo://app?vid=d4740572-81fc-4a45-b7ed-160bd1098baa"},"vehicle_type_id":"4","last_reported":1745345644,"current_range_meters":13600,"station_id":"ce4bhb92rcd13ifvqen0","pricing_plan_id":"cebpf4jnsgd1na2vs0mg"},{"bike_id":"afc1a72d-f3cd-4039-8f8e-8907957e6ee0","system_id":"levelo_inurba_marseille","lat":43.284196,"lon":5.375084,"is_reserved":false,"is_disabled":false,"rental_uris":{"android":"levelo://app?vid=afc1a72d-f3cd-4039-8f8e-8907957e6ee0","ios":"levelo://app?vid=afc1a72d-f3cd-4039-8f8e-8907957e6ee0"},"vehicle_type_id":"4","last_reported":1745345644,"current_range_meters":14000,"station_id":"ce4bh412rcd13ifvqds0","pricing_plan_id":"cebpf4jnsgd1na2vs0mg"},{"bike_id":"476a9fe5-6154-4202-b562-28b0995b6b4c","system_id":"levelo_inurba_marseille","lat":43.23196,"lon":5.39983,"is_reserved":false,"is_disabled":false,"rental_uris":{"android":"levelo://app?vid=476a9fe5-6154-4202-b562-28b0995b6b4c","ios":"levelo://app?vid=476a9fe5-6154-4202-b562-28b0995b6b4c"},"vehicle_type_id":"4","last_reported":1745345644,"current_range_meters":14000,"station_id":"ce4bhn12rcd13ifvqgqg","pricing_plan_id":"cebpf4jnsgd1na2vs0mg"},{"bike_id":"5a8c9fcf-492d-4b31-82e3-1ecab095ed89","system_id":"levelo_inurba_marseille","lat":43.31175,"lon":5.38715,"is_reserved":false,"is_disabled":false,"rental_uris":{"android":"levelo://app?vid=5a8c9fcf-492d-4b31-82e3-1ecab095ed89","ios":"levelo://app?vid=5a8c9fcf-492d-4b31-82e3-1ecab095ed89"},"vehicle_type_id":"4","last_reported":1745345644,"current_range_meters":13600,"station_id":"ce4bgv12rcd13ifvqcp0","pricing_plan_id":"cebpf4jnsgd1na2vs0mg"},{"bike_id":"eec85ed6-cce0-4641-9b68-5506c5b0f804","system_id":"levelo_inurba_marseille","lat":43.2867,"lon":5.38673,"is_reserved":false,"is_disabled":false,"rental_uris":{"android":"levelo://app?vid=eec85ed6-cce0-4641-9b68-5506c5b0f804","ios":"levelo://app?vid=eec85ed6-cce0-4641-9b68-5506c5b0f804"},"vehicle_type_id":"4","last_reported":1745345644,"current_range_meters":14400,"station_id":"ce4bh492rcd13ifvqdug","pricing_plan_id":"cebpf4jnsgd1na2vs0mg"},{"bike_id":"678d1ff2-b92f-437a-a478-0a2f054c08e9","system_id":"levelo_inurba_marseille","lat":43.30353,"lon":5.36846,"is_reserved":false,"is_disabled":false,"rental_uris":{"android":"levelo://app?vid=678d1ff2-b92f-437a-a478-0a2f054c08e9","ios":"levelo://app?vid=678d1ff2-b92f-437a-a478-0a2f054c08e9"},"vehicle_type_id":"4","last_reported":1745345644,"current_range_meters":14400,"station_id":"","pricing_plan_id":"cebpf4jnsgd1na2vs0mg"},{"bike_id":"48939965-4329-495f-a3f1-b5cf562d2ecf","system_id":"levelo_inurba_marseille","lat":43.30701,"lon":5.40066,"is_reserved":false,"is_disabled":true,"rental_uris":{"android":"levelo://app?vid=48939965-4329-495f-a3f1-b5cf562d2ecf","ios":"levelo://app?vid=48939965-4329-495f-a3f1-b5cf562d2ecf"},"vehicle_type_id":"4","last_reported":1745345644,"current_range_meters":14400,"station_id":"ce4bh112rcd13ifvqda0","pricing_plan_id":"cebpf4jnsgd1na2vs0mg"},{"bike_id":"d3cb31b6-3dd7-42b5-85f6-426fd02f883c","system_id":"levelo_inurba_marseille","lat":43.311866,"lon":5.387176,"is_reserved":false,"is_disabled":false,"rental_uris":{"android":"levelo://app?vid=d3cb31b6-3dd7-42b5-85f6-426fd02f883c","ios":"levelo://app?vid=d3cb31b6-3dd7-42b5-85f6-426fd02f883c"},"vehicle_type_id":"4","last_reported":1745345644,"current_range_meters":14800,"station_id":"ce4bgv12rcd13ifvqcp0","pricing_plan_id":"cebpf4jnsgd1na2vs0mg"},{"bike_id":"caccf6b1-eff9-41fc-9278-5e6f421f5468","system_id":"levelo_inurba_marseille","lat":43.28415,"lon":5.34994,"is_reserved":false,"is_disabled":false,"rental_uris":{"android":"levelo://app?vid=caccf6b1-eff9-41fc-9278-5e6f421f5468","ios":"levelo://app?vid=caccf6b1-eff9-41fc-9278-5e6f421f5468"},"vehicle_type_id":"4","last_reported":1745345644,"current_range_meters":14800,"station_id":"ce4bhbh2rcd13ifvqepg","pricing_plan_id":"cebpf4jnsgd1na2vs0mg"},{"bike_id":"6dc2900b-a56b-45d4-9a3b-23f89e1e89b6","system_id":"levelo_inurba_marseille","lat":43.29199,"lon":5.358,"is_reserved":false,"is_disabled":false,"rental_uris":{"android":"levelo://app?vid=6dc2900b-a56b-45d4-9a3b-23f89e1e89b6","ios":"levelo://app?vid=6dc2900b-a56b-45d4-9a3b-23f89e1e89b6"},"vehicle_type_id":"4","last_reported":1745345644,"current_range_meters":14800,"station_id":"ce4bhb12rcd13ifvqel0","pricing_plan_id":"cebpf4jnsgd1na2vs0mg"},{"bike_id":"e954e2cd-48db-49d5-b8c3-76c1dae8719a","system_id":"levelo_inurba_marseille","lat":43.31325,"lon":5.39692,"is_reserved":false,"is_disabled":false,"rental_uris":{"android":"levelo://app?vid=e954e2cd-48db-49d5-b8c3-76c1dae8719a","ios":"levelo://app?vid=e954e2cd-48db-49d5-b8c3-76c1dae8719a"},"vehicle_type_id":"4","last_reported":1745345644,"current_range_meters":14800,"station_id":"ce4bgvp2rcd13ifvqcu0","pricing_plan_id":"cebpf4jnsgd1na2vs0mg"},{"bike_id":"d77093f4-7789-4f7b-8b97-7278b7bcaa4a","system_id":"levelo_inurba_marseille","lat":43.27678,"lon":5.38863,"is_reserved":false,"is_disabled":false,"rental_uris":{"android":"levelo://app?vid=d77093f4-7789-4f7b-8b97-7278b7bcaa4a","ios":"levelo://app?vid=d77093f4-7789-4f7b-8b97-7278b7bcaa4a"},"vehicle_type_id":"4","last_reported":1745345644,"current_range_meters":14800,"station_id":"ce4bhi12rcd13ifvqfo0","pricing_plan_id":"cebpf4jnsgd1na2vs0mg"},{"bike_id":"17fcc26c-1b0e-4619-af61-a43999c9f6b6","system_id":"levelo_inurba_marseille","lat":43.31755,"lon":5.39038,"is_reserved":false,"is_disabled":false,"rental_uris":{"android":"levelo://app?vid=17fcc26c-1b0e-4619-af61-a43999c9f6b6","ios":"levelo://app?vid=17fcc26c-1b0e-4619-af61-a43999c9f6b6"},"vehicle_type_id":"4","last_reported":1745345644,"current_range_meters":14800,"station_id":"ce4bhqp2rcd13ifvqhng","pricing_plan_id":"cebpf4jnsgd1na2vs0mg"},{"bike_id":"948940f2-cf08-4497-a859-a04a994da586","system_id":"levelo_inurba_marseille","lat":43.29302,"lon":5.37463,"is_reserved":false,"is_disabled":false,"rental_uris":{"android":"levelo://app?vid=948940f2-cf08-4497-a859-a04a994da586","ios":"levelo://app?vid=948940f2-cf08-4497-a859-a04a994da586"},"vehicle_type_id":"4","last_reported":1745345644,"current_range_meters":14800,"station_id":"ce4bgi12rcd13ifvqb70","pricing_plan_id":"cebpf4jnsgd1na2vs0mg"},{"bike_id":"92c09ad8-239a-4f45-963c-15e043aede65","system_id":"levelo_inurba_marseille","lat":43.28265,"lon":5.35081,"is_reserved":false,"is_disabled":false,"rental_uris":{"android":"levelo://app?vid=92c09ad8-239a-4f45-963c-15e043aede65","ios":"levelo://app?vid=92c09ad8-239a-4f45-963c-15e043aede65"},"vehicle_type_id":"4","last_reported":1745345644,"current_range_meters":14800,"station_id":"ce4bhbp2rcd13ifvqerg","pricing_plan_id":"cebpf4jnsgd1na2vs0mg"},{"bike_id":"0bdef86d-4cc0-4665-b33f-78ac691156eb","system_id":"levelo_inurba_marseille","lat":43.28418,"lon":5.34989,"is_reserved":false,"is_disabled":false,"rental_uris":{"android":"levelo://app?vid=0bdef86d-4cc0-4665-b33f-78ac691156eb","ios":"levelo://app?vid=0bdef86d-4cc0-4665-b33f-78ac691156eb"},"vehicle_type_id":"4","last_reported":1745345644,"current_range_meters":15200,"station_id":"ce4bhbh2rcd13ifvqepg","pricing_plan_id":"cebpf4jnsgd1na2vs0mg"},{"bike_id":"e56c256a-70d6-481c-811a-7760f65fbf9e","system_id":"levelo_inurba_marseille","lat":43.32063,"lon":5.41539,"is_reserved":false,"is_disabled":false,"rental_uris":{"android":"levelo://app?vid=e56c256a-70d6-481c-811a-7760f65fbf9e","ios":"levelo://app?vid=e56c256a-70d6-481c-811a-7760f65fbf9e"},"vehicle_type_id":"4","last_reported":1745345644,"current_range_meters":15200,"station_id":"ce4bhq92rcd13ifvqhkg","pricing_plan_id":"cebpf4jnsgd1na2vs0mg"},{"bike_id":"9e2d230f-9173-4041-8a18-65c5c82b0e20","system_id":"levelo_inurba_marseille","lat":43.29267,"lon":5.38449,"is_reserved":false,"is_disabled":false,"rental_uris":{"android":"levelo://app?vid=9e2d230f-9173-4041-8a18-65c5c82b0e20","ios":"levelo://app?vid=9e2d230f-9173-4041-8a18-65c5c82b0e20"},"vehicle_type_id":"4","last_reported":1745345644,"current_range_meters":15200,"station_id":"ce4bh692rcd13ifvqea0","pricing_plan_id":"cebpf4jnsgd1na2vs0mg"},{"bike_id":"0d7f938e-484c-46c3-9f21-efdc6e6a1193","system_id":"levelo_inurba_marseille","lat":43.28999,"lon":5.35604,"is_reserved":false,"is_disabled":false,"rental_uris":{"android":"levelo://app?vid=0d7f938e-484c-46c3-9f21-efdc6e6a1193","ios":"levelo://app?vid=0d7f938e-484c-46c3-9f21-efdc6e6a1193"},"vehicle_type_id":"4","last_reported":1745345644,"current_range_meters":15200,"station_id":"ce4bhb92rcd13ifvqen0","pricing_plan_id":"cebpf4jnsgd1na2vs0mg"},{"bike_id":"720e7c55-81ee-4df3-85dd-e0a8bd052c42","system_id":"levelo_inurba_marseille","lat":43.2951,"lon":5.39035,"is_reserved":false,"is_disabled":false,"rental_uris":{"android":"levelo://app?vid=720e7c55-81ee-4df3-85dd-e0a8bd052c42","ios":"levelo://app?vid=720e7c55-81ee-4df3-85dd-e0a8bd052c42"},"vehicle_type_id":"4","last_reported":1745345644,"current_range_meters":15200,"station_id":"ce4bh3p2rcd13ifvqdp0","pricing_plan_id":"cebpf4jnsgd1na2vs0mg"},{"bike_id":"2c52e7db-2367-4576-9698-b8a818eafd80","system_id":"levelo_inurba_marseille","lat":43.290593,"lon":5.379971,"is_reserved":false,"is_disabled":false,"rental_uris":{"android":"levelo://app?vid=2c52e7db-2367-4576-9698-b8a818eafd80","ios":"levelo://app?vid=2c52e7db-2367-4576-9698-b8a818eafd80"},"vehicle_type_id":"4","last_reported":1745345644,"current_range_meters":15200,"station_id":"ce4bh492rcd13ifvqdug","pricing_plan_id":"cebpf4jnsgd1na2vs0mg"},{"bike_id":"7bcc6da8-8cfb-42c8-9d13-5532e3d44b60","system_id":"levelo_inurba_marseille","lat":43.29425,"lon":5.38608,"is_reserved":false,"is_disabled":false,"rental_uris":{"android":"levelo://app?vid=7bcc6da8-8cfb-42c8-9d13-5532e3d44b60","ios":"levelo://app?vid=7bcc6da8-8cfb-42c8-9d13-5532e3d44b60"},"vehicle_type_id":"4","last_reported":1745345644,"current_range_meters":16000,"station_id":"ce4bh2h2rcd13ifvqdh0","pricing_plan_id":"cebpf4jnsgd1na2vs0mg"},{"bike_id":"26e4deb2-6823-4923-bffc-5fa0997edf76","system_id":"levelo_inurba_marseille","lat":43.31189,"lon":5.38722,"is_reserved":false,"is_disabled":false,"rental_uris":{"android":"levelo://app?vid=26e4deb2-6823-4923-bffc-5fa0997edf76","ios":"levelo://app?vid=26e4deb2-6823-4923-bffc-5fa0997edf76"},"vehicle_type_id":"4","last_reported":1745345644,"current_range_meters":15200,"station_id":"ce4bgv12rcd13ifvqcp0","pricing_plan_id":"cebpf4jnsgd1na2vs0mg"},{"bike_id":"a4b89487-b794-4667-bd52-b0acc2845e42","system_id":"levelo_inurba_marseille","lat":43.29411,"lon":5.38616,"is_reserved":false,"is_disabled":false,"rental_uris":{"android":"levelo://app?vid=a4b89487-b794-4667-bd52-b0acc2845e42","ios":"levelo://app?vid=a4b89487-b794-4667-bd52-b0acc2845e42"},"vehicle_type_id":"4","last_reported":1745345644,"current_range_meters":16000,"station_id":"ce4bh2h2rcd13ifvqdh0","pricing_plan_id":"cebpf4jnsgd1na2vs0mg"},{"bike_id":"df6ffc41-ed4d-4c2c-af47-12b33fc50735","system_id":"levelo_inurba_marseille","lat":43.25099,"lon":5.40324,"is_reserved":false,"is_disabled":false,"rental_uris":{"android":"levelo://app?vid=df6ffc41-ed4d-4c2c-af47-12b33fc50735","ios":"levelo://app?vid=df6ffc41-ed4d-4c2c-af47-12b33fc50735"},"vehicle_type_id":"4","last_reported":1745345644,"current_range_meters":16000,"station_id":"ce4bhlh2rcd13ifvqgig","pricing_plan_id":"cebpf4jnsgd1na2vs0mg"},{"bike_id":"9953ace0-aa7f-4300-994d-113345c539a4","system_id":"levelo_inurba_marseille","lat":43.29199,"lon":5.358,"is_reserved":false,"is_disabled":false,"rental_uris":{"android":"levelo://app?vid=9953ace0-aa7f-4300-994d-113345c539a4","ios":"levelo://app?vid=9953ace0-aa7f-4300-994d-113345c539a4"},"vehicle_type_id":"4","last_reported":1745345644,"current_range_meters":16000,"station_id":"ce4bhb12rcd13ifvqel0","pricing_plan_id":"cebpf4jnsgd1na2vs0mg"},{"bike_id":"3e515827-9f42-4617-8bd8-d3d4631abd32","system_id":"levelo_inurba_marseille","lat":43.28448,"lon":5.39199,"is_reserved":false,"is_disabled":false,"rental_uris":{"android":"levelo://app?vid=3e515827-9f42-4617-8bd8-d3d4631abd32","ios":"levelo://app?vid=3e515827-9f42-4617-8bd8-d3d4631abd32"},"vehicle_type_id":"4","last_reported":1745345644,"current_range_meters":16000,"station_id":"ce4bhoh2rcd13ifvqh5g","pricing_plan_id":"cebpf4jnsgd1na2vs0mg"},{"bike_id":"e12c5757-60fa-4580-8554-61d61f034168","system_id":"levelo_inurba_marseille","lat":43.25119,"lon":5.40315,"is_reserved":false,"is_disabled":false,"rental_uris":{"android":"levelo://app?vid=e12c5757-60fa-4580-8554-61d61f034168","ios":"levelo://app?vid=e12c5757-60fa-4580-8554-61d61f034168"},"vehicle_type_id":"4","last_reported":1745345644,"current_range_meters":16400,"station_id":"ce4bhlh2rcd13ifvqgig","pricing_plan_id":"cebpf4jnsgd1na2vs0mg"},{"bike_id":"8e20898e-f4a5-4e7c-b50a-4ab43a31e9df","system_id":"levelo_inurba_marseille","lat":43.294139,"lon":5.386226,"is_reserved":false,"is_disabled":false,"rental_uris":{"android":"levelo://app?vid=8e20898e-f4a5-4e7c-b50a-4ab43a31e9df","ios":"levelo://app?vid=8e20898e-f4a5-4e7c-b50a-4ab43a31e9df"},"vehicle_type_id":"4","last_reported":1745345644,"current_range_meters":16400,"station_id":"ce4bh2h2rcd13ifvqdh0","pricing_plan_id":"cebpf4jnsgd1na2vs0mg"},{"bike_id":"abd226a8-d003-4133-b9d2-b7c952b7ead1","system_id":"levelo_inurba_marseille","lat":43.23096,"lon":5.35516,"is_reserved":false,"is_disabled":false,"rental_uris":{"android":"levelo://app?vid=abd226a8-d003-4133-b9d2-b7c952b7ead1","ios":"levelo://app?vid=abd226a8-d003-4133-b9d2-b7c952b7ead1"},"vehicle_type_id":"4","last_reported":1745345644,"current_range_meters":16400,"station_id":"cpo3342slgdg3j2ifvpg","pricing_plan_id":"cebpf4jnsgd1na2vs0mg"},{"bike_id":"71a7de4f-54c5-4926-8cb8-f681783fc99c","system_id":"levelo_inurba_marseille","lat":43.29416,"lon":5.38631,"is_reserved":false,"is_disabled":false,"rental_uris":{"android":"levelo://app?vid=71a7de4f-54c5-4926-8cb8-f681783fc99c","ios":"levelo://app?vid=71a7de4f-54c5-4926-8cb8-f681783fc99c"},"vehicle_type_id":"4","last_reported":1745345644,"current_range_meters":16400,"station_id":"ce4bh2h2rcd13ifvqdh0","pricing_plan_id":"cebpf4jnsgd1na2vs0mg"},{"bike_id":"4058f62d-ca8f-492f-8fca-74ec3189f044","system_id":"levelo_inurba_marseille","lat":43.29882,"lon":5.39731,"is_reserved":false,"is_disabled":false,"rental_uris":{"android":"levelo://app?vid=4058f62d-ca8f-492f-8fca-74ec3189f044","ios":"levelo://app?vid=4058f62d-ca8f-492f-8fca-74ec3189f044"},"vehicle_type_id":"4","last_reported":1745345644,"current_range_meters":16800,"station_id":"ce4bh0h2rcd13ifvqd50","pricing_plan_id":"cebpf4jnsgd1na2vs0mg"},{"bike_id":"285009cd-e033-4cf5-9766-7a16bcb8f2da","system_id":"levelo_inurba_marseille","lat":43.33715,"lon":5.39179,"is_reserved":false,"is_disabled":false,"rental_uris":{"android":"levelo://app?vid=285009cd-e033-4cf5-9766-7a16bcb8f2da","ios":"levelo://app?vid=285009cd-e033-4cf5-9766-7a16bcb8f2da"},"vehicle_type_id":"4","last_reported":1745345644,"current_range_meters":16800,"station_id":"ce4bhr92rcd13ifvqhsg","pricing_plan_id":"cebpf4jnsgd1na2vs0mg"},{"bike_id":"e6f7a45a-4fc9-4fd4-9eda-192f9b4a253c","system_id":"levelo_inurba_marseille","lat":43.29178,"lon":5.35817,"is_reserved":false,"is_disabled":false,"rental_uris":{"android":"levelo://app?vid=e6f7a45a-4fc9-4fd4-9eda-192f9b4a253c","ios":"levelo://app?vid=e6f7a45a-4fc9-4fd4-9eda-192f9b4a253c"},"vehicle_type_id":"4","last_reported":1745345644,"current_range_meters":16400,"station_id":"ce4bhb12rcd13ifvqel0","pricing_plan_id":"cebpf4jnsgd1na2vs0mg"},{"bike_id":"7d9aa23e-feb2-4228-ac2a-2f8e0a2579b1","system_id":"levelo_inurba_marseille","lat":43.26045,"lon":5.39386,"is_reserved":false,"is_disabled":false,"rental_uris":{"android":"levelo://app?vid=7d9aa23e-feb2-4228-ac2a-2f8e0a2579b1","ios":"levelo://app?vid=7d9aa23e-feb2-4228-ac2a-2f8e0a2579b1"},"vehicle_type_id":"4","last_reported":1745345644,"current_range_meters":16800,"station_id":"ce4bhh92rcd13ifvqfj0","pricing_plan_id":"cebpf4jnsgd1na2vs0mg"},{"bike_id":"46ddddd5-8225-4c48-a3ba-269259b2d6d9","system_id":"levelo_inurba_marseille","lat":43.2795,"lon":5.41041,"is_reserved":false,"is_disabled":false,"rental_uris":{"android":"levelo://app?vid=46ddddd5-8225-4c48-a3ba-269259b2d6d9","ios":"levelo://app?vid=46ddddd5-8225-4c48-a3ba-269259b2d6d9"},"vehicle_type_id":"4","last_reported":1745345644,"current_range_meters":16800,"station_id":"ce4bhnp2rcd13ifvqh0g","pricing_plan_id":"cebpf4jnsgd1na2vs0mg"},{"bike_id":"1b903b38-38de-4714-9a2c-59836acfa168","system_id":"levelo_inurba_marseille","lat":43.31719,"lon":5.43698,"is_reserved":false,"is_disabled":true,"rental_uris":{"android":"levelo://app?vid=1b903b38-38de-4714-9a2c-59836acfa168","ios":"levelo://app?vid=1b903b38-38de-4714-9a2c-59836acfa168"},"vehicle_type_id":"4","last_reported":1745345644,"current_range_meters":16800,"station_id":"ce4bhp92rcd13ifvqhcg","pricing_plan_id":"cebpf4jnsgd1na2vs0mg"},{"bike_id":"5b1087c8-f0c3-4862-ab9b-65d0a2bc01a8","system_id":"levelo_inurba_marseille","lat":43.30324,"lon":5.40439,"is_reserved":false,"is_disabled":false,"rental_uris":{"android":"levelo://app?vid=5b1087c8-f0c3-4862-ab9b-65d0a2bc01a8","ios":"levelo://app?vid=5b1087c8-f0c3-4862-ab9b-65d0a2bc01a8"},"vehicle_type_id":"4","last_reported":1745345644,"current_range_meters":16800,"station_id":"ce4bh012rcd13ifvqd10","pricing_plan_id":"cebpf4jnsgd1na2vs0mg"},{"bike_id":"2d215268-935d-4396-92a5-015b2ccf78c9","system_id":"levelo_inurba_marseille","lat":43.2293,"lon":5.35378,"is_reserved":false,"is_disabled":false,"rental_uris":{"android":"levelo://app?vid=2d215268-935d-4396-92a5-015b2ccf78c9","ios":"levelo://app?vid=2d215268-935d-4396-92a5-015b2ccf78c9"},"vehicle_type_id":"4","last_reported":1745345644,"current_range_meters":16800,"station_id":"cpo3532slgdg3j2ikp40","pricing_plan_id":"cebpf4jnsgd1na2vs0mg"},{"bike_id":"276df578-9658-4742-be4b-1b023d502441","system_id":"levelo_inurba_marseille","lat":43.28437,"lon":5.39208,"is_reserved":false,"is_disabled":false,"rental_uris":{"android":"levelo://app?vid=276df578-9658-4742-be4b-1b023d502441","ios":"levelo://app?vid=276df578-9658-4742-be4b-1b023d502441"},"vehicle_type_id":"4","last_reported":1745345644,"current_range_meters":16800,"station_id":"ce4bhoh2rcd13ifvqh5g","pricing_plan_id":"cebpf4jnsgd1na2vs0mg"},{"bike_id":"9f1e349e-7f44-420f-95ec-c319dae210f6","system_id":"levelo_inurba_marseille","lat":43.292113,"lon":5.383859,"is_reserved":false,"is_disabled":true,"rental_uris":{"android":"levelo://app?vid=9f1e349e-7f44-420f-95ec-c319dae210f6","ios":"levelo://app?vid=9f1e349e-7f44-420f-95ec-c319dae210f6"},"vehicle_type_id":"4","last_reported":1745345644,"current_range_meters":17200,"station_id":"","pricing_plan_id":"cebpf4jnsgd1na2vs0mg"},{"bike_id":"b96d48d5-fc65-423b-9a30-5d2c864e8939","system_id":"levelo_inurba_marseille","lat":43.22497,"lon":5.34789,"is_reserved":false,"is_disabled":false,"rental_uris":{"android":"levelo://app?vid=b96d48d5-fc65-423b-9a30-5d2c864e8939","ios":"levelo://app?vid=b96d48d5-fc65-423b-9a30-5d2c864e8939"},"vehicle_type_id":"4","last_reported":1745345644,"current_range_meters":17200,"station_id":"st_cvj5dfep6f1abm77gieg","pricing_plan_id":"cebpf4jnsgd1na2vs0mg"},{"bike_id":"d962937d-a2c0-4f7f-9d5f-d2025eec3422","system_id":"levelo_inurba_marseille","lat":43.25407,"lon":5.41869,"is_reserved":false,"is_disabled":false,"rental_uris":{"android":"levelo://app?vid=d962937d-a2c0-4f7f-9d5f-d2025eec3422","ios":"levelo://app?vid=d962937d-a2c0-4f7f-9d5f-d2025eec3422"},"vehicle_type_id":"4","last_reported":1745345644,"current_range_meters":17200,"station_id":"","pricing_plan_id":"cebpf4jnsgd1na2vs0mg"},{"bike_id":"cce155fb-78a4-42bf-ae7b-99bd75456ee3","system_id":"levelo_inurba_marseille","lat":43.30538,"lon":5.3673,"is_reserved":false,"is_disabled":false,"rental_uris":{"android":"levelo://app?vid=cce155fb-78a4-42bf-ae7b-99bd75456ee3","ios":"levelo://app?vid=cce155fb-78a4-42bf-ae7b-99bd75456ee3"},"vehicle_type_id":"4","last_reported":1745345644,"current_range_meters":17200,"station_id":"ce4bgrp2rcd13ifvqc9g","pricing_plan_id":"cebpf4jnsgd1na2vs0mg"},{"bike_id":"7fcae92a-c91f-4915-9aca-589508fe0e13","system_id":"levelo_inurba_marseille","lat":43.3206,"lon":5.41522,"is_reserved":false,"is_disabled":false,"rental_uris":{"android":"levelo://app?vid=7fcae92a-c91f-4915-9aca-589508fe0e13","ios":"levelo://app?vid=7fcae92a-c91f-4915-9aca-589508fe0e13"},"vehicle_type_id":"4","last_reported":1745345644,"current_range_meters":17200,"station_id":"ce4bhq92rcd13ifvqhkg","pricing_plan_id":"cebpf4jnsgd1na2vs0mg"},{"bike_id":"11abd4a9-18ab-4cba-922f-42532e6b9ba5","system_id":"levelo_inurba_marseille","lat":43.29866,"lon":5.39736,"is_reserved":false,"is_disabled":false,"rental_uris":{"android":"levelo://app?vid=11abd4a9-18ab-4cba-922f-42532e6b9ba5","ios":"levelo://app?vid=11abd4a9-18ab-4cba-922f-42532e6b9ba5"},"vehicle_type_id":"4","last_reported":1745345644,"current_range_meters":17200,"station_id":"ce4bh0h2rcd13ifvqd50","pricing_plan_id":"cebpf4jnsgd1na2vs0mg"},{"bike_id":"36bf079c-07d2-4cc5-b254-4ff13d3ab307","system_id":"levelo_inurba_marseille","lat":43.29904,"lon":5.38133,"is_reserved":false,"is_disabled":false,"rental_uris":{"android":"levelo://app?vid=36bf079c-07d2-4cc5-b254-4ff13d3ab307","ios":"levelo://app?vid=36bf079c-07d2-4cc5-b254-4ff13d3ab307"},"vehicle_type_id":"4","last_reported":1745345644,"current_range_meters":17600,"station_id":"ce4bgj12rcd13ifvqbc0","pricing_plan_id":"cebpf4jnsgd1na2vs0mg"},{"bike_id":"2958702b-6f60-4c23-88d4-37649b2b931b","system_id":"levelo_inurba_marseille","lat":43.298864,"lon":5.397321,"is_reserved":false,"is_disabled":false,"rental_uris":{"android":"levelo://app?vid=2958702b-6f60-4c23-88d4-37649b2b931b","ios":"levelo://app?vid=2958702b-6f60-4c23-88d4-37649b2b931b"},"vehicle_type_id":"4","last_reported":1745345644,"current_range_meters":17600,"station_id":"ce4bh0h2rcd13ifvqd50","pricing_plan_id":"cebpf4jnsgd1na2vs0mg"},{"bike_id":"ceb357e2-3d79-417a-a943-1f72aa6d4eba","system_id":"levelo_inurba_marseille","lat":43.32288,"lon":5.3828,"is_reserved":false,"is_disabled":false,"rental_uris":{"android":"levelo://app?vid=ceb357e2-3d79-417a-a943-1f72aa6d4eba","ios":"levelo://app?vid=ceb357e2-3d79-417a-a943-1f72aa6d4eba"},"vehicle_type_id":"4","last_reported":1745345644,"current_range_meters":17600,"station_id":"ce4bhr12rcd13ifvqhqg","pricing_plan_id":"cebpf4jnsgd1na2vs0mg"},{"bike_id":"219e363b-6032-4e29-9baa-2477a4446377","system_id":"levelo_inurba_marseille","lat":43.29267,"lon":5.38447,"is_reserved":false,"is_disabled":false,"rental_uris":{"android":"levelo://app?vid=219e363b-6032-4e29-9baa-2477a4446377","ios":"levelo://app?vid=219e363b-6032-4e29-9baa-2477a4446377"},"vehicle_type_id":"4","last_reported":1745345644,"current_range_meters":17600,"station_id":"ce4bh692rcd13ifvqea0","pricing_plan_id":"cebpf4jnsgd1na2vs0mg"},{"bike_id":"b6234970-e1d1-4559-b857-1473c74840ff","system_id":"levelo_inurba_marseille","lat":43.32033,"lon":5.41562,"is_reserved":false,"is_disabled":false,"rental_uris":{"android":"levelo://app?vid=b6234970-e1d1-4559-b857-1473c74840ff","ios":"levelo://app?vid=b6234970-e1d1-4559-b857-1473c74840ff"},"vehicle_type_id":"4","last_reported":1745345644,"current_range_meters":17600,"station_id":"ce4bhq92rcd13ifvqhkg","pricing_plan_id":"cebpf4jnsgd1na2vs0mg"},{"bike_id":"411a8fba-36d4-4326-a2fc-27fa1714c4f4","system_id":"levelo_inurba_marseille","lat":43.27169,"lon":5.4099,"is_reserved":false,"is_disabled":false,"rental_uris":{"android":"levelo://app?vid=411a8fba-36d4-4326-a2fc-27fa1714c4f4","ios":"levelo://app?vid=411a8fba-36d4-4326-a2fc-27fa1714c4f4"},"vehicle_type_id":"4","last_reported":1745345644,"current_range_meters":17600,"station_id":"ce4bhl12rcd13ifvqgf0","pricing_plan_id":"cebpf4jnsgd1na2vs0mg"},{"bike_id":"84cc6382-570a-48e1-95cf-2056bb88a115","system_id":"levelo_inurba_marseille","lat":43.32758,"lon":5.39231,"is_reserved":false,"is_disabled":false,"rental_uris":{"android":"levelo://app?vid=84cc6382-570a-48e1-95cf-2056bb88a115","ios":"levelo://app?vid=84cc6382-570a-48e1-95cf-2056bb88a115"},"vehicle_type_id":"4","last_reported":1745345644,"current_range_meters":17600,"station_id":"","pricing_plan_id":"cebpf4jnsgd1na2vs0mg"},{"bike_id":"1183cd36-ce3f-418b-ab21-b997ed633f61","system_id":"levelo_inurba_marseille","lat":43.29292,"lon":5.37456,"is_reserved":false,"is_disabled":false,"rental_uris":{"android":"levelo://app?vid=1183cd36-ce3f-418b-ab21-b997ed633f61","ios":"levelo://app?vid=1183cd36-ce3f-418b-ab21-b997ed633f61"},"vehicle_type_id":"4","last_reported":1745345644,"current_range_meters":18000,"station_id":"ce4bgi12rcd13ifvqb70","pricing_plan_id":"cebpf4jnsgd1na2vs0mg"},{"bike_id":"52bf6fcb-f2fd-4886-896a-eef5683d542f","system_id":"levelo_inurba_marseille","lat":43.28615,"lon":5.35121,"is_reserved":false,"is_disabled":false,"rental_uris":{"android":"levelo://app?vid=52bf6fcb-f2fd-4886-896a-eef5683d542f","ios":"levelo://app?vid=52bf6fcb-f2fd-4886-896a-eef5683d542f"},"vehicle_type_id":"4","last_reported":1745345644,"current_range_meters":18000,"station_id":"ce4bhch2rcd13ifvqeug","pricing_plan_id":"cebpf4jnsgd1na2vs0mg"},{"bike_id":"5b2a268a-61f7-4771-8e04-d26f66abbacf","system_id":"levelo_inurba_marseille","lat":43.29515,"lon":5.39035,"is_reserved":false,"is_disabled":false,"rental_uris":{"android":"levelo://app?vid=5b2a268a-61f7-4771-8e04-d26f66abbacf","ios":"levelo://app?vid=5b2a268a-61f7-4771-8e04-d26f66abbacf"},"vehicle_type_id":"4","last_reported":1745345644,"current_range_meters":18000,"station_id":"ce4bh3p2rcd13ifvqdp0","pricing_plan_id":"cebpf4jnsgd1na2vs0mg"},{"bike_id":"a1835b16-9e05-4b53-baf5-10eeb04320bb","system_id":"levelo_inurba_marseille","lat":43.28707,"lon":5.37407,"is_reserved":false,"is_disabled":true,"rental_uris":{"android":"levelo://app?vid=a1835b16-9e05-4b53-baf5-10eeb04320bb","ios":"levelo://app?vid=a1835b16-9e05-4b53-baf5-10eeb04320bb"},"vehicle_type_id":"4","last_reported":1745345644,"current_range_meters":18000,"station_id":"ce4bh3p2rcd13ifvqdq0","pricing_plan_id":"cebpf4jnsgd1na2vs0mg"},{"bike_id":"dc74c056-9a49-4ebf-b0d1-311414e49674","system_id":"levelo_inurba_marseille","lat":43.29436,"lon":5.38629,"is_reserved":false,"is_disabled":false,"rental_uris":{"android":"levelo://app?vid=dc74c056-9a49-4ebf-b0d1-311414e49674","ios":"levelo://app?vid=dc74c056-9a49-4ebf-b0d1-311414e49674"},"vehicle_type_id":"4","last_reported":1745345644,"current_range_meters":18000,"station_id":"ce4bh2h2rcd13ifvqdh0","pricing_plan_id":"cebpf4jnsgd1na2vs0mg"},{"bike_id":"4824e28f-4714-45d7-9454-18d50232cf50","system_id":"levelo_inurba_marseille","lat":43.28653,"lon":5.36356,"is_reserved":false,"is_disabled":false,"rental_uris":{"android":"levelo://app?vid=4824e28f-4714-45d7-9454-18d50232cf50","ios":"levelo://app?vid=4824e28f-4714-45d7-9454-18d50232cf50"},"vehicle_type_id":"4","last_reported":1745345644,"current_range_meters":18800,"station_id":"ce4bhah2rcd13ifvqej0","pricing_plan_id":"cebpf4jnsgd1na2vs0mg"},{"bike_id":"7b2dc864-a4e9-468c-9cee-f3075a20977d","system_id":"levelo_inurba_marseille","lat":43.3144,"lon":5.37391,"is_reserved":false,"is_disabled":false,"rental_uris":{"android":"levelo://app?vid=7b2dc864-a4e9-468c-9cee-f3075a20977d","ios":"levelo://app?vid=7b2dc864-a4e9-468c-9cee-f3075a20977d"},"vehicle_type_id":"4","last_reported":1745345644,"current_range_meters":18800,"station_id":"","pricing_plan_id":"cebpf4jnsgd1na2vs0mg"},{"bike_id":"0529d891-2d9b-4d93-af79-27336fdd5c7e","system_id":"levelo_inurba_marseille","lat":43.28036,"lon":5.36945,"is_reserved":false,"is_disabled":false,"rental_uris":{"android":"levelo://app?vid=0529d891-2d9b-4d93-af79-27336fdd5c7e","ios":"levelo://app?vid=0529d891-2d9b-4d93-af79-27336fdd5c7e"},"vehicle_type_id":"4","last_reported":1745345644,"current_range_meters":18800,"station_id":"ce4bha12rcd13ifvqef0","pricing_plan_id":"cebpf4jnsgd1na2vs0mg"},{"bike_id":"ef748aab-dd07-49d5-9074-8be4876118ea","system_id":"levelo_inurba_marseille","lat":43.279607,"lon":5.387303,"is_reserved":false,"is_disabled":false,"rental_uris":{"android":"levelo://app?vid=ef748aab-dd07-49d5-9074-8be4876118ea","ios":"levelo://app?vid=ef748aab-dd07-49d5-9074-8be4876118ea"},"vehicle_type_id":"4","last_reported":1745345644,"current_range_meters":18800,"station_id":"ce4bhg12rcd13ifvqf80","pricing_plan_id":"cebpf4jnsgd1na2vs0mg"},{"bike_id":"fa5c1889-173e-4666-aa4b-8eb1847250ee","system_id":"levelo_inurba_marseille","lat":43.29541,"lon":5.38543,"is_reserved":false,"is_disabled":false,"rental_uris":{"android":"levelo://app?vid=fa5c1889-173e-4666-aa4b-8eb1847250ee","ios":"levelo://app?vid=fa5c1889-173e-4666-aa4b-8eb1847250ee"},"vehicle_type_id":"4","last_reported":1745345644,"current_range_meters":18800,"station_id":"ce4bgih2rcd13ifvqba0","pricing_plan_id":"cebpf4jnsgd1na2vs0mg"},{"bike_id":"ff4f05de-475b-4fa4-9b77-0b42c615eed9","system_id":"levelo_inurba_marseille","lat":43.29238,"lon":5.36073,"is_reserved":false,"is_disabled":false,"rental_uris":{"android":"levelo://app?vid=ff4f05de-475b-4fa4-9b77-0b42c615eed9","ios":"levelo://app?vid=ff4f05de-475b-4fa4-9b77-0b42c615eed9"},"vehicle_type_id":"4","last_reported":1745345644,"current_range_meters":18800,"station_id":"ce4bhbh2rcd13ifvqeqg","pricing_plan_id":"cebpf4jnsgd1na2vs0mg"},{"bike_id":"9c5c5425-75e9-4e29-91bb-75079da60ab4","system_id":"levelo_inurba_marseille","lat":43.30323,"lon":5.40442,"is_reserved":false,"is_disabled":false,"rental_uris":{"android":"levelo://app?vid=9c5c5425-75e9-4e29-91bb-75079da60ab4","ios":"levelo://app?vid=9c5c5425-75e9-4e29-91bb-75079da60ab4"},"vehicle_type_id":"4","last_reported":1745345644,"current_range_meters":18800,"station_id":"ce4bh012rcd13ifvqd10","pricing_plan_id":"cebpf4jnsgd1na2vs0mg"},{"bike_id":"3eb37777-6a6b-4fda-8818-64b8eac75ef8","system_id":"levelo_inurba_marseille","lat":43.294153,"lon":5.386237,"is_reserved":false,"is_disabled":false,"rental_uris":{"android":"levelo://app?vid=3eb37777-6a6b-4fda-8818-64b8eac75ef8","ios":"levelo://app?vid=3eb37777-6a6b-4fda-8818-64b8eac75ef8"},"vehicle_type_id":"4","last_reported":1745345644,"current_range_meters":18800,"station_id":"ce4bgkh2rcd13ifvqbl0","pricing_plan_id":"cebpf4jnsgd1na2vs0mg"},{"bike_id":"d20e929c-75aa-460a-a593-efd1da3a752a","system_id":"levelo_inurba_marseille","lat":43.28079,"lon":5.39603,"is_reserved":false,"is_disabled":false,"rental_uris":{"android":"levelo://app?vid=d20e929c-75aa-460a-a593-efd1da3a752a","ios":"levelo://app?vid=d20e929c-75aa-460a-a593-efd1da3a752a"},"vehicle_type_id":"4","last_reported":1745345644,"current_range_meters":18800,"station_id":"ce4bho12rcd13ifvqh2g","pricing_plan_id":"cebpf4jnsgd1na2vs0mg"},