{"last_updated":1744834313,"ttl":60,"version":"2.2","data":{"bikes":[{"bike_id":"f29b1aab-64eb-47bd-bd29-2b4d3be3297b","system_id":"levelo_inurba_marseille","lat":43.31073,"lon":5.38364,"is_reserved":false,"is_disabled":false,"rental_uris":{"android":"levelo://app?vid=f29b1aab-64eb-47bd-bd29-2b4d3be3297b","ios":"levelo://app?vid=f29b1aab-64eb-47bd-bd29-2b4d3be3297b"},"vehicle_type_id":"4","last_reported":1744834313,"current_range_meters":3600,"station_id":"ce4bgv92rcd13ifvqcr0","pricing_plan_id":"cebpf4jnsgd1na2vs0mg"},{"bike_id":"c273cedc-5337-4dec-91b4-1636fd7d09ad","system_id":"levelo_inurba_marseille","lat":43.3145,"lon":5.37604,"is_reserved":false,"is_disabled":false,"rental_uris":{"android":"levelo://app?vid=c273cedc-5337-4dec-91b4-1636fd7d09ad","ios":"levelo://app?vid=c273cedc-5337-4dec-91b4-1636fd7d09ad"},"vehicle_type_id":"4","last_reported":1744834313,"current_range_meters":4000,"station_id":"","pricing_plan_id":"cebpf4jnsgd1na2vs0mg"},{"bike_id":"215dca13-9b27-4600-855c-872bd2bda1b6","system_id":"levelo_inurba_marseille","lat":43.30887,"lon":5.39636,"is_reserved":false,"is_disabled":true,"rental_uris":{"android":"levelo://app?vid=215dca13-9b27-4600-855c-872bd2bda1b6","ios":"levelo://app?vid=215dca13-9b27-4600-855c-872bd2bda1b6"},"vehicle_type_id":"4","last_reported":1744834313,"current_range_meters":4000,"station_id":"ce4bh012rcd13ifvqcv0","pricing_plan_id":"cebpf4jnsgd1na2vs0mg"},{"bike_id":"eca7dcad-8489-4164-84a3-1781088dd692","system_id":"levelo_inurba_marseille","lat":43.313202,"lon":5.396994,"is_reserved":false,"is_disabled":true,"rental_uris":{"android":"levelo://app?vid=eca7dcad-8489-4164-84a3-1781088dd692","ios":"levelo://app?vid=eca7dcad-8489-4164-84a3-1781088dd692"},"vehicle_type_id":"4","last_reported":1744834313,"current_range_meters":4400,"station_id":"ce4bgvp2rcd13ifvqcu0","pricing_plan_id":"cebpf4jnsgd1na2vs0mg"},{"bike_id":"560c3ffa-3b7e-480d-a9a1-4832e8a31e30","system_id":"levelo_inurba_marseille","lat":43.28479,"lon":5.38549,"is_reserved":false,"is_disabled":false,"rental_uris":{"android":"levelo://app?vid=560c3ffa-3b7e-480d-a9a1-4832e8a31e30","ios":"levelo://app?vid=560c3ffa-3b7e-480d-a9a1-4832e8a31e30"},"vehicle_type_id":"4","last_reported":1744834313,"current_range_meters":4400,"station_id":"ce4bh8p2rcd13ifvqeb0","pricing_plan_id":"cebpf4jnsgd1na2vs0mg"},{"bike_id":"33e89876-6625-4f3d-a132-aa59e53a3a17","system_id":"levelo_inurba_marseille","lat":43.299673,"lon":5.384902,"is_reserved":false,"is_disabled":false,"rental_uris":{"android":"levelo://app?vid=33e89876-6625-4f3d-a132-aa59e53a3a17","ios":"levelo://app?vid=33e89876-6625-4f3d-a132-aa59e53a3a17"},"vehicle_type_id":"4","last_reported":1744834313,"current_range_meters":4800,"station_id":"ce4bgph2rcd13ifvqc2g","pricing_plan_id":"cebpf4jnsgd1na2vs0mg"},{"bike_id":"27a55245-8dd2-4f1a-af63-95a9d7b71690","system_id":"levelo_inurba_marseille","lat":43.31068,"lon":5.378513,"is_reserved":false,"is_disabled":false,"rental_uris":{"android":"levelo://app?vid=27a55245-8dd2-4f1a-af63-95a9d7b71690","ios":"levelo://app?vid=27a55245-8dd2-4f1a-af63-95a9d7b71690"},"vehicle_type_id":"4","last_reported":1744834313,"current_range_meters":4800,"station_id":"","pricing_plan_id":"cebpf4jnsgd1na2vs0mg"},{"bike_id":"7da39aba-455e-4163-9c62-41262016c1a1","system_id":"levelo_inurba_marseille","lat":43.28325,"lon":5.38123,"is_reserved":false,"is_disabled":false,"rental_uris":{"android":"levelo://app?vid=7da39aba-455e-4163-9c62-41262016c1a1","ios":"levelo://app?vid=7da39aba-455e-4163-9c62-41262016c1a1"},"vehicle_type_id":"4","last_reported":1744834313,"current_range_meters":5600,"station_id":"ce4bh412rcd13ifvqdr0","pricing_plan_id":"cebpf4jnsgd1na2vs0mg"},{"bike_id":"29d892ff-396f-4d0b-a265-444cbe69d0d6","system_id":"levelo_inurba_marseille","lat":43.29877,"lon":5.38911,"is_reserved":false,"is_disabled":false,"rental_uris":{"android":"levelo://app?vid=29d892ff-396f-4d0b-a265-444cbe69d0d6","ios":"levelo://app?vid=29d892ff-396f-4d0b-a265-444cbe69d0d6"},"vehicle_type_id":"4","last_reported":1744834313,"current_range_meters":6000,"station_id":"ce4bh392rcd13ifvqdl0","pricing_plan_id":"cebpf4jnsgd1na2vs0mg"},{"bike_id":"0b2f2b89-1235-4f73-8331-0a4cbcbb9488","system_id":"levelo_inurba_marseille","lat":43.30802,"lon":5.4352,"is_reserved":false,"is_disabled":false,"rental_uris":{"android":"levelo://app?vid=0b2f2b89-1235-4f73-8331-0a4cbcbb9488","ios":"levelo://app?vid=0b2f2b89-1235-4f73-8331-0a4cbcbb9488"},"vehicle_type_id":"4","last_reported":1744834313,"current_range_meters":6000,"station_id":"ce4bhph2rcd13ifvqheg","pricing_plan_id":"cebpf4jnsgd1na2vs0mg"},{"bike_id":"a0636e31-c89e-4ae1-aea4-880988d0da0e","system_id":"levelo_inurba_marseille","lat":43.29571,"lon":5.42284,"is_reserved":false,"is_disabled":false,"rental_uris":{"android":"levelo://app?vid=a0636e31-c89e-4ae1-aea4-880988d0da0e","ios":"levelo://app?vid=a0636e31-c89e-4ae1-aea4-880988d0da0e"},"vehicle_type_id":"4","last_reported":1744834313,"current_range_meters":6000,"station_id":"ce4bhph2rcd13ifvqhdg","pricing_plan_id":"cebpf4jnsgd1na2vs0mg"},{"bike_id":"24d12356-6544-486a-bf82-8e69b092d441","system_id":"levelo_inurba_marseille","lat":43.29533,"lon":5.38547,"is_reserved":false,"is_disabled":false,"rental_uris":{"android":"levelo://app?vid=24d12356-6544-486a-bf82-8e69b092d441","ios":"levelo://app?vid=24d12356-6544-486a-bf82-8e69b092d441"},"vehicle_type_id":"4","last_reported":1744834313,"current_range_meters":6000,"station_id":"ce4bgih2rcd13ifvqba0","pricing_plan_id":"cebpf4jnsgd1na2vs0mg"},{"bike_id":"ea2b72b1-fb3d-493d-ab95-1557396ac249","system_id":"levelo_inurba_marseille","lat":43.2841,"lon":5.37512,"is_reserved":false,"is_disabled":true,"rental_uris":{"android":"levelo://app?vid=ea2b72b1-fb3d-493d-ab95-1557396ac249","ios":"levelo://app?vid=ea2b72b1-fb3d-493d-ab95-1557396ac249"},"vehicle_type_id":"4","last_reported":1744834313,"current_range_meters":6400,"station_id":"ce4bh412rcd13ifvqds0","pricing_plan_id":"cebpf4jnsgd1na2vs0mg"},{"bike_id":"c66654ad-9f4a-4fc2-888b-a9f2d5f4767e","system_id":"levelo_inurba_marseille","lat":43.313593,"lon":5.384925,"is_reserved":false,"is_disabled":false,"rental_uris":{"android":"levelo://app?vid=c66654ad-9f4a-4fc2-888b-a9f2d5f4767e","ios":"levelo://app?vid=c66654ad-9f4a-4fc2-888b-a9f2d5f4767e"},"vehicle_type_id":"4","last_reported":1744834313,"current_range_meters":6400,"station_id":"ce4bgqh2rcd13ifvqc4g","pricing_plan_id":"cebpf4jnsgd1na2vs0mg"},{"bike_id":"4be423fc-b49d-4203-8abc-985b45dfd65e","system_id":"levelo_inurba_marseille","lat":43.32914,"lon":5.43364,"is_reserved":false,"is_disabled":false,"rental_uris":{"android":"levelo://app?vid=4be423fc-b49d-4203-8abc-985b45dfd65e","ios":"levelo://app?vid=4be423fc-b49d-4203-8abc-985b45dfd65e"},"vehicle_type_id":"4","last_reported":1744834313,"current_range_meters":6800,"station_id":"","pricing_plan_id":"cebpf4jnsgd1na2vs0mg"},{"bike_id":"376f754b-7bba-4962-babe-b49b1468281c","system_id":"levelo_inurba_marseille","lat":43.30922,"lon":5.40139,"is_reserved":false,"is_disabled":true,"rental_uris":{"android":"levelo://app?vid=376f754b-7bba-4962-babe-b49b1468281c","ios":"levelo://app?vid=376f754b-7bba-4962-babe-b49b1468281c"},"vehicle_type_id":"4","last_reported":1744834313,"current_range_meters":7200,"station_id":"ce4bgvp2rcd13ifvqct0","pricing_plan_id":"cebpf4jnsgd1na2vs0mg"},{"bike_id":"972ff231-5208-4196-97ea-f9284c9427c6","system_id":"levelo_inurba_marseille","lat":43.29596,"lon":5.38101,"is_reserved":false,"is_disabled":false,"rental_uris":{"android":"levelo://app?vid=972ff231-5208-4196-97ea-f9284c9427c6","ios":"levelo://app?vid=972ff231-5208-4196-97ea-f9284c9427c6"},"vehicle_type_id":"4","last_reported":1744834313,"current_range_meters":8000,"station_id":"ce4bgih2rcd13ifvqba0","pricing_plan_id":"cebpf4jnsgd1na2vs0mg"},{"bike_id":"ae539372-4de7-46f5-9eb3-d8be84320796","system_id":"levelo_inurba_marseille","lat":43.29249,"lon":5.40912,"is_reserved":false,"is_disabled":false,"rental_uris":{"android":"levelo://app?vid=ae539372-4de7-46f5-9eb3-d8be84320796","ios":"levelo://app?vid=ae539372-4de7-46f5-9eb3-d8be84320796"},"vehicle_type_id":"4","last_reported":1744834313,"current_range_meters":8000,"station_id":"ce4bh192rcd13ifvqdc0","pricing_plan_id":"cebpf4jnsgd1na2vs0mg"},{"bike_id":"2797dcdb-c4e1-48b2-82d6-5677d371fa39","system_id":"levelo_inurba_marseille","lat":43.241638,"lon":5.36408,"is_reserved":false,"is_disabled":false,"rental_uris":{"android":"levelo://app?vid=2797dcdb-c4e1-48b2-82d6-5677d371fa39","ios":"levelo://app?vid=2797dcdb-c4e1-48b2-82d6-5677d371fa39"},"vehicle_type_id":"4","last_reported":1744834313,"current_range_meters":8000,"station_id":"cpo36qri1sfpv3e86is0","pricing_plan_id":"cebpf4jnsgd1na2vs0mg"},{"bike_id":"27d65429-e235-4ad4-8e99-624219bf772a","system_id":"levelo_inurba_marseille","lat":43.30731,"lon":5.42445,"is_reserved":false,"is_disabled":false,"rental_uris":{"android":"levelo://app?vid=27d65429-e235-4ad4-8e99-624219bf772a","ios":"levelo://app?vid=27d65429-e235-4ad4-8e99-624219bf772a"},"vehicle_type_id":"4","last_reported":1744834313,"current_range_meters":8000,"station_id":"st_cvj6ca6bvosntc0bfgr0","pricing_plan_id":"cebpf4jnsgd1na2vs0mg"},{"bike_id":"f2ca962b-adfb-4255-85fd-80af2f39610c","system_id":"levelo_inurba_marseille","lat":43.29891,"lon":5.39752,"is_reserved":false,"is_disabled":false,"rental_uris":{"android":"levelo://app?vid=f2ca962b-adfb-4255-85fd-80af2f39610c","ios":"levelo://app?vid=f2ca962b-adfb-4255-85fd-80af2f39610c"},"vehicle_type_id":"4","last_reported":1744834313,"current_range_meters":8400,"station_id":"ce4bh0h2rcd13ifvqd50","pricing_plan_id":"cebpf4jnsgd1na2vs0mg"},{"bike_id":"5f053737-df3a-4def-9c1e-824bfce3c011","system_id":"levelo_inurba_marseille","lat":43.31117,"lon":5.37766,"is_reserved":false,"is_disabled":false,"rental_uris":{"android":"levelo://app?vid=5f053737-df3a-4def-9c1e-824bfce3c011","ios":"levelo://app?vid=5f053737-df3a-4def-9c1e-824bfce3c011"},"vehicle_type_id":"4","last_reported":1744834313,"current_range_meters":8400,"station_id":"ce4bgt92rcd13ifvqcg0","pricing_plan_id":"cebpf4jnsgd1na2vs0mg"},{"bike_id":"01bbafbf-ce4b-413e-ae59-ff4ce32624c7","system_id":"levelo_inurba_marseille","lat":43.29883,"lon":5.38919,"is_reserved":false,"is_disabled":false,"rental_uris":{"android":"levelo://app?vid=01bbafbf-ce4b-413e-ae59-ff4ce32624c7","ios":"levelo://app?vid=01bbafbf-ce4b-413e-ae59-ff4ce32624c7"},"vehicle_type_id":"4","last_reported":1744834313,"current_range_meters":8400,"station_id":"ce4bh392rcd13ifvqdl0","pricing_plan_id":"cebpf4jnsgd1na2vs0mg"},{"bike_id":"1021195a-1d57-49a5-a021-5d5c77bd4874","system_id":"levelo_inurba_marseille","lat":43.29034,"lon":5.38653,"is_reserved":false,"is_disabled":false,"rental_uris":{"android":"levelo://app?vid=1021195a-1d57-49a5-a021-5d5c77bd4874","ios":"levelo://app?vid=1021195a-1d57-49a5-a021-5d5c77bd4874"},"vehicle_type_id":"4","last_reported":1744834313,"current_range_meters":8800,"station_id":"ce4bh4p2rcd13ifvqe0g","pricing_plan_id":"cebpf4jnsgd1na2vs0mg"},{"bike_id":"b69156c9-6a49-4ab5-9612-623049b026dd","system_id":"levelo_inurba_marseille","lat":43.276424,"lon":5.358793,"is_reserved":false,"is_disabled":false,"rental_uris":{"android":"levelo://app?vid=b69156c9-6a49-4ab5-9612-623049b026dd","ios":"levelo://app?vid=b69156c9-6a49-4ab5-9612-623049b026dd"},"vehicle_type_id":"4","last_reported":1744834313,"current_range_meters":8800,"station_id":"ce4bhg12rcd13ifvqf70","pricing_plan_id":"cebpf4jnsgd1na2vs0mg"},{"bike_id":"5265f4f1-f806-4140-b946-e4b9a2c4d3e6","system_id":"levelo_inurba_marseille","lat":43.28943,"lon":5.36644,"is_reserved":false,"is_disabled":false,"rental_uris":{"android":"levelo://app?vid=5265f4f1-f806-4140-b946-e4b9a2c4d3e6","ios":"levelo://app?vid=5265f4f1-f806-4140-b946-e4b9a2c4d3e6"},"vehicle_type_id":"4","last_reported":1744834313,"current_range_meters":8800,"station_id":"ce4bhap2rcd13ifvqek0","pricing_plan_id":"cebpf4jnsgd1na2vs0mg"},{"bike_id":"47443ab8-6b57-4dfe-a926-b857d8c4a944","system_id":"levelo_inurba_marseille","lat":43.27205,"lon":5.39196,"is_reserved":false,"is_disabled":true,"rental_uris":{"android":"levelo://app?vid=47443ab8-6b57-4dfe-a926-b857d8c4a944","ios":"levelo://app?vid=47443ab8-6b57-4dfe-a926-b857d8c4a944"},"vehicle_type_id":"4","last_reported":1744834313,"current_range_meters":8800,"station_id":"ce4bhhp2rcd13ifvqfm0","pricing_plan_id":"cebpf4jnsgd1na2vs0mg"},{"bike_id":"693abb56-2440-4e46-a9de-d094d1b968f7","system_id":"levelo_inurba_marseille","lat":43.28458,"lon":5.35882,"is_reserved":false,"is_disabled":false,"rental_uris":{"android":"levelo://app?vid=693abb56-2440-4e46-a9de-d094d1b968f7","ios":"levelo://app?vid=693abb56-2440-4e46-a9de-d094d1b968f7"},"vehicle_type_id":"4","last_reported":1744834313,"current_range_meters":8800,"station_id":"ce4bhah2rcd13ifvqei0","pricing_plan_id":"cebpf4jnsgd1na2vs0mg"},{"bike_id":"2e7f56a3-3875-4bbb-9fe5-0ee5b96f9b05","system_id":"levelo_inurba_marseille","lat":43.28462,"lon":5.35883,"is_reserved":false,"is_disabled":false,"rental_uris":{"android":"levelo://app?vid=2e7f56a3-3875-4bbb-9fe5-0ee5b96f9b05","ios":"levelo://app?vid=2e7f56a3-3875-4bbb-9fe5-0ee5b96f9b05"},"vehicle_type_id":"4","last_reported":1744834313,"current_range_meters":9200,"station_id":"ce4bhah2rcd13ifvqei0","pricing_plan_id":"cebpf4jnsgd1na2vs0mg"},{"bike_id":"13212ea6-c79f-428f-bf88-2ce269adcaff","system_id":"levelo_inurba_marseille","lat":43.24811,"lon":5.37456,"is_reserved":false,"is_disabled":false,"rental_uris":{"android":"levelo://app?vid=13212ea6-c79f-428f-bf88-2ce269adcaff","ios":"levelo://app?vid=13212ea6-c79f-428f-bf88-2ce269adcaff"},"vehicle_type_id":"4","last_reported":1744834313,"current_range_meters":9200,"station_id":"ce4bhgh2rcd13ifvqfb0","pricing_plan_id":"cebpf4jnsgd1na2vs0mg"},{"bike_id":"2c5537f8-0da6-4d33-8c3c-80c8d36d0e28","system_id":"levelo_inurba_marseille","lat":43.26561,"lon":5.39007,"is_reserved":false,"is_disabled":true,"rental_uris":{"android":"levelo://app?vid=2c5537f8-0da6-4d33-8c3c-80c8d36d0e28","ios":"levelo://app?vid=2c5537f8-0da6-4d33-8c3c-80c8d36d0e28"},"vehicle_type_id":"4","last_reported":1744834313,"current_range_meters":9200,"station_id":"ce4bhe12rcd13ifvqf30","pricing_plan_id":"cebpf4jnsgd1na2vs0mg"},{"bike_id":"12e71054-e9fb-4a1f-a075-6323fe29f4d5","system_id":"levelo_inurba_marseille","lat":43.29966,"lon":5.38496,"is_reserved":false,"is_disabled":false,"rental_uris":{"android":"levelo://app?vid=12e71054-e9fb-4a1f-a075-6323fe29f4d5","ios":"levelo://app?vid=12e71054-e9fb-4a1f-a075-6323fe29f4d5"},"vehicle_type_id":"4","last_reported":1744834313,"current_range_meters":9200,"station_id":"ce4bgj92rcd13ifvqbd0","pricing_plan_id":"cebpf4jnsgd1na2vs0mg"},{"bike_id":"9032f14c-fd09-4b52-bf50-b879d730ed1b","system_id":"levelo_inurba_marseille","lat":43.25716,"lon":5.41109,"is_reserved":false,"is_disabled":false,"rental_uris":{"android":"levelo://app?vid=9032f14c-fd09-4b52-bf50-b879d730ed1b","ios":"levelo://app?vid=9032f14c-fd09-4b52-bf50-b879d730ed1b"},"vehicle_type_id":"4","last_reported":1744834313,"current_range_meters":9600,"station_id":"ce4bhkp2rcd13ifvqgd0","pricing_plan_id":"cebpf4jnsgd1na2vs0mg"},{"bike_id":"0a28e206-b3dd-43f2-8495-1759cdcbbe79","system_id":"levelo_inurba_marseille","lat":43.29844,"lon":5.38949,"is_reserved":false,"is_disabled":false,"rental_uris":{"android":"levelo://app?vid=0a28e206-b3dd-43f2-8495-1759cdcbbe79","ios":"levelo://app?vid=0a28e206-b3dd-43f2-8495-1759cdcbbe79"},"vehicle_type_id":"4","last_reported":1744834313,"current_range_meters":9600,"station_id":"ce4bh392rcd13ifvqdl0","pricing_plan_id":"cebpf4jnsgd1na2vs0mg"},{"bike_id":"eeec4aa3-87e9-4496-be2e-938ceb91cf85","system_id":"levelo_inurba_marseille","lat":43.29309,"lon":5.37223,"is_reserved":false,"is_disabled":true,"rental_uris":{"android":"levelo://app?vid=eeec4aa3-87e9-4496-be2e-938ceb91cf85","ios":"levelo://app?vid=eeec4aa3-87e9-4496-be2e-938ceb91cf85"},"vehicle_type_id":"4","last_reported":1744834313,"current_range_meters":9600,"station_id":"ce4bgh92rcd13ifvqb40","pricing_plan_id":"cebpf4jnsgd1na2vs0mg"},{"bike_id":"257cd67d-848f-46ff-a9b4-b9d60cab96e4","system_id":"levelo_inurba_marseille","lat":43.29784,"lon":5.39345,"is_reserved":false,"is_disabled":false,"rental_uris":{"android":"levelo://app?vid=257cd67d-848f-46ff-a9b4-b9d60cab96e4","ios":"levelo://app?vid=257cd67d-848f-46ff-a9b4-b9d60cab96e4"},"vehicle_type_id":"4","last_reported":1744834313,"current_range_meters":9600,"station_id":"chh1huq6cuj3fo74tm60","pricing_plan_id":"cebpf4jnsgd1na2vs0mg"},{"bike_id":"ae669bac-ccfa-4f88-b834-b0199f708b96","system_id":"levelo_inurba_marseille","lat":43.288626,"lon":5.358429,"is_reserved":false,"is_disabled":false,"rental_uris":{"android":"levelo://app?vid=ae669bac-ccfa-4f88-b834-b0199f708b96","ios":"levelo://app?vid=ae669bac-ccfa-4f88-b834-b0199f708b96"},"vehicle_type_id":"4","last_reported":1744834313,"current_range_meters":9600,"station_id":"ce4bhb12rcd13ifvqem0","pricing_plan_id":"cebpf4jnsgd1na2vs0mg"},{"bike_id":"b545a3d4-c01e-421c-97f6-e33faa12a8f4","system_id":"levelo_inurba_marseille","lat":43.27974,"lon":5.38737,"is_reserved":false,"is_disabled":false,"rental_uris":{"android":"levelo://app?vid=b545a3d4-c01e-421c-97f6-e33faa12a8f4","ios":"levelo://app?vid=b545a3d4-c01e-421c-97f6-e33faa12a8f4"},"vehicle_type_id":"4","last_reported":1744834313,"current_range_meters":9600,"station_id":"ce4bhg12rcd13ifvqf80","pricing_plan_id":"cebpf4jnsgd1na2vs0mg"},{"bike_id":"da61630c-eec5-4651-ac57-e218f2e64d2c","system_id":"levelo_inurba_marseille","lat":43.30881,"lon":5.37201,"is_reserved":false,"is_disabled":false,"rental_uris":{"android":"levelo://app?vid=da61630c-eec5-4651-ac57-e218f2e64d2c","ios":"levelo://app?vid=da61630c-eec5-4651-ac57-e218f2e64d2c"},"vehicle_type_id":"4","last_reported":1744834313,"current_range_meters":9600,"station_id":"ce4bguh2rcd13ifvqckg","pricing_plan_id":"cebpf4jnsgd1na2vs0mg"},{"bike_id":"e8412f40-a8dc-44ee-bbc2-e01b1cf2ab9a","system_id":"levelo_inurba_marseille","lat":43.27821,"lon":5.39205,"is_reserved":false,"is_disabled":false,"rental_uris":{"android":"levelo://app?vid=e8412f40-a8dc-44ee-bbc2-e01b1cf2ab9a","ios":"levelo://app?vid=e8412f40-a8dc-44ee-bbc2-e01b1cf2ab9a"},"vehicle_type_id":"4","last_reported":1744834313,"current_range_meters":10000,"station_id":"ce4bhjp2rcd13ifvqga0","pricing_plan_id":"cebpf4jnsgd1na2vs0mg"},{"bike_id":"847a57e8-0129-4285-b6be-15d7d295a3b2","system_id":"levelo_inurba_marseille","lat":43.29878,"lon":5.39736,"is_reserved":false,"is_disabled":false,"rental_uris":{"android":"levelo://app?vid=847a57e8-0129-4285-b6be-15d7d295a3b2","ios":"levelo://app?vid=847a57e8-0129-4285-b6be-15d7d295a3b2"},"vehicle_type_id":"4","last_reported":1744834313,"current_range_meters":10000,"station_id":"ce4bh0h2rcd13ifvqd50","pricing_plan_id":"cebpf4jnsgd1na2vs0mg"},{"bike_id":"f0ad0340-2706-495b-9aa6-2660a8a4d5c0","system_id":"levelo_inurba_marseille","lat":43.29256,"lon":5.40912,"is_reserved":false,"is_disabled":false,"rental_uris":{"android":"levelo://app?vid=f0ad0340-2706-495b-9aa6-2660a8a4d5c0","ios":"levelo://app?vid=f0ad0340-2706-495b-9aa6-2660a8a4d5c0"},"vehicle_type_id":"4","last_reported":1744834313,"current_range_meters":10000,"station_id":"ce4bh192rcd13ifvqdc0","pricing_plan_id":"cebpf4jnsgd1na2vs0mg"},{"bike_id":"561936ef-54e4-4d15-b2a7-dfd018b9e12e","system_id":"levelo_inurba_marseille","lat":43.29759,"lon":5.39366,"is_reserved":false,"is_disabled":false,"rental_uris":{"android":"levelo://app?vid=561936ef-54e4-4d15-b2a7-dfd018b9e12e","ios":"levelo://app?vid=561936ef-54e4-4d15-b2a7-dfd018b9e12e"},"vehicle_type_id":"4","last_reported":1744834313,"current_range_meters":10000,"station_id":"chh1huq6cuj3fo74tm60","pricing_plan_id":"cebpf4jnsgd1na2vs0mg"},{"bike_id":"95f308ab-5221-4735-88d0-ccb8e6218d13","system_id":"levelo_inurba_marseille","lat":43.29412,"lon":5.38627,"is_reserved":false,"is_disabled":false,"rental_uris":{"android":"levelo://app?vid=95f308ab-5221-4735-88d0-ccb8e6218d13","ios":"levelo://app?vid=95f308ab-5221-4735-88d0-ccb8e6218d13"},"vehicle_type_id":"4","last_reported":1744834313,"current_range_meters":10000,"station_id":"ce4bh2h2rcd13ifvqdh0","pricing_plan_id":"cebpf4jnsgd1na2vs0mg"},{"bike_id":"3547057c-e295-4277-8370-b153638b69c9","system_id":"levelo_inurba_marseille","lat":43.2737,"lon":5.36253,"is_reserved":false,"is_disabled":false,"rental_uris":{"android":"levelo://app?vid=3547057c-e295-4277-8370-b153638b69c9","ios":"levelo://app?vid=3547057c-e295-4277-8370-b153638b69c9"},"vehicle_type_id":"4","last_reported":1744834313,"current_range_meters":10800,"station_id":"ce4bhbh2rcd13ifvqeo0","pricing_plan_id":"cebpf4jnsgd1na2vs0mg"},{"bike_id":"88023d56-2151-42c1-b842-f42aa2182bd9","system_id":"levelo_inurba_marseille","lat":43.28041,"lon":5.36941,"is_reserved":false,"is_disabled":false,"rental_uris":{"android":"levelo://app?vid=88023d56-2151-42c1-b842-f42aa2182bd9","ios":"levelo://app?vid=88023d56-2151-42c1-b842-f42aa2182bd9"},"vehicle_type_id":"4","last_reported":1744834313,"current_range_meters":10800,"station_id":"ce4bha12rcd13ifvqef0","pricing_plan_id":"cebpf4jnsgd1na2vs0mg"},{"bike_id":"14541b4c-c4ff-4f48-b140-23313b771198","system_id":"levelo_inurba_marseille","lat":43.27801,"lon":5.39227,"is_reserved":false,"is_disabled":false,"rental_uris":{"android":"levelo://app?vid=14541b4c-c4ff-4f48-b140-23313b771198","ios":"levelo://app?vid=14541b4c-c4ff-4f48-b140-23313b771198"},"vehicle_type_id":"4","last_reported":1744834313,"current_range_meters":10800,"station_id":"ce4bhjp2rcd13ifvqga0","pricing_plan_id":"cebpf4jnsgd1na2vs0mg"},{"bike_id":"7b38cb55-9c5f-4bca-a540-bfab855e7385","system_id":"levelo_inurba_marseille","lat":43.23967,"lon":5.36624,"is_reserved":false,"is_disabled":false,"rental_uris":{"android":"levelo://app?vid=7b38cb55-9c5f-4bca-a540-bfab855e7385","ios":"levelo://app?vid=7b38cb55-9c5f-4bca-a540-bfab855e7385"},"vehicle_type_id":"4","last_reported":1744834313,"current_range_meters":10800,"station_id":"ce4bhi12rcd13ifvqfp0","pricing_plan_id":"cebpf4jnsgd1na2vs0mg"},{"bike_id":"aafece41-771c-4727-9330-23c42c863e6d","system_id":"levelo_inurba_marseille","lat":43.28613,"lon":5.35103,"is_reserved":false,"is_disabled":false,"rental_uris":{"android":"levelo://app?vid=aafece41-771c-4727-9330-23c42c863e6d","ios":"levelo://app?vid=aafece41-771c-4727-9330-23c42c863e6d"},"vehicle_type_id":"4","last_reported":1744834313,"current_range_meters":11200,"station_id":"ce4bhch2rcd13ifvqeug","pricing_plan_id":"cebpf4jnsgd1na2vs0mg"},{"bike_id":"48272c48-d2bd-43c9-af5b-e1693c48719b","system_id":"levelo_inurba_marseille","lat":43.25488,"lon":5.37642,"is_reserved":false,"is_disabled":false,"rental_uris":{"android":"levelo://app?vid=48272c48-d2bd-43c9-af5b-e1693c48719b","ios":"levelo://app?vid=48272c48-d2bd-43c9-af5b-e1693c48719b"},"vehicle_type_id":"4","last_reported":1744834313,"current_range_meters":11200,"station_id":"ce4bhh12rcd13ifvqff0","pricing_plan_id":"cebpf4jnsgd1na2vs0mg"},{"bike_id":"2c032a6e-a514-4c75-ac58-67d0e95dcf42","system_id":"levelo_inurba_marseille","lat":43.2862,"lon":5.35101,"is_reserved":false,"is_disabled":false,"rental_uris":{"android":"levelo://app?vid=2c032a6e-a514-4c75-ac58-67d0e95dcf42","ios":"levelo://app?vid=2c032a6e-a514-4c75-ac58-67d0e95dcf42"},"vehicle_type_id":"4","last_reported":1744834313,"current_range_meters":11200,"station_id":"ce4bhch2rcd13ifvqeug","pricing_plan_id":"cebpf4jnsgd1na2vs0mg"},{"bike_id":"dfc90e23-a51a-46c2-9aff-a5e54b4a553f","system_id":"levelo_inurba_marseille","lat":43.26214,"lon":5.40455,"is_reserved":false,"is_disabled":false,"rental_uris":{"android":"levelo://app?vid=dfc90e23-a51a-46c2-9aff-a5e54b4a553f","ios":"levelo://app?vid=dfc90e23-a51a-46c2-9aff-a5e54b4a553f"},"vehicle_type_id":"4","last_reported":1744834313,"current_range_meters":11200,"station_id":"ce4bhmh2rcd13ifvqgmg","pricing_plan_id":"cebpf4jnsgd1na2vs0mg"},{"bike_id":"6cf03e53-20a8-4f81-bab1-47b311b14206","system_id":"levelo_inurba_marseille","lat":43.2941,"lon":5.38629,"is_reserved":false,"is_disabled":false,"rental_uris":{"android":"levelo://app?vid=6cf03e53-20a8-4f81-bab1-47b311b14206","ios":"levelo://app?vid=6cf03e53-20a8-4f81-bab1-47b311b14206"},"vehicle_type_id":"4","last_reported":1744834313,"current_range_meters":11200,"station_id":"ce4bh2h2rcd13ifvqdh0","pricing_plan_id":"cebpf4jnsgd1na2vs0mg"},{"bike_id":"51a64e16-0b88-479c-8f70-cafff67635bb","system_id":"levelo_inurba_marseille","lat":43.28382,"lon":5.37544,"is_reserved":false,"is_disabled":false,"rental_uris":{"android":"levelo://app?vid=51a64e16-0b88-479c-8f70-cafff67635bb","ios":"levelo://app?vid=51a64e16-0b88-479c-8f70-cafff67635bb"},"vehicle_type_id":"4","last_reported":1744834313,"current_range_meters":11200,"station_id":"ce4bh412rcd13ifvqds0","pricing_plan_id":"cebpf4jnsgd1na2vs0mg"},{"bike_id":"dd8f296e-6813-45ce-b192-d8d324196958","system_id":"levelo_inurba_marseille","lat":43.29422,"lon":5.38628,"is_reserved":false,"is_disabled":false,"rental_uris":{"android":"levelo://app?vid=dd8f296e-6813-45ce-b192-d8d324196958","ios":"levelo://app?vid=dd8f296e-6813-45ce-b192-d8d324196958"},"vehicle_type_id":"4","last_reported":1744834313,"current_range_meters":11200,"station_id":"ce4bh2h2rcd13ifvqdh0","pricing_plan_id":"cebpf4jnsgd1na2vs0mg"},{"bike_id":"834ec9e1-9d50-4bee-85ae-d1db335c55e5","system_id":"levelo_inurba_marseille","lat":43.31782,"lon":5.36809,"is_reserved":false,"is_disabled":false,"rental_uris":{"android":"levelo://app?vid=834ec9e1-9d50-4bee-85ae-d1db335c55e5","ios":"levelo://app?vid=834ec9e1-9d50-4bee-85ae-d1db335c55e5"},"vehicle_type_id":"4","last_reported":1744834313,"current_range_meters":11600,"station_id":"","pricing_plan_id":"cebpf4jnsgd1na2vs0mg"},{"bike_id":"69ef637e-55b2-48ad-84e0-d3e326d5ce8a","system_id":"levelo_inurba_marseille","lat":43.28717,"lon":5.37928,"is_reserved":false,"is_disabled":false,"rental_uris":{"android":"levelo://app?vid=69ef637e-55b2-48ad-84e0-d3e326d5ce8a","ios":"levelo://app?vid=69ef637e-55b2-48ad-84e0-d3e326d5ce8a"},"vehicle_type_id":"4","last_reported":1744834313,"current_range_meters":11600,"station_id":"ce4bh9p2rcd13ifvqec0","pricing_plan_id":"cebpf4jnsgd1na2vs0mg"},{"bike_id":"80d9af29-ff98-4569-a09d-d4a9a14d9a42","system_id":"levelo_inurba_marseille","lat":43.30589,"lon":5.39356,"is_reserved":false,"is_disabled":false,"rental_uris":{"android":"levelo://app?vid=80d9af29-ff98-4569-a09d-d4a9a14d9a42","ios":"levelo://app?vid=80d9af29-ff98-4569-a09d-d4a9a14d9a42"},"vehicle_type_id":"4","last_reported":1744834313,"current_range_meters":12000,"station_id":"ce4bh0p2rcd13ifvqd80","pricing_plan_id":"cebpf4jnsgd1na2vs0mg"},{"bike_id":"eb7bf08f-7f3e-4683-bf70-2771449f33ce","system_id":"levelo_inurba_marseille","lat":43.28366,"lon":5.38094,"is_reserved":false,"is_disabled":false,"rental_uris":{"android":"levelo://app?vid=eb7bf08f-7f3e-4683-bf70-2771449f33ce","ios":"levelo://app?vid=eb7bf08f-7f3e-4683-bf70-2771449f33ce"},"vehicle_type_id":"4","last_reported":1744834313,"current_range_meters":12400,"station_id":"ce4bh412rcd13ifvqdr0","pricing_plan_id":"cebpf4jnsgd1na2vs0mg"},{"bike_id":"93be371e-f079-4065-9c94-f1bd2172cfd1","system_id":"levelo_inurba_marseille","lat":43.28597,"lon":5.37076,"is_reserved":false,"is_disabled":false,"rental_uris":{"android":"levelo://app?vid=93be371e-f079-4065-9c94-f1bd2172cfd1","ios":"levelo://app?vid=93be371e-f079-4065-9c94-f1bd2172cfd1"},"vehicle_type_id":"4","last_reported":1744834313,"current_range_meters":12800,"station_id":"ce4bht12rcd13ifvqi60","pricing_plan_id":"cebpf4jnsgd1na2vs0mg"},{"bike_id":"68ec9c60-1203-4695-94aa-40d8361b0d46","system_id":"levelo_inurba_marseille","lat":43.30872,"lon":5.39642,"is_reserved":false,"is_disabled":false,"rental_uris":{"android":"levelo://app?vid=68ec9c60-1203-4695-94aa-40d8361b0d46","ios":"levelo://app?vid=68ec9c60-1203-4695-94aa-40d8361b0d46"},"vehicle_type_id":"4","last_reported":1744834313,"current_range_meters":12800,"station_id":"ce4bh012rcd13ifvqcv0","pricing_plan_id":"cebpf4jnsgd1na2vs0mg"},{"bike_id":"cff7e17d-4349-4ec1-aff9-05067a138474","system_id":"levelo_inurba_marseille","lat":43.29193,"lon":5.3934,"is_reserved":false,"is_disabled":false,"rental_uris":{"android":"levelo://app?vid=cff7e17d-4349-4ec1-aff9-05067a138474","ios":"levelo://app?vid=cff7e17d-4349-4ec1-aff9-05067a138474"},"vehicle_type_id":"4","last_reported":1744834313,"current_range_meters":12800,"station_id":"ce4bh192rcd13ifvqdd0","pricing_plan_id":"cebpf4jnsgd1na2vs0mg"},{"bike_id":"b1203870-4d45-4676-8ec7-5019ca28aac8","system_id":"levelo_inurba_marseille","lat":43.30081,"lon":5.39077,"is_reserved":false,"is_disabled":false,"rental_uris":{"android":"levelo://app?vid=b1203870-4d45-4676-8ec7-5019ca28aac8","ios":"levelo://app?vid=b1203870-4d45-4676-8ec7-5019ca28aac8"},"vehicle_type_id":"4","last_reported":1744834313,"current_range_meters":12800,"station_id":"ce4bh192rcd13ifvqdb0","pricing_plan_id":"cebpf4jnsgd1na2vs0mg"},{"bike_id":"4aa56563-21db-471a-a412-b90fc67bef09","system_id":"levelo_inurba_marseille","lat":43.28695,"lon":5.37393,"is_reserved":false,"is_disabled":false,"rental_uris":{"android":"levelo://app?vid=4aa56563-21db-471a-a412-b90fc67bef09","ios":"levelo://app?vid=4aa56563-21db-471a-a412-b90fc67bef09"},"vehicle_type_id":"4","last_reported":1744834313,"current_range_meters":13600,"station_id":"ce4bh3p2rcd13ifvqdq0","pricing_plan_id":"cebpf4jnsgd1na2vs0mg"},{"bike_id":"2be2e8c5-ff49-4a5a-963a-4bbeabb11512","system_id":"levelo_inurba_marseille","lat":43.3074,"lon":5.42452,"is_reserved":false,"is_disabled":false,"rental_uris":{"android":"levelo://app?vid=2be2e8c5-ff49-4a5a-963a-4bbeabb11512","ios":"levelo://app?vid=2be2e8c5-ff49-4a5a-963a-4bbeabb11512"},"vehicle_type_id":"4","last_reported":1744834313,"current_range_meters":13600,"station_id":"st_cvj6ca6bvosntc0bfgr0","pricing_plan_id":"cebpf4jnsgd1na2vs0mg"},{"bike_id":"4b9b1e69-af86-4122-8d46-0d52505b1cab","system_id":"levelo_inurba_marseille","lat":43.27491,"lon":5.42468,"is_reserved":false,"is_disabled":false,"rental_uris":{"android":"levelo://app?vid=4b9b1e69-af86-4122-8d46-0d52505b1cab","ios":"levelo://app?vid=4b9b1e69-af86-4122-8d46-0d52505b1cab"},"vehicle_type_id":"4","last_reported":1744834313,"current_range_meters":13600,"station_id":"ce4bhn92rcd13ifvqgrg","pricing_plan_id":"cebpf4jnsgd1na2vs0mg"},{"bike_id":"482d7f53-ba94-4319-bdfb-94ad5dc0e6c3","system_id":"levelo_inurba_marseille","lat":43.29572,"lon":5.39965,"is_reserved":false,"is_disabled":false,"rental_uris":{"android":"levelo://app?vid=482d7f53-ba94-4319-bdfb-94ad5dc0e6c3","ios":"levelo://app?vid=482d7f53-ba94-4319-bdfb-94ad5dc0e6c3"},"vehicle_type_id":"4","last_reported":1744834313,"current_range_meters":13600,"station_id":"ce4bh312rcd13ifvqdj0","pricing_plan_id":"cebpf4jnsgd1na2vs0mg"},{"bike_id":"1bdba7a7-a82e-4252-906c-80db6beb180e","system_id":"levelo_inurba_marseille","lat":43.24892,"lon":5.39414,"is_reserved":false,"is_disabled":false,"rental_uris":{"android":"levelo://app?vid=1bdba7a7-a82e-4252-906c-80db6beb180e","ios":"levelo://app?vid=1bdba7a7-a82e-4252-906c-80db6beb180e"},"vehicle_type_id":"4","last_reported":1744834313,"current_range_meters":14000,"station_id":"","pricing_plan_id":"cebpf4jnsgd1na2vs0mg"},{"bike_id":"6bf5a380-400e-4cd6-bc1e-356afac9ee45","system_id":"levelo_inurba_marseille","lat":43.24199,"lon":5.36374,"is_reserved":false,"is_disabled":false,"rental_uris":{"android":"levelo://app?vid=6bf5a380-400e-4cd6-bc1e-356afac9ee45","ios":"levelo://app?vid=6bf5a380-400e-4cd6-bc1e-356afac9ee45"},"vehicle_type_id":"4","last_reported":1744834313,"current_range_meters":14000,"station_id":"cpo36qri1sfpv3e86is0","pricing_plan_id":"cebpf4jnsgd1na2vs0mg"},{"bike_id":"ef365bd2-a34b-4049-a6ca-88aa62e24e6c","system_id":"levelo_inurba_marseille","lat":43.28352,"lon":5.38103,"is_reserved":false,"is_disabled":false,"rental_uris":{"android":"levelo://app?vid=ef365bd2-a34b-4049-a6ca-88aa62e24e6c","ios":"levelo://app?vid=ef365bd2-a34b-4049-a6ca-88aa62e24e6c"},"vehicle_type_id":"4","last_reported":1744834313,"current_range_meters":14000,"station_id":"ce4bh412rcd13ifvqdr0","pricing_plan_id":"cebpf4jnsgd1na2vs0mg"},{"bike_id":"88a0cb80-a51d-46bc-8228-c9a9fb028348","system_id":"levelo_inurba_marseille","lat":43.25617,"lon":5.42011,"is_reserved":false,"is_disabled":false,"rental_uris":{"android":"levelo://app?vid=88a0cb80-a51d-46bc-8228-c9a9fb028348","ios":"levelo://app?vid=88a0cb80-a51d-46bc-8228-c9a9fb028348"},"vehicle_type_id":"4","last_reported":1744834313,"current_range_meters":14000,"station_id":"","pricing_plan_id":"cebpf4jnsgd1na2vs0mg"},{"bike_id":"5376612e-6ec4-47b4-a800-3000bdb693c9","system_id":"levelo_inurba_marseille","lat":43.283625,"lon":5.380954,"is_reserved":false,"is_disabled":false,"rental_uris":{"android":"levelo://app?vid=5376612e-6ec4-47b4-a800-3000bdb693c9","ios":"levelo://app?vid=5376612e-6ec4-47b4-a800-3000bdb693c9"},"vehicle_type_id":"4","last_reported":1744834313,"current_range_meters":14000,"station_id":"ce4bh412rcd13ifvqdr0","pricing_plan_id":"cebpf4jnsgd1na2vs0mg"},{"bike_id":"6dd5e720-7be4-4987-a864-5cec97498832","system_id":"levelo_inurba_marseille","lat":43.29876,"lon":5.38919,"is_reserved":false,"is_disabled":false,"rental_uris":{"android":"levelo://app?vid=6dd5e720-7be4-4987-a864-5cec97498832","ios":"levelo://app?vid=6dd5e720-7be4-4987-a864-5cec97498832"},"vehicle_type_id":"4","last_reported":1744834313,"current_range_meters":14000,"station_id":"ce4bh392rcd13ifvqdl0","pricing_plan_id":"cebpf4jnsgd1na2vs0mg"},{"bike_id":"adbdea45-d31f-4c04-99a6-0d39adcfb75f","system_id":"levelo_inurba_marseille","lat":43.29367,"lon":5.37835,"is_reserved":false,"is_disabled":false,"rental_uris":{"android":"levelo://app?vid=adbdea45-d31f-4c04-99a6-0d39adcfb75f","ios":"levelo://app?vid=adbdea45-d31f-4c04-99a6-0d39adcfb75f"},"vehicle_type_id":"4","last_reported":1744834313,"current_range_meters":14000,"station_id":"ce4bgjh2rcd13ifvqbf0","pricing_plan_id":"cebpf4jnsgd1na2vs0mg"},{"bike_id":"d9a74604-4e04-4138-8f3c-bfc766e9e048","system_id":"levelo_inurba_marseille","lat":43.25869,"lon":5.39892,"is_reserved":false,"is_disabled":false,"rental_uris":{"android":"levelo://app?vid=d9a74604-4e04-4138-8f3c-bfc766e9e048","ios":"levelo://app?vid=d9a74604-4e04-4138-8f3c-bfc766e9e048"},"vehicle_type_id":"4","last_reported":1744834313,"current_range_meters":14400,"station_id":"ce4bhl92rcd13ifvqghg","pricing_plan_id":"cebpf4jnsgd1na2vs0mg"},{"bike_id":"b37478c9-c9d1-4921-942f-50c7a856681e","system_id":"levelo_inurba_marseille","lat":43.27036,"lon":5.40283,"is_reserved":false,"is_disabled":true,"rental_uris":{"android":"levelo://app?vid=b37478c9-c9d1-4921-942f-50c7a856681e","ios":"levelo://app?vid=b37478c9-c9d1-4921-942f-50c7a856681e"},"vehicle_type_id":"4","last_reported":1744834313,"current_range_meters":14400,"station_id":"ce4bhk92rcd13ifvqgc0","pricing_plan_id":"cebpf4jnsgd1na2vs0mg"},{"bike_id":"55d42ba3-f833-4ccc-9026-2b02f8194d62","system_id":"levelo_inurba_marseille","lat":43.29392,"lon":5.38612,"is_reserved":false,"is_disabled":false,"rental_uris":{"android":"levelo://app?vid=55d42ba3-f833-4ccc-9026-2b02f8194d62","ios":"levelo://app?vid=55d42ba3-f833-4ccc-9026-2b02f8194d62"},"vehicle_type_id":"4","last_reported":1744834313,"current_range_meters":14400,"station_id":"ce4bh2h2rcd13ifvqdh0","pricing_plan_id":"cebpf4jnsgd1na2vs0mg"},{"bike_id":"01e8d5da-8240-46bc-b467-6ab5b618c8b3","system_id":"levelo_inurba_marseille","lat":43.30321,"lon":5.40435,"is_reserved":false,"is_disabled":false,"rental_uris":{"android":"levelo://app?vid=01e8d5da-8240-46bc-b467-6ab5b618c8b3","ios":"levelo://app?vid=01e8d5da-8240-46bc-b467-6ab5b618c8b3"},"vehicle_type_id":"4","last_reported":1744834313,"current_range_meters":14400,"station_id":"ce4bh012rcd13ifvqd10","pricing_plan_id":"cebpf4jnsgd1na2vs0mg"},{"bike_id":"4f3dfbf4-d1ae-44db-8110-b28c7d24107a","system_id":"levelo_inurba_marseille","lat":43.27038,"lon":5.4025,"is_reserved":false,"is_disabled":false,"rental_uris":{"android":"levelo://app?vid=4f3dfbf4-d1ae-44db-8110-b28c7d24107a","ios":"levelo://app?vid=4f3dfbf4-d1ae-44db-8110-b28c7d24107a"},"vehicle_type_id":"4","last_reported":1744834313,"current_range_meters":14800,"station_id":"ce4bhk92rcd13ifvqgc0","pricing_plan_id":"cebpf4jnsgd1na2vs0mg"},{"bike_id":"5c2862f3-ea72-4593-9c74-9fcb61032079","system_id":"levelo_inurba_marseille","lat":43.29016,"lon":5.35917,"is_reserved":false,"is_disabled":false,"rental_uris":{"android":"levelo://app?vid=5c2862f3-ea72-4593-9c74-9fcb61032079","ios":"levelo://app?vid=5c2862f3-ea72-4593-9c74-9fcb61032079"},"vehicle_type_id":"4","last_reported":1744834313,"current_range_meters":14800,"station_id":"","pricing_plan_id":"cebpf4jnsgd1na2vs0mg"},{"bike_id":"f902295d-7f2c-410d-bfa8-743db3f1490d","system_id":"levelo_inurba_marseille","lat":43.29406,"lon":5.376271,"is_reserved":false,"is_disabled":false,"rental_uris":{"android":"levelo://app?vid=f902295d-7f2c-410d-bfa8-743db3f1490d","ios":"levelo://app?vid=f902295d-7f2c-410d-bfa8-743db3f1490d"},"vehicle_type_id":"4","last_reported":1744834313,"current_range_meters":15200,"station_id":"ce4bh012rcd13ifvqcv0","pricing_plan_id":"cebpf4jnsgd1na2vs0mg"},{"bike_id":"cfb5c619-79cc-45c0-a060-e5b0a4cd477e","system_id":"levelo_inurba_marseille","lat":43.30195,"lon":5.3662,"is_reserved":false,"is_disabled":false,"rental_uris":{"android":"levelo://app?vid=cfb5c619-79cc-45c0-a060-e5b0a4cd477e","ios":"levelo://app?vid=cfb5c619-79cc-45c0-a060-e5b0a4cd477e"},"vehicle_type_id":"4","last_reported":1744834313,"current_range_meters":15200,"station_id":"ce4bgrh2rcd13ifvqc8g","pricing_plan_id":"cebpf4jnsgd1na2vs0mg"},{"bike_id":"e429eba0-6da3-4779-9439-9f5ad9bc0510","system_id":"levelo_inurba_marseille","lat":43.25492,"lon":5.37623,"is_reserved":false,"is_disabled":false,"rental_uris":{"android":"levelo://app?vid=e429eba0-6da3-4779-9439-9f5ad9bc0510","ios":"levelo://app?vid=e429eba0-6da3-4779-9439-9f5ad9bc0510"},"vehicle_type_id":"4","last_reported":1744834313,"current_range_meters":15200,"station_id":"ce4bhh12rcd13ifvqff0","pricing_plan_id":"cebpf4jnsgd1na2vs0mg"},{"bike_id":"78639c4a-dfa5-4f82-b777-6fd3b58b5770","system_id":"levelo_inurba_marseille","lat":43.28092,"lon":5.37865,"is_reserved":false,"is_disabled":false,"rental_uris":{"android":"levelo://app?vid=78639c4a-dfa5-4f82-b777-6fd3b58b5770","ios":"levelo://app?vid=78639c4a-dfa5-4f82-b777-6fd3b58b5770"},"vehicle_type_id":"4","last_reported":1744834313,"current_range_meters":15200,"station_id":"ce4bha12rcd13ifvqee0","pricing_plan_id":"cebpf4jnsgd1na2vs0mg"},{"bike_id":"6032e738-f012-4275-92a6-1c203e24e4cd","system_id":"levelo_inurba_marseille","lat":43.29898,"lon":5.4368,"is_reserved":false,"is_disabled":false,"rental_uris":{"android":"levelo://app?vid=6032e738-f012-4275-92a6-1c203e24e4cd","ios":"levelo://app?vid=6032e738-f012-4275-92a6-1c203e24e4cd"},"vehicle_type_id":"4","last_reported":1744834313,"current_range_meters":15200,"station_id":"ce4bhpp2rcd13ifvqhfg","pricing_plan_id":"cebpf4jnsgd1na2vs0mg"},{"bike_id":"18b90a41-6be6-4c74-a522-ce5bf216390f","system_id":"levelo_inurba_marseille","lat":43.29435,"lon":5.39746,"is_reserved":false,"is_disabled":false,"rental_uris":{"android":"levelo://app?vid=18b90a41-6be6-4c74-a522-ce5bf216390f","ios":"levelo://app?vid=18b90a41-6be6-4c74-a522-ce5bf216390f"},"vehicle_type_id":"4","last_reported":1744834313,"current_range_meters":16000,"station_id":"ce4bh3h2rcd13ifvqdo0","pricing_plan_id":"cebpf4jnsgd1na2vs0mg"},{"bike_id":"35100e48-d85e-4592-93bf-b13bb8464f4f","system_id":"levelo_inurba_marseille","lat":43.27988,"lon":5.41653,"is_reserved":false,"is_disabled":false,"rental_uris":{"android":"levelo://app?vid=35100e48-d85e-4592-93bf-b13bb8464f4f","ios":"levelo://app?vid=35100e48-d85e-4592-93bf-b13bb8464f4f"},"vehicle_type_id":"4","last_reported":1744834313,"current_range_meters":16000,"station_id":"ce4bho12rcd13ifvqh1g","pricing_plan_id":"cebpf4jnsgd1na2vs0mg"},{"bike_id":"325648d6-26aa-4b53-8462-def71a09965c","system_id":"levelo_inurba_marseille","lat":43.287304,"lon":5.360834,"is_reserved":false,"is_disabled":false,"rental_uris":{"android":"levelo://app?vid=325648d6-26aa-4b53-8462-def71a09965c","ios":"levelo://app?vid=325648d6-26aa-4b53-8462-def71a09965c"},"vehicle_type_id":"4","last_reported":1744834313,"current_range_meters":16000,"station_id":"cki0cbj6b192h4jlfktg","pricing_plan_id":"cebpf4jnsgd1na2vs0mg"},{"bike_id":"c5c76ae8-2915-4bf5-a264-5e3406fc9f78","system_id":"levelo_inurba_marseille","lat":43.29024,"lon":5.38648,"is_reserved":false,"is_disabled":false,"rental_uris":{"android":"levelo://app?vid=c5c76ae8-2915-4bf5-a264-5e3406fc9f78","ios":"levelo://app?vid=c5c76ae8-2915-4bf5-a264-5e3406fc9f78"},"vehicle_type_id":"4","last_reported":1744834313,"current_range_meters":16000,"station_id":"ce4bh4p2rcd13ifvqe0g","pricing_plan_id":"cebpf4jnsgd1na2vs0mg"},{"bike_id":"da2251a7-2b2b-4dd1-8be8-8f047831f0e4","system_id":"levelo_inurba_marseille","lat":43.303,"lon":5.39208,"is_reserved":false,"is_disabled":true,"rental_uris":{"android":"levelo://app?vid=da2251a7-2b2b-4dd1-8be8-8f047831f0e4","ios":"levelo://app?vid=da2251a7-2b2b-4dd1-8be8-8f047831f0e4"},"vehicle_type_id":"4","last_reported":1744834313,"current_range_meters":16000,"station_id":"ce4bgkh2rcd13ifvqbk0","pricing_plan_id":"cebpf4jnsgd1na2vs0mg"},{"bike_id":"8be75756-a53c-4ba1-b857-7453ea94c63f","system_id":"levelo_inurba_marseille","lat":43.29431,"lon":5.38611,"is_reserved":false,"is_disabled":false,"rental_uris":{"android":"levelo://app?vid=8be75756-a53c-4ba1-b857-7453ea94c63f","ios":"levelo://app?vid=8be75756-a53c-4ba1-b857-7453ea94c63f"},"vehicle_type_id":"4","last_reported":1744834313,"current_range_meters":16000,"station_id":"ce4bh2h2rcd13ifvqdh0","pricing_plan_id":"cebpf4jnsgd1na2vs0mg"},{"bike_id":"35f3d1aa-7414-481f-a4b3-d31cb5ab7b8f","system_id":"levelo_inurba_marseille","lat":43.29026,"lon":5.38651,"is_reserved":false,"is_disabled":false,"rental_uris":{"android":"levelo://app?vid=35f3d1aa-7414-481f-a4b3-d31cb5ab7b8f","ios":"levelo://app?vid=35f3d1aa-7414-481f-a4b3-d31cb5ab7b8f"},"vehicle_type_id":"4","last_reported":1744834313,"current_range_meters":16000,"station_id":"ce4bh4p2rcd13ifvqe0g","pricing_plan_id":"cebpf4jnsgd1na2vs0mg"},{"bike_id":"57406be6-c0b4-4691-8abf-3f6842e4ec81","system_id":"levelo_inurba_marseille","lat":43.28419,"lon":5.39214,"is_reserved":false,"is_disabled":true,"rental_uris":{"android":"levelo://app?vid=57406be6-c0b4-4691-8abf-3f6842e4ec81","ios":"levelo://app?vid=57406be6-c0b4-4691-8abf-3f6842e4ec81"},"vehicle_type_id":"4","last_reported":1744834313,"current_range_meters":16000,"station_id":"ce4bhoh2rcd13ifvqh5g","pricing_plan_id":"cebpf4jnsgd1na2vs0mg"},{"bike_id":"b1f42236-afb1-4d50-8c55-a5bd3257f481","system_id":"levelo_inurba_marseille","lat":43.2942,"lon":5.38619,"is_reserved":false,"is_disabled":false,"rental_uris":{"android":"levelo://app?vid=b1f42236-afb1-4d50-8c55-a5bd3257f481","ios":"levelo://app?vid=b1f42236-afb1-4d50-8c55-a5bd3257f481"},"vehicle_type_id":"4","last_reported":1744834313,"current_range_meters":16000,"station_id":"ce4bh2h2rcd13ifvqdh0","pricing_plan_id":"cebpf4jnsgd1na2vs0mg"},{"bike_id":"830bf846-e307-43c6-ad8a-de3dc41759b4","system_id":"levelo_inurba_marseille","lat":43.29033,"lon":5.38649,"is_reserved":false,"is_disabled":false,"rental_uris":{"android":"levelo://app?vid=830bf846-e307-43c6-ad8a-de3dc41759b4","ios":"levelo://app?vid=830bf846-e307-43c6-ad8a-de3dc41759b4"},"vehicle_type_id":"4","last_reported":1744834313,"current_range_meters":16000,"station_id":"ce4bh4p2rcd13ifvqe0g","pricing_plan_id":"cebpf4jnsgd1na2vs0mg"},{"bike_id":"2909136c-832d-48b6-ae24-8dbd950af2de","system_id":"levelo_inurba_marseille","lat":43.28404,"lon":5.37536,"is_reserved":false,"is_disabled":false,"rental_uris":{"android":"levelo://app?vid=2909136c-832d-48b6-ae24-8dbd950af2de","ios":"levelo://app?vid=2909136c-832d-48b6-ae24-8dbd950af2de"},"vehicle_type_id":"4","last_reported":1744834313,"current_range_meters":16000,"station_id":"ce4bh412rcd13ifvqds0","pricing_plan_id":"cebpf4jnsgd1na2vs0mg"},{"bike_id":"6c9f8602-1f27-4ea9-85b1-d27a990b99b7","system_id":"levelo_inurba_marseille","lat":43.30948,"lon":5.39023,"is_reserved":false,"is_disabled":false,"rental_uris":{"android":"levelo://app?vid=6c9f8602-1f27-4ea9-85b1-d27a990b99b7","ios":"levelo://app?vid=6c9f8602-1f27-4ea9-85b1-d27a990b99b7"},"vehicle_type_id":"4","last_reported":1744834313,"current_range_meters":16400,"station_id":"ce4bgup2rcd13ifvqco0","pricing_plan_id":"cebpf4jnsgd1na2vs0mg"},{"bike_id":"394181cf-d138-4b85-a28e-7228cf97ac19","system_id":"levelo_inurba_marseille","lat":43.32004,"lon":5.38151,"is_reserved":false,"is_disabled":false,"rental_uris":{"android":"levelo://app?vid=394181cf-d138-4b85-a28e-7228cf97ac19","ios":"levelo://app?vid=394181cf-d138-4b85-a28e-7228cf97ac19"},"vehicle_type_id":"4","last_reported":1744834313,"current_range_meters":16400,"station_id":"ce4bhr12rcd13ifvqhpg","pricing_plan_id":"cebpf4jnsgd1na2vs0mg"},{"bike_id":"6b36ae8e-bdf6-42c2-8a3d-c7199264ed78","system_id":"levelo_inurba_marseille","lat":43.28444,"lon":5.39204,"is_reserved":false,"is_disabled":false,"rental_uris":{"android":"levelo://app?vid=6b36ae8e-bdf6-42c2-8a3d-c7199264ed78","ios":"levelo://app?vid=6b36ae8e-bdf6-42c2-8a3d-c7199264ed78"},"vehicle_type_id":"4","last_reported":1744834313,"current_range_meters":16400,"station_id":"ce4bhoh2rcd13ifvqh5g","pricing_plan_id":"cebpf4jnsgd1na2vs0mg"},{"bike_id":"888d48a5-0833-4e47-8854-b96ac2739484","system_id":"levelo_inurba_marseille","lat":43.28278,"lon":5.35072,"is_reserved":false,"is_disabled":false,"rental_uris":{"android":"levelo://app?vid=888d48a5-0833-4e47-8854-b96ac2739484","ios":"levelo://app?vid=888d48a5-0833-4e47-8854-b96ac2739484"},"vehicle_type_id":"4","last_reported":1744834313,"current_range_meters":16400,"station_id":"ce4bhbp2rcd13ifvqerg","pricing_plan_id":"cebpf4jnsgd1na2vs0mg"},{"bike_id":"4dcec541-4f18-41c2-89ef-a21ddbdf8cc7","system_id":"levelo_inurba_marseille","lat":43.30177,"lon":5.36632,"is_reserved":false,"is_disabled":false,"rental_uris":{"android":"levelo://app?vid=4dcec541-4f18-41c2-89ef-a21ddbdf8cc7","ios":"levelo://app?vid=4dcec541-4f18-41c2-89ef-a21ddbdf8cc7"},"vehicle_type_id":"4","last_reported":1744834313,"current_range_meters":16400,"station_id":"ce4bgrh2rcd13ifvqc8g","pricing_plan_id":"cebpf4jnsgd1na2vs0mg"},{"bike_id":"baf04868-3ad9-4949-b39a-063b0d0c8334","system_id":"levelo_inurba_marseille","lat":43.30941,"lon":5.40141,"is_reserved":false,"is_disabled":false,"rental_uris":{"android":"levelo://app?vid=baf04868-3ad9-4949-b39a-063b0d0c8334","ios":"levelo://app?vid=baf04868-3ad9-4949-b39a-063b0d0c8334"},"vehicle_type_id":"4","last_reported":1744834313,"current_range_meters":16400,"station_id":"ce4bgvp2rcd13ifvqct0","pricing_plan_id":"cebpf4jnsgd1na2vs0mg"},{"bike_id":"7d4a7fce-596b-40a1-bf8e-35f954a39aba","system_id":"levelo_inurba_marseille","lat":43.24804,"lon":5.37448,"is_reserved":false,"is_disabled":false,"rental_uris":{"android":"levelo://app?vid=7d4a7fce-596b-40a1-bf8e-35f954a39aba","ios":"levelo://app?vid=7d4a7fce-596b-40a1-bf8e-35f954a39aba"},"vehicle_type_id":"4","last_reported":1744834313,"current_range_meters":16800,"station_id":"ce4bhgh2rcd13ifvqfb0","pricing_plan_id":"cebpf4jnsgd1na2vs0mg"},{"bike_id":"e2e79241-2919-4ebd-acb3-76cba876cdbc","system_id":"levelo_inurba_marseille","lat":43.25821,"lon":5.39433,"is_reserved":false,"is_disabled":false,"rental_uris":{"android":"levelo://app?vid=e2e79241-2919-4ebd-acb3-76cba876cdbc","ios":"levelo://app?vid=e2e79241-2919-4ebd-acb3-76cba876cdbc"},"vehicle_type_id":"4","last_reported":1744834313,"current_range_meters":16800,"station_id":"ce4bhip2rcd13ifvqft0","pricing_plan_id":"cebpf4jnsgd1na2vs0mg"},{"bike_id":"53b26416-ffe9-49c3-929b-5afeefd29a7b","system_id":"levelo_inurba_marseille","lat":43.29418,"lon":5.38628,"is_reserved":false,"is_disabled":false,"rental_uris":{"android":"levelo://app?vid=53b26416-ffe9-49c3-929b-5afeefd29a7b","ios":"levelo://app?vid=53b26416-ffe9-49c3-929b-5afeefd29a7b"},"vehicle_type_id":"4","last_reported":1744834313,"current_range_meters":16800,"station_id":"ce4bh2h2rcd13ifvqdh0","pricing_plan_id":"cebpf4jnsgd1na2vs0mg"},{"bike_id":"24a7ac31-5356-4bb6-a81c-88933e54552f","system_id":"levelo_inurba_marseille","lat":43.32293,"lon":5.38284,"is_reserved":false,"is_disabled":false,"rental_uris":{"android":"levelo://app?vid=24a7ac31-5356-4bb6-a81c-88933e54552f","ios":"levelo://app?vid=24a7ac31-5356-4bb6-a81c-88933e54552f"},"vehicle_type_id":"4","last_reported":1744834313,"current_range_meters":16800,"station_id":"ce4bhr12rcd13ifvqhqg","pricing_plan_id":"cebpf4jnsgd1na2vs0mg"},{"bike_id":"da0699e6-fffb-42fd-bda2-fa249cfedfd8","system_id":"levelo_inurba_marseille","lat":43.31508,"lon":5.37268,"is_reserved":false,"is_disabled":false,"rental_uris":{"android":"levelo://app?vid=da0699e6-fffb-42fd-bda2-fa249cfedfd8","ios":"levelo://app?vid=da0699e6-fffb-42fd-bda2-fa249cfedfd8"},"vehicle_type_id":"4","last_reported":1744834313,"current_range_meters":17200,"station_id":"ce4bgt12rcd13ifvqcd0","pricing_plan_id":"cebpf4jnsgd1na2vs0mg"},{"bike_id":"a9e46d05-2544-4ed1-8360-9e975c59ba55","system_id":"levelo_inurba_marseille","lat":43.3013,"lon":5.39868,"is_reserved":false,"is_disabled":false,"rental_uris":{"android":"levelo://app?vid=a9e46d05-2544-4ed1-8360-9e975c59ba55","ios":"levelo://app?vid=a9e46d05-2544-4ed1-8360-9e975c59ba55"},"vehicle_type_id":"4","last_reported":1744834313,"current_range_meters":17200,"station_id":"ce4bh0h2rcd13ifvqd40","pricing_plan_id":"cebpf4jnsgd1na2vs0mg"},{"bike_id":"0e7f3c1c-5749-4ea0-8c4b-38be5bb50b3a","system_id":"levelo_inurba_marseille","lat":43.30631,"lon":5.40114,"is_reserved":false,"is_disabled":false,"rental_uris":{"android":"levelo://app?vid=0e7f3c1c-5749-4ea0-8c4b-38be5bb50b3a","ios":"levelo://app?vid=0e7f3c1c-5749-4ea0-8c4b-38be5bb50b3a"},"vehicle_type_id":"4","last_reported":1744834313,"current_range_meters":17600,"station_id":"ce4bh112rcd13ifvqda0","pricing_plan_id":"cebpf4jnsgd1na2vs0mg"},{"bike_id":"9897e3ab-e0ba-416b-a3a5-cfdc46105a77","system_id":"levelo_inurba_marseille","lat":43.29575,"lon":5.36736,"is_reserved":false,"is_disabled":false,"rental_uris":{"android":"levelo://app?vid=9897e3ab-e0ba-416b-a3a5-cfdc46105a77","ios":"levelo://app?vid=9897e3ab-e0ba-416b-a3a5-cfdc46105a77"},"vehicle_type_id":"4","last_reported":1744834313,"current_range_meters":17600,"station_id":"ce4bgph2rcd13ifvqc2g","pricing_plan_id":"cebpf4jnsgd1na2vs0mg"},{"bike_id":"9b23577c-f860-4cd7-a9a2-85a16af74de3","system_id":"levelo_inurba_marseille","lat":43.292527,"lon":5.384329,"is_reserved":false,"is_disabled":false,"rental_uris":{"android":"levelo://app?vid=9b23577c-f860-4cd7-a9a2-85a16af74de3","ios":"levelo://app?vid=9b23577c-f860-4cd7-a9a2-85a16af74de3"},"vehicle_type_id":"4","last_reported":1744834313,"current_range_meters":17600,"station_id":"","pricing_plan_id":"cebpf4jnsgd1na2vs0mg"},{"bike_id":"f9294aff-5b6f-4d62-9db7-b7bdca4ffaf5","system_id":"levelo_inurba_marseille","lat":43.32567,"lon":5.41449,"is_reserved":false,"is_disabled":false,"rental_uris":{"android":"levelo://app?vid=f9294aff-5b6f-4d62-9db7-b7bdca4ffaf5","ios":"levelo://app?vid=f9294aff-5b6f-4d62-9db7-b7bdca4ffaf5"},"vehicle_type_id":"4","last_reported":1744834313,"current_range_meters":17600,"station_id":"ce4bhq12rcd13ifvqhhg","pricing_plan_id":"cebpf4jnsgd1na2vs0mg"},{"bike_id":"5b4e8388-ccca-46df-b25f-f7efe73dd6d2","system_id":"levelo_inurba_marseille","lat":43.29256,"lon":5.38443,"is_reserved":false,"is_disabled":false,"rental_uris":{"android":"levelo://app?vid=5b4e8388-ccca-46df-b25f-f7efe73dd6d2","ios":"levelo://app?vid=5b4e8388-ccca-46df-b25f-f7efe73dd6d2"},"vehicle_type_id":"4","last_reported":1744834313,"current_range_meters":18000,"station_id":"ce4bh692rcd13ifvqea0","pricing_plan_id":"cebpf4jnsgd1na2vs0mg"},{"bike_id":"8bc01458-e04d-4e1e-9f4f-473a9ad28594","system_id":"levelo_inurba_marseille","lat":43.27893,"lon":5.39608,"is_reserved":false,"is_disabled":false,"rental_uris":{"android":"levelo://app?vid=8bc01458-e04d-4e1e-9f4f-473a9ad28594","ios":"levelo://app?vid=8bc01458-e04d-4e1e-9f4f-473a9ad28594"},"vehicle_type_id":"4","last_reported":1744834313,"current_range_meters":18000,"station_id":"ce4bhf92rcd13ifvqf40","pricing_plan_id":"cebpf4jnsgd1na2vs0mg"},{"bike_id":"22a8a00a-8832-4c9e-8aef-7a97e1f5c371","system_id":"levelo_inurba_marseille","lat":43.28716,"lon":5.37942,"is_reserved":false,"is_disabled":false,"rental_uris":{"android":"levelo://app?vid=22a8a00a-8832-4c9e-8aef-7a97e1f5c371","ios":"levelo://app?vid=22a8a00a-8832-4c9e-8aef-7a97e1f5c371"},"vehicle_type_id":"4","last_reported":1744834313,"current_range_meters":18000,"station_id":"ce4bh9p2rcd13ifvqec0","pricing_plan_id":"cebpf4jnsgd1na2vs0mg"},{"bike_id":"93724c8b-c9a6-45e8-824c-15054ca5b1c3","system_id":"levelo_inurba_marseille","lat":43.30139,"lon":5.37423,"is_reserved":false,"is_disabled":false,"rental_uris":{"android":"levelo://app?vid=93724c8b-c9a6-45e8-824c-15054ca5b1c3","ios":"levelo://app?vid=93724c8b-c9a6-45e8-824c-15054ca5b1c3"},"vehicle_type_id":"4","last_reported":1744834313,"current_range_meters":20400,"station_id":"ce4bgs92rcd13ifvqcc0","pricing_plan_id":"cebpf4jnsgd1na2vs0mg"},{"bike_id":"17c9dc6c-271d-433f-9b4c-f545e7e15d51","system_id":"levelo_inurba_marseille","lat":43.28084,"lon":5.39661,"is_reserved":false,"is_disabled":false,"rental_uris":{"android":"levelo://app?vid=17c9dc6c-271d-433f-9b4c-f545e7e15d51","ios":"levelo://app?vid=17c9dc6c-271d-433f-9b4c-f545e7e15d51"},"vehicle_type_id":"4","last_reported":1744834313,"current_range_meters":18000,"station_id":"ce4bho12rcd13ifvqh2g","pricing_plan_id":"cebpf4jnsgd1na2vs0mg"},{"bike_id":"752e8716-c761-4db8-baf0-a1d8e33d46f2","system_id":"levelo_inurba_marseille","lat":43.28262,"lon":5.35085,"is_reserved":false,"is_disabled":false,"rental_uris":{"android":"levelo://app?vid=752e8716-c761-4db8-baf0-a1d8e33d46f2","ios":"levelo://app?vid=752e8716-c761-4db8-baf0-a1d8e33d46f2"},"vehicle_type_id":"4","last_reported":1744834313,"current_range_meters":18000,"station_id":"ce4bhbp2rcd13ifvqerg","pricing_plan_id":"cebpf4jnsgd1na2vs0mg"},{"bike_id":"e99525f5-cbc2-4ae9-8119-ca8722827511","system_id":"levelo_inurba_marseille","lat":43.29271,"lon":5.38433,"is_reserved":false,"is_disabled":false,"rental_uris":{"android":"levelo://app?vid=e99525f5-cbc2-4ae9-8119-ca8722827511","ios":"levelo://app?vid=e99525f5-cbc2-4ae9-8119-ca8722827511"},"vehicle_type_id":"4","last_reported":1744834313,"current_range_meters":18800,"station_id":"ce4bh692rcd13ifvqea0","pricing_plan_id":"cebpf4jnsgd1na2vs0mg"},{"bike_id":"173d39b4-7a97-4693-9385-db8bda0fe199","system_id":"levelo_inurba_marseille","lat":43.21753,"lon":5.34586,"is_reserved":false,"is_disabled":false,"rental_uris":{"android":"levelo://app?vid=173d39b4-7a97-4693-9385-db8bda0fe199","ios":"levelo://app?vid=173d39b4-7a97-4693-9385-db8bda0fe199"},"vehicle_type_id":"4","last_reported":1744834313,"current_range_meters":18800,"station_id":"st_cvj6r9ubvosntc0bgbag","pricing_plan_id":"cebpf4jnsgd1na2vs0mg"},{"bike_id":"fd004068-7161-4dbb-a955-dc3b29ce8ef2","system_id":"levelo_inurba_marseille","lat":43.29877,"lon":5.38916,"is_reserved":false,"is_disabled":false,"rental_uris":{"android":"levelo://app?vid=fd004068-7161-4dbb-a955-dc3b29ce8ef2","ios":"levelo://app?vid=fd004068-7161-4dbb-a955-dc3b29ce8ef2"},"vehicle_type_id":"4","last_reported":1744834313,"current_range_meters":18800,"station_id":"ce4bh392rcd13ifvqdl0","pricing_plan_id":"cebpf4jnsgd1na2vs0mg"},{"bike_id":"a9a13b2f-e2de-4f40-968c-4382de62974d","system_id":"levelo_inurba_marseille","lat":43.2792,"lon":5.41086,"is_reserved":false,"is_disabled":false,"rental_uris":{"android":"levelo://app?vid=a9a13b2f-e2de-4f40-968c-4382de62974d","ios":"levelo://app?vid=a9a13b2f-e2de-4f40-968c-4382de62974d"},"vehicle_type_id":"4","last_reported":1744834313,"current_range_meters":18800,"station_id":"ce4bhnp2rcd13ifvqh0g","pricing_plan_id":"cebpf4jnsgd1na2vs0mg"},{"bike_id":"d486101b-072f-470b-a885-f5f95c61cd86","system_id":"levelo_inurba_marseille","lat":43.31491,"lon":5.37272,"is_reserved":false,"is_disabled":false,"rental_uris":{"android":"levelo://app?vid=d486101b-072f-470b-a885-f5f95c61cd86","ios":"levelo://app?vid=d486101b-072f-470b-a885-f5f95c61cd86"},"vehicle_type_id":"4","last_reported":1744834313,"current_range_meters":18800,"station_id":"ce4bgt12rcd13ifvqcd0","pricing_plan_id":"cebpf4jnsgd1na2vs0mg"},{"bike_id":"b652bdb7-a4d5-4927-bd0c-73ce3a2e3721","system_id":"levelo_inurba_marseille","lat":43.268,"lon":5.40264,"is_reserved":false,"is_disabled":false,"rental_uris":{"android":"levelo://app?vid=b652bdb7-a4d5-4927-bd0c-73ce3a2e3721","ios":"levelo://app?vid=b652bdb7-a4d5-4927-bd0c-73ce3a2e3721"},"vehicle_type_id":"4","last_reported":1744834313,"current_range_meters":18800,"station_id":"ce501612rcd8frsf0b60","pricing_plan_id":"cebpf4jnsgd1na2vs0mg"},{"bike_id":"a0ddb0a5-f7f0-4281-aa27-9e82747cc573","system_id":"levelo_inurba_marseille","lat":43.337619,"lon":5.374828,"is_reserved":false,"is_disabled":false,"rental_uris":{"android":"levelo://app?vid=a0ddb0a5-f7f0-4281-aa27-9e82747cc573","ios":"levelo://app?vid=a0ddb0a5-f7f0-4281-aa27-9e82747cc573"},"vehicle_type_id":"4","last_reported":1744834313,"current_range_meters":18800,"station_id":"","pricing_plan_id":"cebpf4jnsgd1na2vs0mg"},{"bike_id":"d750596a-6ac6-4755-84cc-45acd4464f3d","system_id":"levelo_inurba_marseille","lat":43.24397,"lon":5.37062,"is_reserved":false,"is_disabled":false,"rental_uris":{"android":"levelo://app?vid=d750596a-6ac6-4755-84cc-45acd4464f3d","ios":"levelo://app?vid=d750596a-6ac6-4755-84cc-45acd4464f3d"},"vehicle_type_id":"4","last_reported":1744834313,"current_range_meters":19200,"station_id":"ce4bhhh2rcd13ifvqfk0","pricing_plan_id":"cebpf4jnsgd1na2vs0mg"},{"bike_id":"7e503a1b-3682-4e82-a0d8-f00043fe70df","system_id":"levelo_inurba_marseille","lat":43.292652,"lon":5.384356,"is_reserved":false,"is_disabled":false,"rental_uris":{"android":"levelo://app?vid=7e503a1b-3682-4e82-a0d8-f00043fe70df","ios":"levelo://app?vid=7e503a1b-3682-4e82-a0d8-f00043fe70df"},"vehicle_type_id":"4","last_reported":1744834313,"current_range_meters":19200,"station_id":"ce4bh692rcd13ifvqea0","pricing_plan_id":"cebpf4jnsgd1na2vs0mg"},{"bike_id":"116f4404-8a06-4191-a52b-63148c33046d","system_id":"levelo_inurba_marseille","lat":43.28921,"lon":5.38399,"is_reserved":false,"is_disabled":false,"rental_uris":{"android":"levelo://app?vid=116f4404-8a06-4191-a52b-63148c33046d","ios":"levelo://app?vid=116f4404-8a06-4191-a52b-63148c33046d"},"vehicle_type_id":"4","last_reported":1744834313,"current_range_meters":19200,"station_id":"ce4bh612rcd13ifvqe6g","pricing_plan_id":"cebpf4jnsgd1na2vs0mg"},{"bike_id":"bbb1c662-cc65-4c72-8489-de78d2f0f12f","system_id":"levelo_inurba_marseille","lat":43.23066,"lon":5.35509,"is_reserved":false,"is_disabled":false,"rental_uris":{"android":"levelo://app?vid=bbb1c662-cc65-4c72-8489-de78d2f0f12f","ios":"levelo://app?vid=bbb1c662-cc65-4c72-8489-de78d2f0f12f"},"vehicle_type_id":"4","last_reported":1744834313,"current_range_meters":19200,"station_id":"cpo3342slgdg3j2ifvpg","pricing_plan_id":"cebpf4jnsgd1na2vs0mg"},{"bike_id":"7eb75223-2b76-4784-94d1-7fec59a270ee","system_id":"levelo_inurba_marseille","lat":43.28943,"lon":5.36641,"is_reserved":false,"is_disabled":false,"rental_uris":{"android":"levelo://app?vid=7eb75223-2b76-4784-94d1-7fec59a270ee","ios":"levelo://app?vid=7eb75223-2b76-4784-94d1-7fec59a270ee"},"vehicle_type_id":"4","last_reported":1744834313,"current_range_meters":19200,"station_id":"ce4bhap2rcd13ifvqek0","pricing_plan_id":"cebpf4jnsgd1na2vs0mg"},{"bike_id":"5c82e6c4-6934-43af-9ac1-e2c6f583135c","system_id":"levelo_inurba_marseille","lat":43.30925,"lon":5.40143,"is_reserved":false,"is_disabled":false,"rental_uris":{"android":"levelo://app?vid=5c82e6c4-6934-43af-9ac1-e2c6f583135c","ios":"levelo://app?vid=5c82e6c4-6934-43af-9ac1-e2c6f583135c"},"vehicle_type_id":"4","last_reported":1744834313,"current_range_meters":19200,"station_id":"ce4bgvp2rcd13ifvqct0","pricing_plan_id":"cebpf4jnsgd1na2vs0mg"},{"bike_id":"2d9b72bb-af7d-431d-9cde-4a3fe902ebe7","system_id":"levelo_inurba_marseille","lat":43.31179,"lon":5.3874,"is_reserved":false,"is_disabled":false,"rental_uris":{"android":"levelo://app?vid=2d9b72bb-af7d-431d-9cde-4a3fe902ebe7","ios":"levelo://app?vid=2d9b72bb-af7d-431d-9cde-4a3fe902ebe7"},"vehicle_type_id":"4","last_reported":1744834313,"current_range_meters":19200,"station_id":"ce4bgv12rcd13ifvqcp0","pricing_plan_id":"cebpf4jnsgd1na2vs0mg"},{"bike_id":"0620d2fb-fed7-4ee2-913e-6d03123ff78c","system_id":"levelo_inurba_marseille","lat":43.22928,"lon":5.35381,"is_reserved":false,"is_disabled":false,"rental_uris":{"android":"levelo://app?vid=0620d2fb-fed7-4ee2-913e-6d03123ff78c","ios":"levelo://app?vid=0620d2fb-fed7-4ee2-913e-6d03123ff78c"},"vehicle_type_id":"4","last_reported":1744834313,"current_range_meters":19200,"station_id":"cpo3532slgdg3j2ikp40","pricing_plan_id":"cebpf4jnsgd1na2vs0mg"},{"bike_id":"c31f8854-b880-4984-807c-ccbbefc82b0c","system_id":"levelo_inurba_marseille","lat":43.29528,"lon":5.38546,"is_reserved":false,"is_disabled":false,"rental_uris":{"android":"levelo://app?vid=c31f8854-b880-4984-807c-ccbbefc82b0c","ios":"levelo://app?vid=c31f8854-b880-4984-807c-ccbbefc82b0c"},"vehicle_type_id":"4","last_reported":1744834313,"current_range_meters":19200,"station_id":"ce4bgih2rcd13ifvqba0","pricing_plan_id":"cebpf4jnsgd1na2vs0mg"},{"bike_id":"81f312e2-c4ee-4946-83ff-6e5617cc7a3d","system_id":"levelo_inurba_marseille","lat":43.30303,"lon":5.40449,"is_reserved":false,"is_disabled":false,"rental_uris":{"android":"levelo://app?vid=81f312e2-c4ee-4946-83ff-6e5617cc7a3d","ios":"levelo://app?vid=81f312e2-c4ee-4946-83ff-6e5617cc7a3d"},"vehicle_type_id":"4","last_reported":1744834313,"current_range_meters":19200,"station_id":"ce4bh012rcd13ifvqd10","pricing_plan_id":"cebpf4jnsgd1na2vs0mg"},{"bike_id":"b7e9a836-791c-423b-aee4-7ed7e149e21c","system_id":"levelo_inurba_marseille","lat":43.25083,"lon":5.39516,"is_reserved":false,"is_disabled":false,"rental_uris":{"android":"levelo://app?vid=b7e9a836-791c-423b-aee4-7ed7e149e21c","ios":"levelo://app?vid=b7e9a836-791c-423b-aee4-7ed7e149e21c"},"vehicle_type_id":"4","last_reported":1744834313,"current_range_meters":19200,"station_id":"ce4bhm12rcd13ifvqgkg","pricing_plan_id":"cebpf4jnsgd1na2vs0mg"},{"bike_id":"91c0a4e2-7e64-469a-8159-16d7e181493d","system_id":"levelo_inurba_marseille","lat":43.26778,"lon":5.39416,"is_reserved":false,"is_disabled":false,"rental_uris":{"android":"levelo://app?vid=91c0a4e2-7e64-469a-8159-16d7e181493d","ios":"levelo://app?vid=91c0a4e2-7e64-469a-8159-16d7e181493d"},"vehicle_type_id":"4","last_reported":1744834313,"current_range_meters":19600,"station_id":"ce4bhh12rcd13ifvqfg0","pricing_plan_id":"cebpf4jnsgd1na2vs0mg"},{"bike_id":"08f4dcee-7656-4957-9022-f13783bb2667","system_id":"levelo_inurba_marseille","lat":43.29713,"lon":5.37251,"is_reserved":false,"is_disabled":false,"rental_uris":{"android":"levelo://app?vid=08f4dcee-7656-4957-9022-f13783bb2667","ios":"levelo://app?vid=08f4dcee-7656-4957-9022-f13783bb2667"},"vehicle_type_id":"4","last_reported":1744834313,"current_range_meters":19600,"station_id":"ce4bgk12rcd13ifvqbj0","pricing_plan_id":"cebpf4jnsgd1na2vs0mg"},{"bike_id":"a2293a89-b77e-47de-b9f1-d8ef3b797c96","system_id":"levelo_inurba_marseille","lat":43.307942,"lon":5.381752,"is_reserved":false,"is_disabled":false,"rental_uris":{"android":"levelo://app?vid=a2293a89-b77e-47de-b9f1-d8ef3b797c96","ios":"levelo://app?vid=a2293a89-b77e-47de-b9f1-d8ef3b797c96"},"vehicle_type_id":"4","last_reported":1744834313,"current_range_meters":19600,"station_id":"ce4bgt12rcd13ifvqce0","pricing_plan_id":"cebpf4jnsgd1na2vs0mg"},{"bike_id":"baf62230-701a-4b91-9d6d-cee598a3bca9","system_id":"levelo_inurba_marseille","lat":43.29409,"lon":5.38637,"is_reserved":false,"is_disabled":false,"rental_uris":{"android":"levelo://app?vid=baf62230-701a-4b91-9d6d-cee598a3bca9","ios":"levelo://app?vid=baf62230-701a-4b91-9d6d-cee598a3bca9"},"vehicle_type_id":"4","last_reported":1744834313,"current_range_meters":19600,"station_id":"ce4bh2h2rcd13ifvqdh0","pricing_plan_id":"cebpf4jnsgd1na2vs0mg"},{"bike_id":"1693d1d2-9c15-4566-9625-7d06b113d9f5","system_id":"levelo_inurba_marseille","lat":43.30431,"lon":5.38889,"is_reserved":false,"is_disabled":false,"rental_uris":{"android":"levelo://app?vid=1693d1d2-9c15-4566-9625-7d06b113d9f5","ios":"levelo://app?vid=1693d1d2-9c15-4566-9625-7d06b113d9f5"},"vehicle_type_id":"4","last_reported":1744834313,"current_range_meters":19600,"station_id":"ce4bgk12rcd13ifvqbi0","pricing_plan_id":"cebpf4jnsgd1na2vs0mg"},{"bike_id":"5e1950f1-3570-4e07-a7cc-3dbf8a21d845","system_id":"levelo_inurba_marseille","lat":43.281567,"lon":5.426357,"is_reserved":false,"is_disabled":false,"rental_uris":{"android":"levelo://app?vid=5e1950f1-3570-4e07-a7cc-3dbf8a21d845","ios":"levelo://app?vid=5e1950f1-3570-4e07-a7cc-3dbf8a21d845"},"vehicle_type_id":"4","last_reported":1744834313,"current_range_meters":19600,"station_id":"ce4bhnh2rcd13ifvqgug","pricing_plan_id":"cebpf4jnsgd1na2vs0mg"},{"bike_id":"ccb7a8e4-757c-4e6f-90e3-f97fac7da5b7","system_id":"levelo_inurba_marseille","lat":43.29243,"lon":5.38439,"is_reserved":false,"is_disabled":false,"rental_uris":{"android":"levelo://app?vid=ccb7a8e4-757c-4e6f-90e3-f97fac7da5b7","ios":"levelo://app?vid=ccb7a8e4-757c-4e6f-90e3-f97fac7da5b7"},"vehicle_type_id":"4","last_reported":1744834313,"current_range_meters":19600,"station_id":"ce4bh692rcd13ifvqea0","pricing_plan_id":"cebpf4jnsgd1na2vs0mg"},{"bike_id":"d39e5537-c00a-4bf8-9f22-53966b448679","system_id":"levelo_inurba_marseille","lat":43.295639,"lon":5.422764,"is_reserved":false,"is_disabled":false,"rental_uris":{"android":"levelo://app?vid=d39e5537-c00a-4bf8-9f22-53966b448679","ios":"levelo://app?vid=d39e5537-c00a-4bf8-9f22-53966b448679"},"vehicle_type_id":"4","last_reported":1744834313,"current_range_meters":20000,"station_id":"ce4bhph2rcd13ifvqhdg","pricing_plan_id":"cebpf4jnsgd1na2vs0mg"},{"bike_id":"2984cec8-23de-4a73-97a3-c0829eb8b5c7","system_id":"levelo_inurba_marseille","lat":43.27908,"lon":5.39592,"is_reserved":false,"is_disabled":false,"rental_uris":{"android":"levelo://app?vid=2984cec8-23de-4a73-97a3-c0829eb8b5c7","ios":"levelo://app?vid=2984cec8-23de-4a73-97a3-c0829eb8b5c7"},"vehicle_type_id":"4","last_reported":1744834313,"current_range_meters":20000,"station_id":"ce4bhf92rcd13ifvqf40","pricing_plan_id":"cebpf4jnsgd1na2vs0mg"},{"bike_id":"9dd6096c-d23f-4b31-98d9-74525e81e49c","system_id":"levelo_inurba_marseille","lat":43.286975,"lon":5.373895,"is_reserved":false,"is_disabled":false,"rental_uris":{"android":"levelo://app?vid=9dd6096c-d23f-4b31-98d9-74525e81e49c","ios":"levelo://app?vid=9dd6096c-d23f-4b31-98d9-74525e81e49c"},"vehicle_type_id":"4","last_reported":1744834313,"current_range_meters":20000,"station_id":"ce4bh3p2rcd13ifvqdq0","pricing_plan_id":"cebpf4jnsgd1na2vs0mg"},{"bike_id":"d539324f-6b6b-4525-b920-ac614066a0d9","system_id":"levelo_inurba_marseille","lat":43.3088,"lon":5.39643,"is_reserved":false,"is_disabled":false,"rental_uris":{"android":"levelo://app?vid=d539324f-6b6b-4525-b920-ac614066a0d9","ios":"levelo://app?vid=d539324f-6b6b-4525-b920-ac614066a0d9"},"vehicle_type_id":"4","last_reported":1744834313,"current_range_meters":22000,"station_id":"ce4bh012rcd13ifvqcv0","pricing_plan_id":"cebpf4jnsgd1na2vs0mg"},{"bike_id":"c785a930-e2fc-4a2c-95ab-2c04b1df45b5","system_id":"levelo_inurba_marseille","lat":43.29244,"lon":5.37612,"is_reserved":false,"is_disabled":false,"rental_uris":{"android":"levelo://app?vid=c785a930-e2fc-4a2c-95ab-2c04b1df45b5","ios":"levelo://app?vid=c785a930-e2fc-4a2c-95ab-2c04b1df45b5"},"vehicle_type_id":"4","last_reported":1744834313,"current_range_meters":20000,"station_id":"ce4bgi12rcd13ifvqb80","pricing_plan_id":"cebpf4jnsgd1na2vs0mg"},{"bike_id":"b557e27d-0f32-4a0a-b488-e6933e60a2bf","system_id":"levelo_inurba_marseille","lat":43.29831,"lon":5.3931,"is_reserved":false,"is_disabled":false,"rental_uris":{"android":"levelo://app?vid=b557e27d-0f32-4a0a-b488-e6933e60a2bf","ios":"levelo://app?vid=b557e27d-0f32-4a0a-b488-e6933e60a2bf"},"vehicle_type_id":"4","last_reported":1744834313,"current_range_meters":20000,"station_id":"chh1huq6cuj3fo74tm60","pricing_plan_id":"cebpf4jnsgd1na2vs0mg"},{"bike_id":"d4a81af1-8a84-4539-aa58-616bfb5c9f39","system_id":"levelo_inurba_marseille","lat":43.24808,"lon":5.37448,"is_reserved":false,"is_disabled":false,"rental_uris":{"android":"levelo://app?vid=d4a81af1-8a84-4539-aa58-616bfb5c9f39","ios":"levelo://app?vid=d4a81af1-8a84-4539-aa58-616bfb5c9f39"},"vehicle_type_id":"4","last_reported":1744834313,"current_range_meters":20400,"station_id":"ce4bhgh2rcd13ifvqfb0","pricing_plan_id":"cebpf4jnsgd1na2vs0mg"},{"bike_id":"708a2c46-009d-44c0-8363-20ad3b399370","system_id":"levelo_inurba_marseille","lat":43.29425,"lon":5.38633,"is_reserved":false,"is_disabled":false,"rental_uris":{"android":"levelo://app?vid=708a2c46-009d-44c0-8363-20ad3b399370","ios":"levelo://app?vid=708a2c46-009d-44c0-8363-20ad3b399370"},"vehicle_type_id":"4","last_reported":1744834313,"current_range_meters":20400,"station_id":"ce4bh2h2rcd13ifvqdh0","pricing_plan_id":"cebpf4jnsgd1na2vs0mg"},{"bike_id":"faf5c40b-cb86-4abc-bbfd-f7e06c94b343","system_id":"levelo_inurba_marseille","lat":43.29966,"lon":5.37176,"is_reserved":false,"is_disabled":false,"rental_uris":{"android":"levelo://app?vid=faf5c40b-cb86-4abc-bbfd-f7e06c94b343","ios":"levelo://app?vid=faf5c40b-cb86-4abc-bbfd-f7e06c94b343"},"vehicle_type_id":"4","last_reported":1744834313,"current_range_meters":20400,"station_id":"ce4bgr92rcd13ifvqc7g","pricing_plan_id":"cebpf4jnsgd1na2vs0mg"},{"bike_id":"41fb0398-f2fe-4abb-ae37-a38f47615ea9","system_id":"levelo_inurba_marseille","lat":43.323524,"lon":5.367633,"is_reserved":false,"is_disabled":false,"rental_uris":{"android":"levelo://app?vid=41fb0398-f2fe-4abb-ae37-a38f47615ea9","ios":"levelo://app?vid=41fb0398-f2fe-4abb-ae37-a38f47615ea9"},"vehicle_type_id":"4","last_reported":1744834313,"current_range_meters":20400,"station_id":"ce4bhsh2rcd13ifvqi2g","pricing_plan_id":"cebpf4jnsgd1na2vs0mg"},{"bike_id":"c469ad3f-77ba-4f88-848e-bf9de29c8a72","system_id":"levelo_inurba_marseille","lat":43.29028,"lon":5.37612,"is_reserved":false,"is_disabled":false,"rental_uris":{"android":"levelo://app?vid=c469ad3f-77ba-4f88-848e-bf9de29c8a72","ios":"levelo://app?vid=c469ad3f-77ba-4f88-848e-bf9de29c8a72"},"vehicle_type_id":"4","last_reported":1744834313,"current_range_meters":20400,"station_id":"ce4bh692rcd13ifvqe90","pricing_plan_id":"cebpf4jnsgd1na2vs0mg"},{"bike_id":"66ce8ff9-c56c-4276-ac0c-522060b578fb","system_id":"levelo_inurba_marseille","lat":43.29595,"lon":5.38097,"is_reserved":false,"is_disabled":false,"rental_uris":{"android":"levelo://app?vid=66ce8ff9-c56c-4276-ac0c-522060b578fb","ios":"levelo://app?vid=66ce8ff9-c56c-4276-ac0c-522060b578fb"},"vehicle_type_id":"4","last_reported":1744834313,"current_range_meters":20400,"station_id":"ce4bgl12rcd13ifvqbo0","pricing_plan_id":"cebpf4jnsgd1na2vs0mg"},{"bike_id":"04fb422e-0aec-4205-8e11-f392462c55c3","system_id":"levelo_inurba_marseille","lat":43.26796,"lon":5.40269,"is_reserved":false,"is_disabled":false,"rental_uris":{"android":"levelo://app?vid=04fb422e-0aec-4205-8e11-f392462c55c3","ios":"levelo://app?vid=04fb422e-0aec-4205-8e11-f392462c55c3"},"vehicle_type_id":"4","last_reported":1744834313,"current_range_meters":20400,"station_id":"ce501612rcd8frsf0b60","pricing_plan_id":"cebpf4jnsgd1na2vs0mg"},{"bike_id":"31281794-86da-43f1-be4d-cec41a15e4cd","system_id":"levelo_inurba_marseille","lat":43.28098,"lon":5.378433,"is_reserved":false,"is_disabled":false,"rental_uris":{"android":"levelo://app?vid=31281794-86da-43f1-be4d-cec41a15e4cd","ios":"levelo://app?vid=31281794-86da-43f1-be4d-cec41a15e4cd"},"vehicle_type_id":"4","last_reported":1744834313,"current_range_meters":20400,"station_id":"ce4bha12rcd13ifvqee0","pricing_plan_id":"cebpf4jnsgd1na2vs0mg"},{"bike_id":"12cb0ff0-2020-4fed-b42c-32a3f18b0d0a","system_id":"levelo_inurba_marseille","lat":43.26203,"lon":5.37448,"is_reserved":false,"is_disabled":false,"rental_uris":{"android":"levelo://app?vid=12cb0ff0-2020-4fed-b42c-32a3f18b0d0a","ios":"levelo://app?vid=12cb0ff0-2020-4fed-b42c-32a3f18b0d0a"},"vehicle_type_id":"4","last_reported":1744834313,"current_range_meters":20800,"station_id":"ce4bhgp2rcd13ifvqfc0","pricing_plan_id":"cebpf4jnsgd1na2vs0mg"},{"bike_id":"cacad557-44dd-45fd-bf40-ccf696351134","system_id":"levelo_inurba_marseille","lat":43.29251,"lon":5.38438,"is_reserved":false,"is_disabled":false,"rental_uris":{"android":"levelo://app?vid=cacad557-44dd-45fd-bf40-ccf696351134","ios":"levelo://app?vid=cacad557-44dd-45fd-bf40-ccf696351134"},"vehicle_type_id":"4","last_reported":1744834313,"current_range_meters":20800,"station_id":"ce4bh692rcd13ifvqea0","pricing_plan_id":"cebpf4jnsgd1na2vs0mg"},{"bike_id":"03294062-e808-4297-860e-ee9523050721","system_id":"levelo_inurba_marseille","lat":43.304509,"lon":5.3934,"is_reserved":false,"is_disabled":false,"rental_uris":{"android":"levelo://app?vid=03294062-e808-4297-860e-ee9523050721","ios":"levelo://app?vid=03294062-e808-4297-860e-ee9523050721"},"vehicle_type_id":"4","last_reported":1744834313,"current_range_meters":20800,"station_id":"ce4bgup2rcd13ifvqco0","pricing_plan_id":"cebpf4jnsgd1na2vs0mg"},{"bike_id":"8fd2cdd0-07d7-4c01-add2-10309aca4136","system_id":"levelo_inurba_marseille","lat":43.267169,"lon":5.394645,"is_reserved":false,"is_disabled":true,"rental_uris":{"android":"levelo://app?vid=8fd2cdd0-07d7-4c01-add2-10309aca4136","ios":"levelo://app?vid=8fd2cdd0-07d7-4c01-add2-10309aca4136"},"vehicle_type_id":"4","last_reported":1744834313,"current_range_meters":20800,"station_id":"","pricing_plan_id":"cebpf4jnsgd1na2vs0mg"},{"bike_id":"4fde3710-8a47-481a-b7b8-b011705668f2","system_id":"levelo_inurba_marseille","lat":43.28703,"lon":5.37952,"is_reserved":false,"is_disabled":false,"rental_uris":{"android":"levelo://app?vid=4fde3710-8a47-481a-b7b8-b011705668f2","ios":"levelo://app?vid=4fde3710-8a47-481a-b7b8-b011705668f2"},"vehicle_type_id":"4","last_reported":1744834313,"current_range_meters":20800,"station_id":"ce4bh9p2rcd13ifvqec0","pricing_plan_id":"cebpf4jnsgd1na2vs0mg"},{"bike_id":"4d400f6e-54e1-48cd-9e23-1861b6f8b3bc","system_id":"levelo_inurba_marseille","lat":43.29373,"lon":5.37511,"is_reserved":false,"is_disabled":false,"rental_uris":{"android":"levelo://app?vid=4d400f6e-54e1-48cd-9e23-1861b6f8b3bc","ios":"levelo://app?vid=4d400f6e-54e1-48cd-9e23-1861b6f8b3bc"},"vehicle_type_id":"4","last_reported":1744834313,"current_range_meters":21600,"station_id":"","pricing_plan_id":"cebpf4jnsgd1na2vs0mg"},{"bike_id":"53ba9d49-368b-42e2-ba98-f7b4852ef042","system_id":"levelo_inurba_marseille","lat":43.292755,"lon":5.368354,"is_reserved":false,"is_disabled":false,"rental_uris":{"android":"levelo://app?vid=53ba9d49-368b-42e2-ba98-f7b4852ef042","ios":"levelo://app?vid=53ba9d49-368b-42e2-ba98-f7b4852ef042"},"vehicle_type_id":"4","last_reported":1744834313,"current_range_meters":21600,"station_id":"","pricing_plan_id":"cebpf4jnsgd1na2vs0mg"},{"bike_id":"8934c9ff-b955-4903-b5d2-c595dc711b7c","system_id":"levelo_inurba_marseille","lat":43.29548,"lon":5.39969,"is_reserved":false,"is_disabled":true,"rental_uris":{"android":"levelo://app?vid=8934c9ff-b955-4903-b5d2-c595dc711b7c","ios":"levelo://app?vid=8934c9ff-b955-4903-b5d2-c595dc711b7c"},"vehicle_type_id":"4","last_reported":1744834313,"current_range_meters":21600,"station_id":"ce4bh312rcd13ifvqdj0","pricing_plan_id":"cebpf4jnsgd1na2vs0mg"},{"bike_id":"935d17b3-9c9b-444a-9545-20f784e1180f","system_id":"levelo_inurba_marseille","lat":43.29967,"lon":5.385,"is_reserved":false,"is_disabled":false,"rental_uris":{"android":"levelo://app?vid=935d17b3-9c9b-444a-9545-20f784e1180f","ios":"levelo://app?vid=935d17b3-9c9b-444a-9545-20f784e1180f"},"vehicle_type_id":"4","last_reported":1744834313,"current_range_meters":21600,"station_id":"ce4bgj92rcd13ifvqbd0","pricing_plan_id":"cebpf4jnsgd1na2vs0mg"},{"bike_id":"76ec619c-7e0f-4ade-9bf6-e8819bbec282","system_id":"levelo_inurba_marseille","lat":43.28573,"lon":5.39494,"is_reserved":false,"is_disabled":false,"rental_uris":{"android":"levelo://app?vid=76ec619c-7e0f-4ade-9bf6-e8819bbec282","ios":"levelo://app?vid=76ec619c-7e0f-4ade-9bf6-e8819bbec282"},"vehicle_type_id":"4","last_reported":1744834313,"current_range_meters":21600,"station_id":"ce4bh292rcd13ifvqdg0","pricing_plan_id":"cebpf4jnsgd1na2vs0mg"},{"bike_id":"ae0fec76-2cd5-4cb7-8294-763ccb7ba449","system_id":"levelo_inurba_marseille","lat":43.27689,"lon":5.38877,"is_reserved":false,"is_disabled":false,"rental_uris":{"android":"levelo://app?vid=ae0fec76-2cd5-4cb7-8294-763ccb7ba449","ios":"levelo://app?vid=ae0fec76-2cd5-4cb7-8294-763ccb7ba449"},"vehicle_type_id":"4","last_reported":1744834313,"current_range_meters":21600,"station_id":"ce4bhi12rcd13ifvqfo0","pricing_plan_id":"cebpf4jnsgd1na2vs0mg"},{"bike_id":"9b32d9b0-b425-4d34-812f-0c610ee31565","system_id":"levelo_inurba_marseille","lat":43.30194,"lon":5.39474,"is_reserved":false,"is_disabled":true,"rental_uris":{"android":"levelo://app?vid=9b32d9b0-b425-4d34-812f-0c610ee31565","ios":"levelo://app?vid=9b32d9b0-b425-4d34-812f-0c610ee31565"},"vehicle_type_id":"4","last_reported":1744834313,"current_range_meters":22000,"station_id":"ce4bh0p2rcd13ifvqd70","pricing_plan_id":"cebpf4jnsgd1na2vs0mg"},{"bike_id":"4a5a54e6-a114-4dd0-a638-4c5add72693b","system_id":"levelo_inurba_marseille","lat":43.26195,"lon":5.37929,"is_reserved":false,"is_disabled":false,"rental_uris":{"android":"levelo://app?vid=4a5a54e6-a114-4dd0-a638-4c5add72693b","ios":"levelo://app?vid=4a5a54e6-a114-4dd0-a638-4c5add72693b"},"vehicle_type_id":"4","last_reported":1744834313,"current_range_meters":22000,"station_id":"ce4bhjp2rcd13ifvqg90","pricing_plan_id":"cebpf4jnsgd1na2vs0mg"},{"bike_id":"6f17e936-7257-40e5-9096-1f1f192ee3d9","system_id":"levelo_inurba_marseille","lat":43.28538,"lon":5.39484,"is_reserved":false,"is_disabled":false,"rental_uris":{"android":"levelo://app?vid=6f17e936-7257-40e5-9096-1f1f192ee3d9","ios":"levelo://app?vid=6f17e936-7257-40e5-9096-1f1f192ee3d9"},"vehicle_type_id":"4","last_reported":1744834313,"current_range_meters":22000,"station_id":"ce4bh292rcd13ifvqdg0","pricing_plan_id":"cebpf4jnsgd1na2vs0mg"},{"bike_id":"b0b21eda-28c9-44b9-9cd1-635197a25de4","system_id":"levelo_inurba_marseille","lat":43.2873,"lon":5.35883,"is_reserved":false,"is_disabled":false,"rental_uris":{"android":"levelo://app?vid=b0b21eda-28c9-44b9-9cd1-635197a25de4","ios":"levelo://app?vid=b0b21eda-28c9-44b9-9cd1-635197a25de4"},"vehicle_type_id":"4","last_reported":1744834313,"current_range_meters":22000,"station_id":"ce4bhb12rcd13ifvqem0","pricing_plan_id":"cebpf4jnsgd1na2vs0mg"},{"bike_id":"e099c654-d084-4382-865d-7f6786cd76e7","system_id":"levelo_inurba_marseille","lat":43.29565,"lon":5.39986,"is_reserved":false,"is_disabled":false,"rental_uris":{"android":"levelo://app?vid=e099c654-d084-4382-865d-7f6786cd76e7","ios":"levelo://app?vid=e099c654-d084-4382-865d-7f6786cd76e7"},"vehicle_type_id":"4","last_reported":1744834313,"current_range_meters":22000,"station_id":"ce4bh312rcd13ifvqdj0","pricing_plan_id":"cebpf4jnsgd1na2vs0mg"},{"bike_id":"fd6bc4e8-b29f-42f3-91cd-67a1d91128b7","system_id":"levelo_inurba_marseille","lat":43.292855,"lon":5.374175,"is_reserved":false,"is_disabled":false,"rental_uris":{"android":"levelo://app?vid=fd6bc4e8-b29f-42f3-91cd-67a1d91128b7","ios":"levelo://app?vid=fd6bc4e8-b29f-42f3-91cd-67a1d91128b7"},"vehicle_type_id":"4","last_reported":1744834313,"current_range_meters":22000,"station_id":"","pricing_plan_id":"cebpf4jnsgd1na2vs0mg"},{"bike_id":"421b8527-ab9a-4d48-8e78-647564edc005","system_id":"levelo_inurba_marseille","lat":43.28342,"lon":5.38113,"is_reserved":false,"is_disabled":false,"rental_uris":{"android":"levelo://app?vid=421b8527-ab9a-4d48-8e78-647564edc005","ios":"levelo://app?vid=421b8527-ab9a-4d48-8e78-647564edc005"},"vehicle_type_id":"4","last_reported":1744834313,"current_range_meters":22000,"station_id":"ce4bh412rcd13ifvqdr0","pricing_plan_id":"cebpf4jnsgd1na2vs0mg"},{"bike_id":"f8eab87b-fcc8-4416-ad99-ad1cec51ebe0","system_id":"levelo_inurba_marseille","lat":43.274974,"lon":5.395646,"is_reserved":false,"is_disabled":false,"rental_uris":{"android":"levelo://app?vid=f8eab87b-fcc8-4416-ad99-ad1cec51ebe0","ios":"levelo://app?vid=f8eab87b-fcc8-4416-ad99-ad1cec51ebe0"},"vehicle_type_id":"4","last_reported":1744834313,"current_range_meters":22400,"station_id":"ce4bhl12rcd13ifvqgf0","pricing_plan_id":"cebpf4jnsgd1na2vs0mg"},{"bike_id":"cc3f3f66-6b8d-4f9f-a735-bb0a53b5a2f5","system_id":"levelo_inurba_marseille","lat":43.2979,"lon":5.39354,"is_reserved":false,"is_disabled":false,"rental_uris":{"android":"levelo://app?vid=cc3f3f66-6b8d-4f9f-a735-bb0a53b5a2f5","ios":"levelo://app?vid=cc3f3f66-6b8d-4f9f-a735-bb0a53b5a2f5"},"vehicle_type_id":"4","last_reported":1744834313,"current_range_meters":22400,"station_id":"chh1huq6cuj3fo74tm60","pricing_plan_id":"cebpf4jnsgd1na2vs0mg"},{"bike_id":"bf719354-3a0f-4a08-a3dc-ea01891f96a8","system_id":"levelo_inurba_marseille","lat":43.29229,"lon":5.38435,"is_reserved":false,"is_disabled":true,"rental_uris":{"android":"levelo://app?vid=bf719354-3a0f-4a08-a3dc-ea01891f96a8","ios":"levelo://app?vid=bf719354-3a0f-4a08-a3dc-ea01891f96a8"},"vehicle_type_id":"4","last_reported":1744834313,"current_range_meters":22400,"station_id":"ce4bh692rcd13ifvqea0","pricing_plan_id":"cebpf4jnsgd1na2vs0mg"},{"bike_id":"7eb8853e-3665-40f5-8308-1299f0674652","system_id":"levelo_inurba_marseille","lat":43.30373,"lon":5.42483,"is_reserved":false,"is_disabled":false,"rental_uris":{"android":"levelo://app?vid=7eb8853e-3665-40f5-8308-1299f0674652","ios":"levelo://app?vid=7eb8853e-3665-40f5-8308-1299f0674652"},"vehicle_type_id":"4","last_reported":1744834313,"current_range_meters":22400,"station_id":"ce4bhoh2rcd13ifvqh6g","pricing_plan_id":"cebpf4jnsgd1na2vs0mg"},{"bike_id":"f666d0ab-23d1-4a22-8af2-3e01078165a1","system_id":"levelo_inurba_marseille","lat":43.29259,"lon":5.38435,"is_reserved":false,"is_disabled":false,"rental_uris":{"android":"levelo://app?vid=f666d0ab-23d1-4a22-8af2-3e01078165a1","ios":"levelo://app?vid=f666d0ab-23d1-4a22-8af2-3e01078165a1"},"vehicle_type_id":"4","last_reported":1744834313,"current_range_meters":22400,"station_id":"ce4bh692rcd13ifvqea0","pricing_plan_id":"cebpf4jnsgd1na2vs0mg"},{"bike_id":"75d3ed4d-1547-4484-ac6a-60ea338e22db","system_id":"levelo_inurba_marseille","lat":43.33609,"lon":5.41036,"is_reserved":false,"is_disabled":false,"rental_uris":{"android":"levelo://app?vid=75d3ed4d-1547-4484-ac6a-60ea338e22db","ios":"levelo://app?vid=75d3ed4d-1547-4484-ac6a-60ea338e22db"},"vehicle_type_id":"4","last_reported":1744834313,"current_range_meters":22800,"station_id":"ce4bhqh2rcd13ifvqhmg","pricing_plan_id":"cebpf4jnsgd1na2vs0mg"},{"bike_id":"345f3b88-e34e-4d48-9f0c-6592661ae354","system_id":"levelo_inurba_marseille","lat":43.27963,"lon":5.41034,"is_reserved":false,"is_disabled":false,"rental_uris":{"android":"levelo://app?vid=345f3b88-e34e-4d48-9f0c-6592661ae354","ios":"levelo://app?vid=345f3b88-e34e-4d48-9f0c-6592661ae354"},"vehicle_type_id":"4","last_reported":1744834313,"current_range_meters":22800,"station_id":"ce4bhnp2rcd13ifvqh0g","pricing_plan_id":"cebpf4jnsgd1na2vs0mg"},{"bike_id":"789c3822-56ca-4769-bcd4-8845bdea2fda","system_id":"levelo_inurba_marseille","lat":43.24164,"lon":5.36389,"is_reserved":false,"is_disabled":false,"rental_uris":{"android":"levelo://app?vid=789c3822-56ca-4769-bcd4-8845bdea2fda","ios":"levelo://app?vid=789c3822-56ca-4769-bcd4-8845bdea2fda"},"vehicle_type_id":"4","last_reported":1744834313,"current_range_meters":22800,"station_id":"cpo36qri1sfpv3e86is0","pricing_plan_id":"cebpf4jnsgd1na2vs0mg"},{"bike_id":"7ed91d22-3d5b-4254-83bf-64eb2a7d5481","system_id":"levelo_inurba_marseille","lat":43.22501,"lon":5.34777,"is_reserved":false,"is_disabled":false,"rental_uris":{"android":"levelo://app?vid=7ed91d22-3d5b-4254-83bf-64eb2a7d5481","ios":"levelo://app?vid=7ed91d22-3d5b-4254-83bf-64eb2a7d5481"},"vehicle_type_id":"4","last_reported":1744834313,"current_range_meters":22800,"station_id":"","pricing_plan_id":"cebpf4jnsgd1na2vs0mg"},{"bike_id":"c9288a2f-8f21-4bc2-a4ca-a43481e439bc","system_id":"levelo_inurba_marseille","lat":43.28626,"lon":5.35094,"is_reserved":false,"is_disabled":false,"rental_uris":{"android":"levelo://app?vid=c9288a2f-8f21-4bc2-a4ca-a43481e439bc","ios":"levelo://app?vid=c9288a2f-8f21-4bc2-a4ca-a43481e439bc"},"vehicle_type_id":"4","last_reported":1744834313,"current_range_meters":22800,"station_id":"ce4bhch2rcd13ifvqeug","pricing_plan_id":"cebpf4jnsgd1na2vs0mg"},{"bike_id":"ad15f00b-a807-4908-ac98-bb90e71268db","system_id":"levelo_inurba_marseille","lat":43.29273,"lon":5.38422,"is_reserved":false,"is_disabled":false,"rental_uris":{"android":"levelo://app?vid=ad15f00b-a807-4908-ac98-bb90e71268db","ios":"levelo://app?vid=ad15f00b-a807-4908-ac98-bb90e71268db"},"vehicle_type_id":"4","last_reported":1744834313,"current_range_meters":22800,"station_id":"ce4bh692rcd13ifvqea0","pricing_plan_id":"cebpf4jnsgd1na2vs0mg"},{"bike_id":"308dcaff-14af-41d8-9883-ed0a5812b28b","system_id":"levelo_inurba_marseille","lat":43.31264,"lon":5.40171,"is_reserved":false,"is_disabled":false,"rental_uris":{"android":"levelo://app?vid=308dcaff-14af-41d8-9883-ed0a5812b28b","ios":"levelo://app?vid=308dcaff-14af-41d8-9883-ed0a5812b28b"},"vehicle_type_id":"4","last_reported":1744834313,"current_range_meters":22800,"station_id":"ce4bh092rcd13ifvqd30","pricing_plan_id":"cebpf4jnsgd1na2vs0mg"},{"bike_id":"c72dc39e-8f1f-4b48-9b63-a919d99fd110","system_id":"levelo_inurba_marseille","lat":43.291995,"lon":5.3932,"is_reserved":false,"is_disabled":false,"rental_uris":{"android":"levelo://app?vid=c72dc39e-8f1f-4b48-9b63-a919d99fd110","ios":"levelo://app?vid=c72dc39e-8f1f-4b48-9b63-a919d99fd110"},"vehicle_type_id":"4","last_reported":1744834313,"current_range_meters":22800,"station_id":"ce4bh192rcd13ifvqdd0","pricing_plan_id":"cebpf4jnsgd1na2vs0mg"},{"bike_id":"33efbe4e-e642-4271-be29-4926b421ca5b","system_id":"levelo_inurba_marseille","lat":43.24143,"lon":5.36385,"is_reserved":false,"is_disabled":false,"rental_uris":{"android":"levelo://app?vid=33efbe4e-e642-4271-be29-4926b421ca5b","ios":"levelo://app?vid=33efbe4e-e642-4271-be29-4926b421ca5b"},"vehicle_type_id":"4","last_reported":1744834313,"current_range_meters":22800,"station_id":"cpo36qri1sfpv3e86is0","pricing_plan_id":"cebpf4jnsgd1na2vs0mg"},{"bike_id":"5e6be620-a3d0-49c3-9ff0-b85332cde817","system_id":"levelo_inurba_marseille","lat":43.23205,"lon":5.35549,"is_reserved":false,"is_disabled":false,"rental_uris":{"android":"levelo://app?vid=5e6be620-a3d0-49c3-9ff0-b85332cde817","ios":"levelo://app?vid=5e6be620-a3d0-49c3-9ff0-b85332cde817"},"vehicle_type_id":"4","last_reported":1744834313,"current_range_meters":22800,"station_id":"ce4bhu92rcd13ifvqi70","pricing_plan_id":"cebpf4jnsgd1na2vs0mg"},{"bike_id":"21f826db-5070-49f5-892f-84f485b6e13f","system_id":"levelo_inurba_marseille","lat":43.30604,"lon":5.39341,"is_reserved":false,"is_disabled":false,"rental_uris":{"android":"levelo://app?vid=21f826db-5070-49f5-892f-84f485b6e13f","ios":"levelo://app?vid=21f826db-5070-49f5-892f-84f485b6e13f"},"vehicle_type_id":"4","last_reported":1744834313,"current_range_meters":22800,"station_id":"ce4bh0p2rcd13ifvqd80","pricing_plan_id":"cebpf4jnsgd1na2vs0mg"},{"bike_id":"cc250298-de78-48ca-910c-a354646c94bb","system_id":"levelo_inurba_marseille","lat":43.3197,"lon":5.3815,"is_reserved":false,"is_disabled":false,"rental_uris":{"android":"levelo://app?vid=cc250298-de78-48ca-910c-a354646c94bb","ios":"levelo://app?vid=cc250298-de78-48ca-910c-a354646c94bb"},"vehicle_type_id":"4","last_reported":1744834313,"current_range_meters":22800,"station_id":"ce4bhr12rcd13ifvqhpg","pricing_plan_id":"cebpf4jnsgd1na2vs0mg"},{"bike_id":"2a3df68e-728a-4b9c-bbc2-4259a4448e26","system_id":"levelo_inurba_marseille","lat":43.279906,"lon":5.400129,"is_reserved":false,"is_disabled":false,"rental_uris":{"android":"levelo://app?vid=2a3df68e-728a-4b9c-bbc2-4259a4448e26","ios":"levelo://app?vid=2a3df68e-728a-4b9c-bbc2-4259a4448e26"},"vehicle_type_id":"4","last_reported":1744834313,"current_range_meters":23200,"station_id":"ce4bho92rcd13ifvqh4g","pricing_plan_id":"cebpf4jnsgd1na2vs0mg"},{"bike_id":"2907e685-39d9-4a76-a0e8-44bad68db30f","system_id":"levelo_inurba_marseille","lat":43.27568,"lon":5.3842,"is_reserved":false,"is_disabled":false,"rental_uris":{"android":"levelo://app?vid=2907e685-39d9-4a76-a0e8-44bad68db30f","ios":"levelo://app?vid=2907e685-39d9-4a76-a0e8-44bad68db30f"},"vehicle_type_id":"4","last_reported":1744834313,"current_range_meters":23200,"station_id":"ce4bhh92rcd13ifvqfi0","pricing_plan_id":"cebpf4jnsgd1na2vs0mg"},{"bike_id":"ce91a124-09ea-4ce6-b45e-165b6a5bcd52","system_id":"levelo_inurba_marseille","lat":43.2902,"lon":5.38141,"is_reserved":false,"is_disabled":true,"rental_uris":{"android":"levelo://app?vid=ce91a124-09ea-4ce6-b45e-165b6a5bcd52","ios":"levelo://app?vid=ce91a124-09ea-4ce6-b45e-165b6a5bcd52"},"vehicle_type_id":"4","last_reported":1744834313,"current_range_meters":23200,"station_id":"ce4bh4p2rcd13ifvqe1g","pricing_plan_id":"cebpf4jnsgd1na2vs0mg"},{"bike_id":"3905f1de-5518-4729-9672-5d6578f0d585","system_id":"levelo_inurba_marseille","lat":43.29035,"lon":5.38645,"is_reserved":false,"is_disabled":false,"rental_uris":{"android":"levelo://app?vid=3905f1de-5518-4729-9672-5d6578f0d585","ios":"levelo://app?vid=3905f1de-5518-4729-9672-5d6578f0d585"},"vehicle_type_id":"4","last_reported":1744834313,"current_range_meters":20000,"station_id":"ce4bh4p2rcd13ifvqe0g","pricing_plan_id":"cebpf4jnsgd1na2vs0mg"},{"bike_id":"d834506c-2bfe-4d1d-a40e-cf1f99ae0088","system_id":"levelo_inurba_marseille","lat":43.297853,"lon":5.393477,"is_reserved":false,"is_disabled":false,"rental_uris":{"android":"levelo://app?vid=d834506c-2bfe-4d1d-a40e-cf1f99ae0088","ios":"levelo://app?vid=d834506c-2bfe-4d1d-a40e-cf1f99ae0088"},"vehicle_type_id":"4","last_reported":1744834313,"current_range_meters":24000,"station_id":"chh1huq6cuj3fo74tm60","pricing_plan_id":"cebpf4jnsgd1na2vs0mg"},{"bike_id":"68342d9f-f0b6-47e7-b690-b27078e67a77","system_id":"levelo_inurba_marseille","lat":43.24163,"lon":5.364143,"is_reserved":false,"is_disabled":false,"rental_uris":{"android":"levelo://app?vid=68342d9f-f0b6-47e7-b690-b27078e67a77","ios":"levelo://app?vid=68342d9f-f0b6-47e7-b690-b27078e67a77"},"vehicle_type_id":"4","last_reported":1744834313,"current_range_meters":24000,"station_id":"cpo36qri1sfpv3e86is0","pricing_plan_id":"cebpf4jnsgd1na2vs0mg"},{"bike_id":"ec5c28e1-de55-4508-b9d5-2107688d9327","system_id":"levelo_inurba_marseille","lat":43.30589,"lon":5.39327,"is_reserved":false,"is_disabled":false,"rental_uris":{"android":"levelo://app?vid=ec5c28e1-de55-4508-b9d5-2107688d9327","ios":"levelo://app?vid=ec5c28e1-de55-4508-b9d5-2107688d9327"},"vehicle_type_id":"4","last_reported":1744834313,"current_range_meters":24000,"station_id":"ce4bh0p2rcd13ifvqd80","pricing_plan_id":"cebpf4jnsgd1na2vs0mg"},{"bike_id":"46f8084c-0310-4ee6-962b-e29fd7f802e8","system_id":"levelo_inurba_marseille","lat":43.28715,"lon":5.3795,"is_reserved":false,"is_disabled":false,"rental_uris":{"android":"levelo://app?vid=46f8084c-0310-4ee6-962b-e29fd7f802e8","ios":"levelo://app?vid=46f8084c-0310-4ee6-962b-e29fd7f802e8"},"vehicle_type_id":"4","last_reported":1744834313,"current_range_meters":24000,"station_id":"ce4bh9p2rcd13ifvqec0","pricing_plan_id":"cebpf4jnsgd1na2vs0mg"},{"bike_id":"61aff4c2-8d1f-4f0d-8e88-8e0c68a9ac57","system_id":"levelo_inurba_marseille","lat":43.29205,"lon":5.39344,"is_reserved":false,"is_disabled":false,"rental_uris":{"android":"levelo://app?vid=61aff4c2-8d1f-4f0d-8e88-8e0c68a9ac57","ios":"levelo://app?vid=61aff4c2-8d1f-4f0d-8e88-8e0c68a9ac57"},"vehicle_type_id":"4","last_reported":1744834313,"current_range_meters":24000,"station_id":"ce4bh192rcd13ifvqdd0","pricing_plan_id":"cebpf4jnsgd1na2vs0mg"},{"bike_id":"0383e9c9-cac8-41ef-b9c7-c9bb87aee93f","system_id":"levelo_inurba_marseille","lat":43.26803,"lon":5.40271,"is_reserved":false,"is_disabled":false,"rental_uris":{"android":"levelo://app?vid=0383e9c9-cac8-41ef-b9c7-c9bb87aee93f","ios":"levelo://app?vid=0383e9c9-cac8-41ef-b9c7-c9bb87aee93f"},"vehicle_type_id":"4","last_reported":1744834313,"current_range_meters":24000,"station_id":"ce501612rcd8frsf0b60","pricing_plan_id":"cebpf4jnsgd1na2vs0mg"},{"bike_id":"3ce8605f-a050-4179-897c-61a30a70bc43","system_id":"levelo_inurba_marseille","lat":43.29598,"lon":5.38098,"is_reserved":false,"is_disabled":false,"rental_uris":{"android":"levelo://app?vid=3ce8605f-a050-4179-897c-61a30a70bc43","ios":"levelo://app?vid=3ce8605f-a050-4179-897c-61a30a70bc43"},"vehicle_type_id":"4","last_reported":1744834313,"current_range_meters":24000,"station_id":"ce4bgl12rcd13ifvqbo0","pricing_plan_id":"cebpf4jnsgd1na2vs0mg"},{"bike_id":"660631fc-51be-4aa7-bb7f-ab6c028609a6","system_id":"levelo_inurba_marseille","lat":43.2816,"lon":5.42639,"is_reserved":false,"is_disabled":false,"rental_uris":{"android":"levelo://app?vid=660631fc-51be-4aa7-bb7f-ab6c028609a6","ios":"levelo://app?vid=660631fc-51be-4aa7-bb7f-ab6c028609a6"},"vehicle_type_id":"4","last_reported":1744834313,"current_range_meters":24000,"station_id":"ce4bhnh2rcd13ifvqgug","pricing_plan_id":"cebpf4jnsgd1na2vs0mg"},{"bike_id":"88bfa4d6-b033-456c-a8d9-b51526e39406","system_id":"levelo_inurba_marseille","lat":43.29895,"lon":5.4365,"is_reserved":false,"is_disabled":false,"rental_uris":{"android":"levelo://app?vid=88bfa4d6-b033-456c-a8d9-b51526e39406","ios":"levelo://app?vid=88bfa4d6-b033-456c-a8d9-b51526e39406"},"vehicle_type_id":"4","last_reported":1744834313,"current_range_meters":24000,"station_id":"ce4bhpp2rcd13ifvqhfg","pricing_plan_id":"cebpf4jnsgd1na2vs0mg"},{"bike_id":"873bcab6-b973-48ed-b129-34762c209441","system_id":"levelo_inurba_marseille","lat":43.31482,"lon":5.37272,"is_reserved":false,"is_disabled":false,"rental_uris":{"android":"levelo://app?vid=873bcab6-b973-48ed-b129-34762c209441","ios":"levelo://app?vid=873bcab6-b973-48ed-b129-34762c209441"},"vehicle_type_id":"4","last_reported":1744834313,"current_range_meters":24000,"station_id":"ce4bgt12rcd13ifvqcd0","pricing_plan_id":"cebpf4jnsgd1na2vs0mg"},{"bike_id":"df314f66-8a21-4527-8cbe-6110dd841a6b","system_id":"levelo_inurba_marseille","lat":43.29981,"lon":5.38517,"is_reserved":false,"is_disabled":false,"rental_uris":{"android":"levelo://app?vid=df314f66-8a21-4527-8cbe-6110dd841a6b","ios":"levelo://app?vid=df314f66-8a21-4527-8cbe-6110dd841a6b"},"vehicle_type_id":"4","last_reported":1744834313,"current_range_meters":24000,"station_id":"ce4bgj92rcd13ifvqbd0","pricing_plan_id":"cebpf4jnsgd1na2vs0mg"},{"bike_id":"bfc0f2bb-f1f4-4fed-b9af-c547a21d1d5d","system_id":"levelo_inurba_marseille","lat":43.28604,"lon":5.3511,"is_reserved":false,"is_disabled":false,"rental_uris":{"android":"levelo://app?vid=bfc0f2bb-f1f4-4fed-b9af-c547a21d1d5d","ios":"levelo://app?vid=bfc0f2bb-f1f4-4fed-b9af-c547a21d1d5d"},"vehicle_type_id":"4","last_reported":1744834313,"current_range_meters":24000,"station_id":"ce4bhch2rcd13ifvqeug","pricing_plan_id":"cebpf4jnsgd1na2vs0mg"},{"bike_id":"99810f80-e291-4ad5-acbc-abb54800ca57","system_id":"levelo_inurba_marseille","lat":43.29879,"lon":5.38907,"is_reserved":false,"is_disabled":false,"rental_uris":{"android":"levelo://app?vid=99810f80-e291-4ad5-acbc-abb54800ca57","ios":"levelo://app?vid=99810f80-e291-4ad5-acbc-abb54800ca57"},"vehicle_type_id":"4","last_reported":1744834313,"current_range_meters":24400,"station_id":"ce4bh392rcd13ifvqdl0","pricing_plan_id":"cebpf4jnsgd1na2vs0mg"},{"bike_id":"a959870e-1b1c-4252-a15f-f91a60806b33","system_id":"levelo_inurba_marseille","lat":43.30341,"lon":5.40439,"is_reserved":false,"is_disabled":false,"rental_uris":{"android":"levelo://app?vid=a959870e-1b1c-4252-a15f-f91a60806b33","ios":"levelo://app?vid=a959870e-1b1c-4252-a15f-f91a60806b33"},"vehicle_type_id":"4","last_reported":1744834313,"current_range_meters":24000,"station_id":"ce4bh012rcd13ifvqd10","pricing_plan_id":"cebpf4jnsgd1na2vs0mg"},{"bike_id":"f9d3fbe6-73e5-424e-af02-f446d5b07152","system_id":"levelo_inurba_marseille","lat":43.21803,"lon":5.34616,"is_reserved":false,"is_disabled":false,"rental_uris":{"android":"levelo://app?vid=f9d3fbe6-73e5-424e-af02-f446d5b07152","ios":"levelo://app?vid=f9d3fbe6-73e5-424e-af02-f446d5b07152"},"vehicle_type_id":"4","last_reported":1744834313,"current_range_meters":24000,"station_id":"","pricing_plan_id":"cebpf4jnsgd1na2vs0mg"},{"bike_id":"e9b44603-bb5c-447d-b553-1bc69ab3a3d9","system_id":"levelo_inurba_marseille","lat":43.29238,"lon":5.38416,"is_reserved":false,"is_disabled":false,"rental_uris":{"android":"levelo://app?vid=e9b44603-bb5c-447d-b553-1bc69ab3a3d9","ios":"levelo://app?vid=e9b44603-bb5c-447d-b553-1bc69ab3a3d9"},"vehicle_type_id":"4","last_reported":1744834313,"current_range_meters":24000,"station_id":"ce4bh692rcd13ifvqea0","pricing_plan_id":"cebpf4jnsgd1na2vs0mg"},{"bike_id":"96b0ee13-4242-40f6-ab89-563fac05b70c","system_id":"levelo_inurba_marseille","lat":43.30926,"lon":5.40147,"is_reserved":false,"is_disabled":false,"rental_uris":{"android":"levelo://app?vid=96b0ee13-4242-40f6-ab89-563fac05b70c","ios":"levelo://app?vid=96b0ee13-4242-40f6-ab89-563fac05b70c"},"vehicle_type_id":"4","last_reported":1744834313,"current_range_meters":24400,"station_id":"ce4bgvp2rcd13ifvqct0","pricing_plan_id":"cebpf4jnsgd1na2vs0mg"},{"bike_id":"8006db0e-11a9-4516-bc35-9c143e39ac6a","system_id":"levelo_inurba_marseille","lat":43.31197,"lon":5.38697,"is_reserved":false,"is_disabled":false,"rental_uris":{"android":"levelo://app?vid=8006db0e-11a9-4516-bc35-9c143e39ac6a","ios":"levelo://app?vid=8006db0e-11a9-4516-bc35-9c143e39ac6a"},"vehicle_type_id":"4","last_reported":1744834313,"current_range_meters":24400,"station_id":"ce4bgv12rcd13ifvqcp0","pricing_plan_id":"cebpf4jnsgd1na2vs0mg"},{"bike_id":"7737e179-3f51-4690-840a-0570ce7ce863","system_id":"levelo_inurba_marseille","lat":43.31358,"lon":5.38486,"is_reserved":false,"is_disabled":false,"rental_uris":{"android":"levelo://app?vid=7737e179-3f51-4690-840a-0570ce7ce863","ios":"levelo://app?vid=7737e179-3f51-4690-840a-0570ce7ce863"},"vehicle_type_id":"4","last_reported":1744834313,"current_range_meters":24400,"station_id":"ce4bgt92rcd13ifvqcf0","pricing_plan_id":"cebpf4jnsgd1na2vs0mg"},{"bike_id":"04cd718a-739b-4f09-8fdf-74e445452766","system_id":"levelo_inurba_marseille","lat":43.31501,"lon":5.37257,"is_reserved":false,"is_disabled":false,"rental_uris":{"android":"levelo://app?vid=04cd718a-739b-4f09-8fdf-74e445452766","ios":"levelo://app?vid=04cd718a-739b-4f09-8fdf-74e445452766"},"vehicle_type_id":"4","last_reported":1744834313,"current_range_meters":24400,"station_id":"ce4bgt12rcd13ifvqcd0","pricing_plan_id":"cebpf4jnsgd1na2vs0mg"},{"bike_id":"d38b9d46-8598-49bc-932a-012c55e43eb0","system_id":"levelo_inurba_marseille","lat":43.27069,"lon":5.42278,"is_reserved":false,"is_disabled":false,"rental_uris":{"android":"levelo://app?vid=d38b9d46-8598-49bc-932a-012c55e43eb0","ios":"levelo://app?vid=d38b9d46-8598-49bc-932a-012c55e43eb0"},"vehicle_type_id":"4","last_reported":1744834313,"current_range_meters":24400,"station_id":"ce4bhk92rcd13ifvqgb0","pricing_plan_id":"cebpf4jnsgd1na2vs0mg"},{"bike_id":"d004f040-7f2b-4af0-9221-422a7c9f0a7c","system_id":"levelo_inurba_marseille","lat":43.32337,"lon":5.4061,"is_reserved":false,"is_disabled":false,"rental_uris":{"android":"levelo://app?vid=d004f040-7f2b-4af0-9221-422a7c9f0a7c","ios":"levelo://app?vid=d004f040-7f2b-4af0-9221-422a7c9f0a7c"},"vehicle_type_id":"4","last_reported":1744834313,"current_range_meters":24400,"station_id":"ce4bhq92rcd13ifvqhjg","pricing_plan_id":"cebpf4jnsgd1na2vs0mg"},{"bike_id":"fceb9ed3-a67b-402e-adbc-193d0461eb00","system_id":"levelo_inurba_marseille","lat":43.28092,"lon":5.37859,"is_reserved":false,"is_disabled":false,"rental_uris":{"android":"levelo://app?vid=fceb9ed3-a67b-402e-adbc-193d0461eb00","ios":"levelo://app?vid=fceb9ed3-a67b-402e-adbc-193d0461eb00"},"vehicle_type_id":"4","last_reported":1744834313,"current_range_meters":24400,"station_id":"ce4bha12rcd13ifvqee0","pricing_plan_id":"cebpf4jnsgd1na2vs0mg"},