{"last_updated":1687536576,"ttl":30,"version":"2.2","data":{"bikes":[{"bike_id":"432e353f-5294-475f-9eb5-e939a20eeb97","system_id":"levelo_inurba_marseille","lat":43.31171,"lon":5.36734,"is_reserved":false,"is_disabled":false,"rental_uris":{"android":"levelo://app?vid=432e353f-5294-475f-9eb5-e939a20eeb97","ios":"levelo://app?vid=432e353f-5294-475f-9eb5-e939a20eeb97"},"vehicle_type_id":"4","last_reported":1687536577,"current_range_meters":8400,"station_id":"","pricing_plan_id":"free"},{"bike_id":"7ebb4036-3534-4267-a25a-ce833eb471f2","system_id":"levelo_inurba_marseille","lat":43.309076,"lon":5.368465,"is_reserved":false,"is_disabled":false,"rental_uris":{"android":"levelo://app?vid=7ebb4036-3534-4267-a25a-ce833eb471f2","ios":"levelo://app?vid=7ebb4036-3534-4267-a25a-ce833eb471f2"},"vehicle_type_id":"4","last_reported":1687536577,"current_range_meters":2000,"station_id":"ce4bgn92rcd13ifvqbvg","pricing_plan_id":"free"},{"bike_id":"2b132c15-2d86-4782-92be-e12253dd06cc","system_id":"levelo_inurba_marseille","lat":43.314811,"lon":5.373103,"is_reserved":false,"is_disabled":false,"rental_uris":{"android":"levelo://app?vid=2b132c15-2d86-4782-92be-e12253dd06cc","ios":"levelo://app?vid=2b132c15-2d86-4782-92be-e12253dd06cc"},"vehicle_type_id":"4","last_reported":1687536577,"current_range_meters":14000,"station_id":"ce4bgt12rcd13ifvqcd0","pricing_plan_id":"free"},{"bike_id":"ef7cc814-a389-4520-bd13-2c7fa9e3f736","system_id":"levelo_inurba_marseille","lat":43.308606,"lon":5.372099,"is_reserved":false,"is_disabled":false,"rental_uris":{"android":"levelo://app?vid=ef7cc814-a389-4520-bd13-2c7fa9e3f736","ios":"levelo://app?vid=ef7cc814-a389-4520-bd13-2c7fa9e3f736"},"vehicle_type_id":"4","last_reported":1687536577,"current_range_meters":22800,"station_id":"ce4bguh2rcd13ifvqckg","pricing_plan_id":"free"},{"bike_id":"37c432a5-d97d-4508-b050-c621e46bcc6e","system_id":"levelo_inurba_marseille","lat":43.30943,"lon":5.37275,"is_reserved":false,"is_disabled":false,"rental_uris":{"android":"levelo://app?vid=37c432a5-d97d-4508-b050-c621e46bcc6e","ios":"levelo://app?vid=37c432a5-d97d-4508-b050-c621e46bcc6e"},"vehicle_type_id":"4","last_reported":1687536577,"current_range_meters":30000,"station_id":"","pricing_plan_id":"free"},{"bike_id":"2d444401-0b7e-4a0f-8c6a-584a898e22a8","system_id":"levelo_inurba_marseille","lat":43.30605,"lon":5.37248,"is_reserved":false,"is_disabled":false,"rental_uris":{"android":"levelo://app?vid=2d444401-0b7e-4a0f-8c6a-584a898e22a8","ios":"levelo://app?vid=2d444401-0b7e-4a0f-8c6a-584a898e22a8"},"vehicle_type_id":"4","last_reported":1687536577,"current_range_meters":14400,"station_id":"ce4bgqh2rcd13ifvqc4g","pricing_plan_id":"free"},{"bike_id":"1b26d491-1947-4ef5-9dc1-9d36d4cc48ad","system_id":"levelo_inurba_marseille","lat":43.311131,"lon":5.377651,"is_reserved":false,"is_disabled":false,"rental_uris":{"android":"levelo://app?vid=1b26d491-1947-4ef5-9dc1-9d36d4cc48ad","ios":"levelo://app?vid=1b26d491-1947-4ef5-9dc1-9d36d4cc48ad"},"vehicle_type_id":"4","last_reported":1687536577,"current_range_meters":12800,"station_id":"ce4bgt92rcd13ifvqcg0","pricing_plan_id":"free"},{"bike_id":"b871bee4-90ff-4ae2-86fc-78f73e807585","system_id":"levelo_inurba_marseille","lat":43.315293,"lon":5.380349,"is_reserved":false,"is_disabled":false,"rental_uris":{"android":"levelo://app?vid=b871bee4-90ff-4ae2-86fc-78f73e807585","ios":"levelo://app?vid=b871bee4-90ff-4ae2-86fc-78f73e807585"},"vehicle_type_id":"4","last_reported":1687536577,"current_range_meters":24000,"station_id":"ce4bhsp2rcd13ifvqi50","pricing_plan_id":"free"},{"bike_id":"9d8540c8-502f-4dce-ad83-32577fb11ff2","system_id":"levelo_inurba_marseille","lat":43.304606,"lon":5.379026,"is_reserved":false,"is_disabled":false,"rental_uris":{"android":"levelo://app?vid=9d8540c8-502f-4dce-ad83-32577fb11ff2","ios":"levelo://app?vid=9d8540c8-502f-4dce-ad83-32577fb11ff2"},"vehicle_type_id":"4","last_reported":1687536577,"current_range_meters":19600,"station_id":"ce4bgup2rcd13ifvqcn0","pricing_plan_id":"free"},{"bike_id":"940e9563-76ab-427a-9afa-16294f4fc267","system_id":"levelo_inurba_marseille","lat":43.304606,"lon":5.379026,"is_reserved":false,"is_disabled":false,"rental_uris":{"android":"levelo://app?vid=940e9563-76ab-427a-9afa-16294f4fc267","ios":"levelo://app?vid=940e9563-76ab-427a-9afa-16294f4fc267"},"vehicle_type_id":"4","last_reported":1687536577,"current_range_meters":4800,"station_id":"ce4bgup2rcd13ifvqcn0","pricing_plan_id":"free"},{"bike_id":"6b4fa782-2eeb-44d1-8c3e-2438a8e369cf","system_id":"levelo_inurba_marseille","lat":43.304606,"lon":5.379026,"is_reserved":false,"is_disabled":false,"rental_uris":{"android":"levelo://app?vid=6b4fa782-2eeb-44d1-8c3e-2438a8e369cf","ios":"levelo://app?vid=6b4fa782-2eeb-44d1-8c3e-2438a8e369cf"},"vehicle_type_id":"4","last_reported":1687536577,"current_range_meters":24400,"station_id":"ce4bgup2rcd13ifvqcn0","pricing_plan_id":"free"},{"bike_id":"d4fb5a7c-fabd-4d96-98c9-81e6ee5363c1","system_id":"levelo_inurba_marseille","lat":43.304606,"lon":5.379026,"is_reserved":false,"is_disabled":false,"rental_uris":{"android":"levelo://app?vid=d4fb5a7c-fabd-4d96-98c9-81e6ee5363c1","ios":"levelo://app?vid=d4fb5a7c-fabd-4d96-98c9-81e6ee5363c1"},"vehicle_type_id":"4","last_reported":1687536577,"current_range_meters":0,"station_id":"ce4bgup2rcd13ifvqcn0","pricing_plan_id":"free"},{"bike_id":"0c9239ac-48e0-41f5-a8fe-a36ee46a4107","system_id":"levelo_inurba_marseille","lat":43.30144,"lon":5.37424,"is_reserved":false,"is_disabled":false,"rental_uris":{"android":"levelo://app?vid=0c9239ac-48e0-41f5-a8fe-a36ee46a4107","ios":"levelo://app?vid=0c9239ac-48e0-41f5-a8fe-a36ee46a4107"},"vehicle_type_id":"4","last_reported":1687536577,"current_range_meters":12000,"station_id":"ce4bgs92rcd13ifvqcc0","pricing_plan_id":"free"},{"bike_id":"0b03bed2-85b6-43ba-8a36-33c78d25df6b","system_id":"levelo_inurba_marseille","lat":43.30698,"lon":5.38244,"is_reserved":false,"is_disabled":false,"rental_uris":{"android":"levelo://app?vid=0b03bed2-85b6-43ba-8a36-33c78d25df6b","ios":"levelo://app?vid=0b03bed2-85b6-43ba-8a36-33c78d25df6b"},"vehicle_type_id":"4","last_reported":1687536577,"current_range_meters":28800,"station_id":"","pricing_plan_id":"free"},{"bike_id":"4095bf88-1b6f-4111-96cd-56d8b16cdbae","system_id":"levelo_inurba_marseille","lat":43.31421,"lon":5.38467,"is_reserved":false,"is_disabled":false,"rental_uris":{"android":"levelo://app?vid=4095bf88-1b6f-4111-96cd-56d8b16cdbae","ios":"levelo://app?vid=4095bf88-1b6f-4111-96cd-56d8b16cdbae"},"vehicle_type_id":"4","last_reported":1687536577,"current_range_meters":8400,"station_id":"","pricing_plan_id":"free"},{"bike_id":"b06c1f65-d960-4631-90d6-abd895972aa7","system_id":"levelo_inurba_marseille","lat":43.313571,"lon":5.384829,"is_reserved":false,"is_disabled":false,"rental_uris":{"android":"levelo://app?vid=b06c1f65-d960-4631-90d6-abd895972aa7","ios":"levelo://app?vid=b06c1f65-d960-4631-90d6-abd895972aa7"},"vehicle_type_id":"4","last_reported":1687536577,"current_range_meters":30800,"station_id":"ce4bgt92rcd13ifvqcf0","pricing_plan_id":"free"},{"bike_id":"4e06b451-dd03-43a7-acdc-3845a57f9176","system_id":"levelo_inurba_marseille","lat":43.297794,"lon":5.370888,"is_reserved":false,"is_disabled":false,"rental_uris":{"android":"levelo://app?vid=4e06b451-dd03-43a7-acdc-3845a57f9176","ios":"levelo://app?vid=4e06b451-dd03-43a7-acdc-3845a57f9176"},"vehicle_type_id":"4","last_reported":1687536577,"current_range_meters":22800,"station_id":"ce4bgop2rcd13ifvqc1g","pricing_plan_id":"free"},{"bike_id":"52967cca-0413-4867-a78e-a23e69cdbfa9","system_id":"levelo_inurba_marseille","lat":43.297794,"lon":5.370888,"is_reserved":false,"is_disabled":false,"rental_uris":{"android":"levelo://app?vid=52967cca-0413-4867-a78e-a23e69cdbfa9","ios":"levelo://app?vid=52967cca-0413-4867-a78e-a23e69cdbfa9"},"vehicle_type_id":"4","last_reported":1687536577,"current_range_meters":15200,"station_id":"ce4bgop2rcd13ifvqc1g","pricing_plan_id":"free"},{"bike_id":"68c8ed7f-e7f6-4fcf-a77c-20f24840740b","system_id":"levelo_inurba_marseille","lat":43.328371,"lon":5.366909,"is_reserved":false,"is_disabled":false,"rental_uris":{"android":"levelo://app?vid=68c8ed7f-e7f6-4fcf-a77c-20f24840740b","ios":"levelo://app?vid=68c8ed7f-e7f6-4fcf-a77c-20f24840740b"},"vehicle_type_id":"4","last_reported":1687536577,"current_range_meters":22800,"station_id":"ce4bhs92rcd13ifvqi0g","pricing_plan_id":"free"},{"bike_id":"aff5785a-0749-4c8c-a156-fc8e790e775f","system_id":"levelo_inurba_marseille","lat":43.328371,"lon":5.366909,"is_reserved":false,"is_disabled":false,"rental_uris":{"android":"levelo://app?vid=aff5785a-0749-4c8c-a156-fc8e790e775f","ios":"levelo://app?vid=aff5785a-0749-4c8c-a156-fc8e790e775f"},"vehicle_type_id":"4","last_reported":1687536577,"current_range_meters":0,"station_id":"ce4bhs92rcd13ifvqi0g","pricing_plan_id":"free"},{"bike_id":"d6aa4b8f-0fbd-492f-a726-f1b64033634e","system_id":"levelo_inurba_marseille","lat":43.297,"lon":5.36442,"is_reserved":false,"is_disabled":false,"rental_uris":{"android":"levelo://app?vid=d6aa4b8f-0fbd-492f-a726-f1b64033634e","ios":"levelo://app?vid=d6aa4b8f-0fbd-492f-a726-f1b64033634e"},"vehicle_type_id":"4","last_reported":1687536577,"current_range_meters":10000,"station_id":"","pricing_plan_id":"free"},{"bike_id":"139bd520-ec5f-4f00-bd5b-9f032e06ead4","system_id":"levelo_inurba_marseille","lat":43.2968,"lon":5.37291,"is_reserved":false,"is_disabled":false,"rental_uris":{"android":"levelo://app?vid=139bd520-ec5f-4f00-bd5b-9f032e06ead4","ios":"levelo://app?vid=139bd520-ec5f-4f00-bd5b-9f032e06ead4"},"vehicle_type_id":"4","last_reported":1687536577,"current_range_meters":400,"station_id":"ce4bgk12rcd13ifvqbj0","pricing_plan_id":"free"},{"bike_id":"e1021864-f4bb-419e-b3dc-090d56d7b171","system_id":"levelo_inurba_marseille","lat":43.2968,"lon":5.37291,"is_reserved":false,"is_disabled":false,"rental_uris":{"android":"levelo://app?vid=e1021864-f4bb-419e-b3dc-090d56d7b171","ios":"levelo://app?vid=e1021864-f4bb-419e-b3dc-090d56d7b171"},"vehicle_type_id":"4","last_reported":1687536577,"current_range_meters":0,"station_id":"ce4bgk12rcd13ifvqbj0","pricing_plan_id":"free"},{"bike_id":"ad189f42-24ef-494c-8909-97fdb7a29a2d","system_id":"levelo_inurba_marseille","lat":43.296131,"lon":5.370773,"is_reserved":false,"is_disabled":false,"rental_uris":{"android":"levelo://app?vid=ad189f42-24ef-494c-8909-97fdb7a29a2d","ios":"levelo://app?vid=ad189f42-24ef-494c-8909-97fdb7a29a2d"},"vehicle_type_id":"4","last_reported":1687536577,"current_range_meters":28800,"station_id":"ce4bgnh2rcd13ifvqc0g","pricing_plan_id":"free"},{"bike_id":"d978d311-02cd-447c-a8fd-9b297b84056b","system_id":"levelo_inurba_marseille","lat":43.296131,"lon":5.370791,"is_reserved":false,"is_disabled":false,"rental_uris":{"android":"levelo://app?vid=d978d311-02cd-447c-a8fd-9b297b84056b","ios":"levelo://app?vid=d978d311-02cd-447c-a8fd-9b297b84056b"},"vehicle_type_id":"4","last_reported":1687536577,"current_range_meters":13600,"station_id":"ce4bgnh2rcd13ifvqc0g","pricing_plan_id":"free"},{"bike_id":"b7136258-3e49-4fac-ac8e-826727ebf148","system_id":"levelo_inurba_marseille","lat":43.296129,"lon":5.370777,"is_reserved":false,"is_disabled":false,"rental_uris":{"android":"levelo://app?vid=b7136258-3e49-4fac-ac8e-826727ebf148","ios":"levelo://app?vid=b7136258-3e49-4fac-ac8e-826727ebf148"},"vehicle_type_id":"4","last_reported":1687536577,"current_range_meters":1200,"station_id":"ce4bgnh2rcd13ifvqc0g","pricing_plan_id":"free"},{"bike_id":"7a9c72fc-18c3-4cea-bd15-ad0cafa57527","system_id":"levelo_inurba_marseille","lat":43.29573,"lon":5.367355,"is_reserved":false,"is_disabled":false,"rental_uris":{"android":"levelo://app?vid=7a9c72fc-18c3-4cea-bd15-ad0cafa57527","ios":"levelo://app?vid=7a9c72fc-18c3-4cea-bd15-ad0cafa57527"},"vehicle_type_id":"4","last_reported":1687536577,"current_range_meters":22400,"station_id":"ce4bgph2rcd13ifvqc2g","pricing_plan_id":"free"},{"bike_id":"c98244f7-32eb-4e89-8bed-ceeb8c07c409","system_id":"levelo_inurba_marseille","lat":43.29573,"lon":5.367355,"is_reserved":false,"is_disabled":false,"rental_uris":{"android":"levelo://app?vid=c98244f7-32eb-4e89-8bed-ceeb8c07c409","ios":"levelo://app?vid=c98244f7-32eb-4e89-8bed-ceeb8c07c409"},"vehicle_type_id":"4","last_reported":1687536577,"current_range_meters":400,"station_id":"ce4bgph2rcd13ifvqc2g","pricing_plan_id":"free"},{"bike_id":"6f6b0d6a-b423-43fb-a890-5a01d570e04b","system_id":"levelo_inurba_marseille","lat":43.29573,"lon":5.367355,"is_reserved":false,"is_disabled":false,"rental_uris":{"android":"levelo://app?vid=6f6b0d6a-b423-43fb-a890-5a01d570e04b","ios":"levelo://app?vid=6f6b0d6a-b423-43fb-a890-5a01d570e04b"},"vehicle_type_id":"4","last_reported":1687536577,"current_range_meters":25600,"station_id":"ce4bgph2rcd13ifvqc2g","pricing_plan_id":"free"},{"bike_id":"041bc147-ef2f-419b-bb81-deca3bdf89e2","system_id":"levelo_inurba_marseille","lat":43.29611,"lon":5.36046,"is_reserved":false,"is_disabled":false,"rental_uris":{"android":"levelo://app?vid=041bc147-ef2f-419b-bb81-deca3bdf89e2","ios":"levelo://app?vid=041bc147-ef2f-419b-bb81-deca3bdf89e2"},"vehicle_type_id":"4","last_reported":1687536577,"current_range_meters":10000,"station_id":"","pricing_plan_id":"free"},{"bike_id":"694d84e1-b24e-42d2-8d16-576479114e55","system_id":"levelo_inurba_marseille","lat":43.317557,"lon":5.390173,"is_reserved":false,"is_disabled":false,"rental_uris":{"android":"levelo://app?vid=694d84e1-b24e-42d2-8d16-576479114e55","ios":"levelo://app?vid=694d84e1-b24e-42d2-8d16-576479114e55"},"vehicle_type_id":"4","last_reported":1687536577,"current_range_meters":14800,"station_id":"ce4bhqp2rcd13ifvqhng","pricing_plan_id":"free"},{"bike_id":"1ae34b3b-1d03-4591-a25f-3f819c785568","system_id":"levelo_inurba_marseille","lat":43.317557,"lon":5.390173,"is_reserved":false,"is_disabled":false,"rental_uris":{"android":"levelo://app?vid=1ae34b3b-1d03-4591-a25f-3f819c785568","ios":"levelo://app?vid=1ae34b3b-1d03-4591-a25f-3f819c785568"},"vehicle_type_id":"4","last_reported":1687536577,"current_range_meters":800,"station_id":"ce4bhqp2rcd13ifvqhng","pricing_plan_id":"free"},{"bike_id":"039e2417-326e-48e9-87cd-8895cb0620b8","system_id":"levelo_inurba_marseille","lat":43.317557,"lon":5.390173,"is_reserved":false,"is_disabled":false,"rental_uris":{"android":"levelo://app?vid=039e2417-326e-48e9-87cd-8895cb0620b8","ios":"levelo://app?vid=039e2417-326e-48e9-87cd-8895cb0620b8"},"vehicle_type_id":"4","last_reported":1687536577,"current_range_meters":17600,"station_id":"ce4bhqp2rcd13ifvqhng","pricing_plan_id":"free"},{"bike_id":"a26b3693-5eee-4958-8ca8-8a69361289e6","system_id":"levelo_inurba_marseille","lat":43.317557,"lon":5.390173,"is_reserved":false,"is_disabled":false,"rental_uris":{"android":"levelo://app?vid=a26b3693-5eee-4958-8ca8-8a69361289e6","ios":"levelo://app?vid=a26b3693-5eee-4958-8ca8-8a69361289e6"},"vehicle_type_id":"4","last_reported":1687536577,"current_range_meters":30800,"station_id":"ce4bhqp2rcd13ifvqhng","pricing_plan_id":"free"},{"bike_id":"9c46eda4-ce28-4132-a992-9b4bc94941ea","system_id":"levelo_inurba_marseille","lat":43.31761,"lon":5.39023,"is_reserved":false,"is_disabled":false,"rental_uris":{"android":"levelo://app?vid=9c46eda4-ce28-4132-a992-9b4bc94941ea","ios":"levelo://app?vid=9c46eda4-ce28-4132-a992-9b4bc94941ea"},"vehicle_type_id":"4","last_reported":1687536577,"current_range_meters":21600,"station_id":"ce4bhqp2rcd13ifvqhng","pricing_plan_id":"free"},{"bike_id":"c6302fff-6a1d-4a7e-a94a-fded06b72bcf","system_id":"levelo_inurba_marseille","lat":43.317557,"lon":5.390173,"is_reserved":false,"is_disabled":false,"rental_uris":{"android":"levelo://app?vid=c6302fff-6a1d-4a7e-a94a-fded06b72bcf","ios":"levelo://app?vid=c6302fff-6a1d-4a7e-a94a-fded06b72bcf"},"vehicle_type_id":"4","last_reported":1687536577,"current_range_meters":20400,"station_id":"ce4bhqp2rcd13ifvqhng","pricing_plan_id":"free"},{"bike_id":"f7b05700-64af-411d-a19e-0dad5a11f348","system_id":"levelo_inurba_marseille","lat":43.300852,"lon":5.390859,"is_reserved":false,"is_disabled":false,"rental_uris":{"android":"levelo://app?vid=f7b05700-64af-411d-a19e-0dad5a11f348","ios":"levelo://app?vid=f7b05700-64af-411d-a19e-0dad5a11f348"},"vehicle_type_id":"4","last_reported":1687536577,"current_range_meters":12000,"station_id":"ce4bh192rcd13ifvqdb0","pricing_plan_id":"free"},{"bike_id":"21ca2b48-dcec-4510-9e4b-a0a08515679c","system_id":"levelo_inurba_marseille","lat":43.29563,"lon":5.3754,"is_reserved":false,"is_disabled":false,"rental_uris":{"android":"levelo://app?vid=21ca2b48-dcec-4510-9e4b-a0a08515679c","ios":"levelo://app?vid=21ca2b48-dcec-4510-9e4b-a0a08515679c"},"vehicle_type_id":"4","last_reported":1687536577,"current_range_meters":26800,"station_id":"ce4bgh92rcd13ifvqb50","pricing_plan_id":"free"},{"bike_id":"9303733e-74b0-4808-9e80-d0e6302adde5","system_id":"levelo_inurba_marseille","lat":43.32367,"lon":5.388836,"is_reserved":false,"is_disabled":false,"rental_uris":{"android":"levelo://app?vid=9303733e-74b0-4808-9e80-d0e6302adde5","ios":"levelo://app?vid=9303733e-74b0-4808-9e80-d0e6302adde5"},"vehicle_type_id":"4","last_reported":1687536577,"current_range_meters":5600,"station_id":"ce4bhqp2rcd13ifvqhog","pricing_plan_id":"free"},{"bike_id":"11d24d26-9834-4b33-a8fb-30c966656ce3","system_id":"levelo_inurba_marseille","lat":43.32367,"lon":5.388836,"is_reserved":false,"is_disabled":false,"rental_uris":{"android":"levelo://app?vid=11d24d26-9834-4b33-a8fb-30c966656ce3","ios":"levelo://app?vid=11d24d26-9834-4b33-a8fb-30c966656ce3"},"vehicle_type_id":"4","last_reported":1687536577,"current_range_meters":24000,"station_id":"ce4bhqp2rcd13ifvqhog","pricing_plan_id":"free"},{"bike_id":"8f7066d4-0cd5-40f5-b39b-9a7219e69cdc","system_id":"levelo_inurba_marseille","lat":43.32367,"lon":5.388836,"is_reserved":false,"is_disabled":false,"rental_uris":{"android":"levelo://app?vid=8f7066d4-0cd5-40f5-b39b-9a7219e69cdc","ios":"levelo://app?vid=8f7066d4-0cd5-40f5-b39b-9a7219e69cdc"},"vehicle_type_id":"4","last_reported":1687536577,"current_range_meters":24400,"station_id":"ce4bhqp2rcd13ifvqhog","pricing_plan_id":"free"},{"bike_id":"40aa28b2-beac-4051-bf87-2c1c1c0a5069","system_id":"levelo_inurba_marseille","lat":43.293249,"lon":5.371578,"is_reserved":false,"is_disabled":false,"rental_uris":{"android":"levelo://app?vid=40aa28b2-beac-4051-bf87-2c1c1c0a5069","ios":"levelo://app?vid=40aa28b2-beac-4051-bf87-2c1c1c0a5069"},"vehicle_type_id":"4","last_reported":1687536577,"current_range_meters":16000,"station_id":"ce4bgh92rcd13ifvqb40","pricing_plan_id":"free"},{"bike_id":"2c949886-0804-45e1-b416-b4b0a8c40d3c","system_id":"levelo_inurba_marseille","lat":43.292749,"lon":5.368402,"is_reserved":false,"is_disabled":false,"rental_uris":{"android":"levelo://app?vid=2c949886-0804-45e1-b416-b4b0a8c40d3c","ios":"levelo://app?vid=2c949886-0804-45e1-b416-b4b0a8c40d3c"},"vehicle_type_id":"4","last_reported":1687536577,"current_range_meters":2400,"station_id":"ce4bhbp2rcd13ifvqesg","pricing_plan_id":"free"},{"bike_id":"81d8e879-3a97-488f-82fb-9b78f60e6287","system_id":"levelo_inurba_marseille","lat":43.297794,"lon":5.370888,"is_reserved":false,"is_disabled":false,"rental_uris":{"android":"levelo://app?vid=81d8e879-3a97-488f-82fb-9b78f60e6287","ios":"levelo://app?vid=81d8e879-3a97-488f-82fb-9b78f60e6287"},"vehicle_type_id":"4","last_reported":1687536577,"current_range_meters":14400,"station_id":"ce4bgop2rcd13ifvqc1g","pricing_plan_id":"free"},{"bike_id":"cf5ad274-86ef-4b8e-bfa1-7199ef415a73","system_id":"levelo_inurba_marseille","lat":43.293009,"lon":5.374584,"is_reserved":false,"is_disabled":false,"rental_uris":{"android":"levelo://app?vid=cf5ad274-86ef-4b8e-bfa1-7199ef415a73","ios":"levelo://app?vid=cf5ad274-86ef-4b8e-bfa1-7199ef415a73"},"vehicle_type_id":"4","last_reported":1687536577,"current_range_meters":2000,"station_id":"ce4bgi12rcd13ifvqb70","pricing_plan_id":"free"},{"bike_id":"53e58073-519b-4f8d-96ad-f7b95459428f","system_id":"levelo_inurba_marseille","lat":43.29275,"lon":5.35977,"is_reserved":false,"is_disabled":false,"rental_uris":{"android":"levelo://app?vid=53e58073-519b-4f8d-96ad-f7b95459428f","ios":"levelo://app?vid=53e58073-519b-4f8d-96ad-f7b95459428f"},"vehicle_type_id":"4","last_reported":1687536577,"current_range_meters":8400,"station_id":"","pricing_plan_id":"free"},{"bike_id":"1cf72516-7ba9-482e-baa6-35a73df532ac","system_id":"levelo_inurba_marseille","lat":43.302992,"lon":5.392136,"is_reserved":false,"is_disabled":false,"rental_uris":{"android":"levelo://app?vid=1cf72516-7ba9-482e-baa6-35a73df532ac","ios":"levelo://app?vid=1cf72516-7ba9-482e-baa6-35a73df532ac"},"vehicle_type_id":"4","last_reported":1687536577,"current_range_meters":15200,"station_id":"ce4bgkh2rcd13ifvqbk0","pricing_plan_id":"free"},{"bike_id":"3281e308-0d07-41fe-84c3-bca209ebc60a","system_id":"levelo_inurba_marseille","lat":43.30085,"lon":5.390856,"is_reserved":false,"is_disabled":false,"rental_uris":{"android":"levelo://app?vid=3281e308-0d07-41fe-84c3-bca209ebc60a","ios":"levelo://app?vid=3281e308-0d07-41fe-84c3-bca209ebc60a"},"vehicle_type_id":"4","last_reported":1687536577,"current_range_meters":3200,"station_id":"ce4bh192rcd13ifvqdb0","pricing_plan_id":"free"},{"bike_id":"435fbded-ab7d-4692-9a8f-c8e83acb5da3","system_id":"levelo_inurba_marseille","lat":43.292311,"lon":5.360731,"is_reserved":false,"is_disabled":false,"rental_uris":{"android":"levelo://app?vid=435fbded-ab7d-4692-9a8f-c8e83acb5da3","ios":"levelo://app?vid=435fbded-ab7d-4692-9a8f-c8e83acb5da3"},"vehicle_type_id":"4","last_reported":1687536577,"current_range_meters":18800,"station_id":"ce4bhbh2rcd13ifvqeqg","pricing_plan_id":"free"},{"bike_id":"aec1e24a-b897-4198-b06f-a36ad24ba384","system_id":"levelo_inurba_marseille","lat":43.302992,"lon":5.392136,"is_reserved":false,"is_disabled":false,"rental_uris":{"android":"levelo://app?vid=aec1e24a-b897-4198-b06f-a36ad24ba384","ios":"levelo://app?vid=aec1e24a-b897-4198-b06f-a36ad24ba384"},"vehicle_type_id":"4","last_reported":1687536577,"current_range_meters":14800,"station_id":"ce4bgkh2rcd13ifvqbk0","pricing_plan_id":"free"},{"bike_id":"34dfd7df-177f-4c5e-852a-0454845e93b0","system_id":"levelo_inurba_marseille","lat":43.29217,"lon":5.36054,"is_reserved":false,"is_disabled":false,"rental_uris":{"android":"levelo://app?vid=34dfd7df-177f-4c5e-852a-0454845e93b0","ios":"levelo://app?vid=34dfd7df-177f-4c5e-852a-0454845e93b0"},"vehicle_type_id":"4","last_reported":1687536577,"current_range_meters":13200,"station_id":"ce4bhbh2rcd13ifvqeqg","pricing_plan_id":"free"},{"bike_id":"91ce91e2-7a38-4272-af06-735fa5d5cbf3","system_id":"levelo_inurba_marseille","lat":43.29356,"lon":5.37957,"is_reserved":false,"is_disabled":false,"rental_uris":{"android":"levelo://app?vid=91ce91e2-7a38-4272-af06-735fa5d5cbf3","ios":"levelo://app?vid=91ce91e2-7a38-4272-af06-735fa5d5cbf3"},"vehicle_type_id":"4","last_reported":1687536577,"current_range_meters":27200,"station_id":"","pricing_plan_id":"free"},{"bike_id":"f09a003e-5da3-44fe-9161-ba6c5bdc84a0","system_id":"levelo_inurba_marseille","lat":43.305994,"lon":5.393687,"is_reserved":false,"is_disabled":false,"rental_uris":{"android":"levelo://app?vid=f09a003e-5da3-44fe-9161-ba6c5bdc84a0","ios":"levelo://app?vid=f09a003e-5da3-44fe-9161-ba6c5bdc84a0"},"vehicle_type_id":"4","last_reported":1687536577,"current_range_meters":0,"station_id":"ce4bh0p2rcd13ifvqd80","pricing_plan_id":"free"},{"bike_id":"54fda2f9-7b1a-4838-9b70-087d4101d0ae","system_id":"levelo_inurba_marseille","lat":43.33248,"lon":5.37937,"is_reserved":false,"is_disabled":false,"rental_uris":{"android":"levelo://app?vid=54fda2f9-7b1a-4838-9b70-087d4101d0ae","ios":"levelo://app?vid=54fda2f9-7b1a-4838-9b70-087d4101d0ae"},"vehicle_type_id":"4","last_reported":1687536577,"current_range_meters":2400,"station_id":"","pricing_plan_id":"free"},{"bike_id":"37351a85-7d8e-4e5e-b0e2-e074cb495527","system_id":"levelo_inurba_marseille","lat":43.29195,"lon":5.358,"is_reserved":false,"is_disabled":false,"rental_uris":{"android":"levelo://app?vid=37351a85-7d8e-4e5e-b0e2-e074cb495527","ios":"levelo://app?vid=37351a85-7d8e-4e5e-b0e2-e074cb495527"},"vehicle_type_id":"4","last_reported":1687536577,"current_range_meters":800,"station_id":"ce4bhb12rcd13ifvqel0","pricing_plan_id":"free"},{"bike_id":"a3ebd195-73e3-433b-bb02-2e65944071a6","system_id":"levelo_inurba_marseille","lat":43.313291,"lon":5.396838,"is_reserved":false,"is_disabled":false,"rental_uris":{"android":"levelo://app?vid=a3ebd195-73e3-433b-bb02-2e65944071a6","ios":"levelo://app?vid=a3ebd195-73e3-433b-bb02-2e65944071a6"},"vehicle_type_id":"4","last_reported":1687536577,"current_range_meters":6400,"station_id":"ce4bgvp2rcd13ifvqcu0","pricing_plan_id":"free"},{"bike_id":"8fd03e32-4fcd-4e5c-a994-d0921bd8b8d9","system_id":"levelo_inurba_marseille","lat":43.31327,"lon":5.39691,"is_reserved":false,"is_disabled":false,"rental_uris":{"android":"levelo://app?vid=8fd03e32-4fcd-4e5c-a994-d0921bd8b8d9","ios":"levelo://app?vid=8fd03e32-4fcd-4e5c-a994-d0921bd8b8d9"},"vehicle_type_id":"4","last_reported":1687536577,"current_range_meters":10400,"station_id":"ce4bgvp2rcd13ifvqcu0","pricing_plan_id":"free"},{"bike_id":"ab81f6ff-d152-48a8-b400-b20370747458","system_id":"levelo_inurba_marseille","lat":43.2919,"lon":5.35799,"is_reserved":false,"is_disabled":false,"rental_uris":{"android":"levelo://app?vid=ab81f6ff-d152-48a8-b400-b20370747458","ios":"levelo://app?vid=ab81f6ff-d152-48a8-b400-b20370747458"},"vehicle_type_id":"4","last_reported":1687536577,"current_range_meters":20400,"station_id":"ce4bhb12rcd13ifvqel0","pricing_plan_id":"free"},{"bike_id":"45467434-dbe5-4481-a975-46ac882874cb","system_id":"levelo_inurba_marseille","lat":43.29529,"lon":5.385581,"is_reserved":false,"is_disabled":false,"rental_uris":{"android":"levelo://app?vid=45467434-dbe5-4481-a975-46ac882874cb","ios":"levelo://app?vid=45467434-dbe5-4481-a975-46ac882874cb"},"vehicle_type_id":"4","last_reported":1687536577,"current_range_meters":23200,"station_id":"ce4bgih2rcd13ifvqba0","pricing_plan_id":"free"},{"bike_id":"5184a449-d2cf-4ef8-9452-72466863341c","system_id":"levelo_inurba_marseille","lat":43.29529,"lon":5.385581,"is_reserved":false,"is_disabled":false,"rental_uris":{"android":"levelo://app?vid=5184a449-d2cf-4ef8-9452-72466863341c","ios":"levelo://app?vid=5184a449-d2cf-4ef8-9452-72466863341c"},"vehicle_type_id":"4","last_reported":1687536577,"current_range_meters":23600,"station_id":"ce4bgih2rcd13ifvqba0","pricing_plan_id":"free"},{"bike_id":"5c5df6c7-89d9-4cd6-8636-e398870e10ca","system_id":"levelo_inurba_marseille","lat":43.29529,"lon":5.385581,"is_reserved":false,"is_disabled":false,"rental_uris":{"android":"levelo://app?vid=5c5df6c7-89d9-4cd6-8636-e398870e10ca","ios":"levelo://app?vid=5c5df6c7-89d9-4cd6-8636-e398870e10ca"},"vehicle_type_id":"4","last_reported":1687536577,"current_range_meters":2000,"station_id":"ce4bgih2rcd13ifvqba0","pricing_plan_id":"free"},{"bike_id":"1b283d52-af4a-4ab8-9ab6-8833c81eeefe","system_id":"levelo_inurba_marseille","lat":43.29529,"lon":5.385581,"is_reserved":false,"is_disabled":false,"rental_uris":{"android":"levelo://app?vid=1b283d52-af4a-4ab8-9ab6-8833c81eeefe","ios":"levelo://app?vid=1b283d52-af4a-4ab8-9ab6-8833c81eeefe"},"vehicle_type_id":"4","last_reported":1687536577,"current_range_meters":4400,"station_id":"ce4bgih2rcd13ifvqba0","pricing_plan_id":"free"},{"bike_id":"c3009f2c-5cd6-445f-942f-30cb4387cbfc","system_id":"levelo_inurba_marseille","lat":43.29529,"lon":5.385581,"is_reserved":false,"is_disabled":false,"rental_uris":{"android":"levelo://app?vid=c3009f2c-5cd6-445f-942f-30cb4387cbfc","ios":"levelo://app?vid=c3009f2c-5cd6-445f-942f-30cb4387cbfc"},"vehicle_type_id":"4","last_reported":1687536577,"current_range_meters":25200,"station_id":"ce4bgih2rcd13ifvqba0","pricing_plan_id":"free"},{"bike_id":"d5556a4c-39f1-4f49-a7d5-635e4b2c4a69","system_id":"levelo_inurba_marseille","lat":43.29529,"lon":5.385581,"is_reserved":false,"is_disabled":false,"rental_uris":{"android":"levelo://app?vid=d5556a4c-39f1-4f49-a7d5-635e4b2c4a69","ios":"levelo://app?vid=d5556a4c-39f1-4f49-a7d5-635e4b2c4a69"},"vehicle_type_id":"4","last_reported":1687536577,"current_range_meters":31200,"station_id":"ce4bgih2rcd13ifvqba0","pricing_plan_id":"free"},{"bike_id":"c07d3513-e928-4d70-a32c-66c07b7d23d4","system_id":"levelo_inurba_marseille","lat":43.29532,"lon":5.38551,"is_reserved":false,"is_disabled":false,"rental_uris":{"android":"levelo://app?vid=c07d3513-e928-4d70-a32c-66c07b7d23d4","ios":"levelo://app?vid=c07d3513-e928-4d70-a32c-66c07b7d23d4"},"vehicle_type_id":"4","last_reported":1687536577,"current_range_meters":23600,"station_id":"ce4bgih2rcd13ifvqba0","pricing_plan_id":"free"},{"bike_id":"9be81fe9-e166-41e8-a96d-f389ed0fc8a5","system_id":"levelo_inurba_marseille","lat":43.302008,"lon":5.394694,"is_reserved":false,"is_disabled":false,"rental_uris":{"android":"levelo://app?vid=9be81fe9-e166-41e8-a96d-f389ed0fc8a5","ios":"levelo://app?vid=9be81fe9-e166-41e8-a96d-f389ed0fc8a5"},"vehicle_type_id":"4","last_reported":1687536577,"current_range_meters":4400,"station_id":"ce4bh0p2rcd13ifvqd70","pricing_plan_id":"free"},{"bike_id":"535d4dbb-b773-44ec-9c61-66a341a31760","system_id":"levelo_inurba_marseille","lat":43.302008,"lon":5.394694,"is_reserved":false,"is_disabled":false,"rental_uris":{"android":"levelo://app?vid=535d4dbb-b773-44ec-9c61-66a341a31760","ios":"levelo://app?vid=535d4dbb-b773-44ec-9c61-66a341a31760"},"vehicle_type_id":"4","last_reported":1687536577,"current_range_meters":16400,"station_id":"ce4bh0p2rcd13ifvqd70","pricing_plan_id":"free"},{"bike_id":"c26446cd-d136-49d2-98bd-029bdbd9f2fd","system_id":"levelo_inurba_marseille","lat":43.302008,"lon":5.394694,"is_reserved":false,"is_disabled":false,"rental_uris":{"android":"levelo://app?vid=c26446cd-d136-49d2-98bd-029bdbd9f2fd","ios":"levelo://app?vid=c26446cd-d136-49d2-98bd-029bdbd9f2fd"},"vehicle_type_id":"4","last_reported":1687536577,"current_range_meters":29600,"station_id":"ce4bh0p2rcd13ifvqd70","pricing_plan_id":"free"},{"bike_id":"01f3a607-150b-4bd6-97cd-772caa27f81c","system_id":"levelo_inurba_marseille","lat":43.302008,"lon":5.394694,"is_reserved":false,"is_disabled":false,"rental_uris":{"android":"levelo://app?vid=01f3a607-150b-4bd6-97cd-772caa27f81c","ios":"levelo://app?vid=01f3a607-150b-4bd6-97cd-772caa27f81c"},"vehicle_type_id":"4","last_reported":1687536577,"current_range_meters":11200,"station_id":"ce4bh0p2rcd13ifvqd70","pricing_plan_id":"free"},{"bike_id":"d7619451-d9a8-41f6-a1b4-a86d654381de","system_id":"levelo_inurba_marseille","lat":43.290631,"lon":5.359244,"is_reserved":false,"is_disabled":false,"rental_uris":{"android":"levelo://app?vid=d7619451-d9a8-41f6-a1b4-a86d654381de","ios":"levelo://app?vid=d7619451-d9a8-41f6-a1b4-a86d654381de"},"vehicle_type_id":"4","last_reported":1687536577,"current_range_meters":18400,"station_id":"ce4bha92rcd13ifvqeg0","pricing_plan_id":"free"},{"bike_id":"dbf684ff-e6c9-443e-b0ea-d13f8e29d625","system_id":"levelo_inurba_marseille","lat":43.294153,"lon":5.386305,"is_reserved":false,"is_disabled":false,"rental_uris":{"android":"levelo://app?vid=dbf684ff-e6c9-443e-b0ea-d13f8e29d625","ios":"levelo://app?vid=dbf684ff-e6c9-443e-b0ea-d13f8e29d625"},"vehicle_type_id":"4","last_reported":1687536577,"current_range_meters":28400,"station_id":"ce4bh2h2rcd13ifvqdh0","pricing_plan_id":"free"},{"bike_id":"ec6e2896-472c-4648-b9f5-3d8f7b2a056e","system_id":"levelo_inurba_marseille","lat":43.294153,"lon":5.386305,"is_reserved":false,"is_disabled":false,"rental_uris":{"android":"levelo://app?vid=ec6e2896-472c-4648-b9f5-3d8f7b2a056e","ios":"levelo://app?vid=ec6e2896-472c-4648-b9f5-3d8f7b2a056e"},"vehicle_type_id":"4","last_reported":1687536577,"current_range_meters":29200,"station_id":"ce4bh2h2rcd13ifvqdh0","pricing_plan_id":"free"},{"bike_id":"d114d56a-3b03-4f84-9182-cd278b00e2af","system_id":"levelo_inurba_marseille","lat":43.294153,"lon":5.386305,"is_reserved":false,"is_disabled":false,"rental_uris":{"android":"levelo://app?vid=d114d56a-3b03-4f84-9182-cd278b00e2af","ios":"levelo://app?vid=d114d56a-3b03-4f84-9182-cd278b00e2af"},"vehicle_type_id":"4","last_reported":1687536577,"current_range_meters":12400,"station_id":"ce4bh2h2rcd13ifvqdh0","pricing_plan_id":"free"},{"bike_id":"5f51b425-d2e1-4a18-a1ec-da98459bcdf7","system_id":"levelo_inurba_marseille","lat":43.29421,"lon":5.38625,"is_reserved":false,"is_disabled":false,"rental_uris":{"android":"levelo://app?vid=5f51b425-d2e1-4a18-a1ec-da98459bcdf7","ios":"levelo://app?vid=5f51b425-d2e1-4a18-a1ec-da98459bcdf7"},"vehicle_type_id":"4","last_reported":1687536577,"current_range_meters":13600,"station_id":"ce4bh2h2rcd13ifvqdh0","pricing_plan_id":"free"},{"bike_id":"2bc57a65-4660-4b02-b5f4-96834750d136","system_id":"levelo_inurba_marseille","lat":43.2942,"lon":5.38624,"is_reserved":false,"is_disabled":false,"rental_uris":{"android":"levelo://app?vid=2bc57a65-4660-4b02-b5f4-96834750d136","ios":"levelo://app?vid=2bc57a65-4660-4b02-b5f4-96834750d136"},"vehicle_type_id":"4","last_reported":1687536577,"current_range_meters":19600,"station_id":"ce4bh2h2rcd13ifvqdh0","pricing_plan_id":"free"},{"bike_id":"31887296-a099-413b-9508-fc0aac1658d9","system_id":"levelo_inurba_marseille","lat":43.29417,"lon":5.38623,"is_reserved":false,"is_disabled":false,"rental_uris":{"android":"levelo://app?vid=31887296-a099-413b-9508-fc0aac1658d9","ios":"levelo://app?vid=31887296-a099-413b-9508-fc0aac1658d9"},"vehicle_type_id":"4","last_reported":1687536577,"current_range_meters":22000,"station_id":"ce4bh2h2rcd13ifvqdh0","pricing_plan_id":"free"},{"bike_id":"0e75f15e-6c0a-4e29-8321-80457bcf74bb","system_id":"levelo_inurba_marseille","lat":43.29421,"lon":5.38632,"is_reserved":false,"is_disabled":false,"rental_uris":{"android":"levelo://app?vid=0e75f15e-6c0a-4e29-8321-80457bcf74bb","ios":"levelo://app?vid=0e75f15e-6c0a-4e29-8321-80457bcf74bb"},"vehicle_type_id":"4","last_reported":1687536577,"current_range_meters":24400,"station_id":"ce4bh2h2rcd13ifvqdh0","pricing_plan_id":"free"},{"bike_id":"20b2702a-2cf1-439f-b7da-41f192fa1a0a","system_id":"levelo_inurba_marseille","lat":43.29411,"lon":5.38614,"is_reserved":false,"is_disabled":false,"rental_uris":{"android":"levelo://app?vid=20b2702a-2cf1-439f-b7da-41f192fa1a0a","ios":"levelo://app?vid=20b2702a-2cf1-439f-b7da-41f192fa1a0a"},"vehicle_type_id":"4","last_reported":1687536577,"current_range_meters":22400,"station_id":"","pricing_plan_id":"free"},{"bike_id":"677ee49b-29d1-409e-a0f0-a94ea0110fbb","system_id":"levelo_inurba_marseille","lat":43.29416,"lon":5.38626,"is_reserved":false,"is_disabled":false,"rental_uris":{"android":"levelo://app?vid=677ee49b-29d1-409e-a0f0-a94ea0110fbb","ios":"levelo://app?vid=677ee49b-29d1-409e-a0f0-a94ea0110fbb"},"vehicle_type_id":"4","last_reported":1687536577,"current_range_meters":8800,"station_id":"ce4bh2h2rcd13ifvqdh0","pricing_plan_id":"free"},{"bike_id":"278df56a-e788-4155-ae46-dabec27f0d5c","system_id":"levelo_inurba_marseille","lat":43.29411,"lon":5.38619,"is_reserved":false,"is_disabled":false,"rental_uris":{"android":"levelo://app?vid=278df56a-e788-4155-ae46-dabec27f0d5c","ios":"levelo://app?vid=278df56a-e788-4155-ae46-dabec27f0d5c"},"vehicle_type_id":"4","last_reported":1687536577,"current_range_meters":29200,"station_id":"ce4bh2h2rcd13ifvqdh0","pricing_plan_id":"free"},{"bike_id":"d2f9b343-4a70-4936-af9c-0932f4f7521c","system_id":"levelo_inurba_marseille","lat":43.289389,"lon":5.366444,"is_reserved":false,"is_disabled":false,"rental_uris":{"android":"levelo://app?vid=d2f9b343-4a70-4936-af9c-0932f4f7521c","ios":"levelo://app?vid=d2f9b343-4a70-4936-af9c-0932f4f7521c"},"vehicle_type_id":"4","last_reported":1687536577,"current_range_meters":4800,"station_id":"ce4bhap2rcd13ifvqek0","pricing_plan_id":"free"},{"bike_id":"e36874dc-7135-4ebc-b4cd-8f7cd3793fb7","system_id":"levelo_inurba_marseille","lat":43.30364,"lon":5.39708,"is_reserved":false,"is_disabled":false,"rental_uris":{"android":"levelo://app?vid=e36874dc-7135-4ebc-b4cd-8f7cd3793fb7","ios":"levelo://app?vid=e36874dc-7135-4ebc-b4cd-8f7cd3793fb7"},"vehicle_type_id":"4","last_reported":1687536577,"current_range_meters":26000,"station_id":"","pricing_plan_id":"free"},{"bike_id":"bf999b5c-9dbe-4cb8-a8be-0144f6aaedc3","system_id":"levelo_inurba_marseille","lat":43.290103,"lon":5.356114,"is_reserved":false,"is_disabled":false,"rental_uris":{"android":"levelo://app?vid=bf999b5c-9dbe-4cb8-a8be-0144f6aaedc3","ios":"levelo://app?vid=bf999b5c-9dbe-4cb8-a8be-0144f6aaedc3"},"vehicle_type_id":"4","last_reported":1687536577,"current_range_meters":800,"station_id":"ce4bhb92rcd13ifvqen0","pricing_plan_id":"free"},{"bike_id":"35ea2600-5d30-4342-8d08-d92bcb0f4189","system_id":"levelo_inurba_marseille","lat":43.290103,"lon":5.356114,"is_reserved":false,"is_disabled":false,"rental_uris":{"android":"levelo://app?vid=35ea2600-5d30-4342-8d08-d92bcb0f4189","ios":"levelo://app?vid=35ea2600-5d30-4342-8d08-d92bcb0f4189"},"vehicle_type_id":"4","last_reported":1687536577,"current_range_meters":800,"station_id":"ce4bhb92rcd13ifvqen0","pricing_plan_id":"free"},{"bike_id":"6fe8e591-0c65-4fc8-af47-2c7dc65faa49","system_id":"levelo_inurba_marseille","lat":43.295169,"lon":5.390426,"is_reserved":false,"is_disabled":false,"rental_uris":{"android":"levelo://app?vid=6fe8e591-0c65-4fc8-af47-2c7dc65faa49","ios":"levelo://app?vid=6fe8e591-0c65-4fc8-af47-2c7dc65faa49"},"vehicle_type_id":"4","last_reported":1687536577,"current_range_meters":13200,"station_id":"ce4bh3p2rcd13ifvqdp0","pricing_plan_id":"free"},{"bike_id":"7f54b8e6-2a46-41c5-8308-91d5734605e3","system_id":"levelo_inurba_marseille","lat":43.29798,"lon":5.39357,"is_reserved":false,"is_disabled":false,"rental_uris":{"android":"levelo://app?vid=7f54b8e6-2a46-41c5-8308-91d5734605e3","ios":"levelo://app?vid=7f54b8e6-2a46-41c5-8308-91d5734605e3"},"vehicle_type_id":"4","last_reported":1687536577,"current_range_meters":7200,"station_id":"chh1huq6cuj3fo74tm60","pricing_plan_id":"free"},{"bike_id":"6b76734e-49b6-462f-adbf-33d5001d9303","system_id":"levelo_inurba_marseille","lat":43.297815,"lon":5.393548,"is_reserved":false,"is_disabled":false,"rental_uris":{"android":"levelo://app?vid=6b76734e-49b6-462f-adbf-33d5001d9303","ios":"levelo://app?vid=6b76734e-49b6-462f-adbf-33d5001d9303"},"vehicle_type_id":"4","last_reported":1687536577,"current_range_meters":12000,"station_id":"chh1huq6cuj3fo74tm60","pricing_plan_id":"free"},{"bike_id":"4967d961-6dbd-4d84-8a1c-60186f3ea30e","system_id":"levelo_inurba_marseille","lat":43.29794,"lon":5.39356,"is_reserved":false,"is_disabled":false,"rental_uris":{"android":"levelo://app?vid=4967d961-6dbd-4d84-8a1c-60186f3ea30e","ios":"levelo://app?vid=4967d961-6dbd-4d84-8a1c-60186f3ea30e"},"vehicle_type_id":"4","last_reported":1687536577,"current_range_meters":6800,"station_id":"chh1huq6cuj3fo74tm60","pricing_plan_id":"free"},{"bike_id":"a0fc811e-78ac-4eb1-be6f-c409bc6cf286","system_id":"levelo_inurba_marseille","lat":43.297815,"lon":5.393548,"is_reserved":false,"is_disabled":false,"rental_uris":{"android":"levelo://app?vid=a0fc811e-78ac-4eb1-be6f-c409bc6cf286","ios":"levelo://app?vid=a0fc811e-78ac-4eb1-be6f-c409bc6cf286"},"vehicle_type_id":"4","last_reported":1687536577,"current_range_meters":2000,"station_id":"chh1huq6cuj3fo74tm60","pricing_plan_id":"free"},{"bike_id":"8daa5062-0d6c-4f97-a3eb-1141bc708c6f","system_id":"levelo_inurba_marseille","lat":43.295169,"lon":5.390426,"is_reserved":false,"is_disabled":false,"rental_uris":{"android":"levelo://app?vid=8daa5062-0d6c-4f97-a3eb-1141bc708c6f","ios":"levelo://app?vid=8daa5062-0d6c-4f97-a3eb-1141bc708c6f"},"vehicle_type_id":"4","last_reported":1687536577,"current_range_meters":5600,"station_id":"ce4bh3p2rcd13ifvqdp0","pricing_plan_id":"free"},{"bike_id":"2110e1ef-74f4-4fe4-a030-f19e25b912e0","system_id":"levelo_inurba_marseille","lat":43.289741,"lon":5.378306,"is_reserved":false,"is_disabled":false,"rental_uris":{"android":"levelo://app?vid=2110e1ef-74f4-4fe4-a030-f19e25b912e0","ios":"levelo://app?vid=2110e1ef-74f4-4fe4-a030-f19e25b912e0"},"vehicle_type_id":"4","last_reported":1687536577,"current_range_meters":2400,"station_id":"ce4bh9p2rcd13ifvqed0","pricing_plan_id":"free"},{"bike_id":"a7aa2a4c-8431-429e-86e7-d0a9de8fe923","system_id":"levelo_inurba_marseille","lat":43.295169,"lon":5.390426,"is_reserved":false,"is_disabled":false,"rental_uris":{"android":"levelo://app?vid=a7aa2a4c-8431-429e-86e7-d0a9de8fe923","ios":"levelo://app?vid=a7aa2a4c-8431-429e-86e7-d0a9de8fe923"},"vehicle_type_id":"4","last_reported":1687536577,"current_range_meters":13200,"station_id":"ce4bh3p2rcd13ifvqdp0","pricing_plan_id":"free"},{"bike_id":"bf5c917e-1901-4a4f-b67d-fe958bc35ae3","system_id":"levelo_inurba_marseille","lat":43.2901,"lon":5.381269,"is_reserved":false,"is_disabled":false,"rental_uris":{"android":"levelo://app?vid=bf5c917e-1901-4a4f-b67d-fe958bc35ae3","ios":"levelo://app?vid=bf5c917e-1901-4a4f-b67d-fe958bc35ae3"},"vehicle_type_id":"4","last_reported":1687536577,"current_range_meters":11600,"station_id":"ce4bh4p2rcd13ifvqe1g","pricing_plan_id":"free"},{"bike_id":"ecb0999e-c9e9-414c-a196-2b23f9ff9bdb","system_id":"levelo_inurba_marseille","lat":43.29343,"lon":5.38837,"is_reserved":false,"is_disabled":false,"rental_uris":{"android":"levelo://app?vid=ecb0999e-c9e9-414c-a196-2b23f9ff9bdb","ios":"levelo://app?vid=ecb0999e-c9e9-414c-a196-2b23f9ff9bdb"},"vehicle_type_id":"4","last_reported":1687536577,"current_range_meters":22800,"station_id":"","pricing_plan_id":"free"},{"bike_id":"6d4cc350-db8a-40de-a669-b6899b1dc6e6","system_id":"levelo_inurba_marseille","lat":43.28854,"lon":5.35865,"is_reserved":false,"is_disabled":false,"rental_uris":{"android":"levelo://app?vid=6d4cc350-db8a-40de-a669-b6899b1dc6e6","ios":"levelo://app?vid=6d4cc350-db8a-40de-a669-b6899b1dc6e6"},"vehicle_type_id":"4","last_reported":1687536577,"current_range_meters":18400,"station_id":"ce4bhb12rcd13ifvqem0","pricing_plan_id":"free"},{"bike_id":"1eef44a9-6490-4310-a56d-e52aaf1acd03","system_id":"levelo_inurba_marseille","lat":43.28856,"lon":5.358371,"is_reserved":false,"is_disabled":false,"rental_uris":{"android":"levelo://app?vid=1eef44a9-6490-4310-a56d-e52aaf1acd03","ios":"levelo://app?vid=1eef44a9-6490-4310-a56d-e52aaf1acd03"},"vehicle_type_id":"4","last_reported":1687536577,"current_range_meters":24800,"station_id":"ce4bhb12rcd13ifvqem0","pricing_plan_id":"free"},{"bike_id":"3f8a925a-6a54-4259-a38f-9cf091aab246","system_id":"levelo_inurba_marseille","lat":43.29262,"lon":5.38752,"is_reserved":false,"is_disabled":false,"rental_uris":{"android":"levelo://app?vid=3f8a925a-6a54-4259-a38f-9cf091aab246","ios":"levelo://app?vid=3f8a925a-6a54-4259-a38f-9cf091aab246"},"vehicle_type_id":"4","last_reported":1687536577,"current_range_meters":24800,"station_id":"","pricing_plan_id":"free"},{"bike_id":"dda50222-43cd-4144-8d31-56c6d09a137a","system_id":"levelo_inurba_marseille","lat":43.28904,"lon":5.37876,"is_reserved":false,"is_disabled":false,"rental_uris":{"android":"levelo://app?vid=dda50222-43cd-4144-8d31-56c6d09a137a","ios":"levelo://app?vid=dda50222-43cd-4144-8d31-56c6d09a137a"},"vehicle_type_id":"4","last_reported":1687536577,"current_range_meters":25600,"station_id":"","pricing_plan_id":"free"},{"bike_id":"c180ae38-f769-441f-8a55-5a6e4930e6ad","system_id":"levelo_inurba_marseille","lat":43.3375,"lon":5.37439,"is_reserved":false,"is_disabled":false,"rental_uris":{"android":"levelo://app?vid=c180ae38-f769-441f-8a55-5a6e4930e6ad","ios":"levelo://app?vid=c180ae38-f769-441f-8a55-5a6e4930e6ad"},"vehicle_type_id":"4","last_reported":1687536577,"current_range_meters":28000,"station_id":"","pricing_plan_id":"free"},{"bike_id":"b0bd3bcb-bd35-4f75-8285-8f528f09b8d5","system_id":"levelo_inurba_marseille","lat":43.3375,"lon":5.37466,"is_reserved":false,"is_disabled":false,"rental_uris":{"android":"levelo://app?vid=b0bd3bcb-bd35-4f75-8285-8f528f09b8d5","ios":"levelo://app?vid=b0bd3bcb-bd35-4f75-8285-8f528f09b8d5"},"vehicle_type_id":"4","last_reported":1687536577,"current_range_meters":22800,"station_id":"","pricing_plan_id":"free"},{"bike_id":"cd492e75-0a9f-49b7-aa00-105bf73afc4f","system_id":"levelo_inurba_marseille","lat":43.30123,"lon":5.39867,"is_reserved":false,"is_disabled":false,"rental_uris":{"android":"levelo://app?vid=cd492e75-0a9f-49b7-aa00-105bf73afc4f","ios":"levelo://app?vid=cd492e75-0a9f-49b7-aa00-105bf73afc4f"},"vehicle_type_id":"4","last_reported":1687536577,"current_range_meters":23200,"station_id":"ce4bh0h2rcd13ifvqd40","pricing_plan_id":"free"},{"bike_id":"4b33c325-2f3f-46e5-a1d0-d6ee681dce10","system_id":"levelo_inurba_marseille","lat":43.30126,"lon":5.39899,"is_reserved":false,"is_disabled":false,"rental_uris":{"android":"levelo://app?vid=4b33c325-2f3f-46e5-a1d0-d6ee681dce10","ios":"levelo://app?vid=4b33c325-2f3f-46e5-a1d0-d6ee681dce10"},"vehicle_type_id":"4","last_reported":1687536577,"current_range_meters":6000,"station_id":"ce4bh0h2rcd13ifvqd40","pricing_plan_id":"free"},{"bike_id":"cc735c9c-a5df-4809-a9cb-2bb1a58969f1","system_id":"levelo_inurba_marseille","lat":43.295196,"lon":5.39397,"is_reserved":false,"is_disabled":false,"rental_uris":{"android":"levelo://app?vid=cc735c9c-a5df-4809-a9cb-2bb1a58969f1","ios":"levelo://app?vid=cc735c9c-a5df-4809-a9cb-2bb1a58969f1"},"vehicle_type_id":"4","last_reported":1687536577,"current_range_meters":22400,"station_id":"ce4bh292rcd13ifvqdf0","pricing_plan_id":"free"},{"bike_id":"b01a10a4-64cd-42e0-b976-ed000c11d950","system_id":"levelo_inurba_marseille","lat":43.29879,"lon":5.39744,"is_reserved":false,"is_disabled":false,"rental_uris":{"android":"levelo://app?vid=b01a10a4-64cd-42e0-b976-ed000c11d950","ios":"levelo://app?vid=b01a10a4-64cd-42e0-b976-ed000c11d950"},"vehicle_type_id":"4","last_reported":1687536577,"current_range_meters":0,"station_id":"ce4bh0h2rcd13ifvqd50","pricing_plan_id":"free"},{"bike_id":"9dceb338-51a2-4989-afb0-394bcf966404","system_id":"levelo_inurba_marseille","lat":43.298681,"lon":5.397225,"is_reserved":false,"is_disabled":false,"rental_uris":{"android":"levelo://app?vid=9dceb338-51a2-4989-afb0-394bcf966404","ios":"levelo://app?vid=9dceb338-51a2-4989-afb0-394bcf966404"},"vehicle_type_id":"4","last_reported":1687536577,"current_range_meters":3600,"station_id":"ce4bh0h2rcd13ifvqd50","pricing_plan_id":"free"},{"bike_id":"834b5575-be85-447e-9bd9-93228fd6560e","system_id":"levelo_inurba_marseille","lat":43.295196,"lon":5.39397,"is_reserved":false,"is_disabled":false,"rental_uris":{"android":"levelo://app?vid=834b5575-be85-447e-9bd9-93228fd6560e","ios":"levelo://app?vid=834b5575-be85-447e-9bd9-93228fd6560e"},"vehicle_type_id":"4","last_reported":1687536577,"current_range_meters":16800,"station_id":"ce4bh292rcd13ifvqdf0","pricing_plan_id":"free"},{"bike_id":"1800c2e7-0a89-4130-8736-1e3615ac7452","system_id":"levelo_inurba_marseille","lat":43.28738,"lon":5.37632,"is_reserved":false,"is_disabled":false,"rental_uris":{"android":"levelo://app?vid=1800c2e7-0a89-4130-8736-1e3615ac7452","ios":"levelo://app?vid=1800c2e7-0a89-4130-8736-1e3615ac7452"},"vehicle_type_id":"4","last_reported":1687536577,"current_range_meters":4400,"station_id":"","pricing_plan_id":"free"},{"bike_id":"3fcb935a-ea34-4c50-b0e6-2457576f7c3f","system_id":"levelo_inurba_marseille","lat":43.295196,"lon":5.39397,"is_reserved":false,"is_disabled":false,"rental_uris":{"android":"levelo://app?vid=3fcb935a-ea34-4c50-b0e6-2457576f7c3f","ios":"levelo://app?vid=3fcb935a-ea34-4c50-b0e6-2457576f7c3f"},"vehicle_type_id":"4","last_reported":1687536577,"current_range_meters":6000,"station_id":"ce4bh292rcd13ifvqdf0","pricing_plan_id":"free"},{"bike_id":"30f25660-39b4-4fbc-bab9-3986f0541e44","system_id":"levelo_inurba_marseille","lat":43.295196,"lon":5.39397,"is_reserved":false,"is_disabled":false,"rental_uris":{"android":"levelo://app?vid=30f25660-39b4-4fbc-bab9-3986f0541e44","ios":"levelo://app?vid=30f25660-39b4-4fbc-bab9-3986f0541e44"},"vehicle_type_id":"4","last_reported":1687536577,"current_range_meters":23200,"station_id":"ce4bh292rcd13ifvqdf0","pricing_plan_id":"free"},{"bike_id":"fd83c503-d99a-46db-84f4-8019826586b5","system_id":"levelo_inurba_marseille","lat":43.295196,"lon":5.39397,"is_reserved":false,"is_disabled":false,"rental_uris":{"android":"levelo://app?vid=fd83c503-d99a-46db-84f4-8019826586b5","ios":"levelo://app?vid=fd83c503-d99a-46db-84f4-8019826586b5"},"vehicle_type_id":"4","last_reported":1687536577,"current_range_meters":0,"station_id":"ce4bh292rcd13ifvqdf0","pricing_plan_id":"free"},{"bike_id":"6437ae31-b1f1-400e-a329-b31c1cac2937","system_id":"levelo_inurba_marseille","lat":43.286039,"lon":5.370679,"is_reserved":false,"is_disabled":false,"rental_uris":{"android":"levelo://app?vid=6437ae31-b1f1-400e-a329-b31c1cac2937","ios":"levelo://app?vid=6437ae31-b1f1-400e-a329-b31c1cac2937"},"vehicle_type_id":"4","last_reported":1687536577,"current_range_meters":9600,"station_id":"ce4bht12rcd13ifvqi60","pricing_plan_id":"free"},{"bike_id":"9fc549c9-bb25-46f2-8eea-cb78926b876a","system_id":"levelo_inurba_marseille","lat":43.295196,"lon":5.39397,"is_reserved":false,"is_disabled":false,"rental_uris":{"android":"levelo://app?vid=9fc549c9-bb25-46f2-8eea-cb78926b876a","ios":"levelo://app?vid=9fc549c9-bb25-46f2-8eea-cb78926b876a"},"vehicle_type_id":"4","last_reported":1687536577,"current_range_meters":11200,"station_id":"ce4bh292rcd13ifvqdf0","pricing_plan_id":"free"},{"bike_id":"343d261c-ba5f-44ca-9780-b786d86a6347","system_id":"levelo_inurba_marseille","lat":43.302759,"lon":5.400793,"is_reserved":false,"is_disabled":false,"rental_uris":{"android":"levelo://app?vid=343d261c-ba5f-44ca-9780-b786d86a6347","ios":"levelo://app?vid=343d261c-ba5f-44ca-9780-b786d86a6347"},"vehicle_type_id":"4","last_reported":1687536577,"current_range_meters":26400,"station_id":"ce4bgvh2rcd13ifvqcs0","pricing_plan_id":"free"},{"bike_id":"1b6f7779-b995-438b-bd3c-833bbc366443","system_id":"levelo_inurba_marseille","lat":43.295196,"lon":5.39397,"is_reserved":false,"is_disabled":false,"rental_uris":{"android":"levelo://app?vid=1b6f7779-b995-438b-bd3c-833bbc366443","ios":"levelo://app?vid=1b6f7779-b995-438b-bd3c-833bbc366443"},"vehicle_type_id":"4","last_reported":1687536577,"current_range_meters":27200,"station_id":"ce4bh292rcd13ifvqdf0","pricing_plan_id":"free"},{"bike_id":"62d5d07d-af68-401a-91c9-1edc7d7c4ba7","system_id":"levelo_inurba_marseille","lat":43.29037,"lon":5.3866,"is_reserved":false,"is_disabled":false,"rental_uris":{"android":"levelo://app?vid=62d5d07d-af68-401a-91c9-1edc7d7c4ba7","ios":"levelo://app?vid=62d5d07d-af68-401a-91c9-1edc7d7c4ba7"},"vehicle_type_id":"4","last_reported":1687536577,"current_range_meters":4800,"station_id":"ce4bh4p2rcd13ifvqe0g","pricing_plan_id":"free"},{"bike_id":"a42018a4-e819-42c7-9aee-42405424b29d","system_id":"levelo_inurba_marseille","lat":43.290345,"lon":5.38646,"is_reserved":false,"is_disabled":false,"rental_uris":{"android":"levelo://app?vid=a42018a4-e819-42c7-9aee-42405424b29d","ios":"levelo://app?vid=a42018a4-e819-42c7-9aee-42405424b29d"},"vehicle_type_id":"4","last_reported":1687536577,"current_range_meters":13600,"station_id":"ce4bh4p2rcd13ifvqe0g","pricing_plan_id":"free"},{"bike_id":"f9d1ccbc-a107-443c-9672-541d78774c98","system_id":"levelo_inurba_marseille","lat":43.290336,"lon":5.386425,"is_reserved":false,"is_disabled":false,"rental_uris":{"android":"levelo://app?vid=f9d1ccbc-a107-443c-9672-541d78774c98","ios":"levelo://app?vid=f9d1ccbc-a107-443c-9672-541d78774c98"},"vehicle_type_id":"4","last_reported":1687536577,"current_range_meters":1200,"station_id":"ce4bh4p2rcd13ifvqe0g","pricing_plan_id":"free"},{"bike_id":"d1e7930f-f1cc-4c53-b387-eaf6098b249d","system_id":"levelo_inurba_marseille","lat":43.30253,"lon":5.40071,"is_reserved":false,"is_disabled":false,"rental_uris":{"android":"levelo://app?vid=d1e7930f-f1cc-4c53-b387-eaf6098b249d","ios":"levelo://app?vid=d1e7930f-f1cc-4c53-b387-eaf6098b249d"},"vehicle_type_id":"4","last_reported":1687536577,"current_range_meters":0,"station_id":"ce4bgvh2rcd13ifvqcs0","pricing_plan_id":"free"},{"bike_id":"b0a0502b-388a-4017-8d91-c597230bf3f5","system_id":"levelo_inurba_marseille","lat":43.302759,"lon":5.400793,"is_reserved":false,"is_disabled":false,"rental_uris":{"android":"levelo://app?vid=b0a0502b-388a-4017-8d91-c597230bf3f5","ios":"levelo://app?vid=b0a0502b-388a-4017-8d91-c597230bf3f5"},"vehicle_type_id":"4","last_reported":1687536577,"current_range_meters":12400,"station_id":"ce4bgvh2rcd13ifvqcs0","pricing_plan_id":"free"},{"bike_id":"f1369274-9c6d-4e5f-93b8-b90a2c9fae75","system_id":"levelo_inurba_marseille","lat":43.302759,"lon":5.400793,"is_reserved":false,"is_disabled":false,"rental_uris":{"android":"levelo://app?vid=f1369274-9c6d-4e5f-93b8-b90a2c9fae75","ios":"levelo://app?vid=f1369274-9c6d-4e5f-93b8-b90a2c9fae75"},"vehicle_type_id":"4","last_reported":1687536577,"current_range_meters":18800,"station_id":"ce4bgvh2rcd13ifvqcs0","pricing_plan_id":"free"},{"bike_id":"5aaf98d7-885b-471e-b0af-60192baaac55","system_id":"levelo_inurba_marseille","lat":43.286039,"lon":5.370679,"is_reserved":false,"is_disabled":false,"rental_uris":{"android":"levelo://app?vid=5aaf98d7-885b-471e-b0af-60192baaac55","ios":"levelo://app?vid=5aaf98d7-885b-471e-b0af-60192baaac55"},"vehicle_type_id":"4","last_reported":1687536577,"current_range_meters":12000,"station_id":"ce4bht12rcd13ifvqi60","pricing_plan_id":"free"},{"bike_id":"771feaf0-438e-414d-9167-a6d7844a2df6","system_id":"levelo_inurba_marseille","lat":43.302759,"lon":5.400793,"is_reserved":false,"is_disabled":false,"rental_uris":{"android":"levelo://app?vid=771feaf0-438e-414d-9167-a6d7844a2df6","ios":"levelo://app?vid=771feaf0-438e-414d-9167-a6d7844a2df6"},"vehicle_type_id":"4","last_reported":1687536577,"current_range_meters":28400,"station_id":"ce4bgvh2rcd13ifvqcs0","pricing_plan_id":"free"},{"bike_id":"a0aac914-6b51-43ad-9a73-6c0723a92811","system_id":"levelo_inurba_marseille","lat":43.294314,"lon":5.397498,"is_reserved":false,"is_disabled":false,"rental_uris":{"android":"levelo://app?vid=a0aac914-6b51-43ad-9a73-6c0723a92811","ios":"levelo://app?vid=a0aac914-6b51-43ad-9a73-6c0723a92811"},"vehicle_type_id":"4","last_reported":1687536577,"current_range_meters":7200,"station_id":"ce4bh3h2rcd13ifvqdo0","pricing_plan_id":"free"},{"bike_id":"80e6e821-d1d5-4759-9284-6b9993fe5cf5","system_id":"levelo_inurba_marseille","lat":43.28621,"lon":5.35103,"is_reserved":false,"is_disabled":false,"rental_uris":{"android":"levelo://app?vid=80e6e821-d1d5-4759-9284-6b9993fe5cf5","ios":"levelo://app?vid=80e6e821-d1d5-4759-9284-6b9993fe5cf5"},"vehicle_type_id":"4","last_reported":1687536577,"current_range_meters":20000,"station_id":"ce4bhch2rcd13ifvqeug","pricing_plan_id":"free"},{"bike_id":"766d6470-3a32-419e-bb7f-2eb1322cd877","system_id":"levelo_inurba_marseille","lat":43.28618,"lon":5.35105,"is_reserved":false,"is_disabled":false,"rental_uris":{"android":"levelo://app?vid=766d6470-3a32-419e-bb7f-2eb1322cd877","ios":"levelo://app?vid=766d6470-3a32-419e-bb7f-2eb1322cd877"},"vehicle_type_id":"4","last_reported":1687536577,"current_range_meters":13600,"station_id":"ce4bhch2rcd13ifvqeug","pricing_plan_id":"free"},{"bike_id":"24cadf7b-4578-49d3-a8bd-1d19e506b801","system_id":"levelo_inurba_marseille","lat":43.283998,"lon":5.375062,"is_reserved":false,"is_disabled":false,"rental_uris":{"android":"levelo://app?vid=24cadf7b-4578-49d3-a8bd-1d19e506b801","ios":"levelo://app?vid=24cadf7b-4578-49d3-a8bd-1d19e506b801"},"vehicle_type_id":"4","last_reported":1687536577,"current_range_meters":20800,"station_id":"ce4bh412rcd13ifvqds0","pricing_plan_id":"free"},{"bike_id":"b3cd20ce-f8e9-488b-8305-d737af254d30","system_id":"levelo_inurba_marseille","lat":43.295713,"lon":5.399639,"is_reserved":false,"is_disabled":false,"rental_uris":{"android":"levelo://app?vid=b3cd20ce-f8e9-488b-8305-d737af254d30","ios":"levelo://app?vid=b3cd20ce-f8e9-488b-8305-d737af254d30"},"vehicle_type_id":"4","last_reported":1687536577,"current_range_meters":23200,"station_id":"ce4bh312rcd13ifvqdj0","pricing_plan_id":"free"},{"bike_id":"581b3d58-58c9-4c3f-9384-937c4a72c183","system_id":"levelo_inurba_marseille","lat":43.283998,"lon":5.375062,"is_reserved":false,"is_disabled":false,"rental_uris":{"android":"levelo://app?vid=581b3d58-58c9-4c3f-9384-937c4a72c183","ios":"levelo://app?vid=581b3d58-58c9-4c3f-9384-937c4a72c183"},"vehicle_type_id":"4","last_reported":1687536577,"current_range_meters":25600,"station_id":"ce4bh412rcd13ifvqds0","pricing_plan_id":"free"},{"bike_id":"197292ff-6d54-4456-ac18-aabefcab144c","system_id":"levelo_inurba_marseille","lat":43.286595,"lon":5.386795,"is_reserved":false,"is_disabled":false,"rental_uris":{"android":"levelo://app?vid=197292ff-6d54-4456-ac18-aabefcab144c","ios":"levelo://app?vid=197292ff-6d54-4456-ac18-aabefcab144c"},"vehicle_type_id":"4","last_reported":1687536577,"current_range_meters":29200,"station_id":"ce4bh492rcd13ifvqdug","pricing_plan_id":"free"},{"bike_id":"47692136-4088-44c1-b84f-d729855dfe73","system_id":"levelo_inurba_marseille","lat":43.282754,"lon":5.350519,"is_reserved":false,"is_disabled":false,"rental_uris":{"android":"levelo://app?vid=47692136-4088-44c1-b84f-d729855dfe73","ios":"levelo://app?vid=47692136-4088-44c1-b84f-d729855dfe73"},"vehicle_type_id":"4","last_reported":1687536577,"current_range_meters":23600,"station_id":"ce4bhbp2rcd13ifvqerg","pricing_plan_id":"free"},{"bike_id":"a54c5183-d12c-4b5d-b1a7-e6c2a62eb9b5","system_id":"levelo_inurba_marseille","lat":43.323464,"lon":5.406297,"is_reserved":false,"is_disabled":false,"rental_uris":{"android":"levelo://app?vid=a54c5183-d12c-4b5d-b1a7-e6c2a62eb9b5","ios":"levelo://app?vid=a54c5183-d12c-4b5d-b1a7-e6c2a62eb9b5"},"vehicle_type_id":"4","last_reported":1687536577,"current_range_meters":22400,"station_id":"ce4bhq92rcd13ifvqhjg","pricing_plan_id":"free"},{"bike_id":"9cae825f-ce49-4976-9212-5608954cbbcd","system_id":"levelo_inurba_marseille","lat":43.323464,"lon":5.406297,"is_reserved":false,"is_disabled":false,"rental_uris":{"android":"levelo://app?vid=9cae825f-ce49-4976-9212-5608954cbbcd","ios":"levelo://app?vid=9cae825f-ce49-4976-9212-5608954cbbcd"},"vehicle_type_id":"4","last_reported":1687536577,"current_range_meters":6400,"station_id":"ce4bhq92rcd13ifvqhjg","pricing_plan_id":"free"},{"bike_id":"b4c950db-352f-4a1a-8e3c-c05101a6dad0","system_id":"levelo_inurba_marseille","lat":43.28853,"lon":5.39323,"is_reserved":false,"is_disabled":false,"rental_uris":{"android":"levelo://app?vid=b4c950db-352f-4a1a-8e3c-c05101a6dad0","ios":"levelo://app?vid=b4c950db-352f-4a1a-8e3c-c05101a6dad0"},"vehicle_type_id":"4","last_reported":1687536577,"current_range_meters":31200,"station_id":"ce4bh2p2rcd13ifvqdi0","pricing_plan_id":"free"},{"bike_id":"7a5a3b23-8370-4db5-b1f2-3954590d29d6","system_id":"levelo_inurba_marseille","lat":43.284219,"lon":5.3497,"is_reserved":false,"is_disabled":false,"rental_uris":{"android":"levelo://app?vid=7a5a3b23-8370-4db5-b1f2-3954590d29d6","ios":"levelo://app?vid=7a5a3b23-8370-4db5-b1f2-3954590d29d6"},"vehicle_type_id":"4","last_reported":1687536577,"current_range_meters":400,"station_id":"ce4bhbh2rcd13ifvqepg","pricing_plan_id":"free"},{"bike_id":"c64c862d-963f-4f21-ad05-719e8d84eb66","system_id":"levelo_inurba_marseille","lat":43.284217,"lon":5.349697,"is_reserved":false,"is_disabled":false,"rental_uris":{"android":"levelo://app?vid=c64c862d-963f-4f21-ad05-719e8d84eb66","ios":"levelo://app?vid=c64c862d-963f-4f21-ad05-719e8d84eb66"},"vehicle_type_id":"4","last_reported":1687536577,"current_range_meters":2800,"station_id":"ce4bhbh2rcd13ifvqepg","pricing_plan_id":"free"},{"bike_id":"bbc8acc6-3934-445d-8506-42958764a673","system_id":"levelo_inurba_marseille","lat":43.29279,"lon":5.40113,"is_reserved":false,"is_disabled":false,"rental_uris":{"android":"levelo://app?vid=bbc8acc6-3934-445d-8506-42958764a673","ios":"levelo://app?vid=bbc8acc6-3934-445d-8506-42958764a673"},"vehicle_type_id":"4","last_reported":1687536577,"current_range_meters":30000,"station_id":"ce4bh312rcd13ifvqdk0","pricing_plan_id":"free"},{"bike_id":"04145b74-1a4c-43bd-a2b4-fea8ec1ac367","system_id":"levelo_inurba_marseille","lat":43.283502,"lon":5.386471,"is_reserved":false,"is_disabled":false,"rental_uris":{"android":"levelo://app?vid=04145b74-1a4c-43bd-a2b4-fea8ec1ac367","ios":"levelo://app?vid=04145b74-1a4c-43bd-a2b4-fea8ec1ac367"},"vehicle_type_id":"4","last_reported":1687536577,"current_range_meters":27200,"station_id":"ce4bh492rcd13ifvqdvg","pricing_plan_id":"free"},{"bike_id":"9f4276d0-4f8f-40a4-9736-fad72525ac3e","system_id":"levelo_inurba_marseille","lat":43.26681,"lon":5.382694,"is_reserved":false,"is_disabled":false,"rental_uris":{"android":"levelo://app?vid=9f4276d0-4f8f-40a4-9736-fad72525ac3e","ios":"levelo://app?vid=9f4276d0-4f8f-40a4-9736-fad72525ac3e"},"vehicle_type_id":"4","last_reported":1687536577,"current_range_meters":23600,"station_id":"ce4bhg92rcd13ifvqf90","pricing_plan_id":"free"},{"bike_id":"77c7565e-0a45-4c38-8534-0f39320a71ec","system_id":"levelo_inurba_marseille","lat":43.28039,"lon":5.369297,"is_reserved":false,"is_disabled":false,"rental_uris":{"android":"levelo://app?vid=77c7565e-0a45-4c38-8534-0f39320a71ec","ios":"levelo://app?vid=77c7565e-0a45-4c38-8534-0f39320a71ec"},"vehicle_type_id":"4","last_reported":1687536577,"current_range_meters":14800,"station_id":"ce4bha12rcd13ifvqef0","pricing_plan_id":"free"},{"bike_id":"20caa5a5-fd98-4cb7-aa90-6c0680a86e8b","system_id":"levelo_inurba_marseille","lat":43.280382,"lon":5.369291,"is_reserved":false,"is_disabled":false,"rental_uris":{"android":"levelo://app?vid=20caa5a5-fd98-4cb7-aa90-6c0680a86e8b","ios":"levelo://app?vid=20caa5a5-fd98-4cb7-aa90-6c0680a86e8b"},"vehicle_type_id":"4","last_reported":1687536577,"current_range_meters":16400,"station_id":"ce4bha12rcd13ifvqef0","pricing_plan_id":"free"},{"bike_id":"a30e72c6-df42-4558-83e0-a4f2730f3d0b","system_id":"levelo_inurba_marseille","lat":43.28039,"lon":5.369297,"is_reserved":false,"is_disabled":false,"rental_uris":{"android":"levelo://app?vid=a30e72c6-df42-4558-83e0-a4f2730f3d0b","ios":"levelo://app?vid=a30e72c6-df42-4558-83e0-a4f2730f3d0b"},"vehicle_type_id":"4","last_reported":1687536577,"current_range_meters":21600,"station_id":"ce4bha12rcd13ifvqef0","pricing_plan_id":"free"},{"bike_id":"50f3a798-ec79-4fe0-b285-1326ae52c348","system_id":"levelo_inurba_marseille","lat":43.290394,"lon":5.399781,"is_reserved":false,"is_disabled":false,"rental_uris":{"android":"levelo://app?vid=50f3a798-ec79-4fe0-b285-1326ae52c348","ios":"levelo://app?vid=50f3a798-ec79-4fe0-b285-1326ae52c348"},"vehicle_type_id":"4","last_reported":1687536577,"current_range_meters":0,"station_id":"","pricing_plan_id":"free"},{"bike_id":"2276a2f2-fa1f-4802-9ec4-9e68df47fd7a","system_id":"levelo_inurba_marseille","lat":43.281065,"lon":5.378315,"is_reserved":false,"is_disabled":false,"rental_uris":{"android":"levelo://app?vid=2276a2f2-fa1f-4802-9ec4-9e68df47fd7a","ios":"levelo://app?vid=2276a2f2-fa1f-4802-9ec4-9e68df47fd7a"},"vehicle_type_id":"4","last_reported":1687536577,"current_range_meters":0,"station_id":"","pricing_plan_id":"free"},{"bike_id":"afda7c00-a976-4bcf-b24b-d797219b58ff","system_id":"levelo_inurba_marseille","lat":43.281044,"lon":5.378308,"is_reserved":false,"is_disabled":false,"rental_uris":{"android":"levelo://app?vid=afda7c00-a976-4bcf-b24b-d797219b58ff","ios":"levelo://app?vid=afda7c00-a976-4bcf-b24b-d797219b58ff"},"vehicle_type_id":"4","last_reported":1687536577,"current_range_meters":15600,"station_id":"ce4bha12rcd13ifvqee0","pricing_plan_id":"free"},{"bike_id":"4e459350-197d-47c8-a070-e37024cae865","system_id":"levelo_inurba_marseille","lat":43.281044,"lon":5.378308,"is_reserved":false,"is_disabled":false,"rental_uris":{"android":"levelo://app?vid=4e459350-197d-47c8-a070-e37024cae865","ios":"levelo://app?vid=4e459350-197d-47c8-a070-e37024cae865"},"vehicle_type_id":"4","last_reported":1687536577,"current_range_meters":26400,"station_id":"ce4bha12rcd13ifvqee0","pricing_plan_id":"free"},{"bike_id":"f748e29e-9508-43fb-864c-0de750a3697d","system_id":"levelo_inurba_marseille","lat":43.281044,"lon":5.378308,"is_reserved":false,"is_disabled":false,"rental_uris":{"android":"levelo://app?vid=f748e29e-9508-43fb-864c-0de750a3697d","ios":"levelo://app?vid=f748e29e-9508-43fb-864c-0de750a3697d"},"vehicle_type_id":"4","last_reported":1687536577,"current_range_meters":23600,"station_id":"ce4bha12rcd13ifvqee0","pricing_plan_id":"free"},{"bike_id":"536dbda3-2e51-41ae-a22d-69275642f078","system_id":"levelo_inurba_marseille","lat":43.281044,"lon":5.378308,"is_reserved":false,"is_disabled":false,"rental_uris":{"android":"levelo://app?vid=536dbda3-2e51-41ae-a22d-69275642f078","ios":"levelo://app?vid=536dbda3-2e51-41ae-a22d-69275642f078"},"vehicle_type_id":"4","last_reported":1687536577,"current_range_meters":5600,"station_id":"ce4bha12rcd13ifvqee0","pricing_plan_id":"free"},{"bike_id":"99c29cfa-be30-4190-bd76-f34471a21fb5","system_id":"levelo_inurba_marseille","lat":43.281044,"lon":5.378308,"is_reserved":false,"is_disabled":false,"rental_uris":{"android":"levelo://app?vid=99c29cfa-be30-4190-bd76-f34471a21fb5","ios":"levelo://app?vid=99c29cfa-be30-4190-bd76-f34471a21fb5"},"vehicle_type_id":"4","last_reported":1687536577,"current_range_meters":7200,"station_id":"ce4bha12rcd13ifvqee0","pricing_plan_id":"free"},{"bike_id":"ff60adae-f71a-4e2f-9c03-c28e9ecc3c45","system_id":"levelo_inurba_marseille","lat":43.32765,"lon":5.40743,"is_reserved":false,"is_disabled":false,"rental_uris":{"android":"levelo://app?vid=ff60adae-f71a-4e2f-9c03-c28e9ecc3c45","ios":"levelo://app?vid=ff60adae-f71a-4e2f-9c03-c28e9ecc3c45"},"vehicle_type_id":"4","last_reported":1687536577,"current_range_meters":9200,"station_id":"","pricing_plan_id":"free"},{"bike_id":"3cd10ad7-a316-4ed6-a3d9-f31d3f3622ac","system_id":"levelo_inurba_marseille","lat":43.34473,"lon":5.37827,"is_reserved":false,"is_disabled":false,"rental_uris":{"android":"levelo://app?vid=3cd10ad7-a316-4ed6-a3d9-f31d3f3622ac","ios":"levelo://app?vid=3cd10ad7-a316-4ed6-a3d9-f31d3f3622ac"},"vehicle_type_id":"4","last_reported":1687536577,"current_range_meters":0,"station_id":"","pricing_plan_id":"free"},{"bike_id":"6f13e6b5-479e-45c3-87b1-0f2ccdf0988d","system_id":"levelo_inurba_marseille","lat":43.284462,"lon":5.392121,"is_reserved":false,"is_disabled":false,"rental_uris":{"android":"levelo://app?vid=6f13e6b5-479e-45c3-87b1-0f2ccdf0988d","ios":"levelo://app?vid=6f13e6b5-479e-45c3-87b1-0f2ccdf0988d"},"vehicle_type_id":"4","last_reported":1687536577,"current_range_meters":18000,"station_id":"ce4bhoh2rcd13ifvqh5g","pricing_plan_id":"free"},{"bike_id":"7babbe14-b96b-4eed-b6de-1cd28b11868e","system_id":"levelo_inurba_marseille","lat":43.28573,"lon":5.394992,"is_reserved":false,"is_disabled":false,"rental_uris":{"android":"levelo://app?vid=7babbe14-b96b-4eed-b6de-1cd28b11868e","ios":"levelo://app?vid=7babbe14-b96b-4eed-b6de-1cd28b11868e"},"vehicle_type_id":"4","last_reported":1687536577,"current_range_meters":9600,"station_id":"ce4bh292rcd13ifvqdg0","pricing_plan_id":"free"},{"bike_id":"8ba70a55-4fcb-41bb-97e4-18961bf7b561","system_id":"levelo_inurba_marseille","lat":43.32656,"lon":5.40987,"is_reserved":false,"is_disabled":false,"rental_uris":{"android":"levelo://app?vid=8ba70a55-4fcb-41bb-97e4-18961bf7b561","ios":"levelo://app?vid=8ba70a55-4fcb-41bb-97e4-18961bf7b561"},"vehicle_type_id":"4","last_reported":1687536577,"current_range_meters":26000,"station_id":"ce4bhpp2rcd13ifvqhgg","pricing_plan_id":"free"},{"bike_id":"396b44d2-0222-401b-ad95-29df0edcef80","system_id":"levelo_inurba_marseille","lat":43.32655,"lon":5.40991,"is_reserved":false,"is_disabled":false,"rental_uris":{"android":"levelo://app?vid=396b44d2-0222-401b-ad95-29df0edcef80","ios":"levelo://app?vid=396b44d2-0222-401b-ad95-29df0edcef80"},"vehicle_type_id":"4","last_reported":1687536577,"current_range_meters":20400,"station_id":"ce4bhpp2rcd13ifvqhgg","pricing_plan_id":"free"},{"bike_id":"98303904-3e78-415b-a87f-14d974bd0418","system_id":"levelo_inurba_marseille","lat":43.32657,"lon":5.4099,"is_reserved":false,"is_disabled":false,"rental_uris":{"android":"levelo://app?vid=98303904-3e78-415b-a87f-14d974bd0418","ios":"levelo://app?vid=98303904-3e78-415b-a87f-14d974bd0418"},"vehicle_type_id":"4","last_reported":1687536577,"current_range_meters":5200,"station_id":"ce4bhpp2rcd13ifvqhgg","pricing_plan_id":"free"},{"bike_id":"fc2a51fe-3bf8-46f3-9fe8-f24612d4a02a","system_id":"levelo_inurba_marseille","lat":43.326565,"lon":5.409975,"is_reserved":false,"is_disabled":false,"rental_uris":{"android":"levelo://app?vid=fc2a51fe-3bf8-46f3-9fe8-f24612d4a02a","ios":"levelo://app?vid=fc2a51fe-3bf8-46f3-9fe8-f24612d4a02a"},"vehicle_type_id":"4","last_reported":1687536577,"current_range_meters":6800,"station_id":"ce4bhpp2rcd13ifvqhgg","pricing_plan_id":"free"},{"bike_id":"65cfc88b-4e48-4fd7-b8aa-da7e4228ff23","system_id":"levelo_inurba_marseille","lat":43.32665,"lon":5.40996,"is_reserved":false,"is_disabled":false,"rental_uris":{"android":"levelo://app?vid=65cfc88b-4e48-4fd7-b8aa-da7e4228ff23","ios":"levelo://app?vid=65cfc88b-4e48-4fd7-b8aa-da7e4228ff23"},"vehicle_type_id":"4","last_reported":1687536577,"current_range_meters":0,"station_id":"ce4bhpp2rcd13ifvqhgg","pricing_plan_id":"free"},{"bike_id":"ccacf6e7-83f3-470e-85b0-3a4e776703b5","system_id":"levelo_inurba_marseille","lat":43.304188,"lon":5.412904,"is_reserved":false,"is_disabled":false,"rental_uris":{"android":"levelo://app?vid=ccacf6e7-83f3-470e-85b0-3a4e776703b5","ios":"levelo://app?vid=ccacf6e7-83f3-470e-85b0-3a4e776703b5"},"vehicle_type_id":"4","last_reported":1687536577,"current_range_meters":20800,"station_id":"ce4bhop2rcd13ifvqh8g","pricing_plan_id":"free"},{"bike_id":"f47d889e-f3a7-4cf7-b89b-498d12032e77","system_id":"levelo_inurba_marseille","lat":43.29293,"lon":5.40662,"is_reserved":false,"is_disabled":false,"rental_uris":{"android":"levelo://app?vid=f47d889e-f3a7-4cf7-b89b-498d12032e77","ios":"levelo://app?vid=f47d889e-f3a7-4cf7-b89b-498d12032e77"},"vehicle_type_id":"4","last_reported":1687536577,"current_range_meters":8000,"station_id":"","pricing_plan_id":"free"},{"bike_id":"481287dd-10da-40e3-b1be-66af21ce8473","system_id":"levelo_inurba_marseille","lat":43.279087,"lon":5.380114,"is_reserved":false,"is_disabled":false,"rental_uris":{"android":"levelo://app?vid=481287dd-10da-40e3-b1be-66af21ce8473","ios":"levelo://app?vid=481287dd-10da-40e3-b1be-66af21ce8473"},"vehicle_type_id":"4","last_reported":1687536577,"current_range_meters":3200,"station_id":"ce4bhf92rcd13ifvqf50","pricing_plan_id":"free"},{"bike_id":"50fd953c-9754-45f4-aec7-ae52bb9eb6fe","system_id":"levelo_inurba_marseille","lat":43.287154,"lon":5.399979,"is_reserved":false,"is_disabled":false,"rental_uris":{"android":"levelo://app?vid=50fd953c-9754-45f4-aec7-ae52bb9eb6fe","ios":"levelo://app?vid=50fd953c-9754-45f4-aec7-ae52bb9eb6fe"},"vehicle_type_id":"4","last_reported":1687536577,"current_range_meters":31200,"station_id":"ce4bho92rcd13ifvqh3g","pricing_plan_id":"free"},{"bike_id":"2aac7f29-8288-493c-ba15-cab5d01852d1","system_id":"levelo_inurba_marseille","lat":43.27618,"lon":5.361009,"is_reserved":false,"is_disabled":false,"rental_uris":{"android":"levelo://app?vid=2aac7f29-8288-493c-ba15-cab5d01852d1","ios":"levelo://app?vid=2aac7f29-8288-493c-ba15-cab5d01852d1"},"vehicle_type_id":"4","last_reported":1687536577,"current_range_meters":800,"station_id":"ce4bgj92rcd13ifvqbe0","pricing_plan_id":"free"},{"bike_id":"4c208ab5-8eff-4959-bb2f-fa7469d3c59a","system_id":"levelo_inurba_marseille","lat":43.29249,"lon":5.40909,"is_reserved":false,"is_disabled":false,"rental_uris":{"android":"levelo://app?vid=4c208ab5-8eff-4959-bb2f-fa7469d3c59a","ios":"levelo://app?vid=4c208ab5-8eff-4959-bb2f-fa7469d3c59a"},"vehicle_type_id":"4","last_reported":1687536577,"current_range_meters":22400,"station_id":"ce4bh192rcd13ifvqdc0","pricing_plan_id":"free"},{"bike_id":"79cc00e8-1e43-47e9-8674-c576036f728e","system_id":"levelo_inurba_marseille","lat":43.27618,"lon":5.361009,"is_reserved":false,"is_disabled":false,"rental_uris":{"android":"levelo://app?vid=79cc00e8-1e43-47e9-8674-c576036f728e","ios":"levelo://app?vid=79cc00e8-1e43-47e9-8674-c576036f728e"},"vehicle_type_id":"4","last_reported":1687536577,"current_range_meters":4000,"station_id":"ce4bgj92rcd13ifvqbe0","pricing_plan_id":"free"},{"bike_id":"d8e863ab-68ed-43d2-8d33-e0408a5dd5d8","system_id":"levelo_inurba_marseille","lat":43.280784,"lon":5.396622,"is_reserved":false,"is_disabled":false,"rental_uris":{"android":"levelo://app?vid=d8e863ab-68ed-43d2-8d33-e0408a5dd5d8","ios":"levelo://app?vid=d8e863ab-68ed-43d2-8d33-e0408a5dd5d8"},"vehicle_type_id":"4","last_reported":1687536577,"current_range_meters":2000,"station_id":"ce4bho12rcd13ifvqh2g","pricing_plan_id":"free"},{"bike_id":"dc4f605c-14f3-4dba-89a1-26fd86f9942d","system_id":"levelo_inurba_marseille","lat":43.30357,"lon":5.41881,"is_reserved":false,"is_disabled":false,"rental_uris":{"android":"levelo://app?vid=dc4f605c-14f3-4dba-89a1-26fd86f9942d","ios":"levelo://app?vid=dc4f605c-14f3-4dba-89a1-26fd86f9942d"},"vehicle_type_id":"4","last_reported":1687536577,"current_range_meters":22400,"station_id":"","pricing_plan_id":"free"},{"bike_id":"756fe492-21f0-4654-a68a-c270fdeea250","system_id":"levelo_inurba_marseille","lat":43.278399,"lon":5.392139,"is_reserved":false,"is_disabled":false,"rental_uris":{"android":"levelo://app?vid=756fe492-21f0-4654-a68a-c270fdeea250","ios":"levelo://app?vid=756fe492-21f0-4654-a68a-c270fdeea250"},"vehicle_type_id":"4","last_reported":1687536577,"current_range_meters":14800,"station_id":"ce4bhjp2rcd13ifvqga0","pricing_plan_id":"free"},{"bike_id":"a7c34c6b-f1a5-4d1e-a235-399ab7ff1d1a","system_id":"levelo_inurba_marseille","lat":43.27385,"lon":5.36262,"is_reserved":false,"is_disabled":false,"rental_uris":{"android":"levelo://app?vid=a7c34c6b-f1a5-4d1e-a235-399ab7ff1d1a","ios":"levelo://app?vid=a7c34c6b-f1a5-4d1e-a235-399ab7ff1d1a"},"vehicle_type_id":"4","last_reported":1687536577,"current_range_meters":0,"station_id":"","pricing_plan_id":"free"},{"bike_id":"9ee4cc22-8570-45d7-b8e9-ee4df9d69f99","system_id":"levelo_inurba_marseille","lat":43.27385,"lon":5.36259,"is_reserved":false,"is_disabled":false,"rental_uris":{"android":"levelo://app?vid=9ee4cc22-8570-45d7-b8e9-ee4df9d69f99","ios":"levelo://app?vid=9ee4cc22-8570-45d7-b8e9-ee4df9d69f99"},"vehicle_type_id":"4","last_reported":1687536577,"current_range_meters":0,"station_id":"","pricing_plan_id":"free"},{"bike_id":"bd1fc105-3bac-4f68-be91-9926b8b6834a","system_id":"levelo_inurba_marseille","lat":43.27383,"lon":5.36265,"is_reserved":false,"is_disabled":false,"rental_uris":{"android":"levelo://app?vid=bd1fc105-3bac-4f68-be91-9926b8b6834a","ios":"levelo://app?vid=bd1fc105-3bac-4f68-be91-9926b8b6834a"},"vehicle_type_id":"4","last_reported":1687536577,"current_range_meters":5200,"station_id":"ce4bhbh2rcd13ifvqeo0","pricing_plan_id":"free"},{"bike_id":"2f595496-d0e0-45f7-85b8-549ec164de6a","system_id":"levelo_inurba_marseille","lat":43.273613,"lon":5.362705,"is_reserved":false,"is_disabled":false,"rental_uris":{"android":"levelo://app?vid=2f595496-d0e0-45f7-85b8-549ec164de6a","ios":"levelo://app?vid=2f595496-d0e0-45f7-85b8-549ec164de6a"},"vehicle_type_id":"4","last_reported":1687536577,"current_range_meters":31600,"station_id":"ce4bhbh2rcd13ifvqeo0","pricing_plan_id":"free"},{"bike_id":"85db9d95-d303-4b55-9693-c3a975ead4d7","system_id":"levelo_inurba_marseille","lat":43.273613,"lon":5.362705,"is_reserved":false,"is_disabled":false,"rental_uris":{"android":"levelo://app?vid=85db9d95-d303-4b55-9693-c3a975ead4d7","ios":"levelo://app?vid=85db9d95-d303-4b55-9693-c3a975ead4d7"},"vehicle_type_id":"4","last_reported":1687536577,"current_range_meters":31600,"station_id":"ce4bhbh2rcd13ifvqeo0","pricing_plan_id":"free"},{"bike_id":"dd46e34a-e2fd-4455-9169-e74772468c8b","system_id":"levelo_inurba_marseille","lat":43.273609,"lon":5.362708,"is_reserved":false,"is_disabled":false,"rental_uris":{"android":"levelo://app?vid=dd46e34a-e2fd-4455-9169-e74772468c8b","ios":"levelo://app?vid=dd46e34a-e2fd-4455-9169-e74772468c8b"},"vehicle_type_id":"4","last_reported":1687536577,"current_range_meters":31200,"station_id":"ce4bhbh2rcd13ifvqeo0","pricing_plan_id":"free"},{"bike_id":"72e7bc03-e234-4515-b6d8-7f510adbe886","system_id":"levelo_inurba_marseille","lat":43.27381,"lon":5.36252,"is_reserved":false,"is_disabled":false,"rental_uris":{"android":"levelo://app?vid=72e7bc03-e234-4515-b6d8-7f510adbe886","ios":"levelo://app?vid=72e7bc03-e234-4515-b6d8-7f510adbe886"},"vehicle_type_id":"4","last_reported":1687536577,"current_range_meters":31200,"station_id":"","pricing_plan_id":"free"},{"bike_id":"c444f60b-36ce-4d9e-a9bb-598e8b152e8a","system_id":"levelo_inurba_marseille","lat":43.273613,"lon":5.362705,"is_reserved":false,"is_disabled":false,"rental_uris":{"android":"levelo://app?vid=c444f60b-36ce-4d9e-a9bb-598e8b152e8a","ios":"levelo://app?vid=c444f60b-36ce-4d9e-a9bb-598e8b152e8a"},"vehicle_type_id":"4","last_reported":1687536577,"current_range_meters":8800,"station_id":"ce4bhbh2rcd13ifvqeo0","pricing_plan_id":"free"},{"bike_id":"f2aa614a-e96c-4b71-b376-bc456ffaa715","system_id":"levelo_inurba_marseille","lat":43.273613,"lon":5.362705,"is_reserved":false,"is_disabled":false,"rental_uris":{"android":"levelo://app?vid=f2aa614a-e96c-4b71-b376-bc456ffaa715","ios":"levelo://app?vid=f2aa614a-e96c-4b71-b376-bc456ffaa715"},"vehicle_type_id":"4","last_reported":1687536577,"current_range_meters":31600,"station_id":"ce4bhbh2rcd13ifvqeo0","pricing_plan_id":"free"},{"bike_id":"ed3cdc09-112d-4b31-8099-c7ba8b81c2fa","system_id":"levelo_inurba_marseille","lat":43.273613,"lon":5.362705,"is_reserved":false,"is_disabled":false,"rental_uris":{"android":"levelo://app?vid=ed3cdc09-112d-4b31-8099-c7ba8b81c2fa","ios":"levelo://app?vid=ed3cdc09-112d-4b31-8099-c7ba8b81c2fa"},"vehicle_type_id":"4","last_reported":1687536577,"current_range_meters":18400,"station_id":"ce4bhbh2rcd13ifvqeo0","pricing_plan_id":"free"},{"bike_id":"4bf50f3c-6d74-4ec6-b257-7ec0cbf3424a","system_id":"levelo_inurba_marseille","lat":43.273613,"lon":5.362705,"is_reserved":false,"is_disabled":false,"rental_uris":{"android":"levelo://app?vid=4bf50f3c-6d74-4ec6-b257-7ec0cbf3424a","ios":"levelo://app?vid=4bf50f3c-6d74-4ec6-b257-7ec0cbf3424a"},"vehicle_type_id":"4","last_reported":1687536577,"current_range_meters":28000,"station_id":"ce4bhbh2rcd13ifvqeo0","pricing_plan_id":"free"},{"bike_id":"e2dbf0f7-f6d1-4b4a-929d-15787d57f111","system_id":"levelo_inurba_marseille","lat":43.27378,"lon":5.36256,"is_reserved":false,"is_disabled":false,"rental_uris":{"android":"levelo://app?vid=e2dbf0f7-f6d1-4b4a-929d-15787d57f111","ios":"levelo://app?vid=e2dbf0f7-f6d1-4b4a-929d-15787d57f111"},"vehicle_type_id":"4","last_reported":1687536577,"current_range_meters":25600,"station_id":"ce4bhbh2rcd13ifvqeo0","pricing_plan_id":"free"},{"bike_id":"6408a9e9-1abc-4e0c-b4cc-2e39d42f0f38","system_id":"levelo_inurba_marseille","lat":43.27378,"lon":5.36249,"is_reserved":false,"is_disabled":false,"rental_uris":{"android":"levelo://app?vid=6408a9e9-1abc-4e0c-b4cc-2e39d42f0f38","ios":"levelo://app?vid=6408a9e9-1abc-4e0c-b4cc-2e39d42f0f38"},"vehicle_type_id":"4","last_reported":1687536577,"current_range_meters":30400,"station_id":"ce4bhbh2rcd13ifvqeo0","pricing_plan_id":"free"},{"bike_id":"ee53544b-a941-482b-acf6-df4d60c9fce0","system_id":"levelo_inurba_marseille","lat":43.273609,"lon":5.362708,"is_reserved":false,"is_disabled":false,"rental_uris":{"android":"levelo://app?vid=ee53544b-a941-482b-acf6-df4d60c9fce0","ios":"levelo://app?vid=ee53544b-a941-482b-acf6-df4d60c9fce0"},"vehicle_type_id":"4","last_reported":1687536577,"current_range_meters":21200,"station_id":"ce4bhbh2rcd13ifvqeo0","pricing_plan_id":"free"},{"bike_id":"8007a5b5-ef17-442b-b401-d16f3e2817ee","system_id":"levelo_inurba_marseille","lat":43.273609,"lon":5.362708,"is_reserved":false,"is_disabled":false,"rental_uris":{"android":"levelo://app?vid=8007a5b5-ef17-442b-b401-d16f3e2817ee","ios":"levelo://app?vid=8007a5b5-ef17-442b-b401-d16f3e2817ee"},"vehicle_type_id":"4","last_reported":1687536577,"current_range_meters":28400,"station_id":"ce4bhbh2rcd13ifvqeo0","pricing_plan_id":"free"},{"bike_id":"36b40011-df6b-4719-ab33-90653fe54093","system_id":"levelo_inurba_marseille","lat":43.275625,"lon":5.384392,"is_reserved":false,"is_disabled":false,"rental_uris":{"android":"levelo://app?vid=36b40011-df6b-4719-ab33-90653fe54093","ios":"levelo://app?vid=36b40011-df6b-4719-ab33-90653fe54093"},"vehicle_type_id":"4","last_reported":1687536577,"current_range_meters":2000,"station_id":"ce4bhh92rcd13ifvqfi0","pricing_plan_id":"free"},{"bike_id":"cd3d28e9-37da-457a-beed-8bff6c4afc64","system_id":"levelo_inurba_marseille","lat":43.273609,"lon":5.362708,"is_reserved":false,"is_disabled":false,"rental_uris":{"android":"levelo://app?vid=cd3d28e9-37da-457a-beed-8bff6c4afc64","ios":"levelo://app?vid=cd3d28e9-37da-457a-beed-8bff6c4afc64"},"vehicle_type_id":"4","last_reported":1687536577,"current_range_meters":4000,"station_id":"ce4bhbh2rcd13ifvqeo0","pricing_plan_id":"free"},{"bike_id":"d771386f-f6f4-4f27-bcb3-479a007b5b2f","system_id":"levelo_inurba_marseille","lat":43.273609,"lon":5.362708,"is_reserved":false,"is_disabled":false,"rental_uris":{"android":"levelo://app?vid=d771386f-f6f4-4f27-bcb3-479a007b5b2f","ios":"levelo://app?vid=d771386f-f6f4-4f27-bcb3-479a007b5b2f"},"vehicle_type_id":"4","last_reported":1687536577,"current_range_meters":0,"station_id":"ce4bhbh2rcd13ifvqeo0","pricing_plan_id":"free"},{"bike_id":"90412c43-c844-4bc0-abbf-d6cce66ccbd0","system_id":"levelo_inurba_marseille","lat":43.275625,"lon":5.384392,"is_reserved":false,"is_disabled":false,"rental_uris":{"android":"levelo://app?vid=90412c43-c844-4bc0-abbf-d6cce66ccbd0","ios":"levelo://app?vid=90412c43-c844-4bc0-abbf-d6cce66ccbd0"},"vehicle_type_id":"4","last_reported":1687536577,"current_range_meters":9600,"station_id":"ce4bhh92rcd13ifvqfi0","pricing_plan_id":"free"},{"bike_id":"c981e510-1bf9-4522-a6c1-bcba48ec701f","system_id":"levelo_inurba_marseille","lat":43.275625,"lon":5.384392,"is_reserved":false,"is_disabled":false,"rental_uris":{"android":"levelo://app?vid=c981e510-1bf9-4522-a6c1-bcba48ec701f","ios":"levelo://app?vid=c981e510-1bf9-4522-a6c1-bcba48ec701f"},"vehicle_type_id":"4","last_reported":1687536577,"current_range_meters":2800,"station_id":"ce4bhh92rcd13ifvqfi0","pricing_plan_id":"free"},{"bike_id":"9e39ac95-535c-487c-97b8-e422b4c49b87","system_id":"levelo_inurba_marseille","lat":43.275625,"lon":5.384392,"is_reserved":false,"is_disabled":false,"rental_uris":{"android":"levelo://app?vid=9e39ac95-535c-487c-97b8-e422b4c49b87","ios":"levelo://app?vid=9e39ac95-535c-487c-97b8-e422b4c49b87"},"vehicle_type_id":"4","last_reported":1687536577,"current_range_meters":24000,"station_id":"ce4bhh92rcd13ifvqfi0","pricing_plan_id":"free"},{"bike_id":"e17427fa-d063-4a0f-878d-ce8839ebadf8","system_id":"levelo_inurba_marseille","lat":43.276769,"lon":5.388787,"is_reserved":false,"is_disabled":false,"rental_uris":{"android":"levelo://app?vid=e17427fa-d063-4a0f-878d-ce8839ebadf8","ios":"levelo://app?vid=e17427fa-d063-4a0f-878d-ce8839ebadf8"},"vehicle_type_id":"4","last_reported":1687536577,"current_range_meters":2800,"station_id":"ce4bhi12rcd13ifvqfo0","pricing_plan_id":"free"},{"bike_id":"ae493f49-5fdf-4940-8df9-93239fc6caf2","system_id":"levelo_inurba_marseille","lat":43.27675,"lon":5.38865,"is_reserved":false,"is_disabled":false,"rental_uris":{"android":"levelo://app?vid=ae493f49-5fdf-4940-8df9-93239fc6caf2","ios":"levelo://app?vid=ae493f49-5fdf-4940-8df9-93239fc6caf2"},"vehicle_type_id":"4","last_reported":1687536577,"current_range_meters":19600,"station_id":"ce4bhi12rcd13ifvqfo0","pricing_plan_id":"free"},{"bike_id":"cf524be9-607b-4330-95d7-19c6805111f6","system_id":"levelo_inurba_marseille","lat":43.310785,"lon":5.424305,"is_reserved":false,"is_disabled":false,"rental_uris":{"android":"levelo://app?vid=cf524be9-607b-4330-95d7-19c6805111f6","ios":"levelo://app?vid=cf524be9-607b-4330-95d7-19c6805111f6"},"vehicle_type_id":"4","last_reported":1687536577,"current_range_meters":9600,"station_id":"ce4bhp92rcd13ifvqhag","pricing_plan_id":"free"},{"bike_id":"ef72ab91-2892-4738-9fef-266c11f889f3","system_id":"levelo_inurba_marseille","lat":43.310785,"lon":5.424305,"is_reserved":false,"is_disabled":false,"rental_uris":{"android":"levelo://app?vid=ef72ab91-2892-4738-9fef-266c11f889f3","ios":"levelo://app?vid=ef72ab91-2892-4738-9fef-266c11f889f3"},"vehicle_type_id":"4","last_reported":1687536577,"current_range_meters":29600,"station_id":"ce4bhp92rcd13ifvqhag","pricing_plan_id":"free"},{"bike_id":"01208fbe-9431-4ed6-ac1f-e90329c35bdb","system_id":"levelo_inurba_marseille","lat":43.26955,"lon":5.36633,"is_reserved":false,"is_disabled":false,"rental_uris":{"android":"levelo://app?vid=01208fbe-9431-4ed6-ac1f-e90329c35bdb","ios":"levelo://app?vid=01208fbe-9431-4ed6-ac1f-e90329c35bdb"},"vehicle_type_id":"4","last_reported":1687536577,"current_range_meters":7200,"station_id":"","pricing_plan_id":"free"},{"bike_id":"d69fed3a-efe9-46fb-b1dc-1240b8978d3e","system_id":"levelo_inurba_marseille","lat":43.272116,"lon":5.391763,"is_reserved":false,"is_disabled":false,"rental_uris":{"android":"levelo://app?vid=d69fed3a-efe9-46fb-b1dc-1240b8978d3e","ios":"levelo://app?vid=d69fed3a-efe9-46fb-b1dc-1240b8978d3e"},"vehicle_type_id":"4","last_reported":1687536577,"current_range_meters":29600,"station_id":"ce4bhhp2rcd13ifvqfm0","pricing_plan_id":"free"},{"bike_id":"4fa21102-9c5c-4785-8da0-3d7f957b0c31","system_id":"levelo_inurba_marseille","lat":43.272118,"lon":5.391758,"is_reserved":false,"is_disabled":false,"rental_uris":{"android":"levelo://app?vid=4fa21102-9c5c-4785-8da0-3d7f957b0c31","ios":"levelo://app?vid=4fa21102-9c5c-4785-8da0-3d7f957b0c31"},"vehicle_type_id":"4","last_reported":1687536577,"current_range_meters":28400,"station_id":"ce4bhhp2rcd13ifvqfm0","pricing_plan_id":"free"},{"bike_id":"4bdd5a1f-024a-4ab4-81a1-c4b9f4c1b7c2","system_id":"levelo_inurba_marseille","lat":43.27203,"lon":5.39191,"is_reserved":false,"is_disabled":false,"rental_uris":{"android":"levelo://app?vid=4bdd5a1f-024a-4ab4-81a1-c4b9f4c1b7c2","ios":"levelo://app?vid=4bdd5a1f-024a-4ab4-81a1-c4b9f4c1b7c2"},"vehicle_type_id":"4","last_reported":1687536577,"current_range_meters":23200,"station_id":"ce4bhhp2rcd13ifvqfm0","pricing_plan_id":"free"},{"bike_id":"49ab409f-fa57-4046-ba0e-1a34adf52115","system_id":"levelo_inurba_marseille","lat":43.2694,"lon":5.38143,"is_reserved":false,"is_disabled":false,"rental_uris":{"android":"levelo://app?vid=49ab409f-fa57-4046-ba0e-1a34adf52115","ios":"levelo://app?vid=49ab409f-fa57-4046-ba0e-1a34adf52115"},"vehicle_type_id":"4","last_reported":1687536577,"current_range_meters":3600,"station_id":"","pricing_plan_id":"free"},{"bike_id":"27b1664d-09b5-43d1-b55e-dd8d24295570","system_id":"levelo_inurba_marseille","lat":43.278128,"lon":5.407195,"is_reserved":false,"is_disabled":false,"rental_uris":{"android":"levelo://app?vid=27b1664d-09b5-43d1-b55e-dd8d24295570","ios":"levelo://app?vid=27b1664d-09b5-43d1-b55e-dd8d24295570"},"vehicle_type_id":"4","last_reported":1687536577,"current_range_meters":16800,"station_id":"ce4bhnh2rcd13ifvqgtg","pricing_plan_id":"free"},{"bike_id":"6ac2ca9c-a10c-4d53-be26-893a719db536","system_id":"levelo_inurba_marseille","lat":43.26937,"lon":5.38921,"is_reserved":false,"is_disabled":false,"rental_uris":{"android":"levelo://app?vid=6ac2ca9c-a10c-4d53-be26-893a719db536","ios":"levelo://app?vid=6ac2ca9c-a10c-4d53-be26-893a719db536"},"vehicle_type_id":"4","last_reported":1687536577,"current_range_meters":17600,"station_id":"","pricing_plan_id":"free"},{"bike_id":"6bae4f67-5d67-4eb0-a75b-ce4ea62eb850","system_id":"levelo_inurba_marseille","lat":43.26933,"lon":5.38922,"is_reserved":false,"is_disabled":false,"rental_uris":{"android":"levelo://app?vid=6bae4f67-5d67-4eb0-a75b-ce4ea62eb850","ios":"levelo://app?vid=6bae4f67-5d67-4eb0-a75b-ce4ea62eb850"},"vehicle_type_id":"4","last_reported":1687536577,"current_range_meters":28400,"station_id":"ce4bhhh2rcd13ifvqfl0","pricing_plan_id":"free"},{"bike_id":"c54c4bf9-afa8-41a5-9cc2-0f5de74699cb","system_id":"levelo_inurba_marseille","lat":43.269319,"lon":5.389397,"is_reserved":false,"is_disabled":false,"rental_uris":{"android":"levelo://app?vid=c54c4bf9-afa8-41a5-9cc2-0f5de74699cb","ios":"levelo://app?vid=c54c4bf9-afa8-41a5-9cc2-0f5de74699cb"},"vehicle_type_id":"4","last_reported":1687536577,"current_range_meters":10000,"station_id":"ce4bhhh2rcd13ifvqfl0","pricing_plan_id":"free"},{"bike_id":"1abc15c2-2311-4a3f-845b-8c1b7a0a51b7","system_id":"levelo_inurba_marseille","lat":43.26681,"lon":5.382694,"is_reserved":false,"is_disabled":false,"rental_uris":{"android":"levelo://app?vid=1abc15c2-2311-4a3f-845b-8c1b7a0a51b7","ios":"levelo://app?vid=1abc15c2-2311-4a3f-845b-8c1b7a0a51b7"},"vehicle_type_id":"4","last_reported":1687536577,"current_range_meters":5600,"station_id":"ce4bhg92rcd13ifvqf90","pricing_plan_id":"free"},{"bike_id":"521e0bf0-e351-4aa6-95e5-4fac6877c9d8","system_id":"levelo_inurba_marseille","lat":43.26681,"lon":5.382694,"is_reserved":false,"is_disabled":false,"rental_uris":{"android":"levelo://app?vid=521e0bf0-e351-4aa6-95e5-4fac6877c9d8","ios":"levelo://app?vid=521e0bf0-e351-4aa6-95e5-4fac6877c9d8"},"vehicle_type_id":"4","last_reported":1687536577,"current_range_meters":4000,"station_id":"ce4bhg92rcd13ifvqf90","pricing_plan_id":"free"},{"bike_id":"781cc524-17b1-4c03-bd5a-16fe95ebfd08","system_id":"levelo_inurba_marseille","lat":43.26681,"lon":5.382694,"is_reserved":false,"is_disabled":false,"rental_uris":{"android":"levelo://app?vid=781cc524-17b1-4c03-bd5a-16fe95ebfd08","ios":"levelo://app?vid=781cc524-17b1-4c03-bd5a-16fe95ebfd08"},"vehicle_type_id":"4","last_reported":1687536577,"current_range_meters":20400,"station_id":"ce4bhg92rcd13ifvqf90","pricing_plan_id":"free"},{"bike_id":"1ec0d070-5d14-4e51-8678-5619e90f3f19","system_id":"levelo_inurba_marseille","lat":43.27985,"lon":5.41626,"is_reserved":false,"is_disabled":false,"rental_uris":{"android":"levelo://app?vid=1ec0d070-5d14-4e51-8678-5619e90f3f19","ios":"levelo://app?vid=1ec0d070-5d14-4e51-8678-5619e90f3f19"},"vehicle_type_id":"4","last_reported":1687536577,"current_range_meters":18400,"station_id":"","pricing_plan_id":"free"},{"bike_id":"b4be26fb-37cc-4a20-8206-8b6b9e057738","system_id":"levelo_inurba_marseille","lat":43.267966,"lon":5.393976,"is_reserved":false,"is_disabled":false,"rental_uris":{"android":"levelo://app?vid=b4be26fb-37cc-4a20-8206-8b6b9e057738","ios":"levelo://app?vid=b4be26fb-37cc-4a20-8206-8b6b9e057738"},"vehicle_type_id":"4","last_reported":1687536577,"current_range_meters":19600,"station_id":"ce4bhh12rcd13ifvqfg0","pricing_plan_id":"free"},{"bike_id":"eede4933-050d-43cd-be9d-17ba2725b402","system_id":"levelo_inurba_marseille","lat":43.26792,"lon":5.39424,"is_reserved":false,"is_disabled":false,"rental_uris":{"android":"levelo://app?vid=eede4933-050d-43cd-be9d-17ba2725b402","ios":"levelo://app?vid=eede4933-050d-43cd-be9d-17ba2725b402"},"vehicle_type_id":"4","last_reported":1687536577,"current_range_meters":0,"station_id":"ce4bhh12rcd13ifvqfg0","pricing_plan_id":"free"},{"bike_id":"87d78a02-ccb7-458d-8b1f-6a01a235f5bc","system_id":"levelo_inurba_marseille","lat":43.267966,"lon":5.393976,"is_reserved":false,"is_disabled":false,"rental_uris":{"android":"levelo://app?vid=87d78a02-ccb7-458d-8b1f-6a01a235f5bc","ios":"levelo://app?vid=87d78a02-ccb7-458d-8b1f-6a01a235f5bc"},"vehicle_type_id":"4","last_reported":1687536577,"current_range_meters":4000,"station_id":"ce4bhh12rcd13ifvqfg0","pricing_plan_id":"free"},{"bike_id":"396212f2-023f-4849-a07e-01add9ac8c5b","system_id":"levelo_inurba_marseille","lat":43.267966,"lon":5.393976,"is_reserved":false,"is_disabled":false,"rental_uris":{"android":"levelo://app?vid=396212f2-023f-4849-a07e-01add9ac8c5b","ios":"levelo://app?vid=396212f2-023f-4849-a07e-01add9ac8c5b"},"vehicle_type_id":"4","last_reported":1687536577,"current_range_meters":30000,"station_id":"ce4bhh12rcd13ifvqfg0","pricing_plan_id":"free"},{"bike_id":"06fe3fe2-b715-4292-a6ae-f7fff55e2127","system_id":"levelo_inurba_marseille","lat":43.267966,"lon":5.393976,"is_reserved":false,"is_disabled":false,"rental_uris":{"android":"levelo://app?vid=06fe3fe2-b715-4292-a6ae-f7fff55e2127","ios":"levelo://app?vid=06fe3fe2-b715-4292-a6ae-f7fff55e2127"},"vehicle_type_id":"4","last_reported":1687536577,"current_range_meters":1600,"station_id":"ce4bhh12rcd13ifvqfg0","pricing_plan_id":"free"},{"bike_id":"31b9f021-4fd8-443a-a072-0c5a24674b44","system_id":"levelo_inurba_marseille","lat":43.2658,"lon":5.39017,"is_reserved":false,"is_disabled":false,"rental_uris":{"android":"levelo://app?vid=31b9f021-4fd8-443a-a072-0c5a24674b44","ios":"levelo://app?vid=31b9f021-4fd8-443a-a072-0c5a24674b44"},"vehicle_type_id":"4","last_reported":1687536577,"current_range_meters":17200,"station_id":"","pricing_plan_id":"free"},{"bike_id":"168ebeb5-7c3a-4609-bb2e-90001ad433da","system_id":"levelo_inurba_marseille","lat":43.26581,"lon":5.39022,"is_reserved":false,"is_disabled":false,"rental_uris":{"android":"levelo://app?vid=168ebeb5-7c3a-4609-bb2e-90001ad433da","ios":"levelo://app?vid=168ebeb5-7c3a-4609-bb2e-90001ad433da"},"vehicle_type_id":"4","last_reported":1687536577,"current_range_meters":24800,"station_id":"","pricing_plan_id":"free"},{"bike_id":"a3cff6b8-127b-4050-a959-8f8c1e89e54a","system_id":"levelo_inurba_marseille","lat":43.30763,"lon":5.43524,"is_reserved":false,"is_disabled":false,"rental_uris":{"android":"levelo://app?vid=a3cff6b8-127b-4050-a959-8f8c1e89e54a","ios":"levelo://app?vid=a3cff6b8-127b-4050-a959-8f8c1e89e54a"},"vehicle_type_id":"4","last_reported":1687536577,"current_range_meters":23600,"station_id":"ce4bhph2rcd13ifvqheg","pricing_plan_id":"free"},{"bike_id":"fbd3ee26-fe13-4978-acd7-61208dc54af0","system_id":"levelo_inurba_marseille","lat":43.26568,"lon":5.39006,"is_reserved":false,"is_disabled":false,"rental_uris":{"android":"levelo://app?vid=fbd3ee26-fe13-4978-acd7-61208dc54af0","ios":"levelo://app?vid=fbd3ee26-fe13-4978-acd7-61208dc54af0"},"vehicle_type_id":"4","last_reported":1687536577,"current_range_meters":29200,"station_id":"ce4bhe12rcd13ifvqf30","pricing_plan_id":"free"},{"bike_id":"2c9051ce-6619-4dfa-8fdd-ba687760d5ca","system_id":"levelo_inurba_marseille","lat":43.26564,"lon":5.39015,"is_reserved":false,"is_disabled":false,"rental_uris":{"android":"levelo://app?vid=2c9051ce-6619-4dfa-8fdd-ba687760d5ca","ios":"levelo://app?vid=2c9051ce-6619-4dfa-8fdd-ba687760d5ca"},"vehicle_type_id":"4","last_reported":1687536577,"current_range_meters":5200,"station_id":"ce4bhe12rcd13ifvqf30","pricing_plan_id":"free"},{"bike_id":"0454f065-f655-441a-b62f-6e9faa87f9cb","system_id":"levelo_inurba_marseille","lat":43.26565,"lon":5.39038,"is_reserved":false,"is_disabled":false,"rental_uris":{"android":"levelo://app?vid=0454f065-f655-441a-b62f-6e9faa87f9cb","ios":"levelo://app?vid=0454f065-f655-441a-b62f-6e9faa87f9cb"},"vehicle_type_id":"4","last_reported":1687536577,"current_range_meters":12000,"station_id":"","pricing_plan_id":"free"},{"bike_id":"be64d6bf-a460-418e-8892-7a7554ceb66e","system_id":"levelo_inurba_marseille","lat":43.26198,"lon":5.37442,"is_reserved":false,"is_disabled":false,"rental_uris":{"android":"levelo://app?vid=be64d6bf-a460-418e-8892-7a7554ceb66e","ios":"levelo://app?vid=be64d6bf-a460-418e-8892-7a7554ceb66e"},"vehicle_type_id":"4","last_reported":1687536577,"current_range_meters":11600,"station_id":"ce4bhgp2rcd13ifvqfc0","pricing_plan_id":"free"},{"bike_id":"9da89761-991b-494a-9aaa-15eeb39db6ea","system_id":"levelo_inurba_marseille","lat":43.26198,"lon":5.37445,"is_reserved":false,"is_disabled":false,"rental_uris":{"android":"levelo://app?vid=9da89761-991b-494a-9aaa-15eeb39db6ea","ios":"levelo://app?vid=9da89761-991b-494a-9aaa-15eeb39db6ea"},"vehicle_type_id":"4","last_reported":1687536577,"current_range_meters":10400,"station_id":"ce4bhgp2rcd13ifvqfc0","pricing_plan_id":"free"},{"bike_id":"db12e0d0-b124-4f3b-8816-9fcc6ed7c196","system_id":"levelo_inurba_marseille","lat":43.261782,"lon":5.374515,"is_reserved":false,"is_disabled":false,"rental_uris":{"android":"levelo://app?vid=db12e0d0-b124-4f3b-8816-9fcc6ed7c196","ios":"levelo://app?vid=db12e0d0-b124-4f3b-8816-9fcc6ed7c196"},"vehicle_type_id":"4","last_reported":1687536577,"current_range_meters":11600,"station_id":"ce4bhgp2rcd13ifvqfc0","pricing_plan_id":"free"},{"bike_id":"0ba5b63b-2601-45f1-a1bd-9aa188883e83","system_id":"levelo_inurba_marseille","lat":43.26192,"lon":5.37441,"is_reserved":false,"is_disabled":false,"rental_uris":{"android":"levelo://app?vid=0ba5b63b-2601-45f1-a1bd-9aa188883e83","ios":"levelo://app?vid=0ba5b63b-2601-45f1-a1bd-9aa188883e83"},"vehicle_type_id":"4","last_reported":1687536577,"current_range_meters":25600,"station_id":"ce4bhgp2rcd13ifvqfc0","pricing_plan_id":"free"},{"bike_id":"10e081b7-6143-49b0-95db-25813509a3cd","system_id":"levelo_inurba_marseille","lat":43.317104,"lon":5.436818,"is_reserved":false,"is_disabled":false,"rental_uris":{"android":"levelo://app?vid=10e081b7-6143-49b0-95db-25813509a3cd","ios":"levelo://app?vid=10e081b7-6143-49b0-95db-25813509a3cd"},"vehicle_type_id":"4","last_reported":1687536577,"current_range_meters":30400,"station_id":"ce4bhp92rcd13ifvqhcg","pricing_plan_id":"free"},{"bike_id":"3711fde6-9d85-4cb7-9bf2-3c84ed9e12c2","system_id":"levelo_inurba_marseille","lat":43.26192,"lon":5.37442,"is_reserved":false,"is_disabled":false,"rental_uris":{"android":"levelo://app?vid=3711fde6-9d85-4cb7-9bf2-3c84ed9e12c2","ios":"levelo://app?vid=3711fde6-9d85-4cb7-9bf2-3c84ed9e12c2"},"vehicle_type_id":"4","last_reported":1687536577,"current_range_meters":23200,"station_id":"ce4bhgp2rcd13ifvqfc0","pricing_plan_id":"free"},{"bike_id":"c73b1610-334d-49ee-8b1d-411a34995095","system_id":"levelo_inurba_marseille","lat":43.2619,"lon":5.37442,"is_reserved":false,"is_disabled":false,"rental_uris":{"android":"levelo://app?vid=c73b1610-334d-49ee-8b1d-411a34995095","ios":"levelo://app?vid=c73b1610-334d-49ee-8b1d-411a34995095"},"vehicle_type_id":"4","last_reported":1687536577,"current_range_meters":19600,"station_id":"ce4bhgp2rcd13ifvqfc0","pricing_plan_id":"free"},{"bike_id":"8aa8b31f-9aee-4178-9b8e-9552c110ed3b","system_id":"levelo_inurba_marseille","lat":43.2619,"lon":5.37444,"is_reserved":false,"is_disabled":false,"rental_uris":{"android":"levelo://app?vid=8aa8b31f-9aee-4178-9b8e-9552c110ed3b","ios":"levelo://app?vid=8aa8b31f-9aee-4178-9b8e-9552c110ed3b"},"vehicle_type_id":"4","last_reported":1687536577,"current_range_meters":17200,"station_id":"ce4bhgp2rcd13ifvqfc0","pricing_plan_id":"free"},{"bike_id":"94281dd7-dd58-4414-b980-83b5a00b204d","system_id":"levelo_inurba_marseille","lat":43.261782,"lon":5.374515,"is_reserved":false,"is_disabled":false,"rental_uris":{"android":"levelo://app?vid=94281dd7-dd58-4414-b980-83b5a00b204d","ios":"levelo://app?vid=94281dd7-dd58-4414-b980-83b5a00b204d"},"vehicle_type_id":"4","last_reported":1687536577,"current_range_meters":15200,"station_id":"ce4bhgp2rcd13ifvqfc0","pricing_plan_id":"free"},{"bike_id":"021b9394-afed-48b0-99a3-d08471230578","system_id":"levelo_inurba_marseille","lat":43.26189,"lon":5.37443,"is_reserved":false,"is_disabled":false,"rental_uris":{"android":"levelo://app?vid=021b9394-afed-48b0-99a3-d08471230578","ios":"levelo://app?vid=021b9394-afed-48b0-99a3-d08471230578"},"vehicle_type_id":"4","last_reported":1687536577,"current_range_meters":20800,"station_id":"ce4bhgp2rcd13ifvqfc0","pricing_plan_id":"free"},{"bike_id":"2238f774-f677-4991-bf26-2ee6a41629f1","system_id":"levelo_inurba_marseille","lat":43.26189,"lon":5.37445,"is_reserved":false,"is_disabled":false,"rental_uris":{"android":"levelo://app?vid=2238f774-f677-4991-bf26-2ee6a41629f1","ios":"levelo://app?vid=2238f774-f677-4991-bf26-2ee6a41629f1"},"vehicle_type_id":"4","last_reported":1687536577,"current_range_meters":8400,"station_id":"ce4bhgp2rcd13ifvqfc0","pricing_plan_id":"free"},{"bike_id":"3749033f-6d19-45cd-9305-d9f4113a3702","system_id":"levelo_inurba_marseille","lat":43.261782,"lon":5.374515,"is_reserved":false,"is_disabled":false,"rental_uris":{"android":"levelo://app?vid=3749033f-6d19-45cd-9305-d9f4113a3702","ios":"levelo://app?vid=3749033f-6d19-45cd-9305-d9f4113a3702"},