{"last_updated":1741485418,"ttl":60,"version":"2.2","data":{"bikes":[{"bike_id":"89b9b55a-1392-498d-b8a5-8520a39c9a74","system_id":"levelo_inurba_marseille","lat":43.2928,"lon":5.40156,"is_reserved":false,"is_disabled":true,"rental_uris":{"android":"levelo://app?vid=89b9b55a-1392-498d-b8a5-8520a39c9a74","ios":"levelo://app?vid=89b9b55a-1392-498d-b8a5-8520a39c9a74"},"vehicle_type_id":"4","last_reported":1741485418,"current_range_meters":2800,"station_id":"ce4bh312rcd13ifvqdk0","pricing_plan_id":"cebpf4jnsgd1na2vs0mg"},{"bike_id":"6e5c1ec0-55c7-428f-ab14-fe8ef478e880","system_id":"levelo_inurba_marseille","lat":43.32092,"lon":5.40118,"is_reserved":false,"is_disabled":false,"rental_uris":{"android":"levelo://app?vid=6e5c1ec0-55c7-428f-ab14-fe8ef478e880","ios":"levelo://app?vid=6e5c1ec0-55c7-428f-ab14-fe8ef478e880"},"vehicle_type_id":"4","last_reported":1741485418,"current_range_meters":2800,"station_id":"","pricing_plan_id":"cebpf4jnsgd1na2vs0mg"},{"bike_id":"d6571987-748a-4792-8df6-c67a5561a64e","system_id":"levelo_inurba_marseille","lat":43.23156,"lon":5.43714,"is_reserved":false,"is_disabled":false,"rental_uris":{"android":"levelo://app?vid=d6571987-748a-4792-8df6-c67a5561a64e","ios":"levelo://app?vid=d6571987-748a-4792-8df6-c67a5561a64e"},"vehicle_type_id":"4","last_reported":1741485418,"current_range_meters":2800,"station_id":"ce4bhmp2rcd13ifvqgog","pricing_plan_id":"cebpf4jnsgd1na2vs0mg"},{"bike_id":"45597c65-4b9a-45ab-a143-8241a793ed4d","system_id":"levelo_inurba_marseille","lat":43.29308,"lon":5.37171,"is_reserved":false,"is_disabled":false,"rental_uris":{"android":"levelo://app?vid=45597c65-4b9a-45ab-a143-8241a793ed4d","ios":"levelo://app?vid=45597c65-4b9a-45ab-a143-8241a793ed4d"},"vehicle_type_id":"4","last_reported":1741485418,"current_range_meters":2800,"station_id":"ce4bgh92rcd13ifvqb40","pricing_plan_id":"cebpf4jnsgd1na2vs0mg"},{"bike_id":"7b00137c-8774-484f-9d94-09739d89355d","system_id":"levelo_inurba_marseille","lat":43.30462,"lon":5.37898,"is_reserved":false,"is_disabled":false,"rental_uris":{"android":"levelo://app?vid=7b00137c-8774-484f-9d94-09739d89355d","ios":"levelo://app?vid=7b00137c-8774-484f-9d94-09739d89355d"},"vehicle_type_id":"4","last_reported":1741485418,"current_range_meters":3200,"station_id":"ce4bgup2rcd13ifvqcn0","pricing_plan_id":"cebpf4jnsgd1na2vs0mg"},{"bike_id":"db361612-8186-4e1c-a8a1-a778740c3e27","system_id":"levelo_inurba_marseille","lat":43.26055,"lon":5.3939,"is_reserved":false,"is_disabled":false,"rental_uris":{"android":"levelo://app?vid=db361612-8186-4e1c-a8a1-a778740c3e27","ios":"levelo://app?vid=db361612-8186-4e1c-a8a1-a778740c3e27"},"vehicle_type_id":"4","last_reported":1741485418,"current_range_meters":3200,"station_id":"ce4bhh92rcd13ifvqfj0","pricing_plan_id":"cebpf4jnsgd1na2vs0mg"},{"bike_id":"5d4e4574-6498-4372-afcd-f02df8652fd1","system_id":"levelo_inurba_marseille","lat":43.25721,"lon":5.41105,"is_reserved":false,"is_disabled":false,"rental_uris":{"android":"levelo://app?vid=5d4e4574-6498-4372-afcd-f02df8652fd1","ios":"levelo://app?vid=5d4e4574-6498-4372-afcd-f02df8652fd1"},"vehicle_type_id":"4","last_reported":1741485418,"current_range_meters":3200,"station_id":"ce4bhkp2rcd13ifvqgd0","pricing_plan_id":"cebpf4jnsgd1na2vs0mg"},{"bike_id":"4cc5c768-97d6-4527-b038-ce2ac02a21d3","system_id":"levelo_inurba_marseille","lat":43.33394,"lon":5.3959,"is_reserved":false,"is_disabled":false,"rental_uris":{"android":"levelo://app?vid=4cc5c768-97d6-4527-b038-ce2ac02a21d3","ios":"levelo://app?vid=4cc5c768-97d6-4527-b038-ce2ac02a21d3"},"vehicle_type_id":"4","last_reported":1741485418,"current_range_meters":3600,"station_id":"","pricing_plan_id":"cebpf4jnsgd1na2vs0mg"},{"bike_id":"247b4340-3338-49f7-b20d-e36de088bbb8","system_id":"levelo_inurba_marseille","lat":43.2927,"lon":5.42663,"is_reserved":false,"is_disabled":false,"rental_uris":{"android":"levelo://app?vid=247b4340-3338-49f7-b20d-e36de088bbb8","ios":"levelo://app?vid=247b4340-3338-49f7-b20d-e36de088bbb8"},"vehicle_type_id":"4","last_reported":1741485418,"current_range_meters":3600,"station_id":"","pricing_plan_id":"cebpf4jnsgd1na2vs0mg"},{"bike_id":"b145b72c-f283-4cc8-8d07-05f8ba9d6ca8","system_id":"levelo_inurba_marseille","lat":43.31713,"lon":5.43709,"is_reserved":false,"is_disabled":false,"rental_uris":{"android":"levelo://app?vid=b145b72c-f283-4cc8-8d07-05f8ba9d6ca8","ios":"levelo://app?vid=b145b72c-f283-4cc8-8d07-05f8ba9d6ca8"},"vehicle_type_id":"4","last_reported":1741485418,"current_range_meters":3600,"station_id":"ce4bhp92rcd13ifvqhcg","pricing_plan_id":"cebpf4jnsgd1na2vs0mg"},{"bike_id":"2b5f401c-b596-44a7-88ab-196b44e26a9b","system_id":"levelo_inurba_marseille","lat":43.25157,"lon":5.40305,"is_reserved":false,"is_disabled":false,"rental_uris":{"android":"levelo://app?vid=2b5f401c-b596-44a7-88ab-196b44e26a9b","ios":"levelo://app?vid=2b5f401c-b596-44a7-88ab-196b44e26a9b"},"vehicle_type_id":"4","last_reported":1741485418,"current_range_meters":3600,"station_id":"","pricing_plan_id":"cebpf4jnsgd1na2vs0mg"},{"bike_id":"60e1fe0f-c1dd-449c-85d9-a3dd616d061a","system_id":"levelo_inurba_marseille","lat":43.232,"lon":5.35552,"is_reserved":false,"is_disabled":false,"rental_uris":{"android":"levelo://app?vid=60e1fe0f-c1dd-449c-85d9-a3dd616d061a","ios":"levelo://app?vid=60e1fe0f-c1dd-449c-85d9-a3dd616d061a"},"vehicle_type_id":"4","last_reported":1741485418,"current_range_meters":4000,"station_id":"ce4bhu92rcd13ifvqi70","pricing_plan_id":"cebpf4jnsgd1na2vs0mg"},{"bike_id":"8310cde6-c1e7-4f34-9185-55193707cf9d","system_id":"levelo_inurba_marseille","lat":43.27848,"lon":5.40764,"is_reserved":false,"is_disabled":false,"rental_uris":{"android":"levelo://app?vid=8310cde6-c1e7-4f34-9185-55193707cf9d","ios":"levelo://app?vid=8310cde6-c1e7-4f34-9185-55193707cf9d"},"vehicle_type_id":"4","last_reported":1741485418,"current_range_meters":4000,"station_id":"","pricing_plan_id":"cebpf4jnsgd1na2vs0mg"},{"bike_id":"ed8dc3dc-a4a6-430b-be93-fa513b3eba50","system_id":"levelo_inurba_marseille","lat":43.2993,"lon":5.36535,"is_reserved":false,"is_disabled":false,"rental_uris":{"android":"levelo://app?vid=ed8dc3dc-a4a6-430b-be93-fa513b3eba50","ios":"levelo://app?vid=ed8dc3dc-a4a6-430b-be93-fa513b3eba50"},"vehicle_type_id":"4","last_reported":1741485418,"current_range_meters":4000,"station_id":"ce4bgm92rcd13ifvqbr0","pricing_plan_id":"cebpf4jnsgd1na2vs0mg"},{"bike_id":"8e6bf23f-7469-408c-84aa-30899262dcd4","system_id":"levelo_inurba_marseille","lat":43.28985,"lon":5.35593,"is_reserved":false,"is_disabled":false,"rental_uris":{"android":"levelo://app?vid=8e6bf23f-7469-408c-84aa-30899262dcd4","ios":"levelo://app?vid=8e6bf23f-7469-408c-84aa-30899262dcd4"},"vehicle_type_id":"4","last_reported":1741485418,"current_range_meters":4000,"station_id":"ce4bhb92rcd13ifvqen0","pricing_plan_id":"cebpf4jnsgd1na2vs0mg"},{"bike_id":"496a066d-43d5-42fe-86ae-32a0a3a2d0ee","system_id":"levelo_inurba_marseille","lat":43.25582,"lon":5.38242,"is_reserved":false,"is_disabled":false,"rental_uris":{"android":"levelo://app?vid=496a066d-43d5-42fe-86ae-32a0a3a2d0ee","ios":"levelo://app?vid=496a066d-43d5-42fe-86ae-32a0a3a2d0ee"},"vehicle_type_id":"4","last_reported":1741485418,"current_range_meters":4000,"station_id":"ce4bhih2rcd13ifvqfs0","pricing_plan_id":"cebpf4jnsgd1na2vs0mg"},{"bike_id":"187a23bd-addd-4cdc-9763-bcfaec40c35a","system_id":"levelo_inurba_marseille","lat":43.25127,"lon":5.40326,"is_reserved":false,"is_disabled":false,"rental_uris":{"android":"levelo://app?vid=187a23bd-addd-4cdc-9763-bcfaec40c35a","ios":"levelo://app?vid=187a23bd-addd-4cdc-9763-bcfaec40c35a"},"vehicle_type_id":"4","last_reported":1741485418,"current_range_meters":4000,"station_id":"ce4bhlh2rcd13ifvqgig","pricing_plan_id":"cebpf4jnsgd1na2vs0mg"},{"bike_id":"adc20c0b-ebf2-4baf-9000-b7330c20c251","system_id":"levelo_inurba_marseille","lat":43.22933,"lon":5.35378,"is_reserved":false,"is_disabled":false,"rental_uris":{"android":"levelo://app?vid=adc20c0b-ebf2-4baf-9000-b7330c20c251","ios":"levelo://app?vid=adc20c0b-ebf2-4baf-9000-b7330c20c251"},"vehicle_type_id":"4","last_reported":1741485418,"current_range_meters":4400,"station_id":"cpo3532slgdg3j2ikp40","pricing_plan_id":"cebpf4jnsgd1na2vs0mg"},{"bike_id":"9f22fbb6-a380-4b54-b337-75d43e2de561","system_id":"levelo_inurba_marseille","lat":43.25089,"lon":5.39525,"is_reserved":false,"is_disabled":false,"rental_uris":{"android":"levelo://app?vid=9f22fbb6-a380-4b54-b337-75d43e2de561","ios":"levelo://app?vid=9f22fbb6-a380-4b54-b337-75d43e2de561"},"vehicle_type_id":"4","last_reported":1741485418,"current_range_meters":4400,"station_id":"ce4bhm12rcd13ifvqgkg","pricing_plan_id":"cebpf4jnsgd1na2vs0mg"},{"bike_id":"cfac2935-1e31-4562-8b3a-3bde623c75b3","system_id":"levelo_inurba_marseille","lat":43.29814,"lon":5.40418,"is_reserved":false,"is_disabled":true,"rental_uris":{"android":"levelo://app?vid=cfac2935-1e31-4562-8b3a-3bde623c75b3","ios":"levelo://app?vid=cfac2935-1e31-4562-8b3a-3bde623c75b3"},"vehicle_type_id":"4","last_reported":1741485418,"current_range_meters":4400,"station_id":"ce4bh112rcd13ifvqd90","pricing_plan_id":"cebpf4jnsgd1na2vs0mg"},{"bike_id":"8a04142c-0bc4-43e4-8f9e-fc8f2beafa5a","system_id":"levelo_inurba_marseille","lat":43.23969,"lon":5.36632,"is_reserved":false,"is_disabled":false,"rental_uris":{"android":"levelo://app?vid=8a04142c-0bc4-43e4-8f9e-fc8f2beafa5a","ios":"levelo://app?vid=8a04142c-0bc4-43e4-8f9e-fc8f2beafa5a"},"vehicle_type_id":"4","last_reported":1741485418,"current_range_meters":4400,"station_id":"ce4bhi12rcd13ifvqfp0","pricing_plan_id":"cebpf4jnsgd1na2vs0mg"},{"bike_id":"d664b6cc-4537-453b-8b2e-6513afd4e4fc","system_id":"levelo_inurba_marseille","lat":43.28458,"lon":5.35887,"is_reserved":false,"is_disabled":false,"rental_uris":{"android":"levelo://app?vid=d664b6cc-4537-453b-8b2e-6513afd4e4fc","ios":"levelo://app?vid=d664b6cc-4537-453b-8b2e-6513afd4e4fc"},"vehicle_type_id":"4","last_reported":1741485418,"current_range_meters":4400,"station_id":"ce4bhah2rcd13ifvqei0","pricing_plan_id":"cebpf4jnsgd1na2vs0mg"},{"bike_id":"0c8c51d8-02a8-4172-8700-f631e6702a31","system_id":"levelo_inurba_marseille","lat":43.23159,"lon":5.43697,"is_reserved":false,"is_disabled":false,"rental_uris":{"android":"levelo://app?vid=0c8c51d8-02a8-4172-8700-f631e6702a31","ios":"levelo://app?vid=0c8c51d8-02a8-4172-8700-f631e6702a31"},"vehicle_type_id":"4","last_reported":1741485418,"current_range_meters":4400,"station_id":"ce4bhmp2rcd13ifvqgog","pricing_plan_id":"cebpf4jnsgd1na2vs0mg"},{"bike_id":"e8480bdf-b04b-452a-a436-a56a983cc43d","system_id":"levelo_inurba_marseille","lat":43.26606,"lon":5.39016,"is_reserved":false,"is_disabled":false,"rental_uris":{"android":"levelo://app?vid=e8480bdf-b04b-452a-a436-a56a983cc43d","ios":"levelo://app?vid=e8480bdf-b04b-452a-a436-a56a983cc43d"},"vehicle_type_id":"4","last_reported":1741485418,"current_range_meters":4800,"station_id":"ce4bhe12rcd13ifvqf30","pricing_plan_id":"cebpf4jnsgd1na2vs0mg"},{"bike_id":"98099f5b-2d89-4ebc-af70-310ad79dd9aa","system_id":"levelo_inurba_marseille","lat":43.2466,"lon":5.38108,"is_reserved":false,"is_disabled":false,"rental_uris":{"android":"levelo://app?vid=98099f5b-2d89-4ebc-af70-310ad79dd9aa","ios":"levelo://app?vid=98099f5b-2d89-4ebc-af70-310ad79dd9aa"},"vehicle_type_id":"4","last_reported":1741485418,"current_range_meters":4800,"station_id":"ce4bhih2rcd13ifvqfr0","pricing_plan_id":"cebpf4jnsgd1na2vs0mg"},{"bike_id":"2109fc2c-a209-4d7b-85df-ea39c33afd9c","system_id":"levelo_inurba_marseille","lat":43.30465,"lon":5.37901,"is_reserved":false,"is_disabled":false,"rental_uris":{"android":"levelo://app?vid=2109fc2c-a209-4d7b-85df-ea39c33afd9c","ios":"levelo://app?vid=2109fc2c-a209-4d7b-85df-ea39c33afd9c"},"vehicle_type_id":"4","last_reported":1741485418,"current_range_meters":4800,"station_id":"ce4bgup2rcd13ifvqcn0","pricing_plan_id":"cebpf4jnsgd1na2vs0mg"},{"bike_id":"c1b37ffe-209e-42d6-87de-eb1e250701e0","system_id":"levelo_inurba_marseille","lat":43.27953,"lon":5.41049,"is_reserved":false,"is_disabled":false,"rental_uris":{"android":"levelo://app?vid=c1b37ffe-209e-42d6-87de-eb1e250701e0","ios":"levelo://app?vid=c1b37ffe-209e-42d6-87de-eb1e250701e0"},"vehicle_type_id":"4","last_reported":1741485418,"current_range_meters":4800,"station_id":"ce4bhnp2rcd13ifvqh0g","pricing_plan_id":"cebpf4jnsgd1na2vs0mg"},{"bike_id":"78dd0279-c270-48af-857c-971f5461b139","system_id":"levelo_inurba_marseille","lat":43.31685,"lon":5.37747,"is_reserved":false,"is_disabled":false,"rental_uris":{"android":"levelo://app?vid=78dd0279-c270-48af-857c-971f5461b139","ios":"levelo://app?vid=78dd0279-c270-48af-857c-971f5461b139"},"vehicle_type_id":"4","last_reported":1741485418,"current_range_meters":4800,"station_id":"ce4bgth2rcd13ifvqch0","pricing_plan_id":"cebpf4jnsgd1na2vs0mg"},{"bike_id":"e2e78bce-3bcf-4bf2-9719-5393acb7fad8","system_id":"levelo_inurba_marseille","lat":43.30331,"lon":5.40437,"is_reserved":false,"is_disabled":false,"rental_uris":{"android":"levelo://app?vid=e2e78bce-3bcf-4bf2-9719-5393acb7fad8","ios":"levelo://app?vid=e2e78bce-3bcf-4bf2-9719-5393acb7fad8"},"vehicle_type_id":"4","last_reported":1741485418,"current_range_meters":4800,"station_id":"ce4bh012rcd13ifvqd10","pricing_plan_id":"cebpf4jnsgd1na2vs0mg"},{"bike_id":"82e849d5-e006-4a19-9415-e48d295e72fe","system_id":"levelo_inurba_marseille","lat":43.30522,"lon":5.36978,"is_reserved":false,"is_disabled":false,"rental_uris":{"android":"levelo://app?vid=82e849d5-e006-4a19-9415-e48d295e72fe","ios":"levelo://app?vid=82e849d5-e006-4a19-9415-e48d295e72fe"},"vehicle_type_id":"4","last_reported":1741485418,"current_range_meters":5600,"station_id":"","pricing_plan_id":"cebpf4jnsgd1na2vs0mg"},{"bike_id":"4a5f5573-68a0-4ef8-9746-01d4ee12e6d2","system_id":"levelo_inurba_marseille","lat":43.23962,"lon":5.36637,"is_reserved":false,"is_disabled":false,"rental_uris":{"android":"levelo://app?vid=4a5f5573-68a0-4ef8-9746-01d4ee12e6d2","ios":"levelo://app?vid=4a5f5573-68a0-4ef8-9746-01d4ee12e6d2"},"vehicle_type_id":"4","last_reported":1741485418,"current_range_meters":5600,"station_id":"ce4bhi12rcd13ifvqfp0","pricing_plan_id":"cebpf4jnsgd1na2vs0mg"},{"bike_id":"e90bc0ed-0c32-4446-84db-87cf53deb2fe","system_id":"levelo_inurba_marseille","lat":43.30256,"lon":5.40082,"is_reserved":false,"is_disabled":false,"rental_uris":{"android":"levelo://app?vid=e90bc0ed-0c32-4446-84db-87cf53deb2fe","ios":"levelo://app?vid=e90bc0ed-0c32-4446-84db-87cf53deb2fe"},"vehicle_type_id":"4","last_reported":1741485418,"current_range_meters":5600,"station_id":"ce4bgvh2rcd13ifvqcs0","pricing_plan_id":"cebpf4jnsgd1na2vs0mg"},{"bike_id":"802ec9b6-cf45-4906-a6b8-3b7e5c09357c","system_id":"levelo_inurba_marseille","lat":43.30934,"lon":5.40146,"is_reserved":false,"is_disabled":false,"rental_uris":{"android":"levelo://app?vid=802ec9b6-cf45-4906-a6b8-3b7e5c09357c","ios":"levelo://app?vid=802ec9b6-cf45-4906-a6b8-3b7e5c09357c"},"vehicle_type_id":"4","last_reported":1741485418,"current_range_meters":5600,"station_id":"ce4bgvp2rcd13ifvqct0","pricing_plan_id":"cebpf4jnsgd1na2vs0mg"},{"bike_id":"45e74ffc-2cca-4755-99a2-a317bcba5976","system_id":"levelo_inurba_marseille","lat":43.25006,"lon":5.3892,"is_reserved":false,"is_disabled":false,"rental_uris":{"android":"levelo://app?vid=45e74ffc-2cca-4755-99a2-a317bcba5976","ios":"levelo://app?vid=45e74ffc-2cca-4755-99a2-a317bcba5976"},"vehicle_type_id":"4","last_reported":1741485418,"current_range_meters":5600,"station_id":"ce4bhgp2rcd13ifvqfd0","pricing_plan_id":"cebpf4jnsgd1na2vs0mg"},{"bike_id":"be83f593-03ea-40f9-bbc5-e7dd99f34054","system_id":"levelo_inurba_marseille","lat":43.31186,"lon":5.38714,"is_reserved":false,"is_disabled":false,"rental_uris":{"android":"levelo://app?vid=be83f593-03ea-40f9-bbc5-e7dd99f34054","ios":"levelo://app?vid=be83f593-03ea-40f9-bbc5-e7dd99f34054"},"vehicle_type_id":"4","last_reported":1741485418,"current_range_meters":6000,"station_id":"ce4bgv12rcd13ifvqcp0","pricing_plan_id":"cebpf4jnsgd1na2vs0mg"},{"bike_id":"90b8db64-bbd7-44bb-b7ee-15ff858ae528","system_id":"levelo_inurba_marseille","lat":43.27643,"lon":5.39924,"is_reserved":false,"is_disabled":false,"rental_uris":{"android":"levelo://app?vid=90b8db64-bbd7-44bb-b7ee-15ff858ae528","ios":"levelo://app?vid=90b8db64-bbd7-44bb-b7ee-15ff858ae528"},"vehicle_type_id":"4","last_reported":1741485418,"current_range_meters":6000,"station_id":"","pricing_plan_id":"cebpf4jnsgd1na2vs0mg"},{"bike_id":"04027f9f-3617-4d0f-8003-b61a82d55757","system_id":"levelo_inurba_marseille","lat":43.27827,"lon":5.40674,"is_reserved":false,"is_disabled":false,"rental_uris":{"android":"levelo://app?vid=04027f9f-3617-4d0f-8003-b61a82d55757","ios":"levelo://app?vid=04027f9f-3617-4d0f-8003-b61a82d55757"},"vehicle_type_id":"4","last_reported":1741485418,"current_range_meters":6000,"station_id":"ce4bhnh2rcd13ifvqgtg","pricing_plan_id":"cebpf4jnsgd1na2vs0mg"},{"bike_id":"06577ee2-bd0c-4739-8f68-e18a6a94f884","system_id":"levelo_inurba_marseille","lat":43.23208,"lon":5.35549,"is_reserved":false,"is_disabled":false,"rental_uris":{"android":"levelo://app?vid=06577ee2-bd0c-4739-8f68-e18a6a94f884","ios":"levelo://app?vid=06577ee2-bd0c-4739-8f68-e18a6a94f884"},"vehicle_type_id":"4","last_reported":1741485418,"current_range_meters":6000,"station_id":"ce4bhu92rcd13ifvqi70","pricing_plan_id":"cebpf4jnsgd1na2vs0mg"},{"bike_id":"cd5acaa0-228e-4d82-982b-7e2b3b040929","system_id":"levelo_inurba_marseille","lat":43.23964,"lon":5.36637,"is_reserved":false,"is_disabled":false,"rental_uris":{"android":"levelo://app?vid=cd5acaa0-228e-4d82-982b-7e2b3b040929","ios":"levelo://app?vid=cd5acaa0-228e-4d82-982b-7e2b3b040929"},"vehicle_type_id":"4","last_reported":1741485418,"current_range_meters":6000,"station_id":"ce4bhi12rcd13ifvqfp0","pricing_plan_id":"cebpf4jnsgd1na2vs0mg"},{"bike_id":"60fba7df-4520-4d63-9c5b-9a7a002cedfb","system_id":"levelo_inurba_marseille","lat":43.28048,"lon":5.3912,"is_reserved":false,"is_disabled":false,"rental_uris":{"android":"levelo://app?vid=60fba7df-4520-4d63-9c5b-9a7a002cedfb","ios":"levelo://app?vid=60fba7df-4520-4d63-9c5b-9a7a002cedfb"},"vehicle_type_id":"4","last_reported":1741485418,"current_range_meters":6400,"station_id":"","pricing_plan_id":"cebpf4jnsgd1na2vs0mg"},{"bike_id":"a85666a4-8fe7-4d6d-9254-683bdd61b61f","system_id":"levelo_inurba_marseille","lat":43.2738,"lon":5.41396,"is_reserved":false,"is_disabled":false,"rental_uris":{"android":"levelo://app?vid=a85666a4-8fe7-4d6d-9254-683bdd61b61f","ios":"levelo://app?vid=a85666a4-8fe7-4d6d-9254-683bdd61b61f"},"vehicle_type_id":"4","last_reported":1741485418,"current_range_meters":6800,"station_id":"","pricing_plan_id":"cebpf4jnsgd1na2vs0mg"},{"bike_id":"6d0356cd-03ed-4a8b-97c7-0e2dd8952c4d","system_id":"levelo_inurba_marseille","lat":43.31716,"lon":5.43704,"is_reserved":false,"is_disabled":false,"rental_uris":{"android":"levelo://app?vid=6d0356cd-03ed-4a8b-97c7-0e2dd8952c4d","ios":"levelo://app?vid=6d0356cd-03ed-4a8b-97c7-0e2dd8952c4d"},"vehicle_type_id":"4","last_reported":1741485418,"current_range_meters":6800,"station_id":"ce4bhp92rcd13ifvqhcg","pricing_plan_id":"cebpf4jnsgd1na2vs0mg"},{"bike_id":"2fe3fa9d-c136-4274-aa2d-ddbc2f5c56d4","system_id":"levelo_inurba_marseille","lat":43.27593,"lon":5.39681,"is_reserved":false,"is_disabled":false,"rental_uris":{"android":"levelo://app?vid=2fe3fa9d-c136-4274-aa2d-ddbc2f5c56d4","ios":"levelo://app?vid=2fe3fa9d-c136-4274-aa2d-ddbc2f5c56d4"},"vehicle_type_id":"4","last_reported":1741485418,"current_range_meters":6800,"station_id":"","pricing_plan_id":"cebpf4jnsgd1na2vs0mg"},{"bike_id":"aec03fe0-fe4c-4102-8975-c29a22649599","system_id":"levelo_inurba_marseille","lat":43.27489,"lon":5.42452,"is_reserved":false,"is_disabled":false,"rental_uris":{"android":"levelo://app?vid=aec03fe0-fe4c-4102-8975-c29a22649599","ios":"levelo://app?vid=aec03fe0-fe4c-4102-8975-c29a22649599"},"vehicle_type_id":"4","last_reported":1741485418,"current_range_meters":6400,"station_id":"ce4bhn92rcd13ifvqgrg","pricing_plan_id":"cebpf4jnsgd1na2vs0mg"},{"bike_id":"a3ea0991-4b1c-4b3b-b5f9-ab60777b4148","system_id":"levelo_inurba_marseille","lat":43.24177,"lon":5.39727,"is_reserved":false,"is_disabled":false,"rental_uris":{"android":"levelo://app?vid=a3ea0991-4b1c-4b3b-b5f9-ab60777b4148","ios":"levelo://app?vid=a3ea0991-4b1c-4b3b-b5f9-ab60777b4148"},"vehicle_type_id":"4","last_reported":1741485418,"current_range_meters":6800,"station_id":"ce4bhn12rcd13ifvqgpg","pricing_plan_id":"cebpf4jnsgd1na2vs0mg"},{"bike_id":"9effefb9-02e3-4c25-ab75-e3a5ac01515f","system_id":"levelo_inurba_marseille","lat":43.265521,"lon":5.372932,"is_reserved":false,"is_disabled":true,"rental_uris":{"android":"levelo://app?vid=9effefb9-02e3-4c25-ab75-e3a5ac01515f","ios":"levelo://app?vid=9effefb9-02e3-4c25-ab75-e3a5ac01515f"},"vehicle_type_id":"4","last_reported":1741485418,"current_range_meters":6800,"station_id":"ce4bhg12rcd13ifvqf70","pricing_plan_id":"cebpf4jnsgd1na2vs0mg"},{"bike_id":"2bf9efc6-81d5-495d-854d-ec17e195b993","system_id":"levelo_inurba_marseille","lat":43.29223,"lon":5.36073,"is_reserved":false,"is_disabled":false,"rental_uris":{"android":"levelo://app?vid=2bf9efc6-81d5-495d-854d-ec17e195b993","ios":"levelo://app?vid=2bf9efc6-81d5-495d-854d-ec17e195b993"},"vehicle_type_id":"4","last_reported":1741485418,"current_range_meters":6800,"station_id":"ce4bhbh2rcd13ifvqeqg","pricing_plan_id":"cebpf4jnsgd1na2vs0mg"},{"bike_id":"d04764b2-721c-4149-b1b8-42d1c3ceb1a5","system_id":"levelo_inurba_marseille","lat":43.31382,"lon":5.38491,"is_reserved":false,"is_disabled":false,"rental_uris":{"android":"levelo://app?vid=d04764b2-721c-4149-b1b8-42d1c3ceb1a5","ios":"levelo://app?vid=d04764b2-721c-4149-b1b8-42d1c3ceb1a5"},"vehicle_type_id":"4","last_reported":1741485418,"current_range_meters":6800,"station_id":"ce4bgt92rcd13ifvqcf0","pricing_plan_id":"cebpf4jnsgd1na2vs0mg"},{"bike_id":"046784fd-fb50-43bb-a552-0ec5622b98e2","system_id":"levelo_inurba_marseille","lat":43.26228,"lon":5.40464,"is_reserved":false,"is_disabled":false,"rental_uris":{"android":"levelo://app?vid=046784fd-fb50-43bb-a552-0ec5622b98e2","ios":"levelo://app?vid=046784fd-fb50-43bb-a552-0ec5622b98e2"},"vehicle_type_id":"4","last_reported":1741485418,"current_range_meters":6800,"station_id":"ce4bhmh2rcd13ifvqgmg","pricing_plan_id":"cebpf4jnsgd1na2vs0mg"},{"bike_id":"3e0cbd30-7915-4087-9ee3-7c218dc6529e","system_id":"levelo_inurba_marseille","lat":43.31421,"lon":5.38605,"is_reserved":false,"is_disabled":false,"rental_uris":{"android":"levelo://app?vid=3e0cbd30-7915-4087-9ee3-7c218dc6529e","ios":"levelo://app?vid=3e0cbd30-7915-4087-9ee3-7c218dc6529e"},"vehicle_type_id":"4","last_reported":1741485418,"current_range_meters":6800,"station_id":"","pricing_plan_id":"cebpf4jnsgd1na2vs0mg"},{"bike_id":"dec29720-34f1-4ed4-8695-f9a107b367e4","system_id":"levelo_inurba_marseille","lat":43.28709,"lon":5.37409,"is_reserved":false,"is_disabled":true,"rental_uris":{"android":"levelo://app?vid=dec29720-34f1-4ed4-8695-f9a107b367e4","ios":"levelo://app?vid=dec29720-34f1-4ed4-8695-f9a107b367e4"},"vehicle_type_id":"4","last_reported":1741485418,"current_range_meters":6800,"station_id":"ce4bh3p2rcd13ifvqdq0","pricing_plan_id":"cebpf4jnsgd1na2vs0mg"},{"bike_id":"17d07e8b-6cde-466a-a776-9e95dfe1fdb0","system_id":"levelo_inurba_marseille","lat":43.27067,"lon":5.42277,"is_reserved":false,"is_disabled":false,"rental_uris":{"android":"levelo://app?vid=17d07e8b-6cde-466a-a776-9e95dfe1fdb0","ios":"levelo://app?vid=17d07e8b-6cde-466a-a776-9e95dfe1fdb0"},"vehicle_type_id":"4","last_reported":1741485418,"current_range_meters":6800,"station_id":"ce4bhk92rcd13ifvqgb0","pricing_plan_id":"cebpf4jnsgd1na2vs0mg"},{"bike_id":"4529b0b7-d593-4a87-8793-9a37c77e53f1","system_id":"levelo_inurba_marseille","lat":43.296122,"lon":5.377355,"is_reserved":false,"is_disabled":false,"rental_uris":{"android":"levelo://app?vid=4529b0b7-d593-4a87-8793-9a37c77e53f1","ios":"levelo://app?vid=4529b0b7-d593-4a87-8793-9a37c77e53f1"},"vehicle_type_id":"4","last_reported":1741485418,"current_range_meters":6800,"station_id":"ce4bhjp2rcd13ifvqga0","pricing_plan_id":"cebpf4jnsgd1na2vs0mg"},{"bike_id":"7d295ec4-9c0e-4850-9c53-dd65645b97b2","system_id":"levelo_inurba_marseille","lat":43.26054,"lon":5.39406,"is_reserved":false,"is_disabled":false,"rental_uris":{"android":"levelo://app?vid=7d295ec4-9c0e-4850-9c53-dd65645b97b2","ios":"levelo://app?vid=7d295ec4-9c0e-4850-9c53-dd65645b97b2"},"vehicle_type_id":"4","last_reported":1741485418,"current_range_meters":7200,"station_id":"ce4bhh92rcd13ifvqfj0","pricing_plan_id":"cebpf4jnsgd1na2vs0mg"},{"bike_id":"271b9580-7db4-4949-aec3-e8c596beb552","system_id":"levelo_inurba_marseille","lat":43.31121,"lon":5.37766,"is_reserved":false,"is_disabled":false,"rental_uris":{"android":"levelo://app?vid=271b9580-7db4-4949-aec3-e8c596beb552","ios":"levelo://app?vid=271b9580-7db4-4949-aec3-e8c596beb552"},"vehicle_type_id":"4","last_reported":1741485418,"current_range_meters":7200,"station_id":"ce4bgt92rcd13ifvqcg0","pricing_plan_id":"cebpf4jnsgd1na2vs0mg"},{"bike_id":"8968ebf0-976e-4199-a05d-0b5eb90e8fa7","system_id":"levelo_inurba_marseille","lat":43.25739,"lon":5.41109,"is_reserved":false,"is_disabled":false,"rental_uris":{"android":"levelo://app?vid=8968ebf0-976e-4199-a05d-0b5eb90e8fa7","ios":"levelo://app?vid=8968ebf0-976e-4199-a05d-0b5eb90e8fa7"},"vehicle_type_id":"4","last_reported":1741485418,"current_range_meters":7200,"station_id":"ce4bhkp2rcd13ifvqgd0","pricing_plan_id":"cebpf4jnsgd1na2vs0mg"},{"bike_id":"b9f50795-762b-415e-beef-6809359ba11c","system_id":"levelo_inurba_marseille","lat":43.31705,"lon":5.377363,"is_reserved":false,"is_disabled":false,"rental_uris":{"android":"levelo://app?vid=b9f50795-762b-415e-beef-6809359ba11c","ios":"levelo://app?vid=b9f50795-762b-415e-beef-6809359ba11c"},"vehicle_type_id":"4","last_reported":1741485418,"current_range_meters":7200,"station_id":"ce4bgth2rcd13ifvqch0","pricing_plan_id":"cebpf4jnsgd1na2vs0mg"},{"bike_id":"a01889f6-7082-4c91-9d70-b12d1c00664e","system_id":"levelo_inurba_marseille","lat":43.30796,"lon":5.43532,"is_reserved":false,"is_disabled":false,"rental_uris":{"android":"levelo://app?vid=a01889f6-7082-4c91-9d70-b12d1c00664e","ios":"levelo://app?vid=a01889f6-7082-4c91-9d70-b12d1c00664e"},"vehicle_type_id":"4","last_reported":1741485418,"current_range_meters":7200,"station_id":"ce4bhph2rcd13ifvqheg","pricing_plan_id":"cebpf4jnsgd1na2vs0mg"},{"bike_id":"f4906724-26b5-4110-ba77-718f0f26dd92","system_id":"levelo_inurba_marseille","lat":43.31343,"lon":5.38528,"is_reserved":false,"is_disabled":false,"rental_uris":{"android":"levelo://app?vid=f4906724-26b5-4110-ba77-718f0f26dd92","ios":"levelo://app?vid=f4906724-26b5-4110-ba77-718f0f26dd92"},"vehicle_type_id":"4","last_reported":1741485418,"current_range_meters":7200,"station_id":"ce4bgt92rcd13ifvqcf0","pricing_plan_id":"cebpf4jnsgd1na2vs0mg"},{"bike_id":"710ae057-d84a-44c0-8291-3d6e1e4eafc3","system_id":"levelo_inurba_marseille","lat":43.28668,"lon":5.36354,"is_reserved":false,"is_disabled":false,"rental_uris":{"android":"levelo://app?vid=710ae057-d84a-44c0-8291-3d6e1e4eafc3","ios":"levelo://app?vid=710ae057-d84a-44c0-8291-3d6e1e4eafc3"},"vehicle_type_id":"4","last_reported":1741485418,"current_range_meters":7200,"station_id":"ce4bhah2rcd13ifvqej0","pricing_plan_id":"cebpf4jnsgd1na2vs0mg"},{"bike_id":"1efa829b-5cdd-4ff4-92b6-823aec4dee37","system_id":"levelo_inurba_marseille","lat":43.305535,"lon":5.36708,"is_reserved":false,"is_disabled":false,"rental_uris":{"android":"levelo://app?vid=1efa829b-5cdd-4ff4-92b6-823aec4dee37","ios":"levelo://app?vid=1efa829b-5cdd-4ff4-92b6-823aec4dee37"},"vehicle_type_id":"4","last_reported":1741485418,"current_range_meters":7200,"station_id":"ce4bgrp2rcd13ifvqc9g","pricing_plan_id":"cebpf4jnsgd1na2vs0mg"},{"bike_id":"987fd665-a251-4309-9175-6c165a1f52e5","system_id":"levelo_inurba_marseille","lat":43.29296,"lon":5.3747,"is_reserved":false,"is_disabled":false,"rental_uris":{"android":"levelo://app?vid=987fd665-a251-4309-9175-6c165a1f52e5","ios":"levelo://app?vid=987fd665-a251-4309-9175-6c165a1f52e5"},"vehicle_type_id":"4","last_reported":1741485418,"current_range_meters":6800,"station_id":"ce4bgi12rcd13ifvqb70","pricing_plan_id":"cebpf4jnsgd1na2vs0mg"},{"bike_id":"903ca8fb-a01f-48af-9d7f-844151e9f785","system_id":"levelo_inurba_marseille","lat":43.27959,"lon":5.41059,"is_reserved":false,"is_disabled":true,"rental_uris":{"android":"levelo://app?vid=903ca8fb-a01f-48af-9d7f-844151e9f785","ios":"levelo://app?vid=903ca8fb-a01f-48af-9d7f-844151e9f785"},"vehicle_type_id":"4","last_reported":1741485418,"current_range_meters":7200,"station_id":"ce4bhnp2rcd13ifvqh0g","pricing_plan_id":"cebpf4jnsgd1na2vs0mg"},{"bike_id":"cb0d4d15-0ce0-4061-8a04-93bcbe80bd0f","system_id":"levelo_inurba_marseille","lat":43.2594,"lon":5.40898,"is_reserved":false,"is_disabled":false,"rental_uris":{"android":"levelo://app?vid=cb0d4d15-0ce0-4061-8a04-93bcbe80bd0f","ios":"levelo://app?vid=cb0d4d15-0ce0-4061-8a04-93bcbe80bd0f"},"vehicle_type_id":"4","last_reported":1741485418,"current_range_meters":7200,"station_id":"ce4bhm92rcd13ifvqglg","pricing_plan_id":"cebpf4jnsgd1na2vs0mg"},{"bike_id":"83a6d155-9919-4290-bf72-0d13e9905c6b","system_id":"levelo_inurba_marseille","lat":43.28449,"lon":5.35869,"is_reserved":false,"is_disabled":false,"rental_uris":{"android":"levelo://app?vid=83a6d155-9919-4290-bf72-0d13e9905c6b","ios":"levelo://app?vid=83a6d155-9919-4290-bf72-0d13e9905c6b"},"vehicle_type_id":"4","last_reported":1741485418,"current_range_meters":7200,"station_id":"ce4bhah2rcd13ifvqei0","pricing_plan_id":"cebpf4jnsgd1na2vs0mg"},{"bike_id":"53bd1732-d8ff-41a5-8f1b-42274afdde26","system_id":"levelo_inurba_marseille","lat":43.29356,"lon":5.42833,"is_reserved":false,"is_disabled":false,"rental_uris":{"android":"levelo://app?vid=53bd1732-d8ff-41a5-8f1b-42274afdde26","ios":"levelo://app?vid=53bd1732-d8ff-41a5-8f1b-42274afdde26"},"vehicle_type_id":"4","last_reported":1741485418,"current_range_meters":7200,"station_id":"","pricing_plan_id":"cebpf4jnsgd1na2vs0mg"},{"bike_id":"8b76a81a-4c10-4e7b-ab15-0f6dad2b5137","system_id":"levelo_inurba_marseille","lat":43.26566,"lon":5.37281,"is_reserved":false,"is_disabled":false,"rental_uris":{"android":"levelo://app?vid=8b76a81a-4c10-4e7b-ab15-0f6dad2b5137","ios":"levelo://app?vid=8b76a81a-4c10-4e7b-ab15-0f6dad2b5137"},"vehicle_type_id":"4","last_reported":1741485418,"current_range_meters":7200,"station_id":"ce4bhg12rcd13ifvqf70","pricing_plan_id":"cebpf4jnsgd1na2vs0mg"},{"bike_id":"626884ee-8f0e-46ef-8d6f-9e0f568a332a","system_id":"levelo_inurba_marseille","lat":43.28653,"lon":5.36356,"is_reserved":false,"is_disabled":false,"rental_uris":{"android":"levelo://app?vid=626884ee-8f0e-46ef-8d6f-9e0f568a332a","ios":"levelo://app?vid=626884ee-8f0e-46ef-8d6f-9e0f568a332a"},"vehicle_type_id":"4","last_reported":1741485418,"current_range_meters":7200,"station_id":"ce4bhah2rcd13ifvqej0","pricing_plan_id":"cebpf4jnsgd1na2vs0mg"},{"bike_id":"21dda7ec-58bd-4ec5-b46b-7fc383d9774f","system_id":"levelo_inurba_marseille","lat":43.32046,"lon":5.41556,"is_reserved":false,"is_disabled":false,"rental_uris":{"android":"levelo://app?vid=21dda7ec-58bd-4ec5-b46b-7fc383d9774f","ios":"levelo://app?vid=21dda7ec-58bd-4ec5-b46b-7fc383d9774f"},"vehicle_type_id":"4","last_reported":1741485418,"current_range_meters":7200,"station_id":"ce4bhq92rcd13ifvqhkg","pricing_plan_id":"cebpf4jnsgd1na2vs0mg"},{"bike_id":"0f547de3-c382-4c8d-a5a9-a1f7571fca3a","system_id":"levelo_inurba_marseille","lat":43.311731,"lon":5.38717,"is_reserved":false,"is_disabled":false,"rental_uris":{"android":"levelo://app?vid=0f547de3-c382-4c8d-a5a9-a1f7571fca3a","ios":"levelo://app?vid=0f547de3-c382-4c8d-a5a9-a1f7571fca3a"},"vehicle_type_id":"4","last_reported":1741485418,"current_range_meters":8000,"station_id":"ce4bgv12rcd13ifvqcp0","pricing_plan_id":"cebpf4jnsgd1na2vs0mg"},{"bike_id":"a8f484f1-d47f-4ef2-b175-70c6757421df","system_id":"levelo_inurba_marseille","lat":43.30516,"lon":5.36926,"is_reserved":false,"is_disabled":false,"rental_uris":{"android":"levelo://app?vid=a8f484f1-d47f-4ef2-b175-70c6757421df","ios":"levelo://app?vid=a8f484f1-d47f-4ef2-b175-70c6757421df"},"vehicle_type_id":"4","last_reported":1741485418,"current_range_meters":8000,"station_id":"","pricing_plan_id":"cebpf4jnsgd1na2vs0mg"},{"bike_id":"4f508b50-1e3d-40c5-be77-1e6495edbe07","system_id":"levelo_inurba_marseille","lat":43.25722,"lon":5.41109,"is_reserved":false,"is_disabled":false,"rental_uris":{"android":"levelo://app?vid=4f508b50-1e3d-40c5-be77-1e6495edbe07","ios":"levelo://app?vid=4f508b50-1e3d-40c5-be77-1e6495edbe07"},"vehicle_type_id":"4","last_reported":1741485418,"current_range_meters":8000,"station_id":"ce4bhkp2rcd13ifvqgd0","pricing_plan_id":"cebpf4jnsgd1na2vs0mg"},{"bike_id":"c40c13ce-fdbb-4f52-b2d8-1005d4c9277b","system_id":"levelo_inurba_marseille","lat":43.25409,"lon":5.41893,"is_reserved":false,"is_disabled":false,"rental_uris":{"android":"levelo://app?vid=c40c13ce-fdbb-4f52-b2d8-1005d4c9277b","ios":"levelo://app?vid=c40c13ce-fdbb-4f52-b2d8-1005d4c9277b"},"vehicle_type_id":"4","last_reported":1741485418,"current_range_meters":8000,"station_id":"","pricing_plan_id":"cebpf4jnsgd1na2vs0mg"},{"bike_id":"66db9969-33aa-45c9-a3ce-4d47194c502f","system_id":"levelo_inurba_marseille","lat":43.30807,"lon":5.3815,"is_reserved":false,"is_disabled":false,"rental_uris":{"android":"levelo://app?vid=66db9969-33aa-45c9-a3ce-4d47194c502f","ios":"levelo://app?vid=66db9969-33aa-45c9-a3ce-4d47194c502f"},"vehicle_type_id":"4","last_reported":1741485418,"current_range_meters":8000,"station_id":"ce4bgt12rcd13ifvqce0","pricing_plan_id":"cebpf4jnsgd1na2vs0mg"},{"bike_id":"a6c74a05-39e7-4da6-8b71-1ba187fc5bae","system_id":"levelo_inurba_marseille","lat":43.30543,"lon":5.36524,"is_reserved":false,"is_disabled":true,"rental_uris":{"android":"levelo://app?vid=a6c74a05-39e7-4da6-8b71-1ba187fc5bae","ios":"levelo://app?vid=a6c74a05-39e7-4da6-8b71-1ba187fc5bae"},"vehicle_type_id":"4","last_reported":1741485418,"current_range_meters":8000,"station_id":"ce4bgs12rcd13ifvqcag","pricing_plan_id":"cebpf4jnsgd1na2vs0mg"},{"bike_id":"e349ff65-0a44-4668-be39-331480a53e8c","system_id":"levelo_inurba_marseille","lat":43.29671,"lon":5.44524,"is_reserved":false,"is_disabled":false,"rental_uris":{"android":"levelo://app?vid=e349ff65-0a44-4668-be39-331480a53e8c","ios":"levelo://app?vid=e349ff65-0a44-4668-be39-331480a53e8c"},"vehicle_type_id":"4","last_reported":1741485418,"current_range_meters":8000,"station_id":"","pricing_plan_id":"cebpf4jnsgd1na2vs0mg"},{"bike_id":"b4ec2170-59cc-4751-981a-ecabaa90ce87","system_id":"levelo_inurba_marseille","lat":43.25126,"lon":5.40322,"is_reserved":false,"is_disabled":false,"rental_uris":{"android":"levelo://app?vid=b4ec2170-59cc-4751-981a-ecabaa90ce87","ios":"levelo://app?vid=b4ec2170-59cc-4751-981a-ecabaa90ce87"},"vehicle_type_id":"4","last_reported":1741485418,"current_range_meters":8000,"station_id":"ce4bhlh2rcd13ifvqgig","pricing_plan_id":"cebpf4jnsgd1na2vs0mg"},{"bike_id":"b0fab22e-e6d7-4978-96bf-c765be6151ef","system_id":"levelo_inurba_marseille","lat":43.2845,"lon":5.3591,"is_reserved":false,"is_disabled":false,"rental_uris":{"android":"levelo://app?vid=b0fab22e-e6d7-4978-96bf-c765be6151ef","ios":"levelo://app?vid=b0fab22e-e6d7-4978-96bf-c765be6151ef"},"vehicle_type_id":"4","last_reported":1741485418,"current_range_meters":8000,"station_id":"ce4bhah2rcd13ifvqei0","pricing_plan_id":"cebpf4jnsgd1na2vs0mg"},{"bike_id":"ab61eb2c-311f-44a8-b497-da6624e5b392","system_id":"levelo_inurba_marseille","lat":43.2956,"lon":5.42292,"is_reserved":false,"is_disabled":false,"rental_uris":{"android":"levelo://app?vid=ab61eb2c-311f-44a8-b497-da6624e5b392","ios":"levelo://app?vid=ab61eb2c-311f-44a8-b497-da6624e5b392"},"vehicle_type_id":"4","last_reported":1741485418,"current_range_meters":8000,"station_id":"ce4bhph2rcd13ifvqhdg","pricing_plan_id":"cebpf4jnsgd1na2vs0mg"},{"bike_id":"1c0edaba-550e-4916-9ab6-b50abcaced38","system_id":"levelo_inurba_marseille","lat":43.28156,"lon":5.42655,"is_reserved":false,"is_disabled":false,"rental_uris":{"android":"levelo://app?vid=1c0edaba-550e-4916-9ab6-b50abcaced38","ios":"levelo://app?vid=1c0edaba-550e-4916-9ab6-b50abcaced38"},"vehicle_type_id":"4","last_reported":1741485418,"current_range_meters":8000,"station_id":"ce4bhnh2rcd13ifvqgug","pricing_plan_id":"cebpf4jnsgd1na2vs0mg"},{"bike_id":"33bf21ac-44f3-4960-913c-36cb885e2d58","system_id":"levelo_inurba_marseille","lat":43.29283,"lon":5.37617,"is_reserved":false,"is_disabled":false,"rental_uris":{"android":"levelo://app?vid=33bf21ac-44f3-4960-913c-36cb885e2d58","ios":"levelo://app?vid=33bf21ac-44f3-4960-913c-36cb885e2d58"},"vehicle_type_id":"4","last_reported":1741485418,"current_range_meters":8400,"station_id":"ce4bgi12rcd13ifvqb80","pricing_plan_id":"cebpf4jnsgd1na2vs0mg"},{"bike_id":"10b0cc57-33fa-4671-9219-83a27da5a77b","system_id":"levelo_inurba_marseille","lat":43.30238,"lon":5.40049,"is_reserved":false,"is_disabled":false,"rental_uris":{"android":"levelo://app?vid=10b0cc57-33fa-4671-9219-83a27da5a77b","ios":"levelo://app?vid=10b0cc57-33fa-4671-9219-83a27da5a77b"},"vehicle_type_id":"4","last_reported":1741485418,"current_range_meters":8400,"station_id":"ce4bgvh2rcd13ifvqcs0","pricing_plan_id":"cebpf4jnsgd1na2vs0mg"},{"bike_id":"d98e72fb-f5df-4f42-b640-822629ee5d69","system_id":"levelo_inurba_marseille","lat":43.28622,"lon":5.351,"is_reserved":false,"is_disabled":false,"rental_uris":{"android":"levelo://app?vid=d98e72fb-f5df-4f42-b640-822629ee5d69","ios":"levelo://app?vid=d98e72fb-f5df-4f42-b640-822629ee5d69"},"vehicle_type_id":"4","last_reported":1741485418,"current_range_meters":8400,"station_id":"ce4bhch2rcd13ifvqeug","pricing_plan_id":"cebpf4jnsgd1na2vs0mg"},{"bike_id":"c787a0ef-03a5-4d36-b53c-60238e9036da","system_id":"levelo_inurba_marseille","lat":43.23198,"lon":5.39985,"is_reserved":false,"is_disabled":false,"rental_uris":{"android":"levelo://app?vid=c787a0ef-03a5-4d36-b53c-60238e9036da","ios":"levelo://app?vid=c787a0ef-03a5-4d36-b53c-60238e9036da"},"vehicle_type_id":"4","last_reported":1741485418,"current_range_meters":8400,"station_id":"ce4bhn12rcd13ifvqgqg","pricing_plan_id":"cebpf4jnsgd1na2vs0mg"},{"bike_id":"8061010c-0a2a-4149-9b9c-8feec9bf1e55","system_id":"levelo_inurba_marseille","lat":43.30887,"lon":5.37196,"is_reserved":false,"is_disabled":false,"rental_uris":{"android":"levelo://app?vid=8061010c-0a2a-4149-9b9c-8feec9bf1e55","ios":"levelo://app?vid=8061010c-0a2a-4149-9b9c-8feec9bf1e55"},"vehicle_type_id":"4","last_reported":1741485418,"current_range_meters":8400,"station_id":"ce4bguh2rcd13ifvqckg","pricing_plan_id":"cebpf4jnsgd1na2vs0mg"},{"bike_id":"025bd80e-2557-4b30-95ed-4938a6d70ede","system_id":"levelo_inurba_marseille","lat":43.26241,"lon":5.38968,"is_reserved":false,"is_disabled":false,"rental_uris":{"android":"levelo://app?vid=025bd80e-2557-4b30-95ed-4938a6d70ede","ios":"levelo://app?vid=025bd80e-2557-4b30-95ed-4938a6d70ede"},"vehicle_type_id":"4","last_reported":1741485418,"current_range_meters":8400,"station_id":"","pricing_plan_id":"cebpf4jnsgd1na2vs0mg"},{"bike_id":"25305dbe-974d-481a-8296-0926ee678627","system_id":"levelo_inurba_marseille","lat":43.2404,"lon":5.37761,"is_reserved":false,"is_disabled":false,"rental_uris":{"android":"levelo://app?vid=25305dbe-974d-481a-8296-0926ee678627","ios":"levelo://app?vid=25305dbe-974d-481a-8296-0926ee678627"},"vehicle_type_id":"4","last_reported":1741485418,"current_range_meters":8400,"station_id":"ce4bhnp2rcd13ifvqgvg","pricing_plan_id":"cebpf4jnsgd1na2vs0mg"},{"bike_id":"ea95a086-d532-4cf8-aa42-e0b6aad21615","system_id":"levelo_inurba_marseille","lat":43.29549,"lon":5.42284,"is_reserved":false,"is_disabled":false,"rental_uris":{"android":"levelo://app?vid=ea95a086-d532-4cf8-aa42-e0b6aad21615","ios":"levelo://app?vid=ea95a086-d532-4cf8-aa42-e0b6aad21615"},"vehicle_type_id":"4","last_reported":1741485418,"current_range_meters":8400,"station_id":"ce4bhph2rcd13ifvqhdg","pricing_plan_id":"cebpf4jnsgd1na2vs0mg"},{"bike_id":"7e48344a-4db8-47b3-8baa-574165663505","system_id":"levelo_inurba_marseille","lat":43.24403,"lon":5.37043,"is_reserved":false,"is_disabled":false,"rental_uris":{"android":"levelo://app?vid=7e48344a-4db8-47b3-8baa-574165663505","ios":"levelo://app?vid=7e48344a-4db8-47b3-8baa-574165663505"},"vehicle_type_id":"4","last_reported":1741485418,"current_range_meters":8400,"station_id":"ce4bhhh2rcd13ifvqfk0","pricing_plan_id":"cebpf4jnsgd1na2vs0mg"},{"bike_id":"9876b6f8-3573-47e0-8d8a-d4913985d47a","system_id":"levelo_inurba_marseille","lat":43.29005,"lon":5.35606,"is_reserved":false,"is_disabled":false,"rental_uris":{"android":"levelo://app?vid=9876b6f8-3573-47e0-8d8a-d4913985d47a","ios":"levelo://app?vid=9876b6f8-3573-47e0-8d8a-d4913985d47a"},"vehicle_type_id":"4","last_reported":1741485418,"current_range_meters":8400,"station_id":"ce4bhb92rcd13ifvqen0","pricing_plan_id":"cebpf4jnsgd1na2vs0mg"},{"bike_id":"2ebd15c7-5740-46e8-a559-6418d4a20edd","system_id":"levelo_inurba_marseille","lat":43.28724,"lon":5.39973,"is_reserved":false,"is_disabled":false,"rental_uris":{"android":"levelo://app?vid=2ebd15c7-5740-46e8-a559-6418d4a20edd","ios":"levelo://app?vid=2ebd15c7-5740-46e8-a559-6418d4a20edd"},"vehicle_type_id":"4","last_reported":1741485418,"current_range_meters":8400,"station_id":"ce4bho92rcd13ifvqh3g","pricing_plan_id":"cebpf4jnsgd1na2vs0mg"},{"bike_id":"d6449740-deef-42a2-a8ae-d4361c6624bd","system_id":"levelo_inurba_marseille","lat":43.23979,"lon":5.36627,"is_reserved":false,"is_disabled":false,"rental_uris":{"android":"levelo://app?vid=d6449740-deef-42a2-a8ae-d4361c6624bd","ios":"levelo://app?vid=d6449740-deef-42a2-a8ae-d4361c6624bd"},"vehicle_type_id":"4","last_reported":1741485418,"current_range_meters":8400,"station_id":"ce4bhi12rcd13ifvqfp0","pricing_plan_id":"cebpf4jnsgd1na2vs0mg"},{"bike_id":"caf3462b-2063-4208-ab8b-df78921a11c9","system_id":"levelo_inurba_marseille","lat":43.29807,"lon":5.39342,"is_reserved":false,"is_disabled":false,"rental_uris":{"android":"levelo://app?vid=caf3462b-2063-4208-ab8b-df78921a11c9","ios":"levelo://app?vid=caf3462b-2063-4208-ab8b-df78921a11c9"},"vehicle_type_id":"4","last_reported":1741485418,"current_range_meters":8400,"station_id":"chh1huq6cuj3fo74tm60","pricing_plan_id":"cebpf4jnsgd1na2vs0mg"},{"bike_id":"d729c7f4-89ec-407d-beb1-2e2d40d550c1","system_id":"levelo_inurba_marseille","lat":43.27198,"lon":5.40971,"is_reserved":false,"is_disabled":false,"rental_uris":{"android":"levelo://app?vid=d729c7f4-89ec-407d-beb1-2e2d40d550c1","ios":"levelo://app?vid=d729c7f4-89ec-407d-beb1-2e2d40d550c1"},"vehicle_type_id":"4","last_reported":1741485418,"current_range_meters":8400,"station_id":"ce4bhl12rcd13ifvqgf0","pricing_plan_id":"cebpf4jnsgd1na2vs0mg"},{"bike_id":"50724cb0-f096-4563-be1c-93758466ecb4","system_id":"levelo_inurba_marseille","lat":43.32,"lon":5.38144,"is_reserved":false,"is_disabled":false,"rental_uris":{"android":"levelo://app?vid=50724cb0-f096-4563-be1c-93758466ecb4","ios":"levelo://app?vid=50724cb0-f096-4563-be1c-93758466ecb4"},"vehicle_type_id":"4","last_reported":1741485418,"current_range_meters":8800,"station_id":"ce4bhr12rcd13ifvqhpg","pricing_plan_id":"cebpf4jnsgd1na2vs0mg"},{"bike_id":"fdf45df4-47d5-41e8-a6c7-03ee85585140","system_id":"levelo_inurba_marseille","lat":43.2678,"lon":5.39424,"is_reserved":false,"is_disabled":true,"rental_uris":{"android":"levelo://app?vid=fdf45df4-47d5-41e8-a6c7-03ee85585140","ios":"levelo://app?vid=fdf45df4-47d5-41e8-a6c7-03ee85585140"},"vehicle_type_id":"4","last_reported":1741485418,"current_range_meters":8800,"station_id":"ce4bhh12rcd13ifvqfg0","pricing_plan_id":"cebpf4jnsgd1na2vs0mg"},{"bike_id":"dd9a88d6-be9f-49f5-ab3a-4a9b434f536b","system_id":"levelo_inurba_marseille","lat":43.3093,"lon":5.40157,"is_reserved":false,"is_disabled":true,"rental_uris":{"android":"levelo://app?vid=dd9a88d6-be9f-49f5-ab3a-4a9b434f536b","ios":"levelo://app?vid=dd9a88d6-be9f-49f5-ab3a-4a9b434f536b"},"vehicle_type_id":"4","last_reported":1741485418,"current_range_meters":8800,"station_id":"ce4bgvp2rcd13ifvqct0","pricing_plan_id":"cebpf4jnsgd1na2vs0mg"},{"bike_id":"692c3fd1-e388-4c38-bc5f-023f56dd0104","system_id":"levelo_inurba_marseille","lat":43.25732,"lon":5.4111,"is_reserved":false,"is_disabled":false,"rental_uris":{"android":"levelo://app?vid=692c3fd1-e388-4c38-bc5f-023f56dd0104","ios":"levelo://app?vid=692c3fd1-e388-4c38-bc5f-023f56dd0104"},"vehicle_type_id":"4","last_reported":1741485418,"current_range_meters":8800,"station_id":"ce4bhkp2rcd13ifvqgd0","pricing_plan_id":"cebpf4jnsgd1na2vs0mg"},{"bike_id":"d399c68f-4683-4187-95d7-e32ffde3c66c","system_id":"levelo_inurba_marseille","lat":43.25089,"lon":5.3951,"is_reserved":false,"is_disabled":false,"rental_uris":{"android":"levelo://app?vid=d399c68f-4683-4187-95d7-e32ffde3c66c","ios":"levelo://app?vid=d399c68f-4683-4187-95d7-e32ffde3c66c"},"vehicle_type_id":"4","last_reported":1741485418,"current_range_meters":8800,"station_id":"ce4bhm12rcd13ifvqgkg","pricing_plan_id":"cebpf4jnsgd1na2vs0mg"},{"bike_id":"2f0c724b-bb76-4a4c-8862-0d82bf790fbd","system_id":"levelo_inurba_marseille","lat":43.26558,"lon":5.39049,"is_reserved":false,"is_disabled":false,"rental_uris":{"android":"levelo://app?vid=2f0c724b-bb76-4a4c-8862-0d82bf790fbd","ios":"levelo://app?vid=2f0c724b-bb76-4a4c-8862-0d82bf790fbd"},"vehicle_type_id":"4","last_reported":1741485418,"current_range_meters":8800,"station_id":"ce4bhe12rcd13ifvqf30","pricing_plan_id":"cebpf4jnsgd1na2vs0mg"},{"bike_id":"7c325f56-b3c9-4a5e-ae2d-4e351bf51899","system_id":"levelo_inurba_marseille","lat":43.29579,"lon":5.39963,"is_reserved":false,"is_disabled":false,"rental_uris":{"android":"levelo://app?vid=7c325f56-b3c9-4a5e-ae2d-4e351bf51899","ios":"levelo://app?vid=7c325f56-b3c9-4a5e-ae2d-4e351bf51899"},"vehicle_type_id":"4","last_reported":1741485418,"current_range_meters":8800,"station_id":"ce4bh312rcd13ifvqdj0","pricing_plan_id":"cebpf4jnsgd1na2vs0mg"},{"bike_id":"b533f38f-df9a-4e01-86fb-08f4b9bfcdfb","system_id":"levelo_inurba_marseille","lat":43.262239,"lon":5.421332,"is_reserved":false,"is_disabled":false,"rental_uris":{"android":"levelo://app?vid=b533f38f-df9a-4e01-86fb-08f4b9bfcdfb","ios":"levelo://app?vid=b533f38f-df9a-4e01-86fb-08f4b9bfcdfb"},"vehicle_type_id":"4","last_reported":1741485418,"current_range_meters":8800,"station_id":"","pricing_plan_id":"cebpf4jnsgd1na2vs0mg"},{"bike_id":"dad63a22-3573-4eb3-a8b7-44c1b9eff39e","system_id":"levelo_inurba_marseille","lat":43.32653,"lon":5.41038,"is_reserved":false,"is_disabled":false,"rental_uris":{"android":"levelo://app?vid=dad63a22-3573-4eb3-a8b7-44c1b9eff39e","ios":"levelo://app?vid=dad63a22-3573-4eb3-a8b7-44c1b9eff39e"},"vehicle_type_id":"4","last_reported":1741485418,"current_range_meters":8800,"station_id":"ce4bhpp2rcd13ifvqhgg","pricing_plan_id":"cebpf4jnsgd1na2vs0mg"},{"bike_id":"2e3c60b3-f5fc-40b6-b347-86b0b4f3ee6e","system_id":"levelo_inurba_marseille","lat":43.23196,"lon":5.39991,"is_reserved":false,"is_disabled":false,"rental_uris":{"android":"levelo://app?vid=2e3c60b3-f5fc-40b6-b347-86b0b4f3ee6e","ios":"levelo://app?vid=2e3c60b3-f5fc-40b6-b347-86b0b4f3ee6e"},"vehicle_type_id":"4","last_reported":1741485418,"current_range_meters":8800,"station_id":"ce4bhn12rcd13ifvqgqg","pricing_plan_id":"cebpf4jnsgd1na2vs0mg"},{"bike_id":"76c04b86-7c67-4040-9ea8-1ef64882b048","system_id":"levelo_inurba_marseille","lat":43.29708,"lon":5.36599,"is_reserved":false,"is_disabled":false,"rental_uris":{"android":"levelo://app?vid=76c04b86-7c67-4040-9ea8-1ef64882b048","ios":"levelo://app?vid=76c04b86-7c67-4040-9ea8-1ef64882b048"},"vehicle_type_id":"4","last_reported":1741485418,"current_range_meters":8400,"station_id":"ce4bgn12rcd13ifvqbt0","pricing_plan_id":"cebpf4jnsgd1na2vs0mg"},{"bike_id":"e2f0b9ec-4e7f-4be6-ba0b-ea951e669535","system_id":"levelo_inurba_marseille","lat":43.30877,"lon":5.3719,"is_reserved":false,"is_disabled":false,"rental_uris":{"android":"levelo://app?vid=e2f0b9ec-4e7f-4be6-ba0b-ea951e669535","ios":"levelo://app?vid=e2f0b9ec-4e7f-4be6-ba0b-ea951e669535"},"vehicle_type_id":"4","last_reported":1741485418,"current_range_meters":8800,"station_id":"ce4bguh2rcd13ifvqckg","pricing_plan_id":"cebpf4jnsgd1na2vs0mg"},{"bike_id":"89846120-624d-4233-a515-bdc69e3f3ab7","system_id":"levelo_inurba_marseille","lat":43.30319,"lon":5.40447,"is_reserved":false,"is_disabled":false,"rental_uris":{"android":"levelo://app?vid=89846120-624d-4233-a515-bdc69e3f3ab7","ios":"levelo://app?vid=89846120-624d-4233-a515-bdc69e3f3ab7"},"vehicle_type_id":"4","last_reported":1741485418,"current_range_meters":8800,"station_id":"ce4bh012rcd13ifvqd10","pricing_plan_id":"cebpf4jnsgd1na2vs0mg"},{"bike_id":"4535af30-838a-436f-9c39-afb86353063f","system_id":"levelo_inurba_marseille","lat":43.30226,"lon":5.3993,"is_reserved":false,"is_disabled":false,"rental_uris":{"android":"levelo://app?vid=4535af30-838a-436f-9c39-afb86353063f","ios":"levelo://app?vid=4535af30-838a-436f-9c39-afb86353063f"},"vehicle_type_id":"4","last_reported":1741485418,"current_range_meters":8800,"station_id":"","pricing_plan_id":"cebpf4jnsgd1na2vs0mg"},{"bike_id":"b2c2514d-58df-4080-9acc-0a3325c87525","system_id":"levelo_inurba_marseille","lat":43.32365,"lon":5.3676,"is_reserved":false,"is_disabled":false,"rental_uris":{"android":"levelo://app?vid=b2c2514d-58df-4080-9acc-0a3325c87525","ios":"levelo://app?vid=b2c2514d-58df-4080-9acc-0a3325c87525"},"vehicle_type_id":"4","last_reported":1741485418,"current_range_meters":9200,"station_id":"ce4bhsh2rcd13ifvqi2g","pricing_plan_id":"cebpf4jnsgd1na2vs0mg"},{"bike_id":"e4bd2c36-555f-4bad-ae17-7623a44e9165","system_id":"levelo_inurba_marseille","lat":43.31316,"lon":5.38325,"is_reserved":false,"is_disabled":false,"rental_uris":{"android":"levelo://app?vid=e4bd2c36-555f-4bad-ae17-7623a44e9165","ios":"levelo://app?vid=e4bd2c36-555f-4bad-ae17-7623a44e9165"},"vehicle_type_id":"4","last_reported":1741485418,"current_range_meters":9200,"station_id":"","pricing_plan_id":"cebpf4jnsgd1na2vs0mg"},{"bike_id":"8c868552-074b-4675-9536-a80acb252140","system_id":"levelo_inurba_marseille","lat":43.28115,"lon":5.37831,"is_reserved":false,"is_disabled":false,"rental_uris":{"android":"levelo://app?vid=8c868552-074b-4675-9536-a80acb252140","ios":"levelo://app?vid=8c868552-074b-4675-9536-a80acb252140"},"vehicle_type_id":"4","last_reported":1741485418,"current_range_meters":9200,"station_id":"ce4bha12rcd13ifvqee0","pricing_plan_id":"cebpf4jnsgd1na2vs0mg"},{"bike_id":"26c4b043-dbbc-4921-ade9-14900c7a9ee0","system_id":"levelo_inurba_marseille","lat":43.28461,"lon":5.35884,"is_reserved":false,"is_disabled":false,"rental_uris":{"android":"levelo://app?vid=26c4b043-dbbc-4921-ade9-14900c7a9ee0","ios":"levelo://app?vid=26c4b043-dbbc-4921-ade9-14900c7a9ee0"},"vehicle_type_id":"4","last_reported":1741485418,"current_range_meters":9200,"station_id":"ce4bhah2rcd13ifvqei0","pricing_plan_id":"cebpf4jnsgd1na2vs0mg"},{"bike_id":"b27af624-9233-4f49-9436-a8650c462731","system_id":"levelo_inurba_marseille","lat":43.31123,"lon":5.3777,"is_reserved":false,"is_disabled":false,"rental_uris":{"android":"levelo://app?vid=b27af624-9233-4f49-9436-a8650c462731","ios":"levelo://app?vid=b27af624-9233-4f49-9436-a8650c462731"},"vehicle_type_id":"4","last_reported":1741485418,"current_range_meters":9200,"station_id":"ce4bgt92rcd13ifvqcg0","pricing_plan_id":"cebpf4jnsgd1na2vs0mg"},{"bike_id":"a2d14984-1470-43e9-a791-4e28d66c40c8","system_id":"levelo_inurba_marseille","lat":43.2873,"lon":5.39983,"is_reserved":false,"is_disabled":false,"rental_uris":{"android":"levelo://app?vid=a2d14984-1470-43e9-a791-4e28d66c40c8","ios":"levelo://app?vid=a2d14984-1470-43e9-a791-4e28d66c40c8"},"vehicle_type_id":"4","last_reported":1741485418,"current_range_meters":9200,"station_id":"ce4bho92rcd13ifvqh3g","pricing_plan_id":"cebpf4jnsgd1na2vs0mg"},{"bike_id":"344eec88-8503-48cc-b750-e9b8cb1dcb80","system_id":"levelo_inurba_marseille","lat":43.25145,"lon":5.39558,"is_reserved":false,"is_disabled":false,"rental_uris":{"android":"levelo://app?vid=344eec88-8503-48cc-b750-e9b8cb1dcb80","ios":"levelo://app?vid=344eec88-8503-48cc-b750-e9b8cb1dcb80"},"vehicle_type_id":"4","last_reported":1741485418,"current_range_meters":9200,"station_id":"","pricing_plan_id":"cebpf4jnsgd1na2vs0mg"},{"bike_id":"30e7968e-2fb8-49ae-80fd-815bd979d78a","system_id":"levelo_inurba_marseille","lat":43.304781,"lon":5.37899,"is_reserved":false,"is_disabled":false,"rental_uris":{"android":"levelo://app?vid=30e7968e-2fb8-49ae-80fd-815bd979d78a","ios":"levelo://app?vid=30e7968e-2fb8-49ae-80fd-815bd979d78a"},"vehicle_type_id":"4","last_reported":1741485418,"current_range_meters":9600,"station_id":"ce4bgup2rcd13ifvqcn0","pricing_plan_id":"cebpf4jnsgd1na2vs0mg"},{"bike_id":"ad284fdb-e6f9-4c5a-9e2c-c44130087410","system_id":"levelo_inurba_marseille","lat":43.23187,"lon":5.3998,"is_reserved":false,"is_disabled":false,"rental_uris":{"android":"levelo://app?vid=ad284fdb-e6f9-4c5a-9e2c-c44130087410","ios":"levelo://app?vid=ad284fdb-e6f9-4c5a-9e2c-c44130087410"},"vehicle_type_id":"4","last_reported":1741485418,"current_range_meters":9600,"station_id":"ce4bhn12rcd13ifvqgqg","pricing_plan_id":"cebpf4jnsgd1na2vs0mg"},{"bike_id":"e13a0232-77eb-4dfc-8de7-666f8bbcff37","system_id":"levelo_inurba_marseille","lat":43.30888,"lon":5.37188,"is_reserved":false,"is_disabled":false,"rental_uris":{"android":"levelo://app?vid=e13a0232-77eb-4dfc-8de7-666f8bbcff37","ios":"levelo://app?vid=e13a0232-77eb-4dfc-8de7-666f8bbcff37"},"vehicle_type_id":"4","last_reported":1741485418,"current_range_meters":9600,"station_id":"ce4bguh2rcd13ifvqckg","pricing_plan_id":"cebpf4jnsgd1na2vs0mg"},{"bike_id":"120e4a9d-d402-4ab5-9ae3-294be7eb8fcf","system_id":"levelo_inurba_marseille","lat":43.28707,"lon":5.37395,"is_reserved":false,"is_disabled":false,"rental_uris":{"android":"levelo://app?vid=120e4a9d-d402-4ab5-9ae3-294be7eb8fcf","ios":"levelo://app?vid=120e4a9d-d402-4ab5-9ae3-294be7eb8fcf"},"vehicle_type_id":"4","last_reported":1741485418,"current_range_meters":9600,"station_id":"ce4bh3p2rcd13ifvqdq0","pricing_plan_id":"cebpf4jnsgd1na2vs0mg"},{"bike_id":"8c48953b-4c44-4322-93ed-5007a58895e4","system_id":"levelo_inurba_marseille","lat":43.28659,"lon":5.39984,"is_reserved":false,"is_disabled":false,"rental_uris":{"android":"levelo://app?vid=8c48953b-4c44-4322-93ed-5007a58895e4","ios":"levelo://app?vid=8c48953b-4c44-4322-93ed-5007a58895e4"},"vehicle_type_id":"4","last_reported":1741485418,"current_range_meters":9600,"station_id":"","pricing_plan_id":"cebpf4jnsgd1na2vs0mg"},{"bike_id":"74abb9f3-e9df-492e-9cdb-31607d406cdb","system_id":"levelo_inurba_marseille","lat":43.2981,"lon":5.40409,"is_reserved":false,"is_disabled":false,"rental_uris":{"android":"levelo://app?vid=74abb9f3-e9df-492e-9cdb-31607d406cdb","ios":"levelo://app?vid=74abb9f3-e9df-492e-9cdb-31607d406cdb"},"vehicle_type_id":"4","last_reported":1741485418,"current_range_meters":9600,"station_id":"ce4bh112rcd13ifvqd90","pricing_plan_id":"cebpf4jnsgd1na2vs0mg"},{"bike_id":"388ea826-f5fa-4632-a530-45d13cc0a769","system_id":"levelo_inurba_marseille","lat":43.23207,"lon":5.39964,"is_reserved":false,"is_disabled":false,"rental_uris":{"android":"levelo://app?vid=388ea826-f5fa-4632-a530-45d13cc0a769","ios":"levelo://app?vid=388ea826-f5fa-4632-a530-45d13cc0a769"},"vehicle_type_id":"4","last_reported":1741485418,"current_range_meters":9600,"station_id":"ce4bhn12rcd13ifvqgqg","pricing_plan_id":"cebpf4jnsgd1na2vs0mg"},{"bike_id":"d3db5e48-c2af-4fca-8501-f777455dba21","system_id":"levelo_inurba_marseille","lat":43.25008,"lon":5.3893,"is_reserved":false,"is_disabled":false,"rental_uris":{"android":"levelo://app?vid=d3db5e48-c2af-4fca-8501-f777455dba21","ios":"levelo://app?vid=d3db5e48-c2af-4fca-8501-f777455dba21"},"vehicle_type_id":"4","last_reported":1741485418,"current_range_meters":9600,"station_id":"ce4bhgp2rcd13ifvqfd0","pricing_plan_id":"cebpf4jnsgd1na2vs0mg"},{"bike_id":"3bbf4e63-bc15-4fc5-b69b-210678351fb6","system_id":"levelo_inurba_marseille","lat":43.24072,"lon":5.37757,"is_reserved":false,"is_disabled":false,"rental_uris":{"android":"levelo://app?vid=3bbf4e63-bc15-4fc5-b69b-210678351fb6","ios":"levelo://app?vid=3bbf4e63-bc15-4fc5-b69b-210678351fb6"},"vehicle_type_id":"4","last_reported":1741485418,"current_range_meters":9600,"station_id":"ce4bhnp2rcd13ifvqgvg","pricing_plan_id":"cebpf4jnsgd1na2vs0mg"},{"bike_id":"cdc6fa71-b8c0-46e7-902c-4e18b52385d2","system_id":"levelo_inurba_marseille","lat":43.28808,"lon":5.39986,"is_reserved":false,"is_disabled":false,"rental_uris":{"android":"levelo://app?vid=cdc6fa71-b8c0-46e7-902c-4e18b52385d2","ios":"levelo://app?vid=cdc6fa71-b8c0-46e7-902c-4e18b52385d2"},"vehicle_type_id":"4","last_reported":1741485418,"current_range_meters":9600,"station_id":"","pricing_plan_id":"cebpf4jnsgd1na2vs0mg"},{"bike_id":"e1b93478-9a2c-415f-bb57-ab2fd6bf9983","system_id":"levelo_inurba_marseille","lat":43.27688,"lon":5.38913,"is_reserved":false,"is_disabled":true,"rental_uris":{"android":"levelo://app?vid=e1b93478-9a2c-415f-bb57-ab2fd6bf9983","ios":"levelo://app?vid=e1b93478-9a2c-415f-bb57-ab2fd6bf9983"},"vehicle_type_id":"4","last_reported":1741485418,"current_range_meters":9600,"station_id":"ce4bhi12rcd13ifvqfo0","pricing_plan_id":"cebpf4jnsgd1na2vs0mg"},{"bike_id":"30ca0a12-56c0-4feb-9059-10680035a6ae","system_id":"levelo_inurba_marseille","lat":43.28718,"lon":5.37381,"is_reserved":false,"is_disabled":true,"rental_uris":{"android":"levelo://app?vid=30ca0a12-56c0-4feb-9059-10680035a6ae","ios":"levelo://app?vid=30ca0a12-56c0-4feb-9059-10680035a6ae"},"vehicle_type_id":"4","last_reported":1741485418,"current_range_meters":10000,"station_id":"ce4bh3p2rcd13ifvqdq0","pricing_plan_id":"cebpf4jnsgd1na2vs0mg"},{"bike_id":"9a479b63-da73-40b6-aa2d-7e0ab97df61c","system_id":"levelo_inurba_marseille","lat":43.30212,"lon":5.39469,"is_reserved":false,"is_disabled":false,"rental_uris":{"android":"levelo://app?vid=9a479b63-da73-40b6-aa2d-7e0ab97df61c","ios":"levelo://app?vid=9a479b63-da73-40b6-aa2d-7e0ab97df61c"},"vehicle_type_id":"4","last_reported":1741485418,"current_range_meters":10000,"station_id":"ce4bh0p2rcd13ifvqd70","pricing_plan_id":"cebpf4jnsgd1na2vs0mg"},{"bike_id":"d4d80517-15f5-40ba-adfb-dbbe2bf1cada","system_id":"levelo_inurba_marseille","lat":43.29037,"lon":5.4365,"is_reserved":false,"is_disabled":false,"rental_uris":{"android":"levelo://app?vid=d4d80517-15f5-40ba-adfb-dbbe2bf1cada","ios":"levelo://app?vid=d4d80517-15f5-40ba-adfb-dbbe2bf1cada"},"vehicle_type_id":"4","last_reported":1741485418,"current_range_meters":10000,"station_id":"","pricing_plan_id":"cebpf4jnsgd1na2vs0mg"},{"bike_id":"2f64abcd-18a9-443f-bb7d-be754bf6e3d2","system_id":"levelo_inurba_marseille","lat":43.28722,"lon":5.36083,"is_reserved":false,"is_disabled":false,"rental_uris":{"android":"levelo://app?vid=2f64abcd-18a9-443f-bb7d-be754bf6e3d2","ios":"levelo://app?vid=2f64abcd-18a9-443f-bb7d-be754bf6e3d2"},"vehicle_type_id":"4","last_reported":1741485418,"current_range_meters":10000,"station_id":"cki0cbj6b192h4jlfktg","pricing_plan_id":"cebpf4jnsgd1na2vs0mg"},{"bike_id":"58e2d297-8c60-46e9-9753-4f52f6b89aa7","system_id":"levelo_inurba_marseille","lat":43.29246,"lon":5.40914,"is_reserved":false,"is_disabled":false,"rental_uris":{"android":"levelo://app?vid=58e2d297-8c60-46e9-9753-4f52f6b89aa7","ios":"levelo://app?vid=58e2d297-8c60-46e9-9753-4f52f6b89aa7"},"vehicle_type_id":"4","last_reported":1741485418,"current_range_meters":10000,"station_id":"ce4bh192rcd13ifvqdc0","pricing_plan_id":"cebpf4jnsgd1na2vs0mg"},{"bike_id":"1328ecba-858e-41af-a772-8ad9a30c8255","system_id":"levelo_inurba_marseille","lat":43.3142,"lon":5.38514,"is_reserved":false,"is_disabled":false,"rental_uris":{"android":"levelo://app?vid=1328ecba-858e-41af-a772-8ad9a30c8255","ios":"levelo://app?vid=1328ecba-858e-41af-a772-8ad9a30c8255"},"vehicle_type_id":"4","last_reported":1741485418,"current_range_meters":10800,"station_id":"","pricing_plan_id":"cebpf4jnsgd1na2vs0mg"},{"bike_id":"93b65028-e8a4-4c8f-876a-ae246ea8ac90","system_id":"levelo_inurba_marseille","lat":43.31463,"lon":5.38583,"is_reserved":false,"is_disabled":true,"rental_uris":{"android":"levelo://app?vid=93b65028-e8a4-4c8f-876a-ae246ea8ac90","ios":"levelo://app?vid=93b65028-e8a4-4c8f-876a-ae246ea8ac90"},"vehicle_type_id":"4","last_reported":1741485418,"current_range_meters":10800,"station_id":"ce4bgt92rcd13ifvqcf0","pricing_plan_id":"cebpf4jnsgd1na2vs0mg"},{"bike_id":"65bc7032-3d69-47f4-a3fb-90ada1f7b1d3","system_id":"levelo_inurba_marseille","lat":43.31764,"lon":5.39015,"is_reserved":false,"is_disabled":false,"rental_uris":{"android":"levelo://app?vid=65bc7032-3d69-47f4-a3fb-90ada1f7b1d3","ios":"levelo://app?vid=65bc7032-3d69-47f4-a3fb-90ada1f7b1d3"},"vehicle_type_id":"4","last_reported":1741485418,"current_range_meters":10800,"station_id":"ce4bhqp2rcd13ifvqhng","pricing_plan_id":"cebpf4jnsgd1na2vs0mg"},{"bike_id":"2a3a8222-0824-4130-a051-e3506a3fb94c","system_id":"levelo_inurba_marseille","lat":43.24079,"lon":5.37769,"is_reserved":false,"is_disabled":false,"rental_uris":{"android":"levelo://app?vid=2a3a8222-0824-4130-a051-e3506a3fb94c","ios":"levelo://app?vid=2a3a8222-0824-4130-a051-e3506a3fb94c"},"vehicle_type_id":"4","last_reported":1741485418,"current_range_meters":10800,"station_id":"ce4bhnp2rcd13ifvqgvg","pricing_plan_id":"cebpf4jnsgd1na2vs0mg"},{"bike_id":"3e3ed28a-d70d-4e7b-8492-a13a8b5faa63","system_id":"levelo_inurba_marseille","lat":43.25863,"lon":5.39896,"is_reserved":false,"is_disabled":false,"rental_uris":{"android":"levelo://app?vid=3e3ed28a-d70d-4e7b-8492-a13a8b5faa63","ios":"levelo://app?vid=3e3ed28a-d70d-4e7b-8492-a13a8b5faa63"},"vehicle_type_id":"4","last_reported":1741485418,"current_range_meters":10800,"station_id":"ce4bhl92rcd13ifvqghg","pricing_plan_id":"cebpf4jnsgd1na2vs0mg"},{"bike_id":"19bbe8da-d7df-496e-a677-cbaab925cf5e","system_id":"levelo_inurba_marseille","lat":43.24907,"lon":5.42515,"is_reserved":false,"is_disabled":false,"rental_uris":{"android":"levelo://app?vid=19bbe8da-d7df-496e-a677-cbaab925cf5e","ios":"levelo://app?vid=19bbe8da-d7df-496e-a677-cbaab925cf5e"},"vehicle_type_id":"4","last_reported":1741485418,"current_range_meters":10800,"station_id":"","pricing_plan_id":"cebpf4jnsgd1na2vs0mg"},{"bike_id":"e5e118b0-32a8-4ef3-b6d1-b7487133ba19","system_id":"levelo_inurba_marseille","lat":43.28165,"lon":5.42633,"is_reserved":false,"is_disabled":false,"rental_uris":{"android":"levelo://app?vid=e5e118b0-32a8-4ef3-b6d1-b7487133ba19","ios":"levelo://app?vid=e5e118b0-32a8-4ef3-b6d1-b7487133ba19"},"vehicle_type_id":"4","last_reported":1741485418,"current_range_meters":10800,"station_id":"ce4bhnh2rcd13ifvqgug","pricing_plan_id":"cebpf4jnsgd1na2vs0mg"},{"bike_id":"565fac05-172c-4b9b-92f1-8fa35566d080","system_id":"levelo_inurba_marseille","lat":43.25721,"lon":5.41117,"is_reserved":false,"is_disabled":false,"rental_uris":{"android":"levelo://app?vid=565fac05-172c-4b9b-92f1-8fa35566d080","ios":"levelo://app?vid=565fac05-172c-4b9b-92f1-8fa35566d080"},"vehicle_type_id":"4","last_reported":1741485418,"current_range_meters":10800,"station_id":"ce4bhkp2rcd13ifvqgd0","pricing_plan_id":"cebpf4jnsgd1na2vs0mg"},{"bike_id":"97687e68-be46-4713-8e56-6dcec5493f0a","system_id":"levelo_inurba_marseille","lat":43.24816,"lon":5.37451,"is_reserved":false,"is_disabled":false,"rental_uris":{"android":"levelo://app?vid=97687e68-be46-4713-8e56-6dcec5493f0a","ios":"levelo://app?vid=97687e68-be46-4713-8e56-6dcec5493f0a"},"vehicle_type_id":"4","last_reported":1741485418,"current_range_meters":10800,"station_id":"ce4bhgh2rcd13ifvqfb0","pricing_plan_id":"cebpf4jnsgd1na2vs0mg"},{"bike_id":"76a08c4c-b8b8-407e-8821-3f172e8afab8","system_id":"levelo_inurba_marseille","lat":43.2956,"lon":5.42284,"is_reserved":false,"is_disabled":false,"rental_uris":{"android":"levelo://app?vid=76a08c4c-b8b8-407e-8821-3f172e8afab8","ios":"levelo://app?vid=76a08c4c-b8b8-407e-8821-3f172e8afab8"},"vehicle_type_id":"4","last_reported":1741485418,"current_range_meters":10800,"station_id":"ce4bhph2rcd13ifvqhdg","pricing_plan_id":"cebpf4jnsgd1na2vs0mg"},{"bike_id":"c005a41e-a53a-49c3-ab86-ed6508363649","system_id":"levelo_inurba_marseille","lat":43.2456,"lon":5.39508,"is_reserved":false,"is_disabled":false,"rental_uris":{"android":"levelo://app?vid=c005a41e-a53a-49c3-ab86-ed6508363649","ios":"levelo://app?vid=c005a41e-a53a-49c3-ab86-ed6508363649"},"vehicle_type_id":"4","last_reported":1741485418,"current_range_meters":10800,"station_id":"ce4bhlp2rcd13ifvqgjg","pricing_plan_id":"cebpf4jnsgd1na2vs0mg"},{"bike_id":"839933d2-9f7d-4571-b66b-3b6f14b80e23","system_id":"levelo_inurba_marseille","lat":43.3248,"lon":5.36569,"is_reserved":false,"is_disabled":false,"rental_uris":{"android":"levelo://app?vid=839933d2-9f7d-4571-b66b-3b6f14b80e23","ios":"levelo://app?vid=839933d2-9f7d-4571-b66b-3b6f14b80e23"},"vehicle_type_id":"4","last_reported":1741485418,"current_range_meters":10800,"station_id":"ce4bhs12rcd13ifvqhvg","pricing_plan_id":"cebpf4jnsgd1na2vs0mg"},{"bike_id":"fc5966ba-78bb-4e6f-a5e7-e1a08b7e88dd","system_id":"levelo_inurba_marseille","lat":43.27076,"lon":5.42264,"is_reserved":false,"is_disabled":false,"rental_uris":{"android":"levelo://app?vid=fc5966ba-78bb-4e6f-a5e7-e1a08b7e88dd","ios":"levelo://app?vid=fc5966ba-78bb-4e6f-a5e7-e1a08b7e88dd"},"vehicle_type_id":"4","last_reported":1741485418,"current_range_meters":10800,"station_id":"ce4bhk92rcd13ifvqgb0","pricing_plan_id":"cebpf4jnsgd1na2vs0mg"},{"bike_id":"2ccee320-67e8-4dc3-b761-19553b6bcc0d","system_id":"levelo_inurba_marseille","lat":43.25758,"lon":5.41089,"is_reserved":false,"is_disabled":false,"rental_uris":{"android":"levelo://app?vid=2ccee320-67e8-4dc3-b761-19553b6bcc0d","ios":"levelo://app?vid=2ccee320-67e8-4dc3-b761-19553b6bcc0d"},"vehicle_type_id":"4","last_reported":1741485418,"current_range_meters":10800,"station_id":"ce4bhkp2rcd13ifvqgd0","pricing_plan_id":"cebpf4jnsgd1na2vs0mg"},{"bike_id":"ba577cb9-da27-4c5b-9ad8-ff9175ffa62f","system_id":"levelo_inurba_marseille","lat":43.30144,"lon":5.39858,"is_reserved":false,"is_disabled":false,"rental_uris":{"android":"levelo://app?vid=ba577cb9-da27-4c5b-9ad8-ff9175ffa62f","ios":"levelo://app?vid=ba577cb9-da27-4c5b-9ad8-ff9175ffa62f"},"vehicle_type_id":"4","last_reported":1741485418,"current_range_meters":10800,"station_id":"ce4bh0h2rcd13ifvqd40","pricing_plan_id":"cebpf4jnsgd1na2vs0mg"},{"bike_id":"a42be8ee-ce9f-450a-b936-146cdcc5ec80","system_id":"levelo_inurba_marseille","lat":43.31715,"lon":5.43704,"is_reserved":false,"is_disabled":false,"rental_uris":{"android":"levelo://app?vid=a42be8ee-ce9f-450a-b936-146cdcc5ec80","ios":"levelo://app?vid=a42be8ee-ce9f-450a-b936-146cdcc5ec80"},"vehicle_type_id":"4","last_reported":1741485418,"current_range_meters":10800,"station_id":"ce4bhp92rcd13ifvqhcg","pricing_plan_id":"cebpf4jnsgd1na2vs0mg"},{"bike_id":"0e698c9d-47bc-4045-944d-ecfd6b2414bc","system_id":"levelo_inurba_marseille","lat":43.3107,"lon":5.4244,"is_reserved":false,"is_disabled":false,"rental_uris":{"android":"levelo://app?vid=0e698c9d-47bc-4045-944d-ecfd6b2414bc","ios":"levelo://app?vid=0e698c9d-47bc-4045-944d-ecfd6b2414bc"},"vehicle_type_id":"4","last_reported":1741485418,"current_range_meters":10800,"station_id":"ce4bhp92rcd13ifvqhag","pricing_plan_id":"cebpf4jnsgd1na2vs0mg"},{"bike_id":"716ad52e-6276-401a-9565-37b068cf8f1c","system_id":"levelo_inurba_marseille","lat":43.24812,"lon":5.3746,"is_reserved":false,"is_disabled":false,"rental_uris":{"android":"levelo://app?vid=716ad52e-6276-401a-9565-37b068cf8f1c","ios":"levelo://app?vid=716ad52e-6276-401a-9565-37b068cf8f1c"},"vehicle_type_id":"4","last_reported":1741485418,"current_range_meters":11200,"station_id":"ce4bhgh2rcd13ifvqfb0","pricing_plan_id":"cebpf4jnsgd1na2vs0mg"},{"bike_id":"d3bf52cf-21e4-44e7-b9af-03abdb680e52","system_id":"levelo_inurba_marseille","lat":43.28718,"lon":5.39984,"is_reserved":false,"is_disabled":false,"rental_uris":{"android":"levelo://app?vid=d3bf52cf-21e4-44e7-b9af-03abdb680e52","ios":"levelo://app?vid=d3bf52cf-21e4-44e7-b9af-03abdb680e52"},"vehicle_type_id":"4","last_reported":1741485418,"current_range_meters":11200,"station_id":"ce4bho92rcd13ifvqh3g","pricing_plan_id":"cebpf4jnsgd1na2vs0mg"},{"bike_id":"14704438-ead4-4a94-95b6-837271a082f6","system_id":"levelo_inurba_marseille","lat":43.2469,"lon":5.38137,"is_reserved":false,"is_disabled":false,"rental_uris":{"android":"levelo://app?vid=14704438-ead4-4a94-95b6-837271a082f6","ios":"levelo://app?vid=14704438-ead4-4a94-95b6-837271a082f6"},"vehicle_type_id":"4","last_reported":1741485418,"current_range_meters":11200,"station_id":"ce4bhih2rcd13ifvqfr0","pricing_plan_id":"cebpf4jnsgd1na2vs0mg"},{"bike_id":"05748950-49ba-4ffd-8b6b-35dab1deb6f7","system_id":"levelo_inurba_marseille","lat":43.2657,"lon":5.39025,"is_reserved":false,"is_disabled":false,"rental_uris":{"android":"levelo://app?vid=05748950-49ba-4ffd-8b6b-35dab1deb6f7","ios":"levelo://app?vid=05748950-49ba-4ffd-8b6b-35dab1deb6f7"},"vehicle_type_id":"4","last_reported":1741485418,"current_range_meters":11200,"station_id":"ce4bhe12rcd13ifvqf30","pricing_plan_id":"cebpf4jnsgd1na2vs0mg"},{"bike_id":"bc055fb7-3f22-40f5-bef5-6dbb6683ea72","system_id":"levelo_inurba_marseille","lat":43.28615,"lon":5.35107,"is_reserved":false,"is_disabled":false,"rental_uris":{"android":"levelo://app?vid=bc055fb7-3f22-40f5-bef5-6dbb6683ea72","ios":"levelo://app?vid=bc055fb7-3f22-40f5-bef5-6dbb6683ea72"},"vehicle_type_id":"4","last_reported":1741485418,"current_range_meters":11200,"station_id":"ce4bhch2rcd13ifvqeug","pricing_plan_id":"cebpf4jnsgd1na2vs0mg"},{"bike_id":"fa8c6a5b-e91f-4274-b418-5c3522c430aa","system_id":"levelo_inurba_marseille","lat":43.27971,"lon":5.4104,"is_reserved":false,"is_disabled":false,"rental_uris":{"android":"levelo://app?vid=fa8c6a5b-e91f-4274-b418-5c3522c430aa","ios":"levelo://app?vid=fa8c6a5b-e91f-4274-b418-5c3522c430aa"},"vehicle_type_id":"4","last_reported":1741485418,"current_range_meters":11200,"station_id":"ce4bhnp2rcd13ifvqh0g","pricing_plan_id":"cebpf4jnsgd1na2vs0mg"},{"bike_id":"c96c5c81-c7e6-4037-b595-5f950f2f0b97","system_id":"levelo_inurba_marseille","lat":43.30325,"lon":5.4044,"is_reserved":false,"is_disabled":false,"rental_uris":{"android":"levelo://app?vid=c96c5c81-c7e6-4037-b595-5f950f2f0b97","ios":"levelo://app?vid=c96c5c81-c7e6-4037-b595-5f950f2f0b97"},"vehicle_type_id":"4","last_reported":1741485418,"current_range_meters":11600,"station_id":"ce4bh012rcd13ifvqd10","pricing_plan_id":"cebpf4jnsgd1na2vs0mg"},{"bike_id":"4362c222-1154-4131-a7ed-5025d23d3664","system_id":"levelo_inurba_marseille","lat":43.30242,"lon":5.40052,"is_reserved":false,"is_disabled":false,"rental_uris":{"android":"levelo://app?vid=4362c222-1154-4131-a7ed-5025d23d3664","ios":"levelo://app?vid=4362c222-1154-4131-a7ed-5025d23d3664"},"vehicle_type_id":"4","last_reported":1741485418,"current_range_meters":11600,"station_id":"ce4bgvh2rcd13ifvqcs0","pricing_plan_id":"cebpf4jnsgd1na2vs0mg"},{"bike_id":"bcfe14ad-0f6d-48a6-a268-015188775c2e","system_id":"levelo_inurba_marseille","lat":43.2846,"lon":5.38433,"is_reserved":false,"is_disabled":false,"rental_uris":{"android":"levelo://app?vid=bcfe14ad-0f6d-48a6-a268-015188775c2e","ios":"levelo://app?vid=bcfe14ad-0f6d-48a6-a268-015188775c2e"},"vehicle_type_id":"4","last_reported":1741485418,"current_range_meters":11600,"station_id":"ce4bh512rcd13ifvqe3g","pricing_plan_id":"cebpf4jnsgd1na2vs0mg"},{"bike_id":"aa20b16b-6cf5-4ca7-906d-81490255e403","system_id":"levelo_inurba_marseille","lat":43.27088,"lon":5.42263,"is_reserved":false,"is_disabled":false,"rental_uris":{"android":"levelo://app?vid=aa20b16b-6cf5-4ca7-906d-81490255e403","ios":"levelo://app?vid=aa20b16b-6cf5-4ca7-906d-81490255e403"},"vehicle_type_id":"4","last_reported":1741485418,"current_range_meters":12000,"station_id":"ce4bhk92rcd13ifvqgb0","pricing_plan_id":"cebpf4jnsgd1na2vs0mg"},{"bike_id":"ac2efbb8-87f5-4e67-91b6-6982ed970754","system_id":"levelo_inurba_marseille","lat":43.25097,"lon":5.4031,"is_reserved":false,"is_disabled":false,"rental_uris":{"android":"levelo://app?vid=ac2efbb8-87f5-4e67-91b6-6982ed970754","ios":"levelo://app?vid=ac2efbb8-87f5-4e67-91b6-6982ed970754"},"vehicle_type_id":"4","last_reported":1741485418,"current_range_meters":11600,"station_id":"ce4bhlh2rcd13ifvqgig","pricing_plan_id":"cebpf4jnsgd1na2vs0mg"},{"bike_id":"bbf62d9f-22e8-446b-b3ab-fed286c04dd7","system_id":"levelo_inurba_marseille","lat":43.30907,"lon":5.372,"is_reserved":false,"is_disabled":false,"rental_uris":{"android":"levelo://app?vid=bbf62d9f-22e8-446b-b3ab-fed286c04dd7","ios":"levelo://app?vid=bbf62d9f-22e8-446b-b3ab-fed286c04dd7"},"vehicle_type_id":"4","last_reported":1741485418,"current_range_meters":11600,"station_id":"ce4bguh2rcd13ifvqckg","pricing_plan_id":"cebpf4jnsgd1na2vs0mg"},{"bike_id":"e4862560-8b14-41f0-b4ab-304f0c05b04a","system_id":"levelo_inurba_marseille","lat":43.25118,"lon":5.39516,"is_reserved":false,"is_disabled":false,"rental_uris":{"android":"levelo://app?vid=e4862560-8b14-41f0-b4ab-304f0c05b04a","ios":"levelo://app?vid=e4862560-8b14-41f0-b4ab-304f0c05b04a"},"vehicle_type_id":"4","last_reported":1741485418,"current_range_meters":12000,"station_id":"ce4bhm12rcd13ifvqgkg","pricing_plan_id":"cebpf4jnsgd1na2vs0mg"},{"bike_id":"31078f29-744e-4f70-aa89-070122c91b31","system_id":"levelo_inurba_marseille","lat":43.34355,"lon":5.3995,"is_reserved":false,"is_disabled":false,"rental_uris":{"android":"levelo://app?vid=31078f29-744e-4f70-aa89-070122c91b31","ios":"levelo://app?vid=31078f29-744e-4f70-aa89-070122c91b31"},"vehicle_type_id":"4","last_reported":1741485418,"current_range_meters":12000,"station_id":"","pricing_plan_id":"cebpf4jnsgd1na2vs0mg"},{"bike_id":"af994541-1012-4c1c-a30c-dbecf6f36882","system_id":"levelo_inurba_marseille","lat":43.29571,"lon":5.42271,"is_reserved":false,"is_disabled":false,"rental_uris":{"android":"levelo://app?vid=af994541-1012-4c1c-a30c-dbecf6f36882","ios":"levelo://app?vid=af994541-1012-4c1c-a30c-dbecf6f36882"},"vehicle_type_id":"4","last_reported":1741485418,"current_range_meters":12000,"station_id":"ce4bhph2rcd13ifvqhdg","pricing_plan_id":"cebpf4jnsgd1na2vs0mg"},{"bike_id":"c51b9daa-7e61-4575-b00a-d9f9022559bf","system_id":"levelo_inurba_marseille","lat":43.31064,"lon":5.38349,"is_reserved":false,"is_disabled":false,"rental_uris":{"android":"levelo://app?vid=c51b9daa-7e61-4575-b00a-d9f9022559bf","ios":"levelo://app?vid=c51b9daa-7e61-4575-b00a-d9f9022559bf"},"vehicle_type_id":"4","last_reported":1741485418,"current_range_meters":12000,"station_id":"ce4bgv92rcd13ifvqcr0","pricing_plan_id":"cebpf4jnsgd1na2vs0mg"},{"bike_id":"87d6e4ef-3df7-4bbb-ac4a-4299f7db2aa6","system_id":"levelo_inurba_marseille","lat":43.2571,"lon":5.41111,"is_reserved":false,"is_disabled":false,"rental_uris":{"android":"levelo://app?vid=87d6e4ef-3df7-4bbb-ac4a-4299f7db2aa6","ios":"levelo://app?vid=87d6e4ef-3df7-4bbb-ac4a-4299f7db2aa6"},"vehicle_type_id":"4","last_reported":1741485418,"current_range_meters":12000,"station_id":"ce4bhkp2rcd13ifvqgd0","pricing_plan_id":"cebpf4jnsgd1na2vs0mg"},{"bike_id":"cb0d6e65-7335-46d7-bf43-5432cb892aeb","system_id":"levelo_inurba_marseille","lat":43.31366,"lon":5.38506,"is_reserved":false,"is_disabled":false,"rental_uris":{"android":"levelo://app?vid=cb0d6e65-7335-46d7-bf43-5432cb892aeb","ios":"levelo://app?vid=cb0d6e65-7335-46d7-bf43-5432cb892aeb"},"vehicle_type_id":"4","last_reported":1741485418,"current_range_meters":12000,"station_id":"ce4bgt92rcd13ifvqcf0","pricing_plan_id":"cebpf4jnsgd1na2vs0mg"},{"bike_id":"05156e07-47f0-4de0-bb69-b66700e92b0e","system_id":"levelo_inurba_marseille","lat":43.24461,"lon":5.37015,"is_reserved":false,"is_disabled":true,"rental_uris":{"android":"levelo://app?vid=05156e07-47f0-4de0-bb69-b66700e92b0e","ios":"levelo://app?vid=05156e07-47f0-4de0-bb69-b66700e92b0e"},"vehicle_type_id":"4","last_reported":1741485418,"current_range_meters":12000,"station_id":"ce4bhhh2rcd13ifvqfk0","pricing_plan_id":"cebpf4jnsgd1na2vs0mg"},{"bike_id":"f5d27d01-effc-4a0c-b4ac-2b42b750aca5","system_id":"levelo_inurba_marseille","lat":43.24546,"lon":5.39521,"is_reserved":false,"is_disabled":false,"rental_uris":{"android":"levelo://app?vid=f5d27d01-effc-4a0c-b4ac-2b42b750aca5","ios":"levelo://app?vid=f5d27d01-effc-4a0c-b4ac-2b42b750aca5"},"vehicle_type_id":"4","last_reported":1741485418,"current_range_meters":12000,"station_id":"ce4bhlp2rcd13ifvqgjg","pricing_plan_id":"cebpf4jnsgd1na2vs0mg"},{"bike_id":"d7f0e08b-6dac-45ba-bfe3-5ddc58fa3790","system_id":"levelo_inurba_marseille","lat":43.28418,"lon":5.37519,"is_reserved":false,"is_disabled":false,"rental_uris":{"android":"levelo://app?vid=d7f0e08b-6dac-45ba-bfe3-5ddc58fa3790","ios":"levelo://app?vid=d7f0e08b-6dac-45ba-bfe3-5ddc58fa3790"},"vehicle_type_id":"4","last_reported":1741485418,"current_range_meters":12400,"station_id":"ce4bh412rcd13ifvqds0","pricing_plan_id":"cebpf4jnsgd1na2vs0mg"},{"bike_id":"66e949ae-5f1b-4970-9901-2a4062c8ae22","system_id":"levelo_inurba_marseille","lat":43.30812,"lon":5.38172,"is_reserved":false,"is_disabled":false,"rental_uris":{"android":"levelo://app?vid=66e949ae-5f1b-4970-9901-2a4062c8ae22","ios":"levelo://app?vid=66e949ae-5f1b-4970-9901-2a4062c8ae22"},"vehicle_type_id":"4","last_reported":1741485418,"current_range_meters":12400,"station_id":"ce4bgt12rcd13ifvqce0","pricing_plan_id":"cebpf4jnsgd1na2vs0mg"},{"bike_id":"d42a6203-df16-4503-a5f8-9121e78a974f","system_id":"levelo_inurba_marseille","lat":43.31716,"lon":5.43706,"is_reserved":false,"is_disabled":false,"rental_uris":{"android":"levelo://app?vid=d42a6203-df16-4503-a5f8-9121e78a974f","ios":"levelo://app?vid=d42a6203-df16-4503-a5f8-9121e78a974f"},"vehicle_type_id":"4","last_reported":1741485418,"current_range_meters":12400,"station_id":"ce4bhp92rcd13ifvqhcg","pricing_plan_id":"cebpf4jnsgd1na2vs0mg"},{"bike_id":"c8da1ad1-3769-4ec1-aea2-9ffb93433c80","system_id":"levelo_inurba_marseille","lat":43.29647,"lon":5.40593,"is_reserved":false,"is_disabled":false,"rental_uris":{"android":"levelo://app?vid=c8da1ad1-3769-4ec1-aea2-9ffb93433c80","ios":"levelo://app?vid=c8da1ad1-3769-4ec1-aea2-9ffb93433c80"},"vehicle_type_id":"4","last_reported":1741485418,"current_range_meters":12400,"station_id":"ce4bh0h2rcd13ifvqd60","pricing_plan_id":"cebpf4jnsgd1na2vs0mg"},{"bike_id":"1882bff9-3a4a-48a1-ae14-1aea4af61a78","system_id":"levelo_inurba_marseille","lat":43.32292,"lon":5.38277,"is_reserved":false,"is_disabled":false,"rental_uris":{"android":"levelo://app?vid=1882bff9-3a4a-48a1-ae14-1aea4af61a78","ios":"levelo://app?vid=1882bff9-3a4a-48a1-ae14-1aea4af61a78"},"vehicle_type_id":"4","last_reported":1741485418,"current_range_meters":12400,"station_id":"ce4bhr12rcd13ifvqhqg","pricing_plan_id":"cebpf4jnsgd1na2vs0mg"},{"bike_id":"4c5d8bb4-3d1e-4689-9d72-361d8d376cce","system_id":"levelo_inurba_marseille","lat":43.2481,"lon":5.37472,"is_reserved":false,"is_disabled":false,"rental_uris":{"android":"levelo://app?vid=4c5d8bb4-3d1e-4689-9d72-361d8d376cce","ios":"levelo://app?vid=4c5d8bb4-3d1e-4689-9d72-361d8d376cce"},"vehicle_type_id":"4","last_reported":1741485418,"current_range_meters":12400,"station_id":"ce4bhgh2rcd13ifvqfb0","pricing_plan_id":"cebpf4jnsgd1na2vs0mg"},{"bike_id":"9d83852b-9531-4fdb-86c3-b5f5584a2872","system_id":"levelo_inurba_marseille","lat":43.28097,"lon":5.37838,"is_reserved":false,"is_disabled":false,"rental_uris":{"android":"levelo://app?vid=9d83852b-9531-4fdb-86c3-b5f5584a2872","ios":"levelo://app?vid=9d83852b-9531-4fdb-86c3-b5f5584a2872"},"vehicle_type_id":"4","last_reported":1741485418,"current_range_meters":12800,"station_id":"ce4bha12rcd13ifvqee0","pricing_plan_id":"cebpf4jnsgd1na2vs0mg"},{"bike_id":"2d61ec87-0577-43ad-a521-fdb089acfcf2","system_id":"levelo_inurba_marseille","lat":43.30963,"lon":5.39054,"is_reserved":false,"is_disabled":false,"rental_uris":{"android":"levelo://app?vid=2d61ec87-0577-43ad-a521-fdb089acfcf2","ios":"levelo://app?vid=2d61ec87-0577-43ad-a521-fdb089acfcf2"},"vehicle_type_id":"4","last_reported":1741485418,"current_range_meters":13600,"station_id":"ce4bgup2rcd13ifvqco0","pricing_plan_id":"cebpf4jnsgd1na2vs0mg"},{"bike_id":"ab3792a9-c3cc-418c-a659-df31fd28ff8c","system_id":"levelo_inurba_marseille","lat":43.30303,"lon":5.39214,"is_reserved":false,"is_disabled":false,"rental_uris":{"android":"levelo://app?vid=ab3792a9-c3cc-418c-a659-df31fd28ff8c","ios":"levelo://app?vid=ab3792a9-c3cc-418c-a659-df31fd28ff8c"},"vehicle_type_id":"4","last_reported":1741485418,"current_range_meters":10800,"station_id":"ce4bgkh2rcd13ifvqbk0","pricing_plan_id":"cebpf4jnsgd1na2vs0mg"},{"bike_id":"c923d8c0-f9be-4dd9-91ce-2d0308665cb3","system_id":"levelo_inurba_marseille","lat":43.29558,"lon":5.42269,"is_reserved":false,"is_disabled":false,"rental_uris":{"android":"levelo://app?vid=c923d8c0-f9be-4dd9-91ce-2d0308665cb3","ios":"levelo://app?vid=c923d8c0-f9be-4dd9-91ce-2d0308665cb3"},"vehicle_type_id":"4","last_reported":1741485418,"current_range_meters":14400,"station_id":"ce4bhph2rcd13ifvqhdg","pricing_plan_id":"cebpf4jnsgd1na2vs0mg"},{"bike_id":"b3b6de43-7ccc-473b-9e87-034a0d9f1009","system_id":"levelo_inurba_marseille","lat":43.29031,"lon":5.37559,"is_reserved":false,"is_disabled":true,"rental_uris":{"android":"levelo://app?vid=b3b6de43-7ccc-473b-9e87-034a0d9f1009","ios":"levelo://app?vid=b3b6de43-7ccc-473b-9e87-034a0d9f1009"},"vehicle_type_id":"4","last_reported":1741485418,"current_range_meters":14000,"station_id":"ce4bh692rcd13ifvqe90","pricing_plan_id":"cebpf4jnsgd1na2vs0mg"},{"bike_id":"34565812-0fff-4dbb-b10e-c8a1a59facae","system_id":"levelo_inurba_marseille","lat":43.31709,"lon":5.43686,"is_reserved":false,"is_disabled":true,"rental_uris":{"android":"levelo://app?vid=34565812-0fff-4dbb-b10e-c8a1a59facae","ios":"levelo://app?vid=34565812-0fff-4dbb-b10e-c8a1a59facae"},"vehicle_type_id":"4","last_reported":1741485418,"current_range_meters":14000,"station_id":"ce4bhp92rcd13ifvqhcg","pricing_plan_id":"cebpf4jnsgd1na2vs0mg"},{"bike_id":"07d7f69d-31c1-4945-9547-bea912e512a4","system_id":"levelo_inurba_marseille","lat":43.2988,"lon":5.39756,"is_reserved":false,"is_disabled":false,"rental_uris":{"android":"levelo://app?vid=07d7f69d-31c1-4945-9547-bea912e512a4","ios":"levelo://app?vid=07d7f69d-31c1-4945-9547-bea912e512a4"},"vehicle_type_id":"4","last_reported":1741485418,"current_range_meters":14000,"station_id":"ce4bh0h2rcd13ifvqd50","pricing_plan_id":"cebpf4jnsgd1na2vs0mg"},{"bike_id":"a09c8ff5-5301-49fa-a163-45c742aebbbf","system_id":"levelo_inurba_marseille","lat":43.29899,"lon":5.43671,"is_reserved":false,"is_disabled":false,"rental_uris":{"android":"levelo://app?vid=a09c8ff5-5301-49fa-a163-45c742aebbbf","ios":"levelo://app?vid=a09c8ff5-5301-49fa-a163-45c742aebbbf"},"vehicle_type_id":"4","last_reported":1741485418,"current_range_meters":14000,"station_id":"ce4bhpp2rcd13ifvqhfg","pricing_plan_id":"cebpf4jnsgd1na2vs0mg"},{"bike_id":"1c481fb0-d338-447e-9ac4-5d0e02692c73","system_id":"levelo_inurba_marseille","lat":43.25491,"lon":5.37669,"is_reserved":false,"is_disabled":false,"rental_uris":{"android":"levelo://app?vid=1c481fb0-d338-447e-9ac4-5d0e02692c73","ios":"levelo://app?vid=1c481fb0-d338-447e-9ac4-5d0e02692c73"},"vehicle_type_id":"4","last_reported":1741485418,"current_range_meters":14400,"station_id":"ce4bhh12rcd13ifvqff0","pricing_plan_id":"cebpf4jnsgd1na2vs0mg"},{"bike_id":"f7b9a431-cef0-47cd-aa60-d241d5be9eb1","system_id":"levelo_inurba_marseille","lat":43.30778,"lon":5.38156,"is_reserved":false,"is_disabled":false,"rental_uris":{"android":"levelo://app?vid=f7b9a431-cef0-47cd-aa60-d241d5be9eb1","ios":"levelo://app?vid=f7b9a431-cef0-47cd-aa60-d241d5be9eb1"},"vehicle_type_id":"4","last_reported":1741485418,"current_range_meters":14800,"station_id":"ce4bgt12rcd13ifvqce0","pricing_plan_id":"cebpf4jnsgd1na2vs0mg"},{"bike_id":"862a788e-4ad5-4c91-930d-dd5215bf95e5","system_id":"levelo_inurba_marseille","lat":43.31305,"lon":5.40159,"is_reserved":false,"is_disabled":false,"rental_uris":{"android":"levelo://app?vid=862a788e-4ad5-4c91-930d-dd5215bf95e5","ios":"levelo://app?vid=862a788e-4ad5-4c91-930d-dd5215bf95e5"},"vehicle_type_id":"4","last_reported":1741485418,"current_range_meters":14800,"station_id":"ce4bh092rcd13ifvqd30","pricing_plan_id":"cebpf4jnsgd1na2vs0mg"},{"bike_id":"da71e2fc-4520-4468-8734-9a1c4d68be7b","system_id":"levelo_inurba_marseille","lat":43.29909,"lon":5.38142,"is_reserved":false,"is_disabled":false,"rental_uris":{"android":"levelo://app?vid=da71e2fc-4520-4468-8734-9a1c4d68be7b","ios":"levelo://app?vid=da71e2fc-4520-4468-8734-9a1c4d68be7b"},"vehicle_type_id":"4","last_reported":1741485418,"current_range_meters":15200,"station_id":"ce4bgj12rcd13ifvqbc0","pricing_plan_id":"cebpf4jnsgd1na2vs0mg"},{"bike_id":"6503f83c-089e-443d-9c4d-c5c9fa6b70ea","system_id":"levelo_inurba_marseille","lat":43.25726,"lon":5.41104,"is_reserved":false,"is_disabled":false,"rental_uris":{"android":"levelo://app?vid=6503f83c-089e-443d-9c4d-c5c9fa6b70ea","ios":"levelo://app?vid=6503f83c-089e-443d-9c4d-c5c9fa6b70ea"},"vehicle_type_id":"4","last_reported":1741485418,"current_range_meters":15200,"station_id":"ce4bhkp2rcd13ifvqgd0","pricing_plan_id":"cebpf4jnsgd1na2vs0mg"},{"bike_id":"de62b1e1-afb2-4f35-8381-ed30575d17cb","system_id":"levelo_inurba_marseille","lat":43.29262,"lon":5.40134,"is_reserved":false,"is_disabled":false,"rental_uris":{"android":"levelo://app?vid=de62b1e1-afb2-4f35-8381-ed30575d17cb","ios":"levelo://app?vid=de62b1e1-afb2-4f35-8381-ed30575d17cb"},"vehicle_type_id":"4","last_reported":1741485418,"current_range_meters":16000,"station_id":"ce4bh312rcd13ifvqdk0","pricing_plan_id":"cebpf4jnsgd1na2vs0mg"},{"bike_id":"c7b5db1b-575b-49cf-8e61-e06a7624e131","system_id":"levelo_inurba_marseille","lat":43.24075,"lon":5.37761,"is_reserved":false,"is_disabled":false,"rental_uris":{"android":"levelo://app?vid=c7b5db1b-575b-49cf-8e61-e06a7624e131","ios":"levelo://app?vid=c7b5db1b-575b-49cf-8e61-e06a7624e131"},"vehicle_type_id":"4","last_reported":1741485418,"current_range_meters":16000,"station_id":"ce4bhnp2rcd13ifvqgvg","pricing_plan_id":"cebpf4jnsgd1na2vs0mg"},{"bike_id":"64fdb816-a58d-4d00-b8b1-9f2d0690f5c1","system_id":"levelo_inurba_marseille","lat":43.24178,"lon":5.36389,"is_reserved":false,"is_disabled":true,"rental_uris":{"android":"levelo://app?vid=64fdb816-a58d-4d00-b8b1-9f2d0690f5c1","ios":"levelo://app?vid=64fdb816-a58d-4d00-b8b1-9f2d0690f5c1"},"vehicle_type_id":"4","last_reported":1741485418,"current_range_meters":16000,"station_id":"cpo36qri1sfpv3e86is0","pricing_plan_id":"cebpf4jnsgd1na2vs0mg"},{"bike_id":"e952093e-b61f-48ab-8b19-e6241362582d","system_id":"levelo_inurba_marseille","lat":43.30878,"lon":5.37185,"is_reserved":false,"is_disabled":false,"rental_uris":{"android":"levelo://app?vid=e952093e-b61f-48ab-8b19-e6241362582d","ios":"levelo://app?vid=e952093e-b61f-48ab-8b19-e6241362582d"},"vehicle_type_id":"4","last_reported":1741485418,"current_range_meters":16000,"station_id":"ce4bguh2rcd13ifvqckg","pricing_plan_id":"cebpf4jnsgd1na2vs0mg"},{"bike_id":"fe0ec737-5a80-48e8-adfe-00e47b1c2424","system_id":"levelo_inurba_marseille","lat":43.31169,"lon":5.3872,"is_reserved":false,"is_disabled":false,"rental_uris":{"android":"levelo://app?vid=fe0ec737-5a80-48e8-adfe-00e47b1c2424","ios":"levelo://app?vid=fe0ec737-5a80-48e8-adfe-00e47b1c2424"},"vehicle_type_id":"4","last_reported":1741485418,"current_range_meters":16000,"station_id":"ce4bgv12rcd13ifvqcp0","pricing_plan_id":"cebpf4jnsgd1na2vs0mg"},{"bike_id":"a854a4d6-7e58-4735-a4fb-ae534bc9b14f","system_id":"levelo_inurba_marseille","lat":43.29585,"lon":5.39952,"is_reserved":false,"is_disabled":false,"rental_uris":{"android":"levelo://app?vid=a854a4d6-7e58-4735-a4fb-ae534bc9b14f","ios":"levelo://app?vid=a854a4d6-7e58-4735-a4fb-ae534bc9b14f"},"vehicle_type_id":"4","last_reported":1741485418,"current_range_meters":16000,"station_id":"ce4bh312rcd13ifvqdj0","pricing_plan_id":"cebpf4jnsgd1na2vs0mg"},{"bike_id":"a60dbb1a-31c9-4f41-b588-9056b3130b4f","system_id":"levelo_inurba_marseille","lat":43.31334,"lon":5.39689,"is_reserved":false,"is_disabled":false,"rental_uris":{"android":"levelo://app?vid=a60dbb1a-31c9-4f41-b588-9056b3130b4f","ios":"levelo://app?vid=a60dbb1a-31c9-4f41-b588-9056b3130b4f"},"vehicle_type_id":"4","last_reported":1741485418,"current_range_meters":15200,"station_id":"ce4bgvp2rcd13ifvqcu0","pricing_plan_id":"cebpf4jnsgd1na2vs0mg"},{"bike_id":"43a9e877-cc1b-4b65-91f3-6cefb6f4922c","system_id":"levelo_inurba_marseille","lat":43.29262,"lon":5.40907,"is_reserved":false,"is_disabled":false,"rental_uris":{"android":"levelo://app?vid=43a9e877-cc1b-4b65-91f3-6cefb6f4922c","ios":"levelo://app?vid=43a9e877-cc1b-4b65-91f3-6cefb6f4922c"},"vehicle_type_id":"4","last_reported":1741485418,"current_range_meters":16000,"station_id":"ce4bh192rcd13ifvqdc0","pricing_plan_id":"cebpf4jnsgd1na2vs0mg"},{"bike_id":"5ed2dd89-a937-49df-801e-4fd381bacc70","system_id":"levelo_inurba_marseille","lat":43.25148,"lon":5.40297,"is_reserved":false,"is_disabled":false,"rental_uris":{"android":"levelo://app?vid=5ed2dd89-a937-49df-801e-4fd381bacc70","ios":"levelo://app?vid=5ed2dd89-a937-49df-801e-4fd381bacc70"},"vehicle_type_id":"4","last_reported":1741485418,"current_range_meters":16000,"station_id":"ce4bhlh2rcd13ifvqgig","pricing_plan_id":"cebpf4jnsgd1na2vs0mg"},{"bike_id":"4541a423-b54b-46f8-a0d8-7198d9ba28b1","system_id":"levelo_inurba_marseille","lat":43.25107,"lon":5.40326,"is_reserved":false,"is_disabled":false,"rental_uris":{"android":"levelo://app?vid=4541a423-b54b-46f8-a0d8-7198d9ba28b1","ios":"levelo://app?vid=4541a423-b54b-46f8-a0d8-7198d9ba28b1"},"vehicle_type_id":"4","last_reported":1741485418,"current_range_meters":16000,"station_id":"ce4bhlh2rcd13ifvqgig","pricing_plan_id":"cebpf4jnsgd1na2vs0mg"},{"bike_id":"6332f21c-b735-409b-8f12-ffcec3dc9b39","system_id":"levelo_inurba_marseille","lat":43.23193,"lon":5.39976,"is_reserved":false,"is_disabled":false,"rental_uris":{"android":"levelo://app?vid=6332f21c-b735-409b-8f12-ffcec3dc9b39","ios":"levelo://app?vid=6332f21c-b735-409b-8f12-ffcec3dc9b39"},"vehicle_type_id":"4","last_reported":1741485418,"current_range_meters":16000,"station_id":"ce4bhn12rcd13ifvqgqg","pricing_plan_id":"cebpf4jnsgd1na2vs0mg"},{"bike_id":"95a9099a-60dc-480d-ab0b-ec9e3943d5e5","system_id":"levelo_inurba_marseille","lat":43.246549,"lon":5.388918,"is_reserved":false,"is_disabled":false,"rental_uris":{"android":"levelo://app?vid=95a9099a-60dc-480d-ab0b-ec9e3943d5e5","ios":"levelo://app?vid=95a9099a-60dc-480d-ab0b-ec9e3943d5e5"},"vehicle_type_id":"4","last_reported":1741485418,"current_range_meters":16000,"station_id":"ce4bhg12rcd13ifvqf60","pricing_plan_id":"cebpf4jnsgd1na2vs0mg"},{"bike_id":"446aaeb8-f45e-466e-b4cb-2ccd1be85b78","system_id":"levelo_inurba_marseille","lat":43.303162,"lon":5.392224,"is_reserved":false,"is_disabled":false,"rental_uris":{"android":"levelo://app?vid=446aaeb8-f45e-466e-b4cb-2ccd1be85b78","ios":"levelo://app?vid=446aaeb8-f45e-466e-b4cb-2ccd1be85b78"},"vehicle_type_id":"4","last_reported":1741485418,"current_range_meters":16000,"station_id":"ce4bgv12rcd13ifvqcp0","pricing_plan_id":"cebpf4jnsgd1na2vs0mg"},{"bike_id":"eaf1a163-e377-4bc2-a834-eef0e6f56450","system_id":"levelo_inurba_marseille","lat":43.3236,"lon":5.38879,"is_reserved":false,"is_disabled":false,"rental_uris":{"android":"levelo://app?vid=eaf1a163-e377-4bc2-a834-eef0e6f56450","ios":"levelo://app?vid=eaf1a163-e377-4bc2-a834-eef0e6f56450"},"vehicle_type_id":"4","last_reported":1741485418,"current_range_meters":16400,"station_id":"ce4bhqp2rcd13ifvqhog","pricing_plan_id":"cebpf4jnsgd1na2vs0mg"},{"bike_id":"3ee918a1-dec5-45d2-b71d-4196ba8832d0","system_id":"levelo_inurba_marseille","lat":43.31531,"lon":5.38038,"is_reserved":false,"is_disabled":false,"rental_uris":{"android":"levelo://app?vid=3ee918a1-dec5-45d2-b71d-4196ba8832d0","ios":"levelo://app?vid=3ee918a1-dec5-45d2-b71d-4196ba8832d0"},"vehicle_type_id":"4","last_reported":1741485418,"current_range_meters":16400,"station_id":"ce4bhsp2rcd13ifvqi50","pricing_plan_id":"cebpf4jnsgd1na2vs0mg"},{"bike_id":"303d2fa0-185a-4ae5-a566-bff66efd1a68","system_id":"levelo_inurba_marseille","lat":43.24077,"lon":5.37766,"is_reserved":false,"is_disabled":false,"rental_uris":{"android":"levelo://app?vid=303d2fa0-185a-4ae5-a566-bff66efd1a68","ios":"levelo://app?vid=303d2fa0-185a-4ae5-a566-bff66efd1a68"},"vehicle_type_id":"4","last_reported":1741485418,"current_range_meters":16400,"station_id":"ce4bhnp2rcd13ifvqgvg","pricing_plan_id":"cebpf4jnsgd1na2vs0mg"},{"bike_id":"5feb6fa1-6aef-4afb-8cf0-7112712f90e3","system_id":"levelo_inurba_marseille","lat":43.30531,"lon":5.36686,"is_reserved":false,"is_disabled":true,"rental_uris":{"android":"levelo://app?vid=5feb6fa1-6aef-4afb-8cf0-7112712f90e3","ios":"levelo://app?vid=5feb6fa1-6aef-4afb-8cf0-7112712f90e3"},"vehicle_type_id":"4","last_reported":1741485418,"current_range_meters":16400,"station_id":"ce4bgrp2rcd13ifvqc9g","pricing_plan_id":"cebpf4jnsgd1na2vs0mg"},{"bike_id":"7f08542c-3622-4bee-8852-d0974c0ec085","system_id":"levelo_inurba_marseille","lat":43.24203,"lon":5.36348,"is_reserved":false,"is_disabled":false,"rental_uris":{"android":"levelo://app?vid=7f08542c-3622-4bee-8852-d0974c0ec085","ios":"levelo://app?vid=7f08542c-3622-4bee-8852-d0974c0ec085"},"vehicle_type_id":"4","last_reported":1741485418,"current_range_meters":16800,"station_id":"","pricing_plan_id":"cebpf4jnsgd1na2vs0mg"},{"bike_id":"67fc845a-4e54-4c1c-8b59-aae9c41867a4","system_id":"levelo_inurba_marseille","lat":43.27073,"lon":5.42278,"is_reserved":false,"is_disabled":false,"rental_uris":{"android":"levelo://app?vid=67fc845a-4e54-4c1c-8b59-aae9c41867a4","ios":"levelo://app?vid=67fc845a-4e54-4c1c-8b59-aae9c41867a4"},"vehicle_type_id":"4","last_reported":1741485418,"current_range_meters":16400,"station_id":"ce4bhk92rcd13ifvqgb0","pricing_plan_id":"cebpf4jnsgd1na2vs0mg"},{"bike_id":"4651d4a8-375d-4e6e-a644-31235b482e9a","system_id":"levelo_inurba_marseille","lat":43.31369,"lon":5.38496,"is_reserved":false,"is_disabled":false,"rental_uris":{"android":"levelo://app?vid=4651d4a8-375d-4e6e-a644-31235b482e9a","ios":"levelo://app?vid=4651d4a8-375d-4e6e-a644-31235b482e9a"},"vehicle_type_id":"4","last_reported":1741485418,"current_range_meters":16400,"station_id":"ce4bgt92rcd13ifvqcf0","pricing_plan_id":"cebpf4jnsgd1na2vs0mg"},{"bike_id":"5f0461a6-3406-4130-b67e-a78e6dd7242d","system_id":"levelo_inurba_marseille","lat":43.28706,"lon":5.39977,"is_reserved":false,"is_disabled":false,"rental_uris":{"android":"levelo://app?vid=5f0461a6-3406-4130-b67e-a78e6dd7242d","ios":"levelo://app?vid=5f0461a6-3406-4130-b67e-a78e6dd7242d"},"vehicle_type_id":"4","last_reported":1741485418,"current_range_meters":16400,"station_id":"ce4bho92rcd13ifvqh3g","pricing_plan_id":"cebpf4jnsgd1na2vs0mg"},{"bike_id":"c3632eda-883e-447f-9053-aacd5ac0b1e8","system_id":"levelo_inurba_marseille","lat":43.28424,"lon":5.37523,"is_reserved":false,"is_disabled":false,"rental_uris":{"android":"levelo://app?vid=c3632eda-883e-447f-9053-aacd5ac0b1e8","ios":"levelo://app?vid=c3632eda-883e-447f-9053-aacd5ac0b1e8"},"vehicle_type_id":"4","last_reported":1741485418,"current_range_meters":16400,"station_id":"ce4bh412rcd13ifvqds0","pricing_plan_id":"cebpf4jnsgd1na2vs0mg"},{"bike_id":"8a628e2a-8cfc-4010-945a-0f19307e67e9","system_id":"levelo_inurba_marseille","lat":43.28576,"lon":5.39502,"is_reserved":false,"is_disabled":false,"rental_uris":{"android":"levelo://app?vid=8a628e2a-8cfc-4010-945a-0f19307e67e9","ios":"levelo://app?vid=8a628e2a-8cfc-4010-945a-0f19307e67e9"},"vehicle_type_id":"4","last_reported":1741485418,"current_range_meters":16400,"station_id":"ce4bh292rcd13ifvqdg0","pricing_plan_id":"cebpf4jnsgd1na2vs0mg"},{"bike_id":"3a874f96-3384-4ea3-a8cc-a9c6cf342824","system_id":"levelo_inurba_marseille","lat":43.336,"lon":5.4103,"is_reserved":false,"is_disabled":false,"rental_uris":{"android":"levelo://app?vid=3a874f96-3384-4ea3-a8cc-a9c6cf342824","ios":"levelo://app?vid=3a874f96-3384-4ea3-a8cc-a9c6cf342824"},"vehicle_type_id":"4","last_reported":1741485418,"current_range_meters":16400,"station_id":"ce4bhqh2rcd13ifvqhmg","pricing_plan_id":"cebpf4jnsgd1na2vs0mg"},{"bike_id":"1f72adc6-3d1a-4fad-a905-cb9dcd596e26","system_id":"levelo_inurba_marseille","lat":43.23842,"lon":5.43573,"is_reserved":false,"is_disabled":false,"rental_uris":{"android":"levelo://app?vid=1f72adc6-3d1a-4fad-a905-cb9dcd596e26","ios":"levelo://app?vid=1f72adc6-3d1a-4fad-a905-cb9dcd596e26"},"vehicle_type_id":"4","last_reported":1741485418,"current_range_meters":16400,"station_id":"","pricing_plan_id":"cebpf4jnsgd1na2vs0mg"},{"bike_id":"07e7bc44-5fe4-4df5-8935-6b57fd8ba280","system_id":"levelo_inurba_marseille","lat":43.31369,"lon":5.38506,"is_reserved":false,"is_disabled":false,"rental_uris":{"android":"levelo://app?vid=07e7bc44-5fe4-4df5-8935-6b57fd8ba280","ios":"levelo://app?vid=07e7bc44-5fe4-4df5-8935-6b57fd8ba280"},"vehicle_type_id":"4","last_reported":1741485418,"current_range_meters":16400,"station_id":"ce4bgt92rcd13ifvqcf0","pricing_plan_id":"cebpf4jnsgd1na2vs0mg"},{"bike_id":"2ccd844c-1d8c-45c2-8194-be6007529379","system_id":"levelo_inurba_marseille","lat":43.27204,"lon":5.39193,"is_reserved":false,"is_disabled":false,"rental_uris":{"android":"levelo://app?vid=2ccd844c-1d8c-45c2-8194-be6007529379","ios":"levelo://app?vid=2ccd844c-1d8c-45c2-8194-be6007529379"},"vehicle_type_id":"4","last_reported":1741485418,"current_range_meters":16400,"station_id":"ce4bhhp2rcd13ifvqfm0","pricing_plan_id":"cebpf4jnsgd1na2vs0mg"},{"bike_id":"b7dbd81c-ca41-4403-b3b8-c89e3ddb5bdb","system_id":"levelo_inurba_marseille","lat":43.31464,"lon":5.37575,"is_reserved":false,"is_disabled":false,"rental_uris":{"android":"levelo://app?vid=b7dbd81c-ca41-4403-b3b8-c89e3ddb5bdb","ios":"levelo://app?vid=b7dbd81c-ca41-4403-b3b8-c89e3ddb5bdb"},"vehicle_type_id":"4","last_reported":1741485418,"current_range_meters":16400,"station_id":"","pricing_plan_id":"cebpf4jnsgd1na2vs0mg"},{"bike_id":"3795c289-beea-44c3-a7ae-fd3e55b72f22","system_id":"levelo_inurba_marseille","lat":43.28613,"lon":5.35104,"is_reserved":false,"is_disabled":true,"rental_uris":{"android":"levelo://app?vid=3795c289-beea-44c3-a7ae-fd3e55b72f22","ios":"levelo://app?vid=3795c289-beea-44c3-a7ae-fd3e55b72f22"},"vehicle_type_id":"4","last_reported":1741485418,"current_range_meters":16800,"station_id":"ce4bhch2rcd13ifvqeug","pricing_plan_id":"cebpf4jnsgd1na2vs0mg"},{"bike_id":"cc8ccfcb-3658-4b9e-8ea9-b04a28ec7454","system_id":"levelo_inurba_marseille","lat":43.28159,"lon":5.42652,"is_reserved":false,"is_disabled":false,"rental_uris":{"android":"levelo://app?vid=cc8ccfcb-3658-4b9e-8ea9-b04a28ec7454","ios":"levelo://app?vid=cc8ccfcb-3658-4b9e-8ea9-b04a28ec7454"},"vehicle_type_id":"4","last_reported":1741485418,"current_range_meters":16800,"station_id":"ce4bhnh2rcd13ifvqgug","pricing_plan_id":"cebpf4jnsgd1na2vs0mg"},{"bike_id":"ae6d9bec-5fbb-450c-8eaa-314b7537f20e","system_id":"levelo_inurba_marseille","lat":43.31224,"lon":5.3684,"is_reserved":false,"is_disabled":false,"rental_uris":{"android":"levelo://app?vid=ae6d9bec-5fbb-450c-8eaa-314b7537f20e","ios":"levelo://app?vid=ae6d9bec-5fbb-450c-8eaa-314b7537f20e"},"vehicle_type_id":"4","last_reported":1741485418,"current_range_meters":16800,"station_id":"ce4bgl92rcd13ifvqbq0","pricing_plan_id":"cebpf4jnsgd1na2vs0mg"},{"bike_id":"1ffe0839-d6b0-49e0-a58b-164465fcccd9","system_id":"levelo_inurba_marseille","lat":43.24664,"lon":5.38896,"is_reserved":false,"is_disabled":false,"rental_uris":{"android":"levelo://app?vid=1ffe0839-d6b0-49e0-a58b-164465fcccd9","ios":"levelo://app?vid=1ffe0839-d6b0-49e0-a58b-164465fcccd9"},"vehicle_type_id":"4","last_reported":1741485418,"current_range_meters":16800,"station_id":"ce4bhg12rcd13ifvqf60","pricing_plan_id":"cebpf4jnsgd1na2vs0mg"},{"bike_id":"4e988b79-546d-4039-b5f6-8f94585d4ef4","system_id":"levelo_inurba_marseille","lat":43.33512,"lon":5.36064,"is_reserved":false,"is_disabled":false,"rental_uris":{"android":"levelo://app?vid=4e988b79-546d-4039-b5f6-8f94585d4ef4","ios":"levelo://app?vid=4e988b79-546d-4039-b5f6-8f94585d4ef4"},"vehicle_type_id":"4","last_reported":1741485418,"current_range_meters":17200,"station_id":"","pricing_plan_id":"cebpf4jnsgd1na2vs0mg"},