{"last_updated":1743188856,"ttl":60,"version":"2.2","data":{"bikes":[{"bike_id":"a8d3b117-b969-4715-ba6d-1ed39a5d939d","system_id":"levelo_inurba_marseille","lat":43.28972,"lon":5.36653,"is_reserved":false,"is_disabled":false,"rental_uris":{"android":"levelo://app?vid=a8d3b117-b969-4715-ba6d-1ed39a5d939d","ios":"levelo://app?vid=a8d3b117-b969-4715-ba6d-1ed39a5d939d"},"vehicle_type_id":"4","last_reported":1743188856,"current_range_meters":2800,"station_id":"","pricing_plan_id":"cebpf4jnsgd1na2vs0mg"},{"bike_id":"1a7980cb-2d24-4f72-b3c4-ebf760e124f2","system_id":"levelo_inurba_marseille","lat":43.30923,"lon":5.40143,"is_reserved":false,"is_disabled":false,"rental_uris":{"android":"levelo://app?vid=1a7980cb-2d24-4f72-b3c4-ebf760e124f2","ios":"levelo://app?vid=1a7980cb-2d24-4f72-b3c4-ebf760e124f2"},"vehicle_type_id":"4","last_reported":1743188856,"current_range_meters":2800,"station_id":"ce4bgvp2rcd13ifvqct0","pricing_plan_id":"cebpf4jnsgd1na2vs0mg"},{"bike_id":"059437cb-dbc5-47d5-80c6-b4b2bfdf6326","system_id":"levelo_inurba_marseille","lat":43.3,"lon":5.37188,"is_reserved":false,"is_disabled":false,"rental_uris":{"android":"levelo://app?vid=059437cb-dbc5-47d5-80c6-b4b2bfdf6326","ios":"levelo://app?vid=059437cb-dbc5-47d5-80c6-b4b2bfdf6326"},"vehicle_type_id":"4","last_reported":1743188856,"current_range_meters":2800,"station_id":"ce4bgr92rcd13ifvqc7g","pricing_plan_id":"cebpf4jnsgd1na2vs0mg"},{"bike_id":"897a51c0-e54c-44cd-b9fc-1da0680f47e3","system_id":"levelo_inurba_marseille","lat":43.2916,"lon":5.37158,"is_reserved":false,"is_disabled":false,"rental_uris":{"android":"levelo://app?vid=897a51c0-e54c-44cd-b9fc-1da0680f47e3","ios":"levelo://app?vid=897a51c0-e54c-44cd-b9fc-1da0680f47e3"},"vehicle_type_id":"4","last_reported":1743188856,"current_range_meters":2800,"station_id":"ce4bha92rcd13ifvqeh0","pricing_plan_id":"cebpf4jnsgd1na2vs0mg"},{"bike_id":"53d9725d-2286-41ed-9842-a5ea9ce17946","system_id":"levelo_inurba_marseille","lat":43.30806,"lon":5.43522,"is_reserved":false,"is_disabled":false,"rental_uris":{"android":"levelo://app?vid=53d9725d-2286-41ed-9842-a5ea9ce17946","ios":"levelo://app?vid=53d9725d-2286-41ed-9842-a5ea9ce17946"},"vehicle_type_id":"4","last_reported":1743188856,"current_range_meters":2800,"station_id":"ce4bhph2rcd13ifvqheg","pricing_plan_id":"cebpf4jnsgd1na2vs0mg"},{"bike_id":"621e5dd9-58d1-4a70-817d-472ea378ccd9","system_id":"levelo_inurba_marseille","lat":43.283783,"lon":5.39229,"is_reserved":false,"is_disabled":false,"rental_uris":{"android":"levelo://app?vid=621e5dd9-58d1-4a70-817d-472ea378ccd9","ios":"levelo://app?vid=621e5dd9-58d1-4a70-817d-472ea378ccd9"},"vehicle_type_id":"4","last_reported":1743188856,"current_range_meters":2000,"station_id":"ce4bhoh2rcd13ifvqh5g","pricing_plan_id":"cebpf4jnsgd1na2vs0mg"},{"bike_id":"d71d9bc5-b3e0-46ed-b0a7-8d6e8be61a36","system_id":"levelo_inurba_marseille","lat":43.29529,"lon":5.394,"is_reserved":false,"is_disabled":false,"rental_uris":{"android":"levelo://app?vid=d71d9bc5-b3e0-46ed-b0a7-8d6e8be61a36","ios":"levelo://app?vid=d71d9bc5-b3e0-46ed-b0a7-8d6e8be61a36"},"vehicle_type_id":"4","last_reported":1743188856,"current_range_meters":2800,"station_id":"ce4bh292rcd13ifvqdf0","pricing_plan_id":"cebpf4jnsgd1na2vs0mg"},{"bike_id":"9f53286b-7617-466a-8be2-5c9c339e9f3e","system_id":"levelo_inurba_marseille","lat":43.29535,"lon":5.39387,"is_reserved":false,"is_disabled":false,"rental_uris":{"android":"levelo://app?vid=9f53286b-7617-466a-8be2-5c9c339e9f3e","ios":"levelo://app?vid=9f53286b-7617-466a-8be2-5c9c339e9f3e"},"vehicle_type_id":"4","last_reported":1743188856,"current_range_meters":2800,"station_id":"ce4bh292rcd13ifvqdf0","pricing_plan_id":"cebpf4jnsgd1na2vs0mg"},{"bike_id":"03912c31-3939-40f2-940c-71fc8e921add","system_id":"levelo_inurba_marseille","lat":43.27669,"lon":5.38863,"is_reserved":false,"is_disabled":false,"rental_uris":{"android":"levelo://app?vid=03912c31-3939-40f2-940c-71fc8e921add","ios":"levelo://app?vid=03912c31-3939-40f2-940c-71fc8e921add"},"vehicle_type_id":"4","last_reported":1743188856,"current_range_meters":2800,"station_id":"ce4bhi12rcd13ifvqfo0","pricing_plan_id":"cebpf4jnsgd1na2vs0mg"},{"bike_id":"061cdc94-a897-462b-aaf1-0348a77b9628","system_id":"levelo_inurba_marseille","lat":43.29848,"lon":5.36285,"is_reserved":false,"is_disabled":false,"rental_uris":{"android":"levelo://app?vid=061cdc94-a897-462b-aaf1-0348a77b9628","ios":"levelo://app?vid=061cdc94-a897-462b-aaf1-0348a77b9628"},"vehicle_type_id":"4","last_reported":1743188856,"current_range_meters":2800,"station_id":"ce4bgpp2rcd13ifvqc3g","pricing_plan_id":"cebpf4jnsgd1na2vs0mg"},{"bike_id":"14e18bf1-2825-4fad-944c-bd8cadf579ff","system_id":"levelo_inurba_marseille","lat":43.26554,"lon":5.37283,"is_reserved":false,"is_disabled":true,"rental_uris":{"android":"levelo://app?vid=14e18bf1-2825-4fad-944c-bd8cadf579ff","ios":"levelo://app?vid=14e18bf1-2825-4fad-944c-bd8cadf579ff"},"vehicle_type_id":"4","last_reported":1743188856,"current_range_meters":2800,"station_id":"ce4bhg12rcd13ifvqf70","pricing_plan_id":"cebpf4jnsgd1na2vs0mg"},{"bike_id":"125f700e-a992-4f36-8f48-13ffb2a87d8c","system_id":"levelo_inurba_marseille","lat":43.295685,"lon":5.367154,"is_reserved":false,"is_disabled":false,"rental_uris":{"android":"levelo://app?vid=125f700e-a992-4f36-8f48-13ffb2a87d8c","ios":"levelo://app?vid=125f700e-a992-4f36-8f48-13ffb2a87d8c"},"vehicle_type_id":"4","last_reported":1743188856,"current_range_meters":2800,"station_id":"ce4bgph2rcd13ifvqc2g","pricing_plan_id":"cebpf4jnsgd1na2vs0mg"},{"bike_id":"1cf52eee-b557-43b4-a841-b687a2d1c17e","system_id":"levelo_inurba_marseille","lat":43.31356,"lon":5.38495,"is_reserved":false,"is_disabled":false,"rental_uris":{"android":"levelo://app?vid=1cf52eee-b557-43b4-a841-b687a2d1c17e","ios":"levelo://app?vid=1cf52eee-b557-43b4-a841-b687a2d1c17e"},"vehicle_type_id":"4","last_reported":1743188856,"current_range_meters":2800,"station_id":"ce4bgt92rcd13ifvqcf0","pricing_plan_id":"cebpf4jnsgd1na2vs0mg"},{"bike_id":"914b4cba-f8eb-4b93-b4fc-4ae277961004","system_id":"levelo_inurba_marseille","lat":43.29852,"lon":5.36284,"is_reserved":false,"is_disabled":false,"rental_uris":{"android":"levelo://app?vid=914b4cba-f8eb-4b93-b4fc-4ae277961004","ios":"levelo://app?vid=914b4cba-f8eb-4b93-b4fc-4ae277961004"},"vehicle_type_id":"4","last_reported":1743188856,"current_range_meters":3200,"station_id":"ce4bgpp2rcd13ifvqc3g","pricing_plan_id":"cebpf4jnsgd1na2vs0mg"},{"bike_id":"122c2f29-58cc-49f3-b731-cd42c27c3d77","system_id":"levelo_inurba_marseille","lat":43.286941,"lon":5.399846,"is_reserved":false,"is_disabled":false,"rental_uris":{"android":"levelo://app?vid=122c2f29-58cc-49f3-b731-cd42c27c3d77","ios":"levelo://app?vid=122c2f29-58cc-49f3-b731-cd42c27c3d77"},"vehicle_type_id":"4","last_reported":1743188856,"current_range_meters":3200,"station_id":"ce4bho92rcd13ifvqh3g","pricing_plan_id":"cebpf4jnsgd1na2vs0mg"},{"bike_id":"df680603-7e7a-4306-baa9-dbb5d5ec46e8","system_id":"levelo_inurba_marseille","lat":43.28662,"lon":5.35123,"is_reserved":false,"is_disabled":false,"rental_uris":{"android":"levelo://app?vid=df680603-7e7a-4306-baa9-dbb5d5ec46e8","ios":"levelo://app?vid=df680603-7e7a-4306-baa9-dbb5d5ec46e8"},"vehicle_type_id":"4","last_reported":1743188856,"current_range_meters":3200,"station_id":"ce4bhch2rcd13ifvqeug","pricing_plan_id":"cebpf4jnsgd1na2vs0mg"},{"bike_id":"14ea6ed8-ac92-48eb-80d5-394ec8f6a4e6","system_id":"levelo_inurba_marseille","lat":43.2963,"lon":5.40608,"is_reserved":false,"is_disabled":false,"rental_uris":{"android":"levelo://app?vid=14ea6ed8-ac92-48eb-80d5-394ec8f6a4e6","ios":"levelo://app?vid=14ea6ed8-ac92-48eb-80d5-394ec8f6a4e6"},"vehicle_type_id":"4","last_reported":1743188856,"current_range_meters":3200,"station_id":"ce4bh0h2rcd13ifvqd60","pricing_plan_id":"cebpf4jnsgd1na2vs0mg"},{"bike_id":"1c827acd-0c4e-4a8e-a515-60d2e38984d4","system_id":"levelo_inurba_marseille","lat":43.29992,"lon":5.37168,"is_reserved":false,"is_disabled":false,"rental_uris":{"android":"levelo://app?vid=1c827acd-0c4e-4a8e-a515-60d2e38984d4","ios":"levelo://app?vid=1c827acd-0c4e-4a8e-a515-60d2e38984d4"},"vehicle_type_id":"4","last_reported":1743188856,"current_range_meters":3200,"station_id":"ce4bgr92rcd13ifvqc7g","pricing_plan_id":"cebpf4jnsgd1na2vs0mg"},{"bike_id":"138a313c-4ce2-486d-9310-c114bf7f7065","system_id":"levelo_inurba_marseille","lat":43.28724,"lon":5.36092,"is_reserved":false,"is_disabled":false,"rental_uris":{"android":"levelo://app?vid=138a313c-4ce2-486d-9310-c114bf7f7065","ios":"levelo://app?vid=138a313c-4ce2-486d-9310-c114bf7f7065"},"vehicle_type_id":"4","last_reported":1743188856,"current_range_meters":3200,"station_id":"cki0cbj6b192h4jlfktg","pricing_plan_id":"cebpf4jnsgd1na2vs0mg"},{"bike_id":"23fa518d-7be8-44f7-b6f2-f161ce326fe8","system_id":"levelo_inurba_marseille","lat":43.31381,"lon":5.38502,"is_reserved":false,"is_disabled":false,"rental_uris":{"android":"levelo://app?vid=23fa518d-7be8-44f7-b6f2-f161ce326fe8","ios":"levelo://app?vid=23fa518d-7be8-44f7-b6f2-f161ce326fe8"},"vehicle_type_id":"4","last_reported":1743188856,"current_range_meters":3200,"station_id":"ce4bgt92rcd13ifvqcf0","pricing_plan_id":"cebpf4jnsgd1na2vs0mg"},{"bike_id":"dfe247ff-f096-4381-ab65-3209207c252d","system_id":"levelo_inurba_marseille","lat":43.311663,"lon":5.387186,"is_reserved":false,"is_disabled":false,"rental_uris":{"android":"levelo://app?vid=dfe247ff-f096-4381-ab65-3209207c252d","ios":"levelo://app?vid=dfe247ff-f096-4381-ab65-3209207c252d"},"vehicle_type_id":"4","last_reported":1743188856,"current_range_meters":3200,"station_id":"ce4bh392rcd13ifvqdl0","pricing_plan_id":"cebpf4jnsgd1na2vs0mg"},{"bike_id":"c588c85c-080f-4af3-982f-208188aa51d4","system_id":"levelo_inurba_marseille","lat":43.30928,"lon":5.40146,"is_reserved":false,"is_disabled":false,"rental_uris":{"android":"levelo://app?vid=c588c85c-080f-4af3-982f-208188aa51d4","ios":"levelo://app?vid=c588c85c-080f-4af3-982f-208188aa51d4"},"vehicle_type_id":"4","last_reported":1743188856,"current_range_meters":3200,"station_id":"ce4bgvp2rcd13ifvqct0","pricing_plan_id":"cebpf4jnsgd1na2vs0mg"},{"bike_id":"c14a8fc7-e8db-45ab-b563-5fdd959cef0f","system_id":"levelo_inurba_marseille","lat":43.26022,"lon":5.41767,"is_reserved":false,"is_disabled":false,"rental_uris":{"android":"levelo://app?vid=c14a8fc7-e8db-45ab-b563-5fdd959cef0f","ios":"levelo://app?vid=c14a8fc7-e8db-45ab-b563-5fdd959cef0f"},"vehicle_type_id":"4","last_reported":1743188856,"current_range_meters":3200,"station_id":"","pricing_plan_id":"cebpf4jnsgd1na2vs0mg"},{"bike_id":"27779e6e-b850-4dc9-97b3-f2bb7392514f","system_id":"levelo_inurba_marseille","lat":43.28941,"lon":5.36638,"is_reserved":false,"is_disabled":false,"rental_uris":{"android":"levelo://app?vid=27779e6e-b850-4dc9-97b3-f2bb7392514f","ios":"levelo://app?vid=27779e6e-b850-4dc9-97b3-f2bb7392514f"},"vehicle_type_id":"4","last_reported":1743188856,"current_range_meters":3200,"station_id":"ce4bhap2rcd13ifvqek0","pricing_plan_id":"cebpf4jnsgd1na2vs0mg"},{"bike_id":"5829c472-e34d-4e43-b241-17c691764d24","system_id":"levelo_inurba_marseille","lat":43.29285,"lon":5.3745,"is_reserved":false,"is_disabled":false,"rental_uris":{"android":"levelo://app?vid=5829c472-e34d-4e43-b241-17c691764d24","ios":"levelo://app?vid=5829c472-e34d-4e43-b241-17c691764d24"},"vehicle_type_id":"4","last_reported":1743188856,"current_range_meters":3600,"station_id":"ce4bgi12rcd13ifvqb70","pricing_plan_id":"cebpf4jnsgd1na2vs0mg"},{"bike_id":"e0d9a1dc-9c55-4256-a12c-b4996b2651ac","system_id":"levelo_inurba_marseille","lat":43.3032,"lon":5.40441,"is_reserved":false,"is_disabled":false,"rental_uris":{"android":"levelo://app?vid=e0d9a1dc-9c55-4256-a12c-b4996b2651ac","ios":"levelo://app?vid=e0d9a1dc-9c55-4256-a12c-b4996b2651ac"},"vehicle_type_id":"4","last_reported":1743188856,"current_range_meters":3600,"station_id":"ce4bh012rcd13ifvqd10","pricing_plan_id":"cebpf4jnsgd1na2vs0mg"},{"bike_id":"aebc8f4c-f879-4dc8-9f4c-0b0c46b42a69","system_id":"levelo_inurba_marseille","lat":43.31752,"lon":5.40456,"is_reserved":false,"is_disabled":false,"rental_uris":{"android":"levelo://app?vid=aebc8f4c-f879-4dc8-9f4c-0b0c46b42a69","ios":"levelo://app?vid=aebc8f4c-f879-4dc8-9f4c-0b0c46b42a69"},"vehicle_type_id":"4","last_reported":1743188856,"current_range_meters":3600,"station_id":"ce4bh012rcd13ifvqd00","pricing_plan_id":"cebpf4jnsgd1na2vs0mg"},{"bike_id":"4139fcc9-6dbd-4dda-903b-a3c9b1e99623","system_id":"levelo_inurba_marseille","lat":43.27379,"lon":5.36254,"is_reserved":false,"is_disabled":false,"rental_uris":{"android":"levelo://app?vid=4139fcc9-6dbd-4dda-903b-a3c9b1e99623","ios":"levelo://app?vid=4139fcc9-6dbd-4dda-903b-a3c9b1e99623"},"vehicle_type_id":"4","last_reported":1743188856,"current_range_meters":3600,"station_id":"ce4bhbh2rcd13ifvqeo0","pricing_plan_id":"cebpf4jnsgd1na2vs0mg"},{"bike_id":"257a3215-90dc-43b8-ba29-fad98546383f","system_id":"levelo_inurba_marseille","lat":43.30093,"lon":5.39086,"is_reserved":false,"is_disabled":false,"rental_uris":{"android":"levelo://app?vid=257a3215-90dc-43b8-ba29-fad98546383f","ios":"levelo://app?vid=257a3215-90dc-43b8-ba29-fad98546383f"},"vehicle_type_id":"4","last_reported":1743188856,"current_range_meters":3600,"station_id":"ce4bh192rcd13ifvqdb0","pricing_plan_id":"cebpf4jnsgd1na2vs0mg"},{"bike_id":"1a8c646f-d974-4990-9a65-b94f780161ce","system_id":"levelo_inurba_marseille","lat":43.29626,"lon":5.37732,"is_reserved":false,"is_disabled":false,"rental_uris":{"android":"levelo://app?vid=1a8c646f-d974-4990-9a65-b94f780161ce","ios":"levelo://app?vid=1a8c646f-d974-4990-9a65-b94f780161ce"},"vehicle_type_id":"4","last_reported":1743188856,"current_range_meters":3600,"station_id":"ce4bgi92rcd13ifvqb90","pricing_plan_id":"cebpf4jnsgd1na2vs0mg"},{"bike_id":"2b69840b-b968-4288-bbe8-b989fd40efb1","system_id":"levelo_inurba_marseille","lat":43.28473,"lon":5.38439,"is_reserved":false,"is_disabled":false,"rental_uris":{"android":"levelo://app?vid=2b69840b-b968-4288-bbe8-b989fd40efb1","ios":"levelo://app?vid=2b69840b-b968-4288-bbe8-b989fd40efb1"},"vehicle_type_id":"4","last_reported":1743188856,"current_range_meters":3600,"station_id":"ce4bh512rcd13ifvqe3g","pricing_plan_id":"cebpf4jnsgd1na2vs0mg"},{"bike_id":"3b6642fb-9a62-434c-9a78-b0bd182fc628","system_id":"levelo_inurba_marseille","lat":43.27899,"lon":5.41265,"is_reserved":false,"is_disabled":false,"rental_uris":{"android":"levelo://app?vid=3b6642fb-9a62-434c-9a78-b0bd182fc628","ios":"levelo://app?vid=3b6642fb-9a62-434c-9a78-b0bd182fc628"},"vehicle_type_id":"4","last_reported":1743188856,"current_range_meters":3600,"station_id":"","pricing_plan_id":"cebpf4jnsgd1na2vs0mg"},{"bike_id":"fc1816b5-e4ac-4d1c-a377-83fa8594bc49","system_id":"levelo_inurba_marseille","lat":43.26056,"lon":5.39397,"is_reserved":false,"is_disabled":false,"rental_uris":{"android":"levelo://app?vid=fc1816b5-e4ac-4d1c-a377-83fa8594bc49","ios":"levelo://app?vid=fc1816b5-e4ac-4d1c-a377-83fa8594bc49"},"vehicle_type_id":"4","last_reported":1743188856,"current_range_meters":3600,"station_id":"ce4bhh92rcd13ifvqfj0","pricing_plan_id":"cebpf4jnsgd1na2vs0mg"},{"bike_id":"17d0f0fd-7393-435f-8cf7-a14f368eb591","system_id":"levelo_inurba_marseille","lat":43.29395,"lon":5.3787,"is_reserved":false,"is_disabled":true,"rental_uris":{"android":"levelo://app?vid=17d0f0fd-7393-435f-8cf7-a14f368eb591","ios":"levelo://app?vid=17d0f0fd-7393-435f-8cf7-a14f368eb591"},"vehicle_type_id":"4","last_reported":1743188856,"current_range_meters":4000,"station_id":"ce4bgjh2rcd13ifvqbf0","pricing_plan_id":"cebpf4jnsgd1na2vs0mg"},{"bike_id":"d2b7095d-3dbd-42b6-b2ac-335eae96741f","system_id":"levelo_inurba_marseille","lat":43.27986,"lon":5.40025,"is_reserved":false,"is_disabled":false,"rental_uris":{"android":"levelo://app?vid=d2b7095d-3dbd-42b6-b2ac-335eae96741f","ios":"levelo://app?vid=d2b7095d-3dbd-42b6-b2ac-335eae96741f"},"vehicle_type_id":"4","last_reported":1743188856,"current_range_meters":4000,"station_id":"ce4bho92rcd13ifvqh4g","pricing_plan_id":"cebpf4jnsgd1na2vs0mg"},{"bike_id":"15d2b855-2a0b-48e4-adca-ec07567259f5","system_id":"levelo_inurba_marseille","lat":43.25723,"lon":5.41108,"is_reserved":false,"is_disabled":false,"rental_uris":{"android":"levelo://app?vid=15d2b855-2a0b-48e4-adca-ec07567259f5","ios":"levelo://app?vid=15d2b855-2a0b-48e4-adca-ec07567259f5"},"vehicle_type_id":"4","last_reported":1743188856,"current_range_meters":4000,"station_id":"ce4bhkp2rcd13ifvqgd0","pricing_plan_id":"cebpf4jnsgd1na2vs0mg"},{"bike_id":"58c58720-b361-46bb-b398-335ed29270df","system_id":"levelo_inurba_marseille","lat":43.29519,"lon":5.39043,"is_reserved":false,"is_disabled":false,"rental_uris":{"android":"levelo://app?vid=58c58720-b361-46bb-b398-335ed29270df","ios":"levelo://app?vid=58c58720-b361-46bb-b398-335ed29270df"},"vehicle_type_id":"4","last_reported":1743188856,"current_range_meters":4000,"station_id":"ce4bh3p2rcd13ifvqdp0","pricing_plan_id":"cebpf4jnsgd1na2vs0mg"},{"bike_id":"fa301892-584e-4a9c-8a96-6dcb606156c3","system_id":"levelo_inurba_marseille","lat":43.29007,"lon":5.35631,"is_reserved":false,"is_disabled":false,"rental_uris":{"android":"levelo://app?vid=fa301892-584e-4a9c-8a96-6dcb606156c3","ios":"levelo://app?vid=fa301892-584e-4a9c-8a96-6dcb606156c3"},"vehicle_type_id":"4","last_reported":1743188856,"current_range_meters":4000,"station_id":"ce4bhb92rcd13ifvqen0","pricing_plan_id":"cebpf4jnsgd1na2vs0mg"},{"bike_id":"d4af54d9-0eda-4975-97e7-8b907b8a3c46","system_id":"levelo_inurba_marseille","lat":43.29296,"lon":5.37467,"is_reserved":false,"is_disabled":false,"rental_uris":{"android":"levelo://app?vid=d4af54d9-0eda-4975-97e7-8b907b8a3c46","ios":"levelo://app?vid=d4af54d9-0eda-4975-97e7-8b907b8a3c46"},"vehicle_type_id":"4","last_reported":1743188856,"current_range_meters":4000,"station_id":"ce4bgi12rcd13ifvqb70","pricing_plan_id":"cebpf4jnsgd1na2vs0mg"},{"bike_id":"c18155db-65c7-4d5a-8c5b-923eb75c675d","system_id":"levelo_inurba_marseille","lat":43.321,"lon":5.36765,"is_reserved":false,"is_disabled":false,"rental_uris":{"android":"levelo://app?vid=c18155db-65c7-4d5a-8c5b-923eb75c675d","ios":"levelo://app?vid=c18155db-65c7-4d5a-8c5b-923eb75c675d"},"vehicle_type_id":"4","last_reported":1743188856,"current_range_meters":4000,"station_id":"ce4bhrh2rcd13ifvqhug","pricing_plan_id":"cebpf4jnsgd1na2vs0mg"},{"bike_id":"3ea0a308-34d8-42b8-bdba-4aa04ded5d74","system_id":"levelo_inurba_marseille","lat":43.29298,"lon":5.37456,"is_reserved":false,"is_disabled":false,"rental_uris":{"android":"levelo://app?vid=3ea0a308-34d8-42b8-bdba-4aa04ded5d74","ios":"levelo://app?vid=3ea0a308-34d8-42b8-bdba-4aa04ded5d74"},"vehicle_type_id":"4","last_reported":1743188856,"current_range_meters":4000,"station_id":"ce4bgi12rcd13ifvqb70","pricing_plan_id":"cebpf4jnsgd1na2vs0mg"},{"bike_id":"79e2eded-d039-4a5a-ace9-de01ec856c1e","system_id":"levelo_inurba_marseille","lat":43.29851,"lon":5.36284,"is_reserved":false,"is_disabled":false,"rental_uris":{"android":"levelo://app?vid=79e2eded-d039-4a5a-ace9-de01ec856c1e","ios":"levelo://app?vid=79e2eded-d039-4a5a-ace9-de01ec856c1e"},"vehicle_type_id":"4","last_reported":1743188856,"current_range_meters":4000,"station_id":"ce4bgpp2rcd13ifvqc3g","pricing_plan_id":"cebpf4jnsgd1na2vs0mg"},{"bike_id":"02c9841f-84bd-4e1c-ab19-2ecb14643797","system_id":"levelo_inurba_marseille","lat":43.30212,"lon":5.3947,"is_reserved":false,"is_disabled":false,"rental_uris":{"android":"levelo://app?vid=02c9841f-84bd-4e1c-ab19-2ecb14643797","ios":"levelo://app?vid=02c9841f-84bd-4e1c-ab19-2ecb14643797"},"vehicle_type_id":"4","last_reported":1743188856,"current_range_meters":4000,"station_id":"ce4bh0p2rcd13ifvqd70","pricing_plan_id":"cebpf4jnsgd1na2vs0mg"},{"bike_id":"64cf5bb5-2cd9-4368-b3b5-a9ae1acd6757","system_id":"levelo_inurba_marseille","lat":43.2586,"lon":5.39918,"is_reserved":false,"is_disabled":false,"rental_uris":{"android":"levelo://app?vid=64cf5bb5-2cd9-4368-b3b5-a9ae1acd6757","ios":"levelo://app?vid=64cf5bb5-2cd9-4368-b3b5-a9ae1acd6757"},"vehicle_type_id":"4","last_reported":1743188856,"current_range_meters":4000,"station_id":"ce4bhl92rcd13ifvqghg","pricing_plan_id":"cebpf4jnsgd1na2vs0mg"},{"bike_id":"88ccc783-6c10-4f51-a07e-fae70e5778d9","system_id":"levelo_inurba_marseille","lat":43.29845,"lon":5.36271,"is_reserved":false,"is_disabled":false,"rental_uris":{"android":"levelo://app?vid=88ccc783-6c10-4f51-a07e-fae70e5778d9","ios":"levelo://app?vid=88ccc783-6c10-4f51-a07e-fae70e5778d9"},"vehicle_type_id":"4","last_reported":1743188856,"current_range_meters":4000,"station_id":"ce4bgpp2rcd13ifvqc3g","pricing_plan_id":"cebpf4jnsgd1na2vs0mg"},{"bike_id":"09079ef4-9e65-4f56-9574-8c4ef8effbb0","system_id":"levelo_inurba_marseille","lat":43.301422,"lon":5.387845,"is_reserved":false,"is_disabled":false,"rental_uris":{"android":"levelo://app?vid=09079ef4-9e65-4f56-9574-8c4ef8effbb0","ios":"levelo://app?vid=09079ef4-9e65-4f56-9574-8c4ef8effbb0"},"vehicle_type_id":"4","last_reported":1743188856,"current_range_meters":4000,"station_id":"ce4bghh2rcd13ifvqb60","pricing_plan_id":"cebpf4jnsgd1na2vs0mg"},{"bike_id":"7a39ad0b-3f34-4dd4-843d-aed49a8df2bb","system_id":"levelo_inurba_marseille","lat":43.30908,"lon":5.36854,"is_reserved":false,"is_disabled":false,"rental_uris":{"android":"levelo://app?vid=7a39ad0b-3f34-4dd4-843d-aed49a8df2bb","ios":"levelo://app?vid=7a39ad0b-3f34-4dd4-843d-aed49a8df2bb"},"vehicle_type_id":"4","last_reported":1743188856,"current_range_meters":4400,"station_id":"ce4bgn92rcd13ifvqbvg","pricing_plan_id":"cebpf4jnsgd1na2vs0mg"},{"bike_id":"e0c5165a-c28f-4ae9-b972-68670fb80ff2","system_id":"levelo_inurba_marseille","lat":43.29721,"lon":5.38039,"is_reserved":false,"is_disabled":false,"rental_uris":{"android":"levelo://app?vid=e0c5165a-c28f-4ae9-b972-68670fb80ff2","ios":"levelo://app?vid=e0c5165a-c28f-4ae9-b972-68670fb80ff2"},"vehicle_type_id":"4","last_reported":1743188856,"current_range_meters":4400,"station_id":"ce4bgip2rcd13ifvqbb0","pricing_plan_id":"cebpf4jnsgd1na2vs0mg"},{"bike_id":"a860888b-15d6-4b4f-b90b-a653f2b938fa","system_id":"levelo_inurba_marseille","lat":43.28943,"lon":5.38408,"is_reserved":false,"is_disabled":false,"rental_uris":{"android":"levelo://app?vid=a860888b-15d6-4b4f-b90b-a653f2b938fa","ios":"levelo://app?vid=a860888b-15d6-4b4f-b90b-a653f2b938fa"},"vehicle_type_id":"4","last_reported":1743188856,"current_range_meters":4400,"station_id":"ce4bh612rcd13ifvqe6g","pricing_plan_id":"cebpf4jnsgd1na2vs0mg"},{"bike_id":"621af25b-a5f4-4b0b-b3cb-2d37d5ea4259","system_id":"levelo_inurba_marseille","lat":43.25715,"lon":5.4111,"is_reserved":false,"is_disabled":false,"rental_uris":{"android":"levelo://app?vid=621af25b-a5f4-4b0b-b3cb-2d37d5ea4259","ios":"levelo://app?vid=621af25b-a5f4-4b0b-b3cb-2d37d5ea4259"},"vehicle_type_id":"4","last_reported":1743188856,"current_range_meters":4400,"station_id":"ce4bhkp2rcd13ifvqgd0","pricing_plan_id":"cebpf4jnsgd1na2vs0mg"},{"bike_id":"f737d3f4-54ee-4b2b-8355-e324d404d358","system_id":"levelo_inurba_marseille","lat":43.2952,"lon":5.39042,"is_reserved":false,"is_disabled":false,"rental_uris":{"android":"levelo://app?vid=f737d3f4-54ee-4b2b-8355-e324d404d358","ios":"levelo://app?vid=f737d3f4-54ee-4b2b-8355-e324d404d358"},"vehicle_type_id":"4","last_reported":1743188856,"current_range_meters":4400,"station_id":"ce4bh3p2rcd13ifvqdp0","pricing_plan_id":"cebpf4jnsgd1na2vs0mg"},{"bike_id":"e5915009-d92f-4964-866d-74b2a7e05f97","system_id":"levelo_inurba_marseille","lat":43.31744,"lon":5.40469,"is_reserved":false,"is_disabled":false,"rental_uris":{"android":"levelo://app?vid=e5915009-d92f-4964-866d-74b2a7e05f97","ios":"levelo://app?vid=e5915009-d92f-4964-866d-74b2a7e05f97"},"vehicle_type_id":"4","last_reported":1743188856,"current_range_meters":4400,"station_id":"ce4bh012rcd13ifvqd00","pricing_plan_id":"cebpf4jnsgd1na2vs0mg"},{"bike_id":"56a72db2-99df-4092-9a02-605add4f9600","system_id":"levelo_inurba_marseille","lat":43.28858,"lon":5.35859,"is_reserved":false,"is_disabled":false,"rental_uris":{"android":"levelo://app?vid=56a72db2-99df-4092-9a02-605add4f9600","ios":"levelo://app?vid=56a72db2-99df-4092-9a02-605add4f9600"},"vehicle_type_id":"4","last_reported":1743188856,"current_range_meters":4400,"station_id":"ce4bhb12rcd13ifvqem0","pricing_plan_id":"cebpf4jnsgd1na2vs0mg"},{"bike_id":"c1d0feef-0e32-4668-aeb9-ddda8d5056dd","system_id":"levelo_inurba_marseille","lat":43.28,"lon":5.40017,"is_reserved":false,"is_disabled":false,"rental_uris":{"android":"levelo://app?vid=c1d0feef-0e32-4668-aeb9-ddda8d5056dd","ios":"levelo://app?vid=c1d0feef-0e32-4668-aeb9-ddda8d5056dd"},"vehicle_type_id":"4","last_reported":1743188856,"current_range_meters":4400,"station_id":"ce4bho92rcd13ifvqh4g","pricing_plan_id":"cebpf4jnsgd1na2vs0mg"},{"bike_id":"92e48aaa-60e5-4f63-9b9c-07ef18316aef","system_id":"levelo_inurba_marseille","lat":43.29865,"lon":5.39745,"is_reserved":false,"is_disabled":false,"rental_uris":{"android":"levelo://app?vid=92e48aaa-60e5-4f63-9b9c-07ef18316aef","ios":"levelo://app?vid=92e48aaa-60e5-4f63-9b9c-07ef18316aef"},"vehicle_type_id":"4","last_reported":1743188856,"current_range_meters":4400,"station_id":"ce4bh0h2rcd13ifvqd50","pricing_plan_id":"cebpf4jnsgd1na2vs0mg"},{"bike_id":"d43b2a86-10ae-42b3-8b7e-8bb72fd0fb1c","system_id":"levelo_inurba_marseille","lat":43.28841,"lon":5.35866,"is_reserved":false,"is_disabled":false,"rental_uris":{"android":"levelo://app?vid=d43b2a86-10ae-42b3-8b7e-8bb72fd0fb1c","ios":"levelo://app?vid=d43b2a86-10ae-42b3-8b7e-8bb72fd0fb1c"},"vehicle_type_id":"4","last_reported":1743188856,"current_range_meters":4400,"station_id":"ce4bhb12rcd13ifvqem0","pricing_plan_id":"cebpf4jnsgd1na2vs0mg"},{"bike_id":"bb1b022e-e63e-4631-81fc-5970482bae30","system_id":"levelo_inurba_marseille","lat":43.29161,"lon":5.37149,"is_reserved":false,"is_disabled":false,"rental_uris":{"android":"levelo://app?vid=bb1b022e-e63e-4631-81fc-5970482bae30","ios":"levelo://app?vid=bb1b022e-e63e-4631-81fc-5970482bae30"},"vehicle_type_id":"4","last_reported":1743188856,"current_range_meters":4400,"station_id":"ce4bha92rcd13ifvqeh0","pricing_plan_id":"cebpf4jnsgd1na2vs0mg"},{"bike_id":"e0bd8552-eaef-4342-bdcd-1df755c00099","system_id":"levelo_inurba_marseille","lat":43.26185,"lon":5.42077,"is_reserved":false,"is_disabled":false,"rental_uris":{"android":"levelo://app?vid=e0bd8552-eaef-4342-bdcd-1df755c00099","ios":"levelo://app?vid=e0bd8552-eaef-4342-bdcd-1df755c00099"},"vehicle_type_id":"4","last_reported":1743188856,"current_range_meters":4800,"station_id":"","pricing_plan_id":"cebpf4jnsgd1na2vs0mg"},{"bike_id":"bfc0d34a-169b-4791-bfef-bf0397eae8df","system_id":"levelo_inurba_marseille","lat":43.30794,"lon":5.38166,"is_reserved":false,"is_disabled":false,"rental_uris":{"android":"levelo://app?vid=bfc0d34a-169b-4791-bfef-bf0397eae8df","ios":"levelo://app?vid=bfc0d34a-169b-4791-bfef-bf0397eae8df"},"vehicle_type_id":"4","last_reported":1743188856,"current_range_meters":4800,"station_id":"ce4bgt12rcd13ifvqce0","pricing_plan_id":"cebpf4jnsgd1na2vs0mg"},{"bike_id":"edc258e8-317c-4494-a67c-0c8c1973af61","system_id":"levelo_inurba_marseille","lat":43.29027,"lon":5.38624,"is_reserved":false,"is_disabled":false,"rental_uris":{"android":"levelo://app?vid=edc258e8-317c-4494-a67c-0c8c1973af61","ios":"levelo://app?vid=edc258e8-317c-4494-a67c-0c8c1973af61"},"vehicle_type_id":"4","last_reported":1743188856,"current_range_meters":4800,"station_id":"ce4bh4p2rcd13ifvqe0g","pricing_plan_id":"cebpf4jnsgd1na2vs0mg"},{"bike_id":"2205b9b1-35f1-4bf1-9cdd-e17b5ac230ac","system_id":"levelo_inurba_marseille","lat":43.29516,"lon":5.39034,"is_reserved":false,"is_disabled":false,"rental_uris":{"android":"levelo://app?vid=2205b9b1-35f1-4bf1-9cdd-e17b5ac230ac","ios":"levelo://app?vid=2205b9b1-35f1-4bf1-9cdd-e17b5ac230ac"},"vehicle_type_id":"4","last_reported":1743188856,"current_range_meters":4800,"station_id":"ce4bh3p2rcd13ifvqdp0","pricing_plan_id":"cebpf4jnsgd1na2vs0mg"},{"bike_id":"52803407-c6ec-45bb-be39-30b5c2f46387","system_id":"levelo_inurba_marseille","lat":43.28697,"lon":5.360567,"is_reserved":false,"is_disabled":false,"rental_uris":{"android":"levelo://app?vid=52803407-c6ec-45bb-be39-30b5c2f46387","ios":"levelo://app?vid=52803407-c6ec-45bb-be39-30b5c2f46387"},"vehicle_type_id":"4","last_reported":1743188856,"current_range_meters":4800,"station_id":"cki0cbj6b192h4jlfktg","pricing_plan_id":"cebpf4jnsgd1na2vs0mg"},{"bike_id":"9b6b5664-07f9-450e-a946-ff576f414882","system_id":"levelo_inurba_marseille","lat":43.27974,"lon":5.38589,"is_reserved":false,"is_disabled":false,"rental_uris":{"android":"levelo://app?vid=9b6b5664-07f9-450e-a946-ff576f414882","ios":"levelo://app?vid=9b6b5664-07f9-450e-a946-ff576f414882"},"vehicle_type_id":"4","last_reported":1743188856,"current_range_meters":4800,"station_id":"","pricing_plan_id":"cebpf4jnsgd1na2vs0mg"},{"bike_id":"319b2b3a-29b9-484f-8b56-77b050f07ca8","system_id":"levelo_inurba_marseille","lat":43.32105,"lon":5.3677,"is_reserved":false,"is_disabled":false,"rental_uris":{"android":"levelo://app?vid=319b2b3a-29b9-484f-8b56-77b050f07ca8","ios":"levelo://app?vid=319b2b3a-29b9-484f-8b56-77b050f07ca8"},"vehicle_type_id":"4","last_reported":1743188856,"current_range_meters":4800,"station_id":"ce4bhrh2rcd13ifvqhug","pricing_plan_id":"cebpf4jnsgd1na2vs0mg"},{"bike_id":"e027eae9-aa0e-454c-b59e-018bf5f653e4","system_id":"levelo_inurba_marseille","lat":43.30306,"lon":5.36889,"is_reserved":false,"is_disabled":false,"rental_uris":{"android":"levelo://app?vid=e027eae9-aa0e-454c-b59e-018bf5f653e4","ios":"levelo://app?vid=e027eae9-aa0e-454c-b59e-018bf5f653e4"},"vehicle_type_id":"4","last_reported":1743188856,"current_range_meters":4800,"station_id":"ce4bgqh2rcd13ifvqc5g","pricing_plan_id":"cebpf4jnsgd1na2vs0mg"},{"bike_id":"85783a44-4a4d-4a90-a7aa-9905c4bc67df","system_id":"levelo_inurba_marseille","lat":43.29054,"lon":5.37161,"is_reserved":false,"is_disabled":false,"rental_uris":{"android":"levelo://app?vid=85783a44-4a4d-4a90-a7aa-9905c4bc67df","ios":"levelo://app?vid=85783a44-4a4d-4a90-a7aa-9905c4bc67df"},"vehicle_type_id":"4","last_reported":1743188856,"current_range_meters":4800,"station_id":"ce4bh5p2rcd13ifvqe4g","pricing_plan_id":"cebpf4jnsgd1na2vs0mg"},{"bike_id":"89c71c96-b5d7-4d7c-8789-e8f3f60ba850","system_id":"levelo_inurba_marseille","lat":43.26068,"lon":5.39389,"is_reserved":false,"is_disabled":false,"rental_uris":{"android":"levelo://app?vid=89c71c96-b5d7-4d7c-8789-e8f3f60ba850","ios":"levelo://app?vid=89c71c96-b5d7-4d7c-8789-e8f3f60ba850"},"vehicle_type_id":"4","last_reported":1743188856,"current_range_meters":5600,"station_id":"ce4bhh92rcd13ifvqfj0","pricing_plan_id":"cebpf4jnsgd1na2vs0mg"},{"bike_id":"fe916a8f-0f5c-440f-9b6d-376e7d656c23","system_id":"levelo_inurba_marseille","lat":43.29936,"lon":5.36542,"is_reserved":false,"is_disabled":false,"rental_uris":{"android":"levelo://app?vid=fe916a8f-0f5c-440f-9b6d-376e7d656c23","ios":"levelo://app?vid=fe916a8f-0f5c-440f-9b6d-376e7d656c23"},"vehicle_type_id":"4","last_reported":1743188856,"current_range_meters":5600,"station_id":"ce4bgm92rcd13ifvqbr0","pricing_plan_id":"cebpf4jnsgd1na2vs0mg"},{"bike_id":"8489e4b8-7251-466a-98ef-b6dcd82094be","system_id":"levelo_inurba_marseille","lat":43.29418,"lon":5.38628,"is_reserved":false,"is_disabled":false,"rental_uris":{"android":"levelo://app?vid=8489e4b8-7251-466a-98ef-b6dcd82094be","ios":"levelo://app?vid=8489e4b8-7251-466a-98ef-b6dcd82094be"},"vehicle_type_id":"4","last_reported":1743188856,"current_range_meters":5600,"station_id":"ce4bh2h2rcd13ifvqdh0","pricing_plan_id":"cebpf4jnsgd1na2vs0mg"},{"bike_id":"01df9f53-82f0-443f-9088-43e667c1a144","system_id":"levelo_inurba_marseille","lat":43.29027,"lon":5.38641,"is_reserved":false,"is_disabled":false,"rental_uris":{"android":"levelo://app?vid=01df9f53-82f0-443f-9088-43e667c1a144","ios":"levelo://app?vid=01df9f53-82f0-443f-9088-43e667c1a144"},"vehicle_type_id":"4","last_reported":1743188856,"current_range_meters":5600,"station_id":"ce4bh4p2rcd13ifvqe0g","pricing_plan_id":"cebpf4jnsgd1na2vs0mg"},{"bike_id":"633ece5c-ec93-48b3-a472-f7dd03177551","system_id":"levelo_inurba_marseille","lat":43.30427,"lon":5.41323,"is_reserved":false,"is_disabled":false,"rental_uris":{"android":"levelo://app?vid=633ece5c-ec93-48b3-a472-f7dd03177551","ios":"levelo://app?vid=633ece5c-ec93-48b3-a472-f7dd03177551"},"vehicle_type_id":"4","last_reported":1743188856,"current_range_meters":5600,"station_id":"ce4bhop2rcd13ifvqh8g","pricing_plan_id":"cebpf4jnsgd1na2vs0mg"},{"bike_id":"9108efae-73e9-412e-8196-cfca317be609","system_id":"levelo_inurba_marseille","lat":43.29305,"lon":5.37184,"is_reserved":false,"is_disabled":true,"rental_uris":{"android":"levelo://app?vid=9108efae-73e9-412e-8196-cfca317be609","ios":"levelo://app?vid=9108efae-73e9-412e-8196-cfca317be609"},"vehicle_type_id":"4","last_reported":1743188856,"current_range_meters":5600,"station_id":"ce4bgh92rcd13ifvqb40","pricing_plan_id":"cebpf4jnsgd1na2vs0mg"},{"bike_id":"a89dbc6a-f05f-4338-8502-4ff49db95eca","system_id":"levelo_inurba_marseille","lat":43.299805,"lon":5.371658,"is_reserved":false,"is_disabled":false,"rental_uris":{"android":"levelo://app?vid=a89dbc6a-f05f-4338-8502-4ff49db95eca","ios":"levelo://app?vid=a89dbc6a-f05f-4338-8502-4ff49db95eca"},"vehicle_type_id":"4","last_reported":1743188856,"current_range_meters":5600,"station_id":"ce4bgr92rcd13ifvqc7g","pricing_plan_id":"cebpf4jnsgd1na2vs0mg"},{"bike_id":"ddf1f4aa-b81f-455d-9786-699f81869166","system_id":"levelo_inurba_marseille","lat":43.302721,"lon":5.364658,"is_reserved":false,"is_disabled":false,"rental_uris":{"android":"levelo://app?vid=ddf1f4aa-b81f-455d-9786-699f81869166","ios":"levelo://app?vid=ddf1f4aa-b81f-455d-9786-699f81869166"},"vehicle_type_id":"4","last_reported":1743188856,"current_range_meters":5600,"station_id":"ce4bgs12rcd13ifvqcag","pricing_plan_id":"cebpf4jnsgd1na2vs0mg"},{"bike_id":"5865fd64-38f1-48e8-901b-ec26f9a465c4","system_id":"levelo_inurba_marseille","lat":43.29777,"lon":5.38071,"is_reserved":false,"is_disabled":false,"rental_uris":{"android":"levelo://app?vid=5865fd64-38f1-48e8-901b-ec26f9a465c4","ios":"levelo://app?vid=5865fd64-38f1-48e8-901b-ec26f9a465c4"},"vehicle_type_id":"4","last_reported":1743188856,"current_range_meters":5600,"station_id":"ce4bgip2rcd13ifvqbb0","pricing_plan_id":"cebpf4jnsgd1na2vs0mg"},{"bike_id":"9a24882b-28f2-41f4-8641-125a49f1a5d7","system_id":"levelo_inurba_marseille","lat":43.29372,"lon":5.37842,"is_reserved":false,"is_disabled":false,"rental_uris":{"android":"levelo://app?vid=9a24882b-28f2-41f4-8641-125a49f1a5d7","ios":"levelo://app?vid=9a24882b-28f2-41f4-8641-125a49f1a5d7"},"vehicle_type_id":"4","last_reported":1743188856,"current_range_meters":5600,"station_id":"ce4bgjh2rcd13ifvqbf0","pricing_plan_id":"cebpf4jnsgd1na2vs0mg"},{"bike_id":"cf49318e-b0f4-4cea-92f2-6aff2f4e5c78","system_id":"levelo_inurba_marseille","lat":43.29221,"lon":5.35844,"is_reserved":false,"is_disabled":false,"rental_uris":{"android":"levelo://app?vid=cf49318e-b0f4-4cea-92f2-6aff2f4e5c78","ios":"levelo://app?vid=cf49318e-b0f4-4cea-92f2-6aff2f4e5c78"},"vehicle_type_id":"4","last_reported":1743188856,"current_range_meters":5600,"station_id":"ce4bhb12rcd13ifvqel0","pricing_plan_id":"cebpf4jnsgd1na2vs0mg"},{"bike_id":"180a9818-f968-4968-9c9c-f1f270d5f1d5","system_id":"levelo_inurba_marseille","lat":43.3088,"lon":5.39635,"is_reserved":false,"is_disabled":false,"rental_uris":{"android":"levelo://app?vid=180a9818-f968-4968-9c9c-f1f270d5f1d5","ios":"levelo://app?vid=180a9818-f968-4968-9c9c-f1f270d5f1d5"},"vehicle_type_id":"4","last_reported":1743188856,"current_range_meters":5600,"station_id":"ce4bh012rcd13ifvqcv0","pricing_plan_id":"cebpf4jnsgd1na2vs0mg"},{"bike_id":"98b091a0-a7a0-44bb-80af-c78ee11e61b5","system_id":"levelo_inurba_marseille","lat":43.311146,"lon":5.388738,"is_reserved":false,"is_disabled":false,"rental_uris":{"android":"levelo://app?vid=98b091a0-a7a0-44bb-80af-c78ee11e61b5","ios":"levelo://app?vid=98b091a0-a7a0-44bb-80af-c78ee11e61b5"},"vehicle_type_id":"4","last_reported":1743188856,"current_range_meters":5600,"station_id":"ce4bgv12rcd13ifvqcp0","pricing_plan_id":"cebpf4jnsgd1na2vs0mg"},{"bike_id":"1b49afde-e8c6-4a37-95eb-caa7d76f7ff4","system_id":"levelo_inurba_marseille","lat":43.29271,"lon":5.38448,"is_reserved":false,"is_disabled":false,"rental_uris":{"android":"levelo://app?vid=1b49afde-e8c6-4a37-95eb-caa7d76f7ff4","ios":"levelo://app?vid=1b49afde-e8c6-4a37-95eb-caa7d76f7ff4"},"vehicle_type_id":"4","last_reported":1743188856,"current_range_meters":5600,"station_id":"ce4bh692rcd13ifvqea0","pricing_plan_id":"cebpf4jnsgd1na2vs0mg"},{"bike_id":"8610c0a7-54e0-46b6-b97c-eb43fd27f9ca","system_id":"levelo_inurba_marseille","lat":43.29637,"lon":5.3802,"is_reserved":false,"is_disabled":false,"rental_uris":{"android":"levelo://app?vid=8610c0a7-54e0-46b6-b97c-eb43fd27f9ca","ios":"levelo://app?vid=8610c0a7-54e0-46b6-b97c-eb43fd27f9ca"},"vehicle_type_id":"4","last_reported":1743188856,"current_range_meters":5600,"station_id":"","pricing_plan_id":"cebpf4jnsgd1na2vs0mg"},{"bike_id":"fc8e8371-f4e9-4721-bc19-563801e389dc","system_id":"levelo_inurba_marseille","lat":43.337444,"lon":5.374475,"is_reserved":false,"is_disabled":false,"rental_uris":{"android":"levelo://app?vid=fc8e8371-f4e9-4721-bc19-563801e389dc","ios":"levelo://app?vid=fc8e8371-f4e9-4721-bc19-563801e389dc"},"vehicle_type_id":"4","last_reported":1743188856,"current_range_meters":5600,"station_id":"","pricing_plan_id":"cebpf4jnsgd1na2vs0mg"},{"bike_id":"e88679a9-51cb-48d0-aa46-7487c0509841","system_id":"levelo_inurba_marseille","lat":43.2549,"lon":5.37672,"is_reserved":false,"is_disabled":false,"rental_uris":{"android":"levelo://app?vid=e88679a9-51cb-48d0-aa46-7487c0509841","ios":"levelo://app?vid=e88679a9-51cb-48d0-aa46-7487c0509841"},"vehicle_type_id":"4","last_reported":1743188856,"current_range_meters":6000,"station_id":"ce4bhh12rcd13ifvqff0","pricing_plan_id":"cebpf4jnsgd1na2vs0mg"},{"bike_id":"5108acd2-4946-4532-86b0-ec6feec79213","system_id":"levelo_inurba_marseille","lat":43.29932,"lon":5.38535,"is_reserved":false,"is_disabled":false,"rental_uris":{"android":"levelo://app?vid=5108acd2-4946-4532-86b0-ec6feec79213","ios":"levelo://app?vid=5108acd2-4946-4532-86b0-ec6feec79213"},"vehicle_type_id":"4","last_reported":1743188856,"current_range_meters":6000,"station_id":"ce4bgj92rcd13ifvqbd0","pricing_plan_id":"cebpf4jnsgd1na2vs0mg"},{"bike_id":"cd33a25c-6d5d-458c-b963-f07a263b824c","system_id":"levelo_inurba_marseille","lat":43.25112,"lon":5.40318,"is_reserved":false,"is_disabled":false,"rental_uris":{"android":"levelo://app?vid=cd33a25c-6d5d-458c-b963-f07a263b824c","ios":"levelo://app?vid=cd33a25c-6d5d-458c-b963-f07a263b824c"},"vehicle_type_id":"4","last_reported":1743188856,"current_range_meters":6000,"station_id":"ce4bhlh2rcd13ifvqgig","pricing_plan_id":"cebpf4jnsgd1na2vs0mg"},{"bike_id":"dc9f6c77-18fc-478d-8940-bb8be13e202d","system_id":"levelo_inurba_marseille","lat":43.28267,"lon":5.35074,"is_reserved":false,"is_disabled":false,"rental_uris":{"android":"levelo://app?vid=dc9f6c77-18fc-478d-8940-bb8be13e202d","ios":"levelo://app?vid=dc9f6c77-18fc-478d-8940-bb8be13e202d"},"vehicle_type_id":"4","last_reported":1743188856,"current_range_meters":6000,"station_id":"ce4bhbp2rcd13ifvqerg","pricing_plan_id":"cebpf4jnsgd1na2vs0mg"},{"bike_id":"98389b4e-4b97-4a62-ae89-ccf2a89cef94","system_id":"levelo_inurba_marseille","lat":43.295162,"lon":5.393866,"is_reserved":false,"is_disabled":false,"rental_uris":{"android":"levelo://app?vid=98389b4e-4b97-4a62-ae89-ccf2a89cef94","ios":"levelo://app?vid=98389b4e-4b97-4a62-ae89-ccf2a89cef94"},"vehicle_type_id":"4","last_reported":1743188856,"current_range_meters":6000,"station_id":"ce4bh292rcd13ifvqdf0","pricing_plan_id":"cebpf4jnsgd1na2vs0mg"},{"bike_id":"df506d69-bbdf-4309-9d5a-50c47979321b","system_id":"levelo_inurba_marseille","lat":43.293179,"lon":5.371803,"is_reserved":false,"is_disabled":false,"rental_uris":{"android":"levelo://app?vid=df506d69-bbdf-4309-9d5a-50c47979321b","ios":"levelo://app?vid=df506d69-bbdf-4309-9d5a-50c47979321b"},"vehicle_type_id":"4","last_reported":1743188856,"current_range_meters":6000,"station_id":"ce4bgh92rcd13ifvqb40","pricing_plan_id":"cebpf4jnsgd1na2vs0mg"},{"bike_id":"47feb65c-f169-4ddb-acd8-e03c6183bd16","system_id":"levelo_inurba_marseille","lat":43.28444,"lon":5.38388,"is_reserved":false,"is_disabled":false,"rental_uris":{"android":"levelo://app?vid=47feb65c-f169-4ddb-acd8-e03c6183bd16","ios":"levelo://app?vid=47feb65c-f169-4ddb-acd8-e03c6183bd16"},"vehicle_type_id":"4","last_reported":1743188856,"current_range_meters":6000,"station_id":"ce4bh512rcd13ifvqe3g","pricing_plan_id":"cebpf4jnsgd1na2vs0mg"},{"bike_id":"1ac7b17d-b259-48d8-a948-4866c4fe1d8a","system_id":"levelo_inurba_marseille","lat":43.28264,"lon":5.35066,"is_reserved":false,"is_disabled":false,"rental_uris":{"android":"levelo://app?vid=1ac7b17d-b259-48d8-a948-4866c4fe1d8a","ios":"levelo://app?vid=1ac7b17d-b259-48d8-a948-4866c4fe1d8a"},"vehicle_type_id":"4","last_reported":1743188856,"current_range_meters":6000,"station_id":"ce4bhbp2rcd13ifvqerg","pricing_plan_id":"cebpf4jnsgd1na2vs0mg"},{"bike_id":"fb94d37c-a5f0-424c-9c95-a0f43cd760b8","system_id":"levelo_inurba_marseille","lat":43.3042,"lon":5.39735,"is_reserved":false,"is_disabled":true,"rental_uris":{"android":"levelo://app?vid=fb94d37c-a5f0-424c-9c95-a0f43cd760b8","ios":"levelo://app?vid=fb94d37c-a5f0-424c-9c95-a0f43cd760b8"},"vehicle_type_id":"4","last_reported":1743188856,"current_range_meters":6000,"station_id":"ce4bh092rcd13ifvqd20","pricing_plan_id":"cebpf4jnsgd1na2vs0mg"},{"bike_id":"103ee4d1-f5cd-4f9f-b401-4ce0655708d9","system_id":"levelo_inurba_marseille","lat":43.29714,"lon":5.37689,"is_reserved":false,"is_disabled":false,"rental_uris":{"android":"levelo://app?vid=103ee4d1-f5cd-4f9f-b401-4ce0655708d9","ios":"levelo://app?vid=103ee4d1-f5cd-4f9f-b401-4ce0655708d9"},"vehicle_type_id":"4","last_reported":1743188856,"current_range_meters":6000,"station_id":"ce4bgkh2rcd13ifvqbl0","pricing_plan_id":"cebpf4jnsgd1na2vs0mg"},{"bike_id":"3e902ab3-ff20-4477-86ac-c45289de600e","system_id":"levelo_inurba_marseille","lat":43.32285,"lon":5.38274,"is_reserved":false,"is_disabled":false,"rental_uris":{"android":"levelo://app?vid=3e902ab3-ff20-4477-86ac-c45289de600e","ios":"levelo://app?vid=3e902ab3-ff20-4477-86ac-c45289de600e"},"vehicle_type_id":"4","last_reported":1743188856,"current_range_meters":6400,"station_id":"ce4bhr12rcd13ifvqhqg","pricing_plan_id":"cebpf4jnsgd1na2vs0mg"},{"bike_id":"df6ce8dc-4123-4a4d-87e0-ef07c773a6c7","system_id":"levelo_inurba_marseille","lat":43.29231,"lon":5.36063,"is_reserved":false,"is_disabled":false,"rental_uris":{"android":"levelo://app?vid=df6ce8dc-4123-4a4d-87e0-ef07c773a6c7","ios":"levelo://app?vid=df6ce8dc-4123-4a4d-87e0-ef07c773a6c7"},"vehicle_type_id":"4","last_reported":1743188856,"current_range_meters":6400,"station_id":"ce4bhbh2rcd13ifvqeqg","pricing_plan_id":"cebpf4jnsgd1na2vs0mg"},{"bike_id":"f0572f02-d22d-49f0-8f0c-6b0e312e89eb","system_id":"levelo_inurba_marseille","lat":43.31365,"lon":5.38501,"is_reserved":false,"is_disabled":false,"rental_uris":{"android":"levelo://app?vid=f0572f02-d22d-49f0-8f0c-6b0e312e89eb","ios":"levelo://app?vid=f0572f02-d22d-49f0-8f0c-6b0e312e89eb"},"vehicle_type_id":"4","last_reported":1743188856,"current_range_meters":6400,"station_id":"ce4bgt92rcd13ifvqcf0","pricing_plan_id":"cebpf4jnsgd1na2vs0mg"},{"bike_id":"0e5e5748-c015-40c6-a777-6c34cd9bcecb","system_id":"levelo_inurba_marseille","lat":43.30622,"lon":5.37238,"is_reserved":false,"is_disabled":false,"rental_uris":{"android":"levelo://app?vid=0e5e5748-c015-40c6-a777-6c34cd9bcecb","ios":"levelo://app?vid=0e5e5748-c015-40c6-a777-6c34cd9bcecb"},"vehicle_type_id":"4","last_reported":1743188856,"current_range_meters":6400,"station_id":"ce4bgqh2rcd13ifvqc4g","pricing_plan_id":"cebpf4jnsgd1na2vs0mg"},{"bike_id":"19221227-42ec-4f4b-8f04-42a0818e22f5","system_id":"levelo_inurba_marseille","lat":43.32106,"lon":5.36775,"is_reserved":false,"is_disabled":false,"rental_uris":{"android":"levelo://app?vid=19221227-42ec-4f4b-8f04-42a0818e22f5","ios":"levelo://app?vid=19221227-42ec-4f4b-8f04-42a0818e22f5"},"vehicle_type_id":"4","last_reported":1743188856,"current_range_meters":6400,"station_id":"ce4bhrh2rcd13ifvqhug","pricing_plan_id":"cebpf4jnsgd1na2vs0mg"},{"bike_id":"3f1dcd04-9c5a-4c09-abff-3f816d9b566d","system_id":"levelo_inurba_marseille","lat":43.29702,"lon":5.37642,"is_reserved":false,"is_disabled":false,"rental_uris":{"android":"levelo://app?vid=3f1dcd04-9c5a-4c09-abff-3f816d9b566d","ios":"levelo://app?vid=3f1dcd04-9c5a-4c09-abff-3f816d9b566d"},"vehicle_type_id":"4","last_reported":1743188856,"current_range_meters":6400,"station_id":"ce4bgkh2rcd13ifvqbl0","pricing_plan_id":"cebpf4jnsgd1na2vs0mg"},{"bike_id":"0abd646e-b77c-40fc-bfe9-34525ac9b454","system_id":"levelo_inurba_marseille","lat":43.28076,"lon":5.36961,"is_reserved":false,"is_disabled":false,"rental_uris":{"android":"levelo://app?vid=0abd646e-b77c-40fc-bfe9-34525ac9b454","ios":"levelo://app?vid=0abd646e-b77c-40fc-bfe9-34525ac9b454"},"vehicle_type_id":"4","last_reported":1743188856,"current_range_meters":6400,"station_id":"ce4bha12rcd13ifvqef0","pricing_plan_id":"cebpf4jnsgd1na2vs0mg"},{"bike_id":"8306ff47-284b-460f-888b-6204683b7222","system_id":"levelo_inurba_marseille","lat":43.28731,"lon":5.36093,"is_reserved":false,"is_disabled":false,"rental_uris":{"android":"levelo://app?vid=8306ff47-284b-460f-888b-6204683b7222","ios":"levelo://app?vid=8306ff47-284b-460f-888b-6204683b7222"},"vehicle_type_id":"4","last_reported":1743188856,"current_range_meters":6400,"station_id":"cki0cbj6b192h4jlfktg","pricing_plan_id":"cebpf4jnsgd1na2vs0mg"},{"bike_id":"653f4403-c5cd-4032-b5a8-482768e38f5f","system_id":"levelo_inurba_marseille","lat":43.23959,"lon":5.36625,"is_reserved":false,"is_disabled":false,"rental_uris":{"android":"levelo://app?vid=653f4403-c5cd-4032-b5a8-482768e38f5f","ios":"levelo://app?vid=653f4403-c5cd-4032-b5a8-482768e38f5f"},"vehicle_type_id":"4","last_reported":1743188856,"current_range_meters":6800,"station_id":"ce4bhi12rcd13ifvqfp0","pricing_plan_id":"cebpf4jnsgd1na2vs0mg"},{"bike_id":"f9ebe085-48c7-4158-874f-5a8454babba9","system_id":"levelo_inurba_marseille","lat":43.2978,"lon":5.39348,"is_reserved":false,"is_disabled":false,"rental_uris":{"android":"levelo://app?vid=f9ebe085-48c7-4158-874f-5a8454babba9","ios":"levelo://app?vid=f9ebe085-48c7-4158-874f-5a8454babba9"},"vehicle_type_id":"4","last_reported":1743188856,"current_range_meters":6800,"station_id":"chh1huq6cuj3fo74tm60","pricing_plan_id":"cebpf4jnsgd1na2vs0mg"},{"bike_id":"7fe9a38f-4d97-49ec-8db6-139f7c5ded5a","system_id":"levelo_inurba_marseille","lat":43.28905,"lon":5.36574,"is_reserved":false,"is_disabled":false,"rental_uris":{"android":"levelo://app?vid=7fe9a38f-4d97-49ec-8db6-139f7c5ded5a","ios":"levelo://app?vid=7fe9a38f-4d97-49ec-8db6-139f7c5ded5a"},"vehicle_type_id":"4","last_reported":1743188856,"current_range_meters":6800,"station_id":"","pricing_plan_id":"cebpf4jnsgd1na2vs0mg"},{"bike_id":"a3514274-c949-4c91-b768-3857fda27d00","system_id":"levelo_inurba_marseille","lat":43.28617,"lon":5.37039,"is_reserved":false,"is_disabled":false,"rental_uris":{"android":"levelo://app?vid=a3514274-c949-4c91-b768-3857fda27d00","ios":"levelo://app?vid=a3514274-c949-4c91-b768-3857fda27d00"},"vehicle_type_id":"4","last_reported":1743188856,"current_range_meters":6800,"station_id":"ce4bht12rcd13ifvqi60","pricing_plan_id":"cebpf4jnsgd1na2vs0mg"},{"bike_id":"ddca8a28-c998-4dcc-9e8a-b00f12e90675","system_id":"levelo_inurba_marseille","lat":43.29828,"lon":5.36284,"is_reserved":false,"is_disabled":false,"rental_uris":{"android":"levelo://app?vid=ddca8a28-c998-4dcc-9e8a-b00f12e90675","ios":"levelo://app?vid=ddca8a28-c998-4dcc-9e8a-b00f12e90675"},"vehicle_type_id":"4","last_reported":1743188856,"current_range_meters":3600,"station_id":"ce4bgpp2rcd13ifvqc3g","pricing_plan_id":"cebpf4jnsgd1na2vs0mg"},{"bike_id":"fd3421f3-9336-4d90-b616-c4936932ff9c","system_id":"levelo_inurba_marseille","lat":43.33054,"lon":5.39221,"is_reserved":false,"is_disabled":false,"rental_uris":{"android":"levelo://app?vid=fd3421f3-9336-4d90-b616-c4936932ff9c","ios":"levelo://app?vid=fd3421f3-9336-4d90-b616-c4936932ff9c"},"vehicle_type_id":"4","last_reported":1743188856,"current_range_meters":6800,"station_id":"","pricing_plan_id":"cebpf4jnsgd1na2vs0mg"},{"bike_id":"ff227d98-9847-46f3-b75a-9acad66b2f22","system_id":"levelo_inurba_marseille","lat":43.28672,"lon":5.3867,"is_reserved":false,"is_disabled":false,"rental_uris":{"android":"levelo://app?vid=ff227d98-9847-46f3-b75a-9acad66b2f22","ios":"levelo://app?vid=ff227d98-9847-46f3-b75a-9acad66b2f22"},"vehicle_type_id":"4","last_reported":1743188856,"current_range_meters":6800,"station_id":"ce4bh492rcd13ifvqdug","pricing_plan_id":"cebpf4jnsgd1na2vs0mg"},{"bike_id":"70d616e3-8eca-4707-9218-38d2fbdccab2","system_id":"levelo_inurba_marseille","lat":43.295304,"lon":5.375047,"is_reserved":false,"is_disabled":true,"rental_uris":{"android":"levelo://app?vid=70d616e3-8eca-4707-9218-38d2fbdccab2","ios":"levelo://app?vid=70d616e3-8eca-4707-9218-38d2fbdccab2"},"vehicle_type_id":"4","last_reported":1743188856,"current_range_meters":6800,"station_id":"ce4bgkp2rcd13ifvqbmg","pricing_plan_id":"cebpf4jnsgd1na2vs0mg"},{"bike_id":"0ac88cdf-dd3a-494f-aaa5-2b24d1ce393f","system_id":"levelo_inurba_marseille","lat":43.232,"lon":5.35568,"is_reserved":false,"is_disabled":false,"rental_uris":{"android":"levelo://app?vid=0ac88cdf-dd3a-494f-aaa5-2b24d1ce393f","ios":"levelo://app?vid=0ac88cdf-dd3a-494f-aaa5-2b24d1ce393f"},"vehicle_type_id":"4","last_reported":1743188856,"current_range_meters":6800,"station_id":"ce4bhu92rcd13ifvqi70","pricing_plan_id":"cebpf4jnsgd1na2vs0mg"},{"bike_id":"64f0ea86-1180-4755-95e1-3cbc9c8d4cf5","system_id":"levelo_inurba_marseille","lat":43.33036,"lon":5.43893,"is_reserved":false,"is_disabled":true,"rental_uris":{"android":"levelo://app?vid=64f0ea86-1180-4755-95e1-3cbc9c8d4cf5","ios":"levelo://app?vid=64f0ea86-1180-4755-95e1-3cbc9c8d4cf5"},"vehicle_type_id":"4","last_reported":1743188856,"current_range_meters":6800,"station_id":"","pricing_plan_id":"cebpf4jnsgd1na2vs0mg"},{"bike_id":"da3eb438-3d64-4408-a000-004cd5b861d5","system_id":"levelo_inurba_marseille","lat":43.27507,"lon":5.42465,"is_reserved":false,"is_disabled":false,"rental_uris":{"android":"levelo://app?vid=da3eb438-3d64-4408-a000-004cd5b861d5","ios":"levelo://app?vid=da3eb438-3d64-4408-a000-004cd5b861d5"},"vehicle_type_id":"4","last_reported":1743188856,"current_range_meters":6800,"station_id":"ce4bhn92rcd13ifvqgrg","pricing_plan_id":"cebpf4jnsgd1na2vs0mg"},{"bike_id":"823ed71e-8bd6-4293-8b8a-32f3bfb8b429","system_id":"levelo_inurba_marseille","lat":43.2998,"lon":5.37169,"is_reserved":false,"is_disabled":false,"rental_uris":{"android":"levelo://app?vid=823ed71e-8bd6-4293-8b8a-32f3bfb8b429","ios":"levelo://app?vid=823ed71e-8bd6-4293-8b8a-32f3bfb8b429"},"vehicle_type_id":"4","last_reported":1743188856,"current_range_meters":6800,"station_id":"ce4bgr92rcd13ifvqc7g","pricing_plan_id":"cebpf4jnsgd1na2vs0mg"},{"bike_id":"1cb0a525-92c8-41f8-b63f-7b8f1bf72f71","system_id":"levelo_inurba_marseille","lat":43.29914,"lon":5.38159,"is_reserved":false,"is_disabled":false,"rental_uris":{"android":"levelo://app?vid=1cb0a525-92c8-41f8-b63f-7b8f1bf72f71","ios":"levelo://app?vid=1cb0a525-92c8-41f8-b63f-7b8f1bf72f71"},"vehicle_type_id":"4","last_reported":1743188856,"current_range_meters":7200,"station_id":"ce4bgj12rcd13ifvqbc0","pricing_plan_id":"cebpf4jnsgd1na2vs0mg"},{"bike_id":"961245ca-8d90-4d71-b735-61afea929100","system_id":"levelo_inurba_marseille","lat":43.241654,"lon":5.364092,"is_reserved":false,"is_disabled":false,"rental_uris":{"android":"levelo://app?vid=961245ca-8d90-4d71-b735-61afea929100","ios":"levelo://app?vid=961245ca-8d90-4d71-b735-61afea929100"},"vehicle_type_id":"4","last_reported":1743188856,"current_range_meters":7200,"station_id":"cpo36qri1sfpv3e86is0","pricing_plan_id":"cebpf4jnsgd1na2vs0mg"},{"bike_id":"ec940620-2a09-4eae-aace-1a0a72b62180","system_id":"levelo_inurba_marseille","lat":43.30279,"lon":5.40075,"is_reserved":false,"is_disabled":false,"rental_uris":{"android":"levelo://app?vid=ec940620-2a09-4eae-aace-1a0a72b62180","ios":"levelo://app?vid=ec940620-2a09-4eae-aace-1a0a72b62180"},"vehicle_type_id":"4","last_reported":1743188856,"current_range_meters":7200,"station_id":"ce4bgvh2rcd13ifvqcs0","pricing_plan_id":"cebpf4jnsgd1na2vs0mg"},{"bike_id":"db6fa88f-faac-4bc1-9905-5688fcab271c","system_id":"levelo_inurba_marseille","lat":43.304377,"lon":5.398408,"is_reserved":false,"is_disabled":false,"rental_uris":{"android":"levelo://app?vid=db6fa88f-faac-4bc1-9905-5688fcab271c","ios":"levelo://app?vid=db6fa88f-faac-4bc1-9905-5688fcab271c"},"vehicle_type_id":"4","last_reported":1743188856,"current_range_meters":7200,"station_id":"ce4bh112rcd13ifvqda0","pricing_plan_id":"cebpf4jnsgd1na2vs0mg"},{"bike_id":"d0c2ba62-325f-42ee-b4c5-fe6707aa69d7","system_id":"levelo_inurba_marseille","lat":43.248,"lon":5.37458,"is_reserved":false,"is_disabled":false,"rental_uris":{"android":"levelo://app?vid=d0c2ba62-325f-42ee-b4c5-fe6707aa69d7","ios":"levelo://app?vid=d0c2ba62-325f-42ee-b4c5-fe6707aa69d7"},"vehicle_type_id":"4","last_reported":1743188856,"current_range_meters":7200,"station_id":"ce4bhgh2rcd13ifvqfb0","pricing_plan_id":"cebpf4jnsgd1na2vs0mg"},{"bike_id":"b2fd8e70-5b37-4865-bf49-d30da2481695","system_id":"levelo_inurba_marseille","lat":43.23203,"lon":5.35546,"is_reserved":false,"is_disabled":false,"rental_uris":{"android":"levelo://app?vid=b2fd8e70-5b37-4865-bf49-d30da2481695","ios":"levelo://app?vid=b2fd8e70-5b37-4865-bf49-d30da2481695"},"vehicle_type_id":"4","last_reported":1743188856,"current_range_meters":7200,"station_id":"ce4bhu92rcd13ifvqi70","pricing_plan_id":"cebpf4jnsgd1na2vs0mg"},{"bike_id":"72306c25-607d-47ff-961d-9623d9041085","system_id":"levelo_inurba_marseille","lat":43.29793,"lon":5.38098,"is_reserved":false,"is_disabled":false,"rental_uris":{"android":"levelo://app?vid=72306c25-607d-47ff-961d-9623d9041085","ios":"levelo://app?vid=72306c25-607d-47ff-961d-9623d9041085"},"vehicle_type_id":"4","last_reported":1743188856,"current_range_meters":7200,"station_id":"ce4bgip2rcd13ifvqbb0","pricing_plan_id":"cebpf4jnsgd1na2vs0mg"},{"bike_id":"efec2e4f-7291-4336-a1f2-33d2f7cba36f","system_id":"levelo_inurba_marseille","lat":43.29257,"lon":5.38431,"is_reserved":false,"is_disabled":false,"rental_uris":{"android":"levelo://app?vid=efec2e4f-7291-4336-a1f2-33d2f7cba36f","ios":"levelo://app?vid=efec2e4f-7291-4336-a1f2-33d2f7cba36f"},"vehicle_type_id":"4","last_reported":1743188856,"current_range_meters":7200,"station_id":"ce4bh692rcd13ifvqea0","pricing_plan_id":"cebpf4jnsgd1na2vs0mg"},{"bike_id":"0f9862fa-3aea-4a9f-b2bf-c003735a4d06","system_id":"levelo_inurba_marseille","lat":43.2902,"lon":5.38632,"is_reserved":false,"is_disabled":false,"rental_uris":{"android":"levelo://app?vid=0f9862fa-3aea-4a9f-b2bf-c003735a4d06","ios":"levelo://app?vid=0f9862fa-3aea-4a9f-b2bf-c003735a4d06"},"vehicle_type_id":"4","last_reported":1743188856,"current_range_meters":7200,"station_id":"ce4bh4p2rcd13ifvqe0g","pricing_plan_id":"cebpf4jnsgd1na2vs0mg"},{"bike_id":"0dd576f4-2e6b-4da4-b288-35feebf8c995","system_id":"levelo_inurba_marseille","lat":43.27375,"lon":5.36264,"is_reserved":false,"is_disabled":false,"rental_uris":{"android":"levelo://app?vid=0dd576f4-2e6b-4da4-b288-35feebf8c995","ios":"levelo://app?vid=0dd576f4-2e6b-4da4-b288-35feebf8c995"},"vehicle_type_id":"4","last_reported":1743188856,"current_range_meters":7200,"station_id":"ce4bhbh2rcd13ifvqeo0","pricing_plan_id":"cebpf4jnsgd1na2vs0mg"},{"bike_id":"69d4a96e-aebb-48d7-9d81-4070f7503e98","system_id":"levelo_inurba_marseille","lat":43.30843,"lon":5.374,"is_reserved":false,"is_disabled":false,"rental_uris":{"android":"levelo://app?vid=69d4a96e-aebb-48d7-9d81-4070f7503e98","ios":"levelo://app?vid=69d4a96e-aebb-48d7-9d81-4070f7503e98"},"vehicle_type_id":"4","last_reported":1743188856,"current_range_meters":8000,"station_id":"","pricing_plan_id":"cebpf4jnsgd1na2vs0mg"},{"bike_id":"7cf1ab86-6627-40ea-9381-242fc247eae5","system_id":"levelo_inurba_marseille","lat":43.2864,"lon":5.35087,"is_reserved":false,"is_disabled":false,"rental_uris":{"android":"levelo://app?vid=7cf1ab86-6627-40ea-9381-242fc247eae5","ios":"levelo://app?vid=7cf1ab86-6627-40ea-9381-242fc247eae5"},"vehicle_type_id":"4","last_reported":1743188856,"current_range_meters":8000,"station_id":"ce4bhch2rcd13ifvqeug","pricing_plan_id":"cebpf4jnsgd1na2vs0mg"},{"bike_id":"6026f9b7-25ae-4d64-8648-76338e9b1c4c","system_id":"levelo_inurba_marseille","lat":43.32365,"lon":5.3888,"is_reserved":false,"is_disabled":false,"rental_uris":{"android":"levelo://app?vid=6026f9b7-25ae-4d64-8648-76338e9b1c4c","ios":"levelo://app?vid=6026f9b7-25ae-4d64-8648-76338e9b1c4c"},"vehicle_type_id":"4","last_reported":1743188856,"current_range_meters":8000,"station_id":"ce4bhqp2rcd13ifvqhog","pricing_plan_id":"cebpf4jnsgd1na2vs0mg"},{"bike_id":"7473fe4f-487a-4b20-8942-6ec5675aee7e","system_id":"levelo_inurba_marseille","lat":43.25111,"lon":5.40327,"is_reserved":false,"is_disabled":false,"rental_uris":{"android":"levelo://app?vid=7473fe4f-487a-4b20-8942-6ec5675aee7e","ios":"levelo://app?vid=7473fe4f-487a-4b20-8942-6ec5675aee7e"},"vehicle_type_id":"4","last_reported":1743188856,"current_range_meters":8000,"station_id":"ce4bhlh2rcd13ifvqgig","pricing_plan_id":"cebpf4jnsgd1na2vs0mg"},{"bike_id":"53bee16b-045b-407e-b871-13a63cbdc05d","system_id":"levelo_inurba_marseille","lat":43.27815,"lon":5.4071,"is_reserved":false,"is_disabled":false,"rental_uris":{"android":"levelo://app?vid=53bee16b-045b-407e-b871-13a63cbdc05d","ios":"levelo://app?vid=53bee16b-045b-407e-b871-13a63cbdc05d"},"vehicle_type_id":"4","last_reported":1743188856,"current_range_meters":8000,"station_id":"ce4bhnh2rcd13ifvqgtg","pricing_plan_id":"cebpf4jnsgd1na2vs0mg"},{"bike_id":"419b14d4-943d-4787-9bd6-688c05077c79","system_id":"levelo_inurba_marseille","lat":43.2917,"lon":5.37158,"is_reserved":false,"is_disabled":false,"rental_uris":{"android":"levelo://app?vid=419b14d4-943d-4787-9bd6-688c05077c79","ios":"levelo://app?vid=419b14d4-943d-4787-9bd6-688c05077c79"},"vehicle_type_id":"4","last_reported":1743188856,"current_range_meters":8000,"station_id":"ce4bha92rcd13ifvqeh0","pricing_plan_id":"cebpf4jnsgd1na2vs0mg"},{"bike_id":"f6f9fa63-a538-4962-89a2-7e0fd8bec717","system_id":"levelo_inurba_marseille","lat":43.31998,"lon":5.38161,"is_reserved":false,"is_disabled":true,"rental_uris":{"android":"levelo://app?vid=f6f9fa63-a538-4962-89a2-7e0fd8bec717","ios":"levelo://app?vid=f6f9fa63-a538-4962-89a2-7e0fd8bec717"},"vehicle_type_id":"4","last_reported":1743188856,"current_range_meters":8000,"station_id":"ce4bhr12rcd13ifvqhpg","pricing_plan_id":"cebpf4jnsgd1na2vs0mg"},{"bike_id":"fbf23545-878e-46e0-b77f-1457e0849656","system_id":"levelo_inurba_marseille","lat":43.28615,"lon":5.35105,"is_reserved":false,"is_disabled":false,"rental_uris":{"android":"levelo://app?vid=fbf23545-878e-46e0-b77f-1457e0849656","ios":"levelo://app?vid=fbf23545-878e-46e0-b77f-1457e0849656"},"vehicle_type_id":"4","last_reported":1743188856,"current_range_meters":8000,"station_id":"ce4bhch2rcd13ifvqeug","pricing_plan_id":"cebpf4jnsgd1na2vs0mg"},{"bike_id":"5d57f21d-8654-4d7e-8921-77ebef009748","system_id":"levelo_inurba_marseille","lat":43.30052,"lon":5.37055,"is_reserved":false,"is_disabled":false,"rental_uris":{"android":"levelo://app?vid=5d57f21d-8654-4d7e-8921-77ebef009748","ios":"levelo://app?vid=5d57f21d-8654-4d7e-8921-77ebef009748"},"vehicle_type_id":"4","last_reported":1743188856,"current_range_meters":8000,"station_id":"ce4bgs12rcd13ifvqcag","pricing_plan_id":"cebpf4jnsgd1na2vs0mg"},{"bike_id":"e532a8a1-6482-49f6-b903-ffb6aba6dc76","system_id":"levelo_inurba_marseille","lat":43.29809,"lon":5.38093,"is_reserved":false,"is_disabled":false,"rental_uris":{"android":"levelo://app?vid=e532a8a1-6482-49f6-b903-ffb6aba6dc76","ios":"levelo://app?vid=e532a8a1-6482-49f6-b903-ffb6aba6dc76"},"vehicle_type_id":"4","last_reported":1743188856,"current_range_meters":8000,"station_id":"ce4bgip2rcd13ifvqbb0","pricing_plan_id":"cebpf4jnsgd1na2vs0mg"},{"bike_id":"403d7e50-4523-49d1-a7ce-385a53366a0d","system_id":"levelo_inurba_marseille","lat":43.28298,"lon":5.35117,"is_reserved":false,"is_disabled":true,"rental_uris":{"android":"levelo://app?vid=403d7e50-4523-49d1-a7ce-385a53366a0d","ios":"levelo://app?vid=403d7e50-4523-49d1-a7ce-385a53366a0d"},"vehicle_type_id":"4","last_reported":1743188856,"current_range_meters":8000,"station_id":"","pricing_plan_id":"cebpf4jnsgd1na2vs0mg"},{"bike_id":"422a75c2-467f-4b23-9c54-3e84a1bf2eb6","system_id":"levelo_inurba_marseille","lat":43.330228,"lon":5.390487,"is_reserved":false,"is_disabled":false,"rental_uris":{"android":"levelo://app?vid=422a75c2-467f-4b23-9c54-3e84a1bf2eb6","ios":"levelo://app?vid=422a75c2-467f-4b23-9c54-3e84a1bf2eb6"},"vehicle_type_id":"4","last_reported":1743188856,"current_range_meters":8000,"station_id":"ce4bhr92rcd13ifvqhrg","pricing_plan_id":"cebpf4jnsgd1na2vs0mg"},{"bike_id":"eb4b3f6d-b015-4a0c-9bae-440cd99e7a71","system_id":"levelo_inurba_marseille","lat":43.30801,"lon":5.38177,"is_reserved":false,"is_disabled":false,"rental_uris":{"android":"levelo://app?vid=eb4b3f6d-b015-4a0c-9bae-440cd99e7a71","ios":"levelo://app?vid=eb4b3f6d-b015-4a0c-9bae-440cd99e7a71"},"vehicle_type_id":"4","last_reported":1743188856,"current_range_meters":8000,"station_id":"ce4bgt12rcd13ifvqce0","pricing_plan_id":"cebpf4jnsgd1na2vs0mg"},{"bike_id":"813634ed-e21d-4b9e-88e8-aa8b87581eb3","system_id":"levelo_inurba_marseille","lat":43.32095,"lon":5.36786,"is_reserved":false,"is_disabled":false,"rental_uris":{"android":"levelo://app?vid=813634ed-e21d-4b9e-88e8-aa8b87581eb3","ios":"levelo://app?vid=813634ed-e21d-4b9e-88e8-aa8b87581eb3"},"vehicle_type_id":"4","last_reported":1743188856,"current_range_meters":8400,"station_id":"ce4bhrh2rcd13ifvqhug","pricing_plan_id":"cebpf4jnsgd1na2vs0mg"},{"bike_id":"b3f0e9e1-352e-4946-855d-3d1a5ba0fc08","system_id":"levelo_inurba_marseille","lat":43.3093,"lon":5.40145,"is_reserved":false,"is_disabled":false,"rental_uris":{"android":"levelo://app?vid=b3f0e9e1-352e-4946-855d-3d1a5ba0fc08","ios":"levelo://app?vid=b3f0e9e1-352e-4946-855d-3d1a5ba0fc08"},"vehicle_type_id":"4","last_reported":1743188856,"current_range_meters":8400,"station_id":"ce4bgvp2rcd13ifvqct0","pricing_plan_id":"cebpf4jnsgd1na2vs0mg"},{"bike_id":"2950c33c-be2a-4a05-88b4-660cdabdff8d","system_id":"levelo_inurba_marseille","lat":43.30134,"lon":5.38789,"is_reserved":false,"is_disabled":false,"rental_uris":{"android":"levelo://app?vid=2950c33c-be2a-4a05-88b4-660cdabdff8d","ios":"levelo://app?vid=2950c33c-be2a-4a05-88b4-660cdabdff8d"},"vehicle_type_id":"4","last_reported":1743188856,"current_range_meters":8400,"station_id":"ce4bghh2rcd13ifvqb60","pricing_plan_id":"cebpf4jnsgd1na2vs0mg"},{"bike_id":"fb9b5d83-e13d-407b-b838-22cd645caa9b","system_id":"levelo_inurba_marseille","lat":43.28628,"lon":5.35088,"is_reserved":false,"is_disabled":false,"rental_uris":{"android":"levelo://app?vid=fb9b5d83-e13d-407b-b838-22cd645caa9b","ios":"levelo://app?vid=fb9b5d83-e13d-407b-b838-22cd645caa9b"},"vehicle_type_id":"4","last_reported":1743188856,"current_range_meters":8400,"station_id":"ce4bhch2rcd13ifvqeug","pricing_plan_id":"cebpf4jnsgd1na2vs0mg"},{"bike_id":"861ae205-c318-4688-ac53-947993e1b65f","system_id":"levelo_inurba_marseille","lat":43.241684,"lon":5.363984,"is_reserved":false,"is_disabled":false,"rental_uris":{"android":"levelo://app?vid=861ae205-c318-4688-ac53-947993e1b65f","ios":"levelo://app?vid=861ae205-c318-4688-ac53-947993e1b65f"},"vehicle_type_id":"4","last_reported":1743188856,"current_range_meters":8400,"station_id":"cpo36qri1sfpv3e86is0","pricing_plan_id":"cebpf4jnsgd1na2vs0mg"},{"bike_id":"7353c60d-5663-469b-88e7-1442c959b643","system_id":"levelo_inurba_marseille","lat":43.28726,"lon":5.36095,"is_reserved":false,"is_disabled":false,"rental_uris":{"android":"levelo://app?vid=7353c60d-5663-469b-88e7-1442c959b643","ios":"levelo://app?vid=7353c60d-5663-469b-88e7-1442c959b643"},"vehicle_type_id":"4","last_reported":1743188856,"current_range_meters":8400,"station_id":"cki0cbj6b192h4jlfktg","pricing_plan_id":"cebpf4jnsgd1na2vs0mg"},{"bike_id":"2e919ca5-ce98-4c47-a9d7-66e6ab7584e4","system_id":"levelo_inurba_marseille","lat":43.32116,"lon":5.36747,"is_reserved":false,"is_disabled":false,"rental_uris":{"android":"levelo://app?vid=2e919ca5-ce98-4c47-a9d7-66e6ab7584e4","ios":"levelo://app?vid=2e919ca5-ce98-4c47-a9d7-66e6ab7584e4"},"vehicle_type_id":"4","last_reported":1743188856,"current_range_meters":8400,"station_id":"ce4bhrh2rcd13ifvqhug","pricing_plan_id":"cebpf4jnsgd1na2vs0mg"},{"bike_id":"6a5faf51-2bec-4782-8a8f-e039ed407c9b","system_id":"levelo_inurba_marseille","lat":43.2508,"lon":5.39513,"is_reserved":false,"is_disabled":false,"rental_uris":{"android":"levelo://app?vid=6a5faf51-2bec-4782-8a8f-e039ed407c9b","ios":"levelo://app?vid=6a5faf51-2bec-4782-8a8f-e039ed407c9b"},"vehicle_type_id":"4","last_reported":1743188856,"current_range_meters":8400,"station_id":"ce4bhm12rcd13ifvqgkg","pricing_plan_id":"cebpf4jnsgd1na2vs0mg"},{"bike_id":"f6646e8b-e53d-4722-b388-dcd1f3259566","system_id":"levelo_inurba_marseille","lat":43.30786,"lon":5.4352,"is_reserved":false,"is_disabled":false,"rental_uris":{"android":"levelo://app?vid=f6646e8b-e53d-4722-b388-dcd1f3259566","ios":"levelo://app?vid=f6646e8b-e53d-4722-b388-dcd1f3259566"},"vehicle_type_id":"4","last_reported":1743188856,"current_range_meters":8400,"station_id":"ce4bhph2rcd13ifvqheg","pricing_plan_id":"cebpf4jnsgd1na2vs0mg"},{"bike_id":"7b12089f-1e68-4a7e-a3fe-524c6775f368","system_id":"levelo_inurba_marseille","lat":43.284998,"lon":5.374689,"is_reserved":false,"is_disabled":false,"rental_uris":{"android":"levelo://app?vid=7b12089f-1e68-4a7e-a3fe-524c6775f368","ios":"levelo://app?vid=7b12089f-1e68-4a7e-a3fe-524c6775f368"},"vehicle_type_id":"4","last_reported":1743188856,"current_range_meters":8400,"station_id":"ce4bh412rcd13ifvqds0","pricing_plan_id":"cebpf4jnsgd1na2vs0mg"},{"bike_id":"dc050fee-4831-491a-867e-a64f70c001d2","system_id":"levelo_inurba_marseille","lat":43.29411,"lon":5.38602,"is_reserved":false,"is_disabled":false,"rental_uris":{"android":"levelo://app?vid=dc050fee-4831-491a-867e-a64f70c001d2","ios":"levelo://app?vid=dc050fee-4831-491a-867e-a64f70c001d2"},"vehicle_type_id":"4","last_reported":1743188856,"current_range_meters":8400,"station_id":"ce4bh2h2rcd13ifvqdh0","pricing_plan_id":"cebpf4jnsgd1na2vs0mg"},{"bike_id":"bced37a5-7f80-44ce-b052-052030db167f","system_id":"levelo_inurba_marseille","lat":43.2894,"lon":5.36636,"is_reserved":false,"is_disabled":false,"rental_uris":{"android":"levelo://app?vid=bced37a5-7f80-44ce-b052-052030db167f","ios":"levelo://app?vid=bced37a5-7f80-44ce-b052-052030db167f"},"vehicle_type_id":"4","last_reported":1743188856,"current_range_meters":8400,"station_id":"ce4bhap2rcd13ifvqek0","pricing_plan_id":"cebpf4jnsgd1na2vs0mg"},{"bike_id":"bbeca056-8f3c-4bad-a4d4-382d05040ad5","system_id":"levelo_inurba_marseille","lat":43.28658,"lon":5.386614,"is_reserved":false,"is_disabled":false,"rental_uris":{"android":"levelo://app?vid=bbeca056-8f3c-4bad-a4d4-382d05040ad5","ios":"levelo://app?vid=bbeca056-8f3c-4bad-a4d4-382d05040ad5"},"vehicle_type_id":"4","last_reported":1743188856,"current_range_meters":8400,"station_id":"ce4bhhh2rcd13ifvqfk0","pricing_plan_id":"cebpf4jnsgd1na2vs0mg"},{"bike_id":"0009eca3-f243-43d3-a06a-66f6a4a5ccdd","system_id":"levelo_inurba_marseille","lat":43.23203,"lon":5.35587,"is_reserved":false,"is_disabled":false,"rental_uris":{"android":"levelo://app?vid=0009eca3-f243-43d3-a06a-66f6a4a5ccdd","ios":"levelo://app?vid=0009eca3-f243-43d3-a06a-66f6a4a5ccdd"},"vehicle_type_id":"4","last_reported":1743188856,"current_range_meters":8400,"station_id":"ce4bhu92rcd13ifvqi70","pricing_plan_id":"cebpf4jnsgd1na2vs0mg"},{"bike_id":"4d529f84-67b0-4dab-badf-6dbc13d3dad9","system_id":"levelo_inurba_marseille","lat":43.28269,"lon":5.35066,"is_reserved":false,"is_disabled":false,"rental_uris":{"android":"levelo://app?vid=4d529f84-67b0-4dab-badf-6dbc13d3dad9","ios":"levelo://app?vid=4d529f84-67b0-4dab-badf-6dbc13d3dad9"},"vehicle_type_id":"4","last_reported":1743188856,"current_range_meters":8800,"station_id":"ce4bhbp2rcd13ifvqerg","pricing_plan_id":"cebpf4jnsgd1na2vs0mg"},{"bike_id":"27cbce99-11c1-4aa6-957c-c640af37ebc4","system_id":"levelo_inurba_marseille","lat":43.29186,"lon":5.35762,"is_reserved":false,"is_disabled":false,"rental_uris":{"android":"levelo://app?vid=27cbce99-11c1-4aa6-957c-c640af37ebc4","ios":"levelo://app?vid=27cbce99-11c1-4aa6-957c-c640af37ebc4"},"vehicle_type_id":"4","last_reported":1743188856,"current_range_meters":8800,"station_id":"ce4bhb12rcd13ifvqel0","pricing_plan_id":"cebpf4jnsgd1na2vs0mg"},{"bike_id":"b6462b41-adb4-4ec5-8a6e-99b4357c842a","system_id":"levelo_inurba_marseille","lat":43.31366,"lon":5.38501,"is_reserved":false,"is_disabled":false,"rental_uris":{"android":"levelo://app?vid=b6462b41-adb4-4ec5-8a6e-99b4357c842a","ios":"levelo://app?vid=b6462b41-adb4-4ec5-8a6e-99b4357c842a"},"vehicle_type_id":"4","last_reported":1743188856,"current_range_meters":8800,"station_id":"ce4bgt92rcd13ifvqcf0","pricing_plan_id":"cebpf4jnsgd1na2vs0mg"},{"bike_id":"18920fb4-c4da-4d2f-b271-3b4f47511909","system_id":"levelo_inurba_marseille","lat":43.3024,"lon":5.39492,"is_reserved":false,"is_disabled":false,"rental_uris":{"android":"levelo://app?vid=18920fb4-c4da-4d2f-b271-3b4f47511909","ios":"levelo://app?vid=18920fb4-c4da-4d2f-b271-3b4f47511909"},"vehicle_type_id":"4","last_reported":1743188856,"current_range_meters":8800,"station_id":"ce4bh0p2rcd13ifvqd70","pricing_plan_id":"cebpf4jnsgd1na2vs0mg"},{"bike_id":"4a42ca1e-41e4-4233-a4bb-a180f04564d6","system_id":"levelo_inurba_marseille","lat":43.29172,"lon":5.37169,"is_reserved":false,"is_disabled":true,"rental_uris":{"android":"levelo://app?vid=4a42ca1e-41e4-4233-a4bb-a180f04564d6","ios":"levelo://app?vid=4a42ca1e-41e4-4233-a4bb-a180f04564d6"},"vehicle_type_id":"4","last_reported":1743188856,"current_range_meters":8800,"station_id":"ce4bha92rcd13ifvqeh0","pricing_plan_id":"cebpf4jnsgd1na2vs0mg"},{"bike_id":"89208f21-4a3a-4714-b849-92ace6610d17","system_id":"levelo_inurba_marseille","lat":43.29029,"lon":5.386403,"is_reserved":false,"is_disabled":false,"rental_uris":{"android":"levelo://app?vid=89208f21-4a3a-4714-b849-92ace6610d17","ios":"levelo://app?vid=89208f21-4a3a-4714-b849-92ace6610d17"},"vehicle_type_id":"4","last_reported":1743188856,"current_range_meters":8800,"station_id":"ce4bht12rcd13ifvqi60","pricing_plan_id":"cebpf4jnsgd1na2vs0mg"},{"bike_id":"1c71b01c-8c90-4b90-84da-0ce75e1f9712","system_id":"levelo_inurba_marseille","lat":43.29415,"lon":5.3862,"is_reserved":false,"is_disabled":false,"rental_uris":{"android":"levelo://app?vid=1c71b01c-8c90-4b90-84da-0ce75e1f9712","ios":"levelo://app?vid=1c71b01c-8c90-4b90-84da-0ce75e1f9712"},"vehicle_type_id":"4","last_reported":1743188856,"current_range_meters":8800,"station_id":"ce4bh2h2rcd13ifvqdh0","pricing_plan_id":"cebpf4jnsgd1na2vs0mg"},{"bike_id":"0f2f6ea1-7363-466e-9121-0246b2fdd337","system_id":"levelo_inurba_marseille","lat":43.31079,"lon":5.38356,"is_reserved":false,"is_disabled":false,"rental_uris":{"android":"levelo://app?vid=0f2f6ea1-7363-466e-9121-0246b2fdd337","ios":"levelo://app?vid=0f2f6ea1-7363-466e-9121-0246b2fdd337"},"vehicle_type_id":"4","last_reported":1743188856,"current_range_meters":8800,"station_id":"ce4bgv92rcd13ifvqcr0","pricing_plan_id":"cebpf4jnsgd1na2vs0mg"},{"bike_id":"0d97700b-f6fd-4cc6-a6bd-378228a8094f","system_id":"levelo_inurba_marseille","lat":43.28929,"lon":5.36619,"is_reserved":false,"is_disabled":false,"rental_uris":{"android":"levelo://app?vid=0d97700b-f6fd-4cc6-a6bd-378228a8094f","ios":"levelo://app?vid=0d97700b-f6fd-4cc6-a6bd-378228a8094f"},"vehicle_type_id":"4","last_reported":1743188856,"current_range_meters":8800,"station_id":"ce4bhap2rcd13ifvqek0","pricing_plan_id":"cebpf4jnsgd1na2vs0mg"},{"bike_id":"f2ea3f08-cdde-44ba-af20-ebc3863fca80","system_id":"levelo_inurba_marseille","lat":43.281596,"lon":5.424365,"is_reserved":false,"is_disabled":false,"rental_uris":{"android":"levelo://app?vid=f2ea3f08-cdde-44ba-af20-ebc3863fca80","ios":"levelo://app?vid=f2ea3f08-cdde-44ba-af20-ebc3863fca80"},"vehicle_type_id":"4","last_reported":1743188856,"current_range_meters":8800,"station_id":"ce4bhnh2rcd13ifvqgug","pricing_plan_id":"cebpf4jnsgd1na2vs0mg"},{"bike_id":"ab661d14-712d-41a3-981d-30a2197dc048","system_id":"levelo_inurba_marseille","lat":43.30312,"lon":5.36899,"is_reserved":false,"is_disabled":false,"rental_uris":{"android":"levelo://app?vid=ab661d14-712d-41a3-981d-30a2197dc048","ios":"levelo://app?vid=ab661d14-712d-41a3-981d-30a2197dc048"},"vehicle_type_id":"4","last_reported":1743188856,"current_range_meters":8800,"station_id":"ce4bgqh2rcd13ifvqc5g","pricing_plan_id":"cebpf4jnsgd1na2vs0mg"},{"bike_id":"f0e27e89-7189-48e7-8fa7-1c5343d181a6","system_id":"levelo_inurba_marseille","lat":43.29257,"lon":5.38443,"is_reserved":false,"is_disabled":false,"rental_uris":{"android":"levelo://app?vid=f0e27e89-7189-48e7-8fa7-1c5343d181a6","ios":"levelo://app?vid=f0e27e89-7189-48e7-8fa7-1c5343d181a6"},"vehicle_type_id":"4","last_reported":1743188856,"current_range_meters":8800,"station_id":"ce4bh692rcd13ifvqea0","pricing_plan_id":"cebpf4jnsgd1na2vs0mg"},{"bike_id":"b18e4015-df95-4b19-86f8-beb51be55102","system_id":"levelo_inurba_marseille","lat":43.296539,"lon":5.395237,"is_reserved":false,"is_disabled":false,"rental_uris":{"android":"levelo://app?vid=b18e4015-df95-4b19-86f8-beb51be55102","ios":"levelo://app?vid=b18e4015-df95-4b19-86f8-beb51be55102"},"vehicle_type_id":"4","last_reported":1743188856,"current_range_meters":8800,"station_id":"chh1huq6cuj3fo74tm60","pricing_plan_id":"cebpf4jnsgd1na2vs0mg"},{"bike_id":"3ba33190-788c-44db-b334-d3a41568d8b2","system_id":"levelo_inurba_marseille","lat":43.29262,"lon":5.38449,"is_reserved":false,"is_disabled":false,"rental_uris":{"android":"levelo://app?vid=3ba33190-788c-44db-b334-d3a41568d8b2","ios":"levelo://app?vid=3ba33190-788c-44db-b334-d3a41568d8b2"},"vehicle_type_id":"4","last_reported":1743188856,"current_range_meters":8800,"station_id":"ce4bh692rcd13ifvqea0","pricing_plan_id":"cebpf4jnsgd1na2vs0mg"},{"bike_id":"b6fb207a-a901-44ac-8a68-9a3e364b0bc3","system_id":"levelo_inurba_marseille","lat":43.29624,"lon":5.371697,"is_reserved":false,"is_disabled":false,"rental_uris":{"android":"levelo://app?vid=b6fb207a-a901-44ac-8a68-9a3e364b0bc3","ios":"levelo://app?vid=b6fb207a-a901-44ac-8a68-9a3e364b0bc3"},"vehicle_type_id":"4","last_reported":1743188856,"current_range_meters":8800,"station_id":"ce4bgnh2rcd13ifvqc0g","pricing_plan_id":"cebpf4jnsgd1na2vs0mg"},{"bike_id":"424417c8-67c1-4c27-bf29-2d271899c7c0","system_id":"levelo_inurba_marseille","lat":43.29268,"lon":5.38446,"is_reserved":false,"is_disabled":false,"rental_uris":{"android":"levelo://app?vid=424417c8-67c1-4c27-bf29-2d271899c7c0","ios":"levelo://app?vid=424417c8-67c1-4c27-bf29-2d271899c7c0"},"vehicle_type_id":"4","last_reported":1743188856,"current_range_meters":8800,"station_id":"ce4bh692rcd13ifvqea0","pricing_plan_id":"cebpf4jnsgd1na2vs0mg"},{"bike_id":"b4fcfee0-93be-466a-a152-1bfb7e2ea288","system_id":"levelo_inurba_marseille","lat":43.2481,"lon":5.3746,"is_reserved":false,"is_disabled":false,"rental_uris":{"android":"levelo://app?vid=b4fcfee0-93be-466a-a152-1bfb7e2ea288","ios":"levelo://app?vid=b4fcfee0-93be-466a-a152-1bfb7e2ea288"},"vehicle_type_id":"4","last_reported":1743188856,"current_range_meters":8800,"station_id":"ce4bhgh2rcd13ifvqfb0","pricing_plan_id":"cebpf4jnsgd1na2vs0mg"},{"bike_id":"a6892c06-00c4-4e17-80e2-a817fa5c1470","system_id":"levelo_inurba_marseille","lat":43.26812,"lon":5.40261,"is_reserved":false,"is_disabled":false,"rental_uris":{"android":"levelo://app?vid=a6892c06-00c4-4e17-80e2-a817fa5c1470","ios":"levelo://app?vid=a6892c06-00c4-4e17-80e2-a817fa5c1470"},"vehicle_type_id":"4","last_reported":1743188856,"current_range_meters":9200,"station_id":"ce501612rcd8frsf0b60","pricing_plan_id":"cebpf4jnsgd1na2vs0mg"},{"bike_id":"9ee402e7-1a17-4a4f-8096-bc833bafbd6b","system_id":"levelo_inurba_marseille","lat":43.28955,"lon":5.36631,"is_reserved":false,"is_disabled":false,"rental_uris":{"android":"levelo://app?vid=9ee402e7-1a17-4a4f-8096-bc833bafbd6b","ios":"levelo://app?vid=9ee402e7-1a17-4a4f-8096-bc833bafbd6b"},"vehicle_type_id":"4","last_reported":1743188856,"current_range_meters":9200,"station_id":"ce4bhap2rcd13ifvqek0","pricing_plan_id":"cebpf4jnsgd1na2vs0mg"},{"bike_id":"753631d8-bdcd-4ee5-81cb-24997a92d4eb","system_id":"levelo_inurba_marseille","lat":43.29839,"lon":5.36272,"is_reserved":false,"is_disabled":false,"rental_uris":{"android":"levelo://app?vid=753631d8-bdcd-4ee5-81cb-24997a92d4eb","ios":"levelo://app?vid=753631d8-bdcd-4ee5-81cb-24997a92d4eb"},"vehicle_type_id":"4","last_reported":1743188856,"current_range_meters":6800,"station_id":"ce4bgpp2rcd13ifvqc3g","pricing_plan_id":"cebpf4jnsgd1na2vs0mg"},{"bike_id":"cd380cdd-753d-4062-9634-b246a5e93ebc","system_id":"levelo_inurba_marseille","lat":43.29237,"lon":5.36085,"is_reserved":false,"is_disabled":false,"rental_uris":{"android":"levelo://app?vid=cd380cdd-753d-4062-9634-b246a5e93ebc","ios":"levelo://app?vid=cd380cdd-753d-4062-9634-b246a5e93ebc"},"vehicle_type_id":"4","last_reported":1743188856,"current_range_meters":9200,"station_id":"ce4bhbh2rcd13ifvqeqg","pricing_plan_id":"cebpf4jnsgd1na2vs0mg"},{"bike_id":"971c92cb-66df-438d-9a85-e63af939e6ff","system_id":"levelo_inurba_marseille","lat":43.28624,"lon":5.35088,"is_reserved":false,"is_disabled":true,"rental_uris":{"android":"levelo://app?vid=971c92cb-66df-438d-9a85-e63af939e6ff","ios":"levelo://app?vid=971c92cb-66df-438d-9a85-e63af939e6ff"},"vehicle_type_id":"4","last_reported":1743188856,"current_range_meters":9200,"station_id":"ce4bhch2rcd13ifvqeug","pricing_plan_id":"cebpf4jnsgd1na2vs0mg"},{"bike_id":"3675181c-1d72-4ef3-a3b0-b962f8ca6724","system_id":"levelo_inurba_marseille","lat":43.278153,"lon":5.407252,"is_reserved":false,"is_disabled":false,"rental_uris":{"android":"levelo://app?vid=3675181c-1d72-4ef3-a3b0-b962f8ca6724","ios":"levelo://app?vid=3675181c-1d72-4ef3-a3b0-b962f8ca6724"},"vehicle_type_id":"4","last_reported":1743188856,"current_range_meters":9200,"station_id":"ce4bhnh2rcd13ifvqgtg","pricing_plan_id":"cebpf4jnsgd1na2vs0mg"},{"bike_id":"c5887b5d-7662-4633-9b7e-c1f693b96552","system_id":"levelo_inurba_marseille","lat":43.27393,"lon":5.36277,"is_reserved":false,"is_disabled":false,"rental_uris":{"android":"levelo://app?vid=c5887b5d-7662-4633-9b7e-c1f693b96552","ios":"levelo://app?vid=c5887b5d-7662-4633-9b7e-c1f693b96552"},"vehicle_type_id":"4","last_reported":1743188856,"current_range_meters":9200,"station_id":"ce4bhbh2rcd13ifvqeo0","pricing_plan_id":"cebpf4jnsgd1na2vs0mg"},{"bike_id":"c527e224-a9b8-44ca-9995-b4eac024e1b6","system_id":"levelo_inurba_marseille","lat":43.298349,"lon":5.362906,"is_reserved":false,"is_disabled":false,"rental_uris":{"android":"levelo://app?vid=c527e224-a9b8-44ca-9995-b4eac024e1b6","ios":"levelo://app?vid=c527e224-a9b8-44ca-9995-b4eac024e1b6"},"vehicle_type_id":"4","last_reported":1743188856,"current_range_meters":9200,"station_id":"ce4bgpp2rcd13ifvqc3g","pricing_plan_id":"cebpf4jnsgd1na2vs0mg"},{"bike_id":"c6b682a7-e903-4363-967f-d69957e8f7ed","system_id":"levelo_inurba_marseille","lat":43.28619,"lon":5.35131,"is_reserved":false,"is_disabled":false,"rental_uris":{"android":"levelo://app?vid=c6b682a7-e903-4363-967f-d69957e8f7ed","ios":"levelo://app?vid=c6b682a7-e903-4363-967f-d69957e8f7ed"},"vehicle_type_id":"4","last_reported":1743188856,"current_range_meters":9200,"station_id":"ce4bhch2rcd13ifvqeug","pricing_plan_id":"cebpf4jnsgd1na2vs0mg"},{"bike_id":"6db825b4-8be2-4bda-b96c-822e345da3bb","system_id":"levelo_inurba_marseille","lat":43.29026,"lon":5.38633,"is_reserved":false,"is_disabled":false,"rental_uris":{"android":"levelo://app?vid=6db825b4-8be2-4bda-b96c-822e345da3bb","ios":"levelo://app?vid=6db825b4-8be2-4bda-b96c-822e345da3bb"},"vehicle_type_id":"4","last_reported":1743188856,"current_range_meters":9200,"station_id":"ce4bh4p2rcd13ifvqe0g","pricing_plan_id":"cebpf4jnsgd1na2vs0mg"},{"bike_id":"70cb17f5-cdf1-47fa-b901-00068bb5e719","system_id":"levelo_inurba_marseille","lat":43.29248,"lon":5.38435,"is_reserved":false,"is_disabled":false,"rental_uris":{"android":"levelo://app?vid=70cb17f5-cdf1-47fa-b901-00068bb5e719","ios":"levelo://app?vid=70cb17f5-cdf1-47fa-b901-00068bb5e719"},"vehicle_type_id":"4","last_reported":1743188856,"current_range_meters":9200,"station_id":"ce4bh692rcd13ifvqea0","pricing_plan_id":"cebpf4jnsgd1na2vs0mg"},{"bike_id":"1c14bf9c-ada4-4a36-8853-740a1a2c000a","system_id":"levelo_inurba_marseille","lat":43.232,"lon":5.35562,"is_reserved":false,"is_disabled":false,"rental_uris":{"android":"levelo://app?vid=1c14bf9c-ada4-4a36-8853-740a1a2c000a","ios":"levelo://app?vid=1c14bf9c-ada4-4a36-8853-740a1a2c000a"},"vehicle_type_id":"4","last_reported":1743188856,"current_range_meters":9200,"station_id":"ce4bhu92rcd13ifvqi70","pricing_plan_id":"cebpf4jnsgd1na2vs0mg"},{"bike_id":"93b87167-d56c-4756-aad5-25376b7daf19","system_id":"levelo_inurba_marseille","lat":43.30176,"lon":5.36612,"is_reserved":false,"is_disabled":false,"rental_uris":{"android":"levelo://app?vid=93b87167-d56c-4756-aad5-25376b7daf19","ios":"levelo://app?vid=93b87167-d56c-4756-aad5-25376b7daf19"},"vehicle_type_id":"4","last_reported":1743188856,"current_range_meters":8800,"station_id":"ce4bgrh2rcd13ifvqc8g","pricing_plan_id":"cebpf4jnsgd1na2vs0mg"},{"bike_id":"3a62358d-acc7-4d29-8480-8115ff151fbd","system_id":"levelo_inurba_marseille","lat":43.27596,"lon":5.36056,"is_reserved":false,"is_disabled":false,"rental_uris":{"android":"levelo://app?vid=3a62358d-acc7-4d29-8480-8115ff151fbd","ios":"levelo://app?vid=3a62358d-acc7-4d29-8480-8115ff151fbd"},"vehicle_type_id":"4","last_reported":1743188856,"current_range_meters":9600,"station_id":"ce4bgj92rcd13ifvqbe0","pricing_plan_id":"cebpf4jnsgd1na2vs0mg"},{"bike_id":"40a93dd2-2204-43bb-a6e9-cc93cb5a8bd7","system_id":"levelo_inurba_marseille","lat":43.29794,"lon":5.38092,"is_reserved":false,"is_disabled":false,"rental_uris":{"android":"levelo://app?vid=40a93dd2-2204-43bb-a6e9-cc93cb5a8bd7","ios":"levelo://app?vid=40a93dd2-2204-43bb-a6e9-cc93cb5a8bd7"},"vehicle_type_id":"4","last_reported":1743188856,"current_range_meters":9600,"station_id":"ce4bgip2rcd13ifvqbb0","pricing_plan_id":"cebpf4jnsgd1na2vs0mg"},{"bike_id":"504c81c9-08f2-471d-9808-b834d3531511","system_id":"levelo_inurba_marseille","lat":43.28717,"lon":5.36093,"is_reserved":false,"is_disabled":false,"rental_uris":{"android":"levelo://app?vid=504c81c9-08f2-471d-9808-b834d3531511","ios":"levelo://app?vid=504c81c9-08f2-471d-9808-b834d3531511"},"vehicle_type_id":"4","last_reported":1743188856,"current_range_meters":9600,"station_id":"cki0cbj6b192h4jlfktg","pricing_plan_id":"cebpf4jnsgd1na2vs0mg"},{"bike_id":"af711b28-9bc1-4b24-a6ea-2f85ebe1403e","system_id":"levelo_inurba_marseille","lat":43.302981,"lon":5.392143,"is_reserved":false,"is_disabled":false,"rental_uris":{"android":"levelo://app?vid=af711b28-9bc1-4b24-a6ea-2f85ebe1403e","ios":"levelo://app?vid=af711b28-9bc1-4b24-a6ea-2f85ebe1403e"},"vehicle_type_id":"4","last_reported":1743188856,"current_range_meters":9600,"station_id":"ce4bgjh2rcd13ifvqbf0","pricing_plan_id":"cebpf4jnsgd1na2vs0mg"},{"bike_id":"90df0f14-f996-423e-b605-53c2c708242e","system_id":"levelo_inurba_marseille","lat":43.31706,"lon":5.40509,"is_reserved":false,"is_disabled":false,"rental_uris":{"android":"levelo://app?vid=90df0f14-f996-423e-b605-53c2c708242e","ios":"levelo://app?vid=90df0f14-f996-423e-b605-53c2c708242e"},"vehicle_type_id":"4","last_reported":1743188856,"current_range_meters":9600,"station_id":"ce4bh012rcd13ifvqd00","pricing_plan_id":"cebpf4jnsgd1na2vs0mg"},{"bike_id":"7120f45a-dd67-4197-bf90-c4b3d554bf25","system_id":"levelo_inurba_marseille","lat":43.29266,"lon":5.384447,"is_reserved":false,"is_disabled":false,"rental_uris":{"android":"levelo://app?vid=7120f45a-dd67-4197-bf90-c4b3d554bf25","ios":"levelo://app?vid=7120f45a-dd67-4197-bf90-c4b3d554bf25"},"vehicle_type_id":"4","last_reported":1743188856,"current_range_meters":9600,"station_id":"ce4bh692rcd13ifvqea0","pricing_plan_id":"cebpf4jnsgd1na2vs0mg"},{"bike_id":"29f3ccfb-bb8e-4756-bdd3-86dedd2265e7","system_id":"levelo_inurba_marseille","lat":43.25108,"lon":5.40326,"is_reserved":false,"is_disabled":false,"rental_uris":{"android":"levelo://app?vid=29f3ccfb-bb8e-4756-bdd3-86dedd2265e7","ios":"levelo://app?vid=29f3ccfb-bb8e-4756-bdd3-86dedd2265e7"},"vehicle_type_id":"4","last_reported":1743188856,"current_range_meters":9600,"station_id":"ce4bhlh2rcd13ifvqgig","pricing_plan_id":"cebpf4jnsgd1na2vs0mg"},{"bike_id":"04974724-db2c-4968-859f-11e6296e82a0","system_id":"levelo_inurba_marseille","lat":43.29419,"lon":5.38626,"is_reserved":false,"is_disabled":false,"rental_uris":{"android":"levelo://app?vid=04974724-db2c-4968-859f-11e6296e82a0","ios":"levelo://app?vid=04974724-db2c-4968-859f-11e6296e82a0"},"vehicle_type_id":"4","last_reported":1743188856,"current_range_meters":9600,"station_id":"ce4bh2h2rcd13ifvqdh0","pricing_plan_id":"cebpf4jnsgd1na2vs0mg"},{"bike_id":"9607e7d1-bbd9-4377-bdb2-57d14eb74907","system_id":"levelo_inurba_marseille","lat":43.28025,"lon":5.36956,"is_reserved":false,"is_disabled":false,"rental_uris":{"android":"levelo://app?vid=9607e7d1-bbd9-4377-bdb2-57d14eb74907","ios":"levelo://app?vid=9607e7d1-bbd9-4377-bdb2-57d14eb74907"},"vehicle_type_id":"4","last_reported":1743188856,"current_range_meters":10000,"station_id":"ce4bha12rcd13ifvqef0","pricing_plan_id":"cebpf4jnsgd1na2vs0mg"},{"bike_id":"3fbcdfd8-5176-471d-aa84-e8e20bb4418e","system_id":"levelo_inurba_marseille","lat":43.32118,"lon":5.36755,"is_reserved":false,"is_disabled":false,"rental_uris":{"android":"levelo://app?vid=3fbcdfd8-5176-471d-aa84-e8e20bb4418e","ios":"levelo://app?vid=3fbcdfd8-5176-471d-aa84-e8e20bb4418e"},"vehicle_type_id":"4","last_reported":1743188856,"current_range_meters":10000,"station_id":"ce4bhrh2rcd13ifvqhug","pricing_plan_id":"cebpf4jnsgd1na2vs0mg"},{"bike_id":"17d2c56a-04b7-4565-828e-4e8647a3dd59","system_id":"levelo_inurba_marseille","lat":43.23188,"lon":5.35552,"is_reserved":false,"is_disabled":false,"rental_uris":{"android":"levelo://app?vid=17d2c56a-04b7-4565-828e-4e8647a3dd59","ios":"levelo://app?vid=17d2c56a-04b7-4565-828e-4e8647a3dd59"},"vehicle_type_id":"4","last_reported":1743188856,"current_range_meters":10000,"station_id":"ce4bhu92rcd13ifvqi70","pricing_plan_id":"cebpf4jnsgd1na2vs0mg"},{"bike_id":"661fa6de-24e3-4832-9e18-3d3a5339528f","system_id":"levelo_inurba_marseille","lat":43.28415,"lon":5.35013,"is_reserved":false,"is_disabled":false,"rental_uris":{"android":"levelo://app?vid=661fa6de-24e3-4832-9e18-3d3a5339528f","ios":"levelo://app?vid=661fa6de-24e3-4832-9e18-3d3a5339528f"},"vehicle_type_id":"4","last_reported":1743188856,"current_range_meters":10000,"station_id":"ce4bhbh2rcd13ifvqepg","pricing_plan_id":"cebpf4jnsgd1na2vs0mg"},{"bike_id":"595a6374-79b4-4d1d-bb14-41e77375f81e","system_id":"levelo_inurba_marseille","lat":43.27684,"lon":5.38899,"is_reserved":false,"is_disabled":false,"rental_uris":{"android":"levelo://app?vid=595a6374-79b4-4d1d-bb14-41e77375f81e","ios":"levelo://app?vid=595a6374-79b4-4d1d-bb14-41e77375f81e"},"vehicle_type_id":"4","last_reported":1743188856,"current_range_meters":10000,"station_id":"ce4bhi12rcd13ifvqfo0","pricing_plan_id":"cebpf4jnsgd1na2vs0mg"},{"bike_id":"68e9fc26-8998-4bf7-8da8-af47209f9b7c","system_id":"levelo_inurba_marseille","lat":43.32104,"lon":5.36779,"is_reserved":false,"is_disabled":false,"rental_uris":{"android":"levelo://app?vid=68e9fc26-8998-4bf7-8da8-af47209f9b7c","ios":"levelo://app?vid=68e9fc26-8998-4bf7-8da8-af47209f9b7c"},"vehicle_type_id":"4","last_reported":1743188856,"current_range_meters":10000,"station_id":"ce4bhrh2rcd13ifvqhug","pricing_plan_id":"cebpf4jnsgd1na2vs0mg"},{"bike_id":"fd533212-138d-4332-91c2-12d1400e7e42","system_id":"levelo_inurba_marseille","lat":43.26573,"lon":5.38991,"is_reserved":false,"is_disabled":false,"rental_uris":{"android":"levelo://app?vid=fd533212-138d-4332-91c2-12d1400e7e42","ios":"levelo://app?vid=fd533212-138d-4332-91c2-12d1400e7e42"},"vehicle_type_id":"4","last_reported":1743188856,"current_range_meters":10000,"station_id":"ce4bhe12rcd13ifvqf30","pricing_plan_id":"cebpf4jnsgd1na2vs0mg"},{"bike_id":"59925f16-d1ee-4f1a-a97c-69b6fa4da289","system_id":"levelo_inurba_marseille","lat":43.27975,"lon":5.38755,"is_reserved":false,"is_disabled":false,"rental_uris":{"android":"levelo://app?vid=59925f16-d1ee-4f1a-a97c-69b6fa4da289","ios":"levelo://app?vid=59925f16-d1ee-4f1a-a97c-69b6fa4da289"},"vehicle_type_id":"4","last_reported":1743188856,"current_range_meters":10000,"station_id":"ce4bhg12rcd13ifvqf80","pricing_plan_id":"cebpf4jnsgd1na2vs0mg"},{"bike_id":"65c86302-8ef0-46f4-ab6e-bac7149a2865","system_id":"levelo_inurba_marseille","lat":43.32104,"lon":5.3676,"is_reserved":false,"is_disabled":false,"rental_uris":{"android":"levelo://app?vid=65c86302-8ef0-46f4-ab6e-bac7149a2865","ios":"levelo://app?vid=65c86302-8ef0-46f4-ab6e-bac7149a2865"},"vehicle_type_id":"4","last_reported":1743188856,"current_range_meters":10000,"station_id":"ce4bhrh2rcd13ifvqhug","pricing_plan_id":"cebpf4jnsgd1na2vs0mg"},{"bike_id":"0292ce83-de80-4771-907b-166e823bd188","system_id":"levelo_inurba_marseille","lat":43.31074,"lon":5.38363,"is_reserved":false,"is_disabled":false,"rental_uris":{"android":"levelo://app?vid=0292ce83-de80-4771-907b-166e823bd188","ios":"levelo://app?vid=0292ce83-de80-4771-907b-166e823bd188"},"vehicle_type_id":"4","last_reported":1743188856,"current_range_meters":10000,"station_id":"ce4bgv92rcd13ifvqcr0","pricing_plan_id":"cebpf4jnsgd1na2vs0mg"},{"bike_id":"566f70f4-a439-4b81-af62-af46089a2cb0","system_id":"levelo_inurba_marseille","lat":43.2793,"lon":5.37962,"is_reserved":false,"is_disabled":false,"rental_uris":{"android":"levelo://app?vid=566f70f4-a439-4b81-af62-af46089a2cb0","ios":"levelo://app?vid=566f70f4-a439-4b81-af62-af46089a2cb0"},"vehicle_type_id":"4","last_reported":1743188856,"current_range_meters":10000,"station_id":"ce4bhf92rcd13ifvqf50","pricing_plan_id":"cebpf4jnsgd1na2vs0mg"},{"bike_id":"3baabe1e-785f-4275-b2ae-669cc3f900da","system_id":"levelo_inurba_marseille","lat":43.27825,"lon":5.4073,"is_reserved":false,"is_disabled":true,"rental_uris":{"android":"levelo://app?vid=3baabe1e-785f-4275-b2ae-669cc3f900da","ios":"levelo://app?vid=3baabe1e-785f-4275-b2ae-669cc3f900da"},"vehicle_type_id":"4","last_reported":1743188856,"current_range_meters":10800,"station_id":"ce4bhnh2rcd13ifvqgtg","pricing_plan_id":"cebpf4jnsgd1na2vs0mg"},{"bike_id":"d2be6ce3-8e79-4804-b0d3-008c875e7b9d","system_id":"levelo_inurba_marseille","lat":43.26197,"lon":5.37938,"is_reserved":false,"is_disabled":false,"rental_uris":{"android":"levelo://app?vid=d2be6ce3-8e79-4804-b0d3-008c875e7b9d","ios":"levelo://app?vid=d2be6ce3-8e79-4804-b0d3-008c875e7b9d"},"vehicle_type_id":"4","last_reported":1743188856,"current_range_meters":10800,"station_id":"ce4bhjp2rcd13ifvqg90","pricing_plan_id":"cebpf4jnsgd1na2vs0mg"},{"bike_id":"e3d3b79b-f749-45fc-843c-b28d4931e9e1","system_id":"levelo_inurba_marseille","lat":43.29941,"lon":5.36557,"is_reserved":false,"is_disabled":false,"rental_uris":{"android":"levelo://app?vid=e3d3b79b-f749-45fc-843c-b28d4931e9e1","ios":"levelo://app?vid=e3d3b79b-f749-45fc-843c-b28d4931e9e1"},"vehicle_type_id":"4","last_reported":1743188856,"current_range_meters":10800,"station_id":"ce4bgm92rcd13ifvqbr0","pricing_plan_id":"cebpf4jnsgd1na2vs0mg"},{"bike_id":"fb348b09-6abb-47a4-a266-91f2eeaee291","system_id":"levelo_inurba_marseille","lat":43.32095,"lon":5.3678,"is_reserved":false,"is_disabled":false,"rental_uris":{"android":"levelo://app?vid=fb348b09-6abb-47a4-a266-91f2eeaee291","ios":"levelo://app?vid=fb348b09-6abb-47a4-a266-91f2eeaee291"},"vehicle_type_id":"4","last_reported":1743188856,"current_range_meters":10800,"station_id":"ce4bhrh2rcd13ifvqhug","pricing_plan_id":"cebpf4jnsgd1na2vs0mg"},{"bike_id":"f47eba55-a588-4033-a3dc-992c836c995d","system_id":"levelo_inurba_marseille","lat":43.31738,"lon":5.40534,"is_reserved":false,"is_disabled":false,"rental_uris":{"android":"levelo://app?vid=f47eba55-a588-4033-a3dc-992c836c995d","ios":"levelo://app?vid=f47eba55-a588-4033-a3dc-992c836c995d"},"vehicle_type_id":"4","last_reported":1743188856,"current_range_meters":10800,"station_id":"","pricing_plan_id":"cebpf4jnsgd1na2vs0mg"},{"bike_id":"6082a6d8-29f3-4441-bd82-d0f95ead75d7","system_id":"levelo_inurba_marseille","lat":43.231919,"lon":5.355575,"is_reserved":false,"is_disabled":false,"rental_uris":{"android":"levelo://app?vid=6082a6d8-29f3-4441-bd82-d0f95ead75d7","ios":"levelo://app?vid=6082a6d8-29f3-4441-bd82-d0f95ead75d7"},"vehicle_type_id":"4","last_reported":1743188856,"current_range_meters":10800,"station_id":"ce4bhu92rcd13ifvqi70","pricing_plan_id":"cebpf4jnsgd1na2vs0mg"},{"bike_id":"498cb903-0e7b-4b46-898d-148c04832279","system_id":"levelo_inurba_marseille","lat":43.23954,"lon":5.3666,"is_reserved":false,"is_disabled":false,"rental_uris":{"android":"levelo://app?vid=498cb903-0e7b-4b46-898d-148c04832279","ios":"levelo://app?vid=498cb903-0e7b-4b46-898d-148c04832279"},"vehicle_type_id":"4","last_reported":1743188856,"current_range_meters":10800,"station_id":"ce4bhi12rcd13ifvqfp0","pricing_plan_id":"cebpf4jnsgd1na2vs0mg"},{"bike_id":"91370982-bea2-4acd-a445-f2a2c38b227e","system_id":"levelo_inurba_marseille","lat":43.27964,"lon":5.38741,"is_reserved":false,"is_disabled":false,"rental_uris":{"android":"levelo://app?vid=91370982-bea2-4acd-a445-f2a2c38b227e","ios":"levelo://app?vid=91370982-bea2-4acd-a445-f2a2c38b227e"},"vehicle_type_id":"4","last_reported":1743188856,"current_range_meters":10000,"station_id":"ce4bhg12rcd13ifvqf80","pricing_plan_id":"cebpf4jnsgd1na2vs0mg"},{"bike_id":"305331cb-357f-4edf-9298-1db4902c1df4","system_id":"levelo_inurba_marseille","lat":43.29178,"lon":5.39301,"is_reserved":false,"is_disabled":true,"rental_uris":{"android":"levelo://app?vid=305331cb-357f-4edf-9298-1db4902c1df4","ios":"levelo://app?vid=305331cb-357f-4edf-9298-1db4902c1df4"},"vehicle_type_id":"4","last_reported":1743188856,"current_range_meters":10800,"station_id":"ce4bh192rcd13ifvqdd0","pricing_plan_id":"cebpf4jnsgd1na2vs0mg"},{"bike_id":"b5ace6c6-32e3-486d-9744-efb1ce0dfa9d","system_id":"levelo_inurba_marseille","lat":43.28615,"lon":5.37062,"is_reserved":false,"is_disabled":false,"rental_uris":{"android":"levelo://app?vid=b5ace6c6-32e3-486d-9744-efb1ce0dfa9d","ios":"levelo://app?vid=b5ace6c6-32e3-486d-9744-efb1ce0dfa9d"},"vehicle_type_id":"4","last_reported":1743188856,"current_range_meters":10800,"station_id":"ce4bht12rcd13ifvqi60","pricing_plan_id":"cebpf4jnsgd1na2vs0mg"},{"bike_id":"0c0bfef6-5ec8-4bb6-9e48-7c4cb38c51ab","system_id":"levelo_inurba_marseille","lat":43.31493,"lon":5.37317,"is_reserved":false,"is_disabled":false,"rental_uris":{"android":"levelo://app?vid=0c0bfef6-5ec8-4bb6-9e48-7c4cb38c51ab","ios":"levelo://app?vid=0c0bfef6-5ec8-4bb6-9e48-7c4cb38c51ab"},"vehicle_type_id":"4","last_reported":1743188856,"current_range_meters":10800,"station_id":"ce4bgt12rcd13ifvqcd0","pricing_plan_id":"cebpf4jnsgd1na2vs0mg"},{"bike_id":"4fbfc3e6-1d5a-469b-ab70-bfc87a275095","system_id":"levelo_inurba_marseille","lat":43.23231,"lon":5.35562,"is_reserved":false,"is_disabled":false,"rental_uris":{"android":"levelo://app?vid=4fbfc3e6-1d5a-469b-ab70-bfc87a275095","ios":"levelo://app?vid=4fbfc3e6-1d5a-469b-ab70-bfc87a275095"},"vehicle_type_id":"4","last_reported":1743188856,"current_range_meters":10800,"station_id":"ce4bhu92rcd13ifvqi70","pricing_plan_id":"cebpf4jnsgd1na2vs0mg"},{"bike_id":"e0e7d9a9-59fd-4d00-8dd2-776d0bd7e445","system_id":"levelo_inurba_marseille","lat":43.258189,"lon":5.394331,"is_reserved":false,"is_disabled":false,"rental_uris":{"android":"levelo://app?vid=e0e7d9a9-59fd-4d00-8dd2-776d0bd7e445","ios":"levelo://app?vid=e0e7d9a9-59fd-4d00-8dd2-776d0bd7e445"},"vehicle_type_id":"4","last_reported":1743188856,"current_range_meters":10800,"station_id":"ce4bhip2rcd13ifvqft0","pricing_plan_id":"cebpf4jnsgd1na2vs0mg"},{"bike_id":"9462a91b-8b4b-430a-ac7a-4612f1bebb31","system_id":"levelo_inurba_marseille","lat":43.29098,"lon":5.38166,"is_reserved":false,"is_disabled":true,"rental_uris":{"android":"levelo://app?vid=9462a91b-8b4b-430a-ac7a-4612f1bebb31","ios":"levelo://app?vid=9462a91b-8b4b-430a-ac7a-4612f1bebb31"},"vehicle_type_id":"4","last_reported":1743188856,"current_range_meters":10800,"station_id":"ce4bh512rcd13ifvqe2g","pricing_plan_id":"cebpf4jnsgd1na2vs0mg"},{"bike_id":"94d65f6b-69b8-4734-b70d-8e10efd9e66c","system_id":"levelo_inurba_marseille","lat":43.29853,"lon":5.36277,"is_reserved":false,"is_disabled":false,"rental_uris":{"android":"levelo://app?vid=94d65f6b-69b8-4734-b70d-8e10efd9e66c","ios":"levelo://app?vid=94d65f6b-69b8-4734-b70d-8e10efd9e66c"},"vehicle_type_id":"4","last_reported":1743188856,"current_range_meters":10800,"station_id":"ce4bgpp2rcd13ifvqc3g","pricing_plan_id":"cebpf4jnsgd1na2vs0mg"},{"bike_id":"db388efa-7589-4acd-a958-653108675fde","system_id":"levelo_inurba_marseille","lat":43.33602,"lon":5.4104,"is_reserved":false,"is_disabled":false,"rental_uris":{"android":"levelo://app?vid=db388efa-7589-4acd-a958-653108675fde","ios":"levelo://app?vid=db388efa-7589-4acd-a958-653108675fde"},"vehicle_type_id":"4","last_reported":1743188856,"current_range_meters":11200,"station_id":"ce4bhqh2rcd13ifvqhmg","pricing_plan_id":"cebpf4jnsgd1na2vs0mg"},{"bike_id":"8ce57e29-9e4e-4c4b-9eac-25dbada77966","system_id":"levelo_inurba_marseille","lat":43.27616,"lon":5.36118,"is_reserved":false,"is_disabled":false,"rental_uris":{"android":"levelo://app?vid=8ce57e29-9e4e-4c4b-9eac-25dbada77966","ios":"levelo://app?vid=8ce57e29-9e4e-4c4b-9eac-25dbada77966"},"vehicle_type_id":"4","last_reported":1743188856,"current_range_meters":11200,"station_id":"ce4bgj92rcd13ifvqbe0","pricing_plan_id":"cebpf4jnsgd1na2vs0mg"},{"bike_id":"eef75a29-8f94-45b0-b9d9-6991a77efccc","system_id":"levelo_inurba_marseille","lat":43.29257,"lon":5.37608,"is_reserved":false,"is_disabled":false,"rental_uris":{"android":"levelo://app?vid=eef75a29-8f94-45b0-b9d9-6991a77efccc","ios":"levelo://app?vid=eef75a29-8f94-45b0-b9d9-6991a77efccc"},"vehicle_type_id":"4","last_reported":1743188856,"current_range_meters":11200,"station_id":"ce4bgi12rcd13ifvqb80","pricing_plan_id":"cebpf4jnsgd1na2vs0mg"},{"bike_id":"703c6035-7db6-48af-a14b-885bc497dbc7","system_id":"levelo_inurba_marseille","lat":43.29841,"lon":5.36269,"is_reserved":false,"is_disabled":false,"rental_uris":{"android":"levelo://app?vid=703c6035-7db6-48af-a14b-885bc497dbc7","ios":"levelo://app?vid=703c6035-7db6-48af-a14b-885bc497dbc7"},"vehicle_type_id":"4","last_reported":1743188856,"current_range_meters":11200,"station_id":"ce4bgpp2rcd13ifvqc3g","pricing_plan_id":"cebpf4jnsgd1na2vs0mg"},{"bike_id":"2ac8aac4-381a-4548-a6d1-4bcf672a7985","system_id":"levelo_inurba_marseille","lat":43.30151,"lon":5.38093,"is_reserved":false,"is_disabled":false,"rental_uris":{"android":"levelo://app?vid=2ac8aac4-381a-4548-a6d1-4bcf672a7985","ios":"levelo://app?vid=2ac8aac4-381a-4548-a6d1-4bcf672a7985"},"vehicle_type_id":"4","last_reported":1743188856,"current_range_meters":11200,"station_id":"ce4bgjp2rcd13ifvqbh0","pricing_plan_id":"cebpf4jnsgd1na2vs0mg"},{"bike_id":"c6c8fb31-86de-4758-859b-e74b70125ab7","system_id":"levelo_inurba_marseille","lat":43.32126,"lon":5.36761,"is_reserved":false,"is_disabled":false,"rental_uris":{"android":"levelo://app?vid=c6c8fb31-86de-4758-859b-e74b70125ab7","ios":"levelo://app?vid=c6c8fb31-86de-4758-859b-e74b70125ab7"},"vehicle_type_id":"4","last_reported":1743188856,"current_range_meters":11200,"station_id":"ce4bhrh2rcd13ifvqhug","pricing_plan_id":"cebpf4jnsgd1na2vs0mg"},{"bike_id":"6e5f4618-59dd-425b-aa11-f67d0d9fb1a5","system_id":"levelo_inurba_marseille","lat":43.31984,"lon":5.38146,"is_reserved":false,"is_disabled":true,"rental_uris":{"android":"levelo://app?vid=6e5f4618-59dd-425b-aa11-f67d0d9fb1a5","ios":"levelo://app?vid=6e5f4618-59dd-425b-aa11-f67d0d9fb1a5"},