{"last_updated":1705604743,"ttl":30,"version":"2.2","data":{"bikes":[{"bike_id":"beafa07d-ca7f-43b9-8ea4-b5f46a63eb12","system_id":"levelo_inurba_marseille","lat":43.31341,"lon":5.367098,"is_reserved":false,"is_disabled":false,"rental_uris":{"android":"levelo://app?vid=beafa07d-ca7f-43b9-8ea4-b5f46a63eb12","ios":"levelo://app?vid=beafa07d-ca7f-43b9-8ea4-b5f46a63eb12"},"vehicle_type_id":"4","last_reported":1705604744,"current_range_meters":26000,"station_id":"ce4bgr92rcd13ifvqc6g","pricing_plan_id":"free"},{"bike_id":"0f2eb0ef-e2c7-4d37-abeb-953c2cdec741","system_id":"levelo_inurba_marseille","lat":43.31341,"lon":5.367098,"is_reserved":false,"is_disabled":false,"rental_uris":{"android":"levelo://app?vid=0f2eb0ef-e2c7-4d37-abeb-953c2cdec741","ios":"levelo://app?vid=0f2eb0ef-e2c7-4d37-abeb-953c2cdec741"},"vehicle_type_id":"4","last_reported":1705604744,"current_range_meters":27200,"station_id":"ce4bgr92rcd13ifvqc6g","pricing_plan_id":"free"},{"bike_id":"70c083cb-2255-4767-82ca-9ebfd40ac5a8","system_id":"levelo_inurba_marseille","lat":43.312239,"lon":5.368562,"is_reserved":false,"is_disabled":false,"rental_uris":{"android":"levelo://app?vid=70c083cb-2255-4767-82ca-9ebfd40ac5a8","ios":"levelo://app?vid=70c083cb-2255-4767-82ca-9ebfd40ac5a8"},"vehicle_type_id":"4","last_reported":1705604744,"current_range_meters":6400,"station_id":"ce4bgl92rcd13ifvqbq0","pricing_plan_id":"free"},{"bike_id":"6d6188d6-d01e-4660-a8ab-a09e209d5fbf","system_id":"levelo_inurba_marseille","lat":43.312239,"lon":5.368562,"is_reserved":false,"is_disabled":false,"rental_uris":{"android":"levelo://app?vid=6d6188d6-d01e-4660-a8ab-a09e209d5fbf","ios":"levelo://app?vid=6d6188d6-d01e-4660-a8ab-a09e209d5fbf"},"vehicle_type_id":"4","last_reported":1705604744,"current_range_meters":28000,"station_id":"ce4bgl92rcd13ifvqbq0","pricing_plan_id":"free"},{"bike_id":"4f32c7ff-8ca7-453e-94f8-26ef9046aef8","system_id":"levelo_inurba_marseille","lat":43.312239,"lon":5.368562,"is_reserved":false,"is_disabled":false,"rental_uris":{"android":"levelo://app?vid=4f32c7ff-8ca7-453e-94f8-26ef9046aef8","ios":"levelo://app?vid=4f32c7ff-8ca7-453e-94f8-26ef9046aef8"},"vehicle_type_id":"4","last_reported":1705604744,"current_range_meters":28400,"station_id":"ce4bgl92rcd13ifvqbq0","pricing_plan_id":"free"},{"bike_id":"3c0dff93-15d3-405a-a254-999f845743b8","system_id":"levelo_inurba_marseille","lat":43.312239,"lon":5.368562,"is_reserved":false,"is_disabled":false,"rental_uris":{"android":"levelo://app?vid=3c0dff93-15d3-405a-a254-999f845743b8","ios":"levelo://app?vid=3c0dff93-15d3-405a-a254-999f845743b8"},"vehicle_type_id":"4","last_reported":1705604744,"current_range_meters":0,"station_id":"ce4bgl92rcd13ifvqbq0","pricing_plan_id":"free"},{"bike_id":"f5761892-e61b-4cf0-a1d6-cab2e094b8ec","system_id":"levelo_inurba_marseille","lat":43.309076,"lon":5.368465,"is_reserved":false,"is_disabled":false,"rental_uris":{"android":"levelo://app?vid=f5761892-e61b-4cf0-a1d6-cab2e094b8ec","ios":"levelo://app?vid=f5761892-e61b-4cf0-a1d6-cab2e094b8ec"},"vehicle_type_id":"4","last_reported":1705604744,"current_range_meters":18800,"station_id":"ce4bgn92rcd13ifvqbvg","pricing_plan_id":"free"},{"bike_id":"359a4d05-219f-4312-9c15-a26d8df92fa3","system_id":"levelo_inurba_marseille","lat":43.30902,"lon":5.36841,"is_reserved":false,"is_disabled":false,"rental_uris":{"android":"levelo://app?vid=359a4d05-219f-4312-9c15-a26d8df92fa3","ios":"levelo://app?vid=359a4d05-219f-4312-9c15-a26d8df92fa3"},"vehicle_type_id":"4","last_reported":1705604744,"current_range_meters":30000,"station_id":"ce4bgn92rcd13ifvqbvg","pricing_plan_id":"free"},{"bike_id":"fb0a93fa-d62d-41c6-a840-c88b14a91ed3","system_id":"levelo_inurba_marseille","lat":43.314811,"lon":5.373104,"is_reserved":false,"is_disabled":false,"rental_uris":{"android":"levelo://app?vid=fb0a93fa-d62d-41c6-a840-c88b14a91ed3","ios":"levelo://app?vid=fb0a93fa-d62d-41c6-a840-c88b14a91ed3"},"vehicle_type_id":"4","last_reported":1705604744,"current_range_meters":30000,"station_id":"ce4bgt12rcd13ifvqcd0","pricing_plan_id":"free"},{"bike_id":"58c101e2-7f22-40d9-91cf-c6be979e2b9d","system_id":"levelo_inurba_marseille","lat":43.314811,"lon":5.373104,"is_reserved":false,"is_disabled":false,"rental_uris":{"android":"levelo://app?vid=58c101e2-7f22-40d9-91cf-c6be979e2b9d","ios":"levelo://app?vid=58c101e2-7f22-40d9-91cf-c6be979e2b9d"},"vehicle_type_id":"4","last_reported":1705604744,"current_range_meters":15200,"station_id":"ce4bgt12rcd13ifvqcd0","pricing_plan_id":"free"},{"bike_id":"97ddaf34-fc83-491a-8069-e860e75c0641","system_id":"levelo_inurba_marseille","lat":43.314811,"lon":5.373104,"is_reserved":false,"is_disabled":false,"rental_uris":{"android":"levelo://app?vid=97ddaf34-fc83-491a-8069-e860e75c0641","ios":"levelo://app?vid=97ddaf34-fc83-491a-8069-e860e75c0641"},"vehicle_type_id":"4","last_reported":1705604744,"current_range_meters":21600,"station_id":"ce4bgt12rcd13ifvqcd0","pricing_plan_id":"free"},{"bike_id":"ada57516-366e-4f2e-9261-248d17dd2000","system_id":"levelo_inurba_marseille","lat":43.30898,"lon":5.37201,"is_reserved":false,"is_disabled":false,"rental_uris":{"android":"levelo://app?vid=ada57516-366e-4f2e-9261-248d17dd2000","ios":"levelo://app?vid=ada57516-366e-4f2e-9261-248d17dd2000"},"vehicle_type_id":"4","last_reported":1705604744,"current_range_meters":24000,"station_id":"ce4bguh2rcd13ifvqckg","pricing_plan_id":"free"},{"bike_id":"3dda7689-ea3c-4cbd-9bd4-a6dfab22781a","system_id":"levelo_inurba_marseille","lat":43.309039,"lon":5.371797,"is_reserved":false,"is_disabled":false,"rental_uris":{"android":"levelo://app?vid=3dda7689-ea3c-4cbd-9bd4-a6dfab22781a","ios":"levelo://app?vid=3dda7689-ea3c-4cbd-9bd4-a6dfab22781a"},"vehicle_type_id":"4","last_reported":1705604744,"current_range_meters":25600,"station_id":"ce4bguh2rcd13ifvqckg","pricing_plan_id":"free"},{"bike_id":"fb591205-8bdb-4962-a68c-41080150bea1","system_id":"levelo_inurba_marseille","lat":43.308862,"lon":5.371926,"is_reserved":false,"is_disabled":false,"rental_uris":{"android":"levelo://app?vid=fb591205-8bdb-4962-a68c-41080150bea1","ios":"levelo://app?vid=fb591205-8bdb-4962-a68c-41080150bea1"},"vehicle_type_id":"4","last_reported":1705604744,"current_range_meters":6400,"station_id":"ce4bguh2rcd13ifvqckg","pricing_plan_id":"free"},{"bike_id":"5f838d90-cace-47c8-a8c2-671dc5a298a6","system_id":"levelo_inurba_marseille","lat":43.30882,"lon":5.37195,"is_reserved":false,"is_disabled":false,"rental_uris":{"android":"levelo://app?vid=5f838d90-cace-47c8-a8c2-671dc5a298a6","ios":"levelo://app?vid=5f838d90-cace-47c8-a8c2-671dc5a298a6"},"vehicle_type_id":"4","last_reported":1705604744,"current_range_meters":8800,"station_id":"ce4bguh2rcd13ifvqckg","pricing_plan_id":"free"},{"bike_id":"76d7e8f1-dcd0-49fa-bcf5-fe80f156ad51","system_id":"levelo_inurba_marseille","lat":43.305368,"lon":5.367343,"is_reserved":false,"is_disabled":false,"rental_uris":{"android":"levelo://app?vid=76d7e8f1-dcd0-49fa-bcf5-fe80f156ad51","ios":"levelo://app?vid=76d7e8f1-dcd0-49fa-bcf5-fe80f156ad51"},"vehicle_type_id":"4","last_reported":1705604744,"current_range_meters":13200,"station_id":"ce4bgrp2rcd13ifvqc9g","pricing_plan_id":"free"},{"bike_id":"84c63b62-6f8e-4fba-b901-38c28116587a","system_id":"levelo_inurba_marseille","lat":43.305989,"lon":5.37225,"is_reserved":false,"is_disabled":false,"rental_uris":{"android":"levelo://app?vid=84c63b62-6f8e-4fba-b901-38c28116587a","ios":"levelo://app?vid=84c63b62-6f8e-4fba-b901-38c28116587a"},"vehicle_type_id":"4","last_reported":1705604744,"current_range_meters":2400,"station_id":"ce4bgqh2rcd13ifvqc4g","pricing_plan_id":"free"},{"bike_id":"a7041faa-bd5b-4359-8606-98c63c401625","system_id":"levelo_inurba_marseille","lat":43.311131,"lon":5.377651,"is_reserved":false,"is_disabled":false,"rental_uris":{"android":"levelo://app?vid=a7041faa-bd5b-4359-8606-98c63c401625","ios":"levelo://app?vid=a7041faa-bd5b-4359-8606-98c63c401625"},"vehicle_type_id":"4","last_reported":1705604744,"current_range_meters":4400,"station_id":"ce4bgt92rcd13ifvqcg0","pricing_plan_id":"free"},{"bike_id":"055609c5-1b43-4cd2-8777-8304ccb1ed3b","system_id":"levelo_inurba_marseille","lat":43.311131,"lon":5.377651,"is_reserved":false,"is_disabled":false,"rental_uris":{"android":"levelo://app?vid=055609c5-1b43-4cd2-8777-8304ccb1ed3b","ios":"levelo://app?vid=055609c5-1b43-4cd2-8777-8304ccb1ed3b"},"vehicle_type_id":"4","last_reported":1705604744,"current_range_meters":14800,"station_id":"ce4bgt92rcd13ifvqcg0","pricing_plan_id":"free"},{"bike_id":"e490f320-a09a-4d23-8e14-fa912670b6de","system_id":"levelo_inurba_marseille","lat":43.311131,"lon":5.377651,"is_reserved":false,"is_disabled":false,"rental_uris":{"android":"levelo://app?vid=e490f320-a09a-4d23-8e14-fa912670b6de","ios":"levelo://app?vid=e490f320-a09a-4d23-8e14-fa912670b6de"},"vehicle_type_id":"4","last_reported":1705604744,"current_range_meters":2400,"station_id":"ce4bgt92rcd13ifvqcg0","pricing_plan_id":"free"},{"bike_id":"7c6ffd67-5c80-413d-92c0-88c57b27dd7e","system_id":"levelo_inurba_marseille","lat":43.317075,"lon":5.377367,"is_reserved":false,"is_disabled":false,"rental_uris":{"android":"levelo://app?vid=7c6ffd67-5c80-413d-92c0-88c57b27dd7e","ios":"levelo://app?vid=7c6ffd67-5c80-413d-92c0-88c57b27dd7e"},"vehicle_type_id":"4","last_reported":1705604744,"current_range_meters":16800,"station_id":"ce4bgth2rcd13ifvqch0","pricing_plan_id":"free"},{"bike_id":"819b1a40-d6df-482f-82e8-64b53a316ad6","system_id":"levelo_inurba_marseille","lat":43.31688,"lon":5.37757,"is_reserved":false,"is_disabled":false,"rental_uris":{"android":"levelo://app?vid=819b1a40-d6df-482f-82e8-64b53a316ad6","ios":"levelo://app?vid=819b1a40-d6df-482f-82e8-64b53a316ad6"},"vehicle_type_id":"4","last_reported":1705604744,"current_range_meters":14000,"station_id":"ce4bgth2rcd13ifvqch0","pricing_plan_id":"free"},{"bike_id":"38e197e8-976f-4841-ab72-5eafb8f88779","system_id":"levelo_inurba_marseille","lat":43.317075,"lon":5.377367,"is_reserved":false,"is_disabled":false,"rental_uris":{"android":"levelo://app?vid=38e197e8-976f-4841-ab72-5eafb8f88779","ios":"levelo://app?vid=38e197e8-976f-4841-ab72-5eafb8f88779"},"vehicle_type_id":"4","last_reported":1705604744,"current_range_meters":6000,"station_id":"ce4bgth2rcd13ifvqch0","pricing_plan_id":"free"},{"bike_id":"15c787c0-c09d-4fdb-9d13-006f6c96b22d","system_id":"levelo_inurba_marseille","lat":43.31532,"lon":5.38026,"is_reserved":false,"is_disabled":false,"rental_uris":{"android":"levelo://app?vid=15c787c0-c09d-4fdb-9d13-006f6c96b22d","ios":"levelo://app?vid=15c787c0-c09d-4fdb-9d13-006f6c96b22d"},"vehicle_type_id":"4","last_reported":1705604744,"current_range_meters":16800,"station_id":"ce4bhsp2rcd13ifvqi50","pricing_plan_id":"free"},{"bike_id":"89a91384-2d71-4341-855c-da67e2084936","system_id":"levelo_inurba_marseille","lat":43.308012,"lon":5.381511,"is_reserved":false,"is_disabled":false,"rental_uris":{"android":"levelo://app?vid=89a91384-2d71-4341-855c-da67e2084936","ios":"levelo://app?vid=89a91384-2d71-4341-855c-da67e2084936"},"vehicle_type_id":"4","last_reported":1705604744,"current_range_meters":11600,"station_id":"ce4bgt12rcd13ifvqce0","pricing_plan_id":"free"},{"bike_id":"fa7579fb-7fc2-43bc-b99f-88b9f39c2965","system_id":"levelo_inurba_marseille","lat":43.308012,"lon":5.381511,"is_reserved":false,"is_disabled":false,"rental_uris":{"android":"levelo://app?vid=fa7579fb-7fc2-43bc-b99f-88b9f39c2965","ios":"levelo://app?vid=fa7579fb-7fc2-43bc-b99f-88b9f39c2965"},"vehicle_type_id":"4","last_reported":1705604744,"current_range_meters":0,"station_id":"ce4bgt12rcd13ifvqce0","pricing_plan_id":"free"},{"bike_id":"51d3d74e-c459-4dfd-ba8b-cb4dd4701236","system_id":"levelo_inurba_marseille","lat":43.308012,"lon":5.381511,"is_reserved":false,"is_disabled":false,"rental_uris":{"android":"levelo://app?vid=51d3d74e-c459-4dfd-ba8b-cb4dd4701236","ios":"levelo://app?vid=51d3d74e-c459-4dfd-ba8b-cb4dd4701236"},"vehicle_type_id":"4","last_reported":1705604744,"current_range_meters":14800,"station_id":"ce4bgt12rcd13ifvqce0","pricing_plan_id":"free"},{"bike_id":"71a126c7-b719-426c-b069-4af1d4a5ba47","system_id":"levelo_inurba_marseille","lat":43.32473,"lon":5.36577,"is_reserved":false,"is_disabled":false,"rental_uris":{"android":"levelo://app?vid=71a126c7-b719-426c-b069-4af1d4a5ba47","ios":"levelo://app?vid=71a126c7-b719-426c-b069-4af1d4a5ba47"},"vehicle_type_id":"4","last_reported":1705604744,"current_range_meters":6000,"station_id":"ce4bhs12rcd13ifvqhvg","pricing_plan_id":"free"},{"bike_id":"ea324322-80be-4794-9a3a-79f399705eb7","system_id":"levelo_inurba_marseille","lat":43.304606,"lon":5.379026,"is_reserved":false,"is_disabled":false,"rental_uris":{"android":"levelo://app?vid=ea324322-80be-4794-9a3a-79f399705eb7","ios":"levelo://app?vid=ea324322-80be-4794-9a3a-79f399705eb7"},"vehicle_type_id":"4","last_reported":1705604744,"current_range_meters":27200,"station_id":"ce4bgup2rcd13ifvqcn0","pricing_plan_id":"free"},{"bike_id":"c8e8a678-f0de-456d-8ad4-4f5e65b33581","system_id":"levelo_inurba_marseille","lat":43.304606,"lon":5.379026,"is_reserved":false,"is_disabled":false,"rental_uris":{"android":"levelo://app?vid=c8e8a678-f0de-456d-8ad4-4f5e65b33581","ios":"levelo://app?vid=c8e8a678-f0de-456d-8ad4-4f5e65b33581"},"vehicle_type_id":"4","last_reported":1705604744,"current_range_meters":16800,"station_id":"ce4bgup2rcd13ifvqcn0","pricing_plan_id":"free"},{"bike_id":"e4177659-51fb-478d-874b-b1ee9ec922ac","system_id":"levelo_inurba_marseille","lat":43.304606,"lon":5.379026,"is_reserved":false,"is_disabled":false,"rental_uris":{"android":"levelo://app?vid=e4177659-51fb-478d-874b-b1ee9ec922ac","ios":"levelo://app?vid=e4177659-51fb-478d-874b-b1ee9ec922ac"},"vehicle_type_id":"4","last_reported":1705604744,"current_range_meters":26800,"station_id":"ce4bgup2rcd13ifvqcn0","pricing_plan_id":"free"},{"bike_id":"46ec1513-2f89-453b-9dd2-3f27d5f57997","system_id":"levelo_inurba_marseille","lat":43.304606,"lon":5.379026,"is_reserved":false,"is_disabled":false,"rental_uris":{"android":"levelo://app?vid=46ec1513-2f89-453b-9dd2-3f27d5f57997","ios":"levelo://app?vid=46ec1513-2f89-453b-9dd2-3f27d5f57997"},"vehicle_type_id":"4","last_reported":1705604744,"current_range_meters":22800,"station_id":"ce4bgup2rcd13ifvqcn0","pricing_plan_id":"free"},{"bike_id":"8ba836ad-7c04-4c5f-82a3-450ff5ca74c1","system_id":"levelo_inurba_marseille","lat":43.304606,"lon":5.379026,"is_reserved":false,"is_disabled":false,"rental_uris":{"android":"levelo://app?vid=8ba836ad-7c04-4c5f-82a3-450ff5ca74c1","ios":"levelo://app?vid=8ba836ad-7c04-4c5f-82a3-450ff5ca74c1"},"vehicle_type_id":"4","last_reported":1705604744,"current_range_meters":29200,"station_id":"ce4bgup2rcd13ifvqcn0","pricing_plan_id":"free"},{"bike_id":"d00b74c2-3359-4d71-b409-cabe2be70921","system_id":"levelo_inurba_marseille","lat":43.304617,"lon":5.379146,"is_reserved":false,"is_disabled":false,"rental_uris":{"android":"levelo://app?vid=d00b74c2-3359-4d71-b409-cabe2be70921","ios":"levelo://app?vid=d00b74c2-3359-4d71-b409-cabe2be70921"},"vehicle_type_id":"4","last_reported":1705604744,"current_range_meters":13600,"station_id":"","pricing_plan_id":"free"},{"bike_id":"3200daae-258f-49f4-948d-c660bf701442","system_id":"levelo_inurba_marseille","lat":43.304606,"lon":5.379026,"is_reserved":false,"is_disabled":false,"rental_uris":{"android":"levelo://app?vid=3200daae-258f-49f4-948d-c660bf701442","ios":"levelo://app?vid=3200daae-258f-49f4-948d-c660bf701442"},"vehicle_type_id":"4","last_reported":1705604744,"current_range_meters":15600,"station_id":"ce4bgup2rcd13ifvqcn0","pricing_plan_id":"free"},{"bike_id":"28abe011-841e-45ec-bfe5-72aa9c72bbf3","system_id":"levelo_inurba_marseille","lat":43.304606,"lon":5.379026,"is_reserved":false,"is_disabled":false,"rental_uris":{"android":"levelo://app?vid=28abe011-841e-45ec-bfe5-72aa9c72bbf3","ios":"levelo://app?vid=28abe011-841e-45ec-bfe5-72aa9c72bbf3"},"vehicle_type_id":"4","last_reported":1705604744,"current_range_meters":18000,"station_id":"ce4bgup2rcd13ifvqcn0","pricing_plan_id":"free"},{"bike_id":"3cb5ad2b-e743-4194-9d67-007686b421e8","system_id":"levelo_inurba_marseille","lat":43.32477,"lon":5.36579,"is_reserved":false,"is_disabled":false,"rental_uris":{"android":"levelo://app?vid=3cb5ad2b-e743-4194-9d67-007686b421e8","ios":"levelo://app?vid=3cb5ad2b-e743-4194-9d67-007686b421e8"},"vehicle_type_id":"4","last_reported":1705604744,"current_range_meters":15200,"station_id":"ce4bhs12rcd13ifvqhvg","pricing_plan_id":"free"},{"bike_id":"c7d5a568-f005-4c80-9985-4488f0d479fc","system_id":"levelo_inurba_marseille","lat":43.304606,"lon":5.379026,"is_reserved":false,"is_disabled":false,"rental_uris":{"android":"levelo://app?vid=c7d5a568-f005-4c80-9985-4488f0d479fc","ios":"levelo://app?vid=c7d5a568-f005-4c80-9985-4488f0d479fc"},"vehicle_type_id":"4","last_reported":1705604744,"current_range_meters":31200,"station_id":"ce4bgup2rcd13ifvqcn0","pricing_plan_id":"free"},{"bike_id":"d655f5bb-ed30-48d1-8fea-b10c22e797ad","system_id":"levelo_inurba_marseille","lat":43.324771,"lon":5.36557,"is_reserved":false,"is_disabled":false,"rental_uris":{"android":"levelo://app?vid=d655f5bb-ed30-48d1-8fea-b10c22e797ad","ios":"levelo://app?vid=d655f5bb-ed30-48d1-8fea-b10c22e797ad"},"vehicle_type_id":"4","last_reported":1705604744,"current_range_meters":24400,"station_id":"ce4bhs12rcd13ifvqhvg","pricing_plan_id":"free"},{"bike_id":"2179bf7d-2ef3-478f-ab07-0d1474ed1fd2","system_id":"levelo_inurba_marseille","lat":43.324903,"lon":5.365817,"is_reserved":false,"is_disabled":false,"rental_uris":{"android":"levelo://app?vid=2179bf7d-2ef3-478f-ab07-0d1474ed1fd2","ios":"levelo://app?vid=2179bf7d-2ef3-478f-ab07-0d1474ed1fd2"},"vehicle_type_id":"4","last_reported":1705604744,"current_range_meters":10000,"station_id":"ce4bhs12rcd13ifvqhvg","pricing_plan_id":"free"},{"bike_id":"42ca861d-780d-450e-8192-81007cd36177","system_id":"levelo_inurba_marseille","lat":43.30143,"lon":5.37413,"is_reserved":false,"is_disabled":false,"rental_uris":{"android":"levelo://app?vid=42ca861d-780d-450e-8192-81007cd36177","ios":"levelo://app?vid=42ca861d-780d-450e-8192-81007cd36177"},"vehicle_type_id":"4","last_reported":1705604744,"current_range_meters":8800,"station_id":"ce4bgs92rcd13ifvqcc0","pricing_plan_id":"free"},{"bike_id":"e9c1a3c1-146c-408b-8ffc-fc26d013a171","system_id":"levelo_inurba_marseille","lat":43.30274,"lon":5.3771,"is_reserved":false,"is_disabled":false,"rental_uris":{"android":"levelo://app?vid=e9c1a3c1-146c-408b-8ffc-fc26d013a171","ios":"levelo://app?vid=e9c1a3c1-146c-408b-8ffc-fc26d013a171"},"vehicle_type_id":"4","last_reported":1705604744,"current_range_meters":7200,"station_id":"","pricing_plan_id":"free"},{"bike_id":"2200c8c5-2419-4eb5-b913-cfff868d749d","system_id":"levelo_inurba_marseille","lat":43.319935,"lon":5.381699,"is_reserved":false,"is_disabled":false,"rental_uris":{"android":"levelo://app?vid=2200c8c5-2419-4eb5-b913-cfff868d749d","ios":"levelo://app?vid=2200c8c5-2419-4eb5-b913-cfff868d749d"},"vehicle_type_id":"4","last_reported":1705604744,"current_range_meters":4000,"station_id":"ce4bhr12rcd13ifvqhpg","pricing_plan_id":"free"},{"bike_id":"b8baf239-d6b3-431c-ad49-863bb01d3c41","system_id":"levelo_inurba_marseille","lat":43.313571,"lon":5.384829,"is_reserved":false,"is_disabled":false,"rental_uris":{"android":"levelo://app?vid=b8baf239-d6b3-431c-ad49-863bb01d3c41","ios":"levelo://app?vid=b8baf239-d6b3-431c-ad49-863bb01d3c41"},"vehicle_type_id":"4","last_reported":1705604744,"current_range_meters":11200,"station_id":"ce4bgt92rcd13ifvqcf0","pricing_plan_id":"free"},{"bike_id":"5f2ee9ac-adf1-4336-a5c8-1523e368273b","system_id":"levelo_inurba_marseille","lat":43.313571,"lon":5.384829,"is_reserved":false,"is_disabled":false,"rental_uris":{"android":"levelo://app?vid=5f2ee9ac-adf1-4336-a5c8-1523e368273b","ios":"levelo://app?vid=5f2ee9ac-adf1-4336-a5c8-1523e368273b"},"vehicle_type_id":"4","last_reported":1705604744,"current_range_meters":19200,"station_id":"ce4bgt92rcd13ifvqcf0","pricing_plan_id":"free"},{"bike_id":"cc506409-5890-48e7-a0dc-cc1f478f0673","system_id":"levelo_inurba_marseille","lat":43.308012,"lon":5.381511,"is_reserved":false,"is_disabled":false,"rental_uris":{"android":"levelo://app?vid=cc506409-5890-48e7-a0dc-cc1f478f0673","ios":"levelo://app?vid=cc506409-5890-48e7-a0dc-cc1f478f0673"},"vehicle_type_id":"4","last_reported":1705604744,"current_range_meters":10400,"station_id":"ce4bgt12rcd13ifvqce0","pricing_plan_id":"free"},{"bike_id":"07f07333-9230-4ac3-8054-fbf1bcd195b8","system_id":"levelo_inurba_marseille","lat":43.299222,"lon":5.365554,"is_reserved":false,"is_disabled":false,"rental_uris":{"android":"levelo://app?vid=07f07333-9230-4ac3-8054-fbf1bcd195b8","ios":"levelo://app?vid=07f07333-9230-4ac3-8054-fbf1bcd195b8"},"vehicle_type_id":"4","last_reported":1705604744,"current_range_meters":7600,"station_id":"ce4bgm92rcd13ifvqbr0","pricing_plan_id":"free"},{"bike_id":"527763f6-e1ba-4881-9f5e-8baa316bfba8","system_id":"levelo_inurba_marseille","lat":43.313571,"lon":5.384829,"is_reserved":false,"is_disabled":false,"rental_uris":{"android":"levelo://app?vid=527763f6-e1ba-4881-9f5e-8baa316bfba8","ios":"levelo://app?vid=527763f6-e1ba-4881-9f5e-8baa316bfba8"},"vehicle_type_id":"4","last_reported":1705604744,"current_range_meters":11200,"station_id":"ce4bgt92rcd13ifvqcf0","pricing_plan_id":"free"},{"bike_id":"4c30c08a-131c-49c7-b28e-0c048d2392b9","system_id":"levelo_inurba_marseille","lat":43.305364,"lon":5.384119,"is_reserved":false,"is_disabled":false,"rental_uris":{"android":"levelo://app?vid=4c30c08a-131c-49c7-b28e-0c048d2392b9","ios":"levelo://app?vid=4c30c08a-131c-49c7-b28e-0c048d2392b9"},"vehicle_type_id":"4","last_reported":1705604744,"current_range_meters":18800,"station_id":"ce4bgg92rcd13ifvqb30","pricing_plan_id":"free"},{"bike_id":"d734ecd7-5256-41de-b9da-c6ba57332841","system_id":"levelo_inurba_marseille","lat":43.305364,"lon":5.384119,"is_reserved":false,"is_disabled":false,"rental_uris":{"android":"levelo://app?vid=d734ecd7-5256-41de-b9da-c6ba57332841","ios":"levelo://app?vid=d734ecd7-5256-41de-b9da-c6ba57332841"},"vehicle_type_id":"4","last_reported":1705604744,"current_range_meters":0,"station_id":"ce4bgg92rcd13ifvqb30","pricing_plan_id":"free"},{"bike_id":"d8a6e841-c3b3-49d8-a903-a1d50f205cf3","system_id":"levelo_inurba_marseille","lat":43.298433,"lon":5.362774,"is_reserved":false,"is_disabled":false,"rental_uris":{"android":"levelo://app?vid=d8a6e841-c3b3-49d8-a903-a1d50f205cf3","ios":"levelo://app?vid=d8a6e841-c3b3-49d8-a903-a1d50f205cf3"},"vehicle_type_id":"4","last_reported":1705604744,"current_range_meters":23200,"station_id":"ce4bgpp2rcd13ifvqc3g","pricing_plan_id":"free"},{"bike_id":"2391ef3f-718c-495c-b8c0-3c96bef9130e","system_id":"levelo_inurba_marseille","lat":43.299243,"lon":5.374807,"is_reserved":false,"is_disabled":false,"rental_uris":{"android":"levelo://app?vid=2391ef3f-718c-495c-b8c0-3c96bef9130e","ios":"levelo://app?vid=2391ef3f-718c-495c-b8c0-3c96bef9130e"},"vehicle_type_id":"4","last_reported":1705604744,"current_range_meters":10800,"station_id":"ce4bgjh2rcd13ifvqbg0","pricing_plan_id":"free"},{"bike_id":"09e91849-0782-4b28-8abd-3427653343c5","system_id":"levelo_inurba_marseille","lat":43.311722,"lon":5.387247,"is_reserved":false,"is_disabled":false,"rental_uris":{"android":"levelo://app?vid=09e91849-0782-4b28-8abd-3427653343c5","ios":"levelo://app?vid=09e91849-0782-4b28-8abd-3427653343c5"},"vehicle_type_id":"4","last_reported":1705604744,"current_range_meters":0,"station_id":"ce4bgv12rcd13ifvqcp0","pricing_plan_id":"free"},{"bike_id":"3cd34e9e-0f91-4f51-b8b2-8fb4de1beb89","system_id":"levelo_inurba_marseille","lat":43.311722,"lon":5.387247,"is_reserved":false,"is_disabled":false,"rental_uris":{"android":"levelo://app?vid=3cd34e9e-0f91-4f51-b8b2-8fb4de1beb89","ios":"levelo://app?vid=3cd34e9e-0f91-4f51-b8b2-8fb4de1beb89"},"vehicle_type_id":"4","last_reported":1705604744,"current_range_meters":29200,"station_id":"ce4bgv12rcd13ifvqcp0","pricing_plan_id":"free"},{"bike_id":"2920ee5f-f064-459f-a921-c9e0df94d716","system_id":"levelo_inurba_marseille","lat":43.31166,"lon":5.38723,"is_reserved":false,"is_disabled":false,"rental_uris":{"android":"levelo://app?vid=2920ee5f-f064-459f-a921-c9e0df94d716","ios":"levelo://app?vid=2920ee5f-f064-459f-a921-c9e0df94d716"},"vehicle_type_id":"4","last_reported":1705604744,"current_range_meters":400,"station_id":"ce4bgv12rcd13ifvqcp0","pricing_plan_id":"free"},{"bike_id":"4a98507c-1ca0-4b34-85b9-628ca3e154c9","system_id":"levelo_inurba_marseille","lat":43.311722,"lon":5.387247,"is_reserved":false,"is_disabled":false,"rental_uris":{"android":"levelo://app?vid=4a98507c-1ca0-4b34-85b9-628ca3e154c9","ios":"levelo://app?vid=4a98507c-1ca0-4b34-85b9-628ca3e154c9"},"vehicle_type_id":"4","last_reported":1705604744,"current_range_meters":4400,"station_id":"ce4bgv12rcd13ifvqcp0","pricing_plan_id":"free"},{"bike_id":"d5f85722-1a6d-4569-8942-1a9d851cf8a7","system_id":"levelo_inurba_marseille","lat":43.311722,"lon":5.387247,"is_reserved":false,"is_disabled":false,"rental_uris":{"android":"levelo://app?vid=d5f85722-1a6d-4569-8942-1a9d851cf8a7","ios":"levelo://app?vid=d5f85722-1a6d-4569-8942-1a9d851cf8a7"},"vehicle_type_id":"4","last_reported":1705604744,"current_range_meters":19600,"station_id":"ce4bgv12rcd13ifvqcp0","pricing_plan_id":"free"},{"bike_id":"093844bb-5f36-4586-b841-5afaa6ec61ce","system_id":"levelo_inurba_marseille","lat":43.297774,"lon":5.370875,"is_reserved":false,"is_disabled":false,"rental_uris":{"android":"levelo://app?vid=093844bb-5f36-4586-b841-5afaa6ec61ce","ios":"levelo://app?vid=093844bb-5f36-4586-b841-5afaa6ec61ce"},"vehicle_type_id":"4","last_reported":1705604744,"current_range_meters":17600,"station_id":"ce4bgop2rcd13ifvqc1g","pricing_plan_id":"free"},{"bike_id":"c59e915a-05cb-49b2-8b19-dcae4465ebcc","system_id":"levelo_inurba_marseille","lat":43.322889,"lon":5.382624,"is_reserved":false,"is_disabled":false,"rental_uris":{"android":"levelo://app?vid=c59e915a-05cb-49b2-8b19-dcae4465ebcc","ios":"levelo://app?vid=c59e915a-05cb-49b2-8b19-dcae4465ebcc"},"vehicle_type_id":"4","last_reported":1705604744,"current_range_meters":30000,"station_id":"ce4bhr12rcd13ifvqhqg","pricing_plan_id":"free"},{"bike_id":"34c8b400-5074-46e3-aa02-f5d274dfaa4f","system_id":"levelo_inurba_marseille","lat":43.32292,"lon":5.38264,"is_reserved":false,"is_disabled":false,"rental_uris":{"android":"levelo://app?vid=34c8b400-5074-46e3-aa02-f5d274dfaa4f","ios":"levelo://app?vid=34c8b400-5074-46e3-aa02-f5d274dfaa4f"},"vehicle_type_id":"4","last_reported":1705604744,"current_range_meters":10000,"station_id":"ce4bhr12rcd13ifvqhqg","pricing_plan_id":"free"},{"bike_id":"4845401d-8788-4800-be14-6d63122bfc72","system_id":"levelo_inurba_marseille","lat":43.32293,"lon":5.382643,"is_reserved":false,"is_disabled":false,"rental_uris":{"android":"levelo://app?vid=4845401d-8788-4800-be14-6d63122bfc72","ios":"levelo://app?vid=4845401d-8788-4800-be14-6d63122bfc72"},"vehicle_type_id":"4","last_reported":1705604744,"current_range_meters":6800,"station_id":"ce4bhr12rcd13ifvqhqg","pricing_plan_id":"free"},{"bike_id":"aa1b3cf4-5953-466c-a16f-697ec5cccb4c","system_id":"levelo_inurba_marseille","lat":43.32287,"lon":5.382748,"is_reserved":false,"is_disabled":false,"rental_uris":{"android":"levelo://app?vid=aa1b3cf4-5953-466c-a16f-697ec5cccb4c","ios":"levelo://app?vid=aa1b3cf4-5953-466c-a16f-697ec5cccb4c"},"vehicle_type_id":"4","last_reported":1705604744,"current_range_meters":8400,"station_id":"ce4bhr12rcd13ifvqhqg","pricing_plan_id":"free"},{"bike_id":"510e4003-ad50-4182-a4bb-6da1b111fff5","system_id":"levelo_inurba_marseille","lat":43.322872,"lon":5.382756,"is_reserved":false,"is_disabled":false,"rental_uris":{"android":"levelo://app?vid=510e4003-ad50-4182-a4bb-6da1b111fff5","ios":"levelo://app?vid=510e4003-ad50-4182-a4bb-6da1b111fff5"},"vehicle_type_id":"4","last_reported":1705604744,"current_range_meters":18800,"station_id":"ce4bhr12rcd13ifvqhqg","pricing_plan_id":"free"},{"bike_id":"afe2d6ba-ebda-4981-9104-c77037901f05","system_id":"levelo_inurba_marseille","lat":43.322872,"lon":5.382756,"is_reserved":false,"is_disabled":false,"rental_uris":{"android":"levelo://app?vid=afe2d6ba-ebda-4981-9104-c77037901f05","ios":"levelo://app?vid=afe2d6ba-ebda-4981-9104-c77037901f05"},"vehicle_type_id":"4","last_reported":1705604744,"current_range_meters":10400,"station_id":"ce4bhr12rcd13ifvqhqg","pricing_plan_id":"free"},{"bike_id":"6da9db5a-42ba-4fa8-afc9-4fdbb45498c1","system_id":"levelo_inurba_marseille","lat":43.328213,"lon":5.366794,"is_reserved":false,"is_disabled":false,"rental_uris":{"android":"levelo://app?vid=6da9db5a-42ba-4fa8-afc9-4fdbb45498c1","ios":"levelo://app?vid=6da9db5a-42ba-4fa8-afc9-4fdbb45498c1"},"vehicle_type_id":"4","last_reported":1705604744,"current_range_meters":8000,"station_id":"ce4bhs92rcd13ifvqi0g","pricing_plan_id":"free"},{"bike_id":"7a5cfd19-67b5-4404-837f-9d2597d5b4a4","system_id":"levelo_inurba_marseille","lat":43.32825,"lon":5.36686,"is_reserved":false,"is_disabled":false,"rental_uris":{"android":"levelo://app?vid=7a5cfd19-67b5-4404-837f-9d2597d5b4a4","ios":"levelo://app?vid=7a5cfd19-67b5-4404-837f-9d2597d5b4a4"},"vehicle_type_id":"4","last_reported":1705604744,"current_range_meters":8800,"station_id":"ce4bhs92rcd13ifvqi0g","pricing_plan_id":"free"},{"bike_id":"b3d1df88-d8ad-420f-822b-89111e75191e","system_id":"levelo_inurba_marseille","lat":43.328259,"lon":5.366804,"is_reserved":false,"is_disabled":false,"rental_uris":{"android":"levelo://app?vid=b3d1df88-d8ad-420f-822b-89111e75191e","ios":"levelo://app?vid=b3d1df88-d8ad-420f-822b-89111e75191e"},"vehicle_type_id":"4","last_reported":1705604744,"current_range_meters":2800,"station_id":"ce4bhs92rcd13ifvqi0g","pricing_plan_id":"free"},{"bike_id":"ea0178f3-2c6b-4af6-b062-91b0b8dde1df","system_id":"levelo_inurba_marseille","lat":43.32826,"lon":5.36682,"is_reserved":false,"is_disabled":false,"rental_uris":{"android":"levelo://app?vid=ea0178f3-2c6b-4af6-b062-91b0b8dde1df","ios":"levelo://app?vid=ea0178f3-2c6b-4af6-b062-91b0b8dde1df"},"vehicle_type_id":"4","last_reported":1705604744,"current_range_meters":30400,"station_id":"ce4bhs92rcd13ifvqi0g","pricing_plan_id":"free"},{"bike_id":"6b4ea496-3016-42db-af64-ba8beb6e73fc","system_id":"levelo_inurba_marseille","lat":43.328371,"lon":5.366909,"is_reserved":false,"is_disabled":false,"rental_uris":{"android":"levelo://app?vid=6b4ea496-3016-42db-af64-ba8beb6e73fc","ios":"levelo://app?vid=6b4ea496-3016-42db-af64-ba8beb6e73fc"},"vehicle_type_id":"4","last_reported":1705604744,"current_range_meters":19200,"station_id":"ce4bhs92rcd13ifvqi0g","pricing_plan_id":"free"},{"bike_id":"85cedcff-9e9a-415d-8415-195178ea3cb7","system_id":"levelo_inurba_marseille","lat":43.328269,"lon":5.366811,"is_reserved":false,"is_disabled":false,"rental_uris":{"android":"levelo://app?vid=85cedcff-9e9a-415d-8415-195178ea3cb7","ios":"levelo://app?vid=85cedcff-9e9a-415d-8415-195178ea3cb7"},"vehicle_type_id":"4","last_reported":1705604744,"current_range_meters":15200,"station_id":"ce4bhs92rcd13ifvqi0g","pricing_plan_id":"free"},{"bike_id":"2849c95b-f1a6-402d-aac7-80ea81f2feb2","system_id":"levelo_inurba_marseille","lat":43.328273,"lon":5.36674,"is_reserved":false,"is_disabled":false,"rental_uris":{"android":"levelo://app?vid=2849c95b-f1a6-402d-aac7-80ea81f2feb2","ios":"levelo://app?vid=2849c95b-f1a6-402d-aac7-80ea81f2feb2"},"vehicle_type_id":"4","last_reported":1705604744,"current_range_meters":29200,"station_id":"ce4bhs92rcd13ifvqi0g","pricing_plan_id":"free"},{"bike_id":"1782ad4d-7cbc-4ac0-af82-b65688e9d34c","system_id":"levelo_inurba_marseille","lat":43.328371,"lon":5.366909,"is_reserved":false,"is_disabled":false,"rental_uris":{"android":"levelo://app?vid=1782ad4d-7cbc-4ac0-af82-b65688e9d34c","ios":"levelo://app?vid=1782ad4d-7cbc-4ac0-af82-b65688e9d34c"},"vehicle_type_id":"4","last_reported":1705604744,"current_range_meters":21600,"station_id":"ce4bhs92rcd13ifvqi0g","pricing_plan_id":"free"},{"bike_id":"641739e6-19de-47df-9491-35da26c3c9da","system_id":"levelo_inurba_marseille","lat":43.328371,"lon":5.366909,"is_reserved":false,"is_disabled":false,"rental_uris":{"android":"levelo://app?vid=641739e6-19de-47df-9491-35da26c3c9da","ios":"levelo://app?vid=641739e6-19de-47df-9491-35da26c3c9da"},"vehicle_type_id":"4","last_reported":1705604744,"current_range_meters":23600,"station_id":"ce4bhs92rcd13ifvqi0g","pricing_plan_id":"free"},{"bike_id":"88638e12-da12-4596-b7e2-600ab2f62219","system_id":"levelo_inurba_marseille","lat":43.328371,"lon":5.366909,"is_reserved":false,"is_disabled":false,"rental_uris":{"android":"levelo://app?vid=88638e12-da12-4596-b7e2-600ab2f62219","ios":"levelo://app?vid=88638e12-da12-4596-b7e2-600ab2f62219"},"vehicle_type_id":"4","last_reported":1705604744,"current_range_meters":4800,"station_id":"ce4bhs92rcd13ifvqi0g","pricing_plan_id":"free"},{"bike_id":"bae0e6ef-8eeb-485a-a054-bea3431d2035","system_id":"levelo_inurba_marseille","lat":43.328371,"lon":5.366909,"is_reserved":false,"is_disabled":false,"rental_uris":{"android":"levelo://app?vid=bae0e6ef-8eeb-485a-a054-bea3431d2035","ios":"levelo://app?vid=bae0e6ef-8eeb-485a-a054-bea3431d2035"},"vehicle_type_id":"4","last_reported":1705604744,"current_range_meters":13600,"station_id":"ce4bhs92rcd13ifvqi0g","pricing_plan_id":"free"},{"bike_id":"4d7aa436-d024-4c37-ac49-d26c20db48a7","system_id":"levelo_inurba_marseille","lat":43.297163,"lon":5.365866,"is_reserved":false,"is_disabled":false,"rental_uris":{"android":"levelo://app?vid=4d7aa436-d024-4c37-ac49-d26c20db48a7","ios":"levelo://app?vid=4d7aa436-d024-4c37-ac49-d26c20db48a7"},"vehicle_type_id":"4","last_reported":1705604744,"current_range_meters":28800,"station_id":"ce4bgn12rcd13ifvqbt0","pricing_plan_id":"free"},{"bike_id":"a53b6dde-9c97-4a96-897c-ee7f9265222d","system_id":"levelo_inurba_marseille","lat":43.328371,"lon":5.366909,"is_reserved":false,"is_disabled":false,"rental_uris":{"android":"levelo://app?vid=a53b6dde-9c97-4a96-897c-ee7f9265222d","ios":"levelo://app?vid=a53b6dde-9c97-4a96-897c-ee7f9265222d"},"vehicle_type_id":"4","last_reported":1705604744,"current_range_meters":16400,"station_id":"ce4bhs92rcd13ifvqi0g","pricing_plan_id":"free"},{"bike_id":"13f3b9ed-f83f-409e-a1a0-5cc3bfd11ea6","system_id":"levelo_inurba_marseille","lat":43.32832,"lon":5.36686,"is_reserved":false,"is_disabled":false,"rental_uris":{"android":"levelo://app?vid=13f3b9ed-f83f-409e-a1a0-5cc3bfd11ea6","ios":"levelo://app?vid=13f3b9ed-f83f-409e-a1a0-5cc3bfd11ea6"},"vehicle_type_id":"4","last_reported":1705604744,"current_range_meters":24000,"station_id":"ce4bhs92rcd13ifvqi0g","pricing_plan_id":"free"},{"bike_id":"02f97db8-1e1e-4f38-89f3-11868234f7c3","system_id":"levelo_inurba_marseille","lat":43.32832,"lon":5.36681,"is_reserved":false,"is_disabled":false,"rental_uris":{"android":"levelo://app?vid=02f97db8-1e1e-4f38-89f3-11868234f7c3","ios":"levelo://app?vid=02f97db8-1e1e-4f38-89f3-11868234f7c3"},"vehicle_type_id":"4","last_reported":1705604744,"current_range_meters":12400,"station_id":"ce4bhs92rcd13ifvqi0g","pricing_plan_id":"free"},{"bike_id":"38082c03-fac1-44d3-a79f-5142b4a113a9","system_id":"levelo_inurba_marseille","lat":43.328373,"lon":5.366902,"is_reserved":false,"is_disabled":false,"rental_uris":{"android":"levelo://app?vid=38082c03-fac1-44d3-a79f-5142b4a113a9","ios":"levelo://app?vid=38082c03-fac1-44d3-a79f-5142b4a113a9"},"vehicle_type_id":"4","last_reported":1705604744,"current_range_meters":18000,"station_id":"ce4bhs92rcd13ifvqi0g","pricing_plan_id":"free"},{"bike_id":"0cd85974-e845-4ebf-aa36-3950ad3faa20","system_id":"levelo_inurba_marseille","lat":43.297163,"lon":5.365866,"is_reserved":false,"is_disabled":false,"rental_uris":{"android":"levelo://app?vid=0cd85974-e845-4ebf-aa36-3950ad3faa20","ios":"levelo://app?vid=0cd85974-e845-4ebf-aa36-3950ad3faa20"},"vehicle_type_id":"4","last_reported":1705604744,"current_range_meters":20800,"station_id":"ce4bgn12rcd13ifvqbt0","pricing_plan_id":"free"},{"bike_id":"522573b3-f1bf-4893-bef3-9ac94c010af3","system_id":"levelo_inurba_marseille","lat":43.297163,"lon":5.365866,"is_reserved":false,"is_disabled":false,"rental_uris":{"android":"levelo://app?vid=522573b3-f1bf-4893-bef3-9ac94c010af3","ios":"levelo://app?vid=522573b3-f1bf-4893-bef3-9ac94c010af3"},"vehicle_type_id":"4","last_reported":1705604744,"current_range_meters":21600,"station_id":"ce4bgn12rcd13ifvqbt0","pricing_plan_id":"free"},{"bike_id":"2bc19b04-af01-4148-a60d-8d19cefc4c26","system_id":"levelo_inurba_marseille","lat":43.297163,"lon":5.365866,"is_reserved":false,"is_disabled":false,"rental_uris":{"android":"levelo://app?vid=2bc19b04-af01-4148-a60d-8d19cefc4c26","ios":"levelo://app?vid=2bc19b04-af01-4148-a60d-8d19cefc4c26"},"vehicle_type_id":"4","last_reported":1705604744,"current_range_meters":16800,"station_id":"ce4bgn12rcd13ifvqbt0","pricing_plan_id":"free"},{"bike_id":"89f3e161-df3d-4f3c-912e-caced16f5891","system_id":"levelo_inurba_marseille","lat":43.297163,"lon":5.365866,"is_reserved":false,"is_disabled":false,"rental_uris":{"android":"levelo://app?vid=89f3e161-df3d-4f3c-912e-caced16f5891","ios":"levelo://app?vid=89f3e161-df3d-4f3c-912e-caced16f5891"},"vehicle_type_id":"4","last_reported":1705604744,"current_range_meters":25200,"station_id":"ce4bgn12rcd13ifvqbt0","pricing_plan_id":"free"},{"bike_id":"d3e8e1af-6e5a-459d-a223-3b1663dccbaf","system_id":"levelo_inurba_marseille","lat":43.309589,"lon":5.390258,"is_reserved":false,"is_disabled":false,"rental_uris":{"android":"levelo://app?vid=d3e8e1af-6e5a-459d-a223-3b1663dccbaf","ios":"levelo://app?vid=d3e8e1af-6e5a-459d-a223-3b1663dccbaf"},"vehicle_type_id":"4","last_reported":1705604744,"current_range_meters":15600,"station_id":"ce4bgup2rcd13ifvqco0","pricing_plan_id":"free"},{"bike_id":"f232e5e2-4e3e-4008-a6a0-2d57280bf990","system_id":"levelo_inurba_marseille","lat":43.296935,"lon":5.376544,"is_reserved":false,"is_disabled":false,"rental_uris":{"android":"levelo://app?vid=f232e5e2-4e3e-4008-a6a0-2d57280bf990","ios":"levelo://app?vid=f232e5e2-4e3e-4008-a6a0-2d57280bf990"},"vehicle_type_id":"4","last_reported":1705604744,"current_range_meters":16000,"station_id":"ce4bgkh2rcd13ifvqbl0","pricing_plan_id":"free"},{"bike_id":"d33bf4c0-76e7-4599-bdc6-e909b14a122f","system_id":"levelo_inurba_marseille","lat":43.309589,"lon":5.390258,"is_reserved":false,"is_disabled":false,"rental_uris":{"android":"levelo://app?vid=d33bf4c0-76e7-4599-bdc6-e909b14a122f","ios":"levelo://app?vid=d33bf4c0-76e7-4599-bdc6-e909b14a122f"},"vehicle_type_id":"4","last_reported":1705604744,"current_range_meters":24000,"station_id":"ce4bgup2rcd13ifvqco0","pricing_plan_id":"free"},{"bike_id":"cc23ae87-4971-4ab6-ba7e-36713a507987","system_id":"levelo_inurba_marseille","lat":43.296921,"lon":5.376579,"is_reserved":false,"is_disabled":false,"rental_uris":{"android":"levelo://app?vid=cc23ae87-4971-4ab6-ba7e-36713a507987","ios":"levelo://app?vid=cc23ae87-4971-4ab6-ba7e-36713a507987"},"vehicle_type_id":"4","last_reported":1705604744,"current_range_meters":1600,"station_id":"ce4bgkh2rcd13ifvqbl0","pricing_plan_id":"free"},{"bike_id":"de21c213-c8a8-49b6-9c50-3c1c560a2f52","system_id":"levelo_inurba_marseille","lat":43.317557,"lon":5.390173,"is_reserved":false,"is_disabled":false,"rental_uris":{"android":"levelo://app?vid=de21c213-c8a8-49b6-9c50-3c1c560a2f52","ios":"levelo://app?vid=de21c213-c8a8-49b6-9c50-3c1c560a2f52"},"vehicle_type_id":"4","last_reported":1705604744,"current_range_meters":21200,"station_id":"ce4bhqp2rcd13ifvqhng","pricing_plan_id":"free"},{"bike_id":"77c84b58-e466-4b14-9aa0-694f95ec3104","system_id":"levelo_inurba_marseille","lat":43.317557,"lon":5.390173,"is_reserved":false,"is_disabled":false,"rental_uris":{"android":"levelo://app?vid=77c84b58-e466-4b14-9aa0-694f95ec3104","ios":"levelo://app?vid=77c84b58-e466-4b14-9aa0-694f95ec3104"},"vehicle_type_id":"4","last_reported":1705604744,"current_range_meters":31200,"station_id":"ce4bhqp2rcd13ifvqhng","pricing_plan_id":"free"},{"bike_id":"d81fcc2d-ba65-4a7d-b1a6-7f5e8793578f","system_id":"levelo_inurba_marseille","lat":43.31754,"lon":5.39017,"is_reserved":false,"is_disabled":false,"rental_uris":{"android":"levelo://app?vid=d81fcc2d-ba65-4a7d-b1a6-7f5e8793578f","ios":"levelo://app?vid=d81fcc2d-ba65-4a7d-b1a6-7f5e8793578f"},"vehicle_type_id":"4","last_reported":1705604744,"current_range_meters":22000,"station_id":"ce4bhqp2rcd13ifvqhng","pricing_plan_id":"free"},{"bike_id":"a0758ead-1c6b-4eda-8725-6bf980bf382e","system_id":"levelo_inurba_marseille","lat":43.3176,"lon":5.39023,"is_reserved":false,"is_disabled":false,"rental_uris":{"android":"levelo://app?vid=a0758ead-1c6b-4eda-8725-6bf980bf382e","ios":"levelo://app?vid=a0758ead-1c6b-4eda-8725-6bf980bf382e"},"vehicle_type_id":"4","last_reported":1705604744,"current_range_meters":4800,"station_id":"ce4bhqp2rcd13ifvqhng","pricing_plan_id":"free"},{"bike_id":"f3615c22-df7b-49e0-b38e-4f64a6e78fa5","system_id":"levelo_inurba_marseille","lat":43.295748,"lon":5.37522,"is_reserved":false,"is_disabled":false,"rental_uris":{"android":"levelo://app?vid=f3615c22-df7b-49e0-b38e-4f64a6e78fa5","ios":"levelo://app?vid=f3615c22-df7b-49e0-b38e-4f64a6e78fa5"},"vehicle_type_id":"4","last_reported":1705604744,"current_range_meters":28400,"station_id":"ce4bgh92rcd13ifvqb50","pricing_plan_id":"free"},{"bike_id":"936b4626-3c34-4987-8f37-7fd5ab58cde8","system_id":"levelo_inurba_marseille","lat":43.304274,"lon":5.388873,"is_reserved":false,"is_disabled":false,"rental_uris":{"android":"levelo://app?vid=936b4626-3c34-4987-8f37-7fd5ab58cde8","ios":"levelo://app?vid=936b4626-3c34-4987-8f37-7fd5ab58cde8"},"vehicle_type_id":"4","last_reported":1705604744,"current_range_meters":0,"station_id":"ce4bgk12rcd13ifvqbi0","pricing_plan_id":"free"},{"bike_id":"73e79637-9782-4dfe-9207-392f4e2ea989","system_id":"levelo_inurba_marseille","lat":43.304278,"lon":5.388868,"is_reserved":false,"is_disabled":false,"rental_uris":{"android":"levelo://app?vid=73e79637-9782-4dfe-9207-392f4e2ea989","ios":"levelo://app?vid=73e79637-9782-4dfe-9207-392f4e2ea989"},"vehicle_type_id":"4","last_reported":1705604744,"current_range_meters":400,"station_id":"ce4bgk12rcd13ifvqbi0","pricing_plan_id":"free"},{"bike_id":"032cb1bd-3dcb-423c-bffe-054c88d6d5ee","system_id":"levelo_inurba_marseille","lat":43.295748,"lon":5.37522,"is_reserved":false,"is_disabled":false,"rental_uris":{"android":"levelo://app?vid=032cb1bd-3dcb-423c-bffe-054c88d6d5ee","ios":"levelo://app?vid=032cb1bd-3dcb-423c-bffe-054c88d6d5ee"},"vehicle_type_id":"4","last_reported":1705604744,"current_range_meters":25200,"station_id":"ce4bgh92rcd13ifvqb50","pricing_plan_id":"free"},{"bike_id":"e0f6e246-5442-4aa3-82af-f88f97db1364","system_id":"levelo_inurba_marseille","lat":43.304278,"lon":5.388868,"is_reserved":false,"is_disabled":false,"rental_uris":{"android":"levelo://app?vid=e0f6e246-5442-4aa3-82af-f88f97db1364","ios":"levelo://app?vid=e0f6e246-5442-4aa3-82af-f88f97db1364"},"vehicle_type_id":"4","last_reported":1705604744,"current_range_meters":0,"station_id":"ce4bgk12rcd13ifvqbi0","pricing_plan_id":"free"},{"bike_id":"768dfa04-02ae-4cfd-9bc8-8937d5656fbe","system_id":"levelo_inurba_marseille","lat":43.296277,"lon":5.377108,"is_reserved":false,"is_disabled":false,"rental_uris":{"android":"levelo://app?vid=768dfa04-02ae-4cfd-9bc8-8937d5656fbe","ios":"levelo://app?vid=768dfa04-02ae-4cfd-9bc8-8937d5656fbe"},"vehicle_type_id":"4","last_reported":1705604744,"current_range_meters":11600,"station_id":"ce4bgi92rcd13ifvqb90","pricing_plan_id":"free"},{"bike_id":"e5beb220-abb0-4c70-a10a-68b40538caaf","system_id":"levelo_inurba_marseille","lat":43.296263,"lon":5.377094,"is_reserved":false,"is_disabled":false,"rental_uris":{"android":"levelo://app?vid=e5beb220-abb0-4c70-a10a-68b40538caaf","ios":"levelo://app?vid=e5beb220-abb0-4c70-a10a-68b40538caaf"},"vehicle_type_id":"4","last_reported":1705604744,"current_range_meters":28000,"station_id":"ce4bgi92rcd13ifvqb90","pricing_plan_id":"free"},{"bike_id":"46f59c95-2437-4c10-b2de-a8af5c6cbb11","system_id":"levelo_inurba_marseille","lat":43.296277,"lon":5.377108,"is_reserved":false,"is_disabled":false,"rental_uris":{"android":"levelo://app?vid=46f59c95-2437-4c10-b2de-a8af5c6cbb11","ios":"levelo://app?vid=46f59c95-2437-4c10-b2de-a8af5c6cbb11"},"vehicle_type_id":"4","last_reported":1705604744,"current_range_meters":800,"station_id":"ce4bgi92rcd13ifvqb90","pricing_plan_id":"free"},{"bike_id":"23ee5c33-3c50-4368-850d-09fd29a85c3f","system_id":"levelo_inurba_marseille","lat":43.295279,"lon":5.375048,"is_reserved":false,"is_disabled":false,"rental_uris":{"android":"levelo://app?vid=23ee5c33-3c50-4368-850d-09fd29a85c3f","ios":"levelo://app?vid=23ee5c33-3c50-4368-850d-09fd29a85c3f"},"vehicle_type_id":"4","last_reported":1705604744,"current_range_meters":22400,"station_id":"ce4bgkp2rcd13ifvqbmg","pricing_plan_id":"free"},{"bike_id":"7de5222c-1b37-42cf-9cac-5a0a514a92f4","system_id":"levelo_inurba_marseille","lat":43.29532,"lon":5.375034,"is_reserved":false,"is_disabled":false,"rental_uris":{"android":"levelo://app?vid=7de5222c-1b37-42cf-9cac-5a0a514a92f4","ios":"levelo://app?vid=7de5222c-1b37-42cf-9cac-5a0a514a92f4"},"vehicle_type_id":"4","last_reported":1705604744,"current_range_meters":0,"station_id":"ce4bgkp2rcd13ifvqbmg","pricing_plan_id":"free"},{"bike_id":"b4f5712e-6aa2-4544-9bea-075ebe0ebd5a","system_id":"levelo_inurba_marseille","lat":43.299717,"lon":5.384845,"is_reserved":false,"is_disabled":false,"rental_uris":{"android":"levelo://app?vid=b4f5712e-6aa2-4544-9bea-075ebe0ebd5a","ios":"levelo://app?vid=b4f5712e-6aa2-4544-9bea-075ebe0ebd5a"},"vehicle_type_id":"4","last_reported":1705604744,"current_range_meters":13600,"station_id":"ce4bgj92rcd13ifvqbd0","pricing_plan_id":"free"},{"bike_id":"625deeca-37be-4651-83f4-e946fcf46d37","system_id":"levelo_inurba_marseille","lat":43.295279,"lon":5.375048,"is_reserved":false,"is_disabled":false,"rental_uris":{"android":"levelo://app?vid=625deeca-37be-4651-83f4-e946fcf46d37","ios":"levelo://app?vid=625deeca-37be-4651-83f4-e946fcf46d37"},"vehicle_type_id":"4","last_reported":1705604744,"current_range_meters":23600,"station_id":"ce4bgkp2rcd13ifvqbmg","pricing_plan_id":"free"},{"bike_id":"fc5161f2-8ac8-4bfd-89ec-797f1e4abef4","system_id":"levelo_inurba_marseille","lat":43.299717,"lon":5.384845,"is_reserved":false,"is_disabled":false,"rental_uris":{"android":"levelo://app?vid=fc5161f2-8ac8-4bfd-89ec-797f1e4abef4","ios":"levelo://app?vid=fc5161f2-8ac8-4bfd-89ec-797f1e4abef4"},"vehicle_type_id":"4","last_reported":1705604744,"current_range_meters":30400,"station_id":"ce4bgj92rcd13ifvqbd0","pricing_plan_id":"free"},{"bike_id":"65305138-9645-412c-93ac-2931d2a41b0c","system_id":"levelo_inurba_marseille","lat":43.299717,"lon":5.384845,"is_reserved":false,"is_disabled":false,"rental_uris":{"android":"levelo://app?vid=65305138-9645-412c-93ac-2931d2a41b0c","ios":"levelo://app?vid=65305138-9645-412c-93ac-2931d2a41b0c"},"vehicle_type_id":"4","last_reported":1705604744,"current_range_meters":31200,"station_id":"ce4bgj92rcd13ifvqbd0","pricing_plan_id":"free"},{"bike_id":"3f1ac6a1-e676-4499-a5d3-78914f1d8f7e","system_id":"levelo_inurba_marseille","lat":43.32369,"lon":5.38866,"is_reserved":false,"is_disabled":false,"rental_uris":{"android":"levelo://app?vid=3f1ac6a1-e676-4499-a5d3-78914f1d8f7e","ios":"levelo://app?vid=3f1ac6a1-e676-4499-a5d3-78914f1d8f7e"},"vehicle_type_id":"4","last_reported":1705604744,"current_range_meters":7600,"station_id":"ce4bhqp2rcd13ifvqhog","pricing_plan_id":"free"},{"bike_id":"ae329723-b6cd-4f52-99af-83cccf370dd2","system_id":"levelo_inurba_marseille","lat":43.323693,"lon":5.388737,"is_reserved":false,"is_disabled":false,"rental_uris":{"android":"levelo://app?vid=ae329723-b6cd-4f52-99af-83cccf370dd2","ios":"levelo://app?vid=ae329723-b6cd-4f52-99af-83cccf370dd2"},"vehicle_type_id":"4","last_reported":1705604744,"current_range_meters":5600,"station_id":"ce4bhqp2rcd13ifvqhog","pricing_plan_id":"free"},{"bike_id":"76d2d8d7-8638-4213-9d68-910604c565ee","system_id":"levelo_inurba_marseille","lat":43.32369,"lon":5.38875,"is_reserved":false,"is_disabled":false,"rental_uris":{"android":"levelo://app?vid=76d2d8d7-8638-4213-9d68-910604c565ee","ios":"levelo://app?vid=76d2d8d7-8638-4213-9d68-910604c565ee"},"vehicle_type_id":"4","last_reported":1705604744,"current_range_meters":1200,"station_id":"ce4bhqp2rcd13ifvqhog","pricing_plan_id":"free"},{"bike_id":"48d01839-1c06-4604-a1d2-ae1f8bd3df35","system_id":"levelo_inurba_marseille","lat":43.32371,"lon":5.38874,"is_reserved":false,"is_disabled":false,"rental_uris":{"android":"levelo://app?vid=48d01839-1c06-4604-a1d2-ae1f8bd3df35","ios":"levelo://app?vid=48d01839-1c06-4604-a1d2-ae1f8bd3df35"},"vehicle_type_id":"4","last_reported":1705604744,"current_range_meters":9600,"station_id":"ce4bhqp2rcd13ifvqhog","pricing_plan_id":"free"},{"bike_id":"d589db7f-f7c3-4eba-9c81-55f7aee0fc32","system_id":"levelo_inurba_marseille","lat":43.323641,"lon":5.388811,"is_reserved":false,"is_disabled":false,"rental_uris":{"android":"levelo://app?vid=d589db7f-f7c3-4eba-9c81-55f7aee0fc32","ios":"levelo://app?vid=d589db7f-f7c3-4eba-9c81-55f7aee0fc32"},"vehicle_type_id":"4","last_reported":1705604744,"current_range_meters":22400,"station_id":"ce4bhqp2rcd13ifvqhog","pricing_plan_id":"free"},{"bike_id":"e488bc27-b4bd-4ecb-9994-ebd8743b5676","system_id":"levelo_inurba_marseille","lat":43.3237,"lon":5.38876,"is_reserved":false,"is_disabled":false,"rental_uris":{"android":"levelo://app?vid=e488bc27-b4bd-4ecb-9994-ebd8743b5676","ios":"levelo://app?vid=e488bc27-b4bd-4ecb-9994-ebd8743b5676"},"vehicle_type_id":"4","last_reported":1705604744,"current_range_meters":12400,"station_id":"ce4bhqp2rcd13ifvqhog","pricing_plan_id":"free"},{"bike_id":"455dcc68-a660-415d-93de-0649d55b906b","system_id":"levelo_inurba_marseille","lat":43.32366,"lon":5.3888,"is_reserved":false,"is_disabled":false,"rental_uris":{"android":"levelo://app?vid=455dcc68-a660-415d-93de-0649d55b906b","ios":"levelo://app?vid=455dcc68-a660-415d-93de-0649d55b906b"},"vehicle_type_id":"4","last_reported":1705604744,"current_range_meters":26800,"station_id":"ce4bhqp2rcd13ifvqhog","pricing_plan_id":"free"},{"bike_id":"73c990ec-843c-4470-94da-4e5dcac1cddb","system_id":"levelo_inurba_marseille","lat":43.32365,"lon":5.38883,"is_reserved":false,"is_disabled":false,"rental_uris":{"android":"levelo://app?vid=73c990ec-843c-4470-94da-4e5dcac1cddb","ios":"levelo://app?vid=73c990ec-843c-4470-94da-4e5dcac1cddb"},"vehicle_type_id":"4","last_reported":1705604744,"current_range_meters":4000,"station_id":"ce4bhqp2rcd13ifvqhog","pricing_plan_id":"free"},{"bike_id":"0bfd4e67-2f41-4ad0-88ae-f2544a59b7c7","system_id":"levelo_inurba_marseille","lat":43.32375,"lon":5.38876,"is_reserved":false,"is_disabled":false,"rental_uris":{"android":"levelo://app?vid=0bfd4e67-2f41-4ad0-88ae-f2544a59b7c7","ios":"levelo://app?vid=0bfd4e67-2f41-4ad0-88ae-f2544a59b7c7"},"vehicle_type_id":"4","last_reported":1705604744,"current_range_meters":18400,"station_id":"ce4bhqp2rcd13ifvqhog","pricing_plan_id":"free"},{"bike_id":"b7beb6a5-b030-4fe2-a25b-ee6b5b88bebb","system_id":"levelo_inurba_marseille","lat":43.323689,"lon":5.388854,"is_reserved":false,"is_disabled":false,"rental_uris":{"android":"levelo://app?vid=b7beb6a5-b030-4fe2-a25b-ee6b5b88bebb","ios":"levelo://app?vid=b7beb6a5-b030-4fe2-a25b-ee6b5b88bebb"},"vehicle_type_id":"4","last_reported":1705604744,"current_range_meters":27200,"station_id":"ce4bhqp2rcd13ifvqhog","pricing_plan_id":"free"},{"bike_id":"2ec4001f-5cf2-4614-bbfc-ffc6c5b765c3","system_id":"levelo_inurba_marseille","lat":43.32369,"lon":5.38887,"is_reserved":false,"is_disabled":false,"rental_uris":{"android":"levelo://app?vid=2ec4001f-5cf2-4614-bbfc-ffc6c5b765c3","ios":"levelo://app?vid=2ec4001f-5cf2-4614-bbfc-ffc6c5b765c3"},"vehicle_type_id":"4","last_reported":1705604744,"current_range_meters":19200,"station_id":"ce4bhqp2rcd13ifvqhog","pricing_plan_id":"free"},{"bike_id":"653514eb-a432-4a04-a863-cb354a5b61f5","system_id":"levelo_inurba_marseille","lat":43.292749,"lon":5.368402,"is_reserved":false,"is_disabled":false,"rental_uris":{"android":"levelo://app?vid=653514eb-a432-4a04-a863-cb354a5b61f5","ios":"levelo://app?vid=653514eb-a432-4a04-a863-cb354a5b61f5"},"vehicle_type_id":"4","last_reported":1705604744,"current_range_meters":16000,"station_id":"ce4bhbp2rcd13ifvqesg","pricing_plan_id":"free"},{"bike_id":"6ba52314-5b2d-4f1d-902b-db631a0de385","system_id":"levelo_inurba_marseille","lat":43.292749,"lon":5.368402,"is_reserved":false,"is_disabled":false,"rental_uris":{"android":"levelo://app?vid=6ba52314-5b2d-4f1d-902b-db631a0de385","ios":"levelo://app?vid=6ba52314-5b2d-4f1d-902b-db631a0de385"},"vehicle_type_id":"4","last_reported":1705604744,"current_range_meters":2800,"station_id":"ce4bhbp2rcd13ifvqesg","pricing_plan_id":"free"},{"bike_id":"b9195f20-b497-4856-9d15-9b5a0aef1b88","system_id":"levelo_inurba_marseille","lat":43.292749,"lon":5.368402,"is_reserved":false,"is_disabled":false,"rental_uris":{"android":"levelo://app?vid=b9195f20-b497-4856-9d15-9b5a0aef1b88","ios":"levelo://app?vid=b9195f20-b497-4856-9d15-9b5a0aef1b88"},"vehicle_type_id":"4","last_reported":1705604744,"current_range_meters":20000,"station_id":"ce4bhbp2rcd13ifvqesg","pricing_plan_id":"free"},{"bike_id":"08d8d74d-1ae2-4309-854f-0695f7823f7e","system_id":"levelo_inurba_marseille","lat":43.292749,"lon":5.368402,"is_reserved":false,"is_disabled":false,"rental_uris":{"android":"levelo://app?vid=08d8d74d-1ae2-4309-854f-0695f7823f7e","ios":"levelo://app?vid=08d8d74d-1ae2-4309-854f-0695f7823f7e"},"vehicle_type_id":"4","last_reported":1705604744,"current_range_meters":3200,"station_id":"ce4bhbp2rcd13ifvqesg","pricing_plan_id":"free"},{"bike_id":"cfc10172-33c1-4d74-a496-898c08692852","system_id":"levelo_inurba_marseille","lat":43.292749,"lon":5.368402,"is_reserved":false,"is_disabled":false,"rental_uris":{"android":"levelo://app?vid=cfc10172-33c1-4d74-a496-898c08692852","ios":"levelo://app?vid=cfc10172-33c1-4d74-a496-898c08692852"},"vehicle_type_id":"4","last_reported":1705604744,"current_range_meters":0,"station_id":"ce4bhbp2rcd13ifvqesg","pricing_plan_id":"free"},{"bike_id":"f4e42955-3ba4-4186-afef-19de6a7d1ade","system_id":"levelo_inurba_marseille","lat":43.292749,"lon":5.368402,"is_reserved":false,"is_disabled":false,"rental_uris":{"android":"levelo://app?vid=f4e42955-3ba4-4186-afef-19de6a7d1ade","ios":"levelo://app?vid=f4e42955-3ba4-4186-afef-19de6a7d1ade"},"vehicle_type_id":"4","last_reported":1705604744,"current_range_meters":2000,"station_id":"ce4bhbp2rcd13ifvqesg","pricing_plan_id":"free"},{"bike_id":"da73b194-91f3-48d3-8c70-87d3e283e4a8","system_id":"levelo_inurba_marseille","lat":43.292749,"lon":5.368402,"is_reserved":false,"is_disabled":false,"rental_uris":{"android":"levelo://app?vid=da73b194-91f3-48d3-8c70-87d3e283e4a8","ios":"levelo://app?vid=da73b194-91f3-48d3-8c70-87d3e283e4a8"},"vehicle_type_id":"4","last_reported":1705604744,"current_range_meters":28800,"station_id":"ce4bhbp2rcd13ifvqesg","pricing_plan_id":"free"},{"bike_id":"f5889789-266d-4a64-90bc-9a7d00ba009f","system_id":"levelo_inurba_marseille","lat":43.292749,"lon":5.368402,"is_reserved":false,"is_disabled":false,"rental_uris":{"android":"levelo://app?vid=f5889789-266d-4a64-90bc-9a7d00ba009f","ios":"levelo://app?vid=f5889789-266d-4a64-90bc-9a7d00ba009f"},"vehicle_type_id":"4","last_reported":1705604744,"current_range_meters":800,"station_id":"ce4bhbp2rcd13ifvqesg","pricing_plan_id":"free"},{"bike_id":"9cd14a09-08ab-4bca-b5e6-5e4363a3dd05","system_id":"levelo_inurba_marseille","lat":43.305994,"lon":5.393687,"is_reserved":false,"is_disabled":false,"rental_uris":{"android":"levelo://app?vid=9cd14a09-08ab-4bca-b5e6-5e4363a3dd05","ios":"levelo://app?vid=9cd14a09-08ab-4bca-b5e6-5e4363a3dd05"},"vehicle_type_id":"4","last_reported":1705604744,"current_range_meters":3200,"station_id":"ce4bh0p2rcd13ifvqd80","pricing_plan_id":"free"},{"bike_id":"a1364233-afc6-4df1-bc8e-aabb8f640e36","system_id":"levelo_inurba_marseille","lat":43.29303,"lon":5.37475,"is_reserved":false,"is_disabled":false,"rental_uris":{"android":"levelo://app?vid=a1364233-afc6-4df1-bc8e-aabb8f640e36","ios":"levelo://app?vid=a1364233-afc6-4df1-bc8e-aabb8f640e36"},"vehicle_type_id":"4","last_reported":1705604744,"current_range_meters":10000,"station_id":"ce4bgi12rcd13ifvqb70","pricing_plan_id":"free"},{"bike_id":"558a09d0-43f4-4d8a-a66a-adb806a72e05","system_id":"levelo_inurba_marseille","lat":43.29303,"lon":5.37477,"is_reserved":false,"is_disabled":false,"rental_uris":{"android":"levelo://app?vid=558a09d0-43f4-4d8a-a66a-adb806a72e05","ios":"levelo://app?vid=558a09d0-43f4-4d8a-a66a-adb806a72e05"},"vehicle_type_id":"4","last_reported":1705604744,"current_range_meters":22000,"station_id":"ce4bgi12rcd13ifvqb70","pricing_plan_id":"free"},{"bike_id":"ad75cd49-5e86-4bdc-a486-0c1462df9621","system_id":"levelo_inurba_marseille","lat":43.30536,"lon":5.393491,"is_reserved":false,"is_disabled":false,"rental_uris":{"android":"levelo://app?vid=ad75cd49-5e86-4bdc-a486-0c1462df9621","ios":"levelo://app?vid=ad75cd49-5e86-4bdc-a486-0c1462df9621"},"vehicle_type_id":"4","last_reported":1705604744,"current_range_meters":2000,"station_id":"","pricing_plan_id":"free"},{"bike_id":"ff8745ab-90ee-4cf6-920f-22f80debe4a4","system_id":"levelo_inurba_marseille","lat":43.303002,"lon":5.392142,"is_reserved":false,"is_disabled":false,"rental_uris":{"android":"levelo://app?vid=ff8745ab-90ee-4cf6-920f-22f80debe4a4","ios":"levelo://app?vid=ff8745ab-90ee-4cf6-920f-22f80debe4a4"},"vehicle_type_id":"4","last_reported":1705604744,"current_range_meters":1200,"station_id":"ce4bgkh2rcd13ifvqbk0","pricing_plan_id":"free"},{"bike_id":"4808ef30-cf83-4cc0-ba1a-b4ac4011dc0f","system_id":"levelo_inurba_marseille","lat":43.302992,"lon":5.392136,"is_reserved":false,"is_disabled":false,"rental_uris":{"android":"levelo://app?vid=4808ef30-cf83-4cc0-ba1a-b4ac4011dc0f","ios":"levelo://app?vid=4808ef30-cf83-4cc0-ba1a-b4ac4011dc0f"},"vehicle_type_id":"4","last_reported":1705604744,"current_range_meters":3600,"station_id":"ce4bgkh2rcd13ifvqbk0","pricing_plan_id":"free"},{"bike_id":"813c0a31-336f-4f26-a70c-47deb2e4c024","system_id":"levelo_inurba_marseille","lat":43.2936,"lon":5.37835,"is_reserved":false,"is_disabled":false,"rental_uris":{"android":"levelo://app?vid=813c0a31-336f-4f26-a70c-47deb2e4c024","ios":"levelo://app?vid=813c0a31-336f-4f26-a70c-47deb2e4c024"},"vehicle_type_id":"4","last_reported":1705604744,"current_range_meters":15600,"station_id":"ce4bgjh2rcd13ifvqbf0","pricing_plan_id":"free"},{"bike_id":"08a44cd7-0ce0-4959-b051-17b998e9c14a","system_id":"levelo_inurba_marseille","lat":43.291675,"lon":5.371583,"is_reserved":false,"is_disabled":false,"rental_uris":{"android":"levelo://app?vid=08a44cd7-0ce0-4959-b051-17b998e9c14a","ios":"levelo://app?vid=08a44cd7-0ce0-4959-b051-17b998e9c14a"},"vehicle_type_id":"4","last_reported":1705604744,"current_range_meters":10800,"station_id":"ce4bha92rcd13ifvqeh0","pricing_plan_id":"free"},{"bike_id":"b9abe1dc-c623-4ad6-aebe-aaa7b4a3e2c9","system_id":"levelo_inurba_marseille","lat":43.291675,"lon":5.371583,"is_reserved":false,"is_disabled":false,"rental_uris":{"android":"levelo://app?vid=b9abe1dc-c623-4ad6-aebe-aaa7b4a3e2c9","ios":"levelo://app?vid=b9abe1dc-c623-4ad6-aebe-aaa7b4a3e2c9"},"vehicle_type_id":"4","last_reported":1705604744,"current_range_meters":27200,"station_id":"ce4bha92rcd13ifvqeh0","pricing_plan_id":"free"},{"bike_id":"46c064f2-92a6-421d-b7d8-08fbffb39c7b","system_id":"levelo_inurba_marseille","lat":43.291695,"lon":5.371565,"is_reserved":false,"is_disabled":false,"rental_uris":{"android":"levelo://app?vid=46c064f2-92a6-421d-b7d8-08fbffb39c7b","ios":"levelo://app?vid=46c064f2-92a6-421d-b7d8-08fbffb39c7b"},"vehicle_type_id":"4","last_reported":1705604744,"current_range_meters":0,"station_id":"ce4bha92rcd13ifvqeh0","pricing_plan_id":"free"},{"bike_id":"0d2ac790-bf0e-4d0f-afac-94e23fec1e7b","system_id":"levelo_inurba_marseille","lat":43.30888,"lon":5.396397,"is_reserved":false,"is_disabled":false,"rental_uris":{"android":"levelo://app?vid=0d2ac790-bf0e-4d0f-afac-94e23fec1e7b","ios":"levelo://app?vid=0d2ac790-bf0e-4d0f-afac-94e23fec1e7b"},"vehicle_type_id":"4","last_reported":1705604744,"current_range_meters":7600,"station_id":"ce4bh012rcd13ifvqcv0","pricing_plan_id":"free"},{"bike_id":"213609db-390e-4c47-8f10-73bc26c2381e","system_id":"levelo_inurba_marseille","lat":43.31328,"lon":5.39687,"is_reserved":false,"is_disabled":false,"rental_uris":{"android":"levelo://app?vid=213609db-390e-4c47-8f10-73bc26c2381e","ios":"levelo://app?vid=213609db-390e-4c47-8f10-73bc26c2381e"},"vehicle_type_id":"4","last_reported":1705604744,"current_range_meters":4000,"station_id":"ce4bgvp2rcd13ifvqcu0","pricing_plan_id":"free"},{"bike_id":"ead7ca07-2855-4f90-8509-1a7526811ec2","system_id":"levelo_inurba_marseille","lat":43.30886,"lon":5.39641,"is_reserved":false,"is_disabled":false,"rental_uris":{"android":"levelo://app?vid=ead7ca07-2855-4f90-8509-1a7526811ec2","ios":"levelo://app?vid=ead7ca07-2855-4f90-8509-1a7526811ec2"},"vehicle_type_id":"4","last_reported":1705604744,"current_range_meters":0,"station_id":"ce4bh012rcd13ifvqcv0","pricing_plan_id":"free"},{"bike_id":"9d009762-8c58-41fe-a183-c357a039094f","system_id":"levelo_inurba_marseille","lat":43.309038,"lon":5.396546,"is_reserved":false,"is_disabled":false,"rental_uris":{"android":"levelo://app?vid=9d009762-8c58-41fe-a183-c357a039094f","ios":"levelo://app?vid=9d009762-8c58-41fe-a183-c357a039094f"},"vehicle_type_id":"4","last_reported":1705604744,"current_range_meters":0,"station_id":"ce4bh012rcd13ifvqcv0","pricing_plan_id":"free"},{"bike_id":"a1fa71ee-d3f0-41c6-ac04-c9e2be51aa1f","system_id":"levelo_inurba_marseille","lat":43.313318,"lon":5.396893,"is_reserved":false,"is_disabled":false,"rental_uris":{"android":"levelo://app?vid=a1fa71ee-d3f0-41c6-ac04-c9e2be51aa1f","ios":"levelo://app?vid=a1fa71ee-d3f0-41c6-ac04-c9e2be51aa1f"},"vehicle_type_id":"4","last_reported":1705604744,"current_range_meters":15600,"station_id":"ce4bgvp2rcd13ifvqcu0","pricing_plan_id":"free"},{"bike_id":"3004f8da-b963-44a9-8675-da1ebb54d03c","system_id":"levelo_inurba_marseille","lat":43.30886,"lon":5.39643,"is_reserved":false,"is_disabled":false,"rental_uris":{"android":"levelo://app?vid=3004f8da-b963-44a9-8675-da1ebb54d03c","ios":"levelo://app?vid=3004f8da-b963-44a9-8675-da1ebb54d03c"},"vehicle_type_id":"4","last_reported":1705604744,"current_range_meters":25200,"station_id":"ce4bh012rcd13ifvqcv0","pricing_plan_id":"free"},{"bike_id":"b7a662e3-4719-4939-9d73-283fdc95f0c7","system_id":"levelo_inurba_marseille","lat":43.31337,"lon":5.39692,"is_reserved":false,"is_disabled":false,"rental_uris":{"android":"levelo://app?vid=b7a662e3-4719-4939-9d73-283fdc95f0c7","ios":"levelo://app?vid=b7a662e3-4719-4939-9d73-283fdc95f0c7"},"vehicle_type_id":"4","last_reported":1705604744,"current_range_meters":0,"station_id":"ce4bgvp2rcd13ifvqcu0","pricing_plan_id":"free"},{"bike_id":"443944fa-3954-4582-b4f2-4730947b2300","system_id":"levelo_inurba_marseille","lat":43.309038,"lon":5.396546,"is_reserved":false,"is_disabled":false,"rental_uris":{"android":"levelo://app?vid=443944fa-3954-4582-b4f2-4730947b2300","ios":"levelo://app?vid=443944fa-3954-4582-b4f2-4730947b2300"},"vehicle_type_id":"4","last_reported":1705604744,"current_range_meters":24800,"station_id":"ce4bh012rcd13ifvqcv0","pricing_plan_id":"free"},{"bike_id":"a95ed704-410b-439b-ba6f-236f6c6dd1f5","system_id":"levelo_inurba_marseille","lat":43.309038,"lon":5.396546,"is_reserved":false,"is_disabled":false,"rental_uris":{"android":"levelo://app?vid=a95ed704-410b-439b-ba6f-236f6c6dd1f5","ios":"levelo://app?vid=a95ed704-410b-439b-ba6f-236f6c6dd1f5"},"vehicle_type_id":"4","last_reported":1705604744,"current_range_meters":400,"station_id":"ce4bh012rcd13ifvqcv0","pricing_plan_id":"free"},{"bike_id":"21fb3a73-fe4a-4dd5-9f36-8e169fc04abc","system_id":"levelo_inurba_marseille","lat":43.309038,"lon":5.396546,"is_reserved":false,"is_disabled":false,"rental_uris":{"android":"levelo://app?vid=21fb3a73-fe4a-4dd5-9f36-8e169fc04abc","ios":"levelo://app?vid=21fb3a73-fe4a-4dd5-9f36-8e169fc04abc"},"vehicle_type_id":"4","last_reported":1705604744,"current_range_meters":800,"station_id":"ce4bh012rcd13ifvqcv0","pricing_plan_id":"free"},{"bike_id":"dcc325bc-d000-431a-b192-a74db99d0425","system_id":"levelo_inurba_marseille","lat":43.309038,"lon":5.396546,"is_reserved":false,"is_disabled":false,"rental_uris":{"android":"levelo://app?vid=dcc325bc-d000-431a-b192-a74db99d0425","ios":"levelo://app?vid=dcc325bc-d000-431a-b192-a74db99d0425"},"vehicle_type_id":"4","last_reported":1705604744,"current_range_meters":1600,"station_id":"ce4bh012rcd13ifvqcv0","pricing_plan_id":"free"},{"bike_id":"3d585b65-7d64-40b4-8062-7664ab1c329f","system_id":"levelo_inurba_marseille","lat":43.29541,"lon":5.38544,"is_reserved":false,"is_disabled":false,"rental_uris":{"android":"levelo://app?vid=3d585b65-7d64-40b4-8062-7664ab1c329f","ios":"levelo://app?vid=3d585b65-7d64-40b4-8062-7664ab1c329f"},"vehicle_type_id":"4","last_reported":1705604744,"current_range_meters":0,"station_id":"ce4bgih2rcd13ifvqba0","pricing_plan_id":"free"},{"bike_id":"68222a0d-28ac-4a10-8950-be2d1101a3bb","system_id":"levelo_inurba_marseille","lat":43.29529,"lon":5.385581,"is_reserved":false,"is_disabled":false,"rental_uris":{"android":"levelo://app?vid=68222a0d-28ac-4a10-8950-be2d1101a3bb","ios":"levelo://app?vid=68222a0d-28ac-4a10-8950-be2d1101a3bb"},"vehicle_type_id":"4","last_reported":1705604744,"current_range_meters":22800,"station_id":"ce4bgih2rcd13ifvqba0","pricing_plan_id":"free"},{"bike_id":"e57eb0b5-6568-4c3e-84c7-de0dc716a7b4","system_id":"levelo_inurba_marseille","lat":43.29529,"lon":5.385581,"is_reserved":false,"is_disabled":false,"rental_uris":{"android":"levelo://app?vid=e57eb0b5-6568-4c3e-84c7-de0dc716a7b4","ios":"levelo://app?vid=e57eb0b5-6568-4c3e-84c7-de0dc716a7b4"},"vehicle_type_id":"4","last_reported":1705604744,"current_range_meters":8400,"station_id":"ce4bgih2rcd13ifvqba0","pricing_plan_id":"free"},{"bike_id":"86549d96-05ac-47a8-a2e2-00161e06ab98","system_id":"levelo_inurba_marseille","lat":43.29529,"lon":5.385581,"is_reserved":false,"is_disabled":false,"rental_uris":{"android":"levelo://app?vid=86549d96-05ac-47a8-a2e2-00161e06ab98","ios":"levelo://app?vid=86549d96-05ac-47a8-a2e2-00161e06ab98"},"vehicle_type_id":"4","last_reported":1705604744,"current_range_meters":8400,"station_id":"ce4bgih2rcd13ifvqba0","pricing_plan_id":"free"},{"bike_id":"afe6269e-d6ee-4227-8b00-a9e48a97b694","system_id":"levelo_inurba_marseille","lat":43.29536,"lon":5.38552,"is_reserved":false,"is_disabled":false,"rental_uris":{"android":"levelo://app?vid=afe6269e-d6ee-4227-8b00-a9e48a97b694","ios":"levelo://app?vid=afe6269e-d6ee-4227-8b00-a9e48a97b694"},"vehicle_type_id":"4","last_reported":1705604744,"current_range_meters":0,"station_id":"ce4bgih2rcd13ifvqba0","pricing_plan_id":"free"},{"bike_id":"ab47652f-07c5-45a1-9c17-92c07fe88689","system_id":"levelo_inurba_marseille","lat":43.29527,"lon":5.38538,"is_reserved":false,"is_disabled":false,"rental_uris":{"android":"levelo://app?vid=ab47652f-07c5-45a1-9c17-92c07fe88689","ios":"levelo://app?vid=ab47652f-07c5-45a1-9c17-92c07fe88689"},"vehicle_type_id":"4","last_reported":1705604744,"current_range_meters":0,"station_id":"ce4bgih2rcd13ifvqba0","pricing_plan_id":"free"},{"bike_id":"31969b44-cdf1-4c24-9ff0-a102dd957c62","system_id":"levelo_inurba_marseille","lat":43.29529,"lon":5.385581,"is_reserved":false,"is_disabled":false,"rental_uris":{"android":"levelo://app?vid=31969b44-cdf1-4c24-9ff0-a102dd957c62","ios":"levelo://app?vid=31969b44-cdf1-4c24-9ff0-a102dd957c62"},"vehicle_type_id":"4","last_reported":1705604744,"current_range_meters":6800,"station_id":"ce4bgih2rcd13ifvqba0","pricing_plan_id":"free"},{"bike_id":"008eff80-39d1-4ce8-bb05-7bb46582d473","system_id":"levelo_inurba_marseille","lat":43.29529,"lon":5.385581,"is_reserved":false,"is_disabled":false,"rental_uris":{"android":"levelo://app?vid=008eff80-39d1-4ce8-bb05-7bb46582d473","ios":"levelo://app?vid=008eff80-39d1-4ce8-bb05-7bb46582d473"},"vehicle_type_id":"4","last_reported":1705604744,"current_range_meters":24800,"station_id":"ce4bgih2rcd13ifvqba0","pricing_plan_id":"free"},{"bike_id":"1fc9b235-4a4c-447f-a523-5d928d41a1f1","system_id":"levelo_inurba_marseille","lat":43.290779,"lon":5.371482,"is_reserved":false,"is_disabled":false,"rental_uris":{"android":"levelo://app?vid=1fc9b235-4a4c-447f-a523-5d928d41a1f1","ios":"levelo://app?vid=1fc9b235-4a4c-447f-a523-5d928d41a1f1"},"vehicle_type_id":"4","last_reported":1705604744,"current_range_meters":22000,"station_id":"ce4bh5p2rcd13ifvqe4g","pricing_plan_id":"free"},{"bike_id":"95b94328-b316-4d4e-9d50-27fce67cb70d","system_id":"levelo_inurba_marseille","lat":43.312609,"lon":5.401662,"is_reserved":false,"is_disabled":false,"rental_uris":{"android":"levelo://app?vid=95b94328-b316-4d4e-9d50-27fce67cb70d","ios":"levelo://app?vid=95b94328-b316-4d4e-9d50-27fce67cb70d"},"vehicle_type_id":"4","last_reported":1705604744,"current_range_meters":18000,"station_id":"ce4bh092rcd13ifvqd30","pricing_plan_id":"free"},{"bike_id":"98bec463-93ef-44bc-b001-2bfb99a33a51","system_id":"levelo_inurba_marseille","lat":43.290631,"lon":5.359244,"is_reserved":false,"is_disabled":false,"rental_uris":{"android":"levelo://app?vid=98bec463-93ef-44bc-b001-2bfb99a33a51","ios":"levelo://app?vid=98bec463-93ef-44bc-b001-2bfb99a33a51"},"vehicle_type_id":"4","last_reported":1705604744,"current_range_meters":400,"station_id":"ce4bha92rcd13ifvqeg0","pricing_plan_id":"free"},{"bike_id":"95c03b3e-fcc8-462a-8c9a-a339badefa89","system_id":"levelo_inurba_marseille","lat":43.290631,"lon":5.359244,"is_reserved":false,"is_disabled":false,"rental_uris":{"android":"levelo://app?vid=95c03b3e-fcc8-462a-8c9a-a339badefa89","ios":"levelo://app?vid=95c03b3e-fcc8-462a-8c9a-a339badefa89"},"vehicle_type_id":"4","last_reported":1705604744,"current_range_meters":5600,"station_id":"ce4bha92rcd13ifvqeg0","pricing_plan_id":"free"},{"bike_id":"9031fe27-1151-4f5d-8a85-1c6aad33c7cf","system_id":"levelo_inurba_marseille","lat":43.290631,"lon":5.359244,"is_reserved":false,"is_disabled":false,"rental_uris":{"android":"levelo://app?vid=9031fe27-1151-4f5d-8a85-1c6aad33c7cf","ios":"levelo://app?vid=9031fe27-1151-4f5d-8a85-1c6aad33c7cf"},"vehicle_type_id":"4","last_reported":1705604744,"current_range_meters":9200,"station_id":"ce4bha92rcd13ifvqeg0","pricing_plan_id":"free"},{"bike_id":"1356e342-72f1-4195-af3f-61405049bf6d","system_id":"levelo_inurba_marseille","lat":43.289532,"lon":5.366406,"is_reserved":false,"is_disabled":false,"rental_uris":{"android":"levelo://app?vid=1356e342-72f1-4195-af3f-61405049bf6d","ios":"levelo://app?vid=1356e342-72f1-4195-af3f-61405049bf6d"},"vehicle_type_id":"4","last_reported":1705604744,"current_range_meters":0,"station_id":"ce4bhap2rcd13ifvqek0","pricing_plan_id":"free"},{"bike_id":"091f4c11-5df8-457b-b915-2b3c82eb1def","system_id":"levelo_inurba_marseille","lat":43.290327,"lon":5.375711,"is_reserved":false,"is_disabled":false,"rental_uris":{"android":"levelo://app?vid=091f4c11-5df8-457b-b915-2b3c82eb1def","ios":"levelo://app?vid=091f4c11-5df8-457b-b915-2b3c82eb1def"},"vehicle_type_id":"4","last_reported":1705604744,"current_range_meters":2400,"station_id":"ce4bh692rcd13ifvqe90","pricing_plan_id":"free"},{"bike_id":"cca6c99e-bc80-49e1-afe4-1d9a511877d2","system_id":"levelo_inurba_marseille","lat":43.294153,"lon":5.386305,"is_reserved":false,"is_disabled":false,"rental_uris":{"android":"levelo://app?vid=cca6c99e-bc80-49e1-afe4-1d9a511877d2","ios":"levelo://app?vid=cca6c99e-bc80-49e1-afe4-1d9a511877d2"},"vehicle_type_id":"4","last_reported":1705604744,"current_range_meters":16000,"station_id":"ce4bh2h2rcd13ifvqdh0","pricing_plan_id":"free"},{"bike_id":"4f83a31e-4f20-4690-a2a6-967e3359a69a","system_id":"levelo_inurba_marseille","lat":43.294162,"lon":5.386292,"is_reserved":false,"is_disabled":false,"rental_uris":{"android":"levelo://app?vid=4f83a31e-4f20-4690-a2a6-967e3359a69a","ios":"levelo://app?vid=4f83a31e-4f20-4690-a2a6-967e3359a69a"},"vehicle_type_id":"4","last_reported":1705604744,"current_range_meters":18400,"station_id":"ce4bh2h2rcd13ifvqdh0","pricing_plan_id":"free"},{"bike_id":"77b72b68-cae5-4c1e-9be8-e4f9375b2b94","system_id":"levelo_inurba_marseille","lat":43.289184,"lon":5.366408,"is_reserved":false,"is_disabled":false,"rental_uris":{"android":"levelo://app?vid=77b72b68-cae5-4c1e-9be8-e4f9375b2b94","ios":"levelo://app?vid=77b72b68-cae5-4c1e-9be8-e4f9375b2b94"},"vehicle_type_id":"4","last_reported":1705604744,"current_range_meters":0,"station_id":"ce4bhap2rcd13ifvqek0","pricing_plan_id":"free"},{"bike_id":"08a82047-fdd7-4c0d-ab2d-456e9cc9d14f","system_id":"levelo_inurba_marseille","lat":43.289184,"lon":5.366408,"is_reserved":false,"is_disabled":false,"rental_uris":{"android":"levelo://app?vid=08a82047-fdd7-4c0d-ab2d-456e9cc9d14f","ios":"levelo://app?vid=08a82047-fdd7-4c0d-ab2d-456e9cc9d14f"},"vehicle_type_id":"4","last_reported":1705604744,"current_range_meters":4400,"station_id":"ce4bhap2rcd13ifvqek0","pricing_plan_id":"free"},{"bike_id":"661f1c1b-2d52-4ddf-9298-2f84ec32139d","system_id":"levelo_inurba_marseille","lat":43.289468,"lon":5.363719,"is_reserved":false,"is_disabled":false,"rental_uris":{"android":"levelo://app?vid=661f1c1b-2d52-4ddf-9298-2f84ec32139d","ios":"levelo://app?vid=661f1c1b-2d52-4ddf-9298-2f84ec32139d"},"vehicle_type_id":"4","last_reported":1705604744,"current_range_meters":0,"station_id":"ce4bhc92rcd13ifvqetg","pricing_plan_id":"free"},{"bike_id":"bc8b4c04-f5f3-4f12-93f4-c863902091de","system_id":"levelo_inurba_marseille","lat":43.289468,"lon":5.363719,"is_reserved":false,"is_disabled":false,"rental_uris":{"android":"levelo://app?vid=bc8b4c04-f5f3-4f12-93f4-c863902091de","ios":"levelo://app?vid=bc8b4c04-f5f3-4f12-93f4-c863902091de"},"vehicle_type_id":"4","last_reported":1705604744,"current_range_meters":11200,"station_id":"ce4bhc92rcd13ifvqetg","pricing_plan_id":"free"},{"bike_id":"3c5a1e06-ac64-48ce-b771-5c55224531d5","system_id":"levelo_inurba_marseille","lat":43.289468,"lon":5.363719,"is_reserved":false,"is_disabled":false,"rental_uris":{"android":"levelo://app?vid=3c5a1e06-ac64-48ce-b771-5c55224531d5","ios":"levelo://app?vid=3c5a1e06-ac64-48ce-b771-5c55224531d5"},"vehicle_type_id":"4","last_reported":1705604744,"current_range_meters":8000,"station_id":"ce4bhc92rcd13ifvqetg","pricing_plan_id":"free"},{"bike_id":"a15d7ddf-2645-4017-ae36-2e44efb65827","system_id":"levelo_inurba_marseille","lat":43.292642,"lon":5.384254,"is_reserved":false,"is_disabled":false,"rental_uris":{"android":"levelo://app?vid=a15d7ddf-2645-4017-ae36-2e44efb65827","ios":"levelo://app?vid=a15d7ddf-2645-4017-ae36-2e44efb65827"},"vehicle_type_id":"4","last_reported":1705604744,"current_range_meters":4400,"station_id":"ce4bh692rcd13ifvqea0","pricing_plan_id":"free"},{"bike_id":"3a321751-2ee9-44e9-bfb7-cc17b2e889d1","system_id":"levelo_inurba_marseille","lat":43.29265,"lon":5.38444,"is_reserved":false,"is_disabled":false,"rental_uris":{"android":"levelo://app?vid=3a321751-2ee9-44e9-bfb7-cc17b2e889d1","ios":"levelo://app?vid=3a321751-2ee9-44e9-bfb7-cc17b2e889d1"},"vehicle_type_id":"4","last_reported":1705604744,"current_range_meters":0,"station_id":"ce4bh692rcd13ifvqea0","pricing_plan_id":"free"},{"bike_id":"c0fa7a9e-0f39-42ad-8131-e5b6aa1c1d25","system_id":"levelo_inurba_marseille","lat":43.30421,"lon":5.3975,"is_reserved":false,"is_disabled":false,"rental_uris":{"android":"levelo://app?vid=c0fa7a9e-0f39-42ad-8131-e5b6aa1c1d25","ios":"levelo://app?vid=c0fa7a9e-0f39-42ad-8131-e5b6aa1c1d25"},"vehicle_type_id":"4","last_reported":1705604744,"current_range_meters":0,"station_id":"ce4bh092rcd13ifvqd20","pricing_plan_id":"free"},{"bike_id":"e6f8c567-142c-4e0c-b27f-96103a7669be","system_id":"levelo_inurba_marseille","lat":43.330442,"lon":5.389148,"is_reserved":false,"is_disabled":false,"rental_uris":{"android":"levelo://app?vid=e6f8c567-142c-4e0c-b27f-96103a7669be","ios":"levelo://app?vid=e6f8c567-142c-4e0c-b27f-96103a7669be"},"vehicle_type_id":"4","last_reported":1705604744,"current_range_meters":22000,"station_id":"ce4bhr92rcd13ifvqhrg","pricing_plan_id":"free"},{"bike_id":"c4c1a8fb-9c1f-44ab-afcd-5d539332ffb6","system_id":"levelo_inurba_marseille","lat":43.330442,"lon":5.389148,"is_reserved":false,"is_disabled":false,"rental_uris":{"android":"levelo://app?vid=c4c1a8fb-9c1f-44ab-afcd-5d539332ffb6","ios":"levelo://app?vid=c4c1a8fb-9c1f-44ab-afcd-5d539332ffb6"},"vehicle_type_id":"4","last_reported":1705604744,"current_range_meters":22400,"station_id":"ce4bhr92rcd13ifvqhrg","pricing_plan_id":"free"},{"bike_id":"032ab1f7-a406-4e66-b5c8-0c1d8f0b810c","system_id":"levelo_inurba_marseille","lat":43.330442,"lon":5.389148,"is_reserved":false,"is_disabled":false,"rental_uris":{"android":"levelo://app?vid=032ab1f7-a406-4e66-b5c8-0c1d8f0b810c","ios":"levelo://app?vid=032ab1f7-a406-4e66-b5c8-0c1d8f0b810c"},"vehicle_type_id":"4","last_reported":1705604744,"current_range_meters":1200,"station_id":"ce4bhr92rcd13ifvqhrg","pricing_plan_id":"free"},{"bike_id":"3bc2c04d-600f-432b-86d5-6943dd0708c2","system_id":"levelo_inurba_marseille","lat":43.295169,"lon":5.390426,"is_reserved":false,"is_disabled":false,"rental_uris":{"android":"levelo://app?vid=3bc2c04d-600f-432b-86d5-6943dd0708c2","ios":"levelo://app?vid=3bc2c04d-600f-432b-86d5-6943dd0708c2"},"vehicle_type_id":"4","last_reported":1705604744,"current_range_meters":18800,"station_id":"ce4bh3p2rcd13ifvqdp0","pricing_plan_id":"free"},{"bike_id":"3c6cd8da-dbcd-4568-a57b-a4874ba428f8","system_id":"levelo_inurba_marseille","lat":43.330442,"lon":5.389148,"is_reserved":false,"is_disabled":false,"rental_uris":{"android":"levelo://app?vid=3c6cd8da-dbcd-4568-a57b-a4874ba428f8","ios":"levelo://app?vid=3c6cd8da-dbcd-4568-a57b-a4874ba428f8"},"vehicle_type_id":"4","last_reported":1705604744,"current_range_meters":18400,"station_id":"ce4bhr92rcd13ifvqhrg","pricing_plan_id":"free"},{"bike_id":"b1618b14-4f2a-4f66-802c-f4e5ab6cbe8d","system_id":"levelo_inurba_marseille","lat":43.295253,"lon":5.39044,"is_reserved":false,"is_disabled":false,"rental_uris":{"android":"levelo://app?vid=b1618b14-4f2a-4f66-802c-f4e5ab6cbe8d","ios":"levelo://app?vid=b1618b14-4f2a-4f66-802c-f4e5ab6cbe8d"},"vehicle_type_id":"4","last_reported":1705604744,"current_range_meters":8800,"station_id":"ce4bh3p2rcd13ifvqdp0","pricing_plan_id":"free"},{"bike_id":"59d5b6d6-192d-440e-8c03-c55e203d0183","system_id":"levelo_inurba_marseille","lat":43.29019,"lon":5.38151,"is_reserved":false,"is_disabled":false,"rental_uris":{"android":"levelo://app?vid=59d5b6d6-192d-440e-8c03-c55e203d0183","ios":"levelo://app?vid=59d5b6d6-192d-440e-8c03-c55e203d0183"},"vehicle_type_id":"4","last_reported":1705604744,"current_range_meters":0,"station_id":"ce4bh4p2rcd13ifvqe1g","pricing_plan_id":"free"},{"bike_id":"518341f3-1f8e-4340-8bca-7a2415b96b1c","system_id":"levelo_inurba_marseille","lat":43.28856,"lon":5.358371,"is_reserved":false,"is_disabled":false,"rental_uris":{"android":"levelo://app?vid=518341f3-1f8e-4340-8bca-7a2415b96b1c","ios":"levelo://app?vid=518341f3-1f8e-4340-8bca-7a2415b96b1c"},"vehicle_type_id":"4","last_reported":1705604744,"current_range_meters":25600,"station_id":"ce4bhb12rcd13ifvqem0","pricing_plan_id":"free"},{"bike_id":"a798f8a2-7839-4eab-a65a-bc308b9a37d7","system_id":"levelo_inurba_marseille","lat":43.312609,"lon":5.401662,"is_reserved":false,"is_disabled":false,"rental_uris":{"android":"levelo://app?vid=a798f8a2-7839-4eab-a65a-bc308b9a37d7","ios":"levelo://app?vid=a798f8a2-7839-4eab-a65a-bc308b9a37d7"},"vehicle_type_id":"4","last_reported":1705604744,"current_range_meters":24800,"station_id":"ce4bh092rcd13ifvqd30","pricing_plan_id":"free"},{"bike_id":"d94b402e-0e0b-44e5-99d6-b07e1602c377","system_id":"levelo_inurba_marseille","lat":43.309371,"lon":5.401449,"is_reserved":false,"is_disabled":false,"rental_uris":{"android":"levelo://app?vid=d94b402e-0e0b-44e5-99d6-b07e1602c377","ios":"levelo://app?vid=d94b402e-0e0b-44e5-99d6-b07e1602c377"},"vehicle_type_id":"4","last_reported":1705604744,"current_range_meters":30000,"station_id":"ce4bgvp2rcd13ifvqct0","pricing_plan_id":"free"},{"bike_id":"c496d243-a591-4661-bcc9-76957c64ef7d","system_id":"levelo_inurba_marseille","lat":43.312609,"lon":5.401662,"is_reserved":false,"is_disabled":false,"rental_uris":{"android":"levelo://app?vid=c496d243-a591-4661-bcc9-76957c64ef7d","ios":"levelo://app?vid=c496d243-a591-4661-bcc9-76957c64ef7d"},"vehicle_type_id":"4","last_reported":1705604744,"current_range_meters":5600,"station_id":"ce4bh092rcd13ifvqd30","pricing_plan_id":"free"},{"bike_id":"15a5853c-9e78-489a-bfcb-7f37cd323e4c","system_id":"levelo_inurba_marseille","lat":43.312609,"lon":5.401662,"is_reserved":false,"is_disabled":false,"rental_uris":{"android":"levelo://app?vid=15a5853c-9e78-489a-bfcb-7f37cd323e4c","ios":"levelo://app?vid=15a5853c-9e78-489a-bfcb-7f37cd323e4c"},"vehicle_type_id":"4","last_reported":1705604744,"current_range_meters":15600,"station_id":"ce4bh092rcd13ifvqd30","pricing_plan_id":"free"},{"bike_id":"c273cb8e-881d-4208-8604-e1ef6e5be63f","system_id":"levelo_inurba_marseille","lat":43.30933,"lon":5.40138,"is_reserved":false,"is_disabled":false,"rental_uris":{"android":"levelo://app?vid=c273cb8e-881d-4208-8604-e1ef6e5be63f","ios":"levelo://app?vid=c273cb8e-881d-4208-8604-e1ef6e5be63f"},"vehicle_type_id":"4","last_reported":1705604744,"current_range_meters":0,"station_id":"ce4bgvp2rcd13ifvqct0","pricing_plan_id":"free"},{"bike_id":"8cea661b-0b29-40c2-8649-57daa541d8d5","system_id":"levelo_inurba_marseille","lat":43.312609,"lon":5.401662,"is_reserved":false,"is_disabled":false,"rental_uris":{"android":"levelo://app?vid=8cea661b-0b29-40c2-8649-57daa541d8d5","ios":"levelo://app?vid=8cea661b-0b29-40c2-8649-57daa541d8d5"},"vehicle_type_id":"4","last_reported":1705604744,"current_range_meters":16000,"station_id":"ce4bh092rcd13ifvqd30","pricing_plan_id":"free"},{"bike_id":"e2feb5f0-56bd-4604-9ddd-d57cb3fb6234","system_id":"levelo_inurba_marseille","lat":43.312609,"lon":5.401662,"is_reserved":false,"is_disabled":false,"rental_uris":{"android":"levelo://app?vid=e2feb5f0-56bd-4604-9ddd-d57cb3fb6234","ios":"levelo://app?vid=e2feb5f0-56bd-4604-9ddd-d57cb3fb6234"},"vehicle_type_id":"4","last_reported":1705604744,"current_range_meters":13200,"station_id":"ce4bh092rcd13ifvqd30","pricing_plan_id":"free"},{"bike_id":"75b5c782-a2c8-4e03-b554-93bfd9e73f45","system_id":"levelo_inurba_marseille","lat":43.31271,"lon":5.40178,"is_reserved":false,"is_disabled":false,"rental_uris":{"android":"levelo://app?vid=75b5c782-a2c8-4e03-b554-93bfd9e73f45","ios":"levelo://app?vid=75b5c782-a2c8-4e03-b554-93bfd9e73f45"},"vehicle_type_id":"4","last_reported":1705604744,"current_range_meters":0,"station_id":"ce4bh092rcd13ifvqd30","pricing_plan_id":"free"},{"bike_id":"c8faf80b-7211-41fa-9912-e232b0725047","system_id":"levelo_inurba_marseille","lat":43.312609,"lon":5.401662,"is_reserved":false,"is_disabled":false,"rental_uris":{"android":"levelo://app?vid=c8faf80b-7211-41fa-9912-e232b0725047","ios":"levelo://app?vid=c8faf80b-7211-41fa-9912-e232b0725047"},"vehicle_type_id":"4","last_reported":1705604744,"current_range_meters":23200,"station_id":"ce4bh092rcd13ifvqd30","pricing_plan_id":"free"},{"bike_id":"fc0997e5-9e2f-4d6a-a00c-f4819d51bd06","system_id":"levelo_inurba_marseille","lat":43.309371,"lon":5.401449,"is_reserved":false,"is_disabled":false,"rental_uris":{"android":"levelo://app?vid=fc0997e5-9e2f-4d6a-a00c-f4819d51bd06","ios":"levelo://app?vid=fc0997e5-9e2f-4d6a-a00c-f4819d51bd06"},"vehicle_type_id":"4","last_reported":1705604744,"current_range_meters":0,"station_id":"ce4bgvp2rcd13ifvqct0","pricing_plan_id":"free"},{"bike_id":"8a50b6fa-8a9b-4993-8f53-82d76c592bc2","system_id":"levelo_inurba_marseille","lat":43.30642,"lon":5.401031,"is_reserved":false,"is_disabled":false,"rental_uris":{"android":"levelo://app?vid=8a50b6fa-8a9b-4993-8f53-82d76c592bc2","ios":"levelo://app?vid=8a50b6fa-8a9b-4993-8f53-82d76c592bc2"},"vehicle_type_id":"4","last_reported":1705604744,"current_range_meters":19200,"station_id":"ce4bh112rcd13ifvqda0","pricing_plan_id":"free"},{"bike_id":"6a8f9508-be3e-4e5b-a984-ecf8bace107c","system_id":"levelo_inurba_marseille","lat":43.309371,"lon":5.401449,"is_reserved":false,"is_disabled":false,"rental_uris":{"android":"levelo://app?vid=6a8f9508-be3e-4e5b-a984-ecf8bace107c","ios":"levelo://app?vid=6a8f9508-be3e-4e5b-a984-ecf8bace107c"},"vehicle_type_id":"4","last_reported":1705604744,"current_range_meters":14800,"station_id":"ce4bgvp2rcd13ifvqct0","pricing_plan_id":"free"},{"bike_id":"cc1cb9a4-3b7d-47fa-aa99-d7243b6ed6f9","system_id":"levelo_inurba_marseille","lat":43.306412,"lon":5.401035,"is_reserved":false,"is_disabled":false,"rental_uris":{"android":"levelo://app?vid=cc1cb9a4-3b7d-47fa-aa99-d7243b6ed6f9","ios":"levelo://app?vid=cc1cb9a4-3b7d-47fa-aa99-d7243b6ed6f9"},"vehicle_type_id":"4","last_reported":1705604744,"current_range_meters":19600,"station_id":"ce4bh112rcd13ifvqda0","pricing_plan_id":"free"},{"bike_id":"03119f6e-fee5-4b59-8f59-5ee413bdb007","system_id":"levelo_inurba_marseille","lat":43.30642,"lon":5.401031,"is_reserved":false,"is_disabled":false,"rental_uris":{"android":"levelo://app?vid=03119f6e-fee5-4b59-8f59-5ee413bdb007","ios":"levelo://app?vid=03119f6e-fee5-4b59-8f59-5ee413bdb007"},"vehicle_type_id":"4","last_reported":1705604744,"current_range_meters":13600,"station_id":"ce4bh112rcd13ifvqda0","pricing_plan_id":"free"},{"bike_id":"35806224-9171-464e-bd77-339019b5658d","system_id":"levelo_inurba_marseille","lat":43.301117,"lon":5.398795,"is_reserved":false,"is_disabled":false,"rental_uris":{"android":"levelo://app?vid=35806224-9171-464e-bd77-339019b5658d","ios":"levelo://app?vid=35806224-9171-464e-bd77-339019b5658d"},"vehicle_type_id":"4","last_reported":1705604744,"current_range_meters":22400,"station_id":"ce4bh0h2rcd13ifvqd40","pricing_plan_id":"free"},{"bike_id":"0232bf1f-f586-4f79-a84c-7d2fe883e49f","system_id":"levelo_inurba_marseille","lat":43.301117,"lon":5.398795,"is_reserved":false,"is_disabled":false,"rental_uris":{"android":"levelo://app?vid=0232bf1f-f586-4f79-a84c-7d2fe883e49f","ios":"levelo://app?vid=0232bf1f-f586-4f79-a84c-7d2fe883e49f"},"vehicle_type_id":"4","last_reported":1705604744,"current_range_meters":12000,"station_id":"ce4bh0h2rcd13ifvqd40","pricing_plan_id":"free"},{"bike_id":"ab4c8152-03ea-4cd1-803d-1b30324120c2","system_id":"levelo_inurba_marseille","lat":43.301117,"lon":5.398795,"is_reserved":false,"is_disabled":false,"rental_uris":{"android":"levelo://app?vid=ab4c8152-03ea-4cd1-803d-1b30324120c2","ios":"levelo://app?vid=ab4c8152-03ea-4cd1-803d-1b30324120c2"},"vehicle_type_id":"4","last_reported":1705604744,"current_range_meters":12400,"station_id":"ce4bh0h2rcd13ifvqd40","pricing_plan_id":"free"},{"bike_id":"5872a29a-1728-4e3a-aa62-32662dd88151","system_id":"levelo_inurba_marseille","lat":43.301117,"lon":5.398795,"is_reserved":false,"is_disabled":false,"rental_uris":{"android":"levelo://app?vid=5872a29a-1728-4e3a-aa62-32662dd88151","ios":"levelo://app?vid=5872a29a-1728-4e3a-aa62-32662dd88151"},"vehicle_type_id":"4","last_reported":1705604744,"current_range_meters":22800,"station_id":"ce4bh0h2rcd13ifvqd40","pricing_plan_id":"free"},{"bike_id":"b0781c7c-56eb-4016-97c3-d8aa71d90590","system_id":"levelo_inurba_marseille","lat":43.301117,"lon":5.398795,"is_reserved":false,"is_disabled":false,"rental_uris":{"android":"levelo://app?vid=b0781c7c-56eb-4016-97c3-d8aa71d90590","ios":"levelo://app?vid=b0781c7c-56eb-4016-97c3-d8aa71d90590"},"vehicle_type_id":"4","last_reported":1705604744,"current_range_meters":23200,"station_id":"ce4bh0h2rcd13ifvqd40","pricing_plan_id":"free"},{"bike_id":"bd544276-1200-40de-a0d8-c35324b45317","system_id":"levelo_inurba_marseille","lat":43.28727,"lon":5.36078,"is_reserved":false,"is_disabled":false,"rental_uris":{"android":"levelo://app?vid=bd544276-1200-40de-a0d8-c35324b45317","ios":"levelo://app?vid=bd544276-1200-40de-a0d8-c35324b45317"},"vehicle_type_id":"4","last_reported":1705604744,"current_range_meters":12000,"station_id":"cki0cbj6b192h4jlfktg","pricing_plan_id":"free"},{"bike_id":"3b3707ff-5d0a-42c4-9348-08c77c204590","system_id":"levelo_inurba_marseille","lat":43.301117,"lon":5.398795,"is_reserved":false,"is_disabled":false,"rental_uris":{"android":"levelo://app?vid=3b3707ff-5d0a-42c4-9348-08c77c204590","ios":"levelo://app?vid=3b3707ff-5d0a-42c4-9348-08c77c204590"},"vehicle_type_id":"4","last_reported":1705604744,"current_range_meters":19200,"station_id":"ce4bh0h2rcd13ifvqd40","pricing_plan_id":"free"},{"bike_id":"c0a3b9a9-b871-414e-a538-2cf277432209","system_id":"levelo_inurba_marseille","lat":43.301117,"lon":5.398795,"is_reserved":false,"is_disabled":false,"rental_uris":{"android":"levelo://app?vid=c0a3b9a9-b871-414e-a538-2cf277432209","ios":"levelo://app?vid=c0a3b9a9-b871-414e-a538-2cf277432209"},"vehicle_type_id":"4","last_reported":1705604744,"current_range_meters":17200,"station_id":"ce4bh0h2rcd13ifvqd40","pricing_plan_id":"free"},{"bike_id":"cd5ca447-8402-4ce4-bc4e-16911b43bf82","system_id":"levelo_inurba_marseille","lat":43.28727,"lon":5.36078,"is_reserved":false,"is_disabled":false,"rental_uris":{"android":"levelo://app?vid=cd5ca447-8402-4ce4-bc4e-16911b43bf82","ios":"levelo://app?vid=cd5ca447-8402-4ce4-bc4e-16911b43bf82"},"vehicle_type_id":"4","last_reported":1705604744,"current_range_meters":27200,"station_id":"cki0cbj6b192h4jlfktg","pricing_plan_id":"free"},{"bike_id":"205ff80d-9465-4ce3-b89f-154f0cb1629f","system_id":"levelo_inurba_marseille","lat":43.301117,"lon":5.398795,"is_reserved":false,"is_disabled":false,"rental_uris":{"android":"levelo://app?vid=205ff80d-9465-4ce3-b89f-154f0cb1629f","ios":"levelo://app?vid=205ff80d-9465-4ce3-b89f-154f0cb1629f"},"vehicle_type_id":"4","last_reported":1705604744,"current_range_meters":2000,"station_id":"ce4bh0h2rcd13ifvqd40","pricing_plan_id":"free"},{"bike_id":"2e103967-8b80-43dc-aec7-64150980d91a","system_id":"levelo_inurba_marseille","lat":43.301117,"lon":5.398795,"is_reserved":false,"is_disabled":false,"rental_uris":{"android":"levelo://app?vid=2e103967-8b80-43dc-aec7-64150980d91a","ios":"levelo://app?vid=2e103967-8b80-43dc-aec7-64150980d91a"},"vehicle_type_id":"4","last_reported":1705604744,"current_range_meters":0,"station_id":"ce4bh0h2rcd13ifvqd40","pricing_plan_id":"free"},{"bike_id":"6e6ec4b3-fc1f-445c-86bf-6b54f92ba170","system_id":"levelo_inurba_marseille","lat":43.30468,"lon":5.400827,"is_reserved":false,"is_disabled":false,"rental_uris":{"android":"levelo://app?vid=6e6ec4b3-fc1f-445c-86bf-6b54f92ba170","ios":"levelo://app?vid=6e6ec4b3-fc1f-445c-86bf-6b54f92ba170"},"vehicle_type_id":"4","last_reported":1705604744,"current_range_meters":5200,"station_id":"","pricing_plan_id":"free"},{"bike_id":"58ed262c-1ee3-460b-90ca-ee4e601a60be","system_id":"levelo_inurba_marseille","lat":43.298681,"lon":5.397225,"is_reserved":false,"is_disabled":false,"rental_uris":{"android":"levelo://app?vid=58ed262c-1ee3-460b-90ca-ee4e601a60be","ios":"levelo://app?vid=58ed262c-1ee3-460b-90ca-ee4e601a60be"},"vehicle_type_id":"4","last_reported":1705604744,"current_range_meters":22400,"station_id":"ce4bh0h2rcd13ifvqd50","pricing_plan_id":"free"},{"bike_id":"07af0580-e7f9-469a-824d-7f84533fc7ea","system_id":"levelo_inurba_marseille","lat":43.298864,"lon":5.397337,"is_reserved":false,"is_disabled":false,"rental_uris":{"android":"levelo://app?vid=07af0580-e7f9-469a-824d-7f84533fc7ea","ios":"levelo://app?vid=07af0580-e7f9-469a-824d-7f84533fc7ea"},"vehicle_type_id":"4","last_reported":1705604744,"current_range_meters":0,"station_id":"ce4bh0h2rcd13ifvqd50","pricing_plan_id":"free"},{"bike_id":"fca98f56-3e64-46f9-9cfc-2f6f647b0733","system_id":"levelo_inurba_marseille","lat":43.298681,"lon":5.397225,"is_reserved":false,"is_disabled":false,"rental_uris":{"android":"levelo://app?vid=fca98f56-3e64-46f9-9cfc-2f6f647b0733","ios":"levelo://app?vid=fca98f56-3e64-46f9-9cfc-2f6f647b0733"},"vehicle_type_id":"4","last_reported":1705604744,"current_range_meters":4400,"station_id":"ce4bh0h2rcd13ifvqd50","pricing_plan_id":"free"},{"bike_id":"540eca2f-6d8c-4b7b-9a84-505389852f26","system_id":"levelo_inurba_marseille","lat":43.286593,"lon":5.363346,"is_reserved":false,"is_disabled":false,"rental_uris":{"android":"levelo://app?vid=540eca2f-6d8c-4b7b-9a84-505389852f26","ios":"levelo://app?vid=540eca2f-6d8c-4b7b-9a84-505389852f26"},"vehicle_type_id":"4","last_reported":1705604744,"current_range_meters":26800,"station_id":"ce4bhah2rcd13ifvqej0","pricing_plan_id":"free"},{"bike_id":"6dfaf9d9-bc56-4dc4-8a22-97419d2bb4e8","system_id":"levelo_inurba_marseille","lat":43.28706,"lon":5.373865,"is_reserved":false,"is_disabled":false,"rental_uris":{"android":"levelo://app?vid=6dfaf9d9-bc56-4dc4-8a22-97419d2bb4e8","ios":"levelo://app?vid=6dfaf9d9-bc56-4dc4-8a22-97419d2bb4e8"},"vehicle_type_id":"4","last_reported":1705604744,"current_range_meters":0,"station_id":"ce4bh3p2rcd13ifvqdq0","pricing_plan_id":"free"},{"bike_id":"c536178f-35f4-4976-a074-944efcd9430c","system_id":"levelo_inurba_marseille","lat":43.298681,"lon":5.397225,"is_reserved":false,"is_disabled":false,"rental_uris":{"android":"levelo://app?vid=c536178f-35f4-4976-a074-944efcd9430c","ios":"levelo://app?vid=c536178f-35f4-4976-a074-944efcd9430c"},"vehicle_type_id":"4","last_reported":1705604744,"current_range_meters":16400,"station_id":"ce4bh0h2rcd13ifvqd50","pricing_plan_id":"free"},{"bike_id":"791731ce-798f-454d-8096-202e09591dd1","system_id":"levelo_inurba_marseille","lat":43.286961,"lon":5.373785,"is_reserved":false,"is_disabled":false,"rental_uris":{"android":"levelo://app?vid=791731ce-798f-454d-8096-202e09591dd1","ios":"levelo://app?vid=791731ce-798f-454d-8096-202e09591dd1"},"vehicle_type_id":"4","last_reported":1705604744,"current_range_meters":20400,"station_id":"ce4bh3p2rcd13ifvqdq0","pricing_plan_id":"free"},{"bike_id":"aa898312-e0a4-4968-9fdb-6f6adfbd9b61","system_id":"levelo_inurba_marseille","lat":43.286961,"lon":5.373785,"is_reserved":false,"is_disabled":false,"rental_uris":{"android":"levelo://app?vid=aa898312-e0a4-4968-9fdb-6f6adfbd9b61","ios":"levelo://app?vid=aa898312-e0a4-4968-9fdb-6f6adfbd9b61"},"vehicle_type_id":"4","last_reported":1705604744,"current_range_meters":8400,"station_id":"ce4bh3p2rcd13ifvqdq0","pricing_plan_id":"free"},{"bike_id":"196bc974-ad78-4631-a764-d419d05f625a","system_id":"levelo_inurba_marseille","lat":43.286961,"lon":5.373785,"is_reserved":false,"is_disabled":false,"rental_uris":{"android":"levelo://app?vid=196bc974-ad78-4631-a764-d419d05f625a","ios":"levelo://app?vid=196bc974-ad78-4631-a764-d419d05f625a"},"vehicle_type_id":"4","last_reported":1705604744,"current_range_meters":0,"station_id":"ce4bh3p2rcd13ifvqdq0","pricing_plan_id":"free"},{"bike_id":"94fe2d16-1167-4bc5-b57e-f67b38ebcf77","system_id":"levelo_inurba_marseille","lat":43.298681,"lon":5.397225,"is_reserved":false,"is_disabled":false,"rental_uris":{"android":"levelo://app?vid=94fe2d16-1167-4bc5-b57e-f67b38ebcf77","ios":"levelo://app?vid=94fe2d16-1167-4bc5-b57e-f67b38ebcf77"},"vehicle_type_id":"4","last_reported":1705604744,"current_range_meters":12800,"station_id":"ce4bh0h2rcd13ifvqd50","pricing_plan_id":"free"},{"bike_id":"20ac37a0-f285-47eb-9b9d-10025387c536","system_id":"levelo_inurba_marseille","lat":43.295196,"lon":5.39397,"is_reserved":false,"is_disabled":false,"rental_uris":{"android":"levelo://app?vid=20ac37a0-f285-47eb-9b9d-10025387c536","ios":"levelo://app?vid=20ac37a0-f285-47eb-9b9d-10025387c536"},"vehicle_type_id":"4","last_reported":1705604744,"current_range_meters":400,"station_id":"ce4bh292rcd13ifvqdf0","pricing_plan_id":"free"},{"bike_id":"4271a0af-f23d-4b9f-8225-6717931cd3e2","system_id":"levelo_inurba_marseille","lat":43.286961,"lon":5.373785,"is_reserved":false,"is_disabled":false,"rental_uris":{"android":"levelo://app?vid=4271a0af-f23d-4b9f-8225-6717931cd3e2","ios":"levelo://app?vid=4271a0af-f23d-4b9f-8225-6717931cd3e2"},"vehicle_type_id":"4","last_reported":1705604744,"current_range_meters":22400,"station_id":"ce4bh3p2rcd13ifvqdq0","pricing_plan_id":"free"},{"bike_id":"f5f103b0-15c0-48b6-9625-8c9508d10066","system_id":"levelo_inurba_marseille","lat":43.298681,"lon":5.397225,"is_reserved":false,"is_disabled":false,"rental_uris":{"android":"levelo://app?vid=f5f103b0-15c0-48b6-9625-8c9508d10066","ios":"levelo://app?vid=f5f103b0-15c0-48b6-9625-8c9508d10066"},"vehicle_type_id":"4","last_reported":1705604744,"current_range_meters":16800,"station_id":"ce4bh0h2rcd13ifvqd50","pricing_plan_id":"free"},{"bike_id":"1c8545c9-6507-4af3-9fe2-feaea2654a2f","system_id":"levelo_inurba_marseille","lat":43.295196,"lon":5.39397,"is_reserved":false,"is_disabled":false,"rental_uris":{"android":"levelo://app?vid=1c8545c9-6507-4af3-9fe2-feaea2654a2f","ios":"levelo://app?vid=1c8545c9-6507-4af3-9fe2-feaea2654a2f"},"vehicle_type_id":"4","last_reported":1705604744,"current_range_meters":8800,"station_id":"ce4bh292rcd13ifvqdf0","pricing_plan_id":"free"},{"bike_id":"f211e866-70b4-446c-89b8-efd358a5e52b","system_id":"levelo_inurba_marseille","lat":43.302759,"lon":5.400793,"is_reserved":false,"is_disabled":false,"rental_uris":{"android":"levelo://app?vid=f211e866-70b4-446c-89b8-efd358a5e52b","ios":"levelo://app?vid=f211e866-70b4-446c-89b8-efd358a5e52b"},"vehicle_type_id":"4","last_reported":1705604744,"current_range_meters":24800,"station_id":"ce4bgvh2rcd13ifvqcs0","pricing_plan_id":"free"},{"bike_id":"08beb4bf-4e23-4fcd-9d95-f1bcc4a184f0","system_id":"levelo_inurba_marseille","lat":43.290345,"lon":5.38646,"is_reserved":false,"is_disabled":false,"rental_uris":{"android":"levelo://app?vid=08beb4bf-4e23-4fcd-9d95-f1bcc4a184f0","ios":"levelo://app?vid=08beb4bf-4e23-4fcd-9d95-f1bcc4a184f0"},"vehicle_type_id":"4","last_reported":1705604744,"current_range_meters":24000,"station_id":"ce4bh4p2rcd13ifvqe0g","pricing_plan_id":"free"},{"bike_id":"fca1fb48-fba7-439e-9569-7f9d5373df5f","system_id":"levelo_inurba_marseille","lat":43.29032,"lon":5.38647,"is_reserved":false,"is_disabled":false,"rental_uris":{"android":"levelo://app?vid=fca1fb48-fba7-439e-9569-7f9d5373df5f","ios":"levelo://app?vid=fca1fb48-fba7-439e-9569-7f9d5373df5f"},"vehicle_type_id":"4","last_reported":1705604744,"current_range_meters":0,"station_id":"ce4bh4p2rcd13ifvqe0g","pricing_plan_id":"free"},{"bike_id":"657c48ce-9a3e-4d69-8d66-265bc87b1690","system_id":"levelo_inurba_marseille","lat":43.290345,"lon":5.38646,"is_reserved":false,"is_disabled":false,"rental_uris":{"android":"levelo://app?vid=657c48ce-9a3e-4d69-8d66-265bc87b1690","ios":"levelo://app?vid=657c48ce-9a3e-4d69-8d66-265bc87b1690"},"vehicle_type_id":"4","last_reported":1705604744,"current_range_meters":30400,"station_id":"ce4bh4p2rcd13ifvqe0g","pricing_plan_id":"free"},{"bike_id":"65ef744d-be81-4f7a-aae1-33e00b5663cb","system_id":"levelo_inurba_marseille","lat":43.290336,"lon":5.386425,"is_reserved":false,"is_disabled":false,"rental_uris":{"android":"levelo://app?vid=65ef744d-be81-4f7a-aae1-33e00b5663cb","ios":"levelo://app?vid=65ef744d-be81-4f7a-aae1-33e00b5663cb"},"vehicle_type_id":"4","last_reported":1705604744,"current_range_meters":7200,"station_id":"ce4bh4p2rcd13ifvqe0g","pricing_plan_id":"free"},{"bike_id":"a762a334-3c19-4862-b2a6-9d2da227a5fb","system_id":"levelo_inurba_marseille","lat":43.30249,"lon":5.40077,"is_reserved":false,"is_disabled":false,"rental_uris":{"android":"levelo://app?vid=a762a334-3c19-4862-b2a6-9d2da227a5fb","ios":"levelo://app?vid=a762a334-3c19-4862-b2a6-9d2da227a5fb"},"vehicle_type_id":"4","last_reported":1705604744,"current_range_meters":0,"station_id":"ce4bgvh2rcd13ifvqcs0","pricing_plan_id":"free"},{"bike_id":"d2219887-22ef-4b2f-8e2f-7699ebe2572a","system_id":"levelo_inurba_marseille","lat":43.302759,"lon":5.400793,"is_reserved":false,"is_disabled":false,"rental_uris":{"android":"levelo://app?vid=d2219887-22ef-4b2f-8e2f-7699ebe2572a","ios":"levelo://app?vid=d2219887-22ef-4b2f-8e2f-7699ebe2572a"},"vehicle_type_id":"4","last_reported":1705604744,"current_range_meters":2400,"station_id":"ce4bgvh2rcd13ifvqcs0","pricing_plan_id":"free"},