{"last_updated":1702777999,"ttl":30,"version":"2.2","data":{"bikes":[{"bike_id":"78ce49c1-6596-4265-9140-7660994e7b05","system_id":"levelo_inurba_marseille","lat":43.314811,"lon":5.373103,"is_reserved":false,"is_disabled":false,"rental_uris":{"android":"levelo://app?vid=78ce49c1-6596-4265-9140-7660994e7b05","ios":"levelo://app?vid=78ce49c1-6596-4265-9140-7660994e7b05"},"vehicle_type_id":"4","last_reported":1702777999,"current_range_meters":26000,"station_id":"ce4bgt12rcd13ifvqcd0","pricing_plan_id":"free"},{"bike_id":"3f8b821f-e430-4a35-bf14-f8b6e777ea11","system_id":"levelo_inurba_marseille","lat":43.313939,"lon":5.375306,"is_reserved":false,"is_disabled":false,"rental_uris":{"android":"levelo://app?vid=3f8b821f-e430-4a35-bf14-f8b6e777ea11","ios":"levelo://app?vid=3f8b821f-e430-4a35-bf14-f8b6e777ea11"},"vehicle_type_id":"4","last_reported":1702777999,"current_range_meters":0,"station_id":"","pricing_plan_id":"free"},{"bike_id":"955e4ab2-16e5-44e8-a986-a2f50ff96c06","system_id":"levelo_inurba_marseille","lat":43.305382,"lon":5.365389,"is_reserved":false,"is_disabled":false,"rental_uris":{"android":"levelo://app?vid=955e4ab2-16e5-44e8-a986-a2f50ff96c06","ios":"levelo://app?vid=955e4ab2-16e5-44e8-a986-a2f50ff96c06"},"vehicle_type_id":"4","last_reported":1702777999,"current_range_meters":13600,"station_id":"","pricing_plan_id":"free"},{"bike_id":"2fd4b5fc-2586-4619-95eb-eb38a22ae3ba","system_id":"levelo_inurba_marseille","lat":43.317075,"lon":5.377367,"is_reserved":false,"is_disabled":false,"rental_uris":{"android":"levelo://app?vid=2fd4b5fc-2586-4619-95eb-eb38a22ae3ba","ios":"levelo://app?vid=2fd4b5fc-2586-4619-95eb-eb38a22ae3ba"},"vehicle_type_id":"4","last_reported":1702777999,"current_range_meters":26800,"station_id":"ce4bgth2rcd13ifvqch0","pricing_plan_id":"free"},{"bike_id":"9616949a-45ac-45be-a508-98dd80f6820a","system_id":"levelo_inurba_marseille","lat":43.315368,"lon":5.380265,"is_reserved":false,"is_disabled":false,"rental_uris":{"android":"levelo://app?vid=9616949a-45ac-45be-a508-98dd80f6820a","ios":"levelo://app?vid=9616949a-45ac-45be-a508-98dd80f6820a"},"vehicle_type_id":"4","last_reported":1702777999,"current_range_meters":0,"station_id":"ce4bhsp2rcd13ifvqi50","pricing_plan_id":"free"},{"bike_id":"5631fbdf-0b1b-4a91-ac9e-b8c64f58a515","system_id":"levelo_inurba_marseille","lat":43.31537,"lon":5.38029,"is_reserved":false,"is_disabled":false,"rental_uris":{"android":"levelo://app?vid=5631fbdf-0b1b-4a91-ac9e-b8c64f58a515","ios":"levelo://app?vid=5631fbdf-0b1b-4a91-ac9e-b8c64f58a515"},"vehicle_type_id":"4","last_reported":1702777999,"current_range_meters":0,"station_id":"ce4bhsp2rcd13ifvqi50","pricing_plan_id":"free"},{"bike_id":"05c040e4-6262-43fe-a700-d2861eaea57f","system_id":"levelo_inurba_marseille","lat":43.30459,"lon":5.37902,"is_reserved":false,"is_disabled":false,"rental_uris":{"android":"levelo://app?vid=05c040e4-6262-43fe-a700-d2861eaea57f","ios":"levelo://app?vid=05c040e4-6262-43fe-a700-d2861eaea57f"},"vehicle_type_id":"4","last_reported":1702777999,"current_range_meters":4000,"station_id":"ce4bgup2rcd13ifvqcn0","pricing_plan_id":"free"},{"bike_id":"88f7ea2a-62f7-4a88-9e9d-900940b4d7e5","system_id":"levelo_inurba_marseille","lat":43.324771,"lon":5.36557,"is_reserved":false,"is_disabled":false,"rental_uris":{"android":"levelo://app?vid=88f7ea2a-62f7-4a88-9e9d-900940b4d7e5","ios":"levelo://app?vid=88f7ea2a-62f7-4a88-9e9d-900940b4d7e5"},"vehicle_type_id":"4","last_reported":1702777999,"current_range_meters":12800,"station_id":"ce4bhs12rcd13ifvqhvg","pricing_plan_id":"free"},{"bike_id":"44c8b40c-0afe-48d3-8480-d4dfd6b81af3","system_id":"levelo_inurba_marseille","lat":43.32486,"lon":5.365634,"is_reserved":false,"is_disabled":false,"rental_uris":{"android":"levelo://app?vid=44c8b40c-0afe-48d3-8480-d4dfd6b81af3","ios":"levelo://app?vid=44c8b40c-0afe-48d3-8480-d4dfd6b81af3"},"vehicle_type_id":"4","last_reported":1702777999,"current_range_meters":24400,"station_id":"ce4bhs12rcd13ifvqhvg","pricing_plan_id":"free"},{"bike_id":"dd62cb3a-3f08-44cf-8561-0c89ff17ac35","system_id":"levelo_inurba_marseille","lat":43.313595,"lon":5.384728,"is_reserved":false,"is_disabled":false,"rental_uris":{"android":"levelo://app?vid=dd62cb3a-3f08-44cf-8561-0c89ff17ac35","ios":"levelo://app?vid=dd62cb3a-3f08-44cf-8561-0c89ff17ac35"},"vehicle_type_id":"4","last_reported":1702777999,"current_range_meters":18800,"station_id":"ce4bgt92rcd13ifvqcf0","pricing_plan_id":"free"},{"bike_id":"533a3ea5-14c7-4f6b-8770-c088486e72ad","system_id":"levelo_inurba_marseille","lat":43.313571,"lon":5.384829,"is_reserved":false,"is_disabled":false,"rental_uris":{"android":"levelo://app?vid=533a3ea5-14c7-4f6b-8770-c088486e72ad","ios":"levelo://app?vid=533a3ea5-14c7-4f6b-8770-c088486e72ad"},"vehicle_type_id":"4","last_reported":1702777999,"current_range_meters":31200,"station_id":"ce4bgt92rcd13ifvqcf0","pricing_plan_id":"free"},{"bike_id":"491b5258-88fb-4acb-82d0-7e0111bbc5bb","system_id":"levelo_inurba_marseille","lat":43.313571,"lon":5.384829,"is_reserved":false,"is_disabled":false,"rental_uris":{"android":"levelo://app?vid=491b5258-88fb-4acb-82d0-7e0111bbc5bb","ios":"levelo://app?vid=491b5258-88fb-4acb-82d0-7e0111bbc5bb"},"vehicle_type_id":"4","last_reported":1702777999,"current_range_meters":11600,"station_id":"ce4bgt92rcd13ifvqcf0","pricing_plan_id":"free"},{"bike_id":"1672090c-a26c-42ad-af76-2ce6e7e12985","system_id":"levelo_inurba_marseille","lat":43.313571,"lon":5.384829,"is_reserved":false,"is_disabled":false,"rental_uris":{"android":"levelo://app?vid=1672090c-a26c-42ad-af76-2ce6e7e12985","ios":"levelo://app?vid=1672090c-a26c-42ad-af76-2ce6e7e12985"},"vehicle_type_id":"4","last_reported":1702777999,"current_range_meters":28400,"station_id":"ce4bgt92rcd13ifvqcf0","pricing_plan_id":"free"},{"bike_id":"8ed41e6a-f8a4-4285-ba76-ccff5e3d5689","system_id":"levelo_inurba_marseille","lat":43.29975,"lon":5.37179,"is_reserved":false,"is_disabled":false,"rental_uris":{"android":"levelo://app?vid=8ed41e6a-f8a4-4285-ba76-ccff5e3d5689","ios":"levelo://app?vid=8ed41e6a-f8a4-4285-ba76-ccff5e3d5689"},"vehicle_type_id":"4","last_reported":1702777999,"current_range_meters":0,"station_id":"ce4bgr92rcd13ifvqc7g","pricing_plan_id":"free"},{"bike_id":"c4e77394-aef9-4077-b745-e99148625344","system_id":"levelo_inurba_marseille","lat":43.32733,"lon":5.36707,"is_reserved":false,"is_disabled":false,"rental_uris":{"android":"levelo://app?vid=c4e77394-aef9-4077-b745-e99148625344","ios":"levelo://app?vid=c4e77394-aef9-4077-b745-e99148625344"},"vehicle_type_id":"4","last_reported":1702777999,"current_range_meters":20800,"station_id":"","pricing_plan_id":"free"},{"bike_id":"819cb438-2e9c-4e0b-902b-5e19ef554d5c","system_id":"levelo_inurba_marseille","lat":43.305461,"lon":5.384466,"is_reserved":false,"is_disabled":false,"rental_uris":{"android":"levelo://app?vid=819cb438-2e9c-4e0b-902b-5e19ef554d5c","ios":"levelo://app?vid=819cb438-2e9c-4e0b-902b-5e19ef554d5c"},"vehicle_type_id":"4","last_reported":1702777999,"current_range_meters":13600,"station_id":"ce4bgg92rcd13ifvqb30","pricing_plan_id":"free"},{"bike_id":"b9def5e8-542a-4f7e-be32-4001e745b51a","system_id":"levelo_inurba_marseille","lat":43.31165,"lon":5.38713,"is_reserved":false,"is_disabled":false,"rental_uris":{"android":"levelo://app?vid=b9def5e8-542a-4f7e-be32-4001e745b51a","ios":"levelo://app?vid=b9def5e8-542a-4f7e-be32-4001e745b51a"},"vehicle_type_id":"4","last_reported":1702777999,"current_range_meters":18000,"station_id":"ce4bgv12rcd13ifvqcp0","pricing_plan_id":"free"},{"bike_id":"edc8767d-a247-4450-b7c9-97f5c7722ecc","system_id":"levelo_inurba_marseille","lat":43.311722,"lon":5.387247,"is_reserved":false,"is_disabled":false,"rental_uris":{"android":"levelo://app?vid=edc8767d-a247-4450-b7c9-97f5c7722ecc","ios":"levelo://app?vid=edc8767d-a247-4450-b7c9-97f5c7722ecc"},"vehicle_type_id":"4","last_reported":1702777999,"current_range_meters":22400,"station_id":"ce4bgv12rcd13ifvqcp0","pricing_plan_id":"free"},{"bike_id":"c1c77bc8-d481-4d2b-a56e-7eecc2e03677","system_id":"levelo_inurba_marseille","lat":43.311735,"lon":5.387168,"is_reserved":false,"is_disabled":false,"rental_uris":{"android":"levelo://app?vid=c1c77bc8-d481-4d2b-a56e-7eecc2e03677","ios":"levelo://app?vid=c1c77bc8-d481-4d2b-a56e-7eecc2e03677"},"vehicle_type_id":"4","last_reported":1702777999,"current_range_meters":18400,"station_id":"ce4bgv12rcd13ifvqcp0","pricing_plan_id":"free"},{"bike_id":"0666f734-537f-4219-8787-37d98e48f7ec","system_id":"levelo_inurba_marseille","lat":43.311722,"lon":5.387247,"is_reserved":false,"is_disabled":false,"rental_uris":{"android":"levelo://app?vid=0666f734-537f-4219-8787-37d98e48f7ec","ios":"levelo://app?vid=0666f734-537f-4219-8787-37d98e48f7ec"},"vehicle_type_id":"4","last_reported":1702777999,"current_range_meters":13600,"station_id":"ce4bgv12rcd13ifvqcp0","pricing_plan_id":"free"},{"bike_id":"2b46953b-014a-46ed-92c9-ce940eb11439","system_id":"levelo_inurba_marseille","lat":43.311722,"lon":5.387247,"is_reserved":false,"is_disabled":false,"rental_uris":{"android":"levelo://app?vid=2b46953b-014a-46ed-92c9-ce940eb11439","ios":"levelo://app?vid=2b46953b-014a-46ed-92c9-ce940eb11439"},"vehicle_type_id":"4","last_reported":1702777999,"current_range_meters":20000,"station_id":"ce4bgv12rcd13ifvqcp0","pricing_plan_id":"free"},{"bike_id":"b3a97298-ae67-4699-bf43-a9e27d2bdcc2","system_id":"levelo_inurba_marseille","lat":43.311672,"lon":5.387212,"is_reserved":false,"is_disabled":false,"rental_uris":{"android":"levelo://app?vid=b3a97298-ae67-4699-bf43-a9e27d2bdcc2","ios":"levelo://app?vid=b3a97298-ae67-4699-bf43-a9e27d2bdcc2"},"vehicle_type_id":"4","last_reported":1702777999,"current_range_meters":31200,"station_id":"ce4bgv12rcd13ifvqcp0","pricing_plan_id":"free"},{"bike_id":"f1491da4-2f54-4445-8640-37b7b5e9b0bd","system_id":"levelo_inurba_marseille","lat":43.328371,"lon":5.366909,"is_reserved":false,"is_disabled":false,"rental_uris":{"android":"levelo://app?vid=f1491da4-2f54-4445-8640-37b7b5e9b0bd","ios":"levelo://app?vid=f1491da4-2f54-4445-8640-37b7b5e9b0bd"},"vehicle_type_id":"4","last_reported":1702777999,"current_range_meters":6800,"station_id":"ce4bhs92rcd13ifvqi0g","pricing_plan_id":"free"},{"bike_id":"257e2c60-5deb-4d9a-9e2e-c2fc09067537","system_id":"levelo_inurba_marseille","lat":43.328371,"lon":5.366909,"is_reserved":false,"is_disabled":false,"rental_uris":{"android":"levelo://app?vid=257e2c60-5deb-4d9a-9e2e-c2fc09067537","ios":"levelo://app?vid=257e2c60-5deb-4d9a-9e2e-c2fc09067537"},"vehicle_type_id":"4","last_reported":1702777999,"current_range_meters":17200,"station_id":"ce4bhs92rcd13ifvqi0g","pricing_plan_id":"free"},{"bike_id":"2eaf80ff-d2a5-4d7c-b473-60a857376611","system_id":"levelo_inurba_marseille","lat":43.309589,"lon":5.390258,"is_reserved":false,"is_disabled":false,"rental_uris":{"android":"levelo://app?vid=2eaf80ff-d2a5-4d7c-b473-60a857376611","ios":"levelo://app?vid=2eaf80ff-d2a5-4d7c-b473-60a857376611"},"vehicle_type_id":"4","last_reported":1702777999,"current_range_meters":24800,"station_id":"ce4bgup2rcd13ifvqco0","pricing_plan_id":"free"},{"bike_id":"622b2db3-252f-4d54-b371-cb4e2eea3b1e","system_id":"levelo_inurba_marseille","lat":43.309589,"lon":5.390258,"is_reserved":false,"is_disabled":false,"rental_uris":{"android":"levelo://app?vid=622b2db3-252f-4d54-b371-cb4e2eea3b1e","ios":"levelo://app?vid=622b2db3-252f-4d54-b371-cb4e2eea3b1e"},"vehicle_type_id":"4","last_reported":1702777999,"current_range_meters":10400,"station_id":"ce4bgup2rcd13ifvqco0","pricing_plan_id":"free"},{"bike_id":"8b514e6e-2b9b-4749-9281-9181f949edd0","system_id":"levelo_inurba_marseille","lat":43.309589,"lon":5.390258,"is_reserved":false,"is_disabled":false,"rental_uris":{"android":"levelo://app?vid=8b514e6e-2b9b-4749-9281-9181f949edd0","ios":"levelo://app?vid=8b514e6e-2b9b-4749-9281-9181f949edd0"},"vehicle_type_id":"4","last_reported":1702777999,"current_range_meters":12000,"station_id":"ce4bgup2rcd13ifvqco0","pricing_plan_id":"free"},{"bike_id":"729c1c1f-ef5d-4c7e-8367-862d949ec8b3","system_id":"levelo_inurba_marseille","lat":43.309589,"lon":5.390258,"is_reserved":false,"is_disabled":false,"rental_uris":{"android":"levelo://app?vid=729c1c1f-ef5d-4c7e-8367-862d949ec8b3","ios":"levelo://app?vid=729c1c1f-ef5d-4c7e-8367-862d949ec8b3"},"vehicle_type_id":"4","last_reported":1702777999,"current_range_meters":18000,"station_id":"ce4bgup2rcd13ifvqco0","pricing_plan_id":"free"},{"bike_id":"d6044d44-46f6-46c2-bcb2-8e3a6e06c707","system_id":"levelo_inurba_marseille","lat":43.317557,"lon":5.390173,"is_reserved":false,"is_disabled":false,"rental_uris":{"android":"levelo://app?vid=d6044d44-46f6-46c2-bcb2-8e3a6e06c707","ios":"levelo://app?vid=d6044d44-46f6-46c2-bcb2-8e3a6e06c707"},"vehicle_type_id":"4","last_reported":1702777999,"current_range_meters":31200,"station_id":"ce4bhqp2rcd13ifvqhng","pricing_plan_id":"free"},{"bike_id":"2e4327a4-5c68-42c9-a75e-2a5f9b2ba77b","system_id":"levelo_inurba_marseille","lat":43.317557,"lon":5.390173,"is_reserved":false,"is_disabled":false,"rental_uris":{"android":"levelo://app?vid=2e4327a4-5c68-42c9-a75e-2a5f9b2ba77b","ios":"levelo://app?vid=2e4327a4-5c68-42c9-a75e-2a5f9b2ba77b"},"vehicle_type_id":"4","last_reported":1702777999,"current_range_meters":31600,"station_id":"ce4bhqp2rcd13ifvqhng","pricing_plan_id":"free"},{"bike_id":"4fe68cb0-ef05-4f1c-919b-7a2b0e3c1f89","system_id":"levelo_inurba_marseille","lat":43.317557,"lon":5.390173,"is_reserved":false,"is_disabled":false,"rental_uris":{"android":"levelo://app?vid=4fe68cb0-ef05-4f1c-919b-7a2b0e3c1f89","ios":"levelo://app?vid=4fe68cb0-ef05-4f1c-919b-7a2b0e3c1f89"},"vehicle_type_id":"4","last_reported":1702777999,"current_range_meters":31200,"station_id":"ce4bhqp2rcd13ifvqhng","pricing_plan_id":"free"},{"bike_id":"8b990761-3717-4b31-9e09-22c0e6f10fb8","system_id":"levelo_inurba_marseille","lat":43.317557,"lon":5.390173,"is_reserved":false,"is_disabled":false,"rental_uris":{"android":"levelo://app?vid=8b990761-3717-4b31-9e09-22c0e6f10fb8","ios":"levelo://app?vid=8b990761-3717-4b31-9e09-22c0e6f10fb8"},"vehicle_type_id":"4","last_reported":1702777999,"current_range_meters":10400,"station_id":"ce4bhqp2rcd13ifvqhng","pricing_plan_id":"free"},{"bike_id":"4978515e-1c4e-4dbc-a000-36164a9c8cf6","system_id":"levelo_inurba_marseille","lat":43.304274,"lon":5.388873,"is_reserved":false,"is_disabled":false,"rental_uris":{"android":"levelo://app?vid=4978515e-1c4e-4dbc-a000-36164a9c8cf6","ios":"levelo://app?vid=4978515e-1c4e-4dbc-a000-36164a9c8cf6"},"vehicle_type_id":"4","last_reported":1702777999,"current_range_meters":4800,"station_id":"ce4bgk12rcd13ifvqbi0","pricing_plan_id":"free"},{"bike_id":"277bb3af-cd1b-4fa9-9c1b-7b8cfa1e1046","system_id":"levelo_inurba_marseille","lat":43.304278,"lon":5.388868,"is_reserved":false,"is_disabled":false,"rental_uris":{"android":"levelo://app?vid=277bb3af-cd1b-4fa9-9c1b-7b8cfa1e1046","ios":"levelo://app?vid=277bb3af-cd1b-4fa9-9c1b-7b8cfa1e1046"},"vehicle_type_id":"4","last_reported":1702777999,"current_range_meters":9200,"station_id":"ce4bgk12rcd13ifvqbi0","pricing_plan_id":"free"},{"bike_id":"da2bf830-8371-4987-8296-d78e324a9b5b","system_id":"levelo_inurba_marseille","lat":43.296503,"lon":5.37949,"is_reserved":false,"is_disabled":false,"rental_uris":{"android":"levelo://app?vid=da2bf830-8371-4987-8296-d78e324a9b5b","ios":"levelo://app?vid=da2bf830-8371-4987-8296-d78e324a9b5b"},"vehicle_type_id":"4","last_reported":1702777999,"current_range_meters":2400,"station_id":"","pricing_plan_id":"free"},{"bike_id":"2d339ccb-9fe7-4132-b39e-b9bd4a932749","system_id":"levelo_inurba_marseille","lat":43.32361,"lon":5.38881,"is_reserved":false,"is_disabled":false,"rental_uris":{"android":"levelo://app?vid=2d339ccb-9fe7-4132-b39e-b9bd4a932749","ios":"levelo://app?vid=2d339ccb-9fe7-4132-b39e-b9bd4a932749"},"vehicle_type_id":"4","last_reported":1702777999,"current_range_meters":14000,"station_id":"ce4bhqp2rcd13ifvqhog","pricing_plan_id":"free"},{"bike_id":"31954c81-37ea-46a3-a087-7d824ac76191","system_id":"levelo_inurba_marseille","lat":43.32362,"lon":5.38882,"is_reserved":false,"is_disabled":false,"rental_uris":{"android":"levelo://app?vid=31954c81-37ea-46a3-a087-7d824ac76191","ios":"levelo://app?vid=31954c81-37ea-46a3-a087-7d824ac76191"},"vehicle_type_id":"4","last_reported":1702777999,"current_range_meters":4800,"station_id":"ce4bhqp2rcd13ifvqhog","pricing_plan_id":"free"},{"bike_id":"9da2a5de-a060-428d-938c-bd3d0b597e67","system_id":"levelo_inurba_marseille","lat":43.305994,"lon":5.393687,"is_reserved":false,"is_disabled":false,"rental_uris":{"android":"levelo://app?vid=9da2a5de-a060-428d-938c-bd3d0b597e67","ios":"levelo://app?vid=9da2a5de-a060-428d-938c-bd3d0b597e67"},"vehicle_type_id":"4","last_reported":1702777999,"current_range_meters":1600,"station_id":"ce4bh0p2rcd13ifvqd80","pricing_plan_id":"free"},{"bike_id":"ea0bb7fb-1668-419e-b5bb-668ae56e7d95","system_id":"levelo_inurba_marseille","lat":43.305994,"lon":5.393687,"is_reserved":false,"is_disabled":false,"rental_uris":{"android":"levelo://app?vid=ea0bb7fb-1668-419e-b5bb-668ae56e7d95","ios":"levelo://app?vid=ea0bb7fb-1668-419e-b5bb-668ae56e7d95"},"vehicle_type_id":"4","last_reported":1702777999,"current_range_meters":19200,"station_id":"ce4bh0p2rcd13ifvqd80","pricing_plan_id":"free"},{"bike_id":"84dbcd2f-5f09-4d83-9631-029f8230cae9","system_id":"levelo_inurba_marseille","lat":43.305994,"lon":5.393687,"is_reserved":false,"is_disabled":false,"rental_uris":{"android":"levelo://app?vid=84dbcd2f-5f09-4d83-9631-029f8230cae9","ios":"levelo://app?vid=84dbcd2f-5f09-4d83-9631-029f8230cae9"},"vehicle_type_id":"4","last_reported":1702777999,"current_range_meters":22400,"station_id":"ce4bh0p2rcd13ifvqd80","pricing_plan_id":"free"},{"bike_id":"745a1866-cc05-4ce6-aff9-6d69f7f39c01","system_id":"levelo_inurba_marseille","lat":43.302992,"lon":5.392136,"is_reserved":false,"is_disabled":false,"rental_uris":{"android":"levelo://app?vid=745a1866-cc05-4ce6-aff9-6d69f7f39c01","ios":"levelo://app?vid=745a1866-cc05-4ce6-aff9-6d69f7f39c01"},"vehicle_type_id":"4","last_reported":1702777999,"current_range_meters":13200,"station_id":"ce4bgkh2rcd13ifvqbk0","pricing_plan_id":"free"},{"bike_id":"9164f53e-d090-4168-8df5-0a4c0ea2ba5f","system_id":"levelo_inurba_marseille","lat":43.302992,"lon":5.392136,"is_reserved":false,"is_disabled":false,"rental_uris":{"android":"levelo://app?vid=9164f53e-d090-4168-8df5-0a4c0ea2ba5f","ios":"levelo://app?vid=9164f53e-d090-4168-8df5-0a4c0ea2ba5f"},"vehicle_type_id":"4","last_reported":1702777999,"current_range_meters":11200,"station_id":"ce4bgkh2rcd13ifvqbk0","pricing_plan_id":"free"},{"bike_id":"5f019fb3-e78e-4e41-8d48-c7f45fc165fc","system_id":"levelo_inurba_marseille","lat":43.29229,"lon":5.36063,"is_reserved":false,"is_disabled":false,"rental_uris":{"android":"levelo://app?vid=5f019fb3-e78e-4e41-8d48-c7f45fc165fc","ios":"levelo://app?vid=5f019fb3-e78e-4e41-8d48-c7f45fc165fc"},"vehicle_type_id":"4","last_reported":1702777999,"current_range_meters":10400,"station_id":"","pricing_plan_id":"free"},{"bike_id":"a6990e5d-21af-4d2e-9f66-925f7d00f867","system_id":"levelo_inurba_marseille","lat":43.292703,"lon":5.376388,"is_reserved":false,"is_disabled":false,"rental_uris":{"android":"levelo://app?vid=a6990e5d-21af-4d2e-9f66-925f7d00f867","ios":"levelo://app?vid=a6990e5d-21af-4d2e-9f66-925f7d00f867"},"vehicle_type_id":"4","last_reported":1702777999,"current_range_meters":3200,"station_id":"","pricing_plan_id":"free"},{"bike_id":"8a34a178-2da0-4339-bf4e-e2deb6944c60","system_id":"levelo_inurba_marseille","lat":43.295757,"lon":5.385419,"is_reserved":false,"is_disabled":false,"rental_uris":{"android":"levelo://app?vid=8a34a178-2da0-4339-bf4e-e2deb6944c60","ios":"levelo://app?vid=8a34a178-2da0-4339-bf4e-e2deb6944c60"},"vehicle_type_id":"4","last_reported":1702777999,"current_range_meters":0,"station_id":"","pricing_plan_id":"free"},{"bike_id":"892482fa-7aed-426e-9450-0b183d5a396e","system_id":"levelo_inurba_marseille","lat":43.291994,"lon":5.357886,"is_reserved":false,"is_disabled":false,"rental_uris":{"android":"levelo://app?vid=892482fa-7aed-426e-9450-0b183d5a396e","ios":"levelo://app?vid=892482fa-7aed-426e-9450-0b183d5a396e"},"vehicle_type_id":"4","last_reported":1702777999,"current_range_meters":30400,"station_id":"ce4bhb12rcd13ifvqel0","pricing_plan_id":"free"},{"bike_id":"99505810-e4af-4242-9dfa-052a0489f56e","system_id":"levelo_inurba_marseille","lat":43.313195,"lon":5.396813,"is_reserved":false,"is_disabled":false,"rental_uris":{"android":"levelo://app?vid=99505810-e4af-4242-9dfa-052a0489f56e","ios":"levelo://app?vid=99505810-e4af-4242-9dfa-052a0489f56e"},"vehicle_type_id":"4","last_reported":1702777999,"current_range_meters":2000,"station_id":"ce4bgvp2rcd13ifvqcu0","pricing_plan_id":"free"},{"bike_id":"088ca245-0062-4572-8e24-2074247e2a20","system_id":"levelo_inurba_marseille","lat":43.309038,"lon":5.396546,"is_reserved":false,"is_disabled":false,"rental_uris":{"android":"levelo://app?vid=088ca245-0062-4572-8e24-2074247e2a20","ios":"levelo://app?vid=088ca245-0062-4572-8e24-2074247e2a20"},"vehicle_type_id":"4","last_reported":1702777999,"current_range_meters":17200,"station_id":"ce4bh012rcd13ifvqcv0","pricing_plan_id":"free"},{"bike_id":"1bd032e9-a9c1-4d45-8800-a5fdbd1789a0","system_id":"levelo_inurba_marseille","lat":43.309038,"lon":5.396546,"is_reserved":false,"is_disabled":false,"rental_uris":{"android":"levelo://app?vid=1bd032e9-a9c1-4d45-8800-a5fdbd1789a0","ios":"levelo://app?vid=1bd032e9-a9c1-4d45-8800-a5fdbd1789a0"},"vehicle_type_id":"4","last_reported":1702777999,"current_range_meters":17600,"station_id":"ce4bh012rcd13ifvqcv0","pricing_plan_id":"free"},{"bike_id":"d3326263-b53d-473e-ba43-290732f34ee0","system_id":"levelo_inurba_marseille","lat":43.31332,"lon":5.39692,"is_reserved":false,"is_disabled":false,"rental_uris":{"android":"levelo://app?vid=d3326263-b53d-473e-ba43-290732f34ee0","ios":"levelo://app?vid=d3326263-b53d-473e-ba43-290732f34ee0"},"vehicle_type_id":"4","last_reported":1702777999,"current_range_meters":25600,"station_id":"ce4bgvp2rcd13ifvqcu0","pricing_plan_id":"free"},{"bike_id":"55c621e1-94a8-462c-ad2d-9257efdf4c70","system_id":"levelo_inurba_marseille","lat":43.313319,"lon":5.396927,"is_reserved":false,"is_disabled":false,"rental_uris":{"android":"levelo://app?vid=55c621e1-94a8-462c-ad2d-9257efdf4c70","ios":"levelo://app?vid=55c621e1-94a8-462c-ad2d-9257efdf4c70"},"vehicle_type_id":"4","last_reported":1702777999,"current_range_meters":1600,"station_id":"ce4bgvp2rcd13ifvqcu0","pricing_plan_id":"free"},{"bike_id":"805a1b30-552c-4510-87f6-b9195b489af1","system_id":"levelo_inurba_marseille","lat":43.313291,"lon":5.396838,"is_reserved":false,"is_disabled":false,"rental_uris":{"android":"levelo://app?vid=805a1b30-552c-4510-87f6-b9195b489af1","ios":"levelo://app?vid=805a1b30-552c-4510-87f6-b9195b489af1"},"vehicle_type_id":"4","last_reported":1702777999,"current_range_meters":12400,"station_id":"ce4bgvp2rcd13ifvqcu0","pricing_plan_id":"free"},{"bike_id":"f1253399-4c64-416f-8035-862585d853fd","system_id":"levelo_inurba_marseille","lat":43.291994,"lon":5.357886,"is_reserved":false,"is_disabled":false,"rental_uris":{"android":"levelo://app?vid=f1253399-4c64-416f-8035-862585d853fd","ios":"levelo://app?vid=f1253399-4c64-416f-8035-862585d853fd"},"vehicle_type_id":"4","last_reported":1702777999,"current_range_meters":31200,"station_id":"ce4bhb12rcd13ifvqel0","pricing_plan_id":"free"},{"bike_id":"dc11934a-f11e-4bd0-b77c-c5aaf70a04e5","system_id":"levelo_inurba_marseille","lat":43.31324,"lon":5.39696,"is_reserved":false,"is_disabled":false,"rental_uris":{"android":"levelo://app?vid=dc11934a-f11e-4bd0-b77c-c5aaf70a04e5","ios":"levelo://app?vid=dc11934a-f11e-4bd0-b77c-c5aaf70a04e5"},"vehicle_type_id":"4","last_reported":1702777999,"current_range_meters":3600,"station_id":"ce4bgvp2rcd13ifvqcu0","pricing_plan_id":"free"},{"bike_id":"eea9a5b5-a5ef-406f-89d0-cb3b69a8c013","system_id":"levelo_inurba_marseille","lat":43.309038,"lon":5.396546,"is_reserved":false,"is_disabled":false,"rental_uris":{"android":"levelo://app?vid=eea9a5b5-a5ef-406f-89d0-cb3b69a8c013","ios":"levelo://app?vid=eea9a5b5-a5ef-406f-89d0-cb3b69a8c013"},"vehicle_type_id":"4","last_reported":1702777999,"current_range_meters":6400,"station_id":"ce4bh012rcd13ifvqcv0","pricing_plan_id":"free"},{"bike_id":"25f521a1-bfd3-4e3a-a20b-1619588e4969","system_id":"levelo_inurba_marseille","lat":43.29181,"lon":5.35799,"is_reserved":false,"is_disabled":false,"rental_uris":{"android":"levelo://app?vid=25f521a1-bfd3-4e3a-a20b-1619588e4969","ios":"levelo://app?vid=25f521a1-bfd3-4e3a-a20b-1619588e4969"},"vehicle_type_id":"4","last_reported":1702777999,"current_range_meters":30000,"station_id":"ce4bhb12rcd13ifvqel0","pricing_plan_id":"free"},{"bike_id":"d8eba37a-76c6-452f-a9be-a407fb44b180","system_id":"levelo_inurba_marseille","lat":43.29529,"lon":5.385581,"is_reserved":false,"is_disabled":false,"rental_uris":{"android":"levelo://app?vid=d8eba37a-76c6-452f-a9be-a407fb44b180","ios":"levelo://app?vid=d8eba37a-76c6-452f-a9be-a407fb44b180"},"vehicle_type_id":"4","last_reported":1702777999,"current_range_meters":24400,"station_id":"ce4bgih2rcd13ifvqba0","pricing_plan_id":"free"},{"bike_id":"41d35b48-8d38-4312-8dfd-8805f2dd7c3f","system_id":"levelo_inurba_marseille","lat":43.302008,"lon":5.394694,"is_reserved":false,"is_disabled":false,"rental_uris":{"android":"levelo://app?vid=41d35b48-8d38-4312-8dfd-8805f2dd7c3f","ios":"levelo://app?vid=41d35b48-8d38-4312-8dfd-8805f2dd7c3f"},"vehicle_type_id":"4","last_reported":1702777999,"current_range_meters":5200,"station_id":"ce4bh0p2rcd13ifvqd70","pricing_plan_id":"free"},{"bike_id":"ca3af477-5c44-491d-84d9-8a230bd4e5fb","system_id":"levelo_inurba_marseille","lat":43.290631,"lon":5.359244,"is_reserved":false,"is_disabled":false,"rental_uris":{"android":"levelo://app?vid=ca3af477-5c44-491d-84d9-8a230bd4e5fb","ios":"levelo://app?vid=ca3af477-5c44-491d-84d9-8a230bd4e5fb"},"vehicle_type_id":"4","last_reported":1702777999,"current_range_meters":24000,"station_id":"ce4bha92rcd13ifvqeg0","pricing_plan_id":"free"},{"bike_id":"8e2f7dfc-d512-448e-8232-4e6b7cdc89c4","system_id":"levelo_inurba_marseille","lat":43.304296,"lon":5.397513,"is_reserved":false,"is_disabled":false,"rental_uris":{"android":"levelo://app?vid=8e2f7dfc-d512-448e-8232-4e6b7cdc89c4","ios":"levelo://app?vid=8e2f7dfc-d512-448e-8232-4e6b7cdc89c4"},"vehicle_type_id":"4","last_reported":1702777999,"current_range_meters":18400,"station_id":"ce4bh092rcd13ifvqd20","pricing_plan_id":"free"},{"bike_id":"925d1d63-8c42-48c7-b06c-3249f8954959","system_id":"levelo_inurba_marseille","lat":43.304296,"lon":5.397513,"is_reserved":false,"is_disabled":false,"rental_uris":{"android":"levelo://app?vid=925d1d63-8c42-48c7-b06c-3249f8954959","ios":"levelo://app?vid=925d1d63-8c42-48c7-b06c-3249f8954959"},"vehicle_type_id":"4","last_reported":1702777999,"current_range_meters":6800,"station_id":"ce4bh092rcd13ifvqd20","pricing_plan_id":"free"},{"bike_id":"f2355564-2cca-4264-937f-b22a0bb58bbc","system_id":"levelo_inurba_marseille","lat":43.330442,"lon":5.389148,"is_reserved":false,"is_disabled":false,"rental_uris":{"android":"levelo://app?vid=f2355564-2cca-4264-937f-b22a0bb58bbc","ios":"levelo://app?vid=f2355564-2cca-4264-937f-b22a0bb58bbc"},"vehicle_type_id":"4","last_reported":1702777999,"current_range_meters":11200,"station_id":"ce4bhr92rcd13ifvqhrg","pricing_plan_id":"free"},{"bike_id":"0019cc72-50a3-4298-937a-c3025a814462","system_id":"levelo_inurba_marseille","lat":43.330442,"lon":5.389148,"is_reserved":false,"is_disabled":false,"rental_uris":{"android":"levelo://app?vid=0019cc72-50a3-4298-937a-c3025a814462","ios":"levelo://app?vid=0019cc72-50a3-4298-937a-c3025a814462"},"vehicle_type_id":"4","last_reported":1702777999,"current_range_meters":5600,"station_id":"ce4bhr92rcd13ifvqhrg","pricing_plan_id":"free"},{"bike_id":"ad0f6538-ba65-40b7-bd35-329a98101cc1","system_id":"levelo_inurba_marseille","lat":43.28975,"lon":5.35489,"is_reserved":false,"is_disabled":false,"rental_uris":{"android":"levelo://app?vid=ad0f6538-ba65-40b7-bd35-329a98101cc1","ios":"levelo://app?vid=ad0f6538-ba65-40b7-bd35-329a98101cc1"},"vehicle_type_id":"4","last_reported":1702777999,"current_range_meters":9200,"station_id":"","pricing_plan_id":"free"},{"bike_id":"447204d2-5ce8-4b66-9b29-15a9ae85b983","system_id":"levelo_inurba_marseille","lat":43.28856,"lon":5.358371,"is_reserved":false,"is_disabled":false,"rental_uris":{"android":"levelo://app?vid=447204d2-5ce8-4b66-9b29-15a9ae85b983","ios":"levelo://app?vid=447204d2-5ce8-4b66-9b29-15a9ae85b983"},"vehicle_type_id":"4","last_reported":1702777999,"current_range_meters":29600,"station_id":"ce4bhb12rcd13ifvqem0","pricing_plan_id":"free"},{"bike_id":"e73ba5fd-45c7-4a46-beac-b5c7374298e6","system_id":"levelo_inurba_marseille","lat":43.309345,"lon":5.401392,"is_reserved":false,"is_disabled":false,"rental_uris":{"android":"levelo://app?vid=e73ba5fd-45c7-4a46-beac-b5c7374298e6","ios":"levelo://app?vid=e73ba5fd-45c7-4a46-beac-b5c7374298e6"},"vehicle_type_id":"4","last_reported":1702777999,"current_range_meters":22000,"station_id":"ce4bgvp2rcd13ifvqct0","pricing_plan_id":"free"},{"bike_id":"f0cd831c-cfb9-44c7-9487-103b6df223ca","system_id":"levelo_inurba_marseille","lat":43.337445,"lon":5.374592,"is_reserved":false,"is_disabled":false,"rental_uris":{"android":"levelo://app?vid=f0cd831c-cfb9-44c7-9487-103b6df223ca","ios":"levelo://app?vid=f0cd831c-cfb9-44c7-9487-103b6df223ca"},"vehicle_type_id":"4","last_reported":1702777999,"current_range_meters":27200,"station_id":"","pricing_plan_id":"free"},{"bike_id":"c928512c-93e9-4dcd-8dcd-62cb4da07058","system_id":"levelo_inurba_marseille","lat":43.309287,"lon":5.40144,"is_reserved":false,"is_disabled":false,"rental_uris":{"android":"levelo://app?vid=c928512c-93e9-4dcd-8dcd-62cb4da07058","ios":"levelo://app?vid=c928512c-93e9-4dcd-8dcd-62cb4da07058"},"vehicle_type_id":"4","last_reported":1702777999,"current_range_meters":20800,"station_id":"ce4bgvp2rcd13ifvqct0","pricing_plan_id":"free"},{"bike_id":"3acd82a9-1a98-4a9c-83e7-281037b8576f","system_id":"levelo_inurba_marseille","lat":43.30932,"lon":5.40148,"is_reserved":false,"is_disabled":false,"rental_uris":{"android":"levelo://app?vid=3acd82a9-1a98-4a9c-83e7-281037b8576f","ios":"levelo://app?vid=3acd82a9-1a98-4a9c-83e7-281037b8576f"},"vehicle_type_id":"4","last_reported":1702777999,"current_range_meters":18800,"station_id":"ce4bgvp2rcd13ifvqct0","pricing_plan_id":"free"},{"bike_id":"1f5698a1-fae9-4180-8c15-df2f9ce17462","system_id":"levelo_inurba_marseille","lat":43.30924,"lon":5.40148,"is_reserved":false,"is_disabled":false,"rental_uris":{"android":"levelo://app?vid=1f5698a1-fae9-4180-8c15-df2f9ce17462","ios":"levelo://app?vid=1f5698a1-fae9-4180-8c15-df2f9ce17462"},"vehicle_type_id":"4","last_reported":1702777999,"current_range_meters":22000,"station_id":"ce4bgvp2rcd13ifvqct0","pricing_plan_id":"free"},{"bike_id":"8754fc9c-a794-4dfd-b7ef-f292d6f481fb","system_id":"levelo_inurba_marseille","lat":43.306412,"lon":5.401035,"is_reserved":false,"is_disabled":false,"rental_uris":{"android":"levelo://app?vid=8754fc9c-a794-4dfd-b7ef-f292d6f481fb","ios":"levelo://app?vid=8754fc9c-a794-4dfd-b7ef-f292d6f481fb"},"vehicle_type_id":"4","last_reported":1702777999,"current_range_meters":30400,"station_id":"ce4bh112rcd13ifvqda0","pricing_plan_id":"free"},{"bike_id":"ef80ceab-dc9f-4b6c-8f52-707d5177f481","system_id":"levelo_inurba_marseille","lat":43.33752,"lon":5.37466,"is_reserved":false,"is_disabled":false,"rental_uris":{"android":"levelo://app?vid=ef80ceab-dc9f-4b6c-8f52-707d5177f481","ios":"levelo://app?vid=ef80ceab-dc9f-4b6c-8f52-707d5177f481"},"vehicle_type_id":"4","last_reported":1702777999,"current_range_meters":26800,"station_id":"","pricing_plan_id":"free"},{"bike_id":"55c39c26-0ea3-4491-8153-e9b48fb14e0c","system_id":"levelo_inurba_marseille","lat":43.29077,"lon":5.38456,"is_reserved":false,"is_disabled":false,"rental_uris":{"android":"levelo://app?vid=55c39c26-0ea3-4491-8153-e9b48fb14e0c","ios":"levelo://app?vid=55c39c26-0ea3-4491-8153-e9b48fb14e0c"},"vehicle_type_id":"4","last_reported":1702777999,"current_range_meters":400,"station_id":"","pricing_plan_id":"free"},{"bike_id":"d961fdfb-0c8d-4ced-a6a7-dc7159120bab","system_id":"levelo_inurba_marseille","lat":43.309313,"lon":5.401595,"is_reserved":false,"is_disabled":false,"rental_uris":{"android":"levelo://app?vid=d961fdfb-0c8d-4ced-a6a7-dc7159120bab","ios":"levelo://app?vid=d961fdfb-0c8d-4ced-a6a7-dc7159120bab"},"vehicle_type_id":"4","last_reported":1702777999,"current_range_meters":0,"station_id":"ce4bgvp2rcd13ifvqct0","pricing_plan_id":"free"},{"bike_id":"06b5638f-f733-4c56-aaf8-aa2614169de8","system_id":"levelo_inurba_marseille","lat":43.306412,"lon":5.401035,"is_reserved":false,"is_disabled":false,"rental_uris":{"android":"levelo://app?vid=06b5638f-f733-4c56-aaf8-aa2614169de8","ios":"levelo://app?vid=06b5638f-f733-4c56-aaf8-aa2614169de8"},"vehicle_type_id":"4","last_reported":1702777999,"current_range_meters":14800,"station_id":"ce4bh112rcd13ifvqda0","pricing_plan_id":"free"},{"bike_id":"811ca201-f116-4503-863d-4ebde3239757","system_id":"levelo_inurba_marseille","lat":43.286961,"lon":5.373785,"is_reserved":false,"is_disabled":false,"rental_uris":{"android":"levelo://app?vid=811ca201-f116-4503-863d-4ebde3239757","ios":"levelo://app?vid=811ca201-f116-4503-863d-4ebde3239757"},"vehicle_type_id":"4","last_reported":1702777999,"current_range_meters":26800,"station_id":"ce4bh3p2rcd13ifvqdq0","pricing_plan_id":"free"},{"bike_id":"3a4f2853-f361-4afb-a0be-9ad4d2a72042","system_id":"levelo_inurba_marseille","lat":43.295246,"lon":5.39401,"is_reserved":false,"is_disabled":false,"rental_uris":{"android":"levelo://app?vid=3a4f2853-f361-4afb-a0be-9ad4d2a72042","ios":"levelo://app?vid=3a4f2853-f361-4afb-a0be-9ad4d2a72042"},"vehicle_type_id":"4","last_reported":1702777999,"current_range_meters":0,"station_id":"ce4bh292rcd13ifvqdf0","pricing_plan_id":"free"},{"bike_id":"73d334e5-fa13-4529-8759-7d1743af0513","system_id":"levelo_inurba_marseille","lat":43.302759,"lon":5.400793,"is_reserved":false,"is_disabled":false,"rental_uris":{"android":"levelo://app?vid=73d334e5-fa13-4529-8759-7d1743af0513","ios":"levelo://app?vid=73d334e5-fa13-4529-8759-7d1743af0513"},"vehicle_type_id":"4","last_reported":1702777999,"current_range_meters":31200,"station_id":"ce4bgvh2rcd13ifvqcs0","pricing_plan_id":"free"},{"bike_id":"b028e0de-ba8d-4035-9c1e-ffb970695ad7","system_id":"levelo_inurba_marseille","lat":43.302759,"lon":5.400793,"is_reserved":false,"is_disabled":false,"rental_uris":{"android":"levelo://app?vid=b028e0de-ba8d-4035-9c1e-ffb970695ad7","ios":"levelo://app?vid=b028e0de-ba8d-4035-9c1e-ffb970695ad7"},"vehicle_type_id":"4","last_reported":1702777999,"current_range_meters":0,"station_id":"ce4bgvh2rcd13ifvqcs0","pricing_plan_id":"free"},{"bike_id":"1a595aad-7c01-401c-a2ae-81dbacc5b5b2","system_id":"levelo_inurba_marseille","lat":43.302759,"lon":5.400793,"is_reserved":false,"is_disabled":false,"rental_uris":{"android":"levelo://app?vid=1a595aad-7c01-401c-a2ae-81dbacc5b5b2","ios":"levelo://app?vid=1a595aad-7c01-401c-a2ae-81dbacc5b5b2"},"vehicle_type_id":"4","last_reported":1702777999,"current_range_meters":8000,"station_id":"ce4bgvh2rcd13ifvqcs0","pricing_plan_id":"free"},{"bike_id":"c98b9455-ee33-4c98-be23-512cee3cf71e","system_id":"levelo_inurba_marseille","lat":43.291994,"lon":5.392907,"is_reserved":false,"is_disabled":false,"rental_uris":{"android":"levelo://app?vid=c98b9455-ee33-4c98-be23-512cee3cf71e","ios":"levelo://app?vid=c98b9455-ee33-4c98-be23-512cee3cf71e"},"vehicle_type_id":"4","last_reported":1702777999,"current_range_meters":26400,"station_id":"ce4bh192rcd13ifvqdd0","pricing_plan_id":"free"},{"bike_id":"eaaddbfa-6894-4288-ae38-121b56eb604b","system_id":"levelo_inurba_marseille","lat":43.294314,"lon":5.397498,"is_reserved":false,"is_disabled":false,"rental_uris":{"android":"levelo://app?vid=eaaddbfa-6894-4288-ae38-121b56eb604b","ios":"levelo://app?vid=eaaddbfa-6894-4288-ae38-121b56eb604b"},"vehicle_type_id":"4","last_reported":1702777999,"current_range_meters":25600,"station_id":"ce4bh3h2rcd13ifvqdo0","pricing_plan_id":"free"},{"bike_id":"41149033-1665-4293-b1d2-7a646ad5dbfa","system_id":"levelo_inurba_marseille","lat":43.294314,"lon":5.397498,"is_reserved":false,"is_disabled":false,"rental_uris":{"android":"levelo://app?vid=41149033-1665-4293-b1d2-7a646ad5dbfa","ios":"levelo://app?vid=41149033-1665-4293-b1d2-7a646ad5dbfa"},"vehicle_type_id":"4","last_reported":1702777999,"current_range_meters":14000,"station_id":"ce4bh3h2rcd13ifvqdo0","pricing_plan_id":"free"},{"bike_id":"7980b514-7b81-49da-955f-d3cee0578dd7","system_id":"levelo_inurba_marseille","lat":43.283998,"lon":5.375062,"is_reserved":false,"is_disabled":false,"rental_uris":{"android":"levelo://app?vid=7980b514-7b81-49da-955f-d3cee0578dd7","ios":"levelo://app?vid=7980b514-7b81-49da-955f-d3cee0578dd7"},"vehicle_type_id":"4","last_reported":1702777999,"current_range_meters":9600,"station_id":"ce4bh412rcd13ifvqds0","pricing_plan_id":"free"},{"bike_id":"92652e35-0f46-4898-bac7-396ee1f6f9fd","system_id":"levelo_inurba_marseille","lat":43.28404,"lon":5.37515,"is_reserved":false,"is_disabled":false,"rental_uris":{"android":"levelo://app?vid=92652e35-0f46-4898-bac7-396ee1f6f9fd","ios":"levelo://app?vid=92652e35-0f46-4898-bac7-396ee1f6f9fd"},"vehicle_type_id":"4","last_reported":1702777999,"current_range_meters":23600,"station_id":"ce4bh412rcd13ifvqds0","pricing_plan_id":"free"},{"bike_id":"2dfa5049-0e1b-4839-b5c3-156910a65dbd","system_id":"levelo_inurba_marseille","lat":43.331737,"lon":5.39845,"is_reserved":false,"is_disabled":false,"rental_uris":{"android":"levelo://app?vid=2dfa5049-0e1b-4839-b5c3-156910a65dbd","ios":"levelo://app?vid=2dfa5049-0e1b-4839-b5c3-156910a65dbd"},"vehicle_type_id":"4","last_reported":1702777999,"current_range_meters":8000,"station_id":"","pricing_plan_id":"free"},{"bike_id":"b1bba2b6-372d-49dd-b13b-1b4d710db23d","system_id":"levelo_inurba_marseille","lat":43.323464,"lon":5.406297,"is_reserved":false,"is_disabled":false,"rental_uris":{"android":"levelo://app?vid=b1bba2b6-372d-49dd-b13b-1b4d710db23d","ios":"levelo://app?vid=b1bba2b6-372d-49dd-b13b-1b4d710db23d"},"vehicle_type_id":"4","last_reported":1702777999,"current_range_meters":24000,"station_id":"ce4bhq92rcd13ifvqhjg","pricing_plan_id":"free"},{"bike_id":"a8c4246c-8b22-44a6-af13-0443491dc2b7","system_id":"levelo_inurba_marseille","lat":43.323464,"lon":5.406297,"is_reserved":false,"is_disabled":false,"rental_uris":{"android":"levelo://app?vid=a8c4246c-8b22-44a6-af13-0443491dc2b7","ios":"levelo://app?vid=a8c4246c-8b22-44a6-af13-0443491dc2b7"},"vehicle_type_id":"4","last_reported":1702777999,"current_range_meters":24400,"station_id":"ce4bhq92rcd13ifvqhjg","pricing_plan_id":"free"},{"bike_id":"2727c664-bd75-4b2f-b8dd-f20bae895db9","system_id":"levelo_inurba_marseille","lat":43.323464,"lon":5.406297,"is_reserved":false,"is_disabled":false,"rental_uris":{"android":"levelo://app?vid=2727c664-bd75-4b2f-b8dd-f20bae895db9","ios":"levelo://app?vid=2727c664-bd75-4b2f-b8dd-f20bae895db9"},"vehicle_type_id":"4","last_reported":1702777999,"current_range_meters":20400,"station_id":"ce4bhq92rcd13ifvqhjg","pricing_plan_id":"free"},{"bike_id":"56fc6c81-6436-4318-96d9-1f143a5fab32","system_id":"levelo_inurba_marseille","lat":43.288644,"lon":5.393294,"is_reserved":false,"is_disabled":false,"rental_uris":{"android":"levelo://app?vid=56fc6c81-6436-4318-96d9-1f143a5fab32","ios":"levelo://app?vid=56fc6c81-6436-4318-96d9-1f143a5fab32"},"vehicle_type_id":"4","last_reported":1702777999,"current_range_meters":0,"station_id":"ce4bh2p2rcd13ifvqdi0","pricing_plan_id":"free"},{"bike_id":"74f66dca-28a5-40e9-958e-b4ee13a4d99d","system_id":"levelo_inurba_marseille","lat":43.292724,"lon":5.401131,"is_reserved":false,"is_disabled":false,"rental_uris":{"android":"levelo://app?vid=74f66dca-28a5-40e9-958e-b4ee13a4d99d","ios":"levelo://app?vid=74f66dca-28a5-40e9-958e-b4ee13a4d99d"},"vehicle_type_id":"4","last_reported":1702777999,"current_range_meters":12400,"station_id":"ce4bh312rcd13ifvqdk0","pricing_plan_id":"free"},{"bike_id":"57081d17-a208-46ca-b63c-d266aa1b10fd","system_id":"levelo_inurba_marseille","lat":43.283502,"lon":5.386471,"is_reserved":false,"is_disabled":false,"rental_uris":{"android":"levelo://app?vid=57081d17-a208-46ca-b63c-d266aa1b10fd","ios":"levelo://app?vid=57081d17-a208-46ca-b63c-d266aa1b10fd"},"vehicle_type_id":"4","last_reported":1702777999,"current_range_meters":12400,"station_id":"ce4bh492rcd13ifvqdvg","pricing_plan_id":"free"},{"bike_id":"106ee6b0-144c-4afe-b060-3bd134b908e4","system_id":"levelo_inurba_marseille","lat":43.283502,"lon":5.386471,"is_reserved":false,"is_disabled":false,"rental_uris":{"android":"levelo://app?vid=106ee6b0-144c-4afe-b060-3bd134b908e4","ios":"levelo://app?vid=106ee6b0-144c-4afe-b060-3bd134b908e4"},"vehicle_type_id":"4","last_reported":1702777999,"current_range_meters":29600,"station_id":"ce4bh492rcd13ifvqdvg","pricing_plan_id":"free"},{"bike_id":"b06270b4-fded-4e46-b5b5-36e56aa3f6f4","system_id":"levelo_inurba_marseille","lat":43.282754,"lon":5.350519,"is_reserved":false,"is_disabled":false,"rental_uris":{"android":"levelo://app?vid=b06270b4-fded-4e46-b5b5-36e56aa3f6f4","ios":"levelo://app?vid=b06270b4-fded-4e46-b5b5-36e56aa3f6f4"},"vehicle_type_id":"4","last_reported":1702777999,"current_range_meters":27200,"station_id":"ce4bhbp2rcd13ifvqerg","pricing_plan_id":"free"},{"bike_id":"9d2389f0-1f4e-4d61-afc0-c373a6bcf102","system_id":"levelo_inurba_marseille","lat":43.280382,"lon":5.369291,"is_reserved":false,"is_disabled":false,"rental_uris":{"android":"levelo://app?vid=9d2389f0-1f4e-4d61-afc0-c373a6bcf102","ios":"levelo://app?vid=9d2389f0-1f4e-4d61-afc0-c373a6bcf102"},"vehicle_type_id":"4","last_reported":1702777999,"current_range_meters":27200,"station_id":"ce4bha12rcd13ifvqef0","pricing_plan_id":"free"},{"bike_id":"e063aa6d-ecfb-43c0-963f-c3e8c8b6d808","system_id":"levelo_inurba_marseille","lat":43.28039,"lon":5.369297,"is_reserved":false,"is_disabled":false,"rental_uris":{"android":"levelo://app?vid=e063aa6d-ecfb-43c0-963f-c3e8c8b6d808","ios":"levelo://app?vid=e063aa6d-ecfb-43c0-963f-c3e8c8b6d808"},"vehicle_type_id":"4","last_reported":1702777999,"current_range_meters":12800,"station_id":"ce4bha12rcd13ifvqef0","pricing_plan_id":"free"},{"bike_id":"c48ac4ac-f1f9-410e-bca0-01df2c8dc181","system_id":"levelo_inurba_marseille","lat":43.280304,"lon":5.369356,"is_reserved":false,"is_disabled":false,"rental_uris":{"android":"levelo://app?vid=c48ac4ac-f1f9-410e-bca0-01df2c8dc181","ios":"levelo://app?vid=c48ac4ac-f1f9-410e-bca0-01df2c8dc181"},"vehicle_type_id":"4","last_reported":1702777999,"current_range_meters":31200,"station_id":"ce4bha12rcd13ifvqef0","pricing_plan_id":"free"},{"bike_id":"9377e37d-c18a-4787-ae02-bc900d4d7d90","system_id":"levelo_inurba_marseille","lat":43.284462,"lon":5.392121,"is_reserved":false,"is_disabled":false,"rental_uris":{"android":"levelo://app?vid=9377e37d-c18a-4787-ae02-bc900d4d7d90","ios":"levelo://app?vid=9377e37d-c18a-4787-ae02-bc900d4d7d90"},"vehicle_type_id":"4","last_reported":1702777999,"current_range_meters":12800,"station_id":"ce4bhoh2rcd13ifvqh5g","pricing_plan_id":"free"},{"bike_id":"9650c3b6-39d7-4eac-be02-955df3d91021","system_id":"levelo_inurba_marseille","lat":43.28573,"lon":5.394992,"is_reserved":false,"is_disabled":false,"rental_uris":{"android":"levelo://app?vid=9650c3b6-39d7-4eac-be02-955df3d91021","ios":"levelo://app?vid=9650c3b6-39d7-4eac-be02-955df3d91021"},"vehicle_type_id":"4","last_reported":1702777999,"current_range_meters":21200,"station_id":"ce4bh292rcd13ifvqdg0","pricing_plan_id":"free"},{"bike_id":"ac05eec3-6dd4-4e50-ab24-45f354a74562","system_id":"levelo_inurba_marseille","lat":43.326605,"lon":5.409903,"is_reserved":false,"is_disabled":false,"rental_uris":{"android":"levelo://app?vid=ac05eec3-6dd4-4e50-ab24-45f354a74562","ios":"levelo://app?vid=ac05eec3-6dd4-4e50-ab24-45f354a74562"},"vehicle_type_id":"4","last_reported":1702777999,"current_range_meters":30400,"station_id":"ce4bhpp2rcd13ifvqhgg","pricing_plan_id":"free"},{"bike_id":"50a75cc7-e590-4a41-b17e-605170017a9c","system_id":"levelo_inurba_marseille","lat":43.320456,"lon":5.415292,"is_reserved":false,"is_disabled":false,"rental_uris":{"android":"levelo://app?vid=50a75cc7-e590-4a41-b17e-605170017a9c","ios":"levelo://app?vid=50a75cc7-e590-4a41-b17e-605170017a9c"},"vehicle_type_id":"4","last_reported":1702777999,"current_range_meters":18000,"station_id":"ce4bhq92rcd13ifvqhkg","pricing_plan_id":"free"},{"bike_id":"b20b997c-e71c-4908-ab85-2e82e1ac7d9c","system_id":"levelo_inurba_marseille","lat":43.299579,"lon":5.413255,"is_reserved":false,"is_disabled":false,"rental_uris":{"android":"levelo://app?vid=b20b997c-e71c-4908-ab85-2e82e1ac7d9c","ios":"levelo://app?vid=b20b997c-e71c-4908-ab85-2e82e1ac7d9c"},"vehicle_type_id":"4","last_reported":1702777999,"current_range_meters":25200,"station_id":"ce4bhp12rcd13ifvqh9g","pricing_plan_id":"free"},{"bike_id":"a9761bfc-9cc9-46d3-90ba-cb98557039b8","system_id":"levelo_inurba_marseille","lat":43.292571,"lon":5.409107,"is_reserved":false,"is_disabled":false,"rental_uris":{"android":"levelo://app?vid=a9761bfc-9cc9-46d3-90ba-cb98557039b8","ios":"levelo://app?vid=a9761bfc-9cc9-46d3-90ba-cb98557039b8"},"vehicle_type_id":"4","last_reported":1702777999,"current_range_meters":29200,"station_id":"ce4bh192rcd13ifvqdc0","pricing_plan_id":"free"},{"bike_id":"e9ebc997-d7ce-4423-9613-ece8b9ec12de","system_id":"levelo_inurba_marseille","lat":43.27618,"lon":5.361009,"is_reserved":false,"is_disabled":false,"rental_uris":{"android":"levelo://app?vid=e9ebc997-d7ce-4423-9613-ece8b9ec12de","ios":"levelo://app?vid=e9ebc997-d7ce-4423-9613-ece8b9ec12de"},"vehicle_type_id":"4","last_reported":1702777999,"current_range_meters":29600,"station_id":"ce4bgj92rcd13ifvqbe0","pricing_plan_id":"free"},{"bike_id":"ef4ebfe6-544f-427a-ab41-4e8fcd066bd6","system_id":"levelo_inurba_marseille","lat":43.27617,"lon":5.36108,"is_reserved":false,"is_disabled":false,"rental_uris":{"android":"levelo://app?vid=ef4ebfe6-544f-427a-ab41-4e8fcd066bd6","ios":"levelo://app?vid=ef4ebfe6-544f-427a-ab41-4e8fcd066bd6"},"vehicle_type_id":"4","last_reported":1702777999,"current_range_meters":31200,"station_id":"ce4bgj92rcd13ifvqbe0","pricing_plan_id":"free"},{"bike_id":"d2bc80be-2763-48a0-9add-1d38cc794278","system_id":"levelo_inurba_marseille","lat":43.276179,"lon":5.361009,"is_reserved":false,"is_disabled":false,"rental_uris":{"android":"levelo://app?vid=d2bc80be-2763-48a0-9add-1d38cc794278","ios":"levelo://app?vid=d2bc80be-2763-48a0-9add-1d38cc794278"},"vehicle_type_id":"4","last_reported":1702777999,"current_range_meters":31200,"station_id":"ce4bgj92rcd13ifvqbe0","pricing_plan_id":"free"},{"bike_id":"bb88f287-0e0d-4d1f-aa50-a899706e4ac8","system_id":"levelo_inurba_marseille","lat":43.280784,"lon":5.396622,"is_reserved":false,"is_disabled":false,"rental_uris":{"android":"levelo://app?vid=bb88f287-0e0d-4d1f-aa50-a899706e4ac8","ios":"levelo://app?vid=bb88f287-0e0d-4d1f-aa50-a899706e4ac8"},"vehicle_type_id":"4","last_reported":1702777999,"current_range_meters":30000,"station_id":"ce4bho12rcd13ifvqh2g","pricing_plan_id":"free"},{"bike_id":"e7fcdeca-090d-491e-a8ea-4f6571be908d","system_id":"levelo_inurba_marseille","lat":43.280784,"lon":5.396622,"is_reserved":false,"is_disabled":false,"rental_uris":{"android":"levelo://app?vid=e7fcdeca-090d-491e-a8ea-4f6571be908d","ios":"levelo://app?vid=e7fcdeca-090d-491e-a8ea-4f6571be908d"},"vehicle_type_id":"4","last_reported":1702777999,"current_range_meters":27200,"station_id":"ce4bho12rcd13ifvqh2g","pricing_plan_id":"free"},{"bike_id":"630f80f1-ba04-49ea-9076-6a3b75fb8289","system_id":"levelo_inurba_marseille","lat":43.335999,"lon":5.410204,"is_reserved":false,"is_disabled":false,"rental_uris":{"android":"levelo://app?vid=630f80f1-ba04-49ea-9076-6a3b75fb8289","ios":"levelo://app?vid=630f80f1-ba04-49ea-9076-6a3b75fb8289"},"vehicle_type_id":"4","last_reported":1702777999,"current_range_meters":6400,"station_id":"ce4bhqh2rcd13ifvqhmg","pricing_plan_id":"free"},{"bike_id":"2bed3501-fcea-4a7a-8a65-1bedf3ad5bdc","system_id":"levelo_inurba_marseille","lat":43.336134,"lon":5.410341,"is_reserved":false,"is_disabled":false,"rental_uris":{"android":"levelo://app?vid=2bed3501-fcea-4a7a-8a65-1bedf3ad5bdc","ios":"levelo://app?vid=2bed3501-fcea-4a7a-8a65-1bedf3ad5bdc"},"vehicle_type_id":"4","last_reported":1702777999,"current_range_meters":30000,"station_id":"ce4bhqh2rcd13ifvqhmg","pricing_plan_id":"free"},{"bike_id":"ea3d35f6-b07e-4308-ae51-5376e9d8e7cc","system_id":"levelo_inurba_marseille","lat":43.273468,"lon":5.364622,"is_reserved":false,"is_disabled":false,"rental_uris":{"android":"levelo://app?vid=ea3d35f6-b07e-4308-ae51-5376e9d8e7cc","ios":"levelo://app?vid=ea3d35f6-b07e-4308-ae51-5376e9d8e7cc"},"vehicle_type_id":"4","last_reported":1702777999,"current_range_meters":14000,"station_id":"","pricing_plan_id":"free"},{"bike_id":"a83fbdc4-cb19-4da7-8427-ed9acafa3ba3","system_id":"levelo_inurba_marseille","lat":43.275625,"lon":5.384392,"is_reserved":false,"is_disabled":false,"rental_uris":{"android":"levelo://app?vid=a83fbdc4-cb19-4da7-8427-ed9acafa3ba3","ios":"levelo://app?vid=a83fbdc4-cb19-4da7-8427-ed9acafa3ba3"},"vehicle_type_id":"4","last_reported":1702777999,"current_range_meters":9200,"station_id":"ce4bhh92rcd13ifvqfi0","pricing_plan_id":"free"},{"bike_id":"b55ffe92-8a83-40f0-a3c4-d4168e894444","system_id":"levelo_inurba_marseille","lat":43.279952,"lon":5.400085,"is_reserved":false,"is_disabled":false,"rental_uris":{"android":"levelo://app?vid=b55ffe92-8a83-40f0-a3c4-d4168e894444","ios":"levelo://app?vid=b55ffe92-8a83-40f0-a3c4-d4168e894444"},"vehicle_type_id":"4","last_reported":1702777999,"current_range_meters":27200,"station_id":"ce4bho92rcd13ifvqh4g","pricing_plan_id":"free"},{"bike_id":"834b8db2-fa63-4fcf-b17e-58cd7130986d","system_id":"levelo_inurba_marseille","lat":43.279952,"lon":5.400085,"is_reserved":false,"is_disabled":false,"rental_uris":{"android":"levelo://app?vid=834b8db2-fa63-4fcf-b17e-58cd7130986d","ios":"levelo://app?vid=834b8db2-fa63-4fcf-b17e-58cd7130986d"},"vehicle_type_id":"4","last_reported":1702777999,"current_range_meters":12400,"station_id":"ce4bho92rcd13ifvqh4g","pricing_plan_id":"free"},{"bike_id":"16e97540-d6c9-41cc-9f14-a93eca663b8b","system_id":"levelo_inurba_marseille","lat":43.317121,"lon":5.423936,"is_reserved":false,"is_disabled":false,"rental_uris":{"android":"levelo://app?vid=16e97540-d6c9-41cc-9f14-a93eca663b8b","ios":"levelo://app?vid=16e97540-d6c9-41cc-9f14-a93eca663b8b"},"vehicle_type_id":"4","last_reported":1702777999,"current_range_meters":15600,"station_id":"ce4bhp92rcd13ifvqhbg","pricing_plan_id":"free"},{"bike_id":"251de0dc-299e-4a18-abf1-eec4ea9c23e2","system_id":"levelo_inurba_marseille","lat":43.310785,"lon":5.424305,"is_reserved":false,"is_disabled":false,"rental_uris":{"android":"levelo://app?vid=251de0dc-299e-4a18-abf1-eec4ea9c23e2","ios":"levelo://app?vid=251de0dc-299e-4a18-abf1-eec4ea9c23e2"},"vehicle_type_id":"4","last_reported":1702777999,"current_range_meters":20000,"station_id":"ce4bhp92rcd13ifvqhag","pricing_plan_id":"free"},{"bike_id":"f97f3ae3-0746-4a73-8a97-072f8aa9cb10","system_id":"levelo_inurba_marseille","lat":43.310785,"lon":5.424305,"is_reserved":false,"is_disabled":false,"rental_uris":{"android":"levelo://app?vid=f97f3ae3-0746-4a73-8a97-072f8aa9cb10","ios":"levelo://app?vid=f97f3ae3-0746-4a73-8a97-072f8aa9cb10"},"vehicle_type_id":"4","last_reported":1702777999,"current_range_meters":28800,"station_id":"ce4bhp92rcd13ifvqhag","pricing_plan_id":"free"},{"bike_id":"87cc8c4f-8ecf-420c-bac2-ed05f14f8c04","system_id":"levelo_inurba_marseille","lat":43.2761,"lon":5.39493,"is_reserved":false,"is_disabled":false,"rental_uris":{"android":"levelo://app?vid=87cc8c4f-8ecf-420c-bac2-ed05f14f8c04","ios":"levelo://app?vid=87cc8c4f-8ecf-420c-bac2-ed05f14f8c04"},"vehicle_type_id":"4","last_reported":1702777999,"current_range_meters":14000,"station_id":"","pricing_plan_id":"free"},{"bike_id":"43844db9-0392-4da0-9a6e-40bbf1d336e6","system_id":"levelo_inurba_marseille","lat":43.340804,"lon":5.410219,"is_reserved":false,"is_disabled":false,"rental_uris":{"android":"levelo://app?vid=43844db9-0392-4da0-9a6e-40bbf1d336e6","ios":"levelo://app?vid=43844db9-0392-4da0-9a6e-40bbf1d336e6"},"vehicle_type_id":"4","last_reported":1702777999,"current_range_meters":29200,"station_id":"ce4bhqh2rcd13ifvqhlg","pricing_plan_id":"free"},{"bike_id":"cb8657c1-f91a-4cfd-a573-28533970bdba","system_id":"levelo_inurba_marseille","lat":43.340804,"lon":5.410219,"is_reserved":false,"is_disabled":false,"rental_uris":{"android":"levelo://app?vid=cb8657c1-f91a-4cfd-a573-28533970bdba","ios":"levelo://app?vid=cb8657c1-f91a-4cfd-a573-28533970bdba"},"vehicle_type_id":"4","last_reported":1702777999,"current_range_meters":25200,"station_id":"ce4bhqh2rcd13ifvqhlg","pricing_plan_id":"free"},{"bike_id":"3ca2c2d2-99b0-4aa6-a05d-e30f02e6a7fb","system_id":"levelo_inurba_marseille","lat":43.276092,"lon":5.395289,"is_reserved":false,"is_disabled":false,"rental_uris":{"android":"levelo://app?vid=3ca2c2d2-99b0-4aa6-a05d-e30f02e6a7fb","ios":"levelo://app?vid=3ca2c2d2-99b0-4aa6-a05d-e30f02e6a7fb"},"vehicle_type_id":"4","last_reported":1702777999,"current_range_meters":20400,"station_id":"","pricing_plan_id":"free"},{"bike_id":"b4c6f4dc-2250-4f05-9fb6-af5cb0780927","system_id":"levelo_inurba_marseille","lat":43.295523,"lon":5.422926,"is_reserved":false,"is_disabled":false,"rental_uris":{"android":"levelo://app?vid=b4c6f4dc-2250-4f05-9fb6-af5cb0780927","ios":"levelo://app?vid=b4c6f4dc-2250-4f05-9fb6-af5cb0780927"},"vehicle_type_id":"4","last_reported":1702777999,"current_range_meters":2400,"station_id":"ce4bhph2rcd13ifvqhdg","pricing_plan_id":"free"},{"bike_id":"17e6d1cd-d096-46e5-abe6-275103201d2c","system_id":"levelo_inurba_marseille","lat":43.295511,"lon":5.422926,"is_reserved":false,"is_disabled":false,"rental_uris":{"android":"levelo://app?vid=17e6d1cd-d096-46e5-abe6-275103201d2c","ios":"levelo://app?vid=17e6d1cd-d096-46e5-abe6-275103201d2c"},"vehicle_type_id":"4","last_reported":1702777999,"current_range_meters":20400,"station_id":"ce4bhph2rcd13ifvqhdg","pricing_plan_id":"free"},{"bike_id":"7c5e5a9a-9f39-4a14-9573-d5b8ab599dd5","system_id":"levelo_inurba_marseille","lat":43.27188,"lon":5.39224,"is_reserved":false,"is_disabled":false,"rental_uris":{"android":"levelo://app?vid=7c5e5a9a-9f39-4a14-9573-d5b8ab599dd5","ios":"levelo://app?vid=7c5e5a9a-9f39-4a14-9573-d5b8ab599dd5"},"vehicle_type_id":"4","last_reported":1702777999,"current_range_meters":20000,"station_id":"ce4bhhp2rcd13ifvqfm0","pricing_plan_id":"free"},{"bike_id":"a3497833-0109-4dfa-9bbe-66896df39185","system_id":"levelo_inurba_marseille","lat":43.278128,"lon":5.407195,"is_reserved":false,"is_disabled":false,"rental_uris":{"android":"levelo://app?vid=a3497833-0109-4dfa-9bbe-66896df39185","ios":"levelo://app?vid=a3497833-0109-4dfa-9bbe-66896df39185"},"vehicle_type_id":"4","last_reported":1702777999,"current_range_meters":18800,"station_id":"ce4bhnh2rcd13ifvqgtg","pricing_plan_id":"free"},{"bike_id":"db774753-4382-453e-a138-c32d538f9839","system_id":"levelo_inurba_marseille","lat":43.358672,"lon":5.356739,"is_reserved":false,"is_disabled":false,"rental_uris":{"android":"levelo://app?vid=db774753-4382-453e-a138-c32d538f9839","ios":"levelo://app?vid=db774753-4382-453e-a138-c32d538f9839"},"vehicle_type_id":"4","last_reported":1702777999,"current_range_meters":11600,"station_id":"","pricing_plan_id":"free"},{"bike_id":"defcd15e-2d1a-4c6a-9ba9-06ec4a626559","system_id":"levelo_inurba_marseille","lat":43.2656,"lon":5.37282,"is_reserved":false,"is_disabled":false,"rental_uris":{"android":"levelo://app?vid=defcd15e-2d1a-4c6a-9ba9-06ec4a626559","ios":"levelo://app?vid=defcd15e-2d1a-4c6a-9ba9-06ec4a626559"},"vehicle_type_id":"4","last_reported":1702777999,"current_range_meters":0,"station_id":"ce4bhg12rcd13ifvqf70","pricing_plan_id":"free"},{"bike_id":"795c3f04-d671-45bc-bddc-7fd1d0fedee6","system_id":"levelo_inurba_marseille","lat":43.26681,"lon":5.382694,"is_reserved":false,"is_disabled":false,"rental_uris":{"android":"levelo://app?vid=795c3f04-d671-45bc-bddc-7fd1d0fedee6","ios":"levelo://app?vid=795c3f04-d671-45bc-bddc-7fd1d0fedee6"},"vehicle_type_id":"4","last_reported":1702777999,"current_range_meters":26400,"station_id":"ce4bhg92rcd13ifvqf90","pricing_plan_id":"free"},{"bike_id":"3ec397f0-b8da-4e84-be43-f4abb20ebecf","system_id":"levelo_inurba_marseille","lat":43.276655,"lon":5.411805,"is_reserved":false,"is_disabled":false,"rental_uris":{"android":"levelo://app?vid=3ec397f0-b8da-4e84-be43-f4abb20ebecf","ios":"levelo://app?vid=3ec397f0-b8da-4e84-be43-f4abb20ebecf"},"vehicle_type_id":"4","last_reported":1702777999,"current_range_meters":29600,"station_id":"","pricing_plan_id":"free"},{"bike_id":"8a74afc9-c8ee-428c-95f4-83fc1e519239","system_id":"levelo_inurba_marseille","lat":43.27999,"lon":5.41663,"is_reserved":false,"is_disabled":false,"rental_uris":{"android":"levelo://app?vid=8a74afc9-c8ee-428c-95f4-83fc1e519239","ios":"levelo://app?vid=8a74afc9-c8ee-428c-95f4-83fc1e519239"},"vehicle_type_id":"4","last_reported":1702777999,"current_range_meters":800,"station_id":"ce4bho12rcd13ifvqh1g","pricing_plan_id":"free"},{"bike_id":"f0777057-4272-42ef-93ac-cc8482f179b1","system_id":"levelo_inurba_marseille","lat":43.27997,"lon":5.41663,"is_reserved":false,"is_disabled":false,"rental_uris":{"android":"levelo://app?vid=f0777057-4272-42ef-93ac-cc8482f179b1","ios":"levelo://app?vid=f0777057-4272-42ef-93ac-cc8482f179b1"},"vehicle_type_id":"4","last_reported":1702777999,"current_range_meters":24800,"station_id":"ce4bho12rcd13ifvqh1g","pricing_plan_id":"free"},{"bike_id":"959c24c3-760c-427a-b86a-89ed3d51249b","system_id":"levelo_inurba_marseille","lat":43.265714,"lon":5.372891,"is_reserved":false,"is_disabled":false,"rental_uris":{"android":"levelo://app?vid=959c24c3-760c-427a-b86a-89ed3d51249b","ios":"levelo://app?vid=959c24c3-760c-427a-b86a-89ed3d51249b"},"vehicle_type_id":"4","last_reported":1702777999,"current_range_meters":17200,"station_id":"ce4bhg12rcd13ifvqf70","pricing_plan_id":"free"},{"bike_id":"434bd705-c739-4390-a83d-29dd0e2c7f15","system_id":"levelo_inurba_marseille","lat":43.265571,"lon":5.390032,"is_reserved":false,"is_disabled":false,"rental_uris":{"android":"levelo://app?vid=434bd705-c739-4390-a83d-29dd0e2c7f15","ios":"levelo://app?vid=434bd705-c739-4390-a83d-29dd0e2c7f15"},"vehicle_type_id":"4","last_reported":1702777999,"current_range_meters":3200,"station_id":"ce4bhe12rcd13ifvqf30","pricing_plan_id":"free"},{"bike_id":"57a2219e-c728-40bd-8907-4e3d7b3e8318","system_id":"levelo_inurba_marseille","lat":43.26568,"lon":5.39006,"is_reserved":false,"is_disabled":false,"rental_uris":{"android":"levelo://app?vid=57a2219e-c728-40bd-8907-4e3d7b3e8318","ios":"levelo://app?vid=57a2219e-c728-40bd-8907-4e3d7b3e8318"},"vehicle_type_id":"4","last_reported":1702777999,"current_range_meters":30800,"station_id":"ce4bhe12rcd13ifvqf30","pricing_plan_id":"free"},{"bike_id":"6d2a8826-c88a-4068-aa66-f80b00c6f453","system_id":"levelo_inurba_marseille","lat":43.26949,"lon":5.40262,"is_reserved":false,"is_disabled":false,"rental_uris":{"android":"levelo://app?vid=6d2a8826-c88a-4068-aa66-f80b00c6f453","ios":"levelo://app?vid=6d2a8826-c88a-4068-aa66-f80b00c6f453"},"vehicle_type_id":"4","last_reported":1702777999,"current_range_meters":20800,"station_id":"cjm6bp8fraef2m0cb0m0","pricing_plan_id":"free"},{"bike_id":"9b148fe7-0ffd-4931-8c29-6e6064af2347","system_id":"levelo_inurba_marseille","lat":43.31711,"lon":5.43704,"is_reserved":false,"is_disabled":false,"rental_uris":{"android":"levelo://app?vid=9b148fe7-0ffd-4931-8c29-6e6064af2347","ios":"levelo://app?vid=9b148fe7-0ffd-4931-8c29-6e6064af2347"},"vehicle_type_id":"4","last_reported":1702777999,"current_range_meters":17200,"station_id":"ce4bhp92rcd13ifvqhcg","pricing_plan_id":"free"},{"bike_id":"cd508d17-ee53-4f00-89f2-1854417d27a3","system_id":"levelo_inurba_marseille","lat":43.31717,"lon":5.43709,"is_reserved":false,"is_disabled":false,"rental_uris":{"android":"levelo://app?vid=cd508d17-ee53-4f00-89f2-1854417d27a3","ios":"levelo://app?vid=cd508d17-ee53-4f00-89f2-1854417d27a3"},"vehicle_type_id":"4","last_reported":1702777999,"current_range_meters":0,"station_id":"ce4bhp92rcd13ifvqhcg","pricing_plan_id":"free"},{"bike_id":"8f1b56dd-ca7e-4fb4-ab8e-d35e6d8bfafa","system_id":"levelo_inurba_marseille","lat":43.262012,"lon":5.379307,"is_reserved":false,"is_disabled":false,"rental_uris":{"android":"levelo://app?vid=8f1b56dd-ca7e-4fb4-ab8e-d35e6d8bfafa","ios":"levelo://app?vid=8f1b56dd-ca7e-4fb4-ab8e-d35e6d8bfafa"},"vehicle_type_id":"4","last_reported":1702777999,"current_range_meters":22400,"station_id":"ce4bhjp2rcd13ifvqg90","pricing_plan_id":"free"},{"bike_id":"a4b12618-8cc5-4307-afce-db369d848131","system_id":"levelo_inurba_marseille","lat":43.267959,"lon":5.402687,"is_reserved":false,"is_disabled":false,"rental_uris":{"android":"levelo://app?vid=a4b12618-8cc5-4307-afce-db369d848131","ios":"levelo://app?vid=a4b12618-8cc5-4307-afce-db369d848131"},"vehicle_type_id":"4","last_reported":1702777999,"current_range_meters":20000,"station_id":"ce501612rcd8frsf0b60","pricing_plan_id":"free"},{"bike_id":"4c30ab0b-cc54-4ba6-ae72-a8fb812c2d2c","system_id":"levelo_inurba_marseille","lat":43.26501,"lon":5.39542,"is_reserved":false,"is_disabled":false,"rental_uris":{"android":"levelo://app?vid=4c30ab0b-cc54-4ba6-ae72-a8fb812c2d2c","ios":"levelo://app?vid=4c30ab0b-cc54-4ba6-ae72-a8fb812c2d2c"},"vehicle_type_id":"4","last_reported":1702777999,"current_range_meters":26000,"station_id":"","pricing_plan_id":"free"},{"bike_id":"9a3ecfe7-427f-467f-aab2-6caa501d8c6f","system_id":"levelo_inurba_marseille","lat":43.26498,"lon":5.395417,"is_reserved":false,"is_disabled":false,"rental_uris":{"android":"levelo://app?vid=9a3ecfe7-427f-467f-aab2-6caa501d8c6f","ios":"levelo://app?vid=9a3ecfe7-427f-467f-aab2-6caa501d8c6f"},"vehicle_type_id":"4","last_reported":1702777999,"current_range_meters":0,"station_id":"","pricing_plan_id":"free"},{"bike_id":"8edd52e8-28cf-4b63-b3f1-27d9aaf14520","system_id":"levelo_inurba_marseille","lat":43.26492,"lon":5.3955,"is_reserved":false,"is_disabled":false,"rental_uris":{"android":"levelo://app?vid=8edd52e8-28cf-4b63-b3f1-27d9aaf14520","ios":"levelo://app?vid=8edd52e8-28cf-4b63-b3f1-27d9aaf14520"},"vehicle_type_id":"4","last_reported":1702777999,"current_range_meters":0,"station_id":"","pricing_plan_id":"free"},{"bike_id":"d084d587-4b27-4e47-8734-14f6d302ab83","system_id":"levelo_inurba_marseille","lat":43.298768,"lon":5.43643,"is_reserved":false,"is_disabled":false,"rental_uris":{"android":"levelo://app?vid=d084d587-4b27-4e47-8734-14f6d302ab83","ios":"levelo://app?vid=d084d587-4b27-4e47-8734-14f6d302ab83"},"vehicle_type_id":"4","last_reported":1702777999,"current_range_meters":31200,"station_id":"ce4bhpp2rcd13ifvqhfg","pricing_plan_id":"free"},{"bike_id":"84d23a6b-18c6-4e12-abea-edef63349583","system_id":"levelo_inurba_marseille","lat":43.298768,"lon":5.43643,"is_reserved":false,"is_disabled":false,"rental_uris":{"android":"levelo://app?vid=84d23a6b-18c6-4e12-abea-edef63349583","ios":"levelo://app?vid=84d23a6b-18c6-4e12-abea-edef63349583"},"vehicle_type_id":"4","last_reported":1702777999,"current_range_meters":23600,"station_id":"ce4bhpp2rcd13ifvqhfg","pricing_plan_id":"free"},{"bike_id":"c15ae3b7-8e97-4a88-a9b4-a63f88042490","system_id":"levelo_inurba_marseille","lat":43.281548,"lon":5.42643,"is_reserved":false,"is_disabled":false,"rental_uris":{"android":"levelo://app?vid=c15ae3b7-8e97-4a88-a9b4-a63f88042490","ios":"levelo://app?vid=c15ae3b7-8e97-4a88-a9b4-a63f88042490"},"vehicle_type_id":"4","last_reported":1702777999,"current_range_meters":3600,"station_id":"ce4bhnh2rcd13ifvqgug","pricing_plan_id":"free"},{"bike_id":"71252ba5-5619-4f36-b490-0c5903f0700e","system_id":"levelo_inurba_marseille","lat":43.281548,"lon":5.42643,"is_reserved":false,"is_disabled":false,"rental_uris":{"android":"levelo://app?vid=71252ba5-5619-4f36-b490-0c5903f0700e","ios":"levelo://app?vid=71252ba5-5619-4f36-b490-0c5903f0700e"},"vehicle_type_id":"4","last_reported":1702777999,"current_range_meters":5200,"station_id":"ce4bhnh2rcd13ifvqgug","pricing_plan_id":"free"},{"bike_id":"0fbb9982-628a-458e-8599-3a52f552df95","system_id":"levelo_inurba_marseille","lat":43.2815,"lon":5.42646,"is_reserved":false,"is_disabled":false,"rental_uris":{"android":"levelo://app?vid=0fbb9982-628a-458e-8599-3a52f552df95","ios":"levelo://app?vid=0fbb9982-628a-458e-8599-3a52f552df95"},"vehicle_type_id":"4","last_reported":1702777999,"current_range_meters":25200,"station_id":"ce4bhnh2rcd13ifvqgug","pricing_plan_id":"free"},{"bike_id":"4dd764f6-774c-4512-8b0e-1beb34d8f863","system_id":"levelo_inurba_marseille","lat":43.281548,"lon":5.42643,"is_reserved":false,"is_disabled":false,"rental_uris":{"android":"levelo://app?vid=4dd764f6-774c-4512-8b0e-1beb34d8f863","ios":"levelo://app?vid=4dd764f6-774c-4512-8b0e-1beb34d8f863"},"vehicle_type_id":"4","last_reported":1702777999,"current_range_meters":30800,"station_id":"ce4bhnh2rcd13ifvqgug","pricing_plan_id":"free"},{"bike_id":"d179c498-6590-4265-ba74-db4d632b80df","system_id":"levelo_inurba_marseille","lat":43.281548,"lon":5.42643,"is_reserved":false,"is_disabled":false,"rental_uris":{"android":"levelo://app?vid=d179c498-6590-4265-ba74-db4d632b80df","ios":"levelo://app?vid=d179c498-6590-4265-ba74-db4d632b80df"},"vehicle_type_id":"4","last_reported":1702777999,"current_range_meters":30800,"station_id":"ce4bhnh2rcd13ifvqgug","pricing_plan_id":"free"},{"bike_id":"eb72cf00-5b74-4aac-948c-e470339f3e4d","system_id":"levelo_inurba_marseille","lat":43.26062,"lon":5.39393,"is_reserved":false,"is_disabled":false,"rental_uris":{"android":"levelo://app?vid=eb72cf00-5b74-4aac-948c-e470339f3e4d","ios":"levelo://app?vid=eb72cf00-5b74-4aac-948c-e470339f3e4d"},"vehicle_type_id":"4","last_reported":1702777999,"current_range_meters":21600,"station_id":"ce4bhh92rcd13ifvqfj0","pricing_plan_id":"free"},{"bike_id":"db9d9aee-b6eb-44e3-9707-f193d311c7b0","system_id":"levelo_inurba_marseille","lat":43.26062,"lon":5.39396,"is_reserved":false,"is_disabled":false,"rental_uris":{"android":"levelo://app?vid=db9d9aee-b6eb-44e3-9707-f193d311c7b0","ios":"levelo://app?vid=db9d9aee-b6eb-44e3-9707-f193d311c7b0"},"vehicle_type_id":"4","last_reported":1702777999,"current_range_meters":30000,"station_id":"ce4bhh92rcd13ifvqfj0","pricing_plan_id":"free"},{"bike_id":"df0c2b68-5f22-4e6f-a906-3333db78c829","system_id":"levelo_inurba_marseille","lat":43.2607,"lon":5.393983,"is_reserved":false,"is_disabled":false,"rental_uris":{"android":"levelo://app?vid=df0c2b68-5f22-4e6f-a906-3333db78c829","ios":"levelo://app?vid=df0c2b68-5f22-4e6f-a906-3333db78c829"},"vehicle_type_id":"4","last_reported":1702777999,"current_range_meters":13600,"station_id":"ce4bhh92rcd13ifvqfj0","pricing_plan_id":"free"},{"bike_id":"e67adb0b-4217-4b03-8657-2f9486792d7e","system_id":"levelo_inurba_marseille","lat":43.2607,"lon":5.393983,"is_reserved":false,"is_disabled":false,"rental_uris":{"android":"levelo://app?vid=e67adb0b-4217-4b03-8657-2f9486792d7e","ios":"levelo://app?vid=e67adb0b-4217-4b03-8657-2f9486792d7e"},"vehicle_type_id":"4","last_reported":1702777999,"current_range_meters":31200,"station_id":"ce4bhh92rcd13ifvqfj0","pricing_plan_id":"free"},{"bike_id":"41bc15f8-3b1d-4ccf-944e-034bbcc08f91","system_id":"levelo_inurba_marseille","lat":43.275028,"lon":5.424534,"is_reserved":false,"is_disabled":false,"rental_uris":{"android":"levelo://app?vid=41bc15f8-3b1d-4ccf-944e-034bbcc08f91","ios":"levelo://app?vid=41bc15f8-3b1d-4ccf-944e-034bbcc08f91"},"vehicle_type_id":"4","last_reported":1702777999,"current_range_meters":26400,"station_id":"ce4bhn92rcd13ifvqgrg","pricing_plan_id":"free"},{"bike_id":"b6836b5c-bf87-43d1-afcb-477e491235ab","system_id":"levelo_inurba_marseille","lat":43.26088,"lon":5.39758,"is_reserved":false,"is_disabled":false,"rental_uris":{"android":"levelo://app?vid=b6836b5c-bf87-43d1-afcb-477e491235ab","ios":"levelo://app?vid=b6836b5c-bf87-43d1-afcb-477e491235ab"},"vehicle_type_id":"4","last_reported":1702777999,"current_range_meters":3200,"station_id":"","pricing_plan_id":"free"},{"bike_id":"cb4aa066-0acd-450f-a854-69855bd4d7ee","system_id":"levelo_inurba_marseille","lat":43.25829,"lon":5.3943,"is_reserved":false,"is_disabled":false,"rental_uris":{"android":"levelo://app?vid=cb4aa066-0acd-450f-a854-69855bd4d7ee","ios":"levelo://app?vid=cb4aa066-0acd-450f-a854-69855bd4d7ee"},"vehicle_type_id":"4","last_reported":1702777999,"current_range_meters":27200,"station_id":"ce4bhip2rcd13ifvqft0","pricing_plan_id":"free"},{"bike_id":"306e2c26-1ee8-4490-a80b-640eb04b74f0","system_id":"levelo_inurba_marseille","lat":43.270721,"lon":5.422764,"is_reserved":false,"is_disabled":false,"rental_uris":{"android":"levelo://app?vid=306e2c26-1ee8-4490-a80b-640eb04b74f0","ios":"levelo://app?vid=306e2c26-1ee8-4490-a80b-640eb04b74f0"},"vehicle_type_id":"4","last_reported":1702777999,"current_range_meters":27600,"station_id":"ce4bhk92rcd13ifvqgb0","pricing_plan_id":"free"},{"bike_id":"30f3beb6-53d6-45ed-bb8a-acfade589457","system_id":"levelo_inurba_marseille","lat":43.258658,"lon":5.398935,"is_reserved":false,"is_disabled":false,"rental_uris":{"android":"levelo://app?vid=30f3beb6-53d6-45ed-bb8a-acfade589457","ios":"levelo://app?vid=30f3beb6-53d6-45ed-bb8a-acfade589457"},"vehicle_type_id":"4","last_reported":1702777999,"current_range_meters":26400,"station_id":"ce4bhl92rcd13ifvqghg","pricing_plan_id":"free"},{"bike_id":"24ec3704-7663-446c-acc2-98c0854f831a","system_id":"levelo_inurba_marseille","lat":43.259013,"lon":5.409301,"is_reserved":false,"is_disabled":false,"rental_uris":{"android":"levelo://app?vid=24ec3704-7663-446c-acc2-98c0854f831a","ios":"levelo://app?vid=24ec3704-7663-446c-acc2-98c0854f831a"},"vehicle_type_id":"4","last_reported":1702777999,"current_range_meters":20800,"station_id":"ce4bhm92rcd13ifvqglg","pricing_plan_id":"free"},{"bike_id":"ec80f2ee-d212-4255-95b5-c8ee4797f8bd","system_id":"levelo_inurba_marseille","lat":43.257288,"lon":5.411156,"is_reserved":false,"is_disabled":false,"rental_uris":{"android":"levelo://app?vid=ec80f2ee-d212-4255-95b5-c8ee4797f8bd","ios":"levelo://app?vid=ec80f2ee-d212-4255-95b5-c8ee4797f8bd"},"vehicle_type_id":"4","last_reported":1702777999,"current_range_meters":400,"station_id":"ce4bhkp2rcd13ifvqgd0","pricing_plan_id":"free"},{"bike_id":"2e66d6fa-2f14-4312-ae5b-52fa8cc59f18","system_id":"levelo_inurba_marseille","lat":43.2479,"lon":5.374457,"is_reserved":false,"is_disabled":false,"rental_uris":{"android":"levelo://app?vid=2e66d6fa-2f14-4312-ae5b-52fa8cc59f18","ios":"levelo://app?vid=2e66d6fa-2f14-4312-ae5b-52fa8cc59f18"},"vehicle_type_id":"4","last_reported":1702777999,"current_range_meters":17600,"station_id":"ce4bhgh2rcd13ifvqfb0","pricing_plan_id":"free"},{"bike_id":"56a2cf23-7a2d-4767-a751-99276430c860","system_id":"levelo_inurba_marseille","lat":43.25102,"lon":5.403214,"is_reserved":false,"is_disabled":false,"rental_uris":{"android":"levelo://app?vid=56a2cf23-7a2d-4767-a751-99276430c860","ios":"levelo://app?vid=56a2cf23-7a2d-4767-a751-99276430c860"},"vehicle_type_id":"4","last_reported":1702777999,"current_range_meters":30000,"station_id":"ce4bhlh2rcd13ifvqgig","pricing_plan_id":"free"},{"bike_id":"ce8603f2-613d-4a49-b48e-937ea74704c0","system_id":"levelo_inurba_marseille","lat":43.2511,"lon":5.40321,"is_reserved":false,"is_disabled":false,"rental_uris":{"android":"levelo://app?vid=ce8603f2-613d-4a49-b48e-937ea74704c0","ios":"levelo://app?vid=ce8603f2-613d-4a49-b48e-937ea74704c0"},"vehicle_type_id":"4","last_reported":1702777999,"current_range_meters":0,"station_id":"ce4bhlh2rcd13ifvqgig","pricing_plan_id":"free"},{"bike_id":"cda151f2-9ad2-46c9-9115-b73ba9a06619","system_id":"levelo_inurba_marseille","lat":43.252126,"lon":5.406351,"is_reserved":false,"is_disabled":false,"rental_uris":{"android":"levelo://app?vid=cda151f2-9ad2-46c9-9115-b73ba9a06619","ios":"levelo://app?vid=cda151f2-9ad2-46c9-9115-b73ba9a06619"},"vehicle_type_id":"4","last_reported":1702777999,"current_range_meters":1600,"station_id":"","pricing_plan_id":"free"},{"bike_id":"f65e4610-a3d1-4c11-bb68-edc29960d40b","system_id":"levelo_inurba_marseille","lat":43.246467,"lon":5.388984,"is_reserved":false,"is_disabled":false,"rental_uris":{"android":"levelo://app?vid=f65e4610-a3d1-4c11-bb68-edc29960d40b","ios":"levelo://app?vid=f65e4610-a3d1-4c11-bb68-edc29960d40b"},"vehicle_type_id":"4","last_reported":1702777999,"current_range_meters":22000,"station_id":"ce4bhg12rcd13ifvqf60","pricing_plan_id":"free"},{"bike_id":"86ec86de-2e2c-41b0-b22f-96b92caf7ad2","system_id":"levelo_inurba_marseille","lat":43.243884,"lon":5.370737,"is_reserved":false,"is_disabled":false,"rental_uris":{"android":"levelo://app?vid=86ec86de-2e2c-41b0-b22f-96b92caf7ad2","ios":"levelo://app?vid=86ec86de-2e2c-41b0-b22f-96b92caf7ad2"},"vehicle_type_id":"4","last_reported":1702777999,"current_range_meters":28000,"station_id":"ce4bhhh2rcd13ifvqfk0","pricing_plan_id":"free"},{"bike_id":"087b057f-8244-4a54-b282-0aa5ea7da3ca","system_id":"levelo_inurba_marseille","lat":43.245581,"lon":5.395069,"is_reserved":false,"is_disabled":false,"rental_uris":{"android":"levelo://app?vid=087b057f-8244-4a54-b282-0aa5ea7da3ca","ios":"levelo://app?vid=087b057f-8244-4a54-b282-0aa5ea7da3ca"},"vehicle_type_id":"4","last_reported":1702777999,"current_range_meters":19200,"station_id":"ce4bhlp2rcd13ifvqgjg","pricing_plan_id":"free"},{"bike_id":"2913b0e3-c44c-49f1-ba84-d9d46d3f68b0","system_id":"levelo_inurba_marseille","lat":43.24873,"lon":5.41001,"is_reserved":false,"is_disabled":false,"rental_uris":{"android":"levelo://app?vid=2913b0e3-c44c-49f1-ba84-d9d46d3f68b0","ios":"levelo://app?vid=2913b0e3-c44c-49f1-ba84-d9d46d3f68b0"},"vehicle_type_id":"4","last_reported":1702777999,"current_range_meters":16800,"station_id":"","pricing_plan_id":"free"},{"bike_id":"ee83fd25-65b9-414e-935b-7e3d2531a0b9","system_id":"levelo_inurba_marseille","lat":43.24126,"lon":5.37022,"is_reserved":false,"is_disabled":false,"rental_uris":{"android":"levelo://app?vid=ee83fd25-65b9-414e-935b-7e3d2531a0b9","ios":"levelo://app?vid=ee83fd25-65b9-414e-935b-7e3d2531a0b9"},"vehicle_type_id":"4","last_reported":1702777999,"current_range_meters":0,"station_id":"","pricing_plan_id":"free"},{"bike_id":"bf9b1cd0-c8ce-46b5-b6ef-756cc8ffbe38","system_id":"levelo_inurba_marseille","lat":43.24076,"lon":5.37763,"is_reserved":false,"is_disabled":false,"rental_uris":{"android":"levelo://app?vid=bf9b1cd0-c8ce-46b5-b6ef-756cc8ffbe38","ios":"levelo://app?vid=bf9b1cd0-c8ce-46b5-b6ef-756cc8ffbe38"},"vehicle_type_id":"4","last_reported":1702777999,"current_range_meters":6800,"station_id":"ce4bhnp2rcd13ifvqgvg","pricing_plan_id":"free"},{"bike_id":"dfdde87d-37bb-48c7-bdff-e3342433d590","system_id":"levelo_inurba_marseille","lat":43.24075,"lon":5.37758,"is_reserved":false,"is_disabled":false,"rental_uris":{"android":"levelo://app?vid=dfdde87d-37bb-48c7-bdff-e3342433d590","ios":"levelo://app?vid=dfdde87d-37bb-48c7-bdff-e3342433d590"},"vehicle_type_id":"4","last_reported":1702777999,"current_range_meters":6000,"station_id":"ce4bhnp2rcd13ifvqgvg","pricing_plan_id":"free"},{"bike_id":"621a25a0-f543-4433-b01c-003dd4a435e8","system_id":"levelo_inurba_marseille","lat":43.240623,"lon":5.377642,"is_reserved":false,"is_disabled":false,"rental_uris":{"android":"levelo://app?vid=621a25a0-f543-4433-b01c-003dd4a435e8","ios":"levelo://app?vid=621a25a0-f543-4433-b01c-003dd4a435e8"},"vehicle_type_id":"4","last_reported":1702777999,"current_range_meters":24800,"station_id":"ce4bhnp2rcd13ifvqgvg","pricing_plan_id":"free"},{"bike_id":"9204c7f2-a617-4bba-896e-e0873ae66b31","system_id":"levelo_inurba_marseille","lat":43.240623,"lon":5.377642,"is_reserved":false,"is_disabled":false,"rental_uris":{"android":"levelo://app?vid=9204c7f2-a617-4bba-896e-e0873ae66b31","ios":"levelo://app?vid=9204c7f2-a617-4bba-896e-e0873ae66b31"},"vehicle_type_id":"4","last_reported":1702777999,"current_range_meters":6800,"station_id":"ce4bhnp2rcd13ifvqgvg","pricing_plan_id":"free"},{"bike_id":"e419126f-c388-4a30-9aef-a3cfa5c187e9","system_id":"levelo_inurba_marseille","lat":43.240623,"lon":5.377642,"is_reserved":false,"is_disabled":false,"rental_uris":{"android":"levelo://app?vid=e419126f-c388-4a30-9aef-a3cfa5c187e9","ios":"levelo://app?vid=e419126f-c388-4a30-9aef-a3cfa5c187e9"},"vehicle_type_id":"4","last_reported":1702777999,"current_range_meters":20000,"station_id":"ce4bhnp2rcd13ifvqgvg","pricing_plan_id":"free"},{"bike_id":"50cb0f51-8f1a-4445-825a-05a718cb00c6","system_id":"levelo_inurba_marseille","lat":43.24187,"lon":5.39721,"is_reserved":false,"is_disabled":false,"rental_uris":{"android":"levelo://app?vid=50cb0f51-8f1a-4445-825a-05a718cb00c6","ios":"levelo://app?vid=50cb0f51-8f1a-4445-825a-05a718cb00c6"},"vehicle_type_id":"4","last_reported":1702777999,"current_range_meters":0,"station_id":"ce4bhn12rcd13ifvqgpg","pricing_plan_id":"free"},{"bike_id":"a8eb46ea-1330-4de2-9dc0-b896cb89f009","system_id":"levelo_inurba_marseille","lat":43.24181,"lon":5.3972,"is_reserved":false,"is_disabled":false,"rental_uris":{"android":"levelo://app?vid=a8eb46ea-1330-4de2-9dc0-b896cb89f009","ios":"levelo://app?vid=a8eb46ea-1330-4de2-9dc0-b896cb89f009"},"vehicle_type_id":"4","last_reported":1702777999,"current_range_meters":6400,"station_id":"ce4bhn12rcd13ifvqgpg","pricing_plan_id":"free"},{"bike_id":"d2de79af-25b0-4ee0-8785-c64cdf4cac65","system_id":"levelo_inurba_marseille","lat":43.241782,"lon":5.397261,"is_reserved":false,"is_disabled":false,"rental_uris":{"android":"levelo://app?vid=d2de79af-25b0-4ee0-8785-c64cdf4cac65","ios":"levelo://app?vid=d2de79af-25b0-4ee0-8785-c64cdf4cac65"},"vehicle_type_id":"4","last_reported":1702777999,"current_range_meters":15600,"station_id":"ce4bhn12rcd13ifvqgpg","pricing_plan_id":"free"},{"bike_id":"c58c2105-152a-4be3-96b7-ef7d8114d5d4","system_id":"levelo_inurba_marseille","lat":43.23197,"lon":5.35559,"is_reserved":false,"is_disabled":false,"rental_uris":{"android":"levelo://app?vid=c58c2105-152a-4be3-96b7-ef7d8114d5d4","ios":"levelo://app?vid=c58c2105-152a-4be3-96b7-ef7d8114d5d4"},"vehicle_type_id":"4","last_reported":1702777999,"current_range_meters":15600,"station_id":"ce4bhu92rcd13ifvqi70","pricing_plan_id":"free"},{"bike_id":"d3de5ca6-d559-43d0-8ed6-c46c756ed81c","system_id":"levelo_inurba_marseille","lat":43.231962,"lon":5.355441,"is_reserved":false,"is_disabled":false,"rental_uris":{"android":"levelo://app?vid=d3de5ca6-d559-43d0-8ed6-c46c756ed81c","ios":"levelo://app?vid=d3de5ca6-d559-43d0-8ed6-c46c756ed81c"},"vehicle_type_id":"4","last_reported":1702777999,"current_range_meters":400,"station_id":"ce4bhu92rcd13ifvqi70","pricing_plan_id":"free"},{"bike_id":"f5cfb89a-ce48-405c-82ee-5a941b48c540","system_id":"levelo_inurba_marseille","lat":43.23195,"lon":5.35548,"is_reserved":false,"is_disabled":false,"rental_uris":{"android":"levelo://app?vid=f5cfb89a-ce48-405c-82ee-5a941b48c540","ios":"levelo://app?vid=f5cfb89a-ce48-405c-82ee-5a941b48c540"},"vehicle_type_id":"4","last_reported":1702777999,"current_range_meters":20400,"station_id":"ce4bhu92rcd13ifvqi70","pricing_plan_id":"free"},{"bike_id":"0914bc04-89c8-46f4-bf04-78aea5230869","system_id":"levelo_inurba_marseille","lat":43.23194,"lon":5.35549,"is_reserved":false,"is_disabled":false,"rental_uris":{"android":"levelo://app?vid=0914bc04-89c8-46f4-bf04-78aea5230869","ios":"levelo://app?vid=0914bc04-89c8-46f4-bf04-78aea5230869"},"vehicle_type_id":"4","last_reported":1702777999,"current_range_meters":28000,"station_id":"ce4bhu92rcd13ifvqi70","pricing_plan_id":"free"},{"bike_id":"760219ab-0887-48ce-b49e-5a40cc3afc6e","system_id":"levelo_inurba_marseille","lat":43.23194,"lon":5.35544,"is_reserved":false,"is_disabled":false,"rental_uris":{"android":"levelo://app?vid=760219ab-0887-48ce-b49e-5a40cc3afc6e","ios":"levelo://app?vid=760219ab-0887-48ce-b49e-5a40cc3afc6e"},"vehicle_type_id":"4","last_reported":1702777999,"current_range_meters":20000,"station_id":"ce4bhu92rcd13ifvqi70","pricing_plan_id":"free"},{"bike_id":"6407938b-389d-4533-9ecb-2228594d1ac0","system_id":"levelo_inurba_marseille","lat":43.23193,"lon":5.35548,"is_reserved":false,"is_disabled":false,"rental_uris":{"android":"levelo://app?vid=6407938b-389d-4533-9ecb-2228594d1ac0","ios":"levelo://app?vid=6407938b-389d-4533-9ecb-2228594d1ac0"},"vehicle_type_id":"4","last_reported":1702777999,"current_range_meters":18400,"station_id":"ce4bhu92rcd13ifvqi70","pricing_plan_id":"free"},{"bike_id":"9b13ea6e-561a-4716-a516-c5aead357a46","system_id":"levelo_inurba_marseille","lat":43.23193,"lon":5.35547,"is_reserved":false,"is_disabled":false,"rental_uris":{"android":"levelo://app?vid=9b13ea6e-561a-4716-a516-c5aead357a46","ios":"levelo://app?vid=9b13ea6e-561a-4716-a516-c5aead357a46"},"vehicle_type_id":"4","last_reported":1702777999,"current_range_meters":19200,"station_id":"ce4bhu92rcd13ifvqi70","pricing_plan_id":"free"},{"bike_id":"3dd05bbe-7d4d-4d5f-b9a9-4266846c777b","system_id":"levelo_inurba_marseille","lat":43.231919,"lon":5.355532,"is_reserved":false,"is_disabled":false,"rental_uris":{"android":"levelo://app?vid=3dd05bbe-7d4d-4d5f-b9a9-4266846c777b","ios":"levelo://app?vid=3dd05bbe-7d4d-4d5f-b9a9-4266846c777b"},"vehicle_type_id":"4","last_reported":1702777999,"current_range_meters":25200,"station_id":"ce4bhu92rcd13ifvqi70","pricing_plan_id":"free"},{"bike_id":"be641546-dcea-4309-ad5a-32c7507f146a","system_id":"levelo_inurba_marseille","lat":43.23191,"lon":5.35557,"is_reserved":false,"is_disabled":false,"rental_uris":{"android":"levelo://app?vid=be641546-dcea-4309-ad5a-32c7507f146a","ios":"levelo://app?vid=be641546-dcea-4309-ad5a-32c7507f146a"},"vehicle_type_id":"4","last_reported":1702777999,"current_range_meters":12400,"station_id":"ce4bhu92rcd13ifvqi70","pricing_plan_id":"free"},{"bike_id":"90458881-97e2-4d19-a7dd-597c18dc1844","system_id":"levelo_inurba_marseille","lat":43.231908,"lon":5.355499,"is_reserved":false,"is_disabled":false,"rental_uris":{"android":"levelo://app?vid=90458881-97e2-4d19-a7dd-597c18dc1844","ios":"levelo://app?vid=90458881-97e2-4d19-a7dd-597c18dc1844"},"vehicle_type_id":"4","last_reported":1702777999,"current_range_meters":20400,"station_id":"ce4bhu92rcd13ifvqi70","pricing_plan_id":"free"},{"bike_id":"8bde1f20-3114-431c-b2df-22d6e7b7655a","system_id":"levelo_inurba_marseille","lat":43.2319,"lon":5.3555,"is_reserved":false,"is_disabled":false,"rental_uris":{"android":"levelo://app?vid=8bde1f20-3114-431c-b2df-22d6e7b7655a","ios":"levelo://app?vid=8bde1f20-3114-431c-b2df-22d6e7b7655a"},"vehicle_type_id":"4","last_reported":1702777999,"current_range_meters":7600,"station_id":"ce4bhu92rcd13ifvqi70","pricing_plan_id":"free"},{"bike_id":"e4f94050-aae1-4821-b78a-030e7070af2a","system_id":"levelo_inurba_marseille","lat":43.23189,"lon":5.35561,"is_reserved":false,"is_disabled":false,"rental_uris":{"android":"levelo://app?vid=e4f94050-aae1-4821-b78a-030e7070af2a","ios":"levelo://app?vid=e4f94050-aae1-4821-b78a-030e7070af2a"},"vehicle_type_id":"4","last_reported":1702777999,"current_range_meters":18000,"station_id":"ce4bhu92rcd13ifvqi70","pricing_plan_id":"free"},{"bike_id":"c0509687-6622-44dd-a042-9b19ef27d0ea","system_id":"levelo_inurba_marseille","lat":43.231894,"lon":5.35551,"is_reserved":false,"is_disabled":false,"rental_uris":{"android":"levelo://app?vid=c0509687-6622-44dd-a042-9b19ef27d0ea","ios":"levelo://app?vid=c0509687-6622-44dd-a042-9b19ef27d0ea"},"vehicle_type_id":"4","last_reported":1702777999,"current_range_meters":30000,"station_id":"ce4bhu92rcd13ifvqi70","pricing_plan_id":"free"},{"bike_id":"f01df4f9-4c07-49f3-8959-762b34cdbe6c","system_id":"levelo_inurba_marseille","lat":43.231793,"lon":5.400044,"is_reserved":false,"is_disabled":false,"rental_uris":{"android":"levelo://app?vid=f01df4f9-4c07-49f3-8959-762b34cdbe6c","ios":"levelo://app?vid=f01df4f9-4c07-49f3-8959-762b34cdbe6c"},"vehicle_type_id":"4","last_reported":1702777999,"current_range_meters":8000,"station_id":"ce4bhn12rcd13ifvqgqg","pricing_plan_id":"free"},{"bike_id":"eebdb2eb-1078-4631-9a60-7dbf3d61e9ba","system_id":"levelo_inurba_marseille","lat":43.231794,"lon":5.400052,"is_reserved":false,"is_disabled":false,"rental_uris":{"android":"levelo://app?vid=eebdb2eb-1078-4631-9a60-7dbf3d61e9ba","ios":"levelo://app?vid=eebdb2eb-1078-4631-9a60-7dbf3d61e9ba"},"vehicle_type_id":"4","last_reported":1702777999,"current_range_meters":7200,"station_id":"ce4bhn12rcd13ifvqgqg","pricing_plan_id":"free"},{"bike_id":"82b0b121-d2e6-4f04-8530-97cda8a0fbcd","system_id":"levelo_inurba_marseille","lat":43.231794,"lon":5.400052,"is_reserved":false,"is_disabled":false,"rental_uris":{"android":"levelo://app?vid=82b0b121-d2e6-4f04-8530-97cda8a0fbcd","ios":"levelo://app?vid=82b0b121-d2e6-4f04-8530-97cda8a0fbcd"},"vehicle_type_id":"4","last_reported":1702777999,"current_range_meters":25600,"station_id":"ce4bhn12rcd13ifvqgqg","pricing_plan_id":"free"},{"bike_id":"548182e0-dae7-414e-9c9b-e03d4d209d58","system_id":"levelo_inurba_marseille","lat":43.231793,"lon":5.400044,"is_reserved":false,"is_disabled":false,"rental_uris":{"android":"levelo://app?vid=548182e0-dae7-414e-9c9b-e03d4d209d58","ios":"levelo://app?vid=548182e0-dae7-414e-9c9b-e03d4d209d58"},"vehicle_type_id":"4","last_reported":1702777999,"current_range_meters":5200,"station_id":"ce4bhn12rcd13ifvqgqg","pricing_plan_id":"free"},{"bike_id":"3ee0ea00-8e05-48c0-a38d-caf8a81146cd","system_id":"levelo_inurba_marseille","lat":43.231794,"lon":5.400052,"is_reserved":false,"is_disabled":false,"rental_uris":{"android":"levelo://app?vid=3ee0ea00-8e05-48c0-a38d-caf8a81146cd","ios":"levelo://app?vid=3ee0ea00-8e05-48c0-a38d-caf8a81146cd"},"vehicle_type_id":"4","last_reported":1702777999,"current_range_meters":19600,"station_id":"ce4bhn12rcd13ifvqgqg","pricing_plan_id":"free"},{"bike_id":"d5206a6c-92a9-4a75-8859-313a2b40fcd2","system_id":"levelo_inurba_marseille","lat":43.231793,"lon":5.400044,"is_reserved":false,"is_disabled":false,"rental_uris":{"android":"levelo://app?vid=d5206a6c-92a9-4a75-8859-313a2b40fcd2","ios":"levelo://app?vid=d5206a6c-92a9-4a75-8859-313a2b40fcd2"},"vehicle_type_id":"4","last_reported":1702777999,"current_range_meters":31600,"station_id":"ce4bhn12rcd13ifvqgqg","pricing_plan_id":"free"},{"bike_id":"9db613ee-fc4e-4bb9-a7ba-abd902891559","system_id":"levelo_inurba_marseille","lat":43.231794,"lon":5.400052,"is_reserved":false,"is_disabled":false,"rental_uris":{"android":"levelo://app?vid=9db613ee-fc4e-4bb9-a7ba-abd902891559","ios":"levelo://app?vid=9db613ee-fc4e-4bb9-a7ba-abd902891559"},"vehicle_type_id":"4","last_reported":1702777999,"current_range_meters":3600,"station_id":"ce4bhn12rcd13ifvqgqg","pricing_plan_id":"free"},{"bike_id":"2316ae3c-d698-4682-9e48-b64dc701ece9","system_id":"levelo_inurba_marseille","lat":43.231562,"lon":5.436933,"is_reserved":false,"is_disabled":false,"rental_uris":{"android":"levelo://app?vid=2316ae3c-d698-4682-9e48-b64dc701ece9","ios":"levelo://app?vid=2316ae3c-d698-4682-9e48-b64dc701ece9"},"vehicle_type_id":"4","last_reported":1702777999,"current_range_meters":22800,"station_id":"ce4bhmp2rcd13ifvqgog","pricing_plan_id":"free"},{"bike_id":"5e810328-aea2-4665-a664-4463719d9ace","system_id":"levelo_inurba_marseille","lat":43.231562,"lon":5.436933,"is_reserved":false,"is_disabled":false,"rental_uris":{"android":"levelo://app?vid=5e810328-aea2-4665-a664-4463719d9ace","ios":"levelo://app?vid=5e810328-aea2-4665-a664-4463719d9ace"},"vehicle_type_id":"4","last_reported":1702777999,"current_range_meters":30400,"station_id":"ce4bhmp2rcd13ifvqgog","pricing_plan_id":"free"}]}}