{"last_updated":1743174606,"ttl":60,"version":"2.2","data":{"bikes":[{"bike_id":"5fd24c06-1d60-41a3-bc1c-c2812c8378de","system_id":"levelo_inurba_marseille","lat":43.30529,"lon":5.36538,"is_reserved":false,"is_disabled":false,"rental_uris":{"android":"levelo://app?vid=5fd24c06-1d60-41a3-bc1c-c2812c8378de","ios":"levelo://app?vid=5fd24c06-1d60-41a3-bc1c-c2812c8378de"},"vehicle_type_id":"4","last_reported":1743174606,"current_range_meters":2800,"station_id":"ce4bgs12rcd13ifvqcag","pricing_plan_id":"cebpf4jnsgd1na2vs0mg"},{"bike_id":"e8e121c8-1f4a-4461-9588-2e90efb2cd2a","system_id":"levelo_inurba_marseille","lat":43.24387,"lon":5.37049,"is_reserved":false,"is_disabled":true,"rental_uris":{"android":"levelo://app?vid=e8e121c8-1f4a-4461-9588-2e90efb2cd2a","ios":"levelo://app?vid=e8e121c8-1f4a-4461-9588-2e90efb2cd2a"},"vehicle_type_id":"4","last_reported":1743174606,"current_range_meters":2800,"station_id":"ce4bhhh2rcd13ifvqfk0","pricing_plan_id":"cebpf4jnsgd1na2vs0mg"},{"bike_id":"fdd7fb0a-949c-4704-ba9f-0dcd77d0dbee","system_id":"levelo_inurba_marseille","lat":43.27679,"lon":5.38871,"is_reserved":false,"is_disabled":false,"rental_uris":{"android":"levelo://app?vid=fdd7fb0a-949c-4704-ba9f-0dcd77d0dbee","ios":"levelo://app?vid=fdd7fb0a-949c-4704-ba9f-0dcd77d0dbee"},"vehicle_type_id":"4","last_reported":1743174606,"current_range_meters":2800,"station_id":"ce4bhi12rcd13ifvqfo0","pricing_plan_id":"cebpf4jnsgd1na2vs0mg"},{"bike_id":"ca52e119-fb93-4258-b327-8c4652e9ec10","system_id":"levelo_inurba_marseille","lat":43.2845,"lon":5.39195,"is_reserved":false,"is_disabled":false,"rental_uris":{"android":"levelo://app?vid=ca52e119-fb93-4258-b327-8c4652e9ec10","ios":"levelo://app?vid=ca52e119-fb93-4258-b327-8c4652e9ec10"},"vehicle_type_id":"4","last_reported":1743174606,"current_range_meters":2800,"station_id":"ce4bhoh2rcd13ifvqh5g","pricing_plan_id":"cebpf4jnsgd1na2vs0mg"},{"bike_id":"a1265e2b-6a79-43bb-9fd6-5e49cb4adfe1","system_id":"levelo_inurba_marseille","lat":43.271033,"lon":5.403346,"is_reserved":false,"is_disabled":false,"rental_uris":{"android":"levelo://app?vid=a1265e2b-6a79-43bb-9fd6-5e49cb4adfe1","ios":"levelo://app?vid=a1265e2b-6a79-43bb-9fd6-5e49cb4adfe1"},"vehicle_type_id":"4","last_reported":1743174606,"current_range_meters":3200,"station_id":"ce4bhk92rcd13ifvqgc0","pricing_plan_id":"cebpf4jnsgd1na2vs0mg"},{"bike_id":"f5fa7f4b-91f8-4f51-a0d8-3f59a8ddbafc","system_id":"levelo_inurba_marseille","lat":43.30535,"lon":5.38424,"is_reserved":false,"is_disabled":false,"rental_uris":{"android":"levelo://app?vid=f5fa7f4b-91f8-4f51-a0d8-3f59a8ddbafc","ios":"levelo://app?vid=f5fa7f4b-91f8-4f51-a0d8-3f59a8ddbafc"},"vehicle_type_id":"4","last_reported":1743174606,"current_range_meters":3200,"station_id":"ce4bgg92rcd13ifvqb30","pricing_plan_id":"cebpf4jnsgd1na2vs0mg"},{"bike_id":"515faa86-fa39-46ff-930a-2fe51eead6f6","system_id":"levelo_inurba_marseille","lat":43.26606,"lon":5.39359,"is_reserved":false,"is_disabled":false,"rental_uris":{"android":"levelo://app?vid=515faa86-fa39-46ff-930a-2fe51eead6f6","ios":"levelo://app?vid=515faa86-fa39-46ff-930a-2fe51eead6f6"},"vehicle_type_id":"4","last_reported":1743174606,"current_range_meters":3200,"station_id":"","pricing_plan_id":"cebpf4jnsgd1na2vs0mg"},{"bike_id":"5eb64b06-350a-477d-a160-18dff5ee377c","system_id":"levelo_inurba_marseille","lat":43.2792,"lon":5.39577,"is_reserved":false,"is_disabled":false,"rental_uris":{"android":"levelo://app?vid=5eb64b06-350a-477d-a160-18dff5ee377c","ios":"levelo://app?vid=5eb64b06-350a-477d-a160-18dff5ee377c"},"vehicle_type_id":"4","last_reported":1743174606,"current_range_meters":3200,"station_id":"ce4bhf92rcd13ifvqf40","pricing_plan_id":"cebpf4jnsgd1na2vs0mg"},{"bike_id":"1dc766a6-6d2b-4eb8-9062-b1d2b1b4e1d0","system_id":"levelo_inurba_marseille","lat":43.29787,"lon":5.39356,"is_reserved":false,"is_disabled":false,"rental_uris":{"android":"levelo://app?vid=1dc766a6-6d2b-4eb8-9062-b1d2b1b4e1d0","ios":"levelo://app?vid=1dc766a6-6d2b-4eb8-9062-b1d2b1b4e1d0"},"vehicle_type_id":"4","last_reported":1743174606,"current_range_meters":3600,"station_id":"chh1huq6cuj3fo74tm60","pricing_plan_id":"cebpf4jnsgd1na2vs0mg"},{"bike_id":"df680603-7e7a-4306-baa9-dbb5d5ec46e8","system_id":"levelo_inurba_marseille","lat":43.28614,"lon":5.35104,"is_reserved":false,"is_disabled":false,"rental_uris":{"android":"levelo://app?vid=df680603-7e7a-4306-baa9-dbb5d5ec46e8","ios":"levelo://app?vid=df680603-7e7a-4306-baa9-dbb5d5ec46e8"},"vehicle_type_id":"4","last_reported":1743174606,"current_range_meters":3600,"station_id":"ce4bhch2rcd13ifvqeug","pricing_plan_id":"cebpf4jnsgd1na2vs0mg"},{"bike_id":"41e21a36-62d5-4fe6-9d05-a2d9c5e3873a","system_id":"levelo_inurba_marseille","lat":43.29283,"lon":5.3684,"is_reserved":false,"is_disabled":false,"rental_uris":{"android":"levelo://app?vid=41e21a36-62d5-4fe6-9d05-a2d9c5e3873a","ios":"levelo://app?vid=41e21a36-62d5-4fe6-9d05-a2d9c5e3873a"},"vehicle_type_id":"4","last_reported":1743174606,"current_range_meters":3600,"station_id":"ce4bhbp2rcd13ifvqesg","pricing_plan_id":"cebpf4jnsgd1na2vs0mg"},{"bike_id":"d632d35d-58ae-4596-a920-2143c4bd1faf","system_id":"levelo_inurba_marseille","lat":43.27071,"lon":5.42277,"is_reserved":false,"is_disabled":false,"rental_uris":{"android":"levelo://app?vid=d632d35d-58ae-4596-a920-2143c4bd1faf","ios":"levelo://app?vid=d632d35d-58ae-4596-a920-2143c4bd1faf"},"vehicle_type_id":"4","last_reported":1743174606,"current_range_meters":3600,"station_id":"ce4bhk92rcd13ifvqgb0","pricing_plan_id":"cebpf4jnsgd1na2vs0mg"},{"bike_id":"304ca01e-fe9a-47a9-ba28-490c774bd07c","system_id":"levelo_inurba_marseille","lat":43.28931,"lon":5.36392,"is_reserved":false,"is_disabled":false,"rental_uris":{"android":"levelo://app?vid=304ca01e-fe9a-47a9-ba28-490c774bd07c","ios":"levelo://app?vid=304ca01e-fe9a-47a9-ba28-490c774bd07c"},"vehicle_type_id":"4","last_reported":1743174606,"current_range_meters":4000,"station_id":"ce4bhc92rcd13ifvqetg","pricing_plan_id":"cebpf4jnsgd1na2vs0mg"},{"bike_id":"3bea31fc-976d-4bec-a755-ae488aaf31f3","system_id":"levelo_inurba_marseille","lat":43.299622,"lon":5.384873,"is_reserved":false,"is_disabled":false,"rental_uris":{"android":"levelo://app?vid=3bea31fc-976d-4bec-a755-ae488aaf31f3","ios":"levelo://app?vid=3bea31fc-976d-4bec-a755-ae488aaf31f3"},"vehicle_type_id":"4","last_reported":1743174606,"current_range_meters":1200,"station_id":"ce4bgj92rcd13ifvqbd0","pricing_plan_id":"cebpf4jnsgd1na2vs0mg"},{"bike_id":"b3a90a8e-a69c-47f4-a5d3-d420d5c075fe","system_id":"levelo_inurba_marseille","lat":43.287032,"lon":5.373721,"is_reserved":false,"is_disabled":false,"rental_uris":{"android":"levelo://app?vid=b3a90a8e-a69c-47f4-a5d3-d420d5c075fe","ios":"levelo://app?vid=b3a90a8e-a69c-47f4-a5d3-d420d5c075fe"},"vehicle_type_id":"4","last_reported":1743174606,"current_range_meters":4000,"station_id":"ce4bh3p2rcd13ifvqdq0","pricing_plan_id":"cebpf4jnsgd1na2vs0mg"},{"bike_id":"5180b9b7-b3ad-439d-b5d7-0b3868d68c3a","system_id":"levelo_inurba_marseille","lat":43.239684,"lon":5.366206,"is_reserved":false,"is_disabled":false,"rental_uris":{"android":"levelo://app?vid=5180b9b7-b3ad-439d-b5d7-0b3868d68c3a","ios":"levelo://app?vid=5180b9b7-b3ad-439d-b5d7-0b3868d68c3a"},"vehicle_type_id":"4","last_reported":1743174606,"current_range_meters":8000,"station_id":"ce4bh3p2rcd13ifvqdq0","pricing_plan_id":"cebpf4jnsgd1na2vs0mg"},{"bike_id":"1eaa6a0d-f8a3-40cd-b9a3-5e481273fe3a","system_id":"levelo_inurba_marseille","lat":43.30142,"lon":5.3806,"is_reserved":false,"is_disabled":false,"rental_uris":{"android":"levelo://app?vid=1eaa6a0d-f8a3-40cd-b9a3-5e481273fe3a","ios":"levelo://app?vid=1eaa6a0d-f8a3-40cd-b9a3-5e481273fe3a"},"vehicle_type_id":"4","last_reported":1743174606,"current_range_meters":4800,"station_id":"ce4bgjp2rcd13ifvqbh0","pricing_plan_id":"cebpf4jnsgd1na2vs0mg"},{"bike_id":"9b79de56-dbd5-4131-b008-832eebc8a32f","system_id":"levelo_inurba_marseille","lat":43.30128,"lon":5.39872,"is_reserved":false,"is_disabled":false,"rental_uris":{"android":"levelo://app?vid=9b79de56-dbd5-4131-b008-832eebc8a32f","ios":"levelo://app?vid=9b79de56-dbd5-4131-b008-832eebc8a32f"},"vehicle_type_id":"4","last_reported":1743174606,"current_range_meters":4400,"station_id":"ce4bh0h2rcd13ifvqd40","pricing_plan_id":"cebpf4jnsgd1na2vs0mg"},{"bike_id":"3ddb32b8-b670-4506-ace9-2a3b1b4c096a","system_id":"levelo_inurba_marseille","lat":43.28707,"lon":5.39987,"is_reserved":false,"is_disabled":false,"rental_uris":{"android":"levelo://app?vid=3ddb32b8-b670-4506-ace9-2a3b1b4c096a","ios":"levelo://app?vid=3ddb32b8-b670-4506-ace9-2a3b1b4c096a"},"vehicle_type_id":"4","last_reported":1743174606,"current_range_meters":4400,"station_id":"ce4bho92rcd13ifvqh3g","pricing_plan_id":"cebpf4jnsgd1na2vs0mg"},{"bike_id":"47a650a9-c5ba-479e-a6e7-ff4964557bf6","system_id":"levelo_inurba_marseille","lat":43.29789,"lon":5.37629,"is_reserved":false,"is_disabled":false,"rental_uris":{"android":"levelo://app?vid=47a650a9-c5ba-479e-a6e7-ff4964557bf6","ios":"levelo://app?vid=47a650a9-c5ba-479e-a6e7-ff4964557bf6"},"vehicle_type_id":"4","last_reported":1743174606,"current_range_meters":4400,"station_id":"","pricing_plan_id":"cebpf4jnsgd1na2vs0mg"},{"bike_id":"5e7d515b-946e-40cf-99c1-3c51f2270c80","system_id":"levelo_inurba_marseille","lat":43.273804,"lon":5.36263,"is_reserved":false,"is_disabled":false,"rental_uris":{"android":"levelo://app?vid=5e7d515b-946e-40cf-99c1-3c51f2270c80","ios":"levelo://app?vid=5e7d515b-946e-40cf-99c1-3c51f2270c80"},"vehicle_type_id":"4","last_reported":1743174606,"current_range_meters":4400,"station_id":"ce4bhbh2rcd13ifvqeo0","pricing_plan_id":"cebpf4jnsgd1na2vs0mg"},{"bike_id":"af9dd3d5-eb2d-4ec3-bfd5-13ab7c3be016","system_id":"levelo_inurba_marseille","lat":43.286621,"lon":5.363433,"is_reserved":false,"is_disabled":false,"rental_uris":{"android":"levelo://app?vid=af9dd3d5-eb2d-4ec3-bfd5-13ab7c3be016","ios":"levelo://app?vid=af9dd3d5-eb2d-4ec3-bfd5-13ab7c3be016"},"vehicle_type_id":"4","last_reported":1743174606,"current_range_meters":4400,"station_id":"ce4bhah2rcd13ifvqej0","pricing_plan_id":"cebpf4jnsgd1na2vs0mg"},{"bike_id":"f4115cf2-9a80-4733-9d57-95302720dc57","system_id":"levelo_inurba_marseille","lat":43.29008,"lon":5.35611,"is_reserved":false,"is_disabled":false,"rental_uris":{"android":"levelo://app?vid=f4115cf2-9a80-4733-9d57-95302720dc57","ios":"levelo://app?vid=f4115cf2-9a80-4733-9d57-95302720dc57"},"vehicle_type_id":"4","last_reported":1743174606,"current_range_meters":4800,"station_id":"ce4bhb92rcd13ifvqen0","pricing_plan_id":"cebpf4jnsgd1na2vs0mg"},{"bike_id":"42c5a939-3bff-4bac-894d-92db148993cb","system_id":"levelo_inurba_marseille","lat":43.27061,"lon":5.4026,"is_reserved":false,"is_disabled":false,"rental_uris":{"android":"levelo://app?vid=42c5a939-3bff-4bac-894d-92db148993cb","ios":"levelo://app?vid=42c5a939-3bff-4bac-894d-92db148993cb"},"vehicle_type_id":"4","last_reported":1743174606,"current_range_meters":4800,"station_id":"ce4bhk92rcd13ifvqgc0","pricing_plan_id":"cebpf4jnsgd1na2vs0mg"},{"bike_id":"44c77f09-d458-4e2f-bb8e-3ed2ee24bbed","system_id":"levelo_inurba_marseille","lat":43.30962,"lon":5.39046,"is_reserved":false,"is_disabled":false,"rental_uris":{"android":"levelo://app?vid=44c77f09-d458-4e2f-bb8e-3ed2ee24bbed","ios":"levelo://app?vid=44c77f09-d458-4e2f-bb8e-3ed2ee24bbed"},"vehicle_type_id":"4","last_reported":1743174606,"current_range_meters":4800,"station_id":"ce4bgup2rcd13ifvqco0","pricing_plan_id":"cebpf4jnsgd1na2vs0mg"},{"bike_id":"0acd526e-d7bf-446f-8abc-688b22a02cf0","system_id":"levelo_inurba_marseille","lat":43.27377,"lon":5.36248,"is_reserved":false,"is_disabled":false,"rental_uris":{"android":"levelo://app?vid=0acd526e-d7bf-446f-8abc-688b22a02cf0","ios":"levelo://app?vid=0acd526e-d7bf-446f-8abc-688b22a02cf0"},"vehicle_type_id":"4","last_reported":1743174606,"current_range_meters":4800,"station_id":"ce4bhbh2rcd13ifvqeo0","pricing_plan_id":"cebpf4jnsgd1na2vs0mg"},{"bike_id":"80628448-db3a-4462-970c-14c262d35214","system_id":"levelo_inurba_marseille","lat":43.29632,"lon":5.40602,"is_reserved":false,"is_disabled":false,"rental_uris":{"android":"levelo://app?vid=80628448-db3a-4462-970c-14c262d35214","ios":"levelo://app?vid=80628448-db3a-4462-970c-14c262d35214"},"vehicle_type_id":"4","last_reported":1743174606,"current_range_meters":4800,"station_id":"ce4bh0h2rcd13ifvqd60","pricing_plan_id":"cebpf4jnsgd1na2vs0mg"},{"bike_id":"c18155db-65c7-4d5a-8c5b-923eb75c675d","system_id":"levelo_inurba_marseille","lat":43.32108,"lon":5.36769,"is_reserved":false,"is_disabled":false,"rental_uris":{"android":"levelo://app?vid=c18155db-65c7-4d5a-8c5b-923eb75c675d","ios":"levelo://app?vid=c18155db-65c7-4d5a-8c5b-923eb75c675d"},"vehicle_type_id":"4","last_reported":1743174606,"current_range_meters":4800,"station_id":"ce4bhrh2rcd13ifvqhug","pricing_plan_id":"cebpf4jnsgd1na2vs0mg"},{"bike_id":"1a3fdf8e-98c8-4e23-b6e0-6b6b0bb9c776","system_id":"levelo_inurba_marseille","lat":43.24082,"lon":5.37749,"is_reserved":false,"is_disabled":false,"rental_uris":{"android":"levelo://app?vid=1a3fdf8e-98c8-4e23-b6e0-6b6b0bb9c776","ios":"levelo://app?vid=1a3fdf8e-98c8-4e23-b6e0-6b6b0bb9c776"},"vehicle_type_id":"4","last_reported":1743174606,"current_range_meters":4400,"station_id":"ce4bhnp2rcd13ifvqgvg","pricing_plan_id":"cebpf4jnsgd1na2vs0mg"},{"bike_id":"1784d30c-9f43-43a7-af9d-743d24f1c9c4","system_id":"levelo_inurba_marseille","lat":43.29707,"lon":5.37702,"is_reserved":false,"is_disabled":false,"rental_uris":{"android":"levelo://app?vid=1784d30c-9f43-43a7-af9d-743d24f1c9c4","ios":"levelo://app?vid=1784d30c-9f43-43a7-af9d-743d24f1c9c4"},"vehicle_type_id":"4","last_reported":1743174606,"current_range_meters":4800,"station_id":"ce4bgkh2rcd13ifvqbl0","pricing_plan_id":"cebpf4jnsgd1na2vs0mg"},{"bike_id":"69225a37-07e8-449b-a22c-cba6a35a602f","system_id":"levelo_inurba_marseille","lat":43.28937,"lon":5.39632,"is_reserved":false,"is_disabled":false,"rental_uris":{"android":"levelo://app?vid=69225a37-07e8-449b-a22c-cba6a35a602f","ios":"levelo://app?vid=69225a37-07e8-449b-a22c-cba6a35a602f"},"vehicle_type_id":"4","last_reported":1743174606,"current_range_meters":5600,"station_id":"ce4bh3h2rcd13ifvqdn0","pricing_plan_id":"cebpf4jnsgd1na2vs0mg"},{"bike_id":"df7924ac-be15-426f-ad89-cba99d1875cf","system_id":"levelo_inurba_marseille","lat":43.23959,"lon":5.36624,"is_reserved":false,"is_disabled":false,"rental_uris":{"android":"levelo://app?vid=df7924ac-be15-426f-ad89-cba99d1875cf","ios":"levelo://app?vid=df7924ac-be15-426f-ad89-cba99d1875cf"},"vehicle_type_id":"4","last_reported":1743174606,"current_range_meters":5600,"station_id":"ce4bhi12rcd13ifvqfp0","pricing_plan_id":"cebpf4jnsgd1na2vs0mg"},{"bike_id":"2e7ec4fb-b5b7-4161-b99e-7a353adf468b","system_id":"levelo_inurba_marseille","lat":43.24398,"lon":5.37052,"is_reserved":false,"is_disabled":false,"rental_uris":{"android":"levelo://app?vid=2e7ec4fb-b5b7-4161-b99e-7a353adf468b","ios":"levelo://app?vid=2e7ec4fb-b5b7-4161-b99e-7a353adf468b"},"vehicle_type_id":"4","last_reported":1743174606,"current_range_meters":5600,"station_id":"ce4bhhh2rcd13ifvqfk0","pricing_plan_id":"cebpf4jnsgd1na2vs0mg"},{"bike_id":"f782fffc-3d9e-4ae5-968a-8ceac901d78b","system_id":"levelo_inurba_marseille","lat":43.30599,"lon":5.37222,"is_reserved":false,"is_disabled":false,"rental_uris":{"android":"levelo://app?vid=f782fffc-3d9e-4ae5-968a-8ceac901d78b","ios":"levelo://app?vid=f782fffc-3d9e-4ae5-968a-8ceac901d78b"},"vehicle_type_id":"4","last_reported":1743174606,"current_range_meters":5600,"station_id":"ce4bgqh2rcd13ifvqc4g","pricing_plan_id":"cebpf4jnsgd1na2vs0mg"},{"bike_id":"d43b2a86-10ae-42b3-8b7e-8bb72fd0fb1c","system_id":"levelo_inurba_marseille","lat":43.28851,"lon":5.358317,"is_reserved":false,"is_disabled":false,"rental_uris":{"android":"levelo://app?vid=d43b2a86-10ae-42b3-8b7e-8bb72fd0fb1c","ios":"levelo://app?vid=d43b2a86-10ae-42b3-8b7e-8bb72fd0fb1c"},"vehicle_type_id":"4","last_reported":1743174606,"current_range_meters":5600,"station_id":"ce4bhb12rcd13ifvqem0","pricing_plan_id":"cebpf4jnsgd1na2vs0mg"},{"bike_id":"0bb1136e-b18e-47cb-a2be-97890fe98af2","system_id":"levelo_inurba_marseille","lat":43.29621,"lon":5.37725,"is_reserved":false,"is_disabled":false,"rental_uris":{"android":"levelo://app?vid=0bb1136e-b18e-47cb-a2be-97890fe98af2","ios":"levelo://app?vid=0bb1136e-b18e-47cb-a2be-97890fe98af2"},"vehicle_type_id":"4","last_reported":1743174606,"current_range_meters":4800,"station_id":"ce4bgi92rcd13ifvqb90","pricing_plan_id":"cebpf4jnsgd1na2vs0mg"},{"bike_id":"9607e7d1-bbd9-4377-bdb2-57d14eb74907","system_id":"levelo_inurba_marseille","lat":43.28038,"lon":5.36948,"is_reserved":false,"is_disabled":false,"rental_uris":{"android":"levelo://app?vid=9607e7d1-bbd9-4377-bdb2-57d14eb74907","ios":"levelo://app?vid=9607e7d1-bbd9-4377-bdb2-57d14eb74907"},"vehicle_type_id":"4","last_reported":1743174606,"current_range_meters":6000,"station_id":"ce4bha12rcd13ifvqef0","pricing_plan_id":"cebpf4jnsgd1na2vs0mg"},{"bike_id":"f6151552-c18d-4656-bbb7-3cea5d473a1f","system_id":"levelo_inurba_marseille","lat":43.262,"lon":5.37448,"is_reserved":false,"is_disabled":false,"rental_uris":{"android":"levelo://app?vid=f6151552-c18d-4656-bbb7-3cea5d473a1f","ios":"levelo://app?vid=f6151552-c18d-4656-bbb7-3cea5d473a1f"},"vehicle_type_id":"4","last_reported":1743174606,"current_range_meters":6000,"station_id":"ce4bhgp2rcd13ifvqfc0","pricing_plan_id":"cebpf4jnsgd1na2vs0mg"},{"bike_id":"ffe21d37-3348-481f-a6f8-3bf9701a4c8c","system_id":"levelo_inurba_marseille","lat":43.30314,"lon":5.36904,"is_reserved":false,"is_disabled":false,"rental_uris":{"android":"levelo://app?vid=ffe21d37-3348-481f-a6f8-3bf9701a4c8c","ios":"levelo://app?vid=ffe21d37-3348-481f-a6f8-3bf9701a4c8c"},"vehicle_type_id":"4","last_reported":1743174606,"current_range_meters":6000,"station_id":"ce4bgqh2rcd13ifvqc5g","pricing_plan_id":"cebpf4jnsgd1na2vs0mg"},{"bike_id":"d1a17846-aa8b-4975-ad83-4d79a85c707c","system_id":"levelo_inurba_marseille","lat":43.28568,"lon":5.39486,"is_reserved":false,"is_disabled":false,"rental_uris":{"android":"levelo://app?vid=d1a17846-aa8b-4975-ad83-4d79a85c707c","ios":"levelo://app?vid=d1a17846-aa8b-4975-ad83-4d79a85c707c"},"vehicle_type_id":"4","last_reported":1743174606,"current_range_meters":6000,"station_id":"ce4bh292rcd13ifvqdg0","pricing_plan_id":"cebpf4jnsgd1na2vs0mg"},{"bike_id":"85ffaa9e-325a-46a0-9ecf-802df6ae673c","system_id":"levelo_inurba_marseille","lat":43.30537,"lon":5.36536,"is_reserved":false,"is_disabled":false,"rental_uris":{"android":"levelo://app?vid=85ffaa9e-325a-46a0-9ecf-802df6ae673c","ios":"levelo://app?vid=85ffaa9e-325a-46a0-9ecf-802df6ae673c"},"vehicle_type_id":"4","last_reported":1743174606,"current_range_meters":6000,"station_id":"ce4bgs12rcd13ifvqcag","pricing_plan_id":"cebpf4jnsgd1na2vs0mg"},{"bike_id":"3b6642fb-9a62-434c-9a78-b0bd182fc628","system_id":"levelo_inurba_marseille","lat":43.27908,"lon":5.41236,"is_reserved":false,"is_disabled":false,"rental_uris":{"android":"levelo://app?vid=3b6642fb-9a62-434c-9a78-b0bd182fc628","ios":"levelo://app?vid=3b6642fb-9a62-434c-9a78-b0bd182fc628"},"vehicle_type_id":"4","last_reported":1743174606,"current_range_meters":6000,"station_id":"","pricing_plan_id":"cebpf4jnsgd1na2vs0mg"},{"bike_id":"58b10bce-863f-49fd-b812-1d31976c0a4c","system_id":"levelo_inurba_marseille","lat":43.28447,"lon":5.39205,"is_reserved":false,"is_disabled":false,"rental_uris":{"android":"levelo://app?vid=58b10bce-863f-49fd-b812-1d31976c0a4c","ios":"levelo://app?vid=58b10bce-863f-49fd-b812-1d31976c0a4c"},"vehicle_type_id":"4","last_reported":1743174606,"current_range_meters":6400,"station_id":"ce4bhoh2rcd13ifvqh5g","pricing_plan_id":"cebpf4jnsgd1na2vs0mg"},{"bike_id":"9108efae-73e9-412e-8196-cfca317be609","system_id":"levelo_inurba_marseille","lat":43.29294,"lon":5.37166,"is_reserved":false,"is_disabled":true,"rental_uris":{"android":"levelo://app?vid=9108efae-73e9-412e-8196-cfca317be609","ios":"levelo://app?vid=9108efae-73e9-412e-8196-cfca317be609"},"vehicle_type_id":"4","last_reported":1743174606,"current_range_meters":6400,"station_id":"ce4bgh92rcd13ifvqb40","pricing_plan_id":"cebpf4jnsgd1na2vs0mg"},{"bike_id":"ddf96534-6867-495c-88b5-eff8c8163338","system_id":"levelo_inurba_marseille","lat":43.29004,"lon":5.35605,"is_reserved":false,"is_disabled":false,"rental_uris":{"android":"levelo://app?vid=ddf96534-6867-495c-88b5-eff8c8163338","ios":"levelo://app?vid=ddf96534-6867-495c-88b5-eff8c8163338"},"vehicle_type_id":"4","last_reported":1743174606,"current_range_meters":6400,"station_id":"ce4bhb92rcd13ifvqen0","pricing_plan_id":"cebpf4jnsgd1na2vs0mg"},{"bike_id":"f5a79fc5-6c67-404a-9aa8-608ab04317ef","system_id":"levelo_inurba_marseille","lat":43.29259,"lon":5.40896,"is_reserved":false,"is_disabled":false,"rental_uris":{"android":"levelo://app?vid=f5a79fc5-6c67-404a-9aa8-608ab04317ef","ios":"levelo://app?vid=f5a79fc5-6c67-404a-9aa8-608ab04317ef"},"vehicle_type_id":"4","last_reported":1743174606,"current_range_meters":6400,"station_id":"ce4bh192rcd13ifvqdc0","pricing_plan_id":"cebpf4jnsgd1na2vs0mg"},{"bike_id":"a3da10bc-b067-4a00-b60a-7be6ff45323e","system_id":"levelo_inurba_marseille","lat":43.32125,"lon":5.36743,"is_reserved":false,"is_disabled":false,"rental_uris":{"android":"levelo://app?vid=a3da10bc-b067-4a00-b60a-7be6ff45323e","ios":"levelo://app?vid=a3da10bc-b067-4a00-b60a-7be6ff45323e"},"vehicle_type_id":"4","last_reported":1743174606,"current_range_meters":6400,"station_id":"ce4bhrh2rcd13ifvqhug","pricing_plan_id":"cebpf4jnsgd1na2vs0mg"},{"bike_id":"7993be2b-389f-44c0-b23f-4dc36de75a96","system_id":"levelo_inurba_marseille","lat":43.24661,"lon":5.38166,"is_reserved":false,"is_disabled":false,"rental_uris":{"android":"levelo://app?vid=7993be2b-389f-44c0-b23f-4dc36de75a96","ios":"levelo://app?vid=7993be2b-389f-44c0-b23f-4dc36de75a96"},"vehicle_type_id":"4","last_reported":1743174606,"current_range_meters":6400,"station_id":"ce4bhih2rcd13ifvqfr0","pricing_plan_id":"cebpf4jnsgd1na2vs0mg"},{"bike_id":"8610c0a7-54e0-46b6-b97c-eb43fd27f9ca","system_id":"levelo_inurba_marseille","lat":43.28613,"lon":5.37056,"is_reserved":false,"is_disabled":false,"rental_uris":{"android":"levelo://app?vid=8610c0a7-54e0-46b6-b97c-eb43fd27f9ca","ios":"levelo://app?vid=8610c0a7-54e0-46b6-b97c-eb43fd27f9ca"},"vehicle_type_id":"4","last_reported":1743174606,"current_range_meters":6400,"station_id":"ce4bht12rcd13ifvqi60","pricing_plan_id":"cebpf4jnsgd1na2vs0mg"},{"bike_id":"fc8e8371-f4e9-4721-bc19-563801e389dc","system_id":"levelo_inurba_marseille","lat":43.337444,"lon":5.374475,"is_reserved":false,"is_disabled":false,"rental_uris":{"android":"levelo://app?vid=fc8e8371-f4e9-4721-bc19-563801e389dc","ios":"levelo://app?vid=fc8e8371-f4e9-4721-bc19-563801e389dc"},"vehicle_type_id":"4","last_reported":1743174606,"current_range_meters":6400,"station_id":"","pricing_plan_id":"cebpf4jnsgd1na2vs0mg"},{"bike_id":"ed830586-bf55-43c7-95fd-c0ca97f6b21c","system_id":"levelo_inurba_marseille","lat":43.28427,"lon":5.37535,"is_reserved":false,"is_disabled":false,"rental_uris":{"android":"levelo://app?vid=ed830586-bf55-43c7-95fd-c0ca97f6b21c","ios":"levelo://app?vid=ed830586-bf55-43c7-95fd-c0ca97f6b21c"},"vehicle_type_id":"4","last_reported":1743174606,"current_range_meters":6800,"station_id":"ce4bh412rcd13ifvqds0","pricing_plan_id":"cebpf4jnsgd1na2vs0mg"},{"bike_id":"597c4159-84ca-4ec5-b4f4-125fbc1c07ee","system_id":"levelo_inurba_marseille","lat":43.31975,"lon":5.38131,"is_reserved":false,"is_disabled":false,"rental_uris":{"android":"levelo://app?vid=597c4159-84ca-4ec5-b4f4-125fbc1c07ee","ios":"levelo://app?vid=597c4159-84ca-4ec5-b4f4-125fbc1c07ee"},"vehicle_type_id":"4","last_reported":1743174606,"current_range_meters":6800,"station_id":"ce4bhr12rcd13ifvqhpg","pricing_plan_id":"cebpf4jnsgd1na2vs0mg"},{"bike_id":"52e8e9df-df0d-4c5e-9920-db3b0847638f","system_id":"levelo_inurba_marseille","lat":43.29266,"lon":5.3762,"is_reserved":false,"is_disabled":false,"rental_uris":{"android":"levelo://app?vid=52e8e9df-df0d-4c5e-9920-db3b0847638f","ios":"levelo://app?vid=52e8e9df-df0d-4c5e-9920-db3b0847638f"},"vehicle_type_id":"4","last_reported":1743174606,"current_range_meters":6800,"station_id":"ce4bgi12rcd13ifvqb80","pricing_plan_id":"cebpf4jnsgd1na2vs0mg"},{"bike_id":"cda2ea9a-888b-42eb-a216-b428d99da1f1","system_id":"levelo_inurba_marseille","lat":43.28029,"lon":5.36952,"is_reserved":false,"is_disabled":false,"rental_uris":{"android":"levelo://app?vid=cda2ea9a-888b-42eb-a216-b428d99da1f1","ios":"levelo://app?vid=cda2ea9a-888b-42eb-a216-b428d99da1f1"},"vehicle_type_id":"4","last_reported":1743174606,"current_range_meters":6800,"station_id":"ce4bha12rcd13ifvqef0","pricing_plan_id":"cebpf4jnsgd1na2vs0mg"},{"bike_id":"fb94d37c-a5f0-424c-9c95-a0f43cd760b8","system_id":"levelo_inurba_marseille","lat":43.30422,"lon":5.39747,"is_reserved":false,"is_disabled":true,"rental_uris":{"android":"levelo://app?vid=fb94d37c-a5f0-424c-9c95-a0f43cd760b8","ios":"levelo://app?vid=fb94d37c-a5f0-424c-9c95-a0f43cd760b8"},"vehicle_type_id":"4","last_reported":1743174606,"current_range_meters":6800,"station_id":"ce4bh092rcd13ifvqd20","pricing_plan_id":"cebpf4jnsgd1na2vs0mg"},{"bike_id":"3f09f31b-4ea6-474f-a736-ad74104ed06b","system_id":"levelo_inurba_marseille","lat":43.26208,"lon":5.37451,"is_reserved":false,"is_disabled":false,"rental_uris":{"android":"levelo://app?vid=3f09f31b-4ea6-474f-a736-ad74104ed06b","ios":"levelo://app?vid=3f09f31b-4ea6-474f-a736-ad74104ed06b"},"vehicle_type_id":"4","last_reported":1743174606,"current_range_meters":7200,"station_id":"ce4bhgp2rcd13ifvqfc0","pricing_plan_id":"cebpf4jnsgd1na2vs0mg"},{"bike_id":"073debcf-0704-4d38-b010-82e0fcd8519a","system_id":"levelo_inurba_marseille","lat":43.33029,"lon":5.39046,"is_reserved":false,"is_disabled":false,"rental_uris":{"android":"levelo://app?vid=073debcf-0704-4d38-b010-82e0fcd8519a","ios":"levelo://app?vid=073debcf-0704-4d38-b010-82e0fcd8519a"},"vehicle_type_id":"4","last_reported":1743174606,"current_range_meters":7200,"station_id":"ce4bhr92rcd13ifvqhrg","pricing_plan_id":"cebpf4jnsgd1na2vs0mg"},{"bike_id":"7fd4a515-35f0-465c-a7c8-433c10e85ee2","system_id":"levelo_inurba_marseille","lat":43.31122,"lon":5.3776,"is_reserved":false,"is_disabled":false,"rental_uris":{"android":"levelo://app?vid=7fd4a515-35f0-465c-a7c8-433c10e85ee2","ios":"levelo://app?vid=7fd4a515-35f0-465c-a7c8-433c10e85ee2"},"vehicle_type_id":"4","last_reported":1743174606,"current_range_meters":7200,"station_id":"ce4bgt92rcd13ifvqcg0","pricing_plan_id":"cebpf4jnsgd1na2vs0mg"},{"bike_id":"0ac88cdf-dd3a-494f-aaa5-2b24d1ce393f","system_id":"levelo_inurba_marseille","lat":43.23191,"lon":5.35555,"is_reserved":false,"is_disabled":false,"rental_uris":{"android":"levelo://app?vid=0ac88cdf-dd3a-494f-aaa5-2b24d1ce393f","ios":"levelo://app?vid=0ac88cdf-dd3a-494f-aaa5-2b24d1ce393f"},"vehicle_type_id":"4","last_reported":1743174606,"current_range_meters":7200,"station_id":"ce4bhu92rcd13ifvqi70","pricing_plan_id":"cebpf4jnsgd1na2vs0mg"},{"bike_id":"19221227-42ec-4f4b-8f04-42a0818e22f5","system_id":"levelo_inurba_marseille","lat":43.32118,"lon":5.36781,"is_reserved":false,"is_disabled":false,"rental_uris":{"android":"levelo://app?vid=19221227-42ec-4f4b-8f04-42a0818e22f5","ios":"levelo://app?vid=19221227-42ec-4f4b-8f04-42a0818e22f5"},"vehicle_type_id":"4","last_reported":1743174606,"current_range_meters":7200,"station_id":"ce4bhrh2rcd13ifvqhug","pricing_plan_id":"cebpf4jnsgd1na2vs0mg"},{"bike_id":"64f0ea86-1180-4755-95e1-3cbc9c8d4cf5","system_id":"levelo_inurba_marseille","lat":43.33001,"lon":5.43854,"is_reserved":false,"is_disabled":true,"rental_uris":{"android":"levelo://app?vid=64f0ea86-1180-4755-95e1-3cbc9c8d4cf5","ios":"levelo://app?vid=64f0ea86-1180-4755-95e1-3cbc9c8d4cf5"},"vehicle_type_id":"4","last_reported":1743174606,"current_range_meters":7200,"station_id":"","pricing_plan_id":"cebpf4jnsgd1na2vs0mg"},{"bike_id":"ce2ec726-5395-47b6-9340-2c39feb627fb","system_id":"levelo_inurba_marseille","lat":43.27365,"lon":5.36241,"is_reserved":false,"is_disabled":false,"rental_uris":{"android":"levelo://app?vid=ce2ec726-5395-47b6-9340-2c39feb627fb","ios":"levelo://app?vid=ce2ec726-5395-47b6-9340-2c39feb627fb"},"vehicle_type_id":"4","last_reported":1743174606,"current_range_meters":8000,"station_id":"ce4bhbh2rcd13ifvqeo0","pricing_plan_id":"cebpf4jnsgd1na2vs0mg"},{"bike_id":"27a21379-0a26-4ddd-a62f-3a3b43a8ec4f","system_id":"levelo_inurba_marseille","lat":43.30122,"lon":5.39858,"is_reserved":false,"is_disabled":false,"rental_uris":{"android":"levelo://app?vid=27a21379-0a26-4ddd-a62f-3a3b43a8ec4f","ios":"levelo://app?vid=27a21379-0a26-4ddd-a62f-3a3b43a8ec4f"},"vehicle_type_id":"4","last_reported":1743174606,"current_range_meters":7200,"station_id":"ce4bh0h2rcd13ifvqd40","pricing_plan_id":"cebpf4jnsgd1na2vs0mg"},{"bike_id":"ec940620-2a09-4eae-aace-1a0a72b62180","system_id":"levelo_inurba_marseille","lat":43.30308,"lon":5.40081,"is_reserved":false,"is_disabled":false,"rental_uris":{"android":"levelo://app?vid=ec940620-2a09-4eae-aace-1a0a72b62180","ios":"levelo://app?vid=ec940620-2a09-4eae-aace-1a0a72b62180"},"vehicle_type_id":"4","last_reported":1743174606,"current_range_meters":8000,"station_id":"ce4bgvh2rcd13ifvqcs0","pricing_plan_id":"cebpf4jnsgd1na2vs0mg"},{"bike_id":"0c485f7f-c7de-4463-b751-ea7cab6977c1","system_id":"levelo_inurba_marseille","lat":43.28272,"lon":5.35063,"is_reserved":false,"is_disabled":false,"rental_uris":{"android":"levelo://app?vid=0c485f7f-c7de-4463-b751-ea7cab6977c1","ios":"levelo://app?vid=0c485f7f-c7de-4463-b751-ea7cab6977c1"},"vehicle_type_id":"4","last_reported":1743174606,"current_range_meters":8000,"station_id":"ce4bhbp2rcd13ifvqerg","pricing_plan_id":"cebpf4jnsgd1na2vs0mg"},{"bike_id":"0f27e07e-ea4b-4577-b97c-798f5a1c697e","system_id":"levelo_inurba_marseille","lat":43.24665,"lon":5.38151,"is_reserved":false,"is_disabled":false,"rental_uris":{"android":"levelo://app?vid=0f27e07e-ea4b-4577-b97c-798f5a1c697e","ios":"levelo://app?vid=0f27e07e-ea4b-4577-b97c-798f5a1c697e"},"vehicle_type_id":"4","last_reported":1743174606,"current_range_meters":8000,"station_id":"ce4bhih2rcd13ifvqfr0","pricing_plan_id":"cebpf4jnsgd1na2vs0mg"},{"bike_id":"1cb85fbd-379f-4703-a802-7ee665b97051","system_id":"levelo_inurba_marseille","lat":43.239674,"lon":5.366304,"is_reserved":false,"is_disabled":false,"rental_uris":{"android":"levelo://app?vid=1cb85fbd-379f-4703-a802-7ee665b97051","ios":"levelo://app?vid=1cb85fbd-379f-4703-a802-7ee665b97051"},"vehicle_type_id":"4","last_reported":1743174606,"current_range_meters":8000,"station_id":"ce4bhi12rcd13ifvqfp0","pricing_plan_id":"cebpf4jnsgd1na2vs0mg"},{"bike_id":"fed37be9-d2bc-4f0d-9053-82f7ddd54f00","system_id":"levelo_inurba_marseille","lat":43.26695,"lon":5.38254,"is_reserved":false,"is_disabled":false,"rental_uris":{"android":"levelo://app?vid=fed37be9-d2bc-4f0d-9053-82f7ddd54f00","ios":"levelo://app?vid=fed37be9-d2bc-4f0d-9053-82f7ddd54f00"},"vehicle_type_id":"4","last_reported":1743174606,"current_range_meters":8000,"station_id":"ce4bhg92rcd13ifvqf90","pricing_plan_id":"cebpf4jnsgd1na2vs0mg"},{"bike_id":"9043c11e-fc9c-4a4f-be86-393f483d3f64","system_id":"levelo_inurba_marseille","lat":43.26954,"lon":5.38639,"is_reserved":false,"is_disabled":false,"rental_uris":{"android":"levelo://app?vid=9043c11e-fc9c-4a4f-be86-393f483d3f64","ios":"levelo://app?vid=9043c11e-fc9c-4a4f-be86-393f483d3f64"},"vehicle_type_id":"4","last_reported":1743174606,"current_range_meters":8000,"station_id":"ce4bhh92rcd13ifvqfh0","pricing_plan_id":"cebpf4jnsgd1na2vs0mg"},{"bike_id":"65d95aec-81e5-4637-82c1-01fd4130c51e","system_id":"levelo_inurba_marseille","lat":43.3028,"lon":5.377,"is_reserved":false,"is_disabled":false,"rental_uris":{"android":"levelo://app?vid=65d95aec-81e5-4637-82c1-01fd4130c51e","ios":"levelo://app?vid=65d95aec-81e5-4637-82c1-01fd4130c51e"},"vehicle_type_id":"4","last_reported":1743174606,"current_range_meters":8000,"station_id":"ce4bguh2rcd13ifvqcj0","pricing_plan_id":"cebpf4jnsgd1na2vs0mg"},{"bike_id":"297024a5-957d-4153-8ab7-349f92ea540a","system_id":"levelo_inurba_marseille","lat":43.29005,"lon":5.35599,"is_reserved":false,"is_disabled":false,"rental_uris":{"android":"levelo://app?vid=297024a5-957d-4153-8ab7-349f92ea540a","ios":"levelo://app?vid=297024a5-957d-4153-8ab7-349f92ea540a"},"vehicle_type_id":"4","last_reported":1743174606,"current_range_meters":8000,"station_id":"ce4bhb92rcd13ifvqen0","pricing_plan_id":"cebpf4jnsgd1na2vs0mg"},{"bike_id":"12e990a2-935b-46df-8d8b-e801da55be97","system_id":"levelo_inurba_marseille","lat":43.29019,"lon":5.38138,"is_reserved":false,"is_disabled":false,"rental_uris":{"android":"levelo://app?vid=12e990a2-935b-46df-8d8b-e801da55be97","ios":"levelo://app?vid=12e990a2-935b-46df-8d8b-e801da55be97"},"vehicle_type_id":"4","last_reported":1743174606,"current_range_meters":8000,"station_id":"ce4bh4p2rcd13ifvqe1g","pricing_plan_id":"cebpf4jnsgd1na2vs0mg"},{"bike_id":"8dfbb6b6-91b8-44c4-ba04-216b4710b4a8","system_id":"levelo_inurba_marseille","lat":43.30928,"lon":5.40149,"is_reserved":false,"is_disabled":false,"rental_uris":{"android":"levelo://app?vid=8dfbb6b6-91b8-44c4-ba04-216b4710b4a8","ios":"levelo://app?vid=8dfbb6b6-91b8-44c4-ba04-216b4710b4a8"},"vehicle_type_id":"4","last_reported":1743174606,"current_range_meters":8400,"station_id":"ce4bgvp2rcd13ifvqct0","pricing_plan_id":"cebpf4jnsgd1na2vs0mg"},{"bike_id":"f00e0bf1-e77c-4752-8f1b-63a2e565cf51","system_id":"levelo_inurba_marseille","lat":43.27945,"lon":5.38725,"is_reserved":false,"is_disabled":true,"rental_uris":{"android":"levelo://app?vid=f00e0bf1-e77c-4752-8f1b-63a2e565cf51","ios":"levelo://app?vid=f00e0bf1-e77c-4752-8f1b-63a2e565cf51"},"vehicle_type_id":"4","last_reported":1743174606,"current_range_meters":8400,"station_id":"ce4bhg12rcd13ifvqf80","pricing_plan_id":"cebpf4jnsgd1na2vs0mg"},{"bike_id":"c1795272-1952-44ae-a0f2-363148744b45","system_id":"levelo_inurba_marseille","lat":43.29104,"lon":5.38121,"is_reserved":false,"is_disabled":false,"rental_uris":{"android":"levelo://app?vid=c1795272-1952-44ae-a0f2-363148744b45","ios":"levelo://app?vid=c1795272-1952-44ae-a0f2-363148744b45"},"vehicle_type_id":"4","last_reported":1743174606,"current_range_meters":8400,"station_id":"ce4bh512rcd13ifvqe2g","pricing_plan_id":"cebpf4jnsgd1na2vs0mg"},{"bike_id":"961245ca-8d90-4d71-b735-61afea929100","system_id":"levelo_inurba_marseille","lat":43.241716,"lon":5.364009,"is_reserved":false,"is_disabled":false,"rental_uris":{"android":"levelo://app?vid=961245ca-8d90-4d71-b735-61afea929100","ios":"levelo://app?vid=961245ca-8d90-4d71-b735-61afea929100"},"vehicle_type_id":"4","last_reported":1743174606,"current_range_meters":8400,"station_id":"cpo36qri1sfpv3e86is0","pricing_plan_id":"cebpf4jnsgd1na2vs0mg"},{"bike_id":"1d7dcea0-dc16-496a-aa58-f096b93f78ce","system_id":"levelo_inurba_marseille","lat":43.3051,"lon":5.36616,"is_reserved":false,"is_disabled":false,"rental_uris":{"android":"levelo://app?vid=1d7dcea0-dc16-496a-aa58-f096b93f78ce","ios":"levelo://app?vid=1d7dcea0-dc16-496a-aa58-f096b93f78ce"},"vehicle_type_id":"4","last_reported":1743174606,"current_range_meters":8400,"station_id":"","pricing_plan_id":"cebpf4jnsgd1na2vs0mg"},{"bike_id":"ceecbcc2-ac65-4641-b26a-eff5f63dc82b","system_id":"levelo_inurba_marseille","lat":43.31993,"lon":5.38135,"is_reserved":false,"is_disabled":false,"rental_uris":{"android":"levelo://app?vid=ceecbcc2-ac65-4641-b26a-eff5f63dc82b","ios":"levelo://app?vid=ceecbcc2-ac65-4641-b26a-eff5f63dc82b"},"vehicle_type_id":"4","last_reported":1743174606,"current_range_meters":8400,"station_id":"ce4bhr12rcd13ifvqhpg","pricing_plan_id":"cebpf4jnsgd1na2vs0mg"},{"bike_id":"b2fd8e70-5b37-4865-bf49-d30da2481695","system_id":"levelo_inurba_marseille","lat":43.2319,"lon":5.35546,"is_reserved":false,"is_disabled":false,"rental_uris":{"android":"levelo://app?vid=b2fd8e70-5b37-4865-bf49-d30da2481695","ios":"levelo://app?vid=b2fd8e70-5b37-4865-bf49-d30da2481695"},"vehicle_type_id":"4","last_reported":1743174606,"current_range_meters":8400,"station_id":"ce4bhu92rcd13ifvqi70","pricing_plan_id":"cebpf4jnsgd1na2vs0mg"},{"bike_id":"8b0a17d2-acc5-4f3f-b8a0-6e5de4ed5568","system_id":"levelo_inurba_marseille","lat":43.26037,"lon":5.37549,"is_reserved":false,"is_disabled":false,"rental_uris":{"android":"levelo://app?vid=8b0a17d2-acc5-4f3f-b8a0-6e5de4ed5568","ios":"levelo://app?vid=8b0a17d2-acc5-4f3f-b8a0-6e5de4ed5568"},"vehicle_type_id":"4","last_reported":1743174606,"current_range_meters":8400,"station_id":"ce4bhgh2rcd13ifvqfa0","pricing_plan_id":"cebpf4jnsgd1na2vs0mg"},{"bike_id":"7351ff3b-1a35-49de-951e-fbf6145605fa","system_id":"levelo_inurba_marseille","lat":43.25588,"lon":5.38236,"is_reserved":false,"is_disabled":false,"rental_uris":{"android":"levelo://app?vid=7351ff3b-1a35-49de-951e-fbf6145605fa","ios":"levelo://app?vid=7351ff3b-1a35-49de-951e-fbf6145605fa"},"vehicle_type_id":"4","last_reported":1743174606,"current_range_meters":8400,"station_id":"ce4bhih2rcd13ifvqfs0","pricing_plan_id":"cebpf4jnsgd1na2vs0mg"},{"bike_id":"76638803-8aa9-4a11-b36e-d35e46ec91b1","system_id":"levelo_inurba_marseille","lat":43.31715,"lon":5.42405,"is_reserved":false,"is_disabled":false,"rental_uris":{"android":"levelo://app?vid=76638803-8aa9-4a11-b36e-d35e46ec91b1","ios":"levelo://app?vid=76638803-8aa9-4a11-b36e-d35e46ec91b1"},"vehicle_type_id":"4","last_reported":1743174606,"current_range_meters":8400,"station_id":"ce4bhp92rcd13ifvqhbg","pricing_plan_id":"cebpf4jnsgd1na2vs0mg"},{"bike_id":"37703b88-0681-4fe0-a352-8323ebd0e7ba","system_id":"levelo_inurba_marseille","lat":43.28602,"lon":5.37066,"is_reserved":false,"is_disabled":false,"rental_uris":{"android":"levelo://app?vid=37703b88-0681-4fe0-a352-8323ebd0e7ba","ios":"levelo://app?vid=37703b88-0681-4fe0-a352-8323ebd0e7ba"},"vehicle_type_id":"4","last_reported":1743174606,"current_range_meters":8400,"station_id":"ce4bht12rcd13ifvqi60","pricing_plan_id":"cebpf4jnsgd1na2vs0mg"},{"bike_id":"403d7e50-4523-49d1-a7ce-385a53366a0d","system_id":"levelo_inurba_marseille","lat":43.28264,"lon":5.3506,"is_reserved":false,"is_disabled":true,"rental_uris":{"android":"levelo://app?vid=403d7e50-4523-49d1-a7ce-385a53366a0d","ios":"levelo://app?vid=403d7e50-4523-49d1-a7ce-385a53366a0d"},"vehicle_type_id":"4","last_reported":1743174606,"current_range_meters":8400,"station_id":"ce4bhbp2rcd13ifvqerg","pricing_plan_id":"cebpf4jnsgd1na2vs0mg"},{"bike_id":"33dc3574-45db-4d06-8bc2-64fa96a9086d","system_id":"levelo_inurba_marseille","lat":43.29558,"lon":5.37522,"is_reserved":false,"is_disabled":false,"rental_uris":{"android":"levelo://app?vid=33dc3574-45db-4d06-8bc2-64fa96a9086d","ios":"levelo://app?vid=33dc3574-45db-4d06-8bc2-64fa96a9086d"},"vehicle_type_id":"4","last_reported":1743174606,"current_range_meters":8400,"station_id":"ce4bgh92rcd13ifvqb50","pricing_plan_id":"cebpf4jnsgd1na2vs0mg"},{"bike_id":"ba3ec71d-9ef2-4dbc-8fc5-f0e245f8044e","system_id":"levelo_inurba_marseille","lat":43.31237,"lon":5.36826,"is_reserved":false,"is_disabled":false,"rental_uris":{"android":"levelo://app?vid=ba3ec71d-9ef2-4dbc-8fc5-f0e245f8044e","ios":"levelo://app?vid=ba3ec71d-9ef2-4dbc-8fc5-f0e245f8044e"},"vehicle_type_id":"4","last_reported":1743174606,"current_range_meters":8400,"station_id":"ce4bgl92rcd13ifvqbq0","pricing_plan_id":"cebpf4jnsgd1na2vs0mg"},{"bike_id":"8d03e719-94e6-47d9-8d17-410ab7926b87","system_id":"levelo_inurba_marseille","lat":43.27372,"lon":5.36227,"is_reserved":false,"is_disabled":false,"rental_uris":{"android":"levelo://app?vid=8d03e719-94e6-47d9-8d17-410ab7926b87","ios":"levelo://app?vid=8d03e719-94e6-47d9-8d17-410ab7926b87"},"vehicle_type_id":"4","last_reported":1743174606,"current_range_meters":8400,"station_id":"ce4bhbh2rcd13ifvqeo0","pricing_plan_id":"cebpf4jnsgd1na2vs0mg"},{"bike_id":"813634ed-e21d-4b9e-88e8-aa8b87581eb3","system_id":"levelo_inurba_marseille","lat":43.32114,"lon":5.36788,"is_reserved":false,"is_disabled":false,"rental_uris":{"android":"levelo://app?vid=813634ed-e21d-4b9e-88e8-aa8b87581eb3","ios":"levelo://app?vid=813634ed-e21d-4b9e-88e8-aa8b87581eb3"},"vehicle_type_id":"4","last_reported":1743174606,"current_range_meters":8800,"station_id":"ce4bhrh2rcd13ifvqhug","pricing_plan_id":"cebpf4jnsgd1na2vs0mg"},{"bike_id":"aa5c06ea-3b6e-4482-bb50-cb2fa0d437f8","system_id":"levelo_inurba_marseille","lat":43.284195,"lon":5.349747,"is_reserved":false,"is_disabled":false,"rental_uris":{"android":"levelo://app?vid=aa5c06ea-3b6e-4482-bb50-cb2fa0d437f8","ios":"levelo://app?vid=aa5c06ea-3b6e-4482-bb50-cb2fa0d437f8"},"vehicle_type_id":"4","last_reported":1743174606,"current_range_meters":8800,"station_id":"ce4bhnh2rcd13ifvqgug","pricing_plan_id":"cebpf4jnsgd1na2vs0mg"},{"bike_id":"ab12f224-4614-4b79-bc2e-dd551aa5f99d","system_id":"levelo_inurba_marseille","lat":43.27493,"lon":5.42452,"is_reserved":false,"is_disabled":false,"rental_uris":{"android":"levelo://app?vid=ab12f224-4614-4b79-bc2e-dd551aa5f99d","ios":"levelo://app?vid=ab12f224-4614-4b79-bc2e-dd551aa5f99d"},"vehicle_type_id":"4","last_reported":1743174606,"current_range_meters":8800,"station_id":"ce4bhn92rcd13ifvqgrg","pricing_plan_id":"cebpf4jnsgd1na2vs0mg"},{"bike_id":"6de40019-1637-443d-9c56-0a2f36b160f8","system_id":"levelo_inurba_marseille","lat":43.28586,"lon":5.39484,"is_reserved":false,"is_disabled":false,"rental_uris":{"android":"levelo://app?vid=6de40019-1637-443d-9c56-0a2f36b160f8","ios":"levelo://app?vid=6de40019-1637-443d-9c56-0a2f36b160f8"},"vehicle_type_id":"4","last_reported":1743174606,"current_range_meters":8800,"station_id":"ce4bh292rcd13ifvqdg0","pricing_plan_id":"cebpf4jnsgd1na2vs0mg"},{"bike_id":"07ee6bfa-3b79-4af2-bfdd-95bdebf3b88c","system_id":"levelo_inurba_marseille","lat":43.31351,"lon":5.3973,"is_reserved":false,"is_disabled":false,"rental_uris":{"android":"levelo://app?vid=07ee6bfa-3b79-4af2-bfdd-95bdebf3b88c","ios":"levelo://app?vid=07ee6bfa-3b79-4af2-bfdd-95bdebf3b88c"},"vehicle_type_id":"4","last_reported":1743174606,"current_range_meters":8800,"station_id":"ce4bgvp2rcd13ifvqcu0","pricing_plan_id":"cebpf4jnsgd1na2vs0mg"},{"bike_id":"cb952cc9-efae-48cd-8fed-acb08ce9c3fd","system_id":"levelo_inurba_marseille","lat":43.29915,"lon":5.37459,"is_reserved":false,"is_disabled":false,"rental_uris":{"android":"levelo://app?vid=cb952cc9-efae-48cd-8fed-acb08ce9c3fd","ios":"levelo://app?vid=cb952cc9-efae-48cd-8fed-acb08ce9c3fd"},"vehicle_type_id":"4","last_reported":1743174606,"current_range_meters":8800,"station_id":"ce4bgjh2rcd13ifvqbg0","pricing_plan_id":"cebpf4jnsgd1na2vs0mg"},{"bike_id":"4a42ca1e-41e4-4233-a4bb-a180f04564d6","system_id":"levelo_inurba_marseille","lat":43.291571,"lon":5.371565,"is_reserved":false,"is_disabled":true,"rental_uris":{"android":"levelo://app?vid=4a42ca1e-41e4-4233-a4bb-a180f04564d6","ios":"levelo://app?vid=4a42ca1e-41e4-4233-a4bb-a180f04564d6"},"vehicle_type_id":"4","last_reported":1743174606,"current_range_meters":9200,"station_id":"ce4bha92rcd13ifvqeh0","pricing_plan_id":"cebpf4jnsgd1na2vs0mg"},{"bike_id":"bc3f138a-3af0-4b4e-9b07-2d2a8e540795","system_id":"levelo_inurba_marseille","lat":43.264945,"lon":5.395505,"is_reserved":false,"is_disabled":false,"rental_uris":{"android":"levelo://app?vid=bc3f138a-3af0-4b4e-9b07-2d2a8e540795","ios":"levelo://app?vid=bc3f138a-3af0-4b4e-9b07-2d2a8e540795"},"vehicle_type_id":"4","last_reported":1743174606,"current_range_meters":9200,"station_id":"ce4bhi12rcd13ifvqfq0","pricing_plan_id":"cebpf4jnsgd1na2vs0mg"},{"bike_id":"861ae205-c318-4688-ac53-947993e1b65f","system_id":"levelo_inurba_marseille","lat":43.24169,"lon":5.36387,"is_reserved":false,"is_disabled":false,"rental_uris":{"android":"levelo://app?vid=861ae205-c318-4688-ac53-947993e1b65f","ios":"levelo://app?vid=861ae205-c318-4688-ac53-947993e1b65f"},"vehicle_type_id":"4","last_reported":1743174606,"current_range_meters":9200,"station_id":"cpo36qri1sfpv3e86is0","pricing_plan_id":"cebpf4jnsgd1na2vs0mg"},{"bike_id":"2e919ca5-ce98-4c47-a9d7-66e6ab7584e4","system_id":"levelo_inurba_marseille","lat":43.321146,"lon":5.367702,"is_reserved":false,"is_disabled":false,"rental_uris":{"android":"levelo://app?vid=2e919ca5-ce98-4c47-a9d7-66e6ab7584e4","ios":"levelo://app?vid=2e919ca5-ce98-4c47-a9d7-66e6ab7584e4"},"vehicle_type_id":"4","last_reported":1743174606,"current_range_meters":9200,"station_id":"ce4bhrh2rcd13ifvqhug","pricing_plan_id":"cebpf4jnsgd1na2vs0mg"},{"bike_id":"b85c8ef8-15aa-43e6-b65d-bfa3d8d25823","system_id":"levelo_inurba_marseille","lat":43.28431,"lon":5.34993,"is_reserved":false,"is_disabled":false,"rental_uris":{"android":"levelo://app?vid=b85c8ef8-15aa-43e6-b65d-bfa3d8d25823","ios":"levelo://app?vid=b85c8ef8-15aa-43e6-b65d-bfa3d8d25823"},"vehicle_type_id":"4","last_reported":1743174606,"current_range_meters":9200,"station_id":"ce4bhbh2rcd13ifvqepg","pricing_plan_id":"cebpf4jnsgd1na2vs0mg"},{"bike_id":"c56bd301-aefc-4ae9-af33-29a3950d1b37","system_id":"levelo_inurba_marseille","lat":43.28436,"lon":5.39186,"is_reserved":false,"is_disabled":false,"rental_uris":{"android":"levelo://app?vid=c56bd301-aefc-4ae9-af33-29a3950d1b37","ios":"levelo://app?vid=c56bd301-aefc-4ae9-af33-29a3950d1b37"},"vehicle_type_id":"4","last_reported":1743174606,"current_range_meters":9200,"station_id":"ce4bhoh2rcd13ifvqh5g","pricing_plan_id":"cebpf4jnsgd1na2vs0mg"},{"bike_id":"fa847661-b485-46b4-9026-bbf7d7813924","system_id":"levelo_inurba_marseille","lat":43.28078,"lon":5.39654,"is_reserved":false,"is_disabled":false,"rental_uris":{"android":"levelo://app?vid=fa847661-b485-46b4-9026-bbf7d7813924","ios":"levelo://app?vid=fa847661-b485-46b4-9026-bbf7d7813924"},"vehicle_type_id":"4","last_reported":1743174606,"current_range_meters":9200,"station_id":"ce4bho12rcd13ifvqh2g","pricing_plan_id":"cebpf4jnsgd1na2vs0mg"},{"bike_id":"6a5faf51-2bec-4782-8a8f-e039ed407c9b","system_id":"levelo_inurba_marseille","lat":43.25079,"lon":5.39509,"is_reserved":false,"is_disabled":false,"rental_uris":{"android":"levelo://app?vid=6a5faf51-2bec-4782-8a8f-e039ed407c9b","ios":"levelo://app?vid=6a5faf51-2bec-4782-8a8f-e039ed407c9b"},"vehicle_type_id":"4","last_reported":1743174606,"current_range_meters":9200,"station_id":"ce4bhm12rcd13ifvqgkg","pricing_plan_id":"cebpf4jnsgd1na2vs0mg"},{"bike_id":"ed3f340d-7b56-49a7-952a-c79c8daa5f0f","system_id":"levelo_inurba_marseille","lat":43.30132,"lon":5.38787,"is_reserved":false,"is_disabled":true,"rental_uris":{"android":"levelo://app?vid=ed3f340d-7b56-49a7-952a-c79c8daa5f0f","ios":"levelo://app?vid=ed3f340d-7b56-49a7-952a-c79c8daa5f0f"},"vehicle_type_id":"4","last_reported":1743174606,"current_range_meters":9200,"station_id":"ce4bghh2rcd13ifvqb60","pricing_plan_id":"cebpf4jnsgd1na2vs0mg"},{"bike_id":"8c34c97f-9ce2-4886-9f40-ad2af9483ec9","system_id":"levelo_inurba_marseille","lat":43.28419,"lon":5.34979,"is_reserved":false,"is_disabled":false,"rental_uris":{"android":"levelo://app?vid=8c34c97f-9ce2-4886-9f40-ad2af9483ec9","ios":"levelo://app?vid=8c34c97f-9ce2-4886-9f40-ad2af9483ec9"},"vehicle_type_id":"4","last_reported":1743174606,"current_range_meters":9200,"station_id":"ce4bhbh2rcd13ifvqepg","pricing_plan_id":"cebpf4jnsgd1na2vs0mg"},{"bike_id":"32ee96c3-f8c3-4a35-a563-8ee53c19e1a3","system_id":"levelo_inurba_marseille","lat":43.27944,"lon":5.41037,"is_reserved":false,"is_disabled":false,"rental_uris":{"android":"levelo://app?vid=32ee96c3-f8c3-4a35-a563-8ee53c19e1a3","ios":"levelo://app?vid=32ee96c3-f8c3-4a35-a563-8ee53c19e1a3"},"vehicle_type_id":"4","last_reported":1743174606,"current_range_meters":9200,"station_id":"ce4bhnp2rcd13ifvqh0g","pricing_plan_id":"cebpf4jnsgd1na2vs0mg"},{"bike_id":"7dc939fb-c52f-4cd6-ab9f-1306471e5d5b","system_id":"levelo_inurba_marseille","lat":43.28419,"lon":5.34982,"is_reserved":false,"is_disabled":false,"rental_uris":{"android":"levelo://app?vid=7dc939fb-c52f-4cd6-ab9f-1306471e5d5b","ios":"levelo://app?vid=7dc939fb-c52f-4cd6-ab9f-1306471e5d5b"},"vehicle_type_id":"4","last_reported":1743174606,"current_range_meters":9200,"station_id":"ce4bhbh2rcd13ifvqepg","pricing_plan_id":"cebpf4jnsgd1na2vs0mg"},{"bike_id":"0c7c8c97-c432-41cd-96f5-01a03f56e852","system_id":"levelo_inurba_marseille","lat":43.24162,"lon":5.36391,"is_reserved":false,"is_disabled":false,"rental_uris":{"android":"levelo://app?vid=0c7c8c97-c432-41cd-96f5-01a03f56e852","ios":"levelo://app?vid=0c7c8c97-c432-41cd-96f5-01a03f56e852"},"vehicle_type_id":"4","last_reported":1743174606,"current_range_meters":9600,"station_id":"cpo36qri1sfpv3e86is0","pricing_plan_id":"cebpf4jnsgd1na2vs0mg"},{"bike_id":"b31a0fbd-4eff-47e2-ae6e-f21e3cf374bb","system_id":"levelo_inurba_marseille","lat":43.313457,"lon":5.367156,"is_reserved":false,"is_disabled":false,"rental_uris":{"android":"levelo://app?vid=b31a0fbd-4eff-47e2-ae6e-f21e3cf374bb","ios":"levelo://app?vid=b31a0fbd-4eff-47e2-ae6e-f21e3cf374bb"},"vehicle_type_id":"4","last_reported":1743174606,"current_range_meters":9600,"station_id":"ce4bgr92rcd13ifvqc6g","pricing_plan_id":"cebpf4jnsgd1na2vs0mg"},{"bike_id":"971c92cb-66df-438d-9a85-e63af939e6ff","system_id":"levelo_inurba_marseille","lat":43.28617,"lon":5.35095,"is_reserved":false,"is_disabled":true,"rental_uris":{"android":"levelo://app?vid=971c92cb-66df-438d-9a85-e63af939e6ff","ios":"levelo://app?vid=971c92cb-66df-438d-9a85-e63af939e6ff"},"vehicle_type_id":"4","last_reported":1743174606,"current_range_meters":9600,"station_id":"ce4bhch2rcd13ifvqeug","pricing_plan_id":"cebpf4jnsgd1na2vs0mg"},{"bike_id":"4068a412-e485-4789-beab-0501196ae332","system_id":"levelo_inurba_marseille","lat":43.28374,"lon":5.38637,"is_reserved":false,"is_disabled":false,"rental_uris":{"android":"levelo://app?vid=4068a412-e485-4789-beab-0501196ae332","ios":"levelo://app?vid=4068a412-e485-4789-beab-0501196ae332"},"vehicle_type_id":"4","last_reported":1743174606,"current_range_meters":9600,"station_id":"ce4bh492rcd13ifvqdvg","pricing_plan_id":"cebpf4jnsgd1na2vs0mg"},{"bike_id":"cef4d0b2-cb1e-442e-8588-e60cc118d812","system_id":"levelo_inurba_marseille","lat":43.28033,"lon":5.3694,"is_reserved":false,"is_disabled":false,"rental_uris":{"android":"levelo://app?vid=cef4d0b2-cb1e-442e-8588-e60cc118d812","ios":"levelo://app?vid=cef4d0b2-cb1e-442e-8588-e60cc118d812"},"vehicle_type_id":"4","last_reported":1743174606,"current_range_meters":9600,"station_id":"ce4bha12rcd13ifvqef0","pricing_plan_id":"cebpf4jnsgd1na2vs0mg"},{"bike_id":"1c14bf9c-ada4-4a36-8853-740a1a2c000a","system_id":"levelo_inurba_marseille","lat":43.23205,"lon":5.35559,"is_reserved":false,"is_disabled":false,"rental_uris":{"android":"levelo://app?vid=1c14bf9c-ada4-4a36-8853-740a1a2c000a","ios":"levelo://app?vid=1c14bf9c-ada4-4a36-8853-740a1a2c000a"},"vehicle_type_id":"4","last_reported":1743174606,"current_range_meters":9600,"station_id":"ce4bhu92rcd13ifvqi70","pricing_plan_id":"cebpf4jnsgd1na2vs0mg"},{"bike_id":"fef90057-592d-465b-b938-fd429f4632e5","system_id":"levelo_inurba_marseille","lat":43.24804,"lon":5.37455,"is_reserved":false,"is_disabled":false,"rental_uris":{"android":"levelo://app?vid=fef90057-592d-465b-b938-fd429f4632e5","ios":"levelo://app?vid=fef90057-592d-465b-b938-fd429f4632e5"},"vehicle_type_id":"4","last_reported":1743174606,"current_range_meters":10000,"station_id":"ce4bhgh2rcd13ifvqfb0","pricing_plan_id":"cebpf4jnsgd1na2vs0mg"},{"bike_id":"1813b078-e995-4712-8d54-d9ac8a11ef32","system_id":"levelo_inurba_marseille","lat":43.30561,"lon":5.36551,"is_reserved":false,"is_disabled":false,"rental_uris":{"android":"levelo://app?vid=1813b078-e995-4712-8d54-d9ac8a11ef32","ios":"levelo://app?vid=1813b078-e995-4712-8d54-d9ac8a11ef32"},"vehicle_type_id":"4","last_reported":1743174606,"current_range_meters":10000,"station_id":"ce4bgs12rcd13ifvqcag","pricing_plan_id":"cebpf4jnsgd1na2vs0mg"},{"bike_id":"32045209-6872-4670-af02-63b759855c4f","system_id":"levelo_inurba_marseille","lat":43.31991,"lon":5.38168,"is_reserved":false,"is_disabled":false,"rental_uris":{"android":"levelo://app?vid=32045209-6872-4670-af02-63b759855c4f","ios":"levelo://app?vid=32045209-6872-4670-af02-63b759855c4f"},"vehicle_type_id":"4","last_reported":1743174606,"current_range_meters":10000,"station_id":"ce4bhr12rcd13ifvqhpg","pricing_plan_id":"cebpf4jnsgd1na2vs0mg"},{"bike_id":"c5887b5d-7662-4633-9b7e-c1f693b96552","system_id":"levelo_inurba_marseille","lat":43.27367,"lon":5.36261,"is_reserved":false,"is_disabled":false,"rental_uris":{"android":"levelo://app?vid=c5887b5d-7662-4633-9b7e-c1f693b96552","ios":"levelo://app?vid=c5887b5d-7662-4633-9b7e-c1f693b96552"},"vehicle_type_id":"4","last_reported":1743174606,"current_range_meters":10000,"station_id":"ce4bhbh2rcd13ifvqeo0","pricing_plan_id":"cebpf4jnsgd1na2vs0mg"},{"bike_id":"de9b10ea-17c3-44c9-a653-ee316cf1323e","system_id":"levelo_inurba_marseille","lat":43.30552,"lon":5.38428,"is_reserved":false,"is_disabled":false,"rental_uris":{"android":"levelo://app?vid=de9b10ea-17c3-44c9-a653-ee316cf1323e","ios":"levelo://app?vid=de9b10ea-17c3-44c9-a653-ee316cf1323e"},"vehicle_type_id":"4","last_reported":1743174606,"current_range_meters":10000,"station_id":"ce4bgg92rcd13ifvqb30","pricing_plan_id":"cebpf4jnsgd1na2vs0mg"},{"bike_id":"fc577076-d706-4adb-a46a-5790ab9459e3","system_id":"levelo_inurba_marseille","lat":43.26209,"lon":5.37442,"is_reserved":false,"is_disabled":false,"rental_uris":{"android":"levelo://app?vid=fc577076-d706-4adb-a46a-5790ab9459e3","ios":"levelo://app?vid=fc577076-d706-4adb-a46a-5790ab9459e3"},"vehicle_type_id":"4","last_reported":1743174606,"current_range_meters":10000,"station_id":"ce4bhgp2rcd13ifvqfc0","pricing_plan_id":"cebpf4jnsgd1na2vs0mg"},{"bike_id":"06320241-4e79-4a90-9b1d-400b43ee2ebe","system_id":"levelo_inurba_marseille","lat":43.30324,"lon":5.36885,"is_reserved":false,"is_disabled":false,"rental_uris":{"android":"levelo://app?vid=06320241-4e79-4a90-9b1d-400b43ee2ebe","ios":"levelo://app?vid=06320241-4e79-4a90-9b1d-400b43ee2ebe"},"vehicle_type_id":"4","last_reported":1743174606,"current_range_meters":10000,"station_id":"ce4bgqh2rcd13ifvqc5g","pricing_plan_id":"cebpf4jnsgd1na2vs0mg"},{"bike_id":"3d94ced9-4507-4a5d-9172-8ce5ebd841d5","system_id":"levelo_inurba_marseille","lat":43.29572,"lon":5.37534,"is_reserved":false,"is_disabled":false,"rental_uris":{"android":"levelo://app?vid=3d94ced9-4507-4a5d-9172-8ce5ebd841d5","ios":"levelo://app?vid=3d94ced9-4507-4a5d-9172-8ce5ebd841d5"},"vehicle_type_id":"4","last_reported":1743174606,"current_range_meters":10000,"station_id":"ce4bgh92rcd13ifvqb50","pricing_plan_id":"cebpf4jnsgd1na2vs0mg"},{"bike_id":"ee32161e-8dd0-4c04-9ddb-7e7068be431b","system_id":"levelo_inurba_marseille","lat":43.29881,"lon":5.39733,"is_reserved":false,"is_disabled":false,"rental_uris":{"android":"levelo://app?vid=ee32161e-8dd0-4c04-9ddb-7e7068be431b","ios":"levelo://app?vid=ee32161e-8dd0-4c04-9ddb-7e7068be431b"},"vehicle_type_id":"4","last_reported":1743174606,"current_range_meters":10800,"station_id":"ce4bh0h2rcd13ifvqd50","pricing_plan_id":"cebpf4jnsgd1na2vs0mg"},{"bike_id":"994a1854-41fe-4e51-a841-5994f2c7b2ae","system_id":"levelo_inurba_marseille","lat":43.2997,"lon":5.38493,"is_reserved":false,"is_disabled":false,"rental_uris":{"android":"levelo://app?vid=994a1854-41fe-4e51-a841-5994f2c7b2ae","ios":"levelo://app?vid=994a1854-41fe-4e51-a841-5994f2c7b2ae"},"vehicle_type_id":"4","last_reported":1743174606,"current_range_meters":10000,"station_id":"ce4bgj92rcd13ifvqbd0","pricing_plan_id":"cebpf4jnsgd1na2vs0mg"},{"bike_id":"3fbcdfd8-5176-471d-aa84-e8e20bb4418e","system_id":"levelo_inurba_marseille","lat":43.3212,"lon":5.36777,"is_reserved":false,"is_disabled":false,"rental_uris":{"android":"levelo://app?vid=3fbcdfd8-5176-471d-aa84-e8e20bb4418e","ios":"levelo://app?vid=3fbcdfd8-5176-471d-aa84-e8e20bb4418e"},"vehicle_type_id":"4","last_reported":1743174606,"current_range_meters":10800,"station_id":"ce4bhrh2rcd13ifvqhug","pricing_plan_id":"cebpf4jnsgd1na2vs0mg"},{"bike_id":"661fa6de-24e3-4832-9e18-3d3a5339528f","system_id":"levelo_inurba_marseille","lat":43.2842,"lon":5.34989,"is_reserved":false,"is_disabled":false,"rental_uris":{"android":"levelo://app?vid=661fa6de-24e3-4832-9e18-3d3a5339528f","ios":"levelo://app?vid=661fa6de-24e3-4832-9e18-3d3a5339528f"},"vehicle_type_id":"4","last_reported":1743174606,"current_range_meters":10800,"station_id":"ce4bhbh2rcd13ifvqepg","pricing_plan_id":"cebpf4jnsgd1na2vs0mg"},{"bike_id":"f6a5b569-3405-4cb0-b38f-3aeaff6fbc3d","system_id":"levelo_inurba_marseille","lat":43.24802,"lon":5.37452,"is_reserved":false,"is_disabled":false,"rental_uris":{"android":"levelo://app?vid=f6a5b569-3405-4cb0-b38f-3aeaff6fbc3d","ios":"levelo://app?vid=f6a5b569-3405-4cb0-b38f-3aeaff6fbc3d"},"vehicle_type_id":"4","last_reported":1743174606,"current_range_meters":10800,"station_id":"ce4bhgh2rcd13ifvqfb0","pricing_plan_id":"cebpf4jnsgd1na2vs0mg"},{"bike_id":"2ac8ad45-eea4-4e84-99ac-83168b73b34b","system_id":"levelo_inurba_marseille","lat":43.29002,"lon":5.35616,"is_reserved":false,"is_disabled":false,"rental_uris":{"android":"levelo://app?vid=2ac8ad45-eea4-4e84-99ac-83168b73b34b","ios":"levelo://app?vid=2ac8ad45-eea4-4e84-99ac-83168b73b34b"},"vehicle_type_id":"4","last_reported":1743174606,"current_range_meters":10800,"station_id":"ce4bhb92rcd13ifvqen0","pricing_plan_id":"cebpf4jnsgd1na2vs0mg"},{"bike_id":"c977ba8e-3dac-45a0-ab0c-836c45212ead","system_id":"levelo_inurba_marseille","lat":43.28431,"lon":5.39184,"is_reserved":false,"is_disabled":false,"rental_uris":{"android":"levelo://app?vid=c977ba8e-3dac-45a0-ab0c-836c45212ead","ios":"levelo://app?vid=c977ba8e-3dac-45a0-ab0c-836c45212ead"},"vehicle_type_id":"4","last_reported":1743174606,"current_range_meters":10800,"station_id":"ce4bhoh2rcd13ifvqh5g","pricing_plan_id":"cebpf4jnsgd1na2vs0mg"},{"bike_id":"68e9fc26-8998-4bf7-8da8-af47209f9b7c","system_id":"levelo_inurba_marseille","lat":43.32115,"lon":5.36783,"is_reserved":false,"is_disabled":false,"rental_uris":{"android":"levelo://app?vid=68e9fc26-8998-4bf7-8da8-af47209f9b7c","ios":"levelo://app?vid=68e9fc26-8998-4bf7-8da8-af47209f9b7c"},"vehicle_type_id":"4","last_reported":1743174606,"current_range_meters":10800,"station_id":"ce4bhrh2rcd13ifvqhug","pricing_plan_id":"cebpf4jnsgd1na2vs0mg"},{"bike_id":"1ed927ed-2597-442d-8715-47e8a9c9c404","system_id":"levelo_inurba_marseille","lat":43.299757,"lon":5.384815,"is_reserved":false,"is_disabled":false,"rental_uris":{"android":"levelo://app?vid=1ed927ed-2597-442d-8715-47e8a9c9c404","ios":"levelo://app?vid=1ed927ed-2597-442d-8715-47e8a9c9c404"},"vehicle_type_id":"4","last_reported":1743174606,"current_range_meters":10000,"station_id":"ce4bgj92rcd13ifvqbd0","pricing_plan_id":"cebpf4jnsgd1na2vs0mg"},{"bike_id":"5001e53d-54cb-4f10-8d6b-4d4be8c8cf42","system_id":"levelo_inurba_marseille","lat":43.29261,"lon":5.3762,"is_reserved":false,"is_disabled":false,"rental_uris":{"android":"levelo://app?vid=5001e53d-54cb-4f10-8d6b-4d4be8c8cf42","ios":"levelo://app?vid=5001e53d-54cb-4f10-8d6b-4d4be8c8cf42"},"vehicle_type_id":"4","last_reported":1743174606,"current_range_meters":10800,"station_id":"ce4bgi12rcd13ifvqb80","pricing_plan_id":"cebpf4jnsgd1na2vs0mg"},{"bike_id":"bc61c42e-59a8-4cc3-a29b-ec7e803012d5","system_id":"levelo_inurba_marseille","lat":43.28081,"lon":5.39662,"is_reserved":false,"is_disabled":false,"rental_uris":{"android":"levelo://app?vid=bc61c42e-59a8-4cc3-a29b-ec7e803012d5","ios":"levelo://app?vid=bc61c42e-59a8-4cc3-a29b-ec7e803012d5"},"vehicle_type_id":"4","last_reported":1743174606,"current_range_meters":10800,"station_id":"ce4bho12rcd13ifvqh2g","pricing_plan_id":"cebpf4jnsgd1na2vs0mg"},{"bike_id":"29b558de-9f21-4876-9e53-7badd9d5aa45","system_id":"levelo_inurba_marseille","lat":43.2997,"lon":5.37176,"is_reserved":false,"is_disabled":false,"rental_uris":{"android":"levelo://app?vid=29b558de-9f21-4876-9e53-7badd9d5aa45","ios":"levelo://app?vid=29b558de-9f21-4876-9e53-7badd9d5aa45"},"vehicle_type_id":"4","last_reported":1743174606,"current_range_meters":11200,"station_id":"ce4bgr92rcd13ifvqc7g","pricing_plan_id":"cebpf4jnsgd1na2vs0mg"},{"bike_id":"3baabe1e-785f-4275-b2ae-669cc3f900da","system_id":"levelo_inurba_marseille","lat":43.27822,"lon":5.40715,"is_reserved":false,"is_disabled":true,"rental_uris":{"android":"levelo://app?vid=3baabe1e-785f-4275-b2ae-669cc3f900da","ios":"levelo://app?vid=3baabe1e-785f-4275-b2ae-669cc3f900da"},"vehicle_type_id":"4","last_reported":1743174606,"current_range_meters":11200,"station_id":"ce4bhnh2rcd13ifvqgtg","pricing_plan_id":"cebpf4jnsgd1na2vs0mg"},{"bike_id":"dfea6e04-8150-4ef7-80bb-e7c3bbcac8f0","system_id":"levelo_inurba_marseille","lat":43.30803,"lon":5.38146,"is_reserved":false,"is_disabled":false,"rental_uris":{"android":"levelo://app?vid=dfea6e04-8150-4ef7-80bb-e7c3bbcac8f0","ios":"levelo://app?vid=dfea6e04-8150-4ef7-80bb-e7c3bbcac8f0"},"vehicle_type_id":"4","last_reported":1743174606,"current_range_meters":11200,"station_id":"ce4bgt12rcd13ifvqce0","pricing_plan_id":"cebpf4jnsgd1na2vs0mg"},{"bike_id":"72fdf01b-2829-4681-a162-f0ed62d5a779","system_id":"levelo_inurba_marseille","lat":43.27609,"lon":5.36107,"is_reserved":false,"is_disabled":false,"rental_uris":{"android":"levelo://app?vid=72fdf01b-2829-4681-a162-f0ed62d5a779","ios":"levelo://app?vid=72fdf01b-2829-4681-a162-f0ed62d5a779"},"vehicle_type_id":"4","last_reported":1743174606,"current_range_meters":11200,"station_id":"ce4bgj92rcd13ifvqbe0","pricing_plan_id":"cebpf4jnsgd1na2vs0mg"},{"bike_id":"55f704b7-903b-4c3e-8e76-f22266ee0b2d","system_id":"levelo_inurba_marseille","lat":43.26554,"lon":5.372862,"is_reserved":false,"is_disabled":false,"rental_uris":{"android":"levelo://app?vid=55f704b7-903b-4c3e-8e76-f22266ee0b2d","ios":"levelo://app?vid=55f704b7-903b-4c3e-8e76-f22266ee0b2d"},"vehicle_type_id":"4","last_reported":1743174606,"current_range_meters":11200,"station_id":"ce4bhg12rcd13ifvqf70","pricing_plan_id":"cebpf4jnsgd1na2vs0mg"},{"bike_id":"6082a6d8-29f3-4441-bd82-d0f95ead75d7","system_id":"levelo_inurba_marseille","lat":43.23195,"lon":5.35558,"is_reserved":false,"is_disabled":false,"rental_uris":{"android":"levelo://app?vid=6082a6d8-29f3-4441-bd82-d0f95ead75d7","ios":"levelo://app?vid=6082a6d8-29f3-4441-bd82-d0f95ead75d7"},"vehicle_type_id":"4","last_reported":1743174606,"current_range_meters":11200,"station_id":"ce4bhu92rcd13ifvqi70","pricing_plan_id":"cebpf4jnsgd1na2vs0mg"},{"bike_id":"2450e3ad-a78f-4911-a3c9-c31a175dc001","system_id":"levelo_inurba_marseille","lat":43.29614,"lon":5.37735,"is_reserved":false,"is_disabled":false,"rental_uris":{"android":"levelo://app?vid=2450e3ad-a78f-4911-a3c9-c31a175dc001","ios":"levelo://app?vid=2450e3ad-a78f-4911-a3c9-c31a175dc001"},"vehicle_type_id":"4","last_reported":1743174606,"current_range_meters":11200,"station_id":"ce4bgi92rcd13ifvqb90","pricing_plan_id":"cebpf4jnsgd1na2vs0mg"},{"bike_id":"6cbddcc1-9609-4503-9874-4b78c26df24e","system_id":"levelo_inurba_marseille","lat":43.32111,"lon":5.36797,"is_reserved":false,"is_disabled":false,"rental_uris":{"android":"levelo://app?vid=6cbddcc1-9609-4503-9874-4b78c26df24e","ios":"levelo://app?vid=6cbddcc1-9609-4503-9874-4b78c26df24e"},"vehicle_type_id":"4","last_reported":1743174606,"current_range_meters":11200,"station_id":"ce4bhrh2rcd13ifvqhug","pricing_plan_id":"cebpf4jnsgd1na2vs0mg"},{"bike_id":"43f5a9e1-cf89-4033-8c1c-d1933c1a8ec8","system_id":"levelo_inurba_marseille","lat":43.26943,"lon":5.40253,"is_reserved":false,"is_disabled":false,"rental_uris":{"android":"levelo://app?vid=43f5a9e1-cf89-4033-8c1c-d1933c1a8ec8","ios":"levelo://app?vid=43f5a9e1-cf89-4033-8c1c-d1933c1a8ec8"},"vehicle_type_id":"4","last_reported":1743174606,"current_range_meters":9200,"station_id":"cjm6bp8fraef2m0cb0m0","pricing_plan_id":"cebpf4jnsgd1na2vs0mg"},{"bike_id":"39ea9b72-b36d-4fca-9b38-2d6234508e2b","system_id":"levelo_inurba_marseille","lat":43.27375,"lon":5.36251,"is_reserved":false,"is_disabled":false,"rental_uris":{"android":"levelo://app?vid=39ea9b72-b36d-4fca-9b38-2d6234508e2b","ios":"levelo://app?vid=39ea9b72-b36d-4fca-9b38-2d6234508e2b"},"vehicle_type_id":"4","last_reported":1743174606,"current_range_meters":11200,"station_id":"ce4bhbh2rcd13ifvqeo0","pricing_plan_id":"cebpf4jnsgd1na2vs0mg"},{"bike_id":"2c4be945-47f5-4a35-9112-cbec0e0cb109","system_id":"levelo_inurba_marseille","lat":43.26559,"lon":5.37301,"is_reserved":false,"is_disabled":false,"rental_uris":{"android":"levelo://app?vid=2c4be945-47f5-4a35-9112-cbec0e0cb109","ios":"levelo://app?vid=2c4be945-47f5-4a35-9112-cbec0e0cb109"},"vehicle_type_id":"4","last_reported":1743174606,"current_range_meters":11200,"station_id":"ce4bhg12rcd13ifvqf70","pricing_plan_id":"cebpf4jnsgd1na2vs0mg"},{"bike_id":"65c86302-8ef0-46f4-ab6e-bac7149a2865","system_id":"levelo_inurba_marseille","lat":43.32104,"lon":5.36762,"is_reserved":false,"is_disabled":false,"rental_uris":{"android":"levelo://app?vid=65c86302-8ef0-46f4-ab6e-bac7149a2865","ios":"levelo://app?vid=65c86302-8ef0-46f4-ab6e-bac7149a2865"},"vehicle_type_id":"4","last_reported":1743174606,"current_range_meters":11200,"station_id":"ce4bhrh2rcd13ifvqhug","pricing_plan_id":"cebpf4jnsgd1na2vs0mg"},{"bike_id":"1ba2879a-268e-480d-8eec-6b7433023a20","system_id":"levelo_inurba_marseille","lat":43.32367,"lon":5.38881,"is_reserved":false,"is_disabled":false,"rental_uris":{"android":"levelo://app?vid=1ba2879a-268e-480d-8eec-6b7433023a20","ios":"levelo://app?vid=1ba2879a-268e-480d-8eec-6b7433023a20"},"vehicle_type_id":"4","last_reported":1743174606,"current_range_meters":11200,"station_id":"ce4bhqp2rcd13ifvqhog","pricing_plan_id":"cebpf4jnsgd1na2vs0mg"},{"bike_id":"e8ba0a59-f121-44b2-a565-96ca45c6acbc","system_id":"levelo_inurba_marseille","lat":43.30536,"lon":5.38439,"is_reserved":false,"is_disabled":false,"rental_uris":{"android":"levelo://app?vid=e8ba0a59-f121-44b2-a565-96ca45c6acbc","ios":"levelo://app?vid=e8ba0a59-f121-44b2-a565-96ca45c6acbc"},"vehicle_type_id":"4","last_reported":1743174606,"current_range_meters":11600,"station_id":"ce4bgg92rcd13ifvqb30","pricing_plan_id":"cebpf4jnsgd1na2vs0mg"},{"bike_id":"d2be6ce3-8e79-4804-b0d3-008c875e7b9d","system_id":"levelo_inurba_marseille","lat":43.26222,"lon":5.37919,"is_reserved":false,"is_disabled":false,"rental_uris":{"android":"levelo://app?vid=d2be6ce3-8e79-4804-b0d3-008c875e7b9d","ios":"levelo://app?vid=d2be6ce3-8e79-4804-b0d3-008c875e7b9d"},"vehicle_type_id":"4","last_reported":1743174606,"current_range_meters":11600,"station_id":"ce4bhjp2rcd13ifvqg90","pricing_plan_id":"cebpf4jnsgd1na2vs0mg"},{"bike_id":"fb348b09-6abb-47a4-a266-91f2eeaee291","system_id":"levelo_inurba_marseille","lat":43.32091,"lon":5.36779,"is_reserved":false,"is_disabled":false,"rental_uris":{"android":"levelo://app?vid=fb348b09-6abb-47a4-a266-91f2eeaee291","ios":"levelo://app?vid=fb348b09-6abb-47a4-a266-91f2eeaee291"},"vehicle_type_id":"4","last_reported":1743174606,"current_range_meters":11600,"station_id":"ce4bhrh2rcd13ifvqhug","pricing_plan_id":"cebpf4jnsgd1na2vs0mg"},{"bike_id":"582436c6-0302-4a64-a6a1-824759b85d69","system_id":"levelo_inurba_marseille","lat":43.265774,"lon":5.390114,"is_reserved":false,"is_disabled":false,"rental_uris":{"android":"levelo://app?vid=582436c6-0302-4a64-a6a1-824759b85d69","ios":"levelo://app?vid=582436c6-0302-4a64-a6a1-824759b85d69"},"vehicle_type_id":"4","last_reported":1743174606,"current_range_meters":11600,"station_id":"ce4bhe12rcd13ifvqf30","pricing_plan_id":"cebpf4jnsgd1na2vs0mg"},{"bike_id":"888df0cf-1613-428a-ac65-c1b89d6b5c42","system_id":"levelo_inurba_marseille","lat":43.29094,"lon":5.38147,"is_reserved":false,"is_disabled":false,"rental_uris":{"android":"levelo://app?vid=888df0cf-1613-428a-ac65-c1b89d6b5c42","ios":"levelo://app?vid=888df0cf-1613-428a-ac65-c1b89d6b5c42"},"vehicle_type_id":"4","last_reported":1743174606,"current_range_meters":11600,"station_id":"ce4bh512rcd13ifvqe2g","pricing_plan_id":"cebpf4jnsgd1na2vs0mg"},{"bike_id":"8ce57e29-9e4e-4c4b-9eac-25dbada77966","system_id":"levelo_inurba_marseille","lat":43.2762,"lon":5.36096,"is_reserved":false,"is_disabled":false,"rental_uris":{"android":"levelo://app?vid=8ce57e29-9e4e-4c4b-9eac-25dbada77966","ios":"levelo://app?vid=8ce57e29-9e4e-4c4b-9eac-25dbada77966"},"vehicle_type_id":"4","last_reported":1743174606,"current_range_meters":11600,"station_id":"ce4bgj92rcd13ifvqbe0","pricing_plan_id":"cebpf4jnsgd1na2vs0mg"},{"bike_id":"78232f5c-0aa5-4d6a-9018-e0a78e4aac6b","system_id":"levelo_inurba_marseille","lat":43.24811,"lon":5.3746,"is_reserved":false,"is_disabled":false,"rental_uris":{"android":"levelo://app?vid=78232f5c-0aa5-4d6a-9018-e0a78e4aac6b","ios":"levelo://app?vid=78232f5c-0aa5-4d6a-9018-e0a78e4aac6b"},"vehicle_type_id":"4","last_reported":1743174606,"current_range_meters":11600,"station_id":"ce4bhgh2rcd13ifvqfb0","pricing_plan_id":"cebpf4jnsgd1na2vs0mg"},{"bike_id":"aed2caaf-e63e-4d9f-9fab-effd4b56045d","system_id":"levelo_inurba_marseille","lat":43.26219,"lon":5.4044,"is_reserved":false,"is_disabled":false,"rental_uris":{"android":"levelo://app?vid=aed2caaf-e63e-4d9f-9fab-effd4b56045d","ios":"levelo://app?vid=aed2caaf-e63e-4d9f-9fab-effd4b56045d"},"vehicle_type_id":"4","last_reported":1743174606,"current_range_meters":11600,"station_id":"ce4bhmh2rcd13ifvqgmg","pricing_plan_id":"cebpf4jnsgd1na2vs0mg"},{"bike_id":"bc4aad2a-e29a-45b7-b9a9-740428b25c49","system_id":"levelo_inurba_marseille","lat":43.23196,"lon":5.35552,"is_reserved":false,"is_disabled":false,"rental_uris":{"android":"levelo://app?vid=bc4aad2a-e29a-45b7-b9a9-740428b25c49","ios":"levelo://app?vid=bc4aad2a-e29a-45b7-b9a9-740428b25c49"},"vehicle_type_id":"4","last_reported":1743174606,"current_range_meters":11600,"station_id":"ce4bhu92rcd13ifvqi70","pricing_plan_id":"cebpf4jnsgd1na2vs0mg"},{"bike_id":"9462a91b-8b4b-430a-ac7a-4612f1bebb31","system_id":"levelo_inurba_marseille","lat":43.290878,"lon":5.381558,"is_reserved":false,"is_disabled":true,"rental_uris":{"android":"levelo://app?vid=9462a91b-8b4b-430a-ac7a-4612f1bebb31","ios":"levelo://app?vid=9462a91b-8b4b-430a-ac7a-4612f1bebb31"},"vehicle_type_id":"4","last_reported":1743174606,"current_range_meters":11600,"station_id":"ce4bh512rcd13ifvqe2g","pricing_plan_id":"cebpf4jnsgd1na2vs0mg"},{"bike_id":"674def7b-e877-4f84-8698-51b587604503","system_id":"levelo_inurba_marseille","lat":43.27053,"lon":5.40252,"is_reserved":false,"is_disabled":false,"rental_uris":{"android":"levelo://app?vid=674def7b-e877-4f84-8698-51b587604503","ios":"levelo://app?vid=674def7b-e877-4f84-8698-51b587604503"},"vehicle_type_id":"4","last_reported":1743174606,"current_range_meters":11600,"station_id":"ce4bhk92rcd13ifvqgc0","pricing_plan_id":"cebpf4jnsgd1na2vs0mg"},{"bike_id":"90a72fe9-e95e-4b5a-af41-fa065baf6dff","system_id":"levelo_inurba_marseille","lat":43.30535,"lon":5.38439,"is_reserved":false,"is_disabled":false,"rental_uris":{"android":"levelo://app?vid=90a72fe9-e95e-4b5a-af41-fa065baf6dff","ios":"levelo://app?vid=90a72fe9-e95e-4b5a-af41-fa065baf6dff"},"vehicle_type_id":"4","last_reported":1743174606,"current_range_meters":11600,"station_id":"ce4bgg92rcd13ifvqb30","pricing_plan_id":"cebpf4jnsgd1na2vs0mg"},{"bike_id":"b437a081-6f81-463c-be6f-b36527d6efb4","system_id":"levelo_inurba_marseille","lat":43.29704,"lon":5.36595,"is_reserved":false,"is_disabled":false,"rental_uris":{"android":"levelo://app?vid=b437a081-6f81-463c-be6f-b36527d6efb4","ios":"levelo://app?vid=b437a081-6f81-463c-be6f-b36527d6efb4"},"vehicle_type_id":"4","last_reported":1743174606,"current_range_meters":11600,"station_id":"ce4bgn12rcd13ifvqbt0","pricing_plan_id":"cebpf4jnsgd1na2vs0mg"},{"bike_id":"3da9831e-64b2-4fd3-89ff-92cf4539d4ed","system_id":"levelo_inurba_marseille","lat":43.29717,"lon":5.36615,"is_reserved":false,"is_disabled":false,"rental_uris":{"android":"levelo://app?vid=3da9831e-64b2-4fd3-89ff-92cf4539d4ed","ios":"levelo://app?vid=3da9831e-64b2-4fd3-89ff-92cf4539d4ed"},"vehicle_type_id":"4","last_reported":1743174606,"current_range_meters":12000,"station_id":"ce4bgn12rcd13ifvqbt0","pricing_plan_id":"cebpf4jnsgd1na2vs0mg"},{"bike_id":"ec1c7786-1acd-447d-876f-8ab015a8ac03","system_id":"levelo_inurba_marseille","lat":43.29261,"lon":5.3762,"is_reserved":false,"is_disabled":false,"rental_uris":{"android":"levelo://app?vid=ec1c7786-1acd-447d-876f-8ab015a8ac03","ios":"levelo://app?vid=ec1c7786-1acd-447d-876f-8ab015a8ac03"},"vehicle_type_id":"4","last_reported":1743174606,"current_range_meters":12000,"station_id":"ce4bgi12rcd13ifvqb80","pricing_plan_id":"cebpf4jnsgd1na2vs0mg"},{"bike_id":"c6c8fb31-86de-4758-859b-e74b70125ab7","system_id":"levelo_inurba_marseille","lat":43.32108,"lon":5.36772,"is_reserved":false,"is_disabled":false,"rental_uris":{"android":"levelo://app?vid=c6c8fb31-86de-4758-859b-e74b70125ab7","ios":"levelo://app?vid=c6c8fb31-86de-4758-859b-e74b70125ab7"},"vehicle_type_id":"4","last_reported":1743174606,"current_range_meters":12000,"station_id":"ce4bhrh2rcd13ifvqhug","pricing_plan_id":"cebpf4jnsgd1na2vs0mg"},{"bike_id":"044084b7-d550-47c4-8f93-1923d9c13b7a","system_id":"levelo_inurba_marseille","lat":43.267893,"lon":5.394047,"is_reserved":false,"is_disabled":false,"rental_uris":{"android":"levelo://app?vid=044084b7-d550-47c4-8f93-1923d9c13b7a","ios":"levelo://app?vid=044084b7-d550-47c4-8f93-1923d9c13b7a"},"vehicle_type_id":"4","last_reported":1743174606,"current_range_meters":12000,"station_id":"ce4bhh12rcd13ifvqfg0","pricing_plan_id":"cebpf4jnsgd1na2vs0mg"},{"bike_id":"67103af4-3176-4ab3-aa07-51f8d11cb96b","system_id":"levelo_inurba_marseille","lat":43.262071,"lon":5.379243,"is_reserved":false,"is_disabled":false,"rental_uris":{"android":"levelo://app?vid=67103af4-3176-4ab3-aa07-51f8d11cb96b","ios":"levelo://app?vid=67103af4-3176-4ab3-aa07-51f8d11cb96b"},"vehicle_type_id":"4","last_reported":1743174606,"current_range_meters":12000,"station_id":"ce4bhjp2rcd13ifvqg90","pricing_plan_id":"cebpf4jnsgd1na2vs0mg"},{"bike_id":"789e7603-e35f-40cd-b67b-03d4116e8007","system_id":"levelo_inurba_marseille","lat":43.25582,"lon":5.38226,"is_reserved":false,"is_disabled":false,"rental_uris":{"android":"levelo://app?vid=789e7603-e35f-40cd-b67b-03d4116e8007","ios":"levelo://app?vid=789e7603-e35f-40cd-b67b-03d4116e8007"},"vehicle_type_id":"4","last_reported":1743174606,"current_range_meters":14000,"station_id":"ce4bhih2rcd13ifvqfs0","pricing_plan_id":"cebpf4jnsgd1na2vs0mg"},{"bike_id":"e4cda1a5-ed5a-4080-bd26-0b718e550ad4","system_id":"levelo_inurba_marseille","lat":43.28163,"lon":5.4264,"is_reserved":false,"is_disabled":false,"rental_uris":{"android":"levelo://app?vid=e4cda1a5-ed5a-4080-bd26-0b718e550ad4","ios":"levelo://app?vid=e4cda1a5-ed5a-4080-bd26-0b718e550ad4"},"vehicle_type_id":"4","last_reported":1743174606,"current_range_meters":12400,"station_id":"ce4bhnh2rcd13ifvqgug","pricing_plan_id":"cebpf4jnsgd1na2vs0mg"},{"bike_id":"9f4a7ed6-290f-4ac1-b05e-471b2f21c37d","system_id":"levelo_inurba_marseille","lat":43.27373,"lon":5.36247,"is_reserved":false,"is_disabled":false,"rental_uris":{"android":"levelo://app?vid=9f4a7ed6-290f-4ac1-b05e-471b2f21c37d","ios":"levelo://app?vid=9f4a7ed6-290f-4ac1-b05e-471b2f21c37d"},"vehicle_type_id":"4","last_reported":1743174606,"current_range_meters":12400,"station_id":"ce4bhbh2rcd13ifvqeo0","pricing_plan_id":"cebpf4jnsgd1na2vs0mg"},{"bike_id":"345ae8b0-c847-4de8-a763-0558ade1b588","system_id":"levelo_inurba_marseille","lat":43.25117,"lon":5.40322,"is_reserved":false,"is_disabled":false,"rental_uris":{"android":"levelo://app?vid=345ae8b0-c847-4de8-a763-0558ade1b588","ios":"levelo://app?vid=345ae8b0-c847-4de8-a763-0558ade1b588"},"vehicle_type_id":"4","last_reported":1743174606,"current_range_meters":12400,"station_id":"ce4bhlh2rcd13ifvqgig","pricing_plan_id":"cebpf4jnsgd1na2vs0mg"},{"bike_id":"37c3556a-df22-411f-b992-08031a5ae5e9","system_id":"levelo_inurba_marseille","lat":43.274315,"lon":5.394131,"is_reserved":false,"is_disabled":false,"rental_uris":{"android":"levelo://app?vid=37c3556a-df22-411f-b992-08031a5ae5e9","ios":"levelo://app?vid=37c3556a-df22-411f-b992-08031a5ae5e9"},"vehicle_type_id":"4","last_reported":1743174606,"current_range_meters":12400,"station_id":"ce4bhdp2rcd13ifvqf20","pricing_plan_id":"cebpf4jnsgd1na2vs0mg"},{"bike_id":"02b9a32d-6225-4b1a-b561-698fab6b9f9e","system_id":"levelo_inurba_marseille","lat":43.31927,"lon":5.38197,"is_reserved":false,"is_disabled":false,"rental_uris":{"android":"levelo://app?vid=02b9a32d-6225-4b1a-b561-698fab6b9f9e","ios":"levelo://app?vid=02b9a32d-6225-4b1a-b561-698fab6b9f9e"},"vehicle_type_id":"4","last_reported":1743174606,"current_range_meters":12400,"station_id":"","pricing_plan_id":"cebpf4jnsgd1na2vs0mg"},{"bike_id":"25004ab7-6326-4f80-9342-54b0c627a32b","system_id":"levelo_inurba_marseille","lat":43.28991,"lon":5.35605,"is_reserved":false,"is_disabled":false,"rental_uris":{"android":"levelo://app?vid=25004ab7-6326-4f80-9342-54b0c627a32b","ios":"levelo://app?vid=25004ab7-6326-4f80-9342-54b0c627a32b"},"vehicle_type_id":"4","last_reported":1743174606,"current_range_meters":12400,"station_id":"ce4bhb92rcd13ifvqen0","pricing_plan_id":"cebpf4jnsgd1na2vs0mg"},{"bike_id":"eba6cb31-8838-4237-b6dc-6f8ee35f140f","system_id":"levelo_inurba_marseille","lat":43.28419,"lon":5.34983,"is_reserved":false,"is_disabled":false,"rental_uris":{"android":"levelo://app?vid=eba6cb31-8838-4237-b6dc-6f8ee35f140f","ios":"levelo://app?vid=eba6cb31-8838-4237-b6dc-6f8ee35f140f"},"vehicle_type_id":"4","last_reported":1743174606,"current_range_meters":12400,"station_id":"ce4bhbh2rcd13ifvqepg","pricing_plan_id":"cebpf4jnsgd1na2vs0mg"},{"bike_id":"8bc2cbde-34c8-4c06-962a-d2135c8869d7","system_id":"levelo_inurba_marseille","lat":43.23955,"lon":5.3663,"is_reserved":false,"is_disabled":false,"rental_uris":{"android":"levelo://app?vid=8bc2cbde-34c8-4c06-962a-d2135c8869d7","ios":"levelo://app?vid=8bc2cbde-34c8-4c06-962a-d2135c8869d7"},"vehicle_type_id":"4","last_reported":1743174606,"current_range_meters":12400,"station_id":"ce4bhi12rcd13ifvqfp0","pricing_plan_id":"cebpf4jnsgd1na2vs0mg"},{"bike_id":"9fca3360-8e7b-45c5-b38d-719a2530d1b8","system_id":"levelo_inurba_marseille","lat":43.28417,"lon":5.34982,"is_reserved":false,"is_disabled":false,"rental_uris":{"android":"levelo://app?vid=9fca3360-8e7b-45c5-b38d-719a2530d1b8","ios":"levelo://app?vid=9fca3360-8e7b-45c5-b38d-719a2530d1b8"},"vehicle_type_id":"4","last_reported":1743174606,"current_range_meters":12400,"station_id":"ce4bhbh2rcd13ifvqepg","pricing_plan_id":"cebpf4jnsgd1na2vs0mg"},{"bike_id":"9f2583cf-461d-4d57-8c37-99ef1e89cade","system_id":"levelo_inurba_marseille","lat":43.23193,"lon":5.35545,"is_reserved":false,"is_disabled":false,"rental_uris":{"android":"levelo://app?vid=9f2583cf-461d-4d57-8c37-99ef1e89cade","ios":"levelo://app?vid=9f2583cf-461d-4d57-8c37-99ef1e89cade"},"vehicle_type_id":"4","last_reported":1743174606,"current_range_meters":12400,"station_id":"ce4bhu92rcd13ifvqi70","pricing_plan_id":"cebpf4jnsgd1na2vs0mg"},{"bike_id":"519f7d80-1f08-4dda-97da-6e94c40b3d40","system_id":"levelo_inurba_marseille","lat":43.23193,"lon":5.35559,"is_reserved":false,"is_disabled":false,"rental_uris":{"android":"levelo://app?vid=519f7d80-1f08-4dda-97da-6e94c40b3d40","ios":"levelo://app?vid=519f7d80-1f08-4dda-97da-6e94c40b3d40"},"vehicle_type_id":"4","last_reported":1743174606,"current_range_meters":12800,"station_id":"ce4bhu92rcd13ifvqi70","pricing_plan_id":"cebpf4jnsgd1na2vs0mg"},{"bike_id":"9af0739a-7a18-4e6a-88a6-d9aadc280c99","system_id":"levelo_inurba_marseille","lat":43.30651,"lon":5.40098,"is_reserved":false,"is_disabled":false,"rental_uris":{"android":"levelo://app?vid=9af0739a-7a18-4e6a-88a6-d9aadc280c99","ios":"levelo://app?vid=9af0739a-7a18-4e6a-88a6-d9aadc280c99"},"vehicle_type_id":"4","last_reported":1743174606,"current_range_meters":12800,"station_id":"ce4bh112rcd13ifvqda0","pricing_plan_id":"cebpf4jnsgd1na2vs0mg"},{"bike_id":"983c4c9f-ee1a-4d13-8ce7-bfd36c479f46","system_id":"levelo_inurba_marseille","lat":43.24169,"lon":5.36403,"is_reserved":false,"is_disabled":false,"rental_uris":{"android":"levelo://app?vid=983c4c9f-ee1a-4d13-8ce7-bfd36c479f46","ios":"levelo://app?vid=983c4c9f-ee1a-4d13-8ce7-bfd36c479f46"},"vehicle_type_id":"4","last_reported":1743174606,"current_range_meters":13600,"station_id":"cpo36qri1sfpv3e86is0","pricing_plan_id":"cebpf4jnsgd1na2vs0mg"},{"bike_id":"31fcb7dc-4f6a-428c-b08c-fb6c0bdda347","system_id":"levelo_inurba_marseille","lat":43.24382,"lon":5.37074,"is_reserved":false,"is_disabled":false,"rental_uris":{"android":"levelo://app?vid=31fcb7dc-4f6a-428c-b08c-fb6c0bdda347","ios":"levelo://app?vid=31fcb7dc-4f6a-428c-b08c-fb6c0bdda347"},"vehicle_type_id":"4","last_reported":1743174606,"current_range_meters":13600,"station_id":"ce4bhhh2rcd13ifvqfk0","pricing_plan_id":"cebpf4jnsgd1na2vs0mg"},{"bike_id":"212c8e98-dbd0-430f-965c-a5211ae16902","system_id":"levelo_inurba_marseille","lat":43.2509,"lon":5.39508,"is_reserved":false,"is_disabled":false,"rental_uris":{"android":"levelo://app?vid=212c8e98-dbd0-430f-965c-a5211ae16902","ios":"levelo://app?vid=212c8e98-dbd0-430f-965c-a5211ae16902"},"vehicle_type_id":"4","last_reported":1743174606,"current_range_meters":13600,"station_id":"ce4bhm12rcd13ifvqgkg","pricing_plan_id":"cebpf4jnsgd1na2vs0mg"},{"bike_id":"c52bfc53-9dc3-4674-af50-c4a5cf819bc5","system_id":"levelo_inurba_marseille","lat":43.29904,"lon":5.37468,"is_reserved":false,"is_disabled":false,"rental_uris":{"android":"levelo://app?vid=c52bfc53-9dc3-4674-af50-c4a5cf819bc5","ios":"levelo://app?vid=c52bfc53-9dc3-4674-af50-c4a5cf819bc5"},"vehicle_type_id":"4","last_reported":1743174606,"current_range_meters":13600,"station_id":"ce4bgjh2rcd13ifvqbg0","pricing_plan_id":"cebpf4jnsgd1na2vs0mg"},{"bike_id":"729792be-d28c-4d7d-bc39-ed4cef755dd2","system_id":"levelo_inurba_marseille","lat":43.30158,"lon":5.38104,"is_reserved":false,"is_disabled":false,"rental_uris":{"android":"levelo://app?vid=729792be-d28c-4d7d-bc39-ed4cef755dd2","ios":"levelo://app?vid=729792be-d28c-4d7d-bc39-ed4cef755dd2"},"vehicle_type_id":"4","last_reported":1743174606,"current_range_meters":13600,"station_id":"ce4bgjp2rcd13ifvqbh0","pricing_plan_id":"cebpf4jnsgd1na2vs0mg"},{"bike_id":"d581deb9-90d8-40c4-bb18-6821f5f4a922","system_id":"levelo_inurba_marseille","lat":43.23962,"lon":5.36626,"is_reserved":false,"is_disabled":false,"rental_uris":{"android":"levelo://app?vid=d581deb9-90d8-40c4-bb18-6821f5f4a922","ios":"levelo://app?vid=d581deb9-90d8-40c4-bb18-6821f5f4a922"},"vehicle_type_id":"4","last_reported":1743174606,"current_range_meters":13600,"station_id":"ce4bhi12rcd13ifvqfp0","pricing_plan_id":"cebpf4jnsgd1na2vs0mg"},{"bike_id":"9652756e-3023-4dbd-860c-eb092945967d","system_id":"levelo_inurba_marseille","lat":43.28667,"lon":5.38667,"is_reserved":false,"is_disabled":false,"rental_uris":{"android":"levelo://app?vid=9652756e-3023-4dbd-860c-eb092945967d","ios":"levelo://app?vid=9652756e-3023-4dbd-860c-eb092945967d"},"vehicle_type_id":"4","last_reported":1743174606,"current_range_meters":12800,"station_id":"ce4bh492rcd13ifvqdug","pricing_plan_id":"cebpf4jnsgd1na2vs0mg"},{"bike_id":"f791265a-fc31-4910-87c2-4a14a2335856","system_id":"levelo_inurba_marseille","lat":43.28568,"lon":5.39488,"is_reserved":false,"is_disabled":false,"rental_uris":{"android":"levelo://app?vid=f791265a-fc31-4910-87c2-4a14a2335856","ios":"levelo://app?vid=f791265a-fc31-4910-87c2-4a14a2335856"},"vehicle_type_id":"4","last_reported":1743174606,"current_range_meters":13600,"station_id":"ce4bh292rcd13ifvqdg0","pricing_plan_id":"cebpf4jnsgd1na2vs0mg"},{"bike_id":"860a1463-7c64-4251-af08-0055c09463ae","system_id":"levelo_inurba_marseille","lat":43.295265,"lon":5.390415,"is_reserved":false,"is_disabled":false,"rental_uris":{"android":"levelo://app?vid=860a1463-7c64-4251-af08-0055c09463ae","ios":"levelo://app?vid=860a1463-7c64-4251-af08-0055c09463ae"},"vehicle_type_id":"4","last_reported":1743174606,"current_range_meters":14000,"station_id":"ce4bgv12rcd13ifvqcp0","pricing_plan_id":"cebpf4jnsgd1na2vs0mg"},{"bike_id":"78879d72-d868-43c9-a743-a6ab48dd9b11","system_id":"levelo_inurba_marseille","lat":43.28726,"lon":5.36082,"is_reserved":false,"is_disabled":false,"rental_uris":{"android":"levelo://app?vid=78879d72-d868-43c9-a743-a6ab48dd9b11","ios":"levelo://app?vid=78879d72-d868-43c9-a743-a6ab48dd9b11"},"vehicle_type_id":"4","last_reported":1743174606,"current_range_meters":14000,"station_id":"cki0cbj6b192h4jlfktg","pricing_plan_id":"cebpf4jnsgd1na2vs0mg"},{"bike_id":"d67d8652-0f04-45a0-b34d-bbd8839b9d56","system_id":"levelo_inurba_marseille","lat":43.26307,"lon":5.38824,"is_reserved":false,"is_disabled":false,"rental_uris":{"android":"levelo://app?vid=d67d8652-0f04-45a0-b34d-bbd8839b9d56","ios":"levelo://app?vid=d67d8652-0f04-45a0-b34d-bbd8839b9d56"},"vehicle_type_id":"4","last_reported":1743174606,"current_range_meters":14000,"station_id":"","pricing_plan_id":"cebpf4jnsgd1na2vs0mg"},{"bike_id":"e8c5e641-2a86-4853-ba8b-5a3d680c317a","system_id":"levelo_inurba_marseille","lat":43.31225,"lon":5.36852,"is_reserved":false,"is_disabled":false,"rental_uris":{"android":"levelo://app?vid=e8c5e641-2a86-4853-ba8b-5a3d680c317a","ios":"levelo://app?vid=e8c5e641-2a86-4853-ba8b-5a3d680c317a"},"vehicle_type_id":"4","last_reported":1743174606,"current_range_meters":14000,"station_id":"ce4bgl92rcd13ifvqbq0","pricing_plan_id":"cebpf4jnsgd1na2vs0mg"},{"bike_id":"04b455fb-a85d-4cee-a652-060e798bc694","system_id":"levelo_inurba_marseille","lat":43.28981,"lon":5.3783,"is_reserved":false,"is_disabled":false,"rental_uris":{"android":"levelo://app?vid=04b455fb-a85d-4cee-a652-060e798bc694","ios":"levelo://app?vid=04b455fb-a85d-4cee-a652-060e798bc694"},"vehicle_type_id":"4","last_reported":1743174606,"current_range_meters":14000,"station_id":"ce4bh9p2rcd13ifvqed0","pricing_plan_id":"cebpf4jnsgd1na2vs0mg"},{"bike_id":"ab5156bd-499e-4940-8af8-200f841ae768","system_id":"levelo_inurba_marseille","lat":43.30379,"lon":5.42486,"is_reserved":false,"is_disabled":false,"rental_uris":{"android":"levelo://app?vid=ab5156bd-499e-4940-8af8-200f841ae768","ios":"levelo://app?vid=ab5156bd-499e-4940-8af8-200f841ae768"},"vehicle_type_id":"4","last_reported":1743174606,"current_range_meters":14000,"station_id":"ce4bhoh2rcd13ifvqh6g","pricing_plan_id":"cebpf4jnsgd1na2vs0mg"},{"bike_id":"9bbff12d-dc33-46fa-ac7b-c0011df1659e","system_id":"levelo_inurba_marseille","lat":43.24395,"lon":5.37044,"is_reserved":false,"is_disabled":false,"rental_uris":{"android":"levelo://app?vid=9bbff12d-dc33-46fa-ac7b-c0011df1659e","ios":"levelo://app?vid=9bbff12d-dc33-46fa-ac7b-c0011df1659e"},"vehicle_type_id":"4","last_reported":1743174606,"current_range_meters":14000,"station_id":"ce4bhhh2rcd13ifvqfk0","pricing_plan_id":"cebpf4jnsgd1na2vs0mg"},{"bike_id":"d39bf682-2ed7-46e6-b56e-59c48b062873","system_id":"levelo_inurba_marseille","lat":43.29011,"lon":5.35617,"is_reserved":false,"is_disabled":false,"rental_uris":{"android":"levelo://app?vid=d39bf682-2ed7-46e6-b56e-59c48b062873","ios":"levelo://app?vid=d39bf682-2ed7-46e6-b56e-59c48b062873"},"vehicle_type_id":"4","last_reported":1743174606,"current_range_meters":15200,"station_id":"ce4bhb92rcd13ifvqen0","pricing_plan_id":"cebpf4jnsgd1na2vs0mg"},{"bike_id":"3316a0e9-2f38-4d44-b154-b5b646ddf561","system_id":"levelo_inurba_marseille","lat":43.30801,"lon":5.3815,"is_reserved":false,"is_disabled":false,"rental_uris":{"android":"levelo://app?vid=3316a0e9-2f38-4d44-b154-b5b646ddf561","ios":"levelo://app?vid=3316a0e9-2f38-4d44-b154-b5b646ddf561"},"vehicle_type_id":"4","last_reported":1743174606,"current_range_meters":14000,"station_id":"ce4bgt12rcd13ifvqce0","pricing_plan_id":"cebpf4jnsgd1na2vs0mg"},{"bike_id":"ad095ff6-2192-4acf-9d3b-75082cfc78be","system_id":"levelo_inurba_marseille","lat":43.29256,"lon":5.37701,"is_reserved":false,"is_disabled":false,"rental_uris":{"android":"levelo://app?vid=ad095ff6-2192-4acf-9d3b-75082cfc78be","ios":"levelo://app?vid=ad095ff6-2192-4acf-9d3b-75082cfc78be"},"vehicle_type_id":"4","last_reported":1743174606,"current_range_meters":14400,"station_id":"","pricing_plan_id":"cebpf4jnsgd1na2vs0mg"},{"bike_id":"1b23c5cd-03de-4a95-beb5-569fdab1cccc","system_id":"levelo_inurba_marseille","lat":43.29419,"lon":5.38616,"is_reserved":false,"is_disabled":false,"rental_uris":{"android":"levelo://app?vid=1b23c5cd-03de-4a95-beb5-569fdab1cccc","ios":"levelo://app?vid=1b23c5cd-03de-4a95-beb5-569fdab1cccc"},"vehicle_type_id":"4","last_reported":1743174606,"current_range_meters":14800,"station_id":"ce4bh2h2rcd13ifvqdh0","pricing_plan_id":"cebpf4jnsgd1na2vs0mg"},{"bike_id":"c40d1f81-f2ae-4f24-8ed6-489d686dce22","system_id":"levelo_inurba_marseille","lat":43.29905,"lon":5.38136,"is_reserved":false,"is_disabled":false,"rental_uris":{"android":"levelo://app?vid=c40d1f81-f2ae-4f24-8ed6-489d686dce22","ios":"levelo://app?vid=c40d1f81-f2ae-4f24-8ed6-489d686dce22"},"vehicle_type_id":"4","last_reported":1743174606,"current_range_meters":14800,"station_id":"ce4bgj12rcd13ifvqbc0","pricing_plan_id":"cebpf4jnsgd1na2vs0mg"},{"bike_id":"ab1d31a3-db6e-4338-8e8c-95f10a2f7852","system_id":"levelo_inurba_marseille","lat":43.29938,"lon":5.36553,"is_reserved":false,"is_disabled":false,"rental_uris":{"android":"levelo://app?vid=ab1d31a3-db6e-4338-8e8c-95f10a2f7852","ios":"levelo://app?vid=ab1d31a3-db6e-4338-8e8c-95f10a2f7852"},"vehicle_type_id":"4","last_reported":1743174606,"current_range_meters":14800,"station_id":"ce4bgm92rcd13ifvqbr0","pricing_plan_id":"cebpf4jnsgd1na2vs0mg"},{"bike_id":"f8d53ef1-483c-412b-8649-cf1adb109034","system_id":"levelo_inurba_marseille","lat":43.26219,"lon":5.37438,"is_reserved":false,"is_disabled":false,"rental_uris":{"android":"levelo://app?vid=f8d53ef1-483c-412b-8649-cf1adb109034","ios":"levelo://app?vid=f8d53ef1-483c-412b-8649-cf1adb109034"},"vehicle_type_id":"4","last_reported":1743174606,"current_range_meters":14800,"station_id":"ce4bhgp2rcd13ifvqfc0","pricing_plan_id":"cebpf4jnsgd1na2vs0mg"},{"bike_id":"bc525a6f-63ac-487f-b3c9-185d822e1176","system_id":"levelo_inurba_marseille","lat":43.32619,"lon":5.39092,"is_reserved":false,"is_disabled":false,"rental_uris":{"android":"levelo://app?vid=bc525a6f-63ac-487f-b3c9-185d822e1176","ios":"levelo://app?vid=bc525a6f-63ac-487f-b3c9-185d822e1176"},"vehicle_type_id":"4","last_reported":1743174606,"current_range_meters":14800,"station_id":"","pricing_plan_id":"cebpf4jnsgd1na2vs0mg"},{"bike_id":"ebf92c7f-e59d-46a7-b1d0-87e320309bd9","system_id":"levelo_inurba_marseille","lat":43.32046,"lon":5.4157,"is_reserved":false,"is_disabled":false,"rental_uris":{"android":"levelo://app?vid=ebf92c7f-e59d-46a7-b1d0-87e320309bd9","ios":"levelo://app?vid=ebf92c7f-e59d-46a7-b1d0-87e320309bd9"},"vehicle_type_id":"4","last_reported":1743174606,"current_range_meters":14800,"station_id":"ce4bhq92rcd13ifvqhkg","pricing_plan_id":"cebpf4jnsgd1na2vs0mg"},{"bike_id":"346b76ba-e1bb-446f-afd7-15fb63312381","system_id":"levelo_inurba_marseille","lat":43.29903,"lon":5.37472,"is_reserved":false,"is_disabled":false,"rental_uris":{"android":"levelo://app?vid=346b76ba-e1bb-446f-afd7-15fb63312381","ios":"levelo://app?vid=346b76ba-e1bb-446f-afd7-15fb63312381"},"vehicle_type_id":"4","last_reported":1743174606,"current_range_meters":14800,"station_id":"ce4bgjh2rcd13ifvqbg0","pricing_plan_id":"cebpf4jnsgd1na2vs0mg"},{"bike_id":"c5018486-bf6d-429b-99bb-2a08af367b49","system_id":"levelo_inurba_marseille","lat":43.24398,"lon":5.37049,"is_reserved":false,"is_disabled":false,"rental_uris":{"android":"levelo://app?vid=c5018486-bf6d-429b-99bb-2a08af367b49","ios":"levelo://app?vid=c5018486-bf6d-429b-99bb-2a08af367b49"},"vehicle_type_id":"4","last_reported":1743174606,"current_range_meters":15200,"station_id":"ce4bhhh2rcd13ifvqfk0","pricing_plan_id":"cebpf4jnsgd1na2vs0mg"},{"bike_id":"4b2323ae-94b8-41f7-9062-4d9bd4bd549e","system_id":"levelo_inurba_marseille","lat":43.24166,"lon":5.36397,"is_reserved":false,"is_disabled":false,"rental_uris":{"android":"levelo://app?vid=4b2323ae-94b8-41f7-9062-4d9bd4bd549e","ios":"levelo://app?vid=4b2323ae-94b8-41f7-9062-4d9bd4bd549e"},"vehicle_type_id":"4","last_reported":1743174606,"current_range_meters":15200,"station_id":"cpo36qri1sfpv3e86is0","pricing_plan_id":"cebpf4jnsgd1na2vs0mg"},{"bike_id":"f2dbedda-6b7d-45bd-a4de-defc18e76d90","system_id":"levelo_inurba_marseille","lat":43.29887,"lon":5.38138,"is_reserved":false,"is_disabled":false,"rental_uris":{"android":"levelo://app?vid=f2dbedda-6b7d-45bd-a4de-defc18e76d90","ios":"levelo://app?vid=f2dbedda-6b7d-45bd-a4de-defc18e76d90"},"vehicle_type_id":"4","last_reported":1743174606,"current_range_meters":15200,"station_id":"ce4bgj12rcd13ifvqbc0","pricing_plan_id":"cebpf4jnsgd1na2vs0mg"},{"bike_id":"32904127-370c-4231-a87b-9665914fc9be","system_id":"levelo_inurba_marseille","lat":43.27375,"lon":5.36252,"is_reserved":false,"is_disabled":false,"rental_uris":{"android":"levelo://app?vid=32904127-370c-4231-a87b-9665914fc9be","ios":"levelo://app?vid=32904127-370c-4231-a87b-9665914fc9be"},"vehicle_type_id":"4","last_reported":1743174606,"current_range_meters":15200,"station_id":"ce4bhbh2rcd13ifvqeo0","pricing_plan_id":"cebpf4jnsgd1na2vs0mg"},{"bike_id":"ec1c8d68-cd91-4163-83dd-7bc0d68ff386","system_id":"levelo_inurba_marseille","lat":43.26551,"lon":5.37289,"is_reserved":false,"is_disabled":false,"rental_uris":{"android":"levelo://app?vid=ec1c8d68-cd91-4163-83dd-7bc0d68ff386","ios":"levelo://app?vid=ec1c8d68-cd91-4163-83dd-7bc0d68ff386"},"vehicle_type_id":"4","last_reported":1743174606,"current_range_meters":15200,"station_id":"ce4bhg12rcd13ifvqf70","pricing_plan_id":"cebpf4jnsgd1na2vs0mg"},{"bike_id":"8a6eedd7-11a7-46c2-ba1a-4ce3a2f03b7e","system_id":"levelo_inurba_marseille","lat":43.24388,"lon":5.37059,"is_reserved":false,"is_disabled":false,"rental_uris":{"android":"levelo://app?vid=8a6eedd7-11a7-46c2-ba1a-4ce3a2f03b7e","ios":"levelo://app?vid=8a6eedd7-11a7-46c2-ba1a-4ce3a2f03b7e"},"vehicle_type_id":"4","last_reported":1743174606,"current_range_meters":15200,"station_id":"ce4bhhh2rcd13ifvqfk0","pricing_plan_id":"cebpf4jnsgd1na2vs0mg"},{"bike_id":"7ab0f6b6-94be-4f64-8491-e0519c5cc11c","system_id":"levelo_inurba_marseille","lat":43.29906,"lon":5.37459,"is_reserved":false,"is_disabled":false,"rental_uris":{"android":"levelo://app?vid=7ab0f6b6-94be-4f64-8491-e0519c5cc11c","ios":"levelo://app?vid=7ab0f6b6-94be-4f64-8491-e0519c5cc11c"},"vehicle_type_id":"4","last_reported":1743174606,"current_range_meters":16000,"station_id":"ce4bgjh2rcd13ifvqbg0","pricing_plan_id":"cebpf4jnsgd1na2vs0mg"},{"bike_id":"6bb60b87-456d-41c8-afe1-fa4178adade6","system_id":"levelo_inurba_marseille","lat":43.23198,"lon":5.35549,"is_reserved":false,"is_disabled":false,"rental_uris":{"android":"levelo://app?vid=6bb60b87-456d-41c8-afe1-fa4178adade6","ios":"levelo://app?vid=6bb60b87-456d-41c8-afe1-fa4178adade6"},"vehicle_type_id":"4","last_reported":1743174606,"current_range_meters":16000,"station_id":"ce4bhu92rcd13ifvqi70","pricing_plan_id":"cebpf4jnsgd1na2vs0mg"},{"bike_id":"494d7234-91ca-40ff-b459-3241cd77e5f1","system_id":"levelo_inurba_marseille","lat":43.24805,"lon":5.37455,"is_reserved":false,"is_disabled":false,"rental_uris":{"android":"levelo://app?vid=494d7234-91ca-40ff-b459-3241cd77e5f1","ios":"levelo://app?vid=494d7234-91ca-40ff-b459-3241cd77e5f1"},"vehicle_type_id":"4","last_reported":1743174606,"current_range_meters":15200,"station_id":"ce4bhgh2rcd13ifvqfb0","pricing_plan_id":"cebpf4jnsgd1na2vs0mg"},{"bike_id":"4586e23a-2d77-446c-8e8c-a15b6ae5de02","system_id":"levelo_inurba_marseille","lat":43.28607,"lon":5.38134,"is_reserved":false,"is_disabled":false,"rental_uris":{"android":"levelo://app?vid=4586e23a-2d77-446c-8e8c-a15b6ae5de02","ios":"levelo://app?vid=4586e23a-2d77-446c-8e8c-a15b6ae5de02"},"vehicle_type_id":"4","last_reported":1743174606,"current_range_meters":16000,"station_id":"","pricing_plan_id":"cebpf4jnsgd1na2vs0mg"},{"bike_id":"c95dc08f-1e48-4aa0-a2a4-016ac790b1d5","system_id":"levelo_inurba_marseille","lat":43.3054,"lon":5.38428,"is_reserved":false,"is_disabled":false,"rental_uris":{"android":"levelo://app?vid=c95dc08f-1e48-4aa0-a2a4-016ac790b1d5","ios":"levelo://app?vid=c95dc08f-1e48-4aa0-a2a4-016ac790b1d5"},"vehicle_type_id":"4","last_reported":1743174606,"current_range_meters":16000,"station_id":"","pricing_plan_id":"cebpf4jnsgd1na2vs0mg"},{"bike_id":"36a49bbf-172b-4fe2-a9d0-a2e62ab94281","system_id":"levelo_inurba_marseille","lat":43.32352,"lon":5.36749,"is_reserved":false,"is_disabled":false,"rental_uris":{"android":"levelo://app?vid=36a49bbf-172b-4fe2-a9d0-a2e62ab94281","ios":"levelo://app?vid=36a49bbf-172b-4fe2-a9d0-a2e62ab94281"},"vehicle_type_id":"4","last_reported":1743174606,"current_range_meters":16000,"station_id":"ce4bhsh2rcd13ifvqi2g","pricing_plan_id":"cebpf4jnsgd1na2vs0mg"},{"bike_id":"b8606eef-0862-4743-a7ea-e4c5486a9dd3","system_id":"levelo_inurba_marseille","lat":43.30156,"lon":5.38084,"is_reserved":false,"is_disabled":false,"rental_uris":{"android":"levelo://app?vid=b8606eef-0862-4743-a7ea-e4c5486a9dd3","ios":"levelo://app?vid=b8606eef-0862-4743-a7ea-e4c5486a9dd3"},"vehicle_type_id":"4","last_reported":1743174606,"current_range_meters":16000,"station_id":"ce4bgjp2rcd13ifvqbh0","pricing_plan_id":"cebpf4jnsgd1na2vs0mg"},{"bike_id":"8c5df0db-3b03-43cc-b248-63aefe4f3dba","system_id":"levelo_inurba_marseille","lat":43.28416,"lon":5.34983,"is_reserved":false,"is_disabled":false,"rental_uris":{"android":"levelo://app?vid=8c5df0db-3b03-43cc-b248-63aefe4f3dba","ios":"levelo://app?vid=8c5df0db-3b03-43cc-b248-63aefe4f3dba"},"vehicle_type_id":"4","last_reported":1743174606,"current_range_meters":16000,"station_id":"ce4bhbh2rcd13ifvqepg","pricing_plan_id":"cebpf4jnsgd1na2vs0mg"},{"bike_id":"7fdcd55f-1c78-4ded-99ed-725169c92149","system_id":"levelo_inurba_marseille","lat":43.27395,"lon":5.38272,"is_reserved":false,"is_disabled":false,"rental_uris":{"android":"levelo://app?vid=7fdcd55f-1c78-4ded-99ed-725169c92149","ios":"levelo://app?vid=7fdcd55f-1c78-4ded-99ed-725169c92149"},"vehicle_type_id":"4","last_reported":1743174606,"current_range_meters":16000,"station_id":"","pricing_plan_id":"cebpf4jnsgd1na2vs0mg"},{"bike_id":"40ab5c22-cac9-4aaf-9aad-96453d52d41d","system_id":"levelo_inurba_marseille","lat":43.32488,"lon":5.36567,"is_reserved":false,"is_disabled":false,"rental_uris":{"android":"levelo://app?vid=40ab5c22-cac9-4aaf-9aad-96453d52d41d","ios":"levelo://app?vid=40ab5c22-cac9-4aaf-9aad-96453d52d41d"},"vehicle_type_id":"4","last_reported":1743174606,"current_range_meters":16400,"station_id":"ce4bhs12rcd13ifvqhvg","pricing_plan_id":"cebpf4jnsgd1na2vs0mg"},{"bike_id":"d3d57312-c3f1-4315-a107-1f6077dc172b","system_id":"levelo_inurba_marseille","lat":43.26206,"lon":5.37444,"is_reserved":false,"is_disabled":false,"rental_uris":{"android":"levelo://app?vid=d3d57312-c3f1-4315-a107-1f6077dc172b","ios":"levelo://app?vid=d3d57312-c3f1-4315-a107-1f6077dc172b"},"vehicle_type_id":"4","last_reported":1743174606,"current_range_meters":16400,"station_id":"ce4bhgp2rcd13ifvqfc0","pricing_plan_id":"cebpf4jnsgd1na2vs0mg"},{"bike_id":"89b372e0-e34b-4448-a651-9f0d9816c98e","system_id":"levelo_inurba_marseille","lat":43.243171,"lon":5.368665,"is_reserved":false,"is_disabled":false,"rental_uris":{"android":"levelo://app?vid=89b372e0-e34b-4448-a651-9f0d9816c98e","ios":"levelo://app?vid=89b372e0-e34b-4448-a651-9f0d9816c98e"},"vehicle_type_id":"4","last_reported":1743174606,"current_range_meters":16400,"station_id":"","pricing_plan_id":"cebpf4jnsgd1na2vs0mg"},{"bike_id":"a896d465-75a6-48c7-8c2e-270d493f7b5a","system_id":"levelo_inurba_marseille","lat":43.28742,"lon":5.35214,"is_reserved":false,"is_disabled":false,"rental_uris":{"android":"levelo://app?vid=a896d465-75a6-48c7-8c2e-270d493f7b5a","ios":"levelo://app?vid=a896d465-75a6-48c7-8c2e-270d493f7b5a"},"vehicle_type_id":"4","last_reported":1743174606,"current_range_meters":17200,"station_id":"","pricing_plan_id":"cebpf4jnsgd1na2vs0mg"},{"bike_id":"643da00d-a5ce-4d77-a87f-1f4489660818","system_id":"levelo_inurba_marseille","lat":43.26197,"lon":5.37939,"is_reserved":false,"is_disabled":false,"rental_uris":{"android":"levelo://app?vid=643da00d-a5ce-4d77-a87f-1f4489660818","ios":"levelo://app?vid=643da00d-a5ce-4d77-a87f-1f4489660818"},"vehicle_type_id":"4","last_reported":1743174606,"current_range_meters":16400,"station_id":"ce4bhjp2rcd13ifvqg90","pricing_plan_id":"cebpf4jnsgd1na2vs0mg"},