{"last_updated":1706321504,"ttl":30,"version":"2.2","data":{"bikes":[{"bike_id":"1a7775ee-46a4-44e5-9eec-8c27f19e9c2a","system_id":"levelo_inurba_marseille","lat":43.314811,"lon":5.373103,"is_reserved":false,"is_disabled":false,"rental_uris":{"android":"levelo://app?vid=1a7775ee-46a4-44e5-9eec-8c27f19e9c2a","ios":"levelo://app?vid=1a7775ee-46a4-44e5-9eec-8c27f19e9c2a"},"vehicle_type_id":"4","last_reported":1706321505,"current_range_meters":14400,"station_id":"ce4bgt12rcd13ifvqcd0","pricing_plan_id":"free"},{"bike_id":"41fd6218-7dc5-4400-813c-f2b06787ab47","system_id":"levelo_inurba_marseille","lat":43.314811,"lon":5.373104,"is_reserved":false,"is_disabled":false,"rental_uris":{"android":"levelo://app?vid=41fd6218-7dc5-4400-813c-f2b06787ab47","ios":"levelo://app?vid=41fd6218-7dc5-4400-813c-f2b06787ab47"},"vehicle_type_id":"4","last_reported":1706321505,"current_range_meters":19200,"station_id":"ce4bgt12rcd13ifvqcd0","pricing_plan_id":"free"},{"bike_id":"4b604576-c9b9-4785-9069-ca0544aa571d","system_id":"levelo_inurba_marseille","lat":43.314811,"lon":5.373104,"is_reserved":false,"is_disabled":false,"rental_uris":{"android":"levelo://app?vid=4b604576-c9b9-4785-9069-ca0544aa571d","ios":"levelo://app?vid=4b604576-c9b9-4785-9069-ca0544aa571d"},"vehicle_type_id":"4","last_reported":1706321505,"current_range_meters":24400,"station_id":"ce4bgt12rcd13ifvqcd0","pricing_plan_id":"free"},{"bike_id":"c3243fdc-e724-44a0-92f4-3cf4ede62065","system_id":"levelo_inurba_marseille","lat":43.314811,"lon":5.373104,"is_reserved":false,"is_disabled":false,"rental_uris":{"android":"levelo://app?vid=c3243fdc-e724-44a0-92f4-3cf4ede62065","ios":"levelo://app?vid=c3243fdc-e724-44a0-92f4-3cf4ede62065"},"vehicle_type_id":"4","last_reported":1706321505,"current_range_meters":28400,"station_id":"ce4bgt12rcd13ifvqcd0","pricing_plan_id":"free"},{"bike_id":"2a53ca7f-d552-4b4d-8ea8-fa5434646408","system_id":"levelo_inurba_marseille","lat":43.314811,"lon":5.373104,"is_reserved":false,"is_disabled":false,"rental_uris":{"android":"levelo://app?vid=2a53ca7f-d552-4b4d-8ea8-fa5434646408","ios":"levelo://app?vid=2a53ca7f-d552-4b4d-8ea8-fa5434646408"},"vehicle_type_id":"4","last_reported":1706321505,"current_range_meters":16800,"station_id":"ce4bgt12rcd13ifvqcd0","pricing_plan_id":"free"},{"bike_id":"5defe830-bbc1-44dc-b4b4-d34dd3496d41","system_id":"levelo_inurba_marseille","lat":43.309039,"lon":5.371797,"is_reserved":false,"is_disabled":false,"rental_uris":{"android":"levelo://app?vid=5defe830-bbc1-44dc-b4b4-d34dd3496d41","ios":"levelo://app?vid=5defe830-bbc1-44dc-b4b4-d34dd3496d41"},"vehicle_type_id":"4","last_reported":1706321505,"current_range_meters":28800,"station_id":"ce4bguh2rcd13ifvqckg","pricing_plan_id":"free"},{"bike_id":"bb91ffc4-19a7-4ea8-805d-ef95cd048208","system_id":"levelo_inurba_marseille","lat":43.309039,"lon":5.371797,"is_reserved":false,"is_disabled":false,"rental_uris":{"android":"levelo://app?vid=bb91ffc4-19a7-4ea8-805d-ef95cd048208","ios":"levelo://app?vid=bb91ffc4-19a7-4ea8-805d-ef95cd048208"},"vehicle_type_id":"4","last_reported":1706321505,"current_range_meters":4800,"station_id":"ce4bguh2rcd13ifvqckg","pricing_plan_id":"free"},{"bike_id":"43f2e9a3-4e4c-4d41-8a34-9514a3e6c5d3","system_id":"levelo_inurba_marseille","lat":43.316039,"lon":5.373133,"is_reserved":false,"is_disabled":false,"rental_uris":{"android":"levelo://app?vid=43f2e9a3-4e4c-4d41-8a34-9514a3e6c5d3","ios":"levelo://app?vid=43f2e9a3-4e4c-4d41-8a34-9514a3e6c5d3"},"vehicle_type_id":"4","last_reported":1706321505,"current_range_meters":7200,"station_id":"","pricing_plan_id":"free"},{"bike_id":"9443e511-2e2d-41e7-a2cd-4c95bf03992f","system_id":"levelo_inurba_marseille","lat":43.31356,"lon":5.37622,"is_reserved":false,"is_disabled":false,"rental_uris":{"android":"levelo://app?vid=9443e511-2e2d-41e7-a2cd-4c95bf03992f","ios":"levelo://app?vid=9443e511-2e2d-41e7-a2cd-4c95bf03992f"},"vehicle_type_id":"4","last_reported":1706321505,"current_range_meters":9200,"station_id":"","pricing_plan_id":"free"},{"bike_id":"ad09e83a-b239-4429-a26a-3fd85b23a558","system_id":"levelo_inurba_marseille","lat":43.305368,"lon":5.367343,"is_reserved":false,"is_disabled":false,"rental_uris":{"android":"levelo://app?vid=ad09e83a-b239-4429-a26a-3fd85b23a558","ios":"levelo://app?vid=ad09e83a-b239-4429-a26a-3fd85b23a558"},"vehicle_type_id":"4","last_reported":1706321505,"current_range_meters":7600,"station_id":"ce4bgrp2rcd13ifvqc9g","pricing_plan_id":"free"},{"bike_id":"ef09c3c2-8900-4686-b9f9-2f770fb4868b","system_id":"levelo_inurba_marseille","lat":43.305989,"lon":5.37225,"is_reserved":false,"is_disabled":false,"rental_uris":{"android":"levelo://app?vid=ef09c3c2-8900-4686-b9f9-2f770fb4868b","ios":"levelo://app?vid=ef09c3c2-8900-4686-b9f9-2f770fb4868b"},"vehicle_type_id":"4","last_reported":1706321505,"current_range_meters":17200,"station_id":"ce4bgqh2rcd13ifvqc4g","pricing_plan_id":"free"},{"bike_id":"96ce1f16-b275-47b3-9921-0b10353c67d2","system_id":"levelo_inurba_marseille","lat":43.305989,"lon":5.37225,"is_reserved":false,"is_disabled":false,"rental_uris":{"android":"levelo://app?vid=96ce1f16-b275-47b3-9921-0b10353c67d2","ios":"levelo://app?vid=96ce1f16-b275-47b3-9921-0b10353c67d2"},"vehicle_type_id":"4","last_reported":1706321505,"current_range_meters":19600,"station_id":"ce4bgqh2rcd13ifvqc4g","pricing_plan_id":"free"},{"bike_id":"e663800a-4be7-4089-85df-af76e8c0dd4d","system_id":"levelo_inurba_marseille","lat":43.305989,"lon":5.37225,"is_reserved":false,"is_disabled":false,"rental_uris":{"android":"levelo://app?vid=e663800a-4be7-4089-85df-af76e8c0dd4d","ios":"levelo://app?vid=e663800a-4be7-4089-85df-af76e8c0dd4d"},"vehicle_type_id":"4","last_reported":1706321505,"current_range_meters":26000,"station_id":"ce4bgqh2rcd13ifvqc4g","pricing_plan_id":"free"},{"bike_id":"7912ef14-46e0-4fa3-8b27-205683eaa5c7","system_id":"levelo_inurba_marseille","lat":43.311231,"lon":5.377544,"is_reserved":false,"is_disabled":false,"rental_uris":{"android":"levelo://app?vid=7912ef14-46e0-4fa3-8b27-205683eaa5c7","ios":"levelo://app?vid=7912ef14-46e0-4fa3-8b27-205683eaa5c7"},"vehicle_type_id":"4","last_reported":1706321505,"current_range_meters":0,"station_id":"ce4bgt92rcd13ifvqcg0","pricing_plan_id":"free"},{"bike_id":"cdb8d2a9-d413-4c5a-ae7d-7ab5c7e1dd6f","system_id":"levelo_inurba_marseille","lat":43.31119,"lon":5.3776,"is_reserved":false,"is_disabled":false,"rental_uris":{"android":"levelo://app?vid=cdb8d2a9-d413-4c5a-ae7d-7ab5c7e1dd6f","ios":"levelo://app?vid=cdb8d2a9-d413-4c5a-ae7d-7ab5c7e1dd6f"},"vehicle_type_id":"4","last_reported":1706321505,"current_range_meters":6000,"station_id":"ce4bgt92rcd13ifvqcg0","pricing_plan_id":"free"},{"bike_id":"1c0d4dc0-325c-4866-8541-798517ba7f78","system_id":"levelo_inurba_marseille","lat":43.311081,"lon":5.37763,"is_reserved":false,"is_disabled":false,"rental_uris":{"android":"levelo://app?vid=1c0d4dc0-325c-4866-8541-798517ba7f78","ios":"levelo://app?vid=1c0d4dc0-325c-4866-8541-798517ba7f78"},"vehicle_type_id":"4","last_reported":1706321505,"current_range_meters":7600,"station_id":"ce4bgt92rcd13ifvqcg0","pricing_plan_id":"free"},{"bike_id":"f908880e-b233-4e54-9e91-657533675421","system_id":"levelo_inurba_marseille","lat":43.31115,"lon":5.37766,"is_reserved":false,"is_disabled":false,"rental_uris":{"android":"levelo://app?vid=f908880e-b233-4e54-9e91-657533675421","ios":"levelo://app?vid=f908880e-b233-4e54-9e91-657533675421"},"vehicle_type_id":"4","last_reported":1706321505,"current_range_meters":10400,"station_id":"ce4bgt92rcd13ifvqcg0","pricing_plan_id":"free"},{"bike_id":"d52aaad5-fe4b-4a40-9cb0-97e5e7f7f598","system_id":"levelo_inurba_marseille","lat":43.31112,"lon":5.3777,"is_reserved":false,"is_disabled":false,"rental_uris":{"android":"levelo://app?vid=d52aaad5-fe4b-4a40-9cb0-97e5e7f7f598","ios":"levelo://app?vid=d52aaad5-fe4b-4a40-9cb0-97e5e7f7f598"},"vehicle_type_id":"4","last_reported":1706321505,"current_range_meters":26000,"station_id":"ce4bgt92rcd13ifvqcg0","pricing_plan_id":"free"},{"bike_id":"7dab66cc-675b-4179-885d-da5983093bdf","system_id":"levelo_inurba_marseille","lat":43.31112,"lon":5.37774,"is_reserved":false,"is_disabled":false,"rental_uris":{"android":"levelo://app?vid=7dab66cc-675b-4179-885d-da5983093bdf","ios":"levelo://app?vid=7dab66cc-675b-4179-885d-da5983093bdf"},"vehicle_type_id":"4","last_reported":1706321505,"current_range_meters":4000,"station_id":"ce4bgt92rcd13ifvqcg0","pricing_plan_id":"free"},{"bike_id":"fd1a8f69-9c15-4cdb-97b1-96db5e1e66d5","system_id":"levelo_inurba_marseille","lat":43.311173,"lon":5.377779,"is_reserved":false,"is_disabled":false,"rental_uris":{"android":"levelo://app?vid=fd1a8f69-9c15-4cdb-97b1-96db5e1e66d5","ios":"levelo://app?vid=fd1a8f69-9c15-4cdb-97b1-96db5e1e66d5"},"vehicle_type_id":"4","last_reported":1706321505,"current_range_meters":6800,"station_id":"ce4bgt92rcd13ifvqcg0","pricing_plan_id":"free"},{"bike_id":"284e55a2-5919-4e84-a0e7-8321c7d1620b","system_id":"levelo_inurba_marseille","lat":43.307945,"lon":5.376487,"is_reserved":false,"is_disabled":false,"rental_uris":{"android":"levelo://app?vid=284e55a2-5919-4e84-a0e7-8321c7d1620b","ios":"levelo://app?vid=284e55a2-5919-4e84-a0e7-8321c7d1620b"},"vehicle_type_id":"4","last_reported":1706321505,"current_range_meters":15600,"station_id":"ce4bgv92rcd13ifvqcq0","pricing_plan_id":"free"},{"bike_id":"e455e920-4733-43cd-a5f1-8f042cd9061a","system_id":"levelo_inurba_marseille","lat":43.317075,"lon":5.377367,"is_reserved":false,"is_disabled":false,"rental_uris":{"android":"levelo://app?vid=e455e920-4733-43cd-a5f1-8f042cd9061a","ios":"levelo://app?vid=e455e920-4733-43cd-a5f1-8f042cd9061a"},"vehicle_type_id":"4","last_reported":1706321505,"current_range_meters":30000,"station_id":"ce4bgth2rcd13ifvqch0","pricing_plan_id":"free"},{"bike_id":"5b0a56ae-3d70-40f6-ad3f-78c604f89c73","system_id":"levelo_inurba_marseille","lat":43.312381,"lon":5.379887,"is_reserved":false,"is_disabled":false,"rental_uris":{"android":"levelo://app?vid=5b0a56ae-3d70-40f6-ad3f-78c604f89c73","ios":"levelo://app?vid=5b0a56ae-3d70-40f6-ad3f-78c604f89c73"},"vehicle_type_id":"4","last_reported":1706321505,"current_range_meters":16000,"station_id":"","pricing_plan_id":"free"},{"bike_id":"b83daeb9-a39c-4884-86e2-16a37c651f7f","system_id":"levelo_inurba_marseille","lat":43.32007,"lon":5.3761,"is_reserved":false,"is_disabled":false,"rental_uris":{"android":"levelo://app?vid=b83daeb9-a39c-4884-86e2-16a37c651f7f","ios":"levelo://app?vid=b83daeb9-a39c-4884-86e2-16a37c651f7f"},"vehicle_type_id":"4","last_reported":1706321505,"current_range_meters":12800,"station_id":"","pricing_plan_id":"free"},{"bike_id":"d250b205-490e-41c4-9152-182152b40e1b","system_id":"levelo_inurba_marseille","lat":43.301939,"lon":5.366286,"is_reserved":false,"is_disabled":false,"rental_uris":{"android":"levelo://app?vid=d250b205-490e-41c4-9152-182152b40e1b","ios":"levelo://app?vid=d250b205-490e-41c4-9152-182152b40e1b"},"vehicle_type_id":"4","last_reported":1706321505,"current_range_meters":9600,"station_id":"ce4bgrh2rcd13ifvqc8g","pricing_plan_id":"free"},{"bike_id":"d773b757-8180-4e59-8522-fbd9c783a0db","system_id":"levelo_inurba_marseille","lat":43.301939,"lon":5.366286,"is_reserved":false,"is_disabled":false,"rental_uris":{"android":"levelo://app?vid=d773b757-8180-4e59-8522-fbd9c783a0db","ios":"levelo://app?vid=d773b757-8180-4e59-8522-fbd9c783a0db"},"vehicle_type_id":"4","last_reported":1706321505,"current_range_meters":27600,"station_id":"ce4bgrh2rcd13ifvqc8g","pricing_plan_id":"free"},{"bike_id":"021ff07d-479f-484a-a979-f560bea82a72","system_id":"levelo_inurba_marseille","lat":43.308012,"lon":5.381511,"is_reserved":false,"is_disabled":false,"rental_uris":{"android":"levelo://app?vid=021ff07d-479f-484a-a979-f560bea82a72","ios":"levelo://app?vid=021ff07d-479f-484a-a979-f560bea82a72"},"vehicle_type_id":"4","last_reported":1706321505,"current_range_meters":22800,"station_id":"ce4bgt12rcd13ifvqce0","pricing_plan_id":"free"},{"bike_id":"a6522d76-e7b9-4674-b069-3052d8d1f457","system_id":"levelo_inurba_marseille","lat":43.30804,"lon":5.381607,"is_reserved":false,"is_disabled":false,"rental_uris":{"android":"levelo://app?vid=a6522d76-e7b9-4674-b069-3052d8d1f457","ios":"levelo://app?vid=a6522d76-e7b9-4674-b069-3052d8d1f457"},"vehicle_type_id":"4","last_reported":1706321505,"current_range_meters":0,"station_id":"ce4bgt12rcd13ifvqce0","pricing_plan_id":"free"},{"bike_id":"387adbba-7e92-4060-9d50-39a15b32664b","system_id":"levelo_inurba_marseille","lat":43.304606,"lon":5.379026,"is_reserved":false,"is_disabled":false,"rental_uris":{"android":"levelo://app?vid=387adbba-7e92-4060-9d50-39a15b32664b","ios":"levelo://app?vid=387adbba-7e92-4060-9d50-39a15b32664b"},"vehicle_type_id":"4","last_reported":1706321505,"current_range_meters":24400,"station_id":"ce4bgup2rcd13ifvqcn0","pricing_plan_id":"free"},{"bike_id":"70a34565-c5fc-44b7-8bee-b5475e5bc3c3","system_id":"levelo_inurba_marseille","lat":43.304606,"lon":5.379026,"is_reserved":false,"is_disabled":false,"rental_uris":{"android":"levelo://app?vid=70a34565-c5fc-44b7-8bee-b5475e5bc3c3","ios":"levelo://app?vid=70a34565-c5fc-44b7-8bee-b5475e5bc3c3"},"vehicle_type_id":"4","last_reported":1706321505,"current_range_meters":14800,"station_id":"ce4bgup2rcd13ifvqcn0","pricing_plan_id":"free"},{"bike_id":"e3cfa974-2663-4965-a96a-f55f3013619c","system_id":"levelo_inurba_marseille","lat":43.324771,"lon":5.36557,"is_reserved":false,"is_disabled":false,"rental_uris":{"android":"levelo://app?vid=e3cfa974-2663-4965-a96a-f55f3013619c","ios":"levelo://app?vid=e3cfa974-2663-4965-a96a-f55f3013619c"},"vehicle_type_id":"4","last_reported":1706321505,"current_range_meters":6400,"station_id":"ce4bhs12rcd13ifvqhvg","pricing_plan_id":"free"},{"bike_id":"ec40115e-0430-4944-8ece-51306c67ea7e","system_id":"levelo_inurba_marseille","lat":43.324771,"lon":5.36557,"is_reserved":false,"is_disabled":false,"rental_uris":{"android":"levelo://app?vid=ec40115e-0430-4944-8ece-51306c67ea7e","ios":"levelo://app?vid=ec40115e-0430-4944-8ece-51306c67ea7e"},"vehicle_type_id":"4","last_reported":1706321505,"current_range_meters":17200,"station_id":"ce4bhs12rcd13ifvqhvg","pricing_plan_id":"free"},{"bike_id":"88aa8230-dcc9-433d-96e4-513a284697d7","system_id":"levelo_inurba_marseille","lat":43.302784,"lon":5.377158,"is_reserved":false,"is_disabled":false,"rental_uris":{"android":"levelo://app?vid=88aa8230-dcc9-433d-96e4-513a284697d7","ios":"levelo://app?vid=88aa8230-dcc9-433d-96e4-513a284697d7"},"vehicle_type_id":"4","last_reported":1706321505,"current_range_meters":28000,"station_id":"ce4bguh2rcd13ifvqcj0","pricing_plan_id":"free"},{"bike_id":"fbd1c7c8-59f4-40f3-bd13-92a41198f404","system_id":"levelo_inurba_marseille","lat":43.319935,"lon":5.381699,"is_reserved":false,"is_disabled":false,"rental_uris":{"android":"levelo://app?vid=fbd1c7c8-59f4-40f3-bd13-92a41198f404","ios":"levelo://app?vid=fbd1c7c8-59f4-40f3-bd13-92a41198f404"},"vehicle_type_id":"4","last_reported":1706321505,"current_range_meters":18400,"station_id":"ce4bhr12rcd13ifvqhpg","pricing_plan_id":"free"},{"bike_id":"fc51b747-b33f-40c9-9c2c-bd6f886bc3e2","system_id":"levelo_inurba_marseille","lat":43.319887,"lon":5.381436,"is_reserved":false,"is_disabled":false,"rental_uris":{"android":"levelo://app?vid=fc51b747-b33f-40c9-9c2c-bd6f886bc3e2","ios":"levelo://app?vid=fc51b747-b33f-40c9-9c2c-bd6f886bc3e2"},"vehicle_type_id":"4","last_reported":1706321505,"current_range_meters":12000,"station_id":"ce4bhr12rcd13ifvqhpg","pricing_plan_id":"free"},{"bike_id":"d11a1f3a-d548-483b-8bfb-a3d43524c954","system_id":"levelo_inurba_marseille","lat":43.319935,"lon":5.381699,"is_reserved":false,"is_disabled":false,"rental_uris":{"android":"levelo://app?vid=d11a1f3a-d548-483b-8bfb-a3d43524c954","ios":"levelo://app?vid=d11a1f3a-d548-483b-8bfb-a3d43524c954"},"vehicle_type_id":"4","last_reported":1706321505,"current_range_meters":2000,"station_id":"ce4bhr12rcd13ifvqhpg","pricing_plan_id":"free"},{"bike_id":"5f7ec9ca-defa-4048-96f4-b62ebd1a927a","system_id":"levelo_inurba_marseille","lat":43.319935,"lon":5.381699,"is_reserved":false,"is_disabled":false,"rental_uris":{"android":"levelo://app?vid=5f7ec9ca-defa-4048-96f4-b62ebd1a927a","ios":"levelo://app?vid=5f7ec9ca-defa-4048-96f4-b62ebd1a927a"},"vehicle_type_id":"4","last_reported":1706321505,"current_range_meters":21200,"station_id":"ce4bhr12rcd13ifvqhpg","pricing_plan_id":"free"},{"bike_id":"01533f59-2c23-4279-b5fa-c0608335cf09","system_id":"levelo_inurba_marseille","lat":43.319965,"lon":5.381442,"is_reserved":false,"is_disabled":false,"rental_uris":{"android":"levelo://app?vid=01533f59-2c23-4279-b5fa-c0608335cf09","ios":"levelo://app?vid=01533f59-2c23-4279-b5fa-c0608335cf09"},"vehicle_type_id":"4","last_reported":1706321505,"current_range_meters":0,"station_id":"ce4bhr12rcd13ifvqhpg","pricing_plan_id":"free"},{"bike_id":"ae7ab608-8fac-4c0d-9f43-8ffacb07a49d","system_id":"levelo_inurba_marseille","lat":43.319935,"lon":5.381699,"is_reserved":false,"is_disabled":false,"rental_uris":{"android":"levelo://app?vid=ae7ab608-8fac-4c0d-9f43-8ffacb07a49d","ios":"levelo://app?vid=ae7ab608-8fac-4c0d-9f43-8ffacb07a49d"},"vehicle_type_id":"4","last_reported":1706321505,"current_range_meters":8000,"station_id":"ce4bhr12rcd13ifvqhpg","pricing_plan_id":"free"},{"bike_id":"fd388e30-6c90-4fbf-abdf-dd15ef425659","system_id":"levelo_inurba_marseille","lat":43.319967,"lon":5.381565,"is_reserved":false,"is_disabled":false,"rental_uris":{"android":"levelo://app?vid=fd388e30-6c90-4fbf-abdf-dd15ef425659","ios":"levelo://app?vid=fd388e30-6c90-4fbf-abdf-dd15ef425659"},"vehicle_type_id":"4","last_reported":1706321505,"current_range_meters":8400,"station_id":"ce4bhr12rcd13ifvqhpg","pricing_plan_id":"free"},{"bike_id":"0745b4d1-9e79-426b-b1e3-119ac777bd23","system_id":"levelo_inurba_marseille","lat":43.313571,"lon":5.384829,"is_reserved":false,"is_disabled":false,"rental_uris":{"android":"levelo://app?vid=0745b4d1-9e79-426b-b1e3-119ac777bd23","ios":"levelo://app?vid=0745b4d1-9e79-426b-b1e3-119ac777bd23"},"vehicle_type_id":"4","last_reported":1706321505,"current_range_meters":19200,"station_id":"ce4bgt92rcd13ifvqcf0","pricing_plan_id":"free"},{"bike_id":"3f71f3da-050f-4668-a998-540bbf7c73c6","system_id":"levelo_inurba_marseille","lat":43.313571,"lon":5.384829,"is_reserved":false,"is_disabled":false,"rental_uris":{"android":"levelo://app?vid=3f71f3da-050f-4668-a998-540bbf7c73c6","ios":"levelo://app?vid=3f71f3da-050f-4668-a998-540bbf7c73c6"},"vehicle_type_id":"4","last_reported":1706321505,"current_range_meters":10800,"station_id":"ce4bgt92rcd13ifvqcf0","pricing_plan_id":"free"},{"bike_id":"d8ff250a-ca41-4fc7-9862-6a29754ea5f0","system_id":"levelo_inurba_marseille","lat":43.313571,"lon":5.384829,"is_reserved":false,"is_disabled":false,"rental_uris":{"android":"levelo://app?vid=d8ff250a-ca41-4fc7-9862-6a29754ea5f0","ios":"levelo://app?vid=d8ff250a-ca41-4fc7-9862-6a29754ea5f0"},"vehicle_type_id":"4","last_reported":1706321505,"current_range_meters":0,"station_id":"ce4bgt92rcd13ifvqcf0","pricing_plan_id":"free"},{"bike_id":"ee38f10b-6334-4198-adeb-13a213a57db7","system_id":"levelo_inurba_marseille","lat":43.313571,"lon":5.384829,"is_reserved":false,"is_disabled":false,"rental_uris":{"android":"levelo://app?vid=ee38f10b-6334-4198-adeb-13a213a57db7","ios":"levelo://app?vid=ee38f10b-6334-4198-adeb-13a213a57db7"},"vehicle_type_id":"4","last_reported":1706321505,"current_range_meters":1200,"station_id":"ce4bgt92rcd13ifvqcf0","pricing_plan_id":"free"},{"bike_id":"fa99553e-6d81-4471-b25f-3dd2e4872672","system_id":"levelo_inurba_marseille","lat":43.313571,"lon":5.384829,"is_reserved":false,"is_disabled":false,"rental_uris":{"android":"levelo://app?vid=fa99553e-6d81-4471-b25f-3dd2e4872672","ios":"levelo://app?vid=fa99553e-6d81-4471-b25f-3dd2e4872672"},"vehicle_type_id":"4","last_reported":1706321505,"current_range_meters":20400,"station_id":"ce4bgt92rcd13ifvqcf0","pricing_plan_id":"free"},{"bike_id":"0bd36e5c-7621-40a2-ae6f-f370a7528550","system_id":"levelo_inurba_marseille","lat":43.313571,"lon":5.384829,"is_reserved":false,"is_disabled":false,"rental_uris":{"android":"levelo://app?vid=0bd36e5c-7621-40a2-ae6f-f370a7528550","ios":"levelo://app?vid=0bd36e5c-7621-40a2-ae6f-f370a7528550"},"vehicle_type_id":"4","last_reported":1706321505,"current_range_meters":26000,"station_id":"ce4bgt92rcd13ifvqcf0","pricing_plan_id":"free"},{"bike_id":"f226bc9b-d0ee-4677-812d-e273e55b0142","system_id":"levelo_inurba_marseille","lat":43.313571,"lon":5.384829,"is_reserved":false,"is_disabled":false,"rental_uris":{"android":"levelo://app?vid=f226bc9b-d0ee-4677-812d-e273e55b0142","ios":"levelo://app?vid=f226bc9b-d0ee-4677-812d-e273e55b0142"},"vehicle_type_id":"4","last_reported":1706321505,"current_range_meters":31600,"station_id":"ce4bgt92rcd13ifvqcf0","pricing_plan_id":"free"},{"bike_id":"cea66a01-1d2a-4e76-8123-213cfa6aa06c","system_id":"levelo_inurba_marseille","lat":43.313571,"lon":5.384829,"is_reserved":false,"is_disabled":false,"rental_uris":{"android":"levelo://app?vid=cea66a01-1d2a-4e76-8123-213cfa6aa06c","ios":"levelo://app?vid=cea66a01-1d2a-4e76-8123-213cfa6aa06c"},"vehicle_type_id":"4","last_reported":1706321505,"current_range_meters":31200,"station_id":"ce4bgt92rcd13ifvqcf0","pricing_plan_id":"free"},{"bike_id":"787051fb-7e71-468e-882a-5c08c9efd45b","system_id":"levelo_inurba_marseille","lat":43.313571,"lon":5.384829,"is_reserved":false,"is_disabled":false,"rental_uris":{"android":"levelo://app?vid=787051fb-7e71-468e-882a-5c08c9efd45b","ios":"levelo://app?vid=787051fb-7e71-468e-882a-5c08c9efd45b"},"vehicle_type_id":"4","last_reported":1706321505,"current_range_meters":21200,"station_id":"ce4bgt92rcd13ifvqcf0","pricing_plan_id":"free"},{"bike_id":"bff6272b-9e91-4839-8070-d2f2dd54b9cc","system_id":"levelo_inurba_marseille","lat":43.31366,"lon":5.38497,"is_reserved":false,"is_disabled":false,"rental_uris":{"android":"levelo://app?vid=bff6272b-9e91-4839-8070-d2f2dd54b9cc","ios":"levelo://app?vid=bff6272b-9e91-4839-8070-d2f2dd54b9cc"},"vehicle_type_id":"4","last_reported":1706321505,"current_range_meters":17600,"station_id":"ce4bgt92rcd13ifvqcf0","pricing_plan_id":"free"},{"bike_id":"3f88041b-1b04-4d57-9030-ee45f41f758c","system_id":"levelo_inurba_marseille","lat":43.300007,"lon":5.371537,"is_reserved":false,"is_disabled":false,"rental_uris":{"android":"levelo://app?vid=3f88041b-1b04-4d57-9030-ee45f41f758c","ios":"levelo://app?vid=3f88041b-1b04-4d57-9030-ee45f41f758c"},"vehicle_type_id":"4","last_reported":1706321505,"current_range_meters":15600,"station_id":"ce4bgr92rcd13ifvqc7g","pricing_plan_id":"free"},{"bike_id":"b2c50230-cc4d-4dad-92cb-6de6eaacfbb6","system_id":"levelo_inurba_marseille","lat":43.299222,"lon":5.365554,"is_reserved":false,"is_disabled":false,"rental_uris":{"android":"levelo://app?vid=b2c50230-cc4d-4dad-92cb-6de6eaacfbb6","ios":"levelo://app?vid=b2c50230-cc4d-4dad-92cb-6de6eaacfbb6"},"vehicle_type_id":"4","last_reported":1706321505,"current_range_meters":11200,"station_id":"ce4bgm92rcd13ifvqbr0","pricing_plan_id":"free"},{"bike_id":"a2dee511-2959-4a1b-b391-6a66a9bb6dad","system_id":"levelo_inurba_marseille","lat":43.30533,"lon":5.38422,"is_reserved":false,"is_disabled":false,"rental_uris":{"android":"levelo://app?vid=a2dee511-2959-4a1b-b391-6a66a9bb6dad","ios":"levelo://app?vid=a2dee511-2959-4a1b-b391-6a66a9bb6dad"},"vehicle_type_id":"4","last_reported":1706321505,"current_range_meters":0,"station_id":"ce4bgg92rcd13ifvqb30","pricing_plan_id":"free"},{"bike_id":"9ad4f450-34a0-4bde-94dd-e4dd5201c6fb","system_id":"levelo_inurba_marseille","lat":43.311722,"lon":5.387247,"is_reserved":false,"is_disabled":false,"rental_uris":{"android":"levelo://app?vid=9ad4f450-34a0-4bde-94dd-e4dd5201c6fb","ios":"levelo://app?vid=9ad4f450-34a0-4bde-94dd-e4dd5201c6fb"},"vehicle_type_id":"4","last_reported":1706321505,"current_range_meters":25600,"station_id":"ce4bgv12rcd13ifvqcp0","pricing_plan_id":"free"},{"bike_id":"271aff6e-ab3a-4c03-9e8c-c38d66ae8c40","system_id":"levelo_inurba_marseille","lat":43.299243,"lon":5.374807,"is_reserved":false,"is_disabled":false,"rental_uris":{"android":"levelo://app?vid=271aff6e-ab3a-4c03-9e8c-c38d66ae8c40","ios":"levelo://app?vid=271aff6e-ab3a-4c03-9e8c-c38d66ae8c40"},"vehicle_type_id":"4","last_reported":1706321505,"current_range_meters":28400,"station_id":"ce4bgjh2rcd13ifvqbg0","pricing_plan_id":"free"},{"bike_id":"62a87c8f-6e62-4308-bae9-3929b709c371","system_id":"levelo_inurba_marseille","lat":43.311722,"lon":5.387247,"is_reserved":false,"is_disabled":false,"rental_uris":{"android":"levelo://app?vid=62a87c8f-6e62-4308-bae9-3929b709c371","ios":"levelo://app?vid=62a87c8f-6e62-4308-bae9-3929b709c371"},"vehicle_type_id":"4","last_reported":1706321505,"current_range_meters":27600,"station_id":"ce4bgv12rcd13ifvqcp0","pricing_plan_id":"free"},{"bike_id":"4b0c6e12-6d86-4b50-92c7-ece6f563e5a2","system_id":"levelo_inurba_marseille","lat":43.299243,"lon":5.37481,"is_reserved":false,"is_disabled":false,"rental_uris":{"android":"levelo://app?vid=4b0c6e12-6d86-4b50-92c7-ece6f563e5a2","ios":"levelo://app?vid=4b0c6e12-6d86-4b50-92c7-ece6f563e5a2"},"vehicle_type_id":"4","last_reported":1706321505,"current_range_meters":14000,"station_id":"ce4bgjh2rcd13ifvqbg0","pricing_plan_id":"free"},{"bike_id":"94d0ccd4-7d90-4e96-b1d6-b2d54d7db676","system_id":"levelo_inurba_marseille","lat":43.303837,"lon":5.418724,"is_reserved":false,"is_disabled":false,"rental_uris":{"android":"levelo://app?vid=94d0ccd4-7d90-4e96-b1d6-b2d54d7db676","ios":"levelo://app?vid=94d0ccd4-7d90-4e96-b1d6-b2d54d7db676"},"vehicle_type_id":"4","last_reported":1706321505,"current_range_meters":30000,"station_id":"ce4bhop2rcd13ifvqh7g","pricing_plan_id":"free"},{"bike_id":"8889a62b-f08d-43d6-bbc3-74d3cb3d445f","system_id":"levelo_inurba_marseille","lat":43.322872,"lon":5.382756,"is_reserved":false,"is_disabled":false,"rental_uris":{"android":"levelo://app?vid=8889a62b-f08d-43d6-bbc3-74d3cb3d445f","ios":"levelo://app?vid=8889a62b-f08d-43d6-bbc3-74d3cb3d445f"},"vehicle_type_id":"4","last_reported":1706321505,"current_range_meters":31200,"station_id":"ce4bhr12rcd13ifvqhqg","pricing_plan_id":"free"},{"bike_id":"448ceccf-de0e-4e04-9ad9-52fbd4150784","system_id":"levelo_inurba_marseille","lat":43.328303,"lon":5.366583,"is_reserved":false,"is_disabled":false,"rental_uris":{"android":"levelo://app?vid=448ceccf-de0e-4e04-9ad9-52fbd4150784","ios":"levelo://app?vid=448ceccf-de0e-4e04-9ad9-52fbd4150784"},"vehicle_type_id":"4","last_reported":1706321505,"current_range_meters":2400,"station_id":"","pricing_plan_id":"free"},{"bike_id":"05d061de-efd2-4b42-809b-38b74ebaab78","system_id":"levelo_inurba_marseille","lat":43.297163,"lon":5.365866,"is_reserved":false,"is_disabled":false,"rental_uris":{"android":"levelo://app?vid=05d061de-efd2-4b42-809b-38b74ebaab78","ios":"levelo://app?vid=05d061de-efd2-4b42-809b-38b74ebaab78"},"vehicle_type_id":"4","last_reported":1706321505,"current_range_meters":23600,"station_id":"ce4bgn12rcd13ifvqbt0","pricing_plan_id":"free"},{"bike_id":"af9f98fc-1b38-483c-9bb8-cf5dbd0ec1e8","system_id":"levelo_inurba_marseille","lat":43.317557,"lon":5.390173,"is_reserved":false,"is_disabled":false,"rental_uris":{"android":"levelo://app?vid=af9f98fc-1b38-483c-9bb8-cf5dbd0ec1e8","ios":"levelo://app?vid=af9f98fc-1b38-483c-9bb8-cf5dbd0ec1e8"},"vehicle_type_id":"4","last_reported":1706321505,"current_range_meters":31200,"station_id":"ce4bhqp2rcd13ifvqhng","pricing_plan_id":"free"},{"bike_id":"5c4194e7-e53c-4201-8c19-b625935b093e","system_id":"levelo_inurba_marseille","lat":43.317557,"lon":5.390173,"is_reserved":false,"is_disabled":false,"rental_uris":{"android":"levelo://app?vid=5c4194e7-e53c-4201-8c19-b625935b093e","ios":"levelo://app?vid=5c4194e7-e53c-4201-8c19-b625935b093e"},"vehicle_type_id":"4","last_reported":1706321505,"current_range_meters":6400,"station_id":"ce4bhqp2rcd13ifvqhng","pricing_plan_id":"free"},{"bike_id":"5849c8f1-de07-480c-ab10-c023b55280ba","system_id":"levelo_inurba_marseille","lat":43.322494,"lon":5.387722,"is_reserved":false,"is_disabled":false,"rental_uris":{"android":"levelo://app?vid=5849c8f1-de07-480c-ab10-c023b55280ba","ios":"levelo://app?vid=5849c8f1-de07-480c-ab10-c023b55280ba"},"vehicle_type_id":"4","last_reported":1706321505,"current_range_meters":4000,"station_id":"","pricing_plan_id":"free"},{"bike_id":"f55d633b-c774-4781-9f56-613d6b5730d1","system_id":"levelo_inurba_marseille","lat":43.30431,"lon":5.38892,"is_reserved":false,"is_disabled":false,"rental_uris":{"android":"levelo://app?vid=f55d633b-c774-4781-9f56-613d6b5730d1","ios":"levelo://app?vid=f55d633b-c774-4781-9f56-613d6b5730d1"},"vehicle_type_id":"4","last_reported":1706321505,"current_range_meters":29200,"station_id":"ce4bgk12rcd13ifvqbi0","pricing_plan_id":"free"},{"bike_id":"18d6962f-6bb1-4095-aa46-5119b8abd473","system_id":"levelo_inurba_marseille","lat":43.30435,"lon":5.38895,"is_reserved":false,"is_disabled":false,"rental_uris":{"android":"levelo://app?vid=18d6962f-6bb1-4095-aa46-5119b8abd473","ios":"levelo://app?vid=18d6962f-6bb1-4095-aa46-5119b8abd473"},"vehicle_type_id":"4","last_reported":1706321505,"current_range_meters":31600,"station_id":"ce4bgk12rcd13ifvqbi0","pricing_plan_id":"free"},{"bike_id":"7ebcf5c9-2fbd-429e-a2e5-9abb3dcfb9c2","system_id":"levelo_inurba_marseille","lat":43.30435,"lon":5.38897,"is_reserved":false,"is_disabled":false,"rental_uris":{"android":"levelo://app?vid=7ebcf5c9-2fbd-429e-a2e5-9abb3dcfb9c2","ios":"levelo://app?vid=7ebcf5c9-2fbd-429e-a2e5-9abb3dcfb9c2"},"vehicle_type_id":"4","last_reported":1706321505,"current_range_meters":0,"station_id":"ce4bgk12rcd13ifvqbi0","pricing_plan_id":"free"},{"bike_id":"fc10a2fb-937d-4d62-bb7e-dee8853376a8","system_id":"levelo_inurba_marseille","lat":43.296263,"lon":5.377094,"is_reserved":false,"is_disabled":false,"rental_uris":{"android":"levelo://app?vid=fc10a2fb-937d-4d62-bb7e-dee8853376a8","ios":"levelo://app?vid=fc10a2fb-937d-4d62-bb7e-dee8853376a8"},"vehicle_type_id":"4","last_reported":1706321505,"current_range_meters":20000,"station_id":"ce4bgi92rcd13ifvqb90","pricing_plan_id":"free"},{"bike_id":"e99039eb-7b15-47ce-ae83-9d387251ea7d","system_id":"levelo_inurba_marseille","lat":43.29973,"lon":5.38494,"is_reserved":false,"is_disabled":false,"rental_uris":{"android":"levelo://app?vid=e99039eb-7b15-47ce-ae83-9d387251ea7d","ios":"levelo://app?vid=e99039eb-7b15-47ce-ae83-9d387251ea7d"},"vehicle_type_id":"4","last_reported":1706321505,"current_range_meters":5600,"station_id":"ce4bgj92rcd13ifvqbd0","pricing_plan_id":"free"},{"bike_id":"52c44c19-706b-4314-b054-530b9419e3b0","system_id":"levelo_inurba_marseille","lat":43.299717,"lon":5.384845,"is_reserved":false,"is_disabled":false,"rental_uris":{"android":"levelo://app?vid=52c44c19-706b-4314-b054-530b9419e3b0","ios":"levelo://app?vid=52c44c19-706b-4314-b054-530b9419e3b0"},"vehicle_type_id":"4","last_reported":1706321505,"current_range_meters":13600,"station_id":"ce4bgj92rcd13ifvqbd0","pricing_plan_id":"free"},{"bike_id":"cc680ffc-18d0-460c-8e59-3e7274eade26","system_id":"levelo_inurba_marseille","lat":43.29969,"lon":5.3849,"is_reserved":false,"is_disabled":false,"rental_uris":{"android":"levelo://app?vid=cc680ffc-18d0-460c-8e59-3e7274eade26","ios":"levelo://app?vid=cc680ffc-18d0-460c-8e59-3e7274eade26"},"vehicle_type_id":"4","last_reported":1706321505,"current_range_meters":4000,"station_id":"ce4bgj92rcd13ifvqbd0","pricing_plan_id":"free"},{"bike_id":"a17f8a5a-dcca-4ffd-ad30-61e9f9690c48","system_id":"levelo_inurba_marseille","lat":43.299707,"lon":5.384859,"is_reserved":false,"is_disabled":false,"rental_uris":{"android":"levelo://app?vid=a17f8a5a-dcca-4ffd-ad30-61e9f9690c48","ios":"levelo://app?vid=a17f8a5a-dcca-4ffd-ad30-61e9f9690c48"},"vehicle_type_id":"4","last_reported":1706321505,"current_range_meters":26000,"station_id":"ce4bgj92rcd13ifvqbd0","pricing_plan_id":"free"},{"bike_id":"40996b4a-fac6-4cc2-a8e8-9a9ba72f10c9","system_id":"levelo_inurba_marseille","lat":43.298614,"lon":5.383962,"is_reserved":false,"is_disabled":false,"rental_uris":{"android":"levelo://app?vid=40996b4a-fac6-4cc2-a8e8-9a9ba72f10c9","ios":"levelo://app?vid=40996b4a-fac6-4cc2-a8e8-9a9ba72f10c9"},"vehicle_type_id":"4","last_reported":1706321505,"current_range_meters":10800,"station_id":"","pricing_plan_id":"free"},{"bike_id":"110e294d-4ae1-4d3c-9a1c-3e70b490847b","system_id":"levelo_inurba_marseille","lat":43.32367,"lon":5.388836,"is_reserved":false,"is_disabled":false,"rental_uris":{"android":"levelo://app?vid=110e294d-4ae1-4d3c-9a1c-3e70b490847b","ios":"levelo://app?vid=110e294d-4ae1-4d3c-9a1c-3e70b490847b"},"vehicle_type_id":"4","last_reported":1706321505,"current_range_meters":9200,"station_id":"ce4bhqp2rcd13ifvqhog","pricing_plan_id":"free"},{"bike_id":"0ea3fd81-3f73-43eb-a24e-cc7fa2617f9d","system_id":"levelo_inurba_marseille","lat":43.32367,"lon":5.388836,"is_reserved":false,"is_disabled":false,"rental_uris":{"android":"levelo://app?vid=0ea3fd81-3f73-43eb-a24e-cc7fa2617f9d","ios":"levelo://app?vid=0ea3fd81-3f73-43eb-a24e-cc7fa2617f9d"},"vehicle_type_id":"4","last_reported":1706321505,"current_range_meters":6400,"station_id":"ce4bhqp2rcd13ifvqhog","pricing_plan_id":"free"},{"bike_id":"def703ed-e78e-4412-a809-c10b7fb945a5","system_id":"levelo_inurba_marseille","lat":43.323638,"lon":5.388813,"is_reserved":false,"is_disabled":false,"rental_uris":{"android":"levelo://app?vid=def703ed-e78e-4412-a809-c10b7fb945a5","ios":"levelo://app?vid=def703ed-e78e-4412-a809-c10b7fb945a5"},"vehicle_type_id":"4","last_reported":1706321505,"current_range_meters":26400,"station_id":"ce4bhqp2rcd13ifvqhog","pricing_plan_id":"free"},{"bike_id":"cec4ad59-07b9-4fac-98fd-7e0e4d5c0fc2","system_id":"levelo_inurba_marseille","lat":43.32367,"lon":5.388836,"is_reserved":false,"is_disabled":false,"rental_uris":{"android":"levelo://app?vid=cec4ad59-07b9-4fac-98fd-7e0e4d5c0fc2","ios":"levelo://app?vid=cec4ad59-07b9-4fac-98fd-7e0e4d5c0fc2"},"vehicle_type_id":"4","last_reported":1706321505,"current_range_meters":12000,"station_id":"ce4bhqp2rcd13ifvqhog","pricing_plan_id":"free"},{"bike_id":"d7803bed-fb47-4ba6-b32d-728fc496b369","system_id":"levelo_inurba_marseille","lat":43.32367,"lon":5.388836,"is_reserved":false,"is_disabled":false,"rental_uris":{"android":"levelo://app?vid=d7803bed-fb47-4ba6-b32d-728fc496b369","ios":"levelo://app?vid=d7803bed-fb47-4ba6-b32d-728fc496b369"},"vehicle_type_id":"4","last_reported":1706321505,"current_range_meters":15200,"station_id":"ce4bhqp2rcd13ifvqhog","pricing_plan_id":"free"},{"bike_id":"439458f2-c468-43ac-8531-4372a5b8883a","system_id":"levelo_inurba_marseille","lat":43.32367,"lon":5.388836,"is_reserved":false,"is_disabled":false,"rental_uris":{"android":"levelo://app?vid=439458f2-c468-43ac-8531-4372a5b8883a","ios":"levelo://app?vid=439458f2-c468-43ac-8531-4372a5b8883a"},"vehicle_type_id":"4","last_reported":1706321505,"current_range_meters":20000,"station_id":"ce4bhqp2rcd13ifvqhog","pricing_plan_id":"free"},{"bike_id":"6d4e98a9-3b8c-4251-9bc4-f50fadfe25a7","system_id":"levelo_inurba_marseille","lat":43.323637,"lon":5.388902,"is_reserved":false,"is_disabled":false,"rental_uris":{"android":"levelo://app?vid=6d4e98a9-3b8c-4251-9bc4-f50fadfe25a7","ios":"levelo://app?vid=6d4e98a9-3b8c-4251-9bc4-f50fadfe25a7"},"vehicle_type_id":"4","last_reported":1706321505,"current_range_meters":22800,"station_id":"ce4bhqp2rcd13ifvqhog","pricing_plan_id":"free"},{"bike_id":"487a1ff6-7429-4195-8de6-81d7ed10c898","system_id":"levelo_inurba_marseille","lat":43.292749,"lon":5.368402,"is_reserved":false,"is_disabled":false,"rental_uris":{"android":"levelo://app?vid=487a1ff6-7429-4195-8de6-81d7ed10c898","ios":"levelo://app?vid=487a1ff6-7429-4195-8de6-81d7ed10c898"},"vehicle_type_id":"4","last_reported":1706321505,"current_range_meters":0,"station_id":"ce4bhbp2rcd13ifvqesg","pricing_plan_id":"free"},{"bike_id":"d80f6b1d-9c14-4edc-ae56-cb4ab6c10e08","system_id":"levelo_inurba_marseille","lat":43.292749,"lon":5.368402,"is_reserved":false,"is_disabled":false,"rental_uris":{"android":"levelo://app?vid=d80f6b1d-9c14-4edc-ae56-cb4ab6c10e08","ios":"levelo://app?vid=d80f6b1d-9c14-4edc-ae56-cb4ab6c10e08"},"vehicle_type_id":"4","last_reported":1706321505,"current_range_meters":0,"station_id":"ce4bhbp2rcd13ifvqesg","pricing_plan_id":"free"},{"bike_id":"63cdf5cc-6292-451b-bb97-603568c9ce6f","system_id":"levelo_inurba_marseille","lat":43.297328,"lon":5.384769,"is_reserved":false,"is_disabled":false,"rental_uris":{"android":"levelo://app?vid=63cdf5cc-6292-451b-bb97-603568c9ce6f","ios":"levelo://app?vid=63cdf5cc-6292-451b-bb97-603568c9ce6f"},"vehicle_type_id":"4","last_reported":1706321505,"current_range_meters":0,"station_id":"","pricing_plan_id":"free"},{"bike_id":"9c75026f-c802-4f10-b01f-da139cf5b711","system_id":"levelo_inurba_marseille","lat":43.30094,"lon":5.39089,"is_reserved":false,"is_disabled":false,"rental_uris":{"android":"levelo://app?vid=9c75026f-c802-4f10-b01f-da139cf5b711","ios":"levelo://app?vid=9c75026f-c802-4f10-b01f-da139cf5b711"},"vehicle_type_id":"4","last_reported":1706321505,"current_range_meters":0,"station_id":"ce4bh192rcd13ifvqdb0","pricing_plan_id":"free"},{"bike_id":"b63fa0aa-764f-4d3d-aad1-83027e880821","system_id":"levelo_inurba_marseille","lat":43.298764,"lon":5.388973,"is_reserved":false,"is_disabled":false,"rental_uris":{"android":"levelo://app?vid=b63fa0aa-764f-4d3d-aad1-83027e880821","ios":"levelo://app?vid=b63fa0aa-764f-4d3d-aad1-83027e880821"},"vehicle_type_id":"4","last_reported":1706321505,"current_range_meters":16400,"station_id":"ce4bh392rcd13ifvqdl0","pricing_plan_id":"free"},{"bike_id":"2cdd5039-e8ec-441b-9bd5-4c34b690b828","system_id":"levelo_inurba_marseille","lat":43.304859,"lon":5.394185,"is_reserved":false,"is_disabled":false,"rental_uris":{"android":"levelo://app?vid=2cdd5039-e8ec-441b-9bd5-4c34b690b828","ios":"levelo://app?vid=2cdd5039-e8ec-441b-9bd5-4c34b690b828"},"vehicle_type_id":"4","last_reported":1706321505,"current_range_meters":22000,"station_id":"","pricing_plan_id":"free"},{"bike_id":"4ceaa5d3-e55f-4fcc-962d-0679a653bea3","system_id":"levelo_inurba_marseille","lat":43.309038,"lon":5.396546,"is_reserved":false,"is_disabled":false,"rental_uris":{"android":"levelo://app?vid=4ceaa5d3-e55f-4fcc-962d-0679a653bea3","ios":"levelo://app?vid=4ceaa5d3-e55f-4fcc-962d-0679a653bea3"},"vehicle_type_id":"4","last_reported":1706321505,"current_range_meters":22800,"station_id":"ce4bh012rcd13ifvqcv0","pricing_plan_id":"free"},{"bike_id":"fd2f2ccf-6ddc-4457-a087-cb5ebeff818e","system_id":"levelo_inurba_marseille","lat":43.309038,"lon":5.396546,"is_reserved":false,"is_disabled":false,"rental_uris":{"android":"levelo://app?vid=fd2f2ccf-6ddc-4457-a087-cb5ebeff818e","ios":"levelo://app?vid=fd2f2ccf-6ddc-4457-a087-cb5ebeff818e"},"vehicle_type_id":"4","last_reported":1706321505,"current_range_meters":31200,"station_id":"ce4bh012rcd13ifvqcv0","pricing_plan_id":"free"},{"bike_id":"f22ea6b4-dd47-4f9a-8afb-1db7640deca3","system_id":"levelo_inurba_marseille","lat":43.313303,"lon":5.396888,"is_reserved":false,"is_disabled":false,"rental_uris":{"android":"levelo://app?vid=f22ea6b4-dd47-4f9a-8afb-1db7640deca3","ios":"levelo://app?vid=f22ea6b4-dd47-4f9a-8afb-1db7640deca3"},"vehicle_type_id":"4","last_reported":1706321505,"current_range_meters":12400,"station_id":"ce4bgvp2rcd13ifvqcu0","pricing_plan_id":"free"},{"bike_id":"d58abf0d-530f-4a05-8a9e-e854f5ba3769","system_id":"levelo_inurba_marseille","lat":43.309038,"lon":5.396546,"is_reserved":false,"is_disabled":false,"rental_uris":{"android":"levelo://app?vid=d58abf0d-530f-4a05-8a9e-e854f5ba3769","ios":"levelo://app?vid=d58abf0d-530f-4a05-8a9e-e854f5ba3769"},"vehicle_type_id":"4","last_reported":1706321505,"current_range_meters":0,"station_id":"ce4bh012rcd13ifvqcv0","pricing_plan_id":"free"},{"bike_id":"4917b6d1-4cf6-45d1-8738-f6d6d91e3443","system_id":"levelo_inurba_marseille","lat":43.309047,"lon":5.396551,"is_reserved":false,"is_disabled":false,"rental_uris":{"android":"levelo://app?vid=4917b6d1-4cf6-45d1-8738-f6d6d91e3443","ios":"levelo://app?vid=4917b6d1-4cf6-45d1-8738-f6d6d91e3443"},"vehicle_type_id":"4","last_reported":1706321505,"current_range_meters":25600,"station_id":"ce4bh012rcd13ifvqcv0","pricing_plan_id":"free"},{"bike_id":"e268001a-d187-406c-ab44-5fde66a15841","system_id":"levelo_inurba_marseille","lat":43.313291,"lon":5.396838,"is_reserved":false,"is_disabled":false,"rental_uris":{"android":"levelo://app?vid=e268001a-d187-406c-ab44-5fde66a15841","ios":"levelo://app?vid=e268001a-d187-406c-ab44-5fde66a15841"},"vehicle_type_id":"4","last_reported":1706321505,"current_range_meters":22000,"station_id":"ce4bgvp2rcd13ifvqcu0","pricing_plan_id":"free"},{"bike_id":"dab8e0ee-47f2-4bcc-8277-d78f5ee2cc53","system_id":"levelo_inurba_marseille","lat":43.31327,"lon":5.39693,"is_reserved":false,"is_disabled":false,"rental_uris":{"android":"levelo://app?vid=dab8e0ee-47f2-4bcc-8277-d78f5ee2cc53","ios":"levelo://app?vid=dab8e0ee-47f2-4bcc-8277-d78f5ee2cc53"},"vehicle_type_id":"4","last_reported":1706321505,"current_range_meters":0,"station_id":"ce4bgvp2rcd13ifvqcu0","pricing_plan_id":"free"},{"bike_id":"dfc37c8a-0875-4b9d-aba0-31912e3b37ca","system_id":"levelo_inurba_marseille","lat":43.313291,"lon":5.396838,"is_reserved":false,"is_disabled":false,"rental_uris":{"android":"levelo://app?vid=dfc37c8a-0875-4b9d-aba0-31912e3b37ca","ios":"levelo://app?vid=dfc37c8a-0875-4b9d-aba0-31912e3b37ca"},"vehicle_type_id":"4","last_reported":1706321505,"current_range_meters":13200,"station_id":"ce4bgvp2rcd13ifvqcu0","pricing_plan_id":"free"},{"bike_id":"fc08f2a2-7fad-40e9-b2da-60d151623b28","system_id":"levelo_inurba_marseille","lat":43.29566,"lon":5.38724,"is_reserved":false,"is_disabled":false,"rental_uris":{"android":"levelo://app?vid=fc08f2a2-7fad-40e9-b2da-60d151623b28","ios":"levelo://app?vid=fc08f2a2-7fad-40e9-b2da-60d151623b28"},"vehicle_type_id":"4","last_reported":1706321505,"current_range_meters":7600,"station_id":"","pricing_plan_id":"free"},{"bike_id":"d9dd3871-9de1-415d-8742-61bb7082fbd8","system_id":"levelo_inurba_marseille","lat":43.302008,"lon":5.394694,"is_reserved":false,"is_disabled":false,"rental_uris":{"android":"levelo://app?vid=d9dd3871-9de1-415d-8742-61bb7082fbd8","ios":"levelo://app?vid=d9dd3871-9de1-415d-8742-61bb7082fbd8"},"vehicle_type_id":"4","last_reported":1706321505,"current_range_meters":0,"station_id":"ce4bh0p2rcd13ifvqd70","pricing_plan_id":"free"},{"bike_id":"2f9947b7-a955-4e5a-b62e-a5f8f6e11093","system_id":"levelo_inurba_marseille","lat":43.290624,"lon":5.359245,"is_reserved":false,"is_disabled":false,"rental_uris":{"android":"levelo://app?vid=2f9947b7-a955-4e5a-b62e-a5f8f6e11093","ios":"levelo://app?vid=2f9947b7-a955-4e5a-b62e-a5f8f6e11093"},"vehicle_type_id":"4","last_reported":1706321505,"current_range_meters":30000,"station_id":"ce4bha92rcd13ifvqeg0","pricing_plan_id":"free"},{"bike_id":"891e97dd-bca4-4186-9730-f674ee6f6a87","system_id":"levelo_inurba_marseille","lat":43.290631,"lon":5.359244,"is_reserved":false,"is_disabled":false,"rental_uris":{"android":"levelo://app?vid=891e97dd-bca4-4186-9730-f674ee6f6a87","ios":"levelo://app?vid=891e97dd-bca4-4186-9730-f674ee6f6a87"},"vehicle_type_id":"4","last_reported":1706321505,"current_range_meters":18000,"station_id":"ce4bha92rcd13ifvqeg0","pricing_plan_id":"free"},{"bike_id":"18295b90-a400-4ff9-af5b-9af8fd5622c7","system_id":"levelo_inurba_marseille","lat":43.28967,"lon":5.3662,"is_reserved":false,"is_disabled":false,"rental_uris":{"android":"levelo://app?vid=18295b90-a400-4ff9-af5b-9af8fd5622c7","ios":"levelo://app?vid=18295b90-a400-4ff9-af5b-9af8fd5622c7"},"vehicle_type_id":"4","last_reported":1706321505,"current_range_meters":15600,"station_id":"","pricing_plan_id":"free"},{"bike_id":"bb4a131a-ed80-4e83-91fe-a087526f7e9c","system_id":"levelo_inurba_marseille","lat":43.294153,"lon":5.386305,"is_reserved":false,"is_disabled":false,"rental_uris":{"android":"levelo://app?vid=bb4a131a-ed80-4e83-91fe-a087526f7e9c","ios":"levelo://app?vid=bb4a131a-ed80-4e83-91fe-a087526f7e9c"},"vehicle_type_id":"4","last_reported":1706321505,"current_range_meters":11600,"station_id":"ce4bh2h2rcd13ifvqdh0","pricing_plan_id":"free"},{"bike_id":"693c8e8b-2c18-44b1-b30e-56f515fae09b","system_id":"levelo_inurba_marseille","lat":43.29414,"lon":5.3863,"is_reserved":false,"is_disabled":false,"rental_uris":{"android":"levelo://app?vid=693c8e8b-2c18-44b1-b30e-56f515fae09b","ios":"levelo://app?vid=693c8e8b-2c18-44b1-b30e-56f515fae09b"},"vehicle_type_id":"4","last_reported":1706321505,"current_range_meters":0,"station_id":"ce4bh2h2rcd13ifvqdh0","pricing_plan_id":"free"},{"bike_id":"c57a30ea-62da-489f-892c-9038a3d1bf17","system_id":"levelo_inurba_marseille","lat":43.289184,"lon":5.366408,"is_reserved":false,"is_disabled":false,"rental_uris":{"android":"levelo://app?vid=c57a30ea-62da-489f-892c-9038a3d1bf17","ios":"levelo://app?vid=c57a30ea-62da-489f-892c-9038a3d1bf17"},"vehicle_type_id":"4","last_reported":1706321505,"current_range_meters":10400,"station_id":"ce4bhap2rcd13ifvqek0","pricing_plan_id":"free"},{"bike_id":"fdc25b4e-f10e-4f32-8bee-17016af052a7","system_id":"levelo_inurba_marseille","lat":43.28934,"lon":5.36629,"is_reserved":false,"is_disabled":false,"rental_uris":{"android":"levelo://app?vid=fdc25b4e-f10e-4f32-8bee-17016af052a7","ios":"levelo://app?vid=fdc25b4e-f10e-4f32-8bee-17016af052a7"},"vehicle_type_id":"4","last_reported":1706321505,"current_range_meters":0,"station_id":"ce4bhap2rcd13ifvqek0","pricing_plan_id":"free"},{"bike_id":"5974ed56-6f0a-434f-b50e-f26052815770","system_id":"levelo_inurba_marseille","lat":43.289184,"lon":5.366408,"is_reserved":false,"is_disabled":false,"rental_uris":{"android":"levelo://app?vid=5974ed56-6f0a-434f-b50e-f26052815770","ios":"levelo://app?vid=5974ed56-6f0a-434f-b50e-f26052815770"},"vehicle_type_id":"4","last_reported":1706321505,"current_range_meters":14800,"station_id":"ce4bhap2rcd13ifvqek0","pricing_plan_id":"free"},{"bike_id":"79a06bed-b6fc-45a1-82f5-4c17f490d569","system_id":"levelo_inurba_marseille","lat":43.309152,"lon":5.399566,"is_reserved":false,"is_disabled":false,"rental_uris":{"android":"levelo://app?vid=79a06bed-b6fc-45a1-82f5-4c17f490d569","ios":"levelo://app?vid=79a06bed-b6fc-45a1-82f5-4c17f490d569"},"vehicle_type_id":"4","last_reported":1706321505,"current_range_meters":23600,"station_id":"","pricing_plan_id":"free"},{"bike_id":"d429f139-b8a2-4ae9-9f5c-d66bc4ee1c87","system_id":"levelo_inurba_marseille","lat":43.290103,"lon":5.356114,"is_reserved":false,"is_disabled":false,"rental_uris":{"android":"levelo://app?vid=d429f139-b8a2-4ae9-9f5c-d66bc4ee1c87","ios":"levelo://app?vid=d429f139-b8a2-4ae9-9f5c-d66bc4ee1c87"},"vehicle_type_id":"4","last_reported":1706321505,"current_range_meters":26800,"station_id":"ce4bhb92rcd13ifvqen0","pricing_plan_id":"free"},{"bike_id":"31f6801a-44bc-4e3c-90fb-1970e3d12065","system_id":"levelo_inurba_marseille","lat":43.297868,"lon":5.393398,"is_reserved":false,"is_disabled":false,"rental_uris":{"android":"levelo://app?vid=31f6801a-44bc-4e3c-90fb-1970e3d12065","ios":"levelo://app?vid=31f6801a-44bc-4e3c-90fb-1970e3d12065"},"vehicle_type_id":"4","last_reported":1706321505,"current_range_meters":23600,"station_id":"chh1huq6cuj3fo74tm60","pricing_plan_id":"free"},{"bike_id":"cb0ee914-4341-4384-a23e-77af0063be97","system_id":"levelo_inurba_marseille","lat":43.29787,"lon":5.39347,"is_reserved":false,"is_disabled":false,"rental_uris":{"android":"levelo://app?vid=cb0ee914-4341-4384-a23e-77af0063be97","ios":"levelo://app?vid=cb0ee914-4341-4384-a23e-77af0063be97"},"vehicle_type_id":"4","last_reported":1706321505,"current_range_meters":24000,"station_id":"chh1huq6cuj3fo74tm60","pricing_plan_id":"free"},{"bike_id":"02e686b2-d2cb-4d54-a21e-1a720d7ede2c","system_id":"levelo_inurba_marseille","lat":43.330442,"lon":5.389148,"is_reserved":false,"is_disabled":false,"rental_uris":{"android":"levelo://app?vid=02e686b2-d2cb-4d54-a21e-1a720d7ede2c","ios":"levelo://app?vid=02e686b2-d2cb-4d54-a21e-1a720d7ede2c"},"vehicle_type_id":"4","last_reported":1706321505,"current_range_meters":2800,"station_id":"ce4bhr92rcd13ifvqhrg","pricing_plan_id":"free"},{"bike_id":"45ed4d9a-621f-47ff-8adc-fb72bab1e0f5","system_id":"levelo_inurba_marseille","lat":43.295169,"lon":5.390426,"is_reserved":false,"is_disabled":false,"rental_uris":{"android":"levelo://app?vid=45ed4d9a-621f-47ff-8adc-fb72bab1e0f5","ios":"levelo://app?vid=45ed4d9a-621f-47ff-8adc-fb72bab1e0f5"},"vehicle_type_id":"4","last_reported":1706321505,"current_range_meters":14000,"station_id":"ce4bh3p2rcd13ifvqdp0","pricing_plan_id":"free"},{"bike_id":"5a209069-e45f-4de8-99d4-66756d5da367","system_id":"levelo_inurba_marseille","lat":43.28856,"lon":5.358371,"is_reserved":false,"is_disabled":false,"rental_uris":{"android":"levelo://app?vid=5a209069-e45f-4de8-99d4-66756d5da367","ios":"levelo://app?vid=5a209069-e45f-4de8-99d4-66756d5da367"},"vehicle_type_id":"4","last_reported":1706321505,"current_range_meters":10800,"station_id":"ce4bhb12rcd13ifvqem0","pricing_plan_id":"free"},{"bike_id":"3e8250c4-7892-4712-900c-b50082c9d1ba","system_id":"levelo_inurba_marseille","lat":43.312609,"lon":5.401662,"is_reserved":false,"is_disabled":false,"rental_uris":{"android":"levelo://app?vid=3e8250c4-7892-4712-900c-b50082c9d1ba","ios":"levelo://app?vid=3e8250c4-7892-4712-900c-b50082c9d1ba"},"vehicle_type_id":"4","last_reported":1706321505,"current_range_meters":14400,"station_id":"ce4bh092rcd13ifvqd30","pricing_plan_id":"free"},{"bike_id":"6257c317-3a6c-42a3-a774-371510e87d3d","system_id":"levelo_inurba_marseille","lat":43.312609,"lon":5.401662,"is_reserved":false,"is_disabled":false,"rental_uris":{"android":"levelo://app?vid=6257c317-3a6c-42a3-a774-371510e87d3d","ios":"levelo://app?vid=6257c317-3a6c-42a3-a774-371510e87d3d"},"vehicle_type_id":"4","last_reported":1706321505,"current_range_meters":0,"station_id":"ce4bh092rcd13ifvqd30","pricing_plan_id":"free"},{"bike_id":"b11abc06-83f9-44c4-a2e8-c4f89cee6a71","system_id":"levelo_inurba_marseille","lat":43.312609,"lon":5.401662,"is_reserved":false,"is_disabled":false,"rental_uris":{"android":"levelo://app?vid=b11abc06-83f9-44c4-a2e8-c4f89cee6a71","ios":"levelo://app?vid=b11abc06-83f9-44c4-a2e8-c4f89cee6a71"},"vehicle_type_id":"4","last_reported":1706321505,"current_range_meters":22800,"station_id":"ce4bh092rcd13ifvqd30","pricing_plan_id":"free"},{"bike_id":"d3f9bfb1-3059-46b7-b44a-998b305b324a","system_id":"levelo_inurba_marseille","lat":43.312609,"lon":5.401662,"is_reserved":false,"is_disabled":false,"rental_uris":{"android":"levelo://app?vid=d3f9bfb1-3059-46b7-b44a-998b305b324a","ios":"levelo://app?vid=d3f9bfb1-3059-46b7-b44a-998b305b324a"},"vehicle_type_id":"4","last_reported":1706321505,"current_range_meters":4400,"station_id":"ce4bh092rcd13ifvqd30","pricing_plan_id":"free"},{"bike_id":"80619721-c47b-465e-91e5-2c2140b94eda","system_id":"levelo_inurba_marseille","lat":43.309371,"lon":5.401449,"is_reserved":false,"is_disabled":false,"rental_uris":{"android":"levelo://app?vid=80619721-c47b-465e-91e5-2c2140b94eda","ios":"levelo://app?vid=80619721-c47b-465e-91e5-2c2140b94eda"},"vehicle_type_id":"4","last_reported":1706321505,"current_range_meters":14800,"station_id":"ce4bgvp2rcd13ifvqct0","pricing_plan_id":"free"},{"bike_id":"a955b3e1-d2f0-4235-a805-c4e33bb52b48","system_id":"levelo_inurba_marseille","lat":43.312609,"lon":5.401662,"is_reserved":false,"is_disabled":false,"rental_uris":{"android":"levelo://app?vid=a955b3e1-d2f0-4235-a805-c4e33bb52b48","ios":"levelo://app?vid=a955b3e1-d2f0-4235-a805-c4e33bb52b48"},"vehicle_type_id":"4","last_reported":1706321505,"current_range_meters":11200,"station_id":"ce4bh092rcd13ifvqd30","pricing_plan_id":"free"},{"bike_id":"a474cd44-8dc2-4612-9cbc-ff001672523a","system_id":"levelo_inurba_marseille","lat":43.30932,"lon":5.4014,"is_reserved":false,"is_disabled":false,"rental_uris":{"android":"levelo://app?vid=a474cd44-8dc2-4612-9cbc-ff001672523a","ios":"levelo://app?vid=a474cd44-8dc2-4612-9cbc-ff001672523a"},"vehicle_type_id":"4","last_reported":1706321505,"current_range_meters":6000,"station_id":"ce4bgvp2rcd13ifvqct0","pricing_plan_id":"free"},{"bike_id":"a797ffc5-c458-40ba-9bc9-6560dd2a2969","system_id":"levelo_inurba_marseille","lat":43.312609,"lon":5.401662,"is_reserved":false,"is_disabled":false,"rental_uris":{"android":"levelo://app?vid=a797ffc5-c458-40ba-9bc9-6560dd2a2969","ios":"levelo://app?vid=a797ffc5-c458-40ba-9bc9-6560dd2a2969"},"vehicle_type_id":"4","last_reported":1706321505,"current_range_meters":30000,"station_id":"ce4bh092rcd13ifvqd30","pricing_plan_id":"free"},{"bike_id":"eb006cec-40ad-4259-bf5d-87751f7ad9c3","system_id":"levelo_inurba_marseille","lat":43.30934,"lon":5.40148,"is_reserved":false,"is_disabled":false,"rental_uris":{"android":"levelo://app?vid=eb006cec-40ad-4259-bf5d-87751f7ad9c3","ios":"levelo://app?vid=eb006cec-40ad-4259-bf5d-87751f7ad9c3"},"vehicle_type_id":"4","last_reported":1706321505,"current_range_meters":20000,"station_id":"ce4bgvp2rcd13ifvqct0","pricing_plan_id":"free"},{"bike_id":"ebc0fa7a-2f9b-4fc6-9087-d8a432674857","system_id":"levelo_inurba_marseille","lat":43.309371,"lon":5.401449,"is_reserved":false,"is_disabled":false,"rental_uris":{"android":"levelo://app?vid=ebc0fa7a-2f9b-4fc6-9087-d8a432674857","ios":"levelo://app?vid=ebc0fa7a-2f9b-4fc6-9087-d8a432674857"},"vehicle_type_id":"4","last_reported":1706321505,"current_range_meters":7200,"station_id":"ce4bgvp2rcd13ifvqct0","pricing_plan_id":"free"},{"bike_id":"5f4f2e5e-bf27-44ee-9683-c4a626c43b84","system_id":"levelo_inurba_marseille","lat":43.309371,"lon":5.401449,"is_reserved":false,"is_disabled":false,"rental_uris":{"android":"levelo://app?vid=5f4f2e5e-bf27-44ee-9683-c4a626c43b84","ios":"levelo://app?vid=5f4f2e5e-bf27-44ee-9683-c4a626c43b84"},"vehicle_type_id":"4","last_reported":1706321505,"current_range_meters":31200,"station_id":"ce4bgvp2rcd13ifvqct0","pricing_plan_id":"free"},{"bike_id":"395600cb-f622-4088-84c4-ddd4db713a6f","system_id":"levelo_inurba_marseille","lat":43.30929,"lon":5.40157,"is_reserved":false,"is_disabled":false,"rental_uris":{"android":"levelo://app?vid=395600cb-f622-4088-84c4-ddd4db713a6f","ios":"levelo://app?vid=395600cb-f622-4088-84c4-ddd4db713a6f"},"vehicle_type_id":"4","last_reported":1706321505,"current_range_meters":0,"station_id":"ce4bgvp2rcd13ifvqct0","pricing_plan_id":"free"},{"bike_id":"b7f12eab-e0a6-499e-87ec-2b4381c4602a","system_id":"levelo_inurba_marseille","lat":43.337551,"lon":5.374753,"is_reserved":false,"is_disabled":false,"rental_uris":{"android":"levelo://app?vid=b7f12eab-e0a6-499e-87ec-2b4381c4602a","ios":"levelo://app?vid=b7f12eab-e0a6-499e-87ec-2b4381c4602a"},"vehicle_type_id":"4","last_reported":1706321505,"current_range_meters":26400,"station_id":"","pricing_plan_id":"free"},{"bike_id":"fbb5ba83-eb9b-4879-8b8f-227548b98fe6","system_id":"levelo_inurba_marseille","lat":43.309371,"lon":5.401449,"is_reserved":false,"is_disabled":false,"rental_uris":{"android":"levelo://app?vid=fbb5ba83-eb9b-4879-8b8f-227548b98fe6","ios":"levelo://app?vid=fbb5ba83-eb9b-4879-8b8f-227548b98fe6"},"vehicle_type_id":"4","last_reported":1706321505,"current_range_meters":6000,"station_id":"ce4bgvp2rcd13ifvqct0","pricing_plan_id":"free"},{"bike_id":"b47cbc50-35aa-4993-8522-854fb7534e7e","system_id":"levelo_inurba_marseille","lat":43.30642,"lon":5.401031,"is_reserved":false,"is_disabled":false,"rental_uris":{"android":"levelo://app?vid=b47cbc50-35aa-4993-8522-854fb7534e7e","ios":"levelo://app?vid=b47cbc50-35aa-4993-8522-854fb7534e7e"},"vehicle_type_id":"4","last_reported":1706321505,"current_range_meters":30000,"station_id":"ce4bh112rcd13ifvqda0","pricing_plan_id":"free"},{"bike_id":"48c1fa8b-ed72-4d16-a653-ad54f91e9dca","system_id":"levelo_inurba_marseille","lat":43.309371,"lon":5.401449,"is_reserved":false,"is_disabled":false,"rental_uris":{"android":"levelo://app?vid=48c1fa8b-ed72-4d16-a653-ad54f91e9dca","ios":"levelo://app?vid=48c1fa8b-ed72-4d16-a653-ad54f91e9dca"},"vehicle_type_id":"4","last_reported":1706321505,"current_range_meters":27200,"station_id":"ce4bgvp2rcd13ifvqct0","pricing_plan_id":"free"},{"bike_id":"a3a6dbd7-b6d7-4f13-abc4-10a4362dc4e3","system_id":"levelo_inurba_marseille","lat":43.33768,"lon":5.3748,"is_reserved":false,"is_disabled":false,"rental_uris":{"android":"levelo://app?vid=a3a6dbd7-b6d7-4f13-abc4-10a4362dc4e3","ios":"levelo://app?vid=a3a6dbd7-b6d7-4f13-abc4-10a4362dc4e3"},"vehicle_type_id":"4","last_reported":1706321505,"current_range_meters":27600,"station_id":"","pricing_plan_id":"free"},{"bike_id":"3ee7b71a-d293-4216-9105-27a5012109c9","system_id":"levelo_inurba_marseille","lat":43.33769,"lon":5.37479,"is_reserved":false,"is_disabled":false,"rental_uris":{"android":"levelo://app?vid=3ee7b71a-d293-4216-9105-27a5012109c9","ios":"levelo://app?vid=3ee7b71a-d293-4216-9105-27a5012109c9"},"vehicle_type_id":"4","last_reported":1706321505,"current_range_meters":30800,"station_id":"","pricing_plan_id":"free"},{"bike_id":"11ac4d0b-81f5-4677-bf28-25bbe565009d","system_id":"levelo_inurba_marseille","lat":43.3377,"lon":5.3748,"is_reserved":false,"is_disabled":false,"rental_uris":{"android":"levelo://app?vid=11ac4d0b-81f5-4677-bf28-25bbe565009d","ios":"levelo://app?vid=11ac4d0b-81f5-4677-bf28-25bbe565009d"},"vehicle_type_id":"4","last_reported":1706321505,"current_range_meters":25200,"station_id":"","pricing_plan_id":"free"},{"bike_id":"633e408b-3f4c-41e5-a5ca-5e58b2dba3e6","system_id":"levelo_inurba_marseille","lat":43.28727,"lon":5.36078,"is_reserved":false,"is_disabled":false,"rental_uris":{"android":"levelo://app?vid=633e408b-3f4c-41e5-a5ca-5e58b2dba3e6","ios":"levelo://app?vid=633e408b-3f4c-41e5-a5ca-5e58b2dba3e6"},"vehicle_type_id":"4","last_reported":1706321505,"current_range_meters":21600,"station_id":"cki0cbj6b192h4jlfktg","pricing_plan_id":"free"},{"bike_id":"8367842d-59de-4871-991f-bcecaa033e8d","system_id":"levelo_inurba_marseille","lat":43.28666,"lon":5.36346,"is_reserved":false,"is_disabled":false,"rental_uris":{"android":"levelo://app?vid=8367842d-59de-4871-991f-bcecaa033e8d","ios":"levelo://app?vid=8367842d-59de-4871-991f-bcecaa033e8d"},"vehicle_type_id":"4","last_reported":1706321505,"current_range_meters":8400,"station_id":"ce4bhah2rcd13ifvqej0","pricing_plan_id":"free"},{"bike_id":"374d9d48-fc1e-42c5-aa8e-aed1a606bc54","system_id":"levelo_inurba_marseille","lat":43.286643,"lon":5.363536,"is_reserved":false,"is_disabled":false,"rental_uris":{"android":"levelo://app?vid=374d9d48-fc1e-42c5-aa8e-aed1a606bc54","ios":"levelo://app?vid=374d9d48-fc1e-42c5-aa8e-aed1a606bc54"},"vehicle_type_id":"4","last_reported":1706321505,"current_range_meters":0,"station_id":"ce4bhah2rcd13ifvqej0","pricing_plan_id":"free"},{"bike_id":"69184def-6e32-4de0-817e-4673a0cca5e1","system_id":"levelo_inurba_marseille","lat":43.286961,"lon":5.373785,"is_reserved":false,"is_disabled":false,"rental_uris":{"android":"levelo://app?vid=69184def-6e32-4de0-817e-4673a0cca5e1","ios":"levelo://app?vid=69184def-6e32-4de0-817e-4673a0cca5e1"},"vehicle_type_id":"4","last_reported":1706321505,"current_range_meters":23200,"station_id":"ce4bh3p2rcd13ifvqdq0","pricing_plan_id":"free"},{"bike_id":"af3a4019-954b-4098-bd16-9f8088b748fa","system_id":"levelo_inurba_marseille","lat":43.298681,"lon":5.397225,"is_reserved":false,"is_disabled":false,"rental_uris":{"android":"levelo://app?vid=af3a4019-954b-4098-bd16-9f8088b748fa","ios":"levelo://app?vid=af3a4019-954b-4098-bd16-9f8088b748fa"},"vehicle_type_id":"4","last_reported":1706321505,"current_range_meters":22000,"station_id":"ce4bh0h2rcd13ifvqd50","pricing_plan_id":"free"},{"bike_id":"30887b8e-6609-4e74-937e-8ba88a683dfc","system_id":"levelo_inurba_marseille","lat":43.286573,"lon":5.363513,"is_reserved":false,"is_disabled":false,"rental_uris":{"android":"levelo://app?vid=30887b8e-6609-4e74-937e-8ba88a683dfc","ios":"levelo://app?vid=30887b8e-6609-4e74-937e-8ba88a683dfc"},"vehicle_type_id":"4","last_reported":1706321505,"current_range_meters":4400,"station_id":"ce4bhah2rcd13ifvqej0","pricing_plan_id":"free"},{"bike_id":"ea35cf4c-ccc2-4ac2-aa15-25542753c3fd","system_id":"levelo_inurba_marseille","lat":43.28657,"lon":5.36346,"is_reserved":false,"is_disabled":false,"rental_uris":{"android":"levelo://app?vid=ea35cf4c-ccc2-4ac2-aa15-25542753c3fd","ios":"levelo://app?vid=ea35cf4c-ccc2-4ac2-aa15-25542753c3fd"},"vehicle_type_id":"4","last_reported":1706321505,"current_range_meters":6400,"station_id":"ce4bhah2rcd13ifvqej0","pricing_plan_id":"free"},{"bike_id":"436f8565-4a01-4940-b4aa-38098f62efbd","system_id":"levelo_inurba_marseille","lat":43.302759,"lon":5.400793,"is_reserved":false,"is_disabled":false,"rental_uris":{"android":"levelo://app?vid=436f8565-4a01-4940-b4aa-38098f62efbd","ios":"levelo://app?vid=436f8565-4a01-4940-b4aa-38098f62efbd"},"vehicle_type_id":"4","last_reported":1706321505,"current_range_meters":10400,"station_id":"ce4bgvh2rcd13ifvqcs0","pricing_plan_id":"free"},{"bike_id":"8ad80b38-75bf-4055-8d6c-3f69d2167589","system_id":"levelo_inurba_marseille","lat":43.302759,"lon":5.400793,"is_reserved":false,"is_disabled":false,"rental_uris":{"android":"levelo://app?vid=8ad80b38-75bf-4055-8d6c-3f69d2167589","ios":"levelo://app?vid=8ad80b38-75bf-4055-8d6c-3f69d2167589"},"vehicle_type_id":"4","last_reported":1706321505,"current_range_meters":25200,"station_id":"ce4bgvh2rcd13ifvqcs0","pricing_plan_id":"free"},{"bike_id":"c77c687a-b896-41b1-9091-1727dd47e011","system_id":"levelo_inurba_marseille","lat":43.302759,"lon":5.400793,"is_reserved":false,"is_disabled":false,"rental_uris":{"android":"levelo://app?vid=c77c687a-b896-41b1-9091-1727dd47e011","ios":"levelo://app?vid=c77c687a-b896-41b1-9091-1727dd47e011"},"vehicle_type_id":"4","last_reported":1706321505,"current_range_meters":31200,"station_id":"ce4bgvh2rcd13ifvqcs0","pricing_plan_id":"free"},{"bike_id":"fa195436-1078-4c7f-9144-b5304700dd40","system_id":"levelo_inurba_marseille","lat":43.302759,"lon":5.400793,"is_reserved":false,"is_disabled":false,"rental_uris":{"android":"levelo://app?vid=fa195436-1078-4c7f-9144-b5304700dd40","ios":"levelo://app?vid=fa195436-1078-4c7f-9144-b5304700dd40"},"vehicle_type_id":"4","last_reported":1706321505,"current_range_meters":16000,"station_id":"ce4bgvh2rcd13ifvqcs0","pricing_plan_id":"free"},{"bike_id":"183bb1c1-398f-466c-b05d-327ac4efc436","system_id":"levelo_inurba_marseille","lat":43.302511,"lon":5.400653,"is_reserved":false,"is_disabled":false,"rental_uris":{"android":"levelo://app?vid=183bb1c1-398f-466c-b05d-327ac4efc436","ios":"levelo://app?vid=183bb1c1-398f-466c-b05d-327ac4efc436"},"vehicle_type_id":"4","last_reported":1706321505,"current_range_meters":16800,"station_id":"ce4bgth2rcd13ifvqch0","pricing_plan_id":"free"},{"bike_id":"84f6a3e1-8e4d-42cd-aa52-8f4c63b629b9","system_id":"levelo_inurba_marseille","lat":43.289307,"lon":5.38406,"is_reserved":false,"is_disabled":false,"rental_uris":{"android":"levelo://app?vid=84f6a3e1-8e4d-42cd-aa52-8f4c63b629b9","ios":"levelo://app?vid=84f6a3e1-8e4d-42cd-aa52-8f4c63b629b9"},"vehicle_type_id":"4","last_reported":1706321505,"current_range_meters":6800,"station_id":"ce4bh612rcd13ifvqe6g","pricing_plan_id":"free"},{"bike_id":"abf890ff-6811-429f-a1f6-34fabd85528f","system_id":"levelo_inurba_marseille","lat":43.302759,"lon":5.400793,"is_reserved":false,"is_disabled":false,"rental_uris":{"android":"levelo://app?vid=abf890ff-6811-429f-a1f6-34fabd85528f","ios":"levelo://app?vid=abf890ff-6811-429f-a1f6-34fabd85528f"},"vehicle_type_id":"4","last_reported":1706321505,"current_range_meters":4400,"station_id":"ce4bgvh2rcd13ifvqcs0","pricing_plan_id":"free"},{"bike_id":"29663b32-21f7-469d-afe0-0d5282c7e1d6","system_id":"levelo_inurba_marseille","lat":43.302759,"lon":5.400793,"is_reserved":false,"is_disabled":false,"rental_uris":{"android":"levelo://app?vid=29663b32-21f7-469d-afe0-0d5282c7e1d6","ios":"levelo://app?vid=29663b32-21f7-469d-afe0-0d5282c7e1d6"},"vehicle_type_id":"4","last_reported":1706321505,"current_range_meters":5200,"station_id":"ce4bgvh2rcd13ifvqcs0","pricing_plan_id":"free"},{"bike_id":"683d7d9b-8243-404c-a54b-eb3faa531eea","system_id":"levelo_inurba_marseille","lat":43.302759,"lon":5.400793,"is_reserved":false,"is_disabled":false,"rental_uris":{"android":"levelo://app?vid=683d7d9b-8243-404c-a54b-eb3faa531eea","ios":"levelo://app?vid=683d7d9b-8243-404c-a54b-eb3faa531eea"},"vehicle_type_id":"4","last_reported":1706321505,"current_range_meters":24400,"station_id":"ce4bgvh2rcd13ifvqcs0","pricing_plan_id":"free"},{"bike_id":"cc5537fa-e824-49f9-b59d-b66ba6c54fda","system_id":"levelo_inurba_marseille","lat":43.286039,"lon":5.370679,"is_reserved":false,"is_disabled":false,"rental_uris":{"android":"levelo://app?vid=cc5537fa-e824-49f9-b59d-b66ba6c54fda","ios":"levelo://app?vid=cc5537fa-e824-49f9-b59d-b66ba6c54fda"},"vehicle_type_id":"4","last_reported":1706321505,"current_range_meters":27600,"station_id":"ce4bht12rcd13ifvqi60","pricing_plan_id":"free"},{"bike_id":"cd2e8384-1758-41b7-8b66-e6112be1b4da","system_id":"levelo_inurba_marseille","lat":43.28604,"lon":5.37062,"is_reserved":false,"is_disabled":false,"rental_uris":{"android":"levelo://app?vid=cd2e8384-1758-41b7-8b66-e6112be1b4da","ios":"levelo://app?vid=cd2e8384-1758-41b7-8b66-e6112be1b4da"},"vehicle_type_id":"4","last_reported":1706321505,"current_range_meters":2000,"station_id":"ce4bht12rcd13ifvqi60","pricing_plan_id":"free"},{"bike_id":"6c0f37c0-dddf-49d3-8c29-dcf334c3d08f","system_id":"levelo_inurba_marseille","lat":43.287185,"lon":5.379373,"is_reserved":false,"is_disabled":false,"rental_uris":{"android":"levelo://app?vid=6c0f37c0-dddf-49d3-8c29-dcf334c3d08f","ios":"levelo://app?vid=6c0f37c0-dddf-49d3-8c29-dcf334c3d08f"},"vehicle_type_id":"4","last_reported":1706321505,"current_range_meters":0,"station_id":"ce4bh9p2rcd13ifvqec0","pricing_plan_id":"free"},{"bike_id":"2251fc59-2828-4aff-966d-0a6777ecbd36","system_id":"levelo_inurba_marseille","lat":43.31695,"lon":5.40462,"is_reserved":false,"is_disabled":false,"rental_uris":{"android":"levelo://app?vid=2251fc59-2828-4aff-966d-0a6777ecbd36","ios":"levelo://app?vid=2251fc59-2828-4aff-966d-0a6777ecbd36"},"vehicle_type_id":"4","last_reported":1706321505,"current_range_meters":8400,"station_id":"ce4bh012rcd13ifvqd00","pricing_plan_id":"free"},{"bike_id":"4eddbdfe-93cf-4221-bb9d-31b393a2d4e0","system_id":"levelo_inurba_marseille","lat":43.316828,"lon":5.404723,"is_reserved":false,"is_disabled":false,"rental_uris":{"android":"levelo://app?vid=4eddbdfe-93cf-4221-bb9d-31b393a2d4e0","ios":"levelo://app?vid=4eddbdfe-93cf-4221-bb9d-31b393a2d4e0"},"vehicle_type_id":"4","last_reported":1706321505,"current_range_meters":21200,"station_id":"ce4bh012rcd13ifvqd00","pricing_plan_id":"free"},{"bike_id":"b332df60-0a81-4841-a021-c7d35a6d7740","system_id":"levelo_inurba_marseille","lat":43.316866,"lon":5.404697,"is_reserved":false,"is_disabled":false,"rental_uris":{"android":"levelo://app?vid=b332df60-0a81-4841-a021-c7d35a6d7740","ios":"levelo://app?vid=b332df60-0a81-4841-a021-c7d35a6d7740"},"vehicle_type_id":"4","last_reported":1706321505,"current_range_meters":11200,"station_id":"ce4bh012rcd13ifvqd00","pricing_plan_id":"free"},{"bike_id":"c011c8ab-84d3-4588-a847-3df4c973ed80","system_id":"levelo_inurba_marseille","lat":43.316828,"lon":5.404723,"is_reserved":false,"is_disabled":false,"rental_uris":{"android":"levelo://app?vid=c011c8ab-84d3-4588-a847-3df4c973ed80","ios":"levelo://app?vid=c011c8ab-84d3-4588-a847-3df4c973ed80"},"vehicle_type_id":"4","last_reported":1706321505,"current_range_meters":14400,"station_id":"ce4bh012rcd13ifvqd00","pricing_plan_id":"free"},{"bike_id":"315e45df-6d01-4551-9d5f-6aca85d814c7","system_id":"levelo_inurba_marseille","lat":43.31685,"lon":5.40475,"is_reserved":false,"is_disabled":false,"rental_uris":{"android":"levelo://app?vid=315e45df-6d01-4551-9d5f-6aca85d814c7","ios":"levelo://app?vid=315e45df-6d01-4551-9d5f-6aca85d814c7"},"vehicle_type_id":"4","last_reported":1706321505,"current_range_meters":28000,"station_id":"ce4bh012rcd13ifvqd00","pricing_plan_id":"free"},{"bike_id":"067f72eb-f2f8-4229-9f25-2784bb7c6730","system_id":"levelo_inurba_marseille","lat":43.316828,"lon":5.404723,"is_reserved":false,"is_disabled":false,"rental_uris":{"android":"levelo://app?vid=067f72eb-f2f8-4229-9f25-2784bb7c6730","ios":"levelo://app?vid=067f72eb-f2f8-4229-9f25-2784bb7c6730"},"vehicle_type_id":"4","last_reported":1706321505,"current_range_meters":19200,"station_id":"ce4bh012rcd13ifvqd00","pricing_plan_id":"free"},{"bike_id":"721fcf8d-8fb8-4495-850c-4be494224528","system_id":"levelo_inurba_marseille","lat":43.2919,"lon":5.39318,"is_reserved":false,"is_disabled":false,"rental_uris":{"android":"levelo://app?vid=721fcf8d-8fb8-4495-850c-4be494224528","ios":"levelo://app?vid=721fcf8d-8fb8-4495-850c-4be494224528"},"vehicle_type_id":"4","last_reported":1706321505,"current_range_meters":0,"station_id":"ce4bh192rcd13ifvqdd0","pricing_plan_id":"free"},{"bike_id":"f5aa2d10-9888-4799-8737-378a432eac3f","system_id":"levelo_inurba_marseille","lat":43.284534,"lon":5.358662,"is_reserved":false,"is_disabled":false,"rental_uris":{"android":"levelo://app?vid=f5aa2d10-9888-4799-8737-378a432eac3f","ios":"levelo://app?vid=f5aa2d10-9888-4799-8737-378a432eac3f"},"vehicle_type_id":"4","last_reported":1706321505,"current_range_meters":0,"station_id":"ce4bhah2rcd13ifvqei0","pricing_plan_id":"free"},{"bike_id":"a0410c20-f599-43da-b27d-8f5fb725b590","system_id":"levelo_inurba_marseille","lat":43.284538,"lon":5.358657,"is_reserved":false,"is_disabled":false,"rental_uris":{"android":"levelo://app?vid=a0410c20-f599-43da-b27d-8f5fb725b590","ios":"levelo://app?vid=a0410c20-f599-43da-b27d-8f5fb725b590"},"vehicle_type_id":"4","last_reported":1706321505,"current_range_meters":20400,"station_id":"ce4bhah2rcd13ifvqei0","pricing_plan_id":"free"},{"bike_id":"be169b35-a74f-4af5-beb2-8e0ca98ec210","system_id":"levelo_inurba_marseille","lat":43.284534,"lon":5.358662,"is_reserved":false,"is_disabled":false,"rental_uris":{"android":"levelo://app?vid=be169b35-a74f-4af5-beb2-8e0ca98ec210","ios":"levelo://app?vid=be169b35-a74f-4af5-beb2-8e0ca98ec210"},"vehicle_type_id":"4","last_reported":1706321505,"current_range_meters":4400,"station_id":"ce4bhah2rcd13ifvqei0","pricing_plan_id":"free"},{"bike_id":"7b8610ad-df41-4fc3-8d70-b368302fad68","system_id":"levelo_inurba_marseille","lat":43.2846,"lon":5.35888,"is_reserved":false,"is_disabled":false,"rental_uris":{"android":"levelo://app?vid=7b8610ad-df41-4fc3-8d70-b368302fad68","ios":"levelo://app?vid=7b8610ad-df41-4fc3-8d70-b368302fad68"},"vehicle_type_id":"4","last_reported":1706321505,"current_range_meters":0,"station_id":"ce4bhah2rcd13ifvqei0","pricing_plan_id":"free"},{"bike_id":"83a7b252-288e-446c-aa8d-2f2a2319200d","system_id":"levelo_inurba_marseille","lat":43.28459,"lon":5.358905,"is_reserved":false,"is_disabled":false,"rental_uris":{"android":"levelo://app?vid=83a7b252-288e-446c-aa8d-2f2a2319200d","ios":"levelo://app?vid=83a7b252-288e-446c-aa8d-2f2a2319200d"},"vehicle_type_id":"4","last_reported":1706321505,"current_range_meters":0,"station_id":"ce4bhah2rcd13ifvqei0","pricing_plan_id":"free"},{"bike_id":"cc9abdb4-1d97-4ced-abb7-ad709664dd7c","system_id":"levelo_inurba_marseille","lat":43.284534,"lon":5.358662,"is_reserved":false,"is_disabled":false,"rental_uris":{"android":"levelo://app?vid=cc9abdb4-1d97-4ced-abb7-ad709664dd7c","ios":"levelo://app?vid=cc9abdb4-1d97-4ced-abb7-ad709664dd7c"},"vehicle_type_id":"4","last_reported":1706321505,"current_range_meters":6400,"station_id":"ce4bhah2rcd13ifvqei0","pricing_plan_id":"free"},{"bike_id":"33dbf104-7571-456d-b382-a455a90d7bf6","system_id":"levelo_inurba_marseille","lat":43.284586,"lon":5.358916,"is_reserved":false,"is_disabled":false,"rental_uris":{"android":"levelo://app?vid=33dbf104-7571-456d-b382-a455a90d7bf6","ios":"levelo://app?vid=33dbf104-7571-456d-b382-a455a90d7bf6"},"vehicle_type_id":"4","last_reported":1706321505,"current_range_meters":0,"station_id":"ce4bhah2rcd13ifvqei0","pricing_plan_id":"free"},{"bike_id":"5fee2d55-fcad-4073-aa0c-f3a279af2d3f","system_id":"levelo_inurba_marseille","lat":43.284534,"lon":5.358662,"is_reserved":false,"is_disabled":false,"rental_uris":{"android":"levelo://app?vid=5fee2d55-fcad-4073-aa0c-f3a279af2d3f","ios":"levelo://app?vid=5fee2d55-fcad-4073-aa0c-f3a279af2d3f"},"vehicle_type_id":"4","last_reported":1706321505,"current_range_meters":20400,"station_id":"ce4bhah2rcd13ifvqei0","pricing_plan_id":"free"},{"bike_id":"325a6d8c-40e5-427b-a76d-66007e6f66cc","system_id":"levelo_inurba_marseille","lat":43.284538,"lon":5.358657,"is_reserved":false,"is_disabled":false,"rental_uris":{"android":"levelo://app?vid=325a6d8c-40e5-427b-a76d-66007e6f66cc","ios":"levelo://app?vid=325a6d8c-40e5-427b-a76d-66007e6f66cc"},"vehicle_type_id":"4","last_reported":1706321505,"current_range_meters":21600,"station_id":"ce4bhah2rcd13ifvqei0","pricing_plan_id":"free"},{"bike_id":"34320c8d-218f-47eb-88f6-15fc60906f51","system_id":"levelo_inurba_marseille","lat":43.294314,"lon":5.397498,"is_reserved":false,"is_disabled":false,"rental_uris":{"android":"levelo://app?vid=34320c8d-218f-47eb-88f6-15fc60906f51","ios":"levelo://app?vid=34320c8d-218f-47eb-88f6-15fc60906f51"},"vehicle_type_id":"4","last_reported":1706321505,"current_range_meters":5600,"station_id":"ce4bh3h2rcd13ifvqdo0","pricing_plan_id":"free"},{"bike_id":"eccb0f66-d6aa-45e2-ab66-74ef999b9097","system_id":"levelo_inurba_marseille","lat":43.284154,"lon":5.375129,"is_reserved":false,"is_disabled":false,"rental_uris":{"android":"levelo://app?vid=eccb0f66-d6aa-45e2-ab66-74ef999b9097","ios":"levelo://app?vid=eccb0f66-d6aa-45e2-ab66-74ef999b9097"},"vehicle_type_id":"4","last_reported":1706321505,"current_range_meters":16800,"station_id":"ce4bh412rcd13ifvqds0","pricing_plan_id":"free"},{"bike_id":"24b2c753-beb5-4411-995b-a4d33c4e720a","system_id":"levelo_inurba_marseille","lat":43.295713,"lon":5.399639,"is_reserved":false,"is_disabled":false,"rental_uris":{"android":"levelo://app?vid=24b2c753-beb5-4411-995b-a4d33c4e720a","ios":"levelo://app?vid=24b2c753-beb5-4411-995b-a4d33c4e720a"},"vehicle_type_id":"4","last_reported":1706321505,"current_range_meters":24400,"station_id":"ce4bh312rcd13ifvqdj0","pricing_plan_id":"free"},{"bike_id":"42f25f57-1806-48b8-abf7-3dfcd79b81a2","system_id":"levelo_inurba_marseille","lat":43.284083,"lon":5.375092,"is_reserved":false,"is_disabled":false,"rental_uris":{"android":"levelo://app?vid=42f25f57-1806-48b8-abf7-3dfcd79b81a2","ios":"levelo://app?vid=42f25f57-1806-48b8-abf7-3dfcd79b81a2"},"vehicle_type_id":"4","last_reported":1706321505,"current_range_meters":0,"station_id":"ce4bh412rcd13ifvqds0","pricing_plan_id":"free"},{"bike_id":"9085d25f-f856-4331-be72-7cf7b71f57be","system_id":"levelo_inurba_marseille","lat":43.28409,"lon":5.375138,"is_reserved":false,"is_disabled":false,"rental_uris":{"android":"levelo://app?vid=9085d25f-f856-4331-be72-7cf7b71f57be","ios":"levelo://app?vid=9085d25f-f856-4331-be72-7cf7b71f57be"},"vehicle_type_id":"4","last_reported":1706321505,"current_range_meters":4400,"station_id":"ce4bh412rcd13ifvqds0","pricing_plan_id":"free"},{"bike_id":"1d025ec9-0050-4c94-b8b4-b7b808f11d2e","system_id":"levelo_inurba_marseille","lat":43.2841,"lon":5.37527,"is_reserved":false,"is_disabled":false,"rental_uris":{"android":"levelo://app?vid=1d025ec9-0050-4c94-b8b4-b7b808f11d2e","ios":"levelo://app?vid=1d025ec9-0050-4c94-b8b4-b7b808f11d2e"},"vehicle_type_id":"4","last_reported":1706321505,"current_range_meters":23200,"station_id":"ce4bh412rcd13ifvqds0","pricing_plan_id":"free"},{"bike_id":"e2757653-3c4f-4762-8421-6beb10be1987","system_id":"levelo_inurba_marseille","lat":43.283998,"lon":5.375062,"is_reserved":false,"is_disabled":false,"rental_uris":{"android":"levelo://app?vid=e2757653-3c4f-4762-8421-6beb10be1987","ios":"levelo://app?vid=e2757653-3c4f-4762-8421-6beb10be1987"},"vehicle_type_id":"4","last_reported":1706321505,"current_range_meters":18800,"station_id":"ce4bh412rcd13ifvqds0","pricing_plan_id":"free"},{"bike_id":"17cc1c80-210b-427c-905b-de770be20b02","system_id":"levelo_inurba_marseille","lat":43.283998,"lon":5.375062,"is_reserved":false,"is_disabled":false,"rental_uris":{"android":"levelo://app?vid=17cc1c80-210b-427c-905b-de770be20b02","ios":"levelo://app?vid=17cc1c80-210b-427c-905b-de770be20b02"},"vehicle_type_id":"4","last_reported":1706321505,"current_range_meters":17200,"station_id":"ce4bh412rcd13ifvqds0","pricing_plan_id":"free"},{"bike_id":"f7355dca-d8c2-40c2-a3ca-1593acffc8a4","system_id":"levelo_inurba_marseille","lat":43.283998,"lon":5.375062,"is_reserved":false,"is_disabled":false,"rental_uris":{"android":"levelo://app?vid=f7355dca-d8c2-40c2-a3ca-1593acffc8a4","ios":"levelo://app?vid=f7355dca-d8c2-40c2-a3ca-1593acffc8a4"},"vehicle_type_id":"4","last_reported":1706321505,"current_range_meters":18400,"station_id":"ce4bh412rcd13ifvqds0","pricing_plan_id":"free"},{"bike_id":"80dd202c-39ac-47da-8d42-8ce7c0f95f58","system_id":"levelo_inurba_marseille","lat":43.28406,"lon":5.375293,"is_reserved":false,"is_disabled":false,"rental_uris":{"android":"levelo://app?vid=80dd202c-39ac-47da-8d42-8ce7c0f95f58","ios":"levelo://app?vid=80dd202c-39ac-47da-8d42-8ce7c0f95f58"},"vehicle_type_id":"4","last_reported":1706321505,"current_range_meters":9200,"station_id":"ce4bh412rcd13ifvqds0","pricing_plan_id":"free"},{"bike_id":"0c277101-1b47-4330-96e4-ab482bd5f56c","system_id":"levelo_inurba_marseille","lat":43.283998,"lon":5.375062,"is_reserved":false,"is_disabled":false,"rental_uris":{"android":"levelo://app?vid=0c277101-1b47-4330-96e4-ab482bd5f56c","ios":"levelo://app?vid=0c277101-1b47-4330-96e4-ab482bd5f56c"},"vehicle_type_id":"4","last_reported":1706321505,"current_range_meters":6000,"station_id":"ce4bh412rcd13ifvqds0","pricing_plan_id":"free"},{"bike_id":"c0e41574-ed2c-4232-81e9-795b6431d43d","system_id":"levelo_inurba_marseille","lat":43.319179,"lon":5.407725,"is_reserved":false,"is_disabled":false,"rental_uris":{"android":"levelo://app?vid=c0e41574-ed2c-4232-81e9-795b6431d43d","ios":"levelo://app?vid=c0e41574-ed2c-4232-81e9-795b6431d43d"},"vehicle_type_id":"4","last_reported":1706321505,"current_range_meters":0,"station_id":"ce4bhq12rcd13ifvqhig","pricing_plan_id":"free"},{"bike_id":"fe569c08-e0e1-4141-bac2-c6a16f5f5c74","system_id":"levelo_inurba_marseille","lat":43.33717,"lon":5.391857,"is_reserved":false,"is_disabled":false,"rental_uris":{"android":"levelo://app?vid=fe569c08-e0e1-4141-bac2-c6a16f5f5c74","ios":"levelo://app?vid=fe569c08-e0e1-4141-bac2-c6a16f5f5c74"},"vehicle_type_id":"4","last_reported":1706321505,"current_range_meters":28800,"station_id":"ce4bhr92rcd13ifvqhsg","pricing_plan_id":"free"},{"bike_id":"b4bd1ce7-26ad-41db-a915-a3b476b9e02e","system_id":"levelo_inurba_marseille","lat":43.323464,"lon":5.406297,"is_reserved":false,"is_disabled":false,"rental_uris":{"android":"levelo://app?vid=b4bd1ce7-26ad-41db-a915-a3b476b9e02e","ios":"levelo://app?vid=b4bd1ce7-26ad-41db-a915-a3b476b9e02e"},"vehicle_type_id":"4","last_reported":1706321505,"current_range_meters":31200,"station_id":"ce4bhq92rcd13ifvqhjg","pricing_plan_id":"free"},{"bike_id":"29c971f3-912e-4f79-8c22-d20e1f4b5d74","system_id":"levelo_inurba_marseille","lat":43.337168,"lon":5.391825,"is_reserved":false,"is_disabled":false,"rental_uris":{"android":"levelo://app?vid=29c971f3-912e-4f79-8c22-d20e1f4b5d74","ios":"levelo://app?vid=29c971f3-912e-4f79-8c22-d20e1f4b5d74"},"vehicle_type_id":"4","last_reported":1706321505,"current_range_meters":22400,"station_id":"ce4bhr92rcd13ifvqhsg","pricing_plan_id":"free"},{"bike_id":"4f2af437-355a-46db-8acb-07761ea8692c","system_id":"levelo_inurba_marseille","lat":43.288537,"lon":5.392973,"is_reserved":false,"is_disabled":false,"rental_uris":{"android":"levelo://app?vid=4f2af437-355a-46db-8acb-07761ea8692c","ios":"levelo://app?vid=4f2af437-355a-46db-8acb-07761ea8692c"},"vehicle_type_id":"4","last_reported":1706321505,"current_range_meters":400,"station_id":"ce4bh2p2rcd13ifvqdi0","pricing_plan_id":"free"},{"bike_id":"5a195c84-e6f2-4158-a3e5-f4cf73986d0b","system_id":"levelo_inurba_marseille","lat":43.288497,"lon":5.393089,"is_reserved":false,"is_disabled":false,"rental_uris":{"android":"levelo://app?vid=5a195c84-e6f2-4158-a3e5-f4cf73986d0b","ios":"levelo://app?vid=5a195c84-e6f2-4158-a3e5-f4cf73986d0b"},"vehicle_type_id":"4","last_reported":1706321505,"current_range_meters":800,"station_id":"ce4bh2p2rcd13ifvqdi0","pricing_plan_id":"free"},{"bike_id":"c24024f1-75f5-4d55-9afe-1c35e5d14995","system_id":"levelo_inurba_marseille","lat":43.29795,"lon":5.404086,"is_reserved":false,"is_disabled":false,"rental_uris":{"android":"levelo://app?vid=c24024f1-75f5-4d55-9afe-1c35e5d14995","ios":"levelo://app?vid=c24024f1-75f5-4d55-9afe-1c35e5d14995"},"vehicle_type_id":"4","last_reported":1706321505,"current_range_meters":21600,"station_id":"ce4bh112rcd13ifvqd90","pricing_plan_id":"free"},{"bike_id":"195f02d1-c429-4c0c-8cf3-2eb23613e095","system_id":"levelo_inurba_marseille","lat":43.283494,"lon":5.380945,"is_reserved":false,"is_disabled":false,"rental_uris":{"android":"levelo://app?vid=195f02d1-c429-4c0c-8cf3-2eb23613e095","ios":"levelo://app?vid=195f02d1-c429-4c0c-8cf3-2eb23613e095"},"vehicle_type_id":"4","last_reported":1706321505,"current_range_meters":31200,"station_id":"ce4bh412rcd13ifvqdr0","pricing_plan_id":"free"},{"bike_id":"7c86b4f9-e1c1-49e9-9302-16c855a45e54","system_id":"levelo_inurba_marseille","lat":43.283498,"lon":5.380948,"is_reserved":false,"is_disabled":false,"rental_uris":{"android":"levelo://app?vid=7c86b4f9-e1c1-49e9-9302-16c855a45e54","ios":"levelo://app?vid=7c86b4f9-e1c1-49e9-9302-16c855a45e54"},"vehicle_type_id":"4","last_reported":1706321505,"current_range_meters":26400,"station_id":"ce4bh412rcd13ifvqdr0","pricing_plan_id":"free"},{"bike_id":"81a327a3-a882-4a20-93f9-2feab4b9abfd","system_id":"levelo_inurba_marseille","lat":43.283498,"lon":5.380948,"is_reserved":false,"is_disabled":false,"rental_uris":{"android":"levelo://app?vid=81a327a3-a882-4a20-93f9-2feab4b9abfd","ios":"levelo://app?vid=81a327a3-a882-4a20-93f9-2feab4b9abfd"},"vehicle_type_id":"4","last_reported":1706321505,"current_range_meters":30400,"station_id":"ce4bh412rcd13ifvqdr0","pricing_plan_id":"free"},{"bike_id":"898eeaa3-4723-489a-b2c4-625997b263c1","system_id":"levelo_inurba_marseille","lat":43.284217,"lon":5.349697,"is_reserved":false,"is_disabled":false,"rental_uris":{"android":"levelo://app?vid=898eeaa3-4723-489a-b2c4-625997b263c1","ios":"levelo://app?vid=898eeaa3-4723-489a-b2c4-625997b263c1"},"vehicle_type_id":"4","last_reported":1706321505,"current_range_meters":27600,"station_id":"ce4bhbh2rcd13ifvqepg","pricing_plan_id":"free"},{"bike_id":"1681b3ae-3f36-47de-abe1-377b74d25ecf","system_id":"levelo_inurba_marseille","lat":43.283498,"lon":5.380948,"is_reserved":false,"is_disabled":false,"rental_uris":{"android":"levelo://app?vid=1681b3ae-3f36-47de-abe1-377b74d25ecf","ios":"levelo://app?vid=1681b3ae-3f36-47de-abe1-377b74d25ecf"},"vehicle_type_id":"4","last_reported":1706321505,"current_range_meters":22400,"station_id":"ce4bh412rcd13ifvqdr0","pricing_plan_id":"free"},{"bike_id":"4eae59f1-45e4-45ef-bb68-da9ab1fd31df","system_id":"levelo_inurba_marseille","lat":43.284219,"lon":5.3497,"is_reserved":false,"is_disabled":false,"rental_uris":{"android":"levelo://app?vid=4eae59f1-45e4-45ef-bb68-da9ab1fd31df","ios":"levelo://app?vid=4eae59f1-45e4-45ef-bb68-da9ab1fd31df"},"vehicle_type_id":"4","last_reported":1706321505,"current_range_meters":23600,"station_id":"ce4bhbh2rcd13ifvqepg","pricing_plan_id":"free"},{"bike_id":"d7f38616-fac4-4771-b7ac-b8cdcb5c43bd","system_id":"levelo_inurba_marseille","lat":43.284178,"lon":5.349829,"is_reserved":false,"is_disabled":false,"rental_uris":{"android":"levelo://app?vid=d7f38616-fac4-4771-b7ac-b8cdcb5c43bd","ios":"levelo://app?vid=d7f38616-fac4-4771-b7ac-b8cdcb5c43bd"},"vehicle_type_id":"4","last_reported":1706321505,"current_range_meters":0,"station_id":"ce4bhbh2rcd13ifvqepg","pricing_plan_id":"free"},{"bike_id":"d0114db0-d38e-4e30-8ef0-61b4aaaee3c4","system_id":"levelo_inurba_marseille","lat":43.284217,"lon":5.349697,"is_reserved":false,"is_disabled":false,"rental_uris":{"android":"levelo://app?vid=d0114db0-d38e-4e30-8ef0-61b4aaaee3c4","ios":"levelo://app?vid=d0114db0-d38e-4e30-8ef0-61b4aaaee3c4"},"vehicle_type_id":"4","last_reported":1706321505,"current_range_meters":22400,"station_id":"ce4bhbh2rcd13ifvqepg","pricing_plan_id":"free"},{"bike_id":"df422980-20a5-43fb-954e-67efb4a1a612","system_id":"levelo_inurba_marseille","lat":43.289363,"lon":5.396322,"is_reserved":false,"is_disabled":false,"rental_uris":{"android":"levelo://app?vid=df422980-20a5-43fb-954e-67efb4a1a612","ios":"levelo://app?vid=df422980-20a5-43fb-954e-67efb4a1a612"},"vehicle_type_id":"4","last_reported":1706321505,"current_range_meters":20800,"station_id":"ce4bh3h2rcd13ifvqdn0","pricing_plan_id":"free"},{"bike_id":"b41bcd76-cb12-4b33-95cd-9444d1e23578","system_id":"levelo_inurba_marseille","lat":43.293556,"lon":5.401561,"is_reserved":false,"is_disabled":false,"rental_uris":{"android":"levelo://app?vid=b41bcd76-cb12-4b33-95cd-9444d1e23578","ios":"levelo://app?vid=b41bcd76-cb12-4b33-95cd-9444d1e23578"},"vehicle_type_id":"4","last_reported":1706321505,"current_range_meters":11600,"station_id":"","pricing_plan_id":"free"},{"bike_id":"ee0867f6-51dd-4bcc-b124-9275a66207af","system_id":"levelo_inurba_marseille","lat":43.289363,"lon":5.396322,"is_reserved":false,"is_disabled":false,"rental_uris":{"android":"levelo://app?vid=ee0867f6-51dd-4bcc-b124-9275a66207af","ios":"levelo://app?vid=ee0867f6-51dd-4bcc-b124-9275a66207af"},"vehicle_type_id":"4","last_reported":1706321505,"current_range_meters":24800,"station_id":"ce4bh3h2rcd13ifvqdn0","pricing_plan_id":"free"},{"bike_id":"c58afa9f-d630-4070-8ac8-556011f4e1dd","system_id":"levelo_inurba_marseille","lat":43.289363,"lon":5.396322,"is_reserved":false,"is_disabled":false,"rental_uris":{"android":"levelo://app?vid=c58afa9f-d630-4070-8ac8-556011f4e1dd","ios":"levelo://app?vid=c58afa9f-d630-4070-8ac8-556011f4e1dd"},"vehicle_type_id":"4","last_reported":1706321505,"current_range_meters":31200,"station_id":"ce4bh3h2rcd13ifvqdn0","pricing_plan_id":"free"},{"bike_id":"9e2e573f-18fc-4955-9396-6fa91d32920c","system_id":"levelo_inurba_marseille","lat":43.292724,"lon":5.401131,"is_reserved":false,"is_disabled":false,"rental_uris":{"android":"levelo://app?vid=9e2e573f-18fc-4955-9396-6fa91d32920c","ios":"levelo://app?vid=9e2e573f-18fc-4955-9396-6fa91d32920c"},"vehicle_type_id":"4","last_reported":1706321505,"current_range_meters":30800,"station_id":"ce4bh312rcd13ifvqdk0","pricing_plan_id":"free"},{"bike_id":"729a07b4-495c-44bb-9499-27505e2afeeb","system_id":"levelo_inurba_marseille","lat":43.282754,"lon":5.350519,"is_reserved":false,"is_disabled":false,"rental_uris":{"android":"levelo://app?vid=729a07b4-495c-44bb-9499-27505e2afeeb","ios":"levelo://app?vid=729a07b4-495c-44bb-9499-27505e2afeeb"},"vehicle_type_id":"4","last_reported":1706321505,"current_range_meters":7200,"station_id":"ce4bhbp2rcd13ifvqerg","pricing_plan_id":"free"},{"bike_id":"46663741-e00e-43c5-b7e9-613ac2bb4894","system_id":"levelo_inurba_marseille","lat":43.283502,"lon":5.386471,"is_reserved":false,"is_disabled":false,"rental_uris":{"android":"levelo://app?vid=46663741-e00e-43c5-b7e9-613ac2bb4894","ios":"levelo://app?vid=46663741-e00e-43c5-b7e9-613ac2bb4894"},"vehicle_type_id":"4","last_reported":1706321505,"current_range_meters":22800,"station_id":"ce4bh492rcd13ifvqdvg","pricing_plan_id":"free"},{"bike_id":"4668ab7d-0a4d-4b54-813e-283dd7995772","system_id":"levelo_inurba_marseille","lat":43.282744,"lon":5.350533,"is_reserved":false,"is_disabled":false,"rental_uris":{"android":"levelo://app?vid=4668ab7d-0a4d-4b54-813e-283dd7995772","ios":"levelo://app?vid=4668ab7d-0a4d-4b54-813e-283dd7995772"},"vehicle_type_id":"4","last_reported":1706321505,"current_range_meters":26400,"station_id":"ce4bhbp2rcd13ifvqerg","pricing_plan_id":"free"},{"bike_id":"105e4a81-a967-4b98-81e5-b1ba5bb2a5d8","system_id":"levelo_inurba_marseille","lat":43.28268,"lon":5.35067,"is_reserved":false,"is_disabled":false,"rental_uris":{"android":"levelo://app?vid=105e4a81-a967-4b98-81e5-b1ba5bb2a5d8","ios":"levelo://app?vid=105e4a81-a967-4b98-81e5-b1ba5bb2a5d8"},"vehicle_type_id":"4","last_reported":1706321505,"current_range_meters":12800,"station_id":"ce4bhbp2rcd13ifvqerg","pricing_plan_id":"free"},{"bike_id":"99566a63-469d-4955-92f1-a4fd15963112","system_id":"levelo_inurba_marseille","lat":43.287945,"lon":5.395389,"is_reserved":false,"is_disabled":false,"rental_uris":{"android":"levelo://app?vid=99566a63-469d-4955-92f1-a4fd15963112","ios":"levelo://app?vid=99566a63-469d-4955-92f1-a4fd15963112"},"vehicle_type_id":"4","last_reported":1706321505,"current_range_meters":0,"station_id":"","pricing_plan_id":"free"},{"bike_id":"e1ef0482-b544-42e3-a035-04f659b4eeac","system_id":"levelo_inurba_marseille","lat":43.283502,"lon":5.386471,"is_reserved":false,"is_disabled":false,"rental_uris":{"android":"levelo://app?vid=e1ef0482-b544-42e3-a035-04f659b4eeac","ios":"levelo://app?vid=e1ef0482-b544-42e3-a035-04f659b4eeac"},"vehicle_type_id":"4","last_reported":1706321505,"current_range_meters":14800,"station_id":"ce4bh492rcd13ifvqdvg","pricing_plan_id":"free"},{"bike_id":"705b7afb-bfd3-482a-ad70-9c12e65e2c6b","system_id":"levelo_inurba_marseille","lat":43.283502,"lon":5.386471,"is_reserved":false,"is_disabled":false,"rental_uris":{"android":"levelo://app?vid=705b7afb-bfd3-482a-ad70-9c12e65e2c6b","ios":"levelo://app?vid=705b7afb-bfd3-482a-ad70-9c12e65e2c6b"},"vehicle_type_id":"4","last_reported":1706321505,"current_range_meters":18800,"station_id":"ce4bh492rcd13ifvqdvg","pricing_plan_id":"free"},{"bike_id":"fa0c0ea4-fb17-4acc-968c-580396166bd7","system_id":"levelo_inurba_marseille","lat":43.282754,"lon":5.350519,"is_reserved":false,"is_disabled":false,"rental_uris":{"android":"levelo://app?vid=fa0c0ea4-fb17-4acc-968c-580396166bd7","ios":"levelo://app?vid=fa0c0ea4-fb17-4acc-968c-580396166bd7"},"vehicle_type_id":"4","last_reported":1706321505,"current_range_meters":28000,"station_id":"ce4bhbp2rcd13ifvqerg","pricing_plan_id":"free"},{"bike_id":"605aa2b7-e632-4202-b130-8de847cda347","system_id":"levelo_inurba_marseille","lat":43.282754,"lon":5.350519,"is_reserved":false,"is_disabled":false,"rental_uris":{"android":"levelo://app?vid=605aa2b7-e632-4202-b130-8de847cda347","ios":"levelo://app?vid=605aa2b7-e632-4202-b130-8de847cda347"},"vehicle_type_id":"4","last_reported":1706321505,"current_range_meters":10400,"station_id":"ce4bhbp2rcd13ifvqerg","pricing_plan_id":"free"},{"bike_id":"b75788fd-a29d-42ea-982a-9ab4801bb7e8","system_id":"levelo_inurba_marseille","lat":43.282754,"lon":5.350519,"is_reserved":false,"is_disabled":false,"rental_uris":{"android":"levelo://app?vid=b75788fd-a29d-42ea-982a-9ab4801bb7e8","ios":"levelo://app?vid=b75788fd-a29d-42ea-982a-9ab4801bb7e8"},"vehicle_type_id":"4","last_reported":1706321505,"current_range_meters":5600,"station_id":"ce4bhbp2rcd13ifvqerg","pricing_plan_id":"free"},{"bike_id":"e1ce5da9-8e95-415a-aff3-cec81e265faa","system_id":"levelo_inurba_marseille","lat":43.282604,"lon":5.350786,"is_reserved":false,"is_disabled":false,"rental_uris":{"android":"levelo://app?vid=e1ce5da9-8e95-415a-aff3-cec81e265faa","ios":"levelo://app?vid=e1ce5da9-8e95-415a-aff3-cec81e265faa"},"vehicle_type_id":"4","last_reported":1706321505,"current_range_meters":0,"station_id":"ce4bhbp2rcd13ifvqerg","pricing_plan_id":"free"},{"bike_id":"ab031d0d-b705-4a65-94f5-4280e47fc454","system_id":"levelo_inurba_marseille","lat":43.28039,"lon":5.369297,"is_reserved":false,"is_disabled":false,"rental_uris":{"android":"levelo://app?vid=ab031d0d-b705-4a65-94f5-4280e47fc454","ios":"levelo://app?vid=ab031d0d-b705-4a65-94f5-4280e47fc454"},"vehicle_type_id":"4","last_reported":1706321505,"current_range_meters":25200,"station_id":"ce4bha12rcd13ifvqef0","pricing_plan_id":"free"},{"bike_id":"5e4d0090-1e4a-428e-b51b-37d60900f2c2","system_id":"levelo_inurba_marseille","lat":43.283502,"lon":5.386471,"is_reserved":false,"is_disabled":false,"rental_uris":{"android":"levelo://app?vid=5e4d0090-1e4a-428e-b51b-37d60900f2c2","ios":"levelo://app?vid=5e4d0090-1e4a-428e-b51b-37d60900f2c2"},"vehicle_type_id":"4","last_reported":1706321505,"current_range_meters":26000,"station_id":"ce4bh492rcd13ifvqdvg","pricing_plan_id":"free"},{"bike_id":"066f6fef-8e76-4e84-9c44-7ad1f59bb54e","system_id":"levelo_inurba_marseille","lat":43.282754,"lon":5.350519,"is_reserved":false,"is_disabled":false,"rental_uris":{"android":"levelo://app?vid=066f6fef-8e76-4e84-9c44-7ad1f59bb54e","ios":"levelo://app?vid=066f6fef-8e76-4e84-9c44-7ad1f59bb54e"},"vehicle_type_id":"4","last_reported":1706321505,"current_range_meters":6000,"station_id":"ce4bhbp2rcd13ifvqerg","pricing_plan_id":"free"},{"bike_id":"86b356e0-a22e-4365-a416-d6da08162aad","system_id":"levelo_inurba_marseille","lat":43.280382,"lon":5.369291,"is_reserved":false,"is_disabled":false,"rental_uris":{"android":"levelo://app?vid=86b356e0-a22e-4365-a416-d6da08162aad","ios":"levelo://app?vid=86b356e0-a22e-4365-a416-d6da08162aad"},"vehicle_type_id":"4","last_reported":1706321505,"current_range_meters":7200,"station_id":"ce4bha12rcd13ifvqef0","pricing_plan_id":"free"},{"bike_id":"02d231c4-08d6-4127-b03e-7360bbe901aa","system_id":"levelo_inurba_marseille","lat":43.280382,"lon":5.369291,"is_reserved":false,"is_disabled":false,"rental_uris":{"android":"levelo://app?vid=02d231c4-08d6-4127-b03e-7360bbe901aa","ios":"levelo://app?vid=02d231c4-08d6-4127-b03e-7360bbe901aa"},"vehicle_type_id":"4","last_reported":1706321505,"current_range_meters":30400,"station_id":"ce4bha12rcd13ifvqef0","pricing_plan_id":"free"},{"bike_id":"4c995aba-855f-43f1-90fc-cb512286e223","system_id":"levelo_inurba_marseille","lat":43.28039,"lon":5.369297,"is_reserved":false,"is_disabled":false,"rental_uris":{"android":"levelo://app?vid=4c995aba-855f-43f1-90fc-cb512286e223","ios":"levelo://app?vid=4c995aba-855f-43f1-90fc-cb512286e223"},"vehicle_type_id":"4","last_reported":1706321505,"current_range_meters":22800,"station_id":"ce4bha12rcd13ifvqef0","pricing_plan_id":"free"},{"bike_id":"b0616b3e-3f4c-4ff1-88c8-81a144776df9","system_id":"levelo_inurba_marseille","lat":43.283502,"lon":5.386471,"is_reserved":false,"is_disabled":false,"rental_uris":{"android":"levelo://app?vid=b0616b3e-3f4c-4ff1-88c8-81a144776df9","ios":"levelo://app?vid=b0616b3e-3f4c-4ff1-88c8-81a144776df9"},"vehicle_type_id":"4","last_reported":1706321505,"current_range_meters":1600,"station_id":"ce4bh492rcd13ifvqdvg","pricing_plan_id":"free"},{"bike_id":"c311ea8c-5511-4c27-bfb7-8fd64310a88e","system_id":"levelo_inurba_marseille","lat":43.280271,"lon":5.365828,"is_reserved":false,"is_disabled":false,"rental_uris":{"android":"levelo://app?vid=c311ea8c-5511-4c27-bfb7-8fd64310a88e","ios":"levelo://app?vid=c311ea8c-5511-4c27-bfb7-8fd64310a88e"},"vehicle_type_id":"4","last_reported":1706321505,"current_range_meters":800,"station_id":"","pricing_plan_id":"free"},{"bike_id":"bdbfd9c1-b4e5-41bf-8903-3974210fcb66","system_id":"levelo_inurba_marseille","lat":43.290412,"lon":5.399633,"is_reserved":false,"is_disabled":false,"rental_uris":{"android":"levelo://app?vid=bdbfd9c1-b4e5-41bf-8903-3974210fcb66","ios":"levelo://app?vid=bdbfd9c1-b4e5-41bf-8903-3974210fcb66"},"vehicle_type_id":"4","last_reported":1706321505,"current_range_meters":29200,"station_id":"ce4bh392rcd13ifvqdm0","pricing_plan_id":"free"},{"bike_id":"267c1be1-cfa2-4a4b-909e-82ca86e1d65a","system_id":"levelo_inurba_marseille","lat":43.281044,"lon":5.378308,"is_reserved":false,"is_disabled":false,"rental_uris":{"android":"levelo://app?vid=267c1be1-cfa2-4a4b-909e-82ca86e1d65a","ios":"levelo://app?vid=267c1be1-cfa2-4a4b-909e-82ca86e1d65a"},"vehicle_type_id":"4","last_reported":1706321505,"current_range_meters":28800,"station_id":"ce4bha12rcd13ifvqee0","pricing_plan_id":"free"},{"bike_id":"81aa058e-f520-4054-8a0a-7f24478b0e93","system_id":"levelo_inurba_marseille","lat":43.281044,"lon":5.378308,"is_reserved":false,"is_disabled":false,"rental_uris":{"android":"levelo://app?vid=81aa058e-f520-4054-8a0a-7f24478b0e93","ios":"levelo://app?vid=81aa058e-f520-4054-8a0a-7f24478b0e93"},"vehicle_type_id":"4","last_reported":1706321505,"current_range_meters":12000,"station_id":"ce4bha12rcd13ifvqee0","pricing_plan_id":"free"},{"bike_id":"d59c4827-9907-4ebc-b49f-392eb5fc7e45","system_id":"levelo_inurba_marseille","lat":43.281044,"lon":5.378308,"is_reserved":false,"is_disabled":false,"rental_uris":{"android":"levelo://app?vid=d59c4827-9907-4ebc-b49f-392eb5fc7e45","ios":"levelo://app?vid=d59c4827-9907-4ebc-b49f-392eb5fc7e45"},"vehicle_type_id":"4","last_reported":1706321505,"current_range_meters":11200,"station_id":"ce4bha12rcd13ifvqee0","pricing_plan_id":"free"},{"bike_id":"0abec417-ee47-4fdf-a5e0-64048f296cd6","system_id":"levelo_inurba_marseille","lat":43.296263,"lon":5.40601,"is_reserved":false,"is_disabled":false,"rental_uris":{"android":"levelo://app?vid=0abec417-ee47-4fdf-a5e0-64048f296cd6","ios":"levelo://app?vid=0abec417-ee47-4fdf-a5e0-64048f296cd6"},"vehicle_type_id":"4","last_reported":1706321505,"current_range_meters":16400,"station_id":"ce4bh0h2rcd13ifvqd60","pricing_plan_id":"free"},{"bike_id":"fd822e9f-4c73-4835-86fa-9ed6dfe3ce0f","system_id":"levelo_inurba_marseille","lat":43.281044,"lon":5.378308,"is_reserved":false,"is_disabled":false,"rental_uris":{"android":"levelo://app?vid=fd822e9f-4c73-4835-86fa-9ed6dfe3ce0f","ios":"levelo://app?vid=fd822e9f-4c73-4835-86fa-9ed6dfe3ce0f"},"vehicle_type_id":"4","last_reported":1706321505,"current_range_meters":2000,"station_id":"ce4bha12rcd13ifvqee0","pricing_plan_id":"free"},{"bike_id":"2fb22487-7c4d-44f6-8f5b-93748fc714c4","system_id":"levelo_inurba_marseille","lat":43.281044,"lon":5.378308,"is_reserved":false,"is_disabled":false,"rental_uris":{"android":"levelo://app?vid=2fb22487-7c4d-44f6-8f5b-93748fc714c4","ios":"levelo://app?vid=2fb22487-7c4d-44f6-8f5b-93748fc714c4"},"vehicle_type_id":"4","last_reported":1706321505,"current_range_meters":18400,"station_id":"ce4bha12rcd13ifvqee0","pricing_plan_id":"free"},{"bike_id":"e84b80f9-f2a0-4b29-940e-565f1f794e59","system_id":"levelo_inurba_marseille","lat":43.281044,"lon":5.378308,"is_reserved":false,"is_disabled":false,"rental_uris":{"android":"levelo://app?vid=e84b80f9-f2a0-4b29-940e-565f1f794e59","ios":"levelo://app?vid=e84b80f9-f2a0-4b29-940e-565f1f794e59"},"vehicle_type_id":"4","last_reported":1706321505,"current_range_meters":10000,"station_id":"ce4bha12rcd13ifvqee0","pricing_plan_id":"free"},{"bike_id":"55fc4bb9-ab1c-49b8-b418-f8418c32920b","system_id":"levelo_inurba_marseille","lat":43.281044,"lon":5.378308,"is_reserved":false,"is_disabled":false,"rental_uris":{"android":"levelo://app?vid=55fc4bb9-ab1c-49b8-b418-f8418c32920b","ios":"levelo://app?vid=55fc4bb9-ab1c-49b8-b418-f8418c32920b"},"vehicle_type_id":"4","last_reported":1706321505,"current_range_meters":6400,"station_id":"ce4bha12rcd13ifvqee0","pricing_plan_id":"free"},{"bike_id":"f2a88d56-ca52-4d5d-9208-ceb8fb820033","system_id":"levelo_inurba_marseille","lat":43.284462,"lon":5.392121,"is_reserved":false,"is_disabled":false,"rental_uris":{"android":"levelo://app?vid=f2a88d56-ca52-4d5d-9208-ceb8fb820033","ios":"levelo://app?vid=f2a88d56-ca52-4d5d-9208-ceb8fb820033"},"vehicle_type_id":"4","last_reported":1706321505,"current_range_meters":22800,"station_id":"ce4bhoh2rcd13ifvqh5g","pricing_plan_id":"free"},{"bike_id":"4cf8ef3a-6acf-4187-8083-b6d48e0b1f84","system_id":"levelo_inurba_marseille","lat":43.284462,"lon":5.392121,"is_reserved":false,"is_disabled":false,"rental_uris":{"android":"levelo://app?vid=4cf8ef3a-6acf-4187-8083-b6d48e0b1f84","ios":"levelo://app?vid=4cf8ef3a-6acf-4187-8083-b6d48e0b1f84"},"vehicle_type_id":"4","last_reported":1706321505,"current_range_meters":21200,"station_id":"ce4bhoh2rcd13ifvqh5g","pricing_plan_id":"free"},{"bike_id":"70e22012-9631-4075-9143-c19a4f602963","system_id":"levelo_inurba_marseille","lat":43.284462,"lon":5.392121,"is_reserved":false,"is_disabled":false,"rental_uris":{"android":"levelo://app?vid=70e22012-9631-4075-9143-c19a4f602963","ios":"levelo://app?vid=70e22012-9631-4075-9143-c19a4f602963"},"vehicle_type_id":"4","last_reported":1706321505,"current_range_meters":4800,"station_id":"ce4bhoh2rcd13ifvqh5g","pricing_plan_id":"free"},