{"last_updated":1680206859,"ttl":30,"version":"2.2","data":{"bikes":[{"bike_id":"075134e2-a180-4524-98ff-4c6516a18bc5","system_id":"levelo_inurba_marseille","lat":43.312239,"lon":5.368562,"is_reserved":false,"is_disabled":false,"rental_uris":{"android":"levelo://app?vid=075134e2-a180-4524-98ff-4c6516a18bc5","ios":"levelo://app?vid=075134e2-a180-4524-98ff-4c6516a18bc5"},"vehicle_type_id":"4","last_reported":1680206860,"current_range_meters":10400,"station_id":"ce4bgl92rcd13ifvqbq0","pricing_plan_id":"free"},{"bike_id":"137d291e-beb6-4436-9f86-6238c9d8084a","system_id":"levelo_inurba_marseille","lat":43.31244,"lon":5.37059,"is_reserved":false,"is_disabled":false,"rental_uris":{"android":"levelo://app?vid=137d291e-beb6-4436-9f86-6238c9d8084a","ios":"levelo://app?vid=137d291e-beb6-4436-9f86-6238c9d8084a"},"vehicle_type_id":"4","last_reported":1680206860,"current_range_meters":19200,"station_id":"","pricing_plan_id":"free"},{"bike_id":"716d3c47-9717-44b2-9958-fa1d42a48d04","system_id":"levelo_inurba_marseille","lat":43.305989,"lon":5.37225,"is_reserved":false,"is_disabled":false,"rental_uris":{"android":"levelo://app?vid=716d3c47-9717-44b2-9958-fa1d42a48d04","ios":"levelo://app?vid=716d3c47-9717-44b2-9958-fa1d42a48d04"},"vehicle_type_id":"4","last_reported":1680206860,"current_range_meters":20800,"station_id":"ce4bgqh2rcd13ifvqc4g","pricing_plan_id":"free"},{"bike_id":"eaf834ac-8745-4798-a76c-42182d0cdcff","system_id":"levelo_inurba_marseille","lat":43.30607,"lon":5.37238,"is_reserved":false,"is_disabled":false,"rental_uris":{"android":"levelo://app?vid=eaf834ac-8745-4798-a76c-42182d0cdcff","ios":"levelo://app?vid=eaf834ac-8745-4798-a76c-42182d0cdcff"},"vehicle_type_id":"4","last_reported":1680206860,"current_range_meters":800,"station_id":"ce4bgqh2rcd13ifvqc4g","pricing_plan_id":"free"},{"bike_id":"78708cac-3f2c-4f4e-8577-3c1ba7dbe05f","system_id":"levelo_inurba_marseille","lat":43.32117,"lon":5.36772,"is_reserved":false,"is_disabled":false,"rental_uris":{"android":"levelo://app?vid=78708cac-3f2c-4f4e-8577-3c1ba7dbe05f","ios":"levelo://app?vid=78708cac-3f2c-4f4e-8577-3c1ba7dbe05f"},"vehicle_type_id":"4","last_reported":1680206860,"current_range_meters":10400,"station_id":"","pricing_plan_id":"free"},{"bike_id":"7ffc16d2-8841-422f-8108-648039b05eb9","system_id":"levelo_inurba_marseille","lat":43.31006,"lon":5.37958,"is_reserved":false,"is_disabled":false,"rental_uris":{"android":"levelo://app?vid=7ffc16d2-8841-422f-8108-648039b05eb9","ios":"levelo://app?vid=7ffc16d2-8841-422f-8108-648039b05eb9"},"vehicle_type_id":"4","last_reported":1680206860,"current_range_meters":0,"station_id":"","pricing_plan_id":"free"},{"bike_id":"46551848-4059-407e-bc87-efbeb7a21790","system_id":"levelo_inurba_marseille","lat":43.301939,"lon":5.366286,"is_reserved":false,"is_disabled":false,"rental_uris":{"android":"levelo://app?vid=46551848-4059-407e-bc87-efbeb7a21790","ios":"levelo://app?vid=46551848-4059-407e-bc87-efbeb7a21790"},"vehicle_type_id":"4","last_reported":1680206860,"current_range_meters":16000,"station_id":"ce4bgrh2rcd13ifvqc8g","pricing_plan_id":"free"},{"bike_id":"85bd05d0-3539-4cef-9174-3f24a0a66461","system_id":"levelo_inurba_marseille","lat":43.30181,"lon":5.36621,"is_reserved":false,"is_disabled":false,"rental_uris":{"android":"levelo://app?vid=85bd05d0-3539-4cef-9174-3f24a0a66461","ios":"levelo://app?vid=85bd05d0-3539-4cef-9174-3f24a0a66461"},"vehicle_type_id":"4","last_reported":1680206860,"current_range_meters":400,"station_id":"ce4bgrh2rcd13ifvqc8g","pricing_plan_id":"free"},{"bike_id":"dd9bc891-c964-4bda-bead-a229389dd82a","system_id":"levelo_inurba_marseille","lat":43.30138,"lon":5.37413,"is_reserved":false,"is_disabled":false,"rental_uris":{"android":"levelo://app?vid=dd9bc891-c964-4bda-bead-a229389dd82a","ios":"levelo://app?vid=dd9bc891-c964-4bda-bead-a229389dd82a"},"vehicle_type_id":"4","last_reported":1680206860,"current_range_meters":400,"station_id":"ce4bgs92rcd13ifvqcc0","pricing_plan_id":"free"},{"bike_id":"e55716fe-334a-4806-8776-cbdc3e5254c9","system_id":"levelo_inurba_marseille","lat":43.30139,"lon":5.37423,"is_reserved":false,"is_disabled":false,"rental_uris":{"android":"levelo://app?vid=e55716fe-334a-4806-8776-cbdc3e5254c9","ios":"levelo://app?vid=e55716fe-334a-4806-8776-cbdc3e5254c9"},"vehicle_type_id":"4","last_reported":1680206860,"current_range_meters":0,"station_id":"ce4bgs92rcd13ifvqcc0","pricing_plan_id":"free"},{"bike_id":"813465e8-446f-43dd-9081-04c1313a2495","system_id":"levelo_inurba_marseille","lat":43.31315,"lon":5.38437,"is_reserved":false,"is_disabled":false,"rental_uris":{"android":"levelo://app?vid=813465e8-446f-43dd-9081-04c1313a2495","ios":"levelo://app?vid=813465e8-446f-43dd-9081-04c1313a2495"},"vehicle_type_id":"4","last_reported":1680206860,"current_range_meters":4400,"station_id":"","pricing_plan_id":"free"},{"bike_id":"3c72625e-242e-4963-99fc-0eeedc2dd682","system_id":"levelo_inurba_marseille","lat":43.31377,"lon":5.38507,"is_reserved":false,"is_disabled":false,"rental_uris":{"android":"levelo://app?vid=3c72625e-242e-4963-99fc-0eeedc2dd682","ios":"levelo://app?vid=3c72625e-242e-4963-99fc-0eeedc2dd682"},"vehicle_type_id":"4","last_reported":1680206860,"current_range_meters":30000,"station_id":"","pricing_plan_id":"free"},{"bike_id":"949b41dc-083b-492e-9398-404d092bfad2","system_id":"levelo_inurba_marseille","lat":43.298433,"lon":5.362774,"is_reserved":false,"is_disabled":false,"rental_uris":{"android":"levelo://app?vid=949b41dc-083b-492e-9398-404d092bfad2","ios":"levelo://app?vid=949b41dc-083b-492e-9398-404d092bfad2"},"vehicle_type_id":"4","last_reported":1680206860,"current_range_meters":24000,"station_id":"ce4bgpp2rcd13ifvqc3g","pricing_plan_id":"free"},{"bike_id":"7a31efd0-8c5f-4f6d-85c7-9228dff03460","system_id":"levelo_inurba_marseille","lat":43.298433,"lon":5.362774,"is_reserved":false,"is_disabled":false,"rental_uris":{"android":"levelo://app?vid=7a31efd0-8c5f-4f6d-85c7-9228dff03460","ios":"levelo://app?vid=7a31efd0-8c5f-4f6d-85c7-9228dff03460"},"vehicle_type_id":"4","last_reported":1680206860,"current_range_meters":28400,"station_id":"ce4bgpp2rcd13ifvqc3g","pricing_plan_id":"free"},{"bike_id":"cc3cf372-a615-4efb-9c14-6631de1573f9","system_id":"levelo_inurba_marseille","lat":43.298433,"lon":5.362774,"is_reserved":false,"is_disabled":false,"rental_uris":{"android":"levelo://app?vid=cc3cf372-a615-4efb-9c14-6631de1573f9","ios":"levelo://app?vid=cc3cf372-a615-4efb-9c14-6631de1573f9"},"vehicle_type_id":"4","last_reported":1680206860,"current_range_meters":0,"station_id":"ce4bgpp2rcd13ifvqc3g","pricing_plan_id":"free"},{"bike_id":"f2641ea2-0dd5-4dc1-af08-ef95b8355b80","system_id":"levelo_inurba_marseille","lat":43.298433,"lon":5.362774,"is_reserved":false,"is_disabled":false,"rental_uris":{"android":"levelo://app?vid=f2641ea2-0dd5-4dc1-af08-ef95b8355b80","ios":"levelo://app?vid=f2641ea2-0dd5-4dc1-af08-ef95b8355b80"},"vehicle_type_id":"4","last_reported":1680206860,"current_range_meters":12800,"station_id":"ce4bgpp2rcd13ifvqc3g","pricing_plan_id":"free"},{"bike_id":"becfbc11-7c91-478e-ad58-f282ea01fd0b","system_id":"levelo_inurba_marseille","lat":43.298433,"lon":5.362774,"is_reserved":false,"is_disabled":false,"rental_uris":{"android":"levelo://app?vid=becfbc11-7c91-478e-ad58-f282ea01fd0b","ios":"levelo://app?vid=becfbc11-7c91-478e-ad58-f282ea01fd0b"},"vehicle_type_id":"4","last_reported":1680206860,"current_range_meters":29200,"station_id":"ce4bgpp2rcd13ifvqc3g","pricing_plan_id":"free"},{"bike_id":"afeb5b04-1a31-412b-84f0-dd63ef2d62a2","system_id":"levelo_inurba_marseille","lat":43.298433,"lon":5.362774,"is_reserved":false,"is_disabled":false,"rental_uris":{"android":"levelo://app?vid=afeb5b04-1a31-412b-84f0-dd63ef2d62a2","ios":"levelo://app?vid=afeb5b04-1a31-412b-84f0-dd63ef2d62a2"},"vehicle_type_id":"4","last_reported":1680206860,"current_range_meters":23600,"station_id":"ce4bgpp2rcd13ifvqc3g","pricing_plan_id":"free"},{"bike_id":"b418bb41-3a5e-4170-b8d3-806660e04148","system_id":"levelo_inurba_marseille","lat":43.298433,"lon":5.362774,"is_reserved":false,"is_disabled":false,"rental_uris":{"android":"levelo://app?vid=b418bb41-3a5e-4170-b8d3-806660e04148","ios":"levelo://app?vid=b418bb41-3a5e-4170-b8d3-806660e04148"},"vehicle_type_id":"4","last_reported":1680206860,"current_range_meters":20800,"station_id":"ce4bgpp2rcd13ifvqc3g","pricing_plan_id":"free"},{"bike_id":"007dd401-1492-4b18-9e8f-530e7417a0e5","system_id":"levelo_inurba_marseille","lat":43.298433,"lon":5.362774,"is_reserved":false,"is_disabled":false,"rental_uris":{"android":"levelo://app?vid=007dd401-1492-4b18-9e8f-530e7417a0e5","ios":"levelo://app?vid=007dd401-1492-4b18-9e8f-530e7417a0e5"},"vehicle_type_id":"4","last_reported":1680206860,"current_range_meters":30000,"station_id":"ce4bgpp2rcd13ifvqc3g","pricing_plan_id":"free"},{"bike_id":"c7d23310-2ee6-4aba-9db3-f40688467ddc","system_id":"levelo_inurba_marseille","lat":43.298433,"lon":5.362774,"is_reserved":false,"is_disabled":false,"rental_uris":{"android":"levelo://app?vid=c7d23310-2ee6-4aba-9db3-f40688467ddc","ios":"levelo://app?vid=c7d23310-2ee6-4aba-9db3-f40688467ddc"},"vehicle_type_id":"4","last_reported":1680206860,"current_range_meters":26400,"station_id":"ce4bgpp2rcd13ifvqc3g","pricing_plan_id":"free"},{"bike_id":"2f066a08-315d-4603-8be2-daf1fb16d256","system_id":"levelo_inurba_marseille","lat":43.298433,"lon":5.362774,"is_reserved":false,"is_disabled":false,"rental_uris":{"android":"levelo://app?vid=2f066a08-315d-4603-8be2-daf1fb16d256","ios":"levelo://app?vid=2f066a08-315d-4603-8be2-daf1fb16d256"},"vehicle_type_id":"4","last_reported":1680206860,"current_range_meters":28400,"station_id":"ce4bgpp2rcd13ifvqc3g","pricing_plan_id":"free"},{"bike_id":"cd4c095f-5acd-421b-95fe-e485bf9e0043","system_id":"levelo_inurba_marseille","lat":43.298433,"lon":5.362774,"is_reserved":false,"is_disabled":false,"rental_uris":{"android":"levelo://app?vid=cd4c095f-5acd-421b-95fe-e485bf9e0043","ios":"levelo://app?vid=cd4c095f-5acd-421b-95fe-e485bf9e0043"},"vehicle_type_id":"4","last_reported":1680206860,"current_range_meters":27200,"station_id":"ce4bgpp2rcd13ifvqc3g","pricing_plan_id":"free"},{"bike_id":"071bcfd9-ed09-4412-a81d-b5274a120b5b","system_id":"levelo_inurba_marseille","lat":43.298433,"lon":5.362774,"is_reserved":false,"is_disabled":false,"rental_uris":{"android":"levelo://app?vid=071bcfd9-ed09-4412-a81d-b5274a120b5b","ios":"levelo://app?vid=071bcfd9-ed09-4412-a81d-b5274a120b5b"},"vehicle_type_id":"4","last_reported":1680206860,"current_range_meters":29600,"station_id":"ce4bgpp2rcd13ifvqc3g","pricing_plan_id":"free"},{"bike_id":"80192d22-a587-4c37-b06e-006d90c6d0d3","system_id":"levelo_inurba_marseille","lat":43.298433,"lon":5.362774,"is_reserved":false,"is_disabled":false,"rental_uris":{"android":"levelo://app?vid=80192d22-a587-4c37-b06e-006d90c6d0d3","ios":"levelo://app?vid=80192d22-a587-4c37-b06e-006d90c6d0d3"},"vehicle_type_id":"4","last_reported":1680206860,"current_range_meters":25200,"station_id":"ce4bgpp2rcd13ifvqc3g","pricing_plan_id":"free"},{"bike_id":"766ea936-c7cf-4244-8cdc-3ea3499e56ea","system_id":"levelo_inurba_marseille","lat":43.298433,"lon":5.362774,"is_reserved":false,"is_disabled":false,"rental_uris":{"android":"levelo://app?vid=766ea936-c7cf-4244-8cdc-3ea3499e56ea","ios":"levelo://app?vid=766ea936-c7cf-4244-8cdc-3ea3499e56ea"},"vehicle_type_id":"4","last_reported":1680206860,"current_range_meters":28000,"station_id":"ce4bgpp2rcd13ifvqc3g","pricing_plan_id":"free"},{"bike_id":"5ec92c51-4b9c-4d14-8e54-ec44afb46616","system_id":"levelo_inurba_marseille","lat":43.298433,"lon":5.362774,"is_reserved":false,"is_disabled":false,"rental_uris":{"android":"levelo://app?vid=5ec92c51-4b9c-4d14-8e54-ec44afb46616","ios":"levelo://app?vid=5ec92c51-4b9c-4d14-8e54-ec44afb46616"},"vehicle_type_id":"4","last_reported":1680206860,"current_range_meters":26000,"station_id":"ce4bgpp2rcd13ifvqc3g","pricing_plan_id":"free"},{"bike_id":"f83f9954-87e6-475c-9af9-9f79c81a7a5f","system_id":"levelo_inurba_marseille","lat":43.298433,"lon":5.362774,"is_reserved":false,"is_disabled":false,"rental_uris":{"android":"levelo://app?vid=f83f9954-87e6-475c-9af9-9f79c81a7a5f","ios":"levelo://app?vid=f83f9954-87e6-475c-9af9-9f79c81a7a5f"},"vehicle_type_id":"4","last_reported":1680206860,"current_range_meters":28800,"station_id":"ce4bgpp2rcd13ifvqc3g","pricing_plan_id":"free"},{"bike_id":"fb8e7a12-65b9-433c-9d9e-e16525c19d6b","system_id":"levelo_inurba_marseille","lat":43.298433,"lon":5.362774,"is_reserved":false,"is_disabled":false,"rental_uris":{"android":"levelo://app?vid=fb8e7a12-65b9-433c-9d9e-e16525c19d6b","ios":"levelo://app?vid=fb8e7a12-65b9-433c-9d9e-e16525c19d6b"},"vehicle_type_id":"4","last_reported":1680206860,"current_range_meters":22400,"station_id":"ce4bgpp2rcd13ifvqc3g","pricing_plan_id":"free"},{"bike_id":"2c7c6d70-d6b5-4428-b23a-888ea089aabe","system_id":"levelo_inurba_marseille","lat":43.297774,"lon":5.370875,"is_reserved":false,"is_disabled":false,"rental_uris":{"android":"levelo://app?vid=2c7c6d70-d6b5-4428-b23a-888ea089aabe","ios":"levelo://app?vid=2c7c6d70-d6b5-4428-b23a-888ea089aabe"},"vehicle_type_id":"4","last_reported":1680206860,"current_range_meters":800,"station_id":"ce4bgop2rcd13ifvqc1g","pricing_plan_id":"free"},{"bike_id":"aba8e98d-5879-4f5a-a127-c840d97c2809","system_id":"levelo_inurba_marseille","lat":43.32827,"lon":5.36687,"is_reserved":false,"is_disabled":false,"rental_uris":{"android":"levelo://app?vid=aba8e98d-5879-4f5a-a127-c840d97c2809","ios":"levelo://app?vid=aba8e98d-5879-4f5a-a127-c840d97c2809"},"vehicle_type_id":"4","last_reported":1680206860,"current_range_meters":400,"station_id":"ce4bhs92rcd13ifvqi0g","pricing_plan_id":"free"},{"bike_id":"9a2e4553-ad78-434f-9fec-9304ca63edbf","system_id":"levelo_inurba_marseille","lat":43.29669,"lon":5.37286,"is_reserved":false,"is_disabled":false,"rental_uris":{"android":"levelo://app?vid=9a2e4553-ad78-434f-9fec-9304ca63edbf","ios":"levelo://app?vid=9a2e4553-ad78-434f-9fec-9304ca63edbf"},"vehicle_type_id":"4","last_reported":1680206860,"current_range_meters":0,"station_id":"","pricing_plan_id":"free"},{"bike_id":"b7db6716-ccc7-4d80-96bd-315d5f4cd19d","system_id":"levelo_inurba_marseille","lat":43.29633,"lon":5.37171,"is_reserved":false,"is_disabled":false,"rental_uris":{"android":"levelo://app?vid=b7db6716-ccc7-4d80-96bd-315d5f4cd19d","ios":"levelo://app?vid=b7db6716-ccc7-4d80-96bd-315d5f4cd19d"},"vehicle_type_id":"4","last_reported":1680206860,"current_range_meters":31200,"station_id":"","pricing_plan_id":"free"},{"bike_id":"96a835ca-44b7-419d-a00e-5c404e1b9ac0","system_id":"levelo_inurba_marseille","lat":43.296131,"lon":5.370791,"is_reserved":false,"is_disabled":false,"rental_uris":{"android":"levelo://app?vid=96a835ca-44b7-419d-a00e-5c404e1b9ac0","ios":"levelo://app?vid=96a835ca-44b7-419d-a00e-5c404e1b9ac0"},"vehicle_type_id":"4","last_reported":1680206860,"current_range_meters":30000,"station_id":"ce4bgnh2rcd13ifvqc0g","pricing_plan_id":"free"},{"bike_id":"5b9527f5-29f5-492f-b1be-4cf60c04ccd2","system_id":"levelo_inurba_marseille","lat":43.296129,"lon":5.370777,"is_reserved":false,"is_disabled":false,"rental_uris":{"android":"levelo://app?vid=5b9527f5-29f5-492f-b1be-4cf60c04ccd2","ios":"levelo://app?vid=5b9527f5-29f5-492f-b1be-4cf60c04ccd2"},"vehicle_type_id":"4","last_reported":1680206860,"current_range_meters":25600,"station_id":"ce4bgnh2rcd13ifvqc0g","pricing_plan_id":"free"},{"bike_id":"1a29805f-767d-47c4-a820-a386a0acad5d","system_id":"levelo_inurba_marseille","lat":43.296131,"lon":5.370791,"is_reserved":false,"is_disabled":false,"rental_uris":{"android":"levelo://app?vid=1a29805f-767d-47c4-a820-a386a0acad5d","ios":"levelo://app?vid=1a29805f-767d-47c4-a820-a386a0acad5d"},"vehicle_type_id":"4","last_reported":1680206860,"current_range_meters":30800,"station_id":"ce4bgnh2rcd13ifvqc0g","pricing_plan_id":"free"},{"bike_id":"91ba9ffc-f163-4d56-a7d7-da4daa9219ab","system_id":"levelo_inurba_marseille","lat":43.296131,"lon":5.370791,"is_reserved":false,"is_disabled":false,"rental_uris":{"android":"levelo://app?vid=91ba9ffc-f163-4d56-a7d7-da4daa9219ab","ios":"levelo://app?vid=91ba9ffc-f163-4d56-a7d7-da4daa9219ab"},"vehicle_type_id":"4","last_reported":1680206860,"current_range_meters":22000,"station_id":"ce4bgnh2rcd13ifvqc0g","pricing_plan_id":"free"},{"bike_id":"4665f59f-fcc4-48c6-b369-312b5bd49372","system_id":"levelo_inurba_marseille","lat":43.296129,"lon":5.370777,"is_reserved":false,"is_disabled":false,"rental_uris":{"android":"levelo://app?vid=4665f59f-fcc4-48c6-b369-312b5bd49372","ios":"levelo://app?vid=4665f59f-fcc4-48c6-b369-312b5bd49372"},"vehicle_type_id":"4","last_reported":1680206860,"current_range_meters":30000,"station_id":"ce4bgnh2rcd13ifvqc0g","pricing_plan_id":"free"},{"bike_id":"743b9253-d9c6-4800-807b-033d9cf7234c","system_id":"levelo_inurba_marseille","lat":43.296129,"lon":5.370777,"is_reserved":false,"is_disabled":false,"rental_uris":{"android":"levelo://app?vid=743b9253-d9c6-4800-807b-033d9cf7234c","ios":"levelo://app?vid=743b9253-d9c6-4800-807b-033d9cf7234c"},"vehicle_type_id":"4","last_reported":1680206860,"current_range_meters":4800,"station_id":"ce4bgnh2rcd13ifvqc0g","pricing_plan_id":"free"},{"bike_id":"88745ac2-19de-4f58-861c-acfefa60ed8e","system_id":"levelo_inurba_marseille","lat":43.296131,"lon":5.370791,"is_reserved":false,"is_disabled":false,"rental_uris":{"android":"levelo://app?vid=88745ac2-19de-4f58-861c-acfefa60ed8e","ios":"levelo://app?vid=88745ac2-19de-4f58-861c-acfefa60ed8e"},"vehicle_type_id":"4","last_reported":1680206860,"current_range_meters":27600,"station_id":"ce4bgnh2rcd13ifvqc0g","pricing_plan_id":"free"},{"bike_id":"9a3c99d1-0910-4196-ad90-d93cc5b1f07f","system_id":"levelo_inurba_marseille","lat":43.296129,"lon":5.370777,"is_reserved":false,"is_disabled":false,"rental_uris":{"android":"levelo://app?vid=9a3c99d1-0910-4196-ad90-d93cc5b1f07f","ios":"levelo://app?vid=9a3c99d1-0910-4196-ad90-d93cc5b1f07f"},"vehicle_type_id":"4","last_reported":1680206860,"current_range_meters":25600,"station_id":"ce4bgnh2rcd13ifvqc0g","pricing_plan_id":"free"},{"bike_id":"560651a3-26ba-4df9-b0bd-77996bf9b547","system_id":"levelo_inurba_marseille","lat":43.296129,"lon":5.370777,"is_reserved":false,"is_disabled":false,"rental_uris":{"android":"levelo://app?vid=560651a3-26ba-4df9-b0bd-77996bf9b547","ios":"levelo://app?vid=560651a3-26ba-4df9-b0bd-77996bf9b547"},"vehicle_type_id":"4","last_reported":1680206860,"current_range_meters":29600,"station_id":"ce4bgnh2rcd13ifvqc0g","pricing_plan_id":"free"},{"bike_id":"c432792e-47fa-4614-9115-361638d976f6","system_id":"levelo_inurba_marseille","lat":43.296131,"lon":5.370791,"is_reserved":false,"is_disabled":false,"rental_uris":{"android":"levelo://app?vid=c432792e-47fa-4614-9115-361638d976f6","ios":"levelo://app?vid=c432792e-47fa-4614-9115-361638d976f6"},"vehicle_type_id":"4","last_reported":1680206860,"current_range_meters":26400,"station_id":"ce4bgnh2rcd13ifvqc0g","pricing_plan_id":"free"},{"bike_id":"3c96b091-6230-433d-bcca-79b8d4c8212f","system_id":"levelo_inurba_marseille","lat":43.296131,"lon":5.370791,"is_reserved":false,"is_disabled":false,"rental_uris":{"android":"levelo://app?vid=3c96b091-6230-433d-bcca-79b8d4c8212f","ios":"levelo://app?vid=3c96b091-6230-433d-bcca-79b8d4c8212f"},"vehicle_type_id":"4","last_reported":1680206860,"current_range_meters":29600,"station_id":"ce4bgnh2rcd13ifvqc0g","pricing_plan_id":"free"},{"bike_id":"36680711-1e5e-45fd-bcb4-c5fd77722c51","system_id":"levelo_inurba_marseille","lat":43.29579,"lon":5.37503,"is_reserved":false,"is_disabled":false,"rental_uris":{"android":"levelo://app?vid=36680711-1e5e-45fd-bcb4-c5fd77722c51","ios":"levelo://app?vid=36680711-1e5e-45fd-bcb4-c5fd77722c51"},"vehicle_type_id":"4","last_reported":1680206860,"current_range_meters":0,"station_id":"ce4bgh92rcd13ifvqb50","pricing_plan_id":"free"},{"bike_id":"4a45e508-1ac0-4a9b-9f65-af9d818f741d","system_id":"levelo_inurba_marseille","lat":43.32366,"lon":5.38878,"is_reserved":false,"is_disabled":false,"rental_uris":{"android":"levelo://app?vid=4a45e508-1ac0-4a9b-9f65-af9d818f741d","ios":"levelo://app?vid=4a45e508-1ac0-4a9b-9f65-af9d818f741d"},"vehicle_type_id":"4","last_reported":1680206860,"current_range_meters":4000,"station_id":"ce4bhqp2rcd13ifvqhog","pricing_plan_id":"free"},{"bike_id":"547d7ca9-fd4e-40a3-8d60-856e078d2333","system_id":"levelo_inurba_marseille","lat":43.32366,"lon":5.38881,"is_reserved":false,"is_disabled":false,"rental_uris":{"android":"levelo://app?vid=547d7ca9-fd4e-40a3-8d60-856e078d2333","ios":"levelo://app?vid=547d7ca9-fd4e-40a3-8d60-856e078d2333"},"vehicle_type_id":"4","last_reported":1680206860,"current_range_meters":10800,"station_id":"ce4bhqp2rcd13ifvqhog","pricing_plan_id":"free"},{"bike_id":"77c14249-47a4-4cca-a3f9-74908e1006c5","system_id":"levelo_inurba_marseille","lat":43.293249,"lon":5.371578,"is_reserved":false,"is_disabled":false,"rental_uris":{"android":"levelo://app?vid=77c14249-47a4-4cca-a3f9-74908e1006c5","ios":"levelo://app?vid=77c14249-47a4-4cca-a3f9-74908e1006c5"},"vehicle_type_id":"4","last_reported":1680206860,"current_range_meters":0,"station_id":"ce4bgh92rcd13ifvqb40","pricing_plan_id":"free"},{"bike_id":"86f2c1af-2554-4150-8bd7-7750b27f0067","system_id":"levelo_inurba_marseille","lat":43.30593,"lon":5.39352,"is_reserved":false,"is_disabled":false,"rental_uris":{"android":"levelo://app?vid=86f2c1af-2554-4150-8bd7-7750b27f0067","ios":"levelo://app?vid=86f2c1af-2554-4150-8bd7-7750b27f0067"},"vehicle_type_id":"4","last_reported":1680206860,"current_range_meters":0,"station_id":"ce4bh0p2rcd13ifvqd80","pricing_plan_id":"free"},{"bike_id":"f776e7b8-befd-4626-8fea-92d8a9f55939","system_id":"levelo_inurba_marseille","lat":43.292311,"lon":5.360731,"is_reserved":false,"is_disabled":false,"rental_uris":{"android":"levelo://app?vid=f776e7b8-befd-4626-8fea-92d8a9f55939","ios":"levelo://app?vid=f776e7b8-befd-4626-8fea-92d8a9f55939"},"vehicle_type_id":"4","last_reported":1680206860,"current_range_meters":6800,"station_id":"ce4bhbh2rcd13ifvqeqg","pricing_plan_id":"free"},{"bike_id":"4628ca05-0a2b-4327-b385-4e551c8b3f04","system_id":"levelo_inurba_marseille","lat":43.29529,"lon":5.385581,"is_reserved":false,"is_disabled":false,"rental_uris":{"android":"levelo://app?vid=4628ca05-0a2b-4327-b385-4e551c8b3f04","ios":"levelo://app?vid=4628ca05-0a2b-4327-b385-4e551c8b3f04"},"vehicle_type_id":"4","last_reported":1680206860,"current_range_meters":10400,"station_id":"ce4bgih2rcd13ifvqba0","pricing_plan_id":"free"},{"bike_id":"f2006b35-9d72-47f6-840d-356b5d33407c","system_id":"levelo_inurba_marseille","lat":43.33041,"lon":5.38921,"is_reserved":false,"is_disabled":false,"rental_uris":{"android":"levelo://app?vid=f2006b35-9d72-47f6-840d-356b5d33407c","ios":"levelo://app?vid=f2006b35-9d72-47f6-840d-356b5d33407c"},"vehicle_type_id":"4","last_reported":1680206860,"current_range_meters":0,"station_id":"ce4bhr92rcd13ifvqhrg","pricing_plan_id":"free"},{"bike_id":"e414d4e1-0e32-48b2-a861-6208ac0066e7","system_id":"levelo_inurba_marseille","lat":43.288935,"lon":5.361244,"is_reserved":false,"is_disabled":false,"rental_uris":{"android":"levelo://app?vid=e414d4e1-0e32-48b2-a861-6208ac0066e7","ios":"levelo://app?vid=e414d4e1-0e32-48b2-a861-6208ac0066e7"},"vehicle_type_id":"4","last_reported":1680206860,"current_range_meters":0,"station_id":"","pricing_plan_id":"free"},{"bike_id":"abd5865f-5aaa-42a7-85ca-6fedd43f1139","system_id":"levelo_inurba_marseille","lat":43.33671,"lon":5.37436,"is_reserved":false,"is_disabled":false,"rental_uris":{"android":"levelo://app?vid=abd5865f-5aaa-42a7-85ca-6fedd43f1139","ios":"levelo://app?vid=abd5865f-5aaa-42a7-85ca-6fedd43f1139"},"vehicle_type_id":"4","last_reported":1680206860,"current_range_meters":31200,"station_id":"","pricing_plan_id":"free"},{"bike_id":"419c3cdd-9ce0-423f-9f8a-a4bc7e4c5bbc","system_id":"levelo_inurba_marseille","lat":43.28856,"lon":5.358371,"is_reserved":false,"is_disabled":false,"rental_uris":{"android":"levelo://app?vid=419c3cdd-9ce0-423f-9f8a-a4bc7e4c5bbc","ios":"levelo://app?vid=419c3cdd-9ce0-423f-9f8a-a4bc7e4c5bbc"},"vehicle_type_id":"4","last_reported":1680206860,"current_range_meters":4400,"station_id":"ce4bhb12rcd13ifvqem0","pricing_plan_id":"free"},{"bike_id":"b312080a-0d6d-4773-a7c2-32bf1ed55ec1","system_id":"levelo_inurba_marseille","lat":43.28856,"lon":5.358371,"is_reserved":false,"is_disabled":false,"rental_uris":{"android":"levelo://app?vid=b312080a-0d6d-4773-a7c2-32bf1ed55ec1","ios":"levelo://app?vid=b312080a-0d6d-4773-a7c2-32bf1ed55ec1"},"vehicle_type_id":"4","last_reported":1680206860,"current_range_meters":30800,"station_id":"ce4bhb12rcd13ifvqem0","pricing_plan_id":"free"},{"bike_id":"d5c80345-9752-4c5b-a446-e48285e22a61","system_id":"levelo_inurba_marseille","lat":43.33754,"lon":5.37437,"is_reserved":false,"is_disabled":false,"rental_uris":{"android":"levelo://app?vid=d5c80345-9752-4c5b-a446-e48285e22a61","ios":"levelo://app?vid=d5c80345-9752-4c5b-a446-e48285e22a61"},"vehicle_type_id":"4","last_reported":1680206860,"current_range_meters":25200,"station_id":"","pricing_plan_id":"free"},{"bike_id":"ae62bd66-04d5-4186-9fdf-5fb017823802","system_id":"levelo_inurba_marseille","lat":43.30641,"lon":5.40088,"is_reserved":false,"is_disabled":false,"rental_uris":{"android":"levelo://app?vid=ae62bd66-04d5-4186-9fdf-5fb017823802","ios":"levelo://app?vid=ae62bd66-04d5-4186-9fdf-5fb017823802"},"vehicle_type_id":"4","last_reported":1680206860,"current_range_meters":0,"station_id":"ce4bh112rcd13ifvqda0","pricing_plan_id":"free"},{"bike_id":"7ea5c5d1-1599-49e2-821e-335cd8dda03b","system_id":"levelo_inurba_marseille","lat":43.33769,"lon":5.37449,"is_reserved":false,"is_disabled":false,"rental_uris":{"android":"levelo://app?vid=7ea5c5d1-1599-49e2-821e-335cd8dda03b","ios":"levelo://app?vid=7ea5c5d1-1599-49e2-821e-335cd8dda03b"},"vehicle_type_id":"4","last_reported":1680206860,"current_range_meters":0,"station_id":"","pricing_plan_id":"free"},{"bike_id":"b118d536-7a4d-4a8b-b427-8ef27657f1e4","system_id":"levelo_inurba_marseille","lat":43.30646,"lon":5.40105,"is_reserved":false,"is_disabled":false,"rental_uris":{"android":"levelo://app?vid=b118d536-7a4d-4a8b-b427-8ef27657f1e4","ios":"levelo://app?vid=b118d536-7a4d-4a8b-b427-8ef27657f1e4"},"vehicle_type_id":"4","last_reported":1680206860,"current_range_meters":0,"station_id":"ce4bh112rcd13ifvqda0","pricing_plan_id":"free"},{"bike_id":"eed0a0f8-6335-4d6c-a73f-915518f0b56d","system_id":"levelo_inurba_marseille","lat":43.286593,"lon":5.363346,"is_reserved":false,"is_disabled":false,"rental_uris":{"android":"levelo://app?vid=eed0a0f8-6335-4d6c-a73f-915518f0b56d","ios":"levelo://app?vid=eed0a0f8-6335-4d6c-a73f-915518f0b56d"},"vehicle_type_id":"4","last_reported":1680206860,"current_range_meters":16800,"station_id":"ce4bhah2rcd13ifvqej0","pricing_plan_id":"free"},{"bike_id":"830d6f74-6ed6-415f-b4e7-b6e0cc612342","system_id":"levelo_inurba_marseille","lat":43.29029,"lon":5.38651,"is_reserved":false,"is_disabled":false,"rental_uris":{"android":"levelo://app?vid=830d6f74-6ed6-415f-b4e7-b6e0cc612342","ios":"levelo://app?vid=830d6f74-6ed6-415f-b4e7-b6e0cc612342"},"vehicle_type_id":"4","last_reported":1680206860,"current_range_meters":0,"station_id":"","pricing_plan_id":"free"},{"bike_id":"10a36302-a911-4178-b3b6-50678333ac9c","system_id":"levelo_inurba_marseille","lat":43.28457,"lon":5.35895,"is_reserved":false,"is_disabled":false,"rental_uris":{"android":"levelo://app?vid=10a36302-a911-4178-b3b6-50678333ac9c","ios":"levelo://app?vid=10a36302-a911-4178-b3b6-50678333ac9c"},"vehicle_type_id":"4","last_reported":1680206860,"current_range_meters":5600,"station_id":"ce4bhah2rcd13ifvqei0","pricing_plan_id":"free"},{"bike_id":"a46db6af-105d-4207-9fed-d91e467b9aa4","system_id":"levelo_inurba_marseille","lat":43.284534,"lon":5.358662,"is_reserved":false,"is_disabled":false,"rental_uris":{"android":"levelo://app?vid=a46db6af-105d-4207-9fed-d91e467b9aa4","ios":"levelo://app?vid=a46db6af-105d-4207-9fed-d91e467b9aa4"},"vehicle_type_id":"4","last_reported":1680206860,"current_range_meters":12400,"station_id":"ce4bhah2rcd13ifvqei0","pricing_plan_id":"free"},{"bike_id":"6439a606-45e0-4132-8489-3b5b4205a851","system_id":"levelo_inurba_marseille","lat":43.33717,"lon":5.391857,"is_reserved":false,"is_disabled":false,"rental_uris":{"android":"levelo://app?vid=6439a606-45e0-4132-8489-3b5b4205a851","ios":"levelo://app?vid=6439a606-45e0-4132-8489-3b5b4205a851"},"vehicle_type_id":"4","last_reported":1680206860,"current_range_meters":3200,"station_id":"ce4bhr92rcd13ifvqhsg","pricing_plan_id":"free"},{"bike_id":"5e851c7a-3179-4e7f-9fbb-d15203387ee7","system_id":"levelo_inurba_marseille","lat":43.32334,"lon":5.40623,"is_reserved":false,"is_disabled":false,"rental_uris":{"android":"levelo://app?vid=5e851c7a-3179-4e7f-9fbb-d15203387ee7","ios":"levelo://app?vid=5e851c7a-3179-4e7f-9fbb-d15203387ee7"},"vehicle_type_id":"4","last_reported":1680206860,"current_range_meters":0,"station_id":"ce4bhq92rcd13ifvqhjg","pricing_plan_id":"free"},{"bike_id":"bf683bfc-7721-4c97-94b9-26a11aecf7e0","system_id":"levelo_inurba_marseille","lat":43.33726,"lon":5.39189,"is_reserved":false,"is_disabled":false,"rental_uris":{"android":"levelo://app?vid=bf683bfc-7721-4c97-94b9-26a11aecf7e0","ios":"levelo://app?vid=bf683bfc-7721-4c97-94b9-26a11aecf7e0"},"vehicle_type_id":"4","last_reported":1680206860,"current_range_meters":14800,"station_id":"ce4bhr92rcd13ifvqhsg","pricing_plan_id":"free"},{"bike_id":"f503621c-c63b-4269-b107-90904f92d204","system_id":"levelo_inurba_marseille","lat":43.28863,"lon":5.39324,"is_reserved":false,"is_disabled":false,"rental_uris":{"android":"levelo://app?vid=f503621c-c63b-4269-b107-90904f92d204","ios":"levelo://app?vid=f503621c-c63b-4269-b107-90904f92d204"},"vehicle_type_id":"4","last_reported":1680206860,"current_range_meters":0,"station_id":"ce4bh2p2rcd13ifvqdi0","pricing_plan_id":"free"},{"bike_id":"33412e70-1c2e-4666-9176-2bf614336aea","system_id":"levelo_inurba_marseille","lat":43.28356,"lon":5.38112,"is_reserved":false,"is_disabled":false,"rental_uris":{"android":"levelo://app?vid=33412e70-1c2e-4666-9176-2bf614336aea","ios":"levelo://app?vid=33412e70-1c2e-4666-9176-2bf614336aea"},"vehicle_type_id":"4","last_reported":1680206860,"current_range_meters":6800,"station_id":"","pricing_plan_id":"free"},{"bike_id":"5c6d4968-aff5-4cb3-83ae-6269cfbb66c2","system_id":"levelo_inurba_marseille","lat":43.284219,"lon":5.3497,"is_reserved":false,"is_disabled":false,"rental_uris":{"android":"levelo://app?vid=5c6d4968-aff5-4cb3-83ae-6269cfbb66c2","ios":"levelo://app?vid=5c6d4968-aff5-4cb3-83ae-6269cfbb66c2"},"vehicle_type_id":"4","last_reported":1680206860,"current_range_meters":8000,"station_id":"ce4bhbh2rcd13ifvqepg","pricing_plan_id":"free"},{"bike_id":"3be6d7cd-8396-4771-9694-e6b74a4a5811","system_id":"levelo_inurba_marseille","lat":43.284219,"lon":5.3497,"is_reserved":false,"is_disabled":false,"rental_uris":{"android":"levelo://app?vid=3be6d7cd-8396-4771-9694-e6b74a4a5811","ios":"levelo://app?vid=3be6d7cd-8396-4771-9694-e6b74a4a5811"},"vehicle_type_id":"4","last_reported":1680206860,"current_range_meters":0,"station_id":"ce4bhbh2rcd13ifvqepg","pricing_plan_id":"free"},{"bike_id":"4ccc59c3-267d-4c03-8a94-a3b05af62549","system_id":"levelo_inurba_marseille","lat":43.27891,"lon":5.38033,"is_reserved":false,"is_disabled":false,"rental_uris":{"android":"levelo://app?vid=4ccc59c3-267d-4c03-8a94-a3b05af62549","ios":"levelo://app?vid=4ccc59c3-267d-4c03-8a94-a3b05af62549"},"vehicle_type_id":"4","last_reported":1680206860,"current_range_meters":0,"station_id":"","pricing_plan_id":"free"},{"bike_id":"19d10a09-f662-4555-ac49-adad5b096492","system_id":"levelo_inurba_marseille","lat":43.320045,"lon":5.415048,"is_reserved":false,"is_disabled":false,"rental_uris":{"android":"levelo://app?vid=19d10a09-f662-4555-ac49-adad5b096492","ios":"levelo://app?vid=19d10a09-f662-4555-ac49-adad5b096492"},"vehicle_type_id":"4","last_reported":1680206860,"current_range_meters":0,"station_id":"ce4bhq92rcd13ifvqhkg","pricing_plan_id":"free"},{"bike_id":"64f77358-eef8-445e-872e-c4c647aea68d","system_id":"levelo_inurba_marseille","lat":43.32044,"lon":5.41559,"is_reserved":false,"is_disabled":false,"rental_uris":{"android":"levelo://app?vid=64f77358-eef8-445e-872e-c4c647aea68d","ios":"levelo://app?vid=64f77358-eef8-445e-872e-c4c647aea68d"},"vehicle_type_id":"4","last_reported":1680206860,"current_range_meters":4800,"station_id":"","pricing_plan_id":"free"},{"bike_id":"334d9060-1b37-4294-aef6-c1084a8dd306","system_id":"levelo_inurba_marseille","lat":43.27618,"lon":5.361009,"is_reserved":false,"is_disabled":false,"rental_uris":{"android":"levelo://app?vid=334d9060-1b37-4294-aef6-c1084a8dd306","ios":"levelo://app?vid=334d9060-1b37-4294-aef6-c1084a8dd306"},"vehicle_type_id":"4","last_reported":1680206860,"current_range_meters":22800,"station_id":"ce4bgj92rcd13ifvqbe0","pricing_plan_id":"free"},{"bike_id":"5a85cf15-cd30-4774-a74a-be17606ad087","system_id":"levelo_inurba_marseille","lat":43.273613,"lon":5.362705,"is_reserved":false,"is_disabled":false,"rental_uris":{"android":"levelo://app?vid=5a85cf15-cd30-4774-a74a-be17606ad087","ios":"levelo://app?vid=5a85cf15-cd30-4774-a74a-be17606ad087"},"vehicle_type_id":"4","last_reported":1680206860,"current_range_meters":0,"station_id":"ce4bhbh2rcd13ifvqeo0","pricing_plan_id":"free"},{"bike_id":"d36baaf9-5be7-44c0-af78-8d2f5fa5536f","system_id":"levelo_inurba_marseille","lat":43.27811,"lon":5.40705,"is_reserved":false,"is_disabled":false,"rental_uris":{"android":"levelo://app?vid=d36baaf9-5be7-44c0-af78-8d2f5fa5536f","ios":"levelo://app?vid=d36baaf9-5be7-44c0-af78-8d2f5fa5536f"},"vehicle_type_id":"4","last_reported":1680206860,"current_range_meters":20400,"station_id":"ce4bhnh2rcd13ifvqgtg","pricing_plan_id":"free"},{"bike_id":"f13b5a65-5cfb-49ac-b723-19acc957459f","system_id":"levelo_inurba_marseille","lat":43.27814,"lon":5.40711,"is_reserved":false,"is_disabled":false,"rental_uris":{"android":"levelo://app?vid=f13b5a65-5cfb-49ac-b723-19acc957459f","ios":"levelo://app?vid=f13b5a65-5cfb-49ac-b723-19acc957459f"},"vehicle_type_id":"4","last_reported":1680206860,"current_range_meters":11600,"station_id":"ce4bhnh2rcd13ifvqgtg","pricing_plan_id":"free"},{"bike_id":"d4a1168f-c13a-443b-ba33-a1e82f911181","system_id":"levelo_inurba_marseille","lat":43.278128,"lon":5.407195,"is_reserved":false,"is_disabled":false,"rental_uris":{"android":"levelo://app?vid=d4a1168f-c13a-443b-ba33-a1e82f911181","ios":"levelo://app?vid=d4a1168f-c13a-443b-ba33-a1e82f911181"},"vehicle_type_id":"4","last_reported":1680206860,"current_range_meters":8400,"station_id":"ce4bhnh2rcd13ifvqgtg","pricing_plan_id":"free"},{"bike_id":"e5d2923b-a947-483a-82af-80edcdebf8df","system_id":"levelo_inurba_marseille","lat":43.2781,"lon":5.40708,"is_reserved":false,"is_disabled":false,"rental_uris":{"android":"levelo://app?vid=e5d2923b-a947-483a-82af-80edcdebf8df","ios":"levelo://app?vid=e5d2923b-a947-483a-82af-80edcdebf8df"},"vehicle_type_id":"4","last_reported":1680206860,"current_range_meters":2800,"station_id":"ce4bhnh2rcd13ifvqgtg","pricing_plan_id":"free"},{"bike_id":"26249d03-482a-4116-a82e-2feb83830dab","system_id":"levelo_inurba_marseille","lat":43.27808,"lon":5.40705,"is_reserved":false,"is_disabled":false,"rental_uris":{"android":"levelo://app?vid=26249d03-482a-4116-a82e-2feb83830dab","ios":"levelo://app?vid=26249d03-482a-4116-a82e-2feb83830dab"},"vehicle_type_id":"4","last_reported":1680206860,"current_range_meters":24000,"station_id":"ce4bhnh2rcd13ifvqgtg","pricing_plan_id":"free"},{"bike_id":"dbfbd5f0-927d-4bdc-a44e-1229ce23d1db","system_id":"levelo_inurba_marseille","lat":43.278128,"lon":5.407195,"is_reserved":false,"is_disabled":false,"rental_uris":{"android":"levelo://app?vid=dbfbd5f0-927d-4bdc-a44e-1229ce23d1db","ios":"levelo://app?vid=dbfbd5f0-927d-4bdc-a44e-1229ce23d1db"},"vehicle_type_id":"4","last_reported":1680206860,"current_range_meters":1600,"station_id":"ce4bhnh2rcd13ifvqgtg","pricing_plan_id":"free"},{"bike_id":"0887f5fb-4044-49ed-b19c-f6b2e620ddba","system_id":"levelo_inurba_marseille","lat":43.278128,"lon":5.407195,"is_reserved":false,"is_disabled":false,"rental_uris":{"android":"levelo://app?vid=0887f5fb-4044-49ed-b19c-f6b2e620ddba","ios":"levelo://app?vid=0887f5fb-4044-49ed-b19c-f6b2e620ddba"},"vehicle_type_id":"4","last_reported":1680206860,"current_range_meters":22400,"station_id":"ce4bhnh2rcd13ifvqgtg","pricing_plan_id":"free"},{"bike_id":"ce294910-f56b-4a8f-8662-45d796892c8a","system_id":"levelo_inurba_marseille","lat":43.27811,"lon":5.40711,"is_reserved":false,"is_disabled":false,"rental_uris":{"android":"levelo://app?vid=ce294910-f56b-4a8f-8662-45d796892c8a","ios":"levelo://app?vid=ce294910-f56b-4a8f-8662-45d796892c8a"},"vehicle_type_id":"4","last_reported":1680206860,"current_range_meters":0,"station_id":"ce4bhnh2rcd13ifvqgtg","pricing_plan_id":"free"},{"bike_id":"57d2f34b-3386-42d6-85db-35ad4d6d6be9","system_id":"levelo_inurba_marseille","lat":43.2781,"lon":5.40711,"is_reserved":false,"is_disabled":false,"rental_uris":{"android":"levelo://app?vid=57d2f34b-3386-42d6-85db-35ad4d6d6be9","ios":"levelo://app?vid=57d2f34b-3386-42d6-85db-35ad4d6d6be9"},"vehicle_type_id":"4","last_reported":1680206860,"current_range_meters":17200,"station_id":"ce4bhnh2rcd13ifvqgtg","pricing_plan_id":"free"},{"bike_id":"19abed80-9831-497d-bf4c-caf78fab5591","system_id":"levelo_inurba_marseille","lat":43.278128,"lon":5.407195,"is_reserved":false,"is_disabled":false,"rental_uris":{"android":"levelo://app?vid=19abed80-9831-497d-bf4c-caf78fab5591","ios":"levelo://app?vid=19abed80-9831-497d-bf4c-caf78fab5591"},"vehicle_type_id":"4","last_reported":1680206860,"current_range_meters":10800,"station_id":"ce4bhnh2rcd13ifvqgtg","pricing_plan_id":"free"},{"bike_id":"f41b1ce1-9e47-4ab6-8407-1a296cc8e736","system_id":"levelo_inurba_marseille","lat":43.278128,"lon":5.407195,"is_reserved":false,"is_disabled":false,"rental_uris":{"android":"levelo://app?vid=f41b1ce1-9e47-4ab6-8407-1a296cc8e736","ios":"levelo://app?vid=f41b1ce1-9e47-4ab6-8407-1a296cc8e736"},"vehicle_type_id":"4","last_reported":1680206860,"current_range_meters":28400,"station_id":"ce4bhnh2rcd13ifvqgtg","pricing_plan_id":"free"},{"bike_id":"8f0b216c-ded9-4175-9806-82e8bc3b47fa","system_id":"levelo_inurba_marseille","lat":43.27812,"lon":5.40716,"is_reserved":false,"is_disabled":false,"rental_uris":{"android":"levelo://app?vid=8f0b216c-ded9-4175-9806-82e8bc3b47fa","ios":"levelo://app?vid=8f0b216c-ded9-4175-9806-82e8bc3b47fa"},"vehicle_type_id":"4","last_reported":1680206860,"current_range_meters":5200,"station_id":"ce4bhnh2rcd13ifvqgtg","pricing_plan_id":"free"},{"bike_id":"88008afb-12df-452f-b7a5-ac8dbdf09f92","system_id":"levelo_inurba_marseille","lat":43.27812,"lon":5.40716,"is_reserved":false,"is_disabled":false,"rental_uris":{"android":"levelo://app?vid=88008afb-12df-452f-b7a5-ac8dbdf09f92","ios":"levelo://app?vid=88008afb-12df-452f-b7a5-ac8dbdf09f92"},"vehicle_type_id":"4","last_reported":1680206860,"current_range_meters":4000,"station_id":"ce4bhnh2rcd13ifvqgtg","pricing_plan_id":"free"},{"bike_id":"b8a6dc54-6273-4c39-9d65-ce2e72dc957b","system_id":"levelo_inurba_marseille","lat":43.278104,"lon":5.407145,"is_reserved":false,"is_disabled":false,"rental_uris":{"android":"levelo://app?vid=b8a6dc54-6273-4c39-9d65-ce2e72dc957b","ios":"levelo://app?vid=b8a6dc54-6273-4c39-9d65-ce2e72dc957b"},"vehicle_type_id":"4","last_reported":1680206860,"current_range_meters":3600,"station_id":"ce4bhnh2rcd13ifvqgtg","pricing_plan_id":"free"},{"bike_id":"2fd2cb40-66d9-41d3-803a-c28ac4e74edc","system_id":"levelo_inurba_marseille","lat":43.278128,"lon":5.407195,"is_reserved":false,"is_disabled":false,"rental_uris":{"android":"levelo://app?vid=2fd2cb40-66d9-41d3-803a-c28ac4e74edc","ios":"levelo://app?vid=2fd2cb40-66d9-41d3-803a-c28ac4e74edc"},"vehicle_type_id":"4","last_reported":1680206860,"current_range_meters":17600,"station_id":"ce4bhnh2rcd13ifvqgtg","pricing_plan_id":"free"},{"bike_id":"a9b82599-3faf-4b08-bd3e-be8d99e5c493","system_id":"levelo_inurba_marseille","lat":43.278128,"lon":5.407195,"is_reserved":false,"is_disabled":false,"rental_uris":{"android":"levelo://app?vid=a9b82599-3faf-4b08-bd3e-be8d99e5c493","ios":"levelo://app?vid=a9b82599-3faf-4b08-bd3e-be8d99e5c493"},"vehicle_type_id":"4","last_reported":1680206860,"current_range_meters":28000,"station_id":"ce4bhnh2rcd13ifvqgtg","pricing_plan_id":"free"},{"bike_id":"9013d22e-3e90-4e56-87f9-3432c58447a2","system_id":"levelo_inurba_marseille","lat":43.278128,"lon":5.407195,"is_reserved":false,"is_disabled":false,"rental_uris":{"android":"levelo://app?vid=9013d22e-3e90-4e56-87f9-3432c58447a2","ios":"levelo://app?vid=9013d22e-3e90-4e56-87f9-3432c58447a2"},"vehicle_type_id":"4","last_reported":1680206860,"current_range_meters":27600,"station_id":"ce4bhnh2rcd13ifvqgtg","pricing_plan_id":"free"},{"bike_id":"48d3e434-999f-4b7c-a1a8-08e18270eac8","system_id":"levelo_inurba_marseille","lat":43.32561,"lon":5.42701,"is_reserved":false,"is_disabled":false,"rental_uris":{"android":"levelo://app?vid=48d3e434-999f-4b7c-a1a8-08e18270eac8","ios":"levelo://app?vid=48d3e434-999f-4b7c-a1a8-08e18270eac8"},"vehicle_type_id":"4","last_reported":1680206860,"current_range_meters":19200,"station_id":"","pricing_plan_id":"free"},{"bike_id":"6b54c86d-69ff-400b-ae3b-678eb1f12e35","system_id":"levelo_inurba_marseille","lat":43.269319,"lon":5.389397,"is_reserved":false,"is_disabled":false,"rental_uris":{"android":"levelo://app?vid=6b54c86d-69ff-400b-ae3b-678eb1f12e35","ios":"levelo://app?vid=6b54c86d-69ff-400b-ae3b-678eb1f12e35"},"vehicle_type_id":"4","last_reported":1680206860,"current_range_meters":12800,"station_id":"ce4bhhh2rcd13ifvqfl0","pricing_plan_id":"free"},{"bike_id":"a02c57e1-6543-4c19-8a75-fc94d4e94580","system_id":"levelo_inurba_marseille","lat":43.265714,"lon":5.372891,"is_reserved":false,"is_disabled":false,"rental_uris":{"android":"levelo://app?vid=a02c57e1-6543-4c19-8a75-fc94d4e94580","ios":"levelo://app?vid=a02c57e1-6543-4c19-8a75-fc94d4e94580"},"vehicle_type_id":"4","last_reported":1680206860,"current_range_meters":0,"station_id":"ce4bhg12rcd13ifvqf70","pricing_plan_id":"free"},{"bike_id":"826b6503-4935-400a-b400-cbaba1dad9b5","system_id":"levelo_inurba_marseille","lat":43.265714,"lon":5.372891,"is_reserved":false,"is_disabled":false,"rental_uris":{"android":"levelo://app?vid=826b6503-4935-400a-b400-cbaba1dad9b5","ios":"levelo://app?vid=826b6503-4935-400a-b400-cbaba1dad9b5"},"vehicle_type_id":"4","last_reported":1680206860,"current_range_meters":13600,"station_id":"ce4bhg12rcd13ifvqf70","pricing_plan_id":"free"},{"bike_id":"279fa23d-c86f-4256-ac9c-d309b06d88af","system_id":"levelo_inurba_marseille","lat":43.265714,"lon":5.372891,"is_reserved":false,"is_disabled":false,"rental_uris":{"android":"levelo://app?vid=279fa23d-c86f-4256-ac9c-d309b06d88af","ios":"levelo://app?vid=279fa23d-c86f-4256-ac9c-d309b06d88af"},"vehicle_type_id":"4","last_reported":1680206860,"current_range_meters":13600,"station_id":"ce4bhg12rcd13ifvqf70","pricing_plan_id":"free"},{"bike_id":"cff92ea7-4748-4804-9eba-27e2afb5f580","system_id":"levelo_inurba_marseille","lat":43.265714,"lon":5.372891,"is_reserved":false,"is_disabled":false,"rental_uris":{"android":"levelo://app?vid=cff92ea7-4748-4804-9eba-27e2afb5f580","ios":"levelo://app?vid=cff92ea7-4748-4804-9eba-27e2afb5f580"},"vehicle_type_id":"4","last_reported":1680206860,"current_range_meters":13200,"station_id":"ce4bhg12rcd13ifvqf70","pricing_plan_id":"free"},{"bike_id":"3f48d300-3a5a-4762-9c3c-e5bfe6052062","system_id":"levelo_inurba_marseille","lat":43.28315,"lon":5.42316,"is_reserved":false,"is_disabled":false,"rental_uris":{"android":"levelo://app?vid=3f48d300-3a5a-4762-9c3c-e5bfe6052062","ios":"levelo://app?vid=3f48d300-3a5a-4762-9c3c-e5bfe6052062"},"vehicle_type_id":"4","last_reported":1680206860,"current_range_meters":0,"station_id":"","pricing_plan_id":"free"},{"bike_id":"c8ea8206-901a-488c-ac4b-8b1e01485d14","system_id":"levelo_inurba_marseille","lat":43.331864,"lon":5.431794,"is_reserved":false,"is_disabled":false,"rental_uris":{"android":"levelo://app?vid=c8ea8206-901a-488c-ac4b-8b1e01485d14","ios":"levelo://app?vid=c8ea8206-901a-488c-ac4b-8b1e01485d14"},"vehicle_type_id":"4","last_reported":1680206860,"current_range_meters":0,"station_id":"","pricing_plan_id":"free"},{"bike_id":"0eeed12f-b9a6-40f1-a2ff-3d683166b257","system_id":"levelo_inurba_marseille","lat":43.26187,"lon":5.37444,"is_reserved":false,"is_disabled":false,"rental_uris":{"android":"levelo://app?vid=0eeed12f-b9a6-40f1-a2ff-3d683166b257","ios":"levelo://app?vid=0eeed12f-b9a6-40f1-a2ff-3d683166b257"},"vehicle_type_id":"4","last_reported":1680206860,"current_range_meters":17600,"station_id":"ce4bhgp2rcd13ifvqfc0","pricing_plan_id":"free"},{"bike_id":"566c8bae-05ac-4eff-a5b9-662f6b01b4ee","system_id":"levelo_inurba_marseille","lat":43.261782,"lon":5.374515,"is_reserved":false,"is_disabled":false,"rental_uris":{"android":"levelo://app?vid=566c8bae-05ac-4eff-a5b9-662f6b01b4ee","ios":"levelo://app?vid=566c8bae-05ac-4eff-a5b9-662f6b01b4ee"},"vehicle_type_id":"4","last_reported":1680206860,"current_range_meters":7200,"station_id":"ce4bhgp2rcd13ifvqfc0","pricing_plan_id":"free"},{"bike_id":"fdafc353-e0c6-4c25-838f-204181e2a802","system_id":"levelo_inurba_marseille","lat":43.317104,"lon":5.436818,"is_reserved":false,"is_disabled":false,"rental_uris":{"android":"levelo://app?vid=fdafc353-e0c6-4c25-838f-204181e2a802","ios":"levelo://app?vid=fdafc353-e0c6-4c25-838f-204181e2a802"},"vehicle_type_id":"4","last_reported":1680206860,"current_range_meters":0,"station_id":"ce4bhp92rcd13ifvqhcg","pricing_plan_id":"free"},{"bike_id":"b87667e2-fe88-4a47-96aa-aa26883d43da","system_id":"levelo_inurba_marseille","lat":43.267959,"lon":5.402687,"is_reserved":false,"is_disabled":false,"rental_uris":{"android":"levelo://app?vid=b87667e2-fe88-4a47-96aa-aa26883d43da","ios":"levelo://app?vid=b87667e2-fe88-4a47-96aa-aa26883d43da"},"vehicle_type_id":"4","last_reported":1680206860,"current_range_meters":20000,"station_id":"ce501612rcd8frsf0b60","pricing_plan_id":"free"},{"bike_id":"6d047652-0f97-4d06-82d6-9fe2cfdf1afa","system_id":"levelo_inurba_marseille","lat":43.254947,"lon":5.376454,"is_reserved":false,"is_disabled":false,"rental_uris":{"android":"levelo://app?vid=6d047652-0f97-4d06-82d6-9fe2cfdf1afa","ios":"levelo://app?vid=6d047652-0f97-4d06-82d6-9fe2cfdf1afa"},"vehicle_type_id":"4","last_reported":1680206860,"current_range_meters":0,"station_id":"ce4bhh12rcd13ifvqff0","pricing_plan_id":"free"},{"bike_id":"0dcbed10-8a63-45cc-afdc-7027c8e2faf2","system_id":"levelo_inurba_marseille","lat":43.254947,"lon":5.376454,"is_reserved":false,"is_disabled":false,"rental_uris":{"android":"levelo://app?vid=0dcbed10-8a63-45cc-afdc-7027c8e2faf2","ios":"levelo://app?vid=0dcbed10-8a63-45cc-afdc-7027c8e2faf2"},"vehicle_type_id":"4","last_reported":1680206860,"current_range_meters":14400,"station_id":"ce4bhh12rcd13ifvqff0","pricing_plan_id":"free"},{"bike_id":"f27f16d6-43a9-4dab-abb4-abef47da0a42","system_id":"levelo_inurba_marseille","lat":43.270721,"lon":5.422764,"is_reserved":false,"is_disabled":false,"rental_uris":{"android":"levelo://app?vid=f27f16d6-43a9-4dab-abb4-abef47da0a42","ios":"levelo://app?vid=f27f16d6-43a9-4dab-abb4-abef47da0a42"},"vehicle_type_id":"4","last_reported":1680206860,"current_range_meters":31200,"station_id":"ce4bhk92rcd13ifvqgb0","pricing_plan_id":"free"},{"bike_id":"539e77d9-20dc-43ae-8f31-0c0151e529e4","system_id":"levelo_inurba_marseille","lat":43.270721,"lon":5.422764,"is_reserved":false,"is_disabled":false,"rental_uris":{"android":"levelo://app?vid=539e77d9-20dc-43ae-8f31-0c0151e529e4","ios":"levelo://app?vid=539e77d9-20dc-43ae-8f31-0c0151e529e4"},"vehicle_type_id":"4","last_reported":1680206860,"current_range_meters":31200,"station_id":"ce4bhk92rcd13ifvqgb0","pricing_plan_id":"free"},{"bike_id":"c911ac3a-a7fe-4eb2-8882-d1f7fe33fd8f","system_id":"levelo_inurba_marseille","lat":43.270721,"lon":5.422764,"is_reserved":false,"is_disabled":false,"rental_uris":{"android":"levelo://app?vid=c911ac3a-a7fe-4eb2-8882-d1f7fe33fd8f","ios":"levelo://app?vid=c911ac3a-a7fe-4eb2-8882-d1f7fe33fd8f"},"vehicle_type_id":"4","last_reported":1680206860,"current_range_meters":19200,"station_id":"ce4bhk92rcd13ifvqgb0","pricing_plan_id":"free"},{"bike_id":"528ab8c6-e2c9-4efa-9b88-2948d288b403","system_id":"levelo_inurba_marseille","lat":43.270721,"lon":5.422764,"is_reserved":false,"is_disabled":false,"rental_uris":{"android":"levelo://app?vid=528ab8c6-e2c9-4efa-9b88-2948d288b403","ios":"levelo://app?vid=528ab8c6-e2c9-4efa-9b88-2948d288b403"},"vehicle_type_id":"4","last_reported":1680206860,"current_range_meters":31200,"station_id":"ce4bhk92rcd13ifvqgb0","pricing_plan_id":"free"},{"bike_id":"6662a673-f044-4ea1-a0f6-37f9f1daa34f","system_id":"levelo_inurba_marseille","lat":43.270721,"lon":5.422764,"is_reserved":false,"is_disabled":false,"rental_uris":{"android":"levelo://app?vid=6662a673-f044-4ea1-a0f6-37f9f1daa34f","ios":"levelo://app?vid=6662a673-f044-4ea1-a0f6-37f9f1daa34f"},"vehicle_type_id":"4","last_reported":1680206860,"current_range_meters":31200,"station_id":"ce4bhk92rcd13ifvqgb0","pricing_plan_id":"free"},{"bike_id":"b4865f4b-cbf9-47be-a277-ba734b9ff88b","system_id":"levelo_inurba_marseille","lat":43.270721,"lon":5.422764,"is_reserved":false,"is_disabled":false,"rental_uris":{"android":"levelo://app?vid=b4865f4b-cbf9-47be-a277-ba734b9ff88b","ios":"levelo://app?vid=b4865f4b-cbf9-47be-a277-ba734b9ff88b"},"vehicle_type_id":"4","last_reported":1680206860,"current_range_meters":29200,"station_id":"ce4bhk92rcd13ifvqgb0","pricing_plan_id":"free"},{"bike_id":"a150f41c-2fff-49f8-abe6-60d8fc4fe6d3","system_id":"levelo_inurba_marseille","lat":43.270721,"lon":5.422764,"is_reserved":false,"is_disabled":false,"rental_uris":{"android":"levelo://app?vid=a150f41c-2fff-49f8-abe6-60d8fc4fe6d3","ios":"levelo://app?vid=a150f41c-2fff-49f8-abe6-60d8fc4fe6d3"},"vehicle_type_id":"4","last_reported":1680206860,"current_range_meters":31200,"station_id":"ce4bhk92rcd13ifvqgb0","pricing_plan_id":"free"},{"bike_id":"7525f345-7b2b-4662-af98-cc5bb4774445","system_id":"levelo_inurba_marseille","lat":43.24693,"lon":5.382096,"is_reserved":false,"is_disabled":false,"rental_uris":{"android":"levelo://app?vid=7525f345-7b2b-4662-af98-cc5bb4774445","ios":"levelo://app?vid=7525f345-7b2b-4662-af98-cc5bb4774445"},"vehicle_type_id":"4","last_reported":1680206860,"current_range_meters":12400,"station_id":"ce4bhih2rcd13ifvqfr0","pricing_plan_id":"free"},{"bike_id":"08a3ce3b-b476-4c76-81d8-82423eb20a9d","system_id":"levelo_inurba_marseille","lat":43.24693,"lon":5.382096,"is_reserved":false,"is_disabled":false,"rental_uris":{"android":"levelo://app?vid=08a3ce3b-b476-4c76-81d8-82423eb20a9d","ios":"levelo://app?vid=08a3ce3b-b476-4c76-81d8-82423eb20a9d"},"vehicle_type_id":"4","last_reported":1680206860,"current_range_meters":31200,"station_id":"ce4bhih2rcd13ifvqfr0","pricing_plan_id":"free"},{"bike_id":"cd7d66c1-3cd2-4ee8-a665-beb69fee065c","system_id":"levelo_inurba_marseille","lat":43.246467,"lon":5.388984,"is_reserved":false,"is_disabled":false,"rental_uris":{"android":"levelo://app?vid=cd7d66c1-3cd2-4ee8-a665-beb69fee065c","ios":"levelo://app?vid=cd7d66c1-3cd2-4ee8-a665-beb69fee065c"},"vehicle_type_id":"4","last_reported":1680206860,"current_range_meters":30000,"station_id":"ce4bhg12rcd13ifvqf60","pricing_plan_id":"free"},{"bike_id":"1497e66b-7323-4c33-a88c-295a380384d3","system_id":"levelo_inurba_marseille","lat":43.246461,"lon":5.389014,"is_reserved":false,"is_disabled":false,"rental_uris":{"android":"levelo://app?vid=1497e66b-7323-4c33-a88c-295a380384d3","ios":"levelo://app?vid=1497e66b-7323-4c33-a88c-295a380384d3"},"vehicle_type_id":"4","last_reported":1680206860,"current_range_meters":21200,"station_id":"ce4bhg12rcd13ifvqf60","pricing_plan_id":"free"},{"bike_id":"edbd3e4f-b552-4e21-ac79-2eaba3363f4d","system_id":"levelo_inurba_marseille","lat":43.243884,"lon":5.370736,"is_reserved":false,"is_disabled":false,"rental_uris":{"android":"levelo://app?vid=edbd3e4f-b552-4e21-ac79-2eaba3363f4d","ios":"levelo://app?vid=edbd3e4f-b552-4e21-ac79-2eaba3363f4d"},"vehicle_type_id":"4","last_reported":1680206860,"current_range_meters":10000,"station_id":"ce4bhhh2rcd13ifvqfk0","pricing_plan_id":"free"},{"bike_id":"e589ed64-3d5d-4f36-a5c0-6745ba9feb11","system_id":"levelo_inurba_marseille","lat":43.243884,"lon":5.370736,"is_reserved":false,"is_disabled":false,"rental_uris":{"android":"levelo://app?vid=e589ed64-3d5d-4f36-a5c0-6745ba9feb11","ios":"levelo://app?vid=e589ed64-3d5d-4f36-a5c0-6745ba9feb11"},"vehicle_type_id":"4","last_reported":1680206860,"current_range_meters":30000,"station_id":"ce4bhhh2rcd13ifvqfk0","pricing_plan_id":"free"},{"bike_id":"bb676628-076b-4dd3-93b1-6a9e3a1b1b27","system_id":"levelo_inurba_marseille","lat":43.245581,"lon":5.395069,"is_reserved":false,"is_disabled":false,"rental_uris":{"android":"levelo://app?vid=bb676628-076b-4dd3-93b1-6a9e3a1b1b27","ios":"levelo://app?vid=bb676628-076b-4dd3-93b1-6a9e3a1b1b27"},"vehicle_type_id":"4","last_reported":1680206860,"current_range_meters":18000,"station_id":"ce4bhlp2rcd13ifvqgjg","pricing_plan_id":"free"},{"bike_id":"efe6e80a-dc25-4525-8da5-9a6e423f535b","system_id":"levelo_inurba_marseille","lat":43.240623,"lon":5.377642,"is_reserved":false,"is_disabled":false,"rental_uris":{"android":"levelo://app?vid=efe6e80a-dc25-4525-8da5-9a6e423f535b","ios":"levelo://app?vid=efe6e80a-dc25-4525-8da5-9a6e423f535b"},"vehicle_type_id":"4","last_reported":1680206860,"current_range_meters":31600,"station_id":"ce4bhnp2rcd13ifvqgvg","pricing_plan_id":"free"},{"bike_id":"550f582b-494c-48d1-8eca-cb155a37f67c","system_id":"levelo_inurba_marseille","lat":43.240623,"lon":5.377642,"is_reserved":false,"is_disabled":false,"rental_uris":{"android":"levelo://app?vid=550f582b-494c-48d1-8eca-cb155a37f67c","ios":"levelo://app?vid=550f582b-494c-48d1-8eca-cb155a37f67c"},"vehicle_type_id":"4","last_reported":1680206860,"current_range_meters":17200,"station_id":"ce4bhnp2rcd13ifvqgvg","pricing_plan_id":"free"},{"bike_id":"0c24c4ce-20e1-41e4-b637-f753c25f0c0c","system_id":"levelo_inurba_marseille","lat":43.239588,"lon":5.366238,"is_reserved":false,"is_disabled":false,"rental_uris":{"android":"levelo://app?vid=0c24c4ce-20e1-41e4-b637-f753c25f0c0c","ios":"levelo://app?vid=0c24c4ce-20e1-41e4-b637-f753c25f0c0c"},"vehicle_type_id":"4","last_reported":1680206860,"current_range_meters":31200,"station_id":"ce4bhi12rcd13ifvqfp0","pricing_plan_id":"free"},{"bike_id":"31fdef81-b8e3-4166-830a-6658cff1cd1c","system_id":"levelo_inurba_marseille","lat":43.239588,"lon":5.366238,"is_reserved":false,"is_disabled":false,"rental_uris":{"android":"levelo://app?vid=31fdef81-b8e3-4166-830a-6658cff1cd1c","ios":"levelo://app?vid=31fdef81-b8e3-4166-830a-6658cff1cd1c"},"vehicle_type_id":"4","last_reported":1680206860,"current_range_meters":31200,"station_id":"ce4bhi12rcd13ifvqfp0","pricing_plan_id":"free"},{"bike_id":"aaeda10d-6058-456d-aaef-e9782220fe84","system_id":"levelo_inurba_marseille","lat":43.239588,"lon":5.366238,"is_reserved":false,"is_disabled":false,"rental_uris":{"android":"levelo://app?vid=aaeda10d-6058-456d-aaef-e9782220fe84","ios":"levelo://app?vid=aaeda10d-6058-456d-aaef-e9782220fe84"},"vehicle_type_id":"4","last_reported":1680206860,"current_range_meters":31200,"station_id":"ce4bhi12rcd13ifvqfp0","pricing_plan_id":"free"},{"bike_id":"2553e504-d446-41c6-b318-5052bc8255c8","system_id":"levelo_inurba_marseille","lat":43.28499,"lon":5.45992,"is_reserved":false,"is_disabled":false,"rental_uris":{"android":"levelo://app?vid=2553e504-d446-41c6-b318-5052bc8255c8","ios":"levelo://app?vid=2553e504-d446-41c6-b318-5052bc8255c8"},"vehicle_type_id":"4","last_reported":1680206860,"current_range_meters":18800,"station_id":"","pricing_plan_id":"free"},{"bike_id":"a7ed803d-11e6-4853-b959-c018fc675501","system_id":"levelo_inurba_marseille","lat":43.239588,"lon":5.366238,"is_reserved":false,"is_disabled":false,"rental_uris":{"android":"levelo://app?vid=a7ed803d-11e6-4853-b959-c018fc675501","ios":"levelo://app?vid=a7ed803d-11e6-4853-b959-c018fc675501"},"vehicle_type_id":"4","last_reported":1680206860,"current_range_meters":31200,"station_id":"ce4bhi12rcd13ifvqfp0","pricing_plan_id":"free"},{"bike_id":"c00bcb7e-9cb3-4370-9d1f-0ca705767621","system_id":"levelo_inurba_marseille","lat":43.241782,"lon":5.397264,"is_reserved":false,"is_disabled":false,"rental_uris":{"android":"levelo://app?vid=c00bcb7e-9cb3-4370-9d1f-0ca705767621","ios":"levelo://app?vid=c00bcb7e-9cb3-4370-9d1f-0ca705767621"},"vehicle_type_id":"4","last_reported":1680206860,"current_range_meters":400,"station_id":"ce4bhn12rcd13ifvqgpg","pricing_plan_id":"free"},{"bike_id":"d48a97bc-1eff-42eb-85c3-1c3d002066a0","system_id":"levelo_inurba_marseille","lat":43.241782,"lon":5.397264,"is_reserved":false,"is_disabled":false,"rental_uris":{"android":"levelo://app?vid=d48a97bc-1eff-42eb-85c3-1c3d002066a0","ios":"levelo://app?vid=d48a97bc-1eff-42eb-85c3-1c3d002066a0"},"vehicle_type_id":"4","last_reported":1680206860,"current_range_meters":17600,"station_id":"ce4bhn12rcd13ifvqgpg","pricing_plan_id":"free"},{"bike_id":"cbe633fd-959f-41b1-b446-01799316d3ee","system_id":"levelo_inurba_marseille","lat":43.241782,"lon":5.397264,"is_reserved":false,"is_disabled":false,"rental_uris":{"android":"levelo://app?vid=cbe633fd-959f-41b1-b446-01799316d3ee","ios":"levelo://app?vid=cbe633fd-959f-41b1-b446-01799316d3ee"},"vehicle_type_id":"4","last_reported":1680206860,"current_range_meters":31200,"station_id":"ce4bhn12rcd13ifvqgpg","pricing_plan_id":"free"},{"bike_id":"5cfc2e9c-3e3a-4238-90a6-0e94614443c0","system_id":"levelo_inurba_marseille","lat":43.2848,"lon":5.48697,"is_reserved":false,"is_disabled":false,"rental_uris":{"android":"levelo://app?vid=5cfc2e9c-3e3a-4238-90a6-0e94614443c0","ios":"levelo://app?vid=5cfc2e9c-3e3a-4238-90a6-0e94614443c0"},"vehicle_type_id":"4","last_reported":1680206860,"current_range_meters":0,"station_id":"","pricing_plan_id":"free"}]}}