{"last_updated":1740474594,"ttl":60,"version":"2.2","data":{"bikes":[{"bike_id":"6d464410-9343-490d-aa51-f63e90cb9fb4","system_id":"levelo_inurba_marseille","lat":43.29272,"lon":5.38445,"is_reserved":false,"is_disabled":false,"rental_uris":{"android":"levelo://app?vid=6d464410-9343-490d-aa51-f63e90cb9fb4","ios":"levelo://app?vid=6d464410-9343-490d-aa51-f63e90cb9fb4"},"vehicle_type_id":"4","last_reported":1740474594,"current_range_meters":1200,"station_id":"ce4bh692rcd13ifvqea0","pricing_plan_id":"cebpf4jnsgd1na2vs0mg"},{"bike_id":"39505843-80ca-426a-86f1-c25b71cffadb","system_id":"levelo_inurba_marseille","lat":43.27492,"lon":5.42468,"is_reserved":false,"is_disabled":false,"rental_uris":{"android":"levelo://app?vid=39505843-80ca-426a-86f1-c25b71cffadb","ios":"levelo://app?vid=39505843-80ca-426a-86f1-c25b71cffadb"},"vehicle_type_id":"4","last_reported":1740474594,"current_range_meters":2800,"station_id":"ce4bhn92rcd13ifvqgrg","pricing_plan_id":"cebpf4jnsgd1na2vs0mg"},{"bike_id":"618f6f05-2c77-4739-800c-bc7f37167113","system_id":"levelo_inurba_marseille","lat":43.274981,"lon":5.424552,"is_reserved":false,"is_disabled":false,"rental_uris":{"android":"levelo://app?vid=618f6f05-2c77-4739-800c-bc7f37167113","ios":"levelo://app?vid=618f6f05-2c77-4739-800c-bc7f37167113"},"vehicle_type_id":"4","last_reported":1740474594,"current_range_meters":3200,"station_id":"ce4bhn92rcd13ifvqgrg","pricing_plan_id":"cebpf4jnsgd1na2vs0mg"},{"bike_id":"7cdb12c6-99df-4575-ad0f-fba73296840d","system_id":"levelo_inurba_marseille","lat":43.27622,"lon":5.36111,"is_reserved":false,"is_disabled":false,"rental_uris":{"android":"levelo://app?vid=7cdb12c6-99df-4575-ad0f-fba73296840d","ios":"levelo://app?vid=7cdb12c6-99df-4575-ad0f-fba73296840d"},"vehicle_type_id":"4","last_reported":1740474594,"current_range_meters":3200,"station_id":"ce4bgj92rcd13ifvqbe0","pricing_plan_id":"cebpf4jnsgd1na2vs0mg"},{"bike_id":"d1f69504-3f20-4c45-a812-fb172e10cd2d","system_id":"levelo_inurba_marseille","lat":43.30462,"lon":5.37913,"is_reserved":false,"is_disabled":false,"rental_uris":{"android":"levelo://app?vid=d1f69504-3f20-4c45-a812-fb172e10cd2d","ios":"levelo://app?vid=d1f69504-3f20-4c45-a812-fb172e10cd2d"},"vehicle_type_id":"4","last_reported":1740474594,"current_range_meters":3200,"station_id":"ce4bgup2rcd13ifvqcn0","pricing_plan_id":"cebpf4jnsgd1na2vs0mg"},{"bike_id":"16a64962-c840-403e-8215-260ce50518b7","system_id":"levelo_inurba_marseille","lat":43.28146,"lon":5.42645,"is_reserved":false,"is_disabled":false,"rental_uris":{"android":"levelo://app?vid=16a64962-c840-403e-8215-260ce50518b7","ios":"levelo://app?vid=16a64962-c840-403e-8215-260ce50518b7"},"vehicle_type_id":"4","last_reported":1740474594,"current_range_meters":3600,"station_id":"","pricing_plan_id":"cebpf4jnsgd1na2vs0mg"},{"bike_id":"3d22fb6d-91ff-46ae-a4d7-c4682f5965e6","system_id":"levelo_inurba_marseille","lat":43.23157,"lon":5.43724,"is_reserved":false,"is_disabled":false,"rental_uris":{"android":"levelo://app?vid=3d22fb6d-91ff-46ae-a4d7-c4682f5965e6","ios":"levelo://app?vid=3d22fb6d-91ff-46ae-a4d7-c4682f5965e6"},"vehicle_type_id":"4","last_reported":1740474594,"current_range_meters":3600,"station_id":"ce4bhmp2rcd13ifvqgog","pricing_plan_id":"cebpf4jnsgd1na2vs0mg"},{"bike_id":"573f6cb4-f548-4a7f-8e65-df36efaa5896","system_id":"levelo_inurba_marseille","lat":43.30601,"lon":5.39332,"is_reserved":false,"is_disabled":false,"rental_uris":{"android":"levelo://app?vid=573f6cb4-f548-4a7f-8e65-df36efaa5896","ios":"levelo://app?vid=573f6cb4-f548-4a7f-8e65-df36efaa5896"},"vehicle_type_id":"4","last_reported":1740474594,"current_range_meters":4400,"station_id":"ce4bh0p2rcd13ifvqd80","pricing_plan_id":"cebpf4jnsgd1na2vs0mg"},{"bike_id":"db29ab0a-60d6-4bfa-9201-46260261a3af","system_id":"levelo_inurba_marseille","lat":43.32484,"lon":5.36578,"is_reserved":false,"is_disabled":false,"rental_uris":{"android":"levelo://app?vid=db29ab0a-60d6-4bfa-9201-46260261a3af","ios":"levelo://app?vid=db29ab0a-60d6-4bfa-9201-46260261a3af"},"vehicle_type_id":"4","last_reported":1740474594,"current_range_meters":4400,"station_id":"ce4bhs12rcd13ifvqhvg","pricing_plan_id":"cebpf4jnsgd1na2vs0mg"},{"bike_id":"10c864a5-d27a-49e0-811a-903dc04f0d09","system_id":"levelo_inurba_marseille","lat":43.28153,"lon":5.42648,"is_reserved":false,"is_disabled":false,"rental_uris":{"android":"levelo://app?vid=10c864a5-d27a-49e0-811a-903dc04f0d09","ios":"levelo://app?vid=10c864a5-d27a-49e0-811a-903dc04f0d09"},"vehicle_type_id":"4","last_reported":1740474594,"current_range_meters":4400,"station_id":"ce4bhnh2rcd13ifvqgug","pricing_plan_id":"cebpf4jnsgd1na2vs0mg"},{"bike_id":"497be63f-7838-4a55-b8f4-13e260e44ea5","system_id":"levelo_inurba_marseille","lat":43.29456,"lon":5.38557,"is_reserved":false,"is_disabled":false,"rental_uris":{"android":"levelo://app?vid=497be63f-7838-4a55-b8f4-13e260e44ea5","ios":"levelo://app?vid=497be63f-7838-4a55-b8f4-13e260e44ea5"},"vehicle_type_id":"4","last_reported":1740474594,"current_range_meters":4800,"station_id":"ce4bh2h2rcd13ifvqdh0","pricing_plan_id":"cebpf4jnsgd1na2vs0mg"},{"bike_id":"bddf8e7b-3da7-4773-b7ae-9c6dd1337414","system_id":"levelo_inurba_marseille","lat":43.28152,"lon":5.42657,"is_reserved":false,"is_disabled":false,"rental_uris":{"android":"levelo://app?vid=bddf8e7b-3da7-4773-b7ae-9c6dd1337414","ios":"levelo://app?vid=bddf8e7b-3da7-4773-b7ae-9c6dd1337414"},"vehicle_type_id":"4","last_reported":1740474594,"current_range_meters":5600,"station_id":"ce4bhnh2rcd13ifvqgug","pricing_plan_id":"cebpf4jnsgd1na2vs0mg"},{"bike_id":"2f039805-95db-4e35-939c-434f6f4eb295","system_id":"levelo_inurba_marseille","lat":43.27059,"lon":5.40265,"is_reserved":false,"is_disabled":false,"rental_uris":{"android":"levelo://app?vid=2f039805-95db-4e35-939c-434f6f4eb295","ios":"levelo://app?vid=2f039805-95db-4e35-939c-434f6f4eb295"},"vehicle_type_id":"4","last_reported":1740474594,"current_range_meters":5600,"station_id":"ce4bhk92rcd13ifvqgc0","pricing_plan_id":"cebpf4jnsgd1na2vs0mg"},{"bike_id":"b004eea0-d52e-4a34-9da5-8c7018b8b6a2","system_id":"levelo_inurba_marseille","lat":43.23197,"lon":5.35582,"is_reserved":false,"is_disabled":false,"rental_uris":{"android":"levelo://app?vid=b004eea0-d52e-4a34-9da5-8c7018b8b6a2","ios":"levelo://app?vid=b004eea0-d52e-4a34-9da5-8c7018b8b6a2"},"vehicle_type_id":"4","last_reported":1740474594,"current_range_meters":5600,"station_id":"ce4bhu92rcd13ifvqi70","pricing_plan_id":"cebpf4jnsgd1na2vs0mg"},{"bike_id":"bd1c9204-109d-453d-a655-cc2878aad0c5","system_id":"levelo_inurba_marseille","lat":43.29881,"lon":5.43678,"is_reserved":false,"is_disabled":false,"rental_uris":{"android":"levelo://app?vid=bd1c9204-109d-453d-a655-cc2878aad0c5","ios":"levelo://app?vid=bd1c9204-109d-453d-a655-cc2878aad0c5"},"vehicle_type_id":"4","last_reported":1740474594,"current_range_meters":6000,"station_id":"ce4bhpp2rcd13ifvqhfg","pricing_plan_id":"cebpf4jnsgd1na2vs0mg"},{"bike_id":"e39001b8-33ab-4a60-8556-5e9e2aa9b53e","system_id":"levelo_inurba_marseille","lat":43.288618,"lon":5.393048,"is_reserved":false,"is_disabled":false,"rental_uris":{"android":"levelo://app?vid=e39001b8-33ab-4a60-8556-5e9e2aa9b53e","ios":"levelo://app?vid=e39001b8-33ab-4a60-8556-5e9e2aa9b53e"},"vehicle_type_id":"4","last_reported":1740474594,"current_range_meters":6400,"station_id":"","pricing_plan_id":"cebpf4jnsgd1na2vs0mg"},{"bike_id":"2ce5a7a3-ebc5-4542-8581-83c42fa52a52","system_id":"levelo_inurba_marseille","lat":43.30964,"lon":5.3904,"is_reserved":false,"is_disabled":false,"rental_uris":{"android":"levelo://app?vid=2ce5a7a3-ebc5-4542-8581-83c42fa52a52","ios":"levelo://app?vid=2ce5a7a3-ebc5-4542-8581-83c42fa52a52"},"vehicle_type_id":"4","last_reported":1740474594,"current_range_meters":6400,"station_id":"ce4bgup2rcd13ifvqco0","pricing_plan_id":"cebpf4jnsgd1na2vs0mg"},{"bike_id":"9912bd3b-182f-467c-92db-65e052c11af3","system_id":"levelo_inurba_marseille","lat":43.24285,"lon":5.43821,"is_reserved":false,"is_disabled":false,"rental_uris":{"android":"levelo://app?vid=9912bd3b-182f-467c-92db-65e052c11af3","ios":"levelo://app?vid=9912bd3b-182f-467c-92db-65e052c11af3"},"vehicle_type_id":"4","last_reported":1740474594,"current_range_meters":6400,"station_id":"","pricing_plan_id":"cebpf4jnsgd1na2vs0mg"},{"bike_id":"09828cee-5d3b-44bf-a831-fd977552757a","system_id":"levelo_inurba_marseille","lat":43.29435,"lon":5.39758,"is_reserved":false,"is_disabled":false,"rental_uris":{"android":"levelo://app?vid=09828cee-5d3b-44bf-a831-fd977552757a","ios":"levelo://app?vid=09828cee-5d3b-44bf-a831-fd977552757a"},"vehicle_type_id":"4","last_reported":1740474594,"current_range_meters":6400,"station_id":"ce4bh3h2rcd13ifvqdo0","pricing_plan_id":"cebpf4jnsgd1na2vs0mg"},{"bike_id":"87bbda1f-0db0-4d79-a046-a87b5e94995a","system_id":"levelo_inurba_marseille","lat":43.24161,"lon":5.36403,"is_reserved":false,"is_disabled":false,"rental_uris":{"android":"levelo://app?vid=87bbda1f-0db0-4d79-a046-a87b5e94995a","ios":"levelo://app?vid=87bbda1f-0db0-4d79-a046-a87b5e94995a"},"vehicle_type_id":"4","last_reported":1740474594,"current_range_meters":6800,"station_id":"cpo36qri1sfpv3e86is0","pricing_plan_id":"cebpf4jnsgd1na2vs0mg"},{"bike_id":"a278b8e6-6a6f-43e4-8af8-ccf033113b37","system_id":"levelo_inurba_marseille","lat":43.26953,"lon":5.38637,"is_reserved":false,"is_disabled":false,"rental_uris":{"android":"levelo://app?vid=a278b8e6-6a6f-43e4-8af8-ccf033113b37","ios":"levelo://app?vid=a278b8e6-6a6f-43e4-8af8-ccf033113b37"},"vehicle_type_id":"4","last_reported":1740474594,"current_range_meters":6800,"station_id":"ce4bhh92rcd13ifvqfh0","pricing_plan_id":"cebpf4jnsgd1na2vs0mg"},{"bike_id":"f1a3b4bc-57c7-4c54-9825-18988b7de455","system_id":"levelo_inurba_marseille","lat":43.27803,"lon":5.40711,"is_reserved":false,"is_disabled":false,"rental_uris":{"android":"levelo://app?vid=f1a3b4bc-57c7-4c54-9825-18988b7de455","ios":"levelo://app?vid=f1a3b4bc-57c7-4c54-9825-18988b7de455"},"vehicle_type_id":"4","last_reported":1740474594,"current_range_meters":6800,"station_id":"ce4bhnh2rcd13ifvqgtg","pricing_plan_id":"cebpf4jnsgd1na2vs0mg"},{"bike_id":"15d63c41-d467-4e01-ab9d-1a4d98399eb8","system_id":"levelo_inurba_marseille","lat":43.28076,"lon":5.39673,"is_reserved":false,"is_disabled":true,"rental_uris":{"android":"levelo://app?vid=15d63c41-d467-4e01-ab9d-1a4d98399eb8","ios":"levelo://app?vid=15d63c41-d467-4e01-ab9d-1a4d98399eb8"},"vehicle_type_id":"4","last_reported":1740474594,"current_range_meters":6800,"station_id":"ce4bho12rcd13ifvqh2g","pricing_plan_id":"cebpf4jnsgd1na2vs0mg"},{"bike_id":"a295a266-5da2-4ee3-bc6a-c5a03776d4a1","system_id":"levelo_inurba_marseille","lat":43.30921,"lon":5.40139,"is_reserved":false,"is_disabled":false,"rental_uris":{"android":"levelo://app?vid=a295a266-5da2-4ee3-bc6a-c5a03776d4a1","ios":"levelo://app?vid=a295a266-5da2-4ee3-bc6a-c5a03776d4a1"},"vehicle_type_id":"4","last_reported":1740474594,"current_range_meters":6800,"station_id":"ce4bgvp2rcd13ifvqct0","pricing_plan_id":"cebpf4jnsgd1na2vs0mg"},{"bike_id":"f3e2d31b-bf16-4d93-8358-e1b5fc69cdb1","system_id":"levelo_inurba_marseille","lat":43.28093,"lon":5.39897,"is_reserved":false,"is_disabled":false,"rental_uris":{"android":"levelo://app?vid=f3e2d31b-bf16-4d93-8358-e1b5fc69cdb1","ios":"levelo://app?vid=f3e2d31b-bf16-4d93-8358-e1b5fc69cdb1"},"vehicle_type_id":"4","last_reported":1740474594,"current_range_meters":6800,"station_id":"","pricing_plan_id":"cebpf4jnsgd1na2vs0mg"},{"bike_id":"17da1feb-9abe-4e1d-9544-5a842d8f1b8a","system_id":"levelo_inurba_marseille","lat":43.27803,"lon":5.40736,"is_reserved":false,"is_disabled":false,"rental_uris":{"android":"levelo://app?vid=17da1feb-9abe-4e1d-9544-5a842d8f1b8a","ios":"levelo://app?vid=17da1feb-9abe-4e1d-9544-5a842d8f1b8a"},"vehicle_type_id":"4","last_reported":1740474594,"current_range_meters":6800,"station_id":"ce4bhnh2rcd13ifvqgtg","pricing_plan_id":"cebpf4jnsgd1na2vs0mg"},{"bike_id":"6491ef1b-9b7b-4294-a78b-cf05a333ba7f","system_id":"levelo_inurba_marseille","lat":43.33119,"lon":5.38223,"is_reserved":false,"is_disabled":false,"rental_uris":{"android":"levelo://app?vid=6491ef1b-9b7b-4294-a78b-cf05a333ba7f","ios":"levelo://app?vid=6491ef1b-9b7b-4294-a78b-cf05a333ba7f"},"vehicle_type_id":"4","last_reported":1740474594,"current_range_meters":7200,"station_id":"","pricing_plan_id":"cebpf4jnsgd1na2vs0mg"},{"bike_id":"8dfb11fa-7216-4418-a2e4-a27dc9f45ff7","system_id":"levelo_inurba_marseille","lat":43.32335,"lon":5.40621,"is_reserved":false,"is_disabled":false,"rental_uris":{"android":"levelo://app?vid=8dfb11fa-7216-4418-a2e4-a27dc9f45ff7","ios":"levelo://app?vid=8dfb11fa-7216-4418-a2e4-a27dc9f45ff7"},"vehicle_type_id":"4","last_reported":1740474594,"current_range_meters":7200,"station_id":"ce4bhq92rcd13ifvqhjg","pricing_plan_id":"cebpf4jnsgd1na2vs0mg"},{"bike_id":"c93a81cd-6f4d-4858-87d2-9289cc072b8d","system_id":"levelo_inurba_marseille","lat":43.241648,"lon":5.397386,"is_reserved":false,"is_disabled":false,"rental_uris":{"android":"levelo://app?vid=c93a81cd-6f4d-4858-87d2-9289cc072b8d","ios":"levelo://app?vid=c93a81cd-6f4d-4858-87d2-9289cc072b8d"},"vehicle_type_id":"4","last_reported":1740474594,"current_range_meters":8000,"station_id":"ce4bh9p2rcd13ifvqec0","pricing_plan_id":"cebpf4jnsgd1na2vs0mg"},{"bike_id":"62d6dfac-3678-46c2-bb6d-52ac1ce7e615","system_id":"levelo_inurba_marseille","lat":43.25824,"lon":5.3943,"is_reserved":false,"is_disabled":false,"rental_uris":{"android":"levelo://app?vid=62d6dfac-3678-46c2-bb6d-52ac1ce7e615","ios":"levelo://app?vid=62d6dfac-3678-46c2-bb6d-52ac1ce7e615"},"vehicle_type_id":"4","last_reported":1740474594,"current_range_meters":8400,"station_id":"ce4bhip2rcd13ifvqft0","pricing_plan_id":"cebpf4jnsgd1na2vs0mg"},{"bike_id":"b52d8d7e-f6ec-49cf-ac89-147c857c56d7","system_id":"levelo_inurba_marseille","lat":43.29035,"lon":5.38136,"is_reserved":false,"is_disabled":false,"rental_uris":{"android":"levelo://app?vid=b52d8d7e-f6ec-49cf-ac89-147c857c56d7","ios":"levelo://app?vid=b52d8d7e-f6ec-49cf-ac89-147c857c56d7"},"vehicle_type_id":"4","last_reported":1740474594,"current_range_meters":7200,"station_id":"ce4bh4p2rcd13ifvqe1g","pricing_plan_id":"cebpf4jnsgd1na2vs0mg"},{"bike_id":"ec17ff6a-26f9-4514-bd43-4ec7017c0b01","system_id":"levelo_inurba_marseille","lat":43.29314,"lon":5.37663,"is_reserved":false,"is_disabled":false,"rental_uris":{"android":"levelo://app?vid=ec17ff6a-26f9-4514-bd43-4ec7017c0b01","ios":"levelo://app?vid=ec17ff6a-26f9-4514-bd43-4ec7017c0b01"},"vehicle_type_id":"4","last_reported":1740474594,"current_range_meters":8400,"station_id":"","pricing_plan_id":"cebpf4jnsgd1na2vs0mg"},{"bike_id":"5162c2ce-a731-4d3b-a21a-a1c8cb63150f","system_id":"levelo_inurba_marseille","lat":43.31714,"lon":5.43709,"is_reserved":false,"is_disabled":false,"rental_uris":{"android":"levelo://app?vid=5162c2ce-a731-4d3b-a21a-a1c8cb63150f","ios":"levelo://app?vid=5162c2ce-a731-4d3b-a21a-a1c8cb63150f"},"vehicle_type_id":"4","last_reported":1740474594,"current_range_meters":8400,"station_id":"ce4bhp92rcd13ifvqhcg","pricing_plan_id":"cebpf4jnsgd1na2vs0mg"},{"bike_id":"1581c696-dc77-4533-8ebe-4843fa09772c","system_id":"levelo_inurba_marseille","lat":43.3089,"lon":5.36867,"is_reserved":false,"is_disabled":false,"rental_uris":{"android":"levelo://app?vid=1581c696-dc77-4533-8ebe-4843fa09772c","ios":"levelo://app?vid=1581c696-dc77-4533-8ebe-4843fa09772c"},"vehicle_type_id":"4","last_reported":1740474594,"current_range_meters":8400,"station_id":"ce4bgn92rcd13ifvqbvg","pricing_plan_id":"cebpf4jnsgd1na2vs0mg"},{"bike_id":"674cb057-5d42-4512-ae8c-448c1f63016b","system_id":"levelo_inurba_marseille","lat":43.30358,"lon":5.39442,"is_reserved":false,"is_disabled":false,"rental_uris":{"android":"levelo://app?vid=674cb057-5d42-4512-ae8c-448c1f63016b","ios":"levelo://app?vid=674cb057-5d42-4512-ae8c-448c1f63016b"},"vehicle_type_id":"4","last_reported":1740474594,"current_range_meters":8800,"station_id":"","pricing_plan_id":"cebpf4jnsgd1na2vs0mg"},{"bike_id":"f9470979-44d4-4e36-ab27-624a16f818c8","system_id":"levelo_inurba_marseille","lat":43.29023,"lon":5.3865,"is_reserved":false,"is_disabled":false,"rental_uris":{"android":"levelo://app?vid=f9470979-44d4-4e36-ab27-624a16f818c8","ios":"levelo://app?vid=f9470979-44d4-4e36-ab27-624a16f818c8"},"vehicle_type_id":"4","last_reported":1740474594,"current_range_meters":8800,"station_id":"ce4bh4p2rcd13ifvqe0g","pricing_plan_id":"cebpf4jnsgd1na2vs0mg"},{"bike_id":"3ae1c95f-802a-41bc-8f1b-220c25acb877","system_id":"levelo_inurba_marseille","lat":43.30953,"lon":5.39044,"is_reserved":false,"is_disabled":false,"rental_uris":{"android":"levelo://app?vid=3ae1c95f-802a-41bc-8f1b-220c25acb877","ios":"levelo://app?vid=3ae1c95f-802a-41bc-8f1b-220c25acb877"},"vehicle_type_id":"4","last_reported":1740474594,"current_range_meters":8400,"station_id":"ce4bgup2rcd13ifvqco0","pricing_plan_id":"cebpf4jnsgd1na2vs0mg"},{"bike_id":"446313c8-37fc-4f36-b9c3-a1d481dfb62b","system_id":"levelo_inurba_marseille","lat":43.26817,"lon":5.41104,"is_reserved":false,"is_disabled":false,"rental_uris":{"android":"levelo://app?vid=446313c8-37fc-4f36-b9c3-a1d481dfb62b","ios":"levelo://app?vid=446313c8-37fc-4f36-b9c3-a1d481dfb62b"},"vehicle_type_id":"4","last_reported":1740474594,"current_range_meters":8800,"station_id":"","pricing_plan_id":"cebpf4jnsgd1na2vs0mg"},{"bike_id":"f980f677-3577-4af4-a6ba-79a13435ea20","system_id":"levelo_inurba_marseille","lat":43.29036,"lon":5.37583,"is_reserved":false,"is_disabled":false,"rental_uris":{"android":"levelo://app?vid=f980f677-3577-4af4-a6ba-79a13435ea20","ios":"levelo://app?vid=f980f677-3577-4af4-a6ba-79a13435ea20"},"vehicle_type_id":"4","last_reported":1740474594,"current_range_meters":8400,"station_id":"ce4bh692rcd13ifvqe90","pricing_plan_id":"cebpf4jnsgd1na2vs0mg"},{"bike_id":"ce08e129-3210-4784-8e00-3661099c392d","system_id":"levelo_inurba_marseille","lat":43.29916,"lon":5.43688,"is_reserved":false,"is_disabled":false,"rental_uris":{"android":"levelo://app?vid=ce08e129-3210-4784-8e00-3661099c392d","ios":"levelo://app?vid=ce08e129-3210-4784-8e00-3661099c392d"},"vehicle_type_id":"4","last_reported":1740474594,"current_range_meters":9600,"station_id":"","pricing_plan_id":"cebpf4jnsgd1na2vs0mg"},{"bike_id":"12df8aaa-59bf-4fdf-b25e-98167408cc80","system_id":"levelo_inurba_marseille","lat":43.32564,"lon":5.41456,"is_reserved":false,"is_disabled":false,"rental_uris":{"android":"levelo://app?vid=12df8aaa-59bf-4fdf-b25e-98167408cc80","ios":"levelo://app?vid=12df8aaa-59bf-4fdf-b25e-98167408cc80"},"vehicle_type_id":"4","last_reported":1740474594,"current_range_meters":9200,"station_id":"","pricing_plan_id":"cebpf4jnsgd1na2vs0mg"},{"bike_id":"fa607b43-2bfd-442a-86bc-08f40a695b42","system_id":"levelo_inurba_marseille","lat":43.23153,"lon":5.43682,"is_reserved":false,"is_disabled":false,"rental_uris":{"android":"levelo://app?vid=fa607b43-2bfd-442a-86bc-08f40a695b42","ios":"levelo://app?vid=fa607b43-2bfd-442a-86bc-08f40a695b42"},"vehicle_type_id":"4","last_reported":1740474594,"current_range_meters":9200,"station_id":"ce4bhmp2rcd13ifvqgog","pricing_plan_id":"cebpf4jnsgd1na2vs0mg"},{"bike_id":"7deaf953-0f73-4d03-80c3-69818dfef8bd","system_id":"levelo_inurba_marseille","lat":43.24177,"lon":5.39726,"is_reserved":false,"is_disabled":false,"rental_uris":{"android":"levelo://app?vid=7deaf953-0f73-4d03-80c3-69818dfef8bd","ios":"levelo://app?vid=7deaf953-0f73-4d03-80c3-69818dfef8bd"},"vehicle_type_id":"4","last_reported":1740474594,"current_range_meters":9200,"station_id":"ce4bhn12rcd13ifvqgpg","pricing_plan_id":"cebpf4jnsgd1na2vs0mg"},{"bike_id":"23ac5b9d-f461-44d6-aa3f-f010650ffe67","system_id":"levelo_inurba_marseille","lat":43.29039,"lon":5.38638,"is_reserved":false,"is_disabled":false,"rental_uris":{"android":"levelo://app?vid=23ac5b9d-f461-44d6-aa3f-f010650ffe67","ios":"levelo://app?vid=23ac5b9d-f461-44d6-aa3f-f010650ffe67"},"vehicle_type_id":"4","last_reported":1740474594,"current_range_meters":9600,"station_id":"ce4bh4p2rcd13ifvqe0g","pricing_plan_id":"cebpf4jnsgd1na2vs0mg"},{"bike_id":"d469ae70-b06c-49f4-b9c4-a41e0d165d26","system_id":"levelo_inurba_marseille","lat":43.24156,"lon":5.36413,"is_reserved":false,"is_disabled":false,"rental_uris":{"android":"levelo://app?vid=d469ae70-b06c-49f4-b9c4-a41e0d165d26","ios":"levelo://app?vid=d469ae70-b06c-49f4-b9c4-a41e0d165d26"},"vehicle_type_id":"4","last_reported":1740474594,"current_range_meters":9600,"station_id":"cpo36qri1sfpv3e86is0","pricing_plan_id":"cebpf4jnsgd1na2vs0mg"},{"bike_id":"b303f51f-7eea-4acf-bd63-dc0ef3a14a7b","system_id":"levelo_inurba_marseille","lat":43.33026,"lon":5.3904,"is_reserved":false,"is_disabled":false,"rental_uris":{"android":"levelo://app?vid=b303f51f-7eea-4acf-bd63-dc0ef3a14a7b","ios":"levelo://app?vid=b303f51f-7eea-4acf-bd63-dc0ef3a14a7b"},"vehicle_type_id":"4","last_reported":1740474594,"current_range_meters":9600,"station_id":"ce4bhr92rcd13ifvqhrg","pricing_plan_id":"cebpf4jnsgd1na2vs0mg"},{"bike_id":"43283546-0c6f-4116-b0be-3b4e91fa7c5f","system_id":"levelo_inurba_marseille","lat":43.29392,"lon":5.38493,"is_reserved":false,"is_disabled":false,"rental_uris":{"android":"levelo://app?vid=43283546-0c6f-4116-b0be-3b4e91fa7c5f","ios":"levelo://app?vid=43283546-0c6f-4116-b0be-3b4e91fa7c5f"},"vehicle_type_id":"4","last_reported":1740474594,"current_range_meters":9600,"station_id":"","pricing_plan_id":"cebpf4jnsgd1na2vs0mg"},{"bike_id":"2d9f0777-5b96-4c1e-80c5-10449636aa92","system_id":"levelo_inurba_marseille","lat":43.32366,"lon":5.38886,"is_reserved":false,"is_disabled":false,"rental_uris":{"android":"levelo://app?vid=2d9f0777-5b96-4c1e-80c5-10449636aa92","ios":"levelo://app?vid=2d9f0777-5b96-4c1e-80c5-10449636aa92"},"vehicle_type_id":"4","last_reported":1740474594,"current_range_meters":9600,"station_id":"ce4bhqp2rcd13ifvqhog","pricing_plan_id":"cebpf4jnsgd1na2vs0mg"},{"bike_id":"63ddc9ce-4eec-4e46-9289-5ef1f55bdbb1","system_id":"levelo_inurba_marseille","lat":43.27915,"lon":5.39579,"is_reserved":false,"is_disabled":false,"rental_uris":{"android":"levelo://app?vid=63ddc9ce-4eec-4e46-9289-5ef1f55bdbb1","ios":"levelo://app?vid=63ddc9ce-4eec-4e46-9289-5ef1f55bdbb1"},"vehicle_type_id":"4","last_reported":1740474594,"current_range_meters":9600,"station_id":"ce4bhf92rcd13ifvqf40","pricing_plan_id":"cebpf4jnsgd1na2vs0mg"},{"bike_id":"e2b4ea08-0dae-49c6-afc0-0e036c5f8091","system_id":"levelo_inurba_marseille","lat":43.31431,"lon":5.36693,"is_reserved":false,"is_disabled":false,"rental_uris":{"android":"levelo://app?vid=e2b4ea08-0dae-49c6-afc0-0e036c5f8091","ios":"levelo://app?vid=e2b4ea08-0dae-49c6-afc0-0e036c5f8091"},"vehicle_type_id":"4","last_reported":1740474594,"current_range_meters":10000,"station_id":"ce4bgr92rcd13ifvqc6g","pricing_plan_id":"cebpf4jnsgd1na2vs0mg"},{"bike_id":"d6e32f85-e780-48b8-bf5f-76568b57170c","system_id":"levelo_inurba_marseille","lat":43.29969,"lon":5.38496,"is_reserved":false,"is_disabled":false,"rental_uris":{"android":"levelo://app?vid=d6e32f85-e780-48b8-bf5f-76568b57170c","ios":"levelo://app?vid=d6e32f85-e780-48b8-bf5f-76568b57170c"},"vehicle_type_id":"4","last_reported":1740474594,"current_range_meters":10000,"station_id":"ce4bgj92rcd13ifvqbd0","pricing_plan_id":"cebpf4jnsgd1na2vs0mg"},{"bike_id":"f9109333-d2db-49e1-bce3-a402ab842f43","system_id":"levelo_inurba_marseille","lat":43.26422,"lon":5.398,"is_reserved":false,"is_disabled":false,"rental_uris":{"android":"levelo://app?vid=f9109333-d2db-49e1-bce3-a402ab842f43","ios":"levelo://app?vid=f9109333-d2db-49e1-bce3-a402ab842f43"},"vehicle_type_id":"4","last_reported":1740474594,"current_range_meters":10000,"station_id":"","pricing_plan_id":"cebpf4jnsgd1na2vs0mg"},{"bike_id":"8cae776c-6f2d-427c-9cd5-28f4fa6b92c9","system_id":"levelo_inurba_marseille","lat":43.290703,"lon":5.371626,"is_reserved":false,"is_disabled":false,"rental_uris":{"android":"levelo://app?vid=8cae776c-6f2d-427c-9cd5-28f4fa6b92c9","ios":"levelo://app?vid=8cae776c-6f2d-427c-9cd5-28f4fa6b92c9"},"vehicle_type_id":"4","last_reported":1740474594,"current_range_meters":10800,"station_id":"","pricing_plan_id":"cebpf4jnsgd1na2vs0mg"},{"bike_id":"530cde92-7948-45d6-a618-2fa6502ad28f","system_id":"levelo_inurba_marseille","lat":43.23151,"lon":5.43713,"is_reserved":false,"is_disabled":false,"rental_uris":{"android":"levelo://app?vid=530cde92-7948-45d6-a618-2fa6502ad28f","ios":"levelo://app?vid=530cde92-7948-45d6-a618-2fa6502ad28f"},"vehicle_type_id":"4","last_reported":1740474594,"current_range_meters":10000,"station_id":"ce4bhmp2rcd13ifvqgog","pricing_plan_id":"cebpf4jnsgd1na2vs0mg"},{"bike_id":"e5c275a2-a964-47d8-9489-ed1126cf4cef","system_id":"levelo_inurba_marseille","lat":43.29634,"lon":5.37927,"is_reserved":false,"is_disabled":false,"rental_uris":{"android":"levelo://app?vid=e5c275a2-a964-47d8-9489-ed1126cf4cef","ios":"levelo://app?vid=e5c275a2-a964-47d8-9489-ed1126cf4cef"},"vehicle_type_id":"4","last_reported":1740474594,"current_range_meters":11200,"station_id":"","pricing_plan_id":"cebpf4jnsgd1na2vs0mg"},{"bike_id":"c67397b0-23f5-4ab1-b6e8-82f41d0f970c","system_id":"levelo_inurba_marseille","lat":43.29579,"lon":5.39975,"is_reserved":false,"is_disabled":false,"rental_uris":{"android":"levelo://app?vid=c67397b0-23f5-4ab1-b6e8-82f41d0f970c","ios":"levelo://app?vid=c67397b0-23f5-4ab1-b6e8-82f41d0f970c"},"vehicle_type_id":"4","last_reported":1740474594,"current_range_meters":10800,"station_id":"ce4bh312rcd13ifvqdj0","pricing_plan_id":"cebpf4jnsgd1na2vs0mg"},{"bike_id":"1bdb2361-9c13-48cc-81dc-cb3b1e1cac38","system_id":"levelo_inurba_marseille","lat":43.27948,"lon":5.39625,"is_reserved":false,"is_disabled":false,"rental_uris":{"android":"levelo://app?vid=1bdb2361-9c13-48cc-81dc-cb3b1e1cac38","ios":"levelo://app?vid=1bdb2361-9c13-48cc-81dc-cb3b1e1cac38"},"vehicle_type_id":"4","last_reported":1740474594,"current_range_meters":10800,"station_id":"","pricing_plan_id":"cebpf4jnsgd1na2vs0mg"},{"bike_id":"fedd757d-19ce-4975-96e6-931d89055099","system_id":"levelo_inurba_marseille","lat":43.29274,"lon":5.36853,"is_reserved":false,"is_disabled":false,"rental_uris":{"android":"levelo://app?vid=fedd757d-19ce-4975-96e6-931d89055099","ios":"levelo://app?vid=fedd757d-19ce-4975-96e6-931d89055099"},"vehicle_type_id":"4","last_reported":1740474594,"current_range_meters":9600,"station_id":"ce4bhbp2rcd13ifvqesg","pricing_plan_id":"cebpf4jnsgd1na2vs0mg"},{"bike_id":"c7977451-2300-4bdc-905f-c60f063b5aad","system_id":"levelo_inurba_marseille","lat":43.25873,"lon":5.39892,"is_reserved":false,"is_disabled":false,"rental_uris":{"android":"levelo://app?vid=c7977451-2300-4bdc-905f-c60f063b5aad","ios":"levelo://app?vid=c7977451-2300-4bdc-905f-c60f063b5aad"},"vehicle_type_id":"4","last_reported":1740474594,"current_range_meters":10800,"station_id":"ce4bhl92rcd13ifvqghg","pricing_plan_id":"cebpf4jnsgd1na2vs0mg"},{"bike_id":"f7995511-6f6d-4141-bab3-3a01e87089f9","system_id":"levelo_inurba_marseille","lat":43.25719,"lon":5.41116,"is_reserved":false,"is_disabled":false,"rental_uris":{"android":"levelo://app?vid=f7995511-6f6d-4141-bab3-3a01e87089f9","ios":"levelo://app?vid=f7995511-6f6d-4141-bab3-3a01e87089f9"},"vehicle_type_id":"4","last_reported":1740474594,"current_range_meters":11200,"station_id":"ce4bhkp2rcd13ifvqgd0","pricing_plan_id":"cebpf4jnsgd1na2vs0mg"},{"bike_id":"1642d552-714a-4119-8886-193ca1d82101","system_id":"levelo_inurba_marseille","lat":43.29524,"lon":5.39411,"is_reserved":false,"is_disabled":false,"rental_uris":{"android":"levelo://app?vid=1642d552-714a-4119-8886-193ca1d82101","ios":"levelo://app?vid=1642d552-714a-4119-8886-193ca1d82101"},"vehicle_type_id":"4","last_reported":1740474594,"current_range_meters":10800,"station_id":"ce4bh292rcd13ifvqdf0","pricing_plan_id":"cebpf4jnsgd1na2vs0mg"},{"bike_id":"32539051-701a-43d4-870d-0627192d3ef3","system_id":"levelo_inurba_marseille","lat":43.25017,"lon":5.38919,"is_reserved":false,"is_disabled":false,"rental_uris":{"android":"levelo://app?vid=32539051-701a-43d4-870d-0627192d3ef3","ios":"levelo://app?vid=32539051-701a-43d4-870d-0627192d3ef3"},"vehicle_type_id":"4","last_reported":1740474594,"current_range_meters":11200,"station_id":"ce4bhgp2rcd13ifvqfd0","pricing_plan_id":"cebpf4jnsgd1na2vs0mg"},{"bike_id":"cdd24989-081e-4ace-a92c-ff5850d2f988","system_id":"levelo_inurba_marseille","lat":43.2749,"lon":5.42475,"is_reserved":false,"is_disabled":false,"rental_uris":{"android":"levelo://app?vid=cdd24989-081e-4ace-a92c-ff5850d2f988","ios":"levelo://app?vid=cdd24989-081e-4ace-a92c-ff5850d2f988"},"vehicle_type_id":"4","last_reported":1740474594,"current_range_meters":11200,"station_id":"ce4bhn92rcd13ifvqgrg","pricing_plan_id":"cebpf4jnsgd1na2vs0mg"},{"bike_id":"8e5ae0b1-8e84-4ee8-a954-9733e390b352","system_id":"levelo_inurba_marseille","lat":43.31893,"lon":5.40735,"is_reserved":false,"is_disabled":false,"rental_uris":{"android":"levelo://app?vid=8e5ae0b1-8e84-4ee8-a954-9733e390b352","ios":"levelo://app?vid=8e5ae0b1-8e84-4ee8-a954-9733e390b352"},"vehicle_type_id":"4","last_reported":1740474594,"current_range_meters":11600,"station_id":"ce4bhq12rcd13ifvqhig","pricing_plan_id":"cebpf4jnsgd1na2vs0mg"},{"bike_id":"67ae04d0-b99b-4d3b-a5dd-5f43fa118fc3","system_id":"levelo_inurba_marseille","lat":43.28351,"lon":5.38119,"is_reserved":false,"is_disabled":false,"rental_uris":{"android":"levelo://app?vid=67ae04d0-b99b-4d3b-a5dd-5f43fa118fc3","ios":"levelo://app?vid=67ae04d0-b99b-4d3b-a5dd-5f43fa118fc3"},"vehicle_type_id":"4","last_reported":1740474594,"current_range_meters":11200,"station_id":"ce4bh412rcd13ifvqdr0","pricing_plan_id":"cebpf4jnsgd1na2vs0mg"},{"bike_id":"c53ed6e7-916e-40f4-9e84-94eccc7a73ea","system_id":"levelo_inurba_marseille","lat":43.23151,"lon":5.43724,"is_reserved":false,"is_disabled":false,"rental_uris":{"android":"levelo://app?vid=c53ed6e7-916e-40f4-9e84-94eccc7a73ea","ios":"levelo://app?vid=c53ed6e7-916e-40f4-9e84-94eccc7a73ea"},"vehicle_type_id":"4","last_reported":1740474594,"current_range_meters":12000,"station_id":"ce4bhmp2rcd13ifvqgog","pricing_plan_id":"cebpf4jnsgd1na2vs0mg"},{"bike_id":"05f51bd6-bf8c-4b6c-ba2f-d7bf7cec3006","system_id":"levelo_inurba_marseille","lat":43.23202,"lon":5.35614,"is_reserved":false,"is_disabled":false,"rental_uris":{"android":"levelo://app?vid=05f51bd6-bf8c-4b6c-ba2f-d7bf7cec3006","ios":"levelo://app?vid=05f51bd6-bf8c-4b6c-ba2f-d7bf7cec3006"},"vehicle_type_id":"4","last_reported":1740474594,"current_range_meters":12400,"station_id":"","pricing_plan_id":"cebpf4jnsgd1na2vs0mg"},{"bike_id":"cfc1be7f-4d77-46cd-a4a6-933955576bab","system_id":"levelo_inurba_marseille","lat":43.27952,"lon":5.41056,"is_reserved":false,"is_disabled":false,"rental_uris":{"android":"levelo://app?vid=cfc1be7f-4d77-46cd-a4a6-933955576bab","ios":"levelo://app?vid=cfc1be7f-4d77-46cd-a4a6-933955576bab"},"vehicle_type_id":"4","last_reported":1740474594,"current_range_meters":12400,"station_id":"ce4bhnp2rcd13ifvqh0g","pricing_plan_id":"cebpf4jnsgd1na2vs0mg"},{"bike_id":"96f05573-e5c0-455b-9671-9b1d8a09b29f","system_id":"levelo_inurba_marseille","lat":43.25944,"lon":5.40909,"is_reserved":false,"is_disabled":false,"rental_uris":{"android":"levelo://app?vid=96f05573-e5c0-455b-9671-9b1d8a09b29f","ios":"levelo://app?vid=96f05573-e5c0-455b-9671-9b1d8a09b29f"},"vehicle_type_id":"4","last_reported":1740474594,"current_range_meters":12800,"station_id":"ce4bhm92rcd13ifvqglg","pricing_plan_id":"cebpf4jnsgd1na2vs0mg"},{"bike_id":"16845e89-7b5a-4b91-9bc7-32ec39e6f801","system_id":"levelo_inurba_marseille","lat":43.30962,"lon":5.39037,"is_reserved":false,"is_disabled":false,"rental_uris":{"android":"levelo://app?vid=16845e89-7b5a-4b91-9bc7-32ec39e6f801","ios":"levelo://app?vid=16845e89-7b5a-4b91-9bc7-32ec39e6f801"},"vehicle_type_id":"4","last_reported":1740474594,"current_range_meters":20400,"station_id":"ce4bgup2rcd13ifvqco0","pricing_plan_id":"cebpf4jnsgd1na2vs0mg"},{"bike_id":"3d17fa74-4265-42a0-947c-8434cb5dbba2","system_id":"levelo_inurba_marseille","lat":43.31333,"lon":5.36725,"is_reserved":false,"is_disabled":false,"rental_uris":{"android":"levelo://app?vid=3d17fa74-4265-42a0-947c-8434cb5dbba2","ios":"levelo://app?vid=3d17fa74-4265-42a0-947c-8434cb5dbba2"},"vehicle_type_id":"4","last_reported":1740474594,"current_range_meters":12800,"station_id":"ce4bgr92rcd13ifvqc6g","pricing_plan_id":"cebpf4jnsgd1na2vs0mg"},{"bike_id":"a60165fc-213a-4e16-9b6c-b1d6f1924dff","system_id":"levelo_inurba_marseille","lat":43.2749,"lon":5.42461,"is_reserved":false,"is_disabled":false,"rental_uris":{"android":"levelo://app?vid=a60165fc-213a-4e16-9b6c-b1d6f1924dff","ios":"levelo://app?vid=a60165fc-213a-4e16-9b6c-b1d6f1924dff"},"vehicle_type_id":"4","last_reported":1740474594,"current_range_meters":13600,"station_id":"ce4bhn92rcd13ifvqgrg","pricing_plan_id":"cebpf4jnsgd1na2vs0mg"},{"bike_id":"1c2f3bdc-68fa-40a8-b99e-fcf41f32f9e4","system_id":"levelo_inurba_marseille","lat":43.2921,"lon":5.40535,"is_reserved":false,"is_disabled":false,"rental_uris":{"android":"levelo://app?vid=1c2f3bdc-68fa-40a8-b99e-fcf41f32f9e4","ios":"levelo://app?vid=1c2f3bdc-68fa-40a8-b99e-fcf41f32f9e4"},"vehicle_type_id":"4","last_reported":1740474594,"current_range_meters":13600,"station_id":"","pricing_plan_id":"cebpf4jnsgd1na2vs0mg"},{"bike_id":"63d2dc5a-e03c-4909-9269-36c39633100a","system_id":"levelo_inurba_marseille","lat":43.28421,"lon":5.34993,"is_reserved":false,"is_disabled":true,"rental_uris":{"android":"levelo://app?vid=63d2dc5a-e03c-4909-9269-36c39633100a","ios":"levelo://app?vid=63d2dc5a-e03c-4909-9269-36c39633100a"},"vehicle_type_id":"4","last_reported":1740474594,"current_range_meters":13600,"station_id":"ce4bhbh2rcd13ifvqepg","pricing_plan_id":"cebpf4jnsgd1na2vs0mg"},{"bike_id":"6bb7a600-4627-48d6-a6ba-24a72f10b0e3","system_id":"levelo_inurba_marseille","lat":43.23148,"lon":5.4374,"is_reserved":false,"is_disabled":false,"rental_uris":{"android":"levelo://app?vid=6bb7a600-4627-48d6-a6ba-24a72f10b0e3","ios":"levelo://app?vid=6bb7a600-4627-48d6-a6ba-24a72f10b0e3"},"vehicle_type_id":"4","last_reported":1740474594,"current_range_meters":13600,"station_id":"ce4bhmp2rcd13ifvqgog","pricing_plan_id":"cebpf4jnsgd1na2vs0mg"},{"bike_id":"951c1297-cee5-4f42-9355-5c5d5ad61e3a","system_id":"levelo_inurba_marseille","lat":43.30911,"lon":5.37188,"is_reserved":false,"is_disabled":false,"rental_uris":{"android":"levelo://app?vid=951c1297-cee5-4f42-9355-5c5d5ad61e3a","ios":"levelo://app?vid=951c1297-cee5-4f42-9355-5c5d5ad61e3a"},"vehicle_type_id":"4","last_reported":1740474594,"current_range_meters":14000,"station_id":"ce4bguh2rcd13ifvqckg","pricing_plan_id":"cebpf4jnsgd1na2vs0mg"},{"bike_id":"9a87a1ca-c397-4cca-872f-898db0d07da2","system_id":"levelo_inurba_marseille","lat":43.31367,"lon":5.36707,"is_reserved":false,"is_disabled":true,"rental_uris":{"android":"levelo://app?vid=9a87a1ca-c397-4cca-872f-898db0d07da2","ios":"levelo://app?vid=9a87a1ca-c397-4cca-872f-898db0d07da2"},"vehicle_type_id":"4","last_reported":1740474594,"current_range_meters":14000,"station_id":"","pricing_plan_id":"cebpf4jnsgd1na2vs0mg"},{"bike_id":"ef717b3d-1d38-4555-b4ee-841a243f50de","system_id":"levelo_inurba_marseille","lat":43.32538,"lon":5.41431,"is_reserved":false,"is_disabled":false,"rental_uris":{"android":"levelo://app?vid=ef717b3d-1d38-4555-b4ee-841a243f50de","ios":"levelo://app?vid=ef717b3d-1d38-4555-b4ee-841a243f50de"},"vehicle_type_id":"4","last_reported":1740474594,"current_range_meters":14000,"station_id":"ce4bhq12rcd13ifvqhhg","pricing_plan_id":"cebpf4jnsgd1na2vs0mg"},{"bike_id":"65c14da8-5902-45f7-b88e-fb5f96fcc6f0","system_id":"levelo_inurba_marseille","lat":43.32111,"lon":5.36774,"is_reserved":false,"is_disabled":false,"rental_uris":{"android":"levelo://app?vid=65c14da8-5902-45f7-b88e-fb5f96fcc6f0","ios":"levelo://app?vid=65c14da8-5902-45f7-b88e-fb5f96fcc6f0"},"vehicle_type_id":"4","last_reported":1740474594,"current_range_meters":14000,"station_id":"ce4bhrh2rcd13ifvqhug","pricing_plan_id":"cebpf4jnsgd1na2vs0mg"},{"bike_id":"bbb5b944-71d3-4e8f-8b40-694dc2d679cb","system_id":"levelo_inurba_marseille","lat":43.23158,"lon":5.43711,"is_reserved":false,"is_disabled":false,"rental_uris":{"android":"levelo://app?vid=bbb5b944-71d3-4e8f-8b40-694dc2d679cb","ios":"levelo://app?vid=bbb5b944-71d3-4e8f-8b40-694dc2d679cb"},"vehicle_type_id":"4","last_reported":1740474594,"current_range_meters":14000,"station_id":"ce4bhmp2rcd13ifvqgog","pricing_plan_id":"cebpf4jnsgd1na2vs0mg"},{"bike_id":"9062f7b6-9c81-49b8-a1bd-5df58202afcd","system_id":"levelo_inurba_marseille","lat":43.31669,"lon":5.43691,"is_reserved":false,"is_disabled":false,"rental_uris":{"android":"levelo://app?vid=9062f7b6-9c81-49b8-a1bd-5df58202afcd","ios":"levelo://app?vid=9062f7b6-9c81-49b8-a1bd-5df58202afcd"},"vehicle_type_id":"4","last_reported":1740474594,"current_range_meters":14400,"station_id":"ce4bhp92rcd13ifvqhcg","pricing_plan_id":"cebpf4jnsgd1na2vs0mg"},{"bike_id":"0032a1aa-e9eb-4e54-a538-e616211bd91a","system_id":"levelo_inurba_marseille","lat":43.27499,"lon":5.42454,"is_reserved":false,"is_disabled":false,"rental_uris":{"android":"levelo://app?vid=0032a1aa-e9eb-4e54-a538-e616211bd91a","ios":"levelo://app?vid=0032a1aa-e9eb-4e54-a538-e616211bd91a"},"vehicle_type_id":"4","last_reported":1740474594,"current_range_meters":14400,"station_id":"ce4bhn92rcd13ifvqgrg","pricing_plan_id":"cebpf4jnsgd1na2vs0mg"},{"bike_id":"7c45866a-bd99-4c12-9747-66203f12a96e","system_id":"levelo_inurba_marseille","lat":43.23135,"lon":5.35518,"is_reserved":false,"is_disabled":false,"rental_uris":{"android":"levelo://app?vid=7c45866a-bd99-4c12-9747-66203f12a96e","ios":"levelo://app?vid=7c45866a-bd99-4c12-9747-66203f12a96e"},"vehicle_type_id":"4","last_reported":1740474594,"current_range_meters":14800,"station_id":"","pricing_plan_id":"cebpf4jnsgd1na2vs0mg"},{"bike_id":"36427cee-8fdc-4a4f-9ac9-c2ae0b53a1e7","system_id":"levelo_inurba_marseille","lat":43.32364,"lon":5.38871,"is_reserved":false,"is_disabled":false,"rental_uris":{"android":"levelo://app?vid=36427cee-8fdc-4a4f-9ac9-c2ae0b53a1e7","ios":"levelo://app?vid=36427cee-8fdc-4a4f-9ac9-c2ae0b53a1e7"},"vehicle_type_id":"4","last_reported":1740474594,"current_range_meters":14400,"station_id":"ce4bhqp2rcd13ifvqhog","pricing_plan_id":"cebpf4jnsgd1na2vs0mg"},{"bike_id":"fb352528-6dce-483c-a4f0-c367df3759b9","system_id":"levelo_inurba_marseille","lat":43.2902,"lon":5.37574,"is_reserved":false,"is_disabled":true,"rental_uris":{"android":"levelo://app?vid=fb352528-6dce-483c-a4f0-c367df3759b9","ios":"levelo://app?vid=fb352528-6dce-483c-a4f0-c367df3759b9"},"vehicle_type_id":"4","last_reported":1740474594,"current_range_meters":14400,"station_id":"ce4bh692rcd13ifvqe90","pricing_plan_id":"cebpf4jnsgd1na2vs0mg"},{"bike_id":"f538397c-23d0-4247-9ad3-acacefb9937d","system_id":"levelo_inurba_marseille","lat":43.29625,"lon":5.36547,"is_reserved":false,"is_disabled":false,"rental_uris":{"android":"levelo://app?vid=f538397c-23d0-4247-9ad3-acacefb9937d","ios":"levelo://app?vid=f538397c-23d0-4247-9ad3-acacefb9937d"},"vehicle_type_id":"4","last_reported":1740474594,"current_range_meters":14400,"station_id":"","pricing_plan_id":"cebpf4jnsgd1na2vs0mg"},{"bike_id":"3303fe6f-f251-422c-b183-278d0aef95fe","system_id":"levelo_inurba_marseille","lat":43.26203,"lon":5.37933,"is_reserved":false,"is_disabled":false,"rental_uris":{"android":"levelo://app?vid=3303fe6f-f251-422c-b183-278d0aef95fe","ios":"levelo://app?vid=3303fe6f-f251-422c-b183-278d0aef95fe"},"vehicle_type_id":"4","last_reported":1740474594,"current_range_meters":14800,"station_id":"ce4bhjp2rcd13ifvqg90","pricing_plan_id":"cebpf4jnsgd1na2vs0mg"},{"bike_id":"06ba4546-d202-4f8c-8a3b-4941746a7b58","system_id":"levelo_inurba_marseille","lat":43.30154,"lon":5.38774,"is_reserved":false,"is_disabled":false,"rental_uris":{"android":"levelo://app?vid=06ba4546-d202-4f8c-8a3b-4941746a7b58","ios":"levelo://app?vid=06ba4546-d202-4f8c-8a3b-4941746a7b58"},"vehicle_type_id":"4","last_reported":1740474594,"current_range_meters":14800,"station_id":"ce4bghh2rcd13ifvqb60","pricing_plan_id":"cebpf4jnsgd1na2vs0mg"},{"bike_id":"3ca12e5b-bc10-471e-b621-aa59335cc3bb","system_id":"levelo_inurba_marseille","lat":43.29523,"lon":5.4079,"is_reserved":false,"is_disabled":false,"rental_uris":{"android":"levelo://app?vid=3ca12e5b-bc10-471e-b621-aa59335cc3bb","ios":"levelo://app?vid=3ca12e5b-bc10-471e-b621-aa59335cc3bb"},"vehicle_type_id":"4","last_reported":1740474594,"current_range_meters":14800,"station_id":"","pricing_plan_id":"cebpf4jnsgd1na2vs0mg"},{"bike_id":"d9cd0b24-d8d3-4c55-90c0-4ef5893eee0c","system_id":"levelo_inurba_marseille","lat":43.25008,"lon":5.38968,"is_reserved":false,"is_disabled":false,"rental_uris":{"android":"levelo://app?vid=d9cd0b24-d8d3-4c55-90c0-4ef5893eee0c","ios":"levelo://app?vid=d9cd0b24-d8d3-4c55-90c0-4ef5893eee0c"},"vehicle_type_id":"4","last_reported":1740474594,"current_range_meters":15200,"station_id":"ce4bhgp2rcd13ifvqfd0","pricing_plan_id":"cebpf4jnsgd1na2vs0mg"},{"bike_id":"6f9eb619-ce1a-440a-9085-673242f78425","system_id":"levelo_inurba_marseille","lat":43.29496,"lon":5.37529,"is_reserved":false,"is_disabled":true,"rental_uris":{"android":"levelo://app?vid=6f9eb619-ce1a-440a-9085-673242f78425","ios":"levelo://app?vid=6f9eb619-ce1a-440a-9085-673242f78425"},"vehicle_type_id":"4","last_reported":1740474594,"current_range_meters":16000,"station_id":"","pricing_plan_id":"cebpf4jnsgd1na2vs0mg"},{"bike_id":"ffac49be-d696-40c4-a824-81a793055380","system_id":"levelo_inurba_marseille","lat":43.29256,"lon":5.38446,"is_reserved":false,"is_disabled":false,"rental_uris":{"android":"levelo://app?vid=ffac49be-d696-40c4-a824-81a793055380","ios":"levelo://app?vid=ffac49be-d696-40c4-a824-81a793055380"},"vehicle_type_id":"4","last_reported":1740474594,"current_range_meters":16400,"station_id":"ce4bh692rcd13ifvqea0","pricing_plan_id":"cebpf4jnsgd1na2vs0mg"},{"bike_id":"6a2aa712-d570-4a50-aa17-3ced782e6ff4","system_id":"levelo_inurba_marseille","lat":43.31092,"lon":5.42422,"is_reserved":false,"is_disabled":false,"rental_uris":{"android":"levelo://app?vid=6a2aa712-d570-4a50-aa17-3ced782e6ff4","ios":"levelo://app?vid=6a2aa712-d570-4a50-aa17-3ced782e6ff4"},"vehicle_type_id":"4","last_reported":1740474594,"current_range_meters":16400,"station_id":"ce4bhp92rcd13ifvqhag","pricing_plan_id":"cebpf4jnsgd1na2vs0mg"},{"bike_id":"92e9cdad-2b2e-43a1-992d-7ad6e87fb061","system_id":"levelo_inurba_marseille","lat":43.28931,"lon":5.36394,"is_reserved":false,"is_disabled":false,"rental_uris":{"android":"levelo://app?vid=92e9cdad-2b2e-43a1-992d-7ad6e87fb061","ios":"levelo://app?vid=92e9cdad-2b2e-43a1-992d-7ad6e87fb061"},"vehicle_type_id":"4","last_reported":1740474594,"current_range_meters":16400,"station_id":"ce4bhc92rcd13ifvqetg","pricing_plan_id":"cebpf4jnsgd1na2vs0mg"},{"bike_id":"f5e523f2-246d-474c-808f-a050215d7059","system_id":"levelo_inurba_marseille","lat":43.23204,"lon":5.35585,"is_reserved":false,"is_disabled":false,"rental_uris":{"android":"levelo://app?vid=f5e523f2-246d-474c-808f-a050215d7059","ios":"levelo://app?vid=f5e523f2-246d-474c-808f-a050215d7059"},"vehicle_type_id":"4","last_reported":1740474594,"current_range_meters":16400,"station_id":"ce4bhu92rcd13ifvqi70","pricing_plan_id":"cebpf4jnsgd1na2vs0mg"},{"bike_id":"a0c4ad71-9b72-4008-a1c3-fe3aa1c3ed9f","system_id":"levelo_inurba_marseille","lat":43.28715,"lon":5.37939,"is_reserved":false,"is_disabled":true,"rental_uris":{"android":"levelo://app?vid=a0c4ad71-9b72-4008-a1c3-fe3aa1c3ed9f","ios":"levelo://app?vid=a0c4ad71-9b72-4008-a1c3-fe3aa1c3ed9f"},"vehicle_type_id":"4","last_reported":1740474594,"current_range_meters":16400,"station_id":"ce4bh9p2rcd13ifvqec0","pricing_plan_id":"cebpf4jnsgd1na2vs0mg"},{"bike_id":"88d147a6-2061-4bbb-9e73-da194df8c032","system_id":"levelo_inurba_marseille","lat":43.29442,"lon":5.39769,"is_reserved":false,"is_disabled":false,"rental_uris":{"android":"levelo://app?vid=88d147a6-2061-4bbb-9e73-da194df8c032","ios":"levelo://app?vid=88d147a6-2061-4bbb-9e73-da194df8c032"},"vehicle_type_id":"4","last_reported":1740474594,"current_range_meters":16400,"station_id":"ce4bh3h2rcd13ifvqdo0","pricing_plan_id":"cebpf4jnsgd1na2vs0mg"},{"bike_id":"a0ef3366-6f01-4273-864d-81f214e98d30","system_id":"levelo_inurba_marseille","lat":43.3255,"lon":5.41468,"is_reserved":false,"is_disabled":false,"rental_uris":{"android":"levelo://app?vid=a0ef3366-6f01-4273-864d-81f214e98d30","ios":"levelo://app?vid=a0ef3366-6f01-4273-864d-81f214e98d30"},"vehicle_type_id":"4","last_reported":1740474594,"current_range_meters":16400,"station_id":"ce4bhq12rcd13ifvqhhg","pricing_plan_id":"cebpf4jnsgd1na2vs0mg"},{"bike_id":"d5de5a74-922a-49b5-92b0-9a961d452d6a","system_id":"levelo_inurba_marseille","lat":43.29199,"lon":5.39338,"is_reserved":false,"is_disabled":false,"rental_uris":{"android":"levelo://app?vid=d5de5a74-922a-49b5-92b0-9a961d452d6a","ios":"levelo://app?vid=d5de5a74-922a-49b5-92b0-9a961d452d6a"},"vehicle_type_id":"4","last_reported":1740474594,"current_range_meters":16400,"station_id":"ce4bh192rcd13ifvqdd0","pricing_plan_id":"cebpf4jnsgd1na2vs0mg"},{"bike_id":"f2e71445-e212-4b78-a718-f4c41da59a93","system_id":"levelo_inurba_marseille","lat":43.31317,"lon":5.36737,"is_reserved":false,"is_disabled":false,"rental_uris":{"android":"levelo://app?vid=f2e71445-e212-4b78-a718-f4c41da59a93","ios":"levelo://app?vid=f2e71445-e212-4b78-a718-f4c41da59a93"},"vehicle_type_id":"4","last_reported":1740474594,"current_range_meters":16000,"station_id":"ce4bgr92rcd13ifvqc6g","pricing_plan_id":"cebpf4jnsgd1na2vs0mg"},{"bike_id":"cb9c071a-9de3-43ee-9050-b58173eaa543","system_id":"levelo_inurba_marseille","lat":43.3189,"lon":5.40733,"is_reserved":false,"is_disabled":false,"rental_uris":{"android":"levelo://app?vid=cb9c071a-9de3-43ee-9050-b58173eaa543","ios":"levelo://app?vid=cb9c071a-9de3-43ee-9050-b58173eaa543"},"vehicle_type_id":"4","last_reported":1740474594,"current_range_meters":16800,"station_id":"ce4bhq12rcd13ifvqhig","pricing_plan_id":"cebpf4jnsgd1na2vs0mg"},{"bike_id":"fefaae5a-4630-4d7e-b85b-5c733f564d6a","system_id":"levelo_inurba_marseille","lat":43.26062,"lon":5.42305,"is_reserved":false,"is_disabled":false,"rental_uris":{"android":"levelo://app?vid=fefaae5a-4630-4d7e-b85b-5c733f564d6a","ios":"levelo://app?vid=fefaae5a-4630-4d7e-b85b-5c733f564d6a"},"vehicle_type_id":"4","last_reported":1740474594,"current_range_meters":16800,"station_id":"","pricing_plan_id":"cebpf4jnsgd1na2vs0mg"},{"bike_id":"8b12f3dd-d3ac-4793-ac1c-9f637dd7dde2","system_id":"levelo_inurba_marseille","lat":43.30945,"lon":5.3903,"is_reserved":false,"is_disabled":false,"rental_uris":{"android":"levelo://app?vid=8b12f3dd-d3ac-4793-ac1c-9f637dd7dde2","ios":"levelo://app?vid=8b12f3dd-d3ac-4793-ac1c-9f637dd7dde2"},"vehicle_type_id":"4","last_reported":1740474594,"current_range_meters":16800,"station_id":"ce4bgup2rcd13ifvqco0","pricing_plan_id":"cebpf4jnsgd1na2vs0mg"},{"bike_id":"1f9616b3-6049-4302-8ba7-dd10d79111ef","system_id":"levelo_inurba_marseille","lat":43.28851,"lon":5.3932,"is_reserved":false,"is_disabled":false,"rental_uris":{"android":"levelo://app?vid=1f9616b3-6049-4302-8ba7-dd10d79111ef","ios":"levelo://app?vid=1f9616b3-6049-4302-8ba7-dd10d79111ef"},"vehicle_type_id":"4","last_reported":1740474594,"current_range_meters":17200,"station_id":"ce4bh2p2rcd13ifvqdi0","pricing_plan_id":"cebpf4jnsgd1na2vs0mg"},{"bike_id":"26f5ce3e-61d4-43ac-9a36-fbd821a9b806","system_id":"levelo_inurba_marseille","lat":43.23982,"lon":5.36618,"is_reserved":false,"is_disabled":false,"rental_uris":{"android":"levelo://app?vid=26f5ce3e-61d4-43ac-9a36-fbd821a9b806","ios":"levelo://app?vid=26f5ce3e-61d4-43ac-9a36-fbd821a9b806"},"vehicle_type_id":"4","last_reported":1740474594,"current_range_meters":17200,"station_id":"ce4bhi12rcd13ifvqfp0","pricing_plan_id":"cebpf4jnsgd1na2vs0mg"},{"bike_id":"03d7ddaa-6891-42b1-9955-016cfe8c4034","system_id":"levelo_inurba_marseille","lat":43.27055,"lon":5.40256,"is_reserved":false,"is_disabled":false,"rental_uris":{"android":"levelo://app?vid=03d7ddaa-6891-42b1-9955-016cfe8c4034","ios":"levelo://app?vid=03d7ddaa-6891-42b1-9955-016cfe8c4034"},"vehicle_type_id":"4","last_reported":1740474594,"current_range_meters":17600,"station_id":"ce4bhk92rcd13ifvqgc0","pricing_plan_id":"cebpf4jnsgd1na2vs0mg"},{"bike_id":"99ecdcac-415f-4765-98a3-24c1718bdda8","system_id":"levelo_inurba_marseille","lat":43.30552,"lon":5.367,"is_reserved":false,"is_disabled":false,"rental_uris":{"android":"levelo://app?vid=99ecdcac-415f-4765-98a3-24c1718bdda8","ios":"levelo://app?vid=99ecdcac-415f-4765-98a3-24c1718bdda8"},"vehicle_type_id":"4","last_reported":1740474594,"current_range_meters":17200,"station_id":"","pricing_plan_id":"cebpf4jnsgd1na2vs0mg"},{"bike_id":"c3d0fefa-5db4-49bd-a964-1a22da440d36","system_id":"levelo_inurba_marseille","lat":43.269559,"lon":5.386313,"is_reserved":false,"is_disabled":true,"rental_uris":{"android":"levelo://app?vid=c3d0fefa-5db4-49bd-a964-1a22da440d36","ios":"levelo://app?vid=c3d0fefa-5db4-49bd-a964-1a22da440d36"},"vehicle_type_id":"4","last_reported":1740474594,"current_range_meters":17600,"station_id":"","pricing_plan_id":"cebpf4jnsgd1na2vs0mg"},{"bike_id":"d3103336-2d71-4742-bf9a-d557baf6d26c","system_id":"levelo_inurba_marseille","lat":43.27494,"lon":5.42476,"is_reserved":false,"is_disabled":false,"rental_uris":{"android":"levelo://app?vid=d3103336-2d71-4742-bf9a-d557baf6d26c","ios":"levelo://app?vid=d3103336-2d71-4742-bf9a-d557baf6d26c"},"vehicle_type_id":"4","last_reported":1740474594,"current_range_meters":18000,"station_id":"ce4bhn92rcd13ifvqgrg","pricing_plan_id":"cebpf4jnsgd1na2vs0mg"},{"bike_id":"451ee27c-3053-4dad-97f9-30aa721d9def","system_id":"levelo_inurba_marseille","lat":43.27989,"lon":5.40025,"is_reserved":false,"is_disabled":false,"rental_uris":{"android":"levelo://app?vid=451ee27c-3053-4dad-97f9-30aa721d9def","ios":"levelo://app?vid=451ee27c-3053-4dad-97f9-30aa721d9def"},"vehicle_type_id":"4","last_reported":1740474594,"current_range_meters":18000,"station_id":"ce4bho92rcd13ifvqh4g","pricing_plan_id":"cebpf4jnsgd1na2vs0mg"},{"bike_id":"44fed316-9e46-4865-b093-d76d2e74a729","system_id":"levelo_inurba_marseille","lat":43.2815,"lon":5.42653,"is_reserved":false,"is_disabled":false,"rental_uris":{"android":"levelo://app?vid=44fed316-9e46-4865-b093-d76d2e74a729","ios":"levelo://app?vid=44fed316-9e46-4865-b093-d76d2e74a729"},"vehicle_type_id":"4","last_reported":1740474594,"current_range_meters":18800,"station_id":"ce4bhnh2rcd13ifvqgug","pricing_plan_id":"cebpf4jnsgd1na2vs0mg"},{"bike_id":"9bcb6e74-9384-4520-a191-6ca3da24e600","system_id":"levelo_inurba_marseille","lat":43.2416,"lon":5.36399,"is_reserved":false,"is_disabled":false,"rental_uris":{"android":"levelo://app?vid=9bcb6e74-9384-4520-a191-6ca3da24e600","ios":"levelo://app?vid=9bcb6e74-9384-4520-a191-6ca3da24e600"},"vehicle_type_id":"4","last_reported":1740474594,"current_range_meters":18800,"station_id":"cpo36qri1sfpv3e86is0","pricing_plan_id":"cebpf4jnsgd1na2vs0mg"},{"bike_id":"fd0761a2-be25-4e28-a89f-bda3cde9d408","system_id":"levelo_inurba_marseille","lat":43.27071,"lon":5.4228,"is_reserved":false,"is_disabled":false,"rental_uris":{"android":"levelo://app?vid=fd0761a2-be25-4e28-a89f-bda3cde9d408","ios":"levelo://app?vid=fd0761a2-be25-4e28-a89f-bda3cde9d408"},"vehicle_type_id":"4","last_reported":1740474594,"current_range_meters":18800,"station_id":"ce4bhk92rcd13ifvqgb0","pricing_plan_id":"cebpf4jnsgd1na2vs0mg"},{"bike_id":"8514fc45-931a-4d33-8ebd-119ca23a33dc","system_id":"levelo_inurba_marseille","lat":43.27802,"lon":5.40743,"is_reserved":false,"is_disabled":false,"rental_uris":{"android":"levelo://app?vid=8514fc45-931a-4d33-8ebd-119ca23a33dc","ios":"levelo://app?vid=8514fc45-931a-4d33-8ebd-119ca23a33dc"},"vehicle_type_id":"4","last_reported":1740474594,"current_range_meters":18800,"station_id":"ce4bhnh2rcd13ifvqgtg","pricing_plan_id":"cebpf4jnsgd1na2vs0mg"},{"bike_id":"d10d5f52-246e-4cf5-b80c-bf77da815bbb","system_id":"levelo_inurba_marseille","lat":43.30488,"lon":5.37906,"is_reserved":false,"is_disabled":false,"rental_uris":{"android":"levelo://app?vid=d10d5f52-246e-4cf5-b80c-bf77da815bbb","ios":"levelo://app?vid=d10d5f52-246e-4cf5-b80c-bf77da815bbb"},"vehicle_type_id":"4","last_reported":1740474594,"current_range_meters":21600,"station_id":"ce4bgup2rcd13ifvqcn0","pricing_plan_id":"cebpf4jnsgd1na2vs0mg"},{"bike_id":"6c09e455-44e3-459a-a6e1-c0e3966c3650","system_id":"levelo_inurba_marseille","lat":43.31333,"lon":5.36739,"is_reserved":false,"is_disabled":false,"rental_uris":{"android":"levelo://app?vid=6c09e455-44e3-459a-a6e1-c0e3966c3650","ios":"levelo://app?vid=6c09e455-44e3-459a-a6e1-c0e3966c3650"},"vehicle_type_id":"4","last_reported":1740474594,"current_range_meters":18800,"station_id":"ce4bgr92rcd13ifvqc6g","pricing_plan_id":"cebpf4jnsgd1na2vs0mg"},{"bike_id":"a2fc4759-e0d6-451e-8666-707fcd901f79","system_id":"levelo_inurba_marseille","lat":43.32489,"lon":5.36604,"is_reserved":false,"is_disabled":false,"rental_uris":{"android":"levelo://app?vid=a2fc4759-e0d6-451e-8666-707fcd901f79","ios":"levelo://app?vid=a2fc4759-e0d6-451e-8666-707fcd901f79"},"vehicle_type_id":"4","last_reported":1740474594,"current_range_meters":22400,"station_id":"ce4bhs12rcd13ifvqhvg","pricing_plan_id":"cebpf4jnsgd1na2vs0mg"},{"bike_id":"2ad574ab-a84b-4194-be7b-5d19750113c3","system_id":"levelo_inurba_marseille","lat":43.32361,"lon":5.3889,"is_reserved":false,"is_disabled":false,"rental_uris":{"android":"levelo://app?vid=2ad574ab-a84b-4194-be7b-5d19750113c3","ios":"levelo://app?vid=2ad574ab-a84b-4194-be7b-5d19750113c3"},"vehicle_type_id":"4","last_reported":1740474594,"current_range_meters":19200,"station_id":"ce4bhqp2rcd13ifvqhog","pricing_plan_id":"cebpf4jnsgd1na2vs0mg"},{"bike_id":"930badb2-0894-4d46-9f8a-bb1924bb43c4","system_id":"levelo_inurba_marseille","lat":43.29554,"lon":5.42273,"is_reserved":false,"is_disabled":false,"rental_uris":{"android":"levelo://app?vid=930badb2-0894-4d46-9f8a-bb1924bb43c4","ios":"levelo://app?vid=930badb2-0894-4d46-9f8a-bb1924bb43c4"},"vehicle_type_id":"4","last_reported":1740474594,"current_range_meters":18000,"station_id":"ce4bhph2rcd13ifvqhdg","pricing_plan_id":"cebpf4jnsgd1na2vs0mg"},{"bike_id":"d7b86c71-089b-48f6-a952-fb6803fe85b1","system_id":"levelo_inurba_marseille","lat":43.26089,"lon":5.40331,"is_reserved":false,"is_disabled":false,"rental_uris":{"android":"levelo://app?vid=d7b86c71-089b-48f6-a952-fb6803fe85b1","ios":"levelo://app?vid=d7b86c71-089b-48f6-a952-fb6803fe85b1"},"vehicle_type_id":"4","last_reported":1740474594,"current_range_meters":19200,"station_id":"","pricing_plan_id":"cebpf4jnsgd1na2vs0mg"},{"bike_id":"3d442e47-47fa-435e-9a15-822e067cb866","system_id":"levelo_inurba_marseille","lat":43.25929,"lon":5.40914,"is_reserved":false,"is_disabled":false,"rental_uris":{"android":"levelo://app?vid=3d442e47-47fa-435e-9a15-822e067cb866","ios":"levelo://app?vid=3d442e47-47fa-435e-9a15-822e067cb866"},"vehicle_type_id":"4","last_reported":1740474594,"current_range_meters":19200,"station_id":"ce4bhm92rcd13ifvqglg","pricing_plan_id":"cebpf4jnsgd1na2vs0mg"},{"bike_id":"a142f287-c9bf-454c-9ba4-58c52458f657","system_id":"levelo_inurba_marseille","lat":43.30155,"lon":5.38092,"is_reserved":false,"is_disabled":false,"rental_uris":{"android":"levelo://app?vid=a142f287-c9bf-454c-9ba4-58c52458f657","ios":"levelo://app?vid=a142f287-c9bf-454c-9ba4-58c52458f657"},"vehicle_type_id":"4","last_reported":1740474594,"current_range_meters":18800,"station_id":"ce4bgjp2rcd13ifvqbh0","pricing_plan_id":"cebpf4jnsgd1na2vs0mg"},{"bike_id":"778d660a-1330-44af-9bc8-ebf7cf904660","system_id":"levelo_inurba_marseille","lat":43.29258,"lon":5.39836,"is_reserved":false,"is_disabled":false,"rental_uris":{"android":"levelo://app?vid=778d660a-1330-44af-9bc8-ebf7cf904660","ios":"levelo://app?vid=778d660a-1330-44af-9bc8-ebf7cf904660"},"vehicle_type_id":"4","last_reported":1740474594,"current_range_meters":20000,"station_id":"ce4bh192rcd13ifvqdc0","pricing_plan_id":"cebpf4jnsgd1na2vs0mg"},{"bike_id":"f4629c6e-36fc-402c-93ca-7566da9b882d","system_id":"levelo_inurba_marseille","lat":43.27822,"lon":5.40685,"is_reserved":false,"is_disabled":false,"rental_uris":{"android":"levelo://app?vid=f4629c6e-36fc-402c-93ca-7566da9b882d","ios":"levelo://app?vid=f4629c6e-36fc-402c-93ca-7566da9b882d"},"vehicle_type_id":"4","last_reported":1740474594,"current_range_meters":19600,"station_id":"ce4bhnh2rcd13ifvqgtg","pricing_plan_id":"cebpf4jnsgd1na2vs0mg"},{"bike_id":"edd6dcfb-5b2f-4ccc-931a-f8deb7493690","system_id":"levelo_inurba_marseille","lat":43.31227,"lon":5.36849,"is_reserved":false,"is_disabled":false,"rental_uris":{"android":"levelo://app?vid=edd6dcfb-5b2f-4ccc-931a-f8deb7493690","ios":"levelo://app?vid=edd6dcfb-5b2f-4ccc-931a-f8deb7493690"},"vehicle_type_id":"4","last_reported":1740474594,"current_range_meters":19600,"station_id":"ce4bgl92rcd13ifvqbq0","pricing_plan_id":"cebpf4jnsgd1na2vs0mg"},{"bike_id":"bee6a20d-ea9a-4ad1-8f69-292c6379fe6b","system_id":"levelo_inurba_marseille","lat":43.28847,"lon":5.39325,"is_reserved":false,"is_disabled":false,"rental_uris":{"android":"levelo://app?vid=bee6a20d-ea9a-4ad1-8f69-292c6379fe6b","ios":"levelo://app?vid=bee6a20d-ea9a-4ad1-8f69-292c6379fe6b"},"vehicle_type_id":"4","last_reported":1740474594,"current_range_meters":19600,"station_id":"ce4bh2p2rcd13ifvqdi0","pricing_plan_id":"cebpf4jnsgd1na2vs0mg"},{"bike_id":"6e2ec790-2f90-43c6-bedb-a486b5c54adb","system_id":"levelo_inurba_marseille","lat":43.30393,"lon":5.38954,"is_reserved":false,"is_disabled":false,"rental_uris":{"android":"levelo://app?vid=6e2ec790-2f90-43c6-bedb-a486b5c54adb","ios":"levelo://app?vid=6e2ec790-2f90-43c6-bedb-a486b5c54adb"},"vehicle_type_id":"4","last_reported":1740474594,"current_range_meters":20000,"station_id":"","pricing_plan_id":"cebpf4jnsgd1na2vs0mg"},{"bike_id":"1ceb6f54-bea9-414b-8d51-0ec4c30a6f3b","system_id":"levelo_inurba_marseille","lat":43.30306,"lon":5.36923,"is_reserved":false,"is_disabled":false,"rental_uris":{"android":"levelo://app?vid=1ceb6f54-bea9-414b-8d51-0ec4c30a6f3b","ios":"levelo://app?vid=1ceb6f54-bea9-414b-8d51-0ec4c30a6f3b"},"vehicle_type_id":"4","last_reported":1740474594,"current_range_meters":20000,"station_id":"ce4bgqh2rcd13ifvqc5g","pricing_plan_id":"cebpf4jnsgd1na2vs0mg"},{"bike_id":"f18fcdcb-8c8e-452d-a487-d9e08608d229","system_id":"levelo_inurba_marseille","lat":43.31756,"lon":5.39013,"is_reserved":false,"is_disabled":false,"rental_uris":{"android":"levelo://app?vid=f18fcdcb-8c8e-452d-a487-d9e08608d229","ios":"levelo://app?vid=f18fcdcb-8c8e-452d-a487-d9e08608d229"},"vehicle_type_id":"4","last_reported":1740474594,"current_range_meters":20000,"station_id":"","pricing_plan_id":"cebpf4jnsgd1na2vs0mg"},{"bike_id":"aa025e7b-1570-4df4-b3f0-33acff37e508","system_id":"levelo_inurba_marseille","lat":43.28369,"lon":5.38648,"is_reserved":false,"is_disabled":false,"rental_uris":{"android":"levelo://app?vid=aa025e7b-1570-4df4-b3f0-33acff37e508","ios":"levelo://app?vid=aa025e7b-1570-4df4-b3f0-33acff37e508"},"vehicle_type_id":"4","last_reported":1740474594,"current_range_meters":20000,"station_id":"","pricing_plan_id":"cebpf4jnsgd1na2vs0mg"},{"bike_id":"775915a2-73e1-466b-a30a-2f15fcb84a34","system_id":"levelo_inurba_marseille","lat":43.29633,"lon":5.40597,"is_reserved":false,"is_disabled":false,"rental_uris":{"android":"levelo://app?vid=775915a2-73e1-466b-a30a-2f15fcb84a34","ios":"levelo://app?vid=775915a2-73e1-466b-a30a-2f15fcb84a34"},"vehicle_type_id":"4","last_reported":1740474594,"current_range_meters":19600,"station_id":"","pricing_plan_id":"cebpf4jnsgd1na2vs0mg"},{"bike_id":"82730b01-cd44-4004-8a1d-f66921dc7779","system_id":"levelo_inurba_marseille","lat":43.313782,"lon":5.374282,"is_reserved":false,"is_disabled":false,"rental_uris":{"android":"levelo://app?vid=82730b01-cd44-4004-8a1d-f66921dc7779","ios":"levelo://app?vid=82730b01-cd44-4004-8a1d-f66921dc7779"},"vehicle_type_id":"4","last_reported":1740474594,"current_range_meters":20000,"station_id":"ce4bgt12rcd13ifvqcd0","pricing_plan_id":"cebpf4jnsgd1na2vs0mg"},{"bike_id":"e4b61e67-5c22-4221-873e-01cee989859c","system_id":"levelo_inurba_marseille","lat":43.29889,"lon":5.43675,"is_reserved":false,"is_disabled":false,"rental_uris":{"android":"levelo://app?vid=e4b61e67-5c22-4221-873e-01cee989859c","ios":"levelo://app?vid=e4b61e67-5c22-4221-873e-01cee989859c"},"vehicle_type_id":"4","last_reported":1740474594,"current_range_meters":20000,"station_id":"ce4bhpp2rcd13ifvqhfg","pricing_plan_id":"cebpf4jnsgd1na2vs0mg"},{"bike_id":"73bf0b1c-4af1-4739-aa3d-e444440930e2","system_id":"levelo_inurba_marseille","lat":43.30169,"lon":5.38099,"is_reserved":false,"is_disabled":false,"rental_uris":{"android":"levelo://app?vid=73bf0b1c-4af1-4739-aa3d-e444440930e2","ios":"levelo://app?vid=73bf0b1c-4af1-4739-aa3d-e444440930e2"},"vehicle_type_id":"4","last_reported":1740474594,"current_range_meters":20400,"station_id":"ce4bgjp2rcd13ifvqbh0","pricing_plan_id":"cebpf4jnsgd1na2vs0mg"},{"bike_id":"25411262-23d1-41bb-a382-a545d4af1ec3","system_id":"levelo_inurba_marseille","lat":43.25117,"lon":5.40332,"is_reserved":false,"is_disabled":false,"rental_uris":{"android":"levelo://app?vid=25411262-23d1-41bb-a382-a545d4af1ec3","ios":"levelo://app?vid=25411262-23d1-41bb-a382-a545d4af1ec3"},"vehicle_type_id":"4","last_reported":1740474594,"current_range_meters":20400,"station_id":"ce4bhlh2rcd13ifvqgig","pricing_plan_id":"cebpf4jnsgd1na2vs0mg"},{"bike_id":"ebefe244-4974-4a5e-8a2f-7f5b069112e1","system_id":"levelo_inurba_marseille","lat":43.29802,"lon":5.38117,"is_reserved":false,"is_disabled":false,"rental_uris":{"android":"levelo://app?vid=ebefe244-4974-4a5e-8a2f-7f5b069112e1","ios":"levelo://app?vid=ebefe244-4974-4a5e-8a2f-7f5b069112e1"},"vehicle_type_id":"4","last_reported":1740474594,"current_range_meters":20400,"station_id":"ce4bgip2rcd13ifvqbb0","pricing_plan_id":"cebpf4jnsgd1na2vs0mg"},{"bike_id":"bcd9b51e-eddb-4e4a-8e2d-32e64b242537","system_id":"levelo_inurba_marseille","lat":43.28722,"lon":5.37951,"is_reserved":false,"is_disabled":false,"rental_uris":{"android":"levelo://app?vid=bcd9b51e-eddb-4e4a-8e2d-32e64b242537","ios":"levelo://app?vid=bcd9b51e-eddb-4e4a-8e2d-32e64b242537"},"vehicle_type_id":"4","last_reported":1740474594,"current_range_meters":20400,"station_id":"ce4bh9p2rcd13ifvqec0","pricing_plan_id":"cebpf4jnsgd1na2vs0mg"},{"bike_id":"6e81c8e6-11df-443f-ad8d-9c418aabd54e","system_id":"levelo_inurba_marseille","lat":43.25932,"lon":5.4091,"is_reserved":false,"is_disabled":false,"rental_uris":{"android":"levelo://app?vid=6e81c8e6-11df-443f-ad8d-9c418aabd54e","ios":"levelo://app?vid=6e81c8e6-11df-443f-ad8d-9c418aabd54e"},"vehicle_type_id":"4","last_reported":1740474594,"current_range_meters":20400,"station_id":"ce4bhm92rcd13ifvqglg","pricing_plan_id":"cebpf4jnsgd1na2vs0mg"},{"bike_id":"fc22684b-1e44-4137-8eb3-8f4c97d52cb0","system_id":"levelo_inurba_marseille","lat":43.24995,"lon":5.38936,"is_reserved":false,"is_disabled":false,"rental_uris":{"android":"levelo://app?vid=fc22684b-1e44-4137-8eb3-8f4c97d52cb0","ios":"levelo://app?vid=fc22684b-1e44-4137-8eb3-8f4c97d52cb0"},"vehicle_type_id":"4","last_reported":1740474594,"current_range_meters":20800,"station_id":"ce4bhgp2rcd13ifvqfd0","pricing_plan_id":"cebpf4jnsgd1na2vs0mg"},{"bike_id":"c3558330-f1af-4e0e-a458-4e1e21bac14b","system_id":"levelo_inurba_marseille","lat":43.25176,"lon":5.37469,"is_reserved":false,"is_disabled":false,"rental_uris":{"android":"levelo://app?vid=c3558330-f1af-4e0e-a458-4e1e21bac14b","ios":"levelo://app?vid=c3558330-f1af-4e0e-a458-4e1e21bac14b"},"vehicle_type_id":"4","last_reported":1740474594,"current_range_meters":20800,"station_id":"","pricing_plan_id":"cebpf4jnsgd1na2vs0mg"},{"bike_id":"36badad1-60cc-4612-902e-c08212ca9c33","system_id":"levelo_inurba_marseille","lat":43.28861,"lon":5.39323,"is_reserved":false,"is_disabled":false,"rental_uris":{"android":"levelo://app?vid=36badad1-60cc-4612-902e-c08212ca9c33","ios":"levelo://app?vid=36badad1-60cc-4612-902e-c08212ca9c33"},"vehicle_type_id":"4","last_reported":1740474594,"current_range_meters":20400,"station_id":"ce4bh2p2rcd13ifvqdi0","pricing_plan_id":"cebpf4jnsgd1na2vs0mg"},{"bike_id":"dd9f8149-3f3c-435e-bce6-d1e6be60136d","system_id":"levelo_inurba_marseille","lat":43.31341,"lon":5.36709,"is_reserved":false,"is_disabled":false,"rental_uris":{"android":"levelo://app?vid=dd9f8149-3f3c-435e-bce6-d1e6be60136d","ios":"levelo://app?vid=dd9f8149-3f3c-435e-bce6-d1e6be60136d"},"vehicle_type_id":"4","last_reported":1740474594,"current_range_meters":20800,"station_id":"ce4bgr92rcd13ifvqc6g","pricing_plan_id":"cebpf4jnsgd1na2vs0mg"},{"bike_id":"1df32ffb-b6d0-42f0-8856-8dbb268b7110","system_id":"levelo_inurba_marseille","lat":43.31667,"lon":5.4371,"is_reserved":false,"is_disabled":false,"rental_uris":{"android":"levelo://app?vid=1df32ffb-b6d0-42f0-8856-8dbb268b7110","ios":"levelo://app?vid=1df32ffb-b6d0-42f0-8856-8dbb268b7110"},"vehicle_type_id":"4","last_reported":1740474594,"current_range_meters":20800,"station_id":"ce4bhp92rcd13ifvqhcg","pricing_plan_id":"cebpf4jnsgd1na2vs0mg"},{"bike_id":"13c41661-d7e4-4f50-93d3-3aaebd3409b9","system_id":"levelo_inurba_marseille","lat":43.28398,"lon":5.3753,"is_reserved":false,"is_disabled":false,"rental_uris":{"android":"levelo://app?vid=13c41661-d7e4-4f50-93d3-3aaebd3409b9","ios":"levelo://app?vid=13c41661-d7e4-4f50-93d3-3aaebd3409b9"},"vehicle_type_id":"4","last_reported":1740474594,"current_range_meters":20800,"station_id":"ce4bh412rcd13ifvqds0","pricing_plan_id":"cebpf4jnsgd1na2vs0mg"},{"bike_id":"404b263f-ab90-4fd9-8b2c-d37a07333519","system_id":"levelo_inurba_marseille","lat":43.31679,"lon":5.40489,"is_reserved":false,"is_disabled":false,"rental_uris":{"android":"levelo://app?vid=404b263f-ab90-4fd9-8b2c-d37a07333519","ios":"levelo://app?vid=404b263f-ab90-4fd9-8b2c-d37a07333519"},"vehicle_type_id":"4","last_reported":1740474594,"current_range_meters":20800,"station_id":"ce4bh012rcd13ifvqd00","pricing_plan_id":"cebpf4jnsgd1na2vs0mg"},{"bike_id":"45127abe-699f-4c02-9aab-c9892981149b","system_id":"levelo_inurba_marseille","lat":43.27169,"lon":5.40988,"is_reserved":false,"is_disabled":false,"rental_uris":{"android":"levelo://app?vid=45127abe-699f-4c02-9aab-c9892981149b","ios":"levelo://app?vid=45127abe-699f-4c02-9aab-c9892981149b"},"vehicle_type_id":"4","last_reported":1740474594,"current_range_meters":21600,"station_id":"ce4bhl12rcd13ifvqgf0","pricing_plan_id":"cebpf4jnsgd1na2vs0mg"},{"bike_id":"3142f017-c4b6-483e-aa73-b65aa0cf64a2","system_id":"levelo_inurba_marseille","lat":43.28036,"lon":5.36956,"is_reserved":false,"is_disabled":true,"rental_uris":{"android":"levelo://app?vid=3142f017-c4b6-483e-aa73-b65aa0cf64a2","ios":"levelo://app?vid=3142f017-c4b6-483e-aa73-b65aa0cf64a2"},"vehicle_type_id":"4","last_reported":1740474594,"current_range_meters":21600,"station_id":"ce4bha12rcd13ifvqef0","pricing_plan_id":"cebpf4jnsgd1na2vs0mg"},{"bike_id":"677b1e47-0265-499c-8770-9eb32f515c40","system_id":"levelo_inurba_marseille","lat":43.26545,"lon":5.39034,"is_reserved":false,"is_disabled":false,"rental_uris":{"android":"levelo://app?vid=677b1e47-0265-499c-8770-9eb32f515c40","ios":"levelo://app?vid=677b1e47-0265-499c-8770-9eb32f515c40"},"vehicle_type_id":"4","last_reported":1740474594,"current_range_meters":21600,"station_id":"ce4bhe12rcd13ifvqf30","pricing_plan_id":"cebpf4jnsgd1na2vs0mg"},{"bike_id":"035e6be8-ef43-4145-93f9-14e7a808343f","system_id":"levelo_inurba_marseille","lat":43.27063,"lon":5.40258,"is_reserved":false,"is_disabled":false,"rental_uris":{"android":"levelo://app?vid=035e6be8-ef43-4145-93f9-14e7a808343f","ios":"levelo://app?vid=035e6be8-ef43-4145-93f9-14e7a808343f"},"vehicle_type_id":"4","last_reported":1740474594,"current_range_meters":20400,"station_id":"ce4bhk92rcd13ifvqgc0","pricing_plan_id":"cebpf4jnsgd1na2vs0mg"},{"bike_id":"1015abbd-7082-4ba1-86ea-5a0ad2804113","system_id":"levelo_inurba_marseille","lat":43.29898,"lon":5.43648,"is_reserved":false,"is_disabled":false,"rental_uris":{"android":"levelo://app?vid=1015abbd-7082-4ba1-86ea-5a0ad2804113","ios":"levelo://app?vid=1015abbd-7082-4ba1-86ea-5a0ad2804113"},"vehicle_type_id":"4","last_reported":1740474594,"current_range_meters":22000,"station_id":"ce4bhpp2rcd13ifvqhfg","pricing_plan_id":"cebpf4jnsgd1na2vs0mg"},{"bike_id":"9547fb1b-e264-4d24-98b3-be99c391ec13","system_id":"levelo_inurba_marseille","lat":43.278,"lon":5.40723,"is_reserved":false,"is_disabled":false,"rental_uris":{"android":"levelo://app?vid=9547fb1b-e264-4d24-98b3-be99c391ec13","ios":"levelo://app?vid=9547fb1b-e264-4d24-98b3-be99c391ec13"},"vehicle_type_id":"4","last_reported":1740474594,"current_range_meters":22000,"station_id":"ce4bhnh2rcd13ifvqgtg","pricing_plan_id":"cebpf4jnsgd1na2vs0mg"},{"bike_id":"bcbffecd-0397-4f30-8b71-e56bcf087040","system_id":"levelo_inurba_marseille","lat":43.24665,"lon":5.38169,"is_reserved":false,"is_disabled":false,"rental_uris":{"android":"levelo://app?vid=bcbffecd-0397-4f30-8b71-e56bcf087040","ios":"levelo://app?vid=bcbffecd-0397-4f30-8b71-e56bcf087040"},"vehicle_type_id":"4","last_reported":1740474594,"current_range_meters":21600,"station_id":"ce4bhih2rcd13ifvqfr0","pricing_plan_id":"cebpf4jnsgd1na2vs0mg"},{"bike_id":"8e833eee-ee7b-4c18-bed1-7f6ea4fbc872","system_id":"levelo_inurba_marseille","lat":43.28944,"lon":5.36649,"is_reserved":false,"is_disabled":false,"rental_uris":{"android":"levelo://app?vid=8e833eee-ee7b-4c18-bed1-7f6ea4fbc872","ios":"levelo://app?vid=8e833eee-ee7b-4c18-bed1-7f6ea4fbc872"},"vehicle_type_id":"4","last_reported":1740474594,"current_range_meters":22000,"station_id":"ce4bhap2rcd13ifvqek0","pricing_plan_id":"cebpf4jnsgd1na2vs0mg"},{"bike_id":"70783bb8-fc40-4fc3-8a74-42f162f82a99","system_id":"levelo_inurba_marseille","lat":43.32371,"lon":5.38889,"is_reserved":false,"is_disabled":false,"rental_uris":{"android":"levelo://app?vid=70783bb8-fc40-4fc3-8a74-42f162f82a99","ios":"levelo://app?vid=70783bb8-fc40-4fc3-8a74-42f162f82a99"},"vehicle_type_id":"4","last_reported":1740474594,"current_range_meters":22000,"station_id":"ce4bhqp2rcd13ifvqhog","pricing_plan_id":"cebpf4jnsgd1na2vs0mg"},{"bike_id":"8a306bd5-f14c-46b4-9d14-511c66043162","system_id":"levelo_inurba_marseille","lat":43.29043,"lon":5.37569,"is_reserved":false,"is_disabled":false,"rental_uris":{"android":"levelo://app?vid=8a306bd5-f14c-46b4-9d14-511c66043162","ios":"levelo://app?vid=8a306bd5-f14c-46b4-9d14-511c66043162"},"vehicle_type_id":"4","last_reported":1740474594,"current_range_meters":22000,"station_id":"","pricing_plan_id":"cebpf4jnsgd1na2vs0mg"},{"bike_id":"ed1f1a13-9fde-4727-8e17-8d08d03b127d","system_id":"levelo_inurba_marseille","lat":43.304307,"lon":5.388865,"is_reserved":false,"is_disabled":false,"rental_uris":{"android":"levelo://app?vid=ed1f1a13-9fde-4727-8e17-8d08d03b127d","ios":"levelo://app?vid=ed1f1a13-9fde-4727-8e17-8d08d03b127d"},"vehicle_type_id":"4","last_reported":1740474594,"current_range_meters":22400,"station_id":"ce4bguh2rcd13ifvqcj0","pricing_plan_id":"cebpf4jnsgd1na2vs0mg"},{"bike_id":"b2616ec3-ed79-46c0-91c4-35a843ea1e98","system_id":"levelo_inurba_marseille","lat":43.27948,"lon":5.41068,"is_reserved":false,"is_disabled":false,"rental_uris":{"android":"levelo://app?vid=b2616ec3-ed79-46c0-91c4-35a843ea1e98","ios":"levelo://app?vid=b2616ec3-ed79-46c0-91c4-35a843ea1e98"},"vehicle_type_id":"4","last_reported":1740474594,"current_range_meters":22400,"station_id":"ce4bhnp2rcd13ifvqh0g","pricing_plan_id":"cebpf4jnsgd1na2vs0mg"},{"bike_id":"11d5f17c-dcd7-43f2-a054-2e2ce856853d","system_id":"levelo_inurba_marseille","lat":43.24076,"lon":5.3776,"is_reserved":false,"is_disabled":false,"rental_uris":{"android":"levelo://app?vid=11d5f17c-dcd7-43f2-a054-2e2ce856853d","ios":"levelo://app?vid=11d5f17c-dcd7-43f2-a054-2e2ce856853d"},"vehicle_type_id":"4","last_reported":1740474594,"current_range_meters":22400,"station_id":"ce4bhnp2rcd13ifvqgvg","pricing_plan_id":"cebpf4jnsgd1na2vs0mg"},{"bike_id":"3f1fdbd1-a18d-45c2-b149-6bd105af097c","system_id":"levelo_inurba_marseille","lat":43.25573,"lon":5.38237,"is_reserved":false,"is_disabled":false,"rental_uris":{"android":"levelo://app?vid=3f1fdbd1-a18d-45c2-b149-6bd105af097c","ios":"levelo://app?vid=3f1fdbd1-a18d-45c2-b149-6bd105af097c"},"vehicle_type_id":"4","last_reported":1740474594,"current_range_meters":22800,"station_id":"ce4bhih2rcd13ifvqfs0","pricing_plan_id":"cebpf4jnsgd1na2vs0mg"},{"bike_id":"9eb10ab9-ef97-459e-a893-bed63e589588","system_id":"levelo_inurba_marseille","lat":43.25018,"lon":5.38933,"is_reserved":false,"is_disabled":false,"rental_uris":{"android":"levelo://app?vid=9eb10ab9-ef97-459e-a893-bed63e589588","ios":"levelo://app?vid=9eb10ab9-ef97-459e-a893-bed63e589588"},"vehicle_type_id":"4","last_reported":1740474594,"current_range_meters":22800,"station_id":"ce4bhgp2rcd13ifvqfd0","pricing_plan_id":"cebpf4jnsgd1na2vs0mg"},{"bike_id":"5cac1fb7-4240-4b63-a55f-8da79b3f4a53","system_id":"levelo_inurba_marseille","lat":43.32536,"lon":5.41427,"is_reserved":false,"is_disabled":false,"rental_uris":{"android":"levelo://app?vid=5cac1fb7-4240-4b63-a55f-8da79b3f4a53","ios":"levelo://app?vid=5cac1fb7-4240-4b63-a55f-8da79b3f4a53"},"vehicle_type_id":"4","last_reported":1740474594,"current_range_meters":22800,"station_id":"ce4bhq12rcd13ifvqhhg","pricing_plan_id":"cebpf4jnsgd1na2vs0mg"},{"bike_id":"fe6617a9-ee28-47b3-be78-1c985e373d8d","system_id":"levelo_inurba_marseille","lat":43.25812,"lon":5.39436,"is_reserved":false,"is_disabled":false,"rental_uris":{"android":"levelo://app?vid=fe6617a9-ee28-47b3-be78-1c985e373d8d","ios":"levelo://app?vid=fe6617a9-ee28-47b3-be78-1c985e373d8d"},"vehicle_type_id":"4","last_reported":1740474594,"current_range_meters":22800,"station_id":"ce4bhip2rcd13ifvqft0","pricing_plan_id":"cebpf4jnsgd1na2vs0mg"},{"bike_id":"ce6c3a57-2472-4142-ab26-fc6dee861395","system_id":"levelo_inurba_marseille","lat":43.30233,"lon":5.37545,"is_reserved":false,"is_disabled":false,"rental_uris":{"android":"levelo://app?vid=ce6c3a57-2472-4142-ab26-fc6dee861395","ios":"levelo://app?vid=ce6c3a57-2472-4142-ab26-fc6dee861395"},"vehicle_type_id":"4","last_reported":1740474594,"current_range_meters":22800,"station_id":"","pricing_plan_id":"cebpf4jnsgd1na2vs0mg"},{"bike_id":"0edf3a85-0e12-4f65-a670-900a1988fcf3","system_id":"levelo_inurba_marseille","lat":43.30398,"lon":5.41306,"is_reserved":false,"is_disabled":true,"rental_uris":{"android":"levelo://app?vid=0edf3a85-0e12-4f65-a670-900a1988fcf3","ios":"levelo://app?vid=0edf3a85-0e12-4f65-a670-900a1988fcf3"},"vehicle_type_id":"4","last_reported":1740474594,"current_range_meters":22800,"station_id":"ce4bhop2rcd13ifvqh8g","pricing_plan_id":"cebpf4jnsgd1na2vs0mg"},{"bike_id":"895db3a1-e034-4953-9676-f27c4b985448","system_id":"levelo_inurba_marseille","lat":43.2656,"lon":5.37286,"is_reserved":false,"is_disabled":false,"rental_uris":{"android":"levelo://app?vid=895db3a1-e034-4953-9676-f27c4b985448","ios":"levelo://app?vid=895db3a1-e034-4953-9676-f27c4b985448"},"vehicle_type_id":"4","last_reported":1740474594,"current_range_meters":24800,"station_id":"ce4bhg12rcd13ifvqf70","pricing_plan_id":"cebpf4jnsgd1na2vs0mg"},{"bike_id":"95f05b6e-2c2a-4940-b7cb-ec4781dfe40c","system_id":"levelo_inurba_marseille","lat":43.2595,"lon":5.40868,"is_reserved":false,"is_disabled":false,"rental_uris":{"android":"levelo://app?vid=95f05b6e-2c2a-4940-b7cb-ec4781dfe40c","ios":"levelo://app?vid=95f05b6e-2c2a-4940-b7cb-ec4781dfe40c"},"vehicle_type_id":"4","last_reported":1740474594,"current_range_meters":22800,"station_id":"ce4bhm92rcd13ifvqglg","pricing_plan_id":"cebpf4jnsgd1na2vs0mg"},{"bike_id":"7118e8cb-dfa8-4e0b-95c0-564cb4327800","system_id":"levelo_inurba_marseille","lat":43.33608,"lon":5.41029,"is_reserved":false,"is_disabled":false,"rental_uris":{"android":"levelo://app?vid=7118e8cb-dfa8-4e0b-95c0-564cb4327800","ios":"levelo://app?vid=7118e8cb-dfa8-4e0b-95c0-564cb4327800"},"vehicle_type_id":"4","last_reported":1740474594,"current_range_meters":22800,"station_id":"","pricing_plan_id":"cebpf4jnsgd1na2vs0mg"},{"bike_id":"5df4fe41-23f9-4a4a-b064-0b637e311c0a","system_id":"levelo_inurba_marseille","lat":43.31883,"lon":5.40768,"is_reserved":false,"is_disabled":false,"rental_uris":{"android":"levelo://app?vid=5df4fe41-23f9-4a4a-b064-0b637e311c0a","ios":"levelo://app?vid=5df4fe41-23f9-4a4a-b064-0b637e311c0a"},"vehicle_type_id":"4","last_reported":1740474594,"current_range_meters":23200,"station_id":"ce4bhq12rcd13ifvqhig","pricing_plan_id":"cebpf4jnsgd1na2vs0mg"},{"bike_id":"fa04c13d-c04f-4b8c-a050-70faf09a3b53","system_id":"levelo_inurba_marseille","lat":43.2849,"lon":5.38585,"is_reserved":false,"is_disabled":false,"rental_uris":{"android":"levelo://app?vid=fa04c13d-c04f-4b8c-a050-70faf09a3b53","ios":"levelo://app?vid=fa04c13d-c04f-4b8c-a050-70faf09a3b53"},"vehicle_type_id":"4","last_reported":1740474594,"current_range_meters":23200,"station_id":"ce4bh8p2rcd13ifvqeb0","pricing_plan_id":"cebpf4jnsgd1na2vs0mg"},{"bike_id":"52523529-fae7-4c8a-8269-6204c062d67e","system_id":"levelo_inurba_marseille","lat":43.2707,"lon":5.42281,"is_reserved":false,"is_disabled":false,"rental_uris":{"android":"levelo://app?vid=52523529-fae7-4c8a-8269-6204c062d67e","ios":"levelo://app?vid=52523529-fae7-4c8a-8269-6204c062d67e"},"vehicle_type_id":"4","last_reported":1740474594,"current_range_meters":23200,"station_id":"ce4bhk92rcd13ifvqgb0","pricing_plan_id":"cebpf4jnsgd1na2vs0mg"},{"bike_id":"08c0e386-18a3-4f4d-ad63-faa98867e70f","system_id":"levelo_inurba_marseille","lat":43.27498,"lon":5.42456,"is_reserved":false,"is_disabled":false,"rental_uris":{"android":"levelo://app?vid=08c0e386-18a3-4f4d-ad63-faa98867e70f","ios":"levelo://app?vid=08c0e386-18a3-4f4d-ad63-faa98867e70f"},"vehicle_type_id":"4","last_reported":1740474594,"current_range_meters":23200,"station_id":"ce4bhn92rcd13ifvqgrg","pricing_plan_id":"cebpf4jnsgd1na2vs0mg"},{"bike_id":"220837e6-44d1-411a-aaca-6e3d59340904","system_id":"levelo_inurba_marseille","lat":43.301318,"lon":5.387765,"is_reserved":false,"is_disabled":true,"rental_uris":{"android":"levelo://app?vid=220837e6-44d1-411a-aaca-6e3d59340904","ios":"levelo://app?vid=220837e6-44d1-411a-aaca-6e3d59340904"},"vehicle_type_id":"4","last_reported":1740474594,"current_range_meters":24000,"station_id":"","pricing_plan_id":"cebpf4jnsgd1na2vs0mg"},{"bike_id":"2ed15423-a868-4573-bacd-df9288b94cc4","system_id":"levelo_inurba_marseille","lat":43.30606,"lon":5.39352,"is_reserved":false,"is_disabled":true,"rental_uris":{"android":"levelo://app?vid=2ed15423-a868-4573-bacd-df9288b94cc4","ios":"levelo://app?vid=2ed15423-a868-4573-bacd-df9288b94cc4"},"vehicle_type_id":"4","last_reported":1740474594,"current_range_meters":24000,"station_id":"ce4bh0p2rcd13ifvqd80","pricing_plan_id":"cebpf4jnsgd1na2vs0mg"},{"bike_id":"c66043a9-4683-43d0-9e2b-3748e47a791d","system_id":"levelo_inurba_marseille","lat":43.25865,"lon":5.39901,"is_reserved":false,"is_disabled":false,"rental_uris":{"android":"levelo://app?vid=c66043a9-4683-43d0-9e2b-3748e47a791d","ios":"levelo://app?vid=c66043a9-4683-43d0-9e2b-3748e47a791d"},"vehicle_type_id":"4","last_reported":1740474594,"current_range_meters":24000,"station_id":"ce4bhl92rcd13ifvqghg","pricing_plan_id":"cebpf4jnsgd1na2vs0mg"},{"bike_id":"245c9ee4-a552-4737-8cda-71747db953a0","system_id":"levelo_inurba_marseille","lat":43.2502,"lon":5.38915,"is_reserved":false,"is_disabled":false,"rental_uris":{"android":"levelo://app?vid=245c9ee4-a552-4737-8cda-71747db953a0","ios":"levelo://app?vid=245c9ee4-a552-4737-8cda-71747db953a0"},"vehicle_type_id":"4","last_reported":1740474594,"current_range_meters":24000,"station_id":"ce4bhgp2rcd13ifvqfd0","pricing_plan_id":"cebpf4jnsgd1na2vs0mg"},{"bike_id":"749de116-883e-42d7-b4b9-19035ed352fb","system_id":"levelo_inurba_marseille","lat":43.298,"lon":5.38095,"is_reserved":false,"is_disabled":false,"rental_uris":{"android":"levelo://app?vid=749de116-883e-42d7-b4b9-19035ed352fb","ios":"levelo://app?vid=749de116-883e-42d7-b4b9-19035ed352fb"},"vehicle_type_id":"4","last_reported":1740474594,"current_range_meters":24000,"station_id":"ce4bgip2rcd13ifvqbb0","pricing_plan_id":"cebpf4jnsgd1na2vs0mg"},{"bike_id":"8b7e8afa-bd36-44f3-b7d2-192da0a2367b","system_id":"levelo_inurba_marseille","lat":43.3031,"lon":5.36918,"is_reserved":false,"is_disabled":false,"rental_uris":{"android":"levelo://app?vid=8b7e8afa-bd36-44f3-b7d2-192da0a2367b","ios":"levelo://app?vid=8b7e8afa-bd36-44f3-b7d2-192da0a2367b"},"vehicle_type_id":"4","last_reported":1740474594,"current_range_meters":24000,"station_id":"ce4bgqh2rcd13ifvqc5g","pricing_plan_id":"cebpf4jnsgd1na2vs0mg"},{"bike_id":"b69d2ca7-a48b-4651-a829-0793f0051084","system_id":"levelo_inurba_marseille","lat":43.28686,"lon":5.38676,"is_reserved":false,"is_disabled":false,"rental_uris":{"android":"levelo://app?vid=b69d2ca7-a48b-4651-a829-0793f0051084","ios":"levelo://app?vid=b69d2ca7-a48b-4651-a829-0793f0051084"},"vehicle_type_id":"4","last_reported":1740474594,"current_range_meters":24000,"station_id":"ce4bh492rcd13ifvqdug","pricing_plan_id":"cebpf4jnsgd1na2vs0mg"},{"bike_id":"5eff5ae1-4bb0-461f-b0bd-45acef884444","system_id":"levelo_inurba_marseille","lat":43.30748,"lon":5.3683,"is_reserved":false,"is_disabled":false,"rental_uris":{"android":"levelo://app?vid=5eff5ae1-4bb0-461f-b0bd-45acef884444","ios":"levelo://app?vid=5eff5ae1-4bb0-461f-b0bd-45acef884444"},"vehicle_type_id":"4","last_reported":1740474594,"current_range_meters":24000,"station_id":"","pricing_plan_id":"cebpf4jnsgd1na2vs0mg"},{"bike_id":"571116dd-e5fa-492c-adc2-2060826b0201","system_id":"levelo_inurba_marseille","lat":43.29506,"lon":5.39394,"is_reserved":false,"is_disabled":false,"rental_uris":{"android":"levelo://app?vid=571116dd-e5fa-492c-adc2-2060826b0201","ios":"levelo://app?vid=571116dd-e5fa-492c-adc2-2060826b0201"},"vehicle_type_id":"4","last_reported":1740474594,"current_range_meters":24000,"station_id":"ce4bh292rcd13ifvqdf0","pricing_plan_id":"cebpf4jnsgd1na2vs0mg"},{"bike_id":"d7820aee-d5cb-4fa9-8d83-b62dde9b2994","system_id":"levelo_inurba_marseille","lat":43.32654,"lon":5.41005,"is_reserved":false,"is_disabled":false,"rental_uris":{"android":"levelo://app?vid=d7820aee-d5cb-4fa9-8d83-b62dde9b2994","ios":"levelo://app?vid=d7820aee-d5cb-4fa9-8d83-b62dde9b2994"},"vehicle_type_id":"4","last_reported":1740474594,"current_range_meters":24400,"station_id":"ce4bhpp2rcd13ifvqhgg","pricing_plan_id":"cebpf4jnsgd1na2vs0mg"},{"bike_id":"f5b47a40-5471-4781-a5e3-80f16ed5b3e4","system_id":"levelo_inurba_marseille","lat":43.27817,"lon":5.40706,"is_reserved":false,"is_disabled":false,"rental_uris":{"android":"levelo://app?vid=f5b47a40-5471-4781-a5e3-80f16ed5b3e4","ios":"levelo://app?vid=f5b47a40-5471-4781-a5e3-80f16ed5b3e4"},"vehicle_type_id":"4","last_reported":1740474594,"current_range_meters":24000,"station_id":"","pricing_plan_id":"cebpf4jnsgd1na2vs0mg"},{"bike_id":"4ea509d1-9385-4191-ba4f-426601ab6e3d","system_id":"levelo_inurba_marseille","lat":43.25085,"lon":5.39534,"is_reserved":false,"is_disabled":false,"rental_uris":{"android":"levelo://app?vid=4ea509d1-9385-4191-ba4f-426601ab6e3d","ios":"levelo://app?vid=4ea509d1-9385-4191-ba4f-426601ab6e3d"},"vehicle_type_id":"4","last_reported":1740474594,"current_range_meters":24400,"station_id":"ce4bhm12rcd13ifvqgkg","pricing_plan_id":"cebpf4jnsgd1na2vs0mg"},{"bike_id":"207e0213-fbcf-4c1c-9ca3-aea4e512cf52","system_id":"levelo_inurba_marseille","lat":43.30548,"lon":5.36716,"is_reserved":false,"is_disabled":false,"rental_uris":{"android":"levelo://app?vid=207e0213-fbcf-4c1c-9ca3-aea4e512cf52","ios":"levelo://app?vid=207e0213-fbcf-4c1c-9ca3-aea4e512cf52"},"vehicle_type_id":"4","last_reported":1740474594,"current_range_meters":24400,"station_id":"ce4bgrp2rcd13ifvqc9g","pricing_plan_id":"cebpf4jnsgd1na2vs0mg"},{"bike_id":"1b0a1b63-e6f1-49be-afae-77e17b9ee03d","system_id":"levelo_inurba_marseille","lat":43.26063,"lon":5.39404,"is_reserved":false,"is_disabled":false,"rental_uris":{"android":"levelo://app?vid=1b0a1b63-e6f1-49be-afae-77e17b9ee03d","ios":"levelo://app?vid=1b0a1b63-e6f1-49be-afae-77e17b9ee03d"},"vehicle_type_id":"4","last_reported":1740474594,"current_range_meters":22400,"station_id":"ce4bhh92rcd13ifvqfj0","pricing_plan_id":"cebpf4jnsgd1na2vs0mg"},{"bike_id":"58ac87e1-4a83-40b0-b2c0-15c6bf94c841","system_id":"levelo_inurba_marseille","lat":43.30972,"lon":5.39037,"is_reserved":false,"is_disabled":false,"rental_uris":{"android":"levelo://app?vid=58ac87e1-4a83-40b0-b2c0-15c6bf94c841","ios":"levelo://app?vid=58ac87e1-4a83-40b0-b2c0-15c6bf94c841"},"vehicle_type_id":"4","last_reported":1740474594,"current_range_meters":24400,"station_id":"ce4bgup2rcd13ifvqco0","pricing_plan_id":"cebpf4jnsgd1na2vs0mg"},{"bike_id":"a7f90480-6319-4064-a037-6180c18f5952","system_id":"levelo_inurba_marseille","lat":43.26576,"lon":5.39014,"is_reserved":false,"is_disabled":false,"rental_uris":{"android":"levelo://app?vid=a7f90480-6319-4064-a037-6180c18f5952","ios":"levelo://app?vid=a7f90480-6319-4064-a037-6180c18f5952"},"vehicle_type_id":"4","last_reported":1740474594,"current_range_meters":24400,"station_id":"ce4bhe12rcd13ifvqf30","pricing_plan_id":"cebpf4jnsgd1na2vs0mg"},{"bike_id":"3de9aeda-1f9a-4bbc-8b90-e02a49e56ca9","system_id":"levelo_inurba_marseille","lat":43.23212,"lon":5.35544,"is_reserved":false,"is_disabled":false,"rental_uris":{"android":"levelo://app?vid=3de9aeda-1f9a-4bbc-8b90-e02a49e56ca9","ios":"levelo://app?vid=3de9aeda-1f9a-4bbc-8b90-e02a49e56ca9"},"vehicle_type_id":"4","last_reported":1740474594,"current_range_meters":24400,"station_id":"ce4bhu92rcd13ifvqi70","pricing_plan_id":"cebpf4jnsgd1na2vs0mg"},{"bike_id":"4ae7dddc-893b-4fb1-a57f-81cfb3aff9f4","system_id":"levelo_inurba_marseille","lat":43.32372,"lon":5.38869,"is_reserved":false,"is_disabled":false,"rental_uris":{"android":"levelo://app?vid=4ae7dddc-893b-4fb1-a57f-81cfb3aff9f4","ios":"levelo://app?vid=4ae7dddc-893b-4fb1-a57f-81cfb3aff9f4"},"vehicle_type_id":"4","last_reported":1740474594,"current_range_meters":24400,"station_id":"ce4bhqp2rcd13ifvqhog","pricing_plan_id":"cebpf4jnsgd1na2vs0mg"},{"bike_id":"59389cb0-dcc8-4090-b3e9-1ab95129f2d8","system_id":"levelo_inurba_marseille","lat":43.26683,"lon":5.3828,"is_reserved":false,"is_disabled":false,"rental_uris":{"android":"levelo://app?vid=59389cb0-dcc8-4090-b3e9-1ab95129f2d8","ios":"levelo://app?vid=59389cb0-dcc8-4090-b3e9-1ab95129f2d8"},"vehicle_type_id":"4","last_reported":1740474594,"current_range_meters":24000,"station_id":"ce4bhg92rcd13ifvqf90","pricing_plan_id":"cebpf4jnsgd1na2vs0mg"},{"bike_id":"8ffef99e-8c8a-4195-9b69-267506f876f0","system_id":"levelo_inurba_marseille","lat":43.24075,"lon":5.37763,"is_reserved":false,"is_disabled":false,"rental_uris":{"android":"levelo://app?vid=8ffef99e-8c8a-4195-9b69-267506f876f0","ios":"levelo://app?vid=8ffef99e-8c8a-4195-9b69-267506f876f0"},"vehicle_type_id":"4","last_reported":1740474594,"current_range_meters":24800,"station_id":"ce4bhnp2rcd13ifvqgvg","pricing_plan_id":"cebpf4jnsgd1na2vs0mg"},{"bike_id":"b597206e-3344-4293-895e-fd9a2b396685","system_id":"levelo_inurba_marseille","lat":43.30416,"lon":5.41285,"is_reserved":false,"is_disabled":true,"rental_uris":{"android":"levelo://app?vid=b597206e-3344-4293-895e-fd9a2b396685","ios":"levelo://app?vid=b597206e-3344-4293-895e-fd9a2b396685"},"vehicle_type_id":"4","last_reported":1740474594,"current_range_meters":24800,"station_id":"ce4bhop2rcd13ifvqh8g","pricing_plan_id":"cebpf4jnsgd1na2vs0mg"},{"bike_id":"681d3eb7-8a56-452d-929b-1fb5b43ae417","system_id":"levelo_inurba_marseille","lat":43.32497,"lon":5.3657,"is_reserved":false,"is_disabled":false,"rental_uris":{"android":"levelo://app?vid=681d3eb7-8a56-452d-929b-1fb5b43ae417","ios":"levelo://app?vid=681d3eb7-8a56-452d-929b-1fb5b43ae417"},"vehicle_type_id":"4","last_reported":1740474594,"current_range_meters":23200,"station_id":"ce4bhs12rcd13ifvqhvg","pricing_plan_id":"cebpf4jnsgd1na2vs0mg"},{"bike_id":"cdcac68b-1a06-498c-ad63-eeb255b679b6","system_id":"levelo_inurba_marseille","lat":43.2793,"lon":5.4111,"is_reserved":false,"is_disabled":false,"rental_uris":{"android":"levelo://app?vid=cdcac68b-1a06-498c-ad63-eeb255b679b6","ios":"levelo://app?vid=cdcac68b-1a06-498c-ad63-eeb255b679b6"},"vehicle_type_id":"4","last_reported":1740474594,"current_range_meters":24800,"station_id":"ce4bhnp2rcd13ifvqh0g","pricing_plan_id":"cebpf4jnsgd1na2vs0mg"},{"bike_id":"fcab41f8-490b-4c45-a327-c4b4e17cf681","system_id":"levelo_inurba_marseille","lat":43.25937,"lon":5.40916,"is_reserved":false,"is_disabled":false,"rental_uris":{"android":"levelo://app?vid=fcab41f8-490b-4c45-a327-c4b4e17cf681","ios":"levelo://app?vid=fcab41f8-490b-4c45-a327-c4b4e17cf681"},"vehicle_type_id":"4","last_reported":1740474594,"current_range_meters":24800,"station_id":"ce4bhm92rcd13ifvqglg","pricing_plan_id":"cebpf4jnsgd1na2vs0mg"},{"bike_id":"ad67934a-b0e7-44b8-b5bd-27f7014505bf","system_id":"levelo_inurba_marseille","lat":43.31715,"lon":5.37791,"is_reserved":false,"is_disabled":false,"rental_uris":{"android":"levelo://app?vid=ad67934a-b0e7-44b8-b5bd-27f7014505bf","ios":"levelo://app?vid=ad67934a-b0e7-44b8-b5bd-27f7014505bf"},"vehicle_type_id":"4","last_reported":1740474594,"current_range_meters":24800,"station_id":"ce4bgth2rcd13ifvqch0","pricing_plan_id":"cebpf4jnsgd1na2vs0mg"},{"bike_id":"20f116b0-23be-4896-aac8-d3f645cdeee9","system_id":"levelo_inurba_marseille","lat":43.304823,"lon":5.367255,"is_reserved":false,"is_disabled":false,"rental_uris":{"android":"levelo://app?vid=20f116b0-23be-4896-aac8-d3f645cdeee9","ios":"levelo://app?vid=20f116b0-23be-4896-aac8-d3f645cdeee9"},"vehicle_type_id":"4","last_reported":1740474594,"current_range_meters":24800,"station_id":"ce4bgrp2rcd13ifvqc9g","pricing_plan_id":"cebpf4jnsgd1na2vs0mg"},{"bike_id":"86cee0fa-0979-429d-9b49-0e3063256449","system_id":"levelo_inurba_marseille","lat":43.33598,"lon":5.41021,"is_reserved":false,"is_disabled":false,"rental_uris":{"android":"levelo://app?vid=86cee0fa-0979-429d-9b49-0e3063256449","ios":"levelo://app?vid=86cee0fa-0979-429d-9b49-0e3063256449"},"vehicle_type_id":"4","last_reported":1740474594,"current_range_meters":25200,"station_id":"ce4bhqh2rcd13ifvqhmg","pricing_plan_id":"cebpf4jnsgd1na2vs0mg"},{"bike_id":"63774802-57d9-4152-944f-4d8ebf829201","system_id":"levelo_inurba_marseille","lat":43.29438,"lon":5.39759,"is_reserved":false,"is_disabled":false,"rental_uris":{"android":"levelo://app?vid=63774802-57d9-4152-944f-4d8ebf829201","ios":"levelo://app?vid=63774802-57d9-4152-944f-4d8ebf829201"},"vehicle_type_id":"4","last_reported":1740474594,"current_range_meters":25200,"station_id":"ce4bh3h2rcd13ifvqdo0","pricing_plan_id":"cebpf4jnsgd1na2vs0mg"},{"bike_id":"bad630e3-d338-4682-9847-d6fdfe936b61","system_id":"levelo_inurba_marseille","lat":43.29374,"lon":5.37848,"is_reserved":false,"is_disabled":false,"rental_uris":{"android":"levelo://app?vid=bad630e3-d338-4682-9847-d6fdfe936b61","ios":"levelo://app?vid=bad630e3-d338-4682-9847-d6fdfe936b61"},"vehicle_type_id":"4","last_reported":1740474594,"current_range_meters":25200,"station_id":"ce4bgjh2rcd13ifvqbf0","pricing_plan_id":"cebpf4jnsgd1na2vs0mg"},{"bike_id":"60dff205-c9f5-4d5b-93e4-02e8f8caaa4a","system_id":"levelo_inurba_marseille","lat":43.24176,"lon":5.39735,"is_reserved":false,"is_disabled":false,"rental_uris":{"android":"levelo://app?vid=60dff205-c9f5-4d5b-93e4-02e8f8caaa4a","ios":"levelo://app?vid=60dff205-c9f5-4d5b-93e4-02e8f8caaa4a"},"vehicle_type_id":"4","last_reported":1740474594,"current_range_meters":24800,"station_id":"ce4bhn12rcd13ifvqgpg","pricing_plan_id":"cebpf4jnsgd1na2vs0mg"},{"bike_id":"46b9613d-4c52-48c9-b453-04e1038a3fd7","system_id":"levelo_inurba_marseille","lat":43.29257,"lon":5.40189,"is_reserved":false,"is_disabled":false,"rental_uris":{"android":"levelo://app?vid=46b9613d-4c52-48c9-b453-04e1038a3fd7","ios":"levelo://app?vid=46b9613d-4c52-48c9-b453-04e1038a3fd7"},"vehicle_type_id":"4","last_reported":1740474594,"current_range_meters":25200,"station_id":"","pricing_plan_id":"cebpf4jnsgd1na2vs0mg"},{"bike_id":"0c6d0d93-75dc-4db3-b58e-2f4336f7194e","system_id":"levelo_inurba_marseille","lat":43.28717,"lon":5.37952,"is_reserved":false,"is_disabled":false,"rental_uris":{"android":"levelo://app?vid=0c6d0d93-75dc-4db3-b58e-2f4336f7194e","ios":"levelo://app?vid=0c6d0d93-75dc-4db3-b58e-2f4336f7194e"},"vehicle_type_id":"4","last_reported":1740474594,"current_range_meters":25200,"station_id":"ce4bh9p2rcd13ifvqec0","pricing_plan_id":"cebpf4jnsgd1na2vs0mg"},{"bike_id":"2a1f6d18-67b2-4ba4-8539-1dc62d878fed","system_id":"levelo_inurba_marseille","lat":43.24177,"lon":5.3973,"is_reserved":false,"is_disabled":false,"rental_uris":{"android":"levelo://app?vid=2a1f6d18-67b2-4ba4-8539-1dc62d878fed","ios":"levelo://app?vid=2a1f6d18-67b2-4ba4-8539-1dc62d878fed"},"vehicle_type_id":"4","last_reported":1740474594,"current_range_meters":25600,"station_id":"ce4bhn12rcd13ifvqgpg","pricing_plan_id":"cebpf4jnsgd1na2vs0mg"},{"bike_id":"f06322ed-23cc-484a-9268-72a48c3a3189","system_id":"levelo_inurba_marseille","lat":43.27909,"lon":5.3802,"is_reserved":false,"is_disabled":false,"rental_uris":{"android":"levelo://app?vid=f06322ed-23cc-484a-9268-72a48c3a3189","ios":"levelo://app?vid=f06322ed-23cc-484a-9268-72a48c3a3189"},"vehicle_type_id":"4","last_reported":1740474594,"current_range_meters":26000,"station_id":"ce4bhf92rcd13ifvqf50","pricing_plan_id":"cebpf4jnsgd1na2vs0mg"},{"bike_id":"9f2ed4f1-2485-4d7f-8cd9-aa6e53cb7ed5","system_id":"levelo_inurba_marseille","lat":43.25744,"lon":5.4111,"is_reserved":false,"is_disabled":false,"rental_uris":{"android":"levelo://app?vid=9f2ed4f1-2485-4d7f-8cd9-aa6e53cb7ed5","ios":"levelo://app?vid=9f2ed4f1-2485-4d7f-8cd9-aa6e53cb7ed5"},"vehicle_type_id":"4","last_reported":1740474594,"current_range_meters":25600,"station_id":"ce4bhkp2rcd13ifvqgd0","pricing_plan_id":"cebpf4jnsgd1na2vs0mg"},{"bike_id":"70bfe7e8-05e0-4fca-80f2-a449d7214147","system_id":"levelo_inurba_marseille","lat":43.26059,"lon":5.394,"is_reserved":false,"is_disabled":false,"rental_uris":{"android":"levelo://app?vid=70bfe7e8-05e0-4fca-80f2-a449d7214147","ios":"levelo://app?vid=70bfe7e8-05e0-4fca-80f2-a449d7214147"},"vehicle_type_id":"4","last_reported":1740474594,"current_range_meters":25600,"station_id":"ce4bhh92rcd13ifvqfj0","pricing_plan_id":"cebpf4jnsgd1na2vs0mg"},{"bike_id":"eb7dd4fc-0cf4-40cb-9fed-5cae0531275d","system_id":"levelo_inurba_marseille","lat":43.25829,"lon":5.39442,"is_reserved":false,"is_disabled":false,"rental_uris":{"android":"levelo://app?vid=eb7dd4fc-0cf4-40cb-9fed-5cae0531275d","ios":"levelo://app?vid=eb7dd4fc-0cf4-40cb-9fed-5cae0531275d"},"vehicle_type_id":"4","last_reported":1740474594,"current_range_meters":25600,"station_id":"ce4bhip2rcd13ifvqft0","pricing_plan_id":"cebpf4jnsgd1na2vs0mg"},{"bike_id":"d05e524d-9a25-4ad4-890b-92efc3309e65","system_id":"levelo_inurba_marseille","lat":43.25926,"lon":5.40905,"is_reserved":false,"is_disabled":false,"rental_uris":{"android":"levelo://app?vid=d05e524d-9a25-4ad4-890b-92efc3309e65","ios":"levelo://app?vid=d05e524d-9a25-4ad4-890b-92efc3309e65"},"vehicle_type_id":"4","last_reported":1740474594,"current_range_meters":26000,"station_id":"ce4bhm92rcd13ifvqglg","pricing_plan_id":"cebpf4jnsgd1na2vs0mg"},{"bike_id":"43d6aa6f-20c7-4a1b-bcb8-31b660876567","system_id":"levelo_inurba_marseille","lat":43.26559,"lon":5.37286,"is_reserved":false,"is_disabled":false,"rental_uris":{"android":"levelo://app?vid=43d6aa6f-20c7-4a1b-bcb8-31b660876567","ios":"levelo://app?vid=43d6aa6f-20c7-4a1b-bcb8-31b660876567"},"vehicle_type_id":"4","last_reported":1740474594,"current_range_meters":26000,"station_id":"ce4bhg12rcd13ifvqf70","pricing_plan_id":"cebpf4jnsgd1na2vs0mg"},{"bike_id":"053426f9-0a2a-4c46-926d-8af0fef5ae1a","system_id":"levelo_inurba_marseille","lat":43.32353,"lon":5.36759,"is_reserved":false,"is_disabled":false,"rental_uris":{"android":"levelo://app?vid=053426f9-0a2a-4c46-926d-8af0fef5ae1a","ios":"levelo://app?vid=053426f9-0a2a-4c46-926d-8af0fef5ae1a"},"vehicle_type_id":"4","last_reported":1740474594,"current_range_meters":26000,"station_id":"ce4bhsh2rcd13ifvqi2g","pricing_plan_id":"cebpf4jnsgd1na2vs0mg"},{"bike_id":"6f97cdf1-f223-487f-9fc2-e9fadec05187","system_id":"levelo_inurba_marseille","lat":43.3029,"lon":5.37711,"is_reserved":false,"is_disabled":false,"rental_uris":{"android":"levelo://app?vid=6f97cdf1-f223-487f-9fc2-e9fadec05187","ios":"levelo://app?vid=6f97cdf1-f223-487f-9fc2-e9fadec05187"},"vehicle_type_id":"4","last_reported":1740474594,"current_range_meters":26000,"station_id":"ce4bguh2rcd13ifvqcj0","pricing_plan_id":"cebpf4jnsgd1na2vs0mg"},{"bike_id":"8d6bf701-2ba8-4c79-9d02-6317c0e6bbc7","system_id":"levelo_inurba_marseille","lat":43.30199,"lon":5.39742,"is_reserved":false,"is_disabled":false,"rental_uris":{"android":"levelo://app?vid=8d6bf701-2ba8-4c79-9d02-6317c0e6bbc7","ios":"levelo://app?vid=8d6bf701-2ba8-4c79-9d02-6317c0e6bbc7"},"vehicle_type_id":"4","last_reported":1740474594,"current_range_meters":26800,"station_id":"","pricing_plan_id":"cebpf4jnsgd1na2vs0mg"},{"bike_id":"bce7e1e9-7bb2-490b-957c-afadd703be42","system_id":"levelo_inurba_marseille","lat":43.27056,"lon":5.40265,"is_reserved":false,"is_disabled":false,"rental_uris":{"android":"levelo://app?vid=bce7e1e9-7bb2-490b-957c-afadd703be42","ios":"levelo://app?vid=bce7e1e9-7bb2-490b-957c-afadd703be42"},"vehicle_type_id":"4","last_reported":1740474594,"current_range_meters":26800,"station_id":"ce4bhk92rcd13ifvqgc0","pricing_plan_id":"cebpf4jnsgd1na2vs0mg"},{"bike_id":"a7698dc8-b803-410d-b560-49098d8ebe43","system_id":"levelo_inurba_marseille","lat":43.29887,"lon":5.43655,"is_reserved":false,"is_disabled":false,"rental_uris":{"android":"levelo://app?vid=a7698dc8-b803-410d-b560-49098d8ebe43","ios":"levelo://app?vid=a7698dc8-b803-410d-b560-49098d8ebe43"},"vehicle_type_id":"4","last_reported":1740474594,"current_range_meters":26800,"station_id":"ce4bhpp2rcd13ifvqhfg","pricing_plan_id":"cebpf4jnsgd1na2vs0mg"},{"bike_id":"85641fcc-3a04-4ffd-a1e8-299fc85804c4","system_id":"levelo_inurba_marseille","lat":43.32124,"lon":5.36795,"is_reserved":false,"is_disabled":false,"rental_uris":{"android":"levelo://app?vid=85641fcc-3a04-4ffd-a1e8-299fc85804c4","ios":"levelo://app?vid=85641fcc-3a04-4ffd-a1e8-299fc85804c4"},"vehicle_type_id":"4","last_reported":1740474594,"current_range_meters":27200,"station_id":"ce4bhrh2rcd13ifvqhug","pricing_plan_id":"cebpf4jnsgd1na2vs0mg"},{"bike_id":"dced32e1-336b-483b-b24c-3e001ab56393","system_id":"levelo_inurba_marseille","lat":43.29026,"lon":5.38658,"is_reserved":false,"is_disabled":false,"rental_uris":{"android":"levelo://app?vid=dced32e1-336b-483b-b24c-3e001ab56393","ios":"levelo://app?vid=dced32e1-336b-483b-b24c-3e001ab56393"},"vehicle_type_id":"4","last_reported":1740474594,"current_range_meters":26800,"station_id":"ce4bh4p2rcd13ifvqe0g","pricing_plan_id":"cebpf4jnsgd1na2vs0mg"},{"bike_id":"f514c6ce-911a-4663-9a3b-0111747681da","system_id":"levelo_inurba_marseille","lat":43.30181,"lon":5.38075,"is_reserved":false,"is_disabled":false,"rental_uris":{"android":"levelo://app?vid=f514c6ce-911a-4663-9a3b-0111747681da","ios":"levelo://app?vid=f514c6ce-911a-4663-9a3b-0111747681da"},"vehicle_type_id":"4","last_reported":1740474594,"current_range_meters":26800,"station_id":"ce4bgjp2rcd13ifvqbh0","pricing_plan_id":"cebpf4jnsgd1na2vs0mg"},{"bike_id":"f6032714-dcad-4575-9402-add0712fdaf3","system_id":"levelo_inurba_marseille","lat":43.24075,"lon":5.37777,"is_reserved":false,"is_disabled":false,"rental_uris":{"android":"levelo://app?vid=f6032714-dcad-4575-9402-add0712fdaf3","ios":"levelo://app?vid=f6032714-dcad-4575-9402-add0712fdaf3"},"vehicle_type_id":"4","last_reported":1740474594,"current_range_meters":26800,"station_id":"","pricing_plan_id":"cebpf4jnsgd1na2vs0mg"},{"bike_id":"b9c6876a-e24c-43fa-8a67-095ea82687ee","system_id":"levelo_inurba_marseille","lat":43.23103,"lon":5.35448,"is_reserved":false,"is_disabled":false,"rental_uris":{"android":"levelo://app?vid=b9c6876a-e24c-43fa-8a67-095ea82687ee","ios":"levelo://app?vid=b9c6876a-e24c-43fa-8a67-095ea82687ee"},"vehicle_type_id":"4","last_reported":1740474594,"current_range_meters":27200,"station_id":"cpo3342slgdg3j2ifvpg","pricing_plan_id":"cebpf4jnsgd1na2vs0mg"},