{"last_updated":1759256057,"ttl":60,"version":"2.2","data":{"bikes":[{"bike_id":"4185afe4-2611-48ff-b646-a5acff45ba51","system_id":"levelo_inurba_marseille","lat":43.28156,"lon":5.42648,"is_reserved":false,"is_disabled":false,"rental_uris":{"android":"levelo://app?vid=4185afe4-2611-48ff-b646-a5acff45ba51","ios":"levelo://app?vid=4185afe4-2611-48ff-b646-a5acff45ba51"},"vehicle_type_id":"4","last_reported":1759256057,"current_range_meters":2800,"station_id":"ce4bhnh2rcd13ifvqgug","pricing_plan_id":"cebpf4jnsgd1na2vs0mg"},{"bike_id":"55e29995-c908-49fa-95d1-2931f2569b91","system_id":"levelo_inurba_marseille","lat":43.27053,"lon":5.40257,"is_reserved":false,"is_disabled":false,"rental_uris":{"android":"levelo://app?vid=55e29995-c908-49fa-95d1-2931f2569b91","ios":"levelo://app?vid=55e29995-c908-49fa-95d1-2931f2569b91"},"vehicle_type_id":"4","last_reported":1759256057,"current_range_meters":2800,"station_id":"ce4bhk92rcd13ifvqgc0","pricing_plan_id":"cebpf4jnsgd1na2vs0mg"},{"bike_id":"c96ff4bf-2640-4930-87c9-d80a1fbc399f","system_id":"levelo_inurba_marseille","lat":43.29197,"lon":5.39323,"is_reserved":false,"is_disabled":false,"rental_uris":{"android":"levelo://app?vid=c96ff4bf-2640-4930-87c9-d80a1fbc399f","ios":"levelo://app?vid=c96ff4bf-2640-4930-87c9-d80a1fbc399f"},"vehicle_type_id":"4","last_reported":1759256057,"current_range_meters":2800,"station_id":"ce4bh192rcd13ifvqdd0","pricing_plan_id":"cebpf4jnsgd1na2vs0mg"},{"bike_id":"d70d7700-77ea-4a05-bea8-762b940361d0","system_id":"levelo_inurba_marseille","lat":43.27429,"lon":5.39418,"is_reserved":false,"is_disabled":false,"rental_uris":{"android":"levelo://app?vid=d70d7700-77ea-4a05-bea8-762b940361d0","ios":"levelo://app?vid=d70d7700-77ea-4a05-bea8-762b940361d0"},"vehicle_type_id":"4","last_reported":1759256057,"current_range_meters":2800,"station_id":"ce4bhdp2rcd13ifvqf20","pricing_plan_id":"cebpf4jnsgd1na2vs0mg"},{"bike_id":"a05b5d28-8bfc-48d1-924e-de2d910c4b41","system_id":"levelo_inurba_marseille","lat":43.27211,"lon":5.39178,"is_reserved":false,"is_disabled":false,"rental_uris":{"android":"levelo://app?vid=a05b5d28-8bfc-48d1-924e-de2d910c4b41","ios":"levelo://app?vid=a05b5d28-8bfc-48d1-924e-de2d910c4b41"},"vehicle_type_id":"4","last_reported":1759256057,"current_range_meters":2800,"station_id":"ce4bhhp2rcd13ifvqfm0","pricing_plan_id":"cebpf4jnsgd1na2vs0mg"},{"bike_id":"a8c98fc0-e4b2-4434-bbb2-41d6d3af8a9f","system_id":"levelo_inurba_marseille","lat":43.31086,"lon":5.42437,"is_reserved":false,"is_disabled":false,"rental_uris":{"android":"levelo://app?vid=a8c98fc0-e4b2-4434-bbb2-41d6d3af8a9f","ios":"levelo://app?vid=a8c98fc0-e4b2-4434-bbb2-41d6d3af8a9f"},"vehicle_type_id":"4","last_reported":1759256057,"current_range_meters":2800,"station_id":"ce4bhp92rcd13ifvqhag","pricing_plan_id":"cebpf4jnsgd1na2vs0mg"},{"bike_id":"42d9bdd8-dac0-43f8-95d0-323dc1dc3005","system_id":"levelo_inurba_marseille","lat":43.27218,"lon":5.39181,"is_reserved":false,"is_disabled":false,"rental_uris":{"android":"levelo://app?vid=42d9bdd8-dac0-43f8-95d0-323dc1dc3005","ios":"levelo://app?vid=42d9bdd8-dac0-43f8-95d0-323dc1dc3005"},"vehicle_type_id":"4","last_reported":1759256057,"current_range_meters":2800,"station_id":"ce4bhhp2rcd13ifvqfm0","pricing_plan_id":"cebpf4jnsgd1na2vs0mg"},{"bike_id":"258ab053-1083-4ca9-a32a-1e85f085fc22","system_id":"levelo_inurba_marseille","lat":43.337444,"lon":5.374475,"is_reserved":false,"is_disabled":false,"rental_uris":{"android":"levelo://app?vid=258ab053-1083-4ca9-a32a-1e85f085fc22","ios":"levelo://app?vid=258ab053-1083-4ca9-a32a-1e85f085fc22"},"vehicle_type_id":"4","last_reported":1759256057,"current_range_meters":2800,"station_id":"","pricing_plan_id":"cebpf4jnsgd1na2vs0mg"},{"bike_id":"c4d812f2-3535-4e21-9210-5b681023ea71","system_id":"levelo_inurba_marseille","lat":43.29291,"lon":5.37465,"is_reserved":false,"is_disabled":false,"rental_uris":{"android":"levelo://app?vid=c4d812f2-3535-4e21-9210-5b681023ea71","ios":"levelo://app?vid=c4d812f2-3535-4e21-9210-5b681023ea71"},"vehicle_type_id":"4","last_reported":1759256057,"current_range_meters":3200,"station_id":"ce4bgi12rcd13ifvqb70","pricing_plan_id":"cebpf4jnsgd1na2vs0mg"},{"bike_id":"8b353c9e-13c5-42ee-a76f-ccbd6269a3dc","system_id":"levelo_inurba_marseille","lat":43.30444,"lon":5.36689,"is_reserved":false,"is_disabled":false,"rental_uris":{"android":"levelo://app?vid=8b353c9e-13c5-42ee-a76f-ccbd6269a3dc","ios":"levelo://app?vid=8b353c9e-13c5-42ee-a76f-ccbd6269a3dc"},"vehicle_type_id":"4","last_reported":1759256057,"current_range_meters":3200,"station_id":"","pricing_plan_id":"cebpf4jnsgd1na2vs0mg"},{"bike_id":"f9ba6fe5-859c-46a6-8948-718c3ba57110","system_id":"levelo_inurba_marseille","lat":43.2826,"lon":5.35071,"is_reserved":false,"is_disabled":false,"rental_uris":{"android":"levelo://app?vid=f9ba6fe5-859c-46a6-8948-718c3ba57110","ios":"levelo://app?vid=f9ba6fe5-859c-46a6-8948-718c3ba57110"},"vehicle_type_id":"4","last_reported":1759256057,"current_range_meters":3200,"station_id":"ce4bhbp2rcd13ifvqerg","pricing_plan_id":"cebpf4jnsgd1na2vs0mg"},{"bike_id":"a86e15ed-07f5-41db-abb6-69267d76f2dc","system_id":"levelo_inurba_marseille","lat":43.26953,"lon":5.38633,"is_reserved":false,"is_disabled":false,"rental_uris":{"android":"levelo://app?vid=a86e15ed-07f5-41db-abb6-69267d76f2dc","ios":"levelo://app?vid=a86e15ed-07f5-41db-abb6-69267d76f2dc"},"vehicle_type_id":"4","last_reported":1759256057,"current_range_meters":3200,"station_id":"ce4bhh92rcd13ifvqfh0","pricing_plan_id":"cebpf4jnsgd1na2vs0mg"},{"bike_id":"19e56698-6e58-48dc-bdda-aba2e20404da","system_id":"levelo_inurba_marseille","lat":43.281822,"lon":5.386097,"is_reserved":false,"is_disabled":false,"rental_uris":{"android":"levelo://app?vid=19e56698-6e58-48dc-bdda-aba2e20404da","ios":"levelo://app?vid=19e56698-6e58-48dc-bdda-aba2e20404da"},"vehicle_type_id":"4","last_reported":1759256057,"current_range_meters":3200,"station_id":"ce4bhhh2rcd13ifvqfl0","pricing_plan_id":"cebpf4jnsgd1na2vs0mg"},{"bike_id":"44893b72-56a7-438d-a4d7-afd018e5af4f","system_id":"levelo_inurba_marseille","lat":43.26803,"lon":5.4027,"is_reserved":false,"is_disabled":false,"rental_uris":{"android":"levelo://app?vid=44893b72-56a7-438d-a4d7-afd018e5af4f","ios":"levelo://app?vid=44893b72-56a7-438d-a4d7-afd018e5af4f"},"vehicle_type_id":"4","last_reported":1759256057,"current_range_meters":3200,"station_id":"ce501612rcd8frsf0b60","pricing_plan_id":"cebpf4jnsgd1na2vs0mg"},{"bike_id":"446d8692-279c-4ab3-beeb-ac916dd281e4","system_id":"levelo_inurba_marseille","lat":43.26683,"lon":5.38274,"is_reserved":false,"is_disabled":false,"rental_uris":{"android":"levelo://app?vid=446d8692-279c-4ab3-beeb-ac916dd281e4","ios":"levelo://app?vid=446d8692-279c-4ab3-beeb-ac916dd281e4"},"vehicle_type_id":"4","last_reported":1759256057,"current_range_meters":3200,"station_id":"ce4bhg92rcd13ifvqf90","pricing_plan_id":"cebpf4jnsgd1na2vs0mg"},{"bike_id":"aa451cab-bbc6-4f69-b394-ae13712b470d","system_id":"levelo_inurba_marseille","lat":43.26932,"lon":5.40269,"is_reserved":false,"is_disabled":false,"rental_uris":{"android":"levelo://app?vid=aa451cab-bbc6-4f69-b394-ae13712b470d","ios":"levelo://app?vid=aa451cab-bbc6-4f69-b394-ae13712b470d"},"vehicle_type_id":"4","last_reported":1759256057,"current_range_meters":3200,"station_id":"cjm6bp8fraef2m0cb0m0","pricing_plan_id":"cebpf4jnsgd1na2vs0mg"},{"bike_id":"383fe927-50f7-4aed-bb3c-b2f4b53c2c1d","system_id":"levelo_inurba_marseille","lat":43.27319,"lon":5.39092,"is_reserved":false,"is_disabled":false,"rental_uris":{"android":"levelo://app?vid=383fe927-50f7-4aed-bb3c-b2f4b53c2c1d","ios":"levelo://app?vid=383fe927-50f7-4aed-bb3c-b2f4b53c2c1d"},"vehicle_type_id":"4","last_reported":1759256057,"current_range_meters":3200,"station_id":"ce4bhgp2rcd13ifvqfe0","pricing_plan_id":"cebpf4jnsgd1na2vs0mg"},{"bike_id":"9c5bcec8-6b22-4dba-b7cf-4582f6e4d1d5","system_id":"levelo_inurba_marseille","lat":43.29596,"lon":5.37721,"is_reserved":false,"is_disabled":false,"rental_uris":{"android":"levelo://app?vid=9c5bcec8-6b22-4dba-b7cf-4582f6e4d1d5","ios":"levelo://app?vid=9c5bcec8-6b22-4dba-b7cf-4582f6e4d1d5"},"vehicle_type_id":"4","last_reported":1759256057,"current_range_meters":3200,"station_id":"ce4bgi92rcd13ifvqb90","pricing_plan_id":"cebpf4jnsgd1na2vs0mg"},{"bike_id":"a599d1b2-b269-4a47-a41b-8fef4d790dea","system_id":"levelo_inurba_marseille","lat":43.29423,"lon":5.4323,"is_reserved":false,"is_disabled":false,"rental_uris":{"android":"levelo://app?vid=a599d1b2-b269-4a47-a41b-8fef4d790dea","ios":"levelo://app?vid=a599d1b2-b269-4a47-a41b-8fef4d790dea"},"vehicle_type_id":"4","last_reported":1759256057,"current_range_meters":3200,"station_id":"","pricing_plan_id":"cebpf4jnsgd1na2vs0mg"},{"bike_id":"c86935d6-cb23-49c0-9e43-fc8a3ea59fda","system_id":"levelo_inurba_marseille","lat":43.31109,"lon":5.38585,"is_reserved":false,"is_disabled":false,"rental_uris":{"android":"levelo://app?vid=c86935d6-cb23-49c0-9e43-fc8a3ea59fda","ios":"levelo://app?vid=c86935d6-cb23-49c0-9e43-fc8a3ea59fda"},"vehicle_type_id":"4","last_reported":1759256057,"current_range_meters":3600,"station_id":"","pricing_plan_id":"cebpf4jnsgd1na2vs0mg"},{"bike_id":"2c6518be-b3f0-42d2-93c9-c1de9e54885f","system_id":"levelo_inurba_marseille","lat":43.29227,"lon":5.38219,"is_reserved":false,"is_disabled":false,"rental_uris":{"android":"levelo://app?vid=2c6518be-b3f0-42d2-93c9-c1de9e54885f","ios":"levelo://app?vid=2c6518be-b3f0-42d2-93c9-c1de9e54885f"},"vehicle_type_id":"4","last_reported":1759256057,"current_range_meters":3600,"station_id":"","pricing_plan_id":"cebpf4jnsgd1na2vs0mg"},{"bike_id":"ca660db5-13a2-4b17-89f6-c4a43f402701","system_id":"levelo_inurba_marseille","lat":43.31867,"lon":5.37068,"is_reserved":false,"is_disabled":false,"rental_uris":{"android":"levelo://app?vid=ca660db5-13a2-4b17-89f6-c4a43f402701","ios":"levelo://app?vid=ca660db5-13a2-4b17-89f6-c4a43f402701"},"vehicle_type_id":"4","last_reported":1759256057,"current_range_meters":3600,"station_id":"","pricing_plan_id":"cebpf4jnsgd1na2vs0mg"},{"bike_id":"7c92c738-3714-4c92-ba66-0b7ec884c67c","system_id":"levelo_inurba_marseille","lat":43.27068,"lon":5.42288,"is_reserved":false,"is_disabled":false,"rental_uris":{"android":"levelo://app?vid=7c92c738-3714-4c92-ba66-0b7ec884c67c","ios":"levelo://app?vid=7c92c738-3714-4c92-ba66-0b7ec884c67c"},"vehicle_type_id":"4","last_reported":1759256057,"current_range_meters":3600,"station_id":"ce4bhk92rcd13ifvqgb0","pricing_plan_id":"cebpf4jnsgd1na2vs0mg"},{"bike_id":"fe169090-3bd8-418f-96a4-9c575e929125","system_id":"levelo_inurba_marseille","lat":43.29307,"lon":5.37177,"is_reserved":false,"is_disabled":false,"rental_uris":{"android":"levelo://app?vid=fe169090-3bd8-418f-96a4-9c575e929125","ios":"levelo://app?vid=fe169090-3bd8-418f-96a4-9c575e929125"},"vehicle_type_id":"4","last_reported":1759256057,"current_range_meters":3600,"station_id":"ce4bgh92rcd13ifvqb40","pricing_plan_id":"cebpf4jnsgd1na2vs0mg"},{"bike_id":"9b731d9d-592f-4c4b-8fd4-f02b62e5e8cd","system_id":"levelo_inurba_marseille","lat":43.27942,"lon":5.41051,"is_reserved":false,"is_disabled":false,"rental_uris":{"android":"levelo://app?vid=9b731d9d-592f-4c4b-8fd4-f02b62e5e8cd","ios":"levelo://app?vid=9b731d9d-592f-4c4b-8fd4-f02b62e5e8cd"},"vehicle_type_id":"4","last_reported":1759256057,"current_range_meters":3600,"station_id":"ce4bhnp2rcd13ifvqh0g","pricing_plan_id":"cebpf4jnsgd1na2vs0mg"},{"bike_id":"ad69ca2a-be9b-47b5-af84-937b99a0028a","system_id":"levelo_inurba_marseille","lat":43.24549,"lon":5.39523,"is_reserved":false,"is_disabled":false,"rental_uris":{"android":"levelo://app?vid=ad69ca2a-be9b-47b5-af84-937b99a0028a","ios":"levelo://app?vid=ad69ca2a-be9b-47b5-af84-937b99a0028a"},"vehicle_type_id":"4","last_reported":1759256057,"current_range_meters":3600,"station_id":"ce4bhlp2rcd13ifvqgjg","pricing_plan_id":"cebpf4jnsgd1na2vs0mg"},{"bike_id":"1dad2113-89e2-44fc-a0b6-ddd6a09baff1","system_id":"levelo_inurba_marseille","lat":43.337444,"lon":5.374475,"is_reserved":false,"is_disabled":false,"rental_uris":{"android":"levelo://app?vid=1dad2113-89e2-44fc-a0b6-ddd6a09baff1","ios":"levelo://app?vid=1dad2113-89e2-44fc-a0b6-ddd6a09baff1"},"vehicle_type_id":"4","last_reported":1759256057,"current_range_meters":3600,"station_id":"","pricing_plan_id":"cebpf4jnsgd1na2vs0mg"},{"bike_id":"3c223f32-b3f9-4b86-bcf5-f3e1b9e85f86","system_id":"levelo_inurba_marseille","lat":43.24551,"lon":5.39527,"is_reserved":false,"is_disabled":false,"rental_uris":{"android":"levelo://app?vid=3c223f32-b3f9-4b86-bcf5-f3e1b9e85f86","ios":"levelo://app?vid=3c223f32-b3f9-4b86-bcf5-f3e1b9e85f86"},"vehicle_type_id":"4","last_reported":1759256057,"current_range_meters":4000,"station_id":"ce4bhlp2rcd13ifvqgjg","pricing_plan_id":"cebpf4jnsgd1na2vs0mg"},{"bike_id":"c84b7fb2-6a19-4bae-83c6-fd3eb325374b","system_id":"levelo_inurba_marseille","lat":43.26508,"lon":5.39555,"is_reserved":false,"is_disabled":false,"rental_uris":{"android":"levelo://app?vid=c84b7fb2-6a19-4bae-83c6-fd3eb325374b","ios":"levelo://app?vid=c84b7fb2-6a19-4bae-83c6-fd3eb325374b"},"vehicle_type_id":"4","last_reported":1759256057,"current_range_meters":4000,"station_id":"ce4bhi12rcd13ifvqfq0","pricing_plan_id":"cebpf4jnsgd1na2vs0mg"},{"bike_id":"03dbce53-a0c5-4b5f-b0c9-1aa55fbc2708","system_id":"levelo_inurba_marseille","lat":43.24542,"lon":5.39526,"is_reserved":false,"is_disabled":true,"rental_uris":{"android":"levelo://app?vid=03dbce53-a0c5-4b5f-b0c9-1aa55fbc2708","ios":"levelo://app?vid=03dbce53-a0c5-4b5f-b0c9-1aa55fbc2708"},"vehicle_type_id":"4","last_reported":1759256057,"current_range_meters":4000,"station_id":"ce4bhlp2rcd13ifvqgjg","pricing_plan_id":"cebpf4jnsgd1na2vs0mg"},{"bike_id":"19dffac5-8a1f-4383-9690-5bb19eb32640","system_id":"levelo_inurba_marseille","lat":43.310794,"lon":5.383413,"is_reserved":false,"is_disabled":true,"rental_uris":{"android":"levelo://app?vid=19dffac5-8a1f-4383-9690-5bb19eb32640","ios":"levelo://app?vid=19dffac5-8a1f-4383-9690-5bb19eb32640"},"vehicle_type_id":"4","last_reported":1759256057,"current_range_meters":4000,"station_id":"ce4bgih2rcd13ifvqba0","pricing_plan_id":"cebpf4jnsgd1na2vs0mg"},{"bike_id":"ebae34f3-ce35-4d51-8610-5092e93b81f5","system_id":"levelo_inurba_marseille","lat":43.32025,"lon":5.41585,"is_reserved":false,"is_disabled":false,"rental_uris":{"android":"levelo://app?vid=ebae34f3-ce35-4d51-8610-5092e93b81f5","ios":"levelo://app?vid=ebae34f3-ce35-4d51-8610-5092e93b81f5"},"vehicle_type_id":"4","last_reported":1759256057,"current_range_meters":4000,"station_id":"ce4bhq92rcd13ifvqhkg","pricing_plan_id":"cebpf4jnsgd1na2vs0mg"},{"bike_id":"565e1b47-3114-481d-a390-07198be3fae4","system_id":"levelo_inurba_marseille","lat":43.27424,"lon":5.39429,"is_reserved":false,"is_disabled":false,"rental_uris":{"android":"levelo://app?vid=565e1b47-3114-481d-a390-07198be3fae4","ios":"levelo://app?vid=565e1b47-3114-481d-a390-07198be3fae4"},"vehicle_type_id":"4","last_reported":1759256057,"current_range_meters":4000,"station_id":"ce4bhdp2rcd13ifvqf20","pricing_plan_id":"cebpf4jnsgd1na2vs0mg"},{"bike_id":"281d0f71-e9af-46f3-ad98-c4c43de0746b","system_id":"levelo_inurba_marseille","lat":43.27946,"lon":5.41048,"is_reserved":false,"is_disabled":false,"rental_uris":{"android":"levelo://app?vid=281d0f71-e9af-46f3-ad98-c4c43de0746b","ios":"levelo://app?vid=281d0f71-e9af-46f3-ad98-c4c43de0746b"},"vehicle_type_id":"4","last_reported":1759256057,"current_range_meters":4000,"station_id":"ce4bhnp2rcd13ifvqh0g","pricing_plan_id":"cebpf4jnsgd1na2vs0mg"},{"bike_id":"791a3576-7cd0-4a89-8cf1-87c06770635e","system_id":"levelo_inurba_marseille","lat":43.30096,"lon":5.39072,"is_reserved":false,"is_disabled":false,"rental_uris":{"android":"levelo://app?vid=791a3576-7cd0-4a89-8cf1-87c06770635e","ios":"levelo://app?vid=791a3576-7cd0-4a89-8cf1-87c06770635e"},"vehicle_type_id":"4","last_reported":1759256057,"current_range_meters":4400,"station_id":"ce4bh192rcd13ifvqdb0","pricing_plan_id":"cebpf4jnsgd1na2vs0mg"},{"bike_id":"b4aa5d4b-058b-44b1-9949-d0ead18d4e4c","system_id":"levelo_inurba_marseille","lat":43.2397,"lon":5.36635,"is_reserved":false,"is_disabled":false,"rental_uris":{"android":"levelo://app?vid=b4aa5d4b-058b-44b1-9949-d0ead18d4e4c","ios":"levelo://app?vid=b4aa5d4b-058b-44b1-9949-d0ead18d4e4c"},"vehicle_type_id":"4","last_reported":1759256057,"current_range_meters":4400,"station_id":"ce4bhi12rcd13ifvqfp0","pricing_plan_id":"cebpf4jnsgd1na2vs0mg"},{"bike_id":"6f03fd8e-23a9-47a1-a9f0-48249c632988","system_id":"levelo_inurba_marseille","lat":43.2587,"lon":5.39894,"is_reserved":false,"is_disabled":false,"rental_uris":{"android":"levelo://app?vid=6f03fd8e-23a9-47a1-a9f0-48249c632988","ios":"levelo://app?vid=6f03fd8e-23a9-47a1-a9f0-48249c632988"},"vehicle_type_id":"4","last_reported":1759256057,"current_range_meters":4000,"station_id":"ce4bhl92rcd13ifvqghg","pricing_plan_id":"cebpf4jnsgd1na2vs0mg"},{"bike_id":"f8652ee7-b2a6-4d49-81f4-62c71c1fa2c3","system_id":"levelo_inurba_marseille","lat":43.28488,"lon":5.38561,"is_reserved":false,"is_disabled":false,"rental_uris":{"android":"levelo://app?vid=f8652ee7-b2a6-4d49-81f4-62c71c1fa2c3","ios":"levelo://app?vid=f8652ee7-b2a6-4d49-81f4-62c71c1fa2c3"},"vehicle_type_id":"4","last_reported":1759256057,"current_range_meters":4400,"station_id":"ce4bh8p2rcd13ifvqeb0","pricing_plan_id":"cebpf4jnsgd1na2vs0mg"},{"bike_id":"5a5f0890-1d3b-4da9-8863-5a0f4e6253ef","system_id":"levelo_inurba_marseille","lat":43.3302,"lon":5.39053,"is_reserved":false,"is_disabled":false,"rental_uris":{"android":"levelo://app?vid=5a5f0890-1d3b-4da9-8863-5a0f4e6253ef","ios":"levelo://app?vid=5a5f0890-1d3b-4da9-8863-5a0f4e6253ef"},"vehicle_type_id":"4","last_reported":1759256057,"current_range_meters":4400,"station_id":"ce4bhr92rcd13ifvqhrg","pricing_plan_id":"cebpf4jnsgd1na2vs0mg"},{"bike_id":"e5378695-fba9-432a-9cfb-3b5b05e40fec","system_id":"levelo_inurba_marseille","lat":43.337986,"lon":5.374304,"is_reserved":false,"is_disabled":false,"rental_uris":{"android":"levelo://app?vid=e5378695-fba9-432a-9cfb-3b5b05e40fec","ios":"levelo://app?vid=e5378695-fba9-432a-9cfb-3b5b05e40fec"},"vehicle_type_id":"4","last_reported":1759256057,"current_range_meters":4400,"station_id":"","pricing_plan_id":"cebpf4jnsgd1na2vs0mg"},{"bike_id":"5acb7443-82c7-4c78-8645-f3964bb577c3","system_id":"levelo_inurba_marseille","lat":43.29075,"lon":5.37161,"is_reserved":false,"is_disabled":false,"rental_uris":{"android":"levelo://app?vid=5acb7443-82c7-4c78-8645-f3964bb577c3","ios":"levelo://app?vid=5acb7443-82c7-4c78-8645-f3964bb577c3"},"vehicle_type_id":"4","last_reported":1759256057,"current_range_meters":4800,"station_id":"ce4bh5p2rcd13ifvqe4g","pricing_plan_id":"cebpf4jnsgd1na2vs0mg"},{"bike_id":"f0733bdf-8262-4020-98be-d5150f0bfcc6","system_id":"levelo_inurba_marseille","lat":43.31371,"lon":5.38495,"is_reserved":false,"is_disabled":false,"rental_uris":{"android":"levelo://app?vid=f0733bdf-8262-4020-98be-d5150f0bfcc6","ios":"levelo://app?vid=f0733bdf-8262-4020-98be-d5150f0bfcc6"},"vehicle_type_id":"4","last_reported":1759256057,"current_range_meters":4400,"station_id":"ce4bgt92rcd13ifvqcf0","pricing_plan_id":"cebpf4jnsgd1na2vs0mg"},{"bike_id":"a1b8adfa-5431-4771-b747-e40f6c6b5a9b","system_id":"levelo_inurba_marseille","lat":43.29063,"lon":5.35912,"is_reserved":false,"is_disabled":false,"rental_uris":{"android":"levelo://app?vid=a1b8adfa-5431-4771-b747-e40f6c6b5a9b","ios":"levelo://app?vid=a1b8adfa-5431-4771-b747-e40f6c6b5a9b"},"vehicle_type_id":"4","last_reported":1759256057,"current_range_meters":4800,"station_id":"ce4bha92rcd13ifvqeg0","pricing_plan_id":"cebpf4jnsgd1na2vs0mg"},{"bike_id":"4fb34769-9a7a-4615-8a6c-1d4167b06ade","system_id":"levelo_inurba_marseille","lat":43.32664,"lon":5.40995,"is_reserved":false,"is_disabled":false,"rental_uris":{"android":"levelo://app?vid=4fb34769-9a7a-4615-8a6c-1d4167b06ade","ios":"levelo://app?vid=4fb34769-9a7a-4615-8a6c-1d4167b06ade"},"vehicle_type_id":"4","last_reported":1759256057,"current_range_meters":4800,"station_id":"ce4bhpp2rcd13ifvqhgg","pricing_plan_id":"cebpf4jnsgd1na2vs0mg"},{"bike_id":"35e8f722-b82a-4247-beb8-7e2827829ce6","system_id":"levelo_inurba_marseille","lat":43.32405,"lon":5.3911,"is_reserved":false,"is_disabled":false,"rental_uris":{"android":"levelo://app?vid=35e8f722-b82a-4247-beb8-7e2827829ce6","ios":"levelo://app?vid=35e8f722-b82a-4247-beb8-7e2827829ce6"},"vehicle_type_id":"4","last_reported":1759256057,"current_range_meters":4800,"station_id":"","pricing_plan_id":"cebpf4jnsgd1na2vs0mg"},{"bike_id":"0f96a8ee-e432-43fd-8778-9a8b02f65350","system_id":"levelo_inurba_marseille","lat":43.27974,"lon":5.38735,"is_reserved":false,"is_disabled":false,"rental_uris":{"android":"levelo://app?vid=0f96a8ee-e432-43fd-8778-9a8b02f65350","ios":"levelo://app?vid=0f96a8ee-e432-43fd-8778-9a8b02f65350"},"vehicle_type_id":"4","last_reported":1759256057,"current_range_meters":4800,"station_id":"ce4bhg12rcd13ifvqf80","pricing_plan_id":"cebpf4jnsgd1na2vs0mg"},{"bike_id":"17a6cf3a-ebdc-4fdf-a974-24be6eca1b07","system_id":"levelo_inurba_marseille","lat":43.27319,"lon":5.39081,"is_reserved":false,"is_disabled":false,"rental_uris":{"android":"levelo://app?vid=17a6cf3a-ebdc-4fdf-a974-24be6eca1b07","ios":"levelo://app?vid=17a6cf3a-ebdc-4fdf-a974-24be6eca1b07"},"vehicle_type_id":"4","last_reported":1759256057,"current_range_meters":4800,"station_id":"ce4bhgp2rcd13ifvqfe0","pricing_plan_id":"cebpf4jnsgd1na2vs0mg"},{"bike_id":"f000a5c3-3051-45fc-b949-d6758b2d69aa","system_id":"levelo_inurba_marseille","lat":43.2903,"lon":5.37551,"is_reserved":false,"is_disabled":true,"rental_uris":{"android":"levelo://app?vid=f000a5c3-3051-45fc-b949-d6758b2d69aa","ios":"levelo://app?vid=f000a5c3-3051-45fc-b949-d6758b2d69aa"},"vehicle_type_id":"4","last_reported":1759256057,"current_range_meters":4800,"station_id":"ce4bh692rcd13ifvqe90","pricing_plan_id":"cebpf4jnsgd1na2vs0mg"},{"bike_id":"e0a3f118-7b21-4f13-91ed-245b811427d5","system_id":"levelo_inurba_marseille","lat":43.30933,"lon":5.40134,"is_reserved":false,"is_disabled":false,"rental_uris":{"android":"levelo://app?vid=e0a3f118-7b21-4f13-91ed-245b811427d5","ios":"levelo://app?vid=e0a3f118-7b21-4f13-91ed-245b811427d5"},"vehicle_type_id":"4","last_reported":1759256057,"current_range_meters":4800,"station_id":"ce4bgvp2rcd13ifvqct0","pricing_plan_id":"cebpf4jnsgd1na2vs0mg"},{"bike_id":"08dd2e1a-c06e-4f89-919a-7c4197d07f6e","system_id":"levelo_inurba_marseille","lat":43.31171,"lon":5.3872,"is_reserved":false,"is_disabled":false,"rental_uris":{"android":"levelo://app?vid=08dd2e1a-c06e-4f89-919a-7c4197d07f6e","ios":"levelo://app?vid=08dd2e1a-c06e-4f89-919a-7c4197d07f6e"},"vehicle_type_id":"4","last_reported":1759256057,"current_range_meters":4400,"station_id":"ce4bgv12rcd13ifvqcp0","pricing_plan_id":"cebpf4jnsgd1na2vs0mg"},{"bike_id":"9aac8f42-efa0-40b9-9432-24420fbe385a","system_id":"levelo_inurba_marseille","lat":43.29269,"lon":5.38451,"is_reserved":false,"is_disabled":false,"rental_uris":{"android":"levelo://app?vid=9aac8f42-efa0-40b9-9432-24420fbe385a","ios":"levelo://app?vid=9aac8f42-efa0-40b9-9432-24420fbe385a"},"vehicle_type_id":"4","last_reported":1759256057,"current_range_meters":5600,"station_id":"ce4bh692rcd13ifvqea0","pricing_plan_id":"cebpf4jnsgd1na2vs0mg"},{"bike_id":"70789d4e-ee48-4838-a413-66ddb32e1d78","system_id":"levelo_inurba_marseille","lat":43.29026,"lon":5.38137,"is_reserved":false,"is_disabled":false,"rental_uris":{"android":"levelo://app?vid=70789d4e-ee48-4838-a413-66ddb32e1d78","ios":"levelo://app?vid=70789d4e-ee48-4838-a413-66ddb32e1d78"},"vehicle_type_id":"4","last_reported":1759256057,"current_range_meters":5600,"station_id":"ce4bh4p2rcd13ifvqe1g","pricing_plan_id":"cebpf4jnsgd1na2vs0mg"},{"bike_id":"aae0fff4-79c4-4eff-a901-ce6dfad9d0e7","system_id":"levelo_inurba_marseille","lat":43.28073,"lon":5.38671,"is_reserved":false,"is_disabled":true,"rental_uris":{"android":"levelo://app?vid=aae0fff4-79c4-4eff-a901-ce6dfad9d0e7","ios":"levelo://app?vid=aae0fff4-79c4-4eff-a901-ce6dfad9d0e7"},"vehicle_type_id":"4","last_reported":1759256057,"current_range_meters":5600,"station_id":"","pricing_plan_id":"cebpf4jnsgd1na2vs0mg"},{"bike_id":"7f15c276-f316-4ab3-b759-8438e0491d46","system_id":"levelo_inurba_marseille","lat":43.2657,"lon":5.39025,"is_reserved":false,"is_disabled":false,"rental_uris":{"android":"levelo://app?vid=7f15c276-f316-4ab3-b759-8438e0491d46","ios":"levelo://app?vid=7f15c276-f316-4ab3-b759-8438e0491d46"},"vehicle_type_id":"4","last_reported":1759256057,"current_range_meters":5600,"station_id":"ce4bhe12rcd13ifvqf30","pricing_plan_id":"cebpf4jnsgd1na2vs0mg"},{"bike_id":"1363cfd7-3e87-43a1-8420-90de5692c61d","system_id":"levelo_inurba_marseille","lat":43.29536,"lon":5.38538,"is_reserved":false,"is_disabled":false,"rental_uris":{"android":"levelo://app?vid=1363cfd7-3e87-43a1-8420-90de5692c61d","ios":"levelo://app?vid=1363cfd7-3e87-43a1-8420-90de5692c61d"},"vehicle_type_id":"4","last_reported":1759256057,"current_range_meters":6000,"station_id":"ce4bgih2rcd13ifvqba0","pricing_plan_id":"cebpf4jnsgd1na2vs0mg"},{"bike_id":"29fb0313-96d0-4699-a2b9-d9bfae768dba","system_id":"levelo_inurba_marseille","lat":43.28153,"lon":5.42645,"is_reserved":false,"is_disabled":true,"rental_uris":{"android":"levelo://app?vid=29fb0313-96d0-4699-a2b9-d9bfae768dba","ios":"levelo://app?vid=29fb0313-96d0-4699-a2b9-d9bfae768dba"},"vehicle_type_id":"4","last_reported":1759256057,"current_range_meters":6000,"station_id":"ce4bhnh2rcd13ifvqgug","pricing_plan_id":"cebpf4jnsgd1na2vs0mg"},{"bike_id":"aa123961-c527-4db0-9350-7d548f67905a","system_id":"levelo_inurba_marseille","lat":43.26362,"lon":5.39695,"is_reserved":false,"is_disabled":false,"rental_uris":{"android":"levelo://app?vid=aa123961-c527-4db0-9350-7d548f67905a","ios":"levelo://app?vid=aa123961-c527-4db0-9350-7d548f67905a"},"vehicle_type_id":"4","last_reported":1759256057,"current_range_meters":6000,"station_id":"","pricing_plan_id":"cebpf4jnsgd1na2vs0mg"},{"bike_id":"41b00229-bd0b-4e24-a7ea-8339453a455d","system_id":"levelo_inurba_marseille","lat":43.25,"lon":5.38927,"is_reserved":false,"is_disabled":false,"rental_uris":{"android":"levelo://app?vid=41b00229-bd0b-4e24-a7ea-8339453a455d","ios":"levelo://app?vid=41b00229-bd0b-4e24-a7ea-8339453a455d"},"vehicle_type_id":"4","last_reported":1759256057,"current_range_meters":6000,"station_id":"ce4bhgp2rcd13ifvqfd0","pricing_plan_id":"cebpf4jnsgd1na2vs0mg"},{"bike_id":"807e5929-c424-41d7-979e-9747e1f947d1","system_id":"levelo_inurba_marseille","lat":43.30179,"lon":5.39743,"is_reserved":false,"is_disabled":false,"rental_uris":{"android":"levelo://app?vid=807e5929-c424-41d7-979e-9747e1f947d1","ios":"levelo://app?vid=807e5929-c424-41d7-979e-9747e1f947d1"},"vehicle_type_id":"4","last_reported":1759256057,"current_range_meters":6000,"station_id":"","pricing_plan_id":"cebpf4jnsgd1na2vs0mg"},{"bike_id":"391eb0f2-e5a9-4651-81a4-561989230dd3","system_id":"levelo_inurba_marseille","lat":43.27059,"lon":5.40266,"is_reserved":false,"is_disabled":false,"rental_uris":{"android":"levelo://app?vid=391eb0f2-e5a9-4651-81a4-561989230dd3","ios":"levelo://app?vid=391eb0f2-e5a9-4651-81a4-561989230dd3"},"vehicle_type_id":"4","last_reported":1759256057,"current_range_meters":6000,"station_id":"ce4bhk92rcd13ifvqgc0","pricing_plan_id":"cebpf4jnsgd1na2vs0mg"},{"bike_id":"5e51dd5a-94eb-4255-ace2-d71787614f6c","system_id":"levelo_inurba_marseille","lat":43.27066,"lon":5.40267,"is_reserved":false,"is_disabled":false,"rental_uris":{"android":"levelo://app?vid=5e51dd5a-94eb-4255-ace2-d71787614f6c","ios":"levelo://app?vid=5e51dd5a-94eb-4255-ace2-d71787614f6c"},"vehicle_type_id":"4","last_reported":1759256057,"current_range_meters":6400,"station_id":"ce4bhk92rcd13ifvqgc0","pricing_plan_id":"cebpf4jnsgd1na2vs0mg"},{"bike_id":"cd113cd2-e361-4857-ae6e-d2050b580e4b","system_id":"levelo_inurba_marseille","lat":43.258304,"lon":5.394376,"is_reserved":false,"is_disabled":false,"rental_uris":{"android":"levelo://app?vid=cd113cd2-e361-4857-ae6e-d2050b580e4b","ios":"levelo://app?vid=cd113cd2-e361-4857-ae6e-d2050b580e4b"},"vehicle_type_id":"4","last_reported":1759256057,"current_range_meters":5600,"station_id":"ce4bhip2rcd13ifvqft0","pricing_plan_id":"cebpf4jnsgd1na2vs0mg"},{"bike_id":"8e83ae49-bb2f-4a17-ac59-c76237c047d7","system_id":"levelo_inurba_marseille","lat":43.2668,"lon":5.38253,"is_reserved":false,"is_disabled":false,"rental_uris":{"android":"levelo://app?vid=8e83ae49-bb2f-4a17-ac59-c76237c047d7","ios":"levelo://app?vid=8e83ae49-bb2f-4a17-ac59-c76237c047d7"},"vehicle_type_id":"4","last_reported":1759256057,"current_range_meters":6400,"station_id":"ce4bhg92rcd13ifvqf90","pricing_plan_id":"cebpf4jnsgd1na2vs0mg"},{"bike_id":"42867478-48ac-4c8c-93ef-690d743b8380","system_id":"levelo_inurba_marseille","lat":43.29525,"lon":5.39048,"is_reserved":false,"is_disabled":false,"rental_uris":{"android":"levelo://app?vid=42867478-48ac-4c8c-93ef-690d743b8380","ios":"levelo://app?vid=42867478-48ac-4c8c-93ef-690d743b8380"},"vehicle_type_id":"4","last_reported":1759256057,"current_range_meters":6000,"station_id":"ce4bh3p2rcd13ifvqdp0","pricing_plan_id":"cebpf4jnsgd1na2vs0mg"},{"bike_id":"ea59b303-6900-42ad-9e79-5b0f95bedd6c","system_id":"levelo_inurba_marseille","lat":43.30424,"lon":5.3688,"is_reserved":false,"is_disabled":false,"rental_uris":{"android":"levelo://app?vid=ea59b303-6900-42ad-9e79-5b0f95bedd6c","ios":"levelo://app?vid=ea59b303-6900-42ad-9e79-5b0f95bedd6c"},"vehicle_type_id":"4","last_reported":1759256057,"current_range_meters":6400,"station_id":"","pricing_plan_id":"cebpf4jnsgd1na2vs0mg"},{"bike_id":"37699dad-1736-48a6-8862-584db5a24524","system_id":"levelo_inurba_marseille","lat":43.26808,"lon":5.40271,"is_reserved":false,"is_disabled":false,"rental_uris":{"android":"levelo://app?vid=37699dad-1736-48a6-8862-584db5a24524","ios":"levelo://app?vid=37699dad-1736-48a6-8862-584db5a24524"},"vehicle_type_id":"4","last_reported":1759256057,"current_range_meters":6400,"station_id":"ce501612rcd8frsf0b60","pricing_plan_id":"cebpf4jnsgd1na2vs0mg"},{"bike_id":"12ef12a2-fce8-4ff1-8b95-52beb7fed538","system_id":"levelo_inurba_marseille","lat":43.27213,"lon":5.39181,"is_reserved":false,"is_disabled":false,"rental_uris":{"android":"levelo://app?vid=12ef12a2-fce8-4ff1-8b95-52beb7fed538","ios":"levelo://app?vid=12ef12a2-fce8-4ff1-8b95-52beb7fed538"},"vehicle_type_id":"4","last_reported":1759256057,"current_range_meters":6000,"station_id":"ce4bhhp2rcd13ifvqfm0","pricing_plan_id":"cebpf4jnsgd1na2vs0mg"},{"bike_id":"8367de2b-79fa-4ebe-84a2-157e37b17ea0","system_id":"levelo_inurba_marseille","lat":43.28106,"lon":5.37839,"is_reserved":false,"is_disabled":false,"rental_uris":{"android":"levelo://app?vid=8367de2b-79fa-4ebe-84a2-157e37b17ea0","ios":"levelo://app?vid=8367de2b-79fa-4ebe-84a2-157e37b17ea0"},"vehicle_type_id":"4","last_reported":1759256057,"current_range_meters":6400,"station_id":"ce4bha12rcd13ifvqee0","pricing_plan_id":"cebpf4jnsgd1na2vs0mg"},{"bike_id":"ce5e157e-4ef2-4c41-9b3b-54d3eecbfa45","system_id":"levelo_inurba_marseille","lat":43.2251,"lon":5.34839,"is_reserved":false,"is_disabled":false,"rental_uris":{"android":"levelo://app?vid=ce5e157e-4ef2-4c41-9b3b-54d3eecbfa45","ios":"levelo://app?vid=ce5e157e-4ef2-4c41-9b3b-54d3eecbfa45"},"vehicle_type_id":"4","last_reported":1759256057,"current_range_meters":6400,"station_id":"","pricing_plan_id":"cebpf4jnsgd1na2vs0mg"},{"bike_id":"df2966fb-d683-41d9-b867-742ac46a56bf","system_id":"levelo_inurba_marseille","lat":43.29534,"lon":5.3855,"is_reserved":false,"is_disabled":false,"rental_uris":{"android":"levelo://app?vid=df2966fb-d683-41d9-b867-742ac46a56bf","ios":"levelo://app?vid=df2966fb-d683-41d9-b867-742ac46a56bf"},"vehicle_type_id":"4","last_reported":1759256057,"current_range_meters":6800,"station_id":"ce4bgih2rcd13ifvqba0","pricing_plan_id":"cebpf4jnsgd1na2vs0mg"},{"bike_id":"66d804a5-1cf7-4072-906e-3b4d4b298fab","system_id":"levelo_inurba_marseille","lat":43.29126,"lon":5.37545,"is_reserved":false,"is_disabled":false,"rental_uris":{"android":"levelo://app?vid=66d804a5-1cf7-4072-906e-3b4d4b298fab","ios":"levelo://app?vid=66d804a5-1cf7-4072-906e-3b4d4b298fab"},"vehicle_type_id":"4","last_reported":1759256057,"current_range_meters":6800,"station_id":"","pricing_plan_id":"cebpf4jnsgd1na2vs0mg"},{"bike_id":"37488b09-6472-47ad-84ee-99473a3f8b3c","system_id":"levelo_inurba_marseille","lat":43.29553,"lon":5.42281,"is_reserved":false,"is_disabled":false,"rental_uris":{"android":"levelo://app?vid=37488b09-6472-47ad-84ee-99473a3f8b3c","ios":"levelo://app?vid=37488b09-6472-47ad-84ee-99473a3f8b3c"},"vehicle_type_id":"4","last_reported":1759256057,"current_range_meters":6800,"station_id":"ce4bhph2rcd13ifvqhdg","pricing_plan_id":"cebpf4jnsgd1na2vs0mg"},{"bike_id":"a410d8ea-9dd0-4bf3-94bd-c901bd162ea0","system_id":"levelo_inurba_marseille","lat":43.29803,"lon":5.38093,"is_reserved":false,"is_disabled":false,"rental_uris":{"android":"levelo://app?vid=a410d8ea-9dd0-4bf3-94bd-c901bd162ea0","ios":"levelo://app?vid=a410d8ea-9dd0-4bf3-94bd-c901bd162ea0"},"vehicle_type_id":"4","last_reported":1759256057,"current_range_meters":6800,"station_id":"ce4bgip2rcd13ifvqbb0","pricing_plan_id":"cebpf4jnsgd1na2vs0mg"},{"bike_id":"ee96a502-9b76-492e-840a-498b02aefe72","system_id":"levelo_inurba_marseille","lat":43.32358,"lon":5.39224,"is_reserved":false,"is_disabled":false,"rental_uris":{"android":"levelo://app?vid=ee96a502-9b76-492e-840a-498b02aefe72","ios":"levelo://app?vid=ee96a502-9b76-492e-840a-498b02aefe72"},"vehicle_type_id":"4","last_reported":1759256057,"current_range_meters":6800,"station_id":"","pricing_plan_id":"cebpf4jnsgd1na2vs0mg"},{"bike_id":"9eb1667e-2aa0-4214-84fe-b0042da0e60f","system_id":"levelo_inurba_marseille","lat":43.27053,"lon":5.40258,"is_reserved":false,"is_disabled":false,"rental_uris":{"android":"levelo://app?vid=9eb1667e-2aa0-4214-84fe-b0042da0e60f","ios":"levelo://app?vid=9eb1667e-2aa0-4214-84fe-b0042da0e60f"},"vehicle_type_id":"4","last_reported":1759256057,"current_range_meters":6800,"station_id":"ce4bhk92rcd13ifvqgc0","pricing_plan_id":"cebpf4jnsgd1na2vs0mg"},{"bike_id":"da9a94f9-08c9-4860-92b2-920e08001d67","system_id":"levelo_inurba_marseille","lat":43.2733,"lon":5.39102,"is_reserved":false,"is_disabled":false,"rental_uris":{"android":"levelo://app?vid=da9a94f9-08c9-4860-92b2-920e08001d67","ios":"levelo://app?vid=da9a94f9-08c9-4860-92b2-920e08001d67"},"vehicle_type_id":"4","last_reported":1759256057,"current_range_meters":6800,"station_id":"ce4bhgp2rcd13ifvqfe0","pricing_plan_id":"cebpf4jnsgd1na2vs0mg"},{"bike_id":"88286150-8232-4f59-87fb-cbed74d46ee0","system_id":"levelo_inurba_marseille","lat":43.29532,"lon":5.38541,"is_reserved":false,"is_disabled":false,"rental_uris":{"android":"levelo://app?vid=88286150-8232-4f59-87fb-cbed74d46ee0","ios":"levelo://app?vid=88286150-8232-4f59-87fb-cbed74d46ee0"},"vehicle_type_id":"4","last_reported":1759256057,"current_range_meters":7200,"station_id":"ce4bgih2rcd13ifvqba0","pricing_plan_id":"cebpf4jnsgd1na2vs0mg"},{"bike_id":"964453cd-5622-4940-9341-920d5fb90ba9","system_id":"levelo_inurba_marseille","lat":43.30671,"lon":5.40077,"is_reserved":false,"is_disabled":false,"rental_uris":{"android":"levelo://app?vid=964453cd-5622-4940-9341-920d5fb90ba9","ios":"levelo://app?vid=964453cd-5622-4940-9341-920d5fb90ba9"},"vehicle_type_id":"4","last_reported":1759256057,"current_range_meters":7200,"station_id":"ce4bh112rcd13ifvqda0","pricing_plan_id":"cebpf4jnsgd1na2vs0mg"},{"bike_id":"14a51323-0d25-44b5-99e7-eaa34d4c5cda","system_id":"levelo_inurba_marseille","lat":43.295269,"lon":5.385602,"is_reserved":false,"is_disabled":false,"rental_uris":{"android":"levelo://app?vid=14a51323-0d25-44b5-99e7-eaa34d4c5cda","ios":"levelo://app?vid=14a51323-0d25-44b5-99e7-eaa34d4c5cda"},"vehicle_type_id":"4","last_reported":1759256057,"current_range_meters":7200,"station_id":"ce4bgih2rcd13ifvqba0","pricing_plan_id":"cebpf4jnsgd1na2vs0mg"},{"bike_id":"43b4cf89-940b-422b-890c-21163e89bd1b","system_id":"levelo_inurba_marseille","lat":43.28853,"lon":5.39317,"is_reserved":false,"is_disabled":false,"rental_uris":{"android":"levelo://app?vid=43b4cf89-940b-422b-890c-21163e89bd1b","ios":"levelo://app?vid=43b4cf89-940b-422b-890c-21163e89bd1b"},"vehicle_type_id":"4","last_reported":1759256057,"current_range_meters":7200,"station_id":"ce4bh2p2rcd13ifvqdi0","pricing_plan_id":"cebpf4jnsgd1na2vs0mg"},{"bike_id":"66abdaf1-5600-474a-bc24-2e74d9709195","system_id":"levelo_inurba_marseille","lat":43.26784,"lon":5.39422,"is_reserved":false,"is_disabled":false,"rental_uris":{"android":"levelo://app?vid=66abdaf1-5600-474a-bc24-2e74d9709195","ios":"levelo://app?vid=66abdaf1-5600-474a-bc24-2e74d9709195"},"vehicle_type_id":"4","last_reported":1759256057,"current_range_meters":7200,"station_id":"ce4bhh12rcd13ifvqfg0","pricing_plan_id":"cebpf4jnsgd1na2vs0mg"},{"bike_id":"8d4fb68b-56b8-4219-9837-0eb2637666a3","system_id":"levelo_inurba_marseille","lat":43.32106,"lon":5.36765,"is_reserved":false,"is_disabled":false,"rental_uris":{"android":"levelo://app?vid=8d4fb68b-56b8-4219-9837-0eb2637666a3","ios":"levelo://app?vid=8d4fb68b-56b8-4219-9837-0eb2637666a3"},"vehicle_type_id":"4","last_reported":1759256057,"current_range_meters":7200,"station_id":"ce4bhrh2rcd13ifvqhug","pricing_plan_id":"cebpf4jnsgd1na2vs0mg"},{"bike_id":"57a51da0-6b30-4e4b-b266-1620b579aabb","system_id":"levelo_inurba_marseille","lat":43.2989,"lon":5.38902,"is_reserved":false,"is_disabled":false,"rental_uris":{"android":"levelo://app?vid=57a51da0-6b30-4e4b-b266-1620b579aabb","ios":"levelo://app?vid=57a51da0-6b30-4e4b-b266-1620b579aabb"},"vehicle_type_id":"4","last_reported":1759256057,"current_range_meters":7200,"station_id":"ce4bh392rcd13ifvqdl0","pricing_plan_id":"cebpf4jnsgd1na2vs0mg"},{"bike_id":"64bd8f85-d2ec-4a2c-9683-ed3dded7f90c","system_id":"levelo_inurba_marseille","lat":43.274014,"lon":5.393889,"is_reserved":false,"is_disabled":false,"rental_uris":{"android":"levelo://app?vid=64bd8f85-d2ec-4a2c-9683-ed3dded7f90c","ios":"levelo://app?vid=64bd8f85-d2ec-4a2c-9683-ed3dded7f90c"},"vehicle_type_id":"4","last_reported":1759256057,"current_range_meters":7200,"station_id":"ce4bhdp2rcd13ifvqf20","pricing_plan_id":"cebpf4jnsgd1na2vs0mg"},{"bike_id":"96329c65-0c66-46d2-a82c-ffc8342dd67f","system_id":"levelo_inurba_marseille","lat":43.31269,"lon":5.40175,"is_reserved":false,"is_disabled":false,"rental_uris":{"android":"levelo://app?vid=96329c65-0c66-46d2-a82c-ffc8342dd67f","ios":"levelo://app?vid=96329c65-0c66-46d2-a82c-ffc8342dd67f"},"vehicle_type_id":"4","last_reported":1759256057,"current_range_meters":7200,"station_id":"ce4bh092rcd13ifvqd30","pricing_plan_id":"cebpf4jnsgd1na2vs0mg"},{"bike_id":"9c10a6f3-8c9e-4c25-9a29-9f53372018c1","system_id":"levelo_inurba_marseille","lat":43.313607,"lon":5.384873,"is_reserved":false,"is_disabled":false,"rental_uris":{"android":"levelo://app?vid=9c10a6f3-8c9e-4c25-9a29-9f53372018c1","ios":"levelo://app?vid=9c10a6f3-8c9e-4c25-9a29-9f53372018c1"},"vehicle_type_id":"4","last_reported":1759256057,"current_range_meters":7200,"station_id":"ce4bgt92rcd13ifvqcf0","pricing_plan_id":"cebpf4jnsgd1na2vs0mg"},{"bike_id":"073df5d0-4087-4305-973c-500dde046d5f","system_id":"levelo_inurba_marseille","lat":43.27687,"lon":5.38882,"is_reserved":false,"is_disabled":false,"rental_uris":{"android":"levelo://app?vid=073df5d0-4087-4305-973c-500dde046d5f","ios":"levelo://app?vid=073df5d0-4087-4305-973c-500dde046d5f"},"vehicle_type_id":"4","last_reported":1759256057,"current_range_meters":7200,"station_id":"ce4bhi12rcd13ifvqfo0","pricing_plan_id":"cebpf4jnsgd1na2vs0mg"},{"bike_id":"9c4235da-d3d0-4056-aa6b-c6aa6e8e7367","system_id":"levelo_inurba_marseille","lat":43.30724,"lon":5.37548,"is_reserved":false,"is_disabled":false,"rental_uris":{"android":"levelo://app?vid=9c4235da-d3d0-4056-aa6b-c6aa6e8e7367","ios":"levelo://app?vid=9c4235da-d3d0-4056-aa6b-c6aa6e8e7367"},"vehicle_type_id":"4","last_reported":1759256057,"current_range_meters":7200,"station_id":"","pricing_plan_id":"cebpf4jnsgd1na2vs0mg"},{"bike_id":"8260644e-36e5-43bf-8c8d-f61f50ad1eaf","system_id":"levelo_inurba_marseille","lat":43.2971,"lon":5.37698,"is_reserved":false,"is_disabled":false,"rental_uris":{"android":"levelo://app?vid=8260644e-36e5-43bf-8c8d-f61f50ad1eaf","ios":"levelo://app?vid=8260644e-36e5-43bf-8c8d-f61f50ad1eaf"},"vehicle_type_id":"4","last_reported":1759256057,"current_range_meters":7200,"station_id":"ce4bgkh2rcd13ifvqbl0","pricing_plan_id":"cebpf4jnsgd1na2vs0mg"},{"bike_id":"a07a513e-e5a9-4481-8592-d991379bc662","system_id":"levelo_inurba_marseille","lat":43.33735,"lon":5.37481,"is_reserved":false,"is_disabled":false,"rental_uris":{"android":"levelo://app?vid=a07a513e-e5a9-4481-8592-d991379bc662","ios":"levelo://app?vid=a07a513e-e5a9-4481-8592-d991379bc662"},"vehicle_type_id":"4","last_reported":1759256057,"current_range_meters":7200,"station_id":"","pricing_plan_id":"cebpf4jnsgd1na2vs0mg"},{"bike_id":"1080f232-cfe6-45fd-8cc3-307c1c10dadd","system_id":"levelo_inurba_marseille","lat":43.27314,"lon":5.390771,"is_reserved":false,"is_disabled":true,"rental_uris":{"android":"levelo://app?vid=1080f232-cfe6-45fd-8cc3-307c1c10dadd","ios":"levelo://app?vid=1080f232-cfe6-45fd-8cc3-307c1c10dadd"},"vehicle_type_id":"4","last_reported":1759256057,"current_range_meters":8000,"station_id":"","pricing_plan_id":"cebpf4jnsgd1na2vs0mg"},{"bike_id":"dd5e8987-9f51-4f50-bdd1-4945b8c8a574","system_id":"levelo_inurba_marseille","lat":43.25594,"lon":5.38233,"is_reserved":false,"is_disabled":true,"rental_uris":{"android":"levelo://app?vid=dd5e8987-9f51-4f50-bdd1-4945b8c8a574","ios":"levelo://app?vid=dd5e8987-9f51-4f50-bdd1-4945b8c8a574"},"vehicle_type_id":"4","last_reported":1759256057,"current_range_meters":8000,"station_id":"ce4bhih2rcd13ifvqfs0","pricing_plan_id":"cebpf4jnsgd1na2vs0mg"},{"bike_id":"c9f7c894-4df2-4643-ac68-955fcc67beeb","system_id":"levelo_inurba_marseille","lat":43.27996,"lon":5.41665,"is_reserved":false,"is_disabled":true,"rental_uris":{"android":"levelo://app?vid=c9f7c894-4df2-4643-ac68-955fcc67beeb","ios":"levelo://app?vid=c9f7c894-4df2-4643-ac68-955fcc67beeb"},"vehicle_type_id":"4","last_reported":1759256057,"current_range_meters":8000,"station_id":"ce4bho12rcd13ifvqh1g","pricing_plan_id":"cebpf4jnsgd1na2vs0mg"},{"bike_id":"12d4dcdf-fc4c-4345-8953-6b0aed27bb63","system_id":"levelo_inurba_marseille","lat":43.29183,"lon":5.38833,"is_reserved":false,"is_disabled":false,"rental_uris":{"android":"levelo://app?vid=12d4dcdf-fc4c-4345-8953-6b0aed27bb63","ios":"levelo://app?vid=12d4dcdf-fc4c-4345-8953-6b0aed27bb63"},"vehicle_type_id":"4","last_reported":1759256057,"current_range_meters":8000,"station_id":"","pricing_plan_id":"cebpf4jnsgd1na2vs0mg"},{"bike_id":"8be1dfc4-058e-42b4-8fa9-25ff0bd323d5","system_id":"levelo_inurba_marseille","lat":43.28454,"lon":5.35884,"is_reserved":false,"is_disabled":false,"rental_uris":{"android":"levelo://app?vid=8be1dfc4-058e-42b4-8fa9-25ff0bd323d5","ios":"levelo://app?vid=8be1dfc4-058e-42b4-8fa9-25ff0bd323d5"},"vehicle_type_id":"4","last_reported":1759256057,"current_range_meters":8000,"station_id":"ce4bhah2rcd13ifvqei0","pricing_plan_id":"cebpf4jnsgd1na2vs0mg"},{"bike_id":"6e6fcd10-3b94-43c9-af49-3a6a254e129a","system_id":"levelo_inurba_marseille","lat":43.296,"lon":5.38104,"is_reserved":false,"is_disabled":false,"rental_uris":{"android":"levelo://app?vid=6e6fcd10-3b94-43c9-af49-3a6a254e129a","ios":"levelo://app?vid=6e6fcd10-3b94-43c9-af49-3a6a254e129a"},"vehicle_type_id":"4","last_reported":1759256057,"current_range_meters":8000,"station_id":"ce4bgl12rcd13ifvqbo0","pricing_plan_id":"cebpf4jnsgd1na2vs0mg"},{"bike_id":"ead41742-0db5-4310-abee-67bc3ea67f65","system_id":"levelo_inurba_marseille","lat":43.24807,"lon":5.37452,"is_reserved":false,"is_disabled":false,"rental_uris":{"android":"levelo://app?vid=ead41742-0db5-4310-abee-67bc3ea67f65","ios":"levelo://app?vid=ead41742-0db5-4310-abee-67bc3ea67f65"},"vehicle_type_id":"4","last_reported":1759256057,"current_range_meters":8000,"station_id":"ce4bhgh2rcd13ifvqfb0","pricing_plan_id":"cebpf4jnsgd1na2vs0mg"},{"bike_id":"fe1fdbb6-2545-46fd-ad68-74140ad8ded1","system_id":"levelo_inurba_marseille","lat":43.26943,"lon":5.40271,"is_reserved":false,"is_disabled":false,"rental_uris":{"android":"levelo://app?vid=fe1fdbb6-2545-46fd-ad68-74140ad8ded1","ios":"levelo://app?vid=fe1fdbb6-2545-46fd-ad68-74140ad8ded1"},"vehicle_type_id":"4","last_reported":1759256057,"current_range_meters":8000,"station_id":"cjm6bp8fraef2m0cb0m0","pricing_plan_id":"cebpf4jnsgd1na2vs0mg"},{"bike_id":"09fa9f6b-c6c6-488c-8d1b-457a763311e1","system_id":"levelo_inurba_marseille","lat":43.26786,"lon":5.39423,"is_reserved":false,"is_disabled":false,"rental_uris":{"android":"levelo://app?vid=09fa9f6b-c6c6-488c-8d1b-457a763311e1","ios":"levelo://app?vid=09fa9f6b-c6c6-488c-8d1b-457a763311e1"},"vehicle_type_id":"4","last_reported":1759256057,"current_range_meters":8400,"station_id":"ce4bhh12rcd13ifvqfg0","pricing_plan_id":"cebpf4jnsgd1na2vs0mg"},{"bike_id":"3a9e42b0-404b-428e-926e-a4e72832ecfc","system_id":"levelo_inurba_marseille","lat":43.27206,"lon":5.39169,"is_reserved":false,"is_disabled":false,"rental_uris":{"android":"levelo://app?vid=3a9e42b0-404b-428e-926e-a4e72832ecfc","ios":"levelo://app?vid=3a9e42b0-404b-428e-926e-a4e72832ecfc"},"vehicle_type_id":"4","last_reported":1759256057,"current_range_meters":8400,"station_id":"ce4bhhp2rcd13ifvqfm0","pricing_plan_id":"cebpf4jnsgd1na2vs0mg"},{"bike_id":"eb9fdfed-06d2-4430-997a-5d50a870679d","system_id":"levelo_inurba_marseille","lat":43.31162,"lon":5.387015,"is_reserved":false,"is_disabled":false,"rental_uris":{"android":"levelo://app?vid=eb9fdfed-06d2-4430-997a-5d50a870679d","ios":"levelo://app?vid=eb9fdfed-06d2-4430-997a-5d50a870679d"},"vehicle_type_id":"4","last_reported":1759256057,"current_range_meters":8400,"station_id":"ce4bgv12rcd13ifvqcp0","pricing_plan_id":"cebpf4jnsgd1na2vs0mg"},{"bike_id":"b0f542ee-558e-4059-a760-c2fec9d3c976","system_id":"levelo_inurba_marseille","lat":43.29316,"lon":5.37178,"is_reserved":false,"is_disabled":false,"rental_uris":{"android":"levelo://app?vid=b0f542ee-558e-4059-a760-c2fec9d3c976","ios":"levelo://app?vid=b0f542ee-558e-4059-a760-c2fec9d3c976"},"vehicle_type_id":"4","last_reported":1759256057,"current_range_meters":8400,"station_id":"ce4bgh92rcd13ifvqb40","pricing_plan_id":"cebpf4jnsgd1na2vs0mg"},{"bike_id":"8741ee72-5f1e-41e2-9023-cb2450677a17","system_id":"levelo_inurba_marseille","lat":43.26804,"lon":5.40265,"is_reserved":false,"is_disabled":false,"rental_uris":{"android":"levelo://app?vid=8741ee72-5f1e-41e2-9023-cb2450677a17","ios":"levelo://app?vid=8741ee72-5f1e-41e2-9023-cb2450677a17"},"vehicle_type_id":"4","last_reported":1759256057,"current_range_meters":8400,"station_id":"ce501612rcd8frsf0b60","pricing_plan_id":"cebpf4jnsgd1na2vs0mg"},{"bike_id":"2e54ca56-f74f-4391-b602-cef376810acf","system_id":"levelo_inurba_marseille","lat":43.272102,"lon":5.391844,"is_reserved":false,"is_disabled":false,"rental_uris":{"android":"levelo://app?vid=2e54ca56-f74f-4391-b602-cef376810acf","ios":"levelo://app?vid=2e54ca56-f74f-4391-b602-cef376810acf"},"vehicle_type_id":"4","last_reported":1759256057,"current_range_meters":8000,"station_id":"ce4bhhp2rcd13ifvqfm0","pricing_plan_id":"cebpf4jnsgd1na2vs0mg"},{"bike_id":"b49629d5-8075-4127-b438-07d84b875728","system_id":"levelo_inurba_marseille","lat":43.26954,"lon":5.38639,"is_reserved":false,"is_disabled":false,"rental_uris":{"android":"levelo://app?vid=b49629d5-8075-4127-b438-07d84b875728","ios":"levelo://app?vid=b49629d5-8075-4127-b438-07d84b875728"},"vehicle_type_id":"4","last_reported":1759256057,"current_range_meters":8400,"station_id":"ce4bhh92rcd13ifvqfh0","pricing_plan_id":"cebpf4jnsgd1na2vs0mg"},{"bike_id":"40b5fedd-1a83-411e-b07e-baf139093495","system_id":"levelo_inurba_marseille","lat":43.24959,"lon":5.40483,"is_reserved":false,"is_disabled":false,"rental_uris":{"android":"levelo://app?vid=40b5fedd-1a83-411e-b07e-baf139093495","ios":"levelo://app?vid=40b5fedd-1a83-411e-b07e-baf139093495"},"vehicle_type_id":"4","last_reported":1759256057,"current_range_meters":8400,"station_id":"st_d2ngiaodas8pm72gd1h0","pricing_plan_id":"cebpf4jnsgd1na2vs0mg"},{"bike_id":"1824d1a5-6abf-47b2-ac81-0e442779e954","system_id":"levelo_inurba_marseille","lat":43.28029,"lon":5.36943,"is_reserved":false,"is_disabled":true,"rental_uris":{"android":"levelo://app?vid=1824d1a5-6abf-47b2-ac81-0e442779e954","ios":"levelo://app?vid=1824d1a5-6abf-47b2-ac81-0e442779e954"},"vehicle_type_id":"4","last_reported":1759256057,"current_range_meters":8400,"station_id":"ce4bha12rcd13ifvqef0","pricing_plan_id":"cebpf4jnsgd1na2vs0mg"},{"bike_id":"de5078e7-9e6f-4980-ad87-459e322f4cf1","system_id":"levelo_inurba_marseille","lat":43.31886,"lon":5.40738,"is_reserved":false,"is_disabled":false,"rental_uris":{"android":"levelo://app?vid=de5078e7-9e6f-4980-ad87-459e322f4cf1","ios":"levelo://app?vid=de5078e7-9e6f-4980-ad87-459e322f4cf1"},"vehicle_type_id":"4","last_reported":1759256057,"current_range_meters":8400,"station_id":"ce4bhq12rcd13ifvqhig","pricing_plan_id":"cebpf4jnsgd1na2vs0mg"},{"bike_id":"e619d268-fc45-4169-9eb2-f9957338f20d","system_id":"levelo_inurba_marseille","lat":43.297925,"lon":5.38105,"is_reserved":false,"is_disabled":false,"rental_uris":{"android":"levelo://app?vid=e619d268-fc45-4169-9eb2-f9957338f20d","ios":"levelo://app?vid=e619d268-fc45-4169-9eb2-f9957338f20d"},"vehicle_type_id":"4","last_reported":1759256057,"current_range_meters":8400,"station_id":"ce4bgip2rcd13ifvqbb0","pricing_plan_id":"cebpf4jnsgd1na2vs0mg"},{"bike_id":"c627b34a-8e81-4438-af3b-4fd0aab1c160","system_id":"levelo_inurba_marseille","lat":43.29679,"lon":5.36013,"is_reserved":false,"is_disabled":false,"rental_uris":{"android":"levelo://app?vid=c627b34a-8e81-4438-af3b-4fd0aab1c160","ios":"levelo://app?vid=c627b34a-8e81-4438-af3b-4fd0aab1c160"},"vehicle_type_id":"4","last_reported":1759256057,"current_range_meters":8400,"station_id":"","pricing_plan_id":"cebpf4jnsgd1na2vs0mg"},{"bike_id":"a2b889f9-ffe3-4f56-ba50-e39614151ce6","system_id":"levelo_inurba_marseille","lat":43.29851,"lon":5.36326,"is_reserved":false,"is_disabled":true,"rental_uris":{"android":"levelo://app?vid=a2b889f9-ffe3-4f56-ba50-e39614151ce6","ios":"levelo://app?vid=a2b889f9-ffe3-4f56-ba50-e39614151ce6"},"vehicle_type_id":"4","last_reported":1759256057,"current_range_meters":8400,"station_id":"ce4bgpp2rcd13ifvqc3g","pricing_plan_id":"cebpf4jnsgd1na2vs0mg"},{"bike_id":"b3aac7b4-0ed6-4ddc-9d19-ef755d070cd4","system_id":"levelo_inurba_marseille","lat":43.308026,"lon":5.435257,"is_reserved":false,"is_disabled":false,"rental_uris":{"android":"levelo://app?vid=b3aac7b4-0ed6-4ddc-9d19-ef755d070cd4","ios":"levelo://app?vid=b3aac7b4-0ed6-4ddc-9d19-ef755d070cd4"},"vehicle_type_id":"4","last_reported":1759256057,"current_range_meters":8400,"station_id":"ce4bhph2rcd13ifvqheg","pricing_plan_id":"cebpf4jnsgd1na2vs0mg"},{"bike_id":"5b08f86b-9869-43b2-9d8b-c8284723bdd4","system_id":"levelo_inurba_marseille","lat":43.26937,"lon":5.40253,"is_reserved":false,"is_disabled":false,"rental_uris":{"android":"levelo://app?vid=5b08f86b-9869-43b2-9d8b-c8284723bdd4","ios":"levelo://app?vid=5b08f86b-9869-43b2-9d8b-c8284723bdd4"},"vehicle_type_id":"4","last_reported":1759256057,"current_range_meters":8800,"station_id":"cjm6bp8fraef2m0cb0m0","pricing_plan_id":"cebpf4jnsgd1na2vs0mg"},{"bike_id":"74b08a1c-908f-45d0-8222-e6359cc48778","system_id":"levelo_inurba_marseille","lat":43.28934,"lon":5.3664,"is_reserved":false,"is_disabled":false,"rental_uris":{"android":"levelo://app?vid=74b08a1c-908f-45d0-8222-e6359cc48778","ios":"levelo://app?vid=74b08a1c-908f-45d0-8222-e6359cc48778"},"vehicle_type_id":"4","last_reported":1759256057,"current_range_meters":8800,"station_id":"ce4bhap2rcd13ifvqek0","pricing_plan_id":"cebpf4jnsgd1na2vs0mg"},{"bike_id":"9c60d460-8699-4c1d-8f40-606106d545b1","system_id":"levelo_inurba_marseille","lat":43.28113,"lon":5.37835,"is_reserved":false,"is_disabled":false,"rental_uris":{"android":"levelo://app?vid=9c60d460-8699-4c1d-8f40-606106d545b1","ios":"levelo://app?vid=9c60d460-8699-4c1d-8f40-606106d545b1"},"vehicle_type_id":"4","last_reported":1759256057,"current_range_meters":8400,"station_id":"ce4bha12rcd13ifvqee0","pricing_plan_id":"cebpf4jnsgd1na2vs0mg"},{"bike_id":"3c1c0d0e-dc3c-449f-b283-b22d8655b77d","system_id":"levelo_inurba_marseille","lat":43.29041,"lon":5.39949,"is_reserved":false,"is_disabled":false,"rental_uris":{"android":"levelo://app?vid=3c1c0d0e-dc3c-449f-b283-b22d8655b77d","ios":"levelo://app?vid=3c1c0d0e-dc3c-449f-b283-b22d8655b77d"},"vehicle_type_id":"4","last_reported":1759256057,"current_range_meters":12000,"station_id":"ce4bh392rcd13ifvqdm0","pricing_plan_id":"cebpf4jnsgd1na2vs0mg"},{"bike_id":"0662e5ec-17b3-4da7-8ffc-903097426f9d","system_id":"levelo_inurba_marseille","lat":43.31698,"lon":5.43711,"is_reserved":false,"is_disabled":false,"rental_uris":{"android":"levelo://app?vid=0662e5ec-17b3-4da7-8ffc-903097426f9d","ios":"levelo://app?vid=0662e5ec-17b3-4da7-8ffc-903097426f9d"},"vehicle_type_id":"4","last_reported":1759256057,"current_range_meters":8800,"station_id":"ce4bhp92rcd13ifvqhcg","pricing_plan_id":"cebpf4jnsgd1na2vs0mg"},{"bike_id":"fa7b8d5d-cda7-4720-9ca3-21b0406e462a","system_id":"levelo_inurba_marseille","lat":43.295248,"lon":5.37505,"is_reserved":false,"is_disabled":false,"rental_uris":{"android":"levelo://app?vid=fa7b8d5d-cda7-4720-9ca3-21b0406e462a","ios":"levelo://app?vid=fa7b8d5d-cda7-4720-9ca3-21b0406e462a"},"vehicle_type_id":"4","last_reported":1759256057,"current_range_meters":8800,"station_id":"","pricing_plan_id":"cebpf4jnsgd1na2vs0mg"},{"bike_id":"498de633-1978-409b-aa35-b617d56ba506","system_id":"levelo_inurba_marseille","lat":43.289401,"lon":5.366452,"is_reserved":false,"is_disabled":false,"rental_uris":{"android":"levelo://app?vid=498de633-1978-409b-aa35-b617d56ba506","ios":"levelo://app?vid=498de633-1978-409b-aa35-b617d56ba506"},"vehicle_type_id":"4","last_reported":1759256057,"current_range_meters":8800,"station_id":"ce4bhap2rcd13ifvqek0","pricing_plan_id":"cebpf4jnsgd1na2vs0mg"},{"bike_id":"8138a663-8610-4344-9d2e-e5cd6dda6d77","system_id":"levelo_inurba_marseille","lat":43.30889,"lon":5.39662,"is_reserved":false,"is_disabled":false,"rental_uris":{"android":"levelo://app?vid=8138a663-8610-4344-9d2e-e5cd6dda6d77","ios":"levelo://app?vid=8138a663-8610-4344-9d2e-e5cd6dda6d77"},"vehicle_type_id":"4","last_reported":1759256057,"current_range_meters":8800,"station_id":"ce4bh012rcd13ifvqcv0","pricing_plan_id":"cebpf4jnsgd1na2vs0mg"},{"bike_id":"8f16ebe4-6d21-424c-be47-c590f4117d06","system_id":"levelo_inurba_marseille","lat":43.29532,"lon":5.38551,"is_reserved":false,"is_disabled":false,"rental_uris":{"android":"levelo://app?vid=8f16ebe4-6d21-424c-be47-c590f4117d06","ios":"levelo://app?vid=8f16ebe4-6d21-424c-be47-c590f4117d06"},"vehicle_type_id":"4","last_reported":1759256057,"current_range_meters":9200,"station_id":"ce4bgih2rcd13ifvqba0","pricing_plan_id":"cebpf4jnsgd1na2vs0mg"},{"bike_id":"5f8245c1-d6d3-4e20-af8e-6d792fdc04ce","system_id":"levelo_inurba_marseille","lat":43.29863,"lon":5.45607,"is_reserved":false,"is_disabled":false,"rental_uris":{"android":"levelo://app?vid=5f8245c1-d6d3-4e20-af8e-6d792fdc04ce","ios":"levelo://app?vid=5f8245c1-d6d3-4e20-af8e-6d792fdc04ce"},"vehicle_type_id":"4","last_reported":1759256057,"current_range_meters":9200,"station_id":"","pricing_plan_id":"cebpf4jnsgd1na2vs0mg"},{"bike_id":"24d7b9c3-c191-48ff-9797-7d7120ea360c","system_id":"levelo_inurba_marseille","lat":43.26571,"lon":5.40309,"is_reserved":false,"is_disabled":false,"rental_uris":{"android":"levelo://app?vid=24d7b9c3-c191-48ff-9797-7d7120ea360c","ios":"levelo://app?vid=24d7b9c3-c191-48ff-9797-7d7120ea360c"},"vehicle_type_id":"4","last_reported":1759256057,"current_range_meters":9200,"station_id":"ce4bhmp2rcd13ifvqgng","pricing_plan_id":"cebpf4jnsgd1na2vs0mg"},{"bike_id":"36c9beb6-e2e5-442a-9706-51b630e07656","system_id":"levelo_inurba_marseille","lat":43.28422,"lon":5.34994,"is_reserved":false,"is_disabled":false,"rental_uris":{"android":"levelo://app?vid=36c9beb6-e2e5-442a-9706-51b630e07656","ios":"levelo://app?vid=36c9beb6-e2e5-442a-9706-51b630e07656"},"vehicle_type_id":"4","last_reported":1759256057,"current_range_meters":9200,"station_id":"ce4bhbh2rcd13ifvqepg","pricing_plan_id":"cebpf4jnsgd1na2vs0mg"},{"bike_id":"a0dda3ea-4dee-4a9f-9c09-42313c5a5c57","system_id":"levelo_inurba_marseille","lat":43.27678,"lon":5.38898,"is_reserved":false,"is_disabled":false,"rental_uris":{"android":"levelo://app?vid=a0dda3ea-4dee-4a9f-9c09-42313c5a5c57","ios":"levelo://app?vid=a0dda3ea-4dee-4a9f-9c09-42313c5a5c57"},"vehicle_type_id":"4","last_reported":1759256057,"current_range_meters":9200,"station_id":"ce4bhi12rcd13ifvqfo0","pricing_plan_id":"cebpf4jnsgd1na2vs0mg"},{"bike_id":"326a851e-c787-4e4f-8507-157de577ba31","system_id":"levelo_inurba_marseille","lat":43.26779,"lon":5.39414,"is_reserved":false,"is_disabled":false,"rental_uris":{"android":"levelo://app?vid=326a851e-c787-4e4f-8507-157de577ba31","ios":"levelo://app?vid=326a851e-c787-4e4f-8507-157de577ba31"},"vehicle_type_id":"4","last_reported":1759256057,"current_range_meters":9200,"station_id":"ce4bhh12rcd13ifvqfg0","pricing_plan_id":"cebpf4jnsgd1na2vs0mg"},{"bike_id":"3941c868-ba2c-4f2d-a0fc-a2c352a499e1","system_id":"levelo_inurba_marseille","lat":43.27268,"lon":5.39111,"is_reserved":false,"is_disabled":false,"rental_uris":{"android":"levelo://app?vid=3941c868-ba2c-4f2d-a0fc-a2c352a499e1","ios":"levelo://app?vid=3941c868-ba2c-4f2d-a0fc-a2c352a499e1"},"vehicle_type_id":"4","last_reported":1759256057,"current_range_meters":9200,"station_id":"","pricing_plan_id":"cebpf4jnsgd1na2vs0mg"},{"bike_id":"aebf0e68-ba27-412a-9ce2-11cc42127dee","system_id":"levelo_inurba_marseille","lat":43.337444,"lon":5.374475,"is_reserved":false,"is_disabled":false,"rental_uris":{"android":"levelo://app?vid=aebf0e68-ba27-412a-9ce2-11cc42127dee","ios":"levelo://app?vid=aebf0e68-ba27-412a-9ce2-11cc42127dee"},"vehicle_type_id":"4","last_reported":1759256057,"current_range_meters":9200,"station_id":"","pricing_plan_id":"cebpf4jnsgd1na2vs0mg"},{"bike_id":"2507448b-8711-4841-8632-a4219f2c5de0","system_id":"levelo_inurba_marseille","lat":43.292254,"lon":5.360508,"is_reserved":false,"is_disabled":true,"rental_uris":{"android":"levelo://app?vid=2507448b-8711-4841-8632-a4219f2c5de0","ios":"levelo://app?vid=2507448b-8711-4841-8632-a4219f2c5de0"},"vehicle_type_id":"4","last_reported":1759256057,"current_range_meters":9600,"station_id":"","pricing_plan_id":"cebpf4jnsgd1na2vs0mg"},{"bike_id":"ff43d868-8b81-4111-9f10-8ea7a0551e8b","system_id":"levelo_inurba_marseille","lat":43.29533,"lon":5.38538,"is_reserved":false,"is_disabled":false,"rental_uris":{"android":"levelo://app?vid=ff43d868-8b81-4111-9f10-8ea7a0551e8b","ios":"levelo://app?vid=ff43d868-8b81-4111-9f10-8ea7a0551e8b"},"vehicle_type_id":"4","last_reported":1759256057,"current_range_meters":9600,"station_id":"ce4bgih2rcd13ifvqba0","pricing_plan_id":"cebpf4jnsgd1na2vs0mg"},{"bike_id":"8cbcf5e7-b804-4925-bbed-5f57e8580ccf","system_id":"levelo_inurba_marseille","lat":43.31519,"lon":5.36803,"is_reserved":false,"is_disabled":false,"rental_uris":{"android":"levelo://app?vid=8cbcf5e7-b804-4925-bbed-5f57e8580ccf","ios":"levelo://app?vid=8cbcf5e7-b804-4925-bbed-5f57e8580ccf"},"vehicle_type_id":"4","last_reported":1759256057,"current_range_meters":9600,"station_id":"","pricing_plan_id":"cebpf4jnsgd1na2vs0mg"},{"bike_id":"56d6a008-a903-4bd5-8ee3-1cec5d05c634","system_id":"levelo_inurba_marseille","lat":43.31749,"lon":5.39024,"is_reserved":false,"is_disabled":true,"rental_uris":{"android":"levelo://app?vid=56d6a008-a903-4bd5-8ee3-1cec5d05c634","ios":"levelo://app?vid=56d6a008-a903-4bd5-8ee3-1cec5d05c634"},"vehicle_type_id":"4","last_reported":1759256057,"current_range_meters":9600,"station_id":"ce4bhqp2rcd13ifvqhng","pricing_plan_id":"cebpf4jnsgd1na2vs0mg"},{"bike_id":"9e7d0f94-1bc5-4ae8-b2d6-79c7c8b3ea14","system_id":"levelo_inurba_marseille","lat":43.270569,"lon":5.402585,"is_reserved":false,"is_disabled":false,"rental_uris":{"android":"levelo://app?vid=9e7d0f94-1bc5-4ae8-b2d6-79c7c8b3ea14","ios":"levelo://app?vid=9e7d0f94-1bc5-4ae8-b2d6-79c7c8b3ea14"},"vehicle_type_id":"4","last_reported":1759256057,"current_range_meters":9600,"station_id":"ce4bhk92rcd13ifvqgc0","pricing_plan_id":"cebpf4jnsgd1na2vs0mg"},{"bike_id":"8c99679d-e7ce-4f83-94ee-f86daeb2475a","system_id":"levelo_inurba_marseille","lat":43.27941,"lon":5.41048,"is_reserved":false,"is_disabled":false,"rental_uris":{"android":"levelo://app?vid=8c99679d-e7ce-4f83-94ee-f86daeb2475a","ios":"levelo://app?vid=8c99679d-e7ce-4f83-94ee-f86daeb2475a"},"vehicle_type_id":"4","last_reported":1759256057,"current_range_meters":9600,"station_id":"ce4bhnp2rcd13ifvqh0g","pricing_plan_id":"cebpf4jnsgd1na2vs0mg"},{"bike_id":"c4a88f00-d813-4ef4-90b9-7f92a7f1a687","system_id":"levelo_inurba_marseille","lat":43.27319,"lon":5.39074,"is_reserved":false,"is_disabled":false,"rental_uris":{"android":"levelo://app?vid=c4a88f00-d813-4ef4-90b9-7f92a7f1a687","ios":"levelo://app?vid=c4a88f00-d813-4ef4-90b9-7f92a7f1a687"},"vehicle_type_id":"4","last_reported":1759256057,"current_range_meters":9600,"station_id":"ce4bhgp2rcd13ifvqfe0","pricing_plan_id":"cebpf4jnsgd1na2vs0mg"},{"bike_id":"400a13d3-2dcc-4b4f-91a1-3b839b24ea7d","system_id":"levelo_inurba_marseille","lat":43.285997,"lon":5.391753,"is_reserved":false,"is_disabled":false,"rental_uris":{"android":"levelo://app?vid=400a13d3-2dcc-4b4f-91a1-3b839b24ea7d","ios":"levelo://app?vid=400a13d3-2dcc-4b4f-91a1-3b839b24ea7d"},"vehicle_type_id":"4","last_reported":1759256057,"current_range_meters":10000,"station_id":"","pricing_plan_id":"cebpf4jnsgd1na2vs0mg"},{"bike_id":"3a2db986-3f57-4716-92dd-75d31b1866ed","system_id":"levelo_inurba_marseille","lat":43.28864,"lon":5.42508,"is_reserved":false,"is_disabled":false,"rental_uris":{"android":"levelo://app?vid=3a2db986-3f57-4716-92dd-75d31b1866ed","ios":"levelo://app?vid=3a2db986-3f57-4716-92dd-75d31b1866ed"},"vehicle_type_id":"4","last_reported":1759256057,"current_range_meters":10000,"station_id":"st_d3b462108ojc7389ooeg","pricing_plan_id":"cebpf4jnsgd1na2vs0mg"},{"bike_id":"9cbb3274-4c40-405d-a89b-42dd821bad59","system_id":"levelo_inurba_marseille","lat":43.305297,"lon":5.393306,"is_reserved":false,"is_disabled":false,"rental_uris":{"android":"levelo://app?vid=9cbb3274-4c40-405d-a89b-42dd821bad59","ios":"levelo://app?vid=9cbb3274-4c40-405d-a89b-42dd821bad59"},"vehicle_type_id":"4","last_reported":1759256057,"current_range_meters":10000,"station_id":"ce4bgvp2rcd13ifvqcu0","pricing_plan_id":"cebpf4jnsgd1na2vs0mg"},{"bike_id":"3f280099-5462-487f-9629-e8e759c154bd","system_id":"levelo_inurba_marseille","lat":43.2927,"lon":5.36844,"is_reserved":false,"is_disabled":false,"rental_uris":{"android":"levelo://app?vid=3f280099-5462-487f-9629-e8e759c154bd","ios":"levelo://app?vid=3f280099-5462-487f-9629-e8e759c154bd"},"vehicle_type_id":"4","last_reported":1759256057,"current_range_meters":10000,"station_id":"ce4bhbp2rcd13ifvqesg","pricing_plan_id":"cebpf4jnsgd1na2vs0mg"},{"bike_id":"3b5c329f-a551-4466-9838-3a636fb24d93","system_id":"levelo_inurba_marseille","lat":43.25379,"lon":5.4186,"is_reserved":false,"is_disabled":false,"rental_uris":{"android":"levelo://app?vid=3b5c329f-a551-4466-9838-3a636fb24d93","ios":"levelo://app?vid=3b5c329f-a551-4466-9838-3a636fb24d93"},"vehicle_type_id":"4","last_reported":1759256057,"current_range_meters":10000,"station_id":"","pricing_plan_id":"cebpf4jnsgd1na2vs0mg"},{"bike_id":"cc12e238-0a98-4355-af19-1ae2a1680a61","system_id":"levelo_inurba_marseille","lat":43.24548,"lon":5.39523,"is_reserved":false,"is_disabled":false,"rental_uris":{"android":"levelo://app?vid=cc12e238-0a98-4355-af19-1ae2a1680a61","ios":"levelo://app?vid=cc12e238-0a98-4355-af19-1ae2a1680a61"},"vehicle_type_id":"4","last_reported":1759256057,"current_range_meters":10000,"station_id":"ce4bhlp2rcd13ifvqgjg","pricing_plan_id":"cebpf4jnsgd1na2vs0mg"},{"bike_id":"99ce2063-5dfb-4ed3-a4a6-8fc3a54c4890","system_id":"levelo_inurba_marseille","lat":43.337444,"lon":5.374475,"is_reserved":false,"is_disabled":false,"rental_uris":{"android":"levelo://app?vid=99ce2063-5dfb-4ed3-a4a6-8fc3a54c4890","ios":"levelo://app?vid=99ce2063-5dfb-4ed3-a4a6-8fc3a54c4890"},"vehicle_type_id":"4","last_reported":1759256057,"current_range_meters":10000,"station_id":"","pricing_plan_id":"cebpf4jnsgd1na2vs0mg"},{"bike_id":"9145a9fe-c846-4083-8224-bd9619e8da0f","system_id":"levelo_inurba_marseille","lat":43.29307,"lon":5.37179,"is_reserved":false,"is_disabled":false,"rental_uris":{"android":"levelo://app?vid=9145a9fe-c846-4083-8224-bd9619e8da0f","ios":"levelo://app?vid=9145a9fe-c846-4083-8224-bd9619e8da0f"},"vehicle_type_id":"4","last_reported":1759256057,"current_range_meters":10800,"station_id":"ce4bgh92rcd13ifvqb40","pricing_plan_id":"cebpf4jnsgd1na2vs0mg"},{"bike_id":"583acee1-3318-4afd-9f81-495d2600f3d8","system_id":"levelo_inurba_marseille","lat":43.26777,"lon":5.39417,"is_reserved":false,"is_disabled":false,"rental_uris":{"android":"levelo://app?vid=583acee1-3318-4afd-9f81-495d2600f3d8","ios":"levelo://app?vid=583acee1-3318-4afd-9f81-495d2600f3d8"},"vehicle_type_id":"4","last_reported":1759256057,"current_range_meters":10800,"station_id":"ce4bhh12rcd13ifvqfg0","pricing_plan_id":"cebpf4jnsgd1na2vs0mg"},{"bike_id":"11d8dcae-afa1-40d5-b81a-f28ba579fb50","system_id":"levelo_inurba_marseille","lat":43.29314,"lon":5.37466,"is_reserved":false,"is_disabled":false,"rental_uris":{"android":"levelo://app?vid=11d8dcae-afa1-40d5-b81a-f28ba579fb50","ios":"levelo://app?vid=11d8dcae-afa1-40d5-b81a-f28ba579fb50"},"vehicle_type_id":"4","last_reported":1759256057,"current_range_meters":10800,"station_id":"ce4bgi12rcd13ifvqb70","pricing_plan_id":"cebpf4jnsgd1na2vs0mg"},{"bike_id":"eb2d7ca6-aa96-48ba-a095-d03e358291b2","system_id":"levelo_inurba_marseille","lat":43.26583,"lon":5.39045,"is_reserved":false,"is_disabled":false,"rental_uris":{"android":"levelo://app?vid=eb2d7ca6-aa96-48ba-a095-d03e358291b2","ios":"levelo://app?vid=eb2d7ca6-aa96-48ba-a095-d03e358291b2"},"vehicle_type_id":"4","last_reported":1759256057,"current_range_meters":10800,"station_id":"ce4bhe12rcd13ifvqf30","pricing_plan_id":"cebpf4jnsgd1na2vs0mg"},{"bike_id":"d4fa561e-75c2-47e0-9b6c-b5071c451e69","system_id":"levelo_inurba_marseille","lat":43.29267,"lon":5.37633,"is_reserved":false,"is_disabled":false,"rental_uris":{"android":"levelo://app?vid=d4fa561e-75c2-47e0-9b6c-b5071c451e69","ios":"levelo://app?vid=d4fa561e-75c2-47e0-9b6c-b5071c451e69"},"vehicle_type_id":"4","last_reported":1759256057,"current_range_meters":10800,"station_id":"ce4bgi12rcd13ifvqb80","pricing_plan_id":"cebpf4jnsgd1na2vs0mg"},{"bike_id":"56ca0258-bee9-4eb2-b3c5-63b5cd0b9e67","system_id":"levelo_inurba_marseille","lat":43.33737,"lon":5.37445,"is_reserved":false,"is_disabled":false,"rental_uris":{"android":"levelo://app?vid=56ca0258-bee9-4eb2-b3c5-63b5cd0b9e67","ios":"levelo://app?vid=56ca0258-bee9-4eb2-b3c5-63b5cd0b9e67"},"vehicle_type_id":"4","last_reported":1759256057,"current_range_meters":10800,"station_id":"","pricing_plan_id":"cebpf4jnsgd1na2vs0mg"},{"bike_id":"92662833-c6ac-4b02-b7df-1638b54b1972","system_id":"levelo_inurba_marseille","lat":43.33742,"lon":5.37449,"is_reserved":false,"is_disabled":false,"rental_uris":{"android":"levelo://app?vid=92662833-c6ac-4b02-b7df-1638b54b1972","ios":"levelo://app?vid=92662833-c6ac-4b02-b7df-1638b54b1972"},"vehicle_type_id":"4","last_reported":1759256057,"current_range_meters":10800,"station_id":"","pricing_plan_id":"cebpf4jnsgd1na2vs0mg"},{"bike_id":"f8d78e5f-60e1-4623-939f-49e76ff16505","system_id":"levelo_inurba_marseille","lat":43.33742,"lon":5.37448,"is_reserved":false,"is_disabled":false,"rental_uris":{"android":"levelo://app?vid=f8d78e5f-60e1-4623-939f-49e76ff16505","ios":"levelo://app?vid=f8d78e5f-60e1-4623-939f-49e76ff16505"},"vehicle_type_id":"4","last_reported":1759256057,"current_range_meters":10800,"station_id":"","pricing_plan_id":"cebpf4jnsgd1na2vs0mg"},{"bike_id":"07f7f78a-bd29-4b07-bd4f-6742133c6e7c","system_id":"levelo_inurba_marseille","lat":43.31365,"lon":5.38482,"is_reserved":false,"is_disabled":false,"rental_uris":{"android":"levelo://app?vid=07f7f78a-bd29-4b07-bd4f-6742133c6e7c","ios":"levelo://app?vid=07f7f78a-bd29-4b07-bd4f-6742133c6e7c"},"vehicle_type_id":"4","last_reported":1759256057,"current_range_meters":11200,"station_id":"ce4bgt92rcd13ifvqcf0","pricing_plan_id":"cebpf4jnsgd1na2vs0mg"},{"bike_id":"6259dfb0-09cd-49f7-8dbc-a5f0c7633f3d","system_id":"levelo_inurba_marseille","lat":43.28158,"lon":5.42644,"is_reserved":false,"is_disabled":false,"rental_uris":{"android":"levelo://app?vid=6259dfb0-09cd-49f7-8dbc-a5f0c7633f3d","ios":"levelo://app?vid=6259dfb0-09cd-49f7-8dbc-a5f0c7633f3d"},"vehicle_type_id":"4","last_reported":1759256057,"current_range_meters":11200,"station_id":"ce4bhnh2rcd13ifvqgug","pricing_plan_id":"cebpf4jnsgd1na2vs0mg"},{"bike_id":"cc6f264e-f016-47b9-9227-961de4c1f8b6","system_id":"levelo_inurba_marseille","lat":43.27531,"lon":5.38423,"is_reserved":false,"is_disabled":false,"rental_uris":{"android":"levelo://app?vid=cc6f264e-f016-47b9-9227-961de4c1f8b6","ios":"levelo://app?vid=cc6f264e-f016-47b9-9227-961de4c1f8b6"},"vehicle_type_id":"4","last_reported":1759256057,"current_range_meters":11200,"station_id":"ce4bhh92rcd13ifvqfi0","pricing_plan_id":"cebpf4jnsgd1na2vs0mg"},{"bike_id":"0aba4fe3-5dca-4d79-8b9d-2fc77d6e7d70","system_id":"levelo_inurba_marseille","lat":43.28418,"lon":5.349815,"is_reserved":false,"is_disabled":false,"rental_uris":{"android":"levelo://app?vid=0aba4fe3-5dca-4d79-8b9d-2fc77d6e7d70","ios":"levelo://app?vid=0aba4fe3-5dca-4d79-8b9d-2fc77d6e7d70"},"vehicle_type_id":"4","last_reported":1759256057,"current_range_meters":11600,"station_id":"","pricing_plan_id":"cebpf4jnsgd1na2vs0mg"},{"bike_id":"a5495814-8e91-4930-9d50-e701be75ed52","system_id":"levelo_inurba_marseille","lat":43.29544,"lon":5.38534,"is_reserved":false,"is_disabled":false,"rental_uris":{"android":"levelo://app?vid=a5495814-8e91-4930-9d50-e701be75ed52","ios":"levelo://app?vid=a5495814-8e91-4930-9d50-e701be75ed52"},"vehicle_type_id":"4","last_reported":1759256057,"current_range_meters":11600,"station_id":"ce4bgih2rcd13ifvqba0","pricing_plan_id":"cebpf4jnsgd1na2vs0mg"},{"bike_id":"f75ec2c7-65d1-4cd9-8bd9-aa57e970f7d7","system_id":"levelo_inurba_marseille","lat":43.21749,"lon":5.34599,"is_reserved":false,"is_disabled":false,"rental_uris":{"android":"levelo://app?vid=f75ec2c7-65d1-4cd9-8bd9-aa57e970f7d7","ios":"levelo://app?vid=f75ec2c7-65d1-4cd9-8bd9-aa57e970f7d7"},"vehicle_type_id":"4","last_reported":1759256057,"current_range_meters":11600,"station_id":"st_cvj6r9ubvosntc0bgbag","pricing_plan_id":"cebpf4jnsgd1na2vs0mg"},{"bike_id":"8970760b-c51a-4783-ab80-c5c35e14eebe","system_id":"levelo_inurba_marseille","lat":43.25727,"lon":5.41105,"is_reserved":false,"is_disabled":false,"rental_uris":{"android":"levelo://app?vid=8970760b-c51a-4783-ab80-c5c35e14eebe","ios":"levelo://app?vid=8970760b-c51a-4783-ab80-c5c35e14eebe"},"vehicle_type_id":"4","last_reported":1759256057,"current_range_meters":11200,"station_id":"ce4bhkp2rcd13ifvqgd0","pricing_plan_id":"cebpf4jnsgd1na2vs0mg"},{"bike_id":"eaf800a5-f215-4e79-9062-7e0920e7e86a","system_id":"levelo_inurba_marseille","lat":43.27557,"lon":5.38442,"is_reserved":false,"is_disabled":false,"rental_uris":{"android":"levelo://app?vid=eaf800a5-f215-4e79-9062-7e0920e7e86a","ios":"levelo://app?vid=eaf800a5-f215-4e79-9062-7e0920e7e86a"},"vehicle_type_id":"4","last_reported":1759256057,"current_range_meters":11600,"station_id":"ce4bhh92rcd13ifvqfi0","pricing_plan_id":"cebpf4jnsgd1na2vs0mg"},{"bike_id":"74d62a67-a470-4bfe-8011-7ef3da281e5c","system_id":"levelo_inurba_marseille","lat":43.31708,"lon":5.40461,"is_reserved":false,"is_disabled":false,"rental_uris":{"android":"levelo://app?vid=74d62a67-a470-4bfe-8011-7ef3da281e5c","ios":"levelo://app?vid=74d62a67-a470-4bfe-8011-7ef3da281e5c"},"vehicle_type_id":"4","last_reported":1759256057,"current_range_meters":11600,"station_id":"ce4bh012rcd13ifvqd00","pricing_plan_id":"cebpf4jnsgd1na2vs0mg"},{"bike_id":"6b770a05-db2e-4a0f-819b-be9fe103ac42","system_id":"levelo_inurba_marseille","lat":43.31329,"lon":5.39691,"is_reserved":false,"is_disabled":false,"rental_uris":{"android":"levelo://app?vid=6b770a05-db2e-4a0f-819b-be9fe103ac42","ios":"levelo://app?vid=6b770a05-db2e-4a0f-819b-be9fe103ac42"},"vehicle_type_id":"4","last_reported":1759256057,"current_range_meters":11600,"station_id":"ce4bgvp2rcd13ifvqcu0","pricing_plan_id":"cebpf4jnsgd1na2vs0mg"},{"bike_id":"e4e2769d-942e-46e4-a3c1-eeb5cc9aa33a","system_id":"levelo_inurba_marseille","lat":43.24949,"lon":5.40493,"is_reserved":false,"is_disabled":false,"rental_uris":{"android":"levelo://app?vid=e4e2769d-942e-46e4-a3c1-eeb5cc9aa33a","ios":"levelo://app?vid=e4e2769d-942e-46e4-a3c1-eeb5cc9aa33a"},"vehicle_type_id":"4","last_reported":1759256057,"current_range_meters":11600,"station_id":"st_d2ngiaodas8pm72gd1h0","pricing_plan_id":"cebpf4jnsgd1na2vs0mg"},{"bike_id":"49cfd55c-0958-4d8e-8ffb-50f86e1863dc","system_id":"levelo_inurba_marseille","lat":43.29081,"lon":5.37167,"is_reserved":false,"is_disabled":false,"rental_uris":{"android":"levelo://app?vid=49cfd55c-0958-4d8e-8ffb-50f86e1863dc","ios":"levelo://app?vid=49cfd55c-0958-4d8e-8ffb-50f86e1863dc"},"vehicle_type_id":"4","last_reported":1759256057,"current_range_meters":11600,"station_id":"ce4bh5p2rcd13ifvqe4g","pricing_plan_id":"cebpf4jnsgd1na2vs0mg"},{"bike_id":"2009811b-f301-41bb-ad88-70a6b0454eb7","system_id":"levelo_inurba_marseille","lat":43.29006,"lon":5.38112,"is_reserved":false,"is_disabled":false,"rental_uris":{"android":"levelo://app?vid=2009811b-f301-41bb-ad88-70a6b0454eb7","ios":"levelo://app?vid=2009811b-f301-41bb-ad88-70a6b0454eb7"},"vehicle_type_id":"4","last_reported":1759256057,"current_range_meters":12000,"station_id":"ce4bh4p2rcd13ifvqe1g","pricing_plan_id":"cebpf4jnsgd1na2vs0mg"},{"bike_id":"e01782b4-2579-43f0-ae7a-373dc8c79988","system_id":"levelo_inurba_marseille","lat":43.262107,"lon":5.374408,"is_reserved":false,"is_disabled":false,"rental_uris":{"android":"levelo://app?vid=e01782b4-2579-43f0-ae7a-373dc8c79988","ios":"levelo://app?vid=e01782b4-2579-43f0-ae7a-373dc8c79988"},"vehicle_type_id":"4","last_reported":1759256057,"current_range_meters":12000,"station_id":"ce4bhgp2rcd13ifvqfc0","pricing_plan_id":"cebpf4jnsgd1na2vs0mg"},{"bike_id":"8c889c5e-dbff-42f9-9e9a-56a3d0500fe9","system_id":"levelo_inurba_marseille","lat":43.30284,"lon":5.3701,"is_reserved":false,"is_disabled":false,"rental_uris":{"android":"levelo://app?vid=8c889c5e-dbff-42f9-9e9a-56a3d0500fe9","ios":"levelo://app?vid=8c889c5e-dbff-42f9-9e9a-56a3d0500fe9"},"vehicle_type_id":"4","last_reported":1759256057,"current_range_meters":12000,"station_id":"","pricing_plan_id":"cebpf4jnsgd1na2vs0mg"},{"bike_id":"c1476236-c8f0-4812-94e5-3f00d488ab7e","system_id":"levelo_inurba_marseille","lat":43.280011,"lon":5.416649,"is_reserved":false,"is_disabled":false,"rental_uris":{"android":"levelo://app?vid=c1476236-c8f0-4812-94e5-3f00d488ab7e","ios":"levelo://app?vid=c1476236-c8f0-4812-94e5-3f00d488ab7e"},"vehicle_type_id":"4","last_reported":1759256057,"current_range_meters":12000,"station_id":"","pricing_plan_id":"cebpf4jnsgd1na2vs0mg"},{"bike_id":"1adf72d4-f2e2-443a-bd81-e3e77d2b1f3e","system_id":"levelo_inurba_marseille","lat":43.266944,"lon":5.40228,"is_reserved":false,"is_disabled":false,"rental_uris":{"android":"levelo://app?vid=1adf72d4-f2e2-443a-bd81-e3e77d2b1f3e","ios":"levelo://app?vid=1adf72d4-f2e2-443a-bd81-e3e77d2b1f3e"},"vehicle_type_id":"4","last_reported":1759256057,"current_range_meters":12000,"station_id":"","pricing_plan_id":"cebpf4jnsgd1na2vs0mg"},{"bike_id":"e6293ef9-31f1-46db-a2fd-deab75f5f25b","system_id":"levelo_inurba_marseille","lat":43.29034,"lon":5.37572,"is_reserved":false,"is_disabled":false,"rental_uris":{"android":"levelo://app?vid=e6293ef9-31f1-46db-a2fd-deab75f5f25b","ios":"levelo://app?vid=e6293ef9-31f1-46db-a2fd-deab75f5f25b"},"vehicle_type_id":"4","last_reported":1759256057,"current_range_meters":12000,"station_id":"ce4bh692rcd13ifvqe90","pricing_plan_id":"cebpf4jnsgd1na2vs0mg"},{"bike_id":"d2f46c9e-a53c-42a7-ad54-fd7c896f4565","system_id":"levelo_inurba_marseille","lat":43.33797,"lon":5.37428,"is_reserved":false,"is_disabled":false,"rental_uris":{"android":"levelo://app?vid=d2f46c9e-a53c-42a7-ad54-fd7c896f4565","ios":"levelo://app?vid=d2f46c9e-a53c-42a7-ad54-fd7c896f4565"},"vehicle_type_id":"4","last_reported":1759256057,"current_range_meters":12000,"station_id":"","pricing_plan_id":"cebpf4jnsgd1na2vs0mg"},{"bike_id":"079d817c-b0d9-44a6-bb35-4caa5bc734e9","system_id":"levelo_inurba_marseille","lat":43.29045,"lon":5.39955,"is_reserved":false,"is_disabled":false,"rental_uris":{"android":"levelo://app?vid=079d817c-b0d9-44a6-bb35-4caa5bc734e9","ios":"levelo://app?vid=079d817c-b0d9-44a6-bb35-4caa5bc734e9"},"vehicle_type_id":"4","last_reported":1759256057,"current_range_meters":12000,"station_id":"ce4bh392rcd13ifvqdm0","pricing_plan_id":"cebpf4jnsgd1na2vs0mg"},{"bike_id":"adfbe18b-7ca7-424a-9090-23d85cce22c6","system_id":"levelo_inurba_marseille","lat":43.30049,"lon":5.40932,"is_reserved":false,"is_disabled":false,"rental_uris":{"android":"levelo://app?vid=adfbe18b-7ca7-424a-9090-23d85cce22c6","ios":"levelo://app?vid=adfbe18b-7ca7-424a-9090-23d85cce22c6"},"vehicle_type_id":"4","last_reported":1759256057,"current_range_meters":12400,"station_id":"","pricing_plan_id":"cebpf4jnsgd1na2vs0mg"},{"bike_id":"3e7f2125-57ce-47bc-b860-426e3104b28d","system_id":"levelo_inurba_marseille","lat":43.29204,"lon":5.39325,"is_reserved":false,"is_disabled":true,"rental_uris":{"android":"levelo://app?vid=3e7f2125-57ce-47bc-b860-426e3104b28d","ios":"levelo://app?vid=3e7f2125-57ce-47bc-b860-426e3104b28d"},"vehicle_type_id":"4","last_reported":1759256057,"current_range_meters":12400,"station_id":"ce4bh192rcd13ifvqdd0","pricing_plan_id":"cebpf4jnsgd1na2vs0mg"},{"bike_id":"cc1ae0fe-f8d2-4456-af78-6c666d067f2b","system_id":"levelo_inurba_marseille","lat":43.29038,"lon":5.37565,"is_reserved":false,"is_disabled":false,"rental_uris":{"android":"levelo://app?vid=cc1ae0fe-f8d2-4456-af78-6c666d067f2b","ios":"levelo://app?vid=cc1ae0fe-f8d2-4456-af78-6c666d067f2b"},"vehicle_type_id":"4","last_reported":1759256057,"current_range_meters":12000,"station_id":"ce4bh692rcd13ifvqe90","pricing_plan_id":"cebpf4jnsgd1na2vs0mg"},{"bike_id":"259eb790-7c9f-4508-b0a8-75180661d85f","system_id":"levelo_inurba_marseille","lat":43.24068,"lon":5.37756,"is_reserved":false,"is_disabled":false,"rental_uris":{"android":"levelo://app?vid=259eb790-7c9f-4508-b0a8-75180661d85f","ios":"levelo://app?vid=259eb790-7c9f-4508-b0a8-75180661d85f"},"vehicle_type_id":"4","last_reported":1759256057,"current_range_meters":12400,"station_id":"","pricing_plan_id":"cebpf4jnsgd1na2vs0mg"},{"bike_id":"9f909577-9a0e-42c8-aa8f-ad02d6c300ef","system_id":"levelo_inurba_marseille","lat":43.33023,"lon":5.39044,"is_reserved":false,"is_disabled":false,"rental_uris":{"android":"levelo://app?vid=9f909577-9a0e-42c8-aa8f-ad02d6c300ef","ios":"levelo://app?vid=9f909577-9a0e-42c8-aa8f-ad02d6c300ef"},"vehicle_type_id":"4","last_reported":1759256057,"current_range_meters":12400,"station_id":"ce4bhr92rcd13ifvqhrg","pricing_plan_id":"cebpf4jnsgd1na2vs0mg"},{"bike_id":"b93156f3-2c8f-42f4-9dc1-21abfafd8c41","system_id":"levelo_inurba_marseille","lat":43.229363,"lon":5.353742,"is_reserved":false,"is_disabled":false,"rental_uris":{"android":"levelo://app?vid=b93156f3-2c8f-42f4-9dc1-21abfafd8c41","ios":"levelo://app?vid=b93156f3-2c8f-42f4-9dc1-21abfafd8c41"},"vehicle_type_id":"4","last_reported":1759256057,"current_range_meters":12400,"station_id":"cpo3532slgdg3j2ikp40","pricing_plan_id":"cebpf4jnsgd1na2vs0mg"},{"bike_id":"6e15c9be-9d47-4134-8522-87f8e1dae648","system_id":"levelo_inurba_marseille","lat":43.2841,"lon":5.37516,"is_reserved":false,"is_disabled":false,"rental_uris":{"android":"levelo://app?vid=6e15c9be-9d47-4134-8522-87f8e1dae648","ios":"levelo://app?vid=6e15c9be-9d47-4134-8522-87f8e1dae648"},"vehicle_type_id":"4","last_reported":1759256057,"current_range_meters":12800,"station_id":"ce4bh412rcd13ifvqds0","pricing_plan_id":"cebpf4jnsgd1na2vs0mg"},{"bike_id":"df6f73c9-19b5-4c29-8789-4d0270326a50","system_id":"levelo_inurba_marseille","lat":43.29871,"lon":5.41289,"is_reserved":false,"is_disabled":false,"rental_uris":{"android":"levelo://app?vid=df6f73c9-19b5-4c29-8789-4d0270326a50","ios":"levelo://app?vid=df6f73c9-19b5-4c29-8789-4d0270326a50"},"vehicle_type_id":"4","last_reported":1759256057,"current_range_meters":12800,"station_id":"","pricing_plan_id":"cebpf4jnsgd1na2vs0mg"},{"bike_id":"d8d673b4-8e80-46b3-9a5a-f081b8e2b873","system_id":"levelo_inurba_marseille","lat":43.289317,"lon":5.366371,"is_reserved":false,"is_disabled":false,"rental_uris":{"android":"levelo://app?vid=d8d673b4-8e80-46b3-9a5a-f081b8e2b873","ios":"levelo://app?vid=d8d673b4-8e80-46b3-9a5a-f081b8e2b873"},"vehicle_type_id":"4","last_reported":1759256057,"current_range_meters":12400,"station_id":"ce4bhap2rcd13ifvqek0","pricing_plan_id":"cebpf4jnsgd1na2vs0mg"},{"bike_id":"694c80a2-f142-4916-ae9b-e04333a45ef2","system_id":"levelo_inurba_marseille","lat":43.29276,"lon":5.36847,"is_reserved":false,"is_disabled":false,"rental_uris":{"android":"levelo://app?vid=694c80a2-f142-4916-ae9b-e04333a45ef2","ios":"levelo://app?vid=694c80a2-f142-4916-ae9b-e04333a45ef2"},"vehicle_type_id":"4","last_reported":1759256057,"current_range_meters":12800,"station_id":"ce4bhbp2rcd13ifvqesg","pricing_plan_id":"cebpf4jnsgd1na2vs0mg"},{"bike_id":"30cbf9c0-d8c9-49e3-afe2-ea0d70b63a10","system_id":"levelo_inurba_marseille","lat":43.28363,"lon":5.38642,"is_reserved":false,"is_disabled":true,"rental_uris":{"android":"levelo://app?vid=30cbf9c0-d8c9-49e3-afe2-ea0d70b63a10","ios":"levelo://app?vid=30cbf9c0-d8c9-49e3-afe2-ea0d70b63a10"},"vehicle_type_id":"4","last_reported":1759256057,"current_range_meters":12800,"station_id":"ce4bh492rcd13ifvqdvg","pricing_plan_id":"cebpf4jnsgd1na2vs0mg"},{"bike_id":"dd4739dd-84ac-47c8-921e-522be42e922c","system_id":"levelo_inurba_marseille","lat":43.29776,"lon":5.37105,"is_reserved":false,"is_disabled":false,"rental_uris":{"android":"levelo://app?vid=dd4739dd-84ac-47c8-921e-522be42e922c","ios":"levelo://app?vid=dd4739dd-84ac-47c8-921e-522be42e922c"},"vehicle_type_id":"4","last_reported":1759256057,"current_range_meters":12800,"station_id":"ce4bgop2rcd13ifvqc1g","pricing_plan_id":"cebpf4jnsgd1na2vs0mg"},{"bike_id":"67d0b2b4-511f-439b-93ea-4de1fcf49000","system_id":"levelo_inurba_marseille","lat":43.27965,"lon":5.38741,"is_reserved":false,"is_disabled":false,"rental_uris":{"android":"levelo://app?vid=67d0b2b4-511f-439b-93ea-4de1fcf49000","ios":"levelo://app?vid=67d0b2b4-511f-439b-93ea-4de1fcf49000"},"vehicle_type_id":"4","last_reported":1759256057,"current_range_meters":12800,"station_id":"ce4bhg12rcd13ifvqf80","pricing_plan_id":"cebpf4jnsgd1na2vs0mg"},{"bike_id":"f407823d-e15b-4d3e-ad84-64e538f41369","system_id":"levelo_inurba_marseille","lat":43.299713,"lon":5.384838,"is_reserved":false,"is_disabled":false,"rental_uris":{"android":"levelo://app?vid=f407823d-e15b-4d3e-ad84-64e538f41369","ios":"levelo://app?vid=f407823d-e15b-4d3e-ad84-64e538f41369"},"vehicle_type_id":"4","last_reported":1759256057,"current_range_meters":12800,"station_id":"ce4bgj92rcd13ifvqbd0","pricing_plan_id":"cebpf4jnsgd1na2vs0mg"},{"bike_id":"dec9446c-a40f-4d64-8476-2f4372230baf","system_id":"levelo_inurba_marseille","lat":43.30261,"lon":5.38147,"is_reserved":false,"is_disabled":false,"rental_uris":{"android":"levelo://app?vid=dec9446c-a40f-4d64-8476-2f4372230baf","ios":"levelo://app?vid=dec9446c-a40f-4d64-8476-2f4372230baf"},"vehicle_type_id":"4","last_reported":1759256057,"current_range_meters":13600,"station_id":"","pricing_plan_id":"cebpf4jnsgd1na2vs0mg"},{"bike_id":"7373d1d3-a6b4-4c50-bf05-b829818e2441","system_id":"levelo_inurba_marseille","lat":43.31076,"lon":5.38357,"is_reserved":false,"is_disabled":false,"rental_uris":{"android":"levelo://app?vid=7373d1d3-a6b4-4c50-bf05-b829818e2441","ios":"levelo://app?vid=7373d1d3-a6b4-4c50-bf05-b829818e2441"},"vehicle_type_id":"4","last_reported":1759256057,"current_range_meters":13600,"station_id":"ce4bgv92rcd13ifvqcr0","pricing_plan_id":"cebpf4jnsgd1na2vs0mg"},{"bike_id":"23cf69fa-9f2c-40d3-b561-63701476a591","system_id":"levelo_inurba_marseille","lat":43.2681,"lon":5.40272,"is_reserved":false,"is_disabled":false,"rental_uris":{"android":"levelo://app?vid=23cf69fa-9f2c-40d3-b561-63701476a591","ios":"levelo://app?vid=23cf69fa-9f2c-40d3-b561-63701476a591"},"vehicle_type_id":"4","last_reported":1759256057,"current_range_meters":14000,"station_id":"ce501612rcd8frsf0b60","pricing_plan_id":"cebpf4jnsgd1na2vs0mg"},{"bike_id":"5427b314-055e-4d18-8500-19ecea4e1f72","system_id":"levelo_inurba_marseille","lat":43.27305,"lon":5.39073,"is_reserved":false,"is_disabled":false,"rental_uris":{"android":"levelo://app?vid=5427b314-055e-4d18-8500-19ecea4e1f72","ios":"levelo://app?vid=5427b314-055e-4d18-8500-19ecea4e1f72"},"vehicle_type_id":"4","last_reported":1759256057,"current_range_meters":14000,"station_id":"ce4bhgp2rcd13ifvqfe0","pricing_plan_id":"cebpf4jnsgd1na2vs0mg"},{"bike_id":"6c78514c-60c4-4968-a777-e65641568c5e","system_id":"levelo_inurba_marseille","lat":43.26949,"lon":5.40271,"is_reserved":false,"is_disabled":false,"rental_uris":{"android":"levelo://app?vid=6c78514c-60c4-4968-a777-e65641568c5e","ios":"levelo://app?vid=6c78514c-60c4-4968-a777-e65641568c5e"},"vehicle_type_id":"4","last_reported":1759256057,"current_range_meters":12400,"station_id":"cjm6bp8fraef2m0cb0m0","pricing_plan_id":"cebpf4jnsgd1na2vs0mg"},{"bike_id":"bea83ebe-06e8-49e8-8d6d-7efd2f4a163c","system_id":"levelo_inurba_marseille","lat":43.32024,"lon":5.38186,"is_reserved":false,"is_disabled":false,"rental_uris":{"android":"levelo://app?vid=bea83ebe-06e8-49e8-8d6d-7efd2f4a163c","ios":"levelo://app?vid=bea83ebe-06e8-49e8-8d6d-7efd2f4a163c"},"vehicle_type_id":"4","last_reported":1759256057,"current_range_meters":13600,"station_id":"ce4bhr12rcd13ifvqhpg","pricing_plan_id":"cebpf4jnsgd1na2vs0mg"},{"bike_id":"3ed5c57c-fa2a-4e61-86d3-acd068008b62","system_id":"levelo_inurba_marseille","lat":43.29175,"lon":5.37161,"is_reserved":false,"is_disabled":false,"rental_uris":{"android":"levelo://app?vid=3ed5c57c-fa2a-4e61-86d3-acd068008b62","ios":"levelo://app?vid=3ed5c57c-fa2a-4e61-86d3-acd068008b62"},"vehicle_type_id":"4","last_reported":1759256057,"current_range_meters":14000,"station_id":"ce4bha92rcd13ifvqeh0","pricing_plan_id":"cebpf4jnsgd1na2vs0mg"},{"bike_id":"4cc320ee-f96b-4071-8ba0-6304bc6d3f42","system_id":"levelo_inurba_marseille","lat":43.301,"lon":5.39084,"is_reserved":false,"is_disabled":false,"rental_uris":{"android":"levelo://app?vid=4cc320ee-f96b-4071-8ba0-6304bc6d3f42","ios":"levelo://app?vid=4cc320ee-f96b-4071-8ba0-6304bc6d3f42"},"vehicle_type_id":"4","last_reported":1759256057,"current_range_meters":14000,"station_id":"ce4bh192rcd13ifvqdb0","pricing_plan_id":"cebpf4jnsgd1na2vs0mg"},{"bike_id":"216b8f16-fb9d-4c6d-a6c3-6c45bda1ca43","system_id":"levelo_inurba_marseille","lat":43.29309,"lon":5.37185,"is_reserved":false,"is_disabled":false,"rental_uris":{"android":"levelo://app?vid=216b8f16-fb9d-4c6d-a6c3-6c45bda1ca43","ios":"levelo://app?vid=216b8f16-fb9d-4c6d-a6c3-6c45bda1ca43"},"vehicle_type_id":"4","last_reported":1759256057,"current_range_meters":14000,"station_id":"ce4bgh92rcd13ifvqb40","pricing_plan_id":"cebpf4jnsgd1na2vs0mg"},{"bike_id":"81950253-992a-480d-a629-2c2658d826f1","system_id":"levelo_inurba_marseille","lat":43.2695,"lon":5.40258,"is_reserved":false,"is_disabled":false,"rental_uris":{"android":"levelo://app?vid=81950253-992a-480d-a629-2c2658d826f1","ios":"levelo://app?vid=81950253-992a-480d-a629-2c2658d826f1"},"vehicle_type_id":"4","last_reported":1759256057,"current_range_meters":14000,"station_id":"cjm6bp8fraef2m0cb0m0","pricing_plan_id":"cebpf4jnsgd1na2vs0mg"},{"bike_id":"a850760d-f890-4818-860e-321d70e97b11","system_id":"levelo_inurba_marseille","lat":43.32371,"lon":5.36734,"is_reserved":false,"is_disabled":false,"rental_uris":{"android":"levelo://app?vid=a850760d-f890-4818-860e-321d70e97b11","ios":"levelo://app?vid=a850760d-f890-4818-860e-321d70e97b11"},"vehicle_type_id":"4","last_reported":1759256057,"current_range_meters":14400,"station_id":"ce4bhsh2rcd13ifvqi2g","pricing_plan_id":"cebpf4jnsgd1na2vs0mg"},{"bike_id":"f752559e-e357-41d0-b0e1-06afd32411be","system_id":"levelo_inurba_marseille","lat":43.27472,"lon":5.40802,"is_reserved":false,"is_disabled":false,"rental_uris":{"android":"levelo://app?vid=f752559e-e357-41d0-b0e1-06afd32411be","ios":"levelo://app?vid=f752559e-e357-41d0-b0e1-06afd32411be"},"vehicle_type_id":"4","last_reported":1759256057,"current_range_meters":14400,"station_id":"","pricing_plan_id":"cebpf4jnsgd1na2vs0mg"},{"bike_id":"0e39ba31-93d4-4574-a5b9-c64786bcebce","system_id":"levelo_inurba_marseille","lat":43.27803,"lon":5.37716,"is_reserved":false,"is_disabled":false,"rental_uris":{"android":"levelo://app?vid=0e39ba31-93d4-4574-a5b9-c64786bcebce","ios":"levelo://app?vid=0e39ba31-93d4-4574-a5b9-c64786bcebce"},"vehicle_type_id":"4","last_reported":1759256057,"current_range_meters":14400,"station_id":"","pricing_plan_id":"cebpf4jnsgd1na2vs0mg"},{"bike_id":"364f0170-a95d-479a-adef-9be37190191b","system_id":"levelo_inurba_marseille","lat":43.27311,"lon":5.39081,"is_reserved":false,"is_disabled":false,"rental_uris":{"android":"levelo://app?vid=364f0170-a95d-479a-adef-9be37190191b","ios":"levelo://app?vid=364f0170-a95d-479a-adef-9be37190191b"},"vehicle_type_id":"4","last_reported":1759256057,"current_range_meters":14400,"station_id":"ce4bhgp2rcd13ifvqfe0","pricing_plan_id":"cebpf4jnsgd1na2vs0mg"},{"bike_id":"ed7d28f4-4737-4c42-ad0a-4764073c54bd","system_id":"levelo_inurba_marseille","lat":43.27951,"lon":5.41041,"is_reserved":false,"is_disabled":false,"rental_uris":{"android":"levelo://app?vid=ed7d28f4-4737-4c42-ad0a-4764073c54bd","ios":"levelo://app?vid=ed7d28f4-4737-4c42-ad0a-4764073c54bd"},"vehicle_type_id":"4","last_reported":1759256057,"current_range_meters":14400,"station_id":"ce4bhnp2rcd13ifvqh0g","pricing_plan_id":"cebpf4jnsgd1na2vs0mg"},{"bike_id":"be51a128-c3e1-46dc-87ee-fcdcd1d56e01","system_id":"levelo_inurba_marseille","lat":43.29268,"lon":5.36853,"is_reserved":false,"is_disabled":false,"rental_uris":{"android":"levelo://app?vid=be51a128-c3e1-46dc-87ee-fcdcd1d56e01","ios":"levelo://app?vid=be51a128-c3e1-46dc-87ee-fcdcd1d56e01"},"vehicle_type_id":"4","last_reported":1759256057,"current_range_meters":14400,"station_id":"ce4bhbp2rcd13ifvqesg","pricing_plan_id":"cebpf4jnsgd1na2vs0mg"},{"bike_id":"627f0009-c086-4f8a-8406-c08f3975bb85","system_id":"levelo_inurba_marseille","lat":43.337914,"lon":5.374267,"is_reserved":false,"is_disabled":false,"rental_uris":{"android":"levelo://app?vid=627f0009-c086-4f8a-8406-c08f3975bb85","ios":"levelo://app?vid=627f0009-c086-4f8a-8406-c08f3975bb85"},"vehicle_type_id":"4","last_reported":1759256057,"current_range_meters":14400,"station_id":"","pricing_plan_id":"cebpf4jnsgd1na2vs0mg"},{"bike_id":"4dc010d5-14ff-47a7-a396-979649193dca","system_id":"levelo_inurba_marseille","lat":43.24958,"lon":5.4049,"is_reserved":false,"is_disabled":false,"rental_uris":{"android":"levelo://app?vid=4dc010d5-14ff-47a7-a396-979649193dca","ios":"levelo://app?vid=4dc010d5-14ff-47a7-a396-979649193dca"},"vehicle_type_id":"4","last_reported":1759256057,"current_range_meters":14800,"station_id":"st_d2ngiaodas8pm72gd1h0","pricing_plan_id":"cebpf4jnsgd1na2vs0mg"},{"bike_id":"44050f58-45ea-495d-99e2-32cde845c8fb","system_id":"levelo_inurba_marseille","lat":43.24646,"lon":5.38903,"is_reserved":false,"is_disabled":false,"rental_uris":{"android":"levelo://app?vid=44050f58-45ea-495d-99e2-32cde845c8fb","ios":"levelo://app?vid=44050f58-45ea-495d-99e2-32cde845c8fb"},"vehicle_type_id":"4","last_reported":1759256057,"current_range_meters":14800,"station_id":"ce4bhg12rcd13ifvqf60","pricing_plan_id":"cebpf4jnsgd1na2vs0mg"},{"bike_id":"805731f5-6911-4fc8-9eed-f07fded70f5b","system_id":"levelo_inurba_marseille","lat":43.31744,"lon":5.42394,"is_reserved":false,"is_disabled":false,"rental_uris":{"android":"levelo://app?vid=805731f5-6911-4fc8-9eed-f07fded70f5b","ios":"levelo://app?vid=805731f5-6911-4fc8-9eed-f07fded70f5b"},"vehicle_type_id":"4","last_reported":1759256057,"current_range_meters":14800,"station_id":"ce4bhp92rcd13ifvqhbg","pricing_plan_id":"cebpf4jnsgd1na2vs0mg"},{"bike_id":"dd01d986-9c0b-4d0d-adea-07221661df6f","system_id":"levelo_inurba_marseille","lat":43.27305,"lon":5.39093,"is_reserved":false,"is_disabled":false,"rental_uris":{"android":"levelo://app?vid=dd01d986-9c0b-4d0d-adea-07221661df6f","ios":"levelo://app?vid=dd01d986-9c0b-4d0d-adea-07221661df6f"},"vehicle_type_id":"4","last_reported":1759256057,"current_range_meters":14800,"station_id":"ce4bhgp2rcd13ifvqfe0","pricing_plan_id":"cebpf4jnsgd1na2vs0mg"},{"bike_id":"e0bdbcc5-395f-4012-98db-f9713f9ed510","system_id":"levelo_inurba_marseille","lat":43.2719,"lon":5.40985,"is_reserved":false,"is_disabled":false,"rental_uris":{"android":"levelo://app?vid=e0bdbcc5-395f-4012-98db-f9713f9ed510","ios":"levelo://app?vid=e0bdbcc5-395f-4012-98db-f9713f9ed510"},"vehicle_type_id":"4","last_reported":1759256057,"current_range_meters":14800,"station_id":"ce4bhl12rcd13ifvqgf0","pricing_plan_id":"cebpf4jnsgd1na2vs0mg"},{"bike_id":"8f28579c-964b-47b2-8b30-08749861463b","system_id":"levelo_inurba_marseille","lat":43.21747,"lon":5.346,"is_reserved":false,"is_disabled":true,"rental_uris":{"android":"levelo://app?vid=8f28579c-964b-47b2-8b30-08749861463b","ios":"levelo://app?vid=8f28579c-964b-47b2-8b30-08749861463b"},"vehicle_type_id":"4","last_reported":1759256057,"current_range_meters":14800,"station_id":"st_cvj6r9ubvosntc0bgbag","pricing_plan_id":"cebpf4jnsgd1na2vs0mg"},{"bike_id":"fa3e6782-c198-4993-bfc8-ba4949faaf19","system_id":"levelo_inurba_marseille","lat":43.21199,"lon":5.3508,"is_reserved":false,"is_disabled":true,"rental_uris":{"android":"levelo://app?vid=fa3e6782-c198-4993-bfc8-ba4949faaf19","ios":"levelo://app?vid=fa3e6782-c198-4993-bfc8-ba4949faaf19"},"vehicle_type_id":"4","last_reported":1759256057,"current_range_meters":15200,"station_id":"","pricing_plan_id":"cebpf4jnsgd1na2vs0mg"},{"bike_id":"cc75e5de-52f4-47cd-a83a-a6a8735a3a68","system_id":"levelo_inurba_marseille","lat":43.29319,"lon":5.36846,"is_reserved":false,"is_disabled":true,"rental_uris":{"android":"levelo://app?vid=cc75e5de-52f4-47cd-a83a-a6a8735a3a68","ios":"levelo://app?vid=cc75e5de-52f4-47cd-a83a-a6a8735a3a68"},"vehicle_type_id":"4","last_reported":1759256057,"current_range_meters":15200,"station_id":"ce4bhbp2rcd13ifvqesg","pricing_plan_id":"cebpf4jnsgd1na2vs0mg"},{"bike_id":"9d9eab91-09ee-4dba-9e43-693f65ea7df4","system_id":"levelo_inurba_marseille","lat":43.27318,"lon":5.39074,"is_reserved":false,"is_disabled":false,"rental_uris":{"android":"levelo://app?vid=9d9eab91-09ee-4dba-9e43-693f65ea7df4","ios":"levelo://app?vid=9d9eab91-09ee-4dba-9e43-693f65ea7df4"},"vehicle_type_id":"4","last_reported":1759256057,"current_range_meters":15200,"station_id":"ce4bhgp2rcd13ifvqfe0","pricing_plan_id":"cebpf4jnsgd1na2vs0mg"},{"bike_id":"ee94eda5-f40b-4168-a57a-bf8989940e9c","system_id":"levelo_inurba_marseille","lat":43.32455,"lon":5.36566,"is_reserved":false,"is_disabled":false,"rental_uris":{"android":"levelo://app?vid=ee94eda5-f40b-4168-a57a-bf8989940e9c","ios":"levelo://app?vid=ee94eda5-f40b-4168-a57a-bf8989940e9c"},"vehicle_type_id":"4","last_reported":1759256057,"current_range_meters":15200,"station_id":"ce4bhs12rcd13ifvqhvg","pricing_plan_id":"cebpf4jnsgd1na2vs0mg"},{"bike_id":"4a2c0959-f58d-4ced-b3f5-f81746ccb009","system_id":"levelo_inurba_marseille","lat":43.29504,"lon":5.38715,"is_reserved":false,"is_disabled":false,"rental_uris":{"android":"levelo://app?vid=4a2c0959-f58d-4ced-b3f5-f81746ccb009","ios":"levelo://app?vid=4a2c0959-f58d-4ced-b3f5-f81746ccb009"},"vehicle_type_id":"4","last_reported":1759256057,"current_range_meters":15200,"station_id":"ce4bgih2rcd13ifvqba0","pricing_plan_id":"cebpf4jnsgd1na2vs0mg"},{"bike_id":"9dcbe79a-3457-4612-ba38-e3ad3a43d1b0","system_id":"levelo_inurba_marseille","lat":43.27452,"lon":5.39422,"is_reserved":false,"is_disabled":false,"rental_uris":{"android":"levelo://app?vid=9dcbe79a-3457-4612-ba38-e3ad3a43d1b0","ios":"levelo://app?vid=9dcbe79a-3457-4612-ba38-e3ad3a43d1b0"},"vehicle_type_id":"4","last_reported":1759256057,"current_range_meters":15200,"station_id":"ce4bhdp2rcd13ifvqf20","pricing_plan_id":"cebpf4jnsgd1na2vs0mg"},{"bike_id":"03269b69-4705-4e84-ab13-e45b2f6eda44","system_id":"levelo_inurba_marseille","lat":43.2706,"lon":5.40259,"is_reserved":false,"is_disabled":false,"rental_uris":{"android":"levelo://app?vid=03269b69-4705-4e84-ab13-e45b2f6eda44","ios":"levelo://app?vid=03269b69-4705-4e84-ab13-e45b2f6eda44"},"vehicle_type_id":"4","last_reported":1759256057,"current_range_meters":15200,"station_id":"ce4bhk92rcd13ifvqgc0","pricing_plan_id":"cebpf4jnsgd1na2vs0mg"},{"bike_id":"88830459-350b-49a4-bfeb-7367b9934a31","system_id":"levelo_inurba_marseille","lat":43.311204,"lon":5.377695,"is_reserved":false,"is_disabled":false,"rental_uris":{"android":"levelo://app?vid=88830459-350b-49a4-bfeb-7367b9934a31","ios":"levelo://app?vid=88830459-350b-49a4-bfeb-7367b9934a31"},"vehicle_type_id":"4","last_reported":1759256057,"current_range_meters":15200,"station_id":"ce4bgt92rcd13ifvqcg0","pricing_plan_id":"cebpf4jnsgd1na2vs0mg"},{"bike_id":"d26afb80-4635-4b5c-9bc4-5bfef9ff7a7f","system_id":"levelo_inurba_marseille","lat":43.31267,"lon":5.40175,"is_reserved":false,"is_disabled":false,"rental_uris":{"android":"levelo://app?vid=d26afb80-4635-4b5c-9bc4-5bfef9ff7a7f","ios":"levelo://app?vid=d26afb80-4635-4b5c-9bc4-5bfef9ff7a7f"},"vehicle_type_id":"4","last_reported":1759256057,"current_range_meters":14800,"station_id":"ce4bh092rcd13ifvqd30","pricing_plan_id":"cebpf4jnsgd1na2vs0mg"},{"bike_id":"d15fbb95-dad9-4fe0-852a-3ce658746273","system_id":"levelo_inurba_marseille","lat":43.27954,"lon":5.41056,"is_reserved":false,"is_disabled":false,"rental_uris":{"android":"levelo://app?vid=d15fbb95-dad9-4fe0-852a-3ce658746273","ios":"levelo://app?vid=d15fbb95-dad9-4fe0-852a-3ce658746273"},"vehicle_type_id":"4","last_reported":1759256057,"current_range_meters":15200,"station_id":"ce4bhnp2rcd13ifvqh0g","pricing_plan_id":"cebpf4jnsgd1na2vs0mg"},{"bike_id":"566ef4e8-d234-4aba-87c8-34f90d8fc1ec","system_id":"levelo_inurba_marseille","lat":43.27326,"lon":5.39084,"is_reserved":false,"is_disabled":false,"rental_uris":{"android":"levelo://app?vid=566ef4e8-d234-4aba-87c8-34f90d8fc1ec","ios":"levelo://app?vid=566ef4e8-d234-4aba-87c8-34f90d8fc1ec"},"vehicle_type_id":"4","last_reported":1759256057,"current_range_meters":15200,"station_id":"ce4bhgp2rcd13ifvqfe0","pricing_plan_id":"cebpf4jnsgd1na2vs0mg"},{"bike_id":"50a6d9be-879d-4d99-9855-abb98fbce5b8","system_id":"levelo_inurba_marseille","lat":43.337851,"lon":5.374298,"is_reserved":false,"is_disabled":false,"rental_uris":{"android":"levelo://app?vid=50a6d9be-879d-4d99-9855-abb98fbce5b8","ios":"levelo://app?vid=50a6d9be-879d-4d99-9855-abb98fbce5b8"},"vehicle_type_id":"4","last_reported":1759256057,"current_range_meters":15200,"station_id":"","pricing_plan_id":"cebpf4jnsgd1na2vs0mg"},{"bike_id":"579e647f-e563-452f-8220-8eb488d7f77c","system_id":"levelo_inurba_marseille","lat":43.29265,"lon":5.38448,"is_reserved":false,"is_disabled":false,"rental_uris":{"android":"levelo://app?vid=579e647f-e563-452f-8220-8eb488d7f77c","ios":"levelo://app?vid=579e647f-e563-452f-8220-8eb488d7f77c"},"vehicle_type_id":"4","last_reported":1759256057,"current_range_meters":16000,"station_id":"ce4bh692rcd13ifvqea0","pricing_plan_id":"cebpf4jnsgd1na2vs0mg"},{"bike_id":"20413c20-2d3d-4232-a0bb-172c99732cab","system_id":"levelo_inurba_marseille","lat":43.23184,"lon":5.39996,"is_reserved":false,"is_disabled":false,"rental_uris":{"android":"levelo://app?vid=20413c20-2d3d-4232-a0bb-172c99732cab","ios":"levelo://app?vid=20413c20-2d3d-4232-a0bb-172c99732cab"},