{"last_updated":1745313079,"ttl":60,"version":"2.2","data":{"bikes":[{"bike_id":"eea97258-4a8a-478d-970d-ed5e4bd3c92c","system_id":"levelo_inurba_marseille","lat":43.32065,"lon":5.41012,"is_reserved":false,"is_disabled":false,"rental_uris":{"android":"levelo://app?vid=eea97258-4a8a-478d-970d-ed5e4bd3c92c","ios":"levelo://app?vid=eea97258-4a8a-478d-970d-ed5e4bd3c92c"},"vehicle_type_id":"4","last_reported":1745313079,"current_range_meters":2800,"station_id":"","pricing_plan_id":"cebpf4jnsgd1na2vs0mg"},{"bike_id":"5f9b3e38-8d45-420f-8890-3389832d06e3","system_id":"levelo_inurba_marseille","lat":43.32359,"lon":5.36749,"is_reserved":false,"is_disabled":false,"rental_uris":{"android":"levelo://app?vid=5f9b3e38-8d45-420f-8890-3389832d06e3","ios":"levelo://app?vid=5f9b3e38-8d45-420f-8890-3389832d06e3"},"vehicle_type_id":"4","last_reported":1745313079,"current_range_meters":2800,"station_id":"ce4bhsh2rcd13ifvqi2g","pricing_plan_id":"cebpf4jnsgd1na2vs0mg"},{"bike_id":"bfefb57c-154e-4cbc-90d7-24ac4b95745f","system_id":"levelo_inurba_marseille","lat":43.31039,"lon":5.37085,"is_reserved":false,"is_disabled":false,"rental_uris":{"android":"levelo://app?vid=bfefb57c-154e-4cbc-90d7-24ac4b95745f","ios":"levelo://app?vid=bfefb57c-154e-4cbc-90d7-24ac4b95745f"},"vehicle_type_id":"4","last_reported":1745313079,"current_range_meters":3200,"station_id":"","pricing_plan_id":"cebpf4jnsgd1na2vs0mg"},{"bike_id":"afcf9a1e-0a1b-425e-8676-509c93040b99","system_id":"levelo_inurba_marseille","lat":43.27494,"lon":5.42488,"is_reserved":false,"is_disabled":true,"rental_uris":{"android":"levelo://app?vid=afcf9a1e-0a1b-425e-8676-509c93040b99","ios":"levelo://app?vid=afcf9a1e-0a1b-425e-8676-509c93040b99"},"vehicle_type_id":"4","last_reported":1745313079,"current_range_meters":3600,"station_id":"ce4bhn92rcd13ifvqgrg","pricing_plan_id":"cebpf4jnsgd1na2vs0mg"},{"bike_id":"6b8c5397-4654-4c8b-bdde-8a91f6819cb1","system_id":"levelo_inurba_marseille","lat":43.2695,"lon":5.40271,"is_reserved":false,"is_disabled":false,"rental_uris":{"android":"levelo://app?vid=6b8c5397-4654-4c8b-bdde-8a91f6819cb1","ios":"levelo://app?vid=6b8c5397-4654-4c8b-bdde-8a91f6819cb1"},"vehicle_type_id":"4","last_reported":1745313079,"current_range_meters":3600,"station_id":"cjm6bp8fraef2m0cb0m0","pricing_plan_id":"cebpf4jnsgd1na2vs0mg"},{"bike_id":"722287b9-9f57-4067-8bad-174fa01c1b39","system_id":"levelo_inurba_marseille","lat":43.30952,"lon":5.39019,"is_reserved":false,"is_disabled":false,"rental_uris":{"android":"levelo://app?vid=722287b9-9f57-4067-8bad-174fa01c1b39","ios":"levelo://app?vid=722287b9-9f57-4067-8bad-174fa01c1b39"},"vehicle_type_id":"4","last_reported":1745313079,"current_range_meters":3600,"station_id":"ce4bgup2rcd13ifvqco0","pricing_plan_id":"cebpf4jnsgd1na2vs0mg"},{"bike_id":"55cf62d4-6e35-4714-a3ac-d809698d7782","system_id":"levelo_inurba_marseille","lat":43.26213,"lon":5.37445,"is_reserved":false,"is_disabled":false,"rental_uris":{"android":"levelo://app?vid=55cf62d4-6e35-4714-a3ac-d809698d7782","ios":"levelo://app?vid=55cf62d4-6e35-4714-a3ac-d809698d7782"},"vehicle_type_id":"4","last_reported":1745313079,"current_range_meters":3600,"station_id":"ce4bhgp2rcd13ifvqfc0","pricing_plan_id":"cebpf4jnsgd1na2vs0mg"},{"bike_id":"fa4fe36a-5379-48b7-a3b3-0b18c73113b1","system_id":"levelo_inurba_marseille","lat":43.29261,"lon":5.38437,"is_reserved":false,"is_disabled":false,"rental_uris":{"android":"levelo://app?vid=fa4fe36a-5379-48b7-a3b3-0b18c73113b1","ios":"levelo://app?vid=fa4fe36a-5379-48b7-a3b3-0b18c73113b1"},"vehicle_type_id":"4","last_reported":1745313079,"current_range_meters":3200,"station_id":"ce4bh692rcd13ifvqea0","pricing_plan_id":"cebpf4jnsgd1na2vs0mg"},{"bike_id":"abf7db10-872f-4680-b251-1e0b85f5da23","system_id":"levelo_inurba_marseille","lat":43.31259,"lon":5.36863,"is_reserved":false,"is_disabled":false,"rental_uris":{"android":"levelo://app?vid=abf7db10-872f-4680-b251-1e0b85f5da23","ios":"levelo://app?vid=abf7db10-872f-4680-b251-1e0b85f5da23"},"vehicle_type_id":"4","last_reported":1745313079,"current_range_meters":4000,"station_id":"ce4bgl92rcd13ifvqbq0","pricing_plan_id":"cebpf4jnsgd1na2vs0mg"},{"bike_id":"9b05a036-ff30-4b3e-a978-ede4f47e67c0","system_id":"levelo_inurba_marseille","lat":43.26566,"lon":5.39028,"is_reserved":false,"is_disabled":true,"rental_uris":{"android":"levelo://app?vid=9b05a036-ff30-4b3e-a978-ede4f47e67c0","ios":"levelo://app?vid=9b05a036-ff30-4b3e-a978-ede4f47e67c0"},"vehicle_type_id":"4","last_reported":1745313079,"current_range_meters":4000,"station_id":"ce4bhe12rcd13ifvqf30","pricing_plan_id":"cebpf4jnsgd1na2vs0mg"},{"bike_id":"4da9d161-41bb-492a-b5f8-703babc90003","system_id":"levelo_inurba_marseille","lat":43.269138,"lon":5.3891,"is_reserved":false,"is_disabled":false,"rental_uris":{"android":"levelo://app?vid=4da9d161-41bb-492a-b5f8-703babc90003","ios":"levelo://app?vid=4da9d161-41bb-492a-b5f8-703babc90003"},"vehicle_type_id":"4","last_reported":1745313079,"current_range_meters":4400,"station_id":"ce4bhhh2rcd13ifvqfl0","pricing_plan_id":"cebpf4jnsgd1na2vs0mg"},{"bike_id":"c323d574-0ab5-4582-a054-717ede87c6f2","system_id":"levelo_inurba_marseille","lat":43.3054,"lon":5.36693,"is_reserved":false,"is_disabled":false,"rental_uris":{"android":"levelo://app?vid=c323d574-0ab5-4582-a054-717ede87c6f2","ios":"levelo://app?vid=c323d574-0ab5-4582-a054-717ede87c6f2"},"vehicle_type_id":"4","last_reported":1745313079,"current_range_meters":4400,"station_id":"ce4bgrp2rcd13ifvqc9g","pricing_plan_id":"cebpf4jnsgd1na2vs0mg"},{"bike_id":"1db8b594-efdb-4675-8750-5f8ba9beef27","system_id":"levelo_inurba_marseille","lat":43.30272,"lon":5.37677,"is_reserved":false,"is_disabled":false,"rental_uris":{"android":"levelo://app?vid=1db8b594-efdb-4675-8750-5f8ba9beef27","ios":"levelo://app?vid=1db8b594-efdb-4675-8750-5f8ba9beef27"},"vehicle_type_id":"4","last_reported":1745313079,"current_range_meters":4800,"station_id":"ce4bguh2rcd13ifvqcj0","pricing_plan_id":"cebpf4jnsgd1na2vs0mg"},{"bike_id":"185b165b-64bc-4c1c-ab4c-7a441cd6a5ad","system_id":"levelo_inurba_marseille","lat":43.270698,"lon":5.422796,"is_reserved":false,"is_disabled":false,"rental_uris":{"android":"levelo://app?vid=185b165b-64bc-4c1c-ab4c-7a441cd6a5ad","ios":"levelo://app?vid=185b165b-64bc-4c1c-ab4c-7a441cd6a5ad"},"vehicle_type_id":"4","last_reported":1745313079,"current_range_meters":4800,"station_id":"ce4bhk92rcd13ifvqgb0","pricing_plan_id":"cebpf4jnsgd1na2vs0mg"},{"bike_id":"b052ef0c-d0c2-401c-ba89-42f7f5e25ea3","system_id":"levelo_inurba_marseille","lat":43.313428,"lon":5.36712,"is_reserved":false,"is_disabled":false,"rental_uris":{"android":"levelo://app?vid=b052ef0c-d0c2-401c-ba89-42f7f5e25ea3","ios":"levelo://app?vid=b052ef0c-d0c2-401c-ba89-42f7f5e25ea3"},"vehicle_type_id":"4","last_reported":1745313079,"current_range_meters":4800,"station_id":"ce4bgr92rcd13ifvqc6g","pricing_plan_id":"cebpf4jnsgd1na2vs0mg"},{"bike_id":"dd27922d-4b8c-4657-beeb-eefa896c6684","system_id":"levelo_inurba_marseille","lat":43.309522,"lon":5.390368,"is_reserved":false,"is_disabled":false,"rental_uris":{"android":"levelo://app?vid=dd27922d-4b8c-4657-beeb-eefa896c6684","ios":"levelo://app?vid=dd27922d-4b8c-4657-beeb-eefa896c6684"},"vehicle_type_id":"4","last_reported":1745313079,"current_range_meters":5600,"station_id":"ce4bgup2rcd13ifvqco0","pricing_plan_id":"cebpf4jnsgd1na2vs0mg"},{"bike_id":"9debd51d-93a8-42bc-a1c8-6388e573dade","system_id":"levelo_inurba_marseille","lat":43.31473,"lon":5.37274,"is_reserved":false,"is_disabled":false,"rental_uris":{"android":"levelo://app?vid=9debd51d-93a8-42bc-a1c8-6388e573dade","ios":"levelo://app?vid=9debd51d-93a8-42bc-a1c8-6388e573dade"},"vehicle_type_id":"4","last_reported":1745313079,"current_range_meters":5600,"station_id":"ce4bgt12rcd13ifvqcd0","pricing_plan_id":"cebpf4jnsgd1na2vs0mg"},{"bike_id":"d1d991cf-64ed-4090-887e-40f0e4cc9c3b","system_id":"levelo_inurba_marseille","lat":43.30904,"lon":5.37185,"is_reserved":false,"is_disabled":false,"rental_uris":{"android":"levelo://app?vid=d1d991cf-64ed-4090-887e-40f0e4cc9c3b","ios":"levelo://app?vid=d1d991cf-64ed-4090-887e-40f0e4cc9c3b"},"vehicle_type_id":"4","last_reported":1745313079,"current_range_meters":5600,"station_id":"ce4bguh2rcd13ifvqckg","pricing_plan_id":"cebpf4jnsgd1na2vs0mg"},{"bike_id":"8a9e90f8-3099-4314-a444-49e071f31066","system_id":"levelo_inurba_marseille","lat":43.246569,"lon":5.381673,"is_reserved":false,"is_disabled":false,"rental_uris":{"android":"levelo://app?vid=8a9e90f8-3099-4314-a444-49e071f31066","ios":"levelo://app?vid=8a9e90f8-3099-4314-a444-49e071f31066"},"vehicle_type_id":"4","last_reported":1745313079,"current_range_meters":5600,"station_id":"ce4bhg12rcd13ifvqf60","pricing_plan_id":"cebpf4jnsgd1na2vs0mg"},{"bike_id":"2d628a87-8cf4-4bc4-a846-ec58fc3b7e3f","system_id":"levelo_inurba_marseille","lat":43.28474,"lon":5.38422,"is_reserved":false,"is_disabled":false,"rental_uris":{"android":"levelo://app?vid=2d628a87-8cf4-4bc4-a846-ec58fc3b7e3f","ios":"levelo://app?vid=2d628a87-8cf4-4bc4-a846-ec58fc3b7e3f"},"vehicle_type_id":"4","last_reported":1745313079,"current_range_meters":6000,"station_id":"ce4bh512rcd13ifvqe3g","pricing_plan_id":"cebpf4jnsgd1na2vs0mg"},{"bike_id":"14814e23-e7ca-4cbd-ab62-fe28199760a7","system_id":"levelo_inurba_marseille","lat":43.31215,"lon":5.36854,"is_reserved":false,"is_disabled":false,"rental_uris":{"android":"levelo://app?vid=14814e23-e7ca-4cbd-ab62-fe28199760a7","ios":"levelo://app?vid=14814e23-e7ca-4cbd-ab62-fe28199760a7"},"vehicle_type_id":"4","last_reported":1745313079,"current_range_meters":6000,"station_id":"ce4bgl92rcd13ifvqbq0","pricing_plan_id":"cebpf4jnsgd1na2vs0mg"},{"bike_id":"233c1f3c-9603-452b-9ace-3428d0af39d5","system_id":"levelo_inurba_marseille","lat":43.25932,"lon":5.40911,"is_reserved":false,"is_disabled":true,"rental_uris":{"android":"levelo://app?vid=233c1f3c-9603-452b-9ace-3428d0af39d5","ios":"levelo://app?vid=233c1f3c-9603-452b-9ace-3428d0af39d5"},"vehicle_type_id":"4","last_reported":1745313079,"current_range_meters":6400,"station_id":"ce4bhm92rcd13ifvqglg","pricing_plan_id":"cebpf4jnsgd1na2vs0mg"},{"bike_id":"8cf0b5a1-cb23-4bf0-b9f9-534dbb2d6a09","system_id":"levelo_inurba_marseille","lat":43.25586,"lon":5.38218,"is_reserved":false,"is_disabled":false,"rental_uris":{"android":"levelo://app?vid=8cf0b5a1-cb23-4bf0-b9f9-534dbb2d6a09","ios":"levelo://app?vid=8cf0b5a1-cb23-4bf0-b9f9-534dbb2d6a09"},"vehicle_type_id":"4","last_reported":1745313079,"current_range_meters":6400,"station_id":"ce4bhih2rcd13ifvqfs0","pricing_plan_id":"cebpf4jnsgd1na2vs0mg"},{"bike_id":"08adba7b-eac3-4cfc-9923-2ccf0cc4ffef","system_id":"levelo_inurba_marseille","lat":43.24558,"lon":5.41299,"is_reserved":false,"is_disabled":false,"rental_uris":{"android":"levelo://app?vid=08adba7b-eac3-4cfc-9923-2ccf0cc4ffef","ios":"levelo://app?vid=08adba7b-eac3-4cfc-9923-2ccf0cc4ffef"},"vehicle_type_id":"4","last_reported":1745313079,"current_range_meters":6400,"station_id":"","pricing_plan_id":"cebpf4jnsgd1na2vs0mg"},{"bike_id":"5cbbf0cc-2c2f-4489-808c-66777508e098","system_id":"levelo_inurba_marseille","lat":43.29593,"lon":5.38106,"is_reserved":false,"is_disabled":false,"rental_uris":{"android":"levelo://app?vid=5cbbf0cc-2c2f-4489-808c-66777508e098","ios":"levelo://app?vid=5cbbf0cc-2c2f-4489-808c-66777508e098"},"vehicle_type_id":"4","last_reported":1745313079,"current_range_meters":6400,"station_id":"ce4bgl12rcd13ifvqbo0","pricing_plan_id":"cebpf4jnsgd1na2vs0mg"},{"bike_id":"b025dbf8-36e8-483d-ad6b-b558d54b86cc","system_id":"levelo_inurba_marseille","lat":43.262255,"lon":5.4045,"is_reserved":false,"is_disabled":false,"rental_uris":{"android":"levelo://app?vid=b025dbf8-36e8-483d-ad6b-b558d54b86cc","ios":"levelo://app?vid=b025dbf8-36e8-483d-ad6b-b558d54b86cc"},"vehicle_type_id":"4","last_reported":1745313079,"current_range_meters":6800,"station_id":"ce4bhmh2rcd13ifvqgmg","pricing_plan_id":"cebpf4jnsgd1na2vs0mg"},{"bike_id":"39fa0447-b915-4d32-b1c5-df324dda8a4b","system_id":"levelo_inurba_marseille","lat":43.27501,"lon":5.42476,"is_reserved":false,"is_disabled":false,"rental_uris":{"android":"levelo://app?vid=39fa0447-b915-4d32-b1c5-df324dda8a4b","ios":"levelo://app?vid=39fa0447-b915-4d32-b1c5-df324dda8a4b"},"vehicle_type_id":"4","last_reported":1745313079,"current_range_meters":6800,"station_id":"ce4bhn92rcd13ifvqgrg","pricing_plan_id":"cebpf4jnsgd1na2vs0mg"},{"bike_id":"2f4bf41e-be46-4fda-a8bb-bb236b8a0f57","system_id":"levelo_inurba_marseille","lat":43.31219,"lon":5.368463,"is_reserved":false,"is_disabled":false,"rental_uris":{"android":"levelo://app?vid=2f4bf41e-be46-4fda-a8bb-bb236b8a0f57","ios":"levelo://app?vid=2f4bf41e-be46-4fda-a8bb-bb236b8a0f57"},"vehicle_type_id":"4","last_reported":1745313079,"current_range_meters":6800,"station_id":"ce4bgl92rcd13ifvqbq0","pricing_plan_id":"cebpf4jnsgd1na2vs0mg"},{"bike_id":"8af015a3-0361-4ace-b11d-0191a92a2fcb","system_id":"levelo_inurba_marseille","lat":43.3136,"lon":5.38489,"is_reserved":false,"is_disabled":false,"rental_uris":{"android":"levelo://app?vid=8af015a3-0361-4ace-b11d-0191a92a2fcb","ios":"levelo://app?vid=8af015a3-0361-4ace-b11d-0191a92a2fcb"},"vehicle_type_id":"4","last_reported":1745313079,"current_range_meters":7200,"station_id":"ce4bgt92rcd13ifvqcf0","pricing_plan_id":"cebpf4jnsgd1na2vs0mg"},{"bike_id":"b9dca5bb-da7a-4595-b834-d5572efaa78c","system_id":"levelo_inurba_marseille","lat":43.26993,"lon":5.42264,"is_reserved":false,"is_disabled":true,"rental_uris":{"android":"levelo://app?vid=b9dca5bb-da7a-4595-b834-d5572efaa78c","ios":"levelo://app?vid=b9dca5bb-da7a-4595-b834-d5572efaa78c"},"vehicle_type_id":"4","last_reported":1745313079,"current_range_meters":7200,"station_id":"ce4bhk92rcd13ifvqgb0","pricing_plan_id":"cebpf4jnsgd1na2vs0mg"},{"bike_id":"255eaf96-5067-4c5c-a992-5999c2c43f09","system_id":"levelo_inurba_marseille","lat":43.3204,"lon":5.41568,"is_reserved":false,"is_disabled":false,"rental_uris":{"android":"levelo://app?vid=255eaf96-5067-4c5c-a992-5999c2c43f09","ios":"levelo://app?vid=255eaf96-5067-4c5c-a992-5999c2c43f09"},"vehicle_type_id":"4","last_reported":1745313079,"current_range_meters":7200,"station_id":"ce4bhq92rcd13ifvqhkg","pricing_plan_id":"cebpf4jnsgd1na2vs0mg"},{"bike_id":"cb96f92b-c3ad-4778-8436-49f574005f88","system_id":"levelo_inurba_marseille","lat":43.275,"lon":5.42483,"is_reserved":false,"is_disabled":false,"rental_uris":{"android":"levelo://app?vid=cb96f92b-c3ad-4778-8436-49f574005f88","ios":"levelo://app?vid=cb96f92b-c3ad-4778-8436-49f574005f88"},"vehicle_type_id":"4","last_reported":1745313079,"current_range_meters":7200,"station_id":"ce4bhn92rcd13ifvqgrg","pricing_plan_id":"cebpf4jnsgd1na2vs0mg"},{"bike_id":"1eefdb70-f50e-4ba8-a3c9-f275b947e40e","system_id":"levelo_inurba_marseille","lat":43.274986,"lon":5.424514,"is_reserved":false,"is_disabled":false,"rental_uris":{"android":"levelo://app?vid=1eefdb70-f50e-4ba8-a3c9-f275b947e40e","ios":"levelo://app?vid=1eefdb70-f50e-4ba8-a3c9-f275b947e40e"},"vehicle_type_id":"4","last_reported":1745313079,"current_range_meters":7200,"station_id":"ce4bhn92rcd13ifvqgrg","pricing_plan_id":"cebpf4jnsgd1na2vs0mg"},{"bike_id":"80349d4c-4a0e-48a3-a927-7fee52468c5c","system_id":"levelo_inurba_marseille","lat":43.323583,"lon":5.36724,"is_reserved":false,"is_disabled":false,"rental_uris":{"android":"levelo://app?vid=80349d4c-4a0e-48a3-a927-7fee52468c5c","ios":"levelo://app?vid=80349d4c-4a0e-48a3-a927-7fee52468c5c"},"vehicle_type_id":"4","last_reported":1745313079,"current_range_meters":8000,"station_id":"ce4bhsh2rcd13ifvqi2g","pricing_plan_id":"cebpf4jnsgd1na2vs0mg"},{"bike_id":"6fd03af9-7c6e-4b0a-b29f-3c73b47dd294","system_id":"levelo_inurba_marseille","lat":43.28707,"lon":5.3998,"is_reserved":false,"is_disabled":true,"rental_uris":{"android":"levelo://app?vid=6fd03af9-7c6e-4b0a-b29f-3c73b47dd294","ios":"levelo://app?vid=6fd03af9-7c6e-4b0a-b29f-3c73b47dd294"},"vehicle_type_id":"4","last_reported":1745313079,"current_range_meters":8000,"station_id":"ce4bho92rcd13ifvqh3g","pricing_plan_id":"cebpf4jnsgd1na2vs0mg"},{"bike_id":"e1743966-9138-4d25-b902-9596b7b8672a","system_id":"levelo_inurba_marseille","lat":43.30098,"lon":5.39077,"is_reserved":false,"is_disabled":true,"rental_uris":{"android":"levelo://app?vid=e1743966-9138-4d25-b902-9596b7b8672a","ios":"levelo://app?vid=e1743966-9138-4d25-b902-9596b7b8672a"},"vehicle_type_id":"4","last_reported":1745313079,"current_range_meters":8000,"station_id":"ce4bh192rcd13ifvqdb0","pricing_plan_id":"cebpf4jnsgd1na2vs0mg"},{"bike_id":"34166cb2-24d1-48d4-88e5-65264e3a037d","system_id":"levelo_inurba_marseille","lat":43.31051,"lon":5.37111,"is_reserved":false,"is_disabled":false,"rental_uris":{"android":"levelo://app?vid=34166cb2-24d1-48d4-88e5-65264e3a037d","ios":"levelo://app?vid=34166cb2-24d1-48d4-88e5-65264e3a037d"},"vehicle_type_id":"4","last_reported":1745313079,"current_range_meters":8000,"station_id":"","pricing_plan_id":"cebpf4jnsgd1na2vs0mg"},{"bike_id":"a6195d1a-7ca0-4509-b788-6b7202ede2bf","system_id":"levelo_inurba_marseille","lat":43.29978,"lon":5.37179,"is_reserved":false,"is_disabled":false,"rental_uris":{"android":"levelo://app?vid=a6195d1a-7ca0-4509-b788-6b7202ede2bf","ios":"levelo://app?vid=a6195d1a-7ca0-4509-b788-6b7202ede2bf"},"vehicle_type_id":"4","last_reported":1745313079,"current_range_meters":8000,"station_id":"ce4bgr92rcd13ifvqc7g","pricing_plan_id":"cebpf4jnsgd1na2vs0mg"},{"bike_id":"6192b56b-088a-4f51-b870-afa91ba9134b","system_id":"levelo_inurba_marseille","lat":43.28272,"lon":5.35067,"is_reserved":false,"is_disabled":false,"rental_uris":{"android":"levelo://app?vid=6192b56b-088a-4f51-b870-afa91ba9134b","ios":"levelo://app?vid=6192b56b-088a-4f51-b870-afa91ba9134b"},"vehicle_type_id":"4","last_reported":1745313079,"current_range_meters":8000,"station_id":"ce4bhbp2rcd13ifvqerg","pricing_plan_id":"cebpf4jnsgd1na2vs0mg"},{"bike_id":"97289f02-f39a-4953-b9db-e2f8c34ba04f","system_id":"levelo_inurba_marseille","lat":43.25924,"lon":5.4089,"is_reserved":false,"is_disabled":false,"rental_uris":{"android":"levelo://app?vid=97289f02-f39a-4953-b9db-e2f8c34ba04f","ios":"levelo://app?vid=97289f02-f39a-4953-b9db-e2f8c34ba04f"},"vehicle_type_id":"4","last_reported":1745313079,"current_range_meters":8000,"station_id":"ce4bhm92rcd13ifvqglg","pricing_plan_id":"cebpf4jnsgd1na2vs0mg"},{"bike_id":"c542201a-7b6a-426f-a19c-60c9894534b2","system_id":"levelo_inurba_marseille","lat":43.30277,"lon":5.37711,"is_reserved":false,"is_disabled":false,"rental_uris":{"android":"levelo://app?vid=c542201a-7b6a-426f-a19c-60c9894534b2","ios":"levelo://app?vid=c542201a-7b6a-426f-a19c-60c9894534b2"},"vehicle_type_id":"4","last_reported":1745313079,"current_range_meters":8000,"station_id":"ce4bguh2rcd13ifvqcj0","pricing_plan_id":"cebpf4jnsgd1na2vs0mg"},{"bike_id":"8375cd84-8776-4dbf-a2fd-f21a6066ce8d","system_id":"levelo_inurba_marseille","lat":43.25934,"lon":5.4087,"is_reserved":false,"is_disabled":false,"rental_uris":{"android":"levelo://app?vid=8375cd84-8776-4dbf-a2fd-f21a6066ce8d","ios":"levelo://app?vid=8375cd84-8776-4dbf-a2fd-f21a6066ce8d"},"vehicle_type_id":"4","last_reported":1745313079,"current_range_meters":8400,"station_id":"ce4bhm92rcd13ifvqglg","pricing_plan_id":"cebpf4jnsgd1na2vs0mg"},{"bike_id":"f84aeb92-bc88-468c-8e91-798d331a8e11","system_id":"levelo_inurba_marseille","lat":43.32481,"lon":5.36574,"is_reserved":false,"is_disabled":false,"rental_uris":{"android":"levelo://app?vid=f84aeb92-bc88-468c-8e91-798d331a8e11","ios":"levelo://app?vid=f84aeb92-bc88-468c-8e91-798d331a8e11"},"vehicle_type_id":"4","last_reported":1745313079,"current_range_meters":8400,"station_id":"ce4bhs12rcd13ifvqhvg","pricing_plan_id":"cebpf4jnsgd1na2vs0mg"},{"bike_id":"afedb4a2-2d4c-48b8-ab87-145e4a55df0f","system_id":"levelo_inurba_marseille","lat":43.27496,"lon":5.42451,"is_reserved":false,"is_disabled":true,"rental_uris":{"android":"levelo://app?vid=afedb4a2-2d4c-48b8-ab87-145e4a55df0f","ios":"levelo://app?vid=afedb4a2-2d4c-48b8-ab87-145e4a55df0f"},"vehicle_type_id":"4","last_reported":1745313079,"current_range_meters":8400,"station_id":"ce4bhn92rcd13ifvqgrg","pricing_plan_id":"cebpf4jnsgd1na2vs0mg"},{"bike_id":"e4c6b87b-eb88-4940-a92a-12c20f4641be","system_id":"levelo_inurba_marseille","lat":43.30283,"lon":5.36873,"is_reserved":false,"is_disabled":false,"rental_uris":{"android":"levelo://app?vid=e4c6b87b-eb88-4940-a92a-12c20f4641be","ios":"levelo://app?vid=e4c6b87b-eb88-4940-a92a-12c20f4641be"},"vehicle_type_id":"4","last_reported":1745313079,"current_range_meters":8400,"station_id":"ce4bgqh2rcd13ifvqc5g","pricing_plan_id":"cebpf4jnsgd1na2vs0mg"},{"bike_id":"a47bf24e-dcf3-4d1c-8915-db36a977245f","system_id":"levelo_inurba_marseille","lat":43.28468,"lon":5.35889,"is_reserved":false,"is_disabled":false,"rental_uris":{"android":"levelo://app?vid=a47bf24e-dcf3-4d1c-8915-db36a977245f","ios":"levelo://app?vid=a47bf24e-dcf3-4d1c-8915-db36a977245f"},"vehicle_type_id":"4","last_reported":1745313079,"current_range_meters":8400,"station_id":"ce4bhah2rcd13ifvqei0","pricing_plan_id":"cebpf4jnsgd1na2vs0mg"},{"bike_id":"4daf293c-27fa-4fd3-9732-b781377f0dd2","system_id":"levelo_inurba_marseille","lat":43.31545,"lon":5.38023,"is_reserved":false,"is_disabled":true,"rental_uris":{"android":"levelo://app?vid=4daf293c-27fa-4fd3-9732-b781377f0dd2","ios":"levelo://app?vid=4daf293c-27fa-4fd3-9732-b781377f0dd2"},"vehicle_type_id":"4","last_reported":1745313079,"current_range_meters":8400,"station_id":"ce4bhsp2rcd13ifvqi50","pricing_plan_id":"cebpf4jnsgd1na2vs0mg"},{"bike_id":"244b935e-066c-44b1-a7ef-a86d596a004b","system_id":"levelo_inurba_marseille","lat":43.33606,"lon":5.41022,"is_reserved":false,"is_disabled":false,"rental_uris":{"android":"levelo://app?vid=244b935e-066c-44b1-a7ef-a86d596a004b","ios":"levelo://app?vid=244b935e-066c-44b1-a7ef-a86d596a004b"},"vehicle_type_id":"4","last_reported":1745313079,"current_range_meters":8400,"station_id":"ce4bhqh2rcd13ifvqhmg","pricing_plan_id":"cebpf4jnsgd1na2vs0mg"},{"bike_id":"9c59663f-9a1b-465c-b292-63a720e2cfe0","system_id":"levelo_inurba_marseille","lat":43.29964,"lon":5.38504,"is_reserved":false,"is_disabled":false,"rental_uris":{"android":"levelo://app?vid=9c59663f-9a1b-465c-b292-63a720e2cfe0","ios":"levelo://app?vid=9c59663f-9a1b-465c-b292-63a720e2cfe0"},"vehicle_type_id":"4","last_reported":1745313079,"current_range_meters":8400,"station_id":"ce4bgj92rcd13ifvqbd0","pricing_plan_id":"cebpf4jnsgd1na2vs0mg"},{"bike_id":"06fb899f-81a2-43c7-8a9a-2940e299f410","system_id":"levelo_inurba_marseille","lat":43.2927,"lon":5.36859,"is_reserved":false,"is_disabled":false,"rental_uris":{"android":"levelo://app?vid=06fb899f-81a2-43c7-8a9a-2940e299f410","ios":"levelo://app?vid=06fb899f-81a2-43c7-8a9a-2940e299f410"},"vehicle_type_id":"4","last_reported":1745313079,"current_range_meters":8400,"station_id":"ce4bhbp2rcd13ifvqesg","pricing_plan_id":"cebpf4jnsgd1na2vs0mg"},{"bike_id":"36ec46a5-201b-4452-b7db-e0aa1dc44e29","system_id":"levelo_inurba_marseille","lat":43.295498,"lon":5.391994,"is_reserved":false,"is_disabled":false,"rental_uris":{"android":"levelo://app?vid=36ec46a5-201b-4452-b7db-e0aa1dc44e29","ios":"levelo://app?vid=36ec46a5-201b-4452-b7db-e0aa1dc44e29"},"vehicle_type_id":"4","last_reported":1745313079,"current_range_meters":8800,"station_id":"ce4bh3p2rcd13ifvqdp0","pricing_plan_id":"cebpf4jnsgd1na2vs0mg"},{"bike_id":"d8f6562d-fad6-47d1-beb5-b528453da2e1","system_id":"levelo_inurba_marseille","lat":43.30191,"lon":5.366056,"is_reserved":false,"is_disabled":false,"rental_uris":{"android":"levelo://app?vid=d8f6562d-fad6-47d1-beb5-b528453da2e1","ios":"levelo://app?vid=d8f6562d-fad6-47d1-beb5-b528453da2e1"},"vehicle_type_id":"4","last_reported":1745313079,"current_range_meters":11200,"station_id":"ce4bgjp2rcd13ifvqbh0","pricing_plan_id":"cebpf4jnsgd1na2vs0mg"},{"bike_id":"1c755526-7610-4241-9257-348acde561d3","system_id":"levelo_inurba_marseille","lat":43.24855,"lon":5.38186,"is_reserved":false,"is_disabled":false,"rental_uris":{"android":"levelo://app?vid=1c755526-7610-4241-9257-348acde561d3","ios":"levelo://app?vid=1c755526-7610-4241-9257-348acde561d3"},"vehicle_type_id":"4","last_reported":1745313079,"current_range_meters":8800,"station_id":"","pricing_plan_id":"cebpf4jnsgd1na2vs0mg"},{"bike_id":"6efbea2d-5eb1-4a4a-8c84-47a375f78190","system_id":"levelo_inurba_marseille","lat":43.2988,"lon":5.38898,"is_reserved":false,"is_disabled":true,"rental_uris":{"android":"levelo://app?vid=6efbea2d-5eb1-4a4a-8c84-47a375f78190","ios":"levelo://app?vid=6efbea2d-5eb1-4a4a-8c84-47a375f78190"},"vehicle_type_id":"4","last_reported":1745313079,"current_range_meters":8800,"station_id":"ce4bh392rcd13ifvqdl0","pricing_plan_id":"cebpf4jnsgd1na2vs0mg"},{"bike_id":"c48400a6-1446-495a-8b96-ab305ce2422b","system_id":"levelo_inurba_marseille","lat":43.31482,"lon":5.37302,"is_reserved":false,"is_disabled":false,"rental_uris":{"android":"levelo://app?vid=c48400a6-1446-495a-8b96-ab305ce2422b","ios":"levelo://app?vid=c48400a6-1446-495a-8b96-ab305ce2422b"},"vehicle_type_id":"4","last_reported":1745313079,"current_range_meters":8800,"station_id":"ce4bgt12rcd13ifvqcd0","pricing_plan_id":"cebpf4jnsgd1na2vs0mg"},{"bike_id":"7263f4d9-5c0f-4bef-a6e0-70962d6ebd84","system_id":"levelo_inurba_marseille","lat":43.26225,"lon":5.40453,"is_reserved":false,"is_disabled":false,"rental_uris":{"android":"levelo://app?vid=7263f4d9-5c0f-4bef-a6e0-70962d6ebd84","ios":"levelo://app?vid=7263f4d9-5c0f-4bef-a6e0-70962d6ebd84"},"vehicle_type_id":"4","last_reported":1745313079,"current_range_meters":8800,"station_id":"ce4bhmh2rcd13ifvqgmg","pricing_plan_id":"cebpf4jnsgd1na2vs0mg"},{"bike_id":"56d226f3-c124-4d5d-960a-b211c0e5a354","system_id":"levelo_inurba_marseille","lat":43.23195,"lon":5.35545,"is_reserved":false,"is_disabled":false,"rental_uris":{"android":"levelo://app?vid=56d226f3-c124-4d5d-960a-b211c0e5a354","ios":"levelo://app?vid=56d226f3-c124-4d5d-960a-b211c0e5a354"},"vehicle_type_id":"4","last_reported":1745313079,"current_range_meters":9200,"station_id":"ce4bhu92rcd13ifvqi70","pricing_plan_id":"cebpf4jnsgd1na2vs0mg"},{"bike_id":"201aba00-556b-446c-b3d7-684b3735917c","system_id":"levelo_inurba_marseille","lat":43.29191,"lon":5.39315,"is_reserved":false,"is_disabled":false,"rental_uris":{"android":"levelo://app?vid=201aba00-556b-446c-b3d7-684b3735917c","ios":"levelo://app?vid=201aba00-556b-446c-b3d7-684b3735917c"},"vehicle_type_id":"4","last_reported":1745313079,"current_range_meters":12000,"station_id":"ce4bh192rcd13ifvqdd0","pricing_plan_id":"cebpf4jnsgd1na2vs0mg"},{"bike_id":"48332f00-ada2-44f0-858c-52b722230b3b","system_id":"levelo_inurba_marseille","lat":43.28844,"lon":5.35854,"is_reserved":false,"is_disabled":false,"rental_uris":{"android":"levelo://app?vid=48332f00-ada2-44f0-858c-52b722230b3b","ios":"levelo://app?vid=48332f00-ada2-44f0-858c-52b722230b3b"},"vehicle_type_id":"4","last_reported":1745313079,"current_range_meters":9600,"station_id":"ce4bhb12rcd13ifvqem0","pricing_plan_id":"cebpf4jnsgd1na2vs0mg"},{"bike_id":"d7f7b329-df67-409d-999e-f8055feff07c","system_id":"levelo_inurba_marseille","lat":43.26939,"lon":5.40249,"is_reserved":false,"is_disabled":false,"rental_uris":{"android":"levelo://app?vid=d7f7b329-df67-409d-999e-f8055feff07c","ios":"levelo://app?vid=d7f7b329-df67-409d-999e-f8055feff07c"},"vehicle_type_id":"4","last_reported":1745313079,"current_range_meters":9200,"station_id":"cjm6bp8fraef2m0cb0m0","pricing_plan_id":"cebpf4jnsgd1na2vs0mg"},{"bike_id":"22ad8cd8-448d-4f6e-b2fe-740f8d592dd7","system_id":"levelo_inurba_marseille","lat":43.33774,"lon":5.37427,"is_reserved":false,"is_disabled":false,"rental_uris":{"android":"levelo://app?vid=22ad8cd8-448d-4f6e-b2fe-740f8d592dd7","ios":"levelo://app?vid=22ad8cd8-448d-4f6e-b2fe-740f8d592dd7"},"vehicle_type_id":"4","last_reported":1745313079,"current_range_meters":9600,"station_id":"","pricing_plan_id":"cebpf4jnsgd1na2vs0mg"},{"bike_id":"03ff22c4-a470-43be-b0d5-92904830eb89","system_id":"levelo_inurba_marseille","lat":43.27491,"lon":5.42463,"is_reserved":false,"is_disabled":false,"rental_uris":{"android":"levelo://app?vid=03ff22c4-a470-43be-b0d5-92904830eb89","ios":"levelo://app?vid=03ff22c4-a470-43be-b0d5-92904830eb89"},"vehicle_type_id":"4","last_reported":1745313079,"current_range_meters":9600,"station_id":"ce4bhn92rcd13ifvqgrg","pricing_plan_id":"cebpf4jnsgd1na2vs0mg"},{"bike_id":"ea8dd40d-d1c9-495b-acb7-79fe81df74e2","system_id":"levelo_inurba_marseille","lat":43.28723,"lon":5.40017,"is_reserved":false,"is_disabled":true,"rental_uris":{"android":"levelo://app?vid=ea8dd40d-d1c9-495b-acb7-79fe81df74e2","ios":"levelo://app?vid=ea8dd40d-d1c9-495b-acb7-79fe81df74e2"},"vehicle_type_id":"4","last_reported":1745313079,"current_range_meters":9600,"station_id":"ce4bho92rcd13ifvqh3g","pricing_plan_id":"cebpf4jnsgd1na2vs0mg"},{"bike_id":"58b8e843-94bc-453b-a0e9-95c06589ab0c","system_id":"levelo_inurba_marseille","lat":43.31343,"lon":5.36715,"is_reserved":false,"is_disabled":false,"rental_uris":{"android":"levelo://app?vid=58b8e843-94bc-453b-a0e9-95c06589ab0c","ios":"levelo://app?vid=58b8e843-94bc-453b-a0e9-95c06589ab0c"},"vehicle_type_id":"4","last_reported":1745313079,"current_range_meters":9600,"station_id":"ce4bgr92rcd13ifvqc6g","pricing_plan_id":"cebpf4jnsgd1na2vs0mg"},{"bike_id":"7c9dc1e2-e5ab-48d7-b982-4e9f1cc9844e","system_id":"levelo_inurba_marseille","lat":43.28852,"lon":5.35843,"is_reserved":false,"is_disabled":false,"rental_uris":{"android":"levelo://app?vid=7c9dc1e2-e5ab-48d7-b982-4e9f1cc9844e","ios":"levelo://app?vid=7c9dc1e2-e5ab-48d7-b982-4e9f1cc9844e"},"vehicle_type_id":"4","last_reported":1745313079,"current_range_meters":9600,"station_id":"ce4bhb12rcd13ifvqem0","pricing_plan_id":"cebpf4jnsgd1na2vs0mg"},{"bike_id":"8d752f18-25a3-477c-ab63-d81aa9dc395d","system_id":"levelo_inurba_marseille","lat":43.25924,"lon":5.40884,"is_reserved":false,"is_disabled":false,"rental_uris":{"android":"levelo://app?vid=8d752f18-25a3-477c-ab63-d81aa9dc395d","ios":"levelo://app?vid=8d752f18-25a3-477c-ab63-d81aa9dc395d"},"vehicle_type_id":"4","last_reported":1745313079,"current_range_meters":9600,"station_id":"ce4bhm92rcd13ifvqglg","pricing_plan_id":"cebpf4jnsgd1na2vs0mg"},{"bike_id":"3c0a3406-4c37-431a-9d39-f78ba0c54c9c","system_id":"levelo_inurba_marseille","lat":43.301796,"lon":5.393692,"is_reserved":false,"is_disabled":false,"rental_uris":{"android":"levelo://app?vid=3c0a3406-4c37-431a-9d39-f78ba0c54c9c","ios":"levelo://app?vid=3c0a3406-4c37-431a-9d39-f78ba0c54c9c"},"vehicle_type_id":"4","last_reported":1745313079,"current_range_meters":9600,"station_id":"ce4bh112rcd13ifvqd90","pricing_plan_id":"cebpf4jnsgd1na2vs0mg"},{"bike_id":"219929a3-493e-4f7c-b415-32bda48e912b","system_id":"levelo_inurba_marseille","lat":43.30951,"lon":5.39025,"is_reserved":false,"is_disabled":false,"rental_uris":{"android":"levelo://app?vid=219929a3-493e-4f7c-b415-32bda48e912b","ios":"levelo://app?vid=219929a3-493e-4f7c-b415-32bda48e912b"},"vehicle_type_id":"4","last_reported":1745313079,"current_range_meters":10000,"station_id":"ce4bgup2rcd13ifvqco0","pricing_plan_id":"cebpf4jnsgd1na2vs0mg"},{"bike_id":"d245cf97-d2b5-44e9-978e-8dcfd3a493e8","system_id":"levelo_inurba_marseille","lat":43.33016,"lon":5.39046,"is_reserved":false,"is_disabled":false,"rental_uris":{"android":"levelo://app?vid=d245cf97-d2b5-44e9-978e-8dcfd3a493e8","ios":"levelo://app?vid=d245cf97-d2b5-44e9-978e-8dcfd3a493e8"},"vehicle_type_id":"4","last_reported":1745313079,"current_range_meters":10000,"station_id":"ce4bhr92rcd13ifvqhrg","pricing_plan_id":"cebpf4jnsgd1na2vs0mg"},{"bike_id":"737b8040-5e45-4255-94e9-a334817e1a00","system_id":"levelo_inurba_marseille","lat":43.284591,"lon":5.358762,"is_reserved":false,"is_disabled":false,"rental_uris":{"android":"levelo://app?vid=737b8040-5e45-4255-94e9-a334817e1a00","ios":"levelo://app?vid=737b8040-5e45-4255-94e9-a334817e1a00"},"vehicle_type_id":"4","last_reported":1745313079,"current_range_meters":10000,"station_id":"ce4bhah2rcd13ifvqei0","pricing_plan_id":"cebpf4jnsgd1na2vs0mg"},{"bike_id":"4eee6341-08d6-475c-a3c2-93f95d24d478","system_id":"levelo_inurba_marseille","lat":43.308807,"lon":5.371879,"is_reserved":false,"is_disabled":false,"rental_uris":{"android":"levelo://app?vid=4eee6341-08d6-475c-a3c2-93f95d24d478","ios":"levelo://app?vid=4eee6341-08d6-475c-a3c2-93f95d24d478"},"vehicle_type_id":"4","last_reported":1745313079,"current_range_meters":9600,"station_id":"ce4bguh2rcd13ifvqckg","pricing_plan_id":"cebpf4jnsgd1na2vs0mg"},{"bike_id":"60233ea3-89a8-4189-a4a0-776d2e44aa03","system_id":"levelo_inurba_marseille","lat":43.2749,"lon":5.42444,"is_reserved":false,"is_disabled":false,"rental_uris":{"android":"levelo://app?vid=60233ea3-89a8-4189-a4a0-776d2e44aa03","ios":"levelo://app?vid=60233ea3-89a8-4189-a4a0-776d2e44aa03"},"vehicle_type_id":"4","last_reported":1745313079,"current_range_meters":10000,"station_id":"ce4bhn92rcd13ifvqgrg","pricing_plan_id":"cebpf4jnsgd1na2vs0mg"},{"bike_id":"1aabe5c9-09ca-44d1-bb3a-8c93e9abfee7","system_id":"levelo_inurba_marseille","lat":43.32364,"lon":5.36754,"is_reserved":false,"is_disabled":false,"rental_uris":{"android":"levelo://app?vid=1aabe5c9-09ca-44d1-bb3a-8c93e9abfee7","ios":"levelo://app?vid=1aabe5c9-09ca-44d1-bb3a-8c93e9abfee7"},"vehicle_type_id":"4","last_reported":1745313079,"current_range_meters":10800,"station_id":"ce4bhsh2rcd13ifvqi2g","pricing_plan_id":"cebpf4jnsgd1na2vs0mg"},{"bike_id":"2dc4e79a-33a8-48b0-bf03-f6328f1dc1f6","system_id":"levelo_inurba_marseille","lat":43.323598,"lon":5.388971,"is_reserved":false,"is_disabled":true,"rental_uris":{"android":"levelo://app?vid=2dc4e79a-33a8-48b0-bf03-f6328f1dc1f6","ios":"levelo://app?vid=2dc4e79a-33a8-48b0-bf03-f6328f1dc1f6"},"vehicle_type_id":"4","last_reported":1745313079,"current_range_meters":10800,"station_id":"ce4bhqp2rcd13ifvqhog","pricing_plan_id":"cebpf4jnsgd1na2vs0mg"},{"bike_id":"db650f16-b47c-4347-8a80-a802a1a8895f","system_id":"levelo_inurba_marseille","lat":43.31113,"lon":5.37759,"is_reserved":false,"is_disabled":false,"rental_uris":{"android":"levelo://app?vid=db650f16-b47c-4347-8a80-a802a1a8895f","ios":"levelo://app?vid=db650f16-b47c-4347-8a80-a802a1a8895f"},"vehicle_type_id":"4","last_reported":1745313079,"current_range_meters":10800,"station_id":"ce4bgt92rcd13ifvqcg0","pricing_plan_id":"cebpf4jnsgd1na2vs0mg"},{"bike_id":"c6ef9c45-3f5f-4a72-9967-1a802f6efdc6","system_id":"levelo_inurba_marseille","lat":43.29621,"lon":5.37729,"is_reserved":false,"is_disabled":false,"rental_uris":{"android":"levelo://app?vid=c6ef9c45-3f5f-4a72-9967-1a802f6efdc6","ios":"levelo://app?vid=c6ef9c45-3f5f-4a72-9967-1a802f6efdc6"},"vehicle_type_id":"4","last_reported":1745313079,"current_range_meters":10800,"station_id":"ce4bgi92rcd13ifvqb90","pricing_plan_id":"cebpf4jnsgd1na2vs0mg"},{"bike_id":"8192faf7-75eb-4066-9f01-8b4752f08722","system_id":"levelo_inurba_marseille","lat":43.29087,"lon":5.38169,"is_reserved":false,"is_disabled":false,"rental_uris":{"android":"levelo://app?vid=8192faf7-75eb-4066-9f01-8b4752f08722","ios":"levelo://app?vid=8192faf7-75eb-4066-9f01-8b4752f08722"},"vehicle_type_id":"4","last_reported":1745313079,"current_range_meters":11200,"station_id":"ce4bh512rcd13ifvqe2g","pricing_plan_id":"cebpf4jnsgd1na2vs0mg"},{"bike_id":"0cc8691f-a082-4a9b-944f-91ae0092fb38","system_id":"levelo_inurba_marseille","lat":43.29326,"lon":5.4017,"is_reserved":false,"is_disabled":false,"rental_uris":{"android":"levelo://app?vid=0cc8691f-a082-4a9b-944f-91ae0092fb38","ios":"levelo://app?vid=0cc8691f-a082-4a9b-944f-91ae0092fb38"},"vehicle_type_id":"4","last_reported":1745313079,"current_range_meters":11200,"station_id":"","pricing_plan_id":"cebpf4jnsgd1na2vs0mg"},{"bike_id":"b373a9fc-b19f-49e6-9414-e3e614041e34","system_id":"levelo_inurba_marseille","lat":43.27077,"lon":5.42274,"is_reserved":false,"is_disabled":true,"rental_uris":{"android":"levelo://app?vid=b373a9fc-b19f-49e6-9414-e3e614041e34","ios":"levelo://app?vid=b373a9fc-b19f-49e6-9414-e3e614041e34"},"vehicle_type_id":"4","last_reported":1745313079,"current_range_meters":11600,"station_id":"ce4bhk92rcd13ifvqgb0","pricing_plan_id":"cebpf4jnsgd1na2vs0mg"},{"bike_id":"014bdd56-9004-4ad4-8ca3-c0440aeb773d","system_id":"levelo_inurba_marseille","lat":43.274965,"lon":5.424462,"is_reserved":false,"is_disabled":true,"rental_uris":{"android":"levelo://app?vid=014bdd56-9004-4ad4-8ca3-c0440aeb773d","ios":"levelo://app?vid=014bdd56-9004-4ad4-8ca3-c0440aeb773d"},"vehicle_type_id":"4","last_reported":1745313079,"current_range_meters":11600,"station_id":"ce4bhn92rcd13ifvqgrg","pricing_plan_id":"cebpf4jnsgd1na2vs0mg"},{"bike_id":"ef08c711-86e8-497e-bfa3-bf69c7589dac","system_id":"levelo_inurba_marseille","lat":43.23154,"lon":5.43705,"is_reserved":false,"is_disabled":false,"rental_uris":{"android":"levelo://app?vid=ef08c711-86e8-497e-bfa3-bf69c7589dac","ios":"levelo://app?vid=ef08c711-86e8-497e-bfa3-bf69c7589dac"},"vehicle_type_id":"4","last_reported":1745313079,"current_range_meters":11600,"station_id":"","pricing_plan_id":"cebpf4jnsgd1na2vs0mg"},{"bike_id":"38e840b0-1863-4991-b2ae-6a86f3dbf488","system_id":"levelo_inurba_marseille","lat":43.25579,"lon":5.38234,"is_reserved":false,"is_disabled":false,"rental_uris":{"android":"levelo://app?vid=38e840b0-1863-4991-b2ae-6a86f3dbf488","ios":"levelo://app?vid=38e840b0-1863-4991-b2ae-6a86f3dbf488"},"vehicle_type_id":"4","last_reported":1745313079,"current_range_meters":12000,"station_id":"ce4bhih2rcd13ifvqfs0","pricing_plan_id":"cebpf4jnsgd1na2vs0mg"},{"bike_id":"a7aa4f0d-dbae-40db-a193-3ad158f70ff8","system_id":"levelo_inurba_marseille","lat":43.31032,"lon":5.37087,"is_reserved":false,"is_disabled":false,"rental_uris":{"android":"levelo://app?vid=a7aa4f0d-dbae-40db-a193-3ad158f70ff8","ios":"levelo://app?vid=a7aa4f0d-dbae-40db-a193-3ad158f70ff8"},"vehicle_type_id":"4","last_reported":1745313079,"current_range_meters":12000,"station_id":"","pricing_plan_id":"cebpf4jnsgd1na2vs0mg"},{"bike_id":"efd800b7-45c9-41a2-89e0-14e5cad55dc7","system_id":"levelo_inurba_marseille","lat":43.33739,"lon":5.37478,"is_reserved":false,"is_disabled":false,"rental_uris":{"android":"levelo://app?vid=efd800b7-45c9-41a2-89e0-14e5cad55dc7","ios":"levelo://app?vid=efd800b7-45c9-41a2-89e0-14e5cad55dc7"},"vehicle_type_id":"4","last_reported":1745313079,"current_range_meters":12000,"station_id":"","pricing_plan_id":"cebpf4jnsgd1na2vs0mg"},{"bike_id":"3237de10-88be-4c7d-a866-52a5474bd214","system_id":"levelo_inurba_marseille","lat":43.29597,"lon":5.38101,"is_reserved":false,"is_disabled":false,"rental_uris":{"android":"levelo://app?vid=3237de10-88be-4c7d-a866-52a5474bd214","ios":"levelo://app?vid=3237de10-88be-4c7d-a866-52a5474bd214"},"vehicle_type_id":"4","last_reported":1745313079,"current_range_meters":12000,"station_id":"ce4bgl12rcd13ifvqbo0","pricing_plan_id":"cebpf4jnsgd1na2vs0mg"},{"bike_id":"998962b5-e87a-4aff-9b11-bfc8782aa762","system_id":"levelo_inurba_marseille","lat":43.23156,"lon":5.43705,"is_reserved":false,"is_disabled":false,"rental_uris":{"android":"levelo://app?vid=998962b5-e87a-4aff-9b11-bfc8782aa762","ios":"levelo://app?vid=998962b5-e87a-4aff-9b11-bfc8782aa762"},"vehicle_type_id":"4","last_reported":1745313079,"current_range_meters":12000,"station_id":"ce4bhmp2rcd13ifvqgog","pricing_plan_id":"cebpf4jnsgd1na2vs0mg"},{"bike_id":"f3d54f26-7c13-40aa-82cc-2bbd4c41b26b","system_id":"levelo_inurba_marseille","lat":43.28855,"lon":5.39313,"is_reserved":false,"is_disabled":false,"rental_uris":{"android":"levelo://app?vid=f3d54f26-7c13-40aa-82cc-2bbd4c41b26b","ios":"levelo://app?vid=f3d54f26-7c13-40aa-82cc-2bbd4c41b26b"},"vehicle_type_id":"4","last_reported":1745313079,"current_range_meters":12400,"station_id":"ce4bh2p2rcd13ifvqdi0","pricing_plan_id":"cebpf4jnsgd1na2vs0mg"},{"bike_id":"1e160fe5-37fa-44b8-adab-159bd976cada","system_id":"levelo_inurba_marseille","lat":43.27901,"lon":5.38016,"is_reserved":false,"is_disabled":false,"rental_uris":{"android":"levelo://app?vid=1e160fe5-37fa-44b8-adab-159bd976cada","ios":"levelo://app?vid=1e160fe5-37fa-44b8-adab-159bd976cada"},"vehicle_type_id":"4","last_reported":1745313079,"current_range_meters":12400,"station_id":"ce4bhf92rcd13ifvqf50","pricing_plan_id":"cebpf4jnsgd1na2vs0mg"},{"bike_id":"47768a28-4fff-4fc1-b4c4-b5ec8d452deb","system_id":"levelo_inurba_marseille","lat":43.29591,"lon":5.38098,"is_reserved":false,"is_disabled":true,"rental_uris":{"android":"levelo://app?vid=47768a28-4fff-4fc1-b4c4-b5ec8d452deb","ios":"levelo://app?vid=47768a28-4fff-4fc1-b4c4-b5ec8d452deb"},"vehicle_type_id":"4","last_reported":1745313079,"current_range_meters":12800,"station_id":"ce4bgl12rcd13ifvqbo0","pricing_plan_id":"cebpf4jnsgd1na2vs0mg"},{"bike_id":"84d53afc-570e-4710-be21-8912352f92df","system_id":"levelo_inurba_marseille","lat":43.309,"lon":5.36865,"is_reserved":false,"is_disabled":false,"rental_uris":{"android":"levelo://app?vid=84d53afc-570e-4710-be21-8912352f92df","ios":"levelo://app?vid=84d53afc-570e-4710-be21-8912352f92df"},"vehicle_type_id":"4","last_reported":1745313079,"current_range_meters":12800,"station_id":"ce4bgn92rcd13ifvqbvg","pricing_plan_id":"cebpf4jnsgd1na2vs0mg"},{"bike_id":"7553b1fc-4c73-47f1-9537-161d06b72067","system_id":"levelo_inurba_marseille","lat":43.29703,"lon":5.37707,"is_reserved":false,"is_disabled":false,"rental_uris":{"android":"levelo://app?vid=7553b1fc-4c73-47f1-9537-161d06b72067","ios":"levelo://app?vid=7553b1fc-4c73-47f1-9537-161d06b72067"},"vehicle_type_id":"4","last_reported":1745313079,"current_range_meters":12800,"station_id":"ce4bgkh2rcd13ifvqbl0","pricing_plan_id":"cebpf4jnsgd1na2vs0mg"},{"bike_id":"12505a0a-b14f-4f59-9be1-55ce43130db1","system_id":"levelo_inurba_marseille","lat":43.2962,"lon":5.38055,"is_reserved":false,"is_disabled":true,"rental_uris":{"android":"levelo://app?vid=12505a0a-b14f-4f59-9be1-55ce43130db1","ios":"levelo://app?vid=12505a0a-b14f-4f59-9be1-55ce43130db1"},"vehicle_type_id":"4","last_reported":1745313079,"current_range_meters":13600,"station_id":"ce4bgl12rcd13ifvqbo0","pricing_plan_id":"cebpf4jnsgd1na2vs0mg"},{"bike_id":"b932ebbc-de5a-4676-a54b-a147dad71904","system_id":"levelo_inurba_marseille","lat":43.27076,"lon":5.42254,"is_reserved":false,"is_disabled":false,"rental_uris":{"android":"levelo://app?vid=b932ebbc-de5a-4676-a54b-a147dad71904","ios":"levelo://app?vid=b932ebbc-de5a-4676-a54b-a147dad71904"},"vehicle_type_id":"4","last_reported":1745313079,"current_range_meters":13600,"station_id":"ce4bhk92rcd13ifvqgb0","pricing_plan_id":"cebpf4jnsgd1na2vs0mg"},{"bike_id":"a756bae3-49c1-4d6c-89e8-fcb7b0e7d2e2","system_id":"levelo_inurba_marseille","lat":43.29034,"lon":5.3591,"is_reserved":false,"is_disabled":true,"rental_uris":{"android":"levelo://app?vid=a756bae3-49c1-4d6c-89e8-fcb7b0e7d2e2","ios":"levelo://app?vid=a756bae3-49c1-4d6c-89e8-fcb7b0e7d2e2"},"vehicle_type_id":"4","last_reported":1745313079,"current_range_meters":14000,"station_id":"ce4bha92rcd13ifvqeg0","pricing_plan_id":"cebpf4jnsgd1na2vs0mg"},{"bike_id":"863e5893-8f0a-49cb-8c69-b63bb0ba0ada","system_id":"levelo_inurba_marseille","lat":43.32365,"lon":5.3847,"is_reserved":false,"is_disabled":false,"rental_uris":{"android":"levelo://app?vid=863e5893-8f0a-49cb-8c69-b63bb0ba0ada","ios":"levelo://app?vid=863e5893-8f0a-49cb-8c69-b63bb0ba0ada"},"vehicle_type_id":"4","last_reported":1745313079,"current_range_meters":14000,"station_id":"","pricing_plan_id":"cebpf4jnsgd1na2vs0mg"},{"bike_id":"9b811bd4-c451-4fa0-95f6-10ca12f1d667","system_id":"levelo_inurba_marseille","lat":43.2953,"lon":5.38549,"is_reserved":false,"is_disabled":false,"rental_uris":{"android":"levelo://app?vid=9b811bd4-c451-4fa0-95f6-10ca12f1d667","ios":"levelo://app?vid=9b811bd4-c451-4fa0-95f6-10ca12f1d667"},"vehicle_type_id":"4","last_reported":1745313079,"current_range_meters":13600,"station_id":"ce4bgih2rcd13ifvqba0","pricing_plan_id":"cebpf4jnsgd1na2vs0mg"},{"bike_id":"41cd4d50-3bdd-4fa7-b5d1-d715f5a540e6","system_id":"levelo_inurba_marseille","lat":43.32346,"lon":5.36698,"is_reserved":false,"is_disabled":false,"rental_uris":{"android":"levelo://app?vid=41cd4d50-3bdd-4fa7-b5d1-d715f5a540e6","ios":"levelo://app?vid=41cd4d50-3bdd-4fa7-b5d1-d715f5a540e6"},"vehicle_type_id":"4","last_reported":1745313079,"current_range_meters":14000,"station_id":"ce4bhsh2rcd13ifvqi2g","pricing_plan_id":"cebpf4jnsgd1na2vs0mg"},{"bike_id":"6cf0e61b-d89b-44af-a005-4cd617382554","system_id":"levelo_inurba_marseille","lat":43.30949,"lon":5.390393,"is_reserved":false,"is_disabled":false,"rental_uris":{"android":"levelo://app?vid=6cf0e61b-d89b-44af-a005-4cd617382554","ios":"levelo://app?vid=6cf0e61b-d89b-44af-a005-4cd617382554"},"vehicle_type_id":"4","last_reported":1745313079,"current_range_meters":14000,"station_id":"ce4bgup2rcd13ifvqco0","pricing_plan_id":"cebpf4jnsgd1na2vs0mg"},{"bike_id":"f25d8672-7640-4033-8cc4-f80944c4dd44","system_id":"levelo_inurba_marseille","lat":43.27232,"lon":5.4011,"is_reserved":false,"is_disabled":false,"rental_uris":{"android":"levelo://app?vid=f25d8672-7640-4033-8cc4-f80944c4dd44","ios":"levelo://app?vid=f25d8672-7640-4033-8cc4-f80944c4dd44"},"vehicle_type_id":"4","last_reported":1745313079,"current_range_meters":14400,"station_id":"","pricing_plan_id":"cebpf4jnsgd1na2vs0mg"},{"bike_id":"6fdfd6d1-a96c-4b8f-b8d7-2e2af8c87b3c","system_id":"levelo_inurba_marseille","lat":43.33611,"lon":5.41028,"is_reserved":false,"is_disabled":false,"rental_uris":{"android":"levelo://app?vid=6fdfd6d1-a96c-4b8f-b8d7-2e2af8c87b3c","ios":"levelo://app?vid=6fdfd6d1-a96c-4b8f-b8d7-2e2af8c87b3c"},"vehicle_type_id":"4","last_reported":1745313079,"current_range_meters":14800,"station_id":"ce4bhqh2rcd13ifvqhmg","pricing_plan_id":"cebpf4jnsgd1na2vs0mg"},{"bike_id":"013b0bba-3a8e-4176-aec5-9b030be1a006","system_id":"levelo_inurba_marseille","lat":43.31731,"lon":5.37776,"is_reserved":false,"is_disabled":false,"rental_uris":{"android":"levelo://app?vid=013b0bba-3a8e-4176-aec5-9b030be1a006","ios":"levelo://app?vid=013b0bba-3a8e-4176-aec5-9b030be1a006"},"vehicle_type_id":"4","last_reported":1745313079,"current_range_meters":14800,"station_id":"ce4bgth2rcd13ifvqch0","pricing_plan_id":"cebpf4jnsgd1na2vs0mg"},{"bike_id":"8a4d7d49-48b0-4249-b360-81a357a9a5a8","system_id":"levelo_inurba_marseille","lat":43.2706,"lon":5.42285,"is_reserved":false,"is_disabled":false,"rental_uris":{"android":"levelo://app?vid=8a4d7d49-48b0-4249-b360-81a357a9a5a8","ios":"levelo://app?vid=8a4d7d49-48b0-4249-b360-81a357a9a5a8"},"vehicle_type_id":"4","last_reported":1745313079,"current_range_meters":14800,"station_id":"ce4bhk92rcd13ifvqgb0","pricing_plan_id":"cebpf4jnsgd1na2vs0mg"},{"bike_id":"e078ec49-9416-4db7-8e20-fc0a249e1c54","system_id":"levelo_inurba_marseille","lat":43.28417,"lon":5.34975,"is_reserved":false,"is_disabled":false,"rental_uris":{"android":"levelo://app?vid=e078ec49-9416-4db7-8e20-fc0a249e1c54","ios":"levelo://app?vid=e078ec49-9416-4db7-8e20-fc0a249e1c54"},"vehicle_type_id":"4","last_reported":1745313079,"current_range_meters":14800,"station_id":"ce4bhbh2rcd13ifvqepg","pricing_plan_id":"cebpf4jnsgd1na2vs0mg"},{"bike_id":"fdaa5725-ca39-49a7-a9cd-96b6eb72b7e3","system_id":"levelo_inurba_marseille","lat":43.32486,"lon":5.36562,"is_reserved":false,"is_disabled":false,"rental_uris":{"android":"levelo://app?vid=fdaa5725-ca39-49a7-a9cd-96b6eb72b7e3","ios":"levelo://app?vid=fdaa5725-ca39-49a7-a9cd-96b6eb72b7e3"},"vehicle_type_id":"4","last_reported":1745313079,"current_range_meters":14800,"station_id":"ce4bhs12rcd13ifvqhvg","pricing_plan_id":"cebpf4jnsgd1na2vs0mg"},{"bike_id":"1d917504-d08a-4f98-98c4-f2a7e4b4c735","system_id":"levelo_inurba_marseille","lat":43.309076,"lon":5.368474,"is_reserved":false,"is_disabled":false,"rental_uris":{"android":"levelo://app?vid=1d917504-d08a-4f98-98c4-f2a7e4b4c735","ios":"levelo://app?vid=1d917504-d08a-4f98-98c4-f2a7e4b4c735"},"vehicle_type_id":"4","last_reported":1745313079,"current_range_meters":15200,"station_id":"ce4bgn92rcd13ifvqbvg","pricing_plan_id":"cebpf4jnsgd1na2vs0mg"},{"bike_id":"a984ea8e-a8ac-4ec0-9030-3de3f678c5fd","system_id":"levelo_inurba_marseille","lat":43.30906,"lon":5.368385,"is_reserved":false,"is_disabled":false,"rental_uris":{"android":"levelo://app?vid=a984ea8e-a8ac-4ec0-9030-3de3f678c5fd","ios":"levelo://app?vid=a984ea8e-a8ac-4ec0-9030-3de3f678c5fd"},"vehicle_type_id":"4","last_reported":1745313079,"current_range_meters":15200,"station_id":"ce4bgn92rcd13ifvqbvg","pricing_plan_id":"cebpf4jnsgd1na2vs0mg"},{"bike_id":"073666a2-3ea3-4eb3-a124-3b5c40d3d495","system_id":"levelo_inurba_marseille","lat":43.25935,"lon":5.40916,"is_reserved":false,"is_disabled":true,"rental_uris":{"android":"levelo://app?vid=073666a2-3ea3-4eb3-a124-3b5c40d3d495","ios":"levelo://app?vid=073666a2-3ea3-4eb3-a124-3b5c40d3d495"},"vehicle_type_id":"4","last_reported":1745313079,"current_range_meters":16000,"station_id":"ce4bhm92rcd13ifvqglg","pricing_plan_id":"cebpf4jnsgd1na2vs0mg"},{"bike_id":"15ee9b68-5b8d-4ba9-9fcb-2f0ac9b54f62","system_id":"levelo_inurba_marseille","lat":43.27071,"lon":5.4228,"is_reserved":false,"is_disabled":false,"rental_uris":{"android":"levelo://app?vid=15ee9b68-5b8d-4ba9-9fcb-2f0ac9b54f62","ios":"levelo://app?vid=15ee9b68-5b8d-4ba9-9fcb-2f0ac9b54f62"},"vehicle_type_id":"4","last_reported":1745313079,"current_range_meters":15200,"station_id":"ce4bhk92rcd13ifvqgb0","pricing_plan_id":"cebpf4jnsgd1na2vs0mg"},{"bike_id":"087846f4-ae41-4819-8cae-fe7e20519068","system_id":"levelo_inurba_marseille","lat":43.30375,"lon":5.42488,"is_reserved":false,"is_disabled":false,"rental_uris":{"android":"levelo://app?vid=087846f4-ae41-4819-8cae-fe7e20519068","ios":"levelo://app?vid=087846f4-ae41-4819-8cae-fe7e20519068"},"vehicle_type_id":"4","last_reported":1745313079,"current_range_meters":16000,"station_id":"ce4bhoh2rcd13ifvqh6g","pricing_plan_id":"cebpf4jnsgd1na2vs0mg"},{"bike_id":"3ca8e96f-58b1-4242-a9e1-72c4627cc3ef","system_id":"levelo_inurba_marseille","lat":43.27938,"lon":5.41045,"is_reserved":false,"is_disabled":false,"rental_uris":{"android":"levelo://app?vid=3ca8e96f-58b1-4242-a9e1-72c4627cc3ef","ios":"levelo://app?vid=3ca8e96f-58b1-4242-a9e1-72c4627cc3ef"},"vehicle_type_id":"4","last_reported":1745313079,"current_range_meters":16000,"station_id":"ce4bhnp2rcd13ifvqh0g","pricing_plan_id":"cebpf4jnsgd1na2vs0mg"},{"bike_id":"a5d89516-dace-4d65-a488-2da27eaa88b7","system_id":"levelo_inurba_marseille","lat":43.27578,"lon":5.38429,"is_reserved":false,"is_disabled":false,"rental_uris":{"android":"levelo://app?vid=a5d89516-dace-4d65-a488-2da27eaa88b7","ios":"levelo://app?vid=a5d89516-dace-4d65-a488-2da27eaa88b7"},"vehicle_type_id":"4","last_reported":1745313079,"current_range_meters":17200,"station_id":"ce4bhh92rcd13ifvqfi0","pricing_plan_id":"cebpf4jnsgd1na2vs0mg"},{"bike_id":"0ad7e774-d44d-449d-9880-22d195209d1a","system_id":"levelo_inurba_marseille","lat":43.30147,"lon":5.37419,"is_reserved":false,"is_disabled":false,"rental_uris":{"android":"levelo://app?vid=0ad7e774-d44d-449d-9880-22d195209d1a","ios":"levelo://app?vid=0ad7e774-d44d-449d-9880-22d195209d1a"},"vehicle_type_id":"4","last_reported":1745313079,"current_range_meters":16400,"station_id":"ce4bgs92rcd13ifvqcc0","pricing_plan_id":"cebpf4jnsgd1na2vs0mg"},{"bike_id":"a19fbbb9-ae21-4945-93a3-20e688218926","system_id":"levelo_inurba_marseille","lat":43.25925,"lon":5.40876,"is_reserved":false,"is_disabled":false,"rental_uris":{"android":"levelo://app?vid=a19fbbb9-ae21-4945-93a3-20e688218926","ios":"levelo://app?vid=a19fbbb9-ae21-4945-93a3-20e688218926"},"vehicle_type_id":"4","last_reported":1745313079,"current_range_meters":16400,"station_id":"ce4bhm92rcd13ifvqglg","pricing_plan_id":"cebpf4jnsgd1na2vs0mg"},{"bike_id":"d5fa6a7e-ae6f-48cd-8dc8-6ec1473fc099","system_id":"levelo_inurba_marseille","lat":43.31351,"lon":5.36699,"is_reserved":false,"is_disabled":true,"rental_uris":{"android":"levelo://app?vid=d5fa6a7e-ae6f-48cd-8dc8-6ec1473fc099","ios":"levelo://app?vid=d5fa6a7e-ae6f-48cd-8dc8-6ec1473fc099"},"vehicle_type_id":"4","last_reported":1745313079,"current_range_meters":16400,"station_id":"ce4bgr92rcd13ifvqc6g","pricing_plan_id":"cebpf4jnsgd1na2vs0mg"},{"bike_id":"0ddec75f-fc8b-441e-bca0-14696acf7b2a","system_id":"levelo_inurba_marseille","lat":43.26785,"lon":5.39412,"is_reserved":false,"is_disabled":false,"rental_uris":{"android":"levelo://app?vid=0ddec75f-fc8b-441e-bca0-14696acf7b2a","ios":"levelo://app?vid=0ddec75f-fc8b-441e-bca0-14696acf7b2a"},"vehicle_type_id":"4","last_reported":1745313079,"current_range_meters":16400,"station_id":"ce4bhh12rcd13ifvqfg0","pricing_plan_id":"cebpf4jnsgd1na2vs0mg"},{"bike_id":"42d1aa09-ae98-4141-90b1-0a52ebf879ec","system_id":"levelo_inurba_marseille","lat":43.26941,"lon":5.40249,"is_reserved":false,"is_disabled":false,"rental_uris":{"android":"levelo://app?vid=42d1aa09-ae98-4141-90b1-0a52ebf879ec","ios":"levelo://app?vid=42d1aa09-ae98-4141-90b1-0a52ebf879ec"},"vehicle_type_id":"4","last_reported":1745313079,"current_range_meters":16400,"station_id":"cjm6bp8fraef2m0cb0m0","pricing_plan_id":"cebpf4jnsgd1na2vs0mg"},{"bike_id":"eddf388e-8873-45ba-ad33-881fd27c608c","system_id":"levelo_inurba_marseille","lat":43.29307,"lon":5.37439,"is_reserved":false,"is_disabled":true,"rental_uris":{"android":"levelo://app?vid=eddf388e-8873-45ba-ad33-881fd27c608c","ios":"levelo://app?vid=eddf388e-8873-45ba-ad33-881fd27c608c"},"vehicle_type_id":"4","last_reported":1745313079,"current_range_meters":16800,"station_id":"ce4bgi12rcd13ifvqb70","pricing_plan_id":"cebpf4jnsgd1na2vs0mg"},{"bike_id":"36e786ae-5820-4f77-ac74-341e04cdedaf","system_id":"levelo_inurba_marseille","lat":43.30905,"lon":5.36872,"is_reserved":false,"is_disabled":false,"rental_uris":{"android":"levelo://app?vid=36e786ae-5820-4f77-ac74-341e04cdedaf","ios":"levelo://app?vid=36e786ae-5820-4f77-ac74-341e04cdedaf"},"vehicle_type_id":"4","last_reported":1745313079,"current_range_meters":16800,"station_id":"ce4bgn92rcd13ifvqbvg","pricing_plan_id":"cebpf4jnsgd1na2vs0mg"},{"bike_id":"0f8b4da5-9757-4c80-a347-c10222ae41e5","system_id":"levelo_inurba_marseille","lat":43.27497,"lon":5.42456,"is_reserved":false,"is_disabled":false,"rental_uris":{"android":"levelo://app?vid=0f8b4da5-9757-4c80-a347-c10222ae41e5","ios":"levelo://app?vid=0f8b4da5-9757-4c80-a347-c10222ae41e5"},"vehicle_type_id":"4","last_reported":1745313079,"current_range_meters":16800,"station_id":"ce4bhn92rcd13ifvqgrg","pricing_plan_id":"cebpf4jnsgd1na2vs0mg"},{"bike_id":"635a6da7-33d3-4f56-a018-2b6db6c46b19","system_id":"levelo_inurba_marseille","lat":43.2767,"lon":5.38886,"is_reserved":false,"is_disabled":false,"rental_uris":{"android":"levelo://app?vid=635a6da7-33d3-4f56-a018-2b6db6c46b19","ios":"levelo://app?vid=635a6da7-33d3-4f56-a018-2b6db6c46b19"},"vehicle_type_id":"4","last_reported":1745313079,"current_range_meters":17200,"station_id":"ce4bhi12rcd13ifvqfo0","pricing_plan_id":"cebpf4jnsgd1na2vs0mg"},{"bike_id":"8a910ed3-108a-4497-9031-2889f24cbf12","system_id":"levelo_inurba_marseille","lat":43.27951,"lon":5.38723,"is_reserved":false,"is_disabled":false,"rental_uris":{"android":"levelo://app?vid=8a910ed3-108a-4497-9031-2889f24cbf12","ios":"levelo://app?vid=8a910ed3-108a-4497-9031-2889f24cbf12"},"vehicle_type_id":"4","last_reported":1745313079,"current_range_meters":17200,"station_id":"ce4bhg12rcd13ifvqf80","pricing_plan_id":"cebpf4jnsgd1na2vs0mg"},{"bike_id":"58829fb0-21d0-42c1-83c7-37d9278bdc14","system_id":"levelo_inurba_marseille","lat":43.30143,"lon":5.37422,"is_reserved":false,"is_disabled":false,"rental_uris":{"android":"levelo://app?vid=58829fb0-21d0-42c1-83c7-37d9278bdc14","ios":"levelo://app?vid=58829fb0-21d0-42c1-83c7-37d9278bdc14"},"vehicle_type_id":"4","last_reported":1745313079,"current_range_meters":17200,"station_id":"ce4bgs92rcd13ifvqcc0","pricing_plan_id":"cebpf4jnsgd1na2vs0mg"},{"bike_id":"96d509a0-8ae8-4aad-b2f6-8527c310c220","system_id":"levelo_inurba_marseille","lat":43.299821,"lon":5.371713,"is_reserved":false,"is_disabled":false,"rental_uris":{"android":"levelo://app?vid=96d509a0-8ae8-4aad-b2f6-8527c310c220","ios":"levelo://app?vid=96d509a0-8ae8-4aad-b2f6-8527c310c220"},"vehicle_type_id":"4","last_reported":1745313079,"current_range_meters":17200,"station_id":"ce4bgr92rcd13ifvqc7g","pricing_plan_id":"cebpf4jnsgd1na2vs0mg"},{"bike_id":"f1559c3a-92ff-4028-a1f0-8eeac54e1a9c","system_id":"levelo_inurba_marseille","lat":43.29636,"lon":5.40596,"is_reserved":false,"is_disabled":false,"rental_uris":{"android":"levelo://app?vid=f1559c3a-92ff-4028-a1f0-8eeac54e1a9c","ios":"levelo://app?vid=f1559c3a-92ff-4028-a1f0-8eeac54e1a9c"},"vehicle_type_id":"4","last_reported":1745313079,"current_range_meters":16800,"station_id":"ce4bh0h2rcd13ifvqd60","pricing_plan_id":"cebpf4jnsgd1na2vs0mg"},{"bike_id":"6280144b-b5ae-4d3b-ae3e-f2f8f419093d","system_id":"levelo_inurba_marseille","lat":43.31169,"lon":5.38726,"is_reserved":false,"is_disabled":false,"rental_uris":{"android":"levelo://app?vid=6280144b-b5ae-4d3b-ae3e-f2f8f419093d","ios":"levelo://app?vid=6280144b-b5ae-4d3b-ae3e-f2f8f419093d"},"vehicle_type_id":"4","last_reported":1745313079,"current_range_meters":16400,"station_id":"ce4bgv12rcd13ifvqcp0","pricing_plan_id":"cebpf4jnsgd1na2vs0mg"},{"bike_id":"63ad1e8a-350b-47cb-a0cb-14b7131b5a94","system_id":"levelo_inurba_marseille","lat":43.2707,"lon":5.42274,"is_reserved":false,"is_disabled":false,"rental_uris":{"android":"levelo://app?vid=63ad1e8a-350b-47cb-a0cb-14b7131b5a94","ios":"levelo://app?vid=63ad1e8a-350b-47cb-a0cb-14b7131b5a94"},"vehicle_type_id":"4","last_reported":1745313079,"current_range_meters":17200,"station_id":"ce4bhk92rcd13ifvqgb0","pricing_plan_id":"cebpf4jnsgd1na2vs0mg"},{"bike_id":"bcbf295f-e810-492e-b860-585eb03b6e63","system_id":"levelo_inurba_marseille","lat":43.300923,"lon":5.390907,"is_reserved":false,"is_disabled":true,"rental_uris":{"android":"levelo://app?vid=bcbf295f-e810-492e-b860-585eb03b6e63","ios":"levelo://app?vid=bcbf295f-e810-492e-b860-585eb03b6e63"},"vehicle_type_id":"4","last_reported":1745313079,"current_range_meters":17200,"station_id":"ce4bh192rcd13ifvqdb0","pricing_plan_id":"cebpf4jnsgd1na2vs0mg"},{"bike_id":"584387b4-187d-4f80-b338-fcdc107989ef","system_id":"levelo_inurba_marseille","lat":43.247395,"lon":5.411636,"is_reserved":false,"is_disabled":false,"rental_uris":{"android":"levelo://app?vid=584387b4-187d-4f80-b338-fcdc107989ef","ios":"levelo://app?vid=584387b4-187d-4f80-b338-fcdc107989ef"},"vehicle_type_id":"4","last_reported":1745313079,"current_range_meters":17200,"station_id":"","pricing_plan_id":"cebpf4jnsgd1na2vs0mg"},{"bike_id":"925e9e4e-06bb-4303-8c95-dea24f2a664a","system_id":"levelo_inurba_marseille","lat":43.29616,"lon":5.37157,"is_reserved":false,"is_disabled":false,"rental_uris":{"android":"levelo://app?vid=925e9e4e-06bb-4303-8c95-dea24f2a664a","ios":"levelo://app?vid=925e9e4e-06bb-4303-8c95-dea24f2a664a"},"vehicle_type_id":"4","last_reported":1745313079,"current_range_meters":18000,"station_id":"ce4bgnh2rcd13ifvqc0g","pricing_plan_id":"cebpf4jnsgd1na2vs0mg"},{"bike_id":"abd226a8-d003-4133-b9d2-b7c952b7ead1","system_id":"levelo_inurba_marseille","lat":43.2306,"lon":5.35503,"is_reserved":false,"is_disabled":false,"rental_uris":{"android":"levelo://app?vid=abd226a8-d003-4133-b9d2-b7c952b7ead1","ios":"levelo://app?vid=abd226a8-d003-4133-b9d2-b7c952b7ead1"},"vehicle_type_id":"4","last_reported":1745313079,"current_range_meters":17600,"station_id":"cpo3342slgdg3j2ifvpg","pricing_plan_id":"cebpf4jnsgd1na2vs0mg"},{"bike_id":"bfb6a197-fb29-40f0-a2e8-984f700e18b4","system_id":"levelo_inurba_marseille","lat":43.34138,"lon":5.40903,"is_reserved":false,"is_disabled":false,"rental_uris":{"android":"levelo://app?vid=bfb6a197-fb29-40f0-a2e8-984f700e18b4","ios":"levelo://app?vid=bfb6a197-fb29-40f0-a2e8-984f700e18b4"},"vehicle_type_id":"4","last_reported":1745313079,"current_range_meters":17600,"station_id":"ce4bhqh2rcd13ifvqhlg","pricing_plan_id":"cebpf4jnsgd1na2vs0mg"},{"bike_id":"298dffcc-a316-4297-a6d7-540b8d860fac","system_id":"levelo_inurba_marseille","lat":43.29414,"lon":5.38625,"is_reserved":false,"is_disabled":false,"rental_uris":{"android":"levelo://app?vid=298dffcc-a316-4297-a6d7-540b8d860fac","ios":"levelo://app?vid=298dffcc-a316-4297-a6d7-540b8d860fac"},"vehicle_type_id":"4","last_reported":1745313079,"current_range_meters":17600,"station_id":"ce4bh2h2rcd13ifvqdh0","pricing_plan_id":"cebpf4jnsgd1na2vs0mg"},{"bike_id":"52c71e5f-56fe-4950-a39d-75bc1e9e08fa","system_id":"levelo_inurba_marseille","lat":43.284419,"lon":5.392105,"is_reserved":false,"is_disabled":false,"rental_uris":{"android":"levelo://app?vid=52c71e5f-56fe-4950-a39d-75bc1e9e08fa","ios":"levelo://app?vid=52c71e5f-56fe-4950-a39d-75bc1e9e08fa"},"vehicle_type_id":"4","last_reported":1745313079,"current_range_meters":17600,"station_id":"ce4bhjp2rcd13ifvqg90","pricing_plan_id":"cebpf4jnsgd1na2vs0mg"},{"bike_id":"2fdec07d-a50d-44f0-b80e-4c88a9a4aa2f","system_id":"levelo_inurba_marseille","lat":43.26948,"lon":5.38631,"is_reserved":false,"is_disabled":false,"rental_uris":{"android":"levelo://app?vid=2fdec07d-a50d-44f0-b80e-4c88a9a4aa2f","ios":"levelo://app?vid=2fdec07d-a50d-44f0-b80e-4c88a9a4aa2f"},"vehicle_type_id":"4","last_reported":1745313079,"current_range_meters":17600,"station_id":"ce4bhh92rcd13ifvqfh0","pricing_plan_id":"cebpf4jnsgd1na2vs0mg"},{"bike_id":"98176d01-c4bf-4fdf-83d6-6aa3ea2e2a6a","system_id":"levelo_inurba_marseille","lat":43.314538,"lon":5.370493,"is_reserved":false,"is_disabled":false,"rental_uris":{"android":"levelo://app?vid=98176d01-c4bf-4fdf-83d6-6aa3ea2e2a6a","ios":"levelo://app?vid=98176d01-c4bf-4fdf-83d6-6aa3ea2e2a6a"},"vehicle_type_id":"4","last_reported":1745313079,"current_range_meters":18000,"station_id":"","pricing_plan_id":"cebpf4jnsgd1na2vs0mg"},{"bike_id":"7b2dc864-a4e9-468c-9cee-f3075a20977d","system_id":"levelo_inurba_marseille","lat":43.31469,"lon":5.37386,"is_reserved":false,"is_disabled":false,"rental_uris":{"android":"levelo://app?vid=7b2dc864-a4e9-468c-9cee-f3075a20977d","ios":"levelo://app?vid=7b2dc864-a4e9-468c-9cee-f3075a20977d"},"vehicle_type_id":"4","last_reported":1745313079,"current_range_meters":18000,"station_id":"","pricing_plan_id":"cebpf4jnsgd1na2vs0mg"},{"bike_id":"d974400f-ebe7-401e-8521-1085388dcb5a","system_id":"levelo_inurba_marseille","lat":43.31364,"lon":5.36722,"is_reserved":false,"is_disabled":false,"rental_uris":{"android":"levelo://app?vid=d974400f-ebe7-401e-8521-1085388dcb5a","ios":"levelo://app?vid=d974400f-ebe7-401e-8521-1085388dcb5a"},"vehicle_type_id":"4","last_reported":1745313079,"current_range_meters":18000,"station_id":"ce4bgr92rcd13ifvqc6g","pricing_plan_id":"cebpf4jnsgd1na2vs0mg"},{"bike_id":"3f5fab28-6a75-4a4a-8b2b-8b086db694c9","system_id":"levelo_inurba_marseille","lat":43.30538,"lon":5.36529,"is_reserved":false,"is_disabled":false,"rental_uris":{"android":"levelo://app?vid=3f5fab28-6a75-4a4a-8b2b-8b086db694c9","ios":"levelo://app?vid=3f5fab28-6a75-4a4a-8b2b-8b086db694c9"},"vehicle_type_id":"4","last_reported":1745313079,"current_range_meters":18000,"station_id":"ce4bgs12rcd13ifvqcag","pricing_plan_id":"cebpf4jnsgd1na2vs0mg"},{"bike_id":"4f75ee3a-fb2c-4f37-86a6-314d6d53b21a","system_id":"levelo_inurba_marseille","lat":43.28847,"lon":5.393,"is_reserved":false,"is_disabled":false,"rental_uris":{"android":"levelo://app?vid=4f75ee3a-fb2c-4f37-86a6-314d6d53b21a","ios":"levelo://app?vid=4f75ee3a-fb2c-4f37-86a6-314d6d53b21a"},"vehicle_type_id":"4","last_reported":1745313079,"current_range_meters":18000,"station_id":"ce4bh2p2rcd13ifvqdi0","pricing_plan_id":"cebpf4jnsgd1na2vs0mg"},{"bike_id":"1b903b38-38de-4714-9a2c-59836acfa168","system_id":"levelo_inurba_marseille","lat":43.31709,"lon":5.43699,"is_reserved":false,"is_disabled":true,"rental_uris":{"android":"levelo://app?vid=1b903b38-38de-4714-9a2c-59836acfa168","ios":"levelo://app?vid=1b903b38-38de-4714-9a2c-59836acfa168"},"vehicle_type_id":"4","last_reported":1745313079,"current_range_meters":18000,"station_id":"ce4bhp92rcd13ifvqhcg","pricing_plan_id":"cebpf4jnsgd1na2vs0mg"},{"bike_id":"46c7040a-90d9-471e-9741-4cd0b5916360","system_id":"levelo_inurba_marseille","lat":43.3361,"lon":5.40981,"is_reserved":false,"is_disabled":false,"rental_uris":{"android":"levelo://app?vid=46c7040a-90d9-471e-9741-4cd0b5916360","ios":"levelo://app?vid=46c7040a-90d9-471e-9741-4cd0b5916360"},"vehicle_type_id":"4","last_reported":1745313079,"current_range_meters":18800,"station_id":"ce4bhqh2rcd13ifvqhmg","pricing_plan_id":"cebpf4jnsgd1na2vs0mg"},{"bike_id":"99c37aa6-83ed-4977-8df7-ba1244e6769c","system_id":"levelo_inurba_marseille","lat":43.28859,"lon":5.35843,"is_reserved":false,"is_disabled":false,"rental_uris":{"android":"levelo://app?vid=99c37aa6-83ed-4977-8df7-ba1244e6769c","ios":"levelo://app?vid=99c37aa6-83ed-4977-8df7-ba1244e6769c"},"vehicle_type_id":"4","last_reported":1745313079,"current_range_meters":18800,"station_id":"ce4bhb12rcd13ifvqem0","pricing_plan_id":"cebpf4jnsgd1na2vs0mg"},{"bike_id":"f9467f08-e826-4ecf-8c0b-3632795c6fc9","system_id":"levelo_inurba_marseille","lat":43.32537,"lon":5.41438,"is_reserved":false,"is_disabled":false,"rental_uris":{"android":"levelo://app?vid=f9467f08-e826-4ecf-8c0b-3632795c6fc9","ios":"levelo://app?vid=f9467f08-e826-4ecf-8c0b-3632795c6fc9"},"vehicle_type_id":"4","last_reported":1745313079,"current_range_meters":18800,"station_id":"ce4bhq12rcd13ifvqhhg","pricing_plan_id":"cebpf4jnsgd1na2vs0mg"},{"bike_id":"3fae2d19-58f6-4839-b2ef-df4d996946e1","system_id":"levelo_inurba_marseille","lat":43.31273,"lon":5.36867,"is_reserved":false,"is_disabled":false,"rental_uris":{"android":"levelo://app?vid=3fae2d19-58f6-4839-b2ef-df4d996946e1","ios":"levelo://app?vid=3fae2d19-58f6-4839-b2ef-df4d996946e1"},"vehicle_type_id":"4","last_reported":1745313079,"current_range_meters":18800,"station_id":"","pricing_plan_id":"cebpf4jnsgd1na2vs0mg"},{"bike_id":"e35c5785-1951-4916-a3e3-c6c2d741b904","system_id":"levelo_inurba_marseille","lat":43.23172,"lon":5.43683,"is_reserved":false,"is_disabled":false,"rental_uris":{"android":"levelo://app?vid=e35c5785-1951-4916-a3e3-c6c2d741b904","ios":"levelo://app?vid=e35c5785-1951-4916-a3e3-c6c2d741b904"},"vehicle_type_id":"4","last_reported":1745313079,"current_range_meters":18800,"station_id":"ce4bhmp2rcd13ifvqgog","pricing_plan_id":"cebpf4jnsgd1na2vs0mg"},{"bike_id":"b3f0c53a-4d03-4f76-9284-4c3dd1e774a0","system_id":"levelo_inurba_marseille","lat":43.29265,"lon":5.38438,"is_reserved":false,"is_disabled":false,"rental_uris":{"android":"levelo://app?vid=b3f0c53a-4d03-4f76-9284-4c3dd1e774a0","ios":"levelo://app?vid=b3f0c53a-4d03-4f76-9284-4c3dd1e774a0"},"vehicle_type_id":"4","last_reported":1745313079,"current_range_meters":19200,"station_id":"ce4bh692rcd13ifvqea0","pricing_plan_id":"cebpf4jnsgd1na2vs0mg"},{"bike_id":"cb15f50a-d5cb-4017-b40b-b28b66eacf43","system_id":"levelo_inurba_marseille","lat":43.31178,"lon":5.36864,"is_reserved":false,"is_disabled":false,"rental_uris":{"android":"levelo://app?vid=cb15f50a-d5cb-4017-b40b-b28b66eacf43","ios":"levelo://app?vid=cb15f50a-d5cb-4017-b40b-b28b66eacf43"},"vehicle_type_id":"4","last_reported":1745313079,"current_range_meters":19200,"station_id":"","pricing_plan_id":"cebpf4jnsgd1na2vs0mg"},{"bike_id":"9773246e-d293-407e-ad75-6627caab4e08","system_id":"levelo_inurba_marseille","lat":43.29097,"lon":5.38124,"is_reserved":false,"is_disabled":false,"rental_uris":{"android":"levelo://app?vid=9773246e-d293-407e-ad75-6627caab4e08","ios":"levelo://app?vid=9773246e-d293-407e-ad75-6627caab4e08"},"vehicle_type_id":"4","last_reported":1745313079,"current_range_meters":19200,"station_id":"ce4bh512rcd13ifvqe2g","pricing_plan_id":"cebpf4jnsgd1na2vs0mg"},{"bike_id":"d26aecca-5b94-4bac-9927-82be229216f1","system_id":"levelo_inurba_marseille","lat":43.321183,"lon":5.367643,"is_reserved":false,"is_disabled":false,"rental_uris":{"android":"levelo://app?vid=d26aecca-5b94-4bac-9927-82be229216f1","ios":"levelo://app?vid=d26aecca-5b94-4bac-9927-82be229216f1"},"vehicle_type_id":"4","last_reported":1745313079,"current_range_meters":19200,"station_id":"ce4bhrh2rcd13ifvqhug","pricing_plan_id":"cebpf4jnsgd1na2vs0mg"},{"bike_id":"95c8d072-4839-405f-ab92-73b94ca6168e","system_id":"levelo_inurba_marseille","lat":43.31358,"lon":5.36684,"is_reserved":false,"is_disabled":false,"rental_uris":{"android":"levelo://app?vid=95c8d072-4839-405f-ab92-73b94ca6168e","ios":"levelo://app?vid=95c8d072-4839-405f-ab92-73b94ca6168e"},"vehicle_type_id":"4","last_reported":1745313079,"current_range_meters":19200,"station_id":"ce4bgr92rcd13ifvqc6g","pricing_plan_id":"cebpf4jnsgd1na2vs0mg"},{"bike_id":"427f805e-cfba-4025-b510-ca1d8419f957","system_id":"levelo_inurba_marseille","lat":43.31485,"lon":5.37305,"is_reserved":false,"is_disabled":false,"rental_uris":{"android":"levelo://app?vid=427f805e-cfba-4025-b510-ca1d8419f957","ios":"levelo://app?vid=427f805e-cfba-4025-b510-ca1d8419f957"},"vehicle_type_id":"4","last_reported":1745313079,"current_range_meters":19600,"station_id":"ce4bgt12rcd13ifvqcd0","pricing_plan_id":"cebpf4jnsgd1na2vs0mg"},{"bike_id":"a382bc37-13a2-49d0-8cb9-9f0b4596bddd","system_id":"levelo_inurba_marseille","lat":43.29255,"lon":5.38433,"is_reserved":false,"is_disabled":false,"rental_uris":{"android":"levelo://app?vid=a382bc37-13a2-49d0-8cb9-9f0b4596bddd","ios":"levelo://app?vid=a382bc37-13a2-49d0-8cb9-9f0b4596bddd"},"vehicle_type_id":"4","last_reported":1745313079,"current_range_meters":19600,"station_id":"ce4bh692rcd13ifvqea0","pricing_plan_id":"cebpf4jnsgd1na2vs0mg"},{"bike_id":"a8238180-b420-422f-b3a8-1881ead03453","system_id":"levelo_inurba_marseille","lat":43.2964,"lon":5.40602,"is_reserved":false,"is_disabled":false,"rental_uris":{"android":"levelo://app?vid=a8238180-b420-422f-b3a8-1881ead03453","ios":"levelo://app?vid=a8238180-b420-422f-b3a8-1881ead03453"},"vehicle_type_id":"4","last_reported":1745313079,"current_range_meters":19600,"station_id":"ce4bh0h2rcd13ifvqd60","pricing_plan_id":"cebpf4jnsgd1na2vs0mg"},{"bike_id":"23a70206-c668-4b13-b7be-084e5d7cdbcd","system_id":"levelo_inurba_marseille","lat":43.30134,"lon":5.37401,"is_reserved":false,"is_disabled":false,"rental_uris":{"android":"levelo://app?vid=23a70206-c668-4b13-b7be-084e5d7cdbcd","ios":"levelo://app?vid=23a70206-c668-4b13-b7be-084e5d7cdbcd"},"vehicle_type_id":"4","last_reported":1745313079,"current_range_meters":19600,"station_id":"ce4bgs92rcd13ifvqcc0","pricing_plan_id":"cebpf4jnsgd1na2vs0mg"},{"bike_id":"b141732b-2352-4556-9388-1706db944f8c","system_id":"levelo_inurba_marseille","lat":43.29364,"lon":5.37839,"is_reserved":false,"is_disabled":false,"rental_uris":{"android":"levelo://app?vid=b141732b-2352-4556-9388-1706db944f8c","ios":"levelo://app?vid=b141732b-2352-4556-9388-1706db944f8c"},"vehicle_type_id":"4","last_reported":1745313079,"current_range_meters":19600,"station_id":"ce4bgjh2rcd13ifvqbf0","pricing_plan_id":"cebpf4jnsgd1na2vs0mg"},{"bike_id":"6c529a69-6bec-4bbd-b005-78dcae034e37","system_id":"levelo_inurba_marseille","lat":43.29368,"lon":5.3784,"is_reserved":false,"is_disabled":false,"rental_uris":{"android":"levelo://app?vid=6c529a69-6bec-4bbd-b005-78dcae034e37","ios":"levelo://app?vid=6c529a69-6bec-4bbd-b005-78dcae034e37"},"vehicle_type_id":"4","last_reported":1745313079,"current_range_meters":19600,"station_id":"ce4bgjh2rcd13ifvqbf0","pricing_plan_id":"cebpf4jnsgd1na2vs0mg"},{"bike_id":"3b823fab-22a8-4c02-9ac2-9d77227daa1a","system_id":"levelo_inurba_marseille","lat":43.25938,"lon":5.40853,"is_reserved":false,"is_disabled":false,"rental_uris":{"android":"levelo://app?vid=3b823fab-22a8-4c02-9ac2-9d77227daa1a","ios":"levelo://app?vid=3b823fab-22a8-4c02-9ac2-9d77227daa1a"},"vehicle_type_id":"4","last_reported":1745313079,"current_range_meters":19600,"station_id":"ce4bhm92rcd13ifvqglg","pricing_plan_id":"cebpf4jnsgd1na2vs0mg"},{"bike_id":"7f420013-0055-40e6-87de-97d531f236c6","system_id":"levelo_inurba_marseille","lat":43.30895,"lon":5.36852,"is_reserved":false,"is_disabled":false,"rental_uris":{"android":"levelo://app?vid=7f420013-0055-40e6-87de-97d531f236c6","ios":"levelo://app?vid=7f420013-0055-40e6-87de-97d531f236c6"},"vehicle_type_id":"4","last_reported":1745313079,"current_range_meters":20000,"station_id":"ce4bgn92rcd13ifvqbvg","pricing_plan_id":"cebpf4jnsgd1na2vs0mg"},{"bike_id":"5292f775-aa53-42a8-a3e0-c63e6f16af9d","system_id":"levelo_inurba_marseille","lat":43.31474,"lon":5.37284,"is_reserved":false,"is_disabled":false,"rental_uris":{"android":"levelo://app?vid=5292f775-aa53-42a8-a3e0-c63e6f16af9d","ios":"levelo://app?vid=5292f775-aa53-42a8-a3e0-c63e6f16af9d"},"vehicle_type_id":"4","last_reported":1745313079,"current_range_meters":20000,"station_id":"ce4bgt12rcd13ifvqcd0","pricing_plan_id":"cebpf4jnsgd1na2vs0mg"},{"bike_id":"43f69d8d-df5e-425e-b41d-bcc37ca62603","system_id":"levelo_inurba_marseille","lat":43.27513,"lon":5.42472,"is_reserved":false,"is_disabled":true,"rental_uris":{"android":"levelo://app?vid=43f69d8d-df5e-425e-b41d-bcc37ca62603","ios":"levelo://app?vid=43f69d8d-df5e-425e-b41d-bcc37ca62603"},"vehicle_type_id":"4","last_reported":1745313079,"current_range_meters":20000,"station_id":"ce4bhn92rcd13ifvqgrg","pricing_plan_id":"cebpf4jnsgd1na2vs0mg"},{"bike_id":"6382d094-23f2-4d1e-9fc5-0b03894a7c4d","system_id":"levelo_inurba_marseille","lat":43.30417,"lon":5.39746,"is_reserved":false,"is_disabled":true,"rental_uris":{"android":"levelo://app?vid=6382d094-23f2-4d1e-9fc5-0b03894a7c4d","ios":"levelo://app?vid=6382d094-23f2-4d1e-9fc5-0b03894a7c4d"},"vehicle_type_id":"4","last_reported":1745313079,"current_range_meters":20000,"station_id":"ce4bh092rcd13ifvqd20","pricing_plan_id":"cebpf4jnsgd1na2vs0mg"},{"bike_id":"2c240fbb-bf5c-47bf-af92-6c6572a2d06c","system_id":"levelo_inurba_marseille","lat":43.29551,"lon":5.42287,"is_reserved":false,"is_disabled":false,"rental_uris":{"android":"levelo://app?vid=2c240fbb-bf5c-47bf-af92-6c6572a2d06c","ios":"levelo://app?vid=2c240fbb-bf5c-47bf-af92-6c6572a2d06c"},"vehicle_type_id":"4","last_reported":1745313079,"current_range_meters":20000,"station_id":"ce4bhph2rcd13ifvqhdg","pricing_plan_id":"cebpf4jnsgd1na2vs0mg"},{"bike_id":"4d08cf44-143d-4c6f-aeef-b1361f6ed5a3","system_id":"levelo_inurba_marseille","lat":43.3148,"lon":5.37304,"is_reserved":false,"is_disabled":false,"rental_uris":{"android":"levelo://app?vid=4d08cf44-143d-4c6f-aeef-b1361f6ed5a3","ios":"levelo://app?vid=4d08cf44-143d-4c6f-aeef-b1361f6ed5a3"},"vehicle_type_id":"4","last_reported":1745313079,"current_range_meters":20400,"station_id":"ce4bgt12rcd13ifvqcd0","pricing_plan_id":"cebpf4jnsgd1na2vs0mg"},{"bike_id":"fd4077f6-f014-43c5-9f36-b35d8c0d5d66","system_id":"levelo_inurba_marseille","lat":43.29789,"lon":5.39344,"is_reserved":false,"is_disabled":false,"rental_uris":{"android":"levelo://app?vid=fd4077f6-f014-43c5-9f36-b35d8c0d5d66","ios":"levelo://app?vid=fd4077f6-f014-43c5-9f36-b35d8c0d5d66"},"vehicle_type_id":"4","last_reported":1745313079,"current_range_meters":20400,"station_id":"chh1huq6cuj3fo74tm60","pricing_plan_id":"cebpf4jnsgd1na2vs0mg"},{"bike_id":"6eaf0f3f-0f95-4669-b2c4-3dd1f913f968","system_id":"levelo_inurba_marseille","lat":43.33716,"lon":5.39168,"is_reserved":false,"is_disabled":false,"rental_uris":{"android":"levelo://app?vid=6eaf0f3f-0f95-4669-b2c4-3dd1f913f968","ios":"levelo://app?vid=6eaf0f3f-0f95-4669-b2c4-3dd1f913f968"},"vehicle_type_id":"4","last_reported":1745313079,"current_range_meters":20400,"station_id":"ce4bhr92rcd13ifvqhsg","pricing_plan_id":"cebpf4jnsgd1na2vs0mg"},{"bike_id":"5710ae20-d914-4c2e-880b-c042da09cd54","system_id":"levelo_inurba_marseille","lat":43.31339,"lon":5.36729,"is_reserved":false,"is_disabled":false,"rental_uris":{"android":"levelo://app?vid=5710ae20-d914-4c2e-880b-c042da09cd54","ios":"levelo://app?vid=5710ae20-d914-4c2e-880b-c042da09cd54"},"vehicle_type_id":"4","last_reported":1745313079,"current_range_meters":20400,"station_id":"ce4bgr92rcd13ifvqc6g","pricing_plan_id":"cebpf4jnsgd1na2vs0mg"},{"bike_id":"20ede925-27e6-407f-8bf5-4c244f8341b4","system_id":"levelo_inurba_marseille","lat":43.24175,"lon":5.36399,"is_reserved":false,"is_disabled":false,"rental_uris":{"android":"levelo://app?vid=20ede925-27e6-407f-8bf5-4c244f8341b4","ios":"levelo://app?vid=20ede925-27e6-407f-8bf5-4c244f8341b4"},"vehicle_type_id":"4","last_reported":1745313079,"current_range_meters":20800,"station_id":"cpo36qri1sfpv3e86is0","pricing_plan_id":"cebpf4jnsgd1na2vs0mg"},{"bike_id":"0c8c78b4-2045-4125-8726-2df5b0f3fcc2","system_id":"levelo_inurba_marseille","lat":43.337444,"lon":5.374475,"is_reserved":false,"is_disabled":false,"rental_uris":{"android":"levelo://app?vid=0c8c78b4-2045-4125-8726-2df5b0f3fcc2","ios":"levelo://app?vid=0c8c78b4-2045-4125-8726-2df5b0f3fcc2"},"vehicle_type_id":"4","last_reported":1745313079,"current_range_meters":20800,"station_id":"ce4bhb92rcd13ifvqen0","pricing_plan_id":"cebpf4jnsgd1na2vs0mg"},{"bike_id":"be93974f-6177-4d66-b687-91bf4fee647b","system_id":"levelo_inurba_marseille","lat":43.26553,"lon":5.37283,"is_reserved":false,"is_disabled":false,"rental_uris":{"android":"levelo://app?vid=be93974f-6177-4d66-b687-91bf4fee647b","ios":"levelo://app?vid=be93974f-6177-4d66-b687-91bf4fee647b"},"vehicle_type_id":"4","last_reported":1745313079,"current_range_meters":20800,"station_id":"ce4bhg12rcd13ifvqf70","pricing_plan_id":"cebpf4jnsgd1na2vs0mg"},{"bike_id":"957260aa-34d3-4c69-a324-49a5f57ab629","system_id":"levelo_inurba_marseille","lat":43.31996,"lon":5.38168,"is_reserved":false,"is_disabled":false,"rental_uris":{"android":"levelo://app?vid=957260aa-34d3-4c69-a324-49a5f57ab629","ios":"levelo://app?vid=957260aa-34d3-4c69-a324-49a5f57ab629"},"vehicle_type_id":"4","last_reported":1745313079,"current_range_meters":20800,"station_id":"ce4bhr12rcd13ifvqhpg","pricing_plan_id":"cebpf4jnsgd1na2vs0mg"},{"bike_id":"1325bcb3-a3d2-4b70-b7c3-893c54e2de8d","system_id":"levelo_inurba_marseille","lat":43.25584,"lon":5.38231,"is_reserved":false,"is_disabled":false,"rental_uris":{"android":"levelo://app?vid=1325bcb3-a3d2-4b70-b7c3-893c54e2de8d","ios":"levelo://app?vid=1325bcb3-a3d2-4b70-b7c3-893c54e2de8d"},"vehicle_type_id":"4","last_reported":1745313079,"current_range_meters":20800,"station_id":"ce4bhih2rcd13ifvqfs0","pricing_plan_id":"cebpf4jnsgd1na2vs0mg"},{"bike_id":"e7a535f8-ed78-40de-8cdc-f8a1d2d90b31","system_id":"levelo_inurba_marseille","lat":43.24807,"lon":5.37459,"is_reserved":false,"is_disabled":true,"rental_uris":{"android":"levelo://app?vid=e7a535f8-ed78-40de-8cdc-f8a1d2d90b31","ios":"levelo://app?vid=e7a535f8-ed78-40de-8cdc-f8a1d2d90b31"},"vehicle_type_id":"4","last_reported":1745313079,"current_range_meters":20800,"station_id":"ce4bhgh2rcd13ifvqfb0","pricing_plan_id":"cebpf4jnsgd1na2vs0mg"},{"bike_id":"e780480c-1e40-45de-a6d4-feebbd911f18","system_id":"levelo_inurba_marseille","lat":43.23182,"lon":5.39981,"is_reserved":false,"is_disabled":false,"rental_uris":{"android":"levelo://app?vid=e780480c-1e40-45de-a6d4-feebbd911f18","ios":"levelo://app?vid=e780480c-1e40-45de-a6d4-feebbd911f18"},"vehicle_type_id":"4","last_reported":1745313079,"current_range_meters":20800,"station_id":"ce4bhn12rcd13ifvqgqg","pricing_plan_id":"cebpf4jnsgd1na2vs0mg"},{"bike_id":"5d6ce0cf-9f03-41a4-849f-504bf29dfe65","system_id":"levelo_inurba_marseille","lat":43.217479,"lon":5.345998,"is_reserved":false,"is_disabled":false,"rental_uris":{"android":"levelo://app?vid=5d6ce0cf-9f03-41a4-849f-504bf29dfe65","ios":"levelo://app?vid=5d6ce0cf-9f03-41a4-849f-504bf29dfe65"},"vehicle_type_id":"4","last_reported":1745313079,"current_range_meters":20800,"station_id":"st_cvj6r9ubvosntc0bgbag","pricing_plan_id":"cebpf4jnsgd1na2vs0mg"},{"bike_id":"2b59a03b-8bdf-4a5c-a1d2-9dea24219ead","system_id":"levelo_inurba_marseille","lat":43.25933,"lon":5.40848,"is_reserved":false,"is_disabled":true,"rental_uris":{"android":"levelo://app?vid=2b59a03b-8bdf-4a5c-a1d2-9dea24219ead","ios":"levelo://app?vid=2b59a03b-8bdf-4a5c-a1d2-9dea24219ead"},"vehicle_type_id":"4","last_reported":1745313079,"current_range_meters":20800,"station_id":"ce4bhm92rcd13ifvqglg","pricing_plan_id":"cebpf4jnsgd1na2vs0mg"},{"bike_id":"b5d609bf-0c9b-49e3-9426-ce02cb8383b8","system_id":"levelo_inurba_marseille","lat":43.341393,"lon":5.40913,"is_reserved":false,"is_disabled":true,"rental_uris":{"android":"levelo://app?vid=b5d609bf-0c9b-49e3-9426-ce02cb8383b8","ios":"levelo://app?vid=b5d609bf-0c9b-49e3-9426-ce02cb8383b8"},"vehicle_type_id":"4","last_reported":1745313079,"current_range_meters":21600,"station_id":"ce4bhqh2rcd13ifvqhlg","pricing_plan_id":"cebpf4jnsgd1na2vs0mg"},{"bike_id":"46374c49-3adc-4c5a-8966-e00f056c0d57","system_id":"levelo_inurba_marseille","lat":43.27846,"lon":5.35442,"is_reserved":false,"is_disabled":false,"rental_uris":{"android":"levelo://app?vid=46374c49-3adc-4c5a-8966-e00f056c0d57","ios":"levelo://app?vid=46374c49-3adc-4c5a-8966-e00f056c0d57"},"vehicle_type_id":"4","last_reported":1745313079,"current_range_meters":21600,"station_id":"","pricing_plan_id":"cebpf4jnsgd1na2vs0mg"},{"bike_id":"b4c9b5b6-5bb9-4046-8859-7fe66099343a","system_id":"levelo_inurba_marseille","lat":43.32553,"lon":5.41476,"is_reserved":false,"is_disabled":false,"rental_uris":{"android":"levelo://app?vid=b4c9b5b6-5bb9-4046-8859-7fe66099343a","ios":"levelo://app?vid=b4c9b5b6-5bb9-4046-8859-7fe66099343a"},"vehicle_type_id":"4","last_reported":1745313079,"current_range_meters":21600,"station_id":"ce4bhq12rcd13ifvqhhg","pricing_plan_id":"cebpf4jnsgd1na2vs0mg"},{"bike_id":"48810395-4692-45d2-8524-05d5e6b132e2","system_id":"levelo_inurba_marseille","lat":43.301513,"lon":5.380815,"is_reserved":false,"is_disabled":false,"rental_uris":{"android":"levelo://app?vid=48810395-4692-45d2-8524-05d5e6b132e2","ios":"levelo://app?vid=48810395-4692-45d2-8524-05d5e6b132e2"},"vehicle_type_id":"4","last_reported":1745313079,"current_range_meters":20800,"station_id":"ce4bgjp2rcd13ifvqbh0","pricing_plan_id":"cebpf4jnsgd1na2vs0mg"},{"bike_id":"895b3c21-6076-4b26-895b-65fc778430f8","system_id":"levelo_inurba_marseille","lat":43.303023,"lon":5.369015,"is_reserved":false,"is_disabled":false,"rental_uris":{"android":"levelo://app?vid=895b3c21-6076-4b26-895b-65fc778430f8","ios":"levelo://app?vid=895b3c21-6076-4b26-895b-65fc778430f8"},"vehicle_type_id":"4","last_reported":1745313079,"current_range_meters":21600,"station_id":"ce4bgqh2rcd13ifvqc5g","pricing_plan_id":"cebpf4jnsgd1na2vs0mg"},{"bike_id":"fcb1e6b0-4f82-41cc-b880-9b3615e7a8fc","system_id":"levelo_inurba_marseille","lat":43.29311,"lon":5.37172,"is_reserved":false,"is_disabled":false,"rental_uris":{"android":"levelo://app?vid=fcb1e6b0-4f82-41cc-b880-9b3615e7a8fc","ios":"levelo://app?vid=fcb1e6b0-4f82-41cc-b880-9b3615e7a8fc"},"vehicle_type_id":"4","last_reported":1745313079,"current_range_meters":20800,"station_id":"ce4bgh92rcd13ifvqb40","pricing_plan_id":"cebpf4jnsgd1na2vs0mg"},{"bike_id":"1b7a8bfb-c292-4b8c-9b9a-6f723c7d2347","system_id":"levelo_inurba_marseille","lat":43.27496,"lon":5.42465,"is_reserved":false,"is_disabled":false,"rental_uris":{"android":"levelo://app?vid=1b7a8bfb-c292-4b8c-9b9a-6f723c7d2347","ios":"levelo://app?vid=1b7a8bfb-c292-4b8c-9b9a-6f723c7d2347"},"vehicle_type_id":"4","last_reported":1745313079,"current_range_meters":22000,"station_id":"ce4bhn92rcd13ifvqgrg","pricing_plan_id":"cebpf4jnsgd1na2vs0mg"},{"bike_id":"72230011-10be-4bc5-b812-e255d2e856f3","system_id":"levelo_inurba_marseille","lat":43.27369,"lon":5.36255,"is_reserved":false,"is_disabled":false,"rental_uris":{"android":"levelo://app?vid=72230011-10be-4bc5-b812-e255d2e856f3","ios":"levelo://app?vid=72230011-10be-4bc5-b812-e255d2e856f3"},"vehicle_type_id":"4","last_reported":1745313079,"current_range_meters":22000,"station_id":"","pricing_plan_id":"cebpf4jnsgd1na2vs0mg"},{"bike_id":"581347e5-5b18-46ed-bf70-cac3079f2e76","system_id":"levelo_inurba_marseille","lat":43.28445,"lon":5.39203,"is_reserved":false,"is_disabled":false,"rental_uris":{"android":"levelo://app?vid=581347e5-5b18-46ed-bf70-cac3079f2e76","ios":"levelo://app?vid=581347e5-5b18-46ed-bf70-cac3079f2e76"},"vehicle_type_id":"4","last_reported":1745313079,"current_range_meters":22000,"station_id":"ce4bhoh2rcd13ifvqh5g","pricing_plan_id":"cebpf4jnsgd1na2vs0mg"},{"bike_id":"a4b0f5d3-48cf-48ae-be2f-af6ec79f7dd9","system_id":"levelo_inurba_marseille","lat":43.29436,"lon":5.39761,"is_reserved":false,"is_disabled":false,"rental_uris":{"android":"levelo://app?vid=a4b0f5d3-48cf-48ae-be2f-af6ec79f7dd9","ios":"levelo://app?vid=a4b0f5d3-48cf-48ae-be2f-af6ec79f7dd9"},"vehicle_type_id":"4","last_reported":1745313079,"current_range_meters":22000,"station_id":"ce4bh3h2rcd13ifvqdo0","pricing_plan_id":"cebpf4jnsgd1na2vs0mg"},{"bike_id":"06e0bcc9-ed28-4c26-a6e9-2713c37e868b","system_id":"levelo_inurba_marseille","lat":43.25923,"lon":5.40875,"is_reserved":false,"is_disabled":false,"rental_uris":{"android":"levelo://app?vid=06e0bcc9-ed28-4c26-a6e9-2713c37e868b","ios":"levelo://app?vid=06e0bcc9-ed28-4c26-a6e9-2713c37e868b"},"vehicle_type_id":"4","last_reported":1745313079,"current_range_meters":22000,"station_id":"ce4bhm92rcd13ifvqglg","pricing_plan_id":"cebpf4jnsgd1na2vs0mg"},{"bike_id":"e615da0c-3920-433f-86d3-db53e01ad793","system_id":"levelo_inurba_marseille","lat":43.255818,"lon":5.382327,"is_reserved":false,"is_disabled":false,"rental_uris":{"android":"levelo://app?vid=e615da0c-3920-433f-86d3-db53e01ad793","ios":"levelo://app?vid=e615da0c-3920-433f-86d3-db53e01ad793"},"vehicle_type_id":"4","last_reported":1745313079,"current_range_meters":22000,"station_id":"ce4bhih2rcd13ifvqfs0","pricing_plan_id":"cebpf4jnsgd1na2vs0mg"},{"bike_id":"14cdbefa-fec8-416f-b1ad-f563f6d91e28","system_id":"levelo_inurba_marseille","lat":43.2952,"lon":5.37505,"is_reserved":false,"is_disabled":false,"rental_uris":{"android":"levelo://app?vid=14cdbefa-fec8-416f-b1ad-f563f6d91e28","ios":"levelo://app?vid=14cdbefa-fec8-416f-b1ad-f563f6d91e28"},"vehicle_type_id":"4","last_reported":1745313079,"current_range_meters":22400,"station_id":"ce4bgkp2rcd13ifvqbmg","pricing_plan_id":"cebpf4jnsgd1na2vs0mg"},{"bike_id":"68df20cc-bc9c-4070-a236-42fac1079fd5","system_id":"levelo_inurba_marseille","lat":43.295738,"lon":5.399804,"is_reserved":false,"is_disabled":false,"rental_uris":{"android":"levelo://app?vid=68df20cc-bc9c-4070-a236-42fac1079fd5","ios":"levelo://app?vid=68df20cc-bc9c-4070-a236-42fac1079fd5"},"vehicle_type_id":"4","last_reported":1745313079,"current_range_meters":22400,"station_id":"ce4bh2h2rcd13ifvqdh0","pricing_plan_id":"cebpf4jnsgd1na2vs0mg"},{"bike_id":"34d2c59c-0396-4e7e-a7f7-dec50229f609","system_id":"levelo_inurba_marseille","lat":43.29786,"lon":5.3808,"is_reserved":false,"is_disabled":false,"rental_uris":{"android":"levelo://app?vid=34d2c59c-0396-4e7e-a7f7-dec50229f609","ios":"levelo://app?vid=34d2c59c-0396-4e7e-a7f7-dec50229f609"},"vehicle_type_id":"4","last_reported":1745313079,"current_range_meters":22400,"station_id":"ce4bgip2rcd13ifvqbb0","pricing_plan_id":"cebpf4jnsgd1na2vs0mg"},{"bike_id":"fa29dfd6-13db-44df-ba49-cf732146b122","system_id":"levelo_inurba_marseille","lat":43.30548,"lon":5.36533,"is_reserved":false,"is_disabled":false,"rental_uris":{"android":"levelo://app?vid=fa29dfd6-13db-44df-ba49-cf732146b122","ios":"levelo://app?vid=fa29dfd6-13db-44df-ba49-cf732146b122"},"vehicle_type_id":"4","last_reported":1745313079,"current_range_meters":22400,"station_id":"ce4bgs12rcd13ifvqcag","pricing_plan_id":"cebpf4jnsgd1na2vs0mg"},{"bike_id":"05e0b9f0-c654-4a11-94b7-a3c914bb2e2b","system_id":"levelo_inurba_marseille","lat":43.27069,"lon":5.42282,"is_reserved":false,"is_disabled":false,"rental_uris":{"android":"levelo://app?vid=05e0b9f0-c654-4a11-94b7-a3c914bb2e2b","ios":"levelo://app?vid=05e0b9f0-c654-4a11-94b7-a3c914bb2e2b"},"vehicle_type_id":"4","last_reported":1745313079,"current_range_meters":22400,"station_id":"ce4bhk92rcd13ifvqgb0","pricing_plan_id":"cebpf4jnsgd1na2vs0mg"},{"bike_id":"97a1af6b-b232-4c2f-9e7b-6a58940921ce","system_id":"levelo_inurba_marseille","lat":43.27488,"lon":5.42467,"is_reserved":false,"is_disabled":false,"rental_uris":{"android":"levelo://app?vid=97a1af6b-b232-4c2f-9e7b-6a58940921ce","ios":"levelo://app?vid=97a1af6b-b232-4c2f-9e7b-6a58940921ce"},"vehicle_type_id":"4","last_reported":1745313079,"current_range_meters":22400,"station_id":"ce4bhn92rcd13ifvqgrg","pricing_plan_id":"cebpf4jnsgd1na2vs0mg"},{"bike_id":"f9d6e2e6-9be0-49a5-bbdb-abfa59585624","system_id":"levelo_inurba_marseille","lat":43.2749,"lon":5.42461,"is_reserved":false,"is_disabled":false,"rental_uris":{"android":"levelo://app?vid=f9d6e2e6-9be0-49a5-bbdb-abfa59585624","ios":"levelo://app?vid=f9d6e2e6-9be0-49a5-bbdb-abfa59585624"},"vehicle_type_id":"4","last_reported":1745313079,"current_range_meters":22400,"station_id":"ce4bhn92rcd13ifvqgrg","pricing_plan_id":"cebpf4jnsgd1na2vs0mg"},{"bike_id":"e1664430-5a06-4a4f-8749-5307f4b3cb62","system_id":"levelo_inurba_marseille","lat":43.29288,"lon":5.37459,"is_reserved":false,"is_disabled":false,"rental_uris":{"android":"levelo://app?vid=e1664430-5a06-4a4f-8749-5307f4b3cb62","ios":"levelo://app?vid=e1664430-5a06-4a4f-8749-5307f4b3cb62"},"vehicle_type_id":"4","last_reported":1745313079,"current_range_meters":22000,"station_id":"ce4bgi12rcd13ifvqb70","pricing_plan_id":"cebpf4jnsgd1na2vs0mg"},{"bike_id":"550efd78-d467-45c6-96e6-6f1ba84d9fc6","system_id":"levelo_inurba_marseille","lat":43.29272,"lon":5.37627,"is_reserved":false,"is_disabled":false,"rental_uris":{"android":"levelo://app?vid=550efd78-d467-45c6-96e6-6f1ba84d9fc6","ios":"levelo://app?vid=550efd78-d467-45c6-96e6-6f1ba84d9fc6"},"vehicle_type_id":"4","last_reported":1745313079,"current_range_meters":22800,"station_id":"ce4bgi12rcd13ifvqb80","pricing_plan_id":"cebpf4jnsgd1na2vs0mg"},{"bike_id":"1de7d85a-7ad1-44bd-a39b-26434cbcad37","system_id":"levelo_inurba_marseille","lat":43.32114,"lon":5.36765,"is_reserved":false,"is_disabled":false,"rental_uris":{"android":"levelo://app?vid=1de7d85a-7ad1-44bd-a39b-26434cbcad37","ios":"levelo://app?vid=1de7d85a-7ad1-44bd-a39b-26434cbcad37"},"vehicle_type_id":"4","last_reported":1745313079,"current_range_meters":22800,"station_id":"ce4bhrh2rcd13ifvqhug","pricing_plan_id":"cebpf4jnsgd1na2vs0mg"},{"bike_id":"36c078e8-06ee-4b6f-a720-e2b8d5b2efaf","system_id":"levelo_inurba_marseille","lat":43.2927,"lon":5.3684,"is_reserved":false,"is_disabled":true,"rental_uris":{"android":"levelo://app?vid=36c078e8-06ee-4b6f-a720-e2b8d5b2efaf","ios":"levelo://app?vid=36c078e8-06ee-4b6f-a720-e2b8d5b2efaf"},"vehicle_type_id":"4","last_reported":1745313079,"current_range_meters":22800,"station_id":"ce4bhbp2rcd13ifvqesg","pricing_plan_id":"cebpf4jnsgd1na2vs0mg"},{"bike_id":"74f8a141-9d34-4dce-9416-bcc73538203a","system_id":"levelo_inurba_marseille","lat":43.32491,"lon":5.3657,"is_reserved":false,"is_disabled":false,"rental_uris":{"android":"levelo://app?vid=74f8a141-9d34-4dce-9416-bcc73538203a","ios":"levelo://app?vid=74f8a141-9d34-4dce-9416-bcc73538203a"},"vehicle_type_id":"4","last_reported":1745313079,"current_range_meters":22800,"station_id":"ce4bhs12rcd13ifvqhvg","pricing_plan_id":"cebpf4jnsgd1na2vs0mg"},{"bike_id":"7df2e2ed-8db9-4a3c-bce2-252bf293b60a","system_id":"levelo_inurba_marseille","lat":43.284576,"lon":5.358817,"is_reserved":false,"is_disabled":false,"rental_uris":{"android":"levelo://app?vid=7df2e2ed-8db9-4a3c-bce2-252bf293b60a","ios":"levelo://app?vid=7df2e2ed-8db9-4a3c-bce2-252bf293b60a"},"vehicle_type_id":"4","last_reported":1745313079,"current_range_meters":22800,"station_id":"ce4bhah2rcd13ifvqei0","pricing_plan_id":"cebpf4jnsgd1na2vs0mg"},{"bike_id":"b0f7c99e-9fc5-4cd3-a40b-9030936d2935","system_id":"levelo_inurba_marseille","lat":43.31226,"lon":5.36852,"is_reserved":false,"is_disabled":false,"rental_uris":{"android":"levelo://app?vid=b0f7c99e-9fc5-4cd3-a40b-9030936d2935","ios":"levelo://app?vid=b0f7c99e-9fc5-4cd3-a40b-9030936d2935"},"vehicle_type_id":"4","last_reported":1745313079,"current_range_meters":22800,"station_id":"ce4bgl92rcd13ifvqbq0","pricing_plan_id":"cebpf4jnsgd1na2vs0mg"},{"bike_id":"5630f52d-0448-4fa0-94dd-5eaa69c05d03","system_id":"levelo_inurba_marseille","lat":43.27069,"lon":5.42273,"is_reserved":false,"is_disabled":false,"rental_uris":{"android":"levelo://app?vid=5630f52d-0448-4fa0-94dd-5eaa69c05d03","ios":"levelo://app?vid=5630f52d-0448-4fa0-94dd-5eaa69c05d03"},"vehicle_type_id":"4","last_reported":1745313079,"current_range_meters":23200,"station_id":"ce4bhk92rcd13ifvqgb0","pricing_plan_id":"cebpf4jnsgd1na2vs0mg"},{"bike_id":"dcd16c10-01d4-425b-bf0f-1d962adb14dd","system_id":"levelo_inurba_marseille","lat":43.29025,"lon":5.38646,"is_reserved":false,"is_disabled":false,"rental_uris":{"android":"levelo://app?vid=dcd16c10-01d4-425b-bf0f-1d962adb14dd","ios":"levelo://app?vid=dcd16c10-01d4-425b-bf0f-1d962adb14dd"},"vehicle_type_id":"4","last_reported":1745313079,"current_range_meters":23200,"station_id":"ce4bh4p2rcd13ifvqe0g","pricing_plan_id":"cebpf4jnsgd1na2vs0mg"},{"bike_id":"9181a354-49fa-45e3-b5c1-b7dca6746d38","system_id":"levelo_inurba_marseille","lat":43.25932,"lon":5.40888,"is_reserved":false,"is_disabled":false,"rental_uris":{"android":"levelo://app?vid=9181a354-49fa-45e3-b5c1-b7dca6746d38","ios":"levelo://app?vid=9181a354-49fa-45e3-b5c1-b7dca6746d38"},"vehicle_type_id":"4","last_reported":1745313079,"current_range_meters":23200,"station_id":"ce4bhm92rcd13ifvqglg","pricing_plan_id":"cebpf4jnsgd1na2vs0mg"},{"bike_id":"192d51cc-116a-4926-aa4a-e1515bcb8248","system_id":"levelo_inurba_marseille","lat":43.2998,"lon":5.38486,"is_reserved":false,"is_disabled":true,"rental_uris":{"android":"levelo://app?vid=192d51cc-116a-4926-aa4a-e1515bcb8248","ios":"levelo://app?vid=192d51cc-116a-4926-aa4a-e1515bcb8248"},"vehicle_type_id":"4","last_reported":1745313079,"current_range_meters":23200,"station_id":"ce4bgj92rcd13ifvqbd0","pricing_plan_id":"cebpf4jnsgd1na2vs0mg"},{"bike_id":"d7ce9eda-b8c1-4cfc-a14a-ea4b6b2fc45b","system_id":"levelo_inurba_marseille","lat":43.30542,"lon":5.36538,"is_reserved":false,"is_disabled":false,"rental_uris":{"android":"levelo://app?vid=d7ce9eda-b8c1-4cfc-a14a-ea4b6b2fc45b","ios":"levelo://app?vid=d7ce9eda-b8c1-4cfc-a14a-ea4b6b2fc45b"},"vehicle_type_id":"4","last_reported":1745313079,"current_range_meters":23200,"station_id":"ce4bgs12rcd13ifvqcag","pricing_plan_id":"cebpf4jnsgd1na2vs0mg"},{"bike_id":"5097b238-1ec2-4d6f-815b-137f1ac948f4","system_id":"levelo_inurba_marseille","lat":43.28379,"lon":5.38636,"is_reserved":false,"is_disabled":false,"rental_uris":{"android":"levelo://app?vid=5097b238-1ec2-4d6f-815b-137f1ac948f4","ios":"levelo://app?vid=5097b238-1ec2-4d6f-815b-137f1ac948f4"},"vehicle_type_id":"4","last_reported":1745313079,"current_range_meters":22800,"station_id":"ce4bh492rcd13ifvqdvg","pricing_plan_id":"cebpf4jnsgd1na2vs0mg"},{"bike_id":"47f08d42-5eaa-4a20-b015-96520f91dc2d","system_id":"levelo_inurba_marseille","lat":43.30144,"lon":5.38084,"is_reserved":false,"is_disabled":false,"rental_uris":{"android":"levelo://app?vid=47f08d42-5eaa-4a20-b015-96520f91dc2d","ios":"levelo://app?vid=47f08d42-5eaa-4a20-b015-96520f91dc2d"},"vehicle_type_id":"4","last_reported":1745313079,"current_range_meters":22800,"station_id":"ce4bgjp2rcd13ifvqbh0","pricing_plan_id":"cebpf4jnsgd1na2vs0mg"},{"bike_id":"1bf492b2-ee03-417f-9193-e022b984f566","system_id":"levelo_inurba_marseille","lat":43.25947,"lon":5.40878,"is_reserved":false,"is_disabled":true,"rental_uris":{"android":"levelo://app?vid=1bf492b2-ee03-417f-9193-e022b984f566","ios":"levelo://app?vid=1bf492b2-ee03-417f-9193-e022b984f566"},"vehicle_type_id":"4","last_reported":1745313079,"current_range_meters":24000,"station_id":"ce4bhm92rcd13ifvqglg","pricing_plan_id":"cebpf4jnsgd1na2vs0mg"},{"bike_id":"3b8b0bee-2f8a-438c-bf8a-e5f258f2f8a6","system_id":"levelo_inurba_marseille","lat":43.29547,"lon":5.423,"is_reserved":false,"is_disabled":false,"rental_uris":{"android":"levelo://app?vid=3b8b0bee-2f8a-438c-bf8a-e5f258f2f8a6","ios":"levelo://app?vid=3b8b0bee-2f8a-438c-bf8a-e5f258f2f8a6"},"vehicle_type_id":"4","last_reported":1745313079,"current_range_meters":24000,"station_id":"ce4bhph2rcd13ifvqhdg","pricing_plan_id":"cebpf4jnsgd1na2vs0mg"},{"bike_id":"ac1db382-ef8a-4e6d-872b-99760272d17d","system_id":"levelo_inurba_marseille","lat":43.28099,"lon":5.37835,"is_reserved":false,"is_disabled":true,"rental_uris":{"android":"levelo://app?vid=ac1db382-ef8a-4e6d-872b-99760272d17d","ios":"levelo://app?vid=ac1db382-ef8a-4e6d-872b-99760272d17d"},"vehicle_type_id":"4","last_reported":1745313079,"current_range_meters":24000,"station_id":"ce4bha12rcd13ifvqee0","pricing_plan_id":"cebpf4jnsgd1na2vs0mg"},{"bike_id":"9ce12d6b-a9c6-4985-8789-45a99ea794ca","system_id":"levelo_inurba_marseille","lat":43.294334,"lon":5.386838,"is_reserved":false,"is_disabled":false,"rental_uris":{"android":"levelo://app?vid=9ce12d6b-a9c6-4985-8789-45a99ea794ca","ios":"levelo://app?vid=9ce12d6b-a9c6-4985-8789-45a99ea794ca"},"vehicle_type_id":"4","last_reported":1745313079,"current_range_meters":24000,"station_id":"ce4bh2h2rcd13ifvqdh0","pricing_plan_id":"cebpf4jnsgd1na2vs0mg"},{"bike_id":"73b4a344-a4c4-4c14-a845-57568532e26a","system_id":"levelo_inurba_marseille","lat":43.27968,"lon":5.38732,"is_reserved":false,"is_disabled":false,"rental_uris":{"android":"levelo://app?vid=73b4a344-a4c4-4c14-a845-57568532e26a","ios":"levelo://app?vid=73b4a344-a4c4-4c14-a845-57568532e26a"},"vehicle_type_id":"4","last_reported":1745313079,"current_range_meters":22400,"station_id":"ce4bhg12rcd13ifvqf80","pricing_plan_id":"cebpf4jnsgd1na2vs0mg"},{"bike_id":"68c779f1-cdd0-4bb7-a2d1-87026f6b870b","system_id":"levelo_inurba_marseille","lat":43.24075,"lon":5.37734,"is_reserved":false,"is_disabled":false,"rental_uris":{"android":"levelo://app?vid=68c779f1-cdd0-4bb7-a2d1-87026f6b870b","ios":"levelo://app?vid=68c779f1-cdd0-4bb7-a2d1-87026f6b870b"},"vehicle_type_id":"4","last_reported":1745313079,"current_range_meters":24000,"station_id":"ce4bhnp2rcd13ifvqgvg","pricing_plan_id":"cebpf4jnsgd1na2vs0mg"},{"bike_id":"efac55b3-b697-4867-8617-ebda683e4eb6","system_id":"levelo_inurba_marseille","lat":43.25007,"lon":5.38926,"is_reserved":false,"is_disabled":false,"rental_uris":{"android":"levelo://app?vid=efac55b3-b697-4867-8617-ebda683e4eb6","ios":"levelo://app?vid=efac55b3-b697-4867-8617-ebda683e4eb6"},"vehicle_type_id":"4","last_reported":1745313079,"current_range_meters":24000,"station_id":"ce4bhgp2rcd13ifvqfd0","pricing_plan_id":"cebpf4jnsgd1na2vs0mg"},{"bike_id":"86908281-8006-4dbd-b36f-35c2845f8a21","system_id":"levelo_inurba_marseille","lat":43.32532,"lon":5.41456,"is_reserved":false,"is_disabled":false,"rental_uris":{"android":"levelo://app?vid=86908281-8006-4dbd-b36f-35c2845f8a21","ios":"levelo://app?vid=86908281-8006-4dbd-b36f-35c2845f8a21"},"vehicle_type_id":"4","last_reported":1745313079,"current_range_meters":24000,"station_id":"ce4bhq12rcd13ifvqhhg","pricing_plan_id":"cebpf4jnsgd1na2vs0mg"},{"bike_id":"fdc79fbf-e0d3-4d96-a17f-27081b550fd1","system_id":"levelo_inurba_marseille","lat":43.27071,"lon":5.42281,"is_reserved":false,"is_disabled":false,"rental_uris":{"android":"levelo://app?vid=fdc79fbf-e0d3-4d96-a17f-27081b550fd1","ios":"levelo://app?vid=fdc79fbf-e0d3-4d96-a17f-27081b550fd1"},"vehicle_type_id":"4","last_reported":1745313079,"current_range_meters":24000,"station_id":"ce4bhk92rcd13ifvqgb0","pricing_plan_id":"cebpf4jnsgd1na2vs0mg"},{"bike_id":"34dbdcc3-d435-4117-97a1-2d42278fbb75","system_id":"levelo_inurba_marseille","lat":43.29194,"lon":5.35795,"is_reserved":false,"is_disabled":false,"rental_uris":{"android":"levelo://app?vid=34dbdcc3-d435-4117-97a1-2d42278fbb75","ios":"levelo://app?vid=34dbdcc3-d435-4117-97a1-2d42278fbb75"},"vehicle_type_id":"4","last_reported":1745313079,"current_range_meters":24000,"station_id":"ce4bhb12rcd13ifvqel0","pricing_plan_id":"cebpf4jnsgd1na2vs0mg"},{"bike_id":"940d522f-7f70-40c6-9d6e-f7a050c317db","system_id":"levelo_inurba_marseille","lat":43.33599,"lon":5.41005,"is_reserved":false,"is_disabled":false,"rental_uris":{"android":"levelo://app?vid=940d522f-7f70-40c6-9d6e-f7a050c317db","ios":"levelo://app?vid=940d522f-7f70-40c6-9d6e-f7a050c317db"},"vehicle_type_id":"4","last_reported":1745313079,"current_range_meters":24400,"station_id":"ce4bhqh2rcd13ifvqhmg","pricing_plan_id":"cebpf4jnsgd1na2vs0mg"},{"bike_id":"86856419-791d-4321-9c1a-9c520c4abbdf","system_id":"levelo_inurba_marseille","lat":43.29978,"lon":5.37189,"is_reserved":false,"is_disabled":false,"rental_uris":{"android":"levelo://app?vid=86856419-791d-4321-9c1a-9c520c4abbdf","ios":"levelo://app?vid=86856419-791d-4321-9c1a-9c520c4abbdf"},