{"last_updated":1713719244,"ttl":30,"version":"2.2","data":{"bikes":[{"bike_id":"206b1fd1-e3b1-408e-8542-74e0244ea62d","system_id":"levelo_inurba_marseille","lat":43.312419,"lon":5.367583,"is_reserved":false,"is_disabled":false,"rental_uris":{"android":"levelo://app?vid=206b1fd1-e3b1-408e-8542-74e0244ea62d","ios":"levelo://app?vid=206b1fd1-e3b1-408e-8542-74e0244ea62d"},"vehicle_type_id":"4","last_reported":1713719244,"current_range_meters":17200,"station_id":"","pricing_plan_id":"cebpf4jnsgd1na2vs0mg"},{"bike_id":"41b5afa9-d10d-4560-8dc6-e86dc083d33b","system_id":"levelo_inurba_marseille","lat":43.312239,"lon":5.368562,"is_reserved":false,"is_disabled":false,"rental_uris":{"android":"levelo://app?vid=41b5afa9-d10d-4560-8dc6-e86dc083d33b","ios":"levelo://app?vid=41b5afa9-d10d-4560-8dc6-e86dc083d33b"},"vehicle_type_id":"4","last_reported":1713719244,"current_range_meters":15600,"station_id":"ce4bgl92rcd13ifvqbq0","pricing_plan_id":"cebpf4jnsgd1na2vs0mg"},{"bike_id":"0f78c24a-1059-4205-9c40-4d42e9c82f34","system_id":"levelo_inurba_marseille","lat":43.312154,"lon":5.368534,"is_reserved":false,"is_disabled":false,"rental_uris":{"android":"levelo://app?vid=0f78c24a-1059-4205-9c40-4d42e9c82f34","ios":"levelo://app?vid=0f78c24a-1059-4205-9c40-4d42e9c82f34"},"vehicle_type_id":"4","last_reported":1713719244,"current_range_meters":0,"station_id":"ce4bgl92rcd13ifvqbq0","pricing_plan_id":"cebpf4jnsgd1na2vs0mg"},{"bike_id":"bb057d6e-ee49-4e03-ab51-2fb3f1503721","system_id":"levelo_inurba_marseille","lat":43.312239,"lon":5.368562,"is_reserved":false,"is_disabled":false,"rental_uris":{"android":"levelo://app?vid=bb057d6e-ee49-4e03-ab51-2fb3f1503721","ios":"levelo://app?vid=bb057d6e-ee49-4e03-ab51-2fb3f1503721"},"vehicle_type_id":"4","last_reported":1713719244,"current_range_meters":0,"station_id":"ce4bgl92rcd13ifvqbq0","pricing_plan_id":"cebpf4jnsgd1na2vs0mg"},{"bike_id":"19509c50-e940-4875-a688-efbbd9249ae8","system_id":"levelo_inurba_marseille","lat":43.309076,"lon":5.368465,"is_reserved":false,"is_disabled":false,"rental_uris":{"android":"levelo://app?vid=19509c50-e940-4875-a688-efbbd9249ae8","ios":"levelo://app?vid=19509c50-e940-4875-a688-efbbd9249ae8"},"vehicle_type_id":"4","last_reported":1713719244,"current_range_meters":0,"station_id":"ce4bgn92rcd13ifvqbvg","pricing_plan_id":"cebpf4jnsgd1na2vs0mg"},{"bike_id":"0a40c872-a16e-4ede-893c-0a20322cc132","system_id":"levelo_inurba_marseille","lat":43.309338,"lon":5.370978,"is_reserved":false,"is_disabled":false,"rental_uris":{"android":"levelo://app?vid=0a40c872-a16e-4ede-893c-0a20322cc132","ios":"levelo://app?vid=0a40c872-a16e-4ede-893c-0a20322cc132"},"vehicle_type_id":"4","last_reported":1713719244,"current_range_meters":0,"station_id":"","pricing_plan_id":"cebpf4jnsgd1na2vs0mg"},{"bike_id":"b8ed620f-fa0a-4935-a48a-57565c75923e","system_id":"levelo_inurba_marseille","lat":43.314811,"lon":5.373104,"is_reserved":false,"is_disabled":false,"rental_uris":{"android":"levelo://app?vid=b8ed620f-fa0a-4935-a48a-57565c75923e","ios":"levelo://app?vid=b8ed620f-fa0a-4935-a48a-57565c75923e"},"vehicle_type_id":"4","last_reported":1713719244,"current_range_meters":2400,"station_id":"ce4bgt12rcd13ifvqcd0","pricing_plan_id":"cebpf4jnsgd1na2vs0mg"},{"bike_id":"31bacc11-3648-4e4d-be2d-df1b12e9bccb","system_id":"levelo_inurba_marseille","lat":43.30767,"lon":5.36786,"is_reserved":false,"is_disabled":false,"rental_uris":{"android":"levelo://app?vid=31bacc11-3648-4e4d-be2d-df1b12e9bccb","ios":"levelo://app?vid=31bacc11-3648-4e4d-be2d-df1b12e9bccb"},"vehicle_type_id":"4","last_reported":1713719244,"current_range_meters":0,"station_id":"","pricing_plan_id":"cebpf4jnsgd1na2vs0mg"},{"bike_id":"a5dc47a7-f3e6-499a-a83d-d19692770994","system_id":"levelo_inurba_marseille","lat":43.308909,"lon":5.371757,"is_reserved":false,"is_disabled":false,"rental_uris":{"android":"levelo://app?vid=a5dc47a7-f3e6-499a-a83d-d19692770994","ios":"levelo://app?vid=a5dc47a7-f3e6-499a-a83d-d19692770994"},"vehicle_type_id":"4","last_reported":1713719244,"current_range_meters":0,"station_id":"ce4bguh2rcd13ifvqckg","pricing_plan_id":"cebpf4jnsgd1na2vs0mg"},{"bike_id":"6538db34-65a8-43f1-850a-cfbbdec7bcf6","system_id":"levelo_inurba_marseille","lat":43.309039,"lon":5.371797,"is_reserved":false,"is_disabled":false,"rental_uris":{"android":"levelo://app?vid=6538db34-65a8-43f1-850a-cfbbdec7bcf6","ios":"levelo://app?vid=6538db34-65a8-43f1-850a-cfbbdec7bcf6"},"vehicle_type_id":"4","last_reported":1713719244,"current_range_meters":0,"station_id":"ce4bguh2rcd13ifvqckg","pricing_plan_id":"cebpf4jnsgd1na2vs0mg"},{"bike_id":"e66c97df-d0db-41c8-9889-e5670502a317","system_id":"levelo_inurba_marseille","lat":43.309039,"lon":5.371797,"is_reserved":false,"is_disabled":false,"rental_uris":{"android":"levelo://app?vid=e66c97df-d0db-41c8-9889-e5670502a317","ios":"levelo://app?vid=e66c97df-d0db-41c8-9889-e5670502a317"},"vehicle_type_id":"4","last_reported":1713719244,"current_range_meters":12000,"station_id":"ce4bguh2rcd13ifvqckg","pricing_plan_id":"cebpf4jnsgd1na2vs0mg"},{"bike_id":"93ccb54c-386c-4d5a-ab56-b106d7aa95f7","system_id":"levelo_inurba_marseille","lat":43.30537,"lon":5.367345,"is_reserved":false,"is_disabled":false,"rental_uris":{"android":"levelo://app?vid=93ccb54c-386c-4d5a-ab56-b106d7aa95f7","ios":"levelo://app?vid=93ccb54c-386c-4d5a-ab56-b106d7aa95f7"},"vehicle_type_id":"4","last_reported":1713719244,"current_range_meters":10800,"station_id":"ce4bgrp2rcd13ifvqc9g","pricing_plan_id":"cebpf4jnsgd1na2vs0mg"},{"bike_id":"7a6119b7-06db-4d8e-ae3f-a001b3d322a2","system_id":"levelo_inurba_marseille","lat":43.305368,"lon":5.367343,"is_reserved":false,"is_disabled":false,"rental_uris":{"android":"levelo://app?vid=7a6119b7-06db-4d8e-ae3f-a001b3d322a2","ios":"levelo://app?vid=7a6119b7-06db-4d8e-ae3f-a001b3d322a2"},"vehicle_type_id":"4","last_reported":1713719244,"current_range_meters":26400,"station_id":"ce4bgrp2rcd13ifvqc9g","pricing_plan_id":"cebpf4jnsgd1na2vs0mg"},{"bike_id":"86b8d2b4-d180-4696-a866-e44d50da9600","system_id":"levelo_inurba_marseille","lat":43.305706,"lon":5.365654,"is_reserved":false,"is_disabled":false,"rental_uris":{"android":"levelo://app?vid=86b8d2b4-d180-4696-a866-e44d50da9600","ios":"levelo://app?vid=86b8d2b4-d180-4696-a866-e44d50da9600"},"vehicle_type_id":"4","last_reported":1713719244,"current_range_meters":3200,"station_id":"ce4bgs12rcd13ifvqcag","pricing_plan_id":"cebpf4jnsgd1na2vs0mg"},{"bike_id":"890a5e57-8fb5-49fa-b4df-b4d6124230ff","system_id":"levelo_inurba_marseille","lat":43.305706,"lon":5.365654,"is_reserved":false,"is_disabled":false,"rental_uris":{"android":"levelo://app?vid=890a5e57-8fb5-49fa-b4df-b4d6124230ff","ios":"levelo://app?vid=890a5e57-8fb5-49fa-b4df-b4d6124230ff"},"vehicle_type_id":"4","last_reported":1713719244,"current_range_meters":19600,"station_id":"ce4bgs12rcd13ifvqcag","pricing_plan_id":"cebpf4jnsgd1na2vs0mg"},{"bike_id":"461dc5bc-b315-4ab9-b7a0-c3b3dcf68691","system_id":"levelo_inurba_marseille","lat":43.311125,"lon":5.377624,"is_reserved":false,"is_disabled":false,"rental_uris":{"android":"levelo://app?vid=461dc5bc-b315-4ab9-b7a0-c3b3dcf68691","ios":"levelo://app?vid=461dc5bc-b315-4ab9-b7a0-c3b3dcf68691"},"vehicle_type_id":"4","last_reported":1713719244,"current_range_meters":6800,"station_id":"ce4bgt92rcd13ifvqcg0","pricing_plan_id":"cebpf4jnsgd1na2vs0mg"},{"bike_id":"09af9178-b83c-4c22-82ff-0508679703f3","system_id":"levelo_inurba_marseille","lat":43.295279,"lon":5.375048,"is_reserved":false,"is_disabled":false,"rental_uris":{"android":"levelo://app?vid=09af9178-b83c-4c22-82ff-0508679703f3","ios":"levelo://app?vid=09af9178-b83c-4c22-82ff-0508679703f3"},"vehicle_type_id":"4","last_reported":1713719244,"current_range_meters":6000,"station_id":"ce4bgkp2rcd13ifvqbmg","pricing_plan_id":"cebpf4jnsgd1na2vs0mg"},{"bike_id":"77c44ace-16f0-49fe-83c6-7505c8eac415","system_id":"levelo_inurba_marseille","lat":43.317075,"lon":5.377367,"is_reserved":false,"is_disabled":false,"rental_uris":{"android":"levelo://app?vid=77c44ace-16f0-49fe-83c6-7505c8eac415","ios":"levelo://app?vid=77c44ace-16f0-49fe-83c6-7505c8eac415"},"vehicle_type_id":"4","last_reported":1713719244,"current_range_meters":8800,"station_id":"ce4bgth2rcd13ifvqch0","pricing_plan_id":"cebpf4jnsgd1na2vs0mg"},{"bike_id":"55f35bda-1798-47a0-b716-ac76c54bf587","system_id":"levelo_inurba_marseille","lat":43.303046,"lon":5.368981,"is_reserved":false,"is_disabled":false,"rental_uris":{"android":"levelo://app?vid=55f35bda-1798-47a0-b716-ac76c54bf587","ios":"levelo://app?vid=55f35bda-1798-47a0-b716-ac76c54bf587"},"vehicle_type_id":"4","last_reported":1713719244,"current_range_meters":1600,"station_id":"ce4bgqh2rcd13ifvqc5g","pricing_plan_id":"cebpf4jnsgd1na2vs0mg"},{"bike_id":"921857af-dbca-4337-9423-ee9d92925bf0","system_id":"levelo_inurba_marseille","lat":43.303046,"lon":5.368981,"is_reserved":false,"is_disabled":false,"rental_uris":{"android":"levelo://app?vid=921857af-dbca-4337-9423-ee9d92925bf0","ios":"levelo://app?vid=921857af-dbca-4337-9423-ee9d92925bf0"},"vehicle_type_id":"4","last_reported":1713719244,"current_range_meters":3200,"station_id":"ce4bgqh2rcd13ifvqc5g","pricing_plan_id":"cebpf4jnsgd1na2vs0mg"},{"bike_id":"788dfd00-0e4b-4433-81c8-0ec5210b0bcb","system_id":"levelo_inurba_marseille","lat":43.303046,"lon":5.368981,"is_reserved":false,"is_disabled":false,"rental_uris":{"android":"levelo://app?vid=788dfd00-0e4b-4433-81c8-0ec5210b0bcb","ios":"levelo://app?vid=788dfd00-0e4b-4433-81c8-0ec5210b0bcb"},"vehicle_type_id":"4","last_reported":1713719244,"current_range_meters":14400,"station_id":"ce4bgqh2rcd13ifvqc5g","pricing_plan_id":"cebpf4jnsgd1na2vs0mg"},{"bike_id":"98683922-e262-4836-bf36-28f0b612b94d","system_id":"levelo_inurba_marseille","lat":43.303046,"lon":5.368981,"is_reserved":false,"is_disabled":false,"rental_uris":{"android":"levelo://app?vid=98683922-e262-4836-bf36-28f0b612b94d","ios":"levelo://app?vid=98683922-e262-4836-bf36-28f0b612b94d"},"vehicle_type_id":"4","last_reported":1713719244,"current_range_meters":0,"station_id":"ce4bgqh2rcd13ifvqc5g","pricing_plan_id":"cebpf4jnsgd1na2vs0mg"},{"bike_id":"a0516cab-71ee-4ade-b718-f107a1ba4725","system_id":"levelo_inurba_marseille","lat":43.30304,"lon":5.368987,"is_reserved":false,"is_disabled":false,"rental_uris":{"android":"levelo://app?vid=a0516cab-71ee-4ade-b718-f107a1ba4725","ios":"levelo://app?vid=a0516cab-71ee-4ade-b718-f107a1ba4725"},"vehicle_type_id":"4","last_reported":1713719244,"current_range_meters":0,"station_id":"ce4bgqh2rcd13ifvqc5g","pricing_plan_id":"cebpf4jnsgd1na2vs0mg"},{"bike_id":"b61edc00-2e2c-4a2b-846e-1263039e315e","system_id":"levelo_inurba_marseille","lat":43.307945,"lon":5.376487,"is_reserved":false,"is_disabled":false,"rental_uris":{"android":"levelo://app?vid=b61edc00-2e2c-4a2b-846e-1263039e315e","ios":"levelo://app?vid=b61edc00-2e2c-4a2b-846e-1263039e315e"},"vehicle_type_id":"4","last_reported":1713719244,"current_range_meters":800,"station_id":"ce4bgv92rcd13ifvqcq0","pricing_plan_id":"cebpf4jnsgd1na2vs0mg"},{"bike_id":"4b64ed1c-43a1-415d-ba11-b7ffa403d03d","system_id":"levelo_inurba_marseille","lat":43.32472,"lon":5.36567,"is_reserved":false,"is_disabled":false,"rental_uris":{"android":"levelo://app?vid=4b64ed1c-43a1-415d-ba11-b7ffa403d03d","ios":"levelo://app?vid=4b64ed1c-43a1-415d-ba11-b7ffa403d03d"},"vehicle_type_id":"4","last_reported":1713719244,"current_range_meters":2800,"station_id":"ce4bhs12rcd13ifvqhvg","pricing_plan_id":"cebpf4jnsgd1na2vs0mg"},{"bike_id":"4a83ee27-7823-412d-b1cd-1d6f5ba889e9","system_id":"levelo_inurba_marseille","lat":43.30458,"lon":5.37906,"is_reserved":false,"is_disabled":false,"rental_uris":{"android":"levelo://app?vid=4a83ee27-7823-412d-b1cd-1d6f5ba889e9","ios":"levelo://app?vid=4a83ee27-7823-412d-b1cd-1d6f5ba889e9"},"vehicle_type_id":"4","last_reported":1713719244,"current_range_meters":12800,"station_id":"ce4bgup2rcd13ifvqcn0","pricing_plan_id":"cebpf4jnsgd1na2vs0mg"},{"bike_id":"df167c0d-50d7-4701-b8a8-ab66122b2fa2","system_id":"levelo_inurba_marseille","lat":43.324743,"lon":5.365583,"is_reserved":false,"is_disabled":false,"rental_uris":{"android":"levelo://app?vid=df167c0d-50d7-4701-b8a8-ab66122b2fa2","ios":"levelo://app?vid=df167c0d-50d7-4701-b8a8-ab66122b2fa2"},"vehicle_type_id":"4","last_reported":1713719244,"current_range_meters":29600,"station_id":"ce4bhs12rcd13ifvqhvg","pricing_plan_id":"cebpf4jnsgd1na2vs0mg"},{"bike_id":"a9ec19ee-774e-4853-9e39-00c4dcdbd006","system_id":"levelo_inurba_marseille","lat":43.32478,"lon":5.36586,"is_reserved":false,"is_disabled":false,"rental_uris":{"android":"levelo://app?vid=a9ec19ee-774e-4853-9e39-00c4dcdbd006","ios":"levelo://app?vid=a9ec19ee-774e-4853-9e39-00c4dcdbd006"},"vehicle_type_id":"4","last_reported":1713719244,"current_range_meters":8000,"station_id":"ce4bhs12rcd13ifvqhvg","pricing_plan_id":"cebpf4jnsgd1na2vs0mg"},{"bike_id":"c06e160d-0dcd-46d4-bdeb-2df726dde393","system_id":"levelo_inurba_marseille","lat":43.32481,"lon":5.36566,"is_reserved":false,"is_disabled":false,"rental_uris":{"android":"levelo://app?vid=c06e160d-0dcd-46d4-bdeb-2df726dde393","ios":"levelo://app?vid=c06e160d-0dcd-46d4-bdeb-2df726dde393"},"vehicle_type_id":"4","last_reported":1713719244,"current_range_meters":10400,"station_id":"ce4bhs12rcd13ifvqhvg","pricing_plan_id":"cebpf4jnsgd1na2vs0mg"},{"bike_id":"37762814-e009-4aaa-b8dd-d33fe4f189f9","system_id":"levelo_inurba_marseille","lat":43.324808,"lon":5.365611,"is_reserved":false,"is_disabled":false,"rental_uris":{"android":"levelo://app?vid=37762814-e009-4aaa-b8dd-d33fe4f189f9","ios":"levelo://app?vid=37762814-e009-4aaa-b8dd-d33fe4f189f9"},"vehicle_type_id":"4","last_reported":1713719244,"current_range_meters":24400,"station_id":"ce4bhs12rcd13ifvqhvg","pricing_plan_id":"cebpf4jnsgd1na2vs0mg"},{"bike_id":"80dacc88-f9a5-4b5f-80f4-57bd33108ecb","system_id":"levelo_inurba_marseille","lat":43.324771,"lon":5.36557,"is_reserved":false,"is_disabled":false,"rental_uris":{"android":"levelo://app?vid=80dacc88-f9a5-4b5f-80f4-57bd33108ecb","ios":"levelo://app?vid=80dacc88-f9a5-4b5f-80f4-57bd33108ecb"},"vehicle_type_id":"4","last_reported":1713719244,"current_range_meters":23200,"station_id":"ce4bhs12rcd13ifvqhvg","pricing_plan_id":"cebpf4jnsgd1na2vs0mg"},{"bike_id":"c17751bf-4b1e-4ed5-8ec6-1aa8f0f5ee16","system_id":"levelo_inurba_marseille","lat":43.324834,"lon":5.365598,"is_reserved":false,"is_disabled":false,"rental_uris":{"android":"levelo://app?vid=c17751bf-4b1e-4ed5-8ec6-1aa8f0f5ee16","ios":"levelo://app?vid=c17751bf-4b1e-4ed5-8ec6-1aa8f0f5ee16"},"vehicle_type_id":"4","last_reported":1713719244,"current_range_meters":25600,"station_id":"ce4bhs12rcd13ifvqhvg","pricing_plan_id":"cebpf4jnsgd1na2vs0mg"},{"bike_id":"0f377889-8653-4f5d-9fec-8ef6b1d1b381","system_id":"levelo_inurba_marseille","lat":43.324771,"lon":5.36557,"is_reserved":false,"is_disabled":false,"rental_uris":{"android":"levelo://app?vid=0f377889-8653-4f5d-9fec-8ef6b1d1b381","ios":"levelo://app?vid=0f377889-8653-4f5d-9fec-8ef6b1d1b381"},"vehicle_type_id":"4","last_reported":1713719244,"current_range_meters":17600,"station_id":"ce4bhs12rcd13ifvqhvg","pricing_plan_id":"cebpf4jnsgd1na2vs0mg"},{"bike_id":"6da657ab-00d6-4606-bb0a-fdc1f8bc0b21","system_id":"levelo_inurba_marseille","lat":43.32484,"lon":5.365554,"is_reserved":false,"is_disabled":false,"rental_uris":{"android":"levelo://app?vid=6da657ab-00d6-4606-bb0a-fdc1f8bc0b21","ios":"levelo://app?vid=6da657ab-00d6-4606-bb0a-fdc1f8bc0b21"},"vehicle_type_id":"4","last_reported":1713719244,"current_range_meters":25600,"station_id":"ce4bhs12rcd13ifvqhvg","pricing_plan_id":"cebpf4jnsgd1na2vs0mg"},{"bike_id":"5b76192b-fc46-4948-80c5-6c37ae23cfca","system_id":"levelo_inurba_marseille","lat":43.324856,"lon":5.365591,"is_reserved":false,"is_disabled":false,"rental_uris":{"android":"levelo://app?vid=5b76192b-fc46-4948-80c5-6c37ae23cfca","ios":"levelo://app?vid=5b76192b-fc46-4948-80c5-6c37ae23cfca"},"vehicle_type_id":"4","last_reported":1713719244,"current_range_meters":27600,"station_id":"ce4bhs12rcd13ifvqhvg","pricing_plan_id":"cebpf4jnsgd1na2vs0mg"},{"bike_id":"0e183a2a-9d80-41c6-9815-96f0e9f61ac4","system_id":"levelo_inurba_marseille","lat":43.302784,"lon":5.377158,"is_reserved":false,"is_disabled":false,"rental_uris":{"android":"levelo://app?vid=0e183a2a-9d80-41c6-9815-96f0e9f61ac4","ios":"levelo://app?vid=0e183a2a-9d80-41c6-9815-96f0e9f61ac4"},"vehicle_type_id":"4","last_reported":1713719244,"current_range_meters":2400,"station_id":"ce4bguh2rcd13ifvqcj0","pricing_plan_id":"cebpf4jnsgd1na2vs0mg"},{"bike_id":"62822ee4-acb4-48cc-86e7-74d52d4c6e9b","system_id":"levelo_inurba_marseille","lat":43.301429,"lon":5.37413,"is_reserved":false,"is_disabled":false,"rental_uris":{"android":"levelo://app?vid=62822ee4-acb4-48cc-86e7-74d52d4c6e9b","ios":"levelo://app?vid=62822ee4-acb4-48cc-86e7-74d52d4c6e9b"},"vehicle_type_id":"4","last_reported":1713719244,"current_range_meters":0,"station_id":"ce4bgs92rcd13ifvqcc0","pricing_plan_id":"cebpf4jnsgd1na2vs0mg"},{"bike_id":"71cf26d6-2800-48dd-ae6e-8eda1eae26de","system_id":"levelo_inurba_marseille","lat":43.305395,"lon":5.380968,"is_reserved":false,"is_disabled":false,"rental_uris":{"android":"levelo://app?vid=71cf26d6-2800-48dd-ae6e-8eda1eae26de","ios":"levelo://app?vid=71cf26d6-2800-48dd-ae6e-8eda1eae26de"},"vehicle_type_id":"4","last_reported":1713719244,"current_range_meters":12800,"station_id":"","pricing_plan_id":"cebpf4jnsgd1na2vs0mg"},{"bike_id":"75324f1f-4561-47d9-9676-3f03c5f7a8fe","system_id":"levelo_inurba_marseille","lat":43.301429,"lon":5.37413,"is_reserved":false,"is_disabled":false,"rental_uris":{"android":"levelo://app?vid=75324f1f-4561-47d9-9676-3f03c5f7a8fe","ios":"levelo://app?vid=75324f1f-4561-47d9-9676-3f03c5f7a8fe"},"vehicle_type_id":"4","last_reported":1713719244,"current_range_meters":4000,"station_id":"ce4bgs92rcd13ifvqcc0","pricing_plan_id":"cebpf4jnsgd1na2vs0mg"},{"bike_id":"d212c281-3522-420a-b06f-b80966290c73","system_id":"levelo_inurba_marseille","lat":43.319895,"lon":5.38155,"is_reserved":false,"is_disabled":false,"rental_uris":{"android":"levelo://app?vid=d212c281-3522-420a-b06f-b80966290c73","ios":"levelo://app?vid=d212c281-3522-420a-b06f-b80966290c73"},"vehicle_type_id":"4","last_reported":1713719244,"current_range_meters":6400,"station_id":"ce4bhr12rcd13ifvqhpg","pricing_plan_id":"cebpf4jnsgd1na2vs0mg"},{"bike_id":"334e3407-4f9b-4b57-a5ef-39033f25d948","system_id":"levelo_inurba_marseille","lat":43.31995,"lon":5.38151,"is_reserved":false,"is_disabled":false,"rental_uris":{"android":"levelo://app?vid=334e3407-4f9b-4b57-a5ef-39033f25d948","ios":"levelo://app?vid=334e3407-4f9b-4b57-a5ef-39033f25d948"},"vehicle_type_id":"4","last_reported":1713719244,"current_range_meters":28800,"station_id":"ce4bhr12rcd13ifvqhpg","pricing_plan_id":"cebpf4jnsgd1na2vs0mg"},{"bike_id":"7b4ad446-2855-4f99-aa9c-bfb370297360","system_id":"levelo_inurba_marseille","lat":43.320003,"lon":5.381471,"is_reserved":false,"is_disabled":false,"rental_uris":{"android":"levelo://app?vid=7b4ad446-2855-4f99-aa9c-bfb370297360","ios":"levelo://app?vid=7b4ad446-2855-4f99-aa9c-bfb370297360"},"vehicle_type_id":"4","last_reported":1713719244,"current_range_meters":24800,"station_id":"ce4bhr12rcd13ifvqhpg","pricing_plan_id":"cebpf4jnsgd1na2vs0mg"},{"bike_id":"fc35b83a-f355-4ebd-97ef-f35d9b876a9d","system_id":"levelo_inurba_marseille","lat":43.319935,"lon":5.381699,"is_reserved":false,"is_disabled":false,"rental_uris":{"android":"levelo://app?vid=fc35b83a-f355-4ebd-97ef-f35d9b876a9d","ios":"levelo://app?vid=fc35b83a-f355-4ebd-97ef-f35d9b876a9d"},"vehicle_type_id":"4","last_reported":1713719244,"current_range_meters":20800,"station_id":"ce4bhr12rcd13ifvqhpg","pricing_plan_id":"cebpf4jnsgd1na2vs0mg"},{"bike_id":"b265aba0-4cfb-44bd-8ef5-9b88c5912563","system_id":"levelo_inurba_marseille","lat":43.319935,"lon":5.381699,"is_reserved":false,"is_disabled":false,"rental_uris":{"android":"levelo://app?vid=b265aba0-4cfb-44bd-8ef5-9b88c5912563","ios":"levelo://app?vid=b265aba0-4cfb-44bd-8ef5-9b88c5912563"},"vehicle_type_id":"4","last_reported":1713719244,"current_range_meters":28800,"station_id":"ce4bhr12rcd13ifvqhpg","pricing_plan_id":"cebpf4jnsgd1na2vs0mg"},{"bike_id":"f4b79354-8b98-4101-bf0a-c05d49197684","system_id":"levelo_inurba_marseille","lat":43.319935,"lon":5.381699,"is_reserved":false,"is_disabled":false,"rental_uris":{"android":"levelo://app?vid=f4b79354-8b98-4101-bf0a-c05d49197684","ios":"levelo://app?vid=f4b79354-8b98-4101-bf0a-c05d49197684"},"vehicle_type_id":"4","last_reported":1713719244,"current_range_meters":11200,"station_id":"ce4bhr12rcd13ifvqhpg","pricing_plan_id":"cebpf4jnsgd1na2vs0mg"},{"bike_id":"d556af53-f0f5-46dc-9ca6-ae45af10a5b0","system_id":"levelo_inurba_marseille","lat":43.319935,"lon":5.381699,"is_reserved":false,"is_disabled":false,"rental_uris":{"android":"levelo://app?vid=d556af53-f0f5-46dc-9ca6-ae45af10a5b0","ios":"levelo://app?vid=d556af53-f0f5-46dc-9ca6-ae45af10a5b0"},"vehicle_type_id":"4","last_reported":1713719244,"current_range_meters":28800,"station_id":"ce4bhr12rcd13ifvqhpg","pricing_plan_id":"cebpf4jnsgd1na2vs0mg"},{"bike_id":"a56718f9-96ed-4340-b021-8a4020afa7b4","system_id":"levelo_inurba_marseille","lat":43.313571,"lon":5.384829,"is_reserved":false,"is_disabled":false,"rental_uris":{"android":"levelo://app?vid=a56718f9-96ed-4340-b021-8a4020afa7b4","ios":"levelo://app?vid=a56718f9-96ed-4340-b021-8a4020afa7b4"},"vehicle_type_id":"4","last_reported":1713719244,"current_range_meters":14800,"station_id":"ce4bgt92rcd13ifvqcf0","pricing_plan_id":"cebpf4jnsgd1na2vs0mg"},{"bike_id":"bbf78bce-833d-4efd-90cc-c350d2c076c3","system_id":"levelo_inurba_marseille","lat":43.299222,"lon":5.365554,"is_reserved":false,"is_disabled":false,"rental_uris":{"android":"levelo://app?vid=bbf78bce-833d-4efd-90cc-c350d2c076c3","ios":"levelo://app?vid=bbf78bce-833d-4efd-90cc-c350d2c076c3"},"vehicle_type_id":"4","last_reported":1713719244,"current_range_meters":2000,"station_id":"ce4bgm92rcd13ifvqbr0","pricing_plan_id":"cebpf4jnsgd1na2vs0mg"},{"bike_id":"e433542c-0621-44a8-b0fe-dfbdc4a6aa02","system_id":"levelo_inurba_marseille","lat":43.299757,"lon":5.371748,"is_reserved":false,"is_disabled":false,"rental_uris":{"android":"levelo://app?vid=e433542c-0621-44a8-b0fe-dfbdc4a6aa02","ios":"levelo://app?vid=e433542c-0621-44a8-b0fe-dfbdc4a6aa02"},"vehicle_type_id":"4","last_reported":1713719244,"current_range_meters":0,"station_id":"ce4bgr92rcd13ifvqc7g","pricing_plan_id":"cebpf4jnsgd1na2vs0mg"},{"bike_id":"6d281655-f27a-447f-9692-212575c694d0","system_id":"levelo_inurba_marseille","lat":43.29978,"lon":5.37187,"is_reserved":false,"is_disabled":false,"rental_uris":{"android":"levelo://app?vid=6d281655-f27a-447f-9692-212575c694d0","ios":"levelo://app?vid=6d281655-f27a-447f-9692-212575c694d0"},"vehicle_type_id":"4","last_reported":1713719244,"current_range_meters":400,"station_id":"ce4bgr92rcd13ifvqc7g","pricing_plan_id":"cebpf4jnsgd1na2vs0mg"},{"bike_id":"5a2e0e93-8bac-4b2b-9ef0-74ad83b43923","system_id":"levelo_inurba_marseille","lat":43.298449,"lon":5.36271,"is_reserved":false,"is_disabled":false,"rental_uris":{"android":"levelo://app?vid=5a2e0e93-8bac-4b2b-9ef0-74ad83b43923","ios":"levelo://app?vid=5a2e0e93-8bac-4b2b-9ef0-74ad83b43923"},"vehicle_type_id":"4","last_reported":1713719244,"current_range_meters":16400,"station_id":"ce4bgpp2rcd13ifvqc3g","pricing_plan_id":"cebpf4jnsgd1na2vs0mg"},{"bike_id":"f2188de5-85b8-4675-9525-2714d69da646","system_id":"levelo_inurba_marseille","lat":43.298417,"lon":5.362802,"is_reserved":false,"is_disabled":false,"rental_uris":{"android":"levelo://app?vid=f2188de5-85b8-4675-9525-2714d69da646","ios":"levelo://app?vid=f2188de5-85b8-4675-9525-2714d69da646"},"vehicle_type_id":"4","last_reported":1713719244,"current_range_meters":10400,"station_id":"ce4bgpp2rcd13ifvqc3g","pricing_plan_id":"cebpf4jnsgd1na2vs0mg"},{"bike_id":"6b11eef1-1acc-48ec-adba-11b8a46a1ce6","system_id":"levelo_inurba_marseille","lat":43.311722,"lon":5.387247,"is_reserved":false,"is_disabled":false,"rental_uris":{"android":"levelo://app?vid=6b11eef1-1acc-48ec-adba-11b8a46a1ce6","ios":"levelo://app?vid=6b11eef1-1acc-48ec-adba-11b8a46a1ce6"},"vehicle_type_id":"4","last_reported":1713719244,"current_range_meters":0,"station_id":"ce4bgv12rcd13ifvqcp0","pricing_plan_id":"cebpf4jnsgd1na2vs0mg"},{"bike_id":"4e676192-c625-4c48-9edf-8d1e18e3979a","system_id":"levelo_inurba_marseille","lat":43.31167,"lon":5.38717,"is_reserved":false,"is_disabled":false,"rental_uris":{"android":"levelo://app?vid=4e676192-c625-4c48-9edf-8d1e18e3979a","ios":"levelo://app?vid=4e676192-c625-4c48-9edf-8d1e18e3979a"},"vehicle_type_id":"4","last_reported":1713719244,"current_range_meters":0,"station_id":"ce4bgv12rcd13ifvqcp0","pricing_plan_id":"cebpf4jnsgd1na2vs0mg"},{"bike_id":"19e972f2-6c01-49ee-8380-9e0085536468","system_id":"levelo_inurba_marseille","lat":43.299243,"lon":5.37481,"is_reserved":false,"is_disabled":false,"rental_uris":{"android":"levelo://app?vid=19e972f2-6c01-49ee-8380-9e0085536468","ios":"levelo://app?vid=19e972f2-6c01-49ee-8380-9e0085536468"},"vehicle_type_id":"4","last_reported":1713719244,"current_range_meters":5200,"station_id":"ce4bgjh2rcd13ifvqbg0","pricing_plan_id":"cebpf4jnsgd1na2vs0mg"},{"bike_id":"d4055007-a593-4f04-a027-dabe35e543ee","system_id":"levelo_inurba_marseille","lat":43.299243,"lon":5.37481,"is_reserved":false,"is_disabled":false,"rental_uris":{"android":"levelo://app?vid=d4055007-a593-4f04-a027-dabe35e543ee","ios":"levelo://app?vid=d4055007-a593-4f04-a027-dabe35e543ee"},"vehicle_type_id":"4","last_reported":1713719244,"current_range_meters":6800,"station_id":"ce4bgjh2rcd13ifvqbg0","pricing_plan_id":"cebpf4jnsgd1na2vs0mg"},{"bike_id":"7bc335f0-6891-40ce-924d-5cbd3a827aa3","system_id":"levelo_inurba_marseille","lat":43.2979,"lon":5.371057,"is_reserved":false,"is_disabled":false,"rental_uris":{"android":"levelo://app?vid=7bc335f0-6891-40ce-924d-5cbd3a827aa3","ios":"levelo://app?vid=7bc335f0-6891-40ce-924d-5cbd3a827aa3"},"vehicle_type_id":"4","last_reported":1713719244,"current_range_meters":1200,"station_id":"ce4bgop2rcd13ifvqc1g","pricing_plan_id":"cebpf4jnsgd1na2vs0mg"},{"bike_id":"2672a519-87e4-4cc1-aa91-82966a2ce3b9","system_id":"levelo_inurba_marseille","lat":43.297802,"lon":5.371197,"is_reserved":false,"is_disabled":false,"rental_uris":{"android":"levelo://app?vid=2672a519-87e4-4cc1-aa91-82966a2ce3b9","ios":"levelo://app?vid=2672a519-87e4-4cc1-aa91-82966a2ce3b9"},"vehicle_type_id":"4","last_reported":1713719244,"current_range_meters":0,"station_id":"ce4bgop2rcd13ifvqc1g","pricing_plan_id":"cebpf4jnsgd1na2vs0mg"},{"bike_id":"59c296c1-c1af-4a71-9e20-fa9c7f8757f9","system_id":"levelo_inurba_marseille","lat":43.322872,"lon":5.382756,"is_reserved":false,"is_disabled":false,"rental_uris":{"android":"levelo://app?vid=59c296c1-c1af-4a71-9e20-fa9c7f8757f9","ios":"levelo://app?vid=59c296c1-c1af-4a71-9e20-fa9c7f8757f9"},"vehicle_type_id":"4","last_reported":1713719244,"current_range_meters":29600,"station_id":"ce4bhr12rcd13ifvqhqg","pricing_plan_id":"cebpf4jnsgd1na2vs0mg"},{"bike_id":"c1c913df-b844-406e-83f7-dff5f43f7dc5","system_id":"levelo_inurba_marseille","lat":43.322872,"lon":5.382756,"is_reserved":false,"is_disabled":false,"rental_uris":{"android":"levelo://app?vid=c1c913df-b844-406e-83f7-dff5f43f7dc5","ios":"levelo://app?vid=c1c913df-b844-406e-83f7-dff5f43f7dc5"},"vehicle_type_id":"4","last_reported":1713719244,"current_range_meters":31600,"station_id":"ce4bhr12rcd13ifvqhqg","pricing_plan_id":"cebpf4jnsgd1na2vs0mg"},{"bike_id":"6a9bcf40-c5f9-44a4-a58e-664576d7b299","system_id":"levelo_inurba_marseille","lat":43.322872,"lon":5.382756,"is_reserved":false,"is_disabled":false,"rental_uris":{"android":"levelo://app?vid=6a9bcf40-c5f9-44a4-a58e-664576d7b299","ios":"levelo://app?vid=6a9bcf40-c5f9-44a4-a58e-664576d7b299"},"vehicle_type_id":"4","last_reported":1713719244,"current_range_meters":12000,"station_id":"ce4bhr12rcd13ifvqhqg","pricing_plan_id":"cebpf4jnsgd1na2vs0mg"},{"bike_id":"aa38acc2-91cb-407c-ac8c-05b08cc96e3e","system_id":"levelo_inurba_marseille","lat":43.322872,"lon":5.382756,"is_reserved":false,"is_disabled":false,"rental_uris":{"android":"levelo://app?vid=aa38acc2-91cb-407c-ac8c-05b08cc96e3e","ios":"levelo://app?vid=aa38acc2-91cb-407c-ac8c-05b08cc96e3e"},"vehicle_type_id":"4","last_reported":1713719244,"current_range_meters":30000,"station_id":"ce4bhr12rcd13ifvqhqg","pricing_plan_id":"cebpf4jnsgd1na2vs0mg"},{"bike_id":"e5df68f6-b1ff-4d0a-b7e9-c02ca9b8210e","system_id":"levelo_inurba_marseille","lat":43.322872,"lon":5.382756,"is_reserved":false,"is_disabled":false,"rental_uris":{"android":"levelo://app?vid=e5df68f6-b1ff-4d0a-b7e9-c02ca9b8210e","ios":"levelo://app?vid=e5df68f6-b1ff-4d0a-b7e9-c02ca9b8210e"},"vehicle_type_id":"4","last_reported":1713719244,"current_range_meters":31600,"station_id":"ce4bhr12rcd13ifvqhqg","pricing_plan_id":"cebpf4jnsgd1na2vs0mg"},{"bike_id":"1db02aab-65af-4d38-8223-af6cbfeb63a2","system_id":"levelo_inurba_marseille","lat":43.322872,"lon":5.382756,"is_reserved":false,"is_disabled":false,"rental_uris":{"android":"levelo://app?vid=1db02aab-65af-4d38-8223-af6cbfeb63a2","ios":"levelo://app?vid=1db02aab-65af-4d38-8223-af6cbfeb63a2"},"vehicle_type_id":"4","last_reported":1713719244,"current_range_meters":4000,"station_id":"ce4bhr12rcd13ifvqhqg","pricing_plan_id":"cebpf4jnsgd1na2vs0mg"},{"bike_id":"3a777aae-0d2a-4638-8c09-6f1de81534e0","system_id":"levelo_inurba_marseille","lat":43.322872,"lon":5.382756,"is_reserved":false,"is_disabled":false,"rental_uris":{"android":"levelo://app?vid=3a777aae-0d2a-4638-8c09-6f1de81534e0","ios":"levelo://app?vid=3a777aae-0d2a-4638-8c09-6f1de81534e0"},"vehicle_type_id":"4","last_reported":1713719244,"current_range_meters":27600,"station_id":"ce4bhr12rcd13ifvqhqg","pricing_plan_id":"cebpf4jnsgd1na2vs0mg"},{"bike_id":"231f7bed-edf7-496f-86fa-33a26001b9a5","system_id":"levelo_inurba_marseille","lat":43.29756,"lon":5.37097,"is_reserved":false,"is_disabled":false,"rental_uris":{"android":"levelo://app?vid=231f7bed-edf7-496f-86fa-33a26001b9a5","ios":"levelo://app?vid=231f7bed-edf7-496f-86fa-33a26001b9a5"},"vehicle_type_id":"4","last_reported":1713719244,"current_range_meters":0,"station_id":"ce4bgop2rcd13ifvqc1g","pricing_plan_id":"cebpf4jnsgd1na2vs0mg"},{"bike_id":"43b133b7-ffe4-422a-92ea-b60dd73e0c32","system_id":"levelo_inurba_marseille","lat":43.297163,"lon":5.365866,"is_reserved":false,"is_disabled":false,"rental_uris":{"android":"levelo://app?vid=43b133b7-ffe4-422a-92ea-b60dd73e0c32","ios":"levelo://app?vid=43b133b7-ffe4-422a-92ea-b60dd73e0c32"},"vehicle_type_id":"4","last_reported":1713719244,"current_range_meters":10800,"station_id":"ce4bgn12rcd13ifvqbt0","pricing_plan_id":"cebpf4jnsgd1na2vs0mg"},{"bike_id":"0bd298d8-efb2-4b61-a4c8-63943477401a","system_id":"levelo_inurba_marseille","lat":43.297163,"lon":5.365866,"is_reserved":false,"is_disabled":false,"rental_uris":{"android":"levelo://app?vid=0bd298d8-efb2-4b61-a4c8-63943477401a","ios":"levelo://app?vid=0bd298d8-efb2-4b61-a4c8-63943477401a"},"vehicle_type_id":"4","last_reported":1713719244,"current_range_meters":22400,"station_id":"ce4bgn12rcd13ifvqbt0","pricing_plan_id":"cebpf4jnsgd1na2vs0mg"},{"bike_id":"e85903b4-7874-41c2-8c07-05e9b021eff1","system_id":"levelo_inurba_marseille","lat":43.2968,"lon":5.37291,"is_reserved":false,"is_disabled":false,"rental_uris":{"android":"levelo://app?vid=e85903b4-7874-41c2-8c07-05e9b021eff1","ios":"levelo://app?vid=e85903b4-7874-41c2-8c07-05e9b021eff1"},"vehicle_type_id":"4","last_reported":1713719244,"current_range_meters":15600,"station_id":"ce4bgk12rcd13ifvqbj0","pricing_plan_id":"cebpf4jnsgd1na2vs0mg"},{"bike_id":"713f2e7a-e4e8-4f42-979c-6c4e4b953e57","system_id":"levelo_inurba_marseille","lat":43.305364,"lon":5.384119,"is_reserved":false,"is_disabled":false,"rental_uris":{"android":"levelo://app?vid=713f2e7a-e4e8-4f42-979c-6c4e4b953e57","ios":"levelo://app?vid=713f2e7a-e4e8-4f42-979c-6c4e4b953e57"},"vehicle_type_id":"4","last_reported":1713719244,"current_range_meters":22000,"station_id":"ce4bgg92rcd13ifvqb30","pricing_plan_id":"cebpf4jnsgd1na2vs0mg"},{"bike_id":"1444ea02-a9d8-4462-91d4-f62ade0013f0","system_id":"levelo_inurba_marseille","lat":43.29856,"lon":5.37904,"is_reserved":false,"is_disabled":false,"rental_uris":{"android":"levelo://app?vid=1444ea02-a9d8-4462-91d4-f62ade0013f0","ios":"levelo://app?vid=1444ea02-a9d8-4462-91d4-f62ade0013f0"},"vehicle_type_id":"4","last_reported":1713719244,"current_range_meters":17200,"station_id":"","pricing_plan_id":"cebpf4jnsgd1na2vs0mg"},{"bike_id":"81bcae8d-8671-4d34-8c9f-3f22d331a6f0","system_id":"levelo_inurba_marseille","lat":43.29629,"lon":5.37168,"is_reserved":false,"is_disabled":false,"rental_uris":{"android":"levelo://app?vid=81bcae8d-8671-4d34-8c9f-3f22d331a6f0","ios":"levelo://app?vid=81bcae8d-8671-4d34-8c9f-3f22d331a6f0"},"vehicle_type_id":"4","last_reported":1713719244,"current_range_meters":18800,"station_id":"ce4bgnh2rcd13ifvqc0g","pricing_plan_id":"cebpf4jnsgd1na2vs0mg"},{"bike_id":"95eb9164-6a46-402c-be15-9c999e90bfb5","system_id":"levelo_inurba_marseille","lat":43.29593,"lon":5.369,"is_reserved":false,"is_disabled":false,"rental_uris":{"android":"levelo://app?vid=95eb9164-6a46-402c-be15-9c999e90bfb5","ios":"levelo://app?vid=95eb9164-6a46-402c-be15-9c999e90bfb5"},"vehicle_type_id":"4","last_reported":1713719244,"current_range_meters":22400,"station_id":"","pricing_plan_id":"cebpf4jnsgd1na2vs0mg"},{"bike_id":"933b1da9-afb2-4461-bd12-c57af200c10e","system_id":"levelo_inurba_marseille","lat":43.296131,"lon":5.370791,"is_reserved":false,"is_disabled":false,"rental_uris":{"android":"levelo://app?vid=933b1da9-afb2-4461-bd12-c57af200c10e","ios":"levelo://app?vid=933b1da9-afb2-4461-bd12-c57af200c10e"},"vehicle_type_id":"4","last_reported":1713719244,"current_range_meters":0,"station_id":"ce4bgnh2rcd13ifvqc0g","pricing_plan_id":"cebpf4jnsgd1na2vs0mg"},{"bike_id":"1288735e-290a-4e43-bf7e-a09632235b63","system_id":"levelo_inurba_marseille","lat":43.296135,"lon":5.371505,"is_reserved":false,"is_disabled":false,"rental_uris":{"android":"levelo://app?vid=1288735e-290a-4e43-bf7e-a09632235b63","ios":"levelo://app?vid=1288735e-290a-4e43-bf7e-a09632235b63"},"vehicle_type_id":"4","last_reported":1713719244,"current_range_meters":400,"station_id":"ce4bgnh2rcd13ifvqc0g","pricing_plan_id":"cebpf4jnsgd1na2vs0mg"},{"bike_id":"bc30e109-4471-4c7f-9c50-7c72a9d713a8","system_id":"levelo_inurba_marseille","lat":43.298037,"lon":5.381066,"is_reserved":false,"is_disabled":false,"rental_uris":{"android":"levelo://app?vid=bc30e109-4471-4c7f-9c50-7c72a9d713a8","ios":"levelo://app?vid=bc30e109-4471-4c7f-9c50-7c72a9d713a8"},"vehicle_type_id":"4","last_reported":1713719244,"current_range_meters":17200,"station_id":"ce4bgip2rcd13ifvqbb0","pricing_plan_id":"cebpf4jnsgd1na2vs0mg"},{"bike_id":"0134c467-1ace-4bfb-8a2c-4db5fb45ff34","system_id":"levelo_inurba_marseille","lat":43.298037,"lon":5.381066,"is_reserved":false,"is_disabled":false,"rental_uris":{"android":"levelo://app?vid=0134c467-1ace-4bfb-8a2c-4db5fb45ff34","ios":"levelo://app?vid=0134c467-1ace-4bfb-8a2c-4db5fb45ff34"},"vehicle_type_id":"4","last_reported":1713719244,"current_range_meters":400,"station_id":"ce4bgip2rcd13ifvqbb0","pricing_plan_id":"cebpf4jnsgd1na2vs0mg"},{"bike_id":"32011503-fafd-4fb3-9af3-7722f658b0e0","system_id":"levelo_inurba_marseille","lat":43.2957,"lon":5.375015,"is_reserved":false,"is_disabled":false,"rental_uris":{"android":"levelo://app?vid=32011503-fafd-4fb3-9af3-7722f658b0e0","ios":"levelo://app?vid=32011503-fafd-4fb3-9af3-7722f658b0e0"},"vehicle_type_id":"4","last_reported":1713719244,"current_range_meters":0,"station_id":"ce4bgh92rcd13ifvqb50","pricing_plan_id":"cebpf4jnsgd1na2vs0mg"},{"bike_id":"fe3bc019-ff78-46fa-b1a3-a34316b9cb61","system_id":"levelo_inurba_marseille","lat":43.29567,"lon":5.375,"is_reserved":false,"is_disabled":false,"rental_uris":{"android":"levelo://app?vid=fe3bc019-ff78-46fa-b1a3-a34316b9cb61","ios":"levelo://app?vid=fe3bc019-ff78-46fa-b1a3-a34316b9cb61"},"vehicle_type_id":"4","last_reported":1713719244,"current_range_meters":0,"station_id":"ce4bgh92rcd13ifvqb50","pricing_plan_id":"cebpf4jnsgd1na2vs0mg"},{"bike_id":"fc98c3ec-54b0-407a-b8f8-fd8a43c6b2a6","system_id":"levelo_inurba_marseille","lat":43.297856,"lon":5.38097,"is_reserved":false,"is_disabled":false,"rental_uris":{"android":"levelo://app?vid=fc98c3ec-54b0-407a-b8f8-fd8a43c6b2a6","ios":"levelo://app?vid=fc98c3ec-54b0-407a-b8f8-fd8a43c6b2a6"},"vehicle_type_id":"4","last_reported":1713719244,"current_range_meters":28400,"station_id":"ce4bgip2rcd13ifvqbb0","pricing_plan_id":"cebpf4jnsgd1na2vs0mg"},{"bike_id":"0c68d93a-7fc1-42bc-90cd-64054378d7ff","system_id":"levelo_inurba_marseille","lat":43.295748,"lon":5.37522,"is_reserved":false,"is_disabled":false,"rental_uris":{"android":"levelo://app?vid=0c68d93a-7fc1-42bc-90cd-64054378d7ff","ios":"levelo://app?vid=0c68d93a-7fc1-42bc-90cd-64054378d7ff"},"vehicle_type_id":"4","last_reported":1713719244,"current_range_meters":0,"station_id":"ce4bgh92rcd13ifvqb50","pricing_plan_id":"cebpf4jnsgd1na2vs0mg"},{"bike_id":"8a5684f5-2ee8-4583-8dcb-ab0eaf537370","system_id":"levelo_inurba_marseille","lat":43.297841,"lon":5.380981,"is_reserved":false,"is_disabled":false,"rental_uris":{"android":"levelo://app?vid=8a5684f5-2ee8-4583-8dcb-ab0eaf537370","ios":"levelo://app?vid=8a5684f5-2ee8-4583-8dcb-ab0eaf537370"},"vehicle_type_id":"4","last_reported":1713719244,"current_range_meters":29600,"station_id":"ce4bgip2rcd13ifvqbb0","pricing_plan_id":"cebpf4jnsgd1na2vs0mg"},{"bike_id":"820c4811-8d2d-4f22-8116-39414266e91a","system_id":"levelo_inurba_marseille","lat":43.304274,"lon":5.388873,"is_reserved":false,"is_disabled":false,"rental_uris":{"android":"levelo://app?vid=820c4811-8d2d-4f22-8116-39414266e91a","ios":"levelo://app?vid=820c4811-8d2d-4f22-8116-39414266e91a"},"vehicle_type_id":"4","last_reported":1713719244,"current_range_meters":4000,"station_id":"ce4bgk12rcd13ifvqbi0","pricing_plan_id":"cebpf4jnsgd1na2vs0mg"},{"bike_id":"94dc08c9-a8dc-4480-92bc-6d16d21d3af6","system_id":"levelo_inurba_marseille","lat":43.29788,"lon":5.38109,"is_reserved":false,"is_disabled":false,"rental_uris":{"android":"levelo://app?vid=94dc08c9-a8dc-4480-92bc-6d16d21d3af6","ios":"levelo://app?vid=94dc08c9-a8dc-4480-92bc-6d16d21d3af6"},"vehicle_type_id":"4","last_reported":1713719244,"current_range_meters":20000,"station_id":"ce4bgip2rcd13ifvqbb0","pricing_plan_id":"cebpf4jnsgd1na2vs0mg"},{"bike_id":"f81b9afe-b71f-403f-a216-4382f9ef147c","system_id":"levelo_inurba_marseille","lat":43.29783,"lon":5.38104,"is_reserved":false,"is_disabled":false,"rental_uris":{"android":"levelo://app?vid=f81b9afe-b71f-403f-a216-4382f9ef147c","ios":"levelo://app?vid=f81b9afe-b71f-403f-a216-4382f9ef147c"},"vehicle_type_id":"4","last_reported":1713719244,"current_range_meters":4400,"station_id":"ce4bgip2rcd13ifvqbb0","pricing_plan_id":"cebpf4jnsgd1na2vs0mg"},{"bike_id":"5f5634c7-d882-4234-9953-9b09a98964a0","system_id":"levelo_inurba_marseille","lat":43.295748,"lon":5.37522,"is_reserved":false,"is_disabled":false,"rental_uris":{"android":"levelo://app?vid=5f5634c7-d882-4234-9953-9b09a98964a0","ios":"levelo://app?vid=5f5634c7-d882-4234-9953-9b09a98964a0"},"vehicle_type_id":"4","last_reported":1713719244,"current_range_meters":20000,"station_id":"ce4bgh92rcd13ifvqb50","pricing_plan_id":"cebpf4jnsgd1na2vs0mg"},{"bike_id":"fcf59ce5-b326-44a5-a617-a507f6ae4102","system_id":"levelo_inurba_marseille","lat":43.296277,"lon":5.377108,"is_reserved":false,"is_disabled":false,"rental_uris":{"android":"levelo://app?vid=fcf59ce5-b326-44a5-a617-a507f6ae4102","ios":"levelo://app?vid=fcf59ce5-b326-44a5-a617-a507f6ae4102"},"vehicle_type_id":"4","last_reported":1713719244,"current_range_meters":0,"station_id":"ce4bgi92rcd13ifvqb90","pricing_plan_id":"cebpf4jnsgd1na2vs0mg"},{"bike_id":"1ec1e199-b3d7-420b-9176-4f6034eeb915","system_id":"levelo_inurba_marseille","lat":43.296263,"lon":5.377094,"is_reserved":false,"is_disabled":false,"rental_uris":{"android":"levelo://app?vid=1ec1e199-b3d7-420b-9176-4f6034eeb915","ios":"levelo://app?vid=1ec1e199-b3d7-420b-9176-4f6034eeb915"},"vehicle_type_id":"4","last_reported":1713719244,"current_range_meters":400,"station_id":"ce4bgi92rcd13ifvqb90","pricing_plan_id":"cebpf4jnsgd1na2vs0mg"},{"bike_id":"171499b7-4725-47a0-badb-3bf3746b740c","system_id":"levelo_inurba_marseille","lat":43.299707,"lon":5.384859,"is_reserved":false,"is_disabled":false,"rental_uris":{"android":"levelo://app?vid=171499b7-4725-47a0-badb-3bf3746b740c","ios":"levelo://app?vid=171499b7-4725-47a0-badb-3bf3746b740c"},"vehicle_type_id":"4","last_reported":1713719244,"current_range_meters":4000,"station_id":"ce4bgj92rcd13ifvqbd0","pricing_plan_id":"cebpf4jnsgd1na2vs0mg"},{"bike_id":"101d8204-9230-46b7-8d5c-1853b901238c","system_id":"levelo_inurba_marseille","lat":43.330235,"lon":5.35901,"is_reserved":false,"is_disabled":false,"rental_uris":{"android":"levelo://app?vid=101d8204-9230-46b7-8d5c-1853b901238c","ios":"levelo://app?vid=101d8204-9230-46b7-8d5c-1853b901238c"},"vehicle_type_id":"4","last_reported":1713719244,"current_range_meters":6800,"station_id":"","pricing_plan_id":"cebpf4jnsgd1na2vs0mg"},{"bike_id":"6b9ab023-18c8-4128-bb12-5c0fc9697eda","system_id":"levelo_inurba_marseille","lat":43.299701,"lon":5.384889,"is_reserved":false,"is_disabled":false,"rental_uris":{"android":"levelo://app?vid=6b9ab023-18c8-4128-bb12-5c0fc9697eda","ios":"levelo://app?vid=6b9ab023-18c8-4128-bb12-5c0fc9697eda"},"vehicle_type_id":"4","last_reported":1713719244,"current_range_meters":5200,"station_id":"ce4bgj92rcd13ifvqbd0","pricing_plan_id":"cebpf4jnsgd1na2vs0mg"},{"bike_id":"6a39ae17-c7cd-46e2-8ddf-6f440367726e","system_id":"levelo_inurba_marseille","lat":43.299717,"lon":5.384845,"is_reserved":false,"is_disabled":false,"rental_uris":{"android":"levelo://app?vid=6a39ae17-c7cd-46e2-8ddf-6f440367726e","ios":"levelo://app?vid=6a39ae17-c7cd-46e2-8ddf-6f440367726e"},"vehicle_type_id":"4","last_reported":1713719244,"current_range_meters":12800,"station_id":"ce4bgj92rcd13ifvqbd0","pricing_plan_id":"cebpf4jnsgd1na2vs0mg"},{"bike_id":"451a8e06-e884-41d6-98db-c406fffb4247","system_id":"levelo_inurba_marseille","lat":43.299724,"lon":5.384848,"is_reserved":false,"is_disabled":false,"rental_uris":{"android":"levelo://app?vid=451a8e06-e884-41d6-98db-c406fffb4247","ios":"levelo://app?vid=451a8e06-e884-41d6-98db-c406fffb4247"},"vehicle_type_id":"4","last_reported":1713719244,"current_range_meters":1200,"station_id":"ce4bgj92rcd13ifvqbd0","pricing_plan_id":"cebpf4jnsgd1na2vs0mg"},{"bike_id":"4e8f2e5c-3cba-457d-b865-6f9278ba7f9e","system_id":"levelo_inurba_marseille","lat":43.2996,"lon":5.38501,"is_reserved":false,"is_disabled":false,"rental_uris":{"android":"levelo://app?vid=4e8f2e5c-3cba-457d-b865-6f9278ba7f9e","ios":"levelo://app?vid=4e8f2e5c-3cba-457d-b865-6f9278ba7f9e"},"vehicle_type_id":"4","last_reported":1713719244,"current_range_meters":21200,"station_id":"ce4bgj92rcd13ifvqbd0","pricing_plan_id":"cebpf4jnsgd1na2vs0mg"},{"bike_id":"af43093c-bce2-4f61-bd2d-ecb65c44203a","system_id":"levelo_inurba_marseille","lat":43.299717,"lon":5.384845,"is_reserved":false,"is_disabled":false,"rental_uris":{"android":"levelo://app?vid=af43093c-bce2-4f61-bd2d-ecb65c44203a","ios":"levelo://app?vid=af43093c-bce2-4f61-bd2d-ecb65c44203a"},"vehicle_type_id":"4","last_reported":1713719244,"current_range_meters":15200,"station_id":"ce4bgj92rcd13ifvqbd0","pricing_plan_id":"cebpf4jnsgd1na2vs0mg"},{"bike_id":"c00ae030-6d16-4542-84b7-4bc22d084e06","system_id":"levelo_inurba_marseille","lat":43.295279,"lon":5.375048,"is_reserved":false,"is_disabled":false,"rental_uris":{"android":"levelo://app?vid=c00ae030-6d16-4542-84b7-4bc22d084e06","ios":"levelo://app?vid=c00ae030-6d16-4542-84b7-4bc22d084e06"},"vehicle_type_id":"4","last_reported":1713719244,"current_range_meters":8800,"station_id":"ce4bgkp2rcd13ifvqbmg","pricing_plan_id":"cebpf4jnsgd1na2vs0mg"},{"bike_id":"5cc9b3f7-746b-4dc8-a9be-06c6e75a37db","system_id":"levelo_inurba_marseille","lat":43.32367,"lon":5.38881,"is_reserved":false,"is_disabled":false,"rental_uris":{"android":"levelo://app?vid=5cc9b3f7-746b-4dc8-a9be-06c6e75a37db","ios":"levelo://app?vid=5cc9b3f7-746b-4dc8-a9be-06c6e75a37db"},"vehicle_type_id":"4","last_reported":1713719244,"current_range_meters":22000,"station_id":"ce4bhqp2rcd13ifvqhog","pricing_plan_id":"cebpf4jnsgd1na2vs0mg"},{"bike_id":"3b381e61-212a-4f91-8f43-ca9f8581ac6b","system_id":"levelo_inurba_marseille","lat":43.312239,"lon":5.368562,"is_reserved":false,"is_disabled":false,"rental_uris":{"android":"levelo://app?vid=3b381e61-212a-4f91-8f43-ca9f8581ac6b","ios":"levelo://app?vid=3b381e61-212a-4f91-8f43-ca9f8581ac6b"},"vehicle_type_id":"4","last_reported":1713719244,"current_range_meters":26800,"station_id":"ce4bgl92rcd13ifvqbq0","pricing_plan_id":"cebpf4jnsgd1na2vs0mg"},{"bike_id":"a9119818-9106-4214-a405-847e41893877","system_id":"levelo_inurba_marseille","lat":43.32367,"lon":5.388836,"is_reserved":false,"is_disabled":false,"rental_uris":{"android":"levelo://app?vid=a9119818-9106-4214-a405-847e41893877","ios":"levelo://app?vid=a9119818-9106-4214-a405-847e41893877"},"vehicle_type_id":"4","last_reported":1713719244,"current_range_meters":13600,"station_id":"ce4bhqp2rcd13ifvqhog","pricing_plan_id":"cebpf4jnsgd1na2vs0mg"},{"bike_id":"4d3309a7-9ad7-4e1a-aa2b-f506ef43c3ca","system_id":"levelo_inurba_marseille","lat":43.3237,"lon":5.38888,"is_reserved":false,"is_disabled":false,"rental_uris":{"android":"levelo://app?vid=4d3309a7-9ad7-4e1a-aa2b-f506ef43c3ca","ios":"levelo://app?vid=4d3309a7-9ad7-4e1a-aa2b-f506ef43c3ca"},"vehicle_type_id":"4","last_reported":1713719244,"current_range_meters":23200,"station_id":"ce4bhqp2rcd13ifvqhog","pricing_plan_id":"cebpf4jnsgd1na2vs0mg"},{"bike_id":"dd11d5cd-5042-41e6-b7dc-e9db6b91bbca","system_id":"levelo_inurba_marseille","lat":43.31431,"lon":5.393738,"is_reserved":false,"is_disabled":false,"rental_uris":{"android":"levelo://app?vid=dd11d5cd-5042-41e6-b7dc-e9db6b91bbca","ios":"levelo://app?vid=dd11d5cd-5042-41e6-b7dc-e9db6b91bbca"},"vehicle_type_id":"4","last_reported":1713719244,"current_range_meters":1200,"station_id":"","pricing_plan_id":"cebpf4jnsgd1na2vs0mg"},{"bike_id":"00e95b44-0961-4bb3-97fa-8bc07e4799b9","system_id":"levelo_inurba_marseille","lat":43.29602,"lon":5.381084,"is_reserved":false,"is_disabled":false,"rental_uris":{"android":"levelo://app?vid=00e95b44-0961-4bb3-97fa-8bc07e4799b9","ios":"levelo://app?vid=00e95b44-0961-4bb3-97fa-8bc07e4799b9"},"vehicle_type_id":"4","last_reported":1713719244,"current_range_meters":20400,"station_id":"ce4bgl12rcd13ifvqbo0","pricing_plan_id":"cebpf4jnsgd1na2vs0mg"},{"bike_id":"803a4517-b09b-4770-a504-d0b96c6ec42b","system_id":"levelo_inurba_marseille","lat":43.29602,"lon":5.381084,"is_reserved":false,"is_disabled":false,"rental_uris":{"android":"levelo://app?vid=803a4517-b09b-4770-a504-d0b96c6ec42b","ios":"levelo://app?vid=803a4517-b09b-4770-a504-d0b96c6ec42b"},"vehicle_type_id":"4","last_reported":1713719244,"current_range_meters":0,"station_id":"ce4bgl12rcd13ifvqbo0","pricing_plan_id":"cebpf4jnsgd1na2vs0mg"},{"bike_id":"446bc949-804e-4fd5-89c9-5ae04143fc1f","system_id":"levelo_inurba_marseille","lat":43.293259,"lon":5.371586,"is_reserved":false,"is_disabled":false,"rental_uris":{"android":"levelo://app?vid=446bc949-804e-4fd5-89c9-5ae04143fc1f","ios":"levelo://app?vid=446bc949-804e-4fd5-89c9-5ae04143fc1f"},"vehicle_type_id":"4","last_reported":1713719244,"current_range_meters":0,"station_id":"ce4bgh92rcd13ifvqb40","pricing_plan_id":"cebpf4jnsgd1na2vs0mg"},{"bike_id":"8de59424-751e-4802-a66c-39673e9b80c4","system_id":"levelo_inurba_marseille","lat":43.29279,"lon":5.36837,"is_reserved":false,"is_disabled":false,"rental_uris":{"android":"levelo://app?vid=8de59424-751e-4802-a66c-39673e9b80c4","ios":"levelo://app?vid=8de59424-751e-4802-a66c-39673e9b80c4"},"vehicle_type_id":"4","last_reported":1713719244,"current_range_meters":0,"station_id":"ce4bhbp2rcd13ifvqesg","pricing_plan_id":"cebpf4jnsgd1na2vs0mg"},{"bike_id":"28b4a1a9-3600-44b9-a874-50c2e7370a5f","system_id":"levelo_inurba_marseille","lat":43.29304,"lon":5.37165,"is_reserved":false,"is_disabled":false,"rental_uris":{"android":"levelo://app?vid=28b4a1a9-3600-44b9-a874-50c2e7370a5f","ios":"levelo://app?vid=28b4a1a9-3600-44b9-a874-50c2e7370a5f"},"vehicle_type_id":"4","last_reported":1713719244,"current_range_meters":6400,"station_id":"ce4bgh92rcd13ifvqb40","pricing_plan_id":"cebpf4jnsgd1na2vs0mg"},{"bike_id":"8ad96ea3-a24d-451d-be49-d6003b17c72e","system_id":"levelo_inurba_marseille","lat":43.292749,"lon":5.368398,"is_reserved":false,"is_disabled":false,"rental_uris":{"android":"levelo://app?vid=8ad96ea3-a24d-451d-be49-d6003b17c72e","ios":"levelo://app?vid=8ad96ea3-a24d-451d-be49-d6003b17c72e"},"vehicle_type_id":"4","last_reported":1713719244,"current_range_meters":0,"station_id":"ce4bhbp2rcd13ifvqesg","pricing_plan_id":"cebpf4jnsgd1na2vs0mg"},{"bike_id":"aa1edb79-9a71-415f-ba2d-7b54b2fdcaff","system_id":"levelo_inurba_marseille","lat":43.2936,"lon":5.37835,"is_reserved":false,"is_disabled":false,"rental_uris":{"android":"levelo://app?vid=aa1edb79-9a71-415f-ba2d-7b54b2fdcaff","ios":"levelo://app?vid=aa1edb79-9a71-415f-ba2d-7b54b2fdcaff"},"vehicle_type_id":"4","last_reported":1713719244,"current_range_meters":5200,"station_id":"ce4bgjh2rcd13ifvqbf0","pricing_plan_id":"cebpf4jnsgd1na2vs0mg"},{"bike_id":"9a2a4222-896c-40ca-9e6a-503364045515","system_id":"levelo_inurba_marseille","lat":43.293009,"lon":5.374584,"is_reserved":false,"is_disabled":false,"rental_uris":{"android":"levelo://app?vid=9a2a4222-896c-40ca-9e6a-503364045515","ios":"levelo://app?vid=9a2a4222-896c-40ca-9e6a-503364045515"},"vehicle_type_id":"4","last_reported":1713719244,"current_range_meters":1200,"station_id":"ce4bgi12rcd13ifvqb70","pricing_plan_id":"cebpf4jnsgd1na2vs0mg"},{"bike_id":"3ffcac7d-13e3-40a4-ba16-89b24cdd2782","system_id":"levelo_inurba_marseille","lat":43.29226,"lon":5.36064,"is_reserved":false,"is_disabled":false,"rental_uris":{"android":"levelo://app?vid=3ffcac7d-13e3-40a4-ba16-89b24cdd2782","ios":"levelo://app?vid=3ffcac7d-13e3-40a4-ba16-89b24cdd2782"},"vehicle_type_id":"4","last_reported":1713719244,"current_range_meters":0,"station_id":"ce4bhbh2rcd13ifvqeqg","pricing_plan_id":"cebpf4jnsgd1na2vs0mg"},{"bike_id":"0f1c5218-895c-498d-aa5a-8812f145a553","system_id":"levelo_inurba_marseille","lat":43.29223,"lon":5.36064,"is_reserved":false,"is_disabled":false,"rental_uris":{"android":"levelo://app?vid=0f1c5218-895c-498d-aa5a-8812f145a553","ios":"levelo://app?vid=0f1c5218-895c-498d-aa5a-8812f145a553"},"vehicle_type_id":"4","last_reported":1713719244,"current_range_meters":0,"station_id":"ce4bhbh2rcd13ifvqeqg","pricing_plan_id":"cebpf4jnsgd1na2vs0mg"},{"bike_id":"ebc91dc4-8d47-4b8e-ad9a-2a2f79d53dce","system_id":"levelo_inurba_marseille","lat":43.29529,"lon":5.385581,"is_reserved":false,"is_disabled":false,"rental_uris":{"android":"levelo://app?vid=ebc91dc4-8d47-4b8e-ad9a-2a2f79d53dce","ios":"levelo://app?vid=ebc91dc4-8d47-4b8e-ad9a-2a2f79d53dce"},"vehicle_type_id":"4","last_reported":1713719244,"current_range_meters":0,"station_id":"ce4bgih2rcd13ifvqba0","pricing_plan_id":"cebpf4jnsgd1na2vs0mg"},{"bike_id":"f51eeeca-db43-4296-9d90-1c55a4c437d1","system_id":"levelo_inurba_marseille","lat":43.29219,"lon":5.36051,"is_reserved":false,"is_disabled":false,"rental_uris":{"android":"levelo://app?vid=f51eeeca-db43-4296-9d90-1c55a4c437d1","ios":"levelo://app?vid=f51eeeca-db43-4296-9d90-1c55a4c437d1"},"vehicle_type_id":"4","last_reported":1713719244,"current_range_meters":0,"station_id":"ce4bhbh2rcd13ifvqeqg","pricing_plan_id":"cebpf4jnsgd1na2vs0mg"},{"bike_id":"2fa60ca2-e33b-4f19-94c6-39b19f2ea72a","system_id":"levelo_inurba_marseille","lat":43.298764,"lon":5.388973,"is_reserved":false,"is_disabled":false,"rental_uris":{"android":"levelo://app?vid=2fa60ca2-e33b-4f19-94c6-39b19f2ea72a","ios":"levelo://app?vid=2fa60ca2-e33b-4f19-94c6-39b19f2ea72a"},"vehicle_type_id":"4","last_reported":1713719244,"current_range_meters":0,"station_id":"ce4bh392rcd13ifvqdl0","pricing_plan_id":"cebpf4jnsgd1na2vs0mg"},{"bike_id":"846665ef-f76e-4a1a-952d-f7ce9724a005","system_id":"levelo_inurba_marseille","lat":43.298624,"lon":5.388787,"is_reserved":false,"is_disabled":false,"rental_uris":{"android":"levelo://app?vid=846665ef-f76e-4a1a-952d-f7ce9724a005","ios":"levelo://app?vid=846665ef-f76e-4a1a-952d-f7ce9724a005"},"vehicle_type_id":"4","last_reported":1713719244,"current_range_meters":14000,"station_id":"ce4bh392rcd13ifvqdl0","pricing_plan_id":"cebpf4jnsgd1na2vs0mg"},{"bike_id":"847f7d2b-0160-41a2-b61e-9a897adf0f5d","system_id":"levelo_inurba_marseille","lat":43.298804,"lon":5.389064,"is_reserved":false,"is_disabled":false,"rental_uris":{"android":"levelo://app?vid=847f7d2b-0160-41a2-b61e-9a897adf0f5d","ios":"levelo://app?vid=847f7d2b-0160-41a2-b61e-9a897adf0f5d"},"vehicle_type_id":"4","last_reported":1713719244,"current_range_meters":0,"station_id":"ce4bh392rcd13ifvqdl0","pricing_plan_id":"cebpf4jnsgd1na2vs0mg"},{"bike_id":"6ec4a587-7567-4404-9916-0219862849f0","system_id":"levelo_inurba_marseille","lat":43.291671,"lon":5.371575,"is_reserved":false,"is_disabled":false,"rental_uris":{"android":"levelo://app?vid=6ec4a587-7567-4404-9916-0219862849f0","ios":"levelo://app?vid=6ec4a587-7567-4404-9916-0219862849f0"},"vehicle_type_id":"4","last_reported":1713719244,"current_range_meters":26400,"station_id":"ce4bha92rcd13ifvqeh0","pricing_plan_id":"cebpf4jnsgd1na2vs0mg"},{"bike_id":"6c0bf47a-46ed-4d74-aa7f-897acf09849f","system_id":"levelo_inurba_marseille","lat":43.29602,"lon":5.381084,"is_reserved":false,"is_disabled":false,"rental_uris":{"android":"levelo://app?vid=6c0bf47a-46ed-4d74-aa7f-897acf09849f","ios":"levelo://app?vid=6c0bf47a-46ed-4d74-aa7f-897acf09849f"},"vehicle_type_id":"4","last_reported":1713719244,"current_range_meters":7600,"station_id":"ce4bgl12rcd13ifvqbo0","pricing_plan_id":"cebpf4jnsgd1na2vs0mg"},{"bike_id":"009db621-adf6-43de-8ffa-ae9d549271cd","system_id":"levelo_inurba_marseille","lat":43.298681,"lon":5.397225,"is_reserved":false,"is_disabled":false,"rental_uris":{"android":"levelo://app?vid=009db621-adf6-43de-8ffa-ae9d549271cd","ios":"levelo://app?vid=009db621-adf6-43de-8ffa-ae9d549271cd"},"vehicle_type_id":"4","last_reported":1713719244,"current_range_meters":0,"station_id":"ce4bh0h2rcd13ifvqd50","pricing_plan_id":"cebpf4jnsgd1na2vs0mg"},{"bike_id":"2512c5b9-545e-4a37-8694-741d9b3d49de","system_id":"levelo_inurba_marseille","lat":43.302073,"lon":5.39284,"is_reserved":false,"is_disabled":false,"rental_uris":{"android":"levelo://app?vid=2512c5b9-545e-4a37-8694-741d9b3d49de","ios":"levelo://app?vid=2512c5b9-545e-4a37-8694-741d9b3d49de"},"vehicle_type_id":"4","last_reported":1713719244,"current_range_meters":22000,"station_id":"","pricing_plan_id":"cebpf4jnsgd1na2vs0mg"},{"bike_id":"1e0a427c-14ca-4404-8c1d-3cd38046ce33","system_id":"levelo_inurba_marseille","lat":43.260219,"lon":5.37546,"is_reserved":false,"is_disabled":false,"rental_uris":{"android":"levelo://app?vid=1e0a427c-14ca-4404-8c1d-3cd38046ce33","ios":"levelo://app?vid=1e0a427c-14ca-4404-8c1d-3cd38046ce33"},"vehicle_type_id":"4","last_reported":1713719244,"current_range_meters":13200,"station_id":"ce4bhgh2rcd13ifvqfa0","pricing_plan_id":"cebpf4jnsgd1na2vs0mg"},{"bike_id":"91e007d6-742c-4ed4-a3d3-722e695ab78c","system_id":"levelo_inurba_marseille","lat":43.313291,"lon":5.396838,"is_reserved":false,"is_disabled":false,"rental_uris":{"android":"levelo://app?vid=91e007d6-742c-4ed4-a3d3-722e695ab78c","ios":"levelo://app?vid=91e007d6-742c-4ed4-a3d3-722e695ab78c"},"vehicle_type_id":"4","last_reported":1713719244,"current_range_meters":1600,"station_id":"ce4bgvp2rcd13ifvqcu0","pricing_plan_id":"cebpf4jnsgd1na2vs0mg"},{"bike_id":"1c943955-5d04-4c79-b5c2-1c8126b21165","system_id":"levelo_inurba_marseille","lat":43.291994,"lon":5.357886,"is_reserved":false,"is_disabled":false,"rental_uris":{"android":"levelo://app?vid=1c943955-5d04-4c79-b5c2-1c8126b21165","ios":"levelo://app?vid=1c943955-5d04-4c79-b5c2-1c8126b21165"},"vehicle_type_id":"4","last_reported":1713719244,"current_range_meters":0,"station_id":"ce4bhb12rcd13ifvqel0","pricing_plan_id":"cebpf4jnsgd1na2vs0mg"},{"bike_id":"55f449f3-36da-497a-8b7f-f97cb51c3af3","system_id":"levelo_inurba_marseille","lat":43.291994,"lon":5.357886,"is_reserved":false,"is_disabled":false,"rental_uris":{"android":"levelo://app?vid=55f449f3-36da-497a-8b7f-f97cb51c3af3","ios":"levelo://app?vid=55f449f3-36da-497a-8b7f-f97cb51c3af3"},"vehicle_type_id":"4","last_reported":1713719244,"current_range_meters":0,"station_id":"ce4bhb12rcd13ifvqel0","pricing_plan_id":"cebpf4jnsgd1na2vs0mg"},{"bike_id":"25891676-359c-44dc-ad87-50d4c0dd3152","system_id":"levelo_inurba_marseille","lat":43.29542,"lon":5.385524,"is_reserved":false,"is_disabled":false,"rental_uris":{"android":"levelo://app?vid=25891676-359c-44dc-ad87-50d4c0dd3152","ios":"levelo://app?vid=25891676-359c-44dc-ad87-50d4c0dd3152"},"vehicle_type_id":"4","last_reported":1713719244,"current_range_meters":0,"station_id":"ce4bgih2rcd13ifvqba0","pricing_plan_id":"cebpf4jnsgd1na2vs0mg"},{"bike_id":"a130b526-025f-4d4a-99fb-255588251c93","system_id":"levelo_inurba_marseille","lat":43.29531,"lon":5.38539,"is_reserved":false,"is_disabled":false,"rental_uris":{"android":"levelo://app?vid=a130b526-025f-4d4a-99fb-255588251c93","ios":"levelo://app?vid=a130b526-025f-4d4a-99fb-255588251c93"},"vehicle_type_id":"4","last_reported":1713719244,"current_range_meters":0,"station_id":"ce4bh0h2rcd13ifvqd40","pricing_plan_id":"cebpf4jnsgd1na2vs0mg"},{"bike_id":"43525023-230b-4b25-a063-e02dc4425b29","system_id":"levelo_inurba_marseille","lat":43.295253,"lon":5.38538,"is_reserved":false,"is_disabled":false,"rental_uris":{"android":"levelo://app?vid=43525023-230b-4b25-a063-e02dc4425b29","ios":"levelo://app?vid=43525023-230b-4b25-a063-e02dc4425b29"},"vehicle_type_id":"4","last_reported":1713719244,"current_range_meters":0,"station_id":"ce4bgih2rcd13ifvqba0","pricing_plan_id":"cebpf4jnsgd1na2vs0mg"},{"bike_id":"cf97a2d3-56be-4e20-8782-29a29386f775","system_id":"levelo_inurba_marseille","lat":43.290779,"lon":5.371482,"is_reserved":false,"is_disabled":false,"rental_uris":{"android":"levelo://app?vid=cf97a2d3-56be-4e20-8782-29a29386f775","ios":"levelo://app?vid=cf97a2d3-56be-4e20-8782-29a29386f775"},"vehicle_type_id":"4","last_reported":1713719244,"current_range_meters":0,"station_id":"ce4bh5p2rcd13ifvqe4g","pricing_plan_id":"cebpf4jnsgd1na2vs0mg"},{"bike_id":"33a326a3-28fd-47be-b6d8-a0e0ffb7770d","system_id":"levelo_inurba_marseille","lat":43.290779,"lon":5.371482,"is_reserved":false,"is_disabled":false,"rental_uris":{"android":"levelo://app?vid=33a326a3-28fd-47be-b6d8-a0e0ffb7770d","ios":"levelo://app?vid=33a326a3-28fd-47be-b6d8-a0e0ffb7770d"},"vehicle_type_id":"4","last_reported":1713719244,"current_range_meters":14800,"station_id":"ce4bh5p2rcd13ifvqe4g","pricing_plan_id":"cebpf4jnsgd1na2vs0mg"},{"bike_id":"3b0cb381-ba74-4ad1-aebc-47bf987fd28a","system_id":"levelo_inurba_marseille","lat":43.290779,"lon":5.371482,"is_reserved":false,"is_disabled":false,"rental_uris":{"android":"levelo://app?vid=3b0cb381-ba74-4ad1-aebc-47bf987fd28a","ios":"levelo://app?vid=3b0cb381-ba74-4ad1-aebc-47bf987fd28a"},"vehicle_type_id":"4","last_reported":1713719244,"current_range_meters":5600,"station_id":"ce4bh5p2rcd13ifvqe4g","pricing_plan_id":"cebpf4jnsgd1na2vs0mg"},{"bike_id":"d29e0ee4-dc9b-47b7-b219-b8b2f79e736d","system_id":"levelo_inurba_marseille","lat":43.302008,"lon":5.394694,"is_reserved":false,"is_disabled":false,"rental_uris":{"android":"levelo://app?vid=d29e0ee4-dc9b-47b7-b219-b8b2f79e736d","ios":"levelo://app?vid=d29e0ee4-dc9b-47b7-b219-b8b2f79e736d"},"vehicle_type_id":"4","last_reported":1713719244,"current_range_meters":9600,"station_id":"ce4bh0p2rcd13ifvqd70","pricing_plan_id":"cebpf4jnsgd1na2vs0mg"},{"bike_id":"b38510e7-778f-45e5-8baa-ee2b8c0406fd","system_id":"levelo_inurba_marseille","lat":43.302008,"lon":5.394694,"is_reserved":false,"is_disabled":false,"rental_uris":{"android":"levelo://app?vid=b38510e7-778f-45e5-8baa-ee2b8c0406fd","ios":"levelo://app?vid=b38510e7-778f-45e5-8baa-ee2b8c0406fd"},"vehicle_type_id":"4","last_reported":1713719244,"current_range_meters":400,"station_id":"ce4bh0p2rcd13ifvqd70","pricing_plan_id":"cebpf4jnsgd1na2vs0mg"},{"bike_id":"74e627ad-0d91-463a-b225-e305e189ef9a","system_id":"levelo_inurba_marseille","lat":43.302008,"lon":5.394694,"is_reserved":false,"is_disabled":false,"rental_uris":{"android":"levelo://app?vid=74e627ad-0d91-463a-b225-e305e189ef9a","ios":"levelo://app?vid=74e627ad-0d91-463a-b225-e305e189ef9a"},"vehicle_type_id":"4","last_reported":1713719244,"current_range_meters":12000,"station_id":"ce4bh0p2rcd13ifvqd70","pricing_plan_id":"cebpf4jnsgd1na2vs0mg"},{"bike_id":"5df98730-19cc-46d5-a493-42a5be33deeb","system_id":"levelo_inurba_marseille","lat":43.295194,"lon":5.39397,"is_reserved":false,"is_disabled":false,"rental_uris":{"android":"levelo://app?vid=5df98730-19cc-46d5-a493-42a5be33deeb","ios":"levelo://app?vid=5df98730-19cc-46d5-a493-42a5be33deeb"},"vehicle_type_id":"4","last_reported":1713719244,"current_range_meters":19600,"station_id":"ce4bh292rcd13ifvqdf0","pricing_plan_id":"cebpf4jnsgd1na2vs0mg"},{"bike_id":"9d2af414-303a-4e16-a3f5-0be67b554124","system_id":"levelo_inurba_marseille","lat":43.2943,"lon":5.3862,"is_reserved":false,"is_disabled":false,"rental_uris":{"android":"levelo://app?vid=9d2af414-303a-4e16-a3f5-0be67b554124","ios":"levelo://app?vid=9d2af414-303a-4e16-a3f5-0be67b554124"},"vehicle_type_id":"4","last_reported":1713719244,"current_range_meters":1200,"station_id":"","pricing_plan_id":"cebpf4jnsgd1na2vs0mg"},{"bike_id":"141150f2-aa97-4589-9458-5dc728745192","system_id":"levelo_inurba_marseille","lat":43.28953,"lon":5.36638,"is_reserved":false,"is_disabled":false,"rental_uris":{"android":"levelo://app?vid=141150f2-aa97-4589-9458-5dc728745192","ios":"levelo://app?vid=141150f2-aa97-4589-9458-5dc728745192"},"vehicle_type_id":"4","last_reported":1713719244,"current_range_meters":0,"station_id":"ce4bhap2rcd13ifvqek0","pricing_plan_id":"cebpf4jnsgd1na2vs0mg"},{"bike_id":"136d3a1c-3aeb-4246-a70e-4df45a817860","system_id":"levelo_inurba_marseille","lat":43.294153,"lon":5.386305,"is_reserved":false,"is_disabled":false,"rental_uris":{"android":"levelo://app?vid=136d3a1c-3aeb-4246-a70e-4df45a817860","ios":"levelo://app?vid=136d3a1c-3aeb-4246-a70e-4df45a817860"},"vehicle_type_id":"4","last_reported":1713719244,"current_range_meters":8000,"station_id":"ce4bh2h2rcd13ifvqdh0","pricing_plan_id":"cebpf4jnsgd1na2vs0mg"},{"bike_id":"4976ce7c-50c6-40be-846a-a69af4a31696","system_id":"levelo_inurba_marseille","lat":43.29417,"lon":5.38623,"is_reserved":false,"is_disabled":false,"rental_uris":{"android":"levelo://app?vid=4976ce7c-50c6-40be-846a-a69af4a31696","ios":"levelo://app?vid=4976ce7c-50c6-40be-846a-a69af4a31696"},"vehicle_type_id":"4","last_reported":1713719244,"current_range_meters":0,"station_id":"ce4bh2h2rcd13ifvqdh0","pricing_plan_id":"cebpf4jnsgd1na2vs0mg"},{"bike_id":"ace7b8ff-5ebf-4620-a0bf-c741e5dff8b0","system_id":"levelo_inurba_marseille","lat":43.28941,"lon":5.36643,"is_reserved":false,"is_disabled":false,"rental_uris":{"android":"levelo://app?vid=ace7b8ff-5ebf-4620-a0bf-c741e5dff8b0","ios":"levelo://app?vid=ace7b8ff-5ebf-4620-a0bf-c741e5dff8b0"},"vehicle_type_id":"4","last_reported":1713719244,"current_range_meters":13600,"station_id":"ce4bhap2rcd13ifvqek0","pricing_plan_id":"cebpf4jnsgd1na2vs0mg"},{"bike_id":"62ea2810-abed-45ab-83fc-7461d4281be4","system_id":"levelo_inurba_marseille","lat":43.292644,"lon":5.384257,"is_reserved":false,"is_disabled":false,"rental_uris":{"android":"levelo://app?vid=62ea2810-abed-45ab-83fc-7461d4281be4","ios":"levelo://app?vid=62ea2810-abed-45ab-83fc-7461d4281be4"},"vehicle_type_id":"4","last_reported":1713719244,"current_range_meters":27600,"station_id":"ce4bh692rcd13ifvqea0","pricing_plan_id":"cebpf4jnsgd1na2vs0mg"},{"bike_id":"99a65260-3cfb-48d8-bade-01145402d4d6","system_id":"levelo_inurba_marseille","lat":43.295279,"lon":5.375048,"is_reserved":false,"is_disabled":false,"rental_uris":{"android":"levelo://app?vid=99a65260-3cfb-48d8-bade-01145402d4d6","ios":"levelo://app?vid=99a65260-3cfb-48d8-bade-01145402d4d6"},"vehicle_type_id":"4","last_reported":1713719244,"current_range_meters":8000,"station_id":"ce4bgkp2rcd13ifvqbmg","pricing_plan_id":"cebpf4jnsgd1na2vs0mg"},{"bike_id":"818a497c-0a14-4ecd-9b07-a9d1727fab82","system_id":"levelo_inurba_marseille","lat":43.289184,"lon":5.366408,"is_reserved":false,"is_disabled":false,"rental_uris":{"android":"levelo://app?vid=818a497c-0a14-4ecd-9b07-a9d1727fab82","ios":"levelo://app?vid=818a497c-0a14-4ecd-9b07-a9d1727fab82"},"vehicle_type_id":"4","last_reported":1713719244,"current_range_meters":800,"station_id":"ce4bhap2rcd13ifvqek0","pricing_plan_id":"cebpf4jnsgd1na2vs0mg"},{"bike_id":"f4fc9db4-0dbb-4f5d-918f-008ef0c8200b","system_id":"levelo_inurba_marseille","lat":43.289184,"lon":5.366408,"is_reserved":false,"is_disabled":false,"rental_uris":{"android":"levelo://app?vid=f4fc9db4-0dbb-4f5d-918f-008ef0c8200b","ios":"levelo://app?vid=f4fc9db4-0dbb-4f5d-918f-008ef0c8200b"},"vehicle_type_id":"4","last_reported":1713719244,"current_range_meters":11600,"station_id":"ce4bhap2rcd13ifvqek0","pricing_plan_id":"cebpf4jnsgd1na2vs0mg"},{"bike_id":"143edf51-e2e6-4dca-8a19-06f39f51cd16","system_id":"levelo_inurba_marseille","lat":43.291675,"lon":5.371583,"is_reserved":false,"is_disabled":false,"rental_uris":{"android":"levelo://app?vid=143edf51-e2e6-4dca-8a19-06f39f51cd16","ios":"levelo://app?vid=143edf51-e2e6-4dca-8a19-06f39f51cd16"},"vehicle_type_id":"4","last_reported":1713719244,"current_range_meters":0,"station_id":"ce4bha92rcd13ifvqeh0","pricing_plan_id":"cebpf4jnsgd1na2vs0mg"},{"bike_id":"39677dd2-b1f6-4676-9b79-7d268560de12","system_id":"levelo_inurba_marseille","lat":43.292644,"lon":5.384257,"is_reserved":false,"is_disabled":false,"rental_uris":{"android":"levelo://app?vid=39677dd2-b1f6-4676-9b79-7d268560de12","ios":"levelo://app?vid=39677dd2-b1f6-4676-9b79-7d268560de12"},"vehicle_type_id":"4","last_reported":1713719244,"current_range_meters":3600,"station_id":"ce4bh692rcd13ifvqea0","pricing_plan_id":"cebpf4jnsgd1na2vs0mg"},{"bike_id":"652f2620-a3db-4fa9-b0bd-2a43f6f05749","system_id":"levelo_inurba_marseille","lat":43.292642,"lon":5.384254,"is_reserved":false,"is_disabled":false,"rental_uris":{"android":"levelo://app?vid=652f2620-a3db-4fa9-b0bd-2a43f6f05749","ios":"levelo://app?vid=652f2620-a3db-4fa9-b0bd-2a43f6f05749"},"vehicle_type_id":"4","last_reported":1713719244,"current_range_meters":24400,"station_id":"ce4bh692rcd13ifvqea0","pricing_plan_id":"cebpf4jnsgd1na2vs0mg"},{"bike_id":"1ccbe9f1-8af0-4530-9291-b6982aa2657d","system_id":"levelo_inurba_marseille","lat":43.304296,"lon":5.397513,"is_reserved":false,"is_disabled":false,"rental_uris":{"android":"levelo://app?vid=1ccbe9f1-8af0-4530-9291-b6982aa2657d","ios":"levelo://app?vid=1ccbe9f1-8af0-4530-9291-b6982aa2657d"},"vehicle_type_id":"4","last_reported":1713719244,"current_range_meters":9600,"station_id":"ce4bh092rcd13ifvqd20","pricing_plan_id":"cebpf4jnsgd1na2vs0mg"},{"bike_id":"90e65170-56f0-445b-9f19-16460cd590b1","system_id":"levelo_inurba_marseille","lat":43.291167,"lon":5.380951,"is_reserved":false,"is_disabled":false,"rental_uris":{"android":"levelo://app?vid=90e65170-56f0-445b-9f19-16460cd590b1","ios":"levelo://app?vid=90e65170-56f0-445b-9f19-16460cd590b1"},"vehicle_type_id":"4","last_reported":1713719244,"current_range_meters":0,"station_id":"ce4bh512rcd13ifvqe2g","pricing_plan_id":"cebpf4jnsgd1na2vs0mg"},{"bike_id":"99f23611-e6ac-434e-b114-04f94f5bd5df","system_id":"levelo_inurba_marseille","lat":43.290103,"lon":5.356114,"is_reserved":false,"is_disabled":false,"rental_uris":{"android":"levelo://app?vid=99f23611-e6ac-434e-b114-04f94f5bd5df","ios":"levelo://app?vid=99f23611-e6ac-434e-b114-04f94f5bd5df"},"vehicle_type_id":"4","last_reported":1713719244,"current_range_meters":0,"station_id":"ce4bhb92rcd13ifvqen0","pricing_plan_id":"cebpf4jnsgd1na2vs0mg"},{"bike_id":"2baff2ae-3409-442e-bbbf-60123e038962","system_id":"levelo_inurba_marseille","lat":43.290103,"lon":5.356114,"is_reserved":false,"is_disabled":false,"rental_uris":{"android":"levelo://app?vid=2baff2ae-3409-442e-bbbf-60123e038962","ios":"levelo://app?vid=2baff2ae-3409-442e-bbbf-60123e038962"},"vehicle_type_id":"4","last_reported":1713719244,"current_range_meters":0,"station_id":"ce4bhb92rcd13ifvqen0","pricing_plan_id":"cebpf4jnsgd1na2vs0mg"},{"bike_id":"96a24399-35db-4ac7-acd7-a38cb42bde42","system_id":"levelo_inurba_marseille","lat":43.28996,"lon":5.35623,"is_reserved":false,"is_disabled":false,"rental_uris":{"android":"levelo://app?vid=96a24399-35db-4ac7-acd7-a38cb42bde42","ios":"levelo://app?vid=96a24399-35db-4ac7-acd7-a38cb42bde42"},"vehicle_type_id":"4","last_reported":1713719244,"current_range_meters":0,"station_id":"ce4bhb92rcd13ifvqen0","pricing_plan_id":"cebpf4jnsgd1na2vs0mg"},{"bike_id":"2f081d85-8acd-42f3-956e-75777501f30f","system_id":"levelo_inurba_marseille","lat":43.28995,"lon":5.3562,"is_reserved":false,"is_disabled":false,"rental_uris":{"android":"levelo://app?vid=2f081d85-8acd-42f3-956e-75777501f30f","ios":"levelo://app?vid=2f081d85-8acd-42f3-956e-75777501f30f"},"vehicle_type_id":"4","last_reported":1713719244,"current_range_meters":0,"station_id":"ce4bhb92rcd13ifvqen0","pricing_plan_id":"cebpf4jnsgd1na2vs0mg"},{"bike_id":"303a0ea7-5e70-48da-bcca-898234d23608","system_id":"levelo_inurba_marseille","lat":43.290103,"lon":5.356114,"is_reserved":false,"is_disabled":false,"rental_uris":{"android":"levelo://app?vid=303a0ea7-5e70-48da-bcca-898234d23608","ios":"levelo://app?vid=303a0ea7-5e70-48da-bcca-898234d23608"},"vehicle_type_id":"4","last_reported":1713719244,"current_range_meters":0,"station_id":"ce4bhb92rcd13ifvqen0","pricing_plan_id":"cebpf4jnsgd1na2vs0mg"},{"bike_id":"2cab383b-7165-40fa-8a25-a9dbb5c446a4","system_id":"levelo_inurba_marseille","lat":43.33016,"lon":5.38989,"is_reserved":false,"is_disabled":false,"rental_uris":{"android":"levelo://app?vid=2cab383b-7165-40fa-8a25-a9dbb5c446a4","ios":"levelo://app?vid=2cab383b-7165-40fa-8a25-a9dbb5c446a4"},"vehicle_type_id":"4","last_reported":1713719244,"current_range_meters":0,"station_id":"ce4bhr92rcd13ifvqhrg","pricing_plan_id":"cebpf4jnsgd1na2vs0mg"},{"bike_id":"42779567-a739-4977-922d-da9f372d927a","system_id":"levelo_inurba_marseille","lat":43.289741,"lon":5.378306,"is_reserved":false,"is_disabled":false,"rental_uris":{"android":"levelo://app?vid=42779567-a739-4977-922d-da9f372d927a","ios":"levelo://app?vid=42779567-a739-4977-922d-da9f372d927a"},"vehicle_type_id":"4","last_reported":1713719244,"current_range_meters":0,"station_id":"ce4bh9p2rcd13ifvqed0","pricing_plan_id":"cebpf4jnsgd1na2vs0mg"},{"bike_id":"10901112-473a-4e50-9c35-efc261392da6","system_id":"levelo_inurba_marseille","lat":43.289618,"lon":5.35667,"is_reserved":false,"is_disabled":false,"rental_uris":{"android":"levelo://app?vid=10901112-473a-4e50-9c35-efc261392da6","ios":"levelo://app?vid=10901112-473a-4e50-9c35-efc261392da6"},"vehicle_type_id":"4","last_reported":1713719244,"current_range_meters":0,"station_id":"ce4bhb92rcd13ifvqen0","pricing_plan_id":"cebpf4jnsgd1na2vs0mg"},{"bike_id":"0292b2bb-7553-46b2-8949-dc4218236dbc","system_id":"levelo_inurba_marseille","lat":43.295713,"lon":5.399639,"is_reserved":false,"is_disabled":false,"rental_uris":{"android":"levelo://app?vid=0292b2bb-7553-46b2-8949-dc4218236dbc","ios":"levelo://app?vid=0292b2bb-7553-46b2-8949-dc4218236dbc"},"vehicle_type_id":"4","last_reported":1713719244,"current_range_meters":0,"station_id":"ce4bh312rcd13ifvqdj0","pricing_plan_id":"cebpf4jnsgd1na2vs0mg"},{"bike_id":"85db15e2-b386-458a-908a-f665c177feb7","system_id":"levelo_inurba_marseille","lat":43.289743,"lon":5.378304,"is_reserved":false,"is_disabled":false,"rental_uris":{"android":"levelo://app?vid=85db15e2-b386-458a-908a-f665c177feb7","ios":"levelo://app?vid=85db15e2-b386-458a-908a-f665c177feb7"},"vehicle_type_id":"4","last_reported":1713719244,"current_range_meters":1200,"station_id":"ce4bh9p2rcd13ifvqed0","pricing_plan_id":"cebpf4jnsgd1na2vs0mg"},{"bike_id":"400c44e6-afae-490e-aa34-f295a516b27c","system_id":"levelo_inurba_marseille","lat":43.2908,"lon":5.38135,"is_reserved":false,"is_disabled":false,"rental_uris":{"android":"levelo://app?vid=400c44e6-afae-490e-aa34-f295a516b27c","ios":"levelo://app?vid=400c44e6-afae-490e-aa34-f295a516b27c"},"vehicle_type_id":"4","last_reported":1713719244,"current_range_meters":24800,"station_id":"ce4bh512rcd13ifvqe2g","pricing_plan_id":"cebpf4jnsgd1na2vs0mg"},{"bike_id":"6df0532f-8ab0-417e-bb3c-95ee87bee915","system_id":"levelo_inurba_marseille","lat":43.29782,"lon":5.39334,"is_reserved":false,"is_disabled":false,"rental_uris":{"android":"levelo://app?vid=6df0532f-8ab0-417e-bb3c-95ee87bee915","ios":"levelo://app?vid=6df0532f-8ab0-417e-bb3c-95ee87bee915"},"vehicle_type_id":"4","last_reported":1713719244,"current_range_meters":0,"station_id":"chh1huq6cuj3fo74tm60","pricing_plan_id":"cebpf4jnsgd1na2vs0mg"},{"bike_id":"77dd05c6-7925-4f39-bf60-69b8a2e9a8b8","system_id":"levelo_inurba_marseille","lat":43.289743,"lon":5.378304,"is_reserved":false,"is_disabled":false,"rental_uris":{"android":"levelo://app?vid=77dd05c6-7925-4f39-bf60-69b8a2e9a8b8","ios":"levelo://app?vid=77dd05c6-7925-4f39-bf60-69b8a2e9a8b8"},"vehicle_type_id":"4","last_reported":1713719244,"current_range_meters":14000,"station_id":"ce4bh9p2rcd13ifvqed0","pricing_plan_id":"cebpf4jnsgd1na2vs0mg"},{"bike_id":"fc584bb0-ff67-43a4-b9c2-44d0825b1285","system_id":"levelo_inurba_marseille","lat":43.2977,"lon":5.39332,"is_reserved":false,"is_disabled":false,"rental_uris":{"android":"levelo://app?vid=fc584bb0-ff67-43a4-b9c2-44d0825b1285","ios":"levelo://app?vid=fc584bb0-ff67-43a4-b9c2-44d0825b1285"},"vehicle_type_id":"4","last_reported":1713719244,"current_range_meters":5200,"station_id":"chh1huq6cuj3fo74tm60","pricing_plan_id":"cebpf4jnsgd1na2vs0mg"},{"bike_id":"6ef34c71-daab-409d-8ac1-b614aff39940","system_id":"levelo_inurba_marseille","lat":43.289743,"lon":5.378304,"is_reserved":false,"is_disabled":false,"rental_uris":{"android":"levelo://app?vid=6ef34c71-daab-409d-8ac1-b614aff39940","ios":"levelo://app?vid=6ef34c71-daab-409d-8ac1-b614aff39940"},"vehicle_type_id":"4","last_reported":1713719244,"current_range_meters":21600,"station_id":"ce4bh9p2rcd13ifvqed0","pricing_plan_id":"cebpf4jnsgd1na2vs0mg"},{"bike_id":"194533ae-644e-44f1-b30a-2df266e550ca","system_id":"levelo_inurba_marseille","lat":43.29788,"lon":5.39354,"is_reserved":false,"is_disabled":false,"rental_uris":{"android":"levelo://app?vid=194533ae-644e-44f1-b30a-2df266e550ca","ios":"levelo://app?vid=194533ae-644e-44f1-b30a-2df266e550ca"},"vehicle_type_id":"4","last_reported":1713719244,"current_range_meters":1600,"station_id":"chh1huq6cuj3fo74tm60","pricing_plan_id":"cebpf4jnsgd1na2vs0mg"},{"bike_id":"213951bb-f16e-4a2a-b780-d59c64ea379f","system_id":"levelo_inurba_marseille","lat":43.317104,"lon":5.436818,"is_reserved":false,"is_disabled":false,"rental_uris":{"android":"levelo://app?vid=213951bb-f16e-4a2a-b780-d59c64ea379f","ios":"levelo://app?vid=213951bb-f16e-4a2a-b780-d59c64ea379f"},"vehicle_type_id":"4","last_reported":1713719244,"current_range_meters":7600,"station_id":"ce4bhp92rcd13ifvqhcg","pricing_plan_id":"cebpf4jnsgd1na2vs0mg"},{"bike_id":"60aced2b-8bc3-493d-a344-5fb15c855a84","system_id":"levelo_inurba_marseille","lat":43.29517,"lon":5.39035,"is_reserved":false,"is_disabled":false,"rental_uris":{"android":"levelo://app?vid=60aced2b-8bc3-493d-a344-5fb15c855a84","ios":"levelo://app?vid=60aced2b-8bc3-493d-a344-5fb15c855a84"},"vehicle_type_id":"4","last_reported":1713719244,"current_range_meters":18800,"station_id":"ce4bh3p2rcd13ifvqdp0","pricing_plan_id":"cebpf4jnsgd1na2vs0mg"},{"bike_id":"29c66e8e-ad35-428e-994a-166171ef10c0","system_id":"levelo_inurba_marseille","lat":43.330442,"lon":5.389148,"is_reserved":false,"is_disabled":false,"rental_uris":{"android":"levelo://app?vid=29c66e8e-ad35-428e-994a-166171ef10c0","ios":"levelo://app?vid=29c66e8e-ad35-428e-994a-166171ef10c0"},"vehicle_type_id":"4","last_reported":1713719244,"current_range_meters":31600,"station_id":"ce4bhr92rcd13ifvqhrg","pricing_plan_id":"cebpf4jnsgd1na2vs0mg"},{"bike_id":"d4e44f81-dd54-44a5-b160-552bc5741ba1","system_id":"levelo_inurba_marseille","lat":43.295099,"lon":5.390341,"is_reserved":false,"is_disabled":false,"rental_uris":{"android":"levelo://app?vid=d4e44f81-dd54-44a5-b160-552bc5741ba1","ios":"levelo://app?vid=d4e44f81-dd54-44a5-b160-552bc5741ba1"},"vehicle_type_id":"4","last_reported":1713719244,"current_range_meters":22400,"station_id":"ce4bh3p2rcd13ifvqdp0","pricing_plan_id":"cebpf4jnsgd1na2vs0mg"},{"bike_id":"5dfdde9e-5b7a-42cf-8ebb-87f3315a8e3a","system_id":"levelo_inurba_marseille","lat":43.320045,"lon":5.415046,"is_reserved":false,"is_disabled":false,"rental_uris":{"android":"levelo://app?vid=5dfdde9e-5b7a-42cf-8ebb-87f3315a8e3a","ios":"levelo://app?vid=5dfdde9e-5b7a-42cf-8ebb-87f3315a8e3a"},"vehicle_type_id":"4","last_reported":1713719244,"current_range_meters":8800,"station_id":"ce4bhq92rcd13ifvqhkg","pricing_plan_id":"cebpf4jnsgd1na2vs0mg"},{"bike_id":"80154af5-5529-489c-aa2c-54a3cee7e178","system_id":"levelo_inurba_marseille","lat":43.290258,"lon":5.381316,"is_reserved":false,"is_disabled":false,"rental_uris":{"android":"levelo://app?vid=80154af5-5529-489c-aa2c-54a3cee7e178","ios":"levelo://app?vid=80154af5-5529-489c-aa2c-54a3cee7e178"},"vehicle_type_id":"4","last_reported":1713719244,"current_range_meters":0,"station_id":"ce4bh4p2rcd13ifvqe1g","pricing_plan_id":"cebpf4jnsgd1na2vs0mg"},{"bike_id":"9789ca1c-0b04-47fc-90fa-c8d71e654532","system_id":"levelo_inurba_marseille","lat":43.29019,"lon":5.3814,"is_reserved":false,"is_disabled":false,"rental_uris":{"android":"levelo://app?vid=9789ca1c-0b04-47fc-90fa-c8d71e654532","ios":"levelo://app?vid=9789ca1c-0b04-47fc-90fa-c8d71e654532"},"vehicle_type_id":"4","last_reported":1713719244,"current_range_meters":1600,"station_id":"ce4bh4p2rcd13ifvqe1g","pricing_plan_id":"cebpf4jnsgd1na2vs0mg"},{"bike_id":"68de0fbf-dc7b-4cb0-92de-5672aeb2487a","system_id":"levelo_inurba_marseille","lat":43.292749,"lon":5.368398,"is_reserved":false,"is_disabled":false,"rental_uris":{"android":"levelo://app?vid=68de0fbf-dc7b-4cb0-92de-5672aeb2487a","ios":"levelo://app?vid=68de0fbf-dc7b-4cb0-92de-5672aeb2487a"},"vehicle_type_id":"4","last_reported":1713719244,"current_range_meters":0,"station_id":"ce4bhbp2rcd13ifvqesg","pricing_plan_id":"cebpf4jnsgd1na2vs0mg"},{"bike_id":"0fed2848-e162-4bd0-8e8f-d18a2ad76d03","system_id":"levelo_inurba_marseille","lat":43.337489,"lon":5.374734,"is_reserved":false,"is_disabled":false,"rental_uris":{"android":"levelo://app?vid=0fed2848-e162-4bd0-8e8f-d18a2ad76d03","ios":"levelo://app?vid=0fed2848-e162-4bd0-8e8f-d18a2ad76d03"},"vehicle_type_id":"4","last_reported":1713719244,"current_range_meters":5600,"station_id":"","pricing_plan_id":"cebpf4jnsgd1na2vs0mg"},{"bike_id":"4e88564b-773d-4877-8d17-c97b80e7b7b5","system_id":"levelo_inurba_marseille","lat":43.309371,"lon":5.401449,"is_reserved":false,"is_disabled":false,"rental_uris":{"android":"levelo://app?vid=4e88564b-773d-4877-8d17-c97b80e7b7b5","ios":"levelo://app?vid=4e88564b-773d-4877-8d17-c97b80e7b7b5"},"vehicle_type_id":"4","last_reported":1713719244,"current_range_meters":16400,"station_id":"ce4bgvp2rcd13ifvqct0","pricing_plan_id":"cebpf4jnsgd1na2vs0mg"},{"bike_id":"6ecc9ba7-ecb0-4b79-a999-4623f5aa9fe0","system_id":"levelo_inurba_marseille","lat":43.337555,"lon":5.374521,"is_reserved":false,"is_disabled":false,"rental_uris":{"android":"levelo://app?vid=6ecc9ba7-ecb0-4b79-a999-4623f5aa9fe0","ios":"levelo://app?vid=6ecc9ba7-ecb0-4b79-a999-4623f5aa9fe0"},"vehicle_type_id":"4","last_reported":1713719244,"current_range_meters":800,"station_id":"","pricing_plan_id":"cebpf4jnsgd1na2vs0mg"},{"bike_id":"4e03fccd-dbbf-4dbc-9ccc-03e8f48f99e2","system_id":"levelo_inurba_marseille","lat":43.337618,"lon":5.37461,"is_reserved":false,"is_disabled":false,"rental_uris":{"android":"levelo://app?vid=4e03fccd-dbbf-4dbc-9ccc-03e8f48f99e2","ios":"levelo://app?vid=4e03fccd-dbbf-4dbc-9ccc-03e8f48f99e2"},"vehicle_type_id":"4","last_reported":1713719244,"current_range_meters":20400,"station_id":"","pricing_plan_id":"cebpf4jnsgd1na2vs0mg"},{"bike_id":"d97f01da-875c-4d15-88a1-96bdbc00b52c","system_id":"levelo_inurba_marseille","lat":43.30647,"lon":5.40102,"is_reserved":false,"is_disabled":false,"rental_uris":{"android":"levelo://app?vid=d97f01da-875c-4d15-88a1-96bdbc00b52c","ios":"levelo://app?vid=d97f01da-875c-4d15-88a1-96bdbc00b52c"},"vehicle_type_id":"4","last_reported":1713719244,"current_range_meters":0,"station_id":"ce4bh112rcd13ifvqda0","pricing_plan_id":"cebpf4jnsgd1na2vs0mg"},{"bike_id":"694f738f-7d85-4db7-a62e-ea1dacd6c21c","system_id":"levelo_inurba_marseille","lat":43.28727,"lon":5.36078,"is_reserved":false,"is_disabled":false,"rental_uris":{"android":"levelo://app?vid=694f738f-7d85-4db7-a62e-ea1dacd6c21c","ios":"levelo://app?vid=694f738f-7d85-4db7-a62e-ea1dacd6c21c"},"vehicle_type_id":"4","last_reported":1713719244,"current_range_meters":28000,"station_id":"cki0cbj6b192h4jlfktg","pricing_plan_id":"cebpf4jnsgd1na2vs0mg"},{"bike_id":"9a68f507-bb19-47ee-a202-81383f10d925","system_id":"levelo_inurba_marseille","lat":43.286961,"lon":5.373785,"is_reserved":false,"is_disabled":false,"rental_uris":{"android":"levelo://app?vid=9a68f507-bb19-47ee-a202-81383f10d925","ios":"levelo://app?vid=9a68f507-bb19-47ee-a202-81383f10d925"},"vehicle_type_id":"4","last_reported":1713719244,"current_range_meters":2800,"station_id":"ce4bh3p2rcd13ifvqdq0","pricing_plan_id":"cebpf4jnsgd1na2vs0mg"},{"bike_id":"5ba4ede4-516e-4a9a-a5f4-cb8690798f2d","system_id":"levelo_inurba_marseille","lat":43.286961,"lon":5.373785,"is_reserved":false,"is_disabled":false,"rental_uris":{"android":"levelo://app?vid=5ba4ede4-516e-4a9a-a5f4-cb8690798f2d","ios":"levelo://app?vid=5ba4ede4-516e-4a9a-a5f4-cb8690798f2d"},"vehicle_type_id":"4","last_reported":1713719244,"current_range_meters":14800,"station_id":"ce4bh3p2rcd13ifvqdq0","pricing_plan_id":"cebpf4jnsgd1na2vs0mg"},{"bike_id":"994eb6a0-e714-453a-862a-ad4643ff3fdb","system_id":"levelo_inurba_marseille","lat":43.28698,"lon":5.37385,"is_reserved":false,"is_disabled":false,"rental_uris":{"android":"levelo://app?vid=994eb6a0-e714-453a-862a-ad4643ff3fdb","ios":"levelo://app?vid=994eb6a0-e714-453a-862a-ad4643ff3fdb"},"vehicle_type_id":"4","last_reported":1713719244,"current_range_meters":3200,"station_id":"ce4bh3p2rcd13ifvqdq0","pricing_plan_id":"cebpf4jnsgd1na2vs0mg"},{"bike_id":"ec4b0b2b-5942-4294-ba03-692efb702551","system_id":"levelo_inurba_marseille","lat":43.286963,"lon":5.373864,"is_reserved":false,"is_disabled":false,"rental_uris":{"android":"levelo://app?vid=ec4b0b2b-5942-4294-ba03-692efb702551","ios":"levelo://app?vid=ec4b0b2b-5942-4294-ba03-692efb702551"},"vehicle_type_id":"4","last_reported":1713719244,"current_range_meters":8000,"station_id":"ce4bh3p2rcd13ifvqdq0","pricing_plan_id":"cebpf4jnsgd1na2vs0mg"},{"bike_id":"155f2adc-032c-49d4-83eb-a5df03ca4f24","system_id":"levelo_inurba_marseille","lat":43.286961,"lon":5.373785,"is_reserved":false,"is_disabled":false,"rental_uris":{"android":"levelo://app?vid=155f2adc-032c-49d4-83eb-a5df03ca4f24","ios":"levelo://app?vid=155f2adc-032c-49d4-83eb-a5df03ca4f24"},"vehicle_type_id":"4","last_reported":1713719244,"current_range_meters":0,"station_id":"ce4bh3p2rcd13ifvqdq0","pricing_plan_id":"cebpf4jnsgd1na2vs0mg"},{"bike_id":"88faf66f-f9ab-4348-b80a-629b91de2509","system_id":"levelo_inurba_marseille","lat":43.290345,"lon":5.38646,"is_reserved":false,"is_disabled":false,"rental_uris":{"android":"levelo://app?vid=88faf66f-f9ab-4348-b80a-629b91de2509","ios":"levelo://app?vid=88faf66f-f9ab-4348-b80a-629b91de2509"},"vehicle_type_id":"4","last_reported":1713719244,"current_range_meters":1600,"station_id":"ce4bh4p2rcd13ifvqe0g","pricing_plan_id":"cebpf4jnsgd1na2vs0mg"},{"bike_id":"baecaa11-2eb1-4593-a008-29652dee4e11","system_id":"levelo_inurba_marseille","lat":43.298681,"lon":5.397225,"is_reserved":false,"is_disabled":false,"rental_uris":{"android":"levelo://app?vid=baecaa11-2eb1-4593-a008-29652dee4e11","ios":"levelo://app?vid=baecaa11-2eb1-4593-a008-29652dee4e11"},"vehicle_type_id":"4","last_reported":1713719244,"current_range_meters":0,"station_id":"ce4bh0h2rcd13ifvqd50","pricing_plan_id":"cebpf4jnsgd1na2vs0mg"},{"bike_id":"0ddd547d-3e68-495a-959b-5f3ea27d4c12","system_id":"levelo_inurba_marseille","lat":43.290345,"lon":5.38646,"is_reserved":false,"is_disabled":false,"rental_uris":{"android":"levelo://app?vid=0ddd547d-3e68-495a-959b-5f3ea27d4c12","ios":"levelo://app?vid=0ddd547d-3e68-495a-959b-5f3ea27d4c12"},"vehicle_type_id":"4","last_reported":1713719244,"current_range_meters":4000,"station_id":"ce4bh4p2rcd13ifvqe0g","pricing_plan_id":"cebpf4jnsgd1na2vs0mg"},{"bike_id":"c1e8400f-a573-4666-87ef-9faa4a2d0cb7","system_id":"levelo_inurba_marseille","lat":43.295194,"lon":5.39397,"is_reserved":false,"is_disabled":false,"rental_uris":{"android":"levelo://app?vid=c1e8400f-a573-4666-87ef-9faa4a2d0cb7","ios":"levelo://app?vid=c1e8400f-a573-4666-87ef-9faa4a2d0cb7"},"vehicle_type_id":"4","last_reported":1713719244,"current_range_meters":0,"station_id":"ce4bh292rcd13ifvqdf0","pricing_plan_id":"cebpf4jnsgd1na2vs0mg"},{"bike_id":"7f95ca30-a928-4785-92ea-b5a98c62a713","system_id":"levelo_inurba_marseille","lat":43.289307,"lon":5.38406,"is_reserved":false,"is_disabled":false,"rental_uris":{"android":"levelo://app?vid=7f95ca30-a928-4785-92ea-b5a98c62a713","ios":"levelo://app?vid=7f95ca30-a928-4785-92ea-b5a98c62a713"},"vehicle_type_id":"4","last_reported":1713719244,"current_range_meters":29600,"station_id":"ce4bh612rcd13ifvqe6g","pricing_plan_id":"cebpf4jnsgd1na2vs0mg"},{"bike_id":"8ead6702-9818-4b94-9d29-f716381384d6","system_id":"levelo_inurba_marseille","lat":43.290345,"lon":5.38646,"is_reserved":false,"is_disabled":false,"rental_uris":{"android":"levelo://app?vid=8ead6702-9818-4b94-9d29-f716381384d6","ios":"levelo://app?vid=8ead6702-9818-4b94-9d29-f716381384d6"},"vehicle_type_id":"4","last_reported":1713719244,"current_range_meters":10800,"station_id":"ce4bh4p2rcd13ifvqe0g","pricing_plan_id":"cebpf4jnsgd1na2vs0mg"},{"bike_id":"94a3763e-05f2-492a-b671-52d391fac0ba","system_id":"levelo_inurba_marseille","lat":43.290336,"lon":5.386425,"is_reserved":false,"is_disabled":false,"rental_uris":{"android":"levelo://app?vid=94a3763e-05f2-492a-b671-52d391fac0ba","ios":"levelo://app?vid=94a3763e-05f2-492a-b671-52d391fac0ba"},"vehicle_type_id":"4","last_reported":1713719244,"current_range_meters":18000,"station_id":"ce4bh4p2rcd13ifvqe0g","pricing_plan_id":"cebpf4jnsgd1na2vs0mg"},{"bike_id":"ff0dff04-38de-4f48-8cef-59fa1d10de77","system_id":"levelo_inurba_marseille","lat":43.30234,"lon":5.400535,"is_reserved":false,"is_disabled":false,"rental_uris":{"android":"levelo://app?vid=ff0dff04-38de-4f48-8cef-59fa1d10de77","ios":"levelo://app?vid=ff0dff04-38de-4f48-8cef-59fa1d10de77"},"vehicle_type_id":"4","last_reported":1713719244,"current_range_meters":0,"station_id":"ce4bgvh2rcd13ifvqcs0","pricing_plan_id":"cebpf4jnsgd1na2vs0mg"},{"bike_id":"37b2e6db-8553-4ce1-bbb8-434d69c2f2d5","system_id":"levelo_inurba_marseille","lat":43.289307,"lon":5.38406,"is_reserved":false,"is_disabled":false,"rental_uris":{"android":"levelo://app?vid=37b2e6db-8553-4ce1-bbb8-434d69c2f2d5","ios":"levelo://app?vid=37b2e6db-8553-4ce1-bbb8-434d69c2f2d5"},"vehicle_type_id":"4","last_reported":1713719244,"current_range_meters":3600,"station_id":"ce4bh612rcd13ifvqe6g","pricing_plan_id":"cebpf4jnsgd1na2vs0mg"},{"bike_id":"edb0a7bc-99f3-465a-b858-e0a3d9a83e73","system_id":"levelo_inurba_marseille","lat":43.28925,"lon":5.38419,"is_reserved":false,"is_disabled":false,"rental_uris":{"android":"levelo://app?vid=edb0a7bc-99f3-465a-b858-e0a3d9a83e73","ios":"levelo://app?vid=edb0a7bc-99f3-465a-b858-e0a3d9a83e73"},"vehicle_type_id":"4","last_reported":1713719244,"current_range_meters":0,"station_id":"ce4bh612rcd13ifvqe6g","pricing_plan_id":"cebpf4jnsgd1na2vs0mg"},{"bike_id":"cdd1f36f-7676-421e-89b3-cd04f5826be2","system_id":"levelo_inurba_marseille","lat":43.286132,"lon":5.370696,"is_reserved":false,"is_disabled":false,"rental_uris":{"android":"levelo://app?vid=cdd1f36f-7676-421e-89b3-cd04f5826be2","ios":"levelo://app?vid=cdd1f36f-7676-421e-89b3-cd04f5826be2"},"vehicle_type_id":"4","last_reported":1713719244,"current_range_meters":17200,"station_id":"","pricing_plan_id":"cebpf4jnsgd1na2vs0mg"},{"bike_id":"237de929-1d6d-4ac0-a3d4-e62cf2e37fd3","system_id":"levelo_inurba_marseille","lat":43.298681,"lon":5.397225,"is_reserved":false,"is_disabled":false,"rental_uris":{"android":"levelo://app?vid=237de929-1d6d-4ac0-a3d4-e62cf2e37fd3","ios":"levelo://app?vid=237de929-1d6d-4ac0-a3d4-e62cf2e37fd3"},"vehicle_type_id":"4","last_reported":1713719244,"current_range_meters":17200,"station_id":"ce4bh0h2rcd13ifvqd50","pricing_plan_id":"cebpf4jnsgd1na2vs0mg"},{"bike_id":"712ab10d-75ad-4dda-ac1a-0812c12ecd02","system_id":"levelo_inurba_marseille","lat":43.287184,"lon":5.37937,"is_reserved":false,"is_disabled":false,"rental_uris":{"android":"levelo://app?vid=712ab10d-75ad-4dda-ac1a-0812c12ecd02","ios":"levelo://app?vid=712ab10d-75ad-4dda-ac1a-0812c12ecd02"},"vehicle_type_id":"4","last_reported":1713719244,"current_range_meters":1200,"station_id":"ce4bh9p2rcd13ifvqec0","pricing_plan_id":"cebpf4jnsgd1na2vs0mg"},{"bike_id":"7b5baca7-e628-4208-8fef-c9221f4ef94e","system_id":"levelo_inurba_marseille","lat":43.31681,"lon":5.40472,"is_reserved":false,"is_disabled":false,"rental_uris":{"android":"levelo://app?vid=7b5baca7-e628-4208-8fef-c9221f4ef94e","ios":"levelo://app?vid=7b5baca7-e628-4208-8fef-c9221f4ef94e"},"vehicle_type_id":"4","last_reported":1713719244,"current_range_meters":0,"station_id":"ce4bh012rcd13ifvqd00","pricing_plan_id":"cebpf4jnsgd1na2vs0mg"},{"bike_id":"f3a58af0-0b8a-4989-848a-ab609be8b870","system_id":"levelo_inurba_marseille","lat":43.299437,"lon":5.40084,"is_reserved":false,"is_disabled":false,"rental_uris":{"android":"levelo://app?vid=f3a58af0-0b8a-4989-848a-ab609be8b870","ios":"levelo://app?vid=f3a58af0-0b8a-4989-848a-ab609be8b870"},"vehicle_type_id":"4","last_reported":1713719244,"current_range_meters":2800,"station_id":"","pricing_plan_id":"cebpf4jnsgd1na2vs0mg"},{"bike_id":"0dc31431-259f-485b-b3ea-3be73b2c785e","system_id":"levelo_inurba_marseille","lat":43.291994,"lon":5.392907,"is_reserved":false,"is_disabled":false,"rental_uris":{"android":"levelo://app?vid=0dc31431-259f-485b-b3ea-3be73b2c785e","ios":"levelo://app?vid=0dc31431-259f-485b-b3ea-3be73b2c785e"},"vehicle_type_id":"4","last_reported":1713719244,"current_range_meters":16400,"station_id":"ce4bh192rcd13ifvqdd0","pricing_plan_id":"cebpf4jnsgd1na2vs0mg"},{"bike_id":"5c9ef1ca-01eb-41e6-942f-226eee433aec","system_id":"levelo_inurba_marseille","lat":43.284534,"lon":5.358662,"is_reserved":false,"is_disabled":false,"rental_uris":{"android":"levelo://app?vid=5c9ef1ca-01eb-41e6-942f-226eee433aec","ios":"levelo://app?vid=5c9ef1ca-01eb-41e6-942f-226eee433aec"},"vehicle_type_id":"4","last_reported":1713719244,"current_range_meters":28400,"station_id":"ce4bhah2rcd13ifvqei0","pricing_plan_id":"cebpf4jnsgd1na2vs0mg"},{"bike_id":"76706fec-8b8a-4721-b4e3-0f88f8f05aee","system_id":"levelo_inurba_marseille","lat":43.315751,"lon":5.40589,"is_reserved":false,"is_disabled":false,"rental_uris":{"android":"levelo://app?vid=76706fec-8b8a-4721-b4e3-0f88f8f05aee","ios":"levelo://app?vid=76706fec-8b8a-4721-b4e3-0f88f8f05aee"},"vehicle_type_id":"4","last_reported":1713719244,"current_range_meters":20400,"station_id":"","pricing_plan_id":"cebpf4jnsgd1na2vs0mg"},{"bike_id":"8331ad72-2383-4592-a63d-7133b40b0002","system_id":"levelo_inurba_marseille","lat":43.29434,"lon":5.397579,"is_reserved":false,"is_disabled":false,"rental_uris":{"android":"levelo://app?vid=8331ad72-2383-4592-a63d-7133b40b0002","ios":"levelo://app?vid=8331ad72-2383-4592-a63d-7133b40b0002"},"vehicle_type_id":"4","last_reported":1713719244,"current_range_meters":0,"station_id":"ce4bh3h2rcd13ifvqdo0","pricing_plan_id":"cebpf4jnsgd1na2vs0mg"},{"bike_id":"9bbbb0c4-cfd2-4deb-9b83-44161d01e5e0","system_id":"levelo_inurba_marseille","lat":43.285856,"lon":5.350771,"is_reserved":false,"is_disabled":false,"rental_uris":{"android":"levelo://app?vid=9bbbb0c4-cfd2-4deb-9b83-44161d01e5e0","ios":"levelo://app?vid=9bbbb0c4-cfd2-4deb-9b83-44161d01e5e0"},"vehicle_type_id":"4","last_reported":1713719244,"current_range_meters":0,"station_id":"ce4bhch2rcd13ifvqeug","pricing_plan_id":"cebpf4jnsgd1na2vs0mg"},{"bike_id":"bfa1e5b2-55a7-41f4-a195-d4cca65eb9f2","system_id":"levelo_inurba_marseille","lat":43.285848,"lon":5.350787,"is_reserved":false,"is_disabled":false,"rental_uris":{"android":"levelo://app?vid=bfa1e5b2-55a7-41f4-a195-d4cca65eb9f2","ios":"levelo://app?vid=bfa1e5b2-55a7-41f4-a195-d4cca65eb9f2"},"vehicle_type_id":"4","last_reported":1713719244,"current_range_meters":24400,"station_id":"ce4bhch2rcd13ifvqeug","pricing_plan_id":"cebpf4jnsgd1na2vs0mg"},{"bike_id":"29bc55aa-3b19-446a-8e19-62b765fd1c8c","system_id":"levelo_inurba_marseille","lat":43.285856,"lon":5.350771,"is_reserved":false,"is_disabled":false,"rental_uris":{"android":"levelo://app?vid=29bc55aa-3b19-446a-8e19-62b765fd1c8c","ios":"levelo://app?vid=29bc55aa-3b19-446a-8e19-62b765fd1c8c"},"vehicle_type_id":"4","last_reported":1713719244,"current_range_meters":0,"station_id":"ce4bhch2rcd13ifvqeug","pricing_plan_id":"cebpf4jnsgd1na2vs0mg"},{"bike_id":"d7e888ee-c689-45f8-99de-d1f2186c7f13","system_id":"levelo_inurba_marseille","lat":43.285848,"lon":5.350787,"is_reserved":false,"is_disabled":false,"rental_uris":{"android":"levelo://app?vid=d7e888ee-c689-45f8-99de-d1f2186c7f13","ios":"levelo://app?vid=d7e888ee-c689-45f8-99de-d1f2186c7f13"},"vehicle_type_id":"4","last_reported":1713719244,"current_range_meters":0,"station_id":"ce4bhch2rcd13ifvqeug","pricing_plan_id":"cebpf4jnsgd1na2vs0mg"},{"bike_id":"5b0001a5-511e-4863-baff-c715a656d707","system_id":"levelo_inurba_marseille","lat":43.28404,"lon":5.37505,"is_reserved":false,"is_disabled":false,"rental_uris":{"android":"levelo://app?vid=5b0001a5-511e-4863-baff-c715a656d707","ios":"levelo://app?vid=5b0001a5-511e-4863-baff-c715a656d707"},"vehicle_type_id":"4","last_reported":1713719244,"current_range_meters":18000,"station_id":"ce4bh412rcd13ifvqds0","pricing_plan_id":"cebpf4jnsgd1na2vs0mg"},{"bike_id":"9062421d-3d0d-4d84-b442-e694c5a87757","system_id":"levelo_inurba_marseille","lat":43.283998,"lon":5.375062,"is_reserved":false,"is_disabled":false,"rental_uris":{"android":"levelo://app?vid=9062421d-3d0d-4d84-b442-e694c5a87757","ios":"levelo://app?vid=9062421d-3d0d-4d84-b442-e694c5a87757"},"vehicle_type_id":"4","last_reported":1713719244,"current_range_meters":12000,"station_id":"ce4bh412rcd13ifvqds0","pricing_plan_id":"cebpf4jnsgd1na2vs0mg"},{"bike_id":"31952341-9876-4365-93ba-635138d0ecab","system_id":"levelo_inurba_marseille","lat":43.286595,"lon":5.386795,"is_reserved":false,"is_disabled":false,"rental_uris":{"android":"levelo://app?vid=31952341-9876-4365-93ba-635138d0ecab","ios":"levelo://app?vid=31952341-9876-4365-93ba-635138d0ecab"},"vehicle_type_id":"4","last_reported":1713719244,"current_range_meters":0,"station_id":"ce4bh492rcd13ifvqdug","pricing_plan_id":"cebpf4jnsgd1na2vs0mg"},{"bike_id":"ac7e7d47-380e-4cc6-8cf3-bf964d460301","system_id":"levelo_inurba_marseille","lat":43.286595,"lon":5.386795,"is_reserved":false,"is_disabled":false,"rental_uris":{"android":"levelo://app?vid=ac7e7d47-380e-4cc6-8cf3-bf964d460301","ios":"levelo://app?vid=ac7e7d47-380e-4cc6-8cf3-bf964d460301"},"vehicle_type_id":"4","last_reported":1713719244,"current_range_meters":16400,"station_id":"ce4bh492rcd13ifvqdug","pricing_plan_id":"cebpf4jnsgd1na2vs0mg"},{"bike_id":"b980085c-80ab-407d-a04f-954aa37f52db","system_id":"levelo_inurba_marseille","lat":43.319179,"lon":5.407725,"is_reserved":false,"is_disabled":false,"rental_uris":{"android":"levelo://app?vid=b980085c-80ab-407d-a04f-954aa37f52db","ios":"levelo://app?vid=b980085c-80ab-407d-a04f-954aa37f52db"},"vehicle_type_id":"4","last_reported":1713719244,"current_range_meters":20400,"station_id":"ce4bhq12rcd13ifvqhig","pricing_plan_id":"cebpf4jnsgd1na2vs0mg"},{"bike_id":"86f6b471-c99c-46d0-bb41-10be2b2ed9df","system_id":"levelo_inurba_marseille","lat":43.323464,"lon":5.406297,"is_reserved":false,"is_disabled":false,"rental_uris":{"android":"levelo://app?vid=86f6b471-c99c-46d0-bb41-10be2b2ed9df","ios":"levelo://app?vid=86f6b471-c99c-46d0-bb41-10be2b2ed9df"},"vehicle_type_id":"4","last_reported":1713719244,"current_range_meters":18800,"station_id":"ce4bhq92rcd13ifvqhjg","pricing_plan_id":"cebpf4jnsgd1na2vs0mg"},{"bike_id":"38c2d021-9e15-4fb2-a2d9-cb4f954eba47","system_id":"levelo_inurba_marseille","lat":43.323464,"lon":5.406297,"is_reserved":false,"is_disabled":false,"rental_uris":{"android":"levelo://app?vid=38c2d021-9e15-4fb2-a2d9-cb4f954eba47","ios":"levelo://app?vid=38c2d021-9e15-4fb2-a2d9-cb4f954eba47"},"vehicle_type_id":"4","last_reported":1713719244,"current_range_meters":5200,"station_id":"ce4bhq92rcd13ifvqhjg","pricing_plan_id":"cebpf4jnsgd1na2vs0mg"},{"bike_id":"62d14a23-f157-4928-95e7-d12605acefed","system_id":"levelo_inurba_marseille","lat":43.28481,"lon":5.38427,"is_reserved":false,"is_disabled":false,"rental_uris":{"android":"levelo://app?vid=62d14a23-f157-4928-95e7-d12605acefed","ios":"levelo://app?vid=62d14a23-f157-4928-95e7-d12605acefed"},"vehicle_type_id":"4","last_reported":1713719244,"current_range_meters":0,"station_id":"ce4bh512rcd13ifvqe3g","pricing_plan_id":"cebpf4jnsgd1na2vs0mg"},{"bike_id":"2f9111d1-a78c-46c4-b5ff-b496dceeff50","system_id":"levelo_inurba_marseille","lat":43.284668,"lon":5.384211,"is_reserved":false,"is_disabled":false,"rental_uris":{"android":"levelo://app?vid=2f9111d1-a78c-46c4-b5ff-b496dceeff50","ios":"levelo://app?vid=2f9111d1-a78c-46c4-b5ff-b496dceeff50"},"vehicle_type_id":"4","last_reported":1713719244,"current_range_meters":0,"station_id":"ce4bh512rcd13ifvqe3g","pricing_plan_id":"cebpf4jnsgd1na2vs0mg"},{"bike_id":"cdcc8ef9-dc0f-47c9-a46d-78a9c032d05b","system_id":"levelo_inurba_marseille","lat":43.33717,"lon":5.391857,"is_reserved":false,"is_disabled":false,"rental_uris":{"android":"levelo://app?vid=cdcc8ef9-dc0f-47c9-a46d-78a9c032d05b","ios":"levelo://app?vid=cdcc8ef9-dc0f-47c9-a46d-78a9c032d05b"},"vehicle_type_id":"4","last_reported":1713719244,"current_range_meters":19600,"station_id":"ce4bhr92rcd13ifvqhsg","pricing_plan_id":"cebpf4jnsgd1na2vs0mg"},{"bike_id":"309a5b43-050c-46b5-b118-77f0b32c4224","system_id":"levelo_inurba_marseille","lat":43.288497,"lon":5.393089,"is_reserved":false,"is_disabled":false,"rental_uris":{"android":"levelo://app?vid=309a5b43-050c-46b5-b118-77f0b32c4224","ios":"levelo://app?vid=309a5b43-050c-46b5-b118-77f0b32c4224"},"vehicle_type_id":"4","last_reported":1713719244,"current_range_meters":0,"station_id":"ce4bh2p2rcd13ifvqdi0","pricing_plan_id":"cebpf4jnsgd1na2vs0mg"},{"bike_id":"dfe6d9a3-f199-45a2-9c19-86061c96044f","system_id":"levelo_inurba_marseille","lat":43.297946,"lon":5.404063,"is_reserved":false,"is_disabled":false,"rental_uris":{"android":"levelo://app?vid=dfe6d9a3-f199-45a2-9c19-86061c96044f","ios":"levelo://app?vid=dfe6d9a3-f199-45a2-9c19-86061c96044f"},"vehicle_type_id":"4","last_reported":1713719244,"current_range_meters":400,"station_id":"ce4bh112rcd13ifvqd90","pricing_plan_id":"cebpf4jnsgd1na2vs0mg"},{"bike_id":"353d92ea-18f8-41b4-9d40-742e2b2c54d3","system_id":"levelo_inurba_marseille","lat":43.32523,"lon":5.40576,"is_reserved":false,"is_disabled":false,"rental_uris":{"android":"levelo://app?vid=353d92ea-18f8-41b4-9d40-742e2b2c54d3","ios":"levelo://app?vid=353d92ea-18f8-41b4-9d40-742e2b2c54d3"},"vehicle_type_id":"4","last_reported":1713719244,"current_range_meters":6400,"station_id":"","pricing_plan_id":"cebpf4jnsgd1na2vs0mg"},