{"last_updated":1745839838,"ttl":60,"version":"2.2","data":{"bikes":[{"bike_id":"0d42d741-2505-42aa-b79a-41df572094e2","system_id":"levelo_inurba_marseille","lat":43.27622,"lon":5.39329,"is_reserved":false,"is_disabled":true,"rental_uris":{"android":"levelo://app?vid=0d42d741-2505-42aa-b79a-41df572094e2","ios":"levelo://app?vid=0d42d741-2505-42aa-b79a-41df572094e2"},"vehicle_type_id":"4","last_reported":1745839838,"current_range_meters":0,"station_id":"","pricing_plan_id":"cebpf4jnsgd1na2vs0mg"},{"bike_id":"b156cb3a-a131-4c8b-b3b5-13ae6db8151f","system_id":"levelo_inurba_marseille","lat":43.26874,"lon":5.38189,"is_reserved":false,"is_disabled":true,"rental_uris":{"android":"levelo://app?vid=b156cb3a-a131-4c8b-b3b5-13ae6db8151f","ios":"levelo://app?vid=b156cb3a-a131-4c8b-b3b5-13ae6db8151f"},"vehicle_type_id":"4","last_reported":1745839838,"current_range_meters":0,"station_id":"","pricing_plan_id":"cebpf4jnsgd1na2vs0mg"},{"bike_id":"72bfeb00-9650-4ca9-9aa6-53fb9d831ff8","system_id":"levelo_inurba_marseille","lat":43.31874,"lon":5.36764,"is_reserved":false,"is_disabled":true,"rental_uris":{"android":"levelo://app?vid=72bfeb00-9650-4ca9-9aa6-53fb9d831ff8","ios":"levelo://app?vid=72bfeb00-9650-4ca9-9aa6-53fb9d831ff8"},"vehicle_type_id":"4","last_reported":1745839838,"current_range_meters":0,"station_id":"","pricing_plan_id":"cebpf4jnsgd1na2vs0mg"},{"bike_id":"8f515858-71d6-4b47-b989-20758303e199","system_id":"levelo_inurba_marseille","lat":43.26786,"lon":5.4267,"is_reserved":false,"is_disabled":true,"rental_uris":{"android":"levelo://app?vid=8f515858-71d6-4b47-b989-20758303e199","ios":"levelo://app?vid=8f515858-71d6-4b47-b989-20758303e199"},"vehicle_type_id":"4","last_reported":1745839838,"current_range_meters":0,"station_id":"","pricing_plan_id":"cebpf4jnsgd1na2vs0mg"},{"bike_id":"ad9995f2-f82b-49d6-a54e-dc2c2b931ab1","system_id":"levelo_inurba_marseille","lat":43.29277,"lon":5.36839,"is_reserved":false,"is_disabled":true,"rental_uris":{"android":"levelo://app?vid=ad9995f2-f82b-49d6-a54e-dc2c2b931ab1","ios":"levelo://app?vid=ad9995f2-f82b-49d6-a54e-dc2c2b931ab1"},"vehicle_type_id":"4","last_reported":1745839838,"current_range_meters":0,"station_id":"ce4bhbp2rcd13ifvqesg","pricing_plan_id":"cebpf4jnsgd1na2vs0mg"},{"bike_id":"81c60671-9fd3-4008-89e4-12a3c0b02e3d","system_id":"levelo_inurba_marseille","lat":43.25585,"lon":5.382297,"is_reserved":false,"is_disabled":true,"rental_uris":{"android":"levelo://app?vid=81c60671-9fd3-4008-89e4-12a3c0b02e3d","ios":"levelo://app?vid=81c60671-9fd3-4008-89e4-12a3c0b02e3d"},"vehicle_type_id":"4","last_reported":1745839838,"current_range_meters":0,"station_id":"ce4bhih2rcd13ifvqfs0","pricing_plan_id":"cebpf4jnsgd1na2vs0mg"},{"bike_id":"db8faadc-cfd8-476f-bbed-9926c84554b7","system_id":"levelo_inurba_marseille","lat":43.27065,"lon":5.42279,"is_reserved":false,"is_disabled":true,"rental_uris":{"android":"levelo://app?vid=db8faadc-cfd8-476f-bbed-9926c84554b7","ios":"levelo://app?vid=db8faadc-cfd8-476f-bbed-9926c84554b7"},"vehicle_type_id":"4","last_reported":1745839838,"current_range_meters":0,"station_id":"ce4bhk92rcd13ifvqgb0","pricing_plan_id":"cebpf4jnsgd1na2vs0mg"},{"bike_id":"daeb894e-921a-4ed4-89dc-d8ca170bcc46","system_id":"levelo_inurba_marseille","lat":43.29265,"lon":5.3843,"is_reserved":false,"is_disabled":true,"rental_uris":{"android":"levelo://app?vid=daeb894e-921a-4ed4-89dc-d8ca170bcc46","ios":"levelo://app?vid=daeb894e-921a-4ed4-89dc-d8ca170bcc46"},"vehicle_type_id":"4","last_reported":1745839838,"current_range_meters":400,"station_id":"ce4bh692rcd13ifvqea0","pricing_plan_id":"cebpf4jnsgd1na2vs0mg"},{"bike_id":"6a64afeb-58d4-4c50-9808-da03a5e36a8d","system_id":"levelo_inurba_marseille","lat":43.27495,"lon":5.42451,"is_reserved":false,"is_disabled":true,"rental_uris":{"android":"levelo://app?vid=6a64afeb-58d4-4c50-9808-da03a5e36a8d","ios":"levelo://app?vid=6a64afeb-58d4-4c50-9808-da03a5e36a8d"},"vehicle_type_id":"4","last_reported":1745839838,"current_range_meters":400,"station_id":"ce4bhn92rcd13ifvqgrg","pricing_plan_id":"cebpf4jnsgd1na2vs0mg"},{"bike_id":"d202ffed-74d3-40f9-9acf-267b5c81ef46","system_id":"levelo_inurba_marseille","lat":43.34118,"lon":5.40859,"is_reserved":false,"is_disabled":true,"rental_uris":{"android":"levelo://app?vid=d202ffed-74d3-40f9-9acf-267b5c81ef46","ios":"levelo://app?vid=d202ffed-74d3-40f9-9acf-267b5c81ef46"},"vehicle_type_id":"4","last_reported":1745839838,"current_range_meters":400,"station_id":"ce4bhqh2rcd13ifvqhlg","pricing_plan_id":"cebpf4jnsgd1na2vs0mg"},{"bike_id":"4ba9909c-e074-445d-b486-89dfb52f1ca4","system_id":"levelo_inurba_marseille","lat":43.28699,"lon":5.3867,"is_reserved":false,"is_disabled":true,"rental_uris":{"android":"levelo://app?vid=4ba9909c-e074-445d-b486-89dfb52f1ca4","ios":"levelo://app?vid=4ba9909c-e074-445d-b486-89dfb52f1ca4"},"vehicle_type_id":"4","last_reported":1745839838,"current_range_meters":800,"station_id":"ce4bh492rcd13ifvqdug","pricing_plan_id":"cebpf4jnsgd1na2vs0mg"},{"bike_id":"88ad63c5-49e8-4376-a062-4afc11c8b8cb","system_id":"levelo_inurba_marseille","lat":43.30139,"lon":5.3806,"is_reserved":false,"is_disabled":true,"rental_uris":{"android":"levelo://app?vid=88ad63c5-49e8-4376-a062-4afc11c8b8cb","ios":"levelo://app?vid=88ad63c5-49e8-4376-a062-4afc11c8b8cb"},"vehicle_type_id":"4","last_reported":1745839838,"current_range_meters":1200,"station_id":"ce4bgjp2rcd13ifvqbh0","pricing_plan_id":"cebpf4jnsgd1na2vs0mg"},{"bike_id":"3d1c2b38-4b7c-47e9-a220-f2736aea069f","system_id":"levelo_inurba_marseille","lat":43.31222,"lon":5.36861,"is_reserved":false,"is_disabled":true,"rental_uris":{"android":"levelo://app?vid=3d1c2b38-4b7c-47e9-a220-f2736aea069f","ios":"levelo://app?vid=3d1c2b38-4b7c-47e9-a220-f2736aea069f"},"vehicle_type_id":"4","last_reported":1745839838,"current_range_meters":1200,"station_id":"ce4bgl92rcd13ifvqbq0","pricing_plan_id":"cebpf4jnsgd1na2vs0mg"},{"bike_id":"df287b9e-63cd-4a11-a545-f33ce80391da","system_id":"levelo_inurba_marseille","lat":43.30946,"lon":5.39035,"is_reserved":false,"is_disabled":true,"rental_uris":{"android":"levelo://app?vid=df287b9e-63cd-4a11-a545-f33ce80391da","ios":"levelo://app?vid=df287b9e-63cd-4a11-a545-f33ce80391da"},"vehicle_type_id":"4","last_reported":1745839838,"current_range_meters":1600,"station_id":"ce4bgup2rcd13ifvqco0","pricing_plan_id":"cebpf4jnsgd1na2vs0mg"},{"bike_id":"7857c0e5-9b1b-4239-b5da-456a54b64663","system_id":"levelo_inurba_marseille","lat":43.21748,"lon":5.346,"is_reserved":false,"is_disabled":true,"rental_uris":{"android":"levelo://app?vid=7857c0e5-9b1b-4239-b5da-456a54b64663","ios":"levelo://app?vid=7857c0e5-9b1b-4239-b5da-456a54b64663"},"vehicle_type_id":"4","last_reported":1745839838,"current_range_meters":1600,"station_id":"st_cvj6r9ubvosntc0bgbag","pricing_plan_id":"cebpf4jnsgd1na2vs0mg"},{"bike_id":"baa1a397-25be-430f-af5c-c21db4bb2119","system_id":"levelo_inurba_marseille","lat":43.30135,"lon":5.38787,"is_reserved":false,"is_disabled":false,"rental_uris":{"android":"levelo://app?vid=baa1a397-25be-430f-af5c-c21db4bb2119","ios":"levelo://app?vid=baa1a397-25be-430f-af5c-c21db4bb2119"},"vehicle_type_id":"4","last_reported":1745839838,"current_range_meters":2000,"station_id":"ce4bghh2rcd13ifvqb60","pricing_plan_id":"cebpf4jnsgd1na2vs0mg"},{"bike_id":"fb12cdd8-7b07-43a7-a6ab-c16dd1106691","system_id":"levelo_inurba_marseille","lat":43.29709,"lon":5.36591,"is_reserved":false,"is_disabled":true,"rental_uris":{"android":"levelo://app?vid=fb12cdd8-7b07-43a7-a6ab-c16dd1106691","ios":"levelo://app?vid=fb12cdd8-7b07-43a7-a6ab-c16dd1106691"},"vehicle_type_id":"4","last_reported":1745839838,"current_range_meters":2000,"station_id":"ce4bgn12rcd13ifvqbt0","pricing_plan_id":"cebpf4jnsgd1na2vs0mg"},{"bike_id":"33a20258-c423-4e07-9db4-7593fe4413d6","system_id":"levelo_inurba_marseille","lat":43.30588,"lon":5.3722,"is_reserved":false,"is_disabled":true,"rental_uris":{"android":"levelo://app?vid=33a20258-c423-4e07-9db4-7593fe4413d6","ios":"levelo://app?vid=33a20258-c423-4e07-9db4-7593fe4413d6"},"vehicle_type_id":"4","last_reported":1745839838,"current_range_meters":2000,"station_id":"ce4bgqh2rcd13ifvqc4g","pricing_plan_id":"cebpf4jnsgd1na2vs0mg"},{"bike_id":"35c89c8d-37c0-4ea2-b74d-d7a4495b7f68","system_id":"levelo_inurba_marseille","lat":43.29249,"lon":5.4091,"is_reserved":false,"is_disabled":true,"rental_uris":{"android":"levelo://app?vid=35c89c8d-37c0-4ea2-b74d-d7a4495b7f68","ios":"levelo://app?vid=35c89c8d-37c0-4ea2-b74d-d7a4495b7f68"},"vehicle_type_id":"4","last_reported":1745839838,"current_range_meters":2000,"station_id":"ce4bh192rcd13ifvqdc0","pricing_plan_id":"cebpf4jnsgd1na2vs0mg"},{"bike_id":"3abde56c-ea30-440f-9366-a1782c216f16","system_id":"levelo_inurba_marseille","lat":43.29864,"lon":5.39723,"is_reserved":false,"is_disabled":false,"rental_uris":{"android":"levelo://app?vid=3abde56c-ea30-440f-9366-a1782c216f16","ios":"levelo://app?vid=3abde56c-ea30-440f-9366-a1782c216f16"},"vehicle_type_id":"4","last_reported":1745839838,"current_range_meters":3200,"station_id":"ce4bh0h2rcd13ifvqd50","pricing_plan_id":"cebpf4jnsgd1na2vs0mg"},{"bike_id":"bd9ae5a3-befb-48d9-ab21-43ce59c55d96","system_id":"levelo_inurba_marseille","lat":43.2569,"lon":5.41063,"is_reserved":false,"is_disabled":false,"rental_uris":{"android":"levelo://app?vid=bd9ae5a3-befb-48d9-ab21-43ce59c55d96","ios":"levelo://app?vid=bd9ae5a3-befb-48d9-ab21-43ce59c55d96"},"vehicle_type_id":"4","last_reported":1745839838,"current_range_meters":3200,"station_id":"ce4bhkp2rcd13ifvqgd0","pricing_plan_id":"cebpf4jnsgd1na2vs0mg"},{"bike_id":"f7a94721-f51e-474f-878d-ba44d72027dc","system_id":"levelo_inurba_marseille","lat":43.2293,"lon":5.35371,"is_reserved":false,"is_disabled":false,"rental_uris":{"android":"levelo://app?vid=f7a94721-f51e-474f-878d-ba44d72027dc","ios":"levelo://app?vid=f7a94721-f51e-474f-878d-ba44d72027dc"},"vehicle_type_id":"4","last_reported":1745839838,"current_range_meters":3200,"station_id":"cpo3532slgdg3j2ikp40","pricing_plan_id":"cebpf4jnsgd1na2vs0mg"},{"bike_id":"07f8cc29-b86f-4696-ac39-20f0f7e0a392","system_id":"levelo_inurba_marseille","lat":43.23384,"lon":5.36053,"is_reserved":false,"is_disabled":false,"rental_uris":{"android":"levelo://app?vid=07f8cc29-b86f-4696-ac39-20f0f7e0a392","ios":"levelo://app?vid=07f8cc29-b86f-4696-ac39-20f0f7e0a392"},"vehicle_type_id":"4","last_reported":1745839838,"current_range_meters":3600,"station_id":"","pricing_plan_id":"cebpf4jnsgd1na2vs0mg"},{"bike_id":"9e2ed24c-a8e8-4759-b396-7d820551a1cd","system_id":"levelo_inurba_marseille","lat":43.26135,"lon":5.38724,"is_reserved":false,"is_disabled":false,"rental_uris":{"android":"levelo://app?vid=9e2ed24c-a8e8-4759-b396-7d820551a1cd","ios":"levelo://app?vid=9e2ed24c-a8e8-4759-b396-7d820551a1cd"},"vehicle_type_id":"4","last_reported":1745839838,"current_range_meters":3600,"station_id":"","pricing_plan_id":"cebpf4jnsgd1na2vs0mg"},{"bike_id":"8e7809a3-ca7d-47ff-88a6-02d16c1fa599","system_id":"levelo_inurba_marseille","lat":43.29193,"lon":5.35803,"is_reserved":false,"is_disabled":true,"rental_uris":{"android":"levelo://app?vid=8e7809a3-ca7d-47ff-88a6-02d16c1fa599","ios":"levelo://app?vid=8e7809a3-ca7d-47ff-88a6-02d16c1fa599"},"vehicle_type_id":"4","last_reported":1745839838,"current_range_meters":3600,"station_id":"ce4bhb12rcd13ifvqel0","pricing_plan_id":"cebpf4jnsgd1na2vs0mg"},{"bike_id":"0d8b40d0-5d50-4162-bc9d-16a08eb05e82","system_id":"levelo_inurba_marseille","lat":43.27529,"lon":5.4246,"is_reserved":false,"is_disabled":false,"rental_uris":{"android":"levelo://app?vid=0d8b40d0-5d50-4162-bc9d-16a08eb05e82","ios":"levelo://app?vid=0d8b40d0-5d50-4162-bc9d-16a08eb05e82"},"vehicle_type_id":"4","last_reported":1745839838,"current_range_meters":3600,"station_id":"ce4bhn92rcd13ifvqgrg","pricing_plan_id":"cebpf4jnsgd1na2vs0mg"},{"bike_id":"9f9feb37-5e0d-42a9-81ea-e035e003c3c1","system_id":"levelo_inurba_marseille","lat":43.23965,"lon":5.36629,"is_reserved":false,"is_disabled":false,"rental_uris":{"android":"levelo://app?vid=9f9feb37-5e0d-42a9-81ea-e035e003c3c1","ios":"levelo://app?vid=9f9feb37-5e0d-42a9-81ea-e035e003c3c1"},"vehicle_type_id":"4","last_reported":1745839838,"current_range_meters":4000,"station_id":"ce4bhi12rcd13ifvqfp0","pricing_plan_id":"cebpf4jnsgd1na2vs0mg"},{"bike_id":"14970640-a07e-4111-8b8c-52b7ed9cbe8a","system_id":"levelo_inurba_marseille","lat":43.2953,"lon":5.38545,"is_reserved":false,"is_disabled":false,"rental_uris":{"android":"levelo://app?vid=14970640-a07e-4111-8b8c-52b7ed9cbe8a","ios":"levelo://app?vid=14970640-a07e-4111-8b8c-52b7ed9cbe8a"},"vehicle_type_id":"4","last_reported":1745839838,"current_range_meters":4400,"station_id":"ce4bgih2rcd13ifvqba0","pricing_plan_id":"cebpf4jnsgd1na2vs0mg"},{"bike_id":"6078303e-bb73-4a31-ba00-8582fc29523e","system_id":"levelo_inurba_marseille","lat":43.29938,"lon":5.36554,"is_reserved":false,"is_disabled":false,"rental_uris":{"android":"levelo://app?vid=6078303e-bb73-4a31-ba00-8582fc29523e","ios":"levelo://app?vid=6078303e-bb73-4a31-ba00-8582fc29523e"},"vehicle_type_id":"4","last_reported":1745839838,"current_range_meters":4400,"station_id":"ce4bgm92rcd13ifvqbr0","pricing_plan_id":"cebpf4jnsgd1na2vs0mg"},{"bike_id":"a013a361-5d6d-4d99-b636-806e1c86ba48","system_id":"levelo_inurba_marseille","lat":43.2293,"lon":5.35387,"is_reserved":false,"is_disabled":false,"rental_uris":{"android":"levelo://app?vid=a013a361-5d6d-4d99-b636-806e1c86ba48","ios":"levelo://app?vid=a013a361-5d6d-4d99-b636-806e1c86ba48"},"vehicle_type_id":"4","last_reported":1745839838,"current_range_meters":4800,"station_id":"cpo3532slgdg3j2ikp40","pricing_plan_id":"cebpf4jnsgd1na2vs0mg"},{"bike_id":"74677f28-3596-4c5b-98de-ba4120a70f9d","system_id":"levelo_inurba_marseille","lat":43.25612,"lon":5.412,"is_reserved":false,"is_disabled":false,"rental_uris":{"android":"levelo://app?vid=74677f28-3596-4c5b-98de-ba4120a70f9d","ios":"levelo://app?vid=74677f28-3596-4c5b-98de-ba4120a70f9d"},"vehicle_type_id":"4","last_reported":1745839838,"current_range_meters":5600,"station_id":"","pricing_plan_id":"cebpf4jnsgd1na2vs0mg"},{"bike_id":"5c12c9b5-b546-4c73-b9bc-f1fa3ee948e2","system_id":"levelo_inurba_marseille","lat":43.29268,"lon":5.36836,"is_reserved":false,"is_disabled":false,"rental_uris":{"android":"levelo://app?vid=5c12c9b5-b546-4c73-b9bc-f1fa3ee948e2","ios":"levelo://app?vid=5c12c9b5-b546-4c73-b9bc-f1fa3ee948e2"},"vehicle_type_id":"4","last_reported":1745839838,"current_range_meters":5600,"station_id":"ce4bhbp2rcd13ifvqesg","pricing_plan_id":"cebpf4jnsgd1na2vs0mg"},{"bike_id":"db4904d9-47c5-4383-b0b9-668a5972ff0d","system_id":"levelo_inurba_marseille","lat":43.2511,"lon":5.4032,"is_reserved":false,"is_disabled":false,"rental_uris":{"android":"levelo://app?vid=db4904d9-47c5-4383-b0b9-668a5972ff0d","ios":"levelo://app?vid=db4904d9-47c5-4383-b0b9-668a5972ff0d"},"vehicle_type_id":"4","last_reported":1745839838,"current_range_meters":5600,"station_id":"ce4bhlh2rcd13ifvqgig","pricing_plan_id":"cebpf4jnsgd1na2vs0mg"},{"bike_id":"9698920a-1bf7-43c9-8e2f-77f28055a742","system_id":"levelo_inurba_marseille","lat":43.231467,"lon":5.437234,"is_reserved":false,"is_disabled":false,"rental_uris":{"android":"levelo://app?vid=9698920a-1bf7-43c9-8e2f-77f28055a742","ios":"levelo://app?vid=9698920a-1bf7-43c9-8e2f-77f28055a742"},"vehicle_type_id":"4","last_reported":1745839838,"current_range_meters":5600,"station_id":"ce4bhmp2rcd13ifvqgog","pricing_plan_id":"cebpf4jnsgd1na2vs0mg"},{"bike_id":"a7628684-e8b1-409f-b110-38600379b75e","system_id":"levelo_inurba_marseille","lat":43.31684,"lon":5.40474,"is_reserved":false,"is_disabled":false,"rental_uris":{"android":"levelo://app?vid=a7628684-e8b1-409f-b110-38600379b75e","ios":"levelo://app?vid=a7628684-e8b1-409f-b110-38600379b75e"},"vehicle_type_id":"4","last_reported":1745839838,"current_range_meters":6000,"station_id":"ce4bh012rcd13ifvqd00","pricing_plan_id":"cebpf4jnsgd1na2vs0mg"},{"bike_id":"c7710952-cfae-4391-9cff-9afe4d171e01","system_id":"levelo_inurba_marseille","lat":43.26267,"lon":5.40458,"is_reserved":false,"is_disabled":false,"rental_uris":{"android":"levelo://app?vid=c7710952-cfae-4391-9cff-9afe4d171e01","ios":"levelo://app?vid=c7710952-cfae-4391-9cff-9afe4d171e01"},"vehicle_type_id":"4","last_reported":1745839838,"current_range_meters":6000,"station_id":"ce4bhmh2rcd13ifvqgmg","pricing_plan_id":"cebpf4jnsgd1na2vs0mg"},{"bike_id":"b1a0fc5f-3fc9-41e3-a297-13020ff3a4c6","system_id":"levelo_inurba_marseille","lat":43.27497,"lon":5.42453,"is_reserved":false,"is_disabled":false,"rental_uris":{"android":"levelo://app?vid=b1a0fc5f-3fc9-41e3-a297-13020ff3a4c6","ios":"levelo://app?vid=b1a0fc5f-3fc9-41e3-a297-13020ff3a4c6"},"vehicle_type_id":"4","last_reported":1745839838,"current_range_meters":6000,"station_id":"ce4bhn92rcd13ifvqgrg","pricing_plan_id":"cebpf4jnsgd1na2vs0mg"},{"bike_id":"78b9bb88-3a00-4760-8a43-e68743ab22f2","system_id":"levelo_inurba_marseille","lat":43.30303,"lon":5.36764,"is_reserved":false,"is_disabled":false,"rental_uris":{"android":"levelo://app?vid=78b9bb88-3a00-4760-8a43-e68743ab22f2","ios":"levelo://app?vid=78b9bb88-3a00-4760-8a43-e68743ab22f2"},"vehicle_type_id":"4","last_reported":1745839838,"current_range_meters":6400,"station_id":"","pricing_plan_id":"cebpf4jnsgd1na2vs0mg"},{"bike_id":"c6c4ee04-d491-4f4d-99ba-2bec88bab2fc","system_id":"levelo_inurba_marseille","lat":43.30469,"lon":5.37893,"is_reserved":false,"is_disabled":false,"rental_uris":{"android":"levelo://app?vid=c6c4ee04-d491-4f4d-99ba-2bec88bab2fc","ios":"levelo://app?vid=c6c4ee04-d491-4f4d-99ba-2bec88bab2fc"},"vehicle_type_id":"4","last_reported":1745839838,"current_range_meters":6400,"station_id":"ce4bgup2rcd13ifvqcn0","pricing_plan_id":"cebpf4jnsgd1na2vs0mg"},{"bike_id":"15721148-38f7-46ae-8c5b-90f37a20d20f","system_id":"levelo_inurba_marseille","lat":43.26959,"lon":5.38639,"is_reserved":false,"is_disabled":false,"rental_uris":{"android":"levelo://app?vid=15721148-38f7-46ae-8c5b-90f37a20d20f","ios":"levelo://app?vid=15721148-38f7-46ae-8c5b-90f37a20d20f"},"vehicle_type_id":"4","last_reported":1745839838,"current_range_meters":6400,"station_id":"ce4bhh92rcd13ifvqfh0","pricing_plan_id":"cebpf4jnsgd1na2vs0mg"},{"bike_id":"2e468eda-0b4b-4e42-9f55-6a4b3df2a36d","system_id":"levelo_inurba_marseille","lat":43.30527,"lon":5.36717,"is_reserved":false,"is_disabled":false,"rental_uris":{"android":"levelo://app?vid=2e468eda-0b4b-4e42-9f55-6a4b3df2a36d","ios":"levelo://app?vid=2e468eda-0b4b-4e42-9f55-6a4b3df2a36d"},"vehicle_type_id":"4","last_reported":1745839838,"current_range_meters":6800,"station_id":"ce4bgrp2rcd13ifvqc9g","pricing_plan_id":"cebpf4jnsgd1na2vs0mg"},{"bike_id":"30ac2e4f-463b-4f4e-b9e1-c232a34ababd","system_id":"levelo_inurba_marseille","lat":43.31489,"lon":5.37306,"is_reserved":false,"is_disabled":false,"rental_uris":{"android":"levelo://app?vid=30ac2e4f-463b-4f4e-b9e1-c232a34ababd","ios":"levelo://app?vid=30ac2e4f-463b-4f4e-b9e1-c232a34ababd"},"vehicle_type_id":"4","last_reported":1745839838,"current_range_meters":6800,"station_id":"ce4bgt12rcd13ifvqcd0","pricing_plan_id":"cebpf4jnsgd1na2vs0mg"},{"bike_id":"7fbee1ed-0567-4302-b1e1-6ddac0384e1f","system_id":"levelo_inurba_marseille","lat":43.2926,"lon":5.38432,"is_reserved":false,"is_disabled":false,"rental_uris":{"android":"levelo://app?vid=7fbee1ed-0567-4302-b1e1-6ddac0384e1f","ios":"levelo://app?vid=7fbee1ed-0567-4302-b1e1-6ddac0384e1f"},"vehicle_type_id":"4","last_reported":1745839838,"current_range_meters":6800,"station_id":"ce4bh692rcd13ifvqea0","pricing_plan_id":"cebpf4jnsgd1na2vs0mg"},{"bike_id":"a1d6e327-16fc-4d41-baa0-3f68339596b7","system_id":"levelo_inurba_marseille","lat":43.27059,"lon":5.40258,"is_reserved":false,"is_disabled":false,"rental_uris":{"android":"levelo://app?vid=a1d6e327-16fc-4d41-baa0-3f68339596b7","ios":"levelo://app?vid=a1d6e327-16fc-4d41-baa0-3f68339596b7"},"vehicle_type_id":"4","last_reported":1745839838,"current_range_meters":6800,"station_id":"ce4bhk92rcd13ifvqgc0","pricing_plan_id":"cebpf4jnsgd1na2vs0mg"},{"bike_id":"c786e9cd-e55d-4fab-b425-b9934c3bc9bf","system_id":"levelo_inurba_marseille","lat":43.24074,"lon":5.37756,"is_reserved":false,"is_disabled":false,"rental_uris":{"android":"levelo://app?vid=c786e9cd-e55d-4fab-b425-b9934c3bc9bf","ios":"levelo://app?vid=c786e9cd-e55d-4fab-b425-b9934c3bc9bf"},"vehicle_type_id":"4","last_reported":1745839838,"current_range_meters":6800,"station_id":"ce4bhnp2rcd13ifvqgvg","pricing_plan_id":"cebpf4jnsgd1na2vs0mg"},{"bike_id":"4c9a73de-c6b0-4b55-bed7-3a315915449f","system_id":"levelo_inurba_marseille","lat":43.2407,"lon":5.3772,"is_reserved":false,"is_disabled":false,"rental_uris":{"android":"levelo://app?vid=4c9a73de-c6b0-4b55-bed7-3a315915449f","ios":"levelo://app?vid=4c9a73de-c6b0-4b55-bed7-3a315915449f"},"vehicle_type_id":"4","last_reported":1745839838,"current_range_meters":6800,"station_id":"ce4bhnp2rcd13ifvqgvg","pricing_plan_id":"cebpf4jnsgd1na2vs0mg"},{"bike_id":"446c9194-cdac-4a37-bdcf-29c015342e0e","system_id":"levelo_inurba_marseille","lat":43.32054,"lon":5.41539,"is_reserved":false,"is_disabled":false,"rental_uris":{"android":"levelo://app?vid=446c9194-cdac-4a37-bdcf-29c015342e0e","ios":"levelo://app?vid=446c9194-cdac-4a37-bdcf-29c015342e0e"},"vehicle_type_id":"4","last_reported":1745839838,"current_range_meters":6800,"station_id":"ce4bhq92rcd13ifvqhkg","pricing_plan_id":"cebpf4jnsgd1na2vs0mg"},{"bike_id":"c39333a5-e789-43cf-a4ea-1d6228402749","system_id":"levelo_inurba_marseille","lat":43.29934,"lon":5.36562,"is_reserved":false,"is_disabled":false,"rental_uris":{"android":"levelo://app?vid=c39333a5-e789-43cf-a4ea-1d6228402749","ios":"levelo://app?vid=c39333a5-e789-43cf-a4ea-1d6228402749"},"vehicle_type_id":"4","last_reported":1745839838,"current_range_meters":7200,"station_id":"ce4bgm92rcd13ifvqbr0","pricing_plan_id":"cebpf4jnsgd1na2vs0mg"},{"bike_id":"8e89b03e-fbbb-4cf6-ad3c-3dd9e2b9963c","system_id":"levelo_inurba_marseille","lat":43.29308,"lon":5.37186,"is_reserved":false,"is_disabled":false,"rental_uris":{"android":"levelo://app?vid=8e89b03e-fbbb-4cf6-ad3c-3dd9e2b9963c","ios":"levelo://app?vid=8e89b03e-fbbb-4cf6-ad3c-3dd9e2b9963c"},"vehicle_type_id":"4","last_reported":1745839838,"current_range_meters":8000,"station_id":"ce4bgh92rcd13ifvqb40","pricing_plan_id":"cebpf4jnsgd1na2vs0mg"},{"bike_id":"650d7a9e-2a85-4346-862d-6eec5b96e7b5","system_id":"levelo_inurba_marseille","lat":43.250117,"lon":5.389313,"is_reserved":false,"is_disabled":false,"rental_uris":{"android":"levelo://app?vid=650d7a9e-2a85-4346-862d-6eec5b96e7b5","ios":"levelo://app?vid=650d7a9e-2a85-4346-862d-6eec5b96e7b5"},"vehicle_type_id":"4","last_reported":1745839838,"current_range_meters":8000,"station_id":"ce4bhgp2rcd13ifvqfd0","pricing_plan_id":"cebpf4jnsgd1na2vs0mg"},{"bike_id":"3895874d-1b1d-4fb7-825c-2c8432d7ccc7","system_id":"levelo_inurba_marseille","lat":43.27944,"lon":5.41048,"is_reserved":false,"is_disabled":false,"rental_uris":{"android":"levelo://app?vid=3895874d-1b1d-4fb7-825c-2c8432d7ccc7","ios":"levelo://app?vid=3895874d-1b1d-4fb7-825c-2c8432d7ccc7"},"vehicle_type_id":"4","last_reported":1745839838,"current_range_meters":8000,"station_id":"ce4bhnp2rcd13ifvqh0g","pricing_plan_id":"cebpf4jnsgd1na2vs0mg"},{"bike_id":"5036d8c1-6202-466b-bcef-252a808644c9","system_id":"levelo_inurba_marseille","lat":43.330756,"lon":5.411554,"is_reserved":false,"is_disabled":false,"rental_uris":{"android":"levelo://app?vid=5036d8c1-6202-466b-bcef-252a808644c9","ios":"levelo://app?vid=5036d8c1-6202-466b-bcef-252a808644c9"},"vehicle_type_id":"4","last_reported":1745839838,"current_range_meters":8000,"station_id":"ce4bhq12rcd13ifvqhhg","pricing_plan_id":"cebpf4jnsgd1na2vs0mg"},{"bike_id":"56a3dead-29ba-4af8-ad15-94463866f375","system_id":"levelo_inurba_marseille","lat":43.2488,"lon":5.42523,"is_reserved":false,"is_disabled":false,"rental_uris":{"android":"levelo://app?vid=56a3dead-29ba-4af8-ad15-94463866f375","ios":"levelo://app?vid=56a3dead-29ba-4af8-ad15-94463866f375"},"vehicle_type_id":"4","last_reported":1745839838,"current_range_meters":8400,"station_id":"","pricing_plan_id":"cebpf4jnsgd1na2vs0mg"},{"bike_id":"51c1adc9-7cd7-4ffb-971e-7b36309eb47d","system_id":"levelo_inurba_marseille","lat":43.31038,"lon":5.36644,"is_reserved":false,"is_disabled":false,"rental_uris":{"android":"levelo://app?vid=51c1adc9-7cd7-4ffb-971e-7b36309eb47d","ios":"levelo://app?vid=51c1adc9-7cd7-4ffb-971e-7b36309eb47d"},"vehicle_type_id":"4","last_reported":1745839838,"current_range_meters":8400,"station_id":"","pricing_plan_id":"cebpf4jnsgd1na2vs0mg"},{"bike_id":"fe5721e3-eb81-420c-a2f1-1fb27ea90e3d","system_id":"levelo_inurba_marseille","lat":43.30132,"lon":5.38759,"is_reserved":false,"is_disabled":false,"rental_uris":{"android":"levelo://app?vid=fe5721e3-eb81-420c-a2f1-1fb27ea90e3d","ios":"levelo://app?vid=fe5721e3-eb81-420c-a2f1-1fb27ea90e3d"},"vehicle_type_id":"4","last_reported":1745839838,"current_range_meters":8400,"station_id":"ce4bghh2rcd13ifvqb60","pricing_plan_id":"cebpf4jnsgd1na2vs0mg"},{"bike_id":"3a05d63c-00f4-4688-b13f-480853e24130","system_id":"levelo_inurba_marseille","lat":43.2594,"lon":5.40902,"is_reserved":false,"is_disabled":false,"rental_uris":{"android":"levelo://app?vid=3a05d63c-00f4-4688-b13f-480853e24130","ios":"levelo://app?vid=3a05d63c-00f4-4688-b13f-480853e24130"},"vehicle_type_id":"4","last_reported":1745839838,"current_range_meters":8400,"station_id":"ce4bhm92rcd13ifvqglg","pricing_plan_id":"cebpf4jnsgd1na2vs0mg"},{"bike_id":"790cfa3d-eb53-4377-8265-6ed9faeea847","system_id":"levelo_inurba_marseille","lat":43.26039,"lon":5.41752,"is_reserved":false,"is_disabled":false,"rental_uris":{"android":"levelo://app?vid=790cfa3d-eb53-4377-8265-6ed9faeea847","ios":"levelo://app?vid=790cfa3d-eb53-4377-8265-6ed9faeea847"},"vehicle_type_id":"4","last_reported":1745839838,"current_range_meters":8800,"station_id":"","pricing_plan_id":"cebpf4jnsgd1na2vs0mg"},{"bike_id":"a4c8a335-745b-4d95-97e0-7bac3cb18549","system_id":"levelo_inurba_marseille","lat":43.28124,"lon":5.39821,"is_reserved":false,"is_disabled":false,"rental_uris":{"android":"levelo://app?vid=a4c8a335-745b-4d95-97e0-7bac3cb18549","ios":"levelo://app?vid=a4c8a335-745b-4d95-97e0-7bac3cb18549"},"vehicle_type_id":"4","last_reported":1745839838,"current_range_meters":8800,"station_id":"","pricing_plan_id":"cebpf4jnsgd1na2vs0mg"},{"bike_id":"6f47322d-c58b-4afb-88a0-37f65e725e39","system_id":"levelo_inurba_marseille","lat":43.315026,"lon":5.373061,"is_reserved":false,"is_disabled":false,"rental_uris":{"android":"levelo://app?vid=6f47322d-c58b-4afb-88a0-37f65e725e39","ios":"levelo://app?vid=6f47322d-c58b-4afb-88a0-37f65e725e39"},"vehicle_type_id":"4","last_reported":1745839838,"current_range_meters":8800,"station_id":"ce4bgt12rcd13ifvqcd0","pricing_plan_id":"cebpf4jnsgd1na2vs0mg"},{"bike_id":"c74aaeb1-c239-44d3-8bad-d5d2f20af25c","system_id":"levelo_inurba_marseille","lat":43.2894,"lon":5.36381,"is_reserved":false,"is_disabled":false,"rental_uris":{"android":"levelo://app?vid=c74aaeb1-c239-44d3-8bad-d5d2f20af25c","ios":"levelo://app?vid=c74aaeb1-c239-44d3-8bad-d5d2f20af25c"},"vehicle_type_id":"4","last_reported":1745839838,"current_range_meters":8800,"station_id":"ce4bhc92rcd13ifvqetg","pricing_plan_id":"cebpf4jnsgd1na2vs0mg"},{"bike_id":"e2325172-db38-4ee3-b71d-c17274294852","system_id":"levelo_inurba_marseille","lat":43.24382,"lon":5.37067,"is_reserved":false,"is_disabled":false,"rental_uris":{"android":"levelo://app?vid=e2325172-db38-4ee3-b71d-c17274294852","ios":"levelo://app?vid=e2325172-db38-4ee3-b71d-c17274294852"},"vehicle_type_id":"4","last_reported":1745839838,"current_range_meters":8800,"station_id":"ce4bhhh2rcd13ifvqfk0","pricing_plan_id":"cebpf4jnsgd1na2vs0mg"},{"bike_id":"0f41dbe6-9ef4-4153-90ca-923a363cd5be","system_id":"levelo_inurba_marseille","lat":43.231461,"lon":5.437194,"is_reserved":false,"is_disabled":false,"rental_uris":{"android":"levelo://app?vid=0f41dbe6-9ef4-4153-90ca-923a363cd5be","ios":"levelo://app?vid=0f41dbe6-9ef4-4153-90ca-923a363cd5be"},"vehicle_type_id":"4","last_reported":1745839838,"current_range_meters":8800,"station_id":"ce4bhmp2rcd13ifvqgog","pricing_plan_id":"cebpf4jnsgd1na2vs0mg"},{"bike_id":"4f6f9062-67f1-4e5c-bced-a7956b91025b","system_id":"levelo_inurba_marseille","lat":43.324823,"lon":5.365735,"is_reserved":false,"is_disabled":false,"rental_uris":{"android":"levelo://app?vid=4f6f9062-67f1-4e5c-bced-a7956b91025b","ios":"levelo://app?vid=4f6f9062-67f1-4e5c-bced-a7956b91025b"},"vehicle_type_id":"4","last_reported":1745839838,"current_range_meters":8800,"station_id":"ce4bhs12rcd13ifvqhvg","pricing_plan_id":"cebpf4jnsgd1na2vs0mg"},{"bike_id":"7f863785-f72f-48cf-8cae-74f557391806","system_id":"levelo_inurba_marseille","lat":43.2464,"lon":5.38912,"is_reserved":false,"is_disabled":false,"rental_uris":{"android":"levelo://app?vid=7f863785-f72f-48cf-8cae-74f557391806","ios":"levelo://app?vid=7f863785-f72f-48cf-8cae-74f557391806"},"vehicle_type_id":"4","last_reported":1745839838,"current_range_meters":9200,"station_id":"ce4bhg12rcd13ifvqf60","pricing_plan_id":"cebpf4jnsgd1na2vs0mg"},{"bike_id":"153b412e-a27c-4282-b7fe-3b0ad2bed4c5","system_id":"levelo_inurba_marseille","lat":43.323681,"lon":5.367688,"is_reserved":false,"is_disabled":false,"rental_uris":{"android":"levelo://app?vid=153b412e-a27c-4282-b7fe-3b0ad2bed4c5","ios":"levelo://app?vid=153b412e-a27c-4282-b7fe-3b0ad2bed4c5"},"vehicle_type_id":"4","last_reported":1745839838,"current_range_meters":9200,"station_id":"ce4bhsh2rcd13ifvqi2g","pricing_plan_id":"cebpf4jnsgd1na2vs0mg"},{"bike_id":"e5852571-6172-4e15-ae44-66c76900275a","system_id":"levelo_inurba_marseille","lat":43.32263,"lon":5.36624,"is_reserved":false,"is_disabled":false,"rental_uris":{"android":"levelo://app?vid=e5852571-6172-4e15-ae44-66c76900275a","ios":"levelo://app?vid=e5852571-6172-4e15-ae44-66c76900275a"},"vehicle_type_id":"4","last_reported":1745839838,"current_range_meters":9200,"station_id":"ce4bhsh2rcd13ifvqi2g","pricing_plan_id":"cebpf4jnsgd1na2vs0mg"},{"bike_id":"ca547662-8975-4432-ae0c-3d506f07b131","system_id":"levelo_inurba_marseille","lat":43.29709,"lon":5.36608,"is_reserved":false,"is_disabled":false,"rental_uris":{"android":"levelo://app?vid=ca547662-8975-4432-ae0c-3d506f07b131","ios":"levelo://app?vid=ca547662-8975-4432-ae0c-3d506f07b131"},"vehicle_type_id":"4","last_reported":1745839838,"current_range_meters":9600,"station_id":"ce4bgn12rcd13ifvqbt0","pricing_plan_id":"cebpf4jnsgd1na2vs0mg"},{"bike_id":"5884c12f-6b41-45ec-ae6f-952e77ae6271","system_id":"levelo_inurba_marseille","lat":43.30598,"lon":5.37224,"is_reserved":false,"is_disabled":false,"rental_uris":{"android":"levelo://app?vid=5884c12f-6b41-45ec-ae6f-952e77ae6271","ios":"levelo://app?vid=5884c12f-6b41-45ec-ae6f-952e77ae6271"},"vehicle_type_id":"4","last_reported":1745839838,"current_range_meters":9600,"station_id":"ce4bgqh2rcd13ifvqc4g","pricing_plan_id":"cebpf4jnsgd1na2vs0mg"},{"bike_id":"892af32d-80ea-4d9b-bead-f0e3bccff6d1","system_id":"levelo_inurba_marseille","lat":43.30797,"lon":5.38163,"is_reserved":false,"is_disabled":false,"rental_uris":{"android":"levelo://app?vid=892af32d-80ea-4d9b-bead-f0e3bccff6d1","ios":"levelo://app?vid=892af32d-80ea-4d9b-bead-f0e3bccff6d1"},"vehicle_type_id":"4","last_reported":1745839838,"current_range_meters":9600,"station_id":"ce4bgt12rcd13ifvqce0","pricing_plan_id":"cebpf4jnsgd1na2vs0mg"},{"bike_id":"694f216f-86ce-4521-8cd9-e646a6b9f2d5","system_id":"levelo_inurba_marseille","lat":43.30469,"lon":5.37902,"is_reserved":false,"is_disabled":false,"rental_uris":{"android":"levelo://app?vid=694f216f-86ce-4521-8cd9-e646a6b9f2d5","ios":"levelo://app?vid=694f216f-86ce-4521-8cd9-e646a6b9f2d5"},"vehicle_type_id":"4","last_reported":1745839838,"current_range_meters":9600,"station_id":"ce4bgup2rcd13ifvqcn0","pricing_plan_id":"cebpf4jnsgd1na2vs0mg"},{"bike_id":"b87825d8-d2f2-41ad-aeff-ef0996954810","system_id":"levelo_inurba_marseille","lat":43.28847,"lon":5.39301,"is_reserved":false,"is_disabled":false,"rental_uris":{"android":"levelo://app?vid=b87825d8-d2f2-41ad-aeff-ef0996954810","ios":"levelo://app?vid=b87825d8-d2f2-41ad-aeff-ef0996954810"},"vehicle_type_id":"4","last_reported":1745839838,"current_range_meters":9600,"station_id":"ce4bh2p2rcd13ifvqdi0","pricing_plan_id":"cebpf4jnsgd1na2vs0mg"},{"bike_id":"251fca6a-adf1-4816-8181-4774868874c2","system_id":"levelo_inurba_marseille","lat":43.28487,"lon":5.38562,"is_reserved":false,"is_disabled":false,"rental_uris":{"android":"levelo://app?vid=251fca6a-adf1-4816-8181-4774868874c2","ios":"levelo://app?vid=251fca6a-adf1-4816-8181-4774868874c2"},"vehicle_type_id":"4","last_reported":1745839838,"current_range_meters":9600,"station_id":"ce4bh8p2rcd13ifvqeb0","pricing_plan_id":"cebpf4jnsgd1na2vs0mg"},{"bike_id":"bfeb1fd9-e04f-42a1-9205-f9d42e3dcaf1","system_id":"levelo_inurba_marseille","lat":43.25556,"lon":5.38294,"is_reserved":false,"is_disabled":false,"rental_uris":{"android":"levelo://app?vid=bfeb1fd9-e04f-42a1-9205-f9d42e3dcaf1","ios":"levelo://app?vid=bfeb1fd9-e04f-42a1-9205-f9d42e3dcaf1"},"vehicle_type_id":"4","last_reported":1745839838,"current_range_meters":9600,"station_id":"ce4bhih2rcd13ifvqfs0","pricing_plan_id":"cebpf4jnsgd1na2vs0mg"},{"bike_id":"af4f0c69-e62d-4155-b1d1-a67b45271ae1","system_id":"levelo_inurba_marseille","lat":43.24715,"lon":5.41166,"is_reserved":false,"is_disabled":false,"rental_uris":{"android":"levelo://app?vid=af4f0c69-e62d-4155-b1d1-a67b45271ae1","ios":"levelo://app?vid=af4f0c69-e62d-4155-b1d1-a67b45271ae1"},"vehicle_type_id":"4","last_reported":1745839838,"current_range_meters":10000,"station_id":"","pricing_plan_id":"cebpf4jnsgd1na2vs0mg"},{"bike_id":"a6c80b0c-536c-4a45-884f-2e1d125500ab","system_id":"levelo_inurba_marseille","lat":43.225039,"lon":5.347857,"is_reserved":false,"is_disabled":false,"rental_uris":{"android":"levelo://app?vid=a6c80b0c-536c-4a45-884f-2e1d125500ab","ios":"levelo://app?vid=a6c80b0c-536c-4a45-884f-2e1d125500ab"},"vehicle_type_id":"4","last_reported":1745839838,"current_range_meters":10000,"station_id":"","pricing_plan_id":"cebpf4jnsgd1na2vs0mg"},{"bike_id":"78cfca93-e636-4c47-8242-0c8dbc7051a1","system_id":"levelo_inurba_marseille","lat":43.27378,"lon":5.36259,"is_reserved":false,"is_disabled":false,"rental_uris":{"android":"levelo://app?vid=78cfca93-e636-4c47-8242-0c8dbc7051a1","ios":"levelo://app?vid=78cfca93-e636-4c47-8242-0c8dbc7051a1"},"vehicle_type_id":"4","last_reported":1745839838,"current_range_meters":10000,"station_id":"ce4bhbh2rcd13ifvqeo0","pricing_plan_id":"cebpf4jnsgd1na2vs0mg"},{"bike_id":"726641cb-1547-428a-b483-66f5de6933f4","system_id":"levelo_inurba_marseille","lat":43.28947,"lon":5.36406,"is_reserved":false,"is_disabled":false,"rental_uris":{"android":"levelo://app?vid=726641cb-1547-428a-b483-66f5de6933f4","ios":"levelo://app?vid=726641cb-1547-428a-b483-66f5de6933f4"},"vehicle_type_id":"4","last_reported":1745839838,"current_range_meters":10000,"station_id":"ce4bhc92rcd13ifvqetg","pricing_plan_id":"cebpf4jnsgd1na2vs0mg"},{"bike_id":"5a033cb3-f96b-4c8b-ab06-3bdf0a7cc513","system_id":"levelo_inurba_marseille","lat":43.24045,"lon":5.37726,"is_reserved":false,"is_disabled":false,"rental_uris":{"android":"levelo://app?vid=5a033cb3-f96b-4c8b-ab06-3bdf0a7cc513","ios":"levelo://app?vid=5a033cb3-f96b-4c8b-ab06-3bdf0a7cc513"},"vehicle_type_id":"4","last_reported":1745839838,"current_range_meters":10000,"station_id":"ce4bhnp2rcd13ifvqgvg","pricing_plan_id":"cebpf4jnsgd1na2vs0mg"},{"bike_id":"be496c9c-fee6-4dd3-8745-5e29592ed83c","system_id":"levelo_inurba_marseille","lat":43.32484,"lon":5.36574,"is_reserved":false,"is_disabled":false,"rental_uris":{"android":"levelo://app?vid=be496c9c-fee6-4dd3-8745-5e29592ed83c","ios":"levelo://app?vid=be496c9c-fee6-4dd3-8745-5e29592ed83c"},"vehicle_type_id":"4","last_reported":1745839838,"current_range_meters":10800,"station_id":"ce4bhs12rcd13ifvqhvg","pricing_plan_id":"cebpf4jnsgd1na2vs0mg"},{"bike_id":"d94e077a-0706-49e6-968c-fd08e9205e28","system_id":"levelo_inurba_marseille","lat":43.21726,"lon":5.34606,"is_reserved":false,"is_disabled":false,"rental_uris":{"android":"levelo://app?vid=d94e077a-0706-49e6-968c-fd08e9205e28","ios":"levelo://app?vid=d94e077a-0706-49e6-968c-fd08e9205e28"},"vehicle_type_id":"4","last_reported":1745839838,"current_range_meters":10800,"station_id":"st_cvj6r9ubvosntc0bgbag","pricing_plan_id":"cebpf4jnsgd1na2vs0mg"},{"bike_id":"4ed5222a-dcf9-4ee8-9034-66d4515f631e","system_id":"levelo_inurba_marseille","lat":43.22497,"lon":5.34789,"is_reserved":false,"is_disabled":false,"rental_uris":{"android":"levelo://app?vid=4ed5222a-dcf9-4ee8-9034-66d4515f631e","ios":"levelo://app?vid=4ed5222a-dcf9-4ee8-9034-66d4515f631e"},"vehicle_type_id":"4","last_reported":1745839838,"current_range_meters":11200,"station_id":"","pricing_plan_id":"cebpf4jnsgd1na2vs0mg"},{"bike_id":"6d371176-aac3-483a-95b7-727a7fab27c1","system_id":"levelo_inurba_marseille","lat":43.309,"lon":5.3686,"is_reserved":false,"is_disabled":false,"rental_uris":{"android":"levelo://app?vid=6d371176-aac3-483a-95b7-727a7fab27c1","ios":"levelo://app?vid=6d371176-aac3-483a-95b7-727a7fab27c1"},"vehicle_type_id":"4","last_reported":1745839838,"current_range_meters":11200,"station_id":"ce4bgn92rcd13ifvqbvg","pricing_plan_id":"cebpf4jnsgd1na2vs0mg"},{"bike_id":"69c7c3d6-547a-4f56-950a-097daaed6494","system_id":"levelo_inurba_marseille","lat":43.30897,"lon":5.36835,"is_reserved":false,"is_disabled":false,"rental_uris":{"android":"levelo://app?vid=69c7c3d6-547a-4f56-950a-097daaed6494","ios":"levelo://app?vid=69c7c3d6-547a-4f56-950a-097daaed6494"},"vehicle_type_id":"4","last_reported":1745839838,"current_range_meters":11200,"station_id":"ce4bgn92rcd13ifvqbvg","pricing_plan_id":"cebpf4jnsgd1na2vs0mg"},{"bike_id":"0af3789b-c6b8-4fb0-ba19-0e4ac11b7160","system_id":"levelo_inurba_marseille","lat":43.31491,"lon":5.37303,"is_reserved":false,"is_disabled":false,"rental_uris":{"android":"levelo://app?vid=0af3789b-c6b8-4fb0-ba19-0e4ac11b7160","ios":"levelo://app?vid=0af3789b-c6b8-4fb0-ba19-0e4ac11b7160"},"vehicle_type_id":"4","last_reported":1745839838,"current_range_meters":11200,"station_id":"ce4bgt12rcd13ifvqcd0","pricing_plan_id":"cebpf4jnsgd1na2vs0mg"},{"bike_id":"e3ca9fd5-da77-4e8f-9f22-d01d5920d392","system_id":"levelo_inurba_marseille","lat":43.25106,"lon":5.40324,"is_reserved":false,"is_disabled":false,"rental_uris":{"android":"levelo://app?vid=e3ca9fd5-da77-4e8f-9f22-d01d5920d392","ios":"levelo://app?vid=e3ca9fd5-da77-4e8f-9f22-d01d5920d392"},"vehicle_type_id":"4","last_reported":1745839838,"current_range_meters":11200,"station_id":"ce4bhlh2rcd13ifvqgig","pricing_plan_id":"cebpf4jnsgd1na2vs0mg"},{"bike_id":"0ad138ff-fa05-48e5-af5f-862fcf868671","system_id":"levelo_inurba_marseille","lat":43.23153,"lon":5.43708,"is_reserved":false,"is_disabled":false,"rental_uris":{"android":"levelo://app?vid=0ad138ff-fa05-48e5-af5f-862fcf868671","ios":"levelo://app?vid=0ad138ff-fa05-48e5-af5f-862fcf868671"},"vehicle_type_id":"4","last_reported":1745839838,"current_range_meters":11200,"station_id":"ce4bhmp2rcd13ifvqgog","pricing_plan_id":"cebpf4jnsgd1na2vs0mg"},{"bike_id":"a7a56339-930a-4dec-bf7b-e2aa5c53a05d","system_id":"levelo_inurba_marseille","lat":43.31369,"lon":5.36782,"is_reserved":false,"is_disabled":false,"rental_uris":{"android":"levelo://app?vid=a7a56339-930a-4dec-bf7b-e2aa5c53a05d","ios":"levelo://app?vid=a7a56339-930a-4dec-bf7b-e2aa5c53a05d"},"vehicle_type_id":"4","last_reported":1745839838,"current_range_meters":11600,"station_id":"ce4bgr92rcd13ifvqc6g","pricing_plan_id":"cebpf4jnsgd1na2vs0mg"},{"bike_id":"748dc265-2824-4c8a-9092-d9224448fe6d","system_id":"levelo_inurba_marseille","lat":43.31367,"lon":5.36709,"is_reserved":false,"is_disabled":false,"rental_uris":{"android":"levelo://app?vid=748dc265-2824-4c8a-9092-d9224448fe6d","ios":"levelo://app?vid=748dc265-2824-4c8a-9092-d9224448fe6d"},"vehicle_type_id":"4","last_reported":1745839838,"current_range_meters":11600,"station_id":"ce4bgr92rcd13ifvqc6g","pricing_plan_id":"cebpf4jnsgd1na2vs0mg"},{"bike_id":"719866fa-58f1-47cb-8033-633d00d59dd6","system_id":"levelo_inurba_marseille","lat":43.324811,"lon":5.365857,"is_reserved":false,"is_disabled":false,"rental_uris":{"android":"levelo://app?vid=719866fa-58f1-47cb-8033-633d00d59dd6","ios":"levelo://app?vid=719866fa-58f1-47cb-8033-633d00d59dd6"},"vehicle_type_id":"4","last_reported":1745839838,"current_range_meters":11600,"station_id":"ce4bhs12rcd13ifvqhvg","pricing_plan_id":"cebpf4jnsgd1na2vs0mg"},{"bike_id":"46210f93-e099-417d-91e8-899c2163be28","system_id":"levelo_inurba_marseille","lat":43.2572,"lon":5.4111,"is_reserved":false,"is_disabled":false,"rental_uris":{"android":"levelo://app?vid=46210f93-e099-417d-91e8-899c2163be28","ios":"levelo://app?vid=46210f93-e099-417d-91e8-899c2163be28"},"vehicle_type_id":"4","last_reported":1745839838,"current_range_meters":12000,"station_id":"ce4bhkp2rcd13ifvqgd0","pricing_plan_id":"cebpf4jnsgd1na2vs0mg"},{"bike_id":"0ebd7ce3-db77-4e55-bc3e-5f76d6066290","system_id":"levelo_inurba_marseille","lat":43.25936,"lon":5.40906,"is_reserved":false,"is_disabled":false,"rental_uris":{"android":"levelo://app?vid=0ebd7ce3-db77-4e55-bc3e-5f76d6066290","ios":"levelo://app?vid=0ebd7ce3-db77-4e55-bc3e-5f76d6066290"},"vehicle_type_id":"4","last_reported":1745839838,"current_range_meters":12000,"station_id":"ce4bhm92rcd13ifvqglg","pricing_plan_id":"cebpf4jnsgd1na2vs0mg"},{"bike_id":"bba05b6e-1455-45ff-9566-1cbe2a19ab54","system_id":"levelo_inurba_marseille","lat":43.23151,"lon":5.43712,"is_reserved":false,"is_disabled":false,"rental_uris":{"android":"levelo://app?vid=bba05b6e-1455-45ff-9566-1cbe2a19ab54","ios":"levelo://app?vid=bba05b6e-1455-45ff-9566-1cbe2a19ab54"},"vehicle_type_id":"4","last_reported":1745839838,"current_range_meters":12000,"station_id":"ce4bhmp2rcd13ifvqgog","pricing_plan_id":"cebpf4jnsgd1na2vs0mg"},{"bike_id":"6e968ce4-434e-41b7-a6a0-25f576f683b1","system_id":"levelo_inurba_marseille","lat":43.23192,"lon":5.4,"is_reserved":false,"is_disabled":false,"rental_uris":{"android":"levelo://app?vid=6e968ce4-434e-41b7-a6a0-25f576f683b1","ios":"levelo://app?vid=6e968ce4-434e-41b7-a6a0-25f576f683b1"},"vehicle_type_id":"4","last_reported":1745839838,"current_range_meters":12000,"station_id":"ce4bhn12rcd13ifvqgqg","pricing_plan_id":"cebpf4jnsgd1na2vs0mg"},{"bike_id":"b36efa90-8621-4753-94f2-43bdfa2a35d5","system_id":"levelo_inurba_marseille","lat":43.32659,"lon":5.40984,"is_reserved":false,"is_disabled":false,"rental_uris":{"android":"levelo://app?vid=b36efa90-8621-4753-94f2-43bdfa2a35d5","ios":"levelo://app?vid=b36efa90-8621-4753-94f2-43bdfa2a35d5"},"vehicle_type_id":"4","last_reported":1745839838,"current_range_meters":12000,"station_id":"ce4bhpp2rcd13ifvqhgg","pricing_plan_id":"cebpf4jnsgd1na2vs0mg"},{"bike_id":"227ca334-788d-4829-bf31-2f856c9ca09f","system_id":"levelo_inurba_marseille","lat":43.27495,"lon":5.4245,"is_reserved":false,"is_disabled":false,"rental_uris":{"android":"levelo://app?vid=227ca334-788d-4829-bf31-2f856c9ca09f","ios":"levelo://app?vid=227ca334-788d-4829-bf31-2f856c9ca09f"},"vehicle_type_id":"4","last_reported":1745839838,"current_range_meters":12400,"station_id":"ce4bhn92rcd13ifvqgrg","pricing_plan_id":"cebpf4jnsgd1na2vs0mg"},{"bike_id":"e5b4b90d-e268-4de2-98f4-f6d0513f8801","system_id":"levelo_inurba_marseille","lat":43.26551,"lon":5.42196,"is_reserved":false,"is_disabled":false,"rental_uris":{"android":"levelo://app?vid=e5b4b90d-e268-4de2-98f4-f6d0513f8801","ios":"levelo://app?vid=e5b4b90d-e268-4de2-98f4-f6d0513f8801"},"vehicle_type_id":"4","last_reported":1745839838,"current_range_meters":12800,"station_id":"","pricing_plan_id":"cebpf4jnsgd1na2vs0mg"},{"bike_id":"045db907-8281-46fc-8ded-f9793ddf3b93","system_id":"levelo_inurba_marseille","lat":43.29263,"lon":5.37625,"is_reserved":false,"is_disabled":false,"rental_uris":{"android":"levelo://app?vid=045db907-8281-46fc-8ded-f9793ddf3b93","ios":"levelo://app?vid=045db907-8281-46fc-8ded-f9793ddf3b93"},"vehicle_type_id":"4","last_reported":1745839838,"current_range_meters":12800,"station_id":"ce4bgi12rcd13ifvqb80","pricing_plan_id":"cebpf4jnsgd1na2vs0mg"},{"bike_id":"768ad63c-b66e-400b-960d-e5a75da9d5d3","system_id":"levelo_inurba_marseille","lat":43.29189,"lon":5.39314,"is_reserved":false,"is_disabled":false,"rental_uris":{"android":"levelo://app?vid=768ad63c-b66e-400b-960d-e5a75da9d5d3","ios":"levelo://app?vid=768ad63c-b66e-400b-960d-e5a75da9d5d3"},"vehicle_type_id":"4","last_reported":1745839838,"current_range_meters":12800,"station_id":"ce4bh192rcd13ifvqdd0","pricing_plan_id":"cebpf4jnsgd1na2vs0mg"},{"bike_id":"586efb34-d54d-42c9-bce9-8a9e5e9f8adb","system_id":"levelo_inurba_marseille","lat":43.29442,"lon":5.39756,"is_reserved":false,"is_disabled":false,"rental_uris":{"android":"levelo://app?vid=586efb34-d54d-42c9-bce9-8a9e5e9f8adb","ios":"levelo://app?vid=586efb34-d54d-42c9-bce9-8a9e5e9f8adb"},"vehicle_type_id":"4","last_reported":1745839838,"current_range_meters":12800,"station_id":"ce4bh3h2rcd13ifvqdo0","pricing_plan_id":"cebpf4jnsgd1na2vs0mg"},{"bike_id":"6bf3518e-285f-4669-b340-659cbfeecee3","system_id":"levelo_inurba_marseille","lat":43.27498,"lon":5.424493,"is_reserved":false,"is_disabled":false,"rental_uris":{"android":"levelo://app?vid=6bf3518e-285f-4669-b340-659cbfeecee3","ios":"levelo://app?vid=6bf3518e-285f-4669-b340-659cbfeecee3"},"vehicle_type_id":"4","last_reported":1745839838,"current_range_meters":12800,"station_id":"ce4bhn92rcd13ifvqgrg","pricing_plan_id":"cebpf4jnsgd1na2vs0mg"},{"bike_id":"de53c2cc-a3c6-47d0-8bac-428e97e46602","system_id":"levelo_inurba_marseille","lat":43.32494,"lon":5.36577,"is_reserved":false,"is_disabled":false,"rental_uris":{"android":"levelo://app?vid=de53c2cc-a3c6-47d0-8bac-428e97e46602","ios":"levelo://app?vid=de53c2cc-a3c6-47d0-8bac-428e97e46602"},"vehicle_type_id":"4","last_reported":1745839838,"current_range_meters":12800,"station_id":"ce4bhs12rcd13ifvqhvg","pricing_plan_id":"cebpf4jnsgd1na2vs0mg"},{"bike_id":"bc8b13ab-35fe-46ba-a35d-1d4f4cf26725","system_id":"levelo_inurba_marseille","lat":43.21742,"lon":5.3459,"is_reserved":false,"is_disabled":false,"rental_uris":{"android":"levelo://app?vid=bc8b13ab-35fe-46ba-a35d-1d4f4cf26725","ios":"levelo://app?vid=bc8b13ab-35fe-46ba-a35d-1d4f4cf26725"},"vehicle_type_id":"4","last_reported":1745839838,"current_range_meters":12800,"station_id":"st_cvj6r9ubvosntc0bgbag","pricing_plan_id":"cebpf4jnsgd1na2vs0mg"},{"bike_id":"f8d7f3cd-12ec-4f60-8d50-a7cda4e1c713","system_id":"levelo_inurba_marseille","lat":43.29565,"lon":5.37519,"is_reserved":false,"is_disabled":false,"rental_uris":{"android":"levelo://app?vid=f8d7f3cd-12ec-4f60-8d50-a7cda4e1c713","ios":"levelo://app?vid=f8d7f3cd-12ec-4f60-8d50-a7cda4e1c713"},"vehicle_type_id":"4","last_reported":1745839838,"current_range_meters":13600,"station_id":"ce4bgh92rcd13ifvqb50","pricing_plan_id":"cebpf4jnsgd1na2vs0mg"},{"bike_id":"f202635c-f432-45bb-8936-347170dc85ef","system_id":"levelo_inurba_marseille","lat":43.31503,"lon":5.37293,"is_reserved":false,"is_disabled":false,"rental_uris":{"android":"levelo://app?vid=f202635c-f432-45bb-8936-347170dc85ef","ios":"levelo://app?vid=f202635c-f432-45bb-8936-347170dc85ef"},"vehicle_type_id":"4","last_reported":1745839838,"current_range_meters":13600,"station_id":"ce4bgt12rcd13ifvqcd0","pricing_plan_id":"cebpf4jnsgd1na2vs0mg"},{"bike_id":"91df439b-bfca-423f-b8b5-7fa1cc3aea95","system_id":"levelo_inurba_marseille","lat":43.30896,"lon":5.38043,"is_reserved":false,"is_disabled":false,"rental_uris":{"android":"levelo://app?vid=91df439b-bfca-423f-b8b5-7fa1cc3aea95","ios":"levelo://app?vid=91df439b-bfca-423f-b8b5-7fa1cc3aea95"},"vehicle_type_id":"4","last_reported":1745839838,"current_range_meters":13600,"station_id":"ce4bgv12rcd13ifvqcp0","pricing_plan_id":"cebpf4jnsgd1na2vs0mg"},{"bike_id":"1c9ef566-1aea-49e7-bcec-4f4a90f793b7","system_id":"levelo_inurba_marseille","lat":43.239626,"lon":5.366545,"is_reserved":false,"is_disabled":false,"rental_uris":{"android":"levelo://app?vid=1c9ef566-1aea-49e7-bcec-4f4a90f793b7","ios":"levelo://app?vid=1c9ef566-1aea-49e7-bcec-4f4a90f793b7"},"vehicle_type_id":"4","last_reported":1745839838,"current_range_meters":13600,"station_id":"ce4bhi12rcd13ifvqfp0","pricing_plan_id":"cebpf4jnsgd1na2vs0mg"},{"bike_id":"5f2c92e9-71ec-4260-a82c-f012965bc0d0","system_id":"levelo_inurba_marseille","lat":43.231521,"lon":5.437067,"is_reserved":false,"is_disabled":false,"rental_uris":{"android":"levelo://app?vid=5f2c92e9-71ec-4260-a82c-f012965bc0d0","ios":"levelo://app?vid=5f2c92e9-71ec-4260-a82c-f012965bc0d0"},"vehicle_type_id":"4","last_reported":1745839838,"current_range_meters":13600,"station_id":"ce4bhmp2rcd13ifvqgog","pricing_plan_id":"cebpf4jnsgd1na2vs0mg"},{"bike_id":"f8559b85-4c46-4316-84b2-80a5af39f58a","system_id":"levelo_inurba_marseille","lat":43.21744,"lon":5.34602,"is_reserved":false,"is_disabled":false,"rental_uris":{"android":"levelo://app?vid=f8559b85-4c46-4316-84b2-80a5af39f58a","ios":"levelo://app?vid=f8559b85-4c46-4316-84b2-80a5af39f58a"},"vehicle_type_id":"4","last_reported":1745839838,"current_range_meters":13600,"station_id":"st_cvj6r9ubvosntc0bgbag","pricing_plan_id":"cebpf4jnsgd1na2vs0mg"},{"bike_id":"ab4612c3-85f5-4cb4-9ce2-46373d9c1c69","system_id":"levelo_inurba_marseille","lat":43.257955,"lon":5.38594,"is_reserved":false,"is_disabled":false,"rental_uris":{"android":"levelo://app?vid=ab4612c3-85f5-4cb4-9ce2-46373d9c1c69","ios":"levelo://app?vid=ab4612c3-85f5-4cb4-9ce2-46373d9c1c69"},"vehicle_type_id":"4","last_reported":1745839838,"current_range_meters":14000,"station_id":"","pricing_plan_id":"cebpf4jnsgd1na2vs0mg"},{"bike_id":"4a095ce2-b9bb-4afc-b798-f1ecb3ee4109","system_id":"levelo_inurba_marseille","lat":43.28472,"lon":5.38422,"is_reserved":false,"is_disabled":false,"rental_uris":{"android":"levelo://app?vid=4a095ce2-b9bb-4afc-b798-f1ecb3ee4109","ios":"levelo://app?vid=4a095ce2-b9bb-4afc-b798-f1ecb3ee4109"},"vehicle_type_id":"4","last_reported":1745839838,"current_range_meters":14000,"station_id":"ce4bh512rcd13ifvqe3g","pricing_plan_id":"cebpf4jnsgd1na2vs0mg"},{"bike_id":"86c0598b-4818-471f-9a8b-081ecdc96572","system_id":"levelo_inurba_marseille","lat":43.25584,"lon":5.38234,"is_reserved":false,"is_disabled":false,"rental_uris":{"android":"levelo://app?vid=86c0598b-4818-471f-9a8b-081ecdc96572","ios":"levelo://app?vid=86c0598b-4818-471f-9a8b-081ecdc96572"},"vehicle_type_id":"4","last_reported":1745839838,"current_range_meters":14000,"station_id":"ce4bhih2rcd13ifvqfs0","pricing_plan_id":"cebpf4jnsgd1na2vs0mg"},{"bike_id":"3bee5c48-e362-4820-8acb-6b830321be74","system_id":"levelo_inurba_marseille","lat":43.23158,"lon":5.4374,"is_reserved":false,"is_disabled":false,"rental_uris":{"android":"levelo://app?vid=3bee5c48-e362-4820-8acb-6b830321be74","ios":"levelo://app?vid=3bee5c48-e362-4820-8acb-6b830321be74"},"vehicle_type_id":"4","last_reported":1745839838,"current_range_meters":14000,"station_id":"ce4bhmp2rcd13ifvqgog","pricing_plan_id":"cebpf4jnsgd1na2vs0mg"},{"bike_id":"b5767cca-0e93-4afc-aae1-18c8669860ad","system_id":"levelo_inurba_marseille","lat":43.21757,"lon":5.346,"is_reserved":false,"is_disabled":false,"rental_uris":{"android":"levelo://app?vid=b5767cca-0e93-4afc-aae1-18c8669860ad","ios":"levelo://app?vid=b5767cca-0e93-4afc-aae1-18c8669860ad"},"vehicle_type_id":"4","last_reported":1745839838,"current_range_meters":14000,"station_id":"st_cvj6r9ubvosntc0bgbag","pricing_plan_id":"cebpf4jnsgd1na2vs0mg"},{"bike_id":"bc7e4f7e-7a6d-45e1-8d13-50c3fa265a5f","system_id":"levelo_inurba_marseille","lat":43.2179,"lon":5.3458,"is_reserved":false,"is_disabled":false,"rental_uris":{"android":"levelo://app?vid=bc7e4f7e-7a6d-45e1-8d13-50c3fa265a5f","ios":"levelo://app?vid=bc7e4f7e-7a6d-45e1-8d13-50c3fa265a5f"},"vehicle_type_id":"4","last_reported":1745839838,"current_range_meters":14000,"station_id":"st_cvj6r9ubvosntc0bgbag","pricing_plan_id":"cebpf4jnsgd1na2vs0mg"},{"bike_id":"f3e6f7ea-0b61-4cf3-825e-ef2178c4a995","system_id":"levelo_inurba_marseille","lat":43.32103,"lon":5.36793,"is_reserved":false,"is_disabled":false,"rental_uris":{"android":"levelo://app?vid=f3e6f7ea-0b61-4cf3-825e-ef2178c4a995","ios":"levelo://app?vid=f3e6f7ea-0b61-4cf3-825e-ef2178c4a995"},"vehicle_type_id":"4","last_reported":1745839838,"current_range_meters":14800,"station_id":"ce4bhrh2rcd13ifvqhug","pricing_plan_id":"cebpf4jnsgd1na2vs0mg"},{"bike_id":"6ab9c7d0-3747-4d86-bf45-574278525858","system_id":"levelo_inurba_marseille","lat":43.29196,"lon":5.39311,"is_reserved":false,"is_disabled":false,"rental_uris":{"android":"levelo://app?vid=6ab9c7d0-3747-4d86-bf45-574278525858","ios":"levelo://app?vid=6ab9c7d0-3747-4d86-bf45-574278525858"},"vehicle_type_id":"4","last_reported":1745839838,"current_range_meters":15200,"station_id":"ce4bh192rcd13ifvqdd0","pricing_plan_id":"cebpf4jnsgd1na2vs0mg"},{"bike_id":"f76667cd-c285-4da8-87c4-b475bc987884","system_id":"levelo_inurba_marseille","lat":43.26517,"lon":5.39537,"is_reserved":false,"is_disabled":false,"rental_uris":{"android":"levelo://app?vid=f76667cd-c285-4da8-87c4-b475bc987884","ios":"levelo://app?vid=f76667cd-c285-4da8-87c4-b475bc987884"},"vehicle_type_id":"4","last_reported":1745839838,"current_range_meters":15200,"station_id":"ce4bhi12rcd13ifvqfq0","pricing_plan_id":"cebpf4jnsgd1na2vs0mg"},{"bike_id":"ad7b43b5-dd01-4cee-a543-ecc2b62e20eb","system_id":"levelo_inurba_marseille","lat":43.29896,"lon":5.43668,"is_reserved":false,"is_disabled":false,"rental_uris":{"android":"levelo://app?vid=ad7b43b5-dd01-4cee-a543-ecc2b62e20eb","ios":"levelo://app?vid=ad7b43b5-dd01-4cee-a543-ecc2b62e20eb"},"vehicle_type_id":"4","last_reported":1745839838,"current_range_meters":15200,"station_id":"ce4bhpp2rcd13ifvqhfg","pricing_plan_id":"cebpf4jnsgd1na2vs0mg"},{"bike_id":"2e301011-885b-4cd7-89c6-b074eaf40bae","system_id":"levelo_inurba_marseille","lat":43.31504,"lon":5.37311,"is_reserved":false,"is_disabled":false,"rental_uris":{"android":"levelo://app?vid=2e301011-885b-4cd7-89c6-b074eaf40bae","ios":"levelo://app?vid=2e301011-885b-4cd7-89c6-b074eaf40bae"},"vehicle_type_id":"4","last_reported":1745839838,"current_range_meters":16000,"station_id":"ce4bgt12rcd13ifvqcd0","pricing_plan_id":"cebpf4jnsgd1na2vs0mg"},{"bike_id":"fe91386c-5c8b-4e97-8441-1312e6455598","system_id":"levelo_inurba_marseille","lat":43.27374,"lon":5.36255,"is_reserved":false,"is_disabled":false,"rental_uris":{"android":"levelo://app?vid=fe91386c-5c8b-4e97-8441-1312e6455598","ios":"levelo://app?vid=fe91386c-5c8b-4e97-8441-1312e6455598"},"vehicle_type_id":"4","last_reported":1745839838,"current_range_meters":16000,"station_id":"ce4bhbh2rcd13ifvqeo0","pricing_plan_id":"cebpf4jnsgd1na2vs0mg"},{"bike_id":"6b88ae52-4470-4609-9540-2ec7e9358c2c","system_id":"levelo_inurba_marseille","lat":43.23977,"lon":5.3665,"is_reserved":false,"is_disabled":false,"rental_uris":{"android":"levelo://app?vid=6b88ae52-4470-4609-9540-2ec7e9358c2c","ios":"levelo://app?vid=6b88ae52-4470-4609-9540-2ec7e9358c2c"},"vehicle_type_id":"4","last_reported":1745839838,"current_range_meters":16000,"station_id":"ce4bhi12rcd13ifvqfp0","pricing_plan_id":"cebpf4jnsgd1na2vs0mg"},{"bike_id":"ec6e0813-3957-420e-b184-a8c06ab80d5e","system_id":"levelo_inurba_marseille","lat":43.2751,"lon":5.42443,"is_reserved":false,"is_disabled":false,"rental_uris":{"android":"levelo://app?vid=ec6e0813-3957-420e-b184-a8c06ab80d5e","ios":"levelo://app?vid=ec6e0813-3957-420e-b184-a8c06ab80d5e"},"vehicle_type_id":"4","last_reported":1745839838,"current_range_meters":16000,"station_id":"ce4bhn92rcd13ifvqgrg","pricing_plan_id":"cebpf4jnsgd1na2vs0mg"},{"bike_id":"e4bf4b2e-acb9-45d9-8074-9f3bfb604d11","system_id":"levelo_inurba_marseille","lat":43.32361,"lon":5.36761,"is_reserved":false,"is_disabled":false,"rental_uris":{"android":"levelo://app?vid=e4bf4b2e-acb9-45d9-8074-9f3bfb604d11","ios":"levelo://app?vid=e4bf4b2e-acb9-45d9-8074-9f3bfb604d11"},"vehicle_type_id":"4","last_reported":1745839838,"current_range_meters":16000,"station_id":"ce4bhsh2rcd13ifvqi2g","pricing_plan_id":"cebpf4jnsgd1na2vs0mg"},{"bike_id":"29cc6b36-65a2-4157-a9c9-013bddb90a4e","system_id":"levelo_inurba_marseille","lat":43.31292,"lon":5.36807,"is_reserved":false,"is_disabled":false,"rental_uris":{"android":"levelo://app?vid=29cc6b36-65a2-4157-a9c9-013bddb90a4e","ios":"levelo://app?vid=29cc6b36-65a2-4157-a9c9-013bddb90a4e"},"vehicle_type_id":"4","last_reported":1745839838,"current_range_meters":16400,"station_id":"","pricing_plan_id":"cebpf4jnsgd1na2vs0mg"},{"bike_id":"be53975d-c2a0-4e41-b5eb-c7b3aed0b16e","system_id":"levelo_inurba_marseille","lat":43.231505,"lon":5.43701,"is_reserved":false,"is_disabled":false,"rental_uris":{"android":"levelo://app?vid=be53975d-c2a0-4e41-b5eb-c7b3aed0b16e","ios":"levelo://app?vid=be53975d-c2a0-4e41-b5eb-c7b3aed0b16e"},"vehicle_type_id":"4","last_reported":1745839838,"current_range_meters":16400,"station_id":"ce4bhmp2rcd13ifvqgog","pricing_plan_id":"cebpf4jnsgd1na2vs0mg"},{"bike_id":"aec68e48-1826-4845-812c-b555a289adc5","system_id":"levelo_inurba_marseille","lat":43.23147,"lon":5.43721,"is_reserved":false,"is_disabled":false,"rental_uris":{"android":"levelo://app?vid=aec68e48-1826-4845-812c-b555a289adc5","ios":"levelo://app?vid=aec68e48-1826-4845-812c-b555a289adc5"},"vehicle_type_id":"4","last_reported":1745839838,"current_range_meters":16400,"station_id":"ce4bhmp2rcd13ifvqgog","pricing_plan_id":"cebpf4jnsgd1na2vs0mg"},{"bike_id":"c2ac1b4c-89a0-4853-92b9-e5f231bb0b21","system_id":"levelo_inurba_marseille","lat":43.28725,"lon":5.36088,"is_reserved":false,"is_disabled":false,"rental_uris":{"android":"levelo://app?vid=c2ac1b4c-89a0-4853-92b9-e5f231bb0b21","ios":"levelo://app?vid=c2ac1b4c-89a0-4853-92b9-e5f231bb0b21"},"vehicle_type_id":"4","last_reported":1745839838,"current_range_meters":16400,"station_id":"cki0cbj6b192h4jlfktg","pricing_plan_id":"cebpf4jnsgd1na2vs0mg"},{"bike_id":"526ec309-4493-416d-8f72-0f12004ea43b","system_id":"levelo_inurba_marseille","lat":43.21753,"lon":5.3462,"is_reserved":false,"is_disabled":false,"rental_uris":{"android":"levelo://app?vid=526ec309-4493-416d-8f72-0f12004ea43b","ios":"levelo://app?vid=526ec309-4493-416d-8f72-0f12004ea43b"},"vehicle_type_id":"4","last_reported":1745839838,"current_range_meters":16400,"station_id":"st_cvj6r9ubvosntc0bgbag","pricing_plan_id":"cebpf4jnsgd1na2vs0mg"},{"bike_id":"28894e81-ede6-4351-84e3-e6b48081a345","system_id":"levelo_inurba_marseille","lat":43.33448,"lon":5.40042,"is_reserved":false,"is_disabled":false,"rental_uris":{"android":"levelo://app?vid=28894e81-ede6-4351-84e3-e6b48081a345","ios":"levelo://app?vid=28894e81-ede6-4351-84e3-e6b48081a345"},"vehicle_type_id":"4","last_reported":1745839838,"current_range_meters":16800,"station_id":"","pricing_plan_id":"cebpf4jnsgd1na2vs0mg"},{"bike_id":"cd586ff2-1a00-4572-b348-41b7c0b16ac2","system_id":"levelo_inurba_marseille","lat":43.30131,"lon":5.38783,"is_reserved":false,"is_disabled":false,"rental_uris":{"android":"levelo://app?vid=cd586ff2-1a00-4572-b348-41b7c0b16ac2","ios":"levelo://app?vid=cd586ff2-1a00-4572-b348-41b7c0b16ac2"},"vehicle_type_id":"4","last_reported":1745839838,"current_range_meters":16800,"station_id":"ce4bghh2rcd13ifvqb60","pricing_plan_id":"cebpf4jnsgd1na2vs0mg"},{"bike_id":"85805f00-d01b-4d24-872a-b0c6b4f523d8","system_id":"levelo_inurba_marseille","lat":43.3122,"lon":5.3689,"is_reserved":false,"is_disabled":false,"rental_uris":{"android":"levelo://app?vid=85805f00-d01b-4d24-872a-b0c6b4f523d8","ios":"levelo://app?vid=85805f00-d01b-4d24-872a-b0c6b4f523d8"},"vehicle_type_id":"4","last_reported":1745839838,"current_range_meters":16800,"station_id":"ce4bgl92rcd13ifvqbq0","pricing_plan_id":"cebpf4jnsgd1na2vs0mg"},{"bike_id":"e2b0344c-4206-4ed2-85d2-cf1343a91a72","system_id":"levelo_inurba_marseille","lat":43.30935,"lon":5.40156,"is_reserved":false,"is_disabled":false,"rental_uris":{"android":"levelo://app?vid=e2b0344c-4206-4ed2-85d2-cf1343a91a72","ios":"levelo://app?vid=e2b0344c-4206-4ed2-85d2-cf1343a91a72"},"vehicle_type_id":"4","last_reported":1745839838,"current_range_meters":16800,"station_id":"ce4bgvp2rcd13ifvqct0","pricing_plan_id":"cebpf4jnsgd1na2vs0mg"},{"bike_id":"03299859-06ba-4498-8d37-c9971e4fc59c","system_id":"levelo_inurba_marseille","lat":43.30144,"lon":5.39879,"is_reserved":false,"is_disabled":false,"rental_uris":{"android":"levelo://app?vid=03299859-06ba-4498-8d37-c9971e4fc59c","ios":"levelo://app?vid=03299859-06ba-4498-8d37-c9971e4fc59c"},"vehicle_type_id":"4","last_reported":1745839838,"current_range_meters":16800,"station_id":"ce4bh0h2rcd13ifvqd40","pricing_plan_id":"cebpf4jnsgd1na2vs0mg"},{"bike_id":"b8390791-02ea-47cc-bfda-3bd1ffc50030","system_id":"levelo_inurba_marseille","lat":43.25949,"lon":5.40894,"is_reserved":false,"is_disabled":false,"rental_uris":{"android":"levelo://app?vid=b8390791-02ea-47cc-bfda-3bd1ffc50030","ios":"levelo://app?vid=b8390791-02ea-47cc-bfda-3bd1ffc50030"},"vehicle_type_id":"4","last_reported":1745839838,"current_range_meters":16800,"station_id":"ce4bhm92rcd13ifvqglg","pricing_plan_id":"cebpf4jnsgd1na2vs0mg"},{"bike_id":"c26fea33-9023-4156-8716-07f44ebece5c","system_id":"levelo_inurba_marseille","lat":43.294282,"lon":5.428519,"is_reserved":false,"is_disabled":false,"rental_uris":{"android":"levelo://app?vid=c26fea33-9023-4156-8716-07f44ebece5c","ios":"levelo://app?vid=c26fea33-9023-4156-8716-07f44ebece5c"},"vehicle_type_id":"4","last_reported":1745839838,"current_range_meters":16800,"station_id":"ce4bhpp2rcd13ifvqhfg","pricing_plan_id":"cebpf4jnsgd1na2vs0mg"},{"bike_id":"46f896cb-58e9-48bb-bd48-1d512a8ebb31","system_id":"levelo_inurba_marseille","lat":43.29302,"lon":5.37455,"is_reserved":false,"is_disabled":false,"rental_uris":{"android":"levelo://app?vid=46f896cb-58e9-48bb-bd48-1d512a8ebb31","ios":"levelo://app?vid=46f896cb-58e9-48bb-bd48-1d512a8ebb31"},"vehicle_type_id":"4","last_reported":1745839838,"current_range_meters":17200,"station_id":"ce4bgi12rcd13ifvqb70","pricing_plan_id":"cebpf4jnsgd1na2vs0mg"},{"bike_id":"bf9e1390-c081-4182-b4a0-95ee125720e7","system_id":"levelo_inurba_marseille","lat":43.31484,"lon":5.37312,"is_reserved":false,"is_disabled":false,"rental_uris":{"android":"levelo://app?vid=bf9e1390-c081-4182-b4a0-95ee125720e7","ios":"levelo://app?vid=bf9e1390-c081-4182-b4a0-95ee125720e7"},"vehicle_type_id":"4","last_reported":1745839838,"current_range_meters":17200,"station_id":"ce4bgt12rcd13ifvqcd0","pricing_plan_id":"cebpf4jnsgd1na2vs0mg"},{"bike_id":"b81b96bf-57a4-4db3-8f31-ae4dd78c3ff0","system_id":"levelo_inurba_marseille","lat":43.28271,"lon":5.35065,"is_reserved":false,"is_disabled":false,"rental_uris":{"android":"levelo://app?vid=b81b96bf-57a4-4db3-8f31-ae4dd78c3ff0","ios":"levelo://app?vid=b81b96bf-57a4-4db3-8f31-ae4dd78c3ff0"},"vehicle_type_id":"4","last_reported":1745839838,"current_range_meters":17200,"station_id":"ce4bhbp2rcd13ifvqerg","pricing_plan_id":"cebpf4jnsgd1na2vs0mg"},{"bike_id":"234cf48e-3fa8-4bf1-84e0-a1b4379826c1","system_id":"levelo_inurba_marseille","lat":43.27498,"lon":5.42455,"is_reserved":false,"is_disabled":false,"rental_uris":{"android":"levelo://app?vid=234cf48e-3fa8-4bf1-84e0-a1b4379826c1","ios":"levelo://app?vid=234cf48e-3fa8-4bf1-84e0-a1b4379826c1"},"vehicle_type_id":"4","last_reported":1745839838,"current_range_meters":17200,"station_id":"ce4bhn92rcd13ifvqgrg","pricing_plan_id":"cebpf4jnsgd1na2vs0mg"},{"bike_id":"9f6a75f5-b970-4a7f-b19c-5a22d1d8d28c","system_id":"levelo_inurba_marseille","lat":43.32542,"lon":5.41415,"is_reserved":false,"is_disabled":false,"rental_uris":{"android":"levelo://app?vid=9f6a75f5-b970-4a7f-b19c-5a22d1d8d28c","ios":"levelo://app?vid=9f6a75f5-b970-4a7f-b19c-5a22d1d8d28c"},"vehicle_type_id":"4","last_reported":1745839838,"current_range_meters":17200,"station_id":"ce4bhq12rcd13ifvqhhg","pricing_plan_id":"cebpf4jnsgd1na2vs0mg"},{"bike_id":"6989ac1a-77d6-4686-a7c3-886ef62843f8","system_id":"levelo_inurba_marseille","lat":43.28702,"lon":5.37392,"is_reserved":false,"is_disabled":false,"rental_uris":{"android":"levelo://app?vid=6989ac1a-77d6-4686-a7c3-886ef62843f8","ios":"levelo://app?vid=6989ac1a-77d6-4686-a7c3-886ef62843f8"},"vehicle_type_id":"4","last_reported":1745839838,"current_range_meters":17600,"station_id":"ce4bh3p2rcd13ifvqdq0","pricing_plan_id":"cebpf4jnsgd1na2vs0mg"},{"bike_id":"cdf2497d-8af8-4746-92ae-8b814fcbe952","system_id":"levelo_inurba_marseille","lat":43.292,"lon":5.35815,"is_reserved":false,"is_disabled":false,"rental_uris":{"android":"levelo://app?vid=cdf2497d-8af8-4746-92ae-8b814fcbe952","ios":"levelo://app?vid=cdf2497d-8af8-4746-92ae-8b814fcbe952"},"vehicle_type_id":"4","last_reported":1745839838,"current_range_meters":17600,"station_id":"ce4bhb12rcd13ifvqel0","pricing_plan_id":"cebpf4jnsgd1na2vs0mg"},{"bike_id":"9691f481-2e04-4dbd-8eeb-62e0fa37616c","system_id":"levelo_inurba_marseille","lat":43.25952,"lon":5.40877,"is_reserved":false,"is_disabled":false,"rental_uris":{"android":"levelo://app?vid=9691f481-2e04-4dbd-8eeb-62e0fa37616c","ios":"levelo://app?vid=9691f481-2e04-4dbd-8eeb-62e0fa37616c"},"vehicle_type_id":"4","last_reported":1745839838,"current_range_meters":17600,"station_id":"ce4bhm92rcd13ifvqglg","pricing_plan_id":"cebpf4jnsgd1na2vs0mg"},{"bike_id":"489415b8-9254-45c1-b00c-e7554d56755c","system_id":"levelo_inurba_marseille","lat":43.24532,"lon":5.41211,"is_reserved":false,"is_disabled":false,"rental_uris":{"android":"levelo://app?vid=489415b8-9254-45c1-b00c-e7554d56755c","ios":"levelo://app?vid=489415b8-9254-45c1-b00c-e7554d56755c"},"vehicle_type_id":"4","last_reported":1745839838,"current_range_meters":18000,"station_id":"","pricing_plan_id":"cebpf4jnsgd1na2vs0mg"},{"bike_id":"b79ad8b3-c47d-4ab9-bd7d-ce8dba96fd7a","system_id":"levelo_inurba_marseille","lat":43.239619,"lon":5.366329,"is_reserved":false,"is_disabled":false,"rental_uris":{"android":"levelo://app?vid=b79ad8b3-c47d-4ab9-bd7d-ce8dba96fd7a","ios":"levelo://app?vid=b79ad8b3-c47d-4ab9-bd7d-ce8dba96fd7a"},"vehicle_type_id":"4","last_reported":1745839838,"current_range_meters":18000,"station_id":"ce4bhi12rcd13ifvqfp0","pricing_plan_id":"cebpf4jnsgd1na2vs0mg"},{"bike_id":"1116269a-a32d-4915-8403-921d7f67e4a0","system_id":"levelo_inurba_marseille","lat":43.25923,"lon":5.40867,"is_reserved":false,"is_disabled":false,"rental_uris":{"android":"levelo://app?vid=1116269a-a32d-4915-8403-921d7f67e4a0","ios":"levelo://app?vid=1116269a-a32d-4915-8403-921d7f67e4a0"},"vehicle_type_id":"4","last_reported":1745839838,"current_range_meters":18000,"station_id":"ce4bhm92rcd13ifvqglg","pricing_plan_id":"cebpf4jnsgd1na2vs0mg"},{"bike_id":"d7a5c581-37d3-417f-b3f0-8d1516221988","system_id":"levelo_inurba_marseille","lat":43.30246,"lon":5.40048,"is_reserved":false,"is_disabled":false,"rental_uris":{"android":"levelo://app?vid=d7a5c581-37d3-417f-b3f0-8d1516221988","ios":"levelo://app?vid=d7a5c581-37d3-417f-b3f0-8d1516221988"},"vehicle_type_id":"4","last_reported":1745839838,"current_range_meters":18800,"station_id":"ce4bgvh2rcd13ifvqcs0","pricing_plan_id":"cebpf4jnsgd1na2vs0mg"},{"bike_id":"387a6b71-1a87-487f-aa39-06ce84c75d15","system_id":"levelo_inurba_marseille","lat":43.27508,"lon":5.42455,"is_reserved":false,"is_disabled":false,"rental_uris":{"android":"levelo://app?vid=387a6b71-1a87-487f-aa39-06ce84c75d15","ios":"levelo://app?vid=387a6b71-1a87-487f-aa39-06ce84c75d15"},"vehicle_type_id":"4","last_reported":1745839838,"current_range_meters":18800,"station_id":"ce4bhn92rcd13ifvqgrg","pricing_plan_id":"cebpf4jnsgd1na2vs0mg"},{"bike_id":"d6d36f3f-bcbc-47bd-9967-c8cd0a361ce7","system_id":"levelo_inurba_marseille","lat":43.29621,"lon":5.37159,"is_reserved":false,"is_disabled":false,"rental_uris":{"android":"levelo://app?vid=d6d36f3f-bcbc-47bd-9967-c8cd0a361ce7","ios":"levelo://app?vid=d6d36f3f-bcbc-47bd-9967-c8cd0a361ce7"},"vehicle_type_id":"4","last_reported":1745839838,"current_range_meters":19200,"station_id":"ce4bgnh2rcd13ifvqc0g","pricing_plan_id":"cebpf4jnsgd1na2vs0mg"},{"bike_id":"00df6f89-0f18-4d9d-8b78-0b80c5677a17","system_id":"levelo_inurba_marseille","lat":43.292241,"lon":5.36059,"is_reserved":false,"is_disabled":false,"rental_uris":{"android":"levelo://app?vid=00df6f89-0f18-4d9d-8b78-0b80c5677a17","ios":"levelo://app?vid=00df6f89-0f18-4d9d-8b78-0b80c5677a17"},"vehicle_type_id":"4","last_reported":1745839838,"current_range_meters":19200,"station_id":"ce4bhbh2rcd13ifvqeqg","pricing_plan_id":"cebpf4jnsgd1na2vs0mg"},{"bike_id":"12166b79-af98-465e-a8eb-04caf85cd99c","system_id":"levelo_inurba_marseille","lat":43.24071,"lon":5.37762,"is_reserved":false,"is_disabled":false,"rental_uris":{"android":"levelo://app?vid=12166b79-af98-465e-a8eb-04caf85cd99c","ios":"levelo://app?vid=12166b79-af98-465e-a8eb-04caf85cd99c"},"vehicle_type_id":"4","last_reported":1745839838,"current_range_meters":19200,"station_id":"ce4bhnp2rcd13ifvqgvg","pricing_plan_id":"cebpf4jnsgd1na2vs0mg"},{"bike_id":"824bc5f1-7b43-4a9e-9cb4-7558b39b171a","system_id":"levelo_inurba_marseille","lat":43.30925,"lon":5.37098,"is_reserved":false,"is_disabled":false,"rental_uris":{"android":"levelo://app?vid=824bc5f1-7b43-4a9e-9cb4-7558b39b171a","ios":"levelo://app?vid=824bc5f1-7b43-4a9e-9cb4-7558b39b171a"},"vehicle_type_id":"4","last_reported":1745839838,"current_range_meters":19600,"station_id":"","pricing_plan_id":"cebpf4jnsgd1na2vs0mg"},{"bike_id":"0574e786-0df6-4a22-9f4b-2e5f1fc3eddd","system_id":"levelo_inurba_marseille","lat":43.29581,"lon":5.37493,"is_reserved":false,"is_disabled":false,"rental_uris":{"android":"levelo://app?vid=0574e786-0df6-4a22-9f4b-2e5f1fc3eddd","ios":"levelo://app?vid=0574e786-0df6-4a22-9f4b-2e5f1fc3eddd"},"vehicle_type_id":"4","last_reported":1745839838,"current_range_meters":19600,"station_id":"ce4bgh92rcd13ifvqb50","pricing_plan_id":"cebpf4jnsgd1na2vs0mg"},{"bike_id":"7a606858-c276-4eeb-b2b1-6db27b5668c7","system_id":"levelo_inurba_marseille","lat":43.29259,"lon":5.3762,"is_reserved":false,"is_disabled":false,"rental_uris":{"android":"levelo://app?vid=7a606858-c276-4eeb-b2b1-6db27b5668c7","ios":"levelo://app?vid=7a606858-c276-4eeb-b2b1-6db27b5668c7"},"vehicle_type_id":"4","last_reported":1745839838,"current_range_meters":19600,"station_id":"ce4bgi12rcd13ifvqb80","pricing_plan_id":"cebpf4jnsgd1na2vs0mg"},{"bike_id":"b03b5a9b-26ba-4263-b3c7-79c555f133f5","system_id":"levelo_inurba_marseille","lat":43.23969,"lon":5.36636,"is_reserved":false,"is_disabled":false,"rental_uris":{"android":"levelo://app?vid=b03b5a9b-26ba-4263-b3c7-79c555f133f5","ios":"levelo://app?vid=b03b5a9b-26ba-4263-b3c7-79c555f133f5"},"vehicle_type_id":"4","last_reported":1745839838,"current_range_meters":19600,"station_id":"ce4bhi12rcd13ifvqfp0","pricing_plan_id":"cebpf4jnsgd1na2vs0mg"},{"bike_id":"a990f424-b727-4c59-a50a-2df309014924","system_id":"levelo_inurba_marseille","lat":43.321139,"lon":5.367761,"is_reserved":false,"is_disabled":false,"rental_uris":{"android":"levelo://app?vid=a990f424-b727-4c59-a50a-2df309014924","ios":"levelo://app?vid=a990f424-b727-4c59-a50a-2df309014924"},"vehicle_type_id":"4","last_reported":1745839838,"current_range_meters":19600,"station_id":"ce4bhrh2rcd13ifvqhug","pricing_plan_id":"cebpf4jnsgd1na2vs0mg"},{"bike_id":"22a650e2-af69-41e5-9501-328ced12ea90","system_id":"levelo_inurba_marseille","lat":43.27644,"lon":5.42185,"is_reserved":false,"is_disabled":false,"rental_uris":{"android":"levelo://app?vid=22a650e2-af69-41e5-9501-328ced12ea90","ios":"levelo://app?vid=22a650e2-af69-41e5-9501-328ced12ea90"},"vehicle_type_id":"4","last_reported":1745839838,"current_range_meters":20000,"station_id":"","pricing_plan_id":"cebpf4jnsgd1na2vs0mg"},{"bike_id":"fc59da5f-e514-450a-a7ab-5238fcab9a27","system_id":"levelo_inurba_marseille","lat":43.29705,"lon":5.36602,"is_reserved":false,"is_disabled":false,"rental_uris":{"android":"levelo://app?vid=fc59da5f-e514-450a-a7ab-5238fcab9a27","ios":"levelo://app?vid=fc59da5f-e514-450a-a7ab-5238fcab9a27"},"vehicle_type_id":"4","last_reported":1745839838,"current_range_meters":20000,"station_id":"ce4bgn12rcd13ifvqbt0","pricing_plan_id":"cebpf4jnsgd1na2vs0mg"},{"bike_id":"bec2efc9-6128-40e6-ab69-bcc70a0e7cb1","system_id":"levelo_inurba_marseille","lat":43.3046,"lon":5.3791,"is_reserved":false,"is_disabled":false,"rental_uris":{"android":"levelo://app?vid=bec2efc9-6128-40e6-ab69-bcc70a0e7cb1","ios":"levelo://app?vid=bec2efc9-6128-40e6-ab69-bcc70a0e7cb1"},"vehicle_type_id":"4","last_reported":1745839838,"current_range_meters":20000,"station_id":"ce4bgup2rcd13ifvqcn0","pricing_plan_id":"cebpf4jnsgd1na2vs0mg"},{"bike_id":"a56d1643-3541-4684-9fe9-f2df783fb0ee","system_id":"levelo_inurba_marseille","lat":43.28927,"lon":5.38391,"is_reserved":false,"is_disabled":false,"rental_uris":{"android":"levelo://app?vid=a56d1643-3541-4684-9fe9-f2df783fb0ee","ios":"levelo://app?vid=a56d1643-3541-4684-9fe9-f2df783fb0ee"},"vehicle_type_id":"4","last_reported":1745839838,"current_range_meters":20000,"station_id":"ce4bh612rcd13ifvqe6g","pricing_plan_id":"cebpf4jnsgd1na2vs0mg"},{"bike_id":"c1691ddb-e581-4f44-82e5-e603a6e9d830","system_id":"levelo_inurba_marseille","lat":43.23152,"lon":5.43704,"is_reserved":false,"is_disabled":false,"rental_uris":{"android":"levelo://app?vid=c1691ddb-e581-4f44-82e5-e603a6e9d830","ios":"levelo://app?vid=c1691ddb-e581-4f44-82e5-e603a6e9d830"},"vehicle_type_id":"4","last_reported":1745839838,"current_range_meters":20000,"station_id":"ce4bhmp2rcd13ifvqgog","pricing_plan_id":"cebpf4jnsgd1na2vs0mg"},{"bike_id":"448e38b2-599b-4efb-8a57-4e903d1b2586","system_id":"levelo_inurba_marseille","lat":43.27937,"lon":5.41042,"is_reserved":false,"is_disabled":false,"rental_uris":{"android":"levelo://app?vid=448e38b2-599b-4efb-8a57-4e903d1b2586","ios":"levelo://app?vid=448e38b2-599b-4efb-8a57-4e903d1b2586"},"vehicle_type_id":"4","last_reported":1745839838,"current_range_meters":20000,"station_id":"ce4bhnp2rcd13ifvqh0g","pricing_plan_id":"cebpf4jnsgd1na2vs0mg"},{"bike_id":"f4312d7b-1e4d-44d7-9311-b804dbe9ec43","system_id":"levelo_inurba_marseille","lat":43.308899,"lon":5.3686,"is_reserved":false,"is_disabled":false,"rental_uris":{"android":"levelo://app?vid=f4312d7b-1e4d-44d7-9311-b804dbe9ec43","ios":"levelo://app?vid=f4312d7b-1e4d-44d7-9311-b804dbe9ec43"},"vehicle_type_id":"4","last_reported":1745839838,"current_range_meters":20400,"station_id":"ce4bgn92rcd13ifvqbvg","pricing_plan_id":"cebpf4jnsgd1na2vs0mg"},{"bike_id":"ffbb9abb-74e0-4928-929e-107caaf1db9c","system_id":"levelo_inurba_marseille","lat":43.29026,"lon":5.38646,"is_reserved":false,"is_disabled":false,"rental_uris":{"android":"levelo://app?vid=ffbb9abb-74e0-4928-929e-107caaf1db9c","ios":"levelo://app?vid=ffbb9abb-74e0-4928-929e-107caaf1db9c"},"vehicle_type_id":"4","last_reported":1745839838,"current_range_meters":20400,"station_id":"ce4bh4p2rcd13ifvqe0g","pricing_plan_id":"cebpf4jnsgd1na2vs0mg"},{"bike_id":"95dd49e2-e1f9-452e-883e-30aa1c9114cf","system_id":"levelo_inurba_marseille","lat":43.28863,"lon":5.35856,"is_reserved":false,"is_disabled":false,"rental_uris":{"android":"levelo://app?vid=95dd49e2-e1f9-452e-883e-30aa1c9114cf","ios":"levelo://app?vid=95dd49e2-e1f9-452e-883e-30aa1c9114cf"},"vehicle_type_id":"4","last_reported":1745839838,"current_range_meters":20400,"station_id":"ce4bhb12rcd13ifvqem0","pricing_plan_id":"cebpf4jnsgd1na2vs0mg"},{"bike_id":"90479ac8-8d10-4e51-a2e6-e82d47c4d0e1","system_id":"levelo_inurba_marseille","lat":43.2419,"lon":5.39724,"is_reserved":false,"is_disabled":false,"rental_uris":{"android":"levelo://app?vid=90479ac8-8d10-4e51-a2e6-e82d47c4d0e1","ios":"levelo://app?vid=90479ac8-8d10-4e51-a2e6-e82d47c4d0e1"},"vehicle_type_id":"4","last_reported":1745839838,"current_range_meters":20400,"station_id":"ce4bhn12rcd13ifvqgpg","pricing_plan_id":"cebpf4jnsgd1na2vs0mg"},{"bike_id":"02ce4ffc-507f-4802-bc1b-a8e3a6bdc798","system_id":"levelo_inurba_marseille","lat":43.336022,"lon":5.410313,"is_reserved":false,"is_disabled":false,"rental_uris":{"android":"levelo://app?vid=02ce4ffc-507f-4802-bc1b-a8e3a6bdc798","ios":"levelo://app?vid=02ce4ffc-507f-4802-bc1b-a8e3a6bdc798"},"vehicle_type_id":"4","last_reported":1745839838,"current_range_meters":20400,"station_id":"ce4bhqh2rcd13ifvqhmg","pricing_plan_id":"cebpf4jnsgd1na2vs0mg"},{"bike_id":"f6aee9f9-3388-4cc9-81aa-fa15665ecfa0","system_id":"levelo_inurba_marseille","lat":43.30143,"lon":5.38056,"is_reserved":false,"is_disabled":false,"rental_uris":{"android":"levelo://app?vid=f6aee9f9-3388-4cc9-81aa-fa15665ecfa0","ios":"levelo://app?vid=f6aee9f9-3388-4cc9-81aa-fa15665ecfa0"},"vehicle_type_id":"4","last_reported":1745839838,"current_range_meters":20800,"station_id":"ce4bgjp2rcd13ifvqbh0","pricing_plan_id":"cebpf4jnsgd1na2vs0mg"},{"bike_id":"4d03579e-5913-4214-b338-490799d1f1d6","system_id":"levelo_inurba_marseille","lat":43.25015,"lon":5.38935,"is_reserved":false,"is_disabled":false,"rental_uris":{"android":"levelo://app?vid=4d03579e-5913-4214-b338-490799d1f1d6","ios":"levelo://app?vid=4d03579e-5913-4214-b338-490799d1f1d6"},"vehicle_type_id":"4","last_reported":1745839838,"current_range_meters":20800,"station_id":"ce4bhgp2rcd13ifvqfd0","pricing_plan_id":"cebpf4jnsgd1na2vs0mg"},{"bike_id":"0ddb8378-4ea7-4530-823c-b3eb275d0e79","system_id":"levelo_inurba_marseille","lat":43.28713,"lon":5.39986,"is_reserved":false,"is_disabled":false,"rental_uris":{"android":"levelo://app?vid=0ddb8378-4ea7-4530-823c-b3eb275d0e79","ios":"levelo://app?vid=0ddb8378-4ea7-4530-823c-b3eb275d0e79"},"vehicle_type_id":"4","last_reported":1745839838,"current_range_meters":20800,"station_id":"ce4bho92rcd13ifvqh3g","pricing_plan_id":"cebpf4jnsgd1na2vs0mg"},{"bike_id":"310bb477-a970-4673-afeb-91763474ba72","system_id":"levelo_inurba_marseille","lat":43.30888,"lon":5.36866,"is_reserved":false,"is_disabled":false,"rental_uris":{"android":"levelo://app?vid=310bb477-a970-4673-afeb-91763474ba72","ios":"levelo://app?vid=310bb477-a970-4673-afeb-91763474ba72"},"vehicle_type_id":"4","last_reported":1745839838,"current_range_meters":21600,"station_id":"ce4bgn92rcd13ifvqbvg","pricing_plan_id":"cebpf4jnsgd1na2vs0mg"},{"bike_id":"7a43aac4-035b-4756-a7ca-e8f52041ee8b","system_id":"levelo_inurba_marseille","lat":43.30617,"lon":5.37232,"is_reserved":false,"is_disabled":false,"rental_uris":{"android":"levelo://app?vid=7a43aac4-035b-4756-a7ca-e8f52041ee8b","ios":"levelo://app?vid=7a43aac4-035b-4756-a7ca-e8f52041ee8b"},"vehicle_type_id":"4","last_reported":1745839838,"current_range_meters":21600,"station_id":"ce4bgqh2rcd13ifvqc4g","pricing_plan_id":"cebpf4jnsgd1na2vs0mg"},{"bike_id":"d6b4e7c8-4986-48cd-b7e8-8da788f07c8a","system_id":"levelo_inurba_marseille","lat":43.2885,"lon":5.39338,"is_reserved":false,"is_disabled":false,"rental_uris":{"android":"levelo://app?vid=d6b4e7c8-4986-48cd-b7e8-8da788f07c8a","ios":"levelo://app?vid=d6b4e7c8-4986-48cd-b7e8-8da788f07c8a"},"vehicle_type_id":"4","last_reported":1745839838,"current_range_meters":21600,"station_id":"ce4bh2p2rcd13ifvqdi0","pricing_plan_id":"cebpf4jnsgd1na2vs0mg"},{"bike_id":"9048a988-1cb8-4aa3-ab23-aeb571c1efe3","system_id":"levelo_inurba_marseille","lat":43.241643,"lon":5.364046,"is_reserved":false,"is_disabled":false,"rental_uris":{"android":"levelo://app?vid=9048a988-1cb8-4aa3-ab23-aeb571c1efe3","ios":"levelo://app?vid=9048a988-1cb8-4aa3-ab23-aeb571c1efe3"},"vehicle_type_id":"4","last_reported":1745839838,"current_range_meters":21600,"station_id":"cpo36qri1sfpv3e86is0","pricing_plan_id":"cebpf4jnsgd1na2vs0mg"},{"bike_id":"40a6ef5e-8d13-4ef4-bc31-5def185fa671","system_id":"levelo_inurba_marseille","lat":43.30937,"lon":5.36862,"is_reserved":false,"is_disabled":false,"rental_uris":{"android":"levelo://app?vid=40a6ef5e-8d13-4ef4-bc31-5def185fa671","ios":"levelo://app?vid=40a6ef5e-8d13-4ef4-bc31-5def185fa671"},"vehicle_type_id":"4","last_reported":1745839838,"current_range_meters":22000,"station_id":"ce4bgn92rcd13ifvqbvg","pricing_plan_id":"cebpf4jnsgd1na2vs0mg"},{"bike_id":"16bc8ca3-1032-4d9c-9029-a17037e2d378","system_id":"levelo_inurba_marseille","lat":43.29624,"lon":5.37161,"is_reserved":false,"is_disabled":false,"rental_uris":{"android":"levelo://app?vid=16bc8ca3-1032-4d9c-9029-a17037e2d378","ios":"levelo://app?vid=16bc8ca3-1032-4d9c-9029-a17037e2d378"},"vehicle_type_id":"4","last_reported":1745839838,"current_range_meters":22000,"station_id":"ce4bgnh2rcd13ifvqc0g","pricing_plan_id":"cebpf4jnsgd1na2vs0mg"},{"bike_id":"9b475ce7-490b-4df2-ab6e-abd675737091","system_id":"levelo_inurba_marseille","lat":43.29021,"lon":5.38638,"is_reserved":false,"is_disabled":false,"rental_uris":{"android":"levelo://app?vid=9b475ce7-490b-4df2-ab6e-abd675737091","ios":"levelo://app?vid=9b475ce7-490b-4df2-ab6e-abd675737091"},"vehicle_type_id":"4","last_reported":1745839838,"current_range_meters":22000,"station_id":"ce4bh4p2rcd13ifvqe0g","pricing_plan_id":"cebpf4jnsgd1na2vs0mg"},{"bike_id":"6f72a64c-8196-40f4-884d-e724349a0b2e","system_id":"levelo_inurba_marseille","lat":43.24389,"lon":5.37061,"is_reserved":false,"is_disabled":false,"rental_uris":{"android":"levelo://app?vid=6f72a64c-8196-40f4-884d-e724349a0b2e","ios":"levelo://app?vid=6f72a64c-8196-40f4-884d-e724349a0b2e"},"vehicle_type_id":"4","last_reported":1745839838,"current_range_meters":22000,"station_id":"ce4bhhh2rcd13ifvqfk0","pricing_plan_id":"cebpf4jnsgd1na2vs0mg"},{"bike_id":"614acf72-bf4e-446f-b324-8fb5cce61214","system_id":"levelo_inurba_marseille","lat":43.25904,"lon":5.40848,"is_reserved":false,"is_disabled":false,"rental_uris":{"android":"levelo://app?vid=614acf72-bf4e-446f-b324-8fb5cce61214","ios":"levelo://app?vid=614acf72-bf4e-446f-b324-8fb5cce61214"},"vehicle_type_id":"4","last_reported":1745839838,"current_range_meters":22000,"station_id":"ce4bhm92rcd13ifvqglg","pricing_plan_id":"cebpf4jnsgd1na2vs0mg"},{"bike_id":"6fd6d493-134e-402b-a2f7-58b850f2bd3a","system_id":"levelo_inurba_marseille","lat":43.28706,"lon":5.39992,"is_reserved":false,"is_disabled":false,"rental_uris":{"android":"levelo://app?vid=6fd6d493-134e-402b-a2f7-58b850f2bd3a","ios":"levelo://app?vid=6fd6d493-134e-402b-a2f7-58b850f2bd3a"},"vehicle_type_id":"4","last_reported":1745839838,"current_range_meters":22000,"station_id":"ce4bho92rcd13ifvqh3g","pricing_plan_id":"cebpf4jnsgd1na2vs0mg"},{"bike_id":"6753eecb-7d97-4416-a820-c42c9398c3ce","system_id":"levelo_inurba_marseille","lat":43.33606,"lon":5.4104,"is_reserved":false,"is_disabled":false,"rental_uris":{"android":"levelo://app?vid=6753eecb-7d97-4416-a820-c42c9398c3ce","ios":"levelo://app?vid=6753eecb-7d97-4416-a820-c42c9398c3ce"},"vehicle_type_id":"4","last_reported":1745839838,"current_range_meters":22000,"station_id":"ce4bhqh2rcd13ifvqhmg","pricing_plan_id":"cebpf4jnsgd1na2vs0mg"},{"bike_id":"dcc08f6b-7d0d-4aea-b64d-65a4601fe8c4","system_id":"levelo_inurba_marseille","lat":43.27494,"lon":5.42448,"is_reserved":false,"is_disabled":false,"rental_uris":{"android":"levelo://app?vid=dcc08f6b-7d0d-4aea-b64d-65a4601fe8c4","ios":"levelo://app?vid=dcc08f6b-7d0d-4aea-b64d-65a4601fe8c4"},"vehicle_type_id":"4","last_reported":1745839838,"current_range_meters":22400,"station_id":"ce4bhn92rcd13ifvqgrg","pricing_plan_id":"cebpf4jnsgd1na2vs0mg"},{"bike_id":"3796228c-1d83-4a1f-8cb2-c1eb9d9e8fec","system_id":"levelo_inurba_marseille","lat":43.27944,"lon":5.41036,"is_reserved":false,"is_disabled":false,"rental_uris":{"android":"levelo://app?vid=3796228c-1d83-4a1f-8cb2-c1eb9d9e8fec","ios":"levelo://app?vid=3796228c-1d83-4a1f-8cb2-c1eb9d9e8fec"},"vehicle_type_id":"4","last_reported":1745839838,"current_range_meters":22400,"station_id":"ce4bhnp2rcd13ifvqh0g","pricing_plan_id":"cebpf4jnsgd1na2vs0mg"},{"bike_id":"5bd7dcef-0e51-42c7-a571-c755e8bf69db","system_id":"levelo_inurba_marseille","lat":43.279389,"lon":5.410473,"is_reserved":false,"is_disabled":false,"rental_uris":{"android":"levelo://app?vid=5bd7dcef-0e51-42c7-a571-c755e8bf69db","ios":"levelo://app?vid=5bd7dcef-0e51-42c7-a571-c755e8bf69db"},"vehicle_type_id":"4","last_reported":1745839838,"current_range_meters":22400,"station_id":"ce4bhnp2rcd13ifvqh0g","pricing_plan_id":"cebpf4jnsgd1na2vs0mg"},{"bike_id":"36f2821b-35d0-4c25-860d-5b8184dc64d3","system_id":"levelo_inurba_marseille","lat":43.29959,"lon":5.37186,"is_reserved":false,"is_disabled":false,"rental_uris":{"android":"levelo://app?vid=36f2821b-35d0-4c25-860d-5b8184dc64d3","ios":"levelo://app?vid=36f2821b-35d0-4c25-860d-5b8184dc64d3"},"vehicle_type_id":"4","last_reported":1745839838,"current_range_meters":22800,"station_id":"ce4bgr92rcd13ifvqc7g","pricing_plan_id":"cebpf4jnsgd1na2vs0mg"},{"bike_id":"035cdc5a-c646-4c28-82dc-a8991c21d159","system_id":"levelo_inurba_marseille","lat":43.31511,"lon":5.37294,"is_reserved":false,"is_disabled":false,"rental_uris":{"android":"levelo://app?vid=035cdc5a-c646-4c28-82dc-a8991c21d159","ios":"levelo://app?vid=035cdc5a-c646-4c28-82dc-a8991c21d159"},"vehicle_type_id":"4","last_reported":1745839838,"current_range_meters":22800,"station_id":"ce4bgt12rcd13ifvqcd0","pricing_plan_id":"cebpf4jnsgd1na2vs0mg"},{"bike_id":"c0d6e2d8-d13d-4347-9824-79ab397c2ab2","system_id":"levelo_inurba_marseille","lat":43.24648,"lon":5.38912,"is_reserved":false,"is_disabled":false,"rental_uris":{"android":"levelo://app?vid=c0d6e2d8-d13d-4347-9824-79ab397c2ab2","ios":"levelo://app?vid=c0d6e2d8-d13d-4347-9824-79ab397c2ab2"},"vehicle_type_id":"4","last_reported":1745839838,"current_range_meters":22800,"station_id":"ce4bhg12rcd13ifvqf60","pricing_plan_id":"cebpf4jnsgd1na2vs0mg"},{"bike_id":"9bf71197-07d3-499e-a431-c33ff22da08d","system_id":"levelo_inurba_marseille","lat":43.27489,"lon":5.42453,"is_reserved":false,"is_disabled":false,"rental_uris":{"android":"levelo://app?vid=9bf71197-07d3-499e-a431-c33ff22da08d","ios":"levelo://app?vid=9bf71197-07d3-499e-a431-c33ff22da08d"},"vehicle_type_id":"4","last_reported":1745839838,"current_range_meters":22800,"station_id":"ce4bhn92rcd13ifvqgrg","pricing_plan_id":"cebpf4jnsgd1na2vs0mg"},{"bike_id":"b02df811-55e3-42e8-b0d7-37141a012db4","system_id":"levelo_inurba_marseille","lat":43.27941,"lon":5.41037,"is_reserved":false,"is_disabled":false,"rental_uris":{"android":"levelo://app?vid=b02df811-55e3-42e8-b0d7-37141a012db4","ios":"levelo://app?vid=b02df811-55e3-42e8-b0d7-37141a012db4"},"vehicle_type_id":"4","last_reported":1745839838,"current_range_meters":22800,"station_id":"ce4bhnp2rcd13ifvqh0g","pricing_plan_id":"cebpf4jnsgd1na2vs0mg"},{"bike_id":"2407d6f2-666d-4493-a19d-a30650054fb4","system_id":"levelo_inurba_marseille","lat":43.32541,"lon":5.41423,"is_reserved":false,"is_disabled":false,"rental_uris":{"android":"levelo://app?vid=2407d6f2-666d-4493-a19d-a30650054fb4","ios":"levelo://app?vid=2407d6f2-666d-4493-a19d-a30650054fb4"},"vehicle_type_id":"4","last_reported":1745839838,"current_range_meters":22800,"station_id":"ce4bhq12rcd13ifvqhhg","pricing_plan_id":"cebpf4jnsgd1na2vs0mg"},{"bike_id":"86116135-a5a5-4b0e-b398-9021ab7fa3aa","system_id":"levelo_inurba_marseille","lat":43.32477,"lon":5.36563,"is_reserved":false,"is_disabled":false,"rental_uris":{"android":"levelo://app?vid=86116135-a5a5-4b0e-b398-9021ab7fa3aa","ios":"levelo://app?vid=86116135-a5a5-4b0e-b398-9021ab7fa3aa"},"vehicle_type_id":"4","last_reported":1745839838,"current_range_meters":22800,"station_id":"ce4bhs12rcd13ifvqhvg","pricing_plan_id":"cebpf4jnsgd1na2vs0mg"},{"bike_id":"6513aa55-2b69-471a-ae4a-84c634216bdf","system_id":"levelo_inurba_marseille","lat":43.28475,"lon":5.38416,"is_reserved":false,"is_disabled":false,"rental_uris":{"android":"levelo://app?vid=6513aa55-2b69-471a-ae4a-84c634216bdf","ios":"levelo://app?vid=6513aa55-2b69-471a-ae4a-84c634216bdf"},"vehicle_type_id":"4","last_reported":1745839838,"current_range_meters":23200,"station_id":"ce4bh512rcd13ifvqe3g","pricing_plan_id":"cebpf4jnsgd1na2vs0mg"},{"bike_id":"763f710d-8dde-423d-a40c-a7a60c83825b","system_id":"levelo_inurba_marseille","lat":43.246479,"lon":5.388911,"is_reserved":false,"is_disabled":false,"rental_uris":{"android":"levelo://app?vid=763f710d-8dde-423d-a40c-a7a60c83825b","ios":"levelo://app?vid=763f710d-8dde-423d-a40c-a7a60c83825b"},"vehicle_type_id":"4","last_reported":1745839838,"current_range_meters":23200,"station_id":"ce4bhg12rcd13ifvqf60","pricing_plan_id":"cebpf4jnsgd1na2vs0mg"},{"bike_id":"7cac85ab-5336-4ecb-a87b-28248930414b","system_id":"levelo_inurba_marseille","lat":43.231492,"lon":5.437149,"is_reserved":false,"is_disabled":false,"rental_uris":{"android":"levelo://app?vid=7cac85ab-5336-4ecb-a87b-28248930414b","ios":"levelo://app?vid=7cac85ab-5336-4ecb-a87b-28248930414b"},"vehicle_type_id":"4","last_reported":1745839838,"current_range_meters":23200,"station_id":"ce4bhmp2rcd13ifvqgog","pricing_plan_id":"cebpf4jnsgd1na2vs0mg"},{"bike_id":"5dfb3267-fd09-4a27-bd8d-de78a99fe5f7","system_id":"levelo_inurba_marseille","lat":43.28155,"lon":5.42644,"is_reserved":false,"is_disabled":false,"rental_uris":{"android":"levelo://app?vid=5dfb3267-fd09-4a27-bd8d-de78a99fe5f7","ios":"levelo://app?vid=5dfb3267-fd09-4a27-bd8d-de78a99fe5f7"},"vehicle_type_id":"4","last_reported":1745839838,"current_range_meters":23200,"station_id":"ce4bhnh2rcd13ifvqgug","pricing_plan_id":"cebpf4jnsgd1na2vs0mg"},{"bike_id":"14156387-e351-49be-91dd-330aae2604d0","system_id":"levelo_inurba_marseille","lat":43.21762,"lon":5.34574,"is_reserved":false,"is_disabled":false,"rental_uris":{"android":"levelo://app?vid=14156387-e351-49be-91dd-330aae2604d0","ios":"levelo://app?vid=14156387-e351-49be-91dd-330aae2604d0"},"vehicle_type_id":"4","last_reported":1745839838,"current_range_meters":23200,"station_id":"st_cvj6r9ubvosntc0bgbag","pricing_plan_id":"cebpf4jnsgd1na2vs0mg"},{"bike_id":"a5c09769-3f6a-4cb3-a39e-6b61043ef208","system_id":"levelo_inurba_marseille","lat":43.31255,"lon":5.36792,"is_reserved":false,"is_disabled":false,"rental_uris":{"android":"levelo://app?vid=a5c09769-3f6a-4cb3-a39e-6b61043ef208","ios":"levelo://app?vid=a5c09769-3f6a-4cb3-a39e-6b61043ef208"},"vehicle_type_id":"4","last_reported":1745839838,"current_range_meters":24000,"station_id":"ce4bgl92rcd13ifvqbq0","pricing_plan_id":"cebpf4jnsgd1na2vs0mg"},{"bike_id":"f5c6f2d0-2d40-4d18-adbe-c9f6b6427ddb","system_id":"levelo_inurba_marseille","lat":43.3056,"lon":5.36731,"is_reserved":false,"is_disabled":false,"rental_uris":{"android":"levelo://app?vid=f5c6f2d0-2d40-4d18-adbe-c9f6b6427ddb","ios":"levelo://app?vid=f5c6f2d0-2d40-4d18-adbe-c9f6b6427ddb"},"vehicle_type_id":"4","last_reported":1745839838,"current_range_meters":24000,"station_id":"ce4bgrp2rcd13ifvqc9g","pricing_plan_id":"cebpf4jnsgd1na2vs0mg"},{"bike_id":"5ac77d0f-f0d0-484a-b1a3-bc42a01217c5","system_id":"levelo_inurba_marseille","lat":43.30785,"lon":5.37642,"is_reserved":false,"is_disabled":false,"rental_uris":{"android":"levelo://app?vid=5ac77d0f-f0d0-484a-b1a3-bc42a01217c5","ios":"levelo://app?vid=5ac77d0f-f0d0-484a-b1a3-bc42a01217c5"},"vehicle_type_id":"4","last_reported":1745839838,"current_range_meters":24000,"station_id":"ce4bgv92rcd13ifvqcq0","pricing_plan_id":"cebpf4jnsgd1na2vs0mg"},{"bike_id":"aec19614-df3e-4c14-b644-284994164aae","system_id":"levelo_inurba_marseille","lat":43.30088,"lon":5.39078,"is_reserved":false,"is_disabled":false,"rental_uris":{"android":"levelo://app?vid=aec19614-df3e-4c14-b644-284994164aae","ios":"levelo://app?vid=aec19614-df3e-4c14-b644-284994164aae"},"vehicle_type_id":"4","last_reported":1745839838,"current_range_meters":24000,"station_id":"ce4bh192rcd13ifvqdb0","pricing_plan_id":"cebpf4jnsgd1na2vs0mg"},{"bike_id":"254a82b3-1bfa-44d0-bb2c-211fbec80e17","system_id":"levelo_inurba_marseille","lat":43.27959,"lon":5.38744,"is_reserved":false,"is_disabled":false,"rental_uris":{"android":"levelo://app?vid=254a82b3-1bfa-44d0-bb2c-211fbec80e17","ios":"levelo://app?vid=254a82b3-1bfa-44d0-bb2c-211fbec80e17"},"vehicle_type_id":"4","last_reported":1745839838,"current_range_meters":24000,"station_id":"ce4bhg12rcd13ifvqf80","pricing_plan_id":"cebpf4jnsgd1na2vs0mg"},{"bike_id":"2bb49bb4-6558-43b2-bfd6-3aeca63af260","system_id":"levelo_inurba_marseille","lat":43.25494,"lon":5.37639,"is_reserved":false,"is_disabled":false,"rental_uris":{"android":"levelo://app?vid=2bb49bb4-6558-43b2-bfd6-3aeca63af260","ios":"levelo://app?vid=2bb49bb4-6558-43b2-bfd6-3aeca63af260"},"vehicle_type_id":"4","last_reported":1745839838,"current_range_meters":24000,"station_id":"ce4bhh12rcd13ifvqff0","pricing_plan_id":"cebpf4jnsgd1na2vs0mg"},{"bike_id":"b26a0b33-650f-4f7b-8536-58a942167ba4","system_id":"levelo_inurba_marseille","lat":43.23193,"lon":5.35548,"is_reserved":false,"is_disabled":false,"rental_uris":{"android":"levelo://app?vid=b26a0b33-650f-4f7b-8536-58a942167ba4","ios":"levelo://app?vid=b26a0b33-650f-4f7b-8536-58a942167ba4"},"vehicle_type_id":"4","last_reported":1745839838,"current_range_meters":24000,"station_id":"ce4bhu92rcd13ifvqi70","pricing_plan_id":"cebpf4jnsgd1na2vs0mg"},{"bike_id":"6f07a4c6-c9d8-4425-9447-8676203a33a0","system_id":"levelo_inurba_marseille","lat":43.241735,"lon":5.36388,"is_reserved":false,"is_disabled":false,"rental_uris":{"android":"levelo://app?vid=6f07a4c6-c9d8-4425-9447-8676203a33a0","ios":"levelo://app?vid=6f07a4c6-c9d8-4425-9447-8676203a33a0"},"vehicle_type_id":"4","last_reported":1745839838,"current_range_meters":24000,"station_id":"cpo36qri1sfpv3e86is0","pricing_plan_id":"cebpf4jnsgd1na2vs0mg"},{"bike_id":"c5ec2f16-a0cf-4cce-978b-c5061c81c44a","system_id":"levelo_inurba_marseille","lat":43.22672,"lon":5.34805,"is_reserved":false,"is_disabled":false,"rental_uris":{"android":"levelo://app?vid=c5ec2f16-a0cf-4cce-978b-c5061c81c44a","ios":"levelo://app?vid=c5ec2f16-a0cf-4cce-978b-c5061c81c44a"},"vehicle_type_id":"4","last_reported":1745839838,"current_range_meters":24400,"station_id":"","pricing_plan_id":"cebpf4jnsgd1na2vs0mg"},{"bike_id":"e03d6fcc-1288-420c-aa29-f3086e6b5226","system_id":"levelo_inurba_marseille","lat":43.2927,"lon":5.37632,"is_reserved":false,"is_disabled":false,"rental_uris":{"android":"levelo://app?vid=e03d6fcc-1288-420c-aa29-f3086e6b5226","ios":"levelo://app?vid=e03d6fcc-1288-420c-aa29-f3086e6b5226"},"vehicle_type_id":"4","last_reported":1745839838,"current_range_meters":24400,"station_id":"ce4bgi12rcd13ifvqb80","pricing_plan_id":"cebpf4jnsgd1na2vs0mg"},{"bike_id":"d36e7e81-843f-4cf7-8c6b-43702c1d8eb8","system_id":"levelo_inurba_marseille","lat":43.30288,"lon":5.37699,"is_reserved":false,"is_disabled":false,"rental_uris":{"android":"levelo://app?vid=d36e7e81-843f-4cf7-8c6b-43702c1d8eb8","ios":"levelo://app?vid=d36e7e81-843f-4cf7-8c6b-43702c1d8eb8"},"vehicle_type_id":"4","last_reported":1745839838,"current_range_meters":24400,"station_id":"ce4bguh2rcd13ifvqcj0","pricing_plan_id":"cebpf4jnsgd1na2vs0mg"},{"bike_id":"d3a81df6-f5c5-4d70-a1f9-25975a2ac04f","system_id":"levelo_inurba_marseille","lat":43.26957,"lon":5.38636,"is_reserved":false,"is_disabled":false,"rental_uris":{"android":"levelo://app?vid=d3a81df6-f5c5-4d70-a1f9-25975a2ac04f","ios":"levelo://app?vid=d3a81df6-f5c5-4d70-a1f9-25975a2ac04f"},"vehicle_type_id":"4","last_reported":1745839838,"current_range_meters":24400,"station_id":"ce4bhh92rcd13ifvqfh0","pricing_plan_id":"cebpf4jnsgd1na2vs0mg"},{"bike_id":"5ab314fd-9cc2-4919-af55-d9e7d339e51f","system_id":"levelo_inurba_marseille","lat":43.259397,"lon":5.409007,"is_reserved":false,"is_disabled":false,"rental_uris":{"android":"levelo://app?vid=5ab314fd-9cc2-4919-af55-d9e7d339e51f","ios":"levelo://app?vid=5ab314fd-9cc2-4919-af55-d9e7d339e51f"},"vehicle_type_id":"4","last_reported":1745839838,"current_range_meters":24400,"station_id":"ce4bhm92rcd13ifvqglg","pricing_plan_id":"cebpf4jnsgd1na2vs0mg"},{"bike_id":"9eb85a53-c55c-460b-93df-91d80e7bfcef","system_id":"levelo_inurba_marseille","lat":43.32482,"lon":5.36565,"is_reserved":false,"is_disabled":false,"rental_uris":{"android":"levelo://app?vid=9eb85a53-c55c-460b-93df-91d80e7bfcef","ios":"levelo://app?vid=9eb85a53-c55c-460b-93df-91d80e7bfcef"},"vehicle_type_id":"4","last_reported":1745839838,"current_range_meters":24400,"station_id":"ce4bhs12rcd13ifvqhvg","pricing_plan_id":"cebpf4jnsgd1na2vs0mg"},{"bike_id":"88f6416c-a8cf-48b6-bb44-3988c8b89e2f","system_id":"levelo_inurba_marseille","lat":43.24177,"lon":5.36395,"is_reserved":false,"is_disabled":false,"rental_uris":{"android":"levelo://app?vid=88f6416c-a8cf-48b6-bb44-3988c8b89e2f","ios":"levelo://app?vid=88f6416c-a8cf-48b6-bb44-3988c8b89e2f"},"vehicle_type_id":"4","last_reported":1745839838,"current_range_meters":24400,"station_id":"cpo36qri1sfpv3e86is0","pricing_plan_id":"cebpf4jnsgd1na2vs0mg"},{"bike_id":"0b22c661-a62b-48c0-8426-0680d8fb5792","system_id":"levelo_inurba_marseille","lat":43.28688,"lon":5.36365,"is_reserved":false,"is_disabled":false,"rental_uris":{"android":"levelo://app?vid=0b22c661-a62b-48c0-8426-0680d8fb5792","ios":"levelo://app?vid=0b22c661-a62b-48c0-8426-0680d8fb5792"},"vehicle_type_id":"4","last_reported":1745839838,"current_range_meters":24800,"station_id":"ce4bhah2rcd13ifvqej0","pricing_plan_id":"cebpf4jnsgd1na2vs0mg"},{"bike_id":"7290ac3e-40cc-47ae-86c0-94a6a57901e2","system_id":"levelo_inurba_marseille","lat":43.28665,"lon":5.36352,"is_reserved":false,"is_disabled":false,"rental_uris":{"android":"levelo://app?vid=7290ac3e-40cc-47ae-86c0-94a6a57901e2","ios":"levelo://app?vid=7290ac3e-40cc-47ae-86c0-94a6a57901e2"},"vehicle_type_id":"4","last_reported":1745839838,"current_range_meters":24800,"station_id":"ce4bhah2rcd13ifvqej0","pricing_plan_id":"cebpf4jnsgd1na2vs0mg"},{"bike_id":"a2564fbb-d152-4021-b2d3-d84d166b4195","system_id":"levelo_inurba_marseille","lat":43.28946,"lon":5.36393,"is_reserved":false,"is_disabled":false,"rental_uris":{"android":"levelo://app?vid=a2564fbb-d152-4021-b2d3-d84d166b4195","ios":"levelo://app?vid=a2564fbb-d152-4021-b2d3-d84d166b4195"},"vehicle_type_id":"4","last_reported":1745839838,"current_range_meters":24800,"station_id":"ce4bhc92rcd13ifvqetg","pricing_plan_id":"cebpf4jnsgd1na2vs0mg"},{"bike_id":"dc28fc6e-d680-4477-bbc1-f4611ff292f9","system_id":"levelo_inurba_marseille","lat":43.2465,"lon":5.38177,"is_reserved":false,"is_disabled":false,"rental_uris":{"android":"levelo://app?vid=dc28fc6e-d680-4477-bbc1-f4611ff292f9","ios":"levelo://app?vid=dc28fc6e-d680-4477-bbc1-f4611ff292f9"},"vehicle_type_id":"4","last_reported":1745839838,"current_range_meters":24800,"station_id":"ce4bhih2rcd13ifvqfr0","pricing_plan_id":"cebpf4jnsgd1na2vs0mg"},{"bike_id":"02933c60-05dc-46dd-a64e-81739dd7df4c","system_id":"levelo_inurba_marseille","lat":43.25572,"lon":5.38258,"is_reserved":false,"is_disabled":false,"rental_uris":{"android":"levelo://app?vid=02933c60-05dc-46dd-a64e-81739dd7df4c","ios":"levelo://app?vid=02933c60-05dc-46dd-a64e-81739dd7df4c"},"vehicle_type_id":"4","last_reported":1745839838,"current_range_meters":24800,"station_id":"ce4bhih2rcd13ifvqfs0","pricing_plan_id":"cebpf4jnsgd1na2vs0mg"},{"bike_id":"238736f0-9129-4d69-83b6-e2934db15c83","system_id":"levelo_inurba_marseille","lat":43.27497,"lon":5.424518,"is_reserved":false,"is_disabled":false,"rental_uris":{"android":"levelo://app?vid=238736f0-9129-4d69-83b6-e2934db15c83","ios":"levelo://app?vid=238736f0-9129-4d69-83b6-e2934db15c83"},"vehicle_type_id":"4","last_reported":1745839838,"current_range_meters":24800,"station_id":"ce4bhn92rcd13ifvqgrg","pricing_plan_id":"cebpf4jnsgd1na2vs0mg"},{"bike_id":"4a76c0cc-be34-437a-82da-9bf8a55e7542","system_id":"levelo_inurba_marseille","lat":43.24074,"lon":5.37758,"is_reserved":false,"is_disabled":false,"rental_uris":{"android":"levelo://app?vid=4a76c0cc-be34-437a-82da-9bf8a55e7542","ios":"levelo://app?vid=4a76c0cc-be34-437a-82da-9bf8a55e7542"},"vehicle_type_id":"4","last_reported":1745839838,"current_range_meters":24800,"station_id":"ce4bhnp2rcd13ifvqgvg","pricing_plan_id":"cebpf4jnsgd1na2vs0mg"},{"bike_id":"90ba42c0-3df3-4ede-ad71-97c50d51f22c","system_id":"levelo_inurba_marseille","lat":43.27942,"lon":5.41047,"is_reserved":false,"is_disabled":false,"rental_uris":{"android":"levelo://app?vid=90ba42c0-3df3-4ede-ad71-97c50d51f22c","ios":"levelo://app?vid=90ba42c0-3df3-4ede-ad71-97c50d51f22c"},"vehicle_type_id":"4","last_reported":1745839838,"current_range_meters":24800,"station_id":"ce4bhnp2rcd13ifvqh0g","pricing_plan_id":"cebpf4jnsgd1na2vs0mg"},{"bike_id":"255da1fb-f550-40da-bb9f-3b38bad99a9c","system_id":"levelo_inurba_marseille","lat":43.299,"lon":5.43668,"is_reserved":false,"is_disabled":false,"rental_uris":{"android":"levelo://app?vid=255da1fb-f550-40da-bb9f-3b38bad99a9c","ios":"levelo://app?vid=255da1fb-f550-40da-bb9f-3b38bad99a9c"},