{"last_updated":1725210426,"ttl":30,"version":"2.2","data":{"bikes":[{"bike_id":"78ea9b96-5ae4-45c1-99c3-eba7d9427c2b","system_id":"levelo_inurba_marseille","lat":43.31357,"lon":5.3672,"is_reserved":false,"is_disabled":false,"rental_uris":{"android":"levelo://app?vid=78ea9b96-5ae4-45c1-99c3-eba7d9427c2b","ios":"levelo://app?vid=78ea9b96-5ae4-45c1-99c3-eba7d9427c2b"},"vehicle_type_id":"4","last_reported":1725210426,"current_range_meters":0,"station_id":"ce4bgr92rcd13ifvqc6g","pricing_plan_id":"cebpf4jnsgd1na2vs0mg"},{"bike_id":"3c84a8e3-9707-476e-9dac-fd091bbdaf4d","system_id":"levelo_inurba_marseille","lat":43.312246,"lon":5.368519,"is_reserved":false,"is_disabled":false,"rental_uris":{"android":"levelo://app?vid=3c84a8e3-9707-476e-9dac-fd091bbdaf4d","ios":"levelo://app?vid=3c84a8e3-9707-476e-9dac-fd091bbdaf4d"},"vehicle_type_id":"4","last_reported":1725210426,"current_range_meters":0,"station_id":"ce4bgl92rcd13ifvqbq0","pricing_plan_id":"cebpf4jnsgd1na2vs0mg"},{"bike_id":"bf0eb825-9e5a-4925-900c-93094593d04a","system_id":"levelo_inurba_marseille","lat":43.312239,"lon":5.368562,"is_reserved":false,"is_disabled":false,"rental_uris":{"android":"levelo://app?vid=bf0eb825-9e5a-4925-900c-93094593d04a","ios":"levelo://app?vid=bf0eb825-9e5a-4925-900c-93094593d04a"},"vehicle_type_id":"4","last_reported":1725210426,"current_range_meters":0,"station_id":"ce4bgl92rcd13ifvqbq0","pricing_plan_id":"cebpf4jnsgd1na2vs0mg"},{"bike_id":"548b7929-f160-48ec-8af5-24a2bf454bc7","system_id":"levelo_inurba_marseille","lat":43.309076,"lon":5.368465,"is_reserved":false,"is_disabled":false,"rental_uris":{"android":"levelo://app?vid=548b7929-f160-48ec-8af5-24a2bf454bc7","ios":"levelo://app?vid=548b7929-f160-48ec-8af5-24a2bf454bc7"},"vehicle_type_id":"4","last_reported":1725210426,"current_range_meters":16400,"station_id":"ce4bgn92rcd13ifvqbvg","pricing_plan_id":"cebpf4jnsgd1na2vs0mg"},{"bike_id":"ca0c1cf1-75a9-4f2e-b7e3-0c060b86e341","system_id":"levelo_inurba_marseille","lat":43.314811,"lon":5.373103,"is_reserved":false,"is_disabled":false,"rental_uris":{"android":"levelo://app?vid=ca0c1cf1-75a9-4f2e-b7e3-0c060b86e341","ios":"levelo://app?vid=ca0c1cf1-75a9-4f2e-b7e3-0c060b86e341"},"vehicle_type_id":"4","last_reported":1725210426,"current_range_meters":0,"station_id":"ce4bgt12rcd13ifvqcd0","pricing_plan_id":"cebpf4jnsgd1na2vs0mg"},{"bike_id":"c1a19f54-2845-478f-99f5-97a6fd9b26bd","system_id":"levelo_inurba_marseille","lat":43.314811,"lon":5.373103,"is_reserved":false,"is_disabled":false,"rental_uris":{"android":"levelo://app?vid=c1a19f54-2845-478f-99f5-97a6fd9b26bd","ios":"levelo://app?vid=c1a19f54-2845-478f-99f5-97a6fd9b26bd"},"vehicle_type_id":"4","last_reported":1725210426,"current_range_meters":25600,"station_id":"ce4bgt12rcd13ifvqcd0","pricing_plan_id":"cebpf4jnsgd1na2vs0mg"},{"bike_id":"9aaab02c-88bb-4275-a750-c7db5ddd638c","system_id":"levelo_inurba_marseille","lat":43.31486,"lon":5.3731,"is_reserved":false,"is_disabled":false,"rental_uris":{"android":"levelo://app?vid=9aaab02c-88bb-4275-a750-c7db5ddd638c","ios":"levelo://app?vid=9aaab02c-88bb-4275-a750-c7db5ddd638c"},"vehicle_type_id":"4","last_reported":1725210426,"current_range_meters":0,"station_id":"ce4bgt12rcd13ifvqcd0","pricing_plan_id":"cebpf4jnsgd1na2vs0mg"},{"bike_id":"b5314e3d-cdad-4e38-b06c-b90bdb3666e6","system_id":"levelo_inurba_marseille","lat":43.314811,"lon":5.373103,"is_reserved":false,"is_disabled":false,"rental_uris":{"android":"levelo://app?vid=b5314e3d-cdad-4e38-b06c-b90bdb3666e6","ios":"levelo://app?vid=b5314e3d-cdad-4e38-b06c-b90bdb3666e6"},"vehicle_type_id":"4","last_reported":1725210426,"current_range_meters":1200,"station_id":"ce4bgt12rcd13ifvqcd0","pricing_plan_id":"cebpf4jnsgd1na2vs0mg"},{"bike_id":"13d7ea09-d274-4948-b6f5-da6696728da0","system_id":"levelo_inurba_marseille","lat":43.309034,"lon":5.371783,"is_reserved":false,"is_disabled":false,"rental_uris":{"android":"levelo://app?vid=13d7ea09-d274-4948-b6f5-da6696728da0","ios":"levelo://app?vid=13d7ea09-d274-4948-b6f5-da6696728da0"},"vehicle_type_id":"4","last_reported":1725210426,"current_range_meters":14000,"station_id":"ce4bguh2rcd13ifvqckg","pricing_plan_id":"cebpf4jnsgd1na2vs0mg"},{"bike_id":"b16b0b99-6831-4427-b201-45fcf48dd458","system_id":"levelo_inurba_marseille","lat":43.309039,"lon":5.371797,"is_reserved":false,"is_disabled":false,"rental_uris":{"android":"levelo://app?vid=b16b0b99-6831-4427-b201-45fcf48dd458","ios":"levelo://app?vid=b16b0b99-6831-4427-b201-45fcf48dd458"},"vehicle_type_id":"4","last_reported":1725210426,"current_range_meters":12000,"station_id":"ce4bguh2rcd13ifvqckg","pricing_plan_id":"cebpf4jnsgd1na2vs0mg"},{"bike_id":"dcc202b0-1fb9-4e77-b9b4-06bc29a7146b","system_id":"levelo_inurba_marseille","lat":43.312239,"lon":5.368562,"is_reserved":false,"is_disabled":false,"rental_uris":{"android":"levelo://app?vid=dcc202b0-1fb9-4e77-b9b4-06bc29a7146b","ios":"levelo://app?vid=dcc202b0-1fb9-4e77-b9b4-06bc29a7146b"},"vehicle_type_id":"4","last_reported":1725210426,"current_range_meters":25200,"station_id":"ce4bgl92rcd13ifvqbq0","pricing_plan_id":"cebpf4jnsgd1na2vs0mg"},{"bike_id":"d9050b05-c852-4191-b626-fd3ea1a7c028","system_id":"levelo_inurba_marseille","lat":43.30818,"lon":5.373387,"is_reserved":false,"is_disabled":false,"rental_uris":{"android":"levelo://app?vid=d9050b05-c852-4191-b626-fd3ea1a7c028","ios":"levelo://app?vid=d9050b05-c852-4191-b626-fd3ea1a7c028"},"vehicle_type_id":"4","last_reported":1725210426,"current_range_meters":0,"station_id":"","pricing_plan_id":"cebpf4jnsgd1na2vs0mg"},{"bike_id":"aa038c47-f36e-4e1c-9dcb-cd3e2085bfe1","system_id":"levelo_inurba_marseille","lat":43.311845,"lon":5.377173,"is_reserved":false,"is_disabled":false,"rental_uris":{"android":"levelo://app?vid=aa038c47-f36e-4e1c-9dcb-cd3e2085bfe1","ios":"levelo://app?vid=aa038c47-f36e-4e1c-9dcb-cd3e2085bfe1"},"vehicle_type_id":"4","last_reported":1725210426,"current_range_meters":26400,"station_id":"","pricing_plan_id":"cebpf4jnsgd1na2vs0mg"},{"bike_id":"f7555876-e76c-4836-b54f-b25354cae460","system_id":"levelo_inurba_marseille","lat":43.305989,"lon":5.37225,"is_reserved":false,"is_disabled":false,"rental_uris":{"android":"levelo://app?vid=f7555876-e76c-4836-b54f-b25354cae460","ios":"levelo://app?vid=f7555876-e76c-4836-b54f-b25354cae460"},"vehicle_type_id":"4","last_reported":1725210426,"current_range_meters":3600,"station_id":"ce4bgqh2rcd13ifvqc4g","pricing_plan_id":"cebpf4jnsgd1na2vs0mg"},{"bike_id":"e4ec6eff-f11c-47c4-b3df-d594d7ace924","system_id":"levelo_inurba_marseille","lat":43.305989,"lon":5.37225,"is_reserved":false,"is_disabled":false,"rental_uris":{"android":"levelo://app?vid=e4ec6eff-f11c-47c4-b3df-d594d7ace924","ios":"levelo://app?vid=e4ec6eff-f11c-47c4-b3df-d594d7ace924"},"vehicle_type_id":"4","last_reported":1725210426,"current_range_meters":30000,"station_id":"ce4bgqh2rcd13ifvqc4g","pricing_plan_id":"cebpf4jnsgd1na2vs0mg"},{"bike_id":"76233af6-e182-44b3-b92a-2919a0d517da","system_id":"levelo_inurba_marseille","lat":43.31914,"lon":5.37307,"is_reserved":false,"is_disabled":false,"rental_uris":{"android":"levelo://app?vid=76233af6-e182-44b3-b92a-2919a0d517da","ios":"levelo://app?vid=76233af6-e182-44b3-b92a-2919a0d517da"},"vehicle_type_id":"4","last_reported":1725210426,"current_range_meters":7600,"station_id":"","pricing_plan_id":"cebpf4jnsgd1na2vs0mg"},{"bike_id":"cdc3342a-11fe-4012-9342-cac292dd385e","system_id":"levelo_inurba_marseille","lat":43.305989,"lon":5.37225,"is_reserved":false,"is_disabled":false,"rental_uris":{"android":"levelo://app?vid=cdc3342a-11fe-4012-9342-cac292dd385e","ios":"levelo://app?vid=cdc3342a-11fe-4012-9342-cac292dd385e"},"vehicle_type_id":"4","last_reported":1725210426,"current_range_meters":4000,"station_id":"ce4bgqh2rcd13ifvqc4g","pricing_plan_id":"cebpf4jnsgd1na2vs0mg"},{"bike_id":"bbcafd9b-6726-416a-af3a-e4f559e1af64","system_id":"levelo_inurba_marseille","lat":43.3111,"lon":5.37777,"is_reserved":false,"is_disabled":false,"rental_uris":{"android":"levelo://app?vid=bbcafd9b-6726-416a-af3a-e4f559e1af64","ios":"levelo://app?vid=bbcafd9b-6726-416a-af3a-e4f559e1af64"},"vehicle_type_id":"4","last_reported":1725210426,"current_range_meters":0,"station_id":"ce4bgt92rcd13ifvqcg0","pricing_plan_id":"cebpf4jnsgd1na2vs0mg"},{"bike_id":"245b608b-3ef1-403d-8b72-a0d78470a9ac","system_id":"levelo_inurba_marseille","lat":43.307945,"lon":5.376487,"is_reserved":false,"is_disabled":false,"rental_uris":{"android":"levelo://app?vid=245b608b-3ef1-403d-8b72-a0d78470a9ac","ios":"levelo://app?vid=245b608b-3ef1-403d-8b72-a0d78470a9ac"},"vehicle_type_id":"4","last_reported":1725210426,"current_range_meters":8400,"station_id":"ce4bgv92rcd13ifvqcq0","pricing_plan_id":"cebpf4jnsgd1na2vs0mg"},{"bike_id":"25e1119b-fbcb-4742-93d8-dd88fa1270f3","system_id":"levelo_inurba_marseille","lat":43.307945,"lon":5.376487,"is_reserved":false,"is_disabled":false,"rental_uris":{"android":"levelo://app?vid=25e1119b-fbcb-4742-93d8-dd88fa1270f3","ios":"levelo://app?vid=25e1119b-fbcb-4742-93d8-dd88fa1270f3"},"vehicle_type_id":"4","last_reported":1725210426,"current_range_meters":0,"station_id":"ce4bgv92rcd13ifvqcq0","pricing_plan_id":"cebpf4jnsgd1na2vs0mg"},{"bike_id":"33b11c2b-a9cb-406a-9399-9649c3adf759","system_id":"levelo_inurba_marseille","lat":43.312994,"lon":5.379669,"is_reserved":false,"is_disabled":false,"rental_uris":{"android":"levelo://app?vid=33b11c2b-a9cb-406a-9399-9649c3adf759","ios":"levelo://app?vid=33b11c2b-a9cb-406a-9399-9649c3adf759"},"vehicle_type_id":"4","last_reported":1725210426,"current_range_meters":800,"station_id":"","pricing_plan_id":"cebpf4jnsgd1na2vs0mg"},{"bike_id":"d7067e4c-db75-43a5-a823-b22ae18f0ea8","system_id":"levelo_inurba_marseille","lat":43.31398,"lon":5.38072,"is_reserved":false,"is_disabled":false,"rental_uris":{"android":"levelo://app?vid=d7067e4c-db75-43a5-a823-b22ae18f0ea8","ios":"levelo://app?vid=d7067e4c-db75-43a5-a823-b22ae18f0ea8"},"vehicle_type_id":"4","last_reported":1725210426,"current_range_meters":2000,"station_id":"","pricing_plan_id":"cebpf4jnsgd1na2vs0mg"},{"bike_id":"aaa4d625-1bbf-4b3c-9e16-f9b9d23dc7ad","system_id":"levelo_inurba_marseille","lat":43.310157,"lon":5.380727,"is_reserved":false,"is_disabled":false,"rental_uris":{"android":"levelo://app?vid=aaa4d625-1bbf-4b3c-9e16-f9b9d23dc7ad","ios":"levelo://app?vid=aaa4d625-1bbf-4b3c-9e16-f9b9d23dc7ad"},"vehicle_type_id":"4","last_reported":1725210426,"current_range_meters":5600,"station_id":"","pricing_plan_id":"cebpf4jnsgd1na2vs0mg"},{"bike_id":"3e2fe89f-d367-4b13-8bd5-937f42a60547","system_id":"levelo_inurba_marseille","lat":43.308012,"lon":5.381511,"is_reserved":false,"is_disabled":false,"rental_uris":{"android":"levelo://app?vid=3e2fe89f-d367-4b13-8bd5-937f42a60547","ios":"levelo://app?vid=3e2fe89f-d367-4b13-8bd5-937f42a60547"},"vehicle_type_id":"4","last_reported":1725210426,"current_range_meters":12000,"station_id":"ce4bgt12rcd13ifvqce0","pricing_plan_id":"cebpf4jnsgd1na2vs0mg"},{"bike_id":"a9c55ada-6183-4b84-acb2-99cf633fabe0","system_id":"levelo_inurba_marseille","lat":43.304606,"lon":5.379026,"is_reserved":false,"is_disabled":false,"rental_uris":{"android":"levelo://app?vid=a9c55ada-6183-4b84-acb2-99cf633fabe0","ios":"levelo://app?vid=a9c55ada-6183-4b84-acb2-99cf633fabe0"},"vehicle_type_id":"4","last_reported":1725210426,"current_range_meters":28800,"station_id":"ce4bgup2rcd13ifvqcn0","pricing_plan_id":"cebpf4jnsgd1na2vs0mg"},{"bike_id":"01c46fce-7145-4096-abc7-a00f221a9575","system_id":"levelo_inurba_marseille","lat":43.324771,"lon":5.36557,"is_reserved":false,"is_disabled":false,"rental_uris":{"android":"levelo://app?vid=01c46fce-7145-4096-abc7-a00f221a9575","ios":"levelo://app?vid=01c46fce-7145-4096-abc7-a00f221a9575"},"vehicle_type_id":"4","last_reported":1725210426,"current_range_meters":800,"station_id":"ce4bhs12rcd13ifvqhvg","pricing_plan_id":"cebpf4jnsgd1na2vs0mg"},{"bike_id":"2263e70a-985f-436b-a41f-be8b1dbccae5","system_id":"levelo_inurba_marseille","lat":43.324771,"lon":5.36557,"is_reserved":false,"is_disabled":false,"rental_uris":{"android":"levelo://app?vid=2263e70a-985f-436b-a41f-be8b1dbccae5","ios":"levelo://app?vid=2263e70a-985f-436b-a41f-be8b1dbccae5"},"vehicle_type_id":"4","last_reported":1725210426,"current_range_meters":28800,"station_id":"ce4bhs12rcd13ifvqhvg","pricing_plan_id":"cebpf4jnsgd1na2vs0mg"},{"bike_id":"2b673554-7a0b-4079-a76f-341b000cbbf7","system_id":"levelo_inurba_marseille","lat":43.324771,"lon":5.36557,"is_reserved":false,"is_disabled":false,"rental_uris":{"android":"levelo://app?vid=2b673554-7a0b-4079-a76f-341b000cbbf7","ios":"levelo://app?vid=2b673554-7a0b-4079-a76f-341b000cbbf7"},"vehicle_type_id":"4","last_reported":1725210426,"current_range_meters":12000,"station_id":"ce4bhs12rcd13ifvqhvg","pricing_plan_id":"cebpf4jnsgd1na2vs0mg"},{"bike_id":"6af7f3ef-8723-4ee2-84e1-3701cb7da3d6","system_id":"levelo_inurba_marseille","lat":43.324771,"lon":5.36557,"is_reserved":false,"is_disabled":false,"rental_uris":{"android":"levelo://app?vid=6af7f3ef-8723-4ee2-84e1-3701cb7da3d6","ios":"levelo://app?vid=6af7f3ef-8723-4ee2-84e1-3701cb7da3d6"},"vehicle_type_id":"4","last_reported":1725210426,"current_range_meters":5200,"station_id":"ce4bhs12rcd13ifvqhvg","pricing_plan_id":"cebpf4jnsgd1na2vs0mg"},{"bike_id":"ef16df85-db64-4676-9e98-bd047fd7279b","system_id":"levelo_inurba_marseille","lat":43.324771,"lon":5.36557,"is_reserved":false,"is_disabled":false,"rental_uris":{"android":"levelo://app?vid=ef16df85-db64-4676-9e98-bd047fd7279b","ios":"levelo://app?vid=ef16df85-db64-4676-9e98-bd047fd7279b"},"vehicle_type_id":"4","last_reported":1725210426,"current_range_meters":28400,"station_id":"ce4bhs12rcd13ifvqhvg","pricing_plan_id":"cebpf4jnsgd1na2vs0mg"},{"bike_id":"47d14908-e6d0-47fa-9b88-2c5170cfbeef","system_id":"levelo_inurba_marseille","lat":43.324771,"lon":5.36557,"is_reserved":false,"is_disabled":false,"rental_uris":{"android":"levelo://app?vid=47d14908-e6d0-47fa-9b88-2c5170cfbeef","ios":"levelo://app?vid=47d14908-e6d0-47fa-9b88-2c5170cfbeef"},"vehicle_type_id":"4","last_reported":1725210426,"current_range_meters":0,"station_id":"ce4bhs12rcd13ifvqhvg","pricing_plan_id":"cebpf4jnsgd1na2vs0mg"},{"bike_id":"98c995be-fba5-4dd4-9221-a490caaa1bac","system_id":"levelo_inurba_marseille","lat":43.324771,"lon":5.36557,"is_reserved":false,"is_disabled":false,"rental_uris":{"android":"levelo://app?vid=98c995be-fba5-4dd4-9221-a490caaa1bac","ios":"levelo://app?vid=98c995be-fba5-4dd4-9221-a490caaa1bac"},"vehicle_type_id":"4","last_reported":1725210426,"current_range_meters":19600,"station_id":"ce4bhs12rcd13ifvqhvg","pricing_plan_id":"cebpf4jnsgd1na2vs0mg"},{"bike_id":"9edd8359-dcb5-4c5e-9185-30e2ea5eed40","system_id":"levelo_inurba_marseille","lat":43.324771,"lon":5.36557,"is_reserved":false,"is_disabled":false,"rental_uris":{"android":"levelo://app?vid=9edd8359-dcb5-4c5e-9185-30e2ea5eed40","ios":"levelo://app?vid=9edd8359-dcb5-4c5e-9185-30e2ea5eed40"},"vehicle_type_id":"4","last_reported":1725210426,"current_range_meters":31600,"station_id":"ce4bhs12rcd13ifvqhvg","pricing_plan_id":"cebpf4jnsgd1na2vs0mg"},{"bike_id":"f475aa61-8110-4c1d-b6a7-55b758572a78","system_id":"levelo_inurba_marseille","lat":43.324771,"lon":5.36557,"is_reserved":false,"is_disabled":false,"rental_uris":{"android":"levelo://app?vid=f475aa61-8110-4c1d-b6a7-55b758572a78","ios":"levelo://app?vid=f475aa61-8110-4c1d-b6a7-55b758572a78"},"vehicle_type_id":"4","last_reported":1725210426,"current_range_meters":30400,"station_id":"ce4bhs12rcd13ifvqhvg","pricing_plan_id":"cebpf4jnsgd1na2vs0mg"},{"bike_id":"6143079b-afea-4d43-aafe-e1ab1f1f90b6","system_id":"levelo_inurba_marseille","lat":43.324771,"lon":5.36557,"is_reserved":false,"is_disabled":false,"rental_uris":{"android":"levelo://app?vid=6143079b-afea-4d43-aafe-e1ab1f1f90b6","ios":"levelo://app?vid=6143079b-afea-4d43-aafe-e1ab1f1f90b6"},"vehicle_type_id":"4","last_reported":1725210426,"current_range_meters":31200,"station_id":"ce4bhs12rcd13ifvqhvg","pricing_plan_id":"cebpf4jnsgd1na2vs0mg"},{"bike_id":"0480a5f6-bb5a-4956-9b5d-9f74f7fcf669","system_id":"levelo_inurba_marseille","lat":43.324771,"lon":5.36557,"is_reserved":false,"is_disabled":false,"rental_uris":{"android":"levelo://app?vid=0480a5f6-bb5a-4956-9b5d-9f74f7fcf669","ios":"levelo://app?vid=0480a5f6-bb5a-4956-9b5d-9f74f7fcf669"},"vehicle_type_id":"4","last_reported":1725210426,"current_range_meters":31600,"station_id":"ce4bhs12rcd13ifvqhvg","pricing_plan_id":"cebpf4jnsgd1na2vs0mg"},{"bike_id":"8cea9de4-bb78-4538-aa86-d4b05c33d747","system_id":"levelo_inurba_marseille","lat":43.324771,"lon":5.36557,"is_reserved":false,"is_disabled":false,"rental_uris":{"android":"levelo://app?vid=8cea9de4-bb78-4538-aa86-d4b05c33d747","ios":"levelo://app?vid=8cea9de4-bb78-4538-aa86-d4b05c33d747"},"vehicle_type_id":"4","last_reported":1725210426,"current_range_meters":31600,"station_id":"ce4bhs12rcd13ifvqhvg","pricing_plan_id":"cebpf4jnsgd1na2vs0mg"},{"bike_id":"eb4f3d14-ecaa-49d7-ba37-0823a600aced","system_id":"levelo_inurba_marseille","lat":43.310804,"lon":5.38359,"is_reserved":false,"is_disabled":false,"rental_uris":{"android":"levelo://app?vid=eb4f3d14-ecaa-49d7-ba37-0823a600aced","ios":"levelo://app?vid=eb4f3d14-ecaa-49d7-ba37-0823a600aced"},"vehicle_type_id":"4","last_reported":1725210426,"current_range_meters":22000,"station_id":"ce4bgv92rcd13ifvqcr0","pricing_plan_id":"cebpf4jnsgd1na2vs0mg"},{"bike_id":"96775f6a-41eb-4054-8bb3-f716843faeb7","system_id":"levelo_inurba_marseille","lat":43.31071,"lon":5.38369,"is_reserved":false,"is_disabled":false,"rental_uris":{"android":"levelo://app?vid=96775f6a-41eb-4054-8bb3-f716843faeb7","ios":"levelo://app?vid=96775f6a-41eb-4054-8bb3-f716843faeb7"},"vehicle_type_id":"4","last_reported":1725210426,"current_range_meters":0,"station_id":"ce4bgv92rcd13ifvqcr0","pricing_plan_id":"cebpf4jnsgd1na2vs0mg"},{"bike_id":"a0078c13-244c-49ee-91ac-b83b9097667a","system_id":"levelo_inurba_marseille","lat":43.302784,"lon":5.377158,"is_reserved":false,"is_disabled":false,"rental_uris":{"android":"levelo://app?vid=a0078c13-244c-49ee-91ac-b83b9097667a","ios":"levelo://app?vid=a0078c13-244c-49ee-91ac-b83b9097667a"},"vehicle_type_id":"4","last_reported":1725210426,"current_range_meters":400,"station_id":"ce4bguh2rcd13ifvqcj0","pricing_plan_id":"cebpf4jnsgd1na2vs0mg"},{"bike_id":"9140c9e5-22ae-46d3-b355-95c2fe9be4d8","system_id":"levelo_inurba_marseille","lat":43.30143,"lon":5.37413,"is_reserved":false,"is_disabled":false,"rental_uris":{"android":"levelo://app?vid=9140c9e5-22ae-46d3-b355-95c2fe9be4d8","ios":"levelo://app?vid=9140c9e5-22ae-46d3-b355-95c2fe9be4d8"},"vehicle_type_id":"4","last_reported":1725210426,"current_range_meters":15200,"station_id":"ce4bgs92rcd13ifvqcc0","pricing_plan_id":"cebpf4jnsgd1na2vs0mg"},{"bike_id":"b1215516-0de0-47bc-bda3-e7bacbff6736","system_id":"levelo_inurba_marseille","lat":43.32043,"lon":5.38054,"is_reserved":false,"is_disabled":false,"rental_uris":{"android":"levelo://app?vid=b1215516-0de0-47bc-bda3-e7bacbff6736","ios":"levelo://app?vid=b1215516-0de0-47bc-bda3-e7bacbff6736"},"vehicle_type_id":"4","last_reported":1725210426,"current_range_meters":6800,"station_id":"","pricing_plan_id":"cebpf4jnsgd1na2vs0mg"},{"bike_id":"4258d75b-f7e4-4456-acc4-541316166037","system_id":"levelo_inurba_marseille","lat":43.31981,"lon":5.38147,"is_reserved":false,"is_disabled":false,"rental_uris":{"android":"levelo://app?vid=4258d75b-f7e4-4456-acc4-541316166037","ios":"levelo://app?vid=4258d75b-f7e4-4456-acc4-541316166037"},"vehicle_type_id":"4","last_reported":1725210426,"current_range_meters":29600,"station_id":"ce4bhr12rcd13ifvqhpg","pricing_plan_id":"cebpf4jnsgd1na2vs0mg"},{"bike_id":"6aab184f-46eb-486f-9c58-65373e7311db","system_id":"levelo_inurba_marseille","lat":43.31987,"lon":5.38143,"is_reserved":false,"is_disabled":false,"rental_uris":{"android":"levelo://app?vid=6aab184f-46eb-486f-9c58-65373e7311db","ios":"levelo://app?vid=6aab184f-46eb-486f-9c58-65373e7311db"},"vehicle_type_id":"4","last_reported":1725210426,"current_range_meters":8000,"station_id":"ce4bhr12rcd13ifvqhpg","pricing_plan_id":"cebpf4jnsgd1na2vs0mg"},{"bike_id":"80f56325-338d-4d14-b649-539b8cb47880","system_id":"levelo_inurba_marseille","lat":43.319935,"lon":5.381699,"is_reserved":false,"is_disabled":false,"rental_uris":{"android":"levelo://app?vid=80f56325-338d-4d14-b649-539b8cb47880","ios":"levelo://app?vid=80f56325-338d-4d14-b649-539b8cb47880"},"vehicle_type_id":"4","last_reported":1725210426,"current_range_meters":18800,"station_id":"ce4bhr12rcd13ifvqhpg","pricing_plan_id":"cebpf4jnsgd1na2vs0mg"},{"bike_id":"5d9a8953-42c6-487c-8310-a7cfa868c193","system_id":"levelo_inurba_marseille","lat":43.31991,"lon":5.38162,"is_reserved":false,"is_disabled":false,"rental_uris":{"android":"levelo://app?vid=5d9a8953-42c6-487c-8310-a7cfa868c193","ios":"levelo://app?vid=5d9a8953-42c6-487c-8310-a7cfa868c193"},"vehicle_type_id":"4","last_reported":1725210426,"current_range_meters":18000,"station_id":"ce4bhr12rcd13ifvqhpg","pricing_plan_id":"cebpf4jnsgd1na2vs0mg"},{"bike_id":"b26903cb-2e97-4306-870a-f6952ffe8e64","system_id":"levelo_inurba_marseille","lat":43.319935,"lon":5.381699,"is_reserved":false,"is_disabled":false,"rental_uris":{"android":"levelo://app?vid=b26903cb-2e97-4306-870a-f6952ffe8e64","ios":"levelo://app?vid=b26903cb-2e97-4306-870a-f6952ffe8e64"},"vehicle_type_id":"4","last_reported":1725210426,"current_range_meters":31600,"station_id":"ce4bhr12rcd13ifvqhpg","pricing_plan_id":"cebpf4jnsgd1na2vs0mg"},{"bike_id":"ec5f9a88-4c88-44ad-983b-5b917bbfbf9f","system_id":"levelo_inurba_marseille","lat":43.313571,"lon":5.384829,"is_reserved":false,"is_disabled":false,"rental_uris":{"android":"levelo://app?vid=ec5f9a88-4c88-44ad-983b-5b917bbfbf9f","ios":"levelo://app?vid=ec5f9a88-4c88-44ad-983b-5b917bbfbf9f"},"vehicle_type_id":"4","last_reported":1725210426,"current_range_meters":800,"station_id":"ce4bgt92rcd13ifvqcf0","pricing_plan_id":"cebpf4jnsgd1na2vs0mg"},{"bike_id":"37652921-c158-4ed2-8094-7e68a636dd4d","system_id":"levelo_inurba_marseille","lat":43.313571,"lon":5.384829,"is_reserved":false,"is_disabled":false,"rental_uris":{"android":"levelo://app?vid=37652921-c158-4ed2-8094-7e68a636dd4d","ios":"levelo://app?vid=37652921-c158-4ed2-8094-7e68a636dd4d"},"vehicle_type_id":"4","last_reported":1725210426,"current_range_meters":14800,"station_id":"ce4bgt92rcd13ifvqcf0","pricing_plan_id":"cebpf4jnsgd1na2vs0mg"},{"bike_id":"4bce308b-78ae-478b-86fb-c6cbaca8ca14","system_id":"levelo_inurba_marseille","lat":43.313571,"lon":5.384829,"is_reserved":false,"is_disabled":false,"rental_uris":{"android":"levelo://app?vid=4bce308b-78ae-478b-86fb-c6cbaca8ca14","ios":"levelo://app?vid=4bce308b-78ae-478b-86fb-c6cbaca8ca14"},"vehicle_type_id":"4","last_reported":1725210426,"current_range_meters":21600,"station_id":"ce4bgt92rcd13ifvqcf0","pricing_plan_id":"cebpf4jnsgd1na2vs0mg"},{"bike_id":"64818832-e174-439d-bae1-d02ecad192f3","system_id":"levelo_inurba_marseille","lat":43.313571,"lon":5.384829,"is_reserved":false,"is_disabled":false,"rental_uris":{"android":"levelo://app?vid=64818832-e174-439d-bae1-d02ecad192f3","ios":"levelo://app?vid=64818832-e174-439d-bae1-d02ecad192f3"},"vehicle_type_id":"4","last_reported":1725210426,"current_range_meters":0,"station_id":"ce4bgt92rcd13ifvqcf0","pricing_plan_id":"cebpf4jnsgd1na2vs0mg"},{"bike_id":"6393404e-75ee-4a89-86a4-da59ff43e8e4","system_id":"levelo_inurba_marseille","lat":43.29942,"lon":5.36551,"is_reserved":false,"is_disabled":false,"rental_uris":{"android":"levelo://app?vid=6393404e-75ee-4a89-86a4-da59ff43e8e4","ios":"levelo://app?vid=6393404e-75ee-4a89-86a4-da59ff43e8e4"},"vehicle_type_id":"4","last_reported":1725210426,"current_range_meters":31200,"station_id":"ce4bgm92rcd13ifvqbr0","pricing_plan_id":"cebpf4jnsgd1na2vs0mg"},{"bike_id":"4acb841d-63f1-44d6-bbe6-d9abc23fe7fb","system_id":"levelo_inurba_marseille","lat":43.299222,"lon":5.365554,"is_reserved":false,"is_disabled":false,"rental_uris":{"android":"levelo://app?vid=4acb841d-63f1-44d6-bbe6-d9abc23fe7fb","ios":"levelo://app?vid=4acb841d-63f1-44d6-bbe6-d9abc23fe7fb"},"vehicle_type_id":"4","last_reported":1725210426,"current_range_meters":31200,"station_id":"ce4bgm92rcd13ifvqbr0","pricing_plan_id":"cebpf4jnsgd1na2vs0mg"},{"bike_id":"d1757262-0e76-45ae-a884-2ac99136b759","system_id":"levelo_inurba_marseille","lat":43.299222,"lon":5.365554,"is_reserved":false,"is_disabled":false,"rental_uris":{"android":"levelo://app?vid=d1757262-0e76-45ae-a884-2ac99136b759","ios":"levelo://app?vid=d1757262-0e76-45ae-a884-2ac99136b759"},"vehicle_type_id":"4","last_reported":1725210426,"current_range_meters":18400,"station_id":"ce4bgm92rcd13ifvqbr0","pricing_plan_id":"cebpf4jnsgd1na2vs0mg"},{"bike_id":"f36c1514-be0f-4c9e-b024-86aee197dfc5","system_id":"levelo_inurba_marseille","lat":43.299724,"lon":5.371829,"is_reserved":false,"is_disabled":false,"rental_uris":{"android":"levelo://app?vid=f36c1514-be0f-4c9e-b024-86aee197dfc5","ios":"levelo://app?vid=f36c1514-be0f-4c9e-b024-86aee197dfc5"},"vehicle_type_id":"4","last_reported":1725210426,"current_range_meters":27200,"station_id":"ce4bgr92rcd13ifvqc7g","pricing_plan_id":"cebpf4jnsgd1na2vs0mg"},{"bike_id":"b1bdeeda-17a1-47f0-a1f3-d320631a09e2","system_id":"levelo_inurba_marseille","lat":43.299724,"lon":5.371829,"is_reserved":false,"is_disabled":false,"rental_uris":{"android":"levelo://app?vid=b1bdeeda-17a1-47f0-a1f3-d320631a09e2","ios":"levelo://app?vid=b1bdeeda-17a1-47f0-a1f3-d320631a09e2"},"vehicle_type_id":"4","last_reported":1725210426,"current_range_meters":24800,"station_id":"ce4bgr92rcd13ifvqc7g","pricing_plan_id":"cebpf4jnsgd1na2vs0mg"},{"bike_id":"5dcfd80b-026e-4ae4-ac7e-127e972d14da","system_id":"levelo_inurba_marseille","lat":43.305364,"lon":5.384119,"is_reserved":false,"is_disabled":false,"rental_uris":{"android":"levelo://app?vid=5dcfd80b-026e-4ae4-ac7e-127e972d14da","ios":"levelo://app?vid=5dcfd80b-026e-4ae4-ac7e-127e972d14da"},"vehicle_type_id":"4","last_reported":1725210426,"current_range_meters":3600,"station_id":"ce4bgg92rcd13ifvqb30","pricing_plan_id":"cebpf4jnsgd1na2vs0mg"},{"bike_id":"46073a5a-650a-4824-89b2-3370e694e76d","system_id":"levelo_inurba_marseille","lat":43.29841,"lon":5.36281,"is_reserved":false,"is_disabled":false,"rental_uris":{"android":"levelo://app?vid=46073a5a-650a-4824-89b2-3370e694e76d","ios":"levelo://app?vid=46073a5a-650a-4824-89b2-3370e694e76d"},"vehicle_type_id":"4","last_reported":1725210426,"current_range_meters":31200,"station_id":"ce4bgpp2rcd13ifvqc3g","pricing_plan_id":"cebpf4jnsgd1na2vs0mg"},{"bike_id":"7227de42-f794-4f68-a81f-d5629dfc5839","system_id":"levelo_inurba_marseille","lat":43.305364,"lon":5.384119,"is_reserved":false,"is_disabled":false,"rental_uris":{"android":"levelo://app?vid=7227de42-f794-4f68-a81f-d5629dfc5839","ios":"levelo://app?vid=7227de42-f794-4f68-a81f-d5629dfc5839"},"vehicle_type_id":"4","last_reported":1725210426,"current_range_meters":0,"station_id":"ce4bgg92rcd13ifvqb30","pricing_plan_id":"cebpf4jnsgd1na2vs0mg"},{"bike_id":"8c441fa6-0cd7-4829-b788-1eac29ce30c7","system_id":"levelo_inurba_marseille","lat":43.298433,"lon":5.362774,"is_reserved":false,"is_disabled":false,"rental_uris":{"android":"levelo://app?vid=8c441fa6-0cd7-4829-b788-1eac29ce30c7","ios":"levelo://app?vid=8c441fa6-0cd7-4829-b788-1eac29ce30c7"},"vehicle_type_id":"4","last_reported":1725210426,"current_range_meters":19200,"station_id":"ce4bgpp2rcd13ifvqc3g","pricing_plan_id":"cebpf4jnsgd1na2vs0mg"},{"bike_id":"d686761e-8a57-48b8-9c2d-96f449888313","system_id":"levelo_inurba_marseille","lat":43.311722,"lon":5.387247,"is_reserved":false,"is_disabled":false,"rental_uris":{"android":"levelo://app?vid=d686761e-8a57-48b8-9c2d-96f449888313","ios":"levelo://app?vid=d686761e-8a57-48b8-9c2d-96f449888313"},"vehicle_type_id":"4","last_reported":1725210426,"current_range_meters":13200,"station_id":"ce4bgv12rcd13ifvqcp0","pricing_plan_id":"cebpf4jnsgd1na2vs0mg"},{"bike_id":"558b4540-3b5f-466f-86af-a0168e9cc530","system_id":"levelo_inurba_marseille","lat":43.31176,"lon":5.38714,"is_reserved":false,"is_disabled":false,"rental_uris":{"android":"levelo://app?vid=558b4540-3b5f-466f-86af-a0168e9cc530","ios":"levelo://app?vid=558b4540-3b5f-466f-86af-a0168e9cc530"},"vehicle_type_id":"4","last_reported":1725210426,"current_range_meters":2400,"station_id":"","pricing_plan_id":"cebpf4jnsgd1na2vs0mg"},{"bike_id":"2463e7d4-72d6-4761-b747-38cd10164e72","system_id":"levelo_inurba_marseille","lat":43.322872,"lon":5.382756,"is_reserved":false,"is_disabled":false,"rental_uris":{"android":"levelo://app?vid=2463e7d4-72d6-4761-b747-38cd10164e72","ios":"levelo://app?vid=2463e7d4-72d6-4761-b747-38cd10164e72"},"vehicle_type_id":"4","last_reported":1725210426,"current_range_meters":31200,"station_id":"ce4bhr12rcd13ifvqhqg","pricing_plan_id":"cebpf4jnsgd1na2vs0mg"},{"bike_id":"fca3378d-552b-4059-8154-d03b143e1b44","system_id":"levelo_inurba_marseille","lat":43.29776,"lon":5.371087,"is_reserved":false,"is_disabled":false,"rental_uris":{"android":"levelo://app?vid=fca3378d-552b-4059-8154-d03b143e1b44","ios":"levelo://app?vid=fca3378d-552b-4059-8154-d03b143e1b44"},"vehicle_type_id":"4","last_reported":1725210426,"current_range_meters":15600,"station_id":"ce4bgop2rcd13ifvqc1g","pricing_plan_id":"cebpf4jnsgd1na2vs0mg"},{"bike_id":"82c01b15-b0a3-4c63-83ef-145aed4020a3","system_id":"levelo_inurba_marseille","lat":43.322872,"lon":5.382756,"is_reserved":false,"is_disabled":false,"rental_uris":{"android":"levelo://app?vid=82c01b15-b0a3-4c63-83ef-145aed4020a3","ios":"levelo://app?vid=82c01b15-b0a3-4c63-83ef-145aed4020a3"},"vehicle_type_id":"4","last_reported":1725210426,"current_range_meters":31600,"station_id":"ce4bhr12rcd13ifvqhqg","pricing_plan_id":"cebpf4jnsgd1na2vs0mg"},{"bike_id":"60ff3900-1cd1-4527-ae10-64555afa6b11","system_id":"levelo_inurba_marseille","lat":43.32289,"lon":5.38265,"is_reserved":false,"is_disabled":false,"rental_uris":{"android":"levelo://app?vid=60ff3900-1cd1-4527-ae10-64555afa6b11","ios":"levelo://app?vid=60ff3900-1cd1-4527-ae10-64555afa6b11"},"vehicle_type_id":"4","last_reported":1725210426,"current_range_meters":15200,"station_id":"ce4bhr12rcd13ifvqhqg","pricing_plan_id":"cebpf4jnsgd1na2vs0mg"},{"bike_id":"792c177a-3b1d-44ab-ac67-21c25cf61192","system_id":"levelo_inurba_marseille","lat":43.32289,"lon":5.38266,"is_reserved":false,"is_disabled":false,"rental_uris":{"android":"levelo://app?vid=792c177a-3b1d-44ab-ac67-21c25cf61192","ios":"levelo://app?vid=792c177a-3b1d-44ab-ac67-21c25cf61192"},"vehicle_type_id":"4","last_reported":1725210426,"current_range_meters":17200,"station_id":"ce4bhr12rcd13ifvqhqg","pricing_plan_id":"cebpf4jnsgd1na2vs0mg"},{"bike_id":"c312ddc4-0cfd-47fa-8460-8260a3ea856a","system_id":"levelo_inurba_marseille","lat":43.32287,"lon":5.38269,"is_reserved":false,"is_disabled":false,"rental_uris":{"android":"levelo://app?vid=c312ddc4-0cfd-47fa-8460-8260a3ea856a","ios":"levelo://app?vid=c312ddc4-0cfd-47fa-8460-8260a3ea856a"},"vehicle_type_id":"4","last_reported":1725210426,"current_range_meters":27600,"station_id":"ce4bhr12rcd13ifvqhqg","pricing_plan_id":"cebpf4jnsgd1na2vs0mg"},{"bike_id":"3ff9b6aa-fbc6-41af-a736-fc98973eb296","system_id":"levelo_inurba_marseille","lat":43.322872,"lon":5.382756,"is_reserved":false,"is_disabled":false,"rental_uris":{"android":"levelo://app?vid=3ff9b6aa-fbc6-41af-a736-fc98973eb296","ios":"levelo://app?vid=3ff9b6aa-fbc6-41af-a736-fc98973eb296"},"vehicle_type_id":"4","last_reported":1725210426,"current_range_meters":31200,"station_id":"ce4bhr12rcd13ifvqhqg","pricing_plan_id":"cebpf4jnsgd1na2vs0mg"},{"bike_id":"32190657-d0f7-49e5-8191-b2db080b7008","system_id":"levelo_inurba_marseille","lat":43.322872,"lon":5.382756,"is_reserved":false,"is_disabled":false,"rental_uris":{"android":"levelo://app?vid=32190657-d0f7-49e5-8191-b2db080b7008","ios":"levelo://app?vid=32190657-d0f7-49e5-8191-b2db080b7008"},"vehicle_type_id":"4","last_reported":1725210426,"current_range_meters":31200,"station_id":"ce4bhr12rcd13ifvqhqg","pricing_plan_id":"cebpf4jnsgd1na2vs0mg"},{"bike_id":"82221bf4-4b06-477c-88d2-8d8a0959fc33","system_id":"levelo_inurba_marseille","lat":43.322872,"lon":5.382756,"is_reserved":false,"is_disabled":false,"rental_uris":{"android":"levelo://app?vid=82221bf4-4b06-477c-88d2-8d8a0959fc33","ios":"levelo://app?vid=82221bf4-4b06-477c-88d2-8d8a0959fc33"},"vehicle_type_id":"4","last_reported":1725210426,"current_range_meters":2000,"station_id":"ce4bhr12rcd13ifvqhqg","pricing_plan_id":"cebpf4jnsgd1na2vs0mg"},{"bike_id":"17a45751-40e1-4887-a261-fe114d16bbc7","system_id":"levelo_inurba_marseille","lat":43.29706,"lon":5.36616,"is_reserved":false,"is_disabled":false,"rental_uris":{"android":"levelo://app?vid=17a45751-40e1-4887-a261-fe114d16bbc7","ios":"levelo://app?vid=17a45751-40e1-4887-a261-fe114d16bbc7"},"vehicle_type_id":"4","last_reported":1725210426,"current_range_meters":31200,"station_id":"ce4bgn12rcd13ifvqbt0","pricing_plan_id":"cebpf4jnsgd1na2vs0mg"},{"bike_id":"664309b0-836b-4925-9065-d678dac11778","system_id":"levelo_inurba_marseille","lat":43.29846,"lon":5.37664,"is_reserved":false,"is_disabled":false,"rental_uris":{"android":"levelo://app?vid=664309b0-836b-4925-9065-d678dac11778","ios":"levelo://app?vid=664309b0-836b-4925-9065-d678dac11778"},"vehicle_type_id":"4","last_reported":1725210426,"current_range_meters":19600,"station_id":"","pricing_plan_id":"cebpf4jnsgd1na2vs0mg"},{"bike_id":"8a8887de-5c7d-4b1c-91b2-78e9c920b48d","system_id":"levelo_inurba_marseille","lat":43.2968,"lon":5.37291,"is_reserved":false,"is_disabled":false,"rental_uris":{"android":"levelo://app?vid=8a8887de-5c7d-4b1c-91b2-78e9c920b48d","ios":"levelo://app?vid=8a8887de-5c7d-4b1c-91b2-78e9c920b48d"},"vehicle_type_id":"4","last_reported":1725210426,"current_range_meters":31200,"station_id":"ce4bgk12rcd13ifvqbj0","pricing_plan_id":"cebpf4jnsgd1na2vs0mg"},{"bike_id":"ba6b4497-f707-42d5-9445-e78e58e8839b","system_id":"levelo_inurba_marseille","lat":43.2968,"lon":5.37291,"is_reserved":false,"is_disabled":false,"rental_uris":{"android":"levelo://app?vid=ba6b4497-f707-42d5-9445-e78e58e8839b","ios":"levelo://app?vid=ba6b4497-f707-42d5-9445-e78e58e8839b"},"vehicle_type_id":"4","last_reported":1725210426,"current_range_meters":1200,"station_id":"ce4bgk12rcd13ifvqbj0","pricing_plan_id":"cebpf4jnsgd1na2vs0mg"},{"bike_id":"0901647f-40ba-4e5d-8b3b-13c89214b7b3","system_id":"levelo_inurba_marseille","lat":43.2968,"lon":5.37291,"is_reserved":false,"is_disabled":false,"rental_uris":{"android":"levelo://app?vid=0901647f-40ba-4e5d-8b3b-13c89214b7b3","ios":"levelo://app?vid=0901647f-40ba-4e5d-8b3b-13c89214b7b3"},"vehicle_type_id":"4","last_reported":1725210426,"current_range_meters":1200,"station_id":"ce4bgk12rcd13ifvqbj0","pricing_plan_id":"cebpf4jnsgd1na2vs0mg"},{"bike_id":"367e5962-2186-4be9-8f53-37c477f471e5","system_id":"levelo_inurba_marseille","lat":43.29746,"lon":5.37692,"is_reserved":false,"is_disabled":false,"rental_uris":{"android":"levelo://app?vid=367e5962-2186-4be9-8f53-37c477f471e5","ios":"levelo://app?vid=367e5962-2186-4be9-8f53-37c477f471e5"},"vehicle_type_id":"4","last_reported":1725210426,"current_range_meters":27200,"station_id":"ce4bgkh2rcd13ifvqbl0","pricing_plan_id":"cebpf4jnsgd1na2vs0mg"},{"bike_id":"6b565ae7-69e3-42bd-9090-779ffd63a85a","system_id":"levelo_inurba_marseille","lat":43.29573,"lon":5.367355,"is_reserved":false,"is_disabled":false,"rental_uris":{"android":"levelo://app?vid=6b565ae7-69e3-42bd-9090-779ffd63a85a","ios":"levelo://app?vid=6b565ae7-69e3-42bd-9090-779ffd63a85a"},"vehicle_type_id":"4","last_reported":1725210426,"current_range_meters":30800,"station_id":"ce4bgph2rcd13ifvqc2g","pricing_plan_id":"cebpf4jnsgd1na2vs0mg"},{"bike_id":"c4502d1c-cc68-4f65-8d43-9703264b883c","system_id":"levelo_inurba_marseille","lat":43.30956,"lon":5.39022,"is_reserved":false,"is_disabled":false,"rental_uris":{"android":"levelo://app?vid=c4502d1c-cc68-4f65-8d43-9703264b883c","ios":"levelo://app?vid=c4502d1c-cc68-4f65-8d43-9703264b883c"},"vehicle_type_id":"4","last_reported":1725210426,"current_range_meters":0,"station_id":"ce4bgup2rcd13ifvqco0","pricing_plan_id":"cebpf4jnsgd1na2vs0mg"},{"bike_id":"921e2597-e34f-43ae-a6a4-df52fcc759a7","system_id":"levelo_inurba_marseille","lat":43.299028,"lon":5.381509,"is_reserved":false,"is_disabled":false,"rental_uris":{"android":"levelo://app?vid=921e2597-e34f-43ae-a6a4-df52fcc759a7","ios":"levelo://app?vid=921e2597-e34f-43ae-a6a4-df52fcc759a7"},"vehicle_type_id":"4","last_reported":1725210426,"current_range_meters":2000,"station_id":"ce4bgj12rcd13ifvqbc0","pricing_plan_id":"cebpf4jnsgd1na2vs0mg"},{"bike_id":"48b06910-a0bd-41e1-b79f-03a862d1f642","system_id":"levelo_inurba_marseille","lat":43.309546,"lon":5.390276,"is_reserved":false,"is_disabled":false,"rental_uris":{"android":"levelo://app?vid=48b06910-a0bd-41e1-b79f-03a862d1f642","ios":"levelo://app?vid=48b06910-a0bd-41e1-b79f-03a862d1f642"},"vehicle_type_id":"4","last_reported":1725210426,"current_range_meters":0,"station_id":"ce4bgup2rcd13ifvqco0","pricing_plan_id":"cebpf4jnsgd1na2vs0mg"},{"bike_id":"fe3ca594-6ba3-40ad-9148-4fcfb4b664ee","system_id":"levelo_inurba_marseille","lat":43.317557,"lon":5.390173,"is_reserved":false,"is_disabled":false,"rental_uris":{"android":"levelo://app?vid=fe3ca594-6ba3-40ad-9148-4fcfb4b664ee","ios":"levelo://app?vid=fe3ca594-6ba3-40ad-9148-4fcfb4b664ee"},"vehicle_type_id":"4","last_reported":1725210426,"current_range_meters":400,"station_id":"ce4bhqp2rcd13ifvqhng","pricing_plan_id":"cebpf4jnsgd1na2vs0mg"},{"bike_id":"04b3eec6-d521-4a62-8524-c5f77a2bd842","system_id":"levelo_inurba_marseille","lat":43.317557,"lon":5.390173,"is_reserved":false,"is_disabled":false,"rental_uris":{"android":"levelo://app?vid=04b3eec6-d521-4a62-8524-c5f77a2bd842","ios":"levelo://app?vid=04b3eec6-d521-4a62-8524-c5f77a2bd842"},"vehicle_type_id":"4","last_reported":1725210426,"current_range_meters":31600,"station_id":"ce4bhqp2rcd13ifvqhng","pricing_plan_id":"cebpf4jnsgd1na2vs0mg"},{"bike_id":"49366f20-4841-40f1-9b8a-1ba5f27cefd5","system_id":"levelo_inurba_marseille","lat":43.317557,"lon":5.390173,"is_reserved":false,"is_disabled":false,"rental_uris":{"android":"levelo://app?vid=49366f20-4841-40f1-9b8a-1ba5f27cefd5","ios":"levelo://app?vid=49366f20-4841-40f1-9b8a-1ba5f27cefd5"},"vehicle_type_id":"4","last_reported":1725210426,"current_range_meters":31600,"station_id":"ce4bhqp2rcd13ifvqhng","pricing_plan_id":"cebpf4jnsgd1na2vs0mg"},{"bike_id":"9fee4f5a-0637-4ca1-a4ce-2e2a63fa69c2","system_id":"levelo_inurba_marseille","lat":43.317557,"lon":5.390173,"is_reserved":false,"is_disabled":false,"rental_uris":{"android":"levelo://app?vid=9fee4f5a-0637-4ca1-a4ce-2e2a63fa69c2","ios":"levelo://app?vid=9fee4f5a-0637-4ca1-a4ce-2e2a63fa69c2"},"vehicle_type_id":"4","last_reported":1725210426,"current_range_meters":22000,"station_id":"ce4bhqp2rcd13ifvqhng","pricing_plan_id":"cebpf4jnsgd1na2vs0mg"},{"bike_id":"69cb7fbc-842e-4698-8270-376a52cb9f34","system_id":"levelo_inurba_marseille","lat":43.298037,"lon":5.381066,"is_reserved":false,"is_disabled":false,"rental_uris":{"android":"levelo://app?vid=69cb7fbc-842e-4698-8270-376a52cb9f34","ios":"levelo://app?vid=69cb7fbc-842e-4698-8270-376a52cb9f34"},"vehicle_type_id":"4","last_reported":1725210426,"current_range_meters":30400,"station_id":"ce4bgip2rcd13ifvqbb0","pricing_plan_id":"cebpf4jnsgd1na2vs0mg"},{"bike_id":"db67340f-9359-4b25-a9ef-a1bbe6dba863","system_id":"levelo_inurba_marseille","lat":43.29586,"lon":5.37513,"is_reserved":false,"is_disabled":false,"rental_uris":{"android":"levelo://app?vid=db67340f-9359-4b25-a9ef-a1bbe6dba863","ios":"levelo://app?vid=db67340f-9359-4b25-a9ef-a1bbe6dba863"},"vehicle_type_id":"4","last_reported":1725210426,"current_range_meters":24800,"station_id":"ce4bgh92rcd13ifvqb50","pricing_plan_id":"cebpf4jnsgd1na2vs0mg"},{"bike_id":"02f7ca1d-999b-4c12-ac35-60c625189b55","system_id":"levelo_inurba_marseille","lat":43.29583,"lon":5.37521,"is_reserved":false,"is_disabled":false,"rental_uris":{"android":"levelo://app?vid=02f7ca1d-999b-4c12-ac35-60c625189b55","ios":"levelo://app?vid=02f7ca1d-999b-4c12-ac35-60c625189b55"},"vehicle_type_id":"4","last_reported":1725210426,"current_range_meters":0,"station_id":"ce4bgh92rcd13ifvqb50","pricing_plan_id":"cebpf4jnsgd1na2vs0mg"},{"bike_id":"ccceecb5-bd2f-4233-8185-dbe857525aa3","system_id":"levelo_inurba_marseille","lat":43.298037,"lon":5.381066,"is_reserved":false,"is_disabled":false,"rental_uris":{"android":"levelo://app?vid=ccceecb5-bd2f-4233-8185-dbe857525aa3","ios":"levelo://app?vid=ccceecb5-bd2f-4233-8185-dbe857525aa3"},"vehicle_type_id":"4","last_reported":1725210426,"current_range_meters":0,"station_id":"ce4bgip2rcd13ifvqbb0","pricing_plan_id":"cebpf4jnsgd1na2vs0mg"},{"bike_id":"337236e6-7660-47dc-9a77-bb416e6ee7e9","system_id":"levelo_inurba_marseille","lat":43.296263,"lon":5.377094,"is_reserved":false,"is_disabled":false,"rental_uris":{"android":"levelo://app?vid=337236e6-7660-47dc-9a77-bb416e6ee7e9","ios":"levelo://app?vid=337236e6-7660-47dc-9a77-bb416e6ee7e9"},"vehicle_type_id":"4","last_reported":1725210426,"current_range_meters":5200,"station_id":"ce4bgi92rcd13ifvqb90","pricing_plan_id":"cebpf4jnsgd1na2vs0mg"},{"bike_id":"a17111b8-8cf6-43d9-b6e1-b9559cfe974f","system_id":"levelo_inurba_marseille","lat":43.29617,"lon":5.37714,"is_reserved":false,"is_disabled":false,"rental_uris":{"android":"levelo://app?vid=a17111b8-8cf6-43d9-b6e1-b9559cfe974f","ios":"levelo://app?vid=a17111b8-8cf6-43d9-b6e1-b9559cfe974f"},"vehicle_type_id":"4","last_reported":1725210426,"current_range_meters":30400,"station_id":"ce4bgi92rcd13ifvqb90","pricing_plan_id":"cebpf4jnsgd1na2vs0mg"},{"bike_id":"1ae2ca8c-7556-41da-b749-bc5c42b8e68a","system_id":"levelo_inurba_marseille","lat":43.295279,"lon":5.375048,"is_reserved":false,"is_disabled":false,"rental_uris":{"android":"levelo://app?vid=1ae2ca8c-7556-41da-b749-bc5c42b8e68a","ios":"levelo://app?vid=1ae2ca8c-7556-41da-b749-bc5c42b8e68a"},"vehicle_type_id":"4","last_reported":1725210426,"current_range_meters":0,"station_id":"ce4bgkp2rcd13ifvqbmg","pricing_plan_id":"cebpf4jnsgd1na2vs0mg"},{"bike_id":"fedc029d-bf2a-4913-971a-9efaa5d499fa","system_id":"levelo_inurba_marseille","lat":43.295279,"lon":5.375048,"is_reserved":false,"is_disabled":false,"rental_uris":{"android":"levelo://app?vid=fedc029d-bf2a-4913-971a-9efaa5d499fa","ios":"levelo://app?vid=fedc029d-bf2a-4913-971a-9efaa5d499fa"},"vehicle_type_id":"4","last_reported":1725210426,"current_range_meters":0,"station_id":"ce4bgkp2rcd13ifvqbmg","pricing_plan_id":"cebpf4jnsgd1na2vs0mg"},{"bike_id":"3d215b19-96ab-4031-9a24-4c16b072d28c","system_id":"levelo_inurba_marseille","lat":43.299717,"lon":5.384845,"is_reserved":false,"is_disabled":false,"rental_uris":{"android":"levelo://app?vid=3d215b19-96ab-4031-9a24-4c16b072d28c","ios":"levelo://app?vid=3d215b19-96ab-4031-9a24-4c16b072d28c"},"vehicle_type_id":"4","last_reported":1725210426,"current_range_meters":4800,"station_id":"ce4bgj92rcd13ifvqbd0","pricing_plan_id":"cebpf4jnsgd1na2vs0mg"},{"bike_id":"ad8d6d07-bc95-4f76-8e9d-7c5e0f1eac41","system_id":"levelo_inurba_marseille","lat":43.299717,"lon":5.384845,"is_reserved":false,"is_disabled":false,"rental_uris":{"android":"levelo://app?vid=ad8d6d07-bc95-4f76-8e9d-7c5e0f1eac41","ios":"levelo://app?vid=ad8d6d07-bc95-4f76-8e9d-7c5e0f1eac41"},"vehicle_type_id":"4","last_reported":1725210426,"current_range_meters":2800,"station_id":"ce4bgj92rcd13ifvqbd0","pricing_plan_id":"cebpf4jnsgd1na2vs0mg"},{"bike_id":"72f670be-1aa4-4ed2-b58c-eb86d0543f82","system_id":"levelo_inurba_marseille","lat":43.299717,"lon":5.384845,"is_reserved":false,"is_disabled":false,"rental_uris":{"android":"levelo://app?vid=72f670be-1aa4-4ed2-b58c-eb86d0543f82","ios":"levelo://app?vid=72f670be-1aa4-4ed2-b58c-eb86d0543f82"},"vehicle_type_id":"4","last_reported":1725210426,"current_range_meters":1200,"station_id":"ce4bgj92rcd13ifvqbd0","pricing_plan_id":"cebpf4jnsgd1na2vs0mg"},{"bike_id":"eb40480a-2e61-4db7-9317-2d17f72f63d3","system_id":"levelo_inurba_marseille","lat":43.31168,"lon":5.39309,"is_reserved":false,"is_disabled":false,"rental_uris":{"android":"levelo://app?vid=eb40480a-2e61-4db7-9317-2d17f72f63d3","ios":"levelo://app?vid=eb40480a-2e61-4db7-9317-2d17f72f63d3"},"vehicle_type_id":"4","last_reported":1725210426,"current_range_meters":13600,"station_id":"","pricing_plan_id":"cebpf4jnsgd1na2vs0mg"},{"bike_id":"eeaa1aa5-037c-4c5b-8d55-fa25f57abded","system_id":"levelo_inurba_marseille","lat":43.30099,"lon":5.38771,"is_reserved":false,"is_disabled":false,"rental_uris":{"android":"levelo://app?vid=eeaa1aa5-037c-4c5b-8d55-fa25f57abded","ios":"levelo://app?vid=eeaa1aa5-037c-4c5b-8d55-fa25f57abded"},"vehicle_type_id":"4","last_reported":1725210426,"current_range_meters":0,"station_id":"ce4bghh2rcd13ifvqb60","pricing_plan_id":"cebpf4jnsgd1na2vs0mg"},{"bike_id":"91eaefb9-2db4-45e6-9c67-a6e478a75587","system_id":"levelo_inurba_marseille","lat":43.32367,"lon":5.388836,"is_reserved":false,"is_disabled":false,"rental_uris":{"android":"levelo://app?vid=91eaefb9-2db4-45e6-9c67-a6e478a75587","ios":"levelo://app?vid=91eaefb9-2db4-45e6-9c67-a6e478a75587"},"vehicle_type_id":"4","last_reported":1725210426,"current_range_meters":6000,"station_id":"ce4bhqp2rcd13ifvqhog","pricing_plan_id":"cebpf4jnsgd1na2vs0mg"},{"bike_id":"f84c5c5c-29c2-45e6-a674-24cdcd003577","system_id":"levelo_inurba_marseille","lat":43.29434,"lon":5.37537,"is_reserved":false,"is_disabled":false,"rental_uris":{"android":"levelo://app?vid=f84c5c5c-29c2-45e6-a674-24cdcd003577","ios":"levelo://app?vid=f84c5c5c-29c2-45e6-a674-24cdcd003577"},"vehicle_type_id":"4","last_reported":1725210426,"current_range_meters":0,"station_id":"","pricing_plan_id":"cebpf4jnsgd1na2vs0mg"},{"bike_id":"e47b77d0-d2dd-4036-a7bf-210e40df4a4d","system_id":"levelo_inurba_marseille","lat":43.295997,"lon":5.380922,"is_reserved":false,"is_disabled":false,"rental_uris":{"android":"levelo://app?vid=e47b77d0-d2dd-4036-a7bf-210e40df4a4d","ios":"levelo://app?vid=e47b77d0-d2dd-4036-a7bf-210e40df4a4d"},"vehicle_type_id":"4","last_reported":1725210426,"current_range_meters":0,"station_id":"ce4bh2h2rcd13ifvqdh0","pricing_plan_id":"cebpf4jnsgd1na2vs0mg"},{"bike_id":"c6f0935b-430d-49df-92ca-d242d8ca5ba0","system_id":"levelo_inurba_marseille","lat":43.32365,"lon":5.38935,"is_reserved":false,"is_disabled":false,"rental_uris":{"android":"levelo://app?vid=c6f0935b-430d-49df-92ca-d242d8ca5ba0","ios":"levelo://app?vid=c6f0935b-430d-49df-92ca-d242d8ca5ba0"},"vehicle_type_id":"4","last_reported":1725210426,"current_range_meters":19600,"station_id":"ce4bhqp2rcd13ifvqhog","pricing_plan_id":"cebpf4jnsgd1na2vs0mg"},{"bike_id":"b9d51355-e515-483a-a60b-c8a5e8c28078","system_id":"levelo_inurba_marseille","lat":43.301955,"lon":5.389589,"is_reserved":false,"is_disabled":false,"rental_uris":{"android":"levelo://app?vid=b9d51355-e515-483a-a60b-c8a5e8c28078","ios":"levelo://app?vid=b9d51355-e515-483a-a60b-c8a5e8c28078"},"vehicle_type_id":"4","last_reported":1725210426,"current_range_meters":0,"station_id":"","pricing_plan_id":"cebpf4jnsgd1na2vs0mg"},{"bike_id":"00546a2a-b7ef-4ea7-9da3-610e0b9d085f","system_id":"levelo_inurba_marseille","lat":43.292749,"lon":5.368398,"is_reserved":false,"is_disabled":false,"rental_uris":{"android":"levelo://app?vid=00546a2a-b7ef-4ea7-9da3-610e0b9d085f","ios":"levelo://app?vid=00546a2a-b7ef-4ea7-9da3-610e0b9d085f"},"vehicle_type_id":"4","last_reported":1725210426,"current_range_meters":13200,"station_id":"ce4bhbp2rcd13ifvqesg","pricing_plan_id":"cebpf4jnsgd1na2vs0mg"},{"bike_id":"9b42a07d-9b58-4f42-b448-90d5110eab30","system_id":"levelo_inurba_marseille","lat":43.292749,"lon":5.368402,"is_reserved":false,"is_disabled":false,"rental_uris":{"android":"levelo://app?vid=9b42a07d-9b58-4f42-b448-90d5110eab30","ios":"levelo://app?vid=9b42a07d-9b58-4f42-b448-90d5110eab30"},"vehicle_type_id":"4","last_reported":1725210426,"current_range_meters":0,"station_id":"ce4bhbp2rcd13ifvqesg","pricing_plan_id":"cebpf4jnsgd1na2vs0mg"},{"bike_id":"a1ac4e91-4964-4769-8d24-b3f038e9fdbc","system_id":"levelo_inurba_marseille","lat":43.292749,"lon":5.368398,"is_reserved":false,"is_disabled":false,"rental_uris":{"android":"levelo://app?vid=a1ac4e91-4964-4769-8d24-b3f038e9fdbc","ios":"levelo://app?vid=a1ac4e91-4964-4769-8d24-b3f038e9fdbc"},"vehicle_type_id":"4","last_reported":1725210426,"current_range_meters":0,"station_id":"ce4bhbp2rcd13ifvqesg","pricing_plan_id":"cebpf4jnsgd1na2vs0mg"},{"bike_id":"34c6a1c1-6309-4413-9774-44295b555689","system_id":"levelo_inurba_marseille","lat":43.29307,"lon":5.37455,"is_reserved":false,"is_disabled":false,"rental_uris":{"android":"levelo://app?vid=34c6a1c1-6309-4413-9774-44295b555689","ios":"levelo://app?vid=34c6a1c1-6309-4413-9774-44295b555689"},"vehicle_type_id":"4","last_reported":1725210426,"current_range_meters":8800,"station_id":"ce4bgi12rcd13ifvqb70","pricing_plan_id":"cebpf4jnsgd1na2vs0mg"},{"bike_id":"aad1473c-7e70-4863-82c7-0eeefbe1ff94","system_id":"levelo_inurba_marseille","lat":43.29231,"lon":5.36436,"is_reserved":false,"is_disabled":false,"rental_uris":{"android":"levelo://app?vid=aad1473c-7e70-4863-82c7-0eeefbe1ff94","ios":"levelo://app?vid=aad1473c-7e70-4863-82c7-0eeefbe1ff94"},"vehicle_type_id":"4","last_reported":1725210426,"current_range_meters":0,"station_id":"","pricing_plan_id":"cebpf4jnsgd1na2vs0mg"},{"bike_id":"3818296a-21e8-4513-84df-df8228383f29","system_id":"levelo_inurba_marseille","lat":43.305994,"lon":5.393687,"is_reserved":false,"is_disabled":false,"rental_uris":{"android":"levelo://app?vid=3818296a-21e8-4513-84df-df8228383f29","ios":"levelo://app?vid=3818296a-21e8-4513-84df-df8228383f29"},"vehicle_type_id":"4","last_reported":1725210426,"current_range_meters":9600,"station_id":"ce4bh0p2rcd13ifvqd80","pricing_plan_id":"cebpf4jnsgd1na2vs0mg"},{"bike_id":"76d47581-5412-4f26-9901-534fff3627c8","system_id":"levelo_inurba_marseille","lat":43.305994,"lon":5.393687,"is_reserved":false,"is_disabled":false,"rental_uris":{"android":"levelo://app?vid=76d47581-5412-4f26-9901-534fff3627c8","ios":"levelo://app?vid=76d47581-5412-4f26-9901-534fff3627c8"},"vehicle_type_id":"4","last_reported":1725210426,"current_range_meters":26400,"station_id":"ce4bh0p2rcd13ifvqd80","pricing_plan_id":"cebpf4jnsgd1na2vs0mg"},{"bike_id":"10e0b1ac-d126-4194-b705-a7852e5f877a","system_id":"levelo_inurba_marseille","lat":43.305994,"lon":5.393687,"is_reserved":false,"is_disabled":false,"rental_uris":{"android":"levelo://app?vid=10e0b1ac-d126-4194-b705-a7852e5f877a","ios":"levelo://app?vid=10e0b1ac-d126-4194-b705-a7852e5f877a"},"vehicle_type_id":"4","last_reported":1725210426,"current_range_meters":5200,"station_id":"ce4bh0p2rcd13ifvqd80","pricing_plan_id":"cebpf4jnsgd1na2vs0mg"},{"bike_id":"a37023d1-1d5c-46b1-bd4f-cc956976ac35","system_id":"levelo_inurba_marseille","lat":43.29283,"lon":5.37444,"is_reserved":false,"is_disabled":false,"rental_uris":{"android":"levelo://app?vid=a37023d1-1d5c-46b1-bd4f-cc956976ac35","ios":"levelo://app?vid=a37023d1-1d5c-46b1-bd4f-cc956976ac35"},"vehicle_type_id":"4","last_reported":1725210426,"current_range_meters":0,"station_id":"ce4bgi12rcd13ifvqb70","pricing_plan_id":"cebpf4jnsgd1na2vs0mg"},{"bike_id":"e1d46062-ec29-47db-9599-7236c6fa3fdd","system_id":"levelo_inurba_marseille","lat":43.302992,"lon":5.392136,"is_reserved":false,"is_disabled":false,"rental_uris":{"android":"levelo://app?vid=e1d46062-ec29-47db-9599-7236c6fa3fdd","ios":"levelo://app?vid=e1d46062-ec29-47db-9599-7236c6fa3fdd"},"vehicle_type_id":"4","last_reported":1725210426,"current_range_meters":0,"station_id":"ce4bgkh2rcd13ifvqbk0","pricing_plan_id":"cebpf4jnsgd1na2vs0mg"},{"bike_id":"b5673334-0249-4507-9179-b58d67dcdab8","system_id":"levelo_inurba_marseille","lat":43.302992,"lon":5.392136,"is_reserved":false,"is_disabled":false,"rental_uris":{"android":"levelo://app?vid=b5673334-0249-4507-9179-b58d67dcdab8","ios":"levelo://app?vid=b5673334-0249-4507-9179-b58d67dcdab8"},"vehicle_type_id":"4","last_reported":1725210426,"current_range_meters":22800,"station_id":"ce4bgkh2rcd13ifvqbk0","pricing_plan_id":"cebpf4jnsgd1na2vs0mg"},{"bike_id":"2fcb8bea-80e7-4b84-9246-c1b9533e7b55","system_id":"levelo_inurba_marseille","lat":43.30085,"lon":5.390856,"is_reserved":false,"is_disabled":false,"rental_uris":{"android":"levelo://app?vid=2fcb8bea-80e7-4b84-9246-c1b9533e7b55","ios":"levelo://app?vid=2fcb8bea-80e7-4b84-9246-c1b9533e7b55"},"vehicle_type_id":"4","last_reported":1725210426,"current_range_meters":26400,"station_id":"ce4bh192rcd13ifvqdb0","pricing_plan_id":"cebpf4jnsgd1na2vs0mg"},{"bike_id":"a52100f1-e923-43ca-8b4d-e6d224519fa8","system_id":"levelo_inurba_marseille","lat":43.292311,"lon":5.360731,"is_reserved":false,"is_disabled":false,"rental_uris":{"android":"levelo://app?vid=a52100f1-e923-43ca-8b4d-e6d224519fa8","ios":"levelo://app?vid=a52100f1-e923-43ca-8b4d-e6d224519fa8"},"vehicle_type_id":"4","last_reported":1725210426,"current_range_meters":0,"station_id":"ce4bhbh2rcd13ifvqeqg","pricing_plan_id":"cebpf4jnsgd1na2vs0mg"},{"bike_id":"e9d032b8-802f-4177-b77e-428fe671fe07","system_id":"levelo_inurba_marseille","lat":43.30085,"lon":5.390856,"is_reserved":false,"is_disabled":false,"rental_uris":{"android":"levelo://app?vid=e9d032b8-802f-4177-b77e-428fe671fe07","ios":"levelo://app?vid=e9d032b8-802f-4177-b77e-428fe671fe07"},"vehicle_type_id":"4","last_reported":1725210426,"current_range_meters":0,"station_id":"ce4bh192rcd13ifvqdb0","pricing_plan_id":"cebpf4jnsgd1na2vs0mg"},{"bike_id":"37640e45-69b7-4c14-8ec0-a3e217ecb381","system_id":"levelo_inurba_marseille","lat":43.29222,"lon":5.36051,"is_reserved":false,"is_disabled":false,"rental_uris":{"android":"levelo://app?vid=37640e45-69b7-4c14-8ec0-a3e217ecb381","ios":"levelo://app?vid=37640e45-69b7-4c14-8ec0-a3e217ecb381"},"vehicle_type_id":"4","last_reported":1725210426,"current_range_meters":12400,"station_id":"ce4bhbh2rcd13ifvqeqg","pricing_plan_id":"cebpf4jnsgd1na2vs0mg"},{"bike_id":"7170647f-5efa-4646-b7de-1a16f925390c","system_id":"levelo_inurba_marseille","lat":43.29219,"lon":5.36065,"is_reserved":false,"is_disabled":false,"rental_uris":{"android":"levelo://app?vid=7170647f-5efa-4646-b7de-1a16f925390c","ios":"levelo://app?vid=7170647f-5efa-4646-b7de-1a16f925390c"},"vehicle_type_id":"4","last_reported":1725210426,"current_range_meters":31200,"station_id":"ce4bhbh2rcd13ifvqeqg","pricing_plan_id":"cebpf4jnsgd1na2vs0mg"},{"bike_id":"1a89d62a-fc12-422a-8211-97e4f0ecbe5c","system_id":"levelo_inurba_marseille","lat":43.29215,"lon":5.36055,"is_reserved":false,"is_disabled":false,"rental_uris":{"android":"levelo://app?vid=1a89d62a-fc12-422a-8211-97e4f0ecbe5c","ios":"levelo://app?vid=1a89d62a-fc12-422a-8211-97e4f0ecbe5c"},"vehicle_type_id":"4","last_reported":1725210426,"current_range_meters":0,"station_id":"ce4bhbh2rcd13ifvqeqg","pricing_plan_id":"cebpf4jnsgd1na2vs0mg"},{"bike_id":"17c3d4d0-5b27-44ad-9bed-cfd6d62db955","system_id":"levelo_inurba_marseille","lat":43.31153,"lon":5.39603,"is_reserved":false,"is_disabled":false,"rental_uris":{"android":"levelo://app?vid=17c3d4d0-5b27-44ad-9bed-cfd6d62db955","ios":"levelo://app?vid=17c3d4d0-5b27-44ad-9bed-cfd6d62db955"},"vehicle_type_id":"4","last_reported":1725210426,"current_range_meters":0,"station_id":"","pricing_plan_id":"cebpf4jnsgd1na2vs0mg"},{"bike_id":"86aba626-001b-48be-a978-b8bc27630153","system_id":"levelo_inurba_marseille","lat":43.298764,"lon":5.388973,"is_reserved":false,"is_disabled":false,"rental_uris":{"android":"levelo://app?vid=86aba626-001b-48be-a978-b8bc27630153","ios":"levelo://app?vid=86aba626-001b-48be-a978-b8bc27630153"},"vehicle_type_id":"4","last_reported":1725210426,"current_range_meters":400,"station_id":"ce4bh392rcd13ifvqdl0","pricing_plan_id":"cebpf4jnsgd1na2vs0mg"},{"bike_id":"81d45093-d84e-4043-b534-efa0e4179507","system_id":"levelo_inurba_marseille","lat":43.291675,"lon":5.371583,"is_reserved":false,"is_disabled":false,"rental_uris":{"android":"levelo://app?vid=81d45093-d84e-4043-b534-efa0e4179507","ios":"levelo://app?vid=81d45093-d84e-4043-b534-efa0e4179507"},"vehicle_type_id":"4","last_reported":1725210426,"current_range_meters":400,"station_id":"ce4bha92rcd13ifvqeh0","pricing_plan_id":"cebpf4jnsgd1na2vs0mg"},{"bike_id":"b6526665-543d-4c7f-a849-6c678ece708a","system_id":"levelo_inurba_marseille","lat":43.31321,"lon":5.39688,"is_reserved":false,"is_disabled":false,"rental_uris":{"android":"levelo://app?vid=b6526665-543d-4c7f-a849-6c678ece708a","ios":"levelo://app?vid=b6526665-543d-4c7f-a849-6c678ece708a"},"vehicle_type_id":"4","last_reported":1725210426,"current_range_meters":8000,"station_id":"ce4bgvp2rcd13ifvqcu0","pricing_plan_id":"cebpf4jnsgd1na2vs0mg"},{"bike_id":"36b25cdd-0241-4a42-894b-fb475887d575","system_id":"levelo_inurba_marseille","lat":43.313291,"lon":5.396838,"is_reserved":false,"is_disabled":false,"rental_uris":{"android":"levelo://app?vid=36b25cdd-0241-4a42-894b-fb475887d575","ios":"levelo://app?vid=36b25cdd-0241-4a42-894b-fb475887d575"},"vehicle_type_id":"4","last_reported":1725210426,"current_range_meters":2400,"station_id":"ce4bgvp2rcd13ifvqcu0","pricing_plan_id":"cebpf4jnsgd1na2vs0mg"},{"bike_id":"37500a30-8e94-4cb1-95da-5d7b3dfe2720","system_id":"levelo_inurba_marseille","lat":43.31324,"lon":5.3969,"is_reserved":false,"is_disabled":false,"rental_uris":{"android":"levelo://app?vid=37500a30-8e94-4cb1-95da-5d7b3dfe2720","ios":"levelo://app?vid=37500a30-8e94-4cb1-95da-5d7b3dfe2720"},"vehicle_type_id":"4","last_reported":1725210426,"current_range_meters":17600,"station_id":"ce4bgvp2rcd13ifvqcu0","pricing_plan_id":"cebpf4jnsgd1na2vs0mg"},{"bike_id":"2af55e4a-2ca9-41c6-9426-35b65ff659df","system_id":"levelo_inurba_marseille","lat":43.29188,"lon":5.35797,"is_reserved":false,"is_disabled":false,"rental_uris":{"android":"levelo://app?vid=2af55e4a-2ca9-41c6-9426-35b65ff659df","ios":"levelo://app?vid=2af55e4a-2ca9-41c6-9426-35b65ff659df"},"vehicle_type_id":"4","last_reported":1725210426,"current_range_meters":31200,"station_id":"ce4bhb12rcd13ifvqel0","pricing_plan_id":"cebpf4jnsgd1na2vs0mg"},{"bike_id":"930aa90d-a3d8-4f38-8c2e-c3ea7b70ada1","system_id":"levelo_inurba_marseille","lat":43.31327,"lon":5.39696,"is_reserved":false,"is_disabled":false,"rental_uris":{"android":"levelo://app?vid=930aa90d-a3d8-4f38-8c2e-c3ea7b70ada1","ios":"levelo://app?vid=930aa90d-a3d8-4f38-8c2e-c3ea7b70ada1"},"vehicle_type_id":"4","last_reported":1725210426,"current_range_meters":0,"station_id":"ce4bgvp2rcd13ifvqcu0","pricing_plan_id":"cebpf4jnsgd1na2vs0mg"},{"bike_id":"d21018e1-cf9e-43fb-8023-dddfb4e1721f","system_id":"levelo_inurba_marseille","lat":43.31327,"lon":5.397,"is_reserved":false,"is_disabled":false,"rental_uris":{"android":"levelo://app?vid=d21018e1-cf9e-43fb-8023-dddfb4e1721f","ios":"levelo://app?vid=d21018e1-cf9e-43fb-8023-dddfb4e1721f"},"vehicle_type_id":"4","last_reported":1725210426,"current_range_meters":24000,"station_id":"ce4bgvp2rcd13ifvqcu0","pricing_plan_id":"cebpf4jnsgd1na2vs0mg"},{"bike_id":"fcfe3ddc-bf5a-4273-8e78-33887011cc0c","system_id":"levelo_inurba_marseille","lat":43.29529,"lon":5.385581,"is_reserved":false,"is_disabled":false,"rental_uris":{"android":"levelo://app?vid=fcfe3ddc-bf5a-4273-8e78-33887011cc0c","ios":"levelo://app?vid=fcfe3ddc-bf5a-4273-8e78-33887011cc0c"},"vehicle_type_id":"4","last_reported":1725210426,"current_range_meters":0,"station_id":"ce4bgih2rcd13ifvqba0","pricing_plan_id":"cebpf4jnsgd1na2vs0mg"},{"bike_id":"3a0b469b-442f-4608-ab96-b772bab44a1f","system_id":"levelo_inurba_marseille","lat":43.290779,"lon":5.371482,"is_reserved":false,"is_disabled":false,"rental_uris":{"android":"levelo://app?vid=3a0b469b-442f-4608-ab96-b772bab44a1f","ios":"levelo://app?vid=3a0b469b-442f-4608-ab96-b772bab44a1f"},"vehicle_type_id":"4","last_reported":1725210426,"current_range_meters":27200,"station_id":"ce4bh5p2rcd13ifvqe4g","pricing_plan_id":"cebpf4jnsgd1na2vs0mg"},{"bike_id":"20f14f14-883a-45c9-a9ba-ecaa0d0b4088","system_id":"levelo_inurba_marseille","lat":43.290631,"lon":5.359244,"is_reserved":false,"is_disabled":false,"rental_uris":{"android":"levelo://app?vid=20f14f14-883a-45c9-a9ba-ecaa0d0b4088","ios":"levelo://app?vid=20f14f14-883a-45c9-a9ba-ecaa0d0b4088"},"vehicle_type_id":"4","last_reported":1725210426,"current_range_meters":4400,"station_id":"ce4bha92rcd13ifvqeg0","pricing_plan_id":"cebpf4jnsgd1na2vs0mg"},{"bike_id":"20a804ed-0e47-42bf-bb8c-7db57818b54a","system_id":"levelo_inurba_marseille","lat":43.290631,"lon":5.359244,"is_reserved":false,"is_disabled":false,"rental_uris":{"android":"levelo://app?vid=20a804ed-0e47-42bf-bb8c-7db57818b54a","ios":"levelo://app?vid=20a804ed-0e47-42bf-bb8c-7db57818b54a"},"vehicle_type_id":"4","last_reported":1725210426,"current_range_meters":24400,"station_id":"ce4bha92rcd13ifvqeg0","pricing_plan_id":"cebpf4jnsgd1na2vs0mg"},{"bike_id":"fe486a89-c23d-4351-bc16-dd2213ee2594","system_id":"levelo_inurba_marseille","lat":43.294162,"lon":5.386292,"is_reserved":false,"is_disabled":false,"rental_uris":{"android":"levelo://app?vid=fe486a89-c23d-4351-bc16-dd2213ee2594","ios":"levelo://app?vid=fe486a89-c23d-4351-bc16-dd2213ee2594"},"vehicle_type_id":"4","last_reported":1725210426,"current_range_meters":0,"station_id":"ce4bh2h2rcd13ifvqdh0","pricing_plan_id":"cebpf4jnsgd1na2vs0mg"},{"bike_id":"60227754-212c-42ac-b4ad-3fdd743ec6c5","system_id":"levelo_inurba_marseille","lat":43.290327,"lon":5.375711,"is_reserved":false,"is_disabled":false,"rental_uris":{"android":"levelo://app?vid=60227754-212c-42ac-b4ad-3fdd743ec6c5","ios":"levelo://app?vid=60227754-212c-42ac-b4ad-3fdd743ec6c5"},"vehicle_type_id":"4","last_reported":1725210426,"current_range_meters":30800,"station_id":"ce4bh692rcd13ifvqe90","pricing_plan_id":"cebpf4jnsgd1na2vs0mg"},{"bike_id":"77e2a702-7021-48b4-a84f-29f4422c0f01","system_id":"levelo_inurba_marseille","lat":43.289184,"lon":5.366408,"is_reserved":false,"is_disabled":false,"rental_uris":{"android":"levelo://app?vid=77e2a702-7021-48b4-a84f-29f4422c0f01","ios":"levelo://app?vid=77e2a702-7021-48b4-a84f-29f4422c0f01"},"vehicle_type_id":"4","last_reported":1725210426,"current_range_meters":18800,"station_id":"ce4bhap2rcd13ifvqek0","pricing_plan_id":"cebpf4jnsgd1na2vs0mg"},{"bike_id":"0ab5c786-50df-4aa4-8e58-1514f6a60832","system_id":"levelo_inurba_marseille","lat":43.290327,"lon":5.375711,"is_reserved":false,"is_disabled":false,"rental_uris":{"android":"levelo://app?vid=0ab5c786-50df-4aa4-8e58-1514f6a60832","ios":"levelo://app?vid=0ab5c786-50df-4aa4-8e58-1514f6a60832"},"vehicle_type_id":"4","last_reported":1725210426,"current_range_meters":23200,"station_id":"ce4bh692rcd13ifvqe90","pricing_plan_id":"cebpf4jnsgd1na2vs0mg"},{"bike_id":"b0185148-71e0-41bc-ab2a-8e1fb28716e3","system_id":"levelo_inurba_marseille","lat":43.29416,"lon":5.38627,"is_reserved":false,"is_disabled":false,"rental_uris":{"android":"levelo://app?vid=b0185148-71e0-41bc-ab2a-8e1fb28716e3","ios":"levelo://app?vid=b0185148-71e0-41bc-ab2a-8e1fb28716e3"},"vehicle_type_id":"4","last_reported":1725210426,"current_range_meters":0,"station_id":"ce4bh2h2rcd13ifvqdh0","pricing_plan_id":"cebpf4jnsgd1na2vs0mg"},{"bike_id":"66c282b7-8ef5-4d74-9c8d-4259089a2a5f","system_id":"levelo_inurba_marseille","lat":43.289184,"lon":5.366408,"is_reserved":false,"is_disabled":false,"rental_uris":{"android":"levelo://app?vid=66c282b7-8ef5-4d74-9c8d-4259089a2a5f","ios":"levelo://app?vid=66c282b7-8ef5-4d74-9c8d-4259089a2a5f"},"vehicle_type_id":"4","last_reported":1725210426,"current_range_meters":4000,"station_id":"ce4bhap2rcd13ifvqek0","pricing_plan_id":"cebpf4jnsgd1na2vs0mg"},{"bike_id":"062fcf15-e905-4153-9dd5-997ff9bd85a5","system_id":"levelo_inurba_marseille","lat":43.29414,"lon":5.38625,"is_reserved":false,"is_disabled":false,"rental_uris":{"android":"levelo://app?vid=062fcf15-e905-4153-9dd5-997ff9bd85a5","ios":"levelo://app?vid=062fcf15-e905-4153-9dd5-997ff9bd85a5"},"vehicle_type_id":"4","last_reported":1725210426,"current_range_meters":0,"station_id":"ce4bh2h2rcd13ifvqdh0","pricing_plan_id":"cebpf4jnsgd1na2vs0mg"},{"bike_id":"1eb8b0ac-0ca0-4ba0-9164-cfc01a0aa9ef","system_id":"levelo_inurba_marseille","lat":43.289184,"lon":5.366408,"is_reserved":false,"is_disabled":false,"rental_uris":{"android":"levelo://app?vid=1eb8b0ac-0ca0-4ba0-9164-cfc01a0aa9ef","ios":"levelo://app?vid=1eb8b0ac-0ca0-4ba0-9164-cfc01a0aa9ef"},"vehicle_type_id":"4","last_reported":1725210426,"current_range_meters":2400,"station_id":"ce4bhap2rcd13ifvqek0","pricing_plan_id":"cebpf4jnsgd1na2vs0mg"},{"bike_id":"8a4f1e65-0444-4b08-82c5-cadca93f183b","system_id":"levelo_inurba_marseille","lat":43.289468,"lon":5.363719,"is_reserved":false,"is_disabled":false,"rental_uris":{"android":"levelo://app?vid=8a4f1e65-0444-4b08-82c5-cadca93f183b","ios":"levelo://app?vid=8a4f1e65-0444-4b08-82c5-cadca93f183b"},"vehicle_type_id":"4","last_reported":1725210426,"current_range_meters":9600,"station_id":"ce4bhc92rcd13ifvqetg","pricing_plan_id":"cebpf4jnsgd1na2vs0mg"},{"bike_id":"2b67f8c2-36d7-4b1d-9de1-053e98dabcca","system_id":"levelo_inurba_marseille","lat":43.289184,"lon":5.366408,"is_reserved":false,"is_disabled":false,"rental_uris":{"android":"levelo://app?vid=2b67f8c2-36d7-4b1d-9de1-053e98dabcca","ios":"levelo://app?vid=2b67f8c2-36d7-4b1d-9de1-053e98dabcca"},"vehicle_type_id":"4","last_reported":1725210426,"current_range_meters":0,"station_id":"ce4bhap2rcd13ifvqek0","pricing_plan_id":"cebpf4jnsgd1na2vs0mg"},{"bike_id":"72098022-f887-49f4-b414-fabd6cdd445c","system_id":"levelo_inurba_marseille","lat":43.289184,"lon":5.366408,"is_reserved":false,"is_disabled":false,"rental_uris":{"android":"levelo://app?vid=72098022-f887-49f4-b414-fabd6cdd445c","ios":"levelo://app?vid=72098022-f887-49f4-b414-fabd6cdd445c"},"vehicle_type_id":"4","last_reported":1725210426,"current_range_meters":23600,"station_id":"ce4bhap2rcd13ifvqek0","pricing_plan_id":"cebpf4jnsgd1na2vs0mg"},{"bike_id":"39bbe487-38a3-454d-bdf1-d5ae55d99506","system_id":"levelo_inurba_marseille","lat":43.289343,"lon":5.36636,"is_reserved":false,"is_disabled":false,"rental_uris":{"android":"levelo://app?vid=39bbe487-38a3-454d-bdf1-d5ae55d99506","ios":"levelo://app?vid=39bbe487-38a3-454d-bdf1-d5ae55d99506"},"vehicle_type_id":"4","last_reported":1725210426,"current_range_meters":1200,"station_id":"ce4bhap2rcd13ifvqek0","pricing_plan_id":"cebpf4jnsgd1na2vs0mg"},{"bike_id":"7a80ff04-751d-47f9-b291-9213d75041c8","system_id":"levelo_inurba_marseille","lat":43.28936,"lon":5.36392,"is_reserved":false,"is_disabled":false,"rental_uris":{"android":"levelo://app?vid=7a80ff04-751d-47f9-b291-9213d75041c8","ios":"levelo://app?vid=7a80ff04-751d-47f9-b291-9213d75041c8"},"vehicle_type_id":"4","last_reported":1725210426,"current_range_meters":10000,"station_id":"ce4bhc92rcd13ifvqetg","pricing_plan_id":"cebpf4jnsgd1na2vs0mg"},{"bike_id":"c6411a64-56ac-4fdf-b217-43c5cc46c9fc","system_id":"levelo_inurba_marseille","lat":43.32577,"lon":5.39424,"is_reserved":false,"is_disabled":false,"rental_uris":{"android":"levelo://app?vid=c6411a64-56ac-4fdf-b217-43c5cc46c9fc","ios":"levelo://app?vid=c6411a64-56ac-4fdf-b217-43c5cc46c9fc"},"vehicle_type_id":"4","last_reported":1725210426,"current_range_meters":5600,"station_id":"","pricing_plan_id":"cebpf4jnsgd1na2vs0mg"},{"bike_id":"8fa6770a-4ba3-4dcf-b1b6-83cd978ade2f","system_id":"levelo_inurba_marseille","lat":43.292644,"lon":5.384257,"is_reserved":false,"is_disabled":false,"rental_uris":{"android":"levelo://app?vid=8fa6770a-4ba3-4dcf-b1b6-83cd978ade2f","ios":"levelo://app?vid=8fa6770a-4ba3-4dcf-b1b6-83cd978ade2f"},"vehicle_type_id":"4","last_reported":1725210426,"current_range_meters":0,"station_id":"ce4bh692rcd13ifvqea0","pricing_plan_id":"cebpf4jnsgd1na2vs0mg"},{"bike_id":"a42cb0a4-67fe-45ed-b688-d2ed7c475671","system_id":"levelo_inurba_marseille","lat":43.290076,"lon":5.356183,"is_reserved":false,"is_disabled":false,"rental_uris":{"android":"levelo://app?vid=a42cb0a4-67fe-45ed-b688-d2ed7c475671","ios":"levelo://app?vid=a42cb0a4-67fe-45ed-b688-d2ed7c475671"},"vehicle_type_id":"4","last_reported":1725210426,"current_range_meters":1600,"station_id":"","pricing_plan_id":"cebpf4jnsgd1na2vs0mg"},{"bike_id":"b8be9462-e106-42cb-b4dd-d51e44f83115","system_id":"levelo_inurba_marseille","lat":43.29005,"lon":5.35612,"is_reserved":false,"is_disabled":false,"rental_uris":{"android":"levelo://app?vid=b8be9462-e106-42cb-b4dd-d51e44f83115","ios":"levelo://app?vid=b8be9462-e106-42cb-b4dd-d51e44f83115"},"vehicle_type_id":"4","last_reported":1725210426,"current_range_meters":30000,"station_id":"ce4bhb92rcd13ifvqen0","pricing_plan_id":"cebpf4jnsgd1na2vs0mg"},{"bike_id":"b25d1429-5d01-4d4f-9bd1-7ab9aab23df6","system_id":"levelo_inurba_marseille","lat":43.290995,"lon":5.381361,"is_reserved":false,"is_disabled":false,"rental_uris":{"android":"levelo://app?vid=b25d1429-5d01-4d4f-9bd1-7ab9aab23df6","ios":"levelo://app?vid=b25d1429-5d01-4d4f-9bd1-7ab9aab23df6"},"vehicle_type_id":"4","last_reported":1725210426,"current_range_meters":20800,"station_id":"ce4bh512rcd13ifvqe2g","pricing_plan_id":"cebpf4jnsgd1na2vs0mg"},{"bike_id":"cccd5021-61da-476f-9288-6120fcc0085e","system_id":"levelo_inurba_marseille","lat":43.2909,"lon":5.38146,"is_reserved":false,"is_disabled":false,"rental_uris":{"android":"levelo://app?vid=cccd5021-61da-476f-9288-6120fcc0085e","ios":"levelo://app?vid=cccd5021-61da-476f-9288-6120fcc0085e"},"vehicle_type_id":"4","last_reported":1725210426,"current_range_meters":0,"station_id":"ce4bh512rcd13ifvqe2g","pricing_plan_id":"cebpf4jnsgd1na2vs0mg"},{"bike_id":"6f9afe52-9f6a-4711-9991-adb6ce9ec28e","system_id":"levelo_inurba_marseille","lat":43.290995,"lon":5.381361,"is_reserved":false,"is_disabled":false,"rental_uris":{"android":"levelo://app?vid=6f9afe52-9f6a-4711-9991-adb6ce9ec28e","ios":"levelo://app?vid=6f9afe52-9f6a-4711-9991-adb6ce9ec28e"},"vehicle_type_id":"4","last_reported":1725210426,"current_range_meters":3600,"station_id":"ce4bh512rcd13ifvqe2g","pricing_plan_id":"cebpf4jnsgd1na2vs0mg"},{"bike_id":"5dafd8f3-1d63-4d60-af74-78460c697227","system_id":"levelo_inurba_marseille","lat":43.297807,"lon":5.393533,"is_reserved":false,"is_disabled":false,"rental_uris":{"android":"levelo://app?vid=5dafd8f3-1d63-4d60-af74-78460c697227","ios":"levelo://app?vid=5dafd8f3-1d63-4d60-af74-78460c697227"},"vehicle_type_id":"4","last_reported":1725210426,"current_range_meters":10000,"station_id":"chh1huq6cuj3fo74tm60","pricing_plan_id":"cebpf4jnsgd1na2vs0mg"},{"bike_id":"5dac6640-9af2-4dfd-b9b2-380ad3238a27","system_id":"levelo_inurba_marseille","lat":43.330442,"lon":5.389148,"is_reserved":false,"is_disabled":false,"rental_uris":{"android":"levelo://app?vid=5dac6640-9af2-4dfd-b9b2-380ad3238a27","ios":"levelo://app?vid=5dac6640-9af2-4dfd-b9b2-380ad3238a27"},"vehicle_type_id":"4","last_reported":1725210426,"current_range_meters":14000,"station_id":"ce4bhr92rcd13ifvqhrg","pricing_plan_id":"cebpf4jnsgd1na2vs0mg"},{"bike_id":"e1e9a7d7-8b9d-4cbd-a1b6-e0fb2bcc09b5","system_id":"levelo_inurba_marseille","lat":43.29787,"lon":5.39342,"is_reserved":false,"is_disabled":false,"rental_uris":{"android":"levelo://app?vid=e1e9a7d7-8b9d-4cbd-a1b6-e0fb2bcc09b5","ios":"levelo://app?vid=e1e9a7d7-8b9d-4cbd-a1b6-e0fb2bcc09b5"},"vehicle_type_id":"4","last_reported":1725210426,"current_range_meters":0,"station_id":"chh1huq6cuj3fo74tm60","pricing_plan_id":"cebpf4jnsgd1na2vs0mg"},{"bike_id":"a3441031-033a-419a-8695-f2f10fe38ba9","system_id":"levelo_inurba_marseille","lat":43.330442,"lon":5.389148,"is_reserved":false,"is_disabled":false,"rental_uris":{"android":"levelo://app?vid=a3441031-033a-419a-8695-f2f10fe38ba9","ios":"levelo://app?vid=a3441031-033a-419a-8695-f2f10fe38ba9"},"vehicle_type_id":"4","last_reported":1725210426,"current_range_meters":26400,"station_id":"ce4bhr92rcd13ifvqhrg","pricing_plan_id":"cebpf4jnsgd1na2vs0mg"},{"bike_id":"4d0c7f7e-4a39-46d1-aa2f-2d5da49de3ad","system_id":"levelo_inurba_marseille","lat":43.330442,"lon":5.389148,"is_reserved":false,"is_disabled":false,"rental_uris":{"android":"levelo://app?vid=4d0c7f7e-4a39-46d1-aa2f-2d5da49de3ad","ios":"levelo://app?vid=4d0c7f7e-4a39-46d1-aa2f-2d5da49de3ad"},"vehicle_type_id":"4","last_reported":1725210426,"current_range_meters":31600,"station_id":"ce4bhr92rcd13ifvqhrg","pricing_plan_id":"cebpf4jnsgd1na2vs0mg"},{"bike_id":"e74ecfe6-eb2e-4c31-b8da-544da791e5bd","system_id":"levelo_inurba_marseille","lat":43.330442,"lon":5.389148,"is_reserved":false,"is_disabled":false,"rental_uris":{"android":"levelo://app?vid=e74ecfe6-eb2e-4c31-b8da-544da791e5bd","ios":"levelo://app?vid=e74ecfe6-eb2e-4c31-b8da-544da791e5bd"},"vehicle_type_id":"4","last_reported":1725210426,"current_range_meters":28400,"station_id":"ce4bhr92rcd13ifvqhrg","pricing_plan_id":"cebpf4jnsgd1na2vs0mg"},{"bike_id":"f1541081-dcfa-45c5-bc7e-5ad387cd7960","system_id":"levelo_inurba_marseille","lat":43.330442,"lon":5.389148,"is_reserved":false,"is_disabled":false,"rental_uris":{"android":"levelo://app?vid=f1541081-dcfa-45c5-bc7e-5ad387cd7960","ios":"levelo://app?vid=f1541081-dcfa-45c5-bc7e-5ad387cd7960"},"vehicle_type_id":"4","last_reported":1725210426,"current_range_meters":24400,"station_id":"ce4bhr92rcd13ifvqhrg","pricing_plan_id":"cebpf4jnsgd1na2vs0mg"},{"bike_id":"5df796a7-002c-4142-8a85-14e157010bd9","system_id":"levelo_inurba_marseille","lat":43.330442,"lon":5.389148,"is_reserved":false,"is_disabled":false,"rental_uris":{"android":"levelo://app?vid=5df796a7-002c-4142-8a85-14e157010bd9","ios":"levelo://app?vid=5df796a7-002c-4142-8a85-14e157010bd9"},"vehicle_type_id":"4","last_reported":1725210426,"current_range_meters":2400,"station_id":"ce4bhr92rcd13ifvqhrg","pricing_plan_id":"cebpf4jnsgd1na2vs0mg"},{"bike_id":"860f2f85-6e7c-4bb8-9960-82b58fd0cde1","system_id":"levelo_inurba_marseille","lat":43.330442,"lon":5.389148,"is_reserved":false,"is_disabled":false,"rental_uris":{"android":"levelo://app?vid=860f2f85-6e7c-4bb8-9960-82b58fd0cde1","ios":"levelo://app?vid=860f2f85-6e7c-4bb8-9960-82b58fd0cde1"},"vehicle_type_id":"4","last_reported":1725210426,"current_range_meters":25200,"station_id":"ce4bhr92rcd13ifvqhrg","pricing_plan_id":"cebpf4jnsgd1na2vs0mg"},{"bike_id":"38b1b945-b6f9-431d-9abc-83b2a87a2220","system_id":"levelo_inurba_marseille","lat":43.330442,"lon":5.389148,"is_reserved":false,"is_disabled":false,"rental_uris":{"android":"levelo://app?vid=38b1b945-b6f9-431d-9abc-83b2a87a2220","ios":"levelo://app?vid=38b1b945-b6f9-431d-9abc-83b2a87a2220"},"vehicle_type_id":"4","last_reported":1725210426,"current_range_meters":8400,"station_id":"ce4bhr92rcd13ifvqhrg","pricing_plan_id":"cebpf4jnsgd1na2vs0mg"},{"bike_id":"4a9a1e51-7219-4a31-a70b-e012f561a7f8","system_id":"levelo_inurba_marseille","lat":43.330442,"lon":5.389148,"is_reserved":false,"is_disabled":false,"rental_uris":{"android":"levelo://app?vid=4a9a1e51-7219-4a31-a70b-e012f561a7f8","ios":"levelo://app?vid=4a9a1e51-7219-4a31-a70b-e012f561a7f8"},"vehicle_type_id":"4","last_reported":1725210426,"current_range_meters":31600,"station_id":"ce4bhr92rcd13ifvqhrg","pricing_plan_id":"cebpf4jnsgd1na2vs0mg"},{"bike_id":"8309b535-efc8-47f5-8520-c061544de8a1","system_id":"levelo_inurba_marseille","lat":43.330442,"lon":5.389148,"is_reserved":false,"is_disabled":false,"rental_uris":{"android":"levelo://app?vid=8309b535-efc8-47f5-8520-c061544de8a1","ios":"levelo://app?vid=8309b535-efc8-47f5-8520-c061544de8a1"},"vehicle_type_id":"4","last_reported":1725210426,"current_range_meters":24400,"station_id":"ce4bhr92rcd13ifvqhrg","pricing_plan_id":"cebpf4jnsgd1na2vs0mg"},{"bike_id":"412f6830-ef0d-4421-a421-c52edee2f9ff","system_id":"levelo_inurba_marseille","lat":43.330442,"lon":5.389148,"is_reserved":false,"is_disabled":false,"rental_uris":{"android":"levelo://app?vid=412f6830-ef0d-4421-a421-c52edee2f9ff","ios":"levelo://app?vid=412f6830-ef0d-4421-a421-c52edee2f9ff"},"vehicle_type_id":"4","last_reported":1725210426,"current_range_meters":15200,"station_id":"ce4bhr92rcd13ifvqhrg","pricing_plan_id":"cebpf4jnsgd1na2vs0mg"},{"bike_id":"df877fdf-5044-4794-a2dd-18df99a61e3c","system_id":"levelo_inurba_marseille","lat":43.29521,"lon":5.39042,"is_reserved":false,"is_disabled":false,"rental_uris":{"android":"levelo://app?vid=df877fdf-5044-4794-a2dd-18df99a61e3c","ios":"levelo://app?vid=df877fdf-5044-4794-a2dd-18df99a61e3c"},"vehicle_type_id":"4","last_reported":1725210426,"current_range_meters":0,"station_id":"ce4bh3p2rcd13ifvqdp0","pricing_plan_id":"cebpf4jnsgd1na2vs0mg"},{"bike_id":"b4d72dfb-44d6-481e-b962-e97da5810506","system_id":"levelo_inurba_marseille","lat":43.29523,"lon":5.39046,"is_reserved":false,"is_disabled":false,"rental_uris":{"android":"levelo://app?vid=b4d72dfb-44d6-481e-b962-e97da5810506","ios":"levelo://app?vid=b4d72dfb-44d6-481e-b962-e97da5810506"},"vehicle_type_id":"4","last_reported":1725210426,"current_range_meters":0,"station_id":"ce4bh3p2rcd13ifvqdp0","pricing_plan_id":"cebpf4jnsgd1na2vs0mg"},{"bike_id":"6e51196e-d8f4-4102-9034-57e435fc78b1","system_id":"levelo_inurba_marseille","lat":43.330442,"lon":5.389148,"is_reserved":false,"is_disabled":false,"rental_uris":{"android":"levelo://app?vid=6e51196e-d8f4-4102-9034-57e435fc78b1","ios":"levelo://app?vid=6e51196e-d8f4-4102-9034-57e435fc78b1"},"vehicle_type_id":"4","last_reported":1725210426,"current_range_meters":5600,"station_id":"ce4bhr92rcd13ifvqhrg","pricing_plan_id":"cebpf4jnsgd1na2vs0mg"},{"bike_id":"d69baf54-fb6f-469a-8dab-912c4c76641d","system_id":"levelo_inurba_marseille","lat":43.295169,"lon":5.390426,"is_reserved":false,"is_disabled":false,"rental_uris":{"android":"levelo://app?vid=d69baf54-fb6f-469a-8dab-912c4c76641d","ios":"levelo://app?vid=d69baf54-fb6f-469a-8dab-912c4c76641d"},"vehicle_type_id":"4","last_reported":1725210426,"current_range_meters":2000,"station_id":"ce4bh3p2rcd13ifvqdp0","pricing_plan_id":"cebpf4jnsgd1na2vs0mg"},{"bike_id":"589453fd-025c-4398-a195-f24bcecb3f1c","system_id":"levelo_inurba_marseille","lat":43.330442,"lon":5.389148,"is_reserved":false,"is_disabled":false,"rental_uris":{"android":"levelo://app?vid=589453fd-025c-4398-a195-f24bcecb3f1c","ios":"levelo://app?vid=589453fd-025c-4398-a195-f24bcecb3f1c"},"vehicle_type_id":"4","last_reported":1725210426,"current_range_meters":21200,"station_id":"ce4bhr92rcd13ifvqhrg","pricing_plan_id":"cebpf4jnsgd1na2vs0mg"},{"bike_id":"6838ea59-8591-4efb-bd36-6dbd32a3ba82","system_id":"levelo_inurba_marseille","lat":43.295169,"lon":5.390426,"is_reserved":false,"is_disabled":false,"rental_uris":{"android":"levelo://app?vid=6838ea59-8591-4efb-bd36-6dbd32a3ba82","ios":"levelo://app?vid=6838ea59-8591-4efb-bd36-6dbd32a3ba82"},"vehicle_type_id":"4","last_reported":1725210426,"current_range_meters":30800,"station_id":"ce4bh3p2rcd13ifvqdp0","pricing_plan_id":"cebpf4jnsgd1na2vs0mg"},{"bike_id":"f039f03d-dc10-49d6-9099-db397c805413","system_id":"levelo_inurba_marseille","lat":43.295169,"lon":5.390426,"is_reserved":false,"is_disabled":false,"rental_uris":{"android":"levelo://app?vid=f039f03d-dc10-49d6-9099-db397c805413","ios":"levelo://app?vid=f039f03d-dc10-49d6-9099-db397c805413"},"vehicle_type_id":"4","last_reported":1725210426,"current_range_meters":16000,"station_id":"ce4bh3p2rcd13ifvqdp0","pricing_plan_id":"cebpf4jnsgd1na2vs0mg"},{"bike_id":"93d56c3d-6ca8-4baa-83ab-d619acde2e30","system_id":"levelo_inurba_marseille","lat":43.312609,"lon":5.401662,"is_reserved":false,"is_disabled":false,"rental_uris":{"android":"levelo://app?vid=93d56c3d-6ca8-4baa-83ab-d619acde2e30","ios":"levelo://app?vid=93d56c3d-6ca8-4baa-83ab-d619acde2e30"},"vehicle_type_id":"4","last_reported":1725210426,"current_range_meters":17200,"station_id":"ce4bh092rcd13ifvqd30","pricing_plan_id":"cebpf4jnsgd1na2vs0mg"},{"bike_id":"aff3aba7-1308-4647-a2e8-46ac5032b894","system_id":"levelo_inurba_marseille","lat":43.2901,"lon":5.381269,"is_reserved":false,"is_disabled":false,"rental_uris":{"android":"levelo://app?vid=aff3aba7-1308-4647-a2e8-46ac5032b894","ios":"levelo://app?vid=aff3aba7-1308-4647-a2e8-46ac5032b894"},"vehicle_type_id":"4","last_reported":1725210426,"current_range_meters":2800,"station_id":"ce4bh4p2rcd13ifvqe1g","pricing_plan_id":"cebpf4jnsgd1na2vs0mg"},{"bike_id":"1dc7384d-20bf-49d6-9f0b-203592b00455","system_id":"levelo_inurba_marseille","lat":43.28856,"lon":5.358371,"is_reserved":false,"is_disabled":false,"rental_uris":{"android":"levelo://app?vid=1dc7384d-20bf-49d6-9f0b-203592b00455","ios":"levelo://app?vid=1dc7384d-20bf-49d6-9f0b-203592b00455"},"vehicle_type_id":"4","last_reported":1725210426,"current_range_meters":0,"station_id":"ce4bhb12rcd13ifvqem0","pricing_plan_id":"cebpf4jnsgd1na2vs0mg"},{"bike_id":"2dac80ec-f83f-4f81-ba55-8dfb693fa24e","system_id":"levelo_inurba_marseille","lat":43.31268,"lon":5.40171,"is_reserved":false,"is_disabled":false,"rental_uris":{"android":"levelo://app?vid=2dac80ec-f83f-4f81-ba55-8dfb693fa24e","ios":"levelo://app?vid=2dac80ec-f83f-4f81-ba55-8dfb693fa24e"},"vehicle_type_id":"4","last_reported":1725210426,"current_range_meters":28800,"station_id":"ce4bh092rcd13ifvqd30","pricing_plan_id":"cebpf4jnsgd1na2vs0mg"},{"bike_id":"2cf757ba-6687-4498-9085-10d09452f568","system_id":"levelo_inurba_marseille","lat":43.33745,"lon":5.37453,"is_reserved":false,"is_disabled":false,"rental_uris":{"android":"levelo://app?vid=2cf757ba-6687-4498-9085-10d09452f568","ios":"levelo://app?vid=2cf757ba-6687-4498-9085-10d09452f568"},"vehicle_type_id":"4","last_reported":1725210426,"current_range_meters":26000,"station_id":"","pricing_plan_id":"cebpf4jnsgd1na2vs0mg"},{"bike_id":"ff25deff-8b4d-47b2-bed7-cd1d5db5f9bc","system_id":"levelo_inurba_marseille","lat":43.309371,"lon":5.401449,"is_reserved":false,"is_disabled":false,"rental_uris":{"android":"levelo://app?vid=ff25deff-8b4d-47b2-bed7-cd1d5db5f9bc","ios":"levelo://app?vid=ff25deff-8b4d-47b2-bed7-cd1d5db5f9bc"},"vehicle_type_id":"4","last_reported":1725210426,"current_range_meters":0,"station_id":"ce4bgvp2rcd13ifvqct0","pricing_plan_id":"cebpf4jnsgd1na2vs0mg"},{"bike_id":"8cac9b46-db8b-4978-9ee4-b0375bb93662","system_id":"levelo_inurba_marseille","lat":43.33749,"lon":5.37468,"is_reserved":false,"is_disabled":false,"rental_uris":{"android":"levelo://app?vid=8cac9b46-db8b-4978-9ee4-b0375bb93662","ios":"levelo://app?vid=8cac9b46-db8b-4978-9ee4-b0375bb93662"},"vehicle_type_id":"4","last_reported":1725210426,"current_range_meters":22400,"station_id":"","pricing_plan_id":"cebpf4jnsgd1na2vs0mg"},{"bike_id":"a8227e9b-bd18-4fc0-b815-b7e484f2391f","system_id":"levelo_inurba_marseille","lat":43.33756,"lon":5.37449,"is_reserved":false,"is_disabled":false,"rental_uris":{"android":"levelo://app?vid=a8227e9b-bd18-4fc0-b815-b7e484f2391f","ios":"levelo://app?vid=a8227e9b-bd18-4fc0-b815-b7e484f2391f"},"vehicle_type_id":"4","last_reported":1725210426,"current_range_meters":25200,"station_id":"","pricing_plan_id":"cebpf4jnsgd1na2vs0mg"},{"bike_id":"9c962252-0360-48fb-b06d-72db91ccfe48","system_id":"levelo_inurba_marseille","lat":43.29877,"lon":5.39729,"is_reserved":false,"is_disabled":false,"rental_uris":{"android":"levelo://app?vid=9c962252-0360-48fb-b06d-72db91ccfe48","ios":"levelo://app?vid=9c962252-0360-48fb-b06d-72db91ccfe48"},"vehicle_type_id":"4","last_reported":1725210426,"current_range_meters":31600,"station_id":"ce4bh0h2rcd13ifvqd50","pricing_plan_id":"cebpf4jnsgd1na2vs0mg"},{"bike_id":"7a843588-1cbf-440a-a2c3-50ffa792c88f","system_id":"levelo_inurba_marseille","lat":43.286591,"lon":5.363346,"is_reserved":false,"is_disabled":false,"rental_uris":{"android":"levelo://app?vid=7a843588-1cbf-440a-a2c3-50ffa792c88f","ios":"levelo://app?vid=7a843588-1cbf-440a-a2c3-50ffa792c88f"},"vehicle_type_id":"4","last_reported":1725210426,"current_range_meters":13200,"station_id":"ce4bhah2rcd13ifvqej0","pricing_plan_id":"cebpf4jnsgd1na2vs0mg"},{"bike_id":"2e17db75-798d-4541-ad67-6c0629146261","system_id":"levelo_inurba_marseille","lat":43.286593,"lon":5.363346,"is_reserved":false,"is_disabled":false,"rental_uris":{"android":"levelo://app?vid=2e17db75-798d-4541-ad67-6c0629146261","ios":"levelo://app?vid=2e17db75-798d-4541-ad67-6c0629146261"},"vehicle_type_id":"4","last_reported":1725210426,"current_range_meters":5600,"station_id":"ce4bhah2rcd13ifvqej0","pricing_plan_id":"cebpf4jnsgd1na2vs0mg"},{"bike_id":"1c1f38e6-5895-4e1b-88b7-7d058e856a07","system_id":"levelo_inurba_marseille","lat":43.286593,"lon":5.363346,"is_reserved":false,"is_disabled":false,"rental_uris":{"android":"levelo://app?vid=1c1f38e6-5895-4e1b-88b7-7d058e856a07","ios":"levelo://app?vid=1c1f38e6-5895-4e1b-88b7-7d058e856a07"},"vehicle_type_id":"4","last_reported":1725210426,"current_range_meters":2400,"station_id":"ce4bhah2rcd13ifvqej0","pricing_plan_id":"cebpf4jnsgd1na2vs0mg"},{"bike_id":"d4a64197-4a87-46b7-95c6-407a012fca4a","system_id":"levelo_inurba_marseille","lat":43.289307,"lon":5.38406,"is_reserved":false,"is_disabled":false,"rental_uris":{"android":"levelo://app?vid=d4a64197-4a87-46b7-95c6-407a012fca4a","ios":"levelo://app?vid=d4a64197-4a87-46b7-95c6-407a012fca4a"},"vehicle_type_id":"4","last_reported":1725210426,"current_range_meters":25200,"station_id":"ce4bh612rcd13ifvqe6g","pricing_plan_id":"cebpf4jnsgd1na2vs0mg"},{"bike_id":"465078a5-2bfe-40ed-b6bb-7a24eec5c13d","system_id":"levelo_inurba_marseille","lat":43.28922,"lon":5.38393,"is_reserved":false,"is_disabled":false,"rental_uris":{"android":"levelo://app?vid=465078a5-2bfe-40ed-b6bb-7a24eec5c13d","ios":"levelo://app?vid=465078a5-2bfe-40ed-b6bb-7a24eec5c13d"},"vehicle_type_id":"4","last_reported":1725210426,"current_range_meters":1200,"station_id":"ce4bh612rcd13ifvqe6g","pricing_plan_id":"cebpf4jnsgd1na2vs0mg"},{"bike_id":"4e9a3d33-fb13-4a7d-8433-afcf3b72a922","system_id":"levelo_inurba_marseille","lat":43.290336,"lon":5.386425,"is_reserved":false,"is_disabled":false,"rental_uris":{"android":"levelo://app?vid=4e9a3d33-fb13-4a7d-8433-afcf3b72a922","ios":"levelo://app?vid=4e9a3d33-fb13-4a7d-8433-afcf3b72a922"},"vehicle_type_id":"4","last_reported":1725210426,"current_range_meters":29600,"station_id":"ce4bh4p2rcd13ifvqe0g","pricing_plan_id":"cebpf4jnsgd1na2vs0mg"},{"bike_id":"0640f38a-cf2a-4776-9689-d8ca5814f2f9","system_id":"levelo_inurba_marseille","lat":43.29027,"lon":5.38647,"is_reserved":false,"is_disabled":false,"rental_uris":{"android":"levelo://app?vid=0640f38a-cf2a-4776-9689-d8ca5814f2f9","ios":"levelo://app?vid=0640f38a-cf2a-4776-9689-d8ca5814f2f9"},"vehicle_type_id":"4","last_reported":1725210426,"current_range_meters":400,"station_id":"ce4bh4p2rcd13ifvqe0g","pricing_plan_id":"cebpf4jnsgd1na2vs0mg"},{"bike_id":"1c7706ff-1aac-4c0d-b074-387d0c265566","system_id":"levelo_inurba_marseille","lat":43.3024,"lon":5.40062,"is_reserved":false,"is_disabled":false,"rental_uris":{"android":"levelo://app?vid=1c7706ff-1aac-4c0d-b074-387d0c265566","ios":"levelo://app?vid=1c7706ff-1aac-4c0d-b074-387d0c265566"},"vehicle_type_id":"4","last_reported":1725210426,"current_range_meters":14400,"station_id":"ce4bgvh2rcd13ifvqcs0","pricing_plan_id":"cebpf4jnsgd1na2vs0mg"},{"bike_id":"6c95549f-5782-415b-a4d6-51d894b948d5","system_id":"levelo_inurba_marseille","lat":43.283998,"lon":5.375062,"is_reserved":false,"is_disabled":false,"rental_uris":{"android":"levelo://app?vid=6c95549f-5782-415b-a4d6-51d894b948d5","ios":"levelo://app?vid=6c95549f-5782-415b-a4d6-51d894b948d5"},"vehicle_type_id":"4","last_reported":1725210426,"current_range_meters":8400,"station_id":"ce4bh412rcd13ifvqds0","pricing_plan_id":"cebpf4jnsgd1na2vs0mg"},{"bike_id":"e6072055-4d94-498d-b515-2b76881497ba","system_id":"levelo_inurba_marseille","lat":43.28608,"lon":5.37066,"is_reserved":false,"is_disabled":false,"rental_uris":{"android":"levelo://app?vid=e6072055-4d94-498d-b515-2b76881497ba","ios":"levelo://app?vid=e6072055-4d94-498d-b515-2b76881497ba"},"vehicle_type_id":"4","last_reported":1725210426,"current_range_meters":0,"station_id":"ce4bht12rcd13ifvqi60","pricing_plan_id":"cebpf4jnsgd1na2vs0mg"},{"bike_id":"2be6819c-c632-4162-9d01-083c5272666b","system_id":"levelo_inurba_marseille","lat":43.327418,"lon":5.39882,"is_reserved":false,"is_disabled":false,"rental_uris":{"android":"levelo://app?vid=2be6819c-c632-4162-9d01-083c5272666b","ios":"levelo://app?vid=2be6819c-c632-4162-9d01-083c5272666b"},"vehicle_type_id":"4","last_reported":1725210426,"current_range_meters":15200,"station_id":"","pricing_plan_id":"cebpf4jnsgd1na2vs0mg"},{"bike_id":"26b38cdc-634a-41de-a1f4-252453380cdd","system_id":"levelo_inurba_marseille","lat":43.316828,"lon":5.404723,"is_reserved":false,"is_disabled":false,"rental_uris":{"android":"levelo://app?vid=26b38cdc-634a-41de-a1f4-252453380cdd","ios":"levelo://app?vid=26b38cdc-634a-41de-a1f4-252453380cdd"},"vehicle_type_id":"4","last_reported":1725210426,"current_range_meters":31200,"station_id":"ce4bh012rcd13ifvqd00","pricing_plan_id":"cebpf4jnsgd1na2vs0mg"},{"bike_id":"5291bf39-bd65-4ce2-aa35-f26c3138ea79","system_id":"levelo_inurba_marseille","lat":43.30031,"lon":5.40174,"is_reserved":false,"is_disabled":false,"rental_uris":{"android":"levelo://app?vid=5291bf39-bd65-4ce2-aa35-f26c3138ea79","ios":"levelo://app?vid=5291bf39-bd65-4ce2-aa35-f26c3138ea79"},"vehicle_type_id":"4","last_reported":1725210426,"current_range_meters":17600,"station_id":"","pricing_plan_id":"cebpf4jnsgd1na2vs0mg"},{"bike_id":"8bf3ed87-19bd-4318-9868-04342036b67a","system_id":"levelo_inurba_marseille","lat":43.291994,"lon":5.392907,"is_reserved":false,"is_disabled":false,"rental_uris":{"android":"levelo://app?vid=8bf3ed87-19bd-4318-9868-04342036b67a","ios":"levelo://app?vid=8bf3ed87-19bd-4318-9868-04342036b67a"},"vehicle_type_id":"4","last_reported":1725210426,"current_range_meters":18400,"station_id":"ce4bh192rcd13ifvqdd0","pricing_plan_id":"cebpf4jnsgd1na2vs0mg"},{"bike_id":"9d23dc81-0a72-4156-83c7-82bea9917c2c","system_id":"levelo_inurba_marseille","lat":43.291994,"lon":5.392907,"is_reserved":false,"is_disabled":false,"rental_uris":{"android":"levelo://app?vid=9d23dc81-0a72-4156-83c7-82bea9917c2c","ios":"levelo://app?vid=9d23dc81-0a72-4156-83c7-82bea9917c2c"},"vehicle_type_id":"4","last_reported":1725210426,"current_range_meters":0,"station_id":"ce4bh192rcd13ifvqdd0","pricing_plan_id":"cebpf4jnsgd1na2vs0mg"},{"bike_id":"05c62621-a42f-4b08-b3c3-29990fd8c980","system_id":"levelo_inurba_marseille","lat":43.291994,"lon":5.392907,"is_reserved":false,"is_disabled":false,"rental_uris":{"android":"levelo://app?vid=05c62621-a42f-4b08-b3c3-29990fd8c980","ios":"levelo://app?vid=05c62621-a42f-4b08-b3c3-29990fd8c980"},"vehicle_type_id":"4","last_reported":1725210426,"current_range_meters":6400,"station_id":"ce4bh192rcd13ifvqdd0","pricing_plan_id":"cebpf4jnsgd1na2vs0mg"},{"bike_id":"22d8f4c6-0c8e-4839-85df-8950e0297f2c","system_id":"levelo_inurba_marseille","lat":43.291994,"lon":5.392907,"is_reserved":false,"is_disabled":false,"rental_uris":{"android":"levelo://app?vid=22d8f4c6-0c8e-4839-85df-8950e0297f2c","ios":"levelo://app?vid=22d8f4c6-0c8e-4839-85df-8950e0297f2c"},"vehicle_type_id":"4","last_reported":1725210426,"current_range_meters":0,"station_id":"ce4bh192rcd13ifvqdd0","pricing_plan_id":"cebpf4jnsgd1na2vs0mg"},{"bike_id":"a98c6355-682a-4f1c-adc7-255f27cbbd14","system_id":"levelo_inurba_marseille","lat":43.284538,"lon":5.358657,"is_reserved":false,"is_disabled":false,"rental_uris":{"android":"levelo://app?vid=a98c6355-682a-4f1c-adc7-255f27cbbd14","ios":"levelo://app?vid=a98c6355-682a-4f1c-adc7-255f27cbbd14"},"vehicle_type_id":"4","last_reported":1725210426,"current_range_meters":4400,"station_id":"ce4bhah2rcd13ifvqei0","pricing_plan_id":"cebpf4jnsgd1na2vs0mg"},{"bike_id":"86bb83d7-bf24-4761-8dd6-5803bb9a9dbd","system_id":"levelo_inurba_marseille","lat":43.303256,"lon":5.404389,"is_reserved":false,"is_disabled":false,"rental_uris":{"android":"levelo://app?vid=86bb83d7-bf24-4761-8dd6-5803bb9a9dbd","ios":"levelo://app?vid=86bb83d7-bf24-4761-8dd6-5803bb9a9dbd"},"vehicle_type_id":"4","last_reported":1725210426,"current_range_meters":31200,"station_id":"ce4bh012rcd13ifvqd10","pricing_plan_id":"cebpf4jnsgd1na2vs0mg"},{"bike_id":"ab17c9f3-cebd-4787-b024-5b3930800bab","system_id":"levelo_inurba_marseille","lat":43.294314,"lon":5.397498,"is_reserved":false,"is_disabled":false,"rental_uris":{"android":"levelo://app?vid=ab17c9f3-cebd-4787-b024-5b3930800bab","ios":"levelo://app?vid=ab17c9f3-cebd-4787-b024-5b3930800bab"},"vehicle_type_id":"4","last_reported":1725210426,"current_range_meters":1200,"station_id":"ce4bh3h2rcd13ifvqdo0","pricing_plan_id":"cebpf4jnsgd1na2vs0mg"},{"bike_id":"d108e146-21a5-4d8c-aef5-2954420d0dde","system_id":"levelo_inurba_marseille","lat":43.30709,"lon":5.40581,"is_reserved":false,"is_disabled":false,"rental_uris":{"android":"levelo://app?vid=d108e146-21a5-4d8c-aef5-2954420d0dde","ios":"levelo://app?vid=d108e146-21a5-4d8c-aef5-2954420d0dde"},"vehicle_type_id":"4","last_reported":1725210426,"current_range_meters":17200,"station_id":"","pricing_plan_id":"cebpf4jnsgd1na2vs0mg"},{"bike_id":"30497ba8-ae5c-42cf-8db9-d13a452bcb25","system_id":"levelo_inurba_marseille","lat":43.30317,"lon":5.40438,"is_reserved":false,"is_disabled":false,"rental_uris":{"android":"levelo://app?vid=30497ba8-ae5c-42cf-8db9-d13a452bcb25","ios":"levelo://app?vid=30497ba8-ae5c-42cf-8db9-d13a452bcb25"},"vehicle_type_id":"4","last_reported":1725210426,"current_range_meters":8000,"station_id":"ce4bh012rcd13ifvqd10","pricing_plan_id":"cebpf4jnsgd1na2vs0mg"},{"bike_id":"25fb3279-aea7-4067-a46e-554cd780cb31","system_id":"levelo_inurba_marseille","lat":43.303256,"lon":5.404389,"is_reserved":false,"is_disabled":false,"rental_uris":{"android":"levelo://app?vid=25fb3279-aea7-4067-a46e-554cd780cb31","ios":"levelo://app?vid=25fb3279-aea7-4067-a46e-554cd780cb31"},"vehicle_type_id":"4","last_reported":1725210426,"current_range_meters":0,"station_id":"ce4bh012rcd13ifvqd10","pricing_plan_id":"cebpf4jnsgd1na2vs0mg"},{"bike_id":"2e181bbe-49d5-49a1-b892-1f22bad96a8c","system_id":"levelo_inurba_marseille","lat":43.303256,"lon":5.404389,"is_reserved":false,"is_disabled":false,"rental_uris":{"android":"levelo://app?vid=2e181bbe-49d5-49a1-b892-1f22bad96a8c","ios":"levelo://app?vid=2e181bbe-49d5-49a1-b892-1f22bad96a8c"},"vehicle_type_id":"4","last_reported":1725210426,"current_range_meters":0,"station_id":"ce4bh012rcd13ifvqd10","pricing_plan_id":"cebpf4jnsgd1na2vs0mg"},{"bike_id":"b8ba6ff1-2565-45fa-8f75-7b24994bdb37","system_id":"levelo_inurba_marseille","lat":43.294314,"lon":5.397498,"is_reserved":false,"is_disabled":false,"rental_uris":{"android":"levelo://app?vid=b8ba6ff1-2565-45fa-8f75-7b24994bdb37","ios":"levelo://app?vid=b8ba6ff1-2565-45fa-8f75-7b24994bdb37"},"vehicle_type_id":"4","last_reported":1725210426,"current_range_meters":23600,"station_id":"ce4bh3h2rcd13ifvqdo0","pricing_plan_id":"cebpf4jnsgd1na2vs0mg"},{"bike_id":"b6d0b6da-969a-4665-9be8-2b45fa13980b","system_id":"levelo_inurba_marseille","lat":43.28429,"lon":5.37514,"is_reserved":false,"is_disabled":false,"rental_uris":{"android":"levelo://app?vid=b6d0b6da-969a-4665-9be8-2b45fa13980b","ios":"levelo://app?vid=b6d0b6da-969a-4665-9be8-2b45fa13980b"},"vehicle_type_id":"4","last_reported":1725210426,"current_range_meters":0,"station_id":"ce4bh412rcd13ifvqds0","pricing_plan_id":"cebpf4jnsgd1na2vs0mg"},{"bike_id":"3223ff0b-533c-4d45-805b-d4ef3f0eeef8","system_id":"levelo_inurba_marseille","lat":43.29569,"lon":5.39968,"is_reserved":false,"is_disabled":false,"rental_uris":{"android":"levelo://app?vid=3223ff0b-533c-4d45-805b-d4ef3f0eeef8","ios":"levelo://app?vid=3223ff0b-533c-4d45-805b-d4ef3f0eeef8"},"vehicle_type_id":"4","last_reported":1725210426,"current_range_meters":0,"station_id":"ce4bh312rcd13ifvqdj0","pricing_plan_id":"cebpf4jnsgd1na2vs0mg"},{"bike_id":"74111a89-918d-4029-96ff-28b65d9aece0","system_id":"levelo_inurba_marseille","lat":43.28405,"lon":5.37519,"is_reserved":false,"is_disabled":false,"rental_uris":{"android":"levelo://app?vid=74111a89-918d-4029-96ff-28b65d9aece0","ios":"levelo://app?vid=74111a89-918d-4029-96ff-28b65d9aece0"},"vehicle_type_id":"4","last_reported":1725210426,"current_range_meters":0,"station_id":"ce4bh412rcd13ifvqds0","pricing_plan_id":"cebpf4jnsgd1na2vs0mg"},{"bike_id":"ab4aac7e-8635-4ace-aadc-7ed38d31aa05","system_id":"levelo_inurba_marseille","lat":43.286595,"lon":5.386795,"is_reserved":false,"is_disabled":false,"rental_uris":{"android":"levelo://app?vid=ab4aac7e-8635-4ace-aadc-7ed38d31aa05","ios":"levelo://app?vid=ab4aac7e-8635-4ace-aadc-7ed38d31aa05"},"vehicle_type_id":"4","last_reported":1725210426,"current_range_meters":0,"station_id":"ce4bh492rcd13ifvqdug","pricing_plan_id":"cebpf4jnsgd1na2vs0mg"},{"bike_id":"0898dedf-4989-4fbc-b357-76534279a23b","system_id":"levelo_inurba_marseille","lat":43.286595,"lon":5.386795,"is_reserved":false,"is_disabled":false,"rental_uris":{"android":"levelo://app?vid=0898dedf-4989-4fbc-b357-76534279a23b","ios":"levelo://app?vid=0898dedf-4989-4fbc-b357-76534279a23b"},"vehicle_type_id":"4","last_reported":1725210426,"current_range_meters":17200,"station_id":"ce4bh492rcd13ifvqdug","pricing_plan_id":"cebpf4jnsgd1na2vs0mg"},{"bike_id":"9eb59c3b-4651-4aa1-a432-1ab08834bbd0","system_id":"levelo_inurba_marseille","lat":43.286595,"lon":5.386795,"is_reserved":false,"is_disabled":false,"rental_uris":{"android":"levelo://app?vid=9eb59c3b-4651-4aa1-a432-1ab08834bbd0","ios":"levelo://app?vid=9eb59c3b-4651-4aa1-a432-1ab08834bbd0"},"vehicle_type_id":"4","last_reported":1725210426,"current_range_meters":2000,"station_id":"ce4bh492rcd13ifvqdug","pricing_plan_id":"cebpf4jnsgd1na2vs0mg"},{"bike_id":"ed8a8466-5986-4027-8c31-580266dde4e7","system_id":"levelo_inurba_marseille","lat":43.286595,"lon":5.386795,"is_reserved":false,"is_disabled":false,"rental_uris":{"android":"levelo://app?vid=ed8a8466-5986-4027-8c31-580266dde4e7","ios":"levelo://app?vid=ed8a8466-5986-4027-8c31-580266dde4e7"},"vehicle_type_id":"4","last_reported":1725210426,"current_range_meters":1200,"station_id":"ce4bh492rcd13ifvqdug","pricing_plan_id":"cebpf4jnsgd1na2vs0mg"},{"bike_id":"ee61dabc-670f-4852-a5a3-f21b73393a05","system_id":"levelo_inurba_marseille","lat":43.32329,"lon":5.40616,"is_reserved":false,"is_disabled":false,"rental_uris":{"android":"levelo://app?vid=ee61dabc-670f-4852-a5a3-f21b73393a05","ios":"levelo://app?vid=ee61dabc-670f-4852-a5a3-f21b73393a05"},"vehicle_type_id":"4","last_reported":1725210426,"current_range_meters":6000,"station_id":"ce4bhq92rcd13ifvqhjg","pricing_plan_id":"cebpf4jnsgd1na2vs0mg"},{"bike_id":"bb0e7740-7861-4bd7-acd0-210fce8e654c","system_id":"levelo_inurba_marseille","lat":43.337168,"lon":5.391825,"is_reserved":false,"is_disabled":false,"rental_uris":{"android":"levelo://app?vid=bb0e7740-7861-4bd7-acd0-210fce8e654c","ios":"levelo://app?vid=bb0e7740-7861-4bd7-acd0-210fce8e654c"},"vehicle_type_id":"4","last_reported":1725210426,"current_range_meters":31600,"station_id":"ce4bhr92rcd13ifvqhsg","pricing_plan_id":"cebpf4jnsgd1na2vs0mg"},{"bike_id":"2b55b6d6-d82b-4fb6-941a-93e4a5f274cd","system_id":"levelo_inurba_marseille","lat":43.32338,"lon":5.40615,"is_reserved":false,"is_disabled":false,"rental_uris":{"android":"levelo://app?vid=2b55b6d6-d82b-4fb6-941a-93e4a5f274cd","ios":"levelo://app?vid=2b55b6d6-d82b-4fb6-941a-93e4a5f274cd"},"vehicle_type_id":"4","last_reported":1725210426,"current_range_meters":28000,"station_id":"ce4bhq92rcd13ifvqhjg","pricing_plan_id":"cebpf4jnsgd1na2vs0mg"},{"bike_id":"f63f6dff-3f68-4a73-9872-109daa1a4785","system_id":"levelo_inurba_marseille","lat":43.32336,"lon":5.40625,"is_reserved":false,"is_disabled":false,"rental_uris":{"android":"levelo://app?vid=f63f6dff-3f68-4a73-9872-109daa1a4785","ios":"levelo://app?vid=f63f6dff-3f68-4a73-9872-109daa1a4785"},"vehicle_type_id":"4","last_reported":1725210426,"current_range_meters":10800,"station_id":"ce4bhq92rcd13ifvqhjg","pricing_plan_id":"cebpf4jnsgd1na2vs0mg"},{"bike_id":"af2d91a5-2804-468d-936e-07379e770b84","system_id":"levelo_inurba_marseille","lat":43.337168,"lon":5.391825,"is_reserved":false,"is_disabled":false,"rental_uris":{"android":"levelo://app?vid=af2d91a5-2804-468d-936e-07379e770b84","ios":"levelo://app?vid=af2d91a5-2804-468d-936e-07379e770b84"},"vehicle_type_id":"4","last_reported":1725210426,"current_range_meters":10800,"station_id":"ce4bhr92rcd13ifvqhsg","pricing_plan_id":"cebpf4jnsgd1na2vs0mg"},{"bike_id":"34a3d46d-3604-489d-af0c-dedfd955c44d","system_id":"levelo_inurba_marseille","lat":43.32351,"lon":5.40622,"is_reserved":false,"is_disabled":false,"rental_uris":{"android":"levelo://app?vid=34a3d46d-3604-489d-af0c-dedfd955c44d","ios":"levelo://app?vid=34a3d46d-3604-489d-af0c-dedfd955c44d"},