{"last_updated":1753355391,"ttl":60,"version":"2.2","data":{"bikes":[{"bike_id":"3be6e5ec-9dd1-4850-9f2b-054d7d1ccc0e","system_id":"levelo_inurba_marseille","lat":43.317238,"lon":5.423956,"is_reserved":false,"is_disabled":false,"rental_uris":{"android":"levelo://app?vid=3be6e5ec-9dd1-4850-9f2b-054d7d1ccc0e","ios":"levelo://app?vid=3be6e5ec-9dd1-4850-9f2b-054d7d1ccc0e"},"vehicle_type_id":"4","last_reported":1753355392,"current_range_meters":2800,"station_id":"ce4bhp92rcd13ifvqhbg","pricing_plan_id":"cebpf4jnsgd1na2vs0mg"},{"bike_id":"7977a14e-425e-4233-ab4c-92017846e1ba","system_id":"levelo_inurba_marseille","lat":43.27058,"lon":5.40263,"is_reserved":false,"is_disabled":false,"rental_uris":{"android":"levelo://app?vid=7977a14e-425e-4233-ab4c-92017846e1ba","ios":"levelo://app?vid=7977a14e-425e-4233-ab4c-92017846e1ba"},"vehicle_type_id":"4","last_reported":1753355392,"current_range_meters":2800,"station_id":"ce4bhk92rcd13ifvqgc0","pricing_plan_id":"cebpf4jnsgd1na2vs0mg"},{"bike_id":"78dfa1e9-0838-45dc-8cde-ec46c4af5f98","system_id":"levelo_inurba_marseille","lat":43.282694,"lon":5.350626,"is_reserved":false,"is_disabled":false,"rental_uris":{"android":"levelo://app?vid=78dfa1e9-0838-45dc-8cde-ec46c4af5f98","ios":"levelo://app?vid=78dfa1e9-0838-45dc-8cde-ec46c4af5f98"},"vehicle_type_id":"4","last_reported":1753355392,"current_range_meters":2800,"station_id":"ce4bh012rcd13ifvqcv0","pricing_plan_id":"cebpf4jnsgd1na2vs0mg"},{"bike_id":"59e67889-e659-4d41-af65-f630491a04f7","system_id":"levelo_inurba_marseille","lat":43.23966,"lon":5.3663,"is_reserved":false,"is_disabled":false,"rental_uris":{"android":"levelo://app?vid=59e67889-e659-4d41-af65-f630491a04f7","ios":"levelo://app?vid=59e67889-e659-4d41-af65-f630491a04f7"},"vehicle_type_id":"4","last_reported":1753355392,"current_range_meters":3200,"station_id":"ce4bhi12rcd13ifvqfp0","pricing_plan_id":"cebpf4jnsgd1na2vs0mg"},{"bike_id":"762e4bd6-63f5-4558-93c1-9195ba105bea","system_id":"levelo_inurba_marseille","lat":43.27213,"lon":5.39181,"is_reserved":false,"is_disabled":false,"rental_uris":{"android":"levelo://app?vid=762e4bd6-63f5-4558-93c1-9195ba105bea","ios":"levelo://app?vid=762e4bd6-63f5-4558-93c1-9195ba105bea"},"vehicle_type_id":"4","last_reported":1753355392,"current_range_meters":4000,"station_id":"ce4bhhp2rcd13ifvqfm0","pricing_plan_id":"cebpf4jnsgd1na2vs0mg"},{"bike_id":"d36135c2-26a5-4e9c-8a4b-4deed096d031","system_id":"levelo_inurba_marseille","lat":43.28258,"lon":5.35075,"is_reserved":false,"is_disabled":false,"rental_uris":{"android":"levelo://app?vid=d36135c2-26a5-4e9c-8a4b-4deed096d031","ios":"levelo://app?vid=d36135c2-26a5-4e9c-8a4b-4deed096d031"},"vehicle_type_id":"4","last_reported":1753355392,"current_range_meters":4400,"station_id":"ce4bhbp2rcd13ifvqerg","pricing_plan_id":"cebpf4jnsgd1na2vs0mg"},{"bike_id":"9ae7d50c-a3ea-4136-8080-315c191e000a","system_id":"levelo_inurba_marseille","lat":43.28773,"lon":5.38425,"is_reserved":false,"is_disabled":false,"rental_uris":{"android":"levelo://app?vid=9ae7d50c-a3ea-4136-8080-315c191e000a","ios":"levelo://app?vid=9ae7d50c-a3ea-4136-8080-315c191e000a"},"vehicle_type_id":"4","last_reported":1753355392,"current_range_meters":4400,"station_id":"","pricing_plan_id":"cebpf4jnsgd1na2vs0mg"},{"bike_id":"78c6ff6e-807f-40d6-8bf3-c8c89d3b5b4a","system_id":"levelo_inurba_marseille","lat":43.29691,"lon":5.37304,"is_reserved":false,"is_disabled":false,"rental_uris":{"android":"levelo://app?vid=78c6ff6e-807f-40d6-8bf3-c8c89d3b5b4a","ios":"levelo://app?vid=78c6ff6e-807f-40d6-8bf3-c8c89d3b5b4a"},"vehicle_type_id":"4","last_reported":1753355392,"current_range_meters":4400,"station_id":"ce4bgk12rcd13ifvqbj0","pricing_plan_id":"cebpf4jnsgd1na2vs0mg"},{"bike_id":"7cd000c0-44bf-4e04-901a-bacd94e059b0","system_id":"levelo_inurba_marseille","lat":43.24172,"lon":5.364,"is_reserved":false,"is_disabled":false,"rental_uris":{"android":"levelo://app?vid=7cd000c0-44bf-4e04-901a-bacd94e059b0","ios":"levelo://app?vid=7cd000c0-44bf-4e04-901a-bacd94e059b0"},"vehicle_type_id":"4","last_reported":1753355392,"current_range_meters":4800,"station_id":"cpo36qri1sfpv3e86is0","pricing_plan_id":"cebpf4jnsgd1na2vs0mg"},{"bike_id":"77e6d56f-975f-4a42-a693-6365ec1a7525","system_id":"levelo_inurba_marseille","lat":43.28725,"lon":5.36089,"is_reserved":false,"is_disabled":false,"rental_uris":{"android":"levelo://app?vid=77e6d56f-975f-4a42-a693-6365ec1a7525","ios":"levelo://app?vid=77e6d56f-975f-4a42-a693-6365ec1a7525"},"vehicle_type_id":"4","last_reported":1753355392,"current_range_meters":4800,"station_id":"cki0cbj6b192h4jlfktg","pricing_plan_id":"cebpf4jnsgd1na2vs0mg"},{"bike_id":"ed6e0f61-0c04-478a-8161-96b613161735","system_id":"levelo_inurba_marseille","lat":43.296823,"lon":5.372723,"is_reserved":false,"is_disabled":false,"rental_uris":{"android":"levelo://app?vid=ed6e0f61-0c04-478a-8161-96b613161735","ios":"levelo://app?vid=ed6e0f61-0c04-478a-8161-96b613161735"},"vehicle_type_id":"4","last_reported":1753355392,"current_range_meters":4800,"station_id":"ce4bgk12rcd13ifvqbj0","pricing_plan_id":"cebpf4jnsgd1na2vs0mg"},{"bike_id":"c8cbe188-8c80-4aac-881d-65feb870e521","system_id":"levelo_inurba_marseille","lat":43.33019,"lon":5.38044,"is_reserved":false,"is_disabled":false,"rental_uris":{"android":"levelo://app?vid=c8cbe188-8c80-4aac-881d-65feb870e521","ios":"levelo://app?vid=c8cbe188-8c80-4aac-881d-65feb870e521"},"vehicle_type_id":"4","last_reported":1753355392,"current_range_meters":4800,"station_id":"","pricing_plan_id":"cebpf4jnsgd1na2vs0mg"},{"bike_id":"1712eb0b-0136-48f3-a9de-e534140482ba","system_id":"levelo_inurba_marseille","lat":43.28406,"lon":5.34979,"is_reserved":false,"is_disabled":false,"rental_uris":{"android":"levelo://app?vid=1712eb0b-0136-48f3-a9de-e534140482ba","ios":"levelo://app?vid=1712eb0b-0136-48f3-a9de-e534140482ba"},"vehicle_type_id":"4","last_reported":1753355392,"current_range_meters":5600,"station_id":"ce4bhbh2rcd13ifvqepg","pricing_plan_id":"cebpf4jnsgd1na2vs0mg"},{"bike_id":"66aca022-6499-423c-9240-4f4f7d187077","system_id":"levelo_inurba_marseille","lat":43.28692,"lon":5.37395,"is_reserved":false,"is_disabled":false,"rental_uris":{"android":"levelo://app?vid=66aca022-6499-423c-9240-4f4f7d187077","ios":"levelo://app?vid=66aca022-6499-423c-9240-4f4f7d187077"},"vehicle_type_id":"4","last_reported":1753355392,"current_range_meters":6000,"station_id":"ce4bh3p2rcd13ifvqdq0","pricing_plan_id":"cebpf4jnsgd1na2vs0mg"},{"bike_id":"58b9ac87-709b-4df9-a573-19829108703c","system_id":"levelo_inurba_marseille","lat":43.29376,"lon":5.37849,"is_reserved":false,"is_disabled":false,"rental_uris":{"android":"levelo://app?vid=58b9ac87-709b-4df9-a573-19829108703c","ios":"levelo://app?vid=58b9ac87-709b-4df9-a573-19829108703c"},"vehicle_type_id":"4","last_reported":1753355392,"current_range_meters":5600,"station_id":"ce4bgjh2rcd13ifvqbf0","pricing_plan_id":"cebpf4jnsgd1na2vs0mg"},{"bike_id":"43285611-437f-422e-98ab-2b309cd6c402","system_id":"levelo_inurba_marseille","lat":43.24082,"lon":5.37764,"is_reserved":false,"is_disabled":false,"rental_uris":{"android":"levelo://app?vid=43285611-437f-422e-98ab-2b309cd6c402","ios":"levelo://app?vid=43285611-437f-422e-98ab-2b309cd6c402"},"vehicle_type_id":"4","last_reported":1753355392,"current_range_meters":6000,"station_id":"ce4bhnp2rcd13ifvqgvg","pricing_plan_id":"cebpf4jnsgd1na2vs0mg"},{"bike_id":"31d1e210-f2ad-420f-a7ce-a5cf7d533e4b","system_id":"levelo_inurba_marseille","lat":43.26944,"lon":5.38636,"is_reserved":false,"is_disabled":false,"rental_uris":{"android":"levelo://app?vid=31d1e210-f2ad-420f-a7ce-a5cf7d533e4b","ios":"levelo://app?vid=31d1e210-f2ad-420f-a7ce-a5cf7d533e4b"},"vehicle_type_id":"4","last_reported":1753355392,"current_range_meters":6000,"station_id":"ce4bhh92rcd13ifvqfh0","pricing_plan_id":"cebpf4jnsgd1na2vs0mg"},{"bike_id":"f6d45704-875b-4204-b745-8e5786541bb6","system_id":"levelo_inurba_marseille","lat":43.30181,"lon":5.36609,"is_reserved":false,"is_disabled":false,"rental_uris":{"android":"levelo://app?vid=f6d45704-875b-4204-b745-8e5786541bb6","ios":"levelo://app?vid=f6d45704-875b-4204-b745-8e5786541bb6"},"vehicle_type_id":"4","last_reported":1753355392,"current_range_meters":6000,"station_id":"ce4bgrh2rcd13ifvqc8g","pricing_plan_id":"cebpf4jnsgd1na2vs0mg"},{"bike_id":"a3a8023b-6288-4f1d-a94c-7ae5491dfd4c","system_id":"levelo_inurba_marseille","lat":43.29895,"lon":5.38897,"is_reserved":false,"is_disabled":false,"rental_uris":{"android":"levelo://app?vid=a3a8023b-6288-4f1d-a94c-7ae5491dfd4c","ios":"levelo://app?vid=a3a8023b-6288-4f1d-a94c-7ae5491dfd4c"},"vehicle_type_id":"4","last_reported":1753355392,"current_range_meters":6400,"station_id":"ce4bh392rcd13ifvqdl0","pricing_plan_id":"cebpf4jnsgd1na2vs0mg"},{"bike_id":"c9dbd36b-479c-4a5c-b200-3aa7673340d9","system_id":"levelo_inurba_marseille","lat":43.241448,"lon":5.363743,"is_reserved":false,"is_disabled":false,"rental_uris":{"android":"levelo://app?vid=c9dbd36b-479c-4a5c-b200-3aa7673340d9","ios":"levelo://app?vid=c9dbd36b-479c-4a5c-b200-3aa7673340d9"},"vehicle_type_id":"4","last_reported":1753355392,"current_range_meters":6400,"station_id":"","pricing_plan_id":"cebpf4jnsgd1na2vs0mg"},{"bike_id":"aa5097b6-6968-4aec-b711-e7780938924b","system_id":"levelo_inurba_marseille","lat":43.32947,"lon":5.35899,"is_reserved":false,"is_disabled":false,"rental_uris":{"android":"levelo://app?vid=aa5097b6-6968-4aec-b711-e7780938924b","ios":"levelo://app?vid=aa5097b6-6968-4aec-b711-e7780938924b"},"vehicle_type_id":"4","last_reported":1753355392,"current_range_meters":6800,"station_id":"","pricing_plan_id":"cebpf4jnsgd1na2vs0mg"},{"bike_id":"b400596d-3131-4711-ae45-10effd9faf8c","system_id":"levelo_inurba_marseille","lat":43.290283,"lon":5.386545,"is_reserved":false,"is_disabled":false,"rental_uris":{"android":"levelo://app?vid=b400596d-3131-4711-ae45-10effd9faf8c","ios":"levelo://app?vid=b400596d-3131-4711-ae45-10effd9faf8c"},"vehicle_type_id":"4","last_reported":1753355392,"current_range_meters":6800,"station_id":"ce4bh4p2rcd13ifvqe0g","pricing_plan_id":"cebpf4jnsgd1na2vs0mg"},{"bike_id":"49817bfa-2976-4626-b9b0-d6e3f4481d9b","system_id":"levelo_inurba_marseille","lat":43.30365,"lon":5.42487,"is_reserved":false,"is_disabled":false,"rental_uris":{"android":"levelo://app?vid=49817bfa-2976-4626-b9b0-d6e3f4481d9b","ios":"levelo://app?vid=49817bfa-2976-4626-b9b0-d6e3f4481d9b"},"vehicle_type_id":"4","last_reported":1753355392,"current_range_meters":7200,"station_id":"ce4bhoh2rcd13ifvqh6g","pricing_plan_id":"cebpf4jnsgd1na2vs0mg"},{"bike_id":"f56d1283-b5c5-498c-8e9e-0192f48da7e1","system_id":"levelo_inurba_marseille","lat":43.290344,"lon":5.386495,"is_reserved":false,"is_disabled":false,"rental_uris":{"android":"levelo://app?vid=f56d1283-b5c5-498c-8e9e-0192f48da7e1","ios":"levelo://app?vid=f56d1283-b5c5-498c-8e9e-0192f48da7e1"},"vehicle_type_id":"4","last_reported":1753355392,"current_range_meters":7200,"station_id":"ce4bh4p2rcd13ifvqe0g","pricing_plan_id":"cebpf4jnsgd1na2vs0mg"},{"bike_id":"ce515b35-9564-429b-a4fa-87a1d317e3cb","system_id":"levelo_inurba_marseille","lat":43.26955,"lon":5.38641,"is_reserved":false,"is_disabled":true,"rental_uris":{"android":"levelo://app?vid=ce515b35-9564-429b-a4fa-87a1d317e3cb","ios":"levelo://app?vid=ce515b35-9564-429b-a4fa-87a1d317e3cb"},"vehicle_type_id":"4","last_reported":1753355392,"current_range_meters":7200,"station_id":"ce4bhh92rcd13ifvqfh0","pricing_plan_id":"cebpf4jnsgd1na2vs0mg"},{"bike_id":"a774252a-af92-49e6-84e1-0c7e906bba77","system_id":"levelo_inurba_marseille","lat":43.28422,"lon":5.37525,"is_reserved":false,"is_disabled":false,"rental_uris":{"android":"levelo://app?vid=a774252a-af92-49e6-84e1-0c7e906bba77","ios":"levelo://app?vid=a774252a-af92-49e6-84e1-0c7e906bba77"},"vehicle_type_id":"4","last_reported":1753355392,"current_range_meters":8000,"station_id":"ce4bh412rcd13ifvqds0","pricing_plan_id":"cebpf4jnsgd1na2vs0mg"},{"bike_id":"2ec4da4e-23cf-4cf0-be90-99346a03659e","system_id":"levelo_inurba_marseille","lat":43.21753,"lon":5.34634,"is_reserved":false,"is_disabled":false,"rental_uris":{"android":"levelo://app?vid=2ec4da4e-23cf-4cf0-be90-99346a03659e","ios":"levelo://app?vid=2ec4da4e-23cf-4cf0-be90-99346a03659e"},"vehicle_type_id":"4","last_reported":1753355392,"current_range_meters":8000,"station_id":"st_cvj6r9ubvosntc0bgbag","pricing_plan_id":"cebpf4jnsgd1na2vs0mg"},{"bike_id":"54c18135-d86d-48be-8a01-605eb6700a6c","system_id":"levelo_inurba_marseille","lat":43.28273,"lon":5.35077,"is_reserved":false,"is_disabled":false,"rental_uris":{"android":"levelo://app?vid=54c18135-d86d-48be-8a01-605eb6700a6c","ios":"levelo://app?vid=54c18135-d86d-48be-8a01-605eb6700a6c"},"vehicle_type_id":"4","last_reported":1753355392,"current_range_meters":8400,"station_id":"ce4bhbp2rcd13ifvqerg","pricing_plan_id":"cebpf4jnsgd1na2vs0mg"},{"bike_id":"da053e6a-15f2-492e-8bc1-42b1d66cc329","system_id":"levelo_inurba_marseille","lat":43.2835,"lon":5.43275,"is_reserved":false,"is_disabled":false,"rental_uris":{"android":"levelo://app?vid=da053e6a-15f2-492e-8bc1-42b1d66cc329","ios":"levelo://app?vid=da053e6a-15f2-492e-8bc1-42b1d66cc329"},"vehicle_type_id":"4","last_reported":1753355392,"current_range_meters":8400,"station_id":"","pricing_plan_id":"cebpf4jnsgd1na2vs0mg"},{"bike_id":"9ba9bcd6-1536-46f1-8667-03a0d19a3495","system_id":"levelo_inurba_marseille","lat":43.28677,"lon":5.3866,"is_reserved":false,"is_disabled":false,"rental_uris":{"android":"levelo://app?vid=9ba9bcd6-1536-46f1-8667-03a0d19a3495","ios":"levelo://app?vid=9ba9bcd6-1536-46f1-8667-03a0d19a3495"},"vehicle_type_id":"4","last_reported":1753355392,"current_range_meters":8000,"station_id":"ce4bh492rcd13ifvqdug","pricing_plan_id":"cebpf4jnsgd1na2vs0mg"},{"bike_id":"ab87e1f7-abe2-4879-8847-579f441a056a","system_id":"levelo_inurba_marseille","lat":43.31076,"lon":5.42439,"is_reserved":false,"is_disabled":false,"rental_uris":{"android":"levelo://app?vid=ab87e1f7-abe2-4879-8847-579f441a056a","ios":"levelo://app?vid=ab87e1f7-abe2-4879-8847-579f441a056a"},"vehicle_type_id":"4","last_reported":1753355392,"current_range_meters":8400,"station_id":"ce4bhp92rcd13ifvqhag","pricing_plan_id":"cebpf4jnsgd1na2vs0mg"},{"bike_id":"5c03f81d-ceef-4335-9e22-f465b79e8faa","system_id":"levelo_inurba_marseille","lat":43.29213,"lon":5.36072,"is_reserved":false,"is_disabled":false,"rental_uris":{"android":"levelo://app?vid=5c03f81d-ceef-4335-9e22-f465b79e8faa","ios":"levelo://app?vid=5c03f81d-ceef-4335-9e22-f465b79e8faa"},"vehicle_type_id":"4","last_reported":1753355392,"current_range_meters":8400,"station_id":"ce4bhbh2rcd13ifvqeqg","pricing_plan_id":"cebpf4jnsgd1na2vs0mg"},{"bike_id":"8c0f1a0f-75d5-45b7-976f-f4246f6da411","system_id":"levelo_inurba_marseille","lat":43.25718,"lon":5.41108,"is_reserved":false,"is_disabled":true,"rental_uris":{"android":"levelo://app?vid=8c0f1a0f-75d5-45b7-976f-f4246f6da411","ios":"levelo://app?vid=8c0f1a0f-75d5-45b7-976f-f4246f6da411"},"vehicle_type_id":"4","last_reported":1753355392,"current_range_meters":8400,"station_id":"ce4bhkp2rcd13ifvqgd0","pricing_plan_id":"cebpf4jnsgd1na2vs0mg"},{"bike_id":"761d424c-b021-46b5-b37d-1a1fa2f76d8b","system_id":"levelo_inurba_marseille","lat":43.29939,"lon":5.37485,"is_reserved":false,"is_disabled":false,"rental_uris":{"android":"levelo://app?vid=761d424c-b021-46b5-b37d-1a1fa2f76d8b","ios":"levelo://app?vid=761d424c-b021-46b5-b37d-1a1fa2f76d8b"},"vehicle_type_id":"4","last_reported":1753355392,"current_range_meters":8800,"station_id":"ce4bgjh2rcd13ifvqbg0","pricing_plan_id":"cebpf4jnsgd1na2vs0mg"},{"bike_id":"6f67cc58-c09d-463c-b2ff-e81fb4878e4a","system_id":"levelo_inurba_marseille","lat":43.29359,"lon":5.36315,"is_reserved":false,"is_disabled":false,"rental_uris":{"android":"levelo://app?vid=6f67cc58-c09d-463c-b2ff-e81fb4878e4a","ios":"levelo://app?vid=6f67cc58-c09d-463c-b2ff-e81fb4878e4a"},"vehicle_type_id":"4","last_reported":1753355392,"current_range_meters":8800,"station_id":"","pricing_plan_id":"cebpf4jnsgd1na2vs0mg"},{"bike_id":"71740239-d2cd-45f8-8e39-85c8b8cb7f6f","system_id":"levelo_inurba_marseille","lat":43.23978,"lon":5.362756,"is_reserved":false,"is_disabled":false,"rental_uris":{"android":"levelo://app?vid=71740239-d2cd-45f8-8e39-85c8b8cb7f6f","ios":"levelo://app?vid=71740239-d2cd-45f8-8e39-85c8b8cb7f6f"},"vehicle_type_id":"4","last_reported":1753355392,"current_range_meters":8800,"station_id":"ce4bhu92rcd13ifvqi70","pricing_plan_id":"cebpf4jnsgd1na2vs0mg"},{"bike_id":"7b2c99a1-d861-478d-a252-52f983e920fb","system_id":"levelo_inurba_marseille","lat":43.28457,"lon":5.39207,"is_reserved":false,"is_disabled":false,"rental_uris":{"android":"levelo://app?vid=7b2c99a1-d861-478d-a252-52f983e920fb","ios":"levelo://app?vid=7b2c99a1-d861-478d-a252-52f983e920fb"},"vehicle_type_id":"4","last_reported":1753355392,"current_range_meters":8800,"station_id":"ce4bhoh2rcd13ifvqh5g","pricing_plan_id":"cebpf4jnsgd1na2vs0mg"},{"bike_id":"730db3ed-4ec1-4f19-99e5-9948fbc512f2","system_id":"levelo_inurba_marseille","lat":43.29446,"lon":5.39756,"is_reserved":false,"is_disabled":false,"rental_uris":{"android":"levelo://app?vid=730db3ed-4ec1-4f19-99e5-9948fbc512f2","ios":"levelo://app?vid=730db3ed-4ec1-4f19-99e5-9948fbc512f2"},"vehicle_type_id":"4","last_reported":1753355392,"current_range_meters":8800,"station_id":"ce4bh3h2rcd13ifvqdo0","pricing_plan_id":"cebpf4jnsgd1na2vs0mg"},{"bike_id":"47e64a1c-d949-4e3f-9bc6-99f1f94594a2","system_id":"levelo_inurba_marseille","lat":43.28409,"lon":5.37506,"is_reserved":false,"is_disabled":false,"rental_uris":{"android":"levelo://app?vid=47e64a1c-d949-4e3f-9bc6-99f1f94594a2","ios":"levelo://app?vid=47e64a1c-d949-4e3f-9bc6-99f1f94594a2"},"vehicle_type_id":"4","last_reported":1753355392,"current_range_meters":9200,"station_id":"ce4bh412rcd13ifvqds0","pricing_plan_id":"cebpf4jnsgd1na2vs0mg"},{"bike_id":"bec0ff47-32fa-4b76-a717-70f7dd462f92","system_id":"levelo_inurba_marseille","lat":43.24171,"lon":5.36402,"is_reserved":false,"is_disabled":false,"rental_uris":{"android":"levelo://app?vid=bec0ff47-32fa-4b76-a717-70f7dd462f92","ios":"levelo://app?vid=bec0ff47-32fa-4b76-a717-70f7dd462f92"},"vehicle_type_id":"4","last_reported":1753355392,"current_range_meters":9200,"station_id":"cpo36qri1sfpv3e86is0","pricing_plan_id":"cebpf4jnsgd1na2vs0mg"},{"bike_id":"dec93502-9771-4f3a-879a-cbdfb860df89","system_id":"levelo_inurba_marseille","lat":43.27674,"lon":5.38406,"is_reserved":false,"is_disabled":false,"rental_uris":{"android":"levelo://app?vid=dec93502-9771-4f3a-879a-cbdfb860df89","ios":"levelo://app?vid=dec93502-9771-4f3a-879a-cbdfb860df89"},"vehicle_type_id":"4","last_reported":1753355392,"current_range_meters":9600,"station_id":"","pricing_plan_id":"cebpf4jnsgd1na2vs0mg"},{"bike_id":"7b7524ae-8ecd-499f-93b7-a6de3bab91d4","system_id":"levelo_inurba_marseille","lat":43.29885,"lon":5.43614,"is_reserved":false,"is_disabled":false,"rental_uris":{"android":"levelo://app?vid=7b7524ae-8ecd-499f-93b7-a6de3bab91d4","ios":"levelo://app?vid=7b7524ae-8ecd-499f-93b7-a6de3bab91d4"},"vehicle_type_id":"4","last_reported":1753355392,"current_range_meters":9600,"station_id":"ce4bhpp2rcd13ifvqhfg","pricing_plan_id":"cebpf4jnsgd1na2vs0mg"},{"bike_id":"b982e5a3-88f5-4403-a53a-38d90073ed80","system_id":"levelo_inurba_marseille","lat":43.29444,"lon":5.43239,"is_reserved":false,"is_disabled":false,"rental_uris":{"android":"levelo://app?vid=b982e5a3-88f5-4403-a53a-38d90073ed80","ios":"levelo://app?vid=b982e5a3-88f5-4403-a53a-38d90073ed80"},"vehicle_type_id":"4","last_reported":1753355392,"current_range_meters":9600,"station_id":"","pricing_plan_id":"cebpf4jnsgd1na2vs0mg"},{"bike_id":"4589c8f5-3c6a-4abe-972c-bc7456ed09bc","system_id":"levelo_inurba_marseille","lat":43.29951,"lon":5.3852,"is_reserved":false,"is_disabled":false,"rental_uris":{"android":"levelo://app?vid=4589c8f5-3c6a-4abe-972c-bc7456ed09bc","ios":"levelo://app?vid=4589c8f5-3c6a-4abe-972c-bc7456ed09bc"},"vehicle_type_id":"4","last_reported":1753355392,"current_range_meters":10000,"station_id":"ce4bgj92rcd13ifvqbd0","pricing_plan_id":"cebpf4jnsgd1na2vs0mg"},{"bike_id":"bbc2b271-396f-4875-9f1d-0fcc163d87b6","system_id":"levelo_inurba_marseille","lat":43.29112,"lon":5.39915,"is_reserved":false,"is_disabled":false,"rental_uris":{"android":"levelo://app?vid=bbc2b271-396f-4875-9f1d-0fcc163d87b6","ios":"levelo://app?vid=bbc2b271-396f-4875-9f1d-0fcc163d87b6"},"vehicle_type_id":"4","last_reported":1753355392,"current_range_meters":10000,"station_id":"","pricing_plan_id":"cebpf4jnsgd1na2vs0mg"},{"bike_id":"44499859-96d0-4beb-a2fe-c7bc0623cb12","system_id":"levelo_inurba_marseille","lat":43.30792,"lon":5.37657,"is_reserved":false,"is_disabled":false,"rental_uris":{"android":"levelo://app?vid=44499859-96d0-4beb-a2fe-c7bc0623cb12","ios":"levelo://app?vid=44499859-96d0-4beb-a2fe-c7bc0623cb12"},"vehicle_type_id":"4","last_reported":1753355392,"current_range_meters":10000,"station_id":"ce4bgv92rcd13ifvqcq0","pricing_plan_id":"cebpf4jnsgd1na2vs0mg"},{"bike_id":"56a00fcb-4beb-4afb-8c37-3d5a3e2883a2","system_id":"levelo_inurba_marseille","lat":43.24388,"lon":5.3706,"is_reserved":false,"is_disabled":false,"rental_uris":{"android":"levelo://app?vid=56a00fcb-4beb-4afb-8c37-3d5a3e2883a2","ios":"levelo://app?vid=56a00fcb-4beb-4afb-8c37-3d5a3e2883a2"},"vehicle_type_id":"4","last_reported":1753355392,"current_range_meters":10800,"station_id":"ce4bhhh2rcd13ifvqfk0","pricing_plan_id":"cebpf4jnsgd1na2vs0mg"},{"bike_id":"48fd9817-f862-437c-b48f-370500299723","system_id":"levelo_inurba_marseille","lat":43.26812,"lon":5.40274,"is_reserved":false,"is_disabled":false,"rental_uris":{"android":"levelo://app?vid=48fd9817-f862-437c-b48f-370500299723","ios":"levelo://app?vid=48fd9817-f862-437c-b48f-370500299723"},"vehicle_type_id":"4","last_reported":1753355392,"current_range_meters":10000,"station_id":"ce501612rcd8frsf0b60","pricing_plan_id":"cebpf4jnsgd1na2vs0mg"},{"bike_id":"1acdc2a3-67f3-410f-8c28-70c881d75568","system_id":"levelo_inurba_marseille","lat":43.29737,"lon":5.37693,"is_reserved":false,"is_disabled":false,"rental_uris":{"android":"levelo://app?vid=1acdc2a3-67f3-410f-8c28-70c881d75568","ios":"levelo://app?vid=1acdc2a3-67f3-410f-8c28-70c881d75568"},"vehicle_type_id":"4","last_reported":1753355392,"current_range_meters":10800,"station_id":"ce4bgkh2rcd13ifvqbl0","pricing_plan_id":"cebpf4jnsgd1na2vs0mg"},{"bike_id":"f3217e35-0bb5-43ab-beb0-dd5e233a7114","system_id":"levelo_inurba_marseille","lat":43.25578,"lon":5.382244,"is_reserved":false,"is_disabled":true,"rental_uris":{"android":"levelo://app?vid=f3217e35-0bb5-43ab-beb0-dd5e233a7114","ios":"levelo://app?vid=f3217e35-0bb5-43ab-beb0-dd5e233a7114"},"vehicle_type_id":"4","last_reported":1753355392,"current_range_meters":10800,"station_id":"ce4bhih2rcd13ifvqfs0","pricing_plan_id":"cebpf4jnsgd1na2vs0mg"},{"bike_id":"fdb610f8-756d-4f3c-85c8-3111ef7472fa","system_id":"levelo_inurba_marseille","lat":43.2999,"lon":5.38897,"is_reserved":false,"is_disabled":false,"rental_uris":{"android":"levelo://app?vid=fdb610f8-756d-4f3c-85c8-3111ef7472fa","ios":"levelo://app?vid=fdb610f8-756d-4f3c-85c8-3111ef7472fa"},"vehicle_type_id":"4","last_reported":1753355392,"current_range_meters":10800,"station_id":"","pricing_plan_id":"cebpf4jnsgd1na2vs0mg"},{"bike_id":"3af470b2-022a-46ae-a380-49b49e6a3c69","system_id":"levelo_inurba_marseille","lat":43.30469,"lon":5.37913,"is_reserved":false,"is_disabled":false,"rental_uris":{"android":"levelo://app?vid=3af470b2-022a-46ae-a380-49b49e6a3c69","ios":"levelo://app?vid=3af470b2-022a-46ae-a380-49b49e6a3c69"},"vehicle_type_id":"4","last_reported":1753355392,"current_range_meters":10800,"station_id":"ce4bgup2rcd13ifvqcn0","pricing_plan_id":"cebpf4jnsgd1na2vs0mg"},{"bike_id":"bf7d1b61-ac9b-4b95-98cd-1e59bc7507e1","system_id":"levelo_inurba_marseille","lat":43.27733,"lon":5.37446,"is_reserved":false,"is_disabled":false,"rental_uris":{"android":"levelo://app?vid=bf7d1b61-ac9b-4b95-98cd-1e59bc7507e1","ios":"levelo://app?vid=bf7d1b61-ac9b-4b95-98cd-1e59bc7507e1"},"vehicle_type_id":"4","last_reported":1753355392,"current_range_meters":10800,"station_id":"","pricing_plan_id":"cebpf4jnsgd1na2vs0mg"},{"bike_id":"bb9f9967-9f52-4574-8276-5111af48e5e7","system_id":"levelo_inurba_marseille","lat":43.29303,"lon":5.37458,"is_reserved":false,"is_disabled":false,"rental_uris":{"android":"levelo://app?vid=bb9f9967-9f52-4574-8276-5111af48e5e7","ios":"levelo://app?vid=bb9f9967-9f52-4574-8276-5111af48e5e7"},"vehicle_type_id":"4","last_reported":1753355392,"current_range_meters":10800,"station_id":"ce4bgi12rcd13ifvqb70","pricing_plan_id":"cebpf4jnsgd1na2vs0mg"},{"bike_id":"b8686370-07d6-42e8-95ca-8ae3dc7ed795","system_id":"levelo_inurba_marseille","lat":43.29571,"lon":5.37535,"is_reserved":false,"is_disabled":false,"rental_uris":{"android":"levelo://app?vid=b8686370-07d6-42e8-95ca-8ae3dc7ed795","ios":"levelo://app?vid=b8686370-07d6-42e8-95ca-8ae3dc7ed795"},"vehicle_type_id":"4","last_reported":1753355392,"current_range_meters":11200,"station_id":"ce4bgh92rcd13ifvqb50","pricing_plan_id":"cebpf4jnsgd1na2vs0mg"},{"bike_id":"b5ce8d93-17c0-45a5-b2b1-eefce45c2d79","system_id":"levelo_inurba_marseille","lat":43.317941,"lon":5.435086,"is_reserved":false,"is_disabled":false,"rental_uris":{"android":"levelo://app?vid=b5ce8d93-17c0-45a5-b2b1-eefce45c2d79","ios":"levelo://app?vid=b5ce8d93-17c0-45a5-b2b1-eefce45c2d79"},"vehicle_type_id":"4","last_reported":1753355392,"current_range_meters":11200,"station_id":"","pricing_plan_id":"cebpf4jnsgd1na2vs0mg"},{"bike_id":"0c1d8e8e-ac84-41b1-83be-c0e44e0d628a","system_id":"levelo_inurba_marseille","lat":43.27731,"lon":5.37452,"is_reserved":false,"is_disabled":false,"rental_uris":{"android":"levelo://app?vid=0c1d8e8e-ac84-41b1-83be-c0e44e0d628a","ios":"levelo://app?vid=0c1d8e8e-ac84-41b1-83be-c0e44e0d628a"},"vehicle_type_id":"4","last_reported":1753355392,"current_range_meters":11200,"station_id":"","pricing_plan_id":"cebpf4jnsgd1na2vs0mg"},{"bike_id":"54bc9872-c925-4647-a37c-e7f0faff73b9","system_id":"levelo_inurba_marseille","lat":43.24548,"lon":5.39524,"is_reserved":false,"is_disabled":false,"rental_uris":{"android":"levelo://app?vid=54bc9872-c925-4647-a37c-e7f0faff73b9","ios":"levelo://app?vid=54bc9872-c925-4647-a37c-e7f0faff73b9"},"vehicle_type_id":"4","last_reported":1753355392,"current_range_meters":11600,"station_id":"ce4bhlp2rcd13ifvqgjg","pricing_plan_id":"cebpf4jnsgd1na2vs0mg"},{"bike_id":"a492f476-7189-46fe-9e39-551e35f2b2bc","system_id":"levelo_inurba_marseille","lat":43.288545,"lon":5.358527,"is_reserved":false,"is_disabled":false,"rental_uris":{"android":"levelo://app?vid=a492f476-7189-46fe-9e39-551e35f2b2bc","ios":"levelo://app?vid=a492f476-7189-46fe-9e39-551e35f2b2bc"},"vehicle_type_id":"4","last_reported":1753355392,"current_range_meters":11600,"station_id":"","pricing_plan_id":"cebpf4jnsgd1na2vs0mg"},{"bike_id":"74667481-5f03-4636-8b5a-495e4f40157d","system_id":"levelo_inurba_marseille","lat":43.30984,"lon":5.3734,"is_reserved":false,"is_disabled":false,"rental_uris":{"android":"levelo://app?vid=74667481-5f03-4636-8b5a-495e4f40157d","ios":"levelo://app?vid=74667481-5f03-4636-8b5a-495e4f40157d"},"vehicle_type_id":"4","last_reported":1753355392,"current_range_meters":12400,"station_id":"","pricing_plan_id":"cebpf4jnsgd1na2vs0mg"},{"bike_id":"ae131367-d818-44a0-9e1d-4aa65dcdb16a","system_id":"levelo_inurba_marseille","lat":43.27576,"lon":5.39669,"is_reserved":false,"is_disabled":false,"rental_uris":{"android":"levelo://app?vid=ae131367-d818-44a0-9e1d-4aa65dcdb16a","ios":"levelo://app?vid=ae131367-d818-44a0-9e1d-4aa65dcdb16a"},"vehicle_type_id":"4","last_reported":1753355392,"current_range_meters":12400,"station_id":"","pricing_plan_id":"cebpf4jnsgd1na2vs0mg"},{"bike_id":"3cd09fc8-9554-4236-8496-0931a7be09d1","system_id":"levelo_inurba_marseille","lat":43.21197,"lon":5.35113,"is_reserved":false,"is_disabled":false,"rental_uris":{"android":"levelo://app?vid=3cd09fc8-9554-4236-8496-0931a7be09d1","ios":"levelo://app?vid=3cd09fc8-9554-4236-8496-0931a7be09d1"},"vehicle_type_id":"4","last_reported":1753355392,"current_range_meters":12400,"station_id":"st_cvj6sg6p6f1abm77japg","pricing_plan_id":"cebpf4jnsgd1na2vs0mg"},{"bike_id":"b89d6267-55af-48a1-8887-3f0adc5ff195","system_id":"levelo_inurba_marseille","lat":43.301319,"lon":5.39874,"is_reserved":false,"is_disabled":false,"rental_uris":{"android":"levelo://app?vid=b89d6267-55af-48a1-8887-3f0adc5ff195","ios":"levelo://app?vid=b89d6267-55af-48a1-8887-3f0adc5ff195"},"vehicle_type_id":"4","last_reported":1753355392,"current_range_meters":12400,"station_id":"","pricing_plan_id":"cebpf4jnsgd1na2vs0mg"},{"bike_id":"fec51878-8b50-4c25-9dbd-c3f087775fa5","system_id":"levelo_inurba_marseille","lat":43.29319,"lon":5.37183,"is_reserved":false,"is_disabled":false,"rental_uris":{"android":"levelo://app?vid=fec51878-8b50-4c25-9dbd-c3f087775fa5","ios":"levelo://app?vid=fec51878-8b50-4c25-9dbd-c3f087775fa5"},"vehicle_type_id":"4","last_reported":1753355392,"current_range_meters":12400,"station_id":"ce4bgh92rcd13ifvqb40","pricing_plan_id":"cebpf4jnsgd1na2vs0mg"},{"bike_id":"674df432-eba2-41a5-a16c-d34b13d50f5e","system_id":"levelo_inurba_marseille","lat":43.33907,"lon":5.40705,"is_reserved":false,"is_disabled":true,"rental_uris":{"android":"levelo://app?vid=674df432-eba2-41a5-a16c-d34b13d50f5e","ios":"levelo://app?vid=674df432-eba2-41a5-a16c-d34b13d50f5e"},"vehicle_type_id":"4","last_reported":1753355392,"current_range_meters":12400,"station_id":"","pricing_plan_id":"cebpf4jnsgd1na2vs0mg"},{"bike_id":"e0619653-60a9-4d50-840a-e5cb642a4cc3","system_id":"levelo_inurba_marseille","lat":43.23199,"lon":5.39993,"is_reserved":false,"is_disabled":false,"rental_uris":{"android":"levelo://app?vid=e0619653-60a9-4d50-840a-e5cb642a4cc3","ios":"levelo://app?vid=e0619653-60a9-4d50-840a-e5cb642a4cc3"},"vehicle_type_id":"4","last_reported":1753355392,"current_range_meters":12400,"station_id":"ce4bhn12rcd13ifvqgqg","pricing_plan_id":"cebpf4jnsgd1na2vs0mg"},{"bike_id":"6a79a396-2f47-4b1c-9dce-b0d5464f72e4","system_id":"levelo_inurba_marseille","lat":43.22943,"lon":5.35409,"is_reserved":false,"is_disabled":false,"rental_uris":{"android":"levelo://app?vid=6a79a396-2f47-4b1c-9dce-b0d5464f72e4","ios":"levelo://app?vid=6a79a396-2f47-4b1c-9dce-b0d5464f72e4"},"vehicle_type_id":"4","last_reported":1753355392,"current_range_meters":12400,"station_id":"cpo3532slgdg3j2ikp40","pricing_plan_id":"cebpf4jnsgd1na2vs0mg"},{"bike_id":"b741efc0-b552-4012-8082-7d837644c8e3","system_id":"levelo_inurba_marseille","lat":43.24809,"lon":5.37458,"is_reserved":false,"is_disabled":false,"rental_uris":{"android":"levelo://app?vid=b741efc0-b552-4012-8082-7d837644c8e3","ios":"levelo://app?vid=b741efc0-b552-4012-8082-7d837644c8e3"},"vehicle_type_id":"4","last_reported":1753355392,"current_range_meters":12400,"station_id":"ce4bhgh2rcd13ifvqfb0","pricing_plan_id":"cebpf4jnsgd1na2vs0mg"},{"bike_id":"75921511-23bf-408f-9470-1062209789d6","system_id":"levelo_inurba_marseille","lat":43.25554,"lon":5.38249,"is_reserved":false,"is_disabled":false,"rental_uris":{"android":"levelo://app?vid=75921511-23bf-408f-9470-1062209789d6","ios":"levelo://app?vid=75921511-23bf-408f-9470-1062209789d6"},"vehicle_type_id":"4","last_reported":1753355392,"current_range_meters":12800,"station_id":"ce4bhih2rcd13ifvqfs0","pricing_plan_id":"cebpf4jnsgd1na2vs0mg"},{"bike_id":"898f759e-ad02-4cee-9706-18388c2e677c","system_id":"levelo_inurba_marseille","lat":43.27735,"lon":5.37453,"is_reserved":false,"is_disabled":false,"rental_uris":{"android":"levelo://app?vid=898f759e-ad02-4cee-9706-18388c2e677c","ios":"levelo://app?vid=898f759e-ad02-4cee-9706-18388c2e677c"},"vehicle_type_id":"4","last_reported":1753355392,"current_range_meters":12800,"station_id":"","pricing_plan_id":"cebpf4jnsgd1na2vs0mg"},{"bike_id":"bf4046f4-4ac0-46a1-bdc8-16a4897efae9","system_id":"levelo_inurba_marseille","lat":43.30551,"lon":5.36537,"is_reserved":false,"is_disabled":false,"rental_uris":{"android":"levelo://app?vid=bf4046f4-4ac0-46a1-bdc8-16a4897efae9","ios":"levelo://app?vid=bf4046f4-4ac0-46a1-bdc8-16a4897efae9"},"vehicle_type_id":"4","last_reported":1753355392,"current_range_meters":12800,"station_id":"ce4bgs12rcd13ifvqcag","pricing_plan_id":"cebpf4jnsgd1na2vs0mg"},{"bike_id":"dba3e1c3-d9a3-4e6c-909a-dac6854f21be","system_id":"levelo_inurba_marseille","lat":43.290283,"lon":5.386528,"is_reserved":false,"is_disabled":false,"rental_uris":{"android":"levelo://app?vid=dba3e1c3-d9a3-4e6c-909a-dac6854f21be","ios":"levelo://app?vid=dba3e1c3-d9a3-4e6c-909a-dac6854f21be"},"vehicle_type_id":"4","last_reported":1753355392,"current_range_meters":12800,"station_id":"ce4bh4p2rcd13ifvqe0g","pricing_plan_id":"cebpf4jnsgd1na2vs0mg"},{"bike_id":"5ac85406-65d0-4336-aa89-4b04b2e6689e","system_id":"levelo_inurba_marseille","lat":43.33256,"lon":5.41986,"is_reserved":false,"is_disabled":false,"rental_uris":{"android":"levelo://app?vid=5ac85406-65d0-4336-aa89-4b04b2e6689e","ios":"levelo://app?vid=5ac85406-65d0-4336-aa89-4b04b2e6689e"},"vehicle_type_id":"4","last_reported":1753355392,"current_range_meters":12800,"station_id":"","pricing_plan_id":"cebpf4jnsgd1na2vs0mg"},{"bike_id":"effeb500-6e69-4888-a750-57ae7c962c80","system_id":"levelo_inurba_marseille","lat":43.32371,"lon":5.36766,"is_reserved":false,"is_disabled":false,"rental_uris":{"android":"levelo://app?vid=effeb500-6e69-4888-a750-57ae7c962c80","ios":"levelo://app?vid=effeb500-6e69-4888-a750-57ae7c962c80"},"vehicle_type_id":"4","last_reported":1753355392,"current_range_meters":12800,"station_id":"ce4bhsh2rcd13ifvqi2g","pricing_plan_id":"cebpf4jnsgd1na2vs0mg"},{"bike_id":"ce59a62d-17ec-416f-b54d-751bd3f6f3dd","system_id":"levelo_inurba_marseille","lat":43.27074,"lon":5.42273,"is_reserved":false,"is_disabled":false,"rental_uris":{"android":"levelo://app?vid=ce59a62d-17ec-416f-b54d-751bd3f6f3dd","ios":"levelo://app?vid=ce59a62d-17ec-416f-b54d-751bd3f6f3dd"},"vehicle_type_id":"4","last_reported":1753355392,"current_range_meters":12800,"station_id":"ce4bhk92rcd13ifvqgb0","pricing_plan_id":"cebpf4jnsgd1na2vs0mg"},{"bike_id":"2006d6ab-c619-4a15-b9f3-97c1160843f0","system_id":"levelo_inurba_marseille","lat":43.281573,"lon":5.360875,"is_reserved":false,"is_disabled":false,"rental_uris":{"android":"levelo://app?vid=2006d6ab-c619-4a15-b9f3-97c1160843f0","ios":"levelo://app?vid=2006d6ab-c619-4a15-b9f3-97c1160843f0"},"vehicle_type_id":"4","last_reported":1753355392,"current_range_meters":12800,"station_id":"","pricing_plan_id":"cebpf4jnsgd1na2vs0mg"},{"bike_id":"67e6c277-a142-495a-a2a9-0aeb243846d8","system_id":"levelo_inurba_marseille","lat":43.26195,"lon":5.37458,"is_reserved":false,"is_disabled":false,"rental_uris":{"android":"levelo://app?vid=67e6c277-a142-495a-a2a9-0aeb243846d8","ios":"levelo://app?vid=67e6c277-a142-495a-a2a9-0aeb243846d8"},"vehicle_type_id":"4","last_reported":1753355392,"current_range_meters":12800,"station_id":"ce4bhgp2rcd13ifvqfc0","pricing_plan_id":"cebpf4jnsgd1na2vs0mg"},{"bike_id":"efce9bd7-0f84-4c4c-8629-017c0e0428bd","system_id":"levelo_inurba_marseille","lat":43.25577,"lon":5.38248,"is_reserved":false,"is_disabled":false,"rental_uris":{"android":"levelo://app?vid=efce9bd7-0f84-4c4c-8629-017c0e0428bd","ios":"levelo://app?vid=efce9bd7-0f84-4c4c-8629-017c0e0428bd"},"vehicle_type_id":"4","last_reported":1753355392,"current_range_meters":13600,"station_id":"ce4bhih2rcd13ifvqfs0","pricing_plan_id":"cebpf4jnsgd1na2vs0mg"},{"bike_id":"c3b7093a-c6fc-4872-a465-95918521be48","system_id":"levelo_inurba_marseille","lat":43.3148,"lon":5.372884,"is_reserved":false,"is_disabled":false,"rental_uris":{"android":"levelo://app?vid=c3b7093a-c6fc-4872-a465-95918521be48","ios":"levelo://app?vid=c3b7093a-c6fc-4872-a465-95918521be48"},"vehicle_type_id":"4","last_reported":1753355392,"current_range_meters":13600,"station_id":"ce4bgt12rcd13ifvqcd0","pricing_plan_id":"cebpf4jnsgd1na2vs0mg"},{"bike_id":"c056311f-78c9-4e18-8685-91c659ddb125","system_id":"levelo_inurba_marseille","lat":43.3163,"lon":5.38968,"is_reserved":false,"is_disabled":false,"rental_uris":{"android":"levelo://app?vid=c056311f-78c9-4e18-8685-91c659ddb125","ios":"levelo://app?vid=c056311f-78c9-4e18-8685-91c659ddb125"},"vehicle_type_id":"4","last_reported":1753355392,"current_range_meters":13600,"station_id":"","pricing_plan_id":"cebpf4jnsgd1na2vs0mg"},{"bike_id":"34764ef9-ae37-494d-9183-9e3919b8edcb","system_id":"levelo_inurba_marseille","lat":43.254974,"lon":5.376597,"is_reserved":false,"is_disabled":false,"rental_uris":{"android":"levelo://app?vid=34764ef9-ae37-494d-9183-9e3919b8edcb","ios":"levelo://app?vid=34764ef9-ae37-494d-9183-9e3919b8edcb"},"vehicle_type_id":"4","last_reported":1753355392,"current_range_meters":13600,"station_id":"ce4bhh12rcd13ifvqff0","pricing_plan_id":"cebpf4jnsgd1na2vs0mg"},{"bike_id":"6bb1f31c-9335-4f39-9585-31374a4775f9","system_id":"levelo_inurba_marseille","lat":43.325583,"lon":5.379059,"is_reserved":false,"is_disabled":false,"rental_uris":{"android":"levelo://app?vid=6bb1f31c-9335-4f39-9585-31374a4775f9","ios":"levelo://app?vid=6bb1f31c-9335-4f39-9585-31374a4775f9"},"vehicle_type_id":"4","last_reported":1753355392,"current_range_meters":13600,"station_id":"","pricing_plan_id":"cebpf4jnsgd1na2vs0mg"},{"bike_id":"003b1238-2755-4573-af49-3fb58150fd3e","system_id":"levelo_inurba_marseille","lat":43.29363,"lon":5.37841,"is_reserved":false,"is_disabled":false,"rental_uris":{"android":"levelo://app?vid=003b1238-2755-4573-af49-3fb58150fd3e","ios":"levelo://app?vid=003b1238-2755-4573-af49-3fb58150fd3e"},"vehicle_type_id":"4","last_reported":1753355392,"current_range_meters":13600,"station_id":"ce4bgjh2rcd13ifvqbf0","pricing_plan_id":"cebpf4jnsgd1na2vs0mg"},{"bike_id":"cf7b0671-fb94-4201-8e7b-d09f1ced3c64","system_id":"levelo_inurba_marseille","lat":43.30565,"lon":5.36759,"is_reserved":false,"is_disabled":false,"rental_uris":{"android":"levelo://app?vid=cf7b0671-fb94-4201-8e7b-d09f1ced3c64","ios":"levelo://app?vid=cf7b0671-fb94-4201-8e7b-d09f1ced3c64"},"vehicle_type_id":"4","last_reported":1753355392,"current_range_meters":13600,"station_id":"ce4bgrp2rcd13ifvqc9g","pricing_plan_id":"cebpf4jnsgd1na2vs0mg"},{"bike_id":"5bdf996c-0c2a-4a89-a793-7d6eaa32d0df","system_id":"levelo_inurba_marseille","lat":43.29925,"lon":5.37492,"is_reserved":false,"is_disabled":false,"rental_uris":{"android":"levelo://app?vid=5bdf996c-0c2a-4a89-a793-7d6eaa32d0df","ios":"levelo://app?vid=5bdf996c-0c2a-4a89-a793-7d6eaa32d0df"},"vehicle_type_id":"4","last_reported":1753355392,"current_range_meters":13600,"station_id":"ce4bgjh2rcd13ifvqbg0","pricing_plan_id":"cebpf4jnsgd1na2vs0mg"},{"bike_id":"3407292c-0e0d-4af1-956c-56e99999c954","system_id":"levelo_inurba_marseille","lat":43.26191,"lon":5.40423,"is_reserved":false,"is_disabled":false,"rental_uris":{"android":"levelo://app?vid=3407292c-0e0d-4af1-956c-56e99999c954","ios":"levelo://app?vid=3407292c-0e0d-4af1-956c-56e99999c954"},"vehicle_type_id":"4","last_reported":1753355392,"current_range_meters":14000,"station_id":"ce4bhmh2rcd13ifvqgmg","pricing_plan_id":"cebpf4jnsgd1na2vs0mg"},{"bike_id":"6e210be1-9cfe-4fbb-918f-9360bbab3d4d","system_id":"levelo_inurba_marseille","lat":43.23161,"lon":5.43716,"is_reserved":false,"is_disabled":false,"rental_uris":{"android":"levelo://app?vid=6e210be1-9cfe-4fbb-918f-9360bbab3d4d","ios":"levelo://app?vid=6e210be1-9cfe-4fbb-918f-9360bbab3d4d"},"vehicle_type_id":"4","last_reported":1753355392,"current_range_meters":14000,"station_id":"ce4bhmp2rcd13ifvqgog","pricing_plan_id":"cebpf4jnsgd1na2vs0mg"},{"bike_id":"6f56df6e-32e4-478e-89ae-ecaa0bc62122","system_id":"levelo_inurba_marseille","lat":43.295761,"lon":5.367423,"is_reserved":false,"is_disabled":false,"rental_uris":{"android":"levelo://app?vid=6f56df6e-32e4-478e-89ae-ecaa0bc62122","ios":"levelo://app?vid=6f56df6e-32e4-478e-89ae-ecaa0bc62122"},"vehicle_type_id":"4","last_reported":1753355392,"current_range_meters":13600,"station_id":"ce4bgph2rcd13ifvqc2g","pricing_plan_id":"cebpf4jnsgd1na2vs0mg"},{"bike_id":"18b86593-4f21-41ed-81b3-f3a5b378dc91","system_id":"levelo_inurba_marseille","lat":43.31222,"lon":5.38165,"is_reserved":false,"is_disabled":false,"rental_uris":{"android":"levelo://app?vid=18b86593-4f21-41ed-81b3-f3a5b378dc91","ios":"levelo://app?vid=18b86593-4f21-41ed-81b3-f3a5b378dc91"},"vehicle_type_id":"4","last_reported":1753355392,"current_range_meters":14000,"station_id":"","pricing_plan_id":"cebpf4jnsgd1na2vs0mg"},{"bike_id":"fbfd93ca-6987-4f50-bd85-9f4d2402caf7","system_id":"levelo_inurba_marseille","lat":43.26201,"lon":5.37455,"is_reserved":false,"is_disabled":false,"rental_uris":{"android":"levelo://app?vid=fbfd93ca-6987-4f50-bd85-9f4d2402caf7","ios":"levelo://app?vid=fbfd93ca-6987-4f50-bd85-9f4d2402caf7"},"vehicle_type_id":"4","last_reported":1753355392,"current_range_meters":14000,"station_id":"ce4bhgp2rcd13ifvqfc0","pricing_plan_id":"cebpf4jnsgd1na2vs0mg"},{"bike_id":"5254d746-bf2c-4042-b956-76a940639ba4","system_id":"levelo_inurba_marseille","lat":43.31365,"lon":5.3675,"is_reserved":false,"is_disabled":false,"rental_uris":{"android":"levelo://app?vid=5254d746-bf2c-4042-b956-76a940639ba4","ios":"levelo://app?vid=5254d746-bf2c-4042-b956-76a940639ba4"},"vehicle_type_id":"4","last_reported":1753355392,"current_range_meters":14000,"station_id":"ce4bgr92rcd13ifvqc6g","pricing_plan_id":"cebpf4jnsgd1na2vs0mg"},{"bike_id":"d42e7dc4-a9ed-48ce-99e7-340e7317a201","system_id":"levelo_inurba_marseille","lat":43.29974,"lon":5.37188,"is_reserved":false,"is_disabled":false,"rental_uris":{"android":"levelo://app?vid=d42e7dc4-a9ed-48ce-99e7-340e7317a201","ios":"levelo://app?vid=d42e7dc4-a9ed-48ce-99e7-340e7317a201"},"vehicle_type_id":"4","last_reported":1753355392,"current_range_meters":13600,"station_id":"ce4bgr92rcd13ifvqc7g","pricing_plan_id":"cebpf4jnsgd1na2vs0mg"},{"bike_id":"cd46d7a3-2aff-40e0-9e50-73919cfa0e11","system_id":"levelo_inurba_marseille","lat":43.27368,"lon":5.36276,"is_reserved":false,"is_disabled":false,"rental_uris":{"android":"levelo://app?vid=cd46d7a3-2aff-40e0-9e50-73919cfa0e11","ios":"levelo://app?vid=cd46d7a3-2aff-40e0-9e50-73919cfa0e11"},"vehicle_type_id":"4","last_reported":1753355392,"current_range_meters":14400,"station_id":"ce4bhbh2rcd13ifvqeo0","pricing_plan_id":"cebpf4jnsgd1na2vs0mg"},{"bike_id":"8fb23903-77f6-4ec9-8b27-a0c9c0c27b5e","system_id":"levelo_inurba_marseille","lat":43.29956,"lon":5.36568,"is_reserved":false,"is_disabled":false,"rental_uris":{"android":"levelo://app?vid=8fb23903-77f6-4ec9-8b27-a0c9c0c27b5e","ios":"levelo://app?vid=8fb23903-77f6-4ec9-8b27-a0c9c0c27b5e"},"vehicle_type_id":"4","last_reported":1753355392,"current_range_meters":14400,"station_id":"ce4bgm92rcd13ifvqbr0","pricing_plan_id":"cebpf4jnsgd1na2vs0mg"},{"bike_id":"38e3d3de-1064-430b-8d77-a6dc0bbe1100","system_id":"levelo_inurba_marseille","lat":43.29904,"lon":5.38124,"is_reserved":false,"is_disabled":false,"rental_uris":{"android":"levelo://app?vid=38e3d3de-1064-430b-8d77-a6dc0bbe1100","ios":"levelo://app?vid=38e3d3de-1064-430b-8d77-a6dc0bbe1100"},"vehicle_type_id":"4","last_reported":1753355392,"current_range_meters":14400,"station_id":"ce4bgj12rcd13ifvqbc0","pricing_plan_id":"cebpf4jnsgd1na2vs0mg"},{"bike_id":"1ad257b5-7f83-42c1-867f-92635ff1abbf","system_id":"levelo_inurba_marseille","lat":43.22931,"lon":5.35378,"is_reserved":false,"is_disabled":false,"rental_uris":{"android":"levelo://app?vid=1ad257b5-7f83-42c1-867f-92635ff1abbf","ios":"levelo://app?vid=1ad257b5-7f83-42c1-867f-92635ff1abbf"},"vehicle_type_id":"4","last_reported":1753355392,"current_range_meters":14400,"station_id":"cpo3532slgdg3j2ikp40","pricing_plan_id":"cebpf4jnsgd1na2vs0mg"},{"bike_id":"f4bc89ed-241d-4eca-b46f-4a676df87af3","system_id":"levelo_inurba_marseille","lat":43.30541,"lon":5.365445,"is_reserved":false,"is_disabled":false,"rental_uris":{"android":"levelo://app?vid=f4bc89ed-241d-4eca-b46f-4a676df87af3","ios":"levelo://app?vid=f4bc89ed-241d-4eca-b46f-4a676df87af3"},"vehicle_type_id":"4","last_reported":1753355392,"current_range_meters":14400,"station_id":"ce4bgs12rcd13ifvqcag","pricing_plan_id":"cebpf4jnsgd1na2vs0mg"},{"bike_id":"8ca38b94-f577-4325-b487-ec7d014c22cc","system_id":"levelo_inurba_marseille","lat":43.27077,"lon":5.40293,"is_reserved":false,"is_disabled":false,"rental_uris":{"android":"levelo://app?vid=8ca38b94-f577-4325-b487-ec7d014c22cc","ios":"levelo://app?vid=8ca38b94-f577-4325-b487-ec7d014c22cc"},"vehicle_type_id":"4","last_reported":1753355392,"current_range_meters":14800,"station_id":"ce4bhk92rcd13ifvqgc0","pricing_plan_id":"cebpf4jnsgd1na2vs0mg"},{"bike_id":"77be17ea-a677-46d6-a392-fbc6761621fc","system_id":"levelo_inurba_marseille","lat":43.30538,"lon":5.36538,"is_reserved":false,"is_disabled":false,"rental_uris":{"android":"levelo://app?vid=77be17ea-a677-46d6-a392-fbc6761621fc","ios":"levelo://app?vid=77be17ea-a677-46d6-a392-fbc6761621fc"},"vehicle_type_id":"4","last_reported":1753355392,"current_range_meters":14800,"station_id":"ce4bgs12rcd13ifvqcag","pricing_plan_id":"cebpf4jnsgd1na2vs0mg"},{"bike_id":"adbf1504-980a-4fb0-8020-b52d87898f42","system_id":"levelo_inurba_marseille","lat":43.31116,"lon":5.37766,"is_reserved":false,"is_disabled":false,"rental_uris":{"android":"levelo://app?vid=adbf1504-980a-4fb0-8020-b52d87898f42","ios":"levelo://app?vid=adbf1504-980a-4fb0-8020-b52d87898f42"},"vehicle_type_id":"4","last_reported":1753355392,"current_range_meters":14800,"station_id":"ce4bgt92rcd13ifvqcg0","pricing_plan_id":"cebpf4jnsgd1na2vs0mg"},{"bike_id":"5bf271e9-b85e-4ede-9d32-02d7c28374e7","system_id":"levelo_inurba_marseille","lat":43.3249,"lon":5.36574,"is_reserved":false,"is_disabled":false,"rental_uris":{"android":"levelo://app?vid=5bf271e9-b85e-4ede-9d32-02d7c28374e7","ios":"levelo://app?vid=5bf271e9-b85e-4ede-9d32-02d7c28374e7"},"vehicle_type_id":"4","last_reported":1753355392,"current_range_meters":14800,"station_id":"ce4bhs12rcd13ifvqhvg","pricing_plan_id":"cebpf4jnsgd1na2vs0mg"},{"bike_id":"ad3a727c-53fd-473e-a231-18c2ec5a1ec8","system_id":"levelo_inurba_marseille","lat":43.29924,"lon":5.3748,"is_reserved":false,"is_disabled":false,"rental_uris":{"android":"levelo://app?vid=ad3a727c-53fd-473e-a231-18c2ec5a1ec8","ios":"levelo://app?vid=ad3a727c-53fd-473e-a231-18c2ec5a1ec8"},"vehicle_type_id":"4","last_reported":1753355392,"current_range_meters":14400,"station_id":"ce4bgjh2rcd13ifvqbg0","pricing_plan_id":"cebpf4jnsgd1na2vs0mg"},{"bike_id":"76c65f84-3b49-4269-890c-8259fe6ade74","system_id":"levelo_inurba_marseille","lat":43.32371,"lon":5.36774,"is_reserved":false,"is_disabled":false,"rental_uris":{"android":"levelo://app?vid=76c65f84-3b49-4269-890c-8259fe6ade74","ios":"levelo://app?vid=76c65f84-3b49-4269-890c-8259fe6ade74"},"vehicle_type_id":"4","last_reported":1753355392,"current_range_meters":14800,"station_id":"ce4bhsh2rcd13ifvqi2g","pricing_plan_id":"cebpf4jnsgd1na2vs0mg"},{"bike_id":"971f361f-7d35-467c-b730-ff0e872917fc","system_id":"levelo_inurba_marseille","lat":43.2502,"lon":5.38946,"is_reserved":false,"is_disabled":false,"rental_uris":{"android":"levelo://app?vid=971f361f-7d35-467c-b730-ff0e872917fc","ios":"levelo://app?vid=971f361f-7d35-467c-b730-ff0e872917fc"},"vehicle_type_id":"4","last_reported":1753355392,"current_range_meters":14800,"station_id":"ce4bhgp2rcd13ifvqfd0","pricing_plan_id":"cebpf4jnsgd1na2vs0mg"},{"bike_id":"cfdf9f64-54c8-4f83-b835-d23a1e675417","system_id":"levelo_inurba_marseille","lat":43.30892,"lon":5.37182,"is_reserved":false,"is_disabled":false,"rental_uris":{"android":"levelo://app?vid=cfdf9f64-54c8-4f83-b835-d23a1e675417","ios":"levelo://app?vid=cfdf9f64-54c8-4f83-b835-d23a1e675417"},"vehicle_type_id":"4","last_reported":1753355392,"current_range_meters":14800,"station_id":"ce4bguh2rcd13ifvqckg","pricing_plan_id":"cebpf4jnsgd1na2vs0mg"},{"bike_id":"775dcf63-bb35-44c3-b712-4f316fb84542","system_id":"levelo_inurba_marseille","lat":43.2958,"lon":5.36747,"is_reserved":false,"is_disabled":false,"rental_uris":{"android":"levelo://app?vid=775dcf63-bb35-44c3-b712-4f316fb84542","ios":"levelo://app?vid=775dcf63-bb35-44c3-b712-4f316fb84542"},"vehicle_type_id":"4","last_reported":1753355392,"current_range_meters":15200,"station_id":"ce4bgph2rcd13ifvqc2g","pricing_plan_id":"cebpf4jnsgd1na2vs0mg"},{"bike_id":"aafc5085-cfef-45b4-9988-ec3250df3634","system_id":"levelo_inurba_marseille","lat":43.2706,"lon":5.40264,"is_reserved":false,"is_disabled":false,"rental_uris":{"android":"levelo://app?vid=aafc5085-cfef-45b4-9988-ec3250df3634","ios":"levelo://app?vid=aafc5085-cfef-45b4-9988-ec3250df3634"},"vehicle_type_id":"4","last_reported":1753355392,"current_range_meters":15200,"station_id":"ce4bhk92rcd13ifvqgc0","pricing_plan_id":"cebpf4jnsgd1na2vs0mg"},{"bike_id":"9437277c-d886-4a0b-9535-11724bd91051","system_id":"levelo_inurba_marseille","lat":43.27089,"lon":5.42283,"is_reserved":false,"is_disabled":false,"rental_uris":{"android":"levelo://app?vid=9437277c-d886-4a0b-9535-11724bd91051","ios":"levelo://app?vid=9437277c-d886-4a0b-9535-11724bd91051"},"vehicle_type_id":"4","last_reported":1753355392,"current_range_meters":15200,"station_id":"ce4bhk92rcd13ifvqgb0","pricing_plan_id":"cebpf4jnsgd1na2vs0mg"},{"bike_id":"4b8efed3-9e53-47c8-bfa4-f1fb0beb03b1","system_id":"levelo_inurba_marseille","lat":43.296,"lon":5.36774,"is_reserved":false,"is_disabled":true,"rental_uris":{"android":"levelo://app?vid=4b8efed3-9e53-47c8-bfa4-f1fb0beb03b1","ios":"levelo://app?vid=4b8efed3-9e53-47c8-bfa4-f1fb0beb03b1"},"vehicle_type_id":"4","last_reported":1753355392,"current_range_meters":16000,"station_id":"ce4bgph2rcd13ifvqc2g","pricing_plan_id":"cebpf4jnsgd1na2vs0mg"},{"bike_id":"eaea15aa-98ae-4f78-b37a-80e2e4524837","system_id":"levelo_inurba_marseille","lat":43.297916,"lon":5.381026,"is_reserved":false,"is_disabled":false,"rental_uris":{"android":"levelo://app?vid=eaea15aa-98ae-4f78-b37a-80e2e4524837","ios":"levelo://app?vid=eaea15aa-98ae-4f78-b37a-80e2e4524837"},"vehicle_type_id":"4","last_reported":1753355392,"current_range_meters":16000,"station_id":"","pricing_plan_id":"cebpf4jnsgd1na2vs0mg"},{"bike_id":"5f824980-27aa-4ef2-856d-b766bebead8a","system_id":"levelo_inurba_marseille","lat":43.22512,"lon":5.34759,"is_reserved":false,"is_disabled":false,"rental_uris":{"android":"levelo://app?vid=5f824980-27aa-4ef2-856d-b766bebead8a","ios":"levelo://app?vid=5f824980-27aa-4ef2-856d-b766bebead8a"},"vehicle_type_id":"4","last_reported":1753355392,"current_range_meters":16000,"station_id":"st_cvj5dfep6f1abm77gieg","pricing_plan_id":"cebpf4jnsgd1na2vs0mg"},{"bike_id":"7da01880-3c8e-4017-8911-33b0cc910207","system_id":"levelo_inurba_marseille","lat":43.291031,"lon":5.381359,"is_reserved":false,"is_disabled":false,"rental_uris":{"android":"levelo://app?vid=7da01880-3c8e-4017-8911-33b0cc910207","ios":"levelo://app?vid=7da01880-3c8e-4017-8911-33b0cc910207"},"vehicle_type_id":"4","last_reported":1753355392,"current_range_meters":16000,"station_id":"ce4bh512rcd13ifvqe2g","pricing_plan_id":"cebpf4jnsgd1na2vs0mg"},{"bike_id":"616f62c9-03bf-4930-b722-62dade5e4595","system_id":"levelo_inurba_marseille","lat":43.27728,"lon":5.37426,"is_reserved":false,"is_disabled":false,"rental_uris":{"android":"levelo://app?vid=616f62c9-03bf-4930-b722-62dade5e4595","ios":"levelo://app?vid=616f62c9-03bf-4930-b722-62dade5e4595"},"vehicle_type_id":"4","last_reported":1753355392,"current_range_meters":16000,"station_id":"","pricing_plan_id":"cebpf4jnsgd1na2vs0mg"},{"bike_id":"35a86048-76dd-4de0-afb2-7da8772fad44","system_id":"levelo_inurba_marseille","lat":43.21539,"lon":5.34775,"is_reserved":false,"is_disabled":false,"rental_uris":{"android":"levelo://app?vid=35a86048-76dd-4de0-afb2-7da8772fad44","ios":"levelo://app?vid=35a86048-76dd-4de0-afb2-7da8772fad44"},"vehicle_type_id":"4","last_reported":1753355392,"current_range_meters":16000,"station_id":"","pricing_plan_id":"cebpf4jnsgd1na2vs0mg"},{"bike_id":"7d324737-f577-48ff-a978-42731b043d3e","system_id":"levelo_inurba_marseille","lat":43.28079,"lon":5.39663,"is_reserved":false,"is_disabled":false,"rental_uris":{"android":"levelo://app?vid=7d324737-f577-48ff-a978-42731b043d3e","ios":"levelo://app?vid=7d324737-f577-48ff-a978-42731b043d3e"},"vehicle_type_id":"4","last_reported":1753355392,"current_range_meters":16000,"station_id":"ce4bho12rcd13ifvqh2g","pricing_plan_id":"cebpf4jnsgd1na2vs0mg"},{"bike_id":"806de4ad-b467-48b2-a10e-6cbd3133cfb4","system_id":"levelo_inurba_marseille","lat":43.23154,"lon":5.43732,"is_reserved":false,"is_disabled":false,"rental_uris":{"android":"levelo://app?vid=806de4ad-b467-48b2-a10e-6cbd3133cfb4","ios":"levelo://app?vid=806de4ad-b467-48b2-a10e-6cbd3133cfb4"},"vehicle_type_id":"4","last_reported":1753355392,"current_range_meters":16000,"station_id":"ce4bhmp2rcd13ifvqgog","pricing_plan_id":"cebpf4jnsgd1na2vs0mg"},{"bike_id":"c47743f2-54e1-4c61-88a9-119ba575b878","system_id":"levelo_inurba_marseille","lat":43.296147,"lon":5.37725,"is_reserved":false,"is_disabled":false,"rental_uris":{"android":"levelo://app?vid=c47743f2-54e1-4c61-88a9-119ba575b878","ios":"levelo://app?vid=c47743f2-54e1-4c61-88a9-119ba575b878"},"vehicle_type_id":"4","last_reported":1753355392,"current_range_meters":16000,"station_id":"ce4bgi92rcd13ifvqb90","pricing_plan_id":"cebpf4jnsgd1na2vs0mg"},{"bike_id":"dc8f46a3-88aa-4a15-8d46-3c4616a5c1ab","system_id":"levelo_inurba_marseille","lat":43.30542,"lon":5.36536,"is_reserved":false,"is_disabled":false,"rental_uris":{"android":"levelo://app?vid=dc8f46a3-88aa-4a15-8d46-3c4616a5c1ab","ios":"levelo://app?vid=dc8f46a3-88aa-4a15-8d46-3c4616a5c1ab"},"vehicle_type_id":"4","last_reported":1753355392,"current_range_meters":15200,"station_id":"ce4bgs12rcd13ifvqcag","pricing_plan_id":"cebpf4jnsgd1na2vs0mg"},{"bike_id":"fbda76a5-068e-4d90-b9ba-25721acd9298","system_id":"levelo_inurba_marseille","lat":43.2904,"lon":5.43961,"is_reserved":false,"is_disabled":false,"rental_uris":{"android":"levelo://app?vid=fbda76a5-068e-4d90-b9ba-25721acd9298","ios":"levelo://app?vid=fbda76a5-068e-4d90-b9ba-25721acd9298"},"vehicle_type_id":"4","last_reported":1753355392,"current_range_meters":16400,"station_id":"","pricing_plan_id":"cebpf4jnsgd1na2vs0mg"},{"bike_id":"81df7d6f-832b-40f6-ad7c-3d213cee8b09","system_id":"levelo_inurba_marseille","lat":43.24072,"lon":5.37779,"is_reserved":false,"is_disabled":false,"rental_uris":{"android":"levelo://app?vid=81df7d6f-832b-40f6-ad7c-3d213cee8b09","ios":"levelo://app?vid=81df7d6f-832b-40f6-ad7c-3d213cee8b09"},"vehicle_type_id":"4","last_reported":1753355392,"current_range_meters":16400,"station_id":"ce4bhnp2rcd13ifvqgvg","pricing_plan_id":"cebpf4jnsgd1na2vs0mg"},{"bike_id":"819bb1b6-06bc-4eb2-b94e-4388d87b087b","system_id":"levelo_inurba_marseille","lat":43.297158,"lon":5.366088,"is_reserved":false,"is_disabled":false,"rental_uris":{"android":"levelo://app?vid=819bb1b6-06bc-4eb2-b94e-4388d87b087b","ios":"levelo://app?vid=819bb1b6-06bc-4eb2-b94e-4388d87b087b"},"vehicle_type_id":"4","last_reported":1753355392,"current_range_meters":16400,"station_id":"ce4bgn12rcd13ifvqbt0","pricing_plan_id":"cebpf4jnsgd1na2vs0mg"},{"bike_id":"21e2ca38-b71b-4619-8953-c81d3dc8acc8","system_id":"levelo_inurba_marseille","lat":43.2928,"lon":5.36845,"is_reserved":false,"is_disabled":false,"rental_uris":{"android":"levelo://app?vid=21e2ca38-b71b-4619-8953-c81d3dc8acc8","ios":"levelo://app?vid=21e2ca38-b71b-4619-8953-c81d3dc8acc8"},"vehicle_type_id":"4","last_reported":1753355392,"current_range_meters":16400,"station_id":"ce4bhbp2rcd13ifvqesg","pricing_plan_id":"cebpf4jnsgd1na2vs0mg"},{"bike_id":"f7f07796-c7c9-4a74-80e9-fb85744448b8","system_id":"levelo_inurba_marseille","lat":43.229173,"lon":5.354017,"is_reserved":false,"is_disabled":false,"rental_uris":{"android":"levelo://app?vid=f7f07796-c7c9-4a74-80e9-fb85744448b8","ios":"levelo://app?vid=f7f07796-c7c9-4a74-80e9-fb85744448b8"},"vehicle_type_id":"4","last_reported":1753355392,"current_range_meters":16400,"station_id":"cpo3532slgdg3j2ikp40","pricing_plan_id":"cebpf4jnsgd1na2vs0mg"},{"bike_id":"bfc7c93a-e37a-4eef-be57-acdb00831eb3","system_id":"levelo_inurba_marseille","lat":43.293981,"lon":5.376604,"is_reserved":false,"is_disabled":false,"rental_uris":{"android":"levelo://app?vid=bfc7c93a-e37a-4eef-be57-acdb00831eb3","ios":"levelo://app?vid=bfc7c93a-e37a-4eef-be57-acdb00831eb3"},"vehicle_type_id":"4","last_reported":1753355392,"current_range_meters":16400,"station_id":"ce4bgi92rcd13ifvqb90","pricing_plan_id":"cebpf4jnsgd1na2vs0mg"},{"bike_id":"e401289a-83cf-4377-aa07-419b9b37079e","system_id":"levelo_inurba_marseille","lat":43.230679,"lon":5.354881,"is_reserved":false,"is_disabled":false,"rental_uris":{"android":"levelo://app?vid=e401289a-83cf-4377-aa07-419b9b37079e","ios":"levelo://app?vid=e401289a-83cf-4377-aa07-419b9b37079e"},"vehicle_type_id":"4","last_reported":1753355392,"current_range_meters":16400,"station_id":"cpo3342slgdg3j2ifvpg","pricing_plan_id":"cebpf4jnsgd1na2vs0mg"},{"bike_id":"de993af1-8c6e-4fcd-aa11-3cbf2991a890","system_id":"levelo_inurba_marseille","lat":43.23198,"lon":5.35561,"is_reserved":false,"is_disabled":false,"rental_uris":{"android":"levelo://app?vid=de993af1-8c6e-4fcd-aa11-3cbf2991a890","ios":"levelo://app?vid=de993af1-8c6e-4fcd-aa11-3cbf2991a890"},"vehicle_type_id":"4","last_reported":1753355392,"current_range_meters":16400,"station_id":"ce4bhu92rcd13ifvqi70","pricing_plan_id":"cebpf4jnsgd1na2vs0mg"},{"bike_id":"c6aa9af9-9a2d-4c74-a251-ede8df9515d7","system_id":"levelo_inurba_marseille","lat":43.312415,"lon":5.368757,"is_reserved":false,"is_disabled":false,"rental_uris":{"android":"levelo://app?vid=c6aa9af9-9a2d-4c74-a251-ede8df9515d7","ios":"levelo://app?vid=c6aa9af9-9a2d-4c74-a251-ede8df9515d7"},"vehicle_type_id":"4","last_reported":1753355392,"current_range_meters":16400,"station_id":"ce4bgl92rcd13ifvqbq0","pricing_plan_id":"cebpf4jnsgd1na2vs0mg"},{"bike_id":"55c34f11-7726-4f75-9264-c2784ef1e47e","system_id":"levelo_inurba_marseille","lat":43.249998,"lon":5.389312,"is_reserved":false,"is_disabled":false,"rental_uris":{"android":"levelo://app?vid=55c34f11-7726-4f75-9264-c2784ef1e47e","ios":"levelo://app?vid=55c34f11-7726-4f75-9264-c2784ef1e47e"},"vehicle_type_id":"4","last_reported":1753355392,"current_range_meters":16400,"station_id":"ce4bhgp2rcd13ifvqfd0","pricing_plan_id":"cebpf4jnsgd1na2vs0mg"},{"bike_id":"27b5acbc-b1fd-4385-9be5-bae49e9e4f6a","system_id":"levelo_inurba_marseille","lat":43.24802,"lon":5.37461,"is_reserved":false,"is_disabled":false,"rental_uris":{"android":"levelo://app?vid=27b5acbc-b1fd-4385-9be5-bae49e9e4f6a","ios":"levelo://app?vid=27b5acbc-b1fd-4385-9be5-bae49e9e4f6a"},"vehicle_type_id":"4","last_reported":1753355392,"current_range_meters":16400,"station_id":"ce4bhgh2rcd13ifvqfb0","pricing_plan_id":"cebpf4jnsgd1na2vs0mg"},{"bike_id":"85c8f939-49e5-43d7-b524-31747577fd94","system_id":"levelo_inurba_marseille","lat":43.30772,"lon":5.37612,"is_reserved":false,"is_disabled":false,"rental_uris":{"android":"levelo://app?vid=85c8f939-49e5-43d7-b524-31747577fd94","ios":"levelo://app?vid=85c8f939-49e5-43d7-b524-31747577fd94"},"vehicle_type_id":"4","last_reported":1753355392,"current_range_meters":16400,"station_id":"ce4bgv92rcd13ifvqcq0","pricing_plan_id":"cebpf4jnsgd1na2vs0mg"},{"bike_id":"b019dc5a-ef64-4ed3-a8c3-92e505fe3503","system_id":"levelo_inurba_marseille","lat":43.29602,"lon":5.38105,"is_reserved":false,"is_disabled":false,"rental_uris":{"android":"levelo://app?vid=b019dc5a-ef64-4ed3-a8c3-92e505fe3503","ios":"levelo://app?vid=b019dc5a-ef64-4ed3-a8c3-92e505fe3503"},"vehicle_type_id":"4","last_reported":1753355392,"current_range_meters":16800,"station_id":"ce4bgl12rcd13ifvqbo0","pricing_plan_id":"cebpf4jnsgd1na2vs0mg"},{"bike_id":"1f39eb17-34c7-4235-9069-0f68f613789c","system_id":"levelo_inurba_marseille","lat":43.26886,"lon":5.36871,"is_reserved":false,"is_disabled":false,"rental_uris":{"android":"levelo://app?vid=1f39eb17-34c7-4235-9069-0f68f613789c","ios":"levelo://app?vid=1f39eb17-34c7-4235-9069-0f68f613789c"},"vehicle_type_id":"4","last_reported":1753355392,"current_range_meters":16800,"station_id":"","pricing_plan_id":"cebpf4jnsgd1na2vs0mg"},{"bike_id":"451c8b55-6be2-42fe-a6f2-5298fefb419a","system_id":"levelo_inurba_marseille","lat":43.28141,"lon":5.42659,"is_reserved":false,"is_disabled":false,"rental_uris":{"android":"levelo://app?vid=451c8b55-6be2-42fe-a6f2-5298fefb419a","ios":"levelo://app?vid=451c8b55-6be2-42fe-a6f2-5298fefb419a"},"vehicle_type_id":"4","last_reported":1753355392,"current_range_meters":16800,"station_id":"ce4bhnh2rcd13ifvqgug","pricing_plan_id":"cebpf4jnsgd1na2vs0mg"},{"bike_id":"630f322e-ea39-413c-8ed4-096ccef376bc","system_id":"levelo_inurba_marseille","lat":43.29599,"lon":5.36957,"is_reserved":false,"is_disabled":false,"rental_uris":{"android":"levelo://app?vid=630f322e-ea39-413c-8ed4-096ccef376bc","ios":"levelo://app?vid=630f322e-ea39-413c-8ed4-096ccef376bc"},"vehicle_type_id":"4","last_reported":1753355392,"current_range_meters":16800,"station_id":"","pricing_plan_id":"cebpf4jnsgd1na2vs0mg"},{"bike_id":"6f43ddec-ad1f-49b5-a07b-5e953eb14787","system_id":"levelo_inurba_marseille","lat":43.29898,"lon":5.43674,"is_reserved":false,"is_disabled":false,"rental_uris":{"android":"levelo://app?vid=6f43ddec-ad1f-49b5-a07b-5e953eb14787","ios":"levelo://app?vid=6f43ddec-ad1f-49b5-a07b-5e953eb14787"},"vehicle_type_id":"4","last_reported":1753355392,"current_range_meters":16400,"station_id":"ce4bhpp2rcd13ifvqhfg","pricing_plan_id":"cebpf4jnsgd1na2vs0mg"},{"bike_id":"33ce2ff8-7e21-4229-9288-7ac129269db8","system_id":"levelo_inurba_marseille","lat":43.32122,"lon":5.36768,"is_reserved":false,"is_disabled":false,"rental_uris":{"android":"levelo://app?vid=33ce2ff8-7e21-4229-9288-7ac129269db8","ios":"levelo://app?vid=33ce2ff8-7e21-4229-9288-7ac129269db8"},"vehicle_type_id":"4","last_reported":1753355392,"current_range_meters":17200,"station_id":"ce4bhrh2rcd13ifvqhug","pricing_plan_id":"cebpf4jnsgd1na2vs0mg"},{"bike_id":"1258b0c9-a581-407a-9661-d97ea2b52a16","system_id":"levelo_inurba_marseille","lat":43.28464,"lon":5.35883,"is_reserved":false,"is_disabled":false,"rental_uris":{"android":"levelo://app?vid=1258b0c9-a581-407a-9661-d97ea2b52a16","ios":"levelo://app?vid=1258b0c9-a581-407a-9661-d97ea2b52a16"},"vehicle_type_id":"4","last_reported":1753355392,"current_range_meters":16800,"station_id":"ce4bhah2rcd13ifvqei0","pricing_plan_id":"cebpf4jnsgd1na2vs0mg"},{"bike_id":"0aa2d153-96d1-4d69-83b8-d39119aa9dd5","system_id":"levelo_inurba_marseille","lat":43.33523,"lon":5.36229,"is_reserved":false,"is_disabled":false,"rental_uris":{"android":"levelo://app?vid=0aa2d153-96d1-4d69-83b8-d39119aa9dd5","ios":"levelo://app?vid=0aa2d153-96d1-4d69-83b8-d39119aa9dd5"},"vehicle_type_id":"4","last_reported":1753355392,"current_range_meters":17200,"station_id":"","pricing_plan_id":"cebpf4jnsgd1na2vs0mg"},{"bike_id":"29ae9718-c985-4a67-b87d-fe9f41064859","system_id":"levelo_inurba_marseille","lat":43.29858,"lon":5.36356,"is_reserved":false,"is_disabled":false,"rental_uris":{"android":"levelo://app?vid=29ae9718-c985-4a67-b87d-fe9f41064859","ios":"levelo://app?vid=29ae9718-c985-4a67-b87d-fe9f41064859"},"vehicle_type_id":"4","last_reported":1753355392,"current_range_meters":17200,"station_id":"","pricing_plan_id":"cebpf4jnsgd1na2vs0mg"},{"bike_id":"d8606872-c4e4-41d7-97d7-e6e0f75f9e13","system_id":"levelo_inurba_marseille","lat":43.30547,"lon":5.36529,"is_reserved":false,"is_disabled":false,"rental_uris":{"android":"levelo://app?vid=d8606872-c4e4-41d7-97d7-e6e0f75f9e13","ios":"levelo://app?vid=d8606872-c4e4-41d7-97d7-e6e0f75f9e13"},"vehicle_type_id":"4","last_reported":1753355392,"current_range_meters":17200,"station_id":"ce4bgs12rcd13ifvqcag","pricing_plan_id":"cebpf4jnsgd1na2vs0mg"},{"bike_id":"8bf2041f-a165-47bf-84f1-41526695fbf0","system_id":"levelo_inurba_marseille","lat":43.2417,"lon":5.36403,"is_reserved":false,"is_disabled":false,"rental_uris":{"android":"levelo://app?vid=8bf2041f-a165-47bf-84f1-41526695fbf0","ios":"levelo://app?vid=8bf2041f-a165-47bf-84f1-41526695fbf0"},"vehicle_type_id":"4","last_reported":1753355392,"current_range_meters":17200,"station_id":"cpo36qri1sfpv3e86is0","pricing_plan_id":"cebpf4jnsgd1na2vs0mg"},{"bike_id":"be1112aa-92c6-4f71-9978-f794b04ae2fe","system_id":"levelo_inurba_marseille","lat":43.27807,"lon":5.40728,"is_reserved":false,"is_disabled":false,"rental_uris":{"android":"levelo://app?vid=be1112aa-92c6-4f71-9978-f794b04ae2fe","ios":"levelo://app?vid=be1112aa-92c6-4f71-9978-f794b04ae2fe"},"vehicle_type_id":"4","last_reported":1753355392,"current_range_meters":17200,"station_id":"ce4bhnh2rcd13ifvqgtg","pricing_plan_id":"cebpf4jnsgd1na2vs0mg"},{"bike_id":"d2c1d56d-6a3a-4ae3-b7ab-84022ad7ad84","system_id":"levelo_inurba_marseille","lat":43.29827,"lon":5.37614,"is_reserved":false,"is_disabled":false,"rental_uris":{"android":"levelo://app?vid=d2c1d56d-6a3a-4ae3-b7ab-84022ad7ad84","ios":"levelo://app?vid=d2c1d56d-6a3a-4ae3-b7ab-84022ad7ad84"},"vehicle_type_id":"4","last_reported":1753355392,"current_range_meters":17200,"station_id":"","pricing_plan_id":"cebpf4jnsgd1na2vs0mg"},{"bike_id":"ab655ef1-723d-4041-8888-1879d35f677b","system_id":"levelo_inurba_marseille","lat":43.27999,"lon":5.41665,"is_reserved":false,"is_disabled":false,"rental_uris":{"android":"levelo://app?vid=ab655ef1-723d-4041-8888-1879d35f677b","ios":"levelo://app?vid=ab655ef1-723d-4041-8888-1879d35f677b"},"vehicle_type_id":"4","last_reported":1753355392,"current_range_meters":17600,"station_id":"ce4bho12rcd13ifvqh1g","pricing_plan_id":"cebpf4jnsgd1na2vs0mg"},{"bike_id":"bb07577e-3d5f-4181-9aed-6d0927f49a23","system_id":"levelo_inurba_marseille","lat":43.26553,"lon":5.37289,"is_reserved":false,"is_disabled":true,"rental_uris":{"android":"levelo://app?vid=bb07577e-3d5f-4181-9aed-6d0927f49a23","ios":"levelo://app?vid=bb07577e-3d5f-4181-9aed-6d0927f49a23"},"vehicle_type_id":"4","last_reported":1753355392,"current_range_meters":17600,"station_id":"","pricing_plan_id":"cebpf4jnsgd1na2vs0mg"},{"bike_id":"fca1ca0f-236e-4c52-9204-2d9a1417d423","system_id":"levelo_inurba_marseille","lat":43.28928,"lon":5.36633,"is_reserved":false,"is_disabled":false,"rental_uris":{"android":"levelo://app?vid=fca1ca0f-236e-4c52-9204-2d9a1417d423","ios":"levelo://app?vid=fca1ca0f-236e-4c52-9204-2d9a1417d423"},"vehicle_type_id":"4","last_reported":1753355392,"current_range_meters":17600,"station_id":"ce4bhap2rcd13ifvqek0","pricing_plan_id":"cebpf4jnsgd1na2vs0mg"},{"bike_id":"dc3e0ad5-33fd-449c-b62c-7400648f6447","system_id":"levelo_inurba_marseille","lat":43.27631,"lon":5.373447,"is_reserved":false,"is_disabled":false,"rental_uris":{"android":"levelo://app?vid=dc3e0ad5-33fd-449c-b62c-7400648f6447","ios":"levelo://app?vid=dc3e0ad5-33fd-449c-b62c-7400648f6447"},"vehicle_type_id":"4","last_reported":1753355392,"current_range_meters":17600,"station_id":"","pricing_plan_id":"cebpf4jnsgd1na2vs0mg"},{"bike_id":"784eeebd-2893-4f27-84ae-c797089b4166","system_id":"levelo_inurba_marseille","lat":43.2252,"lon":5.34795,"is_reserved":false,"is_disabled":false,"rental_uris":{"android":"levelo://app?vid=784eeebd-2893-4f27-84ae-c797089b4166","ios":"levelo://app?vid=784eeebd-2893-4f27-84ae-c797089b4166"},"vehicle_type_id":"4","last_reported":1753355392,"current_range_meters":17600,"station_id":"st_cvj5dfep6f1abm77gieg","pricing_plan_id":"cebpf4jnsgd1na2vs0mg"},{"bike_id":"d8ab8225-ebfc-48f1-9981-f15e3b9960ea","system_id":"levelo_inurba_marseille","lat":43.22928,"lon":5.35375,"is_reserved":false,"is_disabled":false,"rental_uris":{"android":"levelo://app?vid=d8ab8225-ebfc-48f1-9981-f15e3b9960ea","ios":"levelo://app?vid=d8ab8225-ebfc-48f1-9981-f15e3b9960ea"},"vehicle_type_id":"4","last_reported":1753355392,"current_range_meters":17600,"station_id":"cpo3532slgdg3j2ikp40","pricing_plan_id":"cebpf4jnsgd1na2vs0mg"},{"bike_id":"481351de-e3d5-4a6f-aa67-c1762e7ed223","system_id":"levelo_inurba_marseille","lat":43.27072,"lon":5.42279,"is_reserved":false,"is_disabled":false,"rental_uris":{"android":"levelo://app?vid=481351de-e3d5-4a6f-aa67-c1762e7ed223","ios":"levelo://app?vid=481351de-e3d5-4a6f-aa67-c1762e7ed223"},"vehicle_type_id":"4","last_reported":1753355392,"current_range_meters":17600,"station_id":"ce4bhk92rcd13ifvqgb0","pricing_plan_id":"cebpf4jnsgd1na2vs0mg"},{"bike_id":"0a7e2862-d8ec-4c77-89d9-cfcdd51f8d75","system_id":"levelo_inurba_marseille","lat":43.311994,"lon":5.378755,"is_reserved":false,"is_disabled":false,"rental_uris":{"android":"levelo://app?vid=0a7e2862-d8ec-4c77-89d9-cfcdd51f8d75","ios":"levelo://app?vid=0a7e2862-d8ec-4c77-89d9-cfcdd51f8d75"},"vehicle_type_id":"4","last_reported":1753355392,"current_range_meters":17600,"station_id":"","pricing_plan_id":"cebpf4jnsgd1na2vs0mg"},{"bike_id":"9e71a50e-df43-4a48-bc37-13460235be7b","system_id":"levelo_inurba_marseille","lat":43.24173,"lon":5.36403,"is_reserved":false,"is_disabled":false,"rental_uris":{"android":"levelo://app?vid=9e71a50e-df43-4a48-bc37-13460235be7b","ios":"levelo://app?vid=9e71a50e-df43-4a48-bc37-13460235be7b"},"vehicle_type_id":"4","last_reported":1753355392,"current_range_meters":17600,"station_id":"cpo36qri1sfpv3e86is0","pricing_plan_id":"cebpf4jnsgd1na2vs0mg"},{"bike_id":"922e3d66-ae7e-4439-a5cf-23b2217d76cd","system_id":"levelo_inurba_marseille","lat":43.25952,"lon":5.40909,"is_reserved":false,"is_disabled":false,"rental_uris":{"android":"levelo://app?vid=922e3d66-ae7e-4439-a5cf-23b2217d76cd","ios":"levelo://app?vid=922e3d66-ae7e-4439-a5cf-23b2217d76cd"},"vehicle_type_id":"4","last_reported":1753355392,"current_range_meters":17600,"station_id":"ce4bhm92rcd13ifvqglg","pricing_plan_id":"cebpf4jnsgd1na2vs0mg"},{"bike_id":"f2ca3887-7e82-498b-8c49-e80cd18a3051","system_id":"levelo_inurba_marseille","lat":43.23963,"lon":5.36638,"is_reserved":false,"is_disabled":false,"rental_uris":{"android":"levelo://app?vid=f2ca3887-7e82-498b-8c49-e80cd18a3051","ios":"levelo://app?vid=f2ca3887-7e82-498b-8c49-e80cd18a3051"},"vehicle_type_id":"4","last_reported":1753355392,"current_range_meters":18000,"station_id":"ce4bhi12rcd13ifvqfp0","pricing_plan_id":"cebpf4jnsgd1na2vs0mg"},{"bike_id":"c214acfa-8444-4d69-bdda-2fa29e34203a","system_id":"levelo_inurba_marseille","lat":43.324789,"lon":5.365576,"is_reserved":false,"is_disabled":false,"rental_uris":{"android":"levelo://app?vid=c214acfa-8444-4d69-bdda-2fa29e34203a","ios":"levelo://app?vid=c214acfa-8444-4d69-bdda-2fa29e34203a"},"vehicle_type_id":"4","last_reported":1753355392,"current_range_meters":18000,"station_id":"ce4bhs12rcd13ifvqhvg","pricing_plan_id":"cebpf4jnsgd1na2vs0mg"},{"bike_id":"ce193c8e-90e0-4599-95e2-d02b7d163b03","system_id":"levelo_inurba_marseille","lat":43.24095,"lon":5.3775,"is_reserved":false,"is_disabled":false,"rental_uris":{"android":"levelo://app?vid=ce193c8e-90e0-4599-95e2-d02b7d163b03","ios":"levelo://app?vid=ce193c8e-90e0-4599-95e2-d02b7d163b03"},"vehicle_type_id":"4","last_reported":1753355392,"current_range_meters":18000,"station_id":"ce4bhnp2rcd13ifvqgvg","pricing_plan_id":"cebpf4jnsgd1na2vs0mg"},{"bike_id":"0aca8709-ed97-4e7c-96dc-d1aaa82865d8","system_id":"levelo_inurba_marseille","lat":43.30522,"lon":5.36541,"is_reserved":false,"is_disabled":false,"rental_uris":{"android":"levelo://app?vid=0aca8709-ed97-4e7c-96dc-d1aaa82865d8","ios":"levelo://app?vid=0aca8709-ed97-4e7c-96dc-d1aaa82865d8"},"vehicle_type_id":"4","last_reported":1753355392,"current_range_meters":18000,"station_id":"ce4bgs12rcd13ifvqcag","pricing_plan_id":"cebpf4jnsgd1na2vs0mg"},{"bike_id":"f78b69a5-7f99-469b-9809-db12b867eb2e","system_id":"levelo_inurba_marseille","lat":43.24184,"lon":5.3643,"is_reserved":false,"is_disabled":false,"rental_uris":{"android":"levelo://app?vid=f78b69a5-7f99-469b-9809-db12b867eb2e","ios":"levelo://app?vid=f78b69a5-7f99-469b-9809-db12b867eb2e"},"vehicle_type_id":"4","last_reported":1753355392,"current_range_meters":18000,"station_id":"cpo36qri1sfpv3e86is0","pricing_plan_id":"cebpf4jnsgd1na2vs0mg"},{"bike_id":"261d4bb0-7bb9-4c80-93f3-cd6f68b7285e","system_id":"levelo_inurba_marseille","lat":43.31502,"lon":5.36931,"is_reserved":false,"is_disabled":false,"rental_uris":{"android":"levelo://app?vid=261d4bb0-7bb9-4c80-93f3-cd6f68b7285e","ios":"levelo://app?vid=261d4bb0-7bb9-4c80-93f3-cd6f68b7285e"},"vehicle_type_id":"4","last_reported":1753355392,"current_range_meters":18000,"station_id":"","pricing_plan_id":"cebpf4jnsgd1na2vs0mg"},{"bike_id":"cefbc1fc-2f6f-4a1e-a03b-1236fbc64a9f","system_id":"levelo_inurba_marseille","lat":43.28101,"lon":5.37837,"is_reserved":false,"is_disabled":false,"rental_uris":{"android":"levelo://app?vid=cefbc1fc-2f6f-4a1e-a03b-1236fbc64a9f","ios":"levelo://app?vid=cefbc1fc-2f6f-4a1e-a03b-1236fbc64a9f"},"vehicle_type_id":"4","last_reported":1753355392,"current_range_meters":18000,"station_id":"ce4bha12rcd13ifvqee0","pricing_plan_id":"cebpf4jnsgd1na2vs0mg"},{"bike_id":"bfddca7c-3825-4dd2-81c9-335257a69f7c","system_id":"levelo_inurba_marseille","lat":43.295746,"lon":5.367429,"is_reserved":false,"is_disabled":false,"rental_uris":{"android":"levelo://app?vid=bfddca7c-3825-4dd2-81c9-335257a69f7c","ios":"levelo://app?vid=bfddca7c-3825-4dd2-81c9-335257a69f7c"},"vehicle_type_id":"4","last_reported":1753355392,"current_range_meters":18800,"station_id":"ce4bgph2rcd13ifvqc2g","pricing_plan_id":"cebpf4jnsgd1na2vs0mg"},{"bike_id":"7e25df86-1d16-4137-8534-257fc40e02fa","system_id":"levelo_inurba_marseille","lat":43.337,"lon":5.391,"is_reserved":false,"is_disabled":false,"rental_uris":{"android":"levelo://app?vid=7e25df86-1d16-4137-8534-257fc40e02fa","ios":"levelo://app?vid=7e25df86-1d16-4137-8534-257fc40e02fa"},"vehicle_type_id":"4","last_reported":1753355392,"current_range_meters":18800,"station_id":"ce4bhr92rcd13ifvqhsg","pricing_plan_id":"cebpf4jnsgd1na2vs0mg"},{"bike_id":"ec3f27f6-f0cd-4772-b3a5-82943f0fe26e","system_id":"levelo_inurba_marseille","lat":43.297179,"lon":5.377239,"is_reserved":false,"is_disabled":false,"rental_uris":{"android":"levelo://app?vid=ec3f27f6-f0cd-4772-b3a5-82943f0fe26e","ios":"levelo://app?vid=ec3f27f6-f0cd-4772-b3a5-82943f0fe26e"},"vehicle_type_id":"4","last_reported":1753355392,"current_range_meters":18800,"station_id":"ce4bgkh2rcd13ifvqbl0","pricing_plan_id":"cebpf4jnsgd1na2vs0mg"},{"bike_id":"3a1952fb-2c08-48fc-ab85-21a9d2053433","system_id":"levelo_inurba_marseille","lat":43.28095,"lon":5.39654,"is_reserved":false,"is_disabled":false,"rental_uris":{"android":"levelo://app?vid=3a1952fb-2c08-48fc-ab85-21a9d2053433","ios":"levelo://app?vid=3a1952fb-2c08-48fc-ab85-21a9d2053433"},"vehicle_type_id":"4","last_reported":1753355392,"current_range_meters":18800,"station_id":"ce4bho12rcd13ifvqh2g","pricing_plan_id":"cebpf4jnsgd1na2vs0mg"},{"bike_id":"22832dd9-6f40-41f0-84f7-20d5b045fc09","system_id":"levelo_inurba_marseille","lat":43.30363,"lon":5.42523,"is_reserved":false,"is_disabled":false,"rental_uris":{"android":"levelo://app?vid=22832dd9-6f40-41f0-84f7-20d5b045fc09","ios":"levelo://app?vid=22832dd9-6f40-41f0-84f7-20d5b045fc09"},"vehicle_type_id":"4","last_reported":1753355392,"current_range_meters":18800,"station_id":"","pricing_plan_id":"cebpf4jnsgd1na2vs0mg"},{"bike_id":"1190a6a6-e0cc-4ff3-b3e2-3e7074b6085c","system_id":"levelo_inurba_marseille","lat":43.30901,"lon":5.36848,"is_reserved":false,"is_disabled":false,"rental_uris":{"android":"levelo://app?vid=1190a6a6-e0cc-4ff3-b3e2-3e7074b6085c","ios":"levelo://app?vid=1190a6a6-e0cc-4ff3-b3e2-3e7074b6085c"},"vehicle_type_id":"4","last_reported":1753355392,"current_range_meters":18800,"station_id":"ce4bgn92rcd13ifvqbvg","pricing_plan_id":"cebpf4jnsgd1na2vs0mg"},{"bike_id":"c6090c9c-7037-4e18-a362-b4374b7ddf25","system_id":"levelo_inurba_marseille","lat":43.28003,"lon":5.4002,"is_reserved":false,"is_disabled":false,"rental_uris":{"android":"levelo://app?vid=c6090c9c-7037-4e18-a362-b4374b7ddf25","ios":"levelo://app?vid=c6090c9c-7037-4e18-a362-b4374b7ddf25"},"vehicle_type_id":"4","last_reported":1753355392,"current_range_meters":18000,"station_id":"ce4bho92rcd13ifvqh4g","pricing_plan_id":"cebpf4jnsgd1na2vs0mg"},{"bike_id":"98596612-1b09-47b6-a941-ae2e06787c90","system_id":"levelo_inurba_marseille","lat":43.304035,"lon":5.418633,"is_reserved":false,"is_disabled":false,"rental_uris":{"android":"levelo://app?vid=98596612-1b09-47b6-a941-ae2e06787c90","ios":"levelo://app?vid=98596612-1b09-47b6-a941-ae2e06787c90"},"vehicle_type_id":"4","last_reported":1753355392,"current_range_meters":18800,"station_id":"ce4bhop2rcd13ifvqh7g","pricing_plan_id":"cebpf4jnsgd1na2vs0mg"},{"bike_id":"ad25e224-b15c-4949-92a3-53289b1bd1fb","system_id":"levelo_inurba_marseille","lat":43.28701,"lon":5.38496,"is_reserved":false,"is_disabled":false,"rental_uris":{"android":"levelo://app?vid=ad25e224-b15c-4949-92a3-53289b1bd1fb","ios":"levelo://app?vid=ad25e224-b15c-4949-92a3-53289b1bd1fb"},"vehicle_type_id":"4","last_reported":1753355392,"current_range_meters":18800,"station_id":"","pricing_plan_id":"cebpf4jnsgd1na2vs0mg"},{"bike_id":"294155da-9d6a-45b1-a165-e319f0922f38","system_id":"levelo_inurba_marseille","lat":43.23962,"lon":5.36627,"is_reserved":false,"is_disabled":false,"rental_uris":{"android":"levelo://app?vid=294155da-9d6a-45b1-a165-e319f0922f38","ios":"levelo://app?vid=294155da-9d6a-45b1-a165-e319f0922f38"},"vehicle_type_id":"4","last_reported":1753355392,"current_range_meters":19200,"station_id":"ce4bhi12rcd13ifvqfp0","pricing_plan_id":"cebpf4jnsgd1na2vs0mg"},{"bike_id":"cf776233-7766-4109-aadc-a0d3c334d400","system_id":"levelo_inurba_marseille","lat":43.24072,"lon":5.37768,"is_reserved":false,"is_disabled":false,"rental_uris":{"android":"levelo://app?vid=cf776233-7766-4109-aadc-a0d3c334d400","ios":"levelo://app?vid=cf776233-7766-4109-aadc-a0d3c334d400"},"vehicle_type_id":"4","last_reported":1753355392,"current_range_meters":19200,"station_id":"ce4bhnp2rcd13ifvqgvg","pricing_plan_id":"cebpf4jnsgd1na2vs0mg"},{"bike_id":"6d162757-3924-4476-9818-84d10836cd88","system_id":"levelo_inurba_marseille","lat":43.31234,"lon":5.36845,"is_reserved":false,"is_disabled":false,"rental_uris":{"android":"levelo://app?vid=6d162757-3924-4476-9818-84d10836cd88","ios":"levelo://app?vid=6d162757-3924-4476-9818-84d10836cd88"},"vehicle_type_id":"4","last_reported":1753355392,"current_range_meters":19200,"station_id":"ce4bgl92rcd13ifvqbq0","pricing_plan_id":"cebpf4jnsgd1na2vs0mg"},{"bike_id":"b0a60fe1-1353-481b-91e3-03996d1455e6","system_id":"levelo_inurba_marseille","lat":43.31953,"lon":5.3746,"is_reserved":false,"is_disabled":false,"rental_uris":{"android":"levelo://app?vid=b0a60fe1-1353-481b-91e3-03996d1455e6","ios":"levelo://app?vid=b0a60fe1-1353-481b-91e3-03996d1455e6"},"vehicle_type_id":"4","last_reported":1753355392,"current_range_meters":19200,"station_id":"","pricing_plan_id":"cebpf4jnsgd1na2vs0mg"},{"bike_id":"184dd696-a175-47ac-8af1-548fdbc31847","system_id":"levelo_inurba_marseille","lat":43.30559,"lon":5.36534,"is_reserved":false,"is_disabled":false,"rental_uris":{"android":"levelo://app?vid=184dd696-a175-47ac-8af1-548fdbc31847","ios":"levelo://app?vid=184dd696-a175-47ac-8af1-548fdbc31847"},"vehicle_type_id":"4","last_reported":1753355392,"current_range_meters":19200,"station_id":"ce4bgs12rcd13ifvqcag","pricing_plan_id":"cebpf4jnsgd1na2vs0mg"},{"bike_id":"3105b080-eaef-462f-9090-9fad060b9946","system_id":"levelo_inurba_marseille","lat":43.256,"lon":5.38271,"is_reserved":false,"is_disabled":false,"rental_uris":{"android":"levelo://app?vid=3105b080-eaef-462f-9090-9fad060b9946","ios":"levelo://app?vid=3105b080-eaef-462f-9090-9fad060b9946"},"vehicle_type_id":"4","last_reported":1753355392,"current_range_meters":19200,"station_id":"ce4bhih2rcd13ifvqfs0","pricing_plan_id":"cebpf4jnsgd1na2vs0mg"},{"bike_id":"6bc3bdec-886b-4578-a450-1ca87d86c415","system_id":"levelo_inurba_marseille","lat":43.30188,"lon":5.36621,"is_reserved":false,"is_disabled":false,"rental_uris":{"android":"levelo://app?vid=6bc3bdec-886b-4578-a450-1ca87d86c415","ios":"levelo://app?vid=6bc3bdec-886b-4578-a450-1ca87d86c415"},"vehicle_type_id":"4","last_reported":1753355392,"current_range_meters":19200,"station_id":"ce4bgrh2rcd13ifvqc8g","pricing_plan_id":"cebpf4jnsgd1na2vs0mg"},{"bike_id":"383595c9-16e7-4af2-96da-cd682079f448","system_id":"levelo_inurba_marseille","lat":43.32016,"lon":5.41517,"is_reserved":false,"is_disabled":false,"rental_uris":{"android":"levelo://app?vid=383595c9-16e7-4af2-96da-cd682079f448","ios":"levelo://app?vid=383595c9-16e7-4af2-96da-cd682079f448"},"vehicle_type_id":"4","last_reported":1753355392,"current_range_meters":19200,"station_id":"ce4bhq92rcd13ifvqhkg","pricing_plan_id":"cebpf4jnsgd1na2vs0mg"},{"bike_id":"562cda51-6e5d-41ef-8ee5-4bc2adad5275","system_id":"levelo_inurba_marseille","lat":43.31218,"lon":5.36851,"is_reserved":false,"is_disabled":false,"rental_uris":{"android":"levelo://app?vid=562cda51-6e5d-41ef-8ee5-4bc2adad5275","ios":"levelo://app?vid=562cda51-6e5d-41ef-8ee5-4bc2adad5275"},"vehicle_type_id":"4","last_reported":1753355392,"current_range_meters":19600,"station_id":"ce4bgl92rcd13ifvqbq0","pricing_plan_id":"cebpf4jnsgd1na2vs0mg"},{"bike_id":"393a3c95-f3fe-463b-8ba6-1ddef2d0f9eb","system_id":"levelo_inurba_marseille","lat":43.30543,"lon":5.36703,"is_reserved":false,"is_disabled":false,"rental_uris":{"android":"levelo://app?vid=393a3c95-f3fe-463b-8ba6-1ddef2d0f9eb","ios":"levelo://app?vid=393a3c95-f3fe-463b-8ba6-1ddef2d0f9eb"},"vehicle_type_id":"4","last_reported":1753355392,"current_range_meters":19600,"station_id":"ce4bgrp2rcd13ifvqc9g","pricing_plan_id":"cebpf4jnsgd1na2vs0mg"},{"bike_id":"975621b1-02b2-43ba-95e3-5e639ac7a8db","system_id":"levelo_inurba_marseille","lat":43.2815,"lon":5.42683,"is_reserved":false,"is_disabled":false,"rental_uris":{"android":"levelo://app?vid=975621b1-02b2-43ba-95e3-5e639ac7a8db","ios":"levelo://app?vid=975621b1-02b2-43ba-95e3-5e639ac7a8db"},"vehicle_type_id":"4","last_reported":1753355392,"current_range_meters":19600,"station_id":"ce4bhnh2rcd13ifvqgug","pricing_plan_id":"cebpf4jnsgd1na2vs0mg"},{"bike_id":"21bb3fef-81ef-46bb-a48d-d85402757c94","system_id":"levelo_inurba_marseille","lat":43.25448,"lon":5.3799,"is_reserved":false,"is_disabled":false,"rental_uris":{"android":"levelo://app?vid=21bb3fef-81ef-46bb-a48d-d85402757c94","ios":"levelo://app?vid=21bb3fef-81ef-46bb-a48d-d85402757c94"},"vehicle_type_id":"4","last_reported":1753355392,"current_range_meters":19600,"station_id":"","pricing_plan_id":"cebpf4jnsgd1na2vs0mg"},{"bike_id":"9df3f4f9-80be-4206-b706-e314a0252447","system_id":"levelo_inurba_marseille","lat":43.301847,"lon":5.366127,"is_reserved":false,"is_disabled":false,"rental_uris":{"android":"levelo://app?vid=9df3f4f9-80be-4206-b706-e314a0252447","ios":"levelo://app?vid=9df3f4f9-80be-4206-b706-e314a0252447"},"vehicle_type_id":"4","last_reported":1753355392,"current_range_meters":19600,"station_id":"ce4bgrh2rcd13ifvqc8g","pricing_plan_id":"cebpf4jnsgd1na2vs0mg"},{"bike_id":"dddbef83-b47e-460f-a4ac-beade05833f1","system_id":"levelo_inurba_marseille","lat":43.22911,"lon":5.35397,"is_reserved":false,"is_disabled":false,"rental_uris":{"android":"levelo://app?vid=dddbef83-b47e-460f-a4ac-beade05833f1","ios":"levelo://app?vid=dddbef83-b47e-460f-a4ac-beade05833f1"},"vehicle_type_id":"4","last_reported":1753355392,"current_range_meters":19600,"station_id":"cpo3532slgdg3j2ikp40","pricing_plan_id":"cebpf4jnsgd1na2vs0mg"},{"bike_id":"bb8e94b8-c650-4a5f-a1af-db71a64e8c5b","system_id":"levelo_inurba_marseille","lat":43.24091,"lon":5.37753,"is_reserved":false,"is_disabled":false,"rental_uris":{"android":"levelo://app?vid=bb8e94b8-c650-4a5f-a1af-db71a64e8c5b","ios":"levelo://app?vid=bb8e94b8-c650-4a5f-a1af-db71a64e8c5b"},"vehicle_type_id":"4","last_reported":1753355392,"current_range_meters":19600,"station_id":"ce4bhnp2rcd13ifvqgvg","pricing_plan_id":"cebpf4jnsgd1na2vs0mg"},{"bike_id":"d61dfa4e-b4da-48cb-adb5-b3e4c37be3cd","system_id":"levelo_inurba_marseille","lat":43.3314,"lon":5.41399,"is_reserved":false,"is_disabled":true,"rental_uris":{"android":"levelo://app?vid=d61dfa4e-b4da-48cb-adb5-b3e4c37be3cd","ios":"levelo://app?vid=d61dfa4e-b4da-48cb-adb5-b3e4c37be3cd"},"vehicle_type_id":"4","last_reported":1753355392,"current_range_meters":19600,"station_id":"","pricing_plan_id":"cebpf4jnsgd1na2vs0mg"},{"bike_id":"4775d571-9ae1-4eb0-bd07-4c9ff70fe8a2","system_id":"levelo_inurba_marseille","lat":43.27076,"lon":5.42285,"is_reserved":false,"is_disabled":false,"rental_uris":{"android":"levelo://app?vid=4775d571-9ae1-4eb0-bd07-4c9ff70fe8a2","ios":"levelo://app?vid=4775d571-9ae1-4eb0-bd07-4c9ff70fe8a2"},"vehicle_type_id":"4","last_reported":1753355392,"current_range_meters":18800,"station_id":"ce4bhk92rcd13ifvqgb0","pricing_plan_id":"cebpf4jnsgd1na2vs0mg"},{"bike_id":"b2e5d6ee-33c2-46e8-8642-d8481308ec32","system_id":"levelo_inurba_marseille","lat":43.23158,"lon":5.43751,"is_reserved":false,"is_disabled":false,"rental_uris":{"android":"levelo://app?vid=b2e5d6ee-33c2-46e8-8642-d8481308ec32","ios":"levelo://app?vid=b2e5d6ee-33c2-46e8-8642-d8481308ec32"},"vehicle_type_id":"4","last_reported":1753355392,"current_range_meters":19600,"station_id":"ce4bhmp2rcd13ifvqgog","pricing_plan_id":"cebpf4jnsgd1na2vs0mg"},{"bike_id":"fd13a871-6a7c-45ab-8193-0aedb29a36fc","system_id":"levelo_inurba_marseille","lat":43.265538,"lon":5.37286,"is_reserved":false,"is_disabled":false,"rental_uris":{"android":"levelo://app?vid=fd13a871-6a7c-45ab-8193-0aedb29a36fc","ios":"levelo://app?vid=fd13a871-6a7c-45ab-8193-0aedb29a36fc"},"vehicle_type_id":"4","last_reported":1753355392,"current_range_meters":20000,"station_id":"ce4bhg12rcd13ifvqf70","pricing_plan_id":"cebpf4jnsgd1na2vs0mg"},{"bike_id":"636c34c0-2780-4e1d-b5c9-a06407c73400","system_id":"levelo_inurba_marseille","lat":43.29283,"lon":5.36851,"is_reserved":false,"is_disabled":false,"rental_uris":{"android":"levelo://app?vid=636c34c0-2780-4e1d-b5c9-a06407c73400","ios":"levelo://app?vid=636c34c0-2780-4e1d-b5c9-a06407c73400"},"vehicle_type_id":"4","last_reported":1753355392,"current_range_meters":20000,"station_id":"ce4bhbp2rcd13ifvqesg","pricing_plan_id":"cebpf4jnsgd1na2vs0mg"},{"bike_id":"45a12449-2e0c-4156-afd1-8736f20f0adb","system_id":"levelo_inurba_marseille","lat":43.29572,"lon":5.37529,"is_reserved":false,"is_disabled":false,"rental_uris":{"android":"levelo://app?vid=45a12449-2e0c-4156-afd1-8736f20f0adb","ios":"levelo://app?vid=45a12449-2e0c-4156-afd1-8736f20f0adb"},"vehicle_type_id":"4","last_reported":1753355392,"current_range_meters":20000,"station_id":"ce4bgh92rcd13ifvqb50","pricing_plan_id":"cebpf4jnsgd1na2vs0mg"},{"bike_id":"b2a22889-31da-4c78-a9a5-8ed86b26256c","system_id":"levelo_inurba_marseille","lat":43.30152,"lon":5.38084,"is_reserved":false,"is_disabled":false,"rental_uris":{"android":"levelo://app?vid=b2a22889-31da-4c78-a9a5-8ed86b26256c","ios":"levelo://app?vid=b2a22889-31da-4c78-a9a5-8ed86b26256c"},"vehicle_type_id":"4","last_reported":1753355392,"current_range_meters":20000,"station_id":"ce4bgjp2rcd13ifvqbh0","pricing_plan_id":"cebpf4jnsgd1na2vs0mg"},{"bike_id":"4f4b488d-9f20-49a4-8cbb-79c175c0c027","system_id":"levelo_inurba_marseille","lat":43.23183,"lon":5.39982,"is_reserved":false,"is_disabled":false,"rental_uris":{"android":"levelo://app?vid=4f4b488d-9f20-49a4-8cbb-79c175c0c027","ios":"levelo://app?vid=4f4b488d-9f20-49a4-8cbb-79c175c0c027"},"vehicle_type_id":"4","last_reported":1753355392,"current_range_meters":20000,"station_id":"ce4bhn12rcd13ifvqgqg","pricing_plan_id":"cebpf4jnsgd1na2vs0mg"},{"bike_id":"6891c23e-20f7-4fd0-bcff-406f26a32d3a","system_id":"levelo_inurba_marseille","lat":43.30574,"lon":5.36539,"is_reserved":false,"is_disabled":false,"rental_uris":{"android":"levelo://app?vid=6891c23e-20f7-4fd0-bcff-406f26a32d3a","ios":"levelo://app?vid=6891c23e-20f7-4fd0-bcff-406f26a32d3a"},"vehicle_type_id":"4","last_reported":1753355392,"current_range_meters":20000,"station_id":"ce4bgs12rcd13ifvqcag","pricing_plan_id":"cebpf4jnsgd1na2vs0mg"},{"bike_id":"a6ccf56c-f3d1-4043-8cf7-b2c9733686d1","system_id":"levelo_inurba_marseille","lat":43.23195,"lon":5.35556,"is_reserved":false,"is_disabled":false,"rental_uris":{"android":"levelo://app?vid=a6ccf56c-f3d1-4043-8cf7-b2c9733686d1","ios":"levelo://app?vid=a6ccf56c-f3d1-4043-8cf7-b2c9733686d1"},"vehicle_type_id":"4","last_reported":1753355392,"current_range_meters":20400,"station_id":"ce4bhu92rcd13ifvqi70","pricing_plan_id":"cebpf4jnsgd1na2vs0mg"},{"bike_id":"00fc4696-e72c-4173-9cda-3ffcb5d15efb","system_id":"levelo_inurba_marseille","lat":43.30903,"lon":5.37079,"is_reserved":false,"is_disabled":false,"rental_uris":{"android":"levelo://app?vid=00fc4696-e72c-4173-9cda-3ffcb5d15efb","ios":"levelo://app?vid=00fc4696-e72c-4173-9cda-3ffcb5d15efb"},"vehicle_type_id":"4","last_reported":1753355392,"current_range_meters":20400,"station_id":"ce4bgqh2rcd13ifvqc4g","pricing_plan_id":"cebpf4jnsgd1na2vs0mg"},{"bike_id":"1c6f98e7-bffb-444b-98ce-c5a83f3b3c24","system_id":"levelo_inurba_marseille","lat":43.24806,"lon":5.37474,"is_reserved":false,"is_disabled":false,"rental_uris":{"android":"levelo://app?vid=1c6f98e7-bffb-444b-98ce-c5a83f3b3c24","ios":"levelo://app?vid=1c6f98e7-bffb-444b-98ce-c5a83f3b3c24"},"vehicle_type_id":"4","last_reported":1753355392,"current_range_meters":20400,"station_id":"ce4bhgh2rcd13ifvqfb0","pricing_plan_id":"cebpf4jnsgd1na2vs0mg"},{"bike_id":"6afc798f-4a06-4994-844e-ef65d6413983","system_id":"levelo_inurba_marseille","lat":43.301238,"lon":5.387855,"is_reserved":false,"is_disabled":false,"rental_uris":{"android":"levelo://app?vid=6afc798f-4a06-4994-844e-ef65d6413983","ios":"levelo://app?vid=6afc798f-4a06-4994-844e-ef65d6413983"},"vehicle_type_id":"4","last_reported":1753355392,"current_range_meters":20400,"station_id":"","pricing_plan_id":"cebpf4jnsgd1na2vs0mg"},{"bike_id":"7df9d1a7-db77-4e76-9f4c-a85eb1778eec","system_id":"levelo_inurba_marseille","lat":43.28852,"lon":5.35877,"is_reserved":false,"is_disabled":false,"rental_uris":{"android":"levelo://app?vid=7df9d1a7-db77-4e76-9f4c-a85eb1778eec","ios":"levelo://app?vid=7df9d1a7-db77-4e76-9f4c-a85eb1778eec"},"vehicle_type_id":"4","last_reported":1753355392,"current_range_meters":20400,"station_id":"ce4bhb12rcd13ifvqem0","pricing_plan_id":"cebpf4jnsgd1na2vs0mg"},{"bike_id":"635d529b-81db-4d95-967c-681543329cb0","system_id":"levelo_inurba_marseille","lat":43.29893,"lon":5.43669,"is_reserved":false,"is_disabled":false,"rental_uris":{"android":"levelo://app?vid=635d529b-81db-4d95-967c-681543329cb0","ios":"levelo://app?vid=635d529b-81db-4d95-967c-681543329cb0"},"vehicle_type_id":"4","last_reported":1753355392,"current_range_meters":20400,"station_id":"ce4bhpp2rcd13ifvqhfg","pricing_plan_id":"cebpf4jnsgd1na2vs0mg"},{"bike_id":"2cc51463-818f-4aac-8785-b7e1a33b02c9","system_id":"levelo_inurba_marseille","lat":43.29599,"lon":5.38112,"is_reserved":false,"is_disabled":false,"rental_uris":{"android":"levelo://app?vid=2cc51463-818f-4aac-8785-b7e1a33b02c9","ios":"levelo://app?vid=2cc51463-818f-4aac-8785-b7e1a33b02c9"},"vehicle_type_id":"4","last_reported":1753355392,"current_range_meters":20400,"station_id":"ce4bgl12rcd13ifvqbo0","pricing_plan_id":"cebpf4jnsgd1na2vs0mg"},{"bike_id":"3f88fc47-96cf-4308-8459-d1d0ae31e9c4","system_id":"levelo_inurba_marseille","lat":43.30524,"lon":5.36705,"is_reserved":false,"is_disabled":false,"rental_uris":{"android":"levelo://app?vid=3f88fc47-96cf-4308-8459-d1d0ae31e9c4","ios":"levelo://app?vid=3f88fc47-96cf-4308-8459-d1d0ae31e9c4"},"vehicle_type_id":"4","last_reported":1753355392,"current_range_meters":20400,"station_id":"ce4bgrp2rcd13ifvqc9g","pricing_plan_id":"cebpf4jnsgd1na2vs0mg"},{"bike_id":"914bc27e-3d86-4823-a077-c4caf17ce92e","system_id":"levelo_inurba_marseille","lat":43.26687,"lon":5.38277,"is_reserved":false,"is_disabled":false,"rental_uris":{"android":"levelo://app?vid=914bc27e-3d86-4823-a077-c4caf17ce92e","ios":"levelo://app?vid=914bc27e-3d86-4823-a077-c4caf17ce92e"},"vehicle_type_id":"4","last_reported":1753355392,"current_range_meters":20400,"station_id":"ce4bhg92rcd13ifvqf90","pricing_plan_id":"cebpf4jnsgd1na2vs0mg"},{"bike_id":"1357d9c7-d8ee-4088-9b41-7b991493e482","system_id":"levelo_inurba_marseille","lat":43.23144,"lon":5.43732,"is_reserved":false,"is_disabled":false,"rental_uris":{"android":"levelo://app?vid=1357d9c7-d8ee-4088-9b41-7b991493e482","ios":"levelo://app?vid=1357d9c7-d8ee-4088-9b41-7b991493e482"},"vehicle_type_id":"4","last_reported":1753355392,"current_range_meters":20400,"station_id":"ce4bhmp2rcd13ifvqgog","pricing_plan_id":"cebpf4jnsgd1na2vs0mg"},{"bike_id":"f2fb42df-b317-4050-9c35-8b2b6533ccf7","system_id":"levelo_inurba_marseille","lat":43.32475,"lon":5.36553,"is_reserved":false,"is_disabled":false,"rental_uris":{"android":"levelo://app?vid=f2fb42df-b317-4050-9c35-8b2b6533ccf7","ios":"levelo://app?vid=f2fb42df-b317-4050-9c35-8b2b6533ccf7"},"vehicle_type_id":"4","last_reported":1753355392,"current_range_meters":20400,"station_id":"ce4bhs12rcd13ifvqhvg","pricing_plan_id":"cebpf4jnsgd1na2vs0mg"},{"bike_id":"1889fe84-ebd2-40de-a983-1f912efa1276","system_id":"levelo_inurba_marseille","lat":43.276381,"lon":5.358414,"is_reserved":false,"is_disabled":false,"rental_uris":{"android":"levelo://app?vid=1889fe84-ebd2-40de-a983-1f912efa1276","ios":"levelo://app?vid=1889fe84-ebd2-40de-a983-1f912efa1276"},"vehicle_type_id":"4","last_reported":1753355392,"current_range_meters":20800,"station_id":"ce4bhg12rcd13ifvqf70","pricing_plan_id":"cebpf4jnsgd1na2vs0mg"},{"bike_id":"cf5577ea-8085-442d-b092-8cf7a9d9102b","system_id":"levelo_inurba_marseille","lat":43.32369,"lon":5.36751,"is_reserved":false,"is_disabled":false,"rental_uris":{"android":"levelo://app?vid=cf5577ea-8085-442d-b092-8cf7a9d9102b","ios":"levelo://app?vid=cf5577ea-8085-442d-b092-8cf7a9d9102b"},"vehicle_type_id":"4","last_reported":1753355392,"current_range_meters":20800,"station_id":"ce4bhsh2rcd13ifvqi2g","pricing_plan_id":"cebpf4jnsgd1na2vs0mg"},{"bike_id":"511fdb7e-ad7f-4ed4-9174-4f68c29ae86e","system_id":"levelo_inurba_marseille","lat":43.28148,"lon":5.42649,"is_reserved":false,"is_disabled":false,"rental_uris":{"android":"levelo://app?vid=511fdb7e-ad7f-4ed4-9174-4f68c29ae86e","ios":"levelo://app?vid=511fdb7e-ad7f-4ed4-9174-4f68c29ae86e"},"vehicle_type_id":"4","last_reported":1753355392,"current_range_meters":20800,"station_id":"ce4bhnh2rcd13ifvqgug","pricing_plan_id":"cebpf4jnsgd1na2vs0mg"},{"bike_id":"417fe3c4-07a6-4eae-ac08-b0f9fc3c0a70","system_id":"levelo_inurba_marseille","lat":43.29029,"lon":5.3756,"is_reserved":false,"is_disabled":false,"rental_uris":{"android":"levelo://app?vid=417fe3c4-07a6-4eae-ac08-b0f9fc3c0a70","ios":"levelo://app?vid=417fe3c4-07a6-4eae-ac08-b0f9fc3c0a70"},"vehicle_type_id":"4","last_reported":1753355392,"current_range_meters":20800,"station_id":"ce4bh692rcd13ifvqe90","pricing_plan_id":"cebpf4jnsgd1na2vs0mg"},{"bike_id":"290e5915-e615-421f-bc68-23763ff70172","system_id":"levelo_inurba_marseille","lat":43.293705,"lon":5.378411,"is_reserved":false,"is_disabled":false,"rental_uris":{"android":"levelo://app?vid=290e5915-e615-421f-bc68-23763ff70172","ios":"levelo://app?vid=290e5915-e615-421f-bc68-23763ff70172"},"vehicle_type_id":"4","last_reported":1753355392,"current_range_meters":20800,"station_id":"ce4bgjh2rcd13ifvqbf0","pricing_plan_id":"cebpf4jnsgd1na2vs0mg"},{"bike_id":"b59f7a11-2871-4950-b297-a0bfb0206b40","system_id":"levelo_inurba_marseille","lat":43.24176,"lon":5.39745,"is_reserved":false,"is_disabled":false,"rental_uris":{"android":"levelo://app?vid=b59f7a11-2871-4950-b297-a0bfb0206b40","ios":"levelo://app?vid=b59f7a11-2871-4950-b297-a0bfb0206b40"},"vehicle_type_id":"4","last_reported":1753355392,"current_range_meters":17600,"station_id":"ce4bhn12rcd13ifvqgpg","pricing_plan_id":"cebpf4jnsgd1na2vs0mg"},{"bike_id":"fe2ebdbb-1c2e-4f77-b307-5fbb71bee13a","system_id":"levelo_inurba_marseille","lat":43.29267,"lon":5.38444,"is_reserved":false,"is_disabled":true,"rental_uris":{"android":"levelo://app?vid=fe2ebdbb-1c2e-4f77-b307-5fbb71bee13a","ios":"levelo://app?vid=fe2ebdbb-1c2e-4f77-b307-5fbb71bee13a"},"vehicle_type_id":"4","last_reported":1753355392,"current_range_meters":20800,"station_id":"ce4bh692rcd13ifvqea0","pricing_plan_id":"cebpf4jnsgd1na2vs0mg"},{"bike_id":"4b144b91-92b5-4b3a-889d-6125ab862286","system_id":"levelo_inurba_marseille","lat":43.23066,"lon":5.35502,"is_reserved":false,"is_disabled":false,"rental_uris":{"android":"levelo://app?vid=4b144b91-92b5-4b3a-889d-6125ab862286","ios":"levelo://app?vid=4b144b91-92b5-4b3a-889d-6125ab862286"},"vehicle_type_id":"4","last_reported":1753355392,"current_range_meters":21600,"station_id":"cpo3342slgdg3j2ifvpg","pricing_plan_id":"cebpf4jnsgd1na2vs0mg"},{"bike_id":"00b81b97-f917-4401-876c-240aa5e480ff","system_id":"levelo_inurba_marseille","lat":43.23156,"lon":5.43715,"is_reserved":false,"is_disabled":false,"rental_uris":{"android":"levelo://app?vid=00b81b97-f917-4401-876c-240aa5e480ff","ios":"levelo://app?vid=00b81b97-f917-4401-876c-240aa5e480ff"},"vehicle_type_id":"4","last_reported":1753355392,"current_range_meters":21600,"station_id":"ce4bhmp2rcd13ifvqgog","pricing_plan_id":"cebpf4jnsgd1na2vs0mg"},{"bike_id":"d3eea4a0-76ba-4059-ba6b-c1ecd6270925","system_id":"levelo_inurba_marseille","lat":43.21202,"lon":5.35112,"is_reserved":false,"is_disabled":false,"rental_uris":{"android":"levelo://app?vid=d3eea4a0-76ba-4059-ba6b-c1ecd6270925","ios":"levelo://app?vid=d3eea4a0-76ba-4059-ba6b-c1ecd6270925"},"vehicle_type_id":"4","last_reported":1753355392,"current_range_meters":21600,"station_id":"st_cvj6sg6p6f1abm77japg","pricing_plan_id":"cebpf4jnsgd1na2vs0mg"},{"bike_id":"d861442c-09c2-4130-9f6c-d36472e7baf5","system_id":"levelo_inurba_marseille","lat":43.21203,"lon":5.35093,"is_reserved":false,"is_disabled":true,"rental_uris":{"android":"levelo://app?vid=d861442c-09c2-4130-9f6c-d36472e7baf5","ios":"levelo://app?vid=d861442c-09c2-4130-9f6c-d36472e7baf5"},"vehicle_type_id":"4","last_reported":1753355392,"current_range_meters":21600,"station_id":"","pricing_plan_id":"cebpf4jnsgd1na2vs0mg"},{"bike_id":"8dcecab2-d08a-49ef-97ee-66dac8e4729f","system_id":"levelo_inurba_marseille","lat":43.27067,"lon":5.40256,"is_reserved":false,"is_disabled":false,"rental_uris":{"android":"levelo://app?vid=8dcecab2-d08a-49ef-97ee-66dac8e4729f","ios":"levelo://app?vid=8dcecab2-d08a-49ef-97ee-66dac8e4729f"},"vehicle_type_id":"4","last_reported":1753355392,"current_range_meters":21600,"station_id":"ce4bhk92rcd13ifvqgc0","pricing_plan_id":"cebpf4jnsgd1na2vs0mg"},{"bike_id":"3e597c17-7de9-4276-807e-7e2410e334c3","system_id":"levelo_inurba_marseille","lat":43.337295,"lon":5.391884,"is_reserved":false,"is_disabled":false,"rental_uris":{"android":"levelo://app?vid=3e597c17-7de9-4276-807e-7e2410e334c3","ios":"levelo://app?vid=3e597c17-7de9-4276-807e-7e2410e334c3"},"vehicle_type_id":"4","last_reported":1753355392,"current_range_meters":21600,"station_id":"ce4bhr92rcd13ifvqhsg","pricing_plan_id":"cebpf4jnsgd1na2vs0mg"},{"bike_id":"df9f9af0-ae52-4d41-8161-9b2c500985fb","system_id":"levelo_inurba_marseille","lat":43.28285,"lon":5.35083,"is_reserved":false,"is_disabled":false,"rental_uris":{"android":"levelo://app?vid=df9f9af0-ae52-4d41-8161-9b2c500985fb","ios":"levelo://app?vid=df9f9af0-ae52-4d41-8161-9b2c500985fb"},"vehicle_type_id":"4","last_reported":1753355392,"current_range_meters":21600,"station_id":"ce4bhbp2rcd13ifvqerg","pricing_plan_id":"cebpf4jnsgd1na2vs0mg"},{"bike_id":"50b905ef-953a-4765-9f9b-7165906869d7","system_id":"levelo_inurba_marseille","lat":43.230501,"lon":5.354919,"is_reserved":false,"is_disabled":false,"rental_uris":{"android":"levelo://app?vid=50b905ef-953a-4765-9f9b-7165906869d7","ios":"levelo://app?vid=50b905ef-953a-4765-9f9b-7165906869d7"},"vehicle_type_id":"4","last_reported":1753355392,"current_range_meters":21600,"station_id":"cpo3342slgdg3j2ifvpg","pricing_plan_id":"cebpf4jnsgd1na2vs0mg"},{"bike_id":"cf321470-3422-4864-a2b3-8e56e10e4f67","system_id":"levelo_inurba_marseille","lat":43.27374,"lon":5.36272,"is_reserved":false,"is_disabled":false,"rental_uris":{"android":"levelo://app?vid=cf321470-3422-4864-a2b3-8e56e10e4f67","ios":"levelo://app?vid=cf321470-3422-4864-a2b3-8e56e10e4f67"},"vehicle_type_id":"4","last_reported":1753355392,"current_range_meters":21600,"station_id":"ce4bhbh2rcd13ifvqeo0","pricing_plan_id":"cebpf4jnsgd1na2vs0mg"},