{"last_updated":1746976152,"ttl":60,"version":"2.2","data":{"bikes":[{"bike_id":"c0b9fd4f-e181-46ce-b0bf-f5119973334f","system_id":"levelo_inurba_marseille","lat":43.33771,"lon":5.37424,"is_reserved":false,"is_disabled":false,"rental_uris":{"android":"levelo://app?vid=c0b9fd4f-e181-46ce-b0bf-f5119973334f","ios":"levelo://app?vid=c0b9fd4f-e181-46ce-b0bf-f5119973334f"},"vehicle_type_id":"4","last_reported":1746976152,"current_range_meters":32400,"station_id":"","pricing_plan_id":"cebpf4jnsgd1na2vs0mg"},{"bike_id":"ad17c5b4-973a-4cb5-ad8c-32068ccae9d2","system_id":"levelo_inurba_marseille","lat":43.28991,"lon":5.43268,"is_reserved":false,"is_disabled":true,"rental_uris":{"android":"levelo://app?vid=ad17c5b4-973a-4cb5-ad8c-32068ccae9d2","ios":"levelo://app?vid=ad17c5b4-973a-4cb5-ad8c-32068ccae9d2"},"vehicle_type_id":"4","last_reported":1746976152,"current_range_meters":0,"station_id":"","pricing_plan_id":"cebpf4jnsgd1na2vs0mg"},{"bike_id":"a72028ca-425b-4f2c-9e2d-16be28a01f65","system_id":"levelo_inurba_marseille","lat":43.26025,"lon":5.41729,"is_reserved":false,"is_disabled":true,"rental_uris":{"android":"levelo://app?vid=a72028ca-425b-4f2c-9e2d-16be28a01f65","ios":"levelo://app?vid=a72028ca-425b-4f2c-9e2d-16be28a01f65"},"vehicle_type_id":"4","last_reported":1746976152,"current_range_meters":0,"station_id":"","pricing_plan_id":"cebpf4jnsgd1na2vs0mg"},{"bike_id":"e43d995b-a136-4201-b650-ca62eacfe18a","system_id":"levelo_inurba_marseille","lat":43.27125,"lon":5.36357,"is_reserved":false,"is_disabled":true,"rental_uris":{"android":"levelo://app?vid=e43d995b-a136-4201-b650-ca62eacfe18a","ios":"levelo://app?vid=e43d995b-a136-4201-b650-ca62eacfe18a"},"vehicle_type_id":"4","last_reported":1746976152,"current_range_meters":0,"station_id":"","pricing_plan_id":"cebpf4jnsgd1na2vs0mg"},{"bike_id":"7b45cea6-86ab-430a-b0ae-922b80c06271","system_id":"levelo_inurba_marseille","lat":43.33025,"lon":5.38103,"is_reserved":false,"is_disabled":true,"rental_uris":{"android":"levelo://app?vid=7b45cea6-86ab-430a-b0ae-922b80c06271","ios":"levelo://app?vid=7b45cea6-86ab-430a-b0ae-922b80c06271"},"vehicle_type_id":"4","last_reported":1746976152,"current_range_meters":0,"station_id":"","pricing_plan_id":"cebpf4jnsgd1na2vs0mg"},{"bike_id":"caf9033d-5f00-49c3-b1ee-1328b62008dc","system_id":"levelo_inurba_marseille","lat":43.33593,"lon":5.42827,"is_reserved":false,"is_disabled":true,"rental_uris":{"android":"levelo://app?vid=caf9033d-5f00-49c3-b1ee-1328b62008dc","ios":"levelo://app?vid=caf9033d-5f00-49c3-b1ee-1328b62008dc"},"vehicle_type_id":"4","last_reported":1746976152,"current_range_meters":0,"station_id":"","pricing_plan_id":"cebpf4jnsgd1na2vs0mg"},{"bike_id":"689d1ebc-80c1-4c8c-9647-6e072db7ae2b","system_id":"levelo_inurba_marseille","lat":43.268586,"lon":5.370349,"is_reserved":false,"is_disabled":true,"rental_uris":{"android":"levelo://app?vid=689d1ebc-80c1-4c8c-9647-6e072db7ae2b","ios":"levelo://app?vid=689d1ebc-80c1-4c8c-9647-6e072db7ae2b"},"vehicle_type_id":"4","last_reported":1746976152,"current_range_meters":0,"station_id":"","pricing_plan_id":"cebpf4jnsgd1na2vs0mg"},{"bike_id":"2d46911a-8d75-4d63-9057-acbaafb11eea","system_id":"levelo_inurba_marseille","lat":43.2674,"lon":5.372038,"is_reserved":false,"is_disabled":true,"rental_uris":{"android":"levelo://app?vid=2d46911a-8d75-4d63-9057-acbaafb11eea","ios":"levelo://app?vid=2d46911a-8d75-4d63-9057-acbaafb11eea"},"vehicle_type_id":"4","last_reported":1746976152,"current_range_meters":0,"station_id":"","pricing_plan_id":"cebpf4jnsgd1na2vs0mg"},{"bike_id":"7fa99896-ccf4-425e-8111-cb9140080e22","system_id":"levelo_inurba_marseille","lat":43.30894,"lon":5.39639,"is_reserved":false,"is_disabled":true,"rental_uris":{"android":"levelo://app?vid=7fa99896-ccf4-425e-8111-cb9140080e22","ios":"levelo://app?vid=7fa99896-ccf4-425e-8111-cb9140080e22"},"vehicle_type_id":"4","last_reported":1746976152,"current_range_meters":0,"station_id":"ce4bh012rcd13ifvqcv0","pricing_plan_id":"cebpf4jnsgd1na2vs0mg"},{"bike_id":"795b8753-693d-4105-9ef2-354df2c3d80e","system_id":"levelo_inurba_marseille","lat":43.27568,"lon":5.3843,"is_reserved":false,"is_disabled":true,"rental_uris":{"android":"levelo://app?vid=795b8753-693d-4105-9ef2-354df2c3d80e","ios":"levelo://app?vid=795b8753-693d-4105-9ef2-354df2c3d80e"},"vehicle_type_id":"4","last_reported":1746976152,"current_range_meters":0,"station_id":"ce4bhh92rcd13ifvqfi0","pricing_plan_id":"cebpf4jnsgd1na2vs0mg"},{"bike_id":"b084ed1a-af82-4eaa-87e8-16f313ebef9f","system_id":"levelo_inurba_marseille","lat":43.22924,"lon":5.35405,"is_reserved":false,"is_disabled":true,"rental_uris":{"android":"levelo://app?vid=b084ed1a-af82-4eaa-87e8-16f313ebef9f","ios":"levelo://app?vid=b084ed1a-af82-4eaa-87e8-16f313ebef9f"},"vehicle_type_id":"4","last_reported":1746976152,"current_range_meters":0,"station_id":"cpo3532slgdg3j2ikp40","pricing_plan_id":"cebpf4jnsgd1na2vs0mg"},{"bike_id":"45c7b8b1-3bdb-42d0-b5f9-aa87955fc3a4","system_id":"levelo_inurba_marseille","lat":43.29931,"lon":5.36546,"is_reserved":false,"is_disabled":true,"rental_uris":{"android":"levelo://app?vid=45c7b8b1-3bdb-42d0-b5f9-aa87955fc3a4","ios":"levelo://app?vid=45c7b8b1-3bdb-42d0-b5f9-aa87955fc3a4"},"vehicle_type_id":"4","last_reported":1746976152,"current_range_meters":400,"station_id":"ce4bgm92rcd13ifvqbr0","pricing_plan_id":"cebpf4jnsgd1na2vs0mg"},{"bike_id":"af52c267-6548-4cbe-a274-bbb29be7b8e3","system_id":"levelo_inurba_marseille","lat":43.30303,"lon":5.39195,"is_reserved":false,"is_disabled":true,"rental_uris":{"android":"levelo://app?vid=af52c267-6548-4cbe-a274-bbb29be7b8e3","ios":"levelo://app?vid=af52c267-6548-4cbe-a274-bbb29be7b8e3"},"vehicle_type_id":"4","last_reported":1746976152,"current_range_meters":800,"station_id":"ce4bgkh2rcd13ifvqbk0","pricing_plan_id":"cebpf4jnsgd1na2vs0mg"},{"bike_id":"229001d2-7627-43e0-aeea-2d75580fd339","system_id":"levelo_inurba_marseille","lat":43.283,"lon":5.43231,"is_reserved":false,"is_disabled":true,"rental_uris":{"android":"levelo://app?vid=229001d2-7627-43e0-aeea-2d75580fd339","ios":"levelo://app?vid=229001d2-7627-43e0-aeea-2d75580fd339"},"vehicle_type_id":"4","last_reported":1746976152,"current_range_meters":1200,"station_id":"","pricing_plan_id":"cebpf4jnsgd1na2vs0mg"},{"bike_id":"43da1e2e-1814-4391-b982-c71ad85f810c","system_id":"levelo_inurba_marseille","lat":43.27385,"lon":5.36271,"is_reserved":false,"is_disabled":true,"rental_uris":{"android":"levelo://app?vid=43da1e2e-1814-4391-b982-c71ad85f810c","ios":"levelo://app?vid=43da1e2e-1814-4391-b982-c71ad85f810c"},"vehicle_type_id":"4","last_reported":1746976152,"current_range_meters":1200,"station_id":"ce4bhbh2rcd13ifvqeo0","pricing_plan_id":"cebpf4jnsgd1na2vs0mg"},{"bike_id":"eb58d814-544c-4d4d-b730-636410841788","system_id":"levelo_inurba_marseille","lat":43.24986,"lon":5.38939,"is_reserved":false,"is_disabled":true,"rental_uris":{"android":"levelo://app?vid=eb58d814-544c-4d4d-b730-636410841788","ios":"levelo://app?vid=eb58d814-544c-4d4d-b730-636410841788"},"vehicle_type_id":"4","last_reported":1746976152,"current_range_meters":1200,"station_id":"ce4bhgp2rcd13ifvqfd0","pricing_plan_id":"cebpf4jnsgd1na2vs0mg"},{"bike_id":"a2c63fe2-1a4c-4119-974b-15d485603b06","system_id":"levelo_inurba_marseille","lat":43.280772,"lon":5.368608,"is_reserved":false,"is_disabled":false,"rental_uris":{"android":"levelo://app?vid=a2c63fe2-1a4c-4119-974b-15d485603b06","ios":"levelo://app?vid=a2c63fe2-1a4c-4119-974b-15d485603b06"},"vehicle_type_id":"4","last_reported":1746976152,"current_range_meters":3200,"station_id":"","pricing_plan_id":"cebpf4jnsgd1na2vs0mg"},{"bike_id":"b867de87-b480-43ec-b653-7fb04306571e","system_id":"levelo_inurba_marseille","lat":43.26196,"lon":5.37446,"is_reserved":false,"is_disabled":false,"rental_uris":{"android":"levelo://app?vid=b867de87-b480-43ec-b653-7fb04306571e","ios":"levelo://app?vid=b867de87-b480-43ec-b653-7fb04306571e"},"vehicle_type_id":"4","last_reported":1746976152,"current_range_meters":3200,"station_id":"ce4bhgp2rcd13ifvqfc0","pricing_plan_id":"cebpf4jnsgd1na2vs0mg"},{"bike_id":"d944c56a-a26e-4f29-9af8-fbc441f25332","system_id":"levelo_inurba_marseille","lat":43.26226,"lon":5.40453,"is_reserved":false,"is_disabled":false,"rental_uris":{"android":"levelo://app?vid=d944c56a-a26e-4f29-9af8-fbc441f25332","ios":"levelo://app?vid=d944c56a-a26e-4f29-9af8-fbc441f25332"},"vehicle_type_id":"4","last_reported":1746976152,"current_range_meters":3200,"station_id":"ce4bhmh2rcd13ifvqgmg","pricing_plan_id":"cebpf4jnsgd1na2vs0mg"},{"bike_id":"97ea2485-1dca-4a6b-996e-bfe4c1a3a0bb","system_id":"levelo_inurba_marseille","lat":43.29641,"lon":5.40585,"is_reserved":false,"is_disabled":false,"rental_uris":{"android":"levelo://app?vid=97ea2485-1dca-4a6b-996e-bfe4c1a3a0bb","ios":"levelo://app?vid=97ea2485-1dca-4a6b-996e-bfe4c1a3a0bb"},"vehicle_type_id":"4","last_reported":1746976152,"current_range_meters":3600,"station_id":"","pricing_plan_id":"cebpf4jnsgd1na2vs0mg"},{"bike_id":"a169da2c-ee91-4918-8709-6d983726e15d","system_id":"levelo_inurba_marseille","lat":43.255,"lon":5.37646,"is_reserved":false,"is_disabled":false,"rental_uris":{"android":"levelo://app?vid=a169da2c-ee91-4918-8709-6d983726e15d","ios":"levelo://app?vid=a169da2c-ee91-4918-8709-6d983726e15d"},"vehicle_type_id":"4","last_reported":1746976152,"current_range_meters":4000,"station_id":"ce4bhh12rcd13ifvqff0","pricing_plan_id":"cebpf4jnsgd1na2vs0mg"},{"bike_id":"0a96b047-410f-4812-8d2d-8b206a02a2ac","system_id":"levelo_inurba_marseille","lat":43.23191,"lon":5.35556,"is_reserved":false,"is_disabled":false,"rental_uris":{"android":"levelo://app?vid=0a96b047-410f-4812-8d2d-8b206a02a2ac","ios":"levelo://app?vid=0a96b047-410f-4812-8d2d-8b206a02a2ac"},"vehicle_type_id":"4","last_reported":1746976152,"current_range_meters":4000,"station_id":"ce4bhu92rcd13ifvqi70","pricing_plan_id":"cebpf4jnsgd1na2vs0mg"},{"bike_id":"13aee371-c219-4ae2-8db4-da2995706d08","system_id":"levelo_inurba_marseille","lat":43.30953,"lon":5.39045,"is_reserved":false,"is_disabled":false,"rental_uris":{"android":"levelo://app?vid=13aee371-c219-4ae2-8db4-da2995706d08","ios":"levelo://app?vid=13aee371-c219-4ae2-8db4-da2995706d08"},"vehicle_type_id":"4","last_reported":1746976152,"current_range_meters":4400,"station_id":"ce4bgup2rcd13ifvqco0","pricing_plan_id":"cebpf4jnsgd1na2vs0mg"},{"bike_id":"c8871d60-de65-4dc9-8457-ca42730446e7","system_id":"levelo_inurba_marseille","lat":43.31742,"lon":5.38813,"is_reserved":false,"is_disabled":false,"rental_uris":{"android":"levelo://app?vid=c8871d60-de65-4dc9-8457-ca42730446e7","ios":"levelo://app?vid=c8871d60-de65-4dc9-8457-ca42730446e7"},"vehicle_type_id":"4","last_reported":1746976152,"current_range_meters":4800,"station_id":"","pricing_plan_id":"cebpf4jnsgd1na2vs0mg"},{"bike_id":"4f39ef46-c182-492f-a9f2-8b71081efeff","system_id":"levelo_inurba_marseille","lat":43.2572,"lon":5.41119,"is_reserved":false,"is_disabled":false,"rental_uris":{"android":"levelo://app?vid=4f39ef46-c182-492f-a9f2-8b71081efeff","ios":"levelo://app?vid=4f39ef46-c182-492f-a9f2-8b71081efeff"},"vehicle_type_id":"4","last_reported":1746976152,"current_range_meters":5600,"station_id":"ce4bhkp2rcd13ifvqgd0","pricing_plan_id":"cebpf4jnsgd1na2vs0mg"},{"bike_id":"2c7affd0-42fa-464f-8c97-80497836f2a4","system_id":"levelo_inurba_marseille","lat":43.25113,"lon":5.40321,"is_reserved":false,"is_disabled":false,"rental_uris":{"android":"levelo://app?vid=2c7affd0-42fa-464f-8c97-80497836f2a4","ios":"levelo://app?vid=2c7affd0-42fa-464f-8c97-80497836f2a4"},"vehicle_type_id":"4","last_reported":1746976152,"current_range_meters":6000,"station_id":"ce4bhlh2rcd13ifvqgig","pricing_plan_id":"cebpf4jnsgd1na2vs0mg"},{"bike_id":"10ee2d0e-ca01-4e83-bbdf-6c08178a202f","system_id":"levelo_inurba_marseille","lat":43.28605,"lon":5.41293,"is_reserved":false,"is_disabled":false,"rental_uris":{"android":"levelo://app?vid=10ee2d0e-ca01-4e83-bbdf-6c08178a202f","ios":"levelo://app?vid=10ee2d0e-ca01-4e83-bbdf-6c08178a202f"},"vehicle_type_id":"4","last_reported":1746976152,"current_range_meters":6400,"station_id":"","pricing_plan_id":"cebpf4jnsgd1na2vs0mg"},{"bike_id":"06db2986-973f-4e14-952d-c6e1dbae0730","system_id":"levelo_inurba_marseille","lat":43.28267,"lon":5.35064,"is_reserved":false,"is_disabled":false,"rental_uris":{"android":"levelo://app?vid=06db2986-973f-4e14-952d-c6e1dbae0730","ios":"levelo://app?vid=06db2986-973f-4e14-952d-c6e1dbae0730"},"vehicle_type_id":"4","last_reported":1746976152,"current_range_meters":6400,"station_id":"ce4bhbp2rcd13ifvqerg","pricing_plan_id":"cebpf4jnsgd1na2vs0mg"},{"bike_id":"78e78b7e-d5b7-4eae-9775-2a3fd39a9779","system_id":"levelo_inurba_marseille","lat":43.24805,"lon":5.37451,"is_reserved":false,"is_disabled":false,"rental_uris":{"android":"levelo://app?vid=78e78b7e-d5b7-4eae-9775-2a3fd39a9779","ios":"levelo://app?vid=78e78b7e-d5b7-4eae-9775-2a3fd39a9779"},"vehicle_type_id":"4","last_reported":1746976152,"current_range_meters":6400,"station_id":"ce4bhgh2rcd13ifvqfb0","pricing_plan_id":"cebpf4jnsgd1na2vs0mg"},{"bike_id":"da720f27-4eda-4c57-90d3-1dce2f6ab566","system_id":"levelo_inurba_marseille","lat":43.27993,"lon":5.41649,"is_reserved":false,"is_disabled":false,"rental_uris":{"android":"levelo://app?vid=da720f27-4eda-4c57-90d3-1dce2f6ab566","ios":"levelo://app?vid=da720f27-4eda-4c57-90d3-1dce2f6ab566"},"vehicle_type_id":"4","last_reported":1746976152,"current_range_meters":6400,"station_id":"ce4bho12rcd13ifvqh1g","pricing_plan_id":"cebpf4jnsgd1na2vs0mg"},{"bike_id":"c6ddfab7-c15e-49ab-b7e6-68e04519222a","system_id":"levelo_inurba_marseille","lat":43.28072,"lon":5.39655,"is_reserved":false,"is_disabled":false,"rental_uris":{"android":"levelo://app?vid=c6ddfab7-c15e-49ab-b7e6-68e04519222a","ios":"levelo://app?vid=c6ddfab7-c15e-49ab-b7e6-68e04519222a"},"vehicle_type_id":"4","last_reported":1746976152,"current_range_meters":6400,"station_id":"ce4bho12rcd13ifvqh2g","pricing_plan_id":"cebpf4jnsgd1na2vs0mg"},{"bike_id":"aedac110-9a80-4055-b3bc-6fbbff4ed0bc","system_id":"levelo_inurba_marseille","lat":43.31747,"lon":5.37253,"is_reserved":false,"is_disabled":false,"rental_uris":{"android":"levelo://app?vid=aedac110-9a80-4055-b3bc-6fbbff4ed0bc","ios":"levelo://app?vid=aedac110-9a80-4055-b3bc-6fbbff4ed0bc"},"vehicle_type_id":"4","last_reported":1746976152,"current_range_meters":6800,"station_id":"","pricing_plan_id":"cebpf4jnsgd1na2vs0mg"},{"bike_id":"4ef6515a-6c30-47db-b651-1de5cc1d21b8","system_id":"levelo_inurba_marseille","lat":43.29612,"lon":5.37734,"is_reserved":false,"is_disabled":false,"rental_uris":{"android":"levelo://app?vid=4ef6515a-6c30-47db-b651-1de5cc1d21b8","ios":"levelo://app?vid=4ef6515a-6c30-47db-b651-1de5cc1d21b8"},"vehicle_type_id":"4","last_reported":1746976152,"current_range_meters":6800,"station_id":"ce4bgi92rcd13ifvqb90","pricing_plan_id":"cebpf4jnsgd1na2vs0mg"},{"bike_id":"0432c0c1-2f89-42d3-a03d-cb9c3af8e45e","system_id":"levelo_inurba_marseille","lat":43.28267,"lon":5.35073,"is_reserved":false,"is_disabled":false,"rental_uris":{"android":"levelo://app?vid=0432c0c1-2f89-42d3-a03d-cb9c3af8e45e","ios":"levelo://app?vid=0432c0c1-2f89-42d3-a03d-cb9c3af8e45e"},"vehicle_type_id":"4","last_reported":1746976152,"current_range_meters":7200,"station_id":"ce4bhbp2rcd13ifvqerg","pricing_plan_id":"cebpf4jnsgd1na2vs0mg"},{"bike_id":"90699213-8274-436f-bb67-aab198828d40","system_id":"levelo_inurba_marseille","lat":43.32329,"lon":5.4062,"is_reserved":false,"is_disabled":false,"rental_uris":{"android":"levelo://app?vid=90699213-8274-436f-bb67-aab198828d40","ios":"levelo://app?vid=90699213-8274-436f-bb67-aab198828d40"},"vehicle_type_id":"4","last_reported":1746976152,"current_range_meters":8000,"station_id":"ce4bhq92rcd13ifvqhjg","pricing_plan_id":"cebpf4jnsgd1na2vs0mg"},{"bike_id":"04c1226f-faa4-4a45-b805-4b9bcac57fa8","system_id":"levelo_inurba_marseille","lat":43.29266,"lon":5.39106,"is_reserved":false,"is_disabled":false,"rental_uris":{"android":"levelo://app?vid=04c1226f-faa4-4a45-b805-4b9bcac57fa8","ios":"levelo://app?vid=04c1226f-faa4-4a45-b805-4b9bcac57fa8"},"vehicle_type_id":"4","last_reported":1746976152,"current_range_meters":8400,"station_id":"","pricing_plan_id":"cebpf4jnsgd1na2vs0mg"},{"bike_id":"dae284ea-9d47-4c28-92de-705f1df5c7ae","system_id":"levelo_inurba_marseille","lat":43.26032,"lon":5.37546,"is_reserved":false,"is_disabled":false,"rental_uris":{"android":"levelo://app?vid=dae284ea-9d47-4c28-92de-705f1df5c7ae","ios":"levelo://app?vid=dae284ea-9d47-4c28-92de-705f1df5c7ae"},"vehicle_type_id":"4","last_reported":1746976152,"current_range_meters":9200,"station_id":"ce4bhgh2rcd13ifvqfa0","pricing_plan_id":"cebpf4jnsgd1na2vs0mg"},{"bike_id":"091b2495-8506-43b4-b374-57e577b837c4","system_id":"levelo_inurba_marseille","lat":43.25124,"lon":5.40331,"is_reserved":false,"is_disabled":false,"rental_uris":{"android":"levelo://app?vid=091b2495-8506-43b4-b374-57e577b837c4","ios":"levelo://app?vid=091b2495-8506-43b4-b374-57e577b837c4"},"vehicle_type_id":"4","last_reported":1746976152,"current_range_meters":9200,"station_id":"ce4bhlh2rcd13ifvqgig","pricing_plan_id":"cebpf4jnsgd1na2vs0mg"},{"bike_id":"fc2577e7-1497-425b-9d4f-ab8d7dc843c6","system_id":"levelo_inurba_marseille","lat":43.33771,"lon":5.37485,"is_reserved":false,"is_disabled":false,"rental_uris":{"android":"levelo://app?vid=fc2577e7-1497-425b-9d4f-ab8d7dc843c6","ios":"levelo://app?vid=fc2577e7-1497-425b-9d4f-ab8d7dc843c6"},"vehicle_type_id":"4","last_reported":1746976152,"current_range_meters":9600,"station_id":"","pricing_plan_id":"cebpf4jnsgd1na2vs0mg"},{"bike_id":"3a0fdc4b-bee8-4b5b-9cf3-c19ea96fe521","system_id":"levelo_inurba_marseille","lat":43.30542,"lon":5.36552,"is_reserved":false,"is_disabled":false,"rental_uris":{"android":"levelo://app?vid=3a0fdc4b-bee8-4b5b-9cf3-c19ea96fe521","ios":"levelo://app?vid=3a0fdc4b-bee8-4b5b-9cf3-c19ea96fe521"},"vehicle_type_id":"4","last_reported":1746976152,"current_range_meters":9600,"station_id":"ce4bgs12rcd13ifvqcag","pricing_plan_id":"cebpf4jnsgd1na2vs0mg"},{"bike_id":"f26d0087-724b-47ff-bb04-902568107ccb","system_id":"levelo_inurba_marseille","lat":43.262407,"lon":5.374929,"is_reserved":false,"is_disabled":false,"rental_uris":{"android":"levelo://app?vid=f26d0087-724b-47ff-bb04-902568107ccb","ios":"levelo://app?vid=f26d0087-724b-47ff-bb04-902568107ccb"},"vehicle_type_id":"4","last_reported":1746976152,"current_range_meters":9600,"station_id":"ce4bhgp2rcd13ifvqfc0","pricing_plan_id":"cebpf4jnsgd1na2vs0mg"},{"bike_id":"3548af95-f6bf-4380-854b-7b0f1a6bb004","system_id":"levelo_inurba_marseille","lat":43.2808,"lon":5.39656,"is_reserved":false,"is_disabled":false,"rental_uris":{"android":"levelo://app?vid=3548af95-f6bf-4380-854b-7b0f1a6bb004","ios":"levelo://app?vid=3548af95-f6bf-4380-854b-7b0f1a6bb004"},"vehicle_type_id":"4","last_reported":1746976152,"current_range_meters":9600,"station_id":"ce4bho12rcd13ifvqh2g","pricing_plan_id":"cebpf4jnsgd1na2vs0mg"},{"bike_id":"a87fc351-df89-43ef-828e-16c06507e09d","system_id":"levelo_inurba_marseille","lat":43.23189,"lon":5.35561,"is_reserved":false,"is_disabled":false,"rental_uris":{"android":"levelo://app?vid=a87fc351-df89-43ef-828e-16c06507e09d","ios":"levelo://app?vid=a87fc351-df89-43ef-828e-16c06507e09d"},"vehicle_type_id":"4","last_reported":1746976152,"current_range_meters":9600,"station_id":"ce4bhu92rcd13ifvqi70","pricing_plan_id":"cebpf4jnsgd1na2vs0mg"},{"bike_id":"75947ba5-13d5-47c8-bc82-d5753019f0e2","system_id":"levelo_inurba_marseille","lat":43.29715,"lon":5.37706,"is_reserved":false,"is_disabled":false,"rental_uris":{"android":"levelo://app?vid=75947ba5-13d5-47c8-bc82-d5753019f0e2","ios":"levelo://app?vid=75947ba5-13d5-47c8-bc82-d5753019f0e2"},"vehicle_type_id":"4","last_reported":1746976152,"current_range_meters":10800,"station_id":"ce4bgkh2rcd13ifvqbl0","pricing_plan_id":"cebpf4jnsgd1na2vs0mg"},{"bike_id":"d897ae5a-305a-4dfe-9639-e8ab90ae791e","system_id":"levelo_inurba_marseille","lat":43.23145,"lon":5.43716,"is_reserved":false,"is_disabled":false,"rental_uris":{"android":"levelo://app?vid=d897ae5a-305a-4dfe-9639-e8ab90ae791e","ios":"levelo://app?vid=d897ae5a-305a-4dfe-9639-e8ab90ae791e"},"vehicle_type_id":"4","last_reported":1746976152,"current_range_meters":10800,"station_id":"ce4bhmp2rcd13ifvqgog","pricing_plan_id":"cebpf4jnsgd1na2vs0mg"},{"bike_id":"811fd005-648e-4049-8d63-5395d3bd8eb4","system_id":"levelo_inurba_marseille","lat":43.308813,"lon":5.39663,"is_reserved":false,"is_disabled":false,"rental_uris":{"android":"levelo://app?vid=811fd005-648e-4049-8d63-5395d3bd8eb4","ios":"levelo://app?vid=811fd005-648e-4049-8d63-5395d3bd8eb4"},"vehicle_type_id":"4","last_reported":1746976152,"current_range_meters":11200,"station_id":"ce4bh012rcd13ifvqcv0","pricing_plan_id":"cebpf4jnsgd1na2vs0mg"},{"bike_id":"95d51e4f-0372-4631-b759-e4b712dae0d0","system_id":"levelo_inurba_marseille","lat":43.28856,"lon":5.35865,"is_reserved":false,"is_disabled":false,"rental_uris":{"android":"levelo://app?vid=95d51e4f-0372-4631-b759-e4b712dae0d0","ios":"levelo://app?vid=95d51e4f-0372-4631-b759-e4b712dae0d0"},"vehicle_type_id":"4","last_reported":1746976152,"current_range_meters":11200,"station_id":"ce4bhb12rcd13ifvqem0","pricing_plan_id":"cebpf4jnsgd1na2vs0mg"},{"bike_id":"292e6533-d7d7-4ede-910a-529fb35629e3","system_id":"levelo_inurba_marseille","lat":43.27834,"lon":5.39205,"is_reserved":false,"is_disabled":false,"rental_uris":{"android":"levelo://app?vid=292e6533-d7d7-4ede-910a-529fb35629e3","ios":"levelo://app?vid=292e6533-d7d7-4ede-910a-529fb35629e3"},"vehicle_type_id":"4","last_reported":1746976152,"current_range_meters":11200,"station_id":"ce4bhjp2rcd13ifvqga0","pricing_plan_id":"cebpf4jnsgd1na2vs0mg"},{"bike_id":"d83b7170-8eed-47c1-b0ec-1140d3a45dea","system_id":"levelo_inurba_marseille","lat":43.308137,"lon":5.435292,"is_reserved":false,"is_disabled":false,"rental_uris":{"android":"levelo://app?vid=d83b7170-8eed-47c1-b0ec-1140d3a45dea","ios":"levelo://app?vid=d83b7170-8eed-47c1-b0ec-1140d3a45dea"},"vehicle_type_id":"4","last_reported":1746976152,"current_range_meters":11200,"station_id":"ce4bhph2rcd13ifvqheg","pricing_plan_id":"cebpf4jnsgd1na2vs0mg"},{"bike_id":"a1121b36-b5cd-4dda-96ef-13a3dfaa55e1","system_id":"levelo_inurba_marseille","lat":43.301401,"lon":5.387791,"is_reserved":false,"is_disabled":false,"rental_uris":{"android":"levelo://app?vid=a1121b36-b5cd-4dda-96ef-13a3dfaa55e1","ios":"levelo://app?vid=a1121b36-b5cd-4dda-96ef-13a3dfaa55e1"},"vehicle_type_id":"4","last_reported":1746976152,"current_range_meters":11600,"station_id":"","pricing_plan_id":"cebpf4jnsgd1na2vs0mg"},{"bike_id":"efc0a0d5-a353-4db4-9aad-8fb20bd2a998","system_id":"levelo_inurba_marseille","lat":43.25747,"lon":5.41092,"is_reserved":false,"is_disabled":false,"rental_uris":{"android":"levelo://app?vid=efc0a0d5-a353-4db4-9aad-8fb20bd2a998","ios":"levelo://app?vid=efc0a0d5-a353-4db4-9aad-8fb20bd2a998"},"vehicle_type_id":"4","last_reported":1746976152,"current_range_meters":11600,"station_id":"ce4bhkp2rcd13ifvqgd0","pricing_plan_id":"cebpf4jnsgd1na2vs0mg"},{"bike_id":"9086a547-f8a3-47a2-a7ce-48620a88254c","system_id":"levelo_inurba_marseille","lat":43.31715,"lon":5.43688,"is_reserved":false,"is_disabled":false,"rental_uris":{"android":"levelo://app?vid=9086a547-f8a3-47a2-a7ce-48620a88254c","ios":"levelo://app?vid=9086a547-f8a3-47a2-a7ce-48620a88254c"},"vehicle_type_id":"4","last_reported":1746976152,"current_range_meters":12000,"station_id":"ce4bhp92rcd13ifvqhcg","pricing_plan_id":"cebpf4jnsgd1na2vs0mg"},{"bike_id":"e260a979-ea97-4a46-a50e-373eacfe3fc4","system_id":"levelo_inurba_marseille","lat":43.21195,"lon":5.35082,"is_reserved":false,"is_disabled":false,"rental_uris":{"android":"levelo://app?vid=e260a979-ea97-4a46-a50e-373eacfe3fc4","ios":"levelo://app?vid=e260a979-ea97-4a46-a50e-373eacfe3fc4"},"vehicle_type_id":"4","last_reported":1746976152,"current_range_meters":12000,"station_id":"st_cvj6sg6p6f1abm77japg","pricing_plan_id":"cebpf4jnsgd1na2vs0mg"},{"bike_id":"ee7901f2-0598-4955-8ed4-0449cd6bc1e3","system_id":"levelo_inurba_marseille","lat":43.29004,"lon":5.3562,"is_reserved":false,"is_disabled":false,"rental_uris":{"android":"levelo://app?vid=ee7901f2-0598-4955-8ed4-0449cd6bc1e3","ios":"levelo://app?vid=ee7901f2-0598-4955-8ed4-0449cd6bc1e3"},"vehicle_type_id":"4","last_reported":1746976152,"current_range_meters":12400,"station_id":"ce4bhb92rcd13ifvqen0","pricing_plan_id":"cebpf4jnsgd1na2vs0mg"},{"bike_id":"e3cd9051-5ab6-4a35-9bac-b775f3a06809","system_id":"levelo_inurba_marseille","lat":43.28265,"lon":5.35068,"is_reserved":false,"is_disabled":false,"rental_uris":{"android":"levelo://app?vid=e3cd9051-5ab6-4a35-9bac-b775f3a06809","ios":"levelo://app?vid=e3cd9051-5ab6-4a35-9bac-b775f3a06809"},"vehicle_type_id":"4","last_reported":1746976152,"current_range_meters":12400,"station_id":"ce4bhbp2rcd13ifvqerg","pricing_plan_id":"cebpf4jnsgd1na2vs0mg"},{"bike_id":"ee5b88a1-b221-498c-88ac-0500cbd489f0","system_id":"levelo_inurba_marseille","lat":43.28266,"lon":5.35067,"is_reserved":false,"is_disabled":false,"rental_uris":{"android":"levelo://app?vid=ee5b88a1-b221-498c-88ac-0500cbd489f0","ios":"levelo://app?vid=ee5b88a1-b221-498c-88ac-0500cbd489f0"},"vehicle_type_id":"4","last_reported":1746976152,"current_range_meters":13600,"station_id":"ce4bhbp2rcd13ifvqerg","pricing_plan_id":"cebpf4jnsgd1na2vs0mg"},{"bike_id":"9a0c2993-69a2-47fb-8f52-d5bb32723f85","system_id":"levelo_inurba_marseille","lat":43.33722,"lon":5.39185,"is_reserved":false,"is_disabled":false,"rental_uris":{"android":"levelo://app?vid=9a0c2993-69a2-47fb-8f52-d5bb32723f85","ios":"levelo://app?vid=9a0c2993-69a2-47fb-8f52-d5bb32723f85"},"vehicle_type_id":"4","last_reported":1746976152,"current_range_meters":13600,"station_id":"ce4bhr92rcd13ifvqhsg","pricing_plan_id":"cebpf4jnsgd1na2vs0mg"},{"bike_id":"b336a229-0bf1-452c-97d8-afd000b0f02e","system_id":"levelo_inurba_marseille","lat":43.32479,"lon":5.36554,"is_reserved":false,"is_disabled":false,"rental_uris":{"android":"levelo://app?vid=b336a229-0bf1-452c-97d8-afd000b0f02e","ios":"levelo://app?vid=b336a229-0bf1-452c-97d8-afd000b0f02e"},"vehicle_type_id":"4","last_reported":1746976152,"current_range_meters":14000,"station_id":"ce4bhs12rcd13ifvqhvg","pricing_plan_id":"cebpf4jnsgd1na2vs0mg"},{"bike_id":"47607102-590b-407d-a6f8-f88f2bbbeae5","system_id":"levelo_inurba_marseille","lat":43.29844,"lon":5.36265,"is_reserved":false,"is_disabled":false,"rental_uris":{"android":"levelo://app?vid=47607102-590b-407d-a6f8-f88f2bbbeae5","ios":"levelo://app?vid=47607102-590b-407d-a6f8-f88f2bbbeae5"},"vehicle_type_id":"4","last_reported":1746976152,"current_range_meters":14400,"station_id":"ce4bgpp2rcd13ifvqc3g","pricing_plan_id":"cebpf4jnsgd1na2vs0mg"},{"bike_id":"575a6c3a-6b6b-49af-847e-0c7f2a1bd7fe","system_id":"levelo_inurba_marseille","lat":43.28273,"lon":5.35069,"is_reserved":false,"is_disabled":false,"rental_uris":{"android":"levelo://app?vid=575a6c3a-6b6b-49af-847e-0c7f2a1bd7fe","ios":"levelo://app?vid=575a6c3a-6b6b-49af-847e-0c7f2a1bd7fe"},"vehicle_type_id":"4","last_reported":1746976152,"current_range_meters":14400,"station_id":"ce4bhbp2rcd13ifvqerg","pricing_plan_id":"cebpf4jnsgd1na2vs0mg"},{"bike_id":"f52c819d-ca4b-4640-b458-b877db1bf990","system_id":"levelo_inurba_marseille","lat":43.29864,"lon":5.41016,"is_reserved":false,"is_disabled":false,"rental_uris":{"android":"levelo://app?vid=f52c819d-ca4b-4640-b458-b877db1bf990","ios":"levelo://app?vid=f52c819d-ca4b-4640-b458-b877db1bf990"},"vehicle_type_id":"4","last_reported":1746976152,"current_range_meters":14800,"station_id":"","pricing_plan_id":"cebpf4jnsgd1na2vs0mg"},{"bike_id":"fe8a300c-df4c-42e1-b092-cce77e5975ce","system_id":"levelo_inurba_marseille","lat":43.25722,"lon":5.41077,"is_reserved":false,"is_disabled":false,"rental_uris":{"android":"levelo://app?vid=fe8a300c-df4c-42e1-b092-cce77e5975ce","ios":"levelo://app?vid=fe8a300c-df4c-42e1-b092-cce77e5975ce"},"vehicle_type_id":"4","last_reported":1746976152,"current_range_meters":14800,"station_id":"ce4bhkp2rcd13ifvqgd0","pricing_plan_id":"cebpf4jnsgd1na2vs0mg"},{"bike_id":"20c7371f-ffb2-4832-8e1e-d32aaebc22dc","system_id":"levelo_inurba_marseille","lat":43.317595,"lon":5.390133,"is_reserved":false,"is_disabled":false,"rental_uris":{"android":"levelo://app?vid=20c7371f-ffb2-4832-8e1e-d32aaebc22dc","ios":"levelo://app?vid=20c7371f-ffb2-4832-8e1e-d32aaebc22dc"},"vehicle_type_id":"4","last_reported":1746976152,"current_range_meters":14800,"station_id":"ce4bhqp2rcd13ifvqhng","pricing_plan_id":"cebpf4jnsgd1na2vs0mg"},{"bike_id":"0e9a568c-80c5-46e1-a46b-20fbbee38704","system_id":"levelo_inurba_marseille","lat":43.29184,"lon":5.40121,"is_reserved":false,"is_disabled":false,"rental_uris":{"android":"levelo://app?vid=0e9a568c-80c5-46e1-a46b-20fbbee38704","ios":"levelo://app?vid=0e9a568c-80c5-46e1-a46b-20fbbee38704"},"vehicle_type_id":"4","last_reported":1746976152,"current_range_meters":15200,"station_id":"","pricing_plan_id":"cebpf4jnsgd1na2vs0mg"},{"bike_id":"b3f522b0-da7f-421f-9c23-b581f6e15037","system_id":"levelo_inurba_marseille","lat":43.29228,"lon":5.36059,"is_reserved":false,"is_disabled":false,"rental_uris":{"android":"levelo://app?vid=b3f522b0-da7f-421f-9c23-b581f6e15037","ios":"levelo://app?vid=b3f522b0-da7f-421f-9c23-b581f6e15037"},"vehicle_type_id":"4","last_reported":1746976152,"current_range_meters":15200,"station_id":"ce4bhbh2rcd13ifvqeqg","pricing_plan_id":"cebpf4jnsgd1na2vs0mg"},{"bike_id":"c725daae-73ea-4afb-88d2-a525a17321ca","system_id":"levelo_inurba_marseille","lat":43.26555,"lon":5.37283,"is_reserved":false,"is_disabled":false,"rental_uris":{"android":"levelo://app?vid=c725daae-73ea-4afb-88d2-a525a17321ca","ios":"levelo://app?vid=c725daae-73ea-4afb-88d2-a525a17321ca"},"vehicle_type_id":"4","last_reported":1746976152,"current_range_meters":15200,"station_id":"ce4bhg12rcd13ifvqf70","pricing_plan_id":"cebpf4jnsgd1na2vs0mg"},{"bike_id":"26ef6a94-542c-403b-a0b5-efc65a2d73d2","system_id":"levelo_inurba_marseille","lat":43.31893,"lon":5.40741,"is_reserved":false,"is_disabled":false,"rental_uris":{"android":"levelo://app?vid=26ef6a94-542c-403b-a0b5-efc65a2d73d2","ios":"levelo://app?vid=26ef6a94-542c-403b-a0b5-efc65a2d73d2"},"vehicle_type_id":"4","last_reported":1746976152,"current_range_meters":15200,"station_id":"ce4bhq12rcd13ifvqhig","pricing_plan_id":"cebpf4jnsgd1na2vs0mg"},{"bike_id":"c7319a9d-f0b5-47f0-81c9-cf76b26a81b1","system_id":"levelo_inurba_marseille","lat":43.29776,"lon":5.37104,"is_reserved":false,"is_disabled":false,"rental_uris":{"android":"levelo://app?vid=c7319a9d-f0b5-47f0-81c9-cf76b26a81b1","ios":"levelo://app?vid=c7319a9d-f0b5-47f0-81c9-cf76b26a81b1"},"vehicle_type_id":"4","last_reported":1746976152,"current_range_meters":16000,"station_id":"ce4bgop2rcd13ifvqc1g","pricing_plan_id":"cebpf4jnsgd1na2vs0mg"},{"bike_id":"c37ca2b1-69dc-46e9-94be-7c01aebc93d5","system_id":"levelo_inurba_marseille","lat":43.30266,"lon":5.36691,"is_reserved":false,"is_disabled":false,"rental_uris":{"android":"levelo://app?vid=c37ca2b1-69dc-46e9-94be-7c01aebc93d5","ios":"levelo://app?vid=c37ca2b1-69dc-46e9-94be-7c01aebc93d5"},"vehicle_type_id":"4","last_reported":1746976152,"current_range_meters":16400,"station_id":"","pricing_plan_id":"cebpf4jnsgd1na2vs0mg"},{"bike_id":"dd1dbccb-8331-44f1-8a0e-383ac6f568df","system_id":"levelo_inurba_marseille","lat":43.29308,"lon":5.37168,"is_reserved":false,"is_disabled":false,"rental_uris":{"android":"levelo://app?vid=dd1dbccb-8331-44f1-8a0e-383ac6f568df","ios":"levelo://app?vid=dd1dbccb-8331-44f1-8a0e-383ac6f568df"},"vehicle_type_id":"4","last_reported":1746976152,"current_range_meters":16400,"station_id":"ce4bgh92rcd13ifvqb40","pricing_plan_id":"cebpf4jnsgd1na2vs0mg"},{"bike_id":"38c26100-76d3-45eb-aecd-b94f241a0d45","system_id":"levelo_inurba_marseille","lat":43.279425,"lon":5.41049,"is_reserved":false,"is_disabled":false,"rental_uris":{"android":"levelo://app?vid=38c26100-76d3-45eb-aecd-b94f241a0d45","ios":"levelo://app?vid=38c26100-76d3-45eb-aecd-b94f241a0d45"},"vehicle_type_id":"4","last_reported":1746976152,"current_range_meters":16400,"station_id":"ce4bhnp2rcd13ifvqh0g","pricing_plan_id":"cebpf4jnsgd1na2vs0mg"},{"bike_id":"a649b5dd-3357-4eb6-8669-d8d74e18bd8f","system_id":"levelo_inurba_marseille","lat":43.2176,"lon":5.34608,"is_reserved":false,"is_disabled":false,"rental_uris":{"android":"levelo://app?vid=a649b5dd-3357-4eb6-8669-d8d74e18bd8f","ios":"levelo://app?vid=a649b5dd-3357-4eb6-8669-d8d74e18bd8f"},"vehicle_type_id":"4","last_reported":1746976152,"current_range_meters":16400,"station_id":"st_cvj6r9ubvosntc0bgbag","pricing_plan_id":"cebpf4jnsgd1na2vs0mg"},{"bike_id":"a3cfbeb5-0ed1-4c8e-8d1d-c9603b834a27","system_id":"levelo_inurba_marseille","lat":43.32276,"lon":5.40653,"is_reserved":false,"is_disabled":false,"rental_uris":{"android":"levelo://app?vid=a3cfbeb5-0ed1-4c8e-8d1d-c9603b834a27","ios":"levelo://app?vid=a3cfbeb5-0ed1-4c8e-8d1d-c9603b834a27"},"vehicle_type_id":"4","last_reported":1746976152,"current_range_meters":16800,"station_id":"","pricing_plan_id":"cebpf4jnsgd1na2vs0mg"},{"bike_id":"18ce3d82-0770-4649-902e-28db0676ac91","system_id":"levelo_inurba_marseille","lat":43.2175,"lon":5.3459,"is_reserved":false,"is_disabled":false,"rental_uris":{"android":"levelo://app?vid=18ce3d82-0770-4649-902e-28db0676ac91","ios":"levelo://app?vid=18ce3d82-0770-4649-902e-28db0676ac91"},"vehicle_type_id":"4","last_reported":1746976152,"current_range_meters":16800,"station_id":"st_cvj6r9ubvosntc0bgbag","pricing_plan_id":"cebpf4jnsgd1na2vs0mg"},{"bike_id":"83a5dddc-f08f-476e-a316-d0e0dfb65037","system_id":"levelo_inurba_marseille","lat":43.31716,"lon":5.42423,"is_reserved":false,"is_disabled":false,"rental_uris":{"android":"levelo://app?vid=83a5dddc-f08f-476e-a316-d0e0dfb65037","ios":"levelo://app?vid=83a5dddc-f08f-476e-a316-d0e0dfb65037"},"vehicle_type_id":"4","last_reported":1746976152,"current_range_meters":17200,"station_id":"ce4bhp92rcd13ifvqhbg","pricing_plan_id":"cebpf4jnsgd1na2vs0mg"},{"bike_id":"c17ab380-eaa6-4505-8245-17b419b2a5cf","system_id":"levelo_inurba_marseille","lat":43.32288,"lon":5.38276,"is_reserved":false,"is_disabled":false,"rental_uris":{"android":"levelo://app?vid=c17ab380-eaa6-4505-8245-17b419b2a5cf","ios":"levelo://app?vid=c17ab380-eaa6-4505-8245-17b419b2a5cf"},"vehicle_type_id":"4","last_reported":1746976152,"current_range_meters":17200,"station_id":"ce4bhr12rcd13ifvqhqg","pricing_plan_id":"cebpf4jnsgd1na2vs0mg"},{"bike_id":"b690fd5d-cc39-4354-b447-67201705df29","system_id":"levelo_inurba_marseille","lat":43.21189,"lon":5.35095,"is_reserved":false,"is_disabled":false,"rental_uris":{"android":"levelo://app?vid=b690fd5d-cc39-4354-b447-67201705df29","ios":"levelo://app?vid=b690fd5d-cc39-4354-b447-67201705df29"},"vehicle_type_id":"4","last_reported":1746976152,"current_range_meters":17200,"station_id":"st_cvj6sg6p6f1abm77japg","pricing_plan_id":"cebpf4jnsgd1na2vs0mg"},{"bike_id":"5c7166b5-32cc-437c-bbc7-9bfe56a65c3a","system_id":"levelo_inurba_marseille","lat":43.30954,"lon":5.37174,"is_reserved":false,"is_disabled":false,"rental_uris":{"android":"levelo://app?vid=5c7166b5-32cc-437c-bbc7-9bfe56a65c3a","ios":"levelo://app?vid=5c7166b5-32cc-437c-bbc7-9bfe56a65c3a"},"vehicle_type_id":"4","last_reported":1746976152,"current_range_meters":17600,"station_id":"","pricing_plan_id":"cebpf4jnsgd1na2vs0mg"},{"bike_id":"fee25d30-94c4-40fa-bb83-e3651ca27256","system_id":"levelo_inurba_marseille","lat":43.30936,"lon":5.40129,"is_reserved":false,"is_disabled":false,"rental_uris":{"android":"levelo://app?vid=fee25d30-94c4-40fa-bb83-e3651ca27256","ios":"levelo://app?vid=fee25d30-94c4-40fa-bb83-e3651ca27256"},"vehicle_type_id":"4","last_reported":1746976152,"current_range_meters":17600,"station_id":"ce4bgvp2rcd13ifvqct0","pricing_plan_id":"cebpf4jnsgd1na2vs0mg"},{"bike_id":"d709ac17-d2f7-4f2a-aef0-6b0c0dd15f06","system_id":"levelo_inurba_marseille","lat":43.28269,"lon":5.35068,"is_reserved":false,"is_disabled":false,"rental_uris":{"android":"levelo://app?vid=d709ac17-d2f7-4f2a-aef0-6b0c0dd15f06","ios":"levelo://app?vid=d709ac17-d2f7-4f2a-aef0-6b0c0dd15f06"},"vehicle_type_id":"4","last_reported":1746976152,"current_range_meters":17600,"station_id":"ce4bhbp2rcd13ifvqerg","pricing_plan_id":"cebpf4jnsgd1na2vs0mg"},{"bike_id":"f3939a19-c5b8-4c85-818f-eb8e0faf293f","system_id":"levelo_inurba_marseille","lat":43.28264,"lon":5.35066,"is_reserved":false,"is_disabled":false,"rental_uris":{"android":"levelo://app?vid=f3939a19-c5b8-4c85-818f-eb8e0faf293f","ios":"levelo://app?vid=f3939a19-c5b8-4c85-818f-eb8e0faf293f"},"vehicle_type_id":"4","last_reported":1746976152,"current_range_meters":17600,"station_id":"ce4bhbp2rcd13ifvqerg","pricing_plan_id":"cebpf4jnsgd1na2vs0mg"},{"bike_id":"69cfaeb7-9d49-4c22-b951-954e8215cf53","system_id":"levelo_inurba_marseille","lat":43.21752,"lon":5.34602,"is_reserved":false,"is_disabled":false,"rental_uris":{"android":"levelo://app?vid=69cfaeb7-9d49-4c22-b951-954e8215cf53","ios":"levelo://app?vid=69cfaeb7-9d49-4c22-b951-954e8215cf53"},"vehicle_type_id":"4","last_reported":1746976152,"current_range_meters":17600,"station_id":"st_cvj6r9ubvosntc0bgbag","pricing_plan_id":"cebpf4jnsgd1na2vs0mg"},{"bike_id":"36a5c11b-0cfd-4fde-ba39-eeadc35dedb1","system_id":"levelo_inurba_marseille","lat":43.25059,"lon":5.40338,"is_reserved":false,"is_disabled":false,"rental_uris":{"android":"levelo://app?vid=36a5c11b-0cfd-4fde-ba39-eeadc35dedb1","ios":"levelo://app?vid=36a5c11b-0cfd-4fde-ba39-eeadc35dedb1"},"vehicle_type_id":"4","last_reported":1746976152,"current_range_meters":18000,"station_id":"ce4bhlh2rcd13ifvqgig","pricing_plan_id":"cebpf4jnsgd1na2vs0mg"},{"bike_id":"38bc3caf-c321-4107-a67e-0091289aa092","system_id":"levelo_inurba_marseille","lat":43.278122,"lon":5.4071,"is_reserved":false,"is_disabled":false,"rental_uris":{"android":"levelo://app?vid=38bc3caf-c321-4107-a67e-0091289aa092","ios":"levelo://app?vid=38bc3caf-c321-4107-a67e-0091289aa092"},"vehicle_type_id":"4","last_reported":1746976152,"current_range_meters":18000,"station_id":"ce4bhnh2rcd13ifvqgtg","pricing_plan_id":"cebpf4jnsgd1na2vs0mg"},{"bike_id":"b6f0504a-f7d7-4a97-b810-e7c9e7b1c671","system_id":"levelo_inurba_marseille","lat":43.2792,"lon":5.41258,"is_reserved":false,"is_disabled":false,"rental_uris":{"android":"levelo://app?vid=b6f0504a-f7d7-4a97-b810-e7c9e7b1c671","ios":"levelo://app?vid=b6f0504a-f7d7-4a97-b810-e7c9e7b1c671"},"vehicle_type_id":"4","last_reported":1746976152,"current_range_meters":18800,"station_id":"","pricing_plan_id":"cebpf4jnsgd1na2vs0mg"},{"bike_id":"2a92c18e-258c-48f7-a9ce-9f3e68be9cd4","system_id":"levelo_inurba_marseille","lat":43.273776,"lon":5.36251,"is_reserved":false,"is_disabled":false,"rental_uris":{"android":"levelo://app?vid=2a92c18e-258c-48f7-a9ce-9f3e68be9cd4","ios":"levelo://app?vid=2a92c18e-258c-48f7-a9ce-9f3e68be9cd4"},"vehicle_type_id":"4","last_reported":1746976152,"current_range_meters":18800,"station_id":"ce4bhbh2rcd13ifvqeo0","pricing_plan_id":"cebpf4jnsgd1na2vs0mg"},{"bike_id":"4acac8a3-c0cc-4d68-9e96-d367eaa5458a","system_id":"levelo_inurba_marseille","lat":43.28277,"lon":5.35043,"is_reserved":false,"is_disabled":false,"rental_uris":{"android":"levelo://app?vid=4acac8a3-c0cc-4d68-9e96-d367eaa5458a","ios":"levelo://app?vid=4acac8a3-c0cc-4d68-9e96-d367eaa5458a"},"vehicle_type_id":"4","last_reported":1746976152,"current_range_meters":18800,"station_id":"ce4bhbp2rcd13ifvqerg","pricing_plan_id":"cebpf4jnsgd1na2vs0mg"},{"bike_id":"51cfd59b-0247-4626-8eaf-f2c7096772c3","system_id":"levelo_inurba_marseille","lat":43.27316,"lon":5.39076,"is_reserved":false,"is_disabled":false,"rental_uris":{"android":"levelo://app?vid=51cfd59b-0247-4626-8eaf-f2c7096772c3","ios":"levelo://app?vid=51cfd59b-0247-4626-8eaf-f2c7096772c3"},"vehicle_type_id":"4","last_reported":1746976152,"current_range_meters":18800,"station_id":"ce4bhgp2rcd13ifvqfe0","pricing_plan_id":"cebpf4jnsgd1na2vs0mg"},{"bike_id":"2a2e92a8-9be2-42a0-8f8b-e8c99ed20b3a","system_id":"levelo_inurba_marseille","lat":43.23171,"lon":5.39927,"is_reserved":false,"is_disabled":false,"rental_uris":{"android":"levelo://app?vid=2a2e92a8-9be2-42a0-8f8b-e8c99ed20b3a","ios":"levelo://app?vid=2a2e92a8-9be2-42a0-8f8b-e8c99ed20b3a"},"vehicle_type_id":"4","last_reported":1746976152,"current_range_meters":19200,"station_id":"","pricing_plan_id":"cebpf4jnsgd1na2vs0mg"},{"bike_id":"923bc3c8-9653-42f6-ab2d-a12cb585d499","system_id":"levelo_inurba_marseille","lat":43.29444,"lon":5.38692,"is_reserved":false,"is_disabled":false,"rental_uris":{"android":"levelo://app?vid=923bc3c8-9653-42f6-ab2d-a12cb585d499","ios":"levelo://app?vid=923bc3c8-9653-42f6-ab2d-a12cb585d499"},"vehicle_type_id":"4","last_reported":1746976152,"current_range_meters":19200,"station_id":"","pricing_plan_id":"cebpf4jnsgd1na2vs0mg"},{"bike_id":"901d25d5-e0a4-4b9d-9519-beabbed3efe8","system_id":"levelo_inurba_marseille","lat":43.21206,"lon":5.35084,"is_reserved":false,"is_disabled":false,"rental_uris":{"android":"levelo://app?vid=901d25d5-e0a4-4b9d-9519-beabbed3efe8","ios":"levelo://app?vid=901d25d5-e0a4-4b9d-9519-beabbed3efe8"},"vehicle_type_id":"4","last_reported":1746976152,"current_range_meters":19200,"station_id":"st_cvj6sg6p6f1abm77japg","pricing_plan_id":"cebpf4jnsgd1na2vs0mg"},{"bike_id":"aca142bd-2716-4ee3-8c04-bd27c952c647","system_id":"levelo_inurba_marseille","lat":43.26436,"lon":5.37502,"is_reserved":false,"is_disabled":false,"rental_uris":{"android":"levelo://app?vid=aca142bd-2716-4ee3-8c04-bd27c952c647","ios":"levelo://app?vid=aca142bd-2716-4ee3-8c04-bd27c952c647"},"vehicle_type_id":"4","last_reported":1746976152,"current_range_meters":19600,"station_id":"","pricing_plan_id":"cebpf4jnsgd1na2vs0mg"},{"bike_id":"b07bfc09-4ee4-480d-951d-bf310d1d8d6c","system_id":"levelo_inurba_marseille","lat":43.321513,"lon":5.384704,"is_reserved":false,"is_disabled":false,"rental_uris":{"android":"levelo://app?vid=b07bfc09-4ee4-480d-951d-bf310d1d8d6c","ios":"levelo://app?vid=b07bfc09-4ee4-480d-951d-bf310d1d8d6c"},"vehicle_type_id":"4","last_reported":1746976152,"current_range_meters":19600,"station_id":"","pricing_plan_id":"cebpf4jnsgd1na2vs0mg"},{"bike_id":"f55e00c8-45ac-4814-885b-23e51d8217eb","system_id":"levelo_inurba_marseille","lat":43.29006,"lon":5.35616,"is_reserved":false,"is_disabled":false,"rental_uris":{"android":"levelo://app?vid=f55e00c8-45ac-4814-885b-23e51d8217eb","ios":"levelo://app?vid=f55e00c8-45ac-4814-885b-23e51d8217eb"},"vehicle_type_id":"4","last_reported":1746976152,"current_range_meters":19600,"station_id":"ce4bhb92rcd13ifvqen0","pricing_plan_id":"cebpf4jnsgd1na2vs0mg"},{"bike_id":"9ac07f1c-7b81-4758-98cf-0c3a2b970896","system_id":"levelo_inurba_marseille","lat":43.28621,"lon":5.35091,"is_reserved":false,"is_disabled":false,"rental_uris":{"android":"levelo://app?vid=9ac07f1c-7b81-4758-98cf-0c3a2b970896","ios":"levelo://app?vid=9ac07f1c-7b81-4758-98cf-0c3a2b970896"},"vehicle_type_id":"4","last_reported":1746976152,"current_range_meters":19600,"station_id":"ce4bhch2rcd13ifvqeug","pricing_plan_id":"cebpf4jnsgd1na2vs0mg"},{"bike_id":"d9f17f2f-20ce-4708-b408-facb064361ce","system_id":"levelo_inurba_marseille","lat":43.25502,"lon":5.37649,"is_reserved":false,"is_disabled":false,"rental_uris":{"android":"levelo://app?vid=d9f17f2f-20ce-4708-b408-facb064361ce","ios":"levelo://app?vid=d9f17f2f-20ce-4708-b408-facb064361ce"},"vehicle_type_id":"4","last_reported":1746976152,"current_range_meters":19600,"station_id":"ce4bhh12rcd13ifvqff0","pricing_plan_id":"cebpf4jnsgd1na2vs0mg"},{"bike_id":"b9ff61d2-a994-4c6a-9505-69416d66691f","system_id":"levelo_inurba_marseille","lat":43.29851,"lon":5.36264,"is_reserved":false,"is_disabled":false,"rental_uris":{"android":"levelo://app?vid=b9ff61d2-a994-4c6a-9505-69416d66691f","ios":"levelo://app?vid=b9ff61d2-a994-4c6a-9505-69416d66691f"},"vehicle_type_id":"4","last_reported":1746976152,"current_range_meters":20000,"station_id":"ce4bgpp2rcd13ifvqc3g","pricing_plan_id":"cebpf4jnsgd1na2vs0mg"},{"bike_id":"9c493864-176e-4bd0-94f4-1f781ebdf1ee","system_id":"levelo_inurba_marseille","lat":43.298191,"lon":5.363369,"is_reserved":false,"is_disabled":false,"rental_uris":{"android":"levelo://app?vid=9c493864-176e-4bd0-94f4-1f781ebdf1ee","ios":"levelo://app?vid=9c493864-176e-4bd0-94f4-1f781ebdf1ee"},"vehicle_type_id":"4","last_reported":1746976152,"current_range_meters":20000,"station_id":"ce4bgpp2rcd13ifvqc3g","pricing_plan_id":"cebpf4jnsgd1na2vs0mg"},{"bike_id":"366cab92-afe2-42f0-9410-83676dc484f7","system_id":"levelo_inurba_marseille","lat":43.25119,"lon":5.40336,"is_reserved":false,"is_disabled":false,"rental_uris":{"android":"levelo://app?vid=366cab92-afe2-42f0-9410-83676dc484f7","ios":"levelo://app?vid=366cab92-afe2-42f0-9410-83676dc484f7"},"vehicle_type_id":"4","last_reported":1746976152,"current_range_meters":20000,"station_id":"ce4bhlh2rcd13ifvqgig","pricing_plan_id":"cebpf4jnsgd1na2vs0mg"},{"bike_id":"a3657b86-4e75-4e64-b154-9adb8c35b340","system_id":"levelo_inurba_marseille","lat":43.32285,"lon":5.38291,"is_reserved":false,"is_disabled":false,"rental_uris":{"android":"levelo://app?vid=a3657b86-4e75-4e64-b154-9adb8c35b340","ios":"levelo://app?vid=a3657b86-4e75-4e64-b154-9adb8c35b340"},"vehicle_type_id":"4","last_reported":1746976152,"current_range_meters":20000,"station_id":"ce4bhr12rcd13ifvqhqg","pricing_plan_id":"cebpf4jnsgd1na2vs0mg"},{"bike_id":"efe0ee32-bf00-4c21-abab-c82e205862f1","system_id":"levelo_inurba_marseille","lat":43.21749,"lon":5.34604,"is_reserved":false,"is_disabled":false,"rental_uris":{"android":"levelo://app?vid=efe0ee32-bf00-4c21-abab-c82e205862f1","ios":"levelo://app?vid=efe0ee32-bf00-4c21-abab-c82e205862f1"},"vehicle_type_id":"4","last_reported":1746976152,"current_range_meters":20400,"station_id":"st_cvj6r9ubvosntc0bgbag","pricing_plan_id":"cebpf4jnsgd1na2vs0mg"},{"bike_id":"8831ef4f-abeb-4e65-8689-db4871ec6601","system_id":"levelo_inurba_marseille","lat":43.25088,"lon":5.39522,"is_reserved":false,"is_disabled":false,"rental_uris":{"android":"levelo://app?vid=8831ef4f-abeb-4e65-8689-db4871ec6601","ios":"levelo://app?vid=8831ef4f-abeb-4e65-8689-db4871ec6601"},"vehicle_type_id":"4","last_reported":1746976152,"current_range_meters":20800,"station_id":"ce4bhm12rcd13ifvqgkg","pricing_plan_id":"cebpf4jnsgd1na2vs0mg"},{"bike_id":"0c72129e-d0e0-46cc-90c0-d6b8ea594d16","system_id":"levelo_inurba_marseille","lat":43.21756,"lon":5.34615,"is_reserved":false,"is_disabled":false,"rental_uris":{"android":"levelo://app?vid=0c72129e-d0e0-46cc-90c0-d6b8ea594d16","ios":"levelo://app?vid=0c72129e-d0e0-46cc-90c0-d6b8ea594d16"},"vehicle_type_id":"4","last_reported":1746976152,"current_range_meters":20800,"station_id":"st_cvj6r9ubvosntc0bgbag","pricing_plan_id":"cebpf4jnsgd1na2vs0mg"},{"bike_id":"03c5b110-79a4-41d6-be5a-b00e600b3d47","system_id":"levelo_inurba_marseille","lat":43.27614,"lon":5.36107,"is_reserved":false,"is_disabled":false,"rental_uris":{"android":"levelo://app?vid=03c5b110-79a4-41d6-be5a-b00e600b3d47","ios":"levelo://app?vid=03c5b110-79a4-41d6-be5a-b00e600b3d47"},"vehicle_type_id":"4","last_reported":1746976152,"current_range_meters":21600,"station_id":"ce4bgj92rcd13ifvqbe0","pricing_plan_id":"cebpf4jnsgd1na2vs0mg"},{"bike_id":"573e5634-0b50-4b94-8d05-c9589a90520f","system_id":"levelo_inurba_marseille","lat":43.282403,"lon":5.350734,"is_reserved":false,"is_disabled":false,"rental_uris":{"android":"levelo://app?vid=573e5634-0b50-4b94-8d05-c9589a90520f","ios":"levelo://app?vid=573e5634-0b50-4b94-8d05-c9589a90520f"},"vehicle_type_id":"4","last_reported":1746976152,"current_range_meters":21600,"station_id":"ce4bhbp2rcd13ifvqerg","pricing_plan_id":"cebpf4jnsgd1na2vs0mg"},{"bike_id":"c0fc37c0-7a34-4285-89e4-f2b86fbf7452","system_id":"levelo_inurba_marseille","lat":43.24805,"lon":5.37457,"is_reserved":false,"is_disabled":false,"rental_uris":{"android":"levelo://app?vid=c0fc37c0-7a34-4285-89e4-f2b86fbf7452","ios":"levelo://app?vid=c0fc37c0-7a34-4285-89e4-f2b86fbf7452"},"vehicle_type_id":"4","last_reported":1746976152,"current_range_meters":21600,"station_id":"ce4bhgh2rcd13ifvqfb0","pricing_plan_id":"cebpf4jnsgd1na2vs0mg"},{"bike_id":"c9aa1e60-ea9d-4a4b-a027-730faca44254","system_id":"levelo_inurba_marseille","lat":43.25115,"lon":5.40325,"is_reserved":false,"is_disabled":false,"rental_uris":{"android":"levelo://app?vid=c9aa1e60-ea9d-4a4b-a027-730faca44254","ios":"levelo://app?vid=c9aa1e60-ea9d-4a4b-a027-730faca44254"},"vehicle_type_id":"4","last_reported":1746976152,"current_range_meters":21600,"station_id":"ce4bhlh2rcd13ifvqgig","pricing_plan_id":"cebpf4jnsgd1na2vs0mg"},{"bike_id":"560e375d-406a-47d1-ad86-3f5803f0805e","system_id":"levelo_inurba_marseille","lat":43.30883,"lon":5.39642,"is_reserved":false,"is_disabled":false,"rental_uris":{"android":"levelo://app?vid=560e375d-406a-47d1-ad86-3f5803f0805e","ios":"levelo://app?vid=560e375d-406a-47d1-ad86-3f5803f0805e"},"vehicle_type_id":"4","last_reported":1746976152,"current_range_meters":22000,"station_id":"ce4bh012rcd13ifvqcv0","pricing_plan_id":"cebpf4jnsgd1na2vs0mg"},{"bike_id":"1804ef6e-143f-43a1-a83f-fb31b76c26dc","system_id":"levelo_inurba_marseille","lat":43.273723,"lon":5.362546,"is_reserved":false,"is_disabled":false,"rental_uris":{"android":"levelo://app?vid=1804ef6e-143f-43a1-a83f-fb31b76c26dc","ios":"levelo://app?vid=1804ef6e-143f-43a1-a83f-fb31b76c26dc"},"vehicle_type_id":"4","last_reported":1746976152,"current_range_meters":22000,"station_id":"ce4bhbh2rcd13ifvqeo0","pricing_plan_id":"cebpf4jnsgd1na2vs0mg"},{"bike_id":"cf96c7fb-c4cf-471a-9bde-df3142a2f178","system_id":"levelo_inurba_marseille","lat":43.25121,"lon":5.40342,"is_reserved":false,"is_disabled":false,"rental_uris":{"android":"levelo://app?vid=cf96c7fb-c4cf-471a-9bde-df3142a2f178","ios":"levelo://app?vid=cf96c7fb-c4cf-471a-9bde-df3142a2f178"},"vehicle_type_id":"4","last_reported":1746976152,"current_range_meters":22000,"station_id":"ce4bhlh2rcd13ifvqgig","pricing_plan_id":"cebpf4jnsgd1na2vs0mg"},{"bike_id":"55c209c7-d0f7-4c3b-b5ba-1c447e9c2f36","system_id":"levelo_inurba_marseille","lat":43.27995,"lon":5.41662,"is_reserved":false,"is_disabled":false,"rental_uris":{"android":"levelo://app?vid=55c209c7-d0f7-4c3b-b5ba-1c447e9c2f36","ios":"levelo://app?vid=55c209c7-d0f7-4c3b-b5ba-1c447e9c2f36"},"vehicle_type_id":"4","last_reported":1746976152,"current_range_meters":22000,"station_id":"ce4bho12rcd13ifvqh1g","pricing_plan_id":"cebpf4jnsgd1na2vs0mg"},{"bike_id":"f3e62ac7-881a-473b-8040-e5892081f177","system_id":"levelo_inurba_marseille","lat":43.3229,"lon":5.38266,"is_reserved":false,"is_disabled":false,"rental_uris":{"android":"levelo://app?vid=f3e62ac7-881a-473b-8040-e5892081f177","ios":"levelo://app?vid=f3e62ac7-881a-473b-8040-e5892081f177"},"vehicle_type_id":"4","last_reported":1746976152,"current_range_meters":22000,"station_id":"ce4bhr12rcd13ifvqhqg","pricing_plan_id":"cebpf4jnsgd1na2vs0mg"},{"bike_id":"2305c54d-75b8-4692-b3e6-1fda3ef6fda7","system_id":"levelo_inurba_marseille","lat":43.28267,"lon":5.35061,"is_reserved":false,"is_disabled":false,"rental_uris":{"android":"levelo://app?vid=2305c54d-75b8-4692-b3e6-1fda3ef6fda7","ios":"levelo://app?vid=2305c54d-75b8-4692-b3e6-1fda3ef6fda7"},"vehicle_type_id":"4","last_reported":1746976152,"current_range_meters":22400,"station_id":"ce4bhbp2rcd13ifvqerg","pricing_plan_id":"cebpf4jnsgd1na2vs0mg"},{"bike_id":"112da55c-d42f-405b-bf36-5fa4d0989ad9","system_id":"levelo_inurba_marseille","lat":43.26556,"lon":5.37293,"is_reserved":false,"is_disabled":false,"rental_uris":{"android":"levelo://app?vid=112da55c-d42f-405b-bf36-5fa4d0989ad9","ios":"levelo://app?vid=112da55c-d42f-405b-bf36-5fa4d0989ad9"},"vehicle_type_id":"4","last_reported":1746976152,"current_range_meters":22400,"station_id":"ce4bhg12rcd13ifvqf70","pricing_plan_id":"cebpf4jnsgd1na2vs0mg"},{"bike_id":"c40e2f3a-53d9-4e8e-a6ce-2e59493b04cb","system_id":"levelo_inurba_marseille","lat":43.32537,"lon":5.41424,"is_reserved":false,"is_disabled":false,"rental_uris":{"android":"levelo://app?vid=c40e2f3a-53d9-4e8e-a6ce-2e59493b04cb","ios":"levelo://app?vid=c40e2f3a-53d9-4e8e-a6ce-2e59493b04cb"},"vehicle_type_id":"4","last_reported":1746976152,"current_range_meters":22400,"station_id":"ce4bhq12rcd13ifvqhhg","pricing_plan_id":"cebpf4jnsgd1na2vs0mg"},{"bike_id":"1aeff0df-0e55-45ad-ba82-77e85ed583ca","system_id":"levelo_inurba_marseille","lat":43.32474,"lon":5.36554,"is_reserved":false,"is_disabled":false,"rental_uris":{"android":"levelo://app?vid=1aeff0df-0e55-45ad-ba82-77e85ed583ca","ios":"levelo://app?vid=1aeff0df-0e55-45ad-ba82-77e85ed583ca"},"vehicle_type_id":"4","last_reported":1746976152,"current_range_meters":22800,"station_id":"ce4bhs12rcd13ifvqhvg","pricing_plan_id":"cebpf4jnsgd1na2vs0mg"},{"bike_id":"2a96a40c-2f62-4a43-a1c1-fa8d235cb68d","system_id":"levelo_inurba_marseille","lat":43.3135,"lon":5.37635,"is_reserved":false,"is_disabled":false,"rental_uris":{"android":"levelo://app?vid=2a96a40c-2f62-4a43-a1c1-fa8d235cb68d","ios":"levelo://app?vid=2a96a40c-2f62-4a43-a1c1-fa8d235cb68d"},"vehicle_type_id":"4","last_reported":1746976152,"current_range_meters":23200,"station_id":"","pricing_plan_id":"cebpf4jnsgd1na2vs0mg"},{"bike_id":"34698a34-07f4-42bb-bd14-c6f455807b5e","system_id":"levelo_inurba_marseille","lat":43.28268,"lon":5.35077,"is_reserved":false,"is_disabled":false,"rental_uris":{"android":"levelo://app?vid=34698a34-07f4-42bb-bd14-c6f455807b5e","ios":"levelo://app?vid=34698a34-07f4-42bb-bd14-c6f455807b5e"},"vehicle_type_id":"4","last_reported":1746976152,"current_range_meters":23200,"station_id":"ce4bhbp2rcd13ifvqerg","pricing_plan_id":"cebpf4jnsgd1na2vs0mg"},{"bike_id":"4a2847b7-eeae-44b8-bbe3-b2cdc2d252c5","system_id":"levelo_inurba_marseille","lat":43.28265,"lon":5.35067,"is_reserved":false,"is_disabled":false,"rental_uris":{"android":"levelo://app?vid=4a2847b7-eeae-44b8-bbe3-b2cdc2d252c5","ios":"levelo://app?vid=4a2847b7-eeae-44b8-bbe3-b2cdc2d252c5"},"vehicle_type_id":"4","last_reported":1746976152,"current_range_meters":23200,"station_id":"ce4bhbp2rcd13ifvqerg","pricing_plan_id":"cebpf4jnsgd1na2vs0mg"},{"bike_id":"c65512c4-82c1-47c2-bf84-cd1ad20db18e","system_id":"levelo_inurba_marseille","lat":43.324816,"lon":5.365671,"is_reserved":false,"is_disabled":false,"rental_uris":{"android":"levelo://app?vid=c65512c4-82c1-47c2-bf84-cd1ad20db18e","ios":"levelo://app?vid=c65512c4-82c1-47c2-bf84-cd1ad20db18e"},"vehicle_type_id":"4","last_reported":1746976152,"current_range_meters":23200,"station_id":"ce4bhs12rcd13ifvqhvg","pricing_plan_id":"cebpf4jnsgd1na2vs0mg"},{"bike_id":"a546a166-3357-42b2-be14-012e05b92d7d","system_id":"levelo_inurba_marseille","lat":43.32592,"lon":5.43091,"is_reserved":false,"is_disabled":false,"rental_uris":{"android":"levelo://app?vid=a546a166-3357-42b2-be14-012e05b92d7d","ios":"levelo://app?vid=a546a166-3357-42b2-be14-012e05b92d7d"},"vehicle_type_id":"4","last_reported":1746976152,"current_range_meters":24000,"station_id":"","pricing_plan_id":"cebpf4jnsgd1na2vs0mg"},{"bike_id":"a2bed9dc-6cc1-428d-9c5a-0c464d9f7c5c","system_id":"levelo_inurba_marseille","lat":43.3301,"lon":5.38623,"is_reserved":false,"is_disabled":false,"rental_uris":{"android":"levelo://app?vid=a2bed9dc-6cc1-428d-9c5a-0c464d9f7c5c","ios":"levelo://app?vid=a2bed9dc-6cc1-428d-9c5a-0c464d9f7c5c"},"vehicle_type_id":"4","last_reported":1746976152,"current_range_meters":24400,"station_id":"","pricing_plan_id":"cebpf4jnsgd1na2vs0mg"},{"bike_id":"f986adab-af95-4003-91be-196549f1a6e5","system_id":"levelo_inurba_marseille","lat":43.29717,"lon":5.38373,"is_reserved":false,"is_disabled":false,"rental_uris":{"android":"levelo://app?vid=f986adab-af95-4003-91be-196549f1a6e5","ios":"levelo://app?vid=f986adab-af95-4003-91be-196549f1a6e5"},"vehicle_type_id":"4","last_reported":1746976152,"current_range_meters":24400,"station_id":"","pricing_plan_id":"cebpf4jnsgd1na2vs0mg"},{"bike_id":"a2d907df-8646-46e0-8975-ee221c1147b4","system_id":"levelo_inurba_marseille","lat":43.28269,"lon":5.35067,"is_reserved":false,"is_disabled":false,"rental_uris":{"android":"levelo://app?vid=a2d907df-8646-46e0-8975-ee221c1147b4","ios":"levelo://app?vid=a2d907df-8646-46e0-8975-ee221c1147b4"},"vehicle_type_id":"4","last_reported":1746976152,"current_range_meters":24400,"station_id":"ce4bhbp2rcd13ifvqerg","pricing_plan_id":"cebpf4jnsgd1na2vs0mg"},{"bike_id":"0a58c277-b2a9-4dc8-87aa-cf12f87fe675","system_id":"levelo_inurba_marseille","lat":43.25128,"lon":5.40328,"is_reserved":false,"is_disabled":false,"rental_uris":{"android":"levelo://app?vid=0a58c277-b2a9-4dc8-87aa-cf12f87fe675","ios":"levelo://app?vid=0a58c277-b2a9-4dc8-87aa-cf12f87fe675"},"vehicle_type_id":"4","last_reported":1746976152,"current_range_meters":24400,"station_id":"ce4bhlh2rcd13ifvqgig","pricing_plan_id":"cebpf4jnsgd1na2vs0mg"},{"bike_id":"e140141b-4b6e-4f40-928c-78a9d0cedfc5","system_id":"levelo_inurba_marseille","lat":43.21784,"lon":5.34594,"is_reserved":false,"is_disabled":false,"rental_uris":{"android":"levelo://app?vid=e140141b-4b6e-4f40-928c-78a9d0cedfc5","ios":"levelo://app?vid=e140141b-4b6e-4f40-928c-78a9d0cedfc5"},"vehicle_type_id":"4","last_reported":1746976152,"current_range_meters":24400,"station_id":"st_cvj6r9ubvosntc0bgbag","pricing_plan_id":"cebpf4jnsgd1na2vs0mg"},{"bike_id":"fcf9463b-401b-4157-a5a9-4c36ca7d015d","system_id":"levelo_inurba_marseille","lat":43.3068,"lon":5.3705,"is_reserved":false,"is_disabled":false,"rental_uris":{"android":"levelo://app?vid=fcf9463b-401b-4157-a5a9-4c36ca7d015d","ios":"levelo://app?vid=fcf9463b-401b-4157-a5a9-4c36ca7d015d"},"vehicle_type_id":"4","last_reported":1746976152,"current_range_meters":24800,"station_id":"","pricing_plan_id":"cebpf4jnsgd1na2vs0mg"},{"bike_id":"a550dea1-8baa-49bc-a8d4-ad090945fd85","system_id":"levelo_inurba_marseille","lat":43.29624,"lon":5.3716,"is_reserved":false,"is_disabled":false,"rental_uris":{"android":"levelo://app?vid=a550dea1-8baa-49bc-a8d4-ad090945fd85","ios":"levelo://app?vid=a550dea1-8baa-49bc-a8d4-ad090945fd85"},"vehicle_type_id":"4","last_reported":1746976152,"current_range_meters":24800,"station_id":"ce4bgnh2rcd13ifvqc0g","pricing_plan_id":"cebpf4jnsgd1na2vs0mg"},{"bike_id":"11d53adb-cfb7-492e-b535-b6c8a6ba5baf","system_id":"levelo_inurba_marseille","lat":43.27371,"lon":5.36252,"is_reserved":false,"is_disabled":false,"rental_uris":{"android":"levelo://app?vid=11d53adb-cfb7-492e-b535-b6c8a6ba5baf","ios":"levelo://app?vid=11d53adb-cfb7-492e-b535-b6c8a6ba5baf"},"vehicle_type_id":"4","last_reported":1746976152,"current_range_meters":24800,"station_id":"ce4bhbh2rcd13ifvqeo0","pricing_plan_id":"cebpf4jnsgd1na2vs0mg"},{"bike_id":"c04fddad-5bb9-496e-afd5-423672359fdd","system_id":"levelo_inurba_marseille","lat":43.31759,"lon":5.3901,"is_reserved":false,"is_disabled":false,"rental_uris":{"android":"levelo://app?vid=c04fddad-5bb9-496e-afd5-423672359fdd","ios":"levelo://app?vid=c04fddad-5bb9-496e-afd5-423672359fdd"},"vehicle_type_id":"4","last_reported":1746976152,"current_range_meters":24800,"station_id":"ce4bhqp2rcd13ifvqhng","pricing_plan_id":"cebpf4jnsgd1na2vs0mg"},{"bike_id":"771053df-784a-455c-b125-23278a586df7","system_id":"levelo_inurba_marseille","lat":43.302445,"lon":5.40081,"is_reserved":false,"is_disabled":false,"rental_uris":{"android":"levelo://app?vid=771053df-784a-455c-b125-23278a586df7","ios":"levelo://app?vid=771053df-784a-455c-b125-23278a586df7"},"vehicle_type_id":"4","last_reported":1746976152,"current_range_meters":25200,"station_id":"ce4bgvh2rcd13ifvqcs0","pricing_plan_id":"cebpf4jnsgd1na2vs0mg"},{"bike_id":"543a09e9-f3f2-482a-a555-071e7374f5c6","system_id":"levelo_inurba_marseille","lat":43.21764,"lon":5.3462,"is_reserved":false,"is_disabled":false,"rental_uris":{"android":"levelo://app?vid=543a09e9-f3f2-482a-a555-071e7374f5c6","ios":"levelo://app?vid=543a09e9-f3f2-482a-a555-071e7374f5c6"},"vehicle_type_id":"4","last_reported":1746976152,"current_range_meters":25200,"station_id":"st_cvj6r9ubvosntc0bgbag","pricing_plan_id":"cebpf4jnsgd1na2vs0mg"},{"bike_id":"ac754be4-9e6a-4394-8db1-1077f1394b37","system_id":"levelo_inurba_marseille","lat":43.29208,"lon":5.35948,"is_reserved":false,"is_disabled":false,"rental_uris":{"android":"levelo://app?vid=ac754be4-9e6a-4394-8db1-1077f1394b37","ios":"levelo://app?vid=ac754be4-9e6a-4394-8db1-1077f1394b37"},"vehicle_type_id":"4","last_reported":1746976152,"current_range_meters":25600,"station_id":"","pricing_plan_id":"cebpf4jnsgd1na2vs0mg"},{"bike_id":"caec1d8d-75ae-4238-a8c3-8df3cca72830","system_id":"levelo_inurba_marseille","lat":43.293055,"lon":5.374555,"is_reserved":false,"is_disabled":false,"rental_uris":{"android":"levelo://app?vid=caec1d8d-75ae-4238-a8c3-8df3cca72830","ios":"levelo://app?vid=caec1d8d-75ae-4238-a8c3-8df3cca72830"},"vehicle_type_id":"4","last_reported":1746976152,"current_range_meters":25600,"station_id":"ce4bgi12rcd13ifvqb70","pricing_plan_id":"cebpf4jnsgd1na2vs0mg"},{"bike_id":"6146bf84-092b-43c4-99a6-b138082252b5","system_id":"levelo_inurba_marseille","lat":43.30324,"lon":5.4044,"is_reserved":false,"is_disabled":false,"rental_uris":{"android":"levelo://app?vid=6146bf84-092b-43c4-99a6-b138082252b5","ios":"levelo://app?vid=6146bf84-092b-43c4-99a6-b138082252b5"},"vehicle_type_id":"4","last_reported":1746976152,"current_range_meters":25600,"station_id":"ce4bh012rcd13ifvqd10","pricing_plan_id":"cebpf4jnsgd1na2vs0mg"},{"bike_id":"d491b1eb-3619-464e-a983-7335701c4377","system_id":"levelo_inurba_marseille","lat":43.27374,"lon":5.3626,"is_reserved":false,"is_disabled":false,"rental_uris":{"android":"levelo://app?vid=d491b1eb-3619-464e-a983-7335701c4377","ios":"levelo://app?vid=d491b1eb-3619-464e-a983-7335701c4377"},"vehicle_type_id":"4","last_reported":1746976152,"current_range_meters":25600,"station_id":"ce4bhbh2rcd13ifvqeo0","pricing_plan_id":"cebpf4jnsgd1na2vs0mg"},{"bike_id":"25443a2c-0561-43cd-a7db-0eaf6ba7d484","system_id":"levelo_inurba_marseille","lat":43.28262,"lon":5.35072,"is_reserved":false,"is_disabled":false,"rental_uris":{"android":"levelo://app?vid=25443a2c-0561-43cd-a7db-0eaf6ba7d484","ios":"levelo://app?vid=25443a2c-0561-43cd-a7db-0eaf6ba7d484"},"vehicle_type_id":"4","last_reported":1746976152,"current_range_meters":25600,"station_id":"ce4bhbp2rcd13ifvqerg","pricing_plan_id":"cebpf4jnsgd1na2vs0mg"},{"bike_id":"934f5507-dc47-4676-b82f-3a37a467b409","system_id":"levelo_inurba_marseille","lat":43.2862,"lon":5.35101,"is_reserved":false,"is_disabled":false,"rental_uris":{"android":"levelo://app?vid=934f5507-dc47-4676-b82f-3a37a467b409","ios":"levelo://app?vid=934f5507-dc47-4676-b82f-3a37a467b409"},"vehicle_type_id":"4","last_reported":1746976152,"current_range_meters":25600,"station_id":"ce4bhch2rcd13ifvqeug","pricing_plan_id":"cebpf4jnsgd1na2vs0mg"},{"bike_id":"b5556b67-10a4-4768-b55a-2cabcce450da","system_id":"levelo_inurba_marseille","lat":43.30139,"lon":5.38785,"is_reserved":false,"is_disabled":false,"rental_uris":{"android":"levelo://app?vid=b5556b67-10a4-4768-b55a-2cabcce450da","ios":"levelo://app?vid=b5556b67-10a4-4768-b55a-2cabcce450da"},"vehicle_type_id":"4","last_reported":1746976152,"current_range_meters":26000,"station_id":"ce4bghh2rcd13ifvqb60","pricing_plan_id":"cebpf4jnsgd1na2vs0mg"},{"bike_id":"af605a8e-7f7e-4a7a-a802-b532468b84c4","system_id":"levelo_inurba_marseille","lat":43.3056,"lon":5.36545,"is_reserved":false,"is_disabled":false,"rental_uris":{"android":"levelo://app?vid=af605a8e-7f7e-4a7a-a802-b532468b84c4","ios":"levelo://app?vid=af605a8e-7f7e-4a7a-a802-b532468b84c4"},"vehicle_type_id":"4","last_reported":1746976152,"current_range_meters":26000,"station_id":"ce4bgs12rcd13ifvqcag","pricing_plan_id":"cebpf4jnsgd1na2vs0mg"},{"bike_id":"844a3349-95b4-46e2-944b-a7037dec47d3","system_id":"levelo_inurba_marseille","lat":43.29266,"lon":5.38425,"is_reserved":false,"is_disabled":false,"rental_uris":{"android":"levelo://app?vid=844a3349-95b4-46e2-944b-a7037dec47d3","ios":"levelo://app?vid=844a3349-95b4-46e2-944b-a7037dec47d3"},"vehicle_type_id":"4","last_reported":1746976152,"current_range_meters":26000,"station_id":"ce4bh692rcd13ifvqea0","pricing_plan_id":"cebpf4jnsgd1na2vs0mg"},{"bike_id":"362c81a6-8d17-4b29-a3db-7caf0cb06275","system_id":"levelo_inurba_marseille","lat":43.29008,"lon":5.35599,"is_reserved":false,"is_disabled":false,"rental_uris":{"android":"levelo://app?vid=362c81a6-8d17-4b29-a3db-7caf0cb06275","ios":"levelo://app?vid=362c81a6-8d17-4b29-a3db-7caf0cb06275"},"vehicle_type_id":"4","last_reported":1746976152,"current_range_meters":26000,"station_id":"ce4bhb92rcd13ifvqen0","pricing_plan_id":"cebpf4jnsgd1na2vs0mg"},{"bike_id":"0f163f6f-2fd7-47c4-afbe-0afab9b852d1","system_id":"levelo_inurba_marseille","lat":43.28621,"lon":5.35111,"is_reserved":false,"is_disabled":false,"rental_uris":{"android":"levelo://app?vid=0f163f6f-2fd7-47c4-afbe-0afab9b852d1","ios":"levelo://app?vid=0f163f6f-2fd7-47c4-afbe-0afab9b852d1"},"vehicle_type_id":"4","last_reported":1746976152,"current_range_meters":26000,"station_id":"ce4bhch2rcd13ifvqeug","pricing_plan_id":"cebpf4jnsgd1na2vs0mg"},{"bike_id":"5705d5e5-59e3-4439-b89b-815b4568d47a","system_id":"levelo_inurba_marseille","lat":43.293931,"lon":5.411348,"is_reserved":false,"is_disabled":false,"rental_uris":{"android":"levelo://app?vid=5705d5e5-59e3-4439-b89b-815b4568d47a","ios":"levelo://app?vid=5705d5e5-59e3-4439-b89b-815b4568d47a"},"vehicle_type_id":"4","last_reported":1746976152,"current_range_meters":26000,"station_id":"ce4bhph2rcd13ifvqhdg","pricing_plan_id":"cebpf4jnsgd1na2vs0mg"},{"bike_id":"d40b6df1-28bd-4f65-9aea-ccdbf85378d7","system_id":"levelo_inurba_marseille","lat":43.29096,"lon":5.38118,"is_reserved":false,"is_disabled":false,"rental_uris":{"android":"levelo://app?vid=d40b6df1-28bd-4f65-9aea-ccdbf85378d7","ios":"levelo://app?vid=d40b6df1-28bd-4f65-9aea-ccdbf85378d7"},"vehicle_type_id":"4","last_reported":1746976152,"current_range_meters":26800,"station_id":"ce4bh512rcd13ifvqe2g","pricing_plan_id":"cebpf4jnsgd1na2vs0mg"},{"bike_id":"22f4a653-d3b4-41f5-be7f-bcbaa5c903f3","system_id":"levelo_inurba_marseille","lat":43.29011,"lon":5.35611,"is_reserved":false,"is_disabled":false,"rental_uris":{"android":"levelo://app?vid=22f4a653-d3b4-41f5-be7f-bcbaa5c903f3","ios":"levelo://app?vid=22f4a653-d3b4-41f5-be7f-bcbaa5c903f3"},"vehicle_type_id":"4","last_reported":1746976152,"current_range_meters":26800,"station_id":"ce4bhb92rcd13ifvqen0","pricing_plan_id":"cebpf4jnsgd1na2vs0mg"},{"bike_id":"620b9914-a2ed-4725-84c6-9eac0305c0c4","system_id":"levelo_inurba_marseille","lat":43.29003,"lon":5.356138,"is_reserved":false,"is_disabled":false,"rental_uris":{"android":"levelo://app?vid=620b9914-a2ed-4725-84c6-9eac0305c0c4","ios":"levelo://app?vid=620b9914-a2ed-4725-84c6-9eac0305c0c4"},"vehicle_type_id":"4","last_reported":1746976152,"current_range_meters":26800,"station_id":"ce4bhb92rcd13ifvqen0","pricing_plan_id":"cebpf4jnsgd1na2vs0mg"},{"bike_id":"d0717599-781d-481a-9f05-c565f20a0c3d","system_id":"levelo_inurba_marseille","lat":43.26196,"lon":5.3745,"is_reserved":false,"is_disabled":false,"rental_uris":{"android":"levelo://app?vid=d0717599-781d-481a-9f05-c565f20a0c3d","ios":"levelo://app?vid=d0717599-781d-481a-9f05-c565f20a0c3d"},"vehicle_type_id":"4","last_reported":1746976152,"current_range_meters":27200,"station_id":"ce4bhgp2rcd13ifvqfc0","pricing_plan_id":"cebpf4jnsgd1na2vs0mg"},{"bike_id":"847d6692-e6d3-4857-ad02-806de247bacc","system_id":"levelo_inurba_marseille","lat":43.24408,"lon":5.3707,"is_reserved":false,"is_disabled":false,"rental_uris":{"android":"levelo://app?vid=847d6692-e6d3-4857-ad02-806de247bacc","ios":"levelo://app?vid=847d6692-e6d3-4857-ad02-806de247bacc"},"vehicle_type_id":"4","last_reported":1746976152,"current_range_meters":27200,"station_id":"ce4bhhh2rcd13ifvqfk0","pricing_plan_id":"cebpf4jnsgd1na2vs0mg"},{"bike_id":"6c70eb18-df8c-4646-8451-a96047e31049","system_id":"levelo_inurba_marseille","lat":43.280333,"lon":5.369542,"is_reserved":false,"is_disabled":false,"rental_uris":{"android":"levelo://app?vid=6c70eb18-df8c-4646-8451-a96047e31049","ios":"levelo://app?vid=6c70eb18-df8c-4646-8451-a96047e31049"},"vehicle_type_id":"4","last_reported":1746976152,"current_range_meters":27600,"station_id":"ce4bha12rcd13ifvqef0","pricing_plan_id":"cebpf4jnsgd1na2vs0mg"},{"bike_id":"7ae2abbc-e620-4ea8-89d6-7a04531a4ae6","system_id":"levelo_inurba_marseille","lat":43.286133,"lon":5.351015,"is_reserved":false,"is_disabled":false,"rental_uris":{"android":"levelo://app?vid=7ae2abbc-e620-4ea8-89d6-7a04531a4ae6","ios":"levelo://app?vid=7ae2abbc-e620-4ea8-89d6-7a04531a4ae6"},"vehicle_type_id":"4","last_reported":1746976152,"current_range_meters":27600,"station_id":"ce4bhch2rcd13ifvqeug","pricing_plan_id":"cebpf4jnsgd1na2vs0mg"},{"bike_id":"d9e545aa-f2c1-47cf-a967-81290b6ad7e3","system_id":"levelo_inurba_marseille","lat":43.26555,"lon":5.37285,"is_reserved":false,"is_disabled":false,"rental_uris":{"android":"levelo://app?vid=d9e545aa-f2c1-47cf-a967-81290b6ad7e3","ios":"levelo://app?vid=d9e545aa-f2c1-47cf-a967-81290b6ad7e3"},"vehicle_type_id":"4","last_reported":1746976152,"current_range_meters":27600,"station_id":"ce4bhg12rcd13ifvqf70","pricing_plan_id":"cebpf4jnsgd1na2vs0mg"},{"bike_id":"a6f40057-630f-4f15-af0e-5ca022368b43","system_id":"levelo_inurba_marseille","lat":43.270588,"lon":5.402519,"is_reserved":false,"is_disabled":false,"rental_uris":{"android":"levelo://app?vid=a6f40057-630f-4f15-af0e-5ca022368b43","ios":"levelo://app?vid=a6f40057-630f-4f15-af0e-5ca022368b43"},"vehicle_type_id":"4","last_reported":1746976152,"current_range_meters":27600,"station_id":"ce4bhk92rcd13ifvqgc0","pricing_plan_id":"cebpf4jnsgd1na2vs0mg"},{"bike_id":"f30700cd-2b15-4379-bae3-a617af060209","system_id":"levelo_inurba_marseille","lat":43.21768,"lon":5.34587,"is_reserved":false,"is_disabled":false,"rental_uris":{"android":"levelo://app?vid=f30700cd-2b15-4379-bae3-a617af060209","ios":"levelo://app?vid=f30700cd-2b15-4379-bae3-a617af060209"},"vehicle_type_id":"4","last_reported":1746976152,"current_range_meters":27600,"station_id":"st_cvj6r9ubvosntc0bgbag","pricing_plan_id":"cebpf4jnsgd1na2vs0mg"},{"bike_id":"e172af54-51e9-411c-9765-01487529519e","system_id":"levelo_inurba_marseille","lat":43.29776,"lon":5.36217,"is_reserved":false,"is_disabled":false,"rental_uris":{"android":"levelo://app?vid=e172af54-51e9-411c-9765-01487529519e","ios":"levelo://app?vid=e172af54-51e9-411c-9765-01487529519e"},"vehicle_type_id":"4","last_reported":1746976152,"current_range_meters":28000,"station_id":"","pricing_plan_id":"cebpf4jnsgd1na2vs0mg"},{"bike_id":"746ad9e9-413d-4169-8fd8-738b670824af","system_id":"levelo_inurba_marseille","lat":43.29009,"lon":5.3561,"is_reserved":false,"is_disabled":false,"rental_uris":{"android":"levelo://app?vid=746ad9e9-413d-4169-8fd8-738b670824af","ios":"levelo://app?vid=746ad9e9-413d-4169-8fd8-738b670824af"},"vehicle_type_id":"4","last_reported":1746976152,"current_range_meters":28000,"station_id":"ce4bhb92rcd13ifvqen0","pricing_plan_id":"cebpf4jnsgd1na2vs0mg"},{"bike_id":"057229ad-fba1-4e96-962a-1900ad1c5755","system_id":"levelo_inurba_marseille","lat":43.28273,"lon":5.35077,"is_reserved":false,"is_disabled":false,"rental_uris":{"android":"levelo://app?vid=057229ad-fba1-4e96-962a-1900ad1c5755","ios":"levelo://app?vid=057229ad-fba1-4e96-962a-1900ad1c5755"},"vehicle_type_id":"4","last_reported":1746976152,"current_range_meters":28000,"station_id":"ce4bhbp2rcd13ifvqerg","pricing_plan_id":"cebpf4jnsgd1na2vs0mg"},{"bike_id":"e648a593-d519-4638-a96b-e759c1833772","system_id":"levelo_inurba_marseille","lat":43.24185,"lon":5.36367,"is_reserved":false,"is_disabled":false,"rental_uris":{"android":"levelo://app?vid=e648a593-d519-4638-a96b-e759c1833772","ios":"levelo://app?vid=e648a593-d519-4638-a96b-e759c1833772"},"vehicle_type_id":"4","last_reported":1746976152,"current_range_meters":28000,"station_id":"cpo36qri1sfpv3e86is0","pricing_plan_id":"cebpf4jnsgd1na2vs0mg"},{"bike_id":"b35ee90c-5f4a-4ccb-8da8-cecb5d9deb1d","system_id":"levelo_inurba_marseille","lat":43.22508,"lon":5.34789,"is_reserved":false,"is_disabled":false,"rental_uris":{"android":"levelo://app?vid=b35ee90c-5f4a-4ccb-8da8-cecb5d9deb1d","ios":"levelo://app?vid=b35ee90c-5f4a-4ccb-8da8-cecb5d9deb1d"},"vehicle_type_id":"4","last_reported":1746976152,"current_range_meters":28000,"station_id":"st_cvj5dfep6f1abm77gieg","pricing_plan_id":"cebpf4jnsgd1na2vs0mg"},{"bike_id":"279a3656-3c80-4817-93f7-35fab84a7356","system_id":"levelo_inurba_marseille","lat":43.276227,"lon":5.361085,"is_reserved":false,"is_disabled":false,"rental_uris":{"android":"levelo://app?vid=279a3656-3c80-4817-93f7-35fab84a7356","ios":"levelo://app?vid=279a3656-3c80-4817-93f7-35fab84a7356"},"vehicle_type_id":"4","last_reported":1746976152,"current_range_meters":28400,"station_id":"ce4bgj92rcd13ifvqbe0","pricing_plan_id":"cebpf4jnsgd1na2vs0mg"},{"bike_id":"92d9b501-ff8e-4241-9204-aafa5438c2d1","system_id":"levelo_inurba_marseille","lat":43.282689,"lon":5.350624,"is_reserved":false,"is_disabled":false,"rental_uris":{"android":"levelo://app?vid=92d9b501-ff8e-4241-9204-aafa5438c2d1","ios":"levelo://app?vid=92d9b501-ff8e-4241-9204-aafa5438c2d1"},"vehicle_type_id":"4","last_reported":1746976152,"current_range_meters":28400,"station_id":"ce4bhb12rcd13ifvqel0","pricing_plan_id":"cebpf4jnsgd1na2vs0mg"},{"bike_id":"31c19bbc-5621-4ebd-9813-d3ac73812f2b","system_id":"levelo_inurba_marseille","lat":43.24169,"lon":5.36405,"is_reserved":false,"is_disabled":false,"rental_uris":{"android":"levelo://app?vid=31c19bbc-5621-4ebd-9813-d3ac73812f2b","ios":"levelo://app?vid=31c19bbc-5621-4ebd-9813-d3ac73812f2b"},"vehicle_type_id":"4","last_reported":1746976152,"current_range_meters":28400,"station_id":"cpo36qri1sfpv3e86is0","pricing_plan_id":"cebpf4jnsgd1na2vs0mg"},{"bike_id":"f9c0f625-2b59-4b1c-8bf3-f5d352e2da89","system_id":"levelo_inurba_marseille","lat":43.27616,"lon":5.36106,"is_reserved":false,"is_disabled":false,"rental_uris":{"android":"levelo://app?vid=f9c0f625-2b59-4b1c-8bf3-f5d352e2da89","ios":"levelo://app?vid=f9c0f625-2b59-4b1c-8bf3-f5d352e2da89"},"vehicle_type_id":"4","last_reported":1746976152,"current_range_meters":28800,"station_id":"ce4bgj92rcd13ifvqbe0","pricing_plan_id":"cebpf4jnsgd1na2vs0mg"},{"bike_id":"1da8535c-aa25-4064-91ab-79686eff7c0f","system_id":"levelo_inurba_marseille","lat":43.29861,"lon":5.39764,"is_reserved":false,"is_disabled":false,"rental_uris":{"android":"levelo://app?vid=1da8535c-aa25-4064-91ab-79686eff7c0f","ios":"levelo://app?vid=1da8535c-aa25-4064-91ab-79686eff7c0f"},"vehicle_type_id":"4","last_reported":1746976152,"current_range_meters":28800,"station_id":"ce4bh0h2rcd13ifvqd50","pricing_plan_id":"cebpf4jnsgd1na2vs0mg"},{"bike_id":"1297402a-0699-4324-a067-80a0da342625","system_id":"levelo_inurba_marseille","lat":43.25718,"lon":5.41111,"is_reserved":false,"is_disabled":false,"rental_uris":{"android":"levelo://app?vid=1297402a-0699-4324-a067-80a0da342625","ios":"levelo://app?vid=1297402a-0699-4324-a067-80a0da342625"},"vehicle_type_id":"4","last_reported":1746976152,"current_range_meters":28800,"station_id":"ce4bhkp2rcd13ifvqgd0","pricing_plan_id":"cebpf4jnsgd1na2vs0mg"},{"bike_id":"c34b43b1-180b-45bb-935c-a4986c5efa2e","system_id":"levelo_inurba_marseille","lat":43.29266,"lon":5.38442,"is_reserved":false,"is_disabled":false,"rental_uris":{"android":"levelo://app?vid=c34b43b1-180b-45bb-935c-a4986c5efa2e","ios":"levelo://app?vid=c34b43b1-180b-45bb-935c-a4986c5efa2e"},"vehicle_type_id":"4","last_reported":1746976152,"current_range_meters":29600,"station_id":"ce4bh692rcd13ifvqea0","pricing_plan_id":"cebpf4jnsgd1na2vs0mg"},{"bike_id":"c7f41019-a9ec-4995-a05d-367e0245650f","system_id":"levelo_inurba_marseille","lat":43.27378,"lon":5.36257,"is_reserved":false,"is_disabled":false,"rental_uris":{"android":"levelo://app?vid=c7f41019-a9ec-4995-a05d-367e0245650f","ios":"levelo://app?vid=c7f41019-a9ec-4995-a05d-367e0245650f"},"vehicle_type_id":"4","last_reported":1746976152,"current_range_meters":29600,"station_id":"ce4bhbh2rcd13ifvqeo0","pricing_plan_id":"cebpf4jnsgd1na2vs0mg"},{"bike_id":"facb317e-183b-41ed-b211-8f20730fdf23","system_id":"levelo_inurba_marseille","lat":43.24169,"lon":5.36397,"is_reserved":false,"is_disabled":false,"rental_uris":{"android":"levelo://app?vid=facb317e-183b-41ed-b211-8f20730fdf23","ios":"levelo://app?vid=facb317e-183b-41ed-b211-8f20730fdf23"},"vehicle_type_id":"4","last_reported":1746976152,"current_range_meters":29600,"station_id":"cpo36qri1sfpv3e86is0","pricing_plan_id":"cebpf4jnsgd1na2vs0mg"},{"bike_id":"1219abdd-0c18-4d67-ac01-d620895d1f01","system_id":"levelo_inurba_marseille","lat":43.21733,"lon":5.34643,"is_reserved":false,"is_disabled":false,"rental_uris":{"android":"levelo://app?vid=1219abdd-0c18-4d67-ac01-d620895d1f01","ios":"levelo://app?vid=1219abdd-0c18-4d67-ac01-d620895d1f01"},"vehicle_type_id":"4","last_reported":1746976152,"current_range_meters":29600,"station_id":"st_cvj6r9ubvosntc0bgbag","pricing_plan_id":"cebpf4jnsgd1na2vs0mg"},{"bike_id":"e032359a-75f8-4e63-9744-bad33514655d","system_id":"levelo_inurba_marseille","lat":43.29277,"lon":5.40126,"is_reserved":false,"is_disabled":false,"rental_uris":{"android":"levelo://app?vid=e032359a-75f8-4e63-9744-bad33514655d","ios":"levelo://app?vid=e032359a-75f8-4e63-9744-bad33514655d"},"vehicle_type_id":"4","last_reported":1746976152,"current_range_meters":30000,"station_id":"ce4bh312rcd13ifvqdk0","pricing_plan_id":"cebpf4jnsgd1na2vs0mg"},{"bike_id":"02a20989-1092-4011-a4af-c976bdb8df61","system_id":"levelo_inurba_marseille","lat":43.29521,"lon":5.39051,"is_reserved":false,"is_disabled":false,"rental_uris":{"android":"levelo://app?vid=02a20989-1092-4011-a4af-c976bdb8df61","ios":"levelo://app?vid=02a20989-1092-4011-a4af-c976bdb8df61"},"vehicle_type_id":"4","last_reported":1746976152,"current_range_meters":30000,"station_id":"ce4bh3p2rcd13ifvqdp0","pricing_plan_id":"cebpf4jnsgd1na2vs0mg"},{"bike_id":"6d427566-1105-4efd-a723-7ab31c2a8db7","system_id":"levelo_inurba_marseille","lat":43.2804,"lon":5.36936,"is_reserved":false,"is_disabled":false,"rental_uris":{"android":"levelo://app?vid=6d427566-1105-4efd-a723-7ab31c2a8db7","ios":"levelo://app?vid=6d427566-1105-4efd-a723-7ab31c2a8db7"},"vehicle_type_id":"4","last_reported":1746976152,"current_range_meters":30000,"station_id":"ce4bha12rcd13ifvqef0","pricing_plan_id":"cebpf4jnsgd1na2vs0mg"},{"bike_id":"e735cc6f-7322-48cc-a6e5-18ccf5733adb","system_id":"levelo_inurba_marseille","lat":43.22511,"lon":5.34816,"is_reserved":false,"is_disabled":false,"rental_uris":{"android":"levelo://app?vid=e735cc6f-7322-48cc-a6e5-18ccf5733adb","ios":"levelo://app?vid=e735cc6f-7322-48cc-a6e5-18ccf5733adb"},"vehicle_type_id":"4","last_reported":1746976152,"current_range_meters":30000,"station_id":"st_cvj5dfep6f1abm77gieg","pricing_plan_id":"cebpf4jnsgd1na2vs0mg"},{"bike_id":"4c553312-7a56-4420-94be-4db995548186","system_id":"levelo_inurba_marseille","lat":43.2934,"lon":5.43446,"is_reserved":false,"is_disabled":false,"rental_uris":{"android":"levelo://app?vid=4c553312-7a56-4420-94be-4db995548186","ios":"levelo://app?vid=4c553312-7a56-4420-94be-4db995548186"},"vehicle_type_id":"4","last_reported":1746976152,"current_range_meters":30400,"station_id":"","pricing_plan_id":"cebpf4jnsgd1na2vs0mg"},{"bike_id":"596c5539-c13b-4d82-89b9-77c7aa0ecbfe","system_id":"levelo_inurba_marseille","lat":43.34232,"lon":5.38588,"is_reserved":false,"is_disabled":false,"rental_uris":{"android":"levelo://app?vid=596c5539-c13b-4d82-89b9-77c7aa0ecbfe","ios":"levelo://app?vid=596c5539-c13b-4d82-89b9-77c7aa0ecbfe"},"vehicle_type_id":"4","last_reported":1746976152,"current_range_meters":30400,"station_id":"","pricing_plan_id":"cebpf4jnsgd1na2vs0mg"},{"bike_id":"0fd41d5d-91c4-4744-9e7c-7522191242bc","system_id":"levelo_inurba_marseille","lat":43.30927,"lon":5.4016,"is_reserved":false,"is_disabled":false,"rental_uris":{"android":"levelo://app?vid=0fd41d5d-91c4-4744-9e7c-7522191242bc","ios":"levelo://app?vid=0fd41d5d-91c4-4744-9e7c-7522191242bc"},"vehicle_type_id":"4","last_reported":1746976152,"current_range_meters":30400,"station_id":"ce4bgvp2rcd13ifvqct0","pricing_plan_id":"cebpf4jnsgd1na2vs0mg"},{"bike_id":"9a3750c3-4529-41aa-974c-a010f3bba000","system_id":"levelo_inurba_marseille","lat":43.26028,"lon":5.37552,"is_reserved":false,"is_disabled":false,"rental_uris":{"android":"levelo://app?vid=9a3750c3-4529-41aa-974c-a010f3bba000","ios":"levelo://app?vid=9a3750c3-4529-41aa-974c-a010f3bba000"},"vehicle_type_id":"4","last_reported":1746976152,"current_range_meters":30400,"station_id":"ce4bhgh2rcd13ifvqfa0","pricing_plan_id":"cebpf4jnsgd1na2vs0mg"},{"bike_id":"a1d9903e-321a-4c5b-8dec-74e82894279c","system_id":"levelo_inurba_marseille","lat":43.3082,"lon":5.43495,"is_reserved":false,"is_disabled":false,"rental_uris":{"android":"levelo://app?vid=a1d9903e-321a-4c5b-8dec-74e82894279c","ios":"levelo://app?vid=a1d9903e-321a-4c5b-8dec-74e82894279c"},"vehicle_type_id":"4","last_reported":1746976152,"current_range_meters":30400,"station_id":"ce4bhph2rcd13ifvqheg","pricing_plan_id":"cebpf4jnsgd1na2vs0mg"},{"bike_id":"79b37858-3701-4b30-be99-6c54b0ba5b61","system_id":"levelo_inurba_marseille","lat":43.21756,"lon":5.346,"is_reserved":false,"is_disabled":false,"rental_uris":{"android":"levelo://app?vid=79b37858-3701-4b30-be99-6c54b0ba5b61","ios":"levelo://app?vid=79b37858-3701-4b30-be99-6c54b0ba5b61"},"vehicle_type_id":"4","last_reported":1746976152,"current_range_meters":30400,"station_id":"st_cvj6r9ubvosntc0bgbag","pricing_plan_id":"cebpf4jnsgd1na2vs0mg"},{"bike_id":"13d77f3d-f020-4614-aee1-521de4a808d7","system_id":"levelo_inurba_marseille","lat":43.29426,"lon":5.38622,"is_reserved":false,"is_disabled":false,"rental_uris":{"android":"levelo://app?vid=13d77f3d-f020-4614-aee1-521de4a808d7","ios":"levelo://app?vid=13d77f3d-f020-4614-aee1-521de4a808d7"},"vehicle_type_id":"4","last_reported":1746976152,"current_range_meters":30800,"station_id":"ce4bh2h2rcd13ifvqdh0","pricing_plan_id":"cebpf4jnsgd1na2vs0mg"},{"bike_id":"8ca7f4be-37fb-47ec-8f0d-00dcb483855b","system_id":"levelo_inurba_marseille","lat":43.28264,"lon":5.4242,"is_reserved":false,"is_disabled":false,"rental_uris":{"android":"levelo://app?vid=8ca7f4be-37fb-47ec-8f0d-00dcb483855b","ios":"levelo://app?vid=8ca7f4be-37fb-47ec-8f0d-00dcb483855b"},"vehicle_type_id":"4","last_reported":1746976152,"current_range_meters":31200,"station_id":"","pricing_plan_id":"cebpf4jnsgd1na2vs0mg"},{"bike_id":"8fa83690-deec-4394-9340-3f864974e22c","system_id":"levelo_inurba_marseille","lat":43.29007,"lon":5.35608,"is_reserved":false,"is_disabled":false,"rental_uris":{"android":"levelo://app?vid=8fa83690-deec-4394-9340-3f864974e22c","ios":"levelo://app?vid=8fa83690-deec-4394-9340-3f864974e22c"},"vehicle_type_id":"4","last_reported":1746976152,"current_range_meters":31200,"station_id":"ce4bhb92rcd13ifvqen0","pricing_plan_id":"cebpf4jnsgd1na2vs0mg"},{"bike_id":"49f81408-2818-4801-be40-a2021e895112","system_id":"levelo_inurba_marseille","lat":43.28278,"lon":5.35069,"is_reserved":false,"is_disabled":false,"rental_uris":{"android":"levelo://app?vid=49f81408-2818-4801-be40-a2021e895112","ios":"levelo://app?vid=49f81408-2818-4801-be40-a2021e895112"},"vehicle_type_id":"4","last_reported":1746976152,"current_range_meters":31200,"station_id":"ce4bhbp2rcd13ifvqerg","pricing_plan_id":"cebpf4jnsgd1na2vs0mg"},{"bike_id":"cdc62916-98c5-4459-a4cd-4b71ee75b9fc","system_id":"levelo_inurba_marseille","lat":43.26024,"lon":5.4174,"is_reserved":false,"is_disabled":false,"rental_uris":{"android":"levelo://app?vid=cdc62916-98c5-4459-a4cd-4b71ee75b9fc","ios":"levelo://app?vid=cdc62916-98c5-4459-a4cd-4b71ee75b9fc"},"vehicle_type_id":"4","last_reported":1746976152,"current_range_meters":32000,"station_id":"","pricing_plan_id":"cebpf4jnsgd1na2vs0mg"},{"bike_id":"a18801bd-0c78-4650-a613-22adc3dc2a02","system_id":"levelo_inurba_marseille","lat":43.2861,"lon":5.35105,"is_reserved":false,"is_disabled":false,"rental_uris":{"android":"levelo://app?vid=a18801bd-0c78-4650-a613-22adc3dc2a02","ios":"levelo://app?vid=a18801bd-0c78-4650-a613-22adc3dc2a02"},"vehicle_type_id":"4","last_reported":1746976152,"current_range_meters":32000,"station_id":"ce4bhch2rcd13ifvqeug","pricing_plan_id":"cebpf4jnsgd1na2vs0mg"},{"bike_id":"97cccee9-2ed0-47e7-ba8f-0d972fbd4ce3","system_id":"levelo_inurba_marseille","lat":43.25722,"lon":5.41114,"is_reserved":false,"is_disabled":false,"rental_uris":{"android":"levelo://app?vid=97cccee9-2ed0-47e7-ba8f-0d972fbd4ce3","ios":"levelo://app?vid=97cccee9-2ed0-47e7-ba8f-0d972fbd4ce3"},"vehicle_type_id":"4","last_reported":1746976152,"current_range_meters":32000,"station_id":"ce4bhkp2rcd13ifvqgd0","pricing_plan_id":"cebpf4jnsgd1na2vs0mg"},{"bike_id":"751ff362-88bf-4779-82a9-82138f4d48c2","system_id":"levelo_inurba_marseille","lat":43.27619,"lon":5.36117,"is_reserved":false,"is_disabled":false,"rental_uris":{"android":"levelo://app?vid=751ff362-88bf-4779-82a9-82138f4d48c2","ios":"levelo://app?vid=751ff362-88bf-4779-82a9-82138f4d48c2"},"vehicle_type_id":"4","last_reported":1746976152,"current_range_meters":32400,"station_id":"ce4bgj92rcd13ifvqbe0","pricing_plan_id":"cebpf4jnsgd1na2vs0mg"},{"bike_id":"7745e058-1a8f-4094-b174-9001912aa0e3","system_id":"levelo_inurba_marseille","lat":43.303329,"lon":5.404378,"is_reserved":false,"is_disabled":false,"rental_uris":{"android":"levelo://app?vid=7745e058-1a8f-4094-b174-9001912aa0e3","ios":"levelo://app?vid=7745e058-1a8f-4094-b174-9001912aa0e3"},"vehicle_type_id":"4","last_reported":1746976152,"current_range_meters":32400,"station_id":"ce4bh012rcd13ifvqd10","pricing_plan_id":"cebpf4jnsgd1na2vs0mg"},{"bike_id":"e7405290-a42f-4d0f-b65b-e0bc0e5567a5","system_id":"levelo_inurba_marseille","lat":43.21753,"lon":5.346,"is_reserved":false,"is_disabled":false,"rental_uris":{"android":"levelo://app?vid=e7405290-a42f-4d0f-b65b-e0bc0e5567a5","ios":"levelo://app?vid=e7405290-a42f-4d0f-b65b-e0bc0e5567a5"},"vehicle_type_id":"4","last_reported":1746976152,"current_range_meters":32400,"station_id":"st_cvj6r9ubvosntc0bgbag","pricing_plan_id":"cebpf4jnsgd1na2vs0mg"},{"bike_id":"b2b1ccaa-e148-499f-a485-6acdc7325d76","system_id":"levelo_inurba_marseille","lat":43.30945,"lon":5.39045,"is_reserved":false,"is_disabled":false,"rental_uris":{"android":"levelo://app?vid=b2b1ccaa-e148-499f-a485-6acdc7325d76","ios":"levelo://app?vid=b2b1ccaa-e148-499f-a485-6acdc7325d76"},"vehicle_type_id":"4","last_reported":1746976152,"current_range_meters":32800,"station_id":"ce4bgup2rcd13ifvqco0","pricing_plan_id":"cebpf4jnsgd1na2vs0mg"},{"bike_id":"ff599201-e18d-4bb9-962d-afb9eb996916","system_id":"levelo_inurba_marseille","lat":43.29032,"lon":5.38657,"is_reserved":false,"is_disabled":false,"rental_uris":{"android":"levelo://app?vid=ff599201-e18d-4bb9-962d-afb9eb996916","ios":"levelo://app?vid=ff599201-e18d-4bb9-962d-afb9eb996916"},"vehicle_type_id":"4","last_reported":1746976152,"current_range_meters":32800,"station_id":"ce4bh4p2rcd13ifvqe0g","pricing_plan_id":"cebpf4jnsgd1na2vs0mg"},{"bike_id":"a1132df7-36aa-49b1-9d5c-66ebc2c32f6f","system_id":"levelo_inurba_marseille","lat":43.31721,"lon":5.43678,"is_reserved":false,"is_disabled":false,"rental_uris":{"android":"levelo://app?vid=a1132df7-36aa-49b1-9d5c-66ebc2c32f6f","ios":"levelo://app?vid=a1132df7-36aa-49b1-9d5c-66ebc2c32f6f"},"vehicle_type_id":"4","last_reported":1746976152,"current_range_meters":32800,"station_id":"ce4bhp92rcd13ifvqhcg","pricing_plan_id":"cebpf4jnsgd1na2vs0mg"},{"bike_id":"979a50f6-5672-49d7-a531-9a5fff007c2e","system_id":"levelo_inurba_marseille","lat":43.32654,"lon":5.40995,"is_reserved":false,"is_disabled":false,"rental_uris":{"android":"levelo://app?vid=979a50f6-5672-49d7-a531-9a5fff007c2e","ios":"levelo://app?vid=979a50f6-5672-49d7-a531-9a5fff007c2e"},"vehicle_type_id":"4","last_reported":1746976152,"current_range_meters":32800,"station_id":"ce4bhpp2rcd13ifvqhgg","pricing_plan_id":"cebpf4jnsgd1na2vs0mg"},{"bike_id":"9bab3335-b94e-4440-8517-6d191e301ffb","system_id":"levelo_inurba_marseille","lat":43.31762,"lon":5.3902,"is_reserved":false,"is_disabled":false,"rental_uris":{"android":"levelo://app?vid=9bab3335-b94e-4440-8517-6d191e301ffb","ios":"levelo://app?vid=9bab3335-b94e-4440-8517-6d191e301ffb"},"vehicle_type_id":"4","last_reported":1746976152,"current_range_meters":32800,"station_id":"ce4bhqp2rcd13ifvqhng","pricing_plan_id":"cebpf4jnsgd1na2vs0mg"},{"bike_id":"f64a83ec-2629-4a50-830a-0eec5af6a0b0","system_id":"levelo_inurba_marseille","lat":43.24034,"lon":5.39581,"is_reserved":false,"is_disabled":false,"rental_uris":{"android":"levelo://app?vid=f64a83ec-2629-4a50-830a-0eec5af6a0b0","ios":"levelo://app?vid=f64a83ec-2629-4a50-830a-0eec5af6a0b0"},"vehicle_type_id":"4","last_reported":1746976152,"current_range_meters":33200,"station_id":"","pricing_plan_id":"cebpf4jnsgd1na2vs0mg"},{"bike_id":"5c046693-3fbd-4755-81fd-1c6b34ebf07b","system_id":"levelo_inurba_marseille","lat":43.337605,"lon":5.374426,"is_reserved":false,"is_disabled":false,"rental_uris":{"android":"levelo://app?vid=5c046693-3fbd-4755-81fd-1c6b34ebf07b","ios":"levelo://app?vid=5c046693-3fbd-4755-81fd-1c6b34ebf07b"},"vehicle_type_id":"4","last_reported":1746976152,"current_range_meters":33200,"station_id":"","pricing_plan_id":"cebpf4jnsgd1na2vs0mg"},{"bike_id":"c76d723c-f216-4468-9eba-dc9a0d8f3aee","system_id":"levelo_inurba_marseille","lat":43.29259,"lon":5.37623,"is_reserved":false,"is_disabled":false,"rental_uris":{"android":"levelo://app?vid=c76d723c-f216-4468-9eba-dc9a0d8f3aee","ios":"levelo://app?vid=c76d723c-f216-4468-9eba-dc9a0d8f3aee"},"vehicle_type_id":"4","last_reported":1746976152,"current_range_meters":33200,"station_id":"ce4bgi12rcd13ifvqb80","pricing_plan_id":"cebpf4jnsgd1na2vs0mg"},{"bike_id":"e81d1cd3-3b99-411f-82a7-0a9a8bcc5836","system_id":"levelo_inurba_marseille","lat":43.29185,"lon":5.35807,"is_reserved":false,"is_disabled":false,"rental_uris":{"android":"levelo://app?vid=e81d1cd3-3b99-411f-82a7-0a9a8bcc5836","ios":"levelo://app?vid=e81d1cd3-3b99-411f-82a7-0a9a8bcc5836"},"vehicle_type_id":"4","last_reported":1746976152,"current_range_meters":33200,"station_id":"ce4bhb12rcd13ifvqel0","pricing_plan_id":"cebpf4jnsgd1na2vs0mg"},{"bike_id":"6b6609e1-9469-4179-ac61-230d93248b54","system_id":"levelo_inurba_marseille","lat":43.29008,"lon":5.35608,"is_reserved":false,"is_disabled":false,"rental_uris":{"android":"levelo://app?vid=6b6609e1-9469-4179-ac61-230d93248b54","ios":"levelo://app?vid=6b6609e1-9469-4179-ac61-230d93248b54"},"vehicle_type_id":"4","last_reported":1746976152,"current_range_meters":33200,"station_id":"ce4bhb92rcd13ifvqen0","pricing_plan_id":"cebpf4jnsgd1na2vs0mg"},{"bike_id":"420234fa-53a2-4e3b-b91d-49f6e9a9abba","system_id":"levelo_inurba_marseille","lat":43.27209,"lon":5.3918,"is_reserved":false,"is_disabled":false,"rental_uris":{"android":"levelo://app?vid=420234fa-53a2-4e3b-b91d-49f6e9a9abba","ios":"levelo://app?vid=420234fa-53a2-4e3b-b91d-49f6e9a9abba"},"vehicle_type_id":"4","last_reported":1746976152,"current_range_meters":33600,"station_id":"ce4bhhp2rcd13ifvqfm0","pricing_plan_id":"cebpf4jnsgd1na2vs0mg"},{"bike_id":"a826ed0f-f3cf-4bc3-851b-f11ea46b4f18","system_id":"levelo_inurba_marseille","lat":43.21751,"lon":5.34613,"is_reserved":false,"is_disabled":false,"rental_uris":{"android":"levelo://app?vid=a826ed0f-f3cf-4bc3-851b-f11ea46b4f18","ios":"levelo://app?vid=a826ed0f-f3cf-4bc3-851b-f11ea46b4f18"},"vehicle_type_id":"4","last_reported":1746976152,"current_range_meters":33600,"station_id":"st_cvj6r9ubvosntc0bgbag","pricing_plan_id":"cebpf4jnsgd1na2vs0mg"},{"bike_id":"7f11480a-3659-4fdb-b780-a4e058b0c4cb","system_id":"levelo_inurba_marseille","lat":43.21757,"lon":5.34608,"is_reserved":false,"is_disabled":false,"rental_uris":{"android":"levelo://app?vid=7f11480a-3659-4fdb-b780-a4e058b0c4cb","ios":"levelo://app?vid=7f11480a-3659-4fdb-b780-a4e058b0c4cb"},"vehicle_type_id":"4","last_reported":1746976152,"current_range_meters":33600,"station_id":"st_cvj6r9ubvosntc0bgbag","pricing_plan_id":"cebpf4jnsgd1na2vs0mg"},{"bike_id":"5289200b-0e37-4948-bd03-d15635eb08e8","system_id":"levelo_inurba_marseille","lat":43.27919,"lon":5.39578,"is_reserved":false,"is_disabled":false,"rental_uris":{"android":"levelo://app?vid=5289200b-0e37-4948-bd03-d15635eb08e8","ios":"levelo://app?vid=5289200b-0e37-4948-bd03-d15635eb08e8"},"vehicle_type_id":"4","last_reported":1746976152,"current_range_meters":34000,"station_id":"ce4bhf92rcd13ifvqf40","pricing_plan_id":"cebpf4jnsgd1na2vs0mg"},{"bike_id":"eb6f098f-d816-43bb-975e-b3b170ce1ddf","system_id":"levelo_inurba_marseille","lat":43.28079,"lon":5.39666,"is_reserved":false,"is_disabled":false,"rental_uris":{"android":"levelo://app?vid=eb6f098f-d816-43bb-975e-b3b170ce1ddf","ios":"levelo://app?vid=eb6f098f-d816-43bb-975e-b3b170ce1ddf"},"vehicle_type_id":"4","last_reported":1746976152,"current_range_meters":34800,"station_id":"ce4bho12rcd13ifvqh2g","pricing_plan_id":"cebpf4jnsgd1na2vs0mg"},{"bike_id":"10b9a039-dd7e-4a20-9e80-3ea6aa75ce6b","system_id":"levelo_inurba_marseille","lat":43.3172,"lon":5.42417,"is_reserved":false,"is_disabled":false,"rental_uris":{"android":"levelo://app?vid=10b9a039-dd7e-4a20-9e80-3ea6aa75ce6b","ios":"levelo://app?vid=10b9a039-dd7e-4a20-9e80-3ea6aa75ce6b"},"vehicle_type_id":"4","last_reported":1746976152,"current_range_meters":34800,"station_id":"ce4bhp92rcd13ifvqhbg","pricing_plan_id":"cebpf4jnsgd1na2vs0mg"},{"bike_id":"36277d4e-75ae-42ac-8663-2764cfc04117","system_id":"levelo_inurba_marseille","lat":43.270658,"lon":5.422712,"is_reserved":false,"is_disabled":false,"rental_uris":{"android":"levelo://app?vid=36277d4e-75ae-42ac-8663-2764cfc04117","ios":"levelo://app?vid=36277d4e-75ae-42ac-8663-2764cfc04117"},"vehicle_type_id":"4","last_reported":1746976152,"current_range_meters":35200,"station_id":"ce4bhk92rcd13ifvqgb0","pricing_plan_id":"cebpf4jnsgd1na2vs0mg"},{"bike_id":"0f7324d5-be48-4484-95dd-ad0a0c58767c","system_id":"levelo_inurba_marseille","lat":43.25147,"lon":5.40427,"is_reserved":false,"is_disabled":false,"rental_uris":{"android":"levelo://app?vid=0f7324d5-be48-4484-95dd-ad0a0c58767c","ios":"levelo://app?vid=0f7324d5-be48-4484-95dd-ad0a0c58767c"},"vehicle_type_id":"4","last_reported":1746976152,"current_range_meters":35200,"station_id":"ce4bhlh2rcd13ifvqgig","pricing_plan_id":"cebpf4jnsgd1na2vs0mg"},{"bike_id":"92fd979a-bdb1-43d4-8141-996e09eaf8b4","system_id":"levelo_inurba_marseille","lat":43.28076,"lon":5.39649,"is_reserved":false,"is_disabled":false,"rental_uris":{"android":"levelo://app?vid=92fd979a-bdb1-43d4-8141-996e09eaf8b4","ios":"levelo://app?vid=92fd979a-bdb1-43d4-8141-996e09eaf8b4"},"vehicle_type_id":"4","last_reported":1746976152,"current_range_meters":35200,"station_id":"ce4bho12rcd13ifvqh2g","pricing_plan_id":"cebpf4jnsgd1na2vs0mg"},{"bike_id":"b7311931-b9e8-4040-951c-8d8e886a703f","system_id":"levelo_inurba_marseille","lat":43.30933,"lon":5.4016,"is_reserved":false,"is_disabled":false,"rental_uris":{"android":"levelo://app?vid=b7311931-b9e8-4040-951c-8d8e886a703f","ios":"levelo://app?vid=b7311931-b9e8-4040-951c-8d8e886a703f"},"vehicle_type_id":"4","last_reported":1746976152,"current_range_meters":35600,"station_id":"ce4bgvp2rcd13ifvqct0","pricing_plan_id":"cebpf4jnsgd1na2vs0mg"},{"bike_id":"3b51664b-b449-4e02-970f-8bcc5e78d1c4","system_id":"levelo_inurba_marseille","lat":43.28267,"lon":5.35063,"is_reserved":false,"is_disabled":false,"rental_uris":{"android":"levelo://app?vid=3b51664b-b449-4e02-970f-8bcc5e78d1c4","ios":"levelo://app?vid=3b51664b-b449-4e02-970f-8bcc5e78d1c4"},"vehicle_type_id":"4","last_reported":1746976152,"current_range_meters":35600,"station_id":"ce4bhbp2rcd13ifvqerg","pricing_plan_id":"cebpf4jnsgd1na2vs0mg"},{"bike_id":"c3f15224-8b8d-41bd-8363-a0cec148b048","system_id":"levelo_inurba_marseille","lat":43.23958,"lon":5.36652,"is_reserved":false,"is_disabled":false,"rental_uris":{"android":"levelo://app?vid=c3f15224-8b8d-41bd-8363-a0cec148b048","ios":"levelo://app?vid=c3f15224-8b8d-41bd-8363-a0cec148b048"},"vehicle_type_id":"4","last_reported":1746976152,"current_range_meters":35600,"station_id":"ce4bhi12rcd13ifvqfp0","pricing_plan_id":"cebpf4jnsgd1na2vs0mg"},{"bike_id":"760e6e61-479b-4d7f-bdb6-66eaf909b131","system_id":"levelo_inurba_marseille","lat":43.231608,"lon":5.436989,"is_reserved":false,"is_disabled":false,"rental_uris":{"android":"levelo://app?vid=760e6e61-479b-4d7f-bdb6-66eaf909b131","ios":"levelo://app?vid=760e6e61-479b-4d7f-bdb6-66eaf909b131"},"vehicle_type_id":"4","last_reported":1746976152,"current_range_meters":35600,"station_id":"ce4bhmp2rcd13ifvqgog","pricing_plan_id":"cebpf4jnsgd1na2vs0mg"},{"bike_id":"f424c763-26f1-44b3-839a-83c3d3d6807e","system_id":"levelo_inurba_marseille","lat":43.23163,"lon":5.43724,"is_reserved":false,"is_disabled":false,"rental_uris":{"android":"levelo://app?vid=f424c763-26f1-44b3-839a-83c3d3d6807e","ios":"levelo://app?vid=f424c763-26f1-44b3-839a-83c3d3d6807e"},"vehicle_type_id":"4","last_reported":1746976152,"current_range_meters":35600,"station_id":"ce4bhmp2rcd13ifvqgog","pricing_plan_id":"cebpf4jnsgd1na2vs0mg"},{"bike_id":"bda22fcb-e06b-4c25-9638-145d5822e971","system_id":"levelo_inurba_marseille","lat":43.30954,"lon":5.39041,"is_reserved":false,"is_disabled":false,"rental_uris":{"android":"levelo://app?vid=bda22fcb-e06b-4c25-9638-145d5822e971","ios":"levelo://app?vid=bda22fcb-e06b-4c25-9638-145d5822e971"},"vehicle_type_id":"4","last_reported":1746976152,"current_range_meters":36000,"station_id":"ce4bgup2rcd13ifvqco0","pricing_plan_id":"cebpf4jnsgd1na2vs0mg"},{"bike_id":"3905613d-0b84-4761-bc74-7f8506614d1d","system_id":"levelo_inurba_marseille","lat":43.25496,"lon":5.37646,"is_reserved":false,"is_disabled":false,"rental_uris":{"android":"levelo://app?vid=3905613d-0b84-4761-bc74-7f8506614d1d","ios":"levelo://app?vid=3905613d-0b84-4761-bc74-7f8506614d1d"},"vehicle_type_id":"4","last_reported":1746976152,"current_range_meters":36000,"station_id":"ce4bhh12rcd13ifvqff0","pricing_plan_id":"cebpf4jnsgd1na2vs0mg"},{"bike_id":"642a095d-5e8c-4fa3-8aa8-3bfb07486142","system_id":"levelo_inurba_marseille","lat":43.24384,"lon":5.37049,"is_reserved":false,"is_disabled":false,"rental_uris":{"android":"levelo://app?vid=642a095d-5e8c-4fa3-8aa8-3bfb07486142","ios":"levelo://app?vid=642a095d-5e8c-4fa3-8aa8-3bfb07486142"},"vehicle_type_id":"4","last_reported":1746976152,"current_range_meters":36000,"station_id":"ce4bhhh2rcd13ifvqfk0","pricing_plan_id":"cebpf4jnsgd1na2vs0mg"},{"bike_id":"d0d6f5b2-b6ca-49ab-90fa-58899583eb7a","system_id":"levelo_inurba_marseille","lat":43.281596,"lon":5.426471,"is_reserved":false,"is_disabled":false,"rental_uris":{"android":"levelo://app?vid=d0d6f5b2-b6ca-49ab-90fa-58899583eb7a","ios":"levelo://app?vid=d0d6f5b2-b6ca-49ab-90fa-58899583eb7a"},"vehicle_type_id":"4","last_reported":1746976152,"current_range_meters":36000,"station_id":"ce4bhnh2rcd13ifvqgug","pricing_plan_id":"cebpf4jnsgd1na2vs0mg"},{"bike_id":"65a6d55d-273f-4118-ab8c-2383f2d4bee3","system_id":"levelo_inurba_marseille","lat":43.31707,"lon":5.43707,"is_reserved":false,"is_disabled":false,"rental_uris":{"android":"levelo://app?vid=65a6d55d-273f-4118-ab8c-2383f2d4bee3","ios":"levelo://app?vid=65a6d55d-273f-4118-ab8c-2383f2d4bee3"},"vehicle_type_id":"4","last_reported":1746976152,"current_range_meters":36000,"station_id":"ce4bhp92rcd13ifvqhcg","pricing_plan_id":"cebpf4jnsgd1na2vs0mg"},{"bike_id":"a52974aa-e3ee-4017-bef0-bcbd7ff9546e","system_id":"levelo_inurba_marseille","lat":43.27941,"lon":5.41129,"is_reserved":false,"is_disabled":false,"rental_uris":{"android":"levelo://app?vid=a52974aa-e3ee-4017-bef0-bcbd7ff9546e","ios":"levelo://app?vid=a52974aa-e3ee-4017-bef0-bcbd7ff9546e"},"vehicle_type_id":"4","last_reported":1746976152,"current_range_meters":36400,"station_id":"","pricing_plan_id":"cebpf4jnsgd1na2vs0mg"},{"bike_id":"4e07389a-847d-49ff-997b-03a9e5ef4ab0","system_id":"levelo_inurba_marseille","lat":43.29623,"lon":5.37167,"is_reserved":false,"is_disabled":false,"rental_uris":{"android":"levelo://app?vid=4e07389a-847d-49ff-997b-03a9e5ef4ab0","ios":"levelo://app?vid=4e07389a-847d-49ff-997b-03a9e5ef4ab0"},"vehicle_type_id":"4","last_reported":1746976152,"current_range_meters":36400,"station_id":"ce4bgnh2rcd13ifvqc0g","pricing_plan_id":"cebpf4jnsgd1na2vs0mg"},