{"last_updated":1746040086,"ttl":60,"version":"2.2","data":{"bikes":[{"bike_id":"70b164e7-57bc-4120-88b2-97606f51642c","system_id":"levelo_inurba_marseille","lat":43.246466,"lon":5.38892,"is_reserved":false,"is_disabled":false,"rental_uris":{"android":"levelo://app?vid=70b164e7-57bc-4120-88b2-97606f51642c","ios":"levelo://app?vid=70b164e7-57bc-4120-88b2-97606f51642c"},"vehicle_type_id":"4","last_reported":1746040087,"current_range_meters":2000,"station_id":"ce4bhg12rcd13ifvqf60","pricing_plan_id":"cebpf4jnsgd1na2vs0mg"},{"bike_id":"f1e3c12a-02a3-4893-b9e1-1aacd74f3f49","system_id":"levelo_inurba_marseille","lat":43.32097,"lon":5.36782,"is_reserved":false,"is_disabled":true,"rental_uris":{"android":"levelo://app?vid=f1e3c12a-02a3-4893-b9e1-1aacd74f3f49","ios":"levelo://app?vid=f1e3c12a-02a3-4893-b9e1-1aacd74f3f49"},"vehicle_type_id":"4","last_reported":1746040087,"current_range_meters":2800,"station_id":"ce4bhrh2rcd13ifvqhug","pricing_plan_id":"cebpf4jnsgd1na2vs0mg"},{"bike_id":"ff5e65f6-5df8-4506-ad88-2ad7ed26bbc2","system_id":"levelo_inurba_marseille","lat":43.27493,"lon":5.42454,"is_reserved":false,"is_disabled":false,"rental_uris":{"android":"levelo://app?vid=ff5e65f6-5df8-4506-ad88-2ad7ed26bbc2","ios":"levelo://app?vid=ff5e65f6-5df8-4506-ad88-2ad7ed26bbc2"},"vehicle_type_id":"4","last_reported":1746040087,"current_range_meters":2800,"station_id":"ce4bhn92rcd13ifvqgrg","pricing_plan_id":"cebpf4jnsgd1na2vs0mg"},{"bike_id":"f04fff36-259a-416e-b8d5-18fab3e9a8cd","system_id":"levelo_inurba_marseille","lat":43.29851,"lon":5.36283,"is_reserved":false,"is_disabled":false,"rental_uris":{"android":"levelo://app?vid=f04fff36-259a-416e-b8d5-18fab3e9a8cd","ios":"levelo://app?vid=f04fff36-259a-416e-b8d5-18fab3e9a8cd"},"vehicle_type_id":"4","last_reported":1746040087,"current_range_meters":5600,"station_id":"ce4bgpp2rcd13ifvqc3g","pricing_plan_id":"cebpf4jnsgd1na2vs0mg"},{"bike_id":"84df109b-4601-4a38-87ad-aa8561f43823","system_id":"levelo_inurba_marseille","lat":43.301453,"lon":5.388587,"is_reserved":false,"is_disabled":false,"rental_uris":{"android":"levelo://app?vid=84df109b-4601-4a38-87ad-aa8561f43823","ios":"levelo://app?vid=84df109b-4601-4a38-87ad-aa8561f43823"},"vehicle_type_id":"4","last_reported":1746040087,"current_range_meters":2800,"station_id":"ce4bghh2rcd13ifvqb60","pricing_plan_id":"cebpf4jnsgd1na2vs0mg"},{"bike_id":"e5b4b90d-e268-4de2-98f4-f6d0513f8801","system_id":"levelo_inurba_marseille","lat":43.26544,"lon":5.42216,"is_reserved":false,"is_disabled":false,"rental_uris":{"android":"levelo://app?vid=e5b4b90d-e268-4de2-98f4-f6d0513f8801","ios":"levelo://app?vid=e5b4b90d-e268-4de2-98f4-f6d0513f8801"},"vehicle_type_id":"4","last_reported":1746040087,"current_range_meters":2800,"station_id":"","pricing_plan_id":"cebpf4jnsgd1na2vs0mg"},{"bike_id":"bbb6bdab-2298-485e-ad1d-70b080ed2910","system_id":"levelo_inurba_marseille","lat":43.29416,"lon":5.38621,"is_reserved":false,"is_disabled":false,"rental_uris":{"android":"levelo://app?vid=bbb6bdab-2298-485e-ad1d-70b080ed2910","ios":"levelo://app?vid=bbb6bdab-2298-485e-ad1d-70b080ed2910"},"vehicle_type_id":"4","last_reported":1746040087,"current_range_meters":3200,"station_id":"ce4bh2h2rcd13ifvqdh0","pricing_plan_id":"cebpf4jnsgd1na2vs0mg"},{"bike_id":"c284d4bd-71b3-4053-9894-a61cb5b8d786","system_id":"levelo_inurba_marseille","lat":43.31372,"lon":5.36719,"is_reserved":false,"is_disabled":false,"rental_uris":{"android":"levelo://app?vid=c284d4bd-71b3-4053-9894-a61cb5b8d786","ios":"levelo://app?vid=c284d4bd-71b3-4053-9894-a61cb5b8d786"},"vehicle_type_id":"4","last_reported":1746040087,"current_range_meters":3200,"station_id":"ce4bgr92rcd13ifvqc6g","pricing_plan_id":"cebpf4jnsgd1na2vs0mg"},{"bike_id":"e534a27b-a821-445d-9560-36a3ccce8184","system_id":"levelo_inurba_marseille","lat":43.3081,"lon":5.3815,"is_reserved":false,"is_disabled":false,"rental_uris":{"android":"levelo://app?vid=e534a27b-a821-445d-9560-36a3ccce8184","ios":"levelo://app?vid=e534a27b-a821-445d-9560-36a3ccce8184"},"vehicle_type_id":"4","last_reported":1746040087,"current_range_meters":1200,"station_id":"ce4bgt12rcd13ifvqce0","pricing_plan_id":"cebpf4jnsgd1na2vs0mg"},{"bike_id":"5cbcb178-3b47-449c-a305-4c1565d8ed79","system_id":"levelo_inurba_marseille","lat":43.2942,"lon":5.38619,"is_reserved":false,"is_disabled":false,"rental_uris":{"android":"levelo://app?vid=5cbcb178-3b47-449c-a305-4c1565d8ed79","ios":"levelo://app?vid=5cbcb178-3b47-449c-a305-4c1565d8ed79"},"vehicle_type_id":"4","last_reported":1746040087,"current_range_meters":3200,"station_id":"ce4bh2h2rcd13ifvqdh0","pricing_plan_id":"cebpf4jnsgd1na2vs0mg"},{"bike_id":"2c6255ff-eda1-4e3b-a811-5265580347d3","system_id":"levelo_inurba_marseille","lat":43.3059,"lon":5.37242,"is_reserved":false,"is_disabled":false,"rental_uris":{"android":"levelo://app?vid=2c6255ff-eda1-4e3b-a811-5265580347d3","ios":"levelo://app?vid=2c6255ff-eda1-4e3b-a811-5265580347d3"},"vehicle_type_id":"4","last_reported":1746040087,"current_range_meters":3200,"station_id":"ce4bgqh2rcd13ifvqc4g","pricing_plan_id":"cebpf4jnsgd1na2vs0mg"},{"bike_id":"7003e1d5-1463-4fa2-b5ec-2ff4ec6f5e3f","system_id":"levelo_inurba_marseille","lat":43.31382,"lon":5.3669,"is_reserved":false,"is_disabled":true,"rental_uris":{"android":"levelo://app?vid=7003e1d5-1463-4fa2-b5ec-2ff4ec6f5e3f","ios":"levelo://app?vid=7003e1d5-1463-4fa2-b5ec-2ff4ec6f5e3f"},"vehicle_type_id":"4","last_reported":1746040087,"current_range_meters":3200,"station_id":"ce4bgr92rcd13ifvqc6g","pricing_plan_id":"cebpf4jnsgd1na2vs0mg"},{"bike_id":"d54c2c60-2c62-4af8-ba1b-6099be56c76e","system_id":"levelo_inurba_marseille","lat":43.29667,"lon":5.373,"is_reserved":false,"is_disabled":false,"rental_uris":{"android":"levelo://app?vid=d54c2c60-2c62-4af8-ba1b-6099be56c76e","ios":"levelo://app?vid=d54c2c60-2c62-4af8-ba1b-6099be56c76e"},"vehicle_type_id":"4","last_reported":1746040087,"current_range_meters":3600,"station_id":"ce4bgk12rcd13ifvqbj0","pricing_plan_id":"cebpf4jnsgd1na2vs0mg"},{"bike_id":"f53a9378-491d-4a72-8b0c-6d479fa74a17","system_id":"levelo_inurba_marseille","lat":43.2927,"lon":5.38435,"is_reserved":false,"is_disabled":false,"rental_uris":{"android":"levelo://app?vid=f53a9378-491d-4a72-8b0c-6d479fa74a17","ios":"levelo://app?vid=f53a9378-491d-4a72-8b0c-6d479fa74a17"},"vehicle_type_id":"4","last_reported":1746040087,"current_range_meters":3600,"station_id":"ce4bh692rcd13ifvqea0","pricing_plan_id":"cebpf4jnsgd1na2vs0mg"},{"bike_id":"1783241f-f84b-4e11-98c5-9cb33e70427e","system_id":"levelo_inurba_marseille","lat":43.28937,"lon":5.36633,"is_reserved":false,"is_disabled":false,"rental_uris":{"android":"levelo://app?vid=1783241f-f84b-4e11-98c5-9cb33e70427e","ios":"levelo://app?vid=1783241f-f84b-4e11-98c5-9cb33e70427e"},"vehicle_type_id":"4","last_reported":1746040087,"current_range_meters":3600,"station_id":"ce4bhap2rcd13ifvqek0","pricing_plan_id":"cebpf4jnsgd1na2vs0mg"},{"bike_id":"6e3aa9c1-9faa-4b69-87be-cba092072f96","system_id":"levelo_inurba_marseille","lat":43.28041,"lon":5.36938,"is_reserved":false,"is_disabled":false,"rental_uris":{"android":"levelo://app?vid=6e3aa9c1-9faa-4b69-87be-cba092072f96","ios":"levelo://app?vid=6e3aa9c1-9faa-4b69-87be-cba092072f96"},"vehicle_type_id":"4","last_reported":1746040087,"current_range_meters":3600,"station_id":"ce4bha12rcd13ifvqef0","pricing_plan_id":"cebpf4jnsgd1na2vs0mg"},{"bike_id":"7edb3a6e-6020-4047-859f-4c81ec458d86","system_id":"levelo_inurba_marseille","lat":43.330137,"lon":5.390268,"is_reserved":false,"is_disabled":false,"rental_uris":{"android":"levelo://app?vid=7edb3a6e-6020-4047-859f-4c81ec458d86","ios":"levelo://app?vid=7edb3a6e-6020-4047-859f-4c81ec458d86"},"vehicle_type_id":"4","last_reported":1746040087,"current_range_meters":4000,"station_id":"ce4bhr92rcd13ifvqhrg","pricing_plan_id":"cebpf4jnsgd1na2vs0mg"},{"bike_id":"41b50bfa-1d6e-4dfb-a999-90e298d81efb","system_id":"levelo_inurba_marseille","lat":43.32367,"lon":5.38886,"is_reserved":false,"is_disabled":false,"rental_uris":{"android":"levelo://app?vid=41b50bfa-1d6e-4dfb-a999-90e298d81efb","ios":"levelo://app?vid=41b50bfa-1d6e-4dfb-a999-90e298d81efb"},"vehicle_type_id":"4","last_reported":1746040087,"current_range_meters":4000,"station_id":"ce4bhqp2rcd13ifvqhog","pricing_plan_id":"cebpf4jnsgd1na2vs0mg"},{"bike_id":"bbd2c16f-e9d7-4104-a3ca-04e45cffbb51","system_id":"levelo_inurba_marseille","lat":43.29737,"lon":5.38114,"is_reserved":false,"is_disabled":false,"rental_uris":{"android":"levelo://app?vid=bbd2c16f-e9d7-4104-a3ca-04e45cffbb51","ios":"levelo://app?vid=bbd2c16f-e9d7-4104-a3ca-04e45cffbb51"},"vehicle_type_id":"4","last_reported":1746040087,"current_range_meters":4000,"station_id":"","pricing_plan_id":"cebpf4jnsgd1na2vs0mg"},{"bike_id":"c3ccb954-ced3-4163-9867-7cfff0ce2aa6","system_id":"levelo_inurba_marseille","lat":43.31477,"lon":5.37213,"is_reserved":false,"is_disabled":false,"rental_uris":{"android":"levelo://app?vid=c3ccb954-ced3-4163-9867-7cfff0ce2aa6","ios":"levelo://app?vid=c3ccb954-ced3-4163-9867-7cfff0ce2aa6"},"vehicle_type_id":"4","last_reported":1746040087,"current_range_meters":4400,"station_id":"","pricing_plan_id":"cebpf4jnsgd1na2vs0mg"},{"bike_id":"9fe40b0e-45c9-4bc1-84ed-3abc9a43cb1b","system_id":"levelo_inurba_marseille","lat":43.27072,"lon":5.42278,"is_reserved":false,"is_disabled":false,"rental_uris":{"android":"levelo://app?vid=9fe40b0e-45c9-4bc1-84ed-3abc9a43cb1b","ios":"levelo://app?vid=9fe40b0e-45c9-4bc1-84ed-3abc9a43cb1b"},"vehicle_type_id":"4","last_reported":1746040087,"current_range_meters":4000,"station_id":"ce4bhk92rcd13ifvqgb0","pricing_plan_id":"cebpf4jnsgd1na2vs0mg"},{"bike_id":"18f85f3e-d187-4724-bcac-7774bf71a783","system_id":"levelo_inurba_marseille","lat":43.224991,"lon":5.348042,"is_reserved":false,"is_disabled":false,"rental_uris":{"android":"levelo://app?vid=18f85f3e-d187-4724-bcac-7774bf71a783","ios":"levelo://app?vid=18f85f3e-d187-4724-bcac-7774bf71a783"},"vehicle_type_id":"4","last_reported":1746040087,"current_range_meters":4400,"station_id":"","pricing_plan_id":"cebpf4jnsgd1na2vs0mg"},{"bike_id":"06bb3fbc-1701-4a06-9cc8-e6b4858e3eeb","system_id":"levelo_inurba_marseille","lat":43.29558,"lon":5.36505,"is_reserved":false,"is_disabled":false,"rental_uris":{"android":"levelo://app?vid=06bb3fbc-1701-4a06-9cc8-e6b4858e3eeb","ios":"levelo://app?vid=06bb3fbc-1701-4a06-9cc8-e6b4858e3eeb"},"vehicle_type_id":"4","last_reported":1746040087,"current_range_meters":4400,"station_id":"","pricing_plan_id":"cebpf4jnsgd1na2vs0mg"},{"bike_id":"c32999f7-99fb-48c0-86f8-ee7dc8794fd1","system_id":"levelo_inurba_marseille","lat":43.2928,"lon":5.36835,"is_reserved":false,"is_disabled":false,"rental_uris":{"android":"levelo://app?vid=c32999f7-99fb-48c0-86f8-ee7dc8794fd1","ios":"levelo://app?vid=c32999f7-99fb-48c0-86f8-ee7dc8794fd1"},"vehicle_type_id":"4","last_reported":1746040087,"current_range_meters":4400,"station_id":"ce4bhbp2rcd13ifvqesg","pricing_plan_id":"cebpf4jnsgd1na2vs0mg"},{"bike_id":"3188dfe6-844c-4009-80df-323ec3cbeae7","system_id":"levelo_inurba_marseille","lat":43.24069,"lon":5.37766,"is_reserved":false,"is_disabled":false,"rental_uris":{"android":"levelo://app?vid=3188dfe6-844c-4009-80df-323ec3cbeae7","ios":"levelo://app?vid=3188dfe6-844c-4009-80df-323ec3cbeae7"},"vehicle_type_id":"4","last_reported":1746040087,"current_range_meters":4800,"station_id":"ce4bhnp2rcd13ifvqgvg","pricing_plan_id":"cebpf4jnsgd1na2vs0mg"},{"bike_id":"1530d8a3-b5b2-4193-8362-712b0e312949","system_id":"levelo_inurba_marseille","lat":43.289307,"lon":5.366507,"is_reserved":false,"is_disabled":false,"rental_uris":{"android":"levelo://app?vid=1530d8a3-b5b2-4193-8362-712b0e312949","ios":"levelo://app?vid=1530d8a3-b5b2-4193-8362-712b0e312949"},"vehicle_type_id":"4","last_reported":1746040087,"current_range_meters":1600,"station_id":"ce4bhap2rcd13ifvqek0","pricing_plan_id":"cebpf4jnsgd1na2vs0mg"},{"bike_id":"c2ea4c72-a21d-4adb-98fe-3a5c682f271e","system_id":"levelo_inurba_marseille","lat":43.29424,"lon":5.38629,"is_reserved":false,"is_disabled":false,"rental_uris":{"android":"levelo://app?vid=c2ea4c72-a21d-4adb-98fe-3a5c682f271e","ios":"levelo://app?vid=c2ea4c72-a21d-4adb-98fe-3a5c682f271e"},"vehicle_type_id":"4","last_reported":1746040087,"current_range_meters":4800,"station_id":"ce4bh2h2rcd13ifvqdh0","pricing_plan_id":"cebpf4jnsgd1na2vs0mg"},{"bike_id":"46d00d8e-21e5-4eca-8cf8-920d89619e54","system_id":"levelo_inurba_marseille","lat":43.28725,"lon":5.37944,"is_reserved":false,"is_disabled":false,"rental_uris":{"android":"levelo://app?vid=46d00d8e-21e5-4eca-8cf8-920d89619e54","ios":"levelo://app?vid=46d00d8e-21e5-4eca-8cf8-920d89619e54"},"vehicle_type_id":"4","last_reported":1746040087,"current_range_meters":4800,"station_id":"ce4bh9p2rcd13ifvqec0","pricing_plan_id":"cebpf4jnsgd1na2vs0mg"},{"bike_id":"43010541-798b-409c-8f36-dcdb3024e9bb","system_id":"levelo_inurba_marseille","lat":43.2928,"lon":5.36844,"is_reserved":false,"is_disabled":false,"rental_uris":{"android":"levelo://app?vid=43010541-798b-409c-8f36-dcdb3024e9bb","ios":"levelo://app?vid=43010541-798b-409c-8f36-dcdb3024e9bb"},"vehicle_type_id":"4","last_reported":1746040087,"current_range_meters":4800,"station_id":"ce4bhbp2rcd13ifvqesg","pricing_plan_id":"cebpf4jnsgd1na2vs0mg"},{"bike_id":"c703b46c-eef3-4d35-aa8a-aac7e002fde5","system_id":"levelo_inurba_marseille","lat":43.30904,"lon":5.38996,"is_reserved":false,"is_disabled":false,"rental_uris":{"android":"levelo://app?vid=c703b46c-eef3-4d35-aa8a-aac7e002fde5","ios":"levelo://app?vid=c703b46c-eef3-4d35-aa8a-aac7e002fde5"},"vehicle_type_id":"4","last_reported":1746040087,"current_range_meters":5600,"station_id":"","pricing_plan_id":"cebpf4jnsgd1na2vs0mg"},{"bike_id":"589cf191-8424-4d63-a69e-bcae8aeae07a","system_id":"levelo_inurba_marseille","lat":43.28953,"lon":5.36663,"is_reserved":false,"is_disabled":false,"rental_uris":{"android":"levelo://app?vid=589cf191-8424-4d63-a69e-bcae8aeae07a","ios":"levelo://app?vid=589cf191-8424-4d63-a69e-bcae8aeae07a"},"vehicle_type_id":"4","last_reported":1746040087,"current_range_meters":5600,"station_id":"ce4bhap2rcd13ifvqek0","pricing_plan_id":"cebpf4jnsgd1na2vs0mg"},{"bike_id":"e0f32920-3e54-4b8b-b2ee-9220bc3b4c32","system_id":"levelo_inurba_marseille","lat":43.30411,"lon":5.41276,"is_reserved":false,"is_disabled":false,"rental_uris":{"android":"levelo://app?vid=e0f32920-3e54-4b8b-b2ee-9220bc3b4c32","ios":"levelo://app?vid=e0f32920-3e54-4b8b-b2ee-9220bc3b4c32"},"vehicle_type_id":"4","last_reported":1746040087,"current_range_meters":5600,"station_id":"ce4bhop2rcd13ifvqh8g","pricing_plan_id":"cebpf4jnsgd1na2vs0mg"},{"bike_id":"4dc86b2e-cdf1-41ff-8f9f-73435539c2d8","system_id":"levelo_inurba_marseille","lat":43.28725,"lon":5.37939,"is_reserved":false,"is_disabled":false,"rental_uris":{"android":"levelo://app?vid=4dc86b2e-cdf1-41ff-8f9f-73435539c2d8","ios":"levelo://app?vid=4dc86b2e-cdf1-41ff-8f9f-73435539c2d8"},"vehicle_type_id":"4","last_reported":1746040087,"current_range_meters":4800,"station_id":"ce4bh9p2rcd13ifvqec0","pricing_plan_id":"cebpf4jnsgd1na2vs0mg"},{"bike_id":"6071bdfb-d58d-49d5-89aa-208736511290","system_id":"levelo_inurba_marseille","lat":43.27561,"lon":5.38422,"is_reserved":false,"is_disabled":false,"rental_uris":{"android":"levelo://app?vid=6071bdfb-d58d-49d5-89aa-208736511290","ios":"levelo://app?vid=6071bdfb-d58d-49d5-89aa-208736511290"},"vehicle_type_id":"4","last_reported":1746040087,"current_range_meters":5600,"station_id":"ce4bhh92rcd13ifvqfi0","pricing_plan_id":"cebpf4jnsgd1na2vs0mg"},{"bike_id":"107cbbe2-ad2c-429d-93e1-a21003853943","system_id":"levelo_inurba_marseille","lat":43.28461,"lon":5.35878,"is_reserved":false,"is_disabled":false,"rental_uris":{"android":"levelo://app?vid=107cbbe2-ad2c-429d-93e1-a21003853943","ios":"levelo://app?vid=107cbbe2-ad2c-429d-93e1-a21003853943"},"vehicle_type_id":"4","last_reported":1746040087,"current_range_meters":6000,"station_id":"ce4bhah2rcd13ifvqei0","pricing_plan_id":"cebpf4jnsgd1na2vs0mg"},{"bike_id":"e4a05ee7-66be-4a1a-b5e6-c48cca251b9f","system_id":"levelo_inurba_marseille","lat":43.303136,"lon":5.402561,"is_reserved":false,"is_disabled":false,"rental_uris":{"android":"levelo://app?vid=e4a05ee7-66be-4a1a-b5e6-c48cca251b9f","ios":"levelo://app?vid=e4a05ee7-66be-4a1a-b5e6-c48cca251b9f"},"vehicle_type_id":"4","last_reported":1746040087,"current_range_meters":6000,"station_id":"ce4bh012rcd13ifvqd10","pricing_plan_id":"cebpf4jnsgd1na2vs0mg"},{"bike_id":"c66f5d5a-318d-4260-9a3a-55cb80cdd4f0","system_id":"levelo_inurba_marseille","lat":43.32292,"lon":5.382692,"is_reserved":false,"is_disabled":false,"rental_uris":{"android":"levelo://app?vid=c66f5d5a-318d-4260-9a3a-55cb80cdd4f0","ios":"levelo://app?vid=c66f5d5a-318d-4260-9a3a-55cb80cdd4f0"},"vehicle_type_id":"4","last_reported":1746040087,"current_range_meters":5600,"station_id":"ce4bhr12rcd13ifvqhqg","pricing_plan_id":"cebpf4jnsgd1na2vs0mg"},{"bike_id":"b2b04c2c-6be3-4e22-b3c3-a5d5ade44980","system_id":"levelo_inurba_marseille","lat":43.31711,"lon":5.37739,"is_reserved":false,"is_disabled":false,"rental_uris":{"android":"levelo://app?vid=b2b04c2c-6be3-4e22-b3c3-a5d5ade44980","ios":"levelo://app?vid=b2b04c2c-6be3-4e22-b3c3-a5d5ade44980"},"vehicle_type_id":"4","last_reported":1746040087,"current_range_meters":5600,"station_id":"ce4bgth2rcd13ifvqch0","pricing_plan_id":"cebpf4jnsgd1na2vs0mg"},{"bike_id":"98e08e22-a286-4549-b258-9ff20af3bf3f","system_id":"levelo_inurba_marseille","lat":43.28943,"lon":5.36391,"is_reserved":false,"is_disabled":false,"rental_uris":{"android":"levelo://app?vid=98e08e22-a286-4549-b258-9ff20af3bf3f","ios":"levelo://app?vid=98e08e22-a286-4549-b258-9ff20af3bf3f"},"vehicle_type_id":"4","last_reported":1746040087,"current_range_meters":5600,"station_id":"ce4bhc92rcd13ifvqetg","pricing_plan_id":"cebpf4jnsgd1na2vs0mg"},{"bike_id":"3ed24400-88bb-4e69-b453-f9da60e74980","system_id":"levelo_inurba_marseille","lat":43.30466,"lon":5.37888,"is_reserved":false,"is_disabled":false,"rental_uris":{"android":"levelo://app?vid=3ed24400-88bb-4e69-b453-f9da60e74980","ios":"levelo://app?vid=3ed24400-88bb-4e69-b453-f9da60e74980"},"vehicle_type_id":"4","last_reported":1746040087,"current_range_meters":6000,"station_id":"ce4bgup2rcd13ifvqcn0","pricing_plan_id":"cebpf4jnsgd1na2vs0mg"},{"bike_id":"9ba091c4-0aff-4821-978f-51e71b9b036e","system_id":"levelo_inurba_marseille","lat":43.32852,"lon":5.35932,"is_reserved":false,"is_disabled":false,"rental_uris":{"android":"levelo://app?vid=9ba091c4-0aff-4821-978f-51e71b9b036e","ios":"levelo://app?vid=9ba091c4-0aff-4821-978f-51e71b9b036e"},"vehicle_type_id":"4","last_reported":1746040087,"current_range_meters":6400,"station_id":"","pricing_plan_id":"cebpf4jnsgd1na2vs0mg"},{"bike_id":"acc59559-ff59-430d-b247-f85afda6ea75","system_id":"levelo_inurba_marseille","lat":43.24177,"lon":5.36395,"is_reserved":false,"is_disabled":false,"rental_uris":{"android":"levelo://app?vid=acc59559-ff59-430d-b247-f85afda6ea75","ios":"levelo://app?vid=acc59559-ff59-430d-b247-f85afda6ea75"},"vehicle_type_id":"4","last_reported":1746040087,"current_range_meters":6400,"station_id":"cpo36qri1sfpv3e86is0","pricing_plan_id":"cebpf4jnsgd1na2vs0mg"},{"bike_id":"e8dad0a8-2743-46dc-a9e7-8994672459bf","system_id":"levelo_inurba_marseille","lat":43.27617,"lon":5.36104,"is_reserved":false,"is_disabled":false,"rental_uris":{"android":"levelo://app?vid=e8dad0a8-2743-46dc-a9e7-8994672459bf","ios":"levelo://app?vid=e8dad0a8-2743-46dc-a9e7-8994672459bf"},"vehicle_type_id":"4","last_reported":1746040087,"current_range_meters":6400,"station_id":"ce4bgj92rcd13ifvqbe0","pricing_plan_id":"cebpf4jnsgd1na2vs0mg"},{"bike_id":"443f9f0e-ce31-46bf-b6af-c3745f559758","system_id":"levelo_inurba_marseille","lat":43.275558,"lon":5.396042,"is_reserved":false,"is_disabled":false,"rental_uris":{"android":"levelo://app?vid=443f9f0e-ce31-46bf-b6af-c3745f559758","ios":"levelo://app?vid=443f9f0e-ce31-46bf-b6af-c3745f559758"},"vehicle_type_id":"4","last_reported":1746040087,"current_range_meters":6000,"station_id":"ce4bhhp2rcd13ifvqfm0","pricing_plan_id":"cebpf4jnsgd1na2vs0mg"},{"bike_id":"59cc5d78-0bee-4dcb-9656-1f06af24ee00","system_id":"levelo_inurba_marseille","lat":43.28044,"lon":5.36945,"is_reserved":false,"is_disabled":false,"rental_uris":{"android":"levelo://app?vid=59cc5d78-0bee-4dcb-9656-1f06af24ee00","ios":"levelo://app?vid=59cc5d78-0bee-4dcb-9656-1f06af24ee00"},"vehicle_type_id":"4","last_reported":1746040087,"current_range_meters":6400,"station_id":"ce4bha12rcd13ifvqef0","pricing_plan_id":"cebpf4jnsgd1na2vs0mg"},{"bike_id":"75d8ad40-9ecf-4ba0-ac7a-4ad29a37b18b","system_id":"levelo_inurba_marseille","lat":43.279453,"lon":5.410567,"is_reserved":false,"is_disabled":false,"rental_uris":{"android":"levelo://app?vid=75d8ad40-9ecf-4ba0-ac7a-4ad29a37b18b","ios":"levelo://app?vid=75d8ad40-9ecf-4ba0-ac7a-4ad29a37b18b"},"vehicle_type_id":"4","last_reported":1746040087,"current_range_meters":8400,"station_id":"ce4bhnp2rcd13ifvqh0g","pricing_plan_id":"cebpf4jnsgd1na2vs0mg"},{"bike_id":"c01b55e9-3298-4712-919d-fc9233df55c8","system_id":"levelo_inurba_marseille","lat":43.30962,"lon":5.39031,"is_reserved":false,"is_disabled":false,"rental_uris":{"android":"levelo://app?vid=c01b55e9-3298-4712-919d-fc9233df55c8","ios":"levelo://app?vid=c01b55e9-3298-4712-919d-fc9233df55c8"},"vehicle_type_id":"4","last_reported":1746040087,"current_range_meters":6800,"station_id":"ce4bgup2rcd13ifvqco0","pricing_plan_id":"cebpf4jnsgd1na2vs0mg"},{"bike_id":"5925c3ef-c0f9-469f-8b66-334367fe5930","system_id":"levelo_inurba_marseille","lat":43.30809,"lon":5.381385,"is_reserved":false,"is_disabled":false,"rental_uris":{"android":"levelo://app?vid=5925c3ef-c0f9-469f-8b66-334367fe5930","ios":"levelo://app?vid=5925c3ef-c0f9-469f-8b66-334367fe5930"},"vehicle_type_id":"4","last_reported":1746040087,"current_range_meters":6800,"station_id":"ce4bgt12rcd13ifvqce0","pricing_plan_id":"cebpf4jnsgd1na2vs0mg"},{"bike_id":"e06e3ad6-0e5a-49f2-98bb-d0b7ffaaf745","system_id":"levelo_inurba_marseille","lat":43.23386,"lon":5.36104,"is_reserved":false,"is_disabled":false,"rental_uris":{"android":"levelo://app?vid=e06e3ad6-0e5a-49f2-98bb-d0b7ffaaf745","ios":"levelo://app?vid=e06e3ad6-0e5a-49f2-98bb-d0b7ffaaf745"},"vehicle_type_id":"4","last_reported":1746040087,"current_range_meters":6800,"station_id":"","pricing_plan_id":"cebpf4jnsgd1na2vs0mg"},{"bike_id":"27dfc517-7e33-49a5-9159-93656807da6f","system_id":"levelo_inurba_marseille","lat":43.30435,"lon":5.3889,"is_reserved":false,"is_disabled":false,"rental_uris":{"android":"levelo://app?vid=27dfc517-7e33-49a5-9159-93656807da6f","ios":"levelo://app?vid=27dfc517-7e33-49a5-9159-93656807da6f"},"vehicle_type_id":"4","last_reported":1746040087,"current_range_meters":7200,"station_id":"ce4bgk12rcd13ifvqbi0","pricing_plan_id":"cebpf4jnsgd1na2vs0mg"},{"bike_id":"94ea22f8-487d-4eb2-b899-3e213f2ea5db","system_id":"levelo_inurba_marseille","lat":43.30893,"lon":5.39658,"is_reserved":false,"is_disabled":false,"rental_uris":{"android":"levelo://app?vid=94ea22f8-487d-4eb2-b899-3e213f2ea5db","ios":"levelo://app?vid=94ea22f8-487d-4eb2-b899-3e213f2ea5db"},"vehicle_type_id":"4","last_reported":1746040087,"current_range_meters":7200,"station_id":"ce4bh012rcd13ifvqcv0","pricing_plan_id":"cebpf4jnsgd1na2vs0mg"},{"bike_id":"2d0fea3e-041c-4d20-aeb7-63739e3d5c27","system_id":"levelo_inurba_marseille","lat":43.30605,"lon":5.36602,"is_reserved":false,"is_disabled":false,"rental_uris":{"android":"levelo://app?vid=2d0fea3e-041c-4d20-aeb7-63739e3d5c27","ios":"levelo://app?vid=2d0fea3e-041c-4d20-aeb7-63739e3d5c27"},"vehicle_type_id":"4","last_reported":1746040087,"current_range_meters":6800,"station_id":"","pricing_plan_id":"cebpf4jnsgd1na2vs0mg"},{"bike_id":"305aaecf-eb32-42bd-917c-af78bc9b312f","system_id":"levelo_inurba_marseille","lat":43.30653,"lon":5.401,"is_reserved":false,"is_disabled":false,"rental_uris":{"android":"levelo://app?vid=305aaecf-eb32-42bd-917c-af78bc9b312f","ios":"levelo://app?vid=305aaecf-eb32-42bd-917c-af78bc9b312f"},"vehicle_type_id":"4","last_reported":1746040087,"current_range_meters":7200,"station_id":"ce4bh112rcd13ifvqda0","pricing_plan_id":"cebpf4jnsgd1na2vs0mg"},{"bike_id":"96d8fc32-b347-4dde-8532-70e7917ccde6","system_id":"levelo_inurba_marseille","lat":43.30579,"lon":5.37172,"is_reserved":false,"is_disabled":true,"rental_uris":{"android":"levelo://app?vid=96d8fc32-b347-4dde-8532-70e7917ccde6","ios":"levelo://app?vid=96d8fc32-b347-4dde-8532-70e7917ccde6"},"vehicle_type_id":"4","last_reported":1746040087,"current_range_meters":7200,"station_id":"ce4bgqh2rcd13ifvqc4g","pricing_plan_id":"cebpf4jnsgd1na2vs0mg"},{"bike_id":"63156f2f-1462-4295-8e3e-3ed50af52518","system_id":"levelo_inurba_marseille","lat":43.30942,"lon":5.40146,"is_reserved":false,"is_disabled":false,"rental_uris":{"android":"levelo://app?vid=63156f2f-1462-4295-8e3e-3ed50af52518","ios":"levelo://app?vid=63156f2f-1462-4295-8e3e-3ed50af52518"},"vehicle_type_id":"4","last_reported":1746040087,"current_range_meters":8000,"station_id":"ce4bgvp2rcd13ifvqct0","pricing_plan_id":"cebpf4jnsgd1na2vs0mg"},{"bike_id":"b1ce454c-2b59-4cc8-b49a-8d2ee4ef364b","system_id":"levelo_inurba_marseille","lat":43.24165,"lon":5.36391,"is_reserved":false,"is_disabled":false,"rental_uris":{"android":"levelo://app?vid=b1ce454c-2b59-4cc8-b49a-8d2ee4ef364b","ios":"levelo://app?vid=b1ce454c-2b59-4cc8-b49a-8d2ee4ef364b"},"vehicle_type_id":"4","last_reported":1746040087,"current_range_meters":8000,"station_id":"cpo36qri1sfpv3e86is0","pricing_plan_id":"cebpf4jnsgd1na2vs0mg"},{"bike_id":"a9ece402-f2ae-4ec7-994d-2c51d3132e4b","system_id":"levelo_inurba_marseille","lat":43.24546,"lon":5.39521,"is_reserved":false,"is_disabled":false,"rental_uris":{"android":"levelo://app?vid=a9ece402-f2ae-4ec7-994d-2c51d3132e4b","ios":"levelo://app?vid=a9ece402-f2ae-4ec7-994d-2c51d3132e4b"},"vehicle_type_id":"4","last_reported":1746040087,"current_range_meters":8000,"station_id":"ce4bhlp2rcd13ifvqgjg","pricing_plan_id":"cebpf4jnsgd1na2vs0mg"},{"bike_id":"14238d43-165d-4b23-a62b-d6bfee2e2420","system_id":"levelo_inurba_marseille","lat":43.29528,"lon":5.38549,"is_reserved":false,"is_disabled":false,"rental_uris":{"android":"levelo://app?vid=14238d43-165d-4b23-a62b-d6bfee2e2420","ios":"levelo://app?vid=14238d43-165d-4b23-a62b-d6bfee2e2420"},"vehicle_type_id":"4","last_reported":1746040087,"current_range_meters":8000,"station_id":"ce4bgih2rcd13ifvqba0","pricing_plan_id":"cebpf4jnsgd1na2vs0mg"},{"bike_id":"cb1beb45-f5d1-415f-ae0d-d1e624219c50","system_id":"levelo_inurba_marseille","lat":43.24137,"lon":5.36405,"is_reserved":false,"is_disabled":false,"rental_uris":{"android":"levelo://app?vid=cb1beb45-f5d1-415f-ae0d-d1e624219c50","ios":"levelo://app?vid=cb1beb45-f5d1-415f-ae0d-d1e624219c50"},"vehicle_type_id":"4","last_reported":1746040087,"current_range_meters":8000,"station_id":"cpo36qri1sfpv3e86is0","pricing_plan_id":"cebpf4jnsgd1na2vs0mg"},{"bike_id":"e4301e40-ada2-4ed1-8bd2-1b0c03220b1d","system_id":"levelo_inurba_marseille","lat":43.26797,"lon":5.40257,"is_reserved":false,"is_disabled":false,"rental_uris":{"android":"levelo://app?vid=e4301e40-ada2-4ed1-8bd2-1b0c03220b1d","ios":"levelo://app?vid=e4301e40-ada2-4ed1-8bd2-1b0c03220b1d"},"vehicle_type_id":"4","last_reported":1746040087,"current_range_meters":8000,"station_id":"ce501612rcd8frsf0b60","pricing_plan_id":"cebpf4jnsgd1na2vs0mg"},{"bike_id":"05701cf0-8237-4298-a48f-9e9405c8247f","system_id":"levelo_inurba_marseille","lat":43.31032,"lon":5.37102,"is_reserved":false,"is_disabled":false,"rental_uris":{"android":"levelo://app?vid=05701cf0-8237-4298-a48f-9e9405c8247f","ios":"levelo://app?vid=05701cf0-8237-4298-a48f-9e9405c8247f"},"vehicle_type_id":"4","last_reported":1746040087,"current_range_meters":8000,"station_id":"","pricing_plan_id":"cebpf4jnsgd1na2vs0mg"},{"bike_id":"f4c67659-ff16-4a3e-97c3-856e13896b29","system_id":"levelo_inurba_marseille","lat":43.23174,"lon":5.39981,"is_reserved":false,"is_disabled":false,"rental_uris":{"android":"levelo://app?vid=f4c67659-ff16-4a3e-97c3-856e13896b29","ios":"levelo://app?vid=f4c67659-ff16-4a3e-97c3-856e13896b29"},"vehicle_type_id":"4","last_reported":1746040087,"current_range_meters":8000,"station_id":"ce4bhn12rcd13ifvqgqg","pricing_plan_id":"cebpf4jnsgd1na2vs0mg"},{"bike_id":"3ab91bea-8232-4a1d-82a5-adda3221f7c1","system_id":"levelo_inurba_marseille","lat":43.29266,"lon":5.38439,"is_reserved":false,"is_disabled":false,"rental_uris":{"android":"levelo://app?vid=3ab91bea-8232-4a1d-82a5-adda3221f7c1","ios":"levelo://app?vid=3ab91bea-8232-4a1d-82a5-adda3221f7c1"},"vehicle_type_id":"4","last_reported":1746040087,"current_range_meters":8000,"station_id":"ce4bh692rcd13ifvqea0","pricing_plan_id":"cebpf4jnsgd1na2vs0mg"},{"bike_id":"9ba92351-7742-4adf-bb4f-6d4734504130","system_id":"levelo_inurba_marseille","lat":43.30301,"lon":5.39211,"is_reserved":false,"is_disabled":false,"rental_uris":{"android":"levelo://app?vid=9ba92351-7742-4adf-bb4f-6d4734504130","ios":"levelo://app?vid=9ba92351-7742-4adf-bb4f-6d4734504130"},"vehicle_type_id":"4","last_reported":1746040087,"current_range_meters":8000,"station_id":"ce4bgkh2rcd13ifvqbk0","pricing_plan_id":"cebpf4jnsgd1na2vs0mg"},{"bike_id":"ad1048d1-a995-48e0-9657-16d3b65f371b","system_id":"levelo_inurba_marseille","lat":43.28073,"lon":5.39644,"is_reserved":false,"is_disabled":false,"rental_uris":{"android":"levelo://app?vid=ad1048d1-a995-48e0-9657-16d3b65f371b","ios":"levelo://app?vid=ad1048d1-a995-48e0-9657-16d3b65f371b"},"vehicle_type_id":"4","last_reported":1746040087,"current_range_meters":8000,"station_id":"ce4bho12rcd13ifvqh2g","pricing_plan_id":"cebpf4jnsgd1na2vs0mg"},{"bike_id":"38888685-ecee-457f-b7f2-6a456f769de8","system_id":"levelo_inurba_marseille","lat":43.32364,"lon":5.38881,"is_reserved":false,"is_disabled":false,"rental_uris":{"android":"levelo://app?vid=38888685-ecee-457f-b7f2-6a456f769de8","ios":"levelo://app?vid=38888685-ecee-457f-b7f2-6a456f769de8"},"vehicle_type_id":"4","last_reported":1746040087,"current_range_meters":8400,"station_id":"ce4bhqp2rcd13ifvqhog","pricing_plan_id":"cebpf4jnsgd1na2vs0mg"},{"bike_id":"6514463e-0024-441e-b85f-1609edaef144","system_id":"levelo_inurba_marseille","lat":43.28929,"lon":5.36634,"is_reserved":false,"is_disabled":false,"rental_uris":{"android":"levelo://app?vid=6514463e-0024-441e-b85f-1609edaef144","ios":"levelo://app?vid=6514463e-0024-441e-b85f-1609edaef144"},"vehicle_type_id":"4","last_reported":1746040087,"current_range_meters":8400,"station_id":"ce4bhap2rcd13ifvqek0","pricing_plan_id":"cebpf4jnsgd1na2vs0mg"},{"bike_id":"2806b558-e7ec-472b-9609-45e5c29e99f3","system_id":"levelo_inurba_marseille","lat":43.28759,"lon":5.37701,"is_reserved":false,"is_disabled":false,"rental_uris":{"android":"levelo://app?vid=2806b558-e7ec-472b-9609-45e5c29e99f3","ios":"levelo://app?vid=2806b558-e7ec-472b-9609-45e5c29e99f3"},"vehicle_type_id":"4","last_reported":1746040087,"current_range_meters":8400,"station_id":"","pricing_plan_id":"cebpf4jnsgd1na2vs0mg"},{"bike_id":"7e80ab83-af3a-429f-b9ed-aec6081758cb","system_id":"levelo_inurba_marseille","lat":43.24992,"lon":5.38938,"is_reserved":false,"is_disabled":false,"rental_uris":{"android":"levelo://app?vid=7e80ab83-af3a-429f-b9ed-aec6081758cb","ios":"levelo://app?vid=7e80ab83-af3a-429f-b9ed-aec6081758cb"},"vehicle_type_id":"4","last_reported":1746040087,"current_range_meters":8400,"station_id":"ce4bhgp2rcd13ifvqfd0","pricing_plan_id":"cebpf4jnsgd1na2vs0mg"},{"bike_id":"af45928f-99f5-4c10-8488-a1690bf972d2","system_id":"levelo_inurba_marseille","lat":43.294402,"lon":5.397662,"is_reserved":false,"is_disabled":true,"rental_uris":{"android":"levelo://app?vid=af45928f-99f5-4c10-8488-a1690bf972d2","ios":"levelo://app?vid=af45928f-99f5-4c10-8488-a1690bf972d2"},"vehicle_type_id":"4","last_reported":1746040087,"current_range_meters":8400,"station_id":"ce4bh3h2rcd13ifvqdo0","pricing_plan_id":"cebpf4jnsgd1na2vs0mg"},{"bike_id":"5e7cbde4-b229-4cb0-89db-d4933ababe95","system_id":"levelo_inurba_marseille","lat":43.28355,"lon":5.38106,"is_reserved":false,"is_disabled":false,"rental_uris":{"android":"levelo://app?vid=5e7cbde4-b229-4cb0-89db-d4933ababe95","ios":"levelo://app?vid=5e7cbde4-b229-4cb0-89db-d4933ababe95"},"vehicle_type_id":"4","last_reported":1746040087,"current_range_meters":8400,"station_id":"ce4bh412rcd13ifvqdr0","pricing_plan_id":"cebpf4jnsgd1na2vs0mg"},{"bike_id":"87990e80-ccd5-4b15-a77c-d7952dda23ed","system_id":"levelo_inurba_marseille","lat":43.28077,"lon":5.39658,"is_reserved":false,"is_disabled":false,"rental_uris":{"android":"levelo://app?vid=87990e80-ccd5-4b15-a77c-d7952dda23ed","ios":"levelo://app?vid=87990e80-ccd5-4b15-a77c-d7952dda23ed"},"vehicle_type_id":"4","last_reported":1746040087,"current_range_meters":8400,"station_id":"ce4bho12rcd13ifvqh2g","pricing_plan_id":"cebpf4jnsgd1na2vs0mg"},{"bike_id":"1fd0960b-3e98-44fb-8c06-f85250b13722","system_id":"levelo_inurba_marseille","lat":43.31214,"lon":5.3684,"is_reserved":false,"is_disabled":false,"rental_uris":{"android":"levelo://app?vid=1fd0960b-3e98-44fb-8c06-f85250b13722","ios":"levelo://app?vid=1fd0960b-3e98-44fb-8c06-f85250b13722"},"vehicle_type_id":"4","last_reported":1746040087,"current_range_meters":8400,"station_id":"ce4bgl92rcd13ifvqbq0","pricing_plan_id":"cebpf4jnsgd1na2vs0mg"},{"bike_id":"cd1721ae-d686-49b9-8a22-3af289f75ec7","system_id":"levelo_inurba_marseille","lat":43.32287,"lon":5.38272,"is_reserved":false,"is_disabled":false,"rental_uris":{"android":"levelo://app?vid=cd1721ae-d686-49b9-8a22-3af289f75ec7","ios":"levelo://app?vid=cd1721ae-d686-49b9-8a22-3af289f75ec7"},"vehicle_type_id":"4","last_reported":1746040087,"current_range_meters":8400,"station_id":"ce4bhr12rcd13ifvqhqg","pricing_plan_id":"cebpf4jnsgd1na2vs0mg"},{"bike_id":"32862e18-72af-4eb0-9665-a79eca1d3b19","system_id":"levelo_inurba_marseille","lat":43.288483,"lon":5.393074,"is_reserved":false,"is_disabled":false,"rental_uris":{"android":"levelo://app?vid=32862e18-72af-4eb0-9665-a79eca1d3b19","ios":"levelo://app?vid=32862e18-72af-4eb0-9665-a79eca1d3b19"},"vehicle_type_id":"4","last_reported":1746040087,"current_range_meters":8000,"station_id":"ce4bh2p2rcd13ifvqdi0","pricing_plan_id":"cebpf4jnsgd1na2vs0mg"},{"bike_id":"bf6b262e-8bf2-41cc-8707-1675cd4d267e","system_id":"levelo_inurba_marseille","lat":43.29589,"lon":5.381085,"is_reserved":false,"is_disabled":false,"rental_uris":{"android":"levelo://app?vid=bf6b262e-8bf2-41cc-8707-1675cd4d267e","ios":"levelo://app?vid=bf6b262e-8bf2-41cc-8707-1675cd4d267e"},"vehicle_type_id":"4","last_reported":1746040087,"current_range_meters":8800,"station_id":"ce4bgl12rcd13ifvqbo0","pricing_plan_id":"cebpf4jnsgd1na2vs0mg"},{"bike_id":"cc4620c7-1a3c-4189-9cc2-0894eae84cff","system_id":"levelo_inurba_marseille","lat":43.309444,"lon":5.390427,"is_reserved":false,"is_disabled":false,"rental_uris":{"android":"levelo://app?vid=cc4620c7-1a3c-4189-9cc2-0894eae84cff","ios":"levelo://app?vid=cc4620c7-1a3c-4189-9cc2-0894eae84cff"},"vehicle_type_id":"4","last_reported":1746040087,"current_range_meters":7200,"station_id":"ce4bgup2rcd13ifvqco0","pricing_plan_id":"cebpf4jnsgd1na2vs0mg"},{"bike_id":"489415b8-9254-45c1-b00c-e7554d56755c","system_id":"levelo_inurba_marseille","lat":43.245232,"lon":5.412158,"is_reserved":false,"is_disabled":false,"rental_uris":{"android":"levelo://app?vid=489415b8-9254-45c1-b00c-e7554d56755c","ios":"levelo://app?vid=489415b8-9254-45c1-b00c-e7554d56755c"},"vehicle_type_id":"4","last_reported":1746040087,"current_range_meters":8800,"station_id":"","pricing_plan_id":"cebpf4jnsgd1na2vs0mg"},{"bike_id":"e74b4c38-64be-4111-b0a0-daa7185e01b4","system_id":"levelo_inurba_marseille","lat":43.32045,"lon":5.41545,"is_reserved":false,"is_disabled":false,"rental_uris":{"android":"levelo://app?vid=e74b4c38-64be-4111-b0a0-daa7185e01b4","ios":"levelo://app?vid=e74b4c38-64be-4111-b0a0-daa7185e01b4"},"vehicle_type_id":"4","last_reported":1746040087,"current_range_meters":8800,"station_id":"ce4bhq92rcd13ifvqhkg","pricing_plan_id":"cebpf4jnsgd1na2vs0mg"},{"bike_id":"b0f25064-e460-4472-8409-913a57846912","system_id":"levelo_inurba_marseille","lat":43.29312,"lon":5.37186,"is_reserved":false,"is_disabled":false,"rental_uris":{"android":"levelo://app?vid=b0f25064-e460-4472-8409-913a57846912","ios":"levelo://app?vid=b0f25064-e460-4472-8409-913a57846912"},"vehicle_type_id":"4","last_reported":1746040087,"current_range_meters":8800,"station_id":"ce4bgh92rcd13ifvqb40","pricing_plan_id":"cebpf4jnsgd1na2vs0mg"},{"bike_id":"4f4c2a09-765c-4134-9f69-7365c2751ea0","system_id":"levelo_inurba_marseille","lat":43.28937,"lon":5.38402,"is_reserved":false,"is_disabled":false,"rental_uris":{"android":"levelo://app?vid=4f4c2a09-765c-4134-9f69-7365c2751ea0","ios":"levelo://app?vid=4f4c2a09-765c-4134-9f69-7365c2751ea0"},"vehicle_type_id":"4","last_reported":1746040087,"current_range_meters":8400,"station_id":"ce4bh612rcd13ifvqe6g","pricing_plan_id":"cebpf4jnsgd1na2vs0mg"},{"bike_id":"ab37347b-7f17-438c-9778-24c6d6ac057a","system_id":"levelo_inurba_marseille","lat":43.29314,"lon":5.37165,"is_reserved":false,"is_disabled":false,"rental_uris":{"android":"levelo://app?vid=ab37347b-7f17-438c-9778-24c6d6ac057a","ios":"levelo://app?vid=ab37347b-7f17-438c-9778-24c6d6ac057a"},"vehicle_type_id":"4","last_reported":1746040087,"current_range_meters":8800,"station_id":"ce4bgh92rcd13ifvqb40","pricing_plan_id":"cebpf4jnsgd1na2vs0mg"},{"bike_id":"08120e16-1470-41bb-bffd-dcb5f9549e27","system_id":"levelo_inurba_marseille","lat":43.29534,"lon":5.38548,"is_reserved":false,"is_disabled":false,"rental_uris":{"android":"levelo://app?vid=08120e16-1470-41bb-bffd-dcb5f9549e27","ios":"levelo://app?vid=08120e16-1470-41bb-bffd-dcb5f9549e27"},"vehicle_type_id":"4","last_reported":1746040087,"current_range_meters":8800,"station_id":"ce4bgih2rcd13ifvqba0","pricing_plan_id":"cebpf4jnsgd1na2vs0mg"},{"bike_id":"1670f1c4-deba-49b0-a6cb-421523805355","system_id":"levelo_inurba_marseille","lat":43.30946,"lon":5.39024,"is_reserved":false,"is_disabled":false,"rental_uris":{"android":"levelo://app?vid=1670f1c4-deba-49b0-a6cb-421523805355","ios":"levelo://app?vid=1670f1c4-deba-49b0-a6cb-421523805355"},"vehicle_type_id":"4","last_reported":1746040087,"current_range_meters":8800,"station_id":"ce4bgup2rcd13ifvqco0","pricing_plan_id":"cebpf4jnsgd1na2vs0mg"},{"bike_id":"07edfd45-c3fa-4b57-b865-cf1bf9963264","system_id":"levelo_inurba_marseille","lat":43.23387,"lon":5.36429,"is_reserved":false,"is_disabled":false,"rental_uris":{"android":"levelo://app?vid=07edfd45-c3fa-4b57-b865-cf1bf9963264","ios":"levelo://app?vid=07edfd45-c3fa-4b57-b865-cf1bf9963264"},"vehicle_type_id":"4","last_reported":1746040087,"current_range_meters":8800,"station_id":"","pricing_plan_id":"cebpf4jnsgd1na2vs0mg"},{"bike_id":"faa884a1-7dc4-4686-8831-840b0e33ac85","system_id":"levelo_inurba_marseille","lat":43.2927,"lon":5.38436,"is_reserved":false,"is_disabled":false,"rental_uris":{"android":"levelo://app?vid=faa884a1-7dc4-4686-8831-840b0e33ac85","ios":"levelo://app?vid=faa884a1-7dc4-4686-8831-840b0e33ac85"},"vehicle_type_id":"4","last_reported":1746040087,"current_range_meters":8800,"station_id":"ce4bh692rcd13ifvqea0","pricing_plan_id":"cebpf4jnsgd1na2vs0mg"},{"bike_id":"f37a7e75-0232-48e5-8b79-c459fa2e9027","system_id":"levelo_inurba_marseille","lat":43.284811,"lon":5.385612,"is_reserved":false,"is_disabled":false,"rental_uris":{"android":"levelo://app?vid=f37a7e75-0232-48e5-8b79-c459fa2e9027","ios":"levelo://app?vid=f37a7e75-0232-48e5-8b79-c459fa2e9027"},"vehicle_type_id":"4","last_reported":1746040087,"current_range_meters":8800,"station_id":"ce4bh8p2rcd13ifvqeb0","pricing_plan_id":"cebpf4jnsgd1na2vs0mg"},{"bike_id":"61efe268-30c8-45ef-9f87-07a058f5e063","system_id":"levelo_inurba_marseille","lat":43.29415,"lon":5.38622,"is_reserved":false,"is_disabled":false,"rental_uris":{"android":"levelo://app?vid=61efe268-30c8-45ef-9f87-07a058f5e063","ios":"levelo://app?vid=61efe268-30c8-45ef-9f87-07a058f5e063"},"vehicle_type_id":"4","last_reported":1746040087,"current_range_meters":9200,"station_id":"ce4bh2h2rcd13ifvqdh0","pricing_plan_id":"cebpf4jnsgd1na2vs0mg"},{"bike_id":"605a12db-4145-42a5-877a-b4a375a7cf38","system_id":"levelo_inurba_marseille","lat":43.31685,"lon":5.40472,"is_reserved":false,"is_disabled":false,"rental_uris":{"android":"levelo://app?vid=605a12db-4145-42a5-877a-b4a375a7cf38","ios":"levelo://app?vid=605a12db-4145-42a5-877a-b4a375a7cf38"},"vehicle_type_id":"4","last_reported":1746040087,"current_range_meters":9200,"station_id":"ce4bh012rcd13ifvqd00","pricing_plan_id":"cebpf4jnsgd1na2vs0mg"},{"bike_id":"563b2231-ea06-4a26-a21b-1b96e2934be6","system_id":"levelo_inurba_marseille","lat":43.284614,"lon":5.384097,"is_reserved":false,"is_disabled":false,"rental_uris":{"android":"levelo://app?vid=563b2231-ea06-4a26-a21b-1b96e2934be6","ios":"levelo://app?vid=563b2231-ea06-4a26-a21b-1b96e2934be6"},"vehicle_type_id":"4","last_reported":1746040087,"current_range_meters":9200,"station_id":"ce4bh512rcd13ifvqe3g","pricing_plan_id":"cebpf4jnsgd1na2vs0mg"},{"bike_id":"8261973d-7fd9-4c15-8fb8-294a251b0456","system_id":"levelo_inurba_marseille","lat":43.29205,"lon":5.39321,"is_reserved":false,"is_disabled":false,"rental_uris":{"android":"levelo://app?vid=8261973d-7fd9-4c15-8fb8-294a251b0456","ios":"levelo://app?vid=8261973d-7fd9-4c15-8fb8-294a251b0456"},"vehicle_type_id":"4","last_reported":1746040087,"current_range_meters":9200,"station_id":"ce4bh192rcd13ifvqdd0","pricing_plan_id":"cebpf4jnsgd1na2vs0mg"},{"bike_id":"71353d50-dbb7-4e8b-9de1-72f459476479","system_id":"levelo_inurba_marseille","lat":43.29711,"lon":5.36601,"is_reserved":false,"is_disabled":false,"rental_uris":{"android":"levelo://app?vid=71353d50-dbb7-4e8b-9de1-72f459476479","ios":"levelo://app?vid=71353d50-dbb7-4e8b-9de1-72f459476479"},"vehicle_type_id":"4","last_reported":1746040087,"current_range_meters":9600,"station_id":"ce4bgn12rcd13ifvqbt0","pricing_plan_id":"cebpf4jnsgd1na2vs0mg"},{"bike_id":"ccbd4b30-e70a-44b0-8f1a-9cb73774be99","system_id":"levelo_inurba_marseille","lat":43.30955,"lon":5.39049,"is_reserved":false,"is_disabled":false,"rental_uris":{"android":"levelo://app?vid=ccbd4b30-e70a-44b0-8f1a-9cb73774be99","ios":"levelo://app?vid=ccbd4b30-e70a-44b0-8f1a-9cb73774be99"},"vehicle_type_id":"4","last_reported":1746040087,"current_range_meters":9600,"station_id":"ce4bgup2rcd13ifvqco0","pricing_plan_id":"cebpf4jnsgd1na2vs0mg"},{"bike_id":"dcb0b990-89f9-495c-a9c1-10b17ae39667","system_id":"levelo_inurba_marseille","lat":43.23456,"lon":5.38061,"is_reserved":false,"is_disabled":false,"rental_uris":{"android":"levelo://app?vid=dcb0b990-89f9-495c-a9c1-10b17ae39667","ios":"levelo://app?vid=dcb0b990-89f9-495c-a9c1-10b17ae39667"},"vehicle_type_id":"4","last_reported":1746040087,"current_range_meters":9600,"station_id":"","pricing_plan_id":"cebpf4jnsgd1na2vs0mg"},{"bike_id":"9040063f-23ef-45c7-a053-425e30b881b1","system_id":"levelo_inurba_marseille","lat":43.26947,"lon":5.402575,"is_reserved":false,"is_disabled":false,"rental_uris":{"android":"levelo://app?vid=9040063f-23ef-45c7-a053-425e30b881b1","ios":"levelo://app?vid=9040063f-23ef-45c7-a053-425e30b881b1"},"vehicle_type_id":"4","last_reported":1746040087,"current_range_meters":9600,"station_id":"cjm6bp8fraef2m0cb0m0","pricing_plan_id":"cebpf4jnsgd1na2vs0mg"},{"bike_id":"6adead2b-0d07-4c6c-97d9-5f4ba9f24dd6","system_id":"levelo_inurba_marseille","lat":43.30326,"lon":5.40436,"is_reserved":false,"is_disabled":false,"rental_uris":{"android":"levelo://app?vid=6adead2b-0d07-4c6c-97d9-5f4ba9f24dd6","ios":"levelo://app?vid=6adead2b-0d07-4c6c-97d9-5f4ba9f24dd6"},"vehicle_type_id":"4","last_reported":1746040087,"current_range_meters":9600,"station_id":"ce4bh012rcd13ifvqd10","pricing_plan_id":"cebpf4jnsgd1na2vs0mg"},{"bike_id":"5e73e357-8da7-48b8-b1e6-8f49ff79529d","system_id":"levelo_inurba_marseille","lat":43.255026,"lon":5.376491,"is_reserved":false,"is_disabled":false,"rental_uris":{"android":"levelo://app?vid=5e73e357-8da7-48b8-b1e6-8f49ff79529d","ios":"levelo://app?vid=5e73e357-8da7-48b8-b1e6-8f49ff79529d"},"vehicle_type_id":"4","last_reported":1746040087,"current_range_meters":9600,"station_id":"ce4bhh12rcd13ifvqff0","pricing_plan_id":"cebpf4jnsgd1na2vs0mg"},{"bike_id":"fa75931c-da24-4b50-a5d8-5144d9cf55b6","system_id":"levelo_inurba_marseille","lat":43.28938,"lon":5.39635,"is_reserved":false,"is_disabled":false,"rental_uris":{"android":"levelo://app?vid=fa75931c-da24-4b50-a5d8-5144d9cf55b6","ios":"levelo://app?vid=fa75931c-da24-4b50-a5d8-5144d9cf55b6"},"vehicle_type_id":"4","last_reported":1746040087,"current_range_meters":10000,"station_id":"ce4bh3h2rcd13ifvqdn0","pricing_plan_id":"cebpf4jnsgd1na2vs0mg"},{"bike_id":"c098d4ed-5e37-4868-ac1f-38c52b80d97f","system_id":"levelo_inurba_marseille","lat":43.28154,"lon":5.42646,"is_reserved":false,"is_disabled":false,"rental_uris":{"android":"levelo://app?vid=c098d4ed-5e37-4868-ac1f-38c52b80d97f","ios":"levelo://app?vid=c098d4ed-5e37-4868-ac1f-38c52b80d97f"},"vehicle_type_id":"4","last_reported":1746040087,"current_range_meters":10000,"station_id":"ce4bhnh2rcd13ifvqgug","pricing_plan_id":"cebpf4jnsgd1na2vs0mg"},{"bike_id":"3618c61c-f16f-482a-8bb6-8bf07f8d5b9f","system_id":"levelo_inurba_marseille","lat":43.29891,"lon":5.38906,"is_reserved":false,"is_disabled":false,"rental_uris":{"android":"levelo://app?vid=3618c61c-f16f-482a-8bb6-8bf07f8d5b9f","ios":"levelo://app?vid=3618c61c-f16f-482a-8bb6-8bf07f8d5b9f"},"vehicle_type_id":"4","last_reported":1746040087,"current_range_meters":12000,"station_id":"ce4bh392rcd13ifvqdl0","pricing_plan_id":"cebpf4jnsgd1na2vs0mg"},{"bike_id":"7f770ba9-2e48-47c9-8bb4-942855273bad","system_id":"levelo_inurba_marseille","lat":43.253468,"lon":5.424196,"is_reserved":false,"is_disabled":false,"rental_uris":{"android":"levelo://app?vid=7f770ba9-2e48-47c9-8bb4-942855273bad","ios":"levelo://app?vid=7f770ba9-2e48-47c9-8bb4-942855273bad"},"vehicle_type_id":"4","last_reported":1746040087,"current_range_meters":10000,"station_id":"","pricing_plan_id":"cebpf4jnsgd1na2vs0mg"},{"bike_id":"cb3b6466-9669-422e-9889-82681153c7a7","system_id":"levelo_inurba_marseille","lat":43.30593,"lon":5.39355,"is_reserved":false,"is_disabled":false,"rental_uris":{"android":"levelo://app?vid=cb3b6466-9669-422e-9889-82681153c7a7","ios":"levelo://app?vid=cb3b6466-9669-422e-9889-82681153c7a7"},"vehicle_type_id":"4","last_reported":1746040087,"current_range_meters":10000,"station_id":"ce4bh0p2rcd13ifvqd80","pricing_plan_id":"cebpf4jnsgd1na2vs0mg"},{"bike_id":"7832f4bd-a49a-4c8c-864f-1340582fdf21","system_id":"levelo_inurba_marseille","lat":43.29594,"lon":5.38092,"is_reserved":false,"is_disabled":false,"rental_uris":{"android":"levelo://app?vid=7832f4bd-a49a-4c8c-864f-1340582fdf21","ios":"levelo://app?vid=7832f4bd-a49a-4c8c-864f-1340582fdf21"},"vehicle_type_id":"4","last_reported":1746040087,"current_range_meters":10800,"station_id":"ce4bgl12rcd13ifvqbo0","pricing_plan_id":"cebpf4jnsgd1na2vs0mg"},{"bike_id":"8665aeb5-8e04-459c-9dbe-32c63e32d570","system_id":"levelo_inurba_marseille","lat":43.29918,"lon":5.37498,"is_reserved":false,"is_disabled":false,"rental_uris":{"android":"levelo://app?vid=8665aeb5-8e04-459c-9dbe-32c63e32d570","ios":"levelo://app?vid=8665aeb5-8e04-459c-9dbe-32c63e32d570"},"vehicle_type_id":"4","last_reported":1746040087,"current_range_meters":10800,"station_id":"ce4bgjh2rcd13ifvqbg0","pricing_plan_id":"cebpf4jnsgd1na2vs0mg"},{"bike_id":"12b76a12-5b07-4773-8bfe-b064d118384f","system_id":"levelo_inurba_marseille","lat":43.30357,"lon":5.41875,"is_reserved":false,"is_disabled":false,"rental_uris":{"android":"levelo://app?vid=12b76a12-5b07-4773-8bfe-b064d118384f","ios":"levelo://app?vid=12b76a12-5b07-4773-8bfe-b064d118384f"},"vehicle_type_id":"4","last_reported":1746040087,"current_range_meters":10000,"station_id":"ce4bhop2rcd13ifvqh7g","pricing_plan_id":"cebpf4jnsgd1na2vs0mg"},{"bike_id":"a858ab10-7a66-4946-99a5-a8b945552178","system_id":"levelo_inurba_marseille","lat":43.29225,"lon":5.36059,"is_reserved":false,"is_disabled":false,"rental_uris":{"android":"levelo://app?vid=a858ab10-7a66-4946-99a5-a8b945552178","ios":"levelo://app?vid=a858ab10-7a66-4946-99a5-a8b945552178"},"vehicle_type_id":"4","last_reported":1746040087,"current_range_meters":11200,"station_id":"ce4bhbh2rcd13ifvqeqg","pricing_plan_id":"cebpf4jnsgd1na2vs0mg"},{"bike_id":"7306dca6-ed10-48d9-b1d9-313989c3d51c","system_id":"levelo_inurba_marseille","lat":43.29027,"lon":5.38658,"is_reserved":false,"is_disabled":false,"rental_uris":{"android":"levelo://app?vid=7306dca6-ed10-48d9-b1d9-313989c3d51c","ios":"levelo://app?vid=7306dca6-ed10-48d9-b1d9-313989c3d51c"},"vehicle_type_id":"4","last_reported":1746040087,"current_range_meters":10800,"station_id":"ce4bh4p2rcd13ifvqe0g","pricing_plan_id":"cebpf4jnsgd1na2vs0mg"},{"bike_id":"5c5aa3a2-c88e-4316-a975-addcd7ae2f25","system_id":"levelo_inurba_marseille","lat":43.33025,"lon":5.39038,"is_reserved":false,"is_disabled":false,"rental_uris":{"android":"levelo://app?vid=5c5aa3a2-c88e-4316-a975-addcd7ae2f25","ios":"levelo://app?vid=5c5aa3a2-c88e-4316-a975-addcd7ae2f25"},"vehicle_type_id":"4","last_reported":1746040087,"current_range_meters":10800,"station_id":"ce4bhr92rcd13ifvqhrg","pricing_plan_id":"cebpf4jnsgd1na2vs0mg"},{"bike_id":"9f533224-cff5-412f-b43a-04aeb5d07632","system_id":"levelo_inurba_marseille","lat":43.292267,"lon":5.360628,"is_reserved":false,"is_disabled":false,"rental_uris":{"android":"levelo://app?vid=9f533224-cff5-412f-b43a-04aeb5d07632","ios":"levelo://app?vid=9f533224-cff5-412f-b43a-04aeb5d07632"},"vehicle_type_id":"4","last_reported":1746040087,"current_range_meters":11200,"station_id":"ce4bhbh2rcd13ifvqeqg","pricing_plan_id":"cebpf4jnsgd1na2vs0mg"},{"bike_id":"0d2c7fcc-7d86-4bed-b6a4-9c0ca9441d91","system_id":"levelo_inurba_marseille","lat":43.29312,"lon":5.37179,"is_reserved":false,"is_disabled":false,"rental_uris":{"android":"levelo://app?vid=0d2c7fcc-7d86-4bed-b6a4-9c0ca9441d91","ios":"levelo://app?vid=0d2c7fcc-7d86-4bed-b6a4-9c0ca9441d91"},"vehicle_type_id":"4","last_reported":1746040087,"current_range_meters":11200,"station_id":"ce4bgh92rcd13ifvqb40","pricing_plan_id":"cebpf4jnsgd1na2vs0mg"},{"bike_id":"09fe5685-4a90-4524-ad38-2cad2d07d524","system_id":"levelo_inurba_marseille","lat":43.27919,"lon":5.39572,"is_reserved":false,"is_disabled":false,"rental_uris":{"android":"levelo://app?vid=09fe5685-4a90-4524-ad38-2cad2d07d524","ios":"levelo://app?vid=09fe5685-4a90-4524-ad38-2cad2d07d524"},"vehicle_type_id":"4","last_reported":1746040087,"current_range_meters":11600,"station_id":"ce4bhf92rcd13ifvqf40","pricing_plan_id":"cebpf4jnsgd1na2vs0mg"},{"bike_id":"a732b3d6-472a-46b2-b5fc-7d86a14ed2fc","system_id":"levelo_inurba_marseille","lat":43.33037,"lon":5.39035,"is_reserved":false,"is_disabled":false,"rental_uris":{"android":"levelo://app?vid=a732b3d6-472a-46b2-b5fc-7d86a14ed2fc","ios":"levelo://app?vid=a732b3d6-472a-46b2-b5fc-7d86a14ed2fc"},"vehicle_type_id":"4","last_reported":1746040087,"current_range_meters":11600,"station_id":"ce4bhr92rcd13ifvqhrg","pricing_plan_id":"cebpf4jnsgd1na2vs0mg"},{"bike_id":"3ca9954e-b989-4ca7-93c5-394d47cadd3f","system_id":"levelo_inurba_marseille","lat":43.29419,"lon":5.38618,"is_reserved":false,"is_disabled":false,"rental_uris":{"android":"levelo://app?vid=3ca9954e-b989-4ca7-93c5-394d47cadd3f","ios":"levelo://app?vid=3ca9954e-b989-4ca7-93c5-394d47cadd3f"},"vehicle_type_id":"4","last_reported":1746040087,"current_range_meters":11600,"station_id":"ce4bh2h2rcd13ifvqdh0","pricing_plan_id":"cebpf4jnsgd1na2vs0mg"},{"bike_id":"1728b196-6430-4af0-b44a-1562b6b1b840","system_id":"levelo_inurba_marseille","lat":43.28352,"lon":5.38104,"is_reserved":false,"is_disabled":false,"rental_uris":{"android":"levelo://app?vid=1728b196-6430-4af0-b44a-1562b6b1b840","ios":"levelo://app?vid=1728b196-6430-4af0-b44a-1562b6b1b840"},"vehicle_type_id":"4","last_reported":1746040087,"current_range_meters":11600,"station_id":"ce4bh412rcd13ifvqdr0","pricing_plan_id":"cebpf4jnsgd1na2vs0mg"},{"bike_id":"7720f8d1-cf18-443f-9f48-5cbb02b13606","system_id":"levelo_inurba_marseille","lat":43.2861,"lon":5.37067,"is_reserved":false,"is_disabled":false,"rental_uris":{"android":"levelo://app?vid=7720f8d1-cf18-443f-9f48-5cbb02b13606","ios":"levelo://app?vid=7720f8d1-cf18-443f-9f48-5cbb02b13606"},"vehicle_type_id":"4","last_reported":1746040087,"current_range_meters":11600,"station_id":"ce4bht12rcd13ifvqi60","pricing_plan_id":"cebpf4jnsgd1na2vs0mg"},{"bike_id":"e5e92a64-e709-4b1a-a9b1-cbffe85789ca","system_id":"levelo_inurba_marseille","lat":43.255541,"lon":5.381313,"is_reserved":false,"is_disabled":false,"rental_uris":{"android":"levelo://app?vid=e5e92a64-e709-4b1a-a9b1-cbffe85789ca","ios":"levelo://app?vid=e5e92a64-e709-4b1a-a9b1-cbffe85789ca"},"vehicle_type_id":"4","last_reported":1746040087,"current_range_meters":11600,"station_id":"","pricing_plan_id":"cebpf4jnsgd1na2vs0mg"},{"bike_id":"6cbb6e0f-ebf2-4fea-933b-4dc331dc9057","system_id":"levelo_inurba_marseille","lat":43.29947,"lon":5.38528,"is_reserved":false,"is_disabled":false,"rental_uris":{"android":"levelo://app?vid=6cbb6e0f-ebf2-4fea-933b-4dc331dc9057","ios":"levelo://app?vid=6cbb6e0f-ebf2-4fea-933b-4dc331dc9057"},"vehicle_type_id":"4","last_reported":1746040087,"current_range_meters":12000,"station_id":"ce4bgj92rcd13ifvqbd0","pricing_plan_id":"cebpf4jnsgd1na2vs0mg"},{"bike_id":"5414e854-9ac3-4a55-8da3-db223aa543ee","system_id":"levelo_inurba_marseille","lat":43.28444,"lon":5.39208,"is_reserved":false,"is_disabled":false,"rental_uris":{"android":"levelo://app?vid=5414e854-9ac3-4a55-8da3-db223aa543ee","ios":"levelo://app?vid=5414e854-9ac3-4a55-8da3-db223aa543ee"},"vehicle_type_id":"4","last_reported":1746040087,"current_range_meters":12000,"station_id":"ce4bhoh2rcd13ifvqh5g","pricing_plan_id":"cebpf4jnsgd1na2vs0mg"},{"bike_id":"fca9dc8b-9c20-4eab-83ff-17d0ce9a6922","system_id":"levelo_inurba_marseille","lat":43.26017,"lon":5.41748,"is_reserved":false,"is_disabled":false,"rental_uris":{"android":"levelo://app?vid=fca9dc8b-9c20-4eab-83ff-17d0ce9a6922","ios":"levelo://app?vid=fca9dc8b-9c20-4eab-83ff-17d0ce9a6922"},"vehicle_type_id":"4","last_reported":1746040087,"current_range_meters":12000,"station_id":"","pricing_plan_id":"cebpf4jnsgd1na2vs0mg"},{"bike_id":"111aebeb-e96f-4056-b795-d4200f8ec3c0","system_id":"levelo_inurba_marseille","lat":43.31489,"lon":5.37297,"is_reserved":false,"is_disabled":false,"rental_uris":{"android":"levelo://app?vid=111aebeb-e96f-4056-b795-d4200f8ec3c0","ios":"levelo://app?vid=111aebeb-e96f-4056-b795-d4200f8ec3c0"},"vehicle_type_id":"4","last_reported":1746040087,"current_range_meters":12000,"station_id":"","pricing_plan_id":"cebpf4jnsgd1na2vs0mg"},{"bike_id":"6e37c4ec-1cd7-4547-8a87-8bb77ec00c90","system_id":"levelo_inurba_marseille","lat":43.27835,"lon":5.39211,"is_reserved":false,"is_disabled":false,"rental_uris":{"android":"levelo://app?vid=6e37c4ec-1cd7-4547-8a87-8bb77ec00c90","ios":"levelo://app?vid=6e37c4ec-1cd7-4547-8a87-8bb77ec00c90"},"vehicle_type_id":"4","last_reported":1746040087,"current_range_meters":12000,"station_id":"ce4bhjp2rcd13ifvqga0","pricing_plan_id":"cebpf4jnsgd1na2vs0mg"},{"bike_id":"fe7f2a8f-cae3-4382-986a-414e9f491769","system_id":"levelo_inurba_marseille","lat":43.2923,"lon":5.36059,"is_reserved":false,"is_disabled":false,"rental_uris":{"android":"levelo://app?vid=fe7f2a8f-cae3-4382-986a-414e9f491769","ios":"levelo://app?vid=fe7f2a8f-cae3-4382-986a-414e9f491769"},"vehicle_type_id":"4","last_reported":1746040087,"current_range_meters":9200,"station_id":"ce4bhbh2rcd13ifvqeqg","pricing_plan_id":"cebpf4jnsgd1na2vs0mg"},{"bike_id":"9bdba5ba-9504-4b11-9cd9-6201f570a053","system_id":"levelo_inurba_marseille","lat":43.29265,"lon":5.38431,"is_reserved":false,"is_disabled":false,"rental_uris":{"android":"levelo://app?vid=9bdba5ba-9504-4b11-9cd9-6201f570a053","ios":"levelo://app?vid=9bdba5ba-9504-4b11-9cd9-6201f570a053"},"vehicle_type_id":"4","last_reported":1746040087,"current_range_meters":12000,"station_id":"ce4bh692rcd13ifvqea0","pricing_plan_id":"cebpf4jnsgd1na2vs0mg"},{"bike_id":"6c9be10a-c832-40c2-95a2-ed10e011f039","system_id":"levelo_inurba_marseille","lat":43.29298,"lon":5.37452,"is_reserved":false,"is_disabled":false,"rental_uris":{"android":"levelo://app?vid=6c9be10a-c832-40c2-95a2-ed10e011f039","ios":"levelo://app?vid=6c9be10a-c832-40c2-95a2-ed10e011f039"},"vehicle_type_id":"4","last_reported":1746040087,"current_range_meters":12000,"station_id":"ce4bgi12rcd13ifvqb70","pricing_plan_id":"cebpf4jnsgd1na2vs0mg"},{"bike_id":"c1cbc237-cfab-474a-aa26-81a87506105a","system_id":"levelo_inurba_marseille","lat":43.2175,"lon":5.34612,"is_reserved":false,"is_disabled":false,"rental_uris":{"android":"levelo://app?vid=c1cbc237-cfab-474a-aa26-81a87506105a","ios":"levelo://app?vid=c1cbc237-cfab-474a-aa26-81a87506105a"},"vehicle_type_id":"4","last_reported":1746040087,"current_range_meters":12000,"station_id":"st_cvj6r9ubvosntc0bgbag","pricing_plan_id":"cebpf4jnsgd1na2vs0mg"},{"bike_id":"0cf0e33a-8dc2-4ac7-b65a-8fe90e9df7cf","system_id":"levelo_inurba_marseille","lat":43.25131,"lon":5.40298,"is_reserved":false,"is_disabled":false,"rental_uris":{"android":"levelo://app?vid=0cf0e33a-8dc2-4ac7-b65a-8fe90e9df7cf","ios":"levelo://app?vid=0cf0e33a-8dc2-4ac7-b65a-8fe90e9df7cf"},"vehicle_type_id":"4","last_reported":1746040087,"current_range_meters":12000,"station_id":"ce4bhlh2rcd13ifvqgig","pricing_plan_id":"cebpf4jnsgd1na2vs0mg"},{"bike_id":"4a555113-7ee1-4ce3-882f-36b2bb11e8c9","system_id":"levelo_inurba_marseille","lat":43.30428,"lon":5.38898,"is_reserved":false,"is_disabled":false,"rental_uris":{"android":"levelo://app?vid=4a555113-7ee1-4ce3-882f-36b2bb11e8c9","ios":"levelo://app?vid=4a555113-7ee1-4ce3-882f-36b2bb11e8c9"},"vehicle_type_id":"4","last_reported":1746040087,"current_range_meters":12000,"station_id":"ce4bgk12rcd13ifvqbi0","pricing_plan_id":"cebpf4jnsgd1na2vs0mg"},{"bike_id":"8f1ba7f2-ba15-4f74-94ba-e9bdbc6c0638","system_id":"levelo_inurba_marseille","lat":43.29171,"lon":5.37159,"is_reserved":false,"is_disabled":false,"rental_uris":{"android":"levelo://app?vid=8f1ba7f2-ba15-4f74-94ba-e9bdbc6c0638","ios":"levelo://app?vid=8f1ba7f2-ba15-4f74-94ba-e9bdbc6c0638"},"vehicle_type_id":"4","last_reported":1746040087,"current_range_meters":12400,"station_id":"ce4bha92rcd13ifvqeh0","pricing_plan_id":"cebpf4jnsgd1na2vs0mg"},{"bike_id":"0dea2c28-5ad1-4802-bb2a-fa476226dc57","system_id":"levelo_inurba_marseille","lat":43.292603,"lon":5.384374,"is_reserved":false,"is_disabled":false,"rental_uris":{"android":"levelo://app?vid=0dea2c28-5ad1-4802-bb2a-fa476226dc57","ios":"levelo://app?vid=0dea2c28-5ad1-4802-bb2a-fa476226dc57"},"vehicle_type_id":"4","last_reported":1746040087,"current_range_meters":12400,"station_id":"ce4bh692rcd13ifvqea0","pricing_plan_id":"cebpf4jnsgd1na2vs0mg"},{"bike_id":"c8fdc4dd-c5e2-4f53-87e7-4f8c7fcf7ff7","system_id":"levelo_inurba_marseille","lat":43.2418,"lon":5.39723,"is_reserved":false,"is_disabled":false,"rental_uris":{"android":"levelo://app?vid=c8fdc4dd-c5e2-4f53-87e7-4f8c7fcf7ff7","ios":"levelo://app?vid=c8fdc4dd-c5e2-4f53-87e7-4f8c7fcf7ff7"},"vehicle_type_id":"4","last_reported":1746040087,"current_range_meters":12400,"station_id":"ce4bhn12rcd13ifvqgpg","pricing_plan_id":"cebpf4jnsgd1na2vs0mg"},{"bike_id":"77942475-b9df-43a6-af61-b22087b935d2","system_id":"levelo_inurba_marseille","lat":43.29254,"lon":5.38435,"is_reserved":false,"is_disabled":true,"rental_uris":{"android":"levelo://app?vid=77942475-b9df-43a6-af61-b22087b935d2","ios":"levelo://app?vid=77942475-b9df-43a6-af61-b22087b935d2"},"vehicle_type_id":"4","last_reported":1746040087,"current_range_meters":12400,"station_id":"ce4bh692rcd13ifvqea0","pricing_plan_id":"cebpf4jnsgd1na2vs0mg"},{"bike_id":"379b8933-bc6e-4164-9d36-daaf2941e50f","system_id":"levelo_inurba_marseille","lat":43.30757,"lon":5.37467,"is_reserved":false,"is_disabled":false,"rental_uris":{"android":"levelo://app?vid=379b8933-bc6e-4164-9d36-daaf2941e50f","ios":"levelo://app?vid=379b8933-bc6e-4164-9d36-daaf2941e50f"},"vehicle_type_id":"4","last_reported":1746040087,"current_range_meters":12400,"station_id":"","pricing_plan_id":"cebpf4jnsgd1na2vs0mg"},{"bike_id":"1a11cb99-d4df-4adb-9418-c24e1a46a45d","system_id":"levelo_inurba_marseille","lat":43.29293,"lon":5.37451,"is_reserved":false,"is_disabled":false,"rental_uris":{"android":"levelo://app?vid=1a11cb99-d4df-4adb-9418-c24e1a46a45d","ios":"levelo://app?vid=1a11cb99-d4df-4adb-9418-c24e1a46a45d"},"vehicle_type_id":"4","last_reported":1746040087,"current_range_meters":12400,"station_id":"ce4bgi12rcd13ifvqb70","pricing_plan_id":"cebpf4jnsgd1na2vs0mg"},{"bike_id":"1651a5b4-f1bc-4a6c-b565-6fe9f91e43e2","system_id":"levelo_inurba_marseille","lat":43.293,"lon":5.37452,"is_reserved":false,"is_disabled":false,"rental_uris":{"android":"levelo://app?vid=1651a5b4-f1bc-4a6c-b565-6fe9f91e43e2","ios":"levelo://app?vid=1651a5b4-f1bc-4a6c-b565-6fe9f91e43e2"},"vehicle_type_id":"4","last_reported":1746040087,"current_range_meters":12400,"station_id":"ce4bgi12rcd13ifvqb70","pricing_plan_id":"cebpf4jnsgd1na2vs0mg"},{"bike_id":"3ce5a6a0-7c75-4b93-962c-2dd6ababc3c9","system_id":"levelo_inurba_marseille","lat":43.22503,"lon":5.34781,"is_reserved":false,"is_disabled":false,"rental_uris":{"android":"levelo://app?vid=3ce5a6a0-7c75-4b93-962c-2dd6ababc3c9","ios":"levelo://app?vid=3ce5a6a0-7c75-4b93-962c-2dd6ababc3c9"},"vehicle_type_id":"4","last_reported":1746040087,"current_range_meters":12400,"station_id":"st_cvj5dfep6f1abm77gieg","pricing_plan_id":"cebpf4jnsgd1na2vs0mg"},{"bike_id":"9747d5fb-34c8-4c9b-a3b0-2599a4667712","system_id":"levelo_inurba_marseille","lat":43.289363,"lon":5.36373,"is_reserved":false,"is_disabled":false,"rental_uris":{"android":"levelo://app?vid=9747d5fb-34c8-4c9b-a3b0-2599a4667712","ios":"levelo://app?vid=9747d5fb-34c8-4c9b-a3b0-2599a4667712"},"vehicle_type_id":"4","last_reported":1746040087,"current_range_meters":12800,"station_id":"ce4bhc92rcd13ifvqetg","pricing_plan_id":"cebpf4jnsgd1na2vs0mg"},{"bike_id":"2c1e6d8b-f58f-436c-81d7-5554c4fd1f3c","system_id":"levelo_inurba_marseille","lat":43.29417,"lon":5.38623,"is_reserved":false,"is_disabled":false,"rental_uris":{"android":"levelo://app?vid=2c1e6d8b-f58f-436c-81d7-5554c4fd1f3c","ios":"levelo://app?vid=2c1e6d8b-f58f-436c-81d7-5554c4fd1f3c"},"vehicle_type_id":"4","last_reported":1746040087,"current_range_meters":12800,"station_id":"","pricing_plan_id":"cebpf4jnsgd1na2vs0mg"},{"bike_id":"8ab8f219-1642-4a0d-af2a-eaa8ea6c816f","system_id":"levelo_inurba_marseille","lat":43.31748,"lon":5.39033,"is_reserved":false,"is_disabled":false,"rental_uris":{"android":"levelo://app?vid=8ab8f219-1642-4a0d-af2a-eaa8ea6c816f","ios":"levelo://app?vid=8ab8f219-1642-4a0d-af2a-eaa8ea6c816f"},"vehicle_type_id":"4","last_reported":1746040087,"current_range_meters":12800,"station_id":"ce4bhqp2rcd13ifvqhng","pricing_plan_id":"cebpf4jnsgd1na2vs0mg"},{"bike_id":"00b1c7b7-94c9-4a18-9e0d-df322c7cd38b","system_id":"levelo_inurba_marseille","lat":43.29019,"lon":5.35597,"is_reserved":false,"is_disabled":true,"rental_uris":{"android":"levelo://app?vid=00b1c7b7-94c9-4a18-9e0d-df322c7cd38b","ios":"levelo://app?vid=00b1c7b7-94c9-4a18-9e0d-df322c7cd38b"},"vehicle_type_id":"4","last_reported":1746040087,"current_range_meters":12800,"station_id":"ce4bhb92rcd13ifvqen0","pricing_plan_id":"cebpf4jnsgd1na2vs0mg"},{"bike_id":"d08fe425-042c-4938-b862-c3dc2ac034aa","system_id":"levelo_inurba_marseille","lat":43.32362,"lon":5.38874,"is_reserved":false,"is_disabled":false,"rental_uris":{"android":"levelo://app?vid=d08fe425-042c-4938-b862-c3dc2ac034aa","ios":"levelo://app?vid=d08fe425-042c-4938-b862-c3dc2ac034aa"},"vehicle_type_id":"4","last_reported":1746040087,"current_range_meters":12800,"station_id":"ce4bhqp2rcd13ifvqhog","pricing_plan_id":"cebpf4jnsgd1na2vs0mg"},{"bike_id":"2d2999b4-3c53-4cd6-8208-95f29f1ea229","system_id":"levelo_inurba_marseille","lat":43.31527,"lon":5.38023,"is_reserved":false,"is_disabled":false,"rental_uris":{"android":"levelo://app?vid=2d2999b4-3c53-4cd6-8208-95f29f1ea229","ios":"levelo://app?vid=2d2999b4-3c53-4cd6-8208-95f29f1ea229"},"vehicle_type_id":"4","last_reported":1746040087,"current_range_meters":13600,"station_id":"ce4bhsp2rcd13ifvqi50","pricing_plan_id":"cebpf4jnsgd1na2vs0mg"},{"bike_id":"5bdf200f-4439-4fac-8dd4-fb75b754dd75","system_id":"levelo_inurba_marseille","lat":43.28354,"lon":5.38107,"is_reserved":false,"is_disabled":false,"rental_uris":{"android":"levelo://app?vid=5bdf200f-4439-4fac-8dd4-fb75b754dd75","ios":"levelo://app?vid=5bdf200f-4439-4fac-8dd4-fb75b754dd75"},"vehicle_type_id":"4","last_reported":1746040087,"current_range_meters":12800,"station_id":"ce4bh412rcd13ifvqdr0","pricing_plan_id":"cebpf4jnsgd1na2vs0mg"},{"bike_id":"c0c6aafe-4159-4e87-9670-9bbba9e17016","system_id":"levelo_inurba_marseille","lat":43.3273,"lon":5.39232,"is_reserved":false,"is_disabled":false,"rental_uris":{"android":"levelo://app?vid=c0c6aafe-4159-4e87-9670-9bbba9e17016","ios":"levelo://app?vid=c0c6aafe-4159-4e87-9670-9bbba9e17016"},"vehicle_type_id":"4","last_reported":1746040087,"current_range_meters":13600,"station_id":"","pricing_plan_id":"cebpf4jnsgd1na2vs0mg"},{"bike_id":"9bec20e4-290d-4c09-bc3c-25bc9442170b","system_id":"levelo_inurba_marseille","lat":43.295151,"lon":5.394027,"is_reserved":false,"is_disabled":false,"rental_uris":{"android":"levelo://app?vid=9bec20e4-290d-4c09-bc3c-25bc9442170b","ios":"levelo://app?vid=9bec20e4-290d-4c09-bc3c-25bc9442170b"},"vehicle_type_id":"4","last_reported":1746040087,"current_range_meters":13600,"station_id":"ce4bh292rcd13ifvqdf0","pricing_plan_id":"cebpf4jnsgd1na2vs0mg"},{"bike_id":"2f9c77b1-da0a-4349-9376-2b906506d301","system_id":"levelo_inurba_marseille","lat":43.30586,"lon":5.39349,"is_reserved":false,"is_disabled":false,"rental_uris":{"android":"levelo://app?vid=2f9c77b1-da0a-4349-9376-2b906506d301","ios":"levelo://app?vid=2f9c77b1-da0a-4349-9376-2b906506d301"},"vehicle_type_id":"4","last_reported":1746040087,"current_range_meters":13600,"station_id":"ce4bh0p2rcd13ifvqd80","pricing_plan_id":"cebpf4jnsgd1na2vs0mg"},{"bike_id":"5d9cca36-c01b-4ae5-ac37-d916931f42d5","system_id":"levelo_inurba_marseille","lat":43.27622,"lon":5.36105,"is_reserved":false,"is_disabled":false,"rental_uris":{"android":"levelo://app?vid=5d9cca36-c01b-4ae5-ac37-d916931f42d5","ios":"levelo://app?vid=5d9cca36-c01b-4ae5-ac37-d916931f42d5"},"vehicle_type_id":"4","last_reported":1746040087,"current_range_meters":13600,"station_id":"ce4bgj92rcd13ifvqbe0","pricing_plan_id":"cebpf4jnsgd1na2vs0mg"},{"bike_id":"85ea9e1f-37a8-4bd5-a8e6-66e47a3d13bb","system_id":"levelo_inurba_marseille","lat":43.33029,"lon":5.39022,"is_reserved":false,"is_disabled":false,"rental_uris":{"android":"levelo://app?vid=85ea9e1f-37a8-4bd5-a8e6-66e47a3d13bb","ios":"levelo://app?vid=85ea9e1f-37a8-4bd5-a8e6-66e47a3d13bb"},"vehicle_type_id":"4","last_reported":1746040087,"current_range_meters":14000,"station_id":"ce4bhr92rcd13ifvqhrg","pricing_plan_id":"cebpf4jnsgd1na2vs0mg"},{"bike_id":"dfc0a811-68c0-4e68-806d-9d6a350f1de4","system_id":"levelo_inurba_marseille","lat":43.30329,"lon":5.40424,"is_reserved":false,"is_disabled":false,"rental_uris":{"android":"levelo://app?vid=dfc0a811-68c0-4e68-806d-9d6a350f1de4","ios":"levelo://app?vid=dfc0a811-68c0-4e68-806d-9d6a350f1de4"},"vehicle_type_id":"4","last_reported":1746040087,"current_range_meters":16000,"station_id":"ce4bh012rcd13ifvqd10","pricing_plan_id":"cebpf4jnsgd1na2vs0mg"},{"bike_id":"6e6e458a-3a2b-436f-9c03-ed6cf04a9118","system_id":"levelo_inurba_marseille","lat":43.30535,"lon":5.36699,"is_reserved":false,"is_disabled":false,"rental_uris":{"android":"levelo://app?vid=6e6e458a-3a2b-436f-9c03-ed6cf04a9118","ios":"levelo://app?vid=6e6e458a-3a2b-436f-9c03-ed6cf04a9118"},"vehicle_type_id":"4","last_reported":1746040087,"current_range_meters":14000,"station_id":"ce4bgrp2rcd13ifvqc9g","pricing_plan_id":"cebpf4jnsgd1na2vs0mg"},{"bike_id":"92ea2f57-c61d-4710-8fab-37f2fcca18cd","system_id":"levelo_inurba_marseille","lat":43.29687,"lon":5.37285,"is_reserved":false,"is_disabled":false,"rental_uris":{"android":"levelo://app?vid=92ea2f57-c61d-4710-8fab-37f2fcca18cd","ios":"levelo://app?vid=92ea2f57-c61d-4710-8fab-37f2fcca18cd"},"vehicle_type_id":"4","last_reported":1746040087,"current_range_meters":14000,"station_id":"ce4bgk12rcd13ifvqbj0","pricing_plan_id":"cebpf4jnsgd1na2vs0mg"},{"bike_id":"9f87d872-9836-4a68-a4bb-b0ab837e0461","system_id":"levelo_inurba_marseille","lat":43.30599,"lon":5.36653,"is_reserved":false,"is_disabled":true,"rental_uris":{"android":"levelo://app?vid=9f87d872-9836-4a68-a4bb-b0ab837e0461","ios":"levelo://app?vid=9f87d872-9836-4a68-a4bb-b0ab837e0461"},"vehicle_type_id":"4","last_reported":1746040087,"current_range_meters":14000,"station_id":"ce4bgs12rcd13ifvqcag","pricing_plan_id":"cebpf4jnsgd1na2vs0mg"},{"bike_id":"64e866c5-6f2e-41f8-bba6-dea25eefb9bc","system_id":"levelo_inurba_marseille","lat":43.28705,"lon":5.37392,"is_reserved":false,"is_disabled":false,"rental_uris":{"android":"levelo://app?vid=64e866c5-6f2e-41f8-bba6-dea25eefb9bc","ios":"levelo://app?vid=64e866c5-6f2e-41f8-bba6-dea25eefb9bc"},"vehicle_type_id":"4","last_reported":1746040087,"current_range_meters":14400,"station_id":"ce4bh3p2rcd13ifvqdq0","pricing_plan_id":"cebpf4jnsgd1na2vs0mg"},{"bike_id":"3195f618-573b-4a1e-bf1e-aae88c553632","system_id":"levelo_inurba_marseille","lat":43.30553,"lon":5.36557,"is_reserved":false,"is_disabled":false,"rental_uris":{"android":"levelo://app?vid=3195f618-573b-4a1e-bf1e-aae88c553632","ios":"levelo://app?vid=3195f618-573b-4a1e-bf1e-aae88c553632"},"vehicle_type_id":"4","last_reported":1746040087,"current_range_meters":14400,"station_id":"ce4bgs12rcd13ifvqcag","pricing_plan_id":"cebpf4jnsgd1na2vs0mg"},{"bike_id":"29d336db-5fa5-43b6-850b-217ce80bed5a","system_id":"levelo_inurba_marseille","lat":43.24073,"lon":5.37764,"is_reserved":false,"is_disabled":false,"rental_uris":{"android":"levelo://app?vid=29d336db-5fa5-43b6-850b-217ce80bed5a","ios":"levelo://app?vid=29d336db-5fa5-43b6-850b-217ce80bed5a"},"vehicle_type_id":"4","last_reported":1746040087,"current_range_meters":14000,"station_id":"ce4bhnp2rcd13ifvqgvg","pricing_plan_id":"cebpf4jnsgd1na2vs0mg"},{"bike_id":"93f0e466-b8aa-46dd-912a-c4005dadbc14","system_id":"levelo_inurba_marseille","lat":43.28046,"lon":5.36913,"is_reserved":false,"is_disabled":false,"rental_uris":{"android":"levelo://app?vid=93f0e466-b8aa-46dd-912a-c4005dadbc14","ios":"levelo://app?vid=93f0e466-b8aa-46dd-912a-c4005dadbc14"},"vehicle_type_id":"4","last_reported":1746040087,"current_range_meters":14400,"station_id":"ce4bha12rcd13ifvqef0","pricing_plan_id":"cebpf4jnsgd1na2vs0mg"},{"bike_id":"bc3c6c63-7ef9-4633-87e2-e6e3135114f4","system_id":"levelo_inurba_marseille","lat":43.31719,"lon":5.42392,"is_reserved":false,"is_disabled":false,"rental_uris":{"android":"levelo://app?vid=bc3c6c63-7ef9-4633-87e2-e6e3135114f4","ios":"levelo://app?vid=bc3c6c63-7ef9-4633-87e2-e6e3135114f4"},"vehicle_type_id":"4","last_reported":1746040087,"current_range_meters":14400,"station_id":"ce4bhp92rcd13ifvqhbg","pricing_plan_id":"cebpf4jnsgd1na2vs0mg"},{"bike_id":"fec7d3b6-eba7-4248-b820-78a4383ca95c","system_id":"levelo_inurba_marseille","lat":43.275542,"lon":5.384371,"is_reserved":false,"is_disabled":false,"rental_uris":{"android":"levelo://app?vid=fec7d3b6-eba7-4248-b820-78a4383ca95c","ios":"levelo://app?vid=fec7d3b6-eba7-4248-b820-78a4383ca95c"},"vehicle_type_id":"4","last_reported":1746040087,"current_range_meters":14800,"station_id":"ce4bhh92rcd13ifvqfi0","pricing_plan_id":"cebpf4jnsgd1na2vs0mg"},{"bike_id":"86c2979e-8cf6-48ed-bdb1-835ff11e3adc","system_id":"levelo_inurba_marseille","lat":43.25411,"lon":5.41837,"is_reserved":false,"is_disabled":false,"rental_uris":{"android":"levelo://app?vid=86c2979e-8cf6-48ed-bdb1-835ff11e3adc","ios":"levelo://app?vid=86c2979e-8cf6-48ed-bdb1-835ff11e3adc"},"vehicle_type_id":"4","last_reported":1746040087,"current_range_meters":14800,"station_id":"","pricing_plan_id":"cebpf4jnsgd1na2vs0mg"},{"bike_id":"d19ed8bd-3a39-4c91-a857-d65123020b6b","system_id":"levelo_inurba_marseille","lat":43.29304,"lon":5.37454,"is_reserved":false,"is_disabled":false,"rental_uris":{"android":"levelo://app?vid=d19ed8bd-3a39-4c91-a857-d65123020b6b","ios":"levelo://app?vid=d19ed8bd-3a39-4c91-a857-d65123020b6b"},"vehicle_type_id":"4","last_reported":1746040087,"current_range_meters":14800,"station_id":"ce4bgi12rcd13ifvqb70","pricing_plan_id":"cebpf4jnsgd1na2vs0mg"},{"bike_id":"da557341-b4a1-447e-9606-415e0f9c6127","system_id":"levelo_inurba_marseille","lat":43.30489,"lon":5.37858,"is_reserved":false,"is_disabled":true,"rental_uris":{"android":"levelo://app?vid=da557341-b4a1-447e-9606-415e0f9c6127","ios":"levelo://app?vid=da557341-b4a1-447e-9606-415e0f9c6127"},"vehicle_type_id":"4","last_reported":1746040087,"current_range_meters":14800,"station_id":"ce4bgup2rcd13ifvqcn0","pricing_plan_id":"cebpf4jnsgd1na2vs0mg"},{"bike_id":"4ccab000-73ac-4187-a0b0-68c0192741cb","system_id":"levelo_inurba_marseille","lat":43.25509,"lon":5.37657,"is_reserved":false,"is_disabled":false,"rental_uris":{"android":"levelo://app?vid=4ccab000-73ac-4187-a0b0-68c0192741cb","ios":"levelo://app?vid=4ccab000-73ac-4187-a0b0-68c0192741cb"},"vehicle_type_id":"4","last_reported":1746040087,"current_range_meters":14800,"station_id":"ce4bhh12rcd13ifvqff0","pricing_plan_id":"cebpf4jnsgd1na2vs0mg"},{"bike_id":"1a2d1be4-9812-4de2-bde2-145b59d49682","system_id":"levelo_inurba_marseille","lat":43.28481,"lon":5.38414,"is_reserved":false,"is_disabled":false,"rental_uris":{"android":"levelo://app?vid=1a2d1be4-9812-4de2-bde2-145b59d49682","ios":"levelo://app?vid=1a2d1be4-9812-4de2-bde2-145b59d49682"},"vehicle_type_id":"4","last_reported":1746040087,"current_range_meters":14800,"station_id":"ce4bh512rcd13ifvqe3g","pricing_plan_id":"cebpf4jnsgd1na2vs0mg"},{"bike_id":"90907531-6684-42cc-8329-498c33ff4e4c","system_id":"levelo_inurba_marseille","lat":43.28941,"lon":5.36398,"is_reserved":false,"is_disabled":false,"rental_uris":{"android":"levelo://app?vid=90907531-6684-42cc-8329-498c33ff4e4c","ios":"levelo://app?vid=90907531-6684-42cc-8329-498c33ff4e4c"},"vehicle_type_id":"4","last_reported":1746040087,"current_range_meters":14400,"station_id":"ce4bhc92rcd13ifvqetg","pricing_plan_id":"cebpf4jnsgd1na2vs0mg"},{"bike_id":"2dbdf15d-d3c4-4dc4-a393-0596c97cde5d","system_id":"levelo_inurba_marseille","lat":43.3206,"lon":5.41536,"is_reserved":false,"is_disabled":false,"rental_uris":{"android":"levelo://app?vid=2dbdf15d-d3c4-4dc4-a393-0596c97cde5d","ios":"levelo://app?vid=2dbdf15d-d3c4-4dc4-a393-0596c97cde5d"},"vehicle_type_id":"4","last_reported":1746040087,"current_range_meters":15200,"station_id":"ce4bhq92rcd13ifvqhkg","pricing_plan_id":"cebpf4jnsgd1na2vs0mg"},{"bike_id":"bded5638-5663-46d5-b164-b8214836c3ea","system_id":"levelo_inurba_marseille","lat":43.27298,"lon":5.392,"is_reserved":false,"is_disabled":false,"rental_uris":{"android":"levelo://app?vid=bded5638-5663-46d5-b164-b8214836c3ea","ios":"levelo://app?vid=bded5638-5663-46d5-b164-b8214836c3ea"},"vehicle_type_id":"4","last_reported":1746040087,"current_range_meters":15200,"station_id":"","pricing_plan_id":"cebpf4jnsgd1na2vs0mg"},{"bike_id":"8ace81f6-8ca7-456c-b76a-7cfc58af2c42","system_id":"levelo_inurba_marseille","lat":43.26602,"lon":5.38994,"is_reserved":false,"is_disabled":false,"rental_uris":{"android":"levelo://app?vid=8ace81f6-8ca7-456c-b76a-7cfc58af2c42","ios":"levelo://app?vid=8ace81f6-8ca7-456c-b76a-7cfc58af2c42"},"vehicle_type_id":"4","last_reported":1746040087,"current_range_meters":15200,"station_id":"","pricing_plan_id":"cebpf4jnsgd1na2vs0mg"},{"bike_id":"754a7dd5-d466-4547-ad3f-a98e4724e18d","system_id":"levelo_inurba_marseille","lat":43.29295,"lon":5.37454,"is_reserved":false,"is_disabled":false,"rental_uris":{"android":"levelo://app?vid=754a7dd5-d466-4547-ad3f-a98e4724e18d","ios":"levelo://app?vid=754a7dd5-d466-4547-ad3f-a98e4724e18d"},"vehicle_type_id":"4","last_reported":1746040087,"current_range_meters":15200,"station_id":"ce4bgi12rcd13ifvqb70","pricing_plan_id":"cebpf4jnsgd1na2vs0mg"},{"bike_id":"0dfbbd5a-6a7e-47a1-8600-17a03ab0f7d5","system_id":"levelo_inurba_marseille","lat":43.30604,"lon":5.37225,"is_reserved":false,"is_disabled":false,"rental_uris":{"android":"levelo://app?vid=0dfbbd5a-6a7e-47a1-8600-17a03ab0f7d5","ios":"levelo://app?vid=0dfbbd5a-6a7e-47a1-8600-17a03ab0f7d5"},"vehicle_type_id":"4","last_reported":1746040087,"current_range_meters":15200,"station_id":"ce4bgqh2rcd13ifvqc4g","pricing_plan_id":"cebpf4jnsgd1na2vs0mg"},{"bike_id":"d591c982-5451-4115-8c62-a07b4cc79e24","system_id":"levelo_inurba_marseille","lat":43.24999,"lon":5.38929,"is_reserved":false,"is_disabled":false,"rental_uris":{"android":"levelo://app?vid=d591c982-5451-4115-8c62-a07b4cc79e24","ios":"levelo://app?vid=d591c982-5451-4115-8c62-a07b4cc79e24"},"vehicle_type_id":"4","last_reported":1746040087,"current_range_meters":15200,"station_id":"ce4bhgp2rcd13ifvqfd0","pricing_plan_id":"cebpf4jnsgd1na2vs0mg"},{"bike_id":"c48c3d0e-47da-44ff-8cdf-9f006eee3386","system_id":"levelo_inurba_marseille","lat":43.24164,"lon":5.36388,"is_reserved":false,"is_disabled":false,"rental_uris":{"android":"levelo://app?vid=c48c3d0e-47da-44ff-8cdf-9f006eee3386","ios":"levelo://app?vid=c48c3d0e-47da-44ff-8cdf-9f006eee3386"},"vehicle_type_id":"4","last_reported":1746040087,"current_range_meters":15200,"station_id":"cpo36qri1sfpv3e86is0","pricing_plan_id":"cebpf4jnsgd1na2vs0mg"},{"bike_id":"fd427e05-8ad1-4dac-ba3a-e42fe8245eb3","system_id":"levelo_inurba_marseille","lat":43.28417,"lon":5.34986,"is_reserved":false,"is_disabled":true,"rental_uris":{"android":"levelo://app?vid=fd427e05-8ad1-4dac-ba3a-e42fe8245eb3","ios":"levelo://app?vid=fd427e05-8ad1-4dac-ba3a-e42fe8245eb3"},"vehicle_type_id":"4","last_reported":1746040087,"current_range_meters":15200,"station_id":"ce4bhbh2rcd13ifvqepg","pricing_plan_id":"cebpf4jnsgd1na2vs0mg"},{"bike_id":"7a5803ac-21b1-4756-99e8-0009d69c7c32","system_id":"levelo_inurba_marseille","lat":43.29591,"lon":5.38106,"is_reserved":false,"is_disabled":false,"rental_uris":{"android":"levelo://app?vid=7a5803ac-21b1-4756-99e8-0009d69c7c32","ios":"levelo://app?vid=7a5803ac-21b1-4756-99e8-0009d69c7c32"},"vehicle_type_id":"4","last_reported":1746040087,"current_range_meters":15200,"station_id":"ce4bgl12rcd13ifvqbo0","pricing_plan_id":"cebpf4jnsgd1na2vs0mg"},{"bike_id":"01c644b8-3092-4734-a43a-37fdd8885367","system_id":"levelo_inurba_marseille","lat":43.29263,"lon":5.38438,"is_reserved":false,"is_disabled":false,"rental_uris":{"android":"levelo://app?vid=01c644b8-3092-4734-a43a-37fdd8885367","ios":"levelo://app?vid=01c644b8-3092-4734-a43a-37fdd8885367"},"vehicle_type_id":"4","last_reported":1746040087,"current_range_meters":16000,"station_id":"ce4bh692rcd13ifvqea0","pricing_plan_id":"cebpf4jnsgd1na2vs0mg"},{"bike_id":"fbc85c04-870e-41fd-a5a0-b6de6ed4124f","system_id":"levelo_inurba_marseille","lat":43.27907,"lon":5.38007,"is_reserved":false,"is_disabled":false,"rental_uris":{"android":"levelo://app?vid=fbc85c04-870e-41fd-a5a0-b6de6ed4124f","ios":"levelo://app?vid=fbc85c04-870e-41fd-a5a0-b6de6ed4124f"},"vehicle_type_id":"4","last_reported":1746040087,"current_range_meters":15200,"station_id":"ce4bhf92rcd13ifvqf50","pricing_plan_id":"cebpf4jnsgd1na2vs0mg"},{"bike_id":"d40ff685-bbf1-4e39-99e9-156007dd5d0a","system_id":"levelo_inurba_marseille","lat":43.29258,"lon":5.3844,"is_reserved":false,"is_disabled":false,"rental_uris":{"android":"levelo://app?vid=d40ff685-bbf1-4e39-99e9-156007dd5d0a","ios":"levelo://app?vid=d40ff685-bbf1-4e39-99e9-156007dd5d0a"},"vehicle_type_id":"4","last_reported":1746040087,"current_range_meters":16000,"station_id":"ce4bh692rcd13ifvqea0","pricing_plan_id":"cebpf4jnsgd1na2vs0mg"},{"bike_id":"53c1ea04-fb62-4277-ac3c-fd24bc3aa650","system_id":"levelo_inurba_marseille","lat":43.302686,"lon":5.368954,"is_reserved":false,"is_disabled":false,"rental_uris":{"android":"levelo://app?vid=53c1ea04-fb62-4277-ac3c-fd24bc3aa650","ios":"levelo://app?vid=53c1ea04-fb62-4277-ac3c-fd24bc3aa650"},"vehicle_type_id":"4","last_reported":1746040087,"current_range_meters":16000,"station_id":"ce4bgqh2rcd13ifvqc5g","pricing_plan_id":"cebpf4jnsgd1na2vs0mg"},{"bike_id":"a688b131-ae29-4f11-8812-f85f61aa6706","system_id":"levelo_inurba_marseille","lat":43.292101,"lon":5.393194,"is_reserved":false,"is_disabled":true,"rental_uris":{"android":"levelo://app?vid=a688b131-ae29-4f11-8812-f85f61aa6706","ios":"levelo://app?vid=a688b131-ae29-4f11-8812-f85f61aa6706"},"vehicle_type_id":"4","last_reported":1746040087,"current_range_meters":16000,"station_id":"ce4bhbh2rcd13ifvqeo0","pricing_plan_id":"cebpf4jnsgd1na2vs0mg"},{"bike_id":"3a158c72-865e-4e1b-8b76-50ed2bfb9ec5","system_id":"levelo_inurba_marseille","lat":43.29237,"lon":5.39613,"is_reserved":false,"is_disabled":false,"rental_uris":{"android":"levelo://app?vid=3a158c72-865e-4e1b-8b76-50ed2bfb9ec5","ios":"levelo://app?vid=3a158c72-865e-4e1b-8b76-50ed2bfb9ec5"},"vehicle_type_id":"4","last_reported":1746040087,"current_range_meters":12400,"station_id":"ce4bh292rcd13ifvqdf0","pricing_plan_id":"cebpf4jnsgd1na2vs0mg"},{"bike_id":"083163f5-e2fd-40d2-9e4f-7b3d2d85df31","system_id":"levelo_inurba_marseille","lat":43.27015,"lon":5.38754,"is_reserved":false,"is_disabled":true,"rental_uris":{"android":"levelo://app?vid=083163f5-e2fd-40d2-9e4f-7b3d2d85df31","ios":"levelo://app?vid=083163f5-e2fd-40d2-9e4f-7b3d2d85df31"},"vehicle_type_id":"4","last_reported":1746040087,"current_range_meters":16000,"station_id":"","pricing_plan_id":"cebpf4jnsgd1na2vs0mg"},{"bike_id":"7940bc1b-eaa7-4f49-a435-46dc9391f6a1","system_id":"levelo_inurba_marseille","lat":43.21198,"lon":5.35066,"is_reserved":false,"is_disabled":false,"rental_uris":{"android":"levelo://app?vid=7940bc1b-eaa7-4f49-a435-46dc9391f6a1","ios":"levelo://app?vid=7940bc1b-eaa7-4f49-a435-46dc9391f6a1"},"vehicle_type_id":"4","last_reported":1746040087,"current_range_meters":16000,"station_id":"st_cvj6sg6p6f1abm77japg","pricing_plan_id":"cebpf4jnsgd1na2vs0mg"},{"bike_id":"34b484ab-c0f1-4e55-b51a-e2bafdafb63e","system_id":"levelo_inurba_marseille","lat":43.23058,"lon":5.35494,"is_reserved":false,"is_disabled":false,"rental_uris":{"android":"levelo://app?vid=34b484ab-c0f1-4e55-b51a-e2bafdafb63e","ios":"levelo://app?vid=34b484ab-c0f1-4e55-b51a-e2bafdafb63e"},"vehicle_type_id":"4","last_reported":1746040087,"current_range_meters":16000,"station_id":"cpo3342slgdg3j2ifvpg","pricing_plan_id":"cebpf4jnsgd1na2vs0mg"},{"bike_id":"3098cac7-e464-414a-ab74-6d2177d3f806","system_id":"levelo_inurba_marseille","lat":43.29277,"lon":5.38427,"is_reserved":false,"is_disabled":false,"rental_uris":{"android":"levelo://app?vid=3098cac7-e464-414a-ab74-6d2177d3f806","ios":"levelo://app?vid=3098cac7-e464-414a-ab74-6d2177d3f806"},"vehicle_type_id":"4","last_reported":1746040087,"current_range_meters":17200,"station_id":"ce4bh692rcd13ifvqea0","pricing_plan_id":"cebpf4jnsgd1na2vs0mg"},{"bike_id":"80bc74ce-502c-4526-9346-27fac816e50c","system_id":"levelo_inurba_marseille","lat":43.27999,"lon":5.40005,"is_reserved":false,"is_disabled":false,"rental_uris":{"android":"levelo://app?vid=80bc74ce-502c-4526-9346-27fac816e50c","ios":"levelo://app?vid=80bc74ce-502c-4526-9346-27fac816e50c"},"vehicle_type_id":"4","last_reported":1746040087,"current_range_meters":16400,"station_id":"ce4bho92rcd13ifvqh4g","pricing_plan_id":"cebpf4jnsgd1na2vs0mg"},{"bike_id":"fd7875a1-1cd0-47f8-880b-6ef58a6b7e2e","system_id":"levelo_inurba_marseille","lat":43.229342,"lon":5.353761,"is_reserved":false,"is_disabled":false,"rental_uris":{"android":"levelo://app?vid=fd7875a1-1cd0-47f8-880b-6ef58a6b7e2e","ios":"levelo://app?vid=fd7875a1-1cd0-47f8-880b-6ef58a6b7e2e"},"vehicle_type_id":"4","last_reported":1746040087,"current_range_meters":16400,"station_id":"cpo3532slgdg3j2ikp40","pricing_plan_id":"cebpf4jnsgd1na2vs0mg"},{"bike_id":"c48e097e-8f1e-487b-926f-a32b90c30db3","system_id":"levelo_inurba_marseille","lat":43.28852,"lon":5.35829,"is_reserved":false,"is_disabled":false,"rental_uris":{"android":"levelo://app?vid=c48e097e-8f1e-487b-926f-a32b90c30db3","ios":"levelo://app?vid=c48e097e-8f1e-487b-926f-a32b90c30db3"},"vehicle_type_id":"4","last_reported":1746040087,"current_range_meters":16400,"station_id":"ce4bhb12rcd13ifvqem0","pricing_plan_id":"cebpf4jnsgd1na2vs0mg"},{"bike_id":"66cf9de5-17de-4e38-9ee0-8d2cef3b4ab3","system_id":"levelo_inurba_marseille","lat":43.30685,"lon":5.40065,"is_reserved":false,"is_disabled":true,"rental_uris":{"android":"levelo://app?vid=66cf9de5-17de-4e38-9ee0-8d2cef3b4ab3","ios":"levelo://app?vid=66cf9de5-17de-4e38-9ee0-8d2cef3b4ab3"},"vehicle_type_id":"4","last_reported":1746040087,"current_range_meters":16400,"station_id":"ce4bh112rcd13ifvqda0","pricing_plan_id":"cebpf4jnsgd1na2vs0mg"},{"bike_id":"0ab54b88-535d-45ef-8fa1-fc2ee720860a","system_id":"levelo_inurba_marseille","lat":43.29409,"lon":5.38636,"is_reserved":false,"is_disabled":false,"rental_uris":{"android":"levelo://app?vid=0ab54b88-535d-45ef-8fa1-fc2ee720860a","ios":"levelo://app?vid=0ab54b88-535d-45ef-8fa1-fc2ee720860a"},"vehicle_type_id":"4","last_reported":1746040087,"current_range_meters":16400,"station_id":"ce4bh2h2rcd13ifvqdh0","pricing_plan_id":"cebpf4jnsgd1na2vs0mg"},{"bike_id":"fbd87033-509a-4103-a03a-a421352eb508","system_id":"levelo_inurba_marseille","lat":43.29568,"lon":5.36759,"is_reserved":false,"is_disabled":false,"rental_uris":{"android":"levelo://app?vid=fbd87033-509a-4103-a03a-a421352eb508","ios":"levelo://app?vid=fbd87033-509a-4103-a03a-a421352eb508"},"vehicle_type_id":"4","last_reported":1746040087,"current_range_meters":16400,"station_id":"ce4bgph2rcd13ifvqc2g","pricing_plan_id":"cebpf4jnsgd1na2vs0mg"},{"bike_id":"2191ff05-5a9a-44e2-a6d1-17ae50fc3160","system_id":"levelo_inurba_marseille","lat":43.28741,"lon":5.36079,"is_reserved":false,"is_disabled":false,"rental_uris":{"android":"levelo://app?vid=2191ff05-5a9a-44e2-a6d1-17ae50fc3160","ios":"levelo://app?vid=2191ff05-5a9a-44e2-a6d1-17ae50fc3160"},"vehicle_type_id":"4","last_reported":1746040087,"current_range_meters":16800,"station_id":"cki0cbj6b192h4jlfktg","pricing_plan_id":"cebpf4jnsgd1na2vs0mg"},{"bike_id":"3d13519f-8c59-4500-915b-0e3325a7d2e1","system_id":"levelo_inurba_marseille","lat":43.29874,"lon":5.38322,"is_reserved":false,"is_disabled":false,"rental_uris":{"android":"levelo://app?vid=3d13519f-8c59-4500-915b-0e3325a7d2e1","ios":"levelo://app?vid=3d13519f-8c59-4500-915b-0e3325a7d2e1"},"vehicle_type_id":"4","last_reported":1746040087,"current_range_meters":16800,"station_id":"","pricing_plan_id":"cebpf4jnsgd1na2vs0mg"},{"bike_id":"24567372-2348-49a3-ad0a-afaec783910b","system_id":"levelo_inurba_marseille","lat":43.27674,"lon":5.38873,"is_reserved":false,"is_disabled":false,"rental_uris":{"android":"levelo://app?vid=24567372-2348-49a3-ad0a-afaec783910b","ios":"levelo://app?vid=24567372-2348-49a3-ad0a-afaec783910b"},"vehicle_type_id":"4","last_reported":1746040087,"current_range_meters":16800,"station_id":"ce4bhi12rcd13ifvqfo0","pricing_plan_id":"cebpf4jnsgd1na2vs0mg"},{"bike_id":"a3eca157-2927-4f8a-a29e-91e4f121f95e","system_id":"levelo_inurba_marseille","lat":43.30963,"lon":5.39037,"is_reserved":false,"is_disabled":false,"rental_uris":{"android":"levelo://app?vid=a3eca157-2927-4f8a-a29e-91e4f121f95e","ios":"levelo://app?vid=a3eca157-2927-4f8a-a29e-91e4f121f95e"},"vehicle_type_id":"4","last_reported":1746040087,"current_range_meters":16800,"station_id":"ce4bgup2rcd13ifvqco0","pricing_plan_id":"cebpf4jnsgd1na2vs0mg"},{"bike_id":"0406008f-8035-4b4d-abc5-8deb7ae8ef5e","system_id":"levelo_inurba_marseille","lat":43.29617,"lon":5.37753,"is_reserved":false,"is_disabled":false,"rental_uris":{"android":"levelo://app?vid=0406008f-8035-4b4d-abc5-8deb7ae8ef5e","ios":"levelo://app?vid=0406008f-8035-4b4d-abc5-8deb7ae8ef5e"},"vehicle_type_id":"4","last_reported":1746040087,"current_range_meters":14000,"station_id":"ce4bgi92rcd13ifvqb90","pricing_plan_id":"cebpf4jnsgd1na2vs0mg"},{"bike_id":"16ef9547-8566-4ad0-a25e-ab108872d79a","system_id":"levelo_inurba_marseille","lat":43.28351,"lon":5.38102,"is_reserved":false,"is_disabled":false,"rental_uris":{"android":"levelo://app?vid=16ef9547-8566-4ad0-a25e-ab108872d79a","ios":"levelo://app?vid=16ef9547-8566-4ad0-a25e-ab108872d79a"},"vehicle_type_id":"4","last_reported":1746040087,"current_range_meters":16800,"station_id":"ce4bh412rcd13ifvqdr0","pricing_plan_id":"cebpf4jnsgd1na2vs0mg"},{"bike_id":"3dface62-a694-436c-aff8-0f4ae1ce3b56","system_id":"levelo_inurba_marseille","lat":43.29416,"lon":5.38625,"is_reserved":false,"is_disabled":false,"rental_uris":{"android":"levelo://app?vid=3dface62-a694-436c-aff8-0f4ae1ce3b56","ios":"levelo://app?vid=3dface62-a694-436c-aff8-0f4ae1ce3b56"},"vehicle_type_id":"4","last_reported":1746040087,"current_range_meters":16800,"station_id":"ce4bh2h2rcd13ifvqdh0","pricing_plan_id":"cebpf4jnsgd1na2vs0mg"},{"bike_id":"1276ff5c-0e07-4a84-8274-86c8fab8119b","system_id":"levelo_inurba_marseille","lat":43.290317,"lon":5.386407,"is_reserved":false,"is_disabled":true,"rental_uris":{"android":"levelo://app?vid=1276ff5c-0e07-4a84-8274-86c8fab8119b","ios":"levelo://app?vid=1276ff5c-0e07-4a84-8274-86c8fab8119b"},"vehicle_type_id":"4","last_reported":1746040087,"current_range_meters":16800,"station_id":"ce4bh4p2rcd13ifvqe0g","pricing_plan_id":"cebpf4jnsgd1na2vs0mg"},{"bike_id":"68387bcf-91b9-4d94-9345-8087e5f6d466","system_id":"levelo_inurba_marseille","lat":43.31333,"lon":5.36771,"is_reserved":false,"is_disabled":true,"rental_uris":{"android":"levelo://app?vid=68387bcf-91b9-4d94-9345-8087e5f6d466","ios":"levelo://app?vid=68387bcf-91b9-4d94-9345-8087e5f6d466"},"vehicle_type_id":"4","last_reported":1746040087,"current_range_meters":17200,"station_id":"","pricing_plan_id":"cebpf4jnsgd1na2vs0mg"},{"bike_id":"a80efe56-7ec7-41b2-959d-a20ff548881b","system_id":"levelo_inurba_marseille","lat":43.32363,"lon":5.3888,"is_reserved":false,"is_disabled":false,"rental_uris":{"android":"levelo://app?vid=a80efe56-7ec7-41b2-959d-a20ff548881b","ios":"levelo://app?vid=a80efe56-7ec7-41b2-959d-a20ff548881b"},"vehicle_type_id":"4","last_reported":1746040087,"current_range_meters":17200,"station_id":"ce4bhqp2rcd13ifvqhog","pricing_plan_id":"cebpf4jnsgd1na2vs0mg"},{"bike_id":"4a6186b9-77ab-4d1b-bee4-89e8c8d0eedc","system_id":"levelo_inurba_marseille","lat":43.279078,"lon":5.380109,"is_reserved":false,"is_disabled":false,"rental_uris":{"android":"levelo://app?vid=4a6186b9-77ab-4d1b-bee4-89e8c8d0eedc","ios":"levelo://app?vid=4a6186b9-77ab-4d1b-bee4-89e8c8d0eedc"},"vehicle_type_id":"4","last_reported":1746040087,"current_range_meters":17200,"station_id":"","pricing_plan_id":"cebpf4jnsgd1na2vs0mg"},{"bike_id":"4a7a0e1f-d816-48b7-89a8-a06249c1b396","system_id":"levelo_inurba_marseille","lat":43.258186,"lon":5.394383,"is_reserved":false,"is_disabled":false,"rental_uris":{"android":"levelo://app?vid=4a7a0e1f-d816-48b7-89a8-a06249c1b396","ios":"levelo://app?vid=4a7a0e1f-d816-48b7-89a8-a06249c1b396"},"vehicle_type_id":"4","last_reported":1746040087,"current_range_meters":16800,"station_id":"ce4bhip2rcd13ifvqft0","pricing_plan_id":"cebpf4jnsgd1na2vs0mg"},{"bike_id":"b58385b2-d1b2-4ecc-af75-eb7cf4772905","system_id":"levelo_inurba_marseille","lat":43.23056,"lon":5.35508,"is_reserved":false,"is_disabled":false,"rental_uris":{"android":"levelo://app?vid=b58385b2-d1b2-4ecc-af75-eb7cf4772905","ios":"levelo://app?vid=b58385b2-d1b2-4ecc-af75-eb7cf4772905"},"vehicle_type_id":"4","last_reported":1746040087,"current_range_meters":17200,"station_id":"cpo3342slgdg3j2ifvpg","pricing_plan_id":"cebpf4jnsgd1na2vs0mg"},{"bike_id":"cd951d52-c629-4341-9b6a-42cdf9136e6d","system_id":"levelo_inurba_marseille","lat":43.30942,"lon":5.39035,"is_reserved":false,"is_disabled":false,"rental_uris":{"android":"levelo://app?vid=cd951d52-c629-4341-9b6a-42cdf9136e6d","ios":"levelo://app?vid=cd951d52-c629-4341-9b6a-42cdf9136e6d"},"vehicle_type_id":"4","last_reported":1746040087,"current_range_meters":17200,"station_id":"ce4bgup2rcd13ifvqco0","pricing_plan_id":"cebpf4jnsgd1na2vs0mg"},{"bike_id":"32967640-3ff5-45df-9432-a55383ac677a","system_id":"levelo_inurba_marseille","lat":43.29224,"lon":5.36059,"is_reserved":false,"is_disabled":false,"rental_uris":{"android":"levelo://app?vid=32967640-3ff5-45df-9432-a55383ac677a","ios":"levelo://app?vid=32967640-3ff5-45df-9432-a55383ac677a"},"vehicle_type_id":"4","last_reported":1746040087,"current_range_meters":17600,"station_id":"ce4bhbh2rcd13ifvqeqg","pricing_plan_id":"cebpf4jnsgd1na2vs0mg"},{"bike_id":"fe690449-41c4-4028-97cd-c7b1703ee72d","system_id":"levelo_inurba_marseille","lat":43.31165,"lon":5.38717,"is_reserved":false,"is_disabled":false,"rental_uris":{"android":"levelo://app?vid=fe690449-41c4-4028-97cd-c7b1703ee72d","ios":"levelo://app?vid=fe690449-41c4-4028-97cd-c7b1703ee72d"},"vehicle_type_id":"4","last_reported":1746040087,"current_range_meters":17600,"station_id":"ce4bgv12rcd13ifvqcp0","pricing_plan_id":"cebpf4jnsgd1na2vs0mg"},{"bike_id":"7993d5cb-3c8b-4921-a0aa-c497d1638b72","system_id":"levelo_inurba_marseille","lat":43.29267,"lon":5.38433,"is_reserved":false,"is_disabled":false,"rental_uris":{"android":"levelo://app?vid=7993d5cb-3c8b-4921-a0aa-c497d1638b72","ios":"levelo://app?vid=7993d5cb-3c8b-4921-a0aa-c497d1638b72"},"vehicle_type_id":"4","last_reported":1746040087,"current_range_meters":17600,"station_id":"ce4bh692rcd13ifvqea0","pricing_plan_id":"cebpf4jnsgd1na2vs0mg"},{"bike_id":"0ad2c942-0be1-4f61-b4bb-39b79780a914","system_id":"levelo_inurba_marseille","lat":43.2926,"lon":5.38422,"is_reserved":false,"is_disabled":false,"rental_uris":{"android":"levelo://app?vid=0ad2c942-0be1-4f61-b4bb-39b79780a914","ios":"levelo://app?vid=0ad2c942-0be1-4f61-b4bb-39b79780a914"},"vehicle_type_id":"4","last_reported":1746040087,"current_range_meters":17600,"station_id":"ce4bh692rcd13ifvqea0","pricing_plan_id":"cebpf4jnsgd1na2vs0mg"},{"bike_id":"68fd3aaa-a18f-4d13-8e05-c627a9f0a514","system_id":"levelo_inurba_marseille","lat":43.27329,"lon":5.39069,"is_reserved":false,"is_disabled":false,"rental_uris":{"android":"levelo://app?vid=68fd3aaa-a18f-4d13-8e05-c627a9f0a514","ios":"levelo://app?vid=68fd3aaa-a18f-4d13-8e05-c627a9f0a514"},"vehicle_type_id":"4","last_reported":1746040087,"current_range_meters":17600,"station_id":"ce4bhgp2rcd13ifvqfe0","pricing_plan_id":"cebpf4jnsgd1na2vs0mg"},{"bike_id":"51a5e045-97e9-43a4-b9f0-40b340753da1","system_id":"levelo_inurba_marseille","lat":43.30887,"lon":5.39646,"is_reserved":false,"is_disabled":false,"rental_uris":{"android":"levelo://app?vid=51a5e045-97e9-43a4-b9f0-40b340753da1","ios":"levelo://app?vid=51a5e045-97e9-43a4-b9f0-40b340753da1"},"vehicle_type_id":"4","last_reported":1746040087,"current_range_meters":17600,"station_id":"ce4bh012rcd13ifvqcv0","pricing_plan_id":"cebpf4jnsgd1na2vs0mg"},{"bike_id":"5612a936-6394-4523-843d-b6bd63f4ae68","system_id":"levelo_inurba_marseille","lat":43.28483,"lon":5.38411,"is_reserved":false,"is_disabled":false,"rental_uris":{"android":"levelo://app?vid=5612a936-6394-4523-843d-b6bd63f4ae68","ios":"levelo://app?vid=5612a936-6394-4523-843d-b6bd63f4ae68"},"vehicle_type_id":"4","last_reported":1746040087,"current_range_meters":17600,"station_id":"ce4bh512rcd13ifvqe3g","pricing_plan_id":"cebpf4jnsgd1na2vs0mg"},{"bike_id":"501c13aa-c5e2-4dce-9a6b-1ecbbbe393a8","system_id":"levelo_inurba_marseille","lat":43.294173,"lon":5.3862,"is_reserved":false,"is_disabled":false,"rental_uris":{"android":"levelo://app?vid=501c13aa-c5e2-4dce-9a6b-1ecbbbe393a8","ios":"levelo://app?vid=501c13aa-c5e2-4dce-9a6b-1ecbbbe393a8"},"vehicle_type_id":"4","last_reported":1746040087,"current_range_meters":17600,"station_id":"ce4bh2h2rcd13ifvqdh0","pricing_plan_id":"cebpf4jnsgd1na2vs0mg"},{"bike_id":"e652b979-6699-4000-80da-d943deaea7a4","system_id":"levelo_inurba_marseille","lat":43.30433,"lon":5.39743,"is_reserved":false,"is_disabled":false,"rental_uris":{"android":"levelo://app?vid=e652b979-6699-4000-80da-d943deaea7a4","ios":"levelo://app?vid=e652b979-6699-4000-80da-d943deaea7a4"},"vehicle_type_id":"4","last_reported":1746040087,"current_range_meters":17600,"station_id":"ce4bh092rcd13ifvqd20","pricing_plan_id":"cebpf4jnsgd1na2vs0mg"},{"bike_id":"4dca357a-c3c1-4d39-815d-2c75cb1e6cf6","system_id":"levelo_inurba_marseille","lat":43.23968,"lon":5.36633,"is_reserved":false,"is_disabled":false,"rental_uris":{"android":"levelo://app?vid=4dca357a-c3c1-4d39-815d-2c75cb1e6cf6","ios":"levelo://app?vid=4dca357a-c3c1-4d39-815d-2c75cb1e6cf6"},"vehicle_type_id":"4","last_reported":1746040087,"current_range_meters":17600,"station_id":"ce4bhi12rcd13ifvqfp0","pricing_plan_id":"cebpf4jnsgd1na2vs0mg"},{"bike_id":"d5d707d8-b210-49ad-af62-f73073c7d21c","system_id":"levelo_inurba_marseille","lat":43.30975,"lon":5.40162,"is_reserved":false,"is_disabled":false,"rental_uris":{"android":"levelo://app?vid=d5d707d8-b210-49ad-af62-f73073c7d21c","ios":"levelo://app?vid=d5d707d8-b210-49ad-af62-f73073c7d21c"},"vehicle_type_id":"4","last_reported":1746040087,"current_range_meters":17600,"station_id":"ce4bgvp2rcd13ifvqct0","pricing_plan_id":"cebpf4jnsgd1na2vs0mg"},{"bike_id":"a61b5a94-958b-4984-8f21-c4f7e2ae7f3a","system_id":"levelo_inurba_marseille","lat":43.24173,"lon":5.36391,"is_reserved":false,"is_disabled":false,"rental_uris":{"android":"levelo://app?vid=a61b5a94-958b-4984-8f21-c4f7e2ae7f3a","ios":"levelo://app?vid=a61b5a94-958b-4984-8f21-c4f7e2ae7f3a"},"vehicle_type_id":"4","last_reported":1746040087,"current_range_meters":18000,"station_id":"cpo36qri1sfpv3e86is0","pricing_plan_id":"cebpf4jnsgd1na2vs0mg"},{"bike_id":"2e1ce04f-74c7-4d68-a96b-b9dc1d6897ee","system_id":"levelo_inurba_marseille","lat":43.32292,"lon":5.38274,"is_reserved":false,"is_disabled":false,"rental_uris":{"android":"levelo://app?vid=2e1ce04f-74c7-4d68-a96b-b9dc1d6897ee","ios":"levelo://app?vid=2e1ce04f-74c7-4d68-a96b-b9dc1d6897ee"},"vehicle_type_id":"4","last_reported":1746040087,"current_range_meters":18000,"station_id":"ce4bhr12rcd13ifvqhqg","pricing_plan_id":"cebpf4jnsgd1na2vs0mg"},{"bike_id":"79fd3b66-f432-4ffb-9396-082b4ce3c6e2","system_id":"levelo_inurba_marseille","lat":43.29212,"lon":5.36054,"is_reserved":false,"is_disabled":false,"rental_uris":{"android":"levelo://app?vid=79fd3b66-f432-4ffb-9396-082b4ce3c6e2","ios":"levelo://app?vid=79fd3b66-f432-4ffb-9396-082b4ce3c6e2"},"vehicle_type_id":"4","last_reported":1746040087,"current_range_meters":18800,"station_id":"ce4bhbh2rcd13ifvqeqg","pricing_plan_id":"cebpf4jnsgd1na2vs0mg"},{"bike_id":"3e1495bd-f062-4177-be67-b0e58ae543d6","system_id":"levelo_inurba_marseille","lat":43.28719,"lon":5.36083,"is_reserved":false,"is_disabled":false,"rental_uris":{"android":"levelo://app?vid=3e1495bd-f062-4177-be67-b0e58ae543d6","ios":"levelo://app?vid=3e1495bd-f062-4177-be67-b0e58ae543d6"},"vehicle_type_id":"4","last_reported":1746040087,"current_range_meters":18800,"station_id":"cki0cbj6b192h4jlfktg","pricing_plan_id":"cebpf4jnsgd1na2vs0mg"},{"bike_id":"b1b4d74f-092b-476b-abae-f60870c92748","system_id":"levelo_inurba_marseille","lat":43.25087,"lon":5.39527,"is_reserved":false,"is_disabled":false,"rental_uris":{"android":"levelo://app?vid=b1b4d74f-092b-476b-abae-f60870c92748","ios":"levelo://app?vid=b1b4d74f-092b-476b-abae-f60870c92748"},"vehicle_type_id":"4","last_reported":1746040087,"current_range_meters":18800,"station_id":"ce4bhm12rcd13ifvqgkg","pricing_plan_id":"cebpf4jnsgd1na2vs0mg"},{"bike_id":"b275aa60-8b98-4515-b015-9193524b6e8e","system_id":"levelo_inurba_marseille","lat":43.28936,"lon":5.36634,"is_reserved":false,"is_disabled":false,"rental_uris":{"android":"levelo://app?vid=b275aa60-8b98-4515-b015-9193524b6e8e","ios":"levelo://app?vid=b275aa60-8b98-4515-b015-9193524b6e8e"},"vehicle_type_id":"4","last_reported":1746040087,"current_range_meters":18800,"station_id":"ce4bhap2rcd13ifvqek0","pricing_plan_id":"cebpf4jnsgd1na2vs0mg"},{"bike_id":"c8581763-0ce2-4bab-ab9e-b4108eaa2ed7","system_id":"levelo_inurba_marseille","lat":43.32369,"lon":5.38895,"is_reserved":false,"is_disabled":false,"rental_uris":{"android":"levelo://app?vid=c8581763-0ce2-4bab-ab9e-b4108eaa2ed7","ios":"levelo://app?vid=c8581763-0ce2-4bab-ab9e-b4108eaa2ed7"},"vehicle_type_id":"4","last_reported":1746040087,"current_range_meters":18800,"station_id":"ce4bhqp2rcd13ifvqhog","pricing_plan_id":"cebpf4jnsgd1na2vs0mg"},