{"last_updated":1750230683,"ttl":60,"version":"2.2","data":{"bikes":[{"bike_id":"3da29fb8-fc97-44c6-b9ac-31dd456b2fd4","system_id":"levelo_inurba_marseille","lat":43.33771,"lon":5.37424,"is_reserved":false,"is_disabled":true,"rental_uris":{"android":"levelo://app?vid=3da29fb8-fc97-44c6-b9ac-31dd456b2fd4","ios":"levelo://app?vid=3da29fb8-fc97-44c6-b9ac-31dd456b2fd4"},"vehicle_type_id":"4","last_reported":1750230683,"current_range_meters":0,"station_id":"","pricing_plan_id":"cebpf4jnsgd1na2vs0mg"},{"bike_id":"01861ad8-a8d7-4be6-816e-651927c87584","system_id":"levelo_inurba_marseille","lat":43.33751,"lon":5.37456,"is_reserved":false,"is_disabled":true,"rental_uris":{"android":"levelo://app?vid=01861ad8-a8d7-4be6-816e-651927c87584","ios":"levelo://app?vid=01861ad8-a8d7-4be6-816e-651927c87584"},"vehicle_type_id":"4","last_reported":1750230683,"current_range_meters":0,"station_id":"","pricing_plan_id":"cebpf4jnsgd1na2vs0mg"},{"bike_id":"dbfce7a3-3423-4296-b193-a177dea644ac","system_id":"levelo_inurba_marseille","lat":43.27285,"lon":5.41608,"is_reserved":false,"is_disabled":true,"rental_uris":{"android":"levelo://app?vid=dbfce7a3-3423-4296-b193-a177dea644ac","ios":"levelo://app?vid=dbfce7a3-3423-4296-b193-a177dea644ac"},"vehicle_type_id":"4","last_reported":1750230683,"current_range_meters":0,"station_id":"","pricing_plan_id":"cebpf4jnsgd1na2vs0mg"},{"bike_id":"d2bd57c8-6b64-48db-ad24-5398eb3fd9d6","system_id":"levelo_inurba_marseille","lat":43.337444,"lon":5.374475,"is_reserved":false,"is_disabled":true,"rental_uris":{"android":"levelo://app?vid=d2bd57c8-6b64-48db-ad24-5398eb3fd9d6","ios":"levelo://app?vid=d2bd57c8-6b64-48db-ad24-5398eb3fd9d6"},"vehicle_type_id":"4","last_reported":1750230683,"current_range_meters":0,"station_id":"","pricing_plan_id":"cebpf4jnsgd1na2vs0mg"},{"bike_id":"62a493c7-4534-4419-ad43-0582de34a72a","system_id":"levelo_inurba_marseille","lat":43.21366,"lon":5.355183,"is_reserved":false,"is_disabled":true,"rental_uris":{"android":"levelo://app?vid=62a493c7-4534-4419-ad43-0582de34a72a","ios":"levelo://app?vid=62a493c7-4534-4419-ad43-0582de34a72a"},"vehicle_type_id":"4","last_reported":1750230683,"current_range_meters":0,"station_id":"","pricing_plan_id":"cebpf4jnsgd1na2vs0mg"},{"bike_id":"b9e37238-9abe-4b8b-b932-edaee33a7e59","system_id":"levelo_inurba_marseille","lat":43.2747,"lon":5.3899,"is_reserved":false,"is_disabled":true,"rental_uris":{"android":"levelo://app?vid=b9e37238-9abe-4b8b-b932-edaee33a7e59","ios":"levelo://app?vid=b9e37238-9abe-4b8b-b932-edaee33a7e59"},"vehicle_type_id":"4","last_reported":1750230683,"current_range_meters":0,"station_id":"","pricing_plan_id":"cebpf4jnsgd1na2vs0mg"},{"bike_id":"8ad9234e-001a-4549-8bba-9baf2ef98804","system_id":"levelo_inurba_marseille","lat":43.27418,"lon":5.39779,"is_reserved":false,"is_disabled":true,"rental_uris":{"android":"levelo://app?vid=8ad9234e-001a-4549-8bba-9baf2ef98804","ios":"levelo://app?vid=8ad9234e-001a-4549-8bba-9baf2ef98804"},"vehicle_type_id":"4","last_reported":1750230683,"current_range_meters":0,"station_id":"","pricing_plan_id":"cebpf4jnsgd1na2vs0mg"},{"bike_id":"93af304b-67b5-47b8-a3fd-e0775f7cde8c","system_id":"levelo_inurba_marseille","lat":43.21535,"lon":5.34738,"is_reserved":false,"is_disabled":true,"rental_uris":{"android":"levelo://app?vid=93af304b-67b5-47b8-a3fd-e0775f7cde8c","ios":"levelo://app?vid=93af304b-67b5-47b8-a3fd-e0775f7cde8c"},"vehicle_type_id":"4","last_reported":1750230683,"current_range_meters":0,"station_id":"","pricing_plan_id":"cebpf4jnsgd1na2vs0mg"},{"bike_id":"d6609b4f-333b-43c1-9ebe-8726f5e76e88","system_id":"levelo_inurba_marseille","lat":43.337444,"lon":5.374475,"is_reserved":false,"is_disabled":true,"rental_uris":{"android":"levelo://app?vid=d6609b4f-333b-43c1-9ebe-8726f5e76e88","ios":"levelo://app?vid=d6609b4f-333b-43c1-9ebe-8726f5e76e88"},"vehicle_type_id":"4","last_reported":1750230683,"current_range_meters":0,"station_id":"","pricing_plan_id":"cebpf4jnsgd1na2vs0mg"},{"bike_id":"57c83ce1-960e-466a-b6c5-d93bc130c53a","system_id":"levelo_inurba_marseille","lat":43.24915,"lon":5.38954,"is_reserved":false,"is_disabled":true,"rental_uris":{"android":"levelo://app?vid=57c83ce1-960e-466a-b6c5-d93bc130c53a","ios":"levelo://app?vid=57c83ce1-960e-466a-b6c5-d93bc130c53a"},"vehicle_type_id":"4","last_reported":1750230683,"current_range_meters":0,"station_id":"","pricing_plan_id":"cebpf4jnsgd1na2vs0mg"},{"bike_id":"a0f983ee-d620-4534-aa18-4913e0e766a9","system_id":"levelo_inurba_marseille","lat":43.30259,"lon":5.39945,"is_reserved":false,"is_disabled":true,"rental_uris":{"android":"levelo://app?vid=a0f983ee-d620-4534-aa18-4913e0e766a9","ios":"levelo://app?vid=a0f983ee-d620-4534-aa18-4913e0e766a9"},"vehicle_type_id":"4","last_reported":1750230683,"current_range_meters":0,"station_id":"","pricing_plan_id":"cebpf4jnsgd1na2vs0mg"},{"bike_id":"ec9718e9-c3ee-4ffe-9240-561b4200df28","system_id":"levelo_inurba_marseille","lat":43.30307,"lon":5.39206,"is_reserved":false,"is_disabled":true,"rental_uris":{"android":"levelo://app?vid=ec9718e9-c3ee-4ffe-9240-561b4200df28","ios":"levelo://app?vid=ec9718e9-c3ee-4ffe-9240-561b4200df28"},"vehicle_type_id":"4","last_reported":1750230683,"current_range_meters":0,"station_id":"ce4bgkh2rcd13ifvqbk0","pricing_plan_id":"cebpf4jnsgd1na2vs0mg"},{"bike_id":"db8278e4-0659-465e-8631-ca8e84d77d3b","system_id":"levelo_inurba_marseille","lat":43.30532,"lon":5.36731,"is_reserved":false,"is_disabled":true,"rental_uris":{"android":"levelo://app?vid=db8278e4-0659-465e-8631-ca8e84d77d3b","ios":"levelo://app?vid=db8278e4-0659-465e-8631-ca8e84d77d3b"},"vehicle_type_id":"4","last_reported":1750230683,"current_range_meters":0,"station_id":"ce4bgrp2rcd13ifvqc9g","pricing_plan_id":"cebpf4jnsgd1na2vs0mg"},{"bike_id":"0fa4e253-1aab-42e5-b7fd-a47abc9ffe8e","system_id":"levelo_inurba_marseille","lat":43.30143,"lon":5.3988,"is_reserved":false,"is_disabled":true,"rental_uris":{"android":"levelo://app?vid=0fa4e253-1aab-42e5-b7fd-a47abc9ffe8e","ios":"levelo://app?vid=0fa4e253-1aab-42e5-b7fd-a47abc9ffe8e"},"vehicle_type_id":"4","last_reported":1750230683,"current_range_meters":0,"station_id":"ce4bh0h2rcd13ifvqd40","pricing_plan_id":"cebpf4jnsgd1na2vs0mg"},{"bike_id":"db6045e3-cdd0-4b0e-8b29-2a66290d15b4","system_id":"levelo_inurba_marseille","lat":43.29257,"lon":5.40918,"is_reserved":false,"is_disabled":true,"rental_uris":{"android":"levelo://app?vid=db6045e3-cdd0-4b0e-8b29-2a66290d15b4","ios":"levelo://app?vid=db6045e3-cdd0-4b0e-8b29-2a66290d15b4"},"vehicle_type_id":"4","last_reported":1750230683,"current_range_meters":0,"station_id":"ce4bh192rcd13ifvqdc0","pricing_plan_id":"cebpf4jnsgd1na2vs0mg"},{"bike_id":"4cde5892-ac30-4d57-a34b-b825da34ac56","system_id":"levelo_inurba_marseille","lat":43.2943,"lon":5.38611,"is_reserved":false,"is_disabled":true,"rental_uris":{"android":"levelo://app?vid=4cde5892-ac30-4d57-a34b-b825da34ac56","ios":"levelo://app?vid=4cde5892-ac30-4d57-a34b-b825da34ac56"},"vehicle_type_id":"4","last_reported":1750230683,"current_range_meters":0,"station_id":"ce4bh2h2rcd13ifvqdh0","pricing_plan_id":"cebpf4jnsgd1na2vs0mg"},{"bike_id":"4222364c-4b05-4661-b007-c96e40dddfe8","system_id":"levelo_inurba_marseille","lat":43.28487,"lon":5.38425,"is_reserved":false,"is_disabled":true,"rental_uris":{"android":"levelo://app?vid=4222364c-4b05-4661-b007-c96e40dddfe8","ios":"levelo://app?vid=4222364c-4b05-4661-b007-c96e40dddfe8"},"vehicle_type_id":"4","last_reported":1750230683,"current_range_meters":0,"station_id":"ce4bh512rcd13ifvqe3g","pricing_plan_id":"cebpf4jnsgd1na2vs0mg"},{"bike_id":"57d9468a-ea66-4ef9-b5a6-b4ed5ee2e6f2","system_id":"levelo_inurba_marseille","lat":43.28455,"lon":5.38558,"is_reserved":false,"is_disabled":true,"rental_uris":{"android":"levelo://app?vid=57d9468a-ea66-4ef9-b5a6-b4ed5ee2e6f2","ios":"levelo://app?vid=57d9468a-ea66-4ef9-b5a6-b4ed5ee2e6f2"},"vehicle_type_id":"4","last_reported":1750230683,"current_range_meters":0,"station_id":"ce4bh8p2rcd13ifvqeb0","pricing_plan_id":"cebpf4jnsgd1na2vs0mg"},{"bike_id":"6ab1ca16-c4ac-44a0-8157-7fb72ffd7777","system_id":"levelo_inurba_marseille","lat":43.27085,"lon":5.42269,"is_reserved":false,"is_disabled":true,"rental_uris":{"android":"levelo://app?vid=6ab1ca16-c4ac-44a0-8157-7fb72ffd7777","ios":"levelo://app?vid=6ab1ca16-c4ac-44a0-8157-7fb72ffd7777"},"vehicle_type_id":"4","last_reported":1750230683,"current_range_meters":0,"station_id":"ce4bhk92rcd13ifvqgb0","pricing_plan_id":"cebpf4jnsgd1na2vs0mg"},{"bike_id":"228fabe7-5671-4f97-9c31-9eb37ab08a14","system_id":"levelo_inurba_marseille","lat":43.23152,"lon":5.43709,"is_reserved":false,"is_disabled":true,"rental_uris":{"android":"levelo://app?vid=228fabe7-5671-4f97-9c31-9eb37ab08a14","ios":"levelo://app?vid=228fabe7-5671-4f97-9c31-9eb37ab08a14"},"vehicle_type_id":"4","last_reported":1750230683,"current_range_meters":0,"station_id":"ce4bhmp2rcd13ifvqgog","pricing_plan_id":"cebpf4jnsgd1na2vs0mg"},{"bike_id":"5172a8b1-3874-4b73-bcc7-1627fb6f6479","system_id":"levelo_inurba_marseille","lat":43.2996,"lon":5.38502,"is_reserved":false,"is_disabled":true,"rental_uris":{"android":"levelo://app?vid=5172a8b1-3874-4b73-bcc7-1627fb6f6479","ios":"levelo://app?vid=5172a8b1-3874-4b73-bcc7-1627fb6f6479"},"vehicle_type_id":"4","last_reported":1750230683,"current_range_meters":400,"station_id":"ce4bgj92rcd13ifvqbd0","pricing_plan_id":"cebpf4jnsgd1na2vs0mg"},{"bike_id":"e66e7325-2f57-4dfa-897c-edbfe2d8288e","system_id":"levelo_inurba_marseille","lat":43.28101,"lon":5.37842,"is_reserved":false,"is_disabled":true,"rental_uris":{"android":"levelo://app?vid=e66e7325-2f57-4dfa-897c-edbfe2d8288e","ios":"levelo://app?vid=e66e7325-2f57-4dfa-897c-edbfe2d8288e"},"vehicle_type_id":"4","last_reported":1750230683,"current_range_meters":400,"station_id":"ce4bha12rcd13ifvqee0","pricing_plan_id":"cebpf4jnsgd1na2vs0mg"},{"bike_id":"6c647963-3549-4464-8782-3f0f38e38656","system_id":"levelo_inurba_marseille","lat":43.292277,"lon":5.360595,"is_reserved":false,"is_disabled":true,"rental_uris":{"android":"levelo://app?vid=6c647963-3549-4464-8782-3f0f38e38656","ios":"levelo://app?vid=6c647963-3549-4464-8782-3f0f38e38656"},"vehicle_type_id":"4","last_reported":1750230683,"current_range_meters":400,"station_id":"ce4bhbh2rcd13ifvqeqg","pricing_plan_id":"cebpf4jnsgd1na2vs0mg"},{"bike_id":"8737eba2-0720-4e29-949e-0f8cab6bf39f","system_id":"levelo_inurba_marseille","lat":43.24662,"lon":5.38166,"is_reserved":false,"is_disabled":true,"rental_uris":{"android":"levelo://app?vid=8737eba2-0720-4e29-949e-0f8cab6bf39f","ios":"levelo://app?vid=8737eba2-0720-4e29-949e-0f8cab6bf39f"},"vehicle_type_id":"4","last_reported":1750230683,"current_range_meters":800,"station_id":"ce4bhih2rcd13ifvqfr0","pricing_plan_id":"cebpf4jnsgd1na2vs0mg"},{"bike_id":"8d297b38-f666-4a46-9dee-0132f800019c","system_id":"levelo_inurba_marseille","lat":43.32192,"lon":5.38554,"is_reserved":false,"is_disabled":true,"rental_uris":{"android":"levelo://app?vid=8d297b38-f666-4a46-9dee-0132f800019c","ios":"levelo://app?vid=8d297b38-f666-4a46-9dee-0132f800019c"},"vehicle_type_id":"4","last_reported":1750230683,"current_range_meters":1200,"station_id":"","pricing_plan_id":"cebpf4jnsgd1na2vs0mg"},{"bike_id":"3b739518-fe16-477b-9202-c6684639a600","system_id":"levelo_inurba_marseille","lat":43.31238,"lon":5.36892,"is_reserved":false,"is_disabled":true,"rental_uris":{"android":"levelo://app?vid=3b739518-fe16-477b-9202-c6684639a600","ios":"levelo://app?vid=3b739518-fe16-477b-9202-c6684639a600"},"vehicle_type_id":"4","last_reported":1750230683,"current_range_meters":1200,"station_id":"ce4bgl92rcd13ifvqbq0","pricing_plan_id":"cebpf4jnsgd1na2vs0mg"},{"bike_id":"222de5be-c479-4947-a083-2136414e03dc","system_id":"levelo_inurba_marseille","lat":43.30304,"lon":5.36907,"is_reserved":false,"is_disabled":true,"rental_uris":{"android":"levelo://app?vid=222de5be-c479-4947-a083-2136414e03dc","ios":"levelo://app?vid=222de5be-c479-4947-a083-2136414e03dc"},"vehicle_type_id":"4","last_reported":1750230683,"current_range_meters":1200,"station_id":"ce4bgqh2rcd13ifvqc5g","pricing_plan_id":"cebpf4jnsgd1na2vs0mg"},{"bike_id":"9778b22b-eaec-4834-b33e-3404569f8ffc","system_id":"levelo_inurba_marseille","lat":43.29297,"lon":5.37444,"is_reserved":false,"is_disabled":true,"rental_uris":{"android":"levelo://app?vid=9778b22b-eaec-4834-b33e-3404569f8ffc","ios":"levelo://app?vid=9778b22b-eaec-4834-b33e-3404569f8ffc"},"vehicle_type_id":"4","last_reported":1750230683,"current_range_meters":2000,"station_id":"ce4bgi12rcd13ifvqb70","pricing_plan_id":"cebpf4jnsgd1na2vs0mg"},{"bike_id":"009dce3b-4b48-412b-8cf1-2201ecb6a2ed","system_id":"levelo_inurba_marseille","lat":43.29787,"lon":5.38099,"is_reserved":false,"is_disabled":true,"rental_uris":{"android":"levelo://app?vid=009dce3b-4b48-412b-8cf1-2201ecb6a2ed","ios":"levelo://app?vid=009dce3b-4b48-412b-8cf1-2201ecb6a2ed"},"vehicle_type_id":"4","last_reported":1750230683,"current_range_meters":2000,"station_id":"ce4bgip2rcd13ifvqbb0","pricing_plan_id":"cebpf4jnsgd1na2vs0mg"},{"bike_id":"38deea14-08f9-4114-aad5-3a0aa08a2b26","system_id":"levelo_inurba_marseille","lat":43.27886,"lon":5.3962,"is_reserved":false,"is_disabled":true,"rental_uris":{"android":"levelo://app?vid=38deea14-08f9-4114-aad5-3a0aa08a2b26","ios":"levelo://app?vid=38deea14-08f9-4114-aad5-3a0aa08a2b26"},"vehicle_type_id":"4","last_reported":1750230683,"current_range_meters":2000,"station_id":"ce4bhf92rcd13ifvqf40","pricing_plan_id":"cebpf4jnsgd1na2vs0mg"},{"bike_id":"51677607-d228-43b7-a4a5-8c3ce4e089fd","system_id":"levelo_inurba_marseille","lat":43.30162,"lon":5.38038,"is_reserved":false,"is_disabled":false,"rental_uris":{"android":"levelo://app?vid=51677607-d228-43b7-a4a5-8c3ce4e089fd","ios":"levelo://app?vid=51677607-d228-43b7-a4a5-8c3ce4e089fd"},"vehicle_type_id":"4","last_reported":1750230683,"current_range_meters":3200,"station_id":"ce4bgjp2rcd13ifvqbh0","pricing_plan_id":"cebpf4jnsgd1na2vs0mg"},{"bike_id":"fe348336-3c51-4041-a243-a97a31124c0c","system_id":"levelo_inurba_marseille","lat":43.29729,"lon":5.37688,"is_reserved":false,"is_disabled":false,"rental_uris":{"android":"levelo://app?vid=fe348336-3c51-4041-a243-a97a31124c0c","ios":"levelo://app?vid=fe348336-3c51-4041-a243-a97a31124c0c"},"vehicle_type_id":"4","last_reported":1750230683,"current_range_meters":3200,"station_id":"ce4bgkh2rcd13ifvqbl0","pricing_plan_id":"cebpf4jnsgd1na2vs0mg"},{"bike_id":"ec56c0e8-9ee1-4097-9ce4-2d252ca00d51","system_id":"levelo_inurba_marseille","lat":43.29511,"lon":5.375,"is_reserved":false,"is_disabled":false,"rental_uris":{"android":"levelo://app?vid=ec56c0e8-9ee1-4097-9ce4-2d252ca00d51","ios":"levelo://app?vid=ec56c0e8-9ee1-4097-9ce4-2d252ca00d51"},"vehicle_type_id":"4","last_reported":1750230683,"current_range_meters":3200,"station_id":"ce4bgkp2rcd13ifvqbmg","pricing_plan_id":"cebpf4jnsgd1na2vs0mg"},{"bike_id":"6e32a192-26d9-4307-b797-48573a4fdefc","system_id":"levelo_inurba_marseille","lat":43.31226,"lon":5.36877,"is_reserved":false,"is_disabled":false,"rental_uris":{"android":"levelo://app?vid=6e32a192-26d9-4307-b797-48573a4fdefc","ios":"levelo://app?vid=6e32a192-26d9-4307-b797-48573a4fdefc"},"vehicle_type_id":"4","last_reported":1750230683,"current_range_meters":3200,"station_id":"ce4bgl92rcd13ifvqbq0","pricing_plan_id":"cebpf4jnsgd1na2vs0mg"},{"bike_id":"c63a9814-e6f5-4f32-83d8-419def890de5","system_id":"levelo_inurba_marseille","lat":43.31348,"lon":5.36722,"is_reserved":false,"is_disabled":false,"rental_uris":{"android":"levelo://app?vid=c63a9814-e6f5-4f32-83d8-419def890de5","ios":"levelo://app?vid=c63a9814-e6f5-4f32-83d8-419def890de5"},"vehicle_type_id":"4","last_reported":1750230683,"current_range_meters":3200,"station_id":"ce4bgr92rcd13ifvqc6g","pricing_plan_id":"cebpf4jnsgd1na2vs0mg"},{"bike_id":"fd18f0d3-829a-42eb-a928-0cef3fc285dd","system_id":"levelo_inurba_marseille","lat":43.28107,"lon":5.37836,"is_reserved":false,"is_disabled":false,"rental_uris":{"android":"levelo://app?vid=fd18f0d3-829a-42eb-a928-0cef3fc285dd","ios":"levelo://app?vid=fd18f0d3-829a-42eb-a928-0cef3fc285dd"},"vehicle_type_id":"4","last_reported":1750230683,"current_range_meters":3200,"station_id":"ce4bha12rcd13ifvqee0","pricing_plan_id":"cebpf4jnsgd1na2vs0mg"},{"bike_id":"a7816b17-c650-4799-bf89-9abe6b32012f","system_id":"levelo_inurba_marseille","lat":43.24805,"lon":5.37456,"is_reserved":false,"is_disabled":false,"rental_uris":{"android":"levelo://app?vid=a7816b17-c650-4799-bf89-9abe6b32012f","ios":"levelo://app?vid=a7816b17-c650-4799-bf89-9abe6b32012f"},"vehicle_type_id":"4","last_reported":1750230683,"current_range_meters":3200,"station_id":"ce4bhgh2rcd13ifvqfb0","pricing_plan_id":"cebpf4jnsgd1na2vs0mg"},{"bike_id":"eed1cb51-f55b-47b1-9ff3-1a4d7732696b","system_id":"levelo_inurba_marseille","lat":43.27316,"lon":5.39076,"is_reserved":false,"is_disabled":false,"rental_uris":{"android":"levelo://app?vid=eed1cb51-f55b-47b1-9ff3-1a4d7732696b","ios":"levelo://app?vid=eed1cb51-f55b-47b1-9ff3-1a4d7732696b"},"vehicle_type_id":"4","last_reported":1750230683,"current_range_meters":3200,"station_id":"ce4bhgp2rcd13ifvqfe0","pricing_plan_id":"cebpf4jnsgd1na2vs0mg"},{"bike_id":"49da1d70-8c28-4afa-8ea5-4ebf8e5e437a","system_id":"levelo_inurba_marseille","lat":43.33599,"lon":5.40982,"is_reserved":false,"is_disabled":false,"rental_uris":{"android":"levelo://app?vid=49da1d70-8c28-4afa-8ea5-4ebf8e5e437a","ios":"levelo://app?vid=49da1d70-8c28-4afa-8ea5-4ebf8e5e437a"},"vehicle_type_id":"4","last_reported":1750230683,"current_range_meters":3200,"station_id":"ce4bhqh2rcd13ifvqhmg","pricing_plan_id":"cebpf4jnsgd1na2vs0mg"},{"bike_id":"2395248d-0fef-4e4f-ba8e-f8283c94ae53","system_id":"levelo_inurba_marseille","lat":43.31238,"lon":5.39496,"is_reserved":false,"is_disabled":false,"rental_uris":{"android":"levelo://app?vid=2395248d-0fef-4e4f-ba8e-f8283c94ae53","ios":"levelo://app?vid=2395248d-0fef-4e4f-ba8e-f8283c94ae53"},"vehicle_type_id":"4","last_reported":1750230683,"current_range_meters":3600,"station_id":"","pricing_plan_id":"cebpf4jnsgd1na2vs0mg"},{"bike_id":"40bf692c-bf29-4c80-8d85-9b8aa27b6701","system_id":"levelo_inurba_marseille","lat":43.29298,"lon":5.37472,"is_reserved":false,"is_disabled":false,"rental_uris":{"android":"levelo://app?vid=40bf692c-bf29-4c80-8d85-9b8aa27b6701","ios":"levelo://app?vid=40bf692c-bf29-4c80-8d85-9b8aa27b6701"},"vehicle_type_id":"4","last_reported":1750230683,"current_range_meters":3600,"station_id":"ce4bgi12rcd13ifvqb70","pricing_plan_id":"cebpf4jnsgd1na2vs0mg"},{"bike_id":"99216c03-4056-4425-8cdf-f5a649497eb0","system_id":"levelo_inurba_marseille","lat":43.3052,"lon":5.36541,"is_reserved":false,"is_disabled":false,"rental_uris":{"android":"levelo://app?vid=99216c03-4056-4425-8cdf-f5a649497eb0","ios":"levelo://app?vid=99216c03-4056-4425-8cdf-f5a649497eb0"},"vehicle_type_id":"4","last_reported":1750230683,"current_range_meters":3600,"station_id":"ce4bgs12rcd13ifvqcag","pricing_plan_id":"cebpf4jnsgd1na2vs0mg"},{"bike_id":"317b7757-3526-49e1-84fb-91d5444692c0","system_id":"levelo_inurba_marseille","lat":43.26679,"lon":5.38274,"is_reserved":false,"is_disabled":false,"rental_uris":{"android":"levelo://app?vid=317b7757-3526-49e1-84fb-91d5444692c0","ios":"levelo://app?vid=317b7757-3526-49e1-84fb-91d5444692c0"},"vehicle_type_id":"4","last_reported":1750230683,"current_range_meters":3600,"station_id":"ce4bhg92rcd13ifvqf90","pricing_plan_id":"cebpf4jnsgd1na2vs0mg"},{"bike_id":"47196f00-388f-4b3b-a4de-3dba126cd107","system_id":"levelo_inurba_marseille","lat":43.24353,"lon":5.41154,"is_reserved":false,"is_disabled":false,"rental_uris":{"android":"levelo://app?vid=47196f00-388f-4b3b-a4de-3dba126cd107","ios":"levelo://app?vid=47196f00-388f-4b3b-a4de-3dba126cd107"},"vehicle_type_id":"4","last_reported":1750230683,"current_range_meters":4000,"station_id":"","pricing_plan_id":"cebpf4jnsgd1na2vs0mg"},{"bike_id":"7d5a1ef5-c109-4977-b182-4addb0e38b1d","system_id":"levelo_inurba_marseille","lat":43.3064,"lon":5.37287,"is_reserved":false,"is_disabled":false,"rental_uris":{"android":"levelo://app?vid=7d5a1ef5-c109-4977-b182-4addb0e38b1d","ios":"levelo://app?vid=7d5a1ef5-c109-4977-b182-4addb0e38b1d"},"vehicle_type_id":"4","last_reported":1750230683,"current_range_meters":4000,"station_id":"","pricing_plan_id":"cebpf4jnsgd1na2vs0mg"},{"bike_id":"723612c9-b4cc-4101-badd-cf63928f4875","system_id":"levelo_inurba_marseille","lat":43.26686,"lon":5.38279,"is_reserved":false,"is_disabled":false,"rental_uris":{"android":"levelo://app?vid=723612c9-b4cc-4101-badd-cf63928f4875","ios":"levelo://app?vid=723612c9-b4cc-4101-badd-cf63928f4875"},"vehicle_type_id":"4","last_reported":1750230683,"current_range_meters":4000,"station_id":"ce4bhg92rcd13ifvqf90","pricing_plan_id":"cebpf4jnsgd1na2vs0mg"},{"bike_id":"bd33a054-ae64-4d8a-8b18-29139bd909b5","system_id":"levelo_inurba_marseille","lat":43.264988,"lon":5.395443,"is_reserved":false,"is_disabled":false,"rental_uris":{"android":"levelo://app?vid=bd33a054-ae64-4d8a-8b18-29139bd909b5","ios":"levelo://app?vid=bd33a054-ae64-4d8a-8b18-29139bd909b5"},"vehicle_type_id":"4","last_reported":1750230683,"current_range_meters":4000,"station_id":"ce4bhi12rcd13ifvqfq0","pricing_plan_id":"cebpf4jnsgd1na2vs0mg"},{"bike_id":"d3237797-d5c1-4f86-a57c-80035b0a4dc8","system_id":"levelo_inurba_marseille","lat":43.31706,"lon":5.37768,"is_reserved":false,"is_disabled":false,"rental_uris":{"android":"levelo://app?vid=d3237797-d5c1-4f86-a57c-80035b0a4dc8","ios":"levelo://app?vid=d3237797-d5c1-4f86-a57c-80035b0a4dc8"},"vehicle_type_id":"4","last_reported":1750230683,"current_range_meters":4400,"station_id":"ce4bgth2rcd13ifvqch0","pricing_plan_id":"cebpf4jnsgd1na2vs0mg"},{"bike_id":"e9a26bd8-0af4-4669-8ac0-c6bd0cf8975d","system_id":"levelo_inurba_marseille","lat":43.28476,"lon":5.38425,"is_reserved":false,"is_disabled":false,"rental_uris":{"android":"levelo://app?vid=e9a26bd8-0af4-4669-8ac0-c6bd0cf8975d","ios":"levelo://app?vid=e9a26bd8-0af4-4669-8ac0-c6bd0cf8975d"},"vehicle_type_id":"4","last_reported":1750230683,"current_range_meters":4400,"station_id":"ce4bh512rcd13ifvqe3g","pricing_plan_id":"cebpf4jnsgd1na2vs0mg"},{"bike_id":"ddae5016-dcc7-4b12-92f2-d2bd3fbdc3b5","system_id":"levelo_inurba_marseille","lat":43.27665,"lon":5.3891,"is_reserved":false,"is_disabled":false,"rental_uris":{"android":"levelo://app?vid=ddae5016-dcc7-4b12-92f2-d2bd3fbdc3b5","ios":"levelo://app?vid=ddae5016-dcc7-4b12-92f2-d2bd3fbdc3b5"},"vehicle_type_id":"4","last_reported":1750230683,"current_range_meters":4400,"station_id":"ce4bhi12rcd13ifvqfo0","pricing_plan_id":"cebpf4jnsgd1na2vs0mg"},{"bike_id":"5c89560d-2f07-46ac-a157-0bf2d3af10d7","system_id":"levelo_inurba_marseille","lat":43.254267,"lon":5.41362,"is_reserved":false,"is_disabled":false,"rental_uris":{"android":"levelo://app?vid=5c89560d-2f07-46ac-a157-0bf2d3af10d7","ios":"levelo://app?vid=5c89560d-2f07-46ac-a157-0bf2d3af10d7"},"vehicle_type_id":"4","last_reported":1750230683,"current_range_meters":4400,"station_id":"ce4bhkp2rcd13ifvqgd0","pricing_plan_id":"cebpf4jnsgd1na2vs0mg"},{"bike_id":"8a53a906-0bca-4e21-911d-dc3cfe5c1032","system_id":"levelo_inurba_marseille","lat":43.29762,"lon":5.37103,"is_reserved":false,"is_disabled":false,"rental_uris":{"android":"levelo://app?vid=8a53a906-0bca-4e21-911d-dc3cfe5c1032","ios":"levelo://app?vid=8a53a906-0bca-4e21-911d-dc3cfe5c1032"},"vehicle_type_id":"4","last_reported":1750230683,"current_range_meters":4800,"station_id":"ce4bgop2rcd13ifvqc1g","pricing_plan_id":"cebpf4jnsgd1na2vs0mg"},{"bike_id":"40d2e5b4-0ebb-4065-9c7b-cf4695810f4a","system_id":"levelo_inurba_marseille","lat":43.30526,"lon":5.36718,"is_reserved":false,"is_disabled":false,"rental_uris":{"android":"levelo://app?vid=40d2e5b4-0ebb-4065-9c7b-cf4695810f4a","ios":"levelo://app?vid=40d2e5b4-0ebb-4065-9c7b-cf4695810f4a"},"vehicle_type_id":"4","last_reported":1750230683,"current_range_meters":4800,"station_id":"ce4bgrp2rcd13ifvqc9g","pricing_plan_id":"cebpf4jnsgd1na2vs0mg"},{"bike_id":"5358b31f-97eb-4c1c-a4aa-f9cb5ad925c9","system_id":"levelo_inurba_marseille","lat":43.26059,"lon":5.39402,"is_reserved":false,"is_disabled":false,"rental_uris":{"android":"levelo://app?vid=5358b31f-97eb-4c1c-a4aa-f9cb5ad925c9","ios":"levelo://app?vid=5358b31f-97eb-4c1c-a4aa-f9cb5ad925c9"},"vehicle_type_id":"4","last_reported":1750230683,"current_range_meters":4800,"station_id":"ce4bhh92rcd13ifvqfj0","pricing_plan_id":"cebpf4jnsgd1na2vs0mg"},{"bike_id":"6eb84edd-26ac-4eb9-92d7-d1dbc05ff85e","system_id":"levelo_inurba_marseille","lat":43.27206,"lon":5.39199,"is_reserved":false,"is_disabled":false,"rental_uris":{"android":"levelo://app?vid=6eb84edd-26ac-4eb9-92d7-d1dbc05ff85e","ios":"levelo://app?vid=6eb84edd-26ac-4eb9-92d7-d1dbc05ff85e"},"vehicle_type_id":"4","last_reported":1750230683,"current_range_meters":4800,"station_id":"ce4bhhp2rcd13ifvqfm0","pricing_plan_id":"cebpf4jnsgd1na2vs0mg"},{"bike_id":"6077fb26-cc55-4cc9-84b6-5490e0d9eb92","system_id":"levelo_inurba_marseille","lat":43.2319,"lon":5.39991,"is_reserved":false,"is_disabled":false,"rental_uris":{"android":"levelo://app?vid=6077fb26-cc55-4cc9-84b6-5490e0d9eb92","ios":"levelo://app?vid=6077fb26-cc55-4cc9-84b6-5490e0d9eb92"},"vehicle_type_id":"4","last_reported":1750230683,"current_range_meters":4800,"station_id":"ce4bhn12rcd13ifvqgqg","pricing_plan_id":"cebpf4jnsgd1na2vs0mg"},{"bike_id":"ec893ad1-cd34-42b3-a918-50518c985a41","system_id":"levelo_inurba_marseille","lat":43.31341,"lon":5.3673,"is_reserved":false,"is_disabled":false,"rental_uris":{"android":"levelo://app?vid=ec893ad1-cd34-42b3-a918-50518c985a41","ios":"levelo://app?vid=ec893ad1-cd34-42b3-a918-50518c985a41"},"vehicle_type_id":"4","last_reported":1750230683,"current_range_meters":5600,"station_id":"ce4bgr92rcd13ifvqc6g","pricing_plan_id":"cebpf4jnsgd1na2vs0mg"},{"bike_id":"1c8dd34b-9d03-492f-aa85-8944da27fde3","system_id":"levelo_inurba_marseille","lat":43.28608,"lon":5.37063,"is_reserved":false,"is_disabled":false,"rental_uris":{"android":"levelo://app?vid=1c8dd34b-9d03-492f-aa85-8944da27fde3","ios":"levelo://app?vid=1c8dd34b-9d03-492f-aa85-8944da27fde3"},"vehicle_type_id":"4","last_reported":1750230683,"current_range_meters":5600,"station_id":"ce4bht12rcd13ifvqi60","pricing_plan_id":"cebpf4jnsgd1na2vs0mg"},{"bike_id":"2558e9f4-c29a-4675-bea7-401adb97d527","system_id":"levelo_inurba_marseille","lat":43.33082,"lon":5.40873,"is_reserved":false,"is_disabled":false,"rental_uris":{"android":"levelo://app?vid=2558e9f4-c29a-4675-bea7-401adb97d527","ios":"levelo://app?vid=2558e9f4-c29a-4675-bea7-401adb97d527"},"vehicle_type_id":"4","last_reported":1750230683,"current_range_meters":6000,"station_id":"","pricing_plan_id":"cebpf4jnsgd1na2vs0mg"},{"bike_id":"ad667941-18cf-4a61-adf1-191fd27c5848","system_id":"levelo_inurba_marseille","lat":43.2926,"lon":5.40881,"is_reserved":false,"is_disabled":false,"rental_uris":{"android":"levelo://app?vid=ad667941-18cf-4a61-adf1-191fd27c5848","ios":"levelo://app?vid=ad667941-18cf-4a61-adf1-191fd27c5848"},"vehicle_type_id":"4","last_reported":1750230683,"current_range_meters":6000,"station_id":"ce4bh192rcd13ifvqdc0","pricing_plan_id":"cebpf4jnsgd1na2vs0mg"},{"bike_id":"4725c252-85ac-407a-96e9-152f92d9f4b9","system_id":"levelo_inurba_marseille","lat":43.29046,"lon":5.39971,"is_reserved":false,"is_disabled":false,"rental_uris":{"android":"levelo://app?vid=4725c252-85ac-407a-96e9-152f92d9f4b9","ios":"levelo://app?vid=4725c252-85ac-407a-96e9-152f92d9f4b9"},"vehicle_type_id":"4","last_reported":1750230683,"current_range_meters":6000,"station_id":"ce4bh392rcd13ifvqdm0","pricing_plan_id":"cebpf4jnsgd1na2vs0mg"},{"bike_id":"d0f0a189-5111-4e44-9da9-645c982f81aa","system_id":"levelo_inurba_marseille","lat":43.31344,"lon":5.36735,"is_reserved":false,"is_disabled":false,"rental_uris":{"android":"levelo://app?vid=d0f0a189-5111-4e44-9da9-645c982f81aa","ios":"levelo://app?vid=d0f0a189-5111-4e44-9da9-645c982f81aa"},"vehicle_type_id":"4","last_reported":1750230683,"current_range_meters":6400,"station_id":"ce4bgr92rcd13ifvqc6g","pricing_plan_id":"cebpf4jnsgd1na2vs0mg"},{"bike_id":"9fe8ff13-f103-438d-85cc-8e14fbcd72b1","system_id":"levelo_inurba_marseille","lat":43.3037,"lon":5.42491,"is_reserved":false,"is_disabled":false,"rental_uris":{"android":"levelo://app?vid=9fe8ff13-f103-438d-85cc-8e14fbcd72b1","ios":"levelo://app?vid=9fe8ff13-f103-438d-85cc-8e14fbcd72b1"},"vehicle_type_id":"4","last_reported":1750230683,"current_range_meters":6400,"station_id":"ce4bhoh2rcd13ifvqh6g","pricing_plan_id":"cebpf4jnsgd1na2vs0mg"},{"bike_id":"6ba80795-26da-43fa-ab60-6831760385ff","system_id":"levelo_inurba_marseille","lat":43.32579,"lon":5.41983,"is_reserved":false,"is_disabled":false,"rental_uris":{"android":"levelo://app?vid=6ba80795-26da-43fa-ab60-6831760385ff","ios":"levelo://app?vid=6ba80795-26da-43fa-ab60-6831760385ff"},"vehicle_type_id":"4","last_reported":1750230683,"current_range_meters":6800,"station_id":"","pricing_plan_id":"cebpf4jnsgd1na2vs0mg"},{"bike_id":"b0b6eabb-edef-4f3f-9685-0ce58b1dad0a","system_id":"levelo_inurba_marseille","lat":43.2993,"lon":5.36557,"is_reserved":false,"is_disabled":false,"rental_uris":{"android":"levelo://app?vid=b0b6eabb-edef-4f3f-9685-0ce58b1dad0a","ios":"levelo://app?vid=b0b6eabb-edef-4f3f-9685-0ce58b1dad0a"},"vehicle_type_id":"4","last_reported":1750230683,"current_range_meters":6800,"station_id":"ce4bgm92rcd13ifvqbr0","pricing_plan_id":"cebpf4jnsgd1na2vs0mg"},{"bike_id":"2561f5be-a5da-4006-909a-87e7eb88a505","system_id":"levelo_inurba_marseille","lat":43.2984,"lon":5.36273,"is_reserved":false,"is_disabled":false,"rental_uris":{"android":"levelo://app?vid=2561f5be-a5da-4006-909a-87e7eb88a505","ios":"levelo://app?vid=2561f5be-a5da-4006-909a-87e7eb88a505"},"vehicle_type_id":"4","last_reported":1750230683,"current_range_meters":6800,"station_id":"ce4bgpp2rcd13ifvqc3g","pricing_plan_id":"cebpf4jnsgd1na2vs0mg"},{"bike_id":"b72e78eb-c13b-4a46-8d83-e4b5db28583a","system_id":"levelo_inurba_marseille","lat":43.26684,"lon":5.3828,"is_reserved":false,"is_disabled":false,"rental_uris":{"android":"levelo://app?vid=b72e78eb-c13b-4a46-8d83-e4b5db28583a","ios":"levelo://app?vid=b72e78eb-c13b-4a46-8d83-e4b5db28583a"},"vehicle_type_id":"4","last_reported":1750230683,"current_range_meters":6800,"station_id":"ce4bhg92rcd13ifvqf90","pricing_plan_id":"cebpf4jnsgd1na2vs0mg"},{"bike_id":"6231aa10-e957-4104-84f5-3f780dbef354","system_id":"levelo_inurba_marseille","lat":43.270108,"lon":5.402486,"is_reserved":false,"is_disabled":false,"rental_uris":{"android":"levelo://app?vid=6231aa10-e957-4104-84f5-3f780dbef354","ios":"levelo://app?vid=6231aa10-e957-4104-84f5-3f780dbef354"},"vehicle_type_id":"4","last_reported":1750230683,"current_range_meters":6800,"station_id":"ce4bhh12rcd13ifvqfg0","pricing_plan_id":"cebpf4jnsgd1na2vs0mg"},{"bike_id":"2fc84838-7f9b-4751-bffb-a48b3058b522","system_id":"levelo_inurba_marseille","lat":43.24179,"lon":5.3973,"is_reserved":false,"is_disabled":false,"rental_uris":{"android":"levelo://app?vid=2fc84838-7f9b-4751-bffb-a48b3058b522","ios":"levelo://app?vid=2fc84838-7f9b-4751-bffb-a48b3058b522"},"vehicle_type_id":"4","last_reported":1750230683,"current_range_meters":6800,"station_id":"ce4bhn12rcd13ifvqgpg","pricing_plan_id":"cebpf4jnsgd1na2vs0mg"},{"bike_id":"e03a6d42-f362-4878-ab56-4b5afba95b0c","system_id":"levelo_inurba_marseille","lat":43.31484,"lon":5.36918,"is_reserved":false,"is_disabled":false,"rental_uris":{"android":"levelo://app?vid=e03a6d42-f362-4878-ab56-4b5afba95b0c","ios":"levelo://app?vid=e03a6d42-f362-4878-ab56-4b5afba95b0c"},"vehicle_type_id":"4","last_reported":1750230683,"current_range_meters":7200,"station_id":"","pricing_plan_id":"cebpf4jnsgd1na2vs0mg"},{"bike_id":"ae4a7bb6-19ec-4528-ba2f-4c58721d2ee8","system_id":"levelo_inurba_marseille","lat":43.23333,"lon":5.43573,"is_reserved":false,"is_disabled":false,"rental_uris":{"android":"levelo://app?vid=ae4a7bb6-19ec-4528-ba2f-4c58721d2ee8","ios":"levelo://app?vid=ae4a7bb6-19ec-4528-ba2f-4c58721d2ee8"},"vehicle_type_id":"4","last_reported":1750230683,"current_range_meters":7200,"station_id":"","pricing_plan_id":"cebpf4jnsgd1na2vs0mg"},{"bike_id":"2e8dba59-57af-4630-9f45-96a74b1cfab6","system_id":"levelo_inurba_marseille","lat":43.30529,"lon":5.38416,"is_reserved":false,"is_disabled":false,"rental_uris":{"android":"levelo://app?vid=2e8dba59-57af-4630-9f45-96a74b1cfab6","ios":"levelo://app?vid=2e8dba59-57af-4630-9f45-96a74b1cfab6"},"vehicle_type_id":"4","last_reported":1750230683,"current_range_meters":7200,"station_id":"ce4bgg92rcd13ifvqb30","pricing_plan_id":"cebpf4jnsgd1na2vs0mg"},{"bike_id":"155caed6-3aa1-4545-9937-e341e0c98de7","system_id":"levelo_inurba_marseille","lat":43.30544,"lon":5.36715,"is_reserved":false,"is_disabled":false,"rental_uris":{"android":"levelo://app?vid=155caed6-3aa1-4545-9937-e341e0c98de7","ios":"levelo://app?vid=155caed6-3aa1-4545-9937-e341e0c98de7"},"vehicle_type_id":"4","last_reported":1750230683,"current_range_meters":7200,"station_id":"ce4bgrp2rcd13ifvqc9g","pricing_plan_id":"cebpf4jnsgd1na2vs0mg"},{"bike_id":"b63116e8-fe43-41d9-9919-14ebaa412ebd","system_id":"levelo_inurba_marseille","lat":43.33751,"lon":5.37499,"is_reserved":false,"is_disabled":false,"rental_uris":{"android":"levelo://app?vid=b63116e8-fe43-41d9-9919-14ebaa412ebd","ios":"levelo://app?vid=b63116e8-fe43-41d9-9919-14ebaa412ebd"},"vehicle_type_id":"4","last_reported":1750230683,"current_range_meters":8000,"station_id":"","pricing_plan_id":"cebpf4jnsgd1na2vs0mg"},{"bike_id":"5280e54d-787c-4b48-b874-6b327ecee51a","system_id":"levelo_inurba_marseille","lat":43.303,"lon":5.36884,"is_reserved":false,"is_disabled":false,"rental_uris":{"android":"levelo://app?vid=5280e54d-787c-4b48-b874-6b327ecee51a","ios":"levelo://app?vid=5280e54d-787c-4b48-b874-6b327ecee51a"},"vehicle_type_id":"4","last_reported":1750230683,"current_range_meters":8000,"station_id":"ce4bgqh2rcd13ifvqc5g","pricing_plan_id":"cebpf4jnsgd1na2vs0mg"},{"bike_id":"599edd48-0a29-4db2-9ab4-b98d5514d266","system_id":"levelo_inurba_marseille","lat":43.31352,"lon":5.36738,"is_reserved":false,"is_disabled":false,"rental_uris":{"android":"levelo://app?vid=599edd48-0a29-4db2-9ab4-b98d5514d266","ios":"levelo://app?vid=599edd48-0a29-4db2-9ab4-b98d5514d266"},"vehicle_type_id":"4","last_reported":1750230683,"current_range_meters":8000,"station_id":"ce4bgr92rcd13ifvqc6g","pricing_plan_id":"cebpf4jnsgd1na2vs0mg"},{"bike_id":"32681a94-c1c6-4ccc-b0dd-7de7e29cd3d8","system_id":"levelo_inurba_marseille","lat":43.30545,"lon":5.36549,"is_reserved":false,"is_disabled":false,"rental_uris":{"android":"levelo://app?vid=32681a94-c1c6-4ccc-b0dd-7de7e29cd3d8","ios":"levelo://app?vid=32681a94-c1c6-4ccc-b0dd-7de7e29cd3d8"},"vehicle_type_id":"4","last_reported":1750230683,"current_range_meters":8000,"station_id":"ce4bgs12rcd13ifvqcag","pricing_plan_id":"cebpf4jnsgd1na2vs0mg"},{"bike_id":"a61b5704-dba0-4368-9aca-0304aa03a965","system_id":"levelo_inurba_marseille","lat":43.28613,"lon":5.35107,"is_reserved":false,"is_disabled":false,"rental_uris":{"android":"levelo://app?vid=a61b5704-dba0-4368-9aca-0304aa03a965","ios":"levelo://app?vid=a61b5704-dba0-4368-9aca-0304aa03a965"},"vehicle_type_id":"4","last_reported":1750230683,"current_range_meters":8000,"station_id":"ce4bhch2rcd13ifvqeug","pricing_plan_id":"cebpf4jnsgd1na2vs0mg"},{"bike_id":"3ec5f447-9536-4917-8ee7-ce8ef58406ed","system_id":"levelo_inurba_marseille","lat":43.25717,"lon":5.41115,"is_reserved":false,"is_disabled":false,"rental_uris":{"android":"levelo://app?vid=3ec5f447-9536-4917-8ee7-ce8ef58406ed","ios":"levelo://app?vid=3ec5f447-9536-4917-8ee7-ce8ef58406ed"},"vehicle_type_id":"4","last_reported":1750230683,"current_range_meters":8000,"station_id":"ce4bhkp2rcd13ifvqgd0","pricing_plan_id":"cebpf4jnsgd1na2vs0mg"},{"bike_id":"582929f4-74ce-4c56-8f26-f3dea033a12e","system_id":"levelo_inurba_marseille","lat":43.25947,"lon":5.40876,"is_reserved":false,"is_disabled":false,"rental_uris":{"android":"levelo://app?vid=582929f4-74ce-4c56-8f26-f3dea033a12e","ios":"levelo://app?vid=582929f4-74ce-4c56-8f26-f3dea033a12e"},"vehicle_type_id":"4","last_reported":1750230683,"current_range_meters":8000,"station_id":"ce4bhm92rcd13ifvqglg","pricing_plan_id":"cebpf4jnsgd1na2vs0mg"},{"bike_id":"3b136301-d892-4bf1-aa15-695ec30464ca","system_id":"levelo_inurba_marseille","lat":43.32097,"lon":5.36764,"is_reserved":false,"is_disabled":false,"rental_uris":{"android":"levelo://app?vid=3b136301-d892-4bf1-aa15-695ec30464ca","ios":"levelo://app?vid=3b136301-d892-4bf1-aa15-695ec30464ca"},"vehicle_type_id":"4","last_reported":1750230683,"current_range_meters":8000,"station_id":"ce4bhrh2rcd13ifvqhug","pricing_plan_id":"cebpf4jnsgd1na2vs0mg"},{"bike_id":"ae8524c6-7b10-43ef-8ed4-b8035f1213c1","system_id":"levelo_inurba_marseille","lat":43.33417,"lon":5.4004,"is_reserved":false,"is_disabled":false,"rental_uris":{"android":"levelo://app?vid=ae8524c6-7b10-43ef-8ed4-b8035f1213c1","ios":"levelo://app?vid=ae8524c6-7b10-43ef-8ed4-b8035f1213c1"},"vehicle_type_id":"4","last_reported":1750230683,"current_range_meters":8400,"station_id":"","pricing_plan_id":"cebpf4jnsgd1na2vs0mg"},{"bike_id":"13603010-4ba6-45d8-8742-faf7a41367fa","system_id":"levelo_inurba_marseille","lat":43.29218,"lon":5.38306,"is_reserved":false,"is_disabled":false,"rental_uris":{"android":"levelo://app?vid=13603010-4ba6-45d8-8742-faf7a41367fa","ios":"levelo://app?vid=13603010-4ba6-45d8-8742-faf7a41367fa"},"vehicle_type_id":"4","last_reported":1750230683,"current_range_meters":8400,"station_id":"","pricing_plan_id":"cebpf4jnsgd1na2vs0mg"},{"bike_id":"cc7142c6-34ef-4b0c-a302-c657990c1b31","system_id":"levelo_inurba_marseille","lat":43.30555,"lon":5.3655,"is_reserved":false,"is_disabled":false,"rental_uris":{"android":"levelo://app?vid=cc7142c6-34ef-4b0c-a302-c657990c1b31","ios":"levelo://app?vid=cc7142c6-34ef-4b0c-a302-c657990c1b31"},"vehicle_type_id":"4","last_reported":1750230683,"current_range_meters":8400,"station_id":"ce4bgs12rcd13ifvqcag","pricing_plan_id":"cebpf4jnsgd1na2vs0mg"},{"bike_id":"5b481768-f577-41d0-be9c-0841b574bdee","system_id":"levelo_inurba_marseille","lat":43.25936,"lon":5.40909,"is_reserved":false,"is_disabled":false,"rental_uris":{"android":"levelo://app?vid=5b481768-f577-41d0-be9c-0841b574bdee","ios":"levelo://app?vid=5b481768-f577-41d0-be9c-0841b574bdee"},"vehicle_type_id":"4","last_reported":1750230683,"current_range_meters":8400,"station_id":"ce4bhm92rcd13ifvqglg","pricing_plan_id":"cebpf4jnsgd1na2vs0mg"},{"bike_id":"14f919a2-1f7e-4106-94af-2029f941db71","system_id":"levelo_inurba_marseille","lat":43.30153,"lon":5.38062,"is_reserved":false,"is_disabled":false,"rental_uris":{"android":"levelo://app?vid=14f919a2-1f7e-4106-94af-2029f941db71","ios":"levelo://app?vid=14f919a2-1f7e-4106-94af-2029f941db71"},"vehicle_type_id":"4","last_reported":1750230683,"current_range_meters":8800,"station_id":"ce4bgjp2rcd13ifvqbh0","pricing_plan_id":"cebpf4jnsgd1na2vs0mg"},{"bike_id":"a6826c5a-c2ad-4cbf-99a2-79a5bb91cdb7","system_id":"levelo_inurba_marseille","lat":43.30883,"lon":5.36842,"is_reserved":false,"is_disabled":false,"rental_uris":{"android":"levelo://app?vid=a6826c5a-c2ad-4cbf-99a2-79a5bb91cdb7","ios":"levelo://app?vid=a6826c5a-c2ad-4cbf-99a2-79a5bb91cdb7"},"vehicle_type_id":"4","last_reported":1750230683,"current_range_meters":8800,"station_id":"ce4bgn92rcd13ifvqbvg","pricing_plan_id":"cebpf4jnsgd1na2vs0mg"},{"bike_id":"8ff3b4df-71c8-48e5-8367-35cf94ec7b73","system_id":"levelo_inurba_marseille","lat":43.30904,"lon":5.36846,"is_reserved":false,"is_disabled":false,"rental_uris":{"android":"levelo://app?vid=8ff3b4df-71c8-48e5-8367-35cf94ec7b73","ios":"levelo://app?vid=8ff3b4df-71c8-48e5-8367-35cf94ec7b73"},"vehicle_type_id":"4","last_reported":1750230683,"current_range_meters":8800,"station_id":"ce4bgn92rcd13ifvqbvg","pricing_plan_id":"cebpf4jnsgd1na2vs0mg"},{"bike_id":"8952fcea-34cf-4372-8b51-bbeb0fed4148","system_id":"levelo_inurba_marseille","lat":43.31329,"lon":5.3673,"is_reserved":false,"is_disabled":false,"rental_uris":{"android":"levelo://app?vid=8952fcea-34cf-4372-8b51-bbeb0fed4148","ios":"levelo://app?vid=8952fcea-34cf-4372-8b51-bbeb0fed4148"},"vehicle_type_id":"4","last_reported":1750230683,"current_range_meters":8800,"station_id":"ce4bgr92rcd13ifvqc6g","pricing_plan_id":"cebpf4jnsgd1na2vs0mg"},{"bike_id":"277359bc-d827-4ca7-8476-4d76a4e603b2","system_id":"levelo_inurba_marseille","lat":43.3095,"lon":5.39047,"is_reserved":false,"is_disabled":false,"rental_uris":{"android":"levelo://app?vid=277359bc-d827-4ca7-8476-4d76a4e603b2","ios":"levelo://app?vid=277359bc-d827-4ca7-8476-4d76a4e603b2"},"vehicle_type_id":"4","last_reported":1750230683,"current_range_meters":8800,"station_id":"ce4bgup2rcd13ifvqco0","pricing_plan_id":"cebpf4jnsgd1na2vs0mg"},{"bike_id":"ad347c14-931f-4261-ab3b-a1807595d5e4","system_id":"levelo_inurba_marseille","lat":43.31701,"lon":5.40448,"is_reserved":false,"is_disabled":false,"rental_uris":{"android":"levelo://app?vid=ad347c14-931f-4261-ab3b-a1807595d5e4","ios":"levelo://app?vid=ad347c14-931f-4261-ab3b-a1807595d5e4"},"vehicle_type_id":"4","last_reported":1750230683,"current_range_meters":8800,"station_id":"ce4bh012rcd13ifvqd00","pricing_plan_id":"cebpf4jnsgd1na2vs0mg"},{"bike_id":"0236841f-d315-4698-8c72-cd71d700f9c8","system_id":"levelo_inurba_marseille","lat":43.31724,"lon":5.40404,"is_reserved":false,"is_disabled":false,"rental_uris":{"android":"levelo://app?vid=0236841f-d315-4698-8c72-cd71d700f9c8","ios":"levelo://app?vid=0236841f-d315-4698-8c72-cd71d700f9c8"},"vehicle_type_id":"4","last_reported":1750230683,"current_range_meters":8800,"station_id":"ce4bh012rcd13ifvqd00","pricing_plan_id":"cebpf4jnsgd1na2vs0mg"},{"bike_id":"7cae9e26-d06b-4e8d-af98-027f10a31426","system_id":"levelo_inurba_marseille","lat":43.23965,"lon":5.36633,"is_reserved":false,"is_disabled":false,"rental_uris":{"android":"levelo://app?vid=7cae9e26-d06b-4e8d-af98-027f10a31426","ios":"levelo://app?vid=7cae9e26-d06b-4e8d-af98-027f10a31426"},"vehicle_type_id":"4","last_reported":1750230683,"current_range_meters":8800,"station_id":"ce4bhi12rcd13ifvqfp0","pricing_plan_id":"cebpf4jnsgd1na2vs0mg"},{"bike_id":"bb95f930-dabb-4f0b-8a50-4fe7023997df","system_id":"levelo_inurba_marseille","lat":43.2964,"lon":5.37706,"is_reserved":false,"is_disabled":false,"rental_uris":{"android":"levelo://app?vid=bb95f930-dabb-4f0b-8a50-4fe7023997df","ios":"levelo://app?vid=bb95f930-dabb-4f0b-8a50-4fe7023997df"},"vehicle_type_id":"4","last_reported":1750230683,"current_range_meters":9200,"station_id":"ce4bgi92rcd13ifvqb90","pricing_plan_id":"cebpf4jnsgd1na2vs0mg"},{"bike_id":"820df921-69fc-426c-b325-82acf4918bb0","system_id":"levelo_inurba_marseille","lat":43.30604,"lon":5.372023,"is_reserved":false,"is_disabled":false,"rental_uris":{"android":"levelo://app?vid=820df921-69fc-426c-b325-82acf4918bb0","ios":"levelo://app?vid=820df921-69fc-426c-b325-82acf4918bb0"},"vehicle_type_id":"4","last_reported":1750230683,"current_range_meters":9200,"station_id":"ce4bgqh2rcd13ifvqc4g","pricing_plan_id":"cebpf4jnsgd1na2vs0mg"},{"bike_id":"e4c1a614-2854-41db-8ce5-4249764a3da6","system_id":"levelo_inurba_marseille","lat":43.304783,"lon":5.379031,"is_reserved":false,"is_disabled":false,"rental_uris":{"android":"levelo://app?vid=e4c1a614-2854-41db-8ce5-4249764a3da6","ios":"levelo://app?vid=e4c1a614-2854-41db-8ce5-4249764a3da6"},"vehicle_type_id":"4","last_reported":1750230683,"current_range_meters":9200,"station_id":"ce4bgup2rcd13ifvqcn0","pricing_plan_id":"cebpf4jnsgd1na2vs0mg"},{"bike_id":"0c9277e0-2179-4ecd-863c-23bf38ac9920","system_id":"levelo_inurba_marseille","lat":43.30946,"lon":5.39037,"is_reserved":false,"is_disabled":false,"rental_uris":{"android":"levelo://app?vid=0c9277e0-2179-4ecd-863c-23bf38ac9920","ios":"levelo://app?vid=0c9277e0-2179-4ecd-863c-23bf38ac9920"},"vehicle_type_id":"4","last_reported":1750230683,"current_range_meters":9200,"station_id":"ce4bgup2rcd13ifvqco0","pricing_plan_id":"cebpf4jnsgd1na2vs0mg"},{"bike_id":"1ba0c422-e2d0-42e2-b94c-581514c3d51e","system_id":"levelo_inurba_marseille","lat":43.31678,"lon":5.40491,"is_reserved":false,"is_disabled":false,"rental_uris":{"android":"levelo://app?vid=1ba0c422-e2d0-42e2-b94c-581514c3d51e","ios":"levelo://app?vid=1ba0c422-e2d0-42e2-b94c-581514c3d51e"},"vehicle_type_id":"4","last_reported":1750230683,"current_range_meters":9200,"station_id":"ce4bh012rcd13ifvqd00","pricing_plan_id":"cebpf4jnsgd1na2vs0mg"},{"bike_id":"7c7d8ab5-008b-47eb-a5ae-5a63a77e5f6a","system_id":"levelo_inurba_marseille","lat":43.29257,"lon":5.40903,"is_reserved":false,"is_disabled":false,"rental_uris":{"android":"levelo://app?vid=7c7d8ab5-008b-47eb-a5ae-5a63a77e5f6a","ios":"levelo://app?vid=7c7d8ab5-008b-47eb-a5ae-5a63a77e5f6a"},"vehicle_type_id":"4","last_reported":1750230683,"current_range_meters":9200,"station_id":"ce4bh192rcd13ifvqdc0","pricing_plan_id":"cebpf4jnsgd1na2vs0mg"},{"bike_id":"b0ec3079-1346-4589-9ef7-53a03b98c3a0","system_id":"levelo_inurba_marseille","lat":43.27915,"lon":5.39584,"is_reserved":false,"is_disabled":false,"rental_uris":{"android":"levelo://app?vid=b0ec3079-1346-4589-9ef7-53a03b98c3a0","ios":"levelo://app?vid=b0ec3079-1346-4589-9ef7-53a03b98c3a0"},"vehicle_type_id":"4","last_reported":1750230683,"current_range_meters":9200,"station_id":"ce4bhf92rcd13ifvqf40","pricing_plan_id":"cebpf4jnsgd1na2vs0mg"},{"bike_id":"891974f7-e0b9-4626-ac69-3d35ce8964dd","system_id":"levelo_inurba_marseille","lat":43.25935,"lon":5.40898,"is_reserved":false,"is_disabled":false,"rental_uris":{"android":"levelo://app?vid=891974f7-e0b9-4626-ac69-3d35ce8964dd","ios":"levelo://app?vid=891974f7-e0b9-4626-ac69-3d35ce8964dd"},"vehicle_type_id":"4","last_reported":1750230683,"current_range_meters":9200,"station_id":"ce4bhm92rcd13ifvqglg","pricing_plan_id":"cebpf4jnsgd1na2vs0mg"},{"bike_id":"b5002037-f4b0-4634-8bc4-796d0c74810e","system_id":"levelo_inurba_marseille","lat":43.24373,"lon":5.41152,"is_reserved":false,"is_disabled":false,"rental_uris":{"android":"levelo://app?vid=b5002037-f4b0-4634-8bc4-796d0c74810e","ios":"levelo://app?vid=b5002037-f4b0-4634-8bc4-796d0c74810e"},"vehicle_type_id":"4","last_reported":1750230683,"current_range_meters":9600,"station_id":"","pricing_plan_id":"cebpf4jnsgd1na2vs0mg"},{"bike_id":"fef203aa-c49d-4e52-b64f-044341d7d7e3","system_id":"levelo_inurba_marseille","lat":43.30136,"lon":5.37429,"is_reserved":false,"is_disabled":false,"rental_uris":{"android":"levelo://app?vid=fef203aa-c49d-4e52-b64f-044341d7d7e3","ios":"levelo://app?vid=fef203aa-c49d-4e52-b64f-044341d7d7e3"},"vehicle_type_id":"4","last_reported":1750230683,"current_range_meters":9600,"station_id":"ce4bgs92rcd13ifvqcc0","pricing_plan_id":"cebpf4jnsgd1na2vs0mg"},{"bike_id":"3796ad63-3d1c-4d8a-89ff-ffee322ba259","system_id":"levelo_inurba_marseille","lat":43.24999,"lon":5.38928,"is_reserved":false,"is_disabled":false,"rental_uris":{"android":"levelo://app?vid=3796ad63-3d1c-4d8a-89ff-ffee322ba259","ios":"levelo://app?vid=3796ad63-3d1c-4d8a-89ff-ffee322ba259"},"vehicle_type_id":"4","last_reported":1750230683,"current_range_meters":9600,"station_id":"ce4bhgp2rcd13ifvqfd0","pricing_plan_id":"cebpf4jnsgd1na2vs0mg"},{"bike_id":"7638a3cd-2cfa-4e65-bf96-4c3be2fdfa1b","system_id":"levelo_inurba_marseille","lat":43.31755,"lon":5.3902,"is_reserved":false,"is_disabled":false,"rental_uris":{"android":"levelo://app?vid=7638a3cd-2cfa-4e65-bf96-4c3be2fdfa1b","ios":"levelo://app?vid=7638a3cd-2cfa-4e65-bf96-4c3be2fdfa1b"},"vehicle_type_id":"4","last_reported":1750230683,"current_range_meters":9600,"station_id":"ce4bhqp2rcd13ifvqhng","pricing_plan_id":"cebpf4jnsgd1na2vs0mg"},{"bike_id":"eca25bd6-1b44-4388-a7b0-074a85a4f502","system_id":"levelo_inurba_marseille","lat":43.31102,"lon":5.39769,"is_reserved":false,"is_disabled":false,"rental_uris":{"android":"levelo://app?vid=eca25bd6-1b44-4388-a7b0-074a85a4f502","ios":"levelo://app?vid=eca25bd6-1b44-4388-a7b0-074a85a4f502"},"vehicle_type_id":"4","last_reported":1750230683,"current_range_meters":10000,"station_id":"","pricing_plan_id":"cebpf4jnsgd1na2vs0mg"},{"bike_id":"300ca1f9-c608-4982-82af-3f268e1aada5","system_id":"levelo_inurba_marseille","lat":43.30542,"lon":5.36556,"is_reserved":false,"is_disabled":false,"rental_uris":{"android":"levelo://app?vid=300ca1f9-c608-4982-82af-3f268e1aada5","ios":"levelo://app?vid=300ca1f9-c608-4982-82af-3f268e1aada5"},"vehicle_type_id":"4","last_reported":1750230683,"current_range_meters":10000,"station_id":"ce4bgs12rcd13ifvqcag","pricing_plan_id":"cebpf4jnsgd1na2vs0mg"},{"bike_id":"df4f5c28-3221-41a0-b096-aee0f80c1231","system_id":"levelo_inurba_marseille","lat":43.2439,"lon":5.3705,"is_reserved":false,"is_disabled":false,"rental_uris":{"android":"levelo://app?vid=df4f5c28-3221-41a0-b096-aee0f80c1231","ios":"levelo://app?vid=df4f5c28-3221-41a0-b096-aee0f80c1231"},"vehicle_type_id":"4","last_reported":1750230683,"current_range_meters":10000,"station_id":"ce4bhhh2rcd13ifvqfk0","pricing_plan_id":"cebpf4jnsgd1na2vs0mg"},{"bike_id":"299e3d54-b6aa-4964-8ce0-52c6875342fc","system_id":"levelo_inurba_marseille","lat":43.25871,"lon":5.39903,"is_reserved":false,"is_disabled":false,"rental_uris":{"android":"levelo://app?vid=299e3d54-b6aa-4964-8ce0-52c6875342fc","ios":"levelo://app?vid=299e3d54-b6aa-4964-8ce0-52c6875342fc"},"vehicle_type_id":"4","last_reported":1750230683,"current_range_meters":10000,"station_id":"ce4bhl92rcd13ifvqghg","pricing_plan_id":"cebpf4jnsgd1na2vs0mg"},{"bike_id":"83cfee7d-980d-496a-98c8-745c7e44c68d","system_id":"levelo_inurba_marseille","lat":43.32876,"lon":5.39104,"is_reserved":false,"is_disabled":false,"rental_uris":{"android":"levelo://app?vid=83cfee7d-980d-496a-98c8-745c7e44c68d","ios":"levelo://app?vid=83cfee7d-980d-496a-98c8-745c7e44c68d"},"vehicle_type_id":"4","last_reported":1750230683,"current_range_meters":10800,"station_id":"","pricing_plan_id":"cebpf4jnsgd1na2vs0mg"},{"bike_id":"d30f880b-8118-45d2-aac3-136366f21bb5","system_id":"levelo_inurba_marseille","lat":43.2986,"lon":5.36293,"is_reserved":false,"is_disabled":false,"rental_uris":{"android":"levelo://app?vid=d30f880b-8118-45d2-aac3-136366f21bb5","ios":"levelo://app?vid=d30f880b-8118-45d2-aac3-136366f21bb5"},"vehicle_type_id":"4","last_reported":1750230683,"current_range_meters":10800,"station_id":"ce4bgpp2rcd13ifvqc3g","pricing_plan_id":"cebpf4jnsgd1na2vs0mg"},{"bike_id":"b0cbcf3d-ad07-4dca-a36a-401b81db7a8d","system_id":"levelo_inurba_marseille","lat":43.25106,"lon":5.40328,"is_reserved":false,"is_disabled":false,"rental_uris":{"android":"levelo://app?vid=b0cbcf3d-ad07-4dca-a36a-401b81db7a8d","ios":"levelo://app?vid=b0cbcf3d-ad07-4dca-a36a-401b81db7a8d"},"vehicle_type_id":"4","last_reported":1750230683,"current_range_meters":10800,"station_id":"ce4bhlh2rcd13ifvqgig","pricing_plan_id":"cebpf4jnsgd1na2vs0mg"},{"bike_id":"2b1fb361-9323-4ad2-b985-6f2dcc632273","system_id":"levelo_inurba_marseille","lat":43.23148,"lon":5.43727,"is_reserved":false,"is_disabled":false,"rental_uris":{"android":"levelo://app?vid=2b1fb361-9323-4ad2-b985-6f2dcc632273","ios":"levelo://app?vid=2b1fb361-9323-4ad2-b985-6f2dcc632273"},"vehicle_type_id":"4","last_reported":1750230683,"current_range_meters":10800,"station_id":"ce4bhmp2rcd13ifvqgog","pricing_plan_id":"cebpf4jnsgd1na2vs0mg"},{"bike_id":"3a0a03bd-930c-4579-a692-ca12ebc511ad","system_id":"levelo_inurba_marseille","lat":43.27492,"lon":5.42463,"is_reserved":false,"is_disabled":false,"rental_uris":{"android":"levelo://app?vid=3a0a03bd-930c-4579-a692-ca12ebc511ad","ios":"levelo://app?vid=3a0a03bd-930c-4579-a692-ca12ebc511ad"},"vehicle_type_id":"4","last_reported":1750230683,"current_range_meters":10800,"station_id":"ce4bhn92rcd13ifvqgrg","pricing_plan_id":"cebpf4jnsgd1na2vs0mg"},{"bike_id":"40f8cda6-ab72-4302-a039-95000d09ef69","system_id":"levelo_inurba_marseille","lat":43.28562,"lon":5.395,"is_reserved":false,"is_disabled":false,"rental_uris":{"android":"levelo://app?vid=40f8cda6-ab72-4302-a039-95000d09ef69","ios":"levelo://app?vid=40f8cda6-ab72-4302-a039-95000d09ef69"},"vehicle_type_id":"4","last_reported":1750230683,"current_range_meters":11200,"station_id":"ce4bh292rcd13ifvqdg0","pricing_plan_id":"cebpf4jnsgd1na2vs0mg"},{"bike_id":"4823025e-a7f4-493e-8259-a890c4360df6","system_id":"levelo_inurba_marseille","lat":43.3031,"lon":5.36899,"is_reserved":false,"is_disabled":false,"rental_uris":{"android":"levelo://app?vid=4823025e-a7f4-493e-8259-a890c4360df6","ios":"levelo://app?vid=4823025e-a7f4-493e-8259-a890c4360df6"},"vehicle_type_id":"4","last_reported":1750230683,"current_range_meters":11600,"station_id":"ce4bgqh2rcd13ifvqc5g","pricing_plan_id":"cebpf4jnsgd1na2vs0mg"},{"bike_id":"65a89bb6-81d5-4ec5-95d1-a1f828e17eef","system_id":"levelo_inurba_marseille","lat":43.26681,"lon":5.382727,"is_reserved":false,"is_disabled":false,"rental_uris":{"android":"levelo://app?vid=65a89bb6-81d5-4ec5-95d1-a1f828e17eef","ios":"levelo://app?vid=65a89bb6-81d5-4ec5-95d1-a1f828e17eef"},"vehicle_type_id":"4","last_reported":1750230683,"current_range_meters":11600,"station_id":"ce4bhg92rcd13ifvqf90","pricing_plan_id":"cebpf4jnsgd1na2vs0mg"},{"bike_id":"960c85a1-5973-4697-9a13-ccb47f1e6891","system_id":"levelo_inurba_marseille","lat":43.22932,"lon":5.35369,"is_reserved":false,"is_disabled":false,"rental_uris":{"android":"levelo://app?vid=960c85a1-5973-4697-9a13-ccb47f1e6891","ios":"levelo://app?vid=960c85a1-5973-4697-9a13-ccb47f1e6891"},"vehicle_type_id":"4","last_reported":1750230683,"current_range_meters":11600,"station_id":"cpo3532slgdg3j2ikp40","pricing_plan_id":"cebpf4jnsgd1na2vs0mg"},{"bike_id":"de0f7c2b-5974-4035-a240-8ed367c0e3f3","system_id":"levelo_inurba_marseille","lat":43.31969,"lon":5.3762,"is_reserved":false,"is_disabled":false,"rental_uris":{"android":"levelo://app?vid=de0f7c2b-5974-4035-a240-8ed367c0e3f3","ios":"levelo://app?vid=de0f7c2b-5974-4035-a240-8ed367c0e3f3"},"vehicle_type_id":"4","last_reported":1750230683,"current_range_meters":12000,"station_id":"","pricing_plan_id":"cebpf4jnsgd1na2vs0mg"},{"bike_id":"4d139eea-5f28-4a06-adf9-5469755c901e","system_id":"levelo_inurba_marseille","lat":43.30142,"lon":5.38071,"is_reserved":false,"is_disabled":false,"rental_uris":{"android":"levelo://app?vid=4d139eea-5f28-4a06-adf9-5469755c901e","ios":"levelo://app?vid=4d139eea-5f28-4a06-adf9-5469755c901e"},"vehicle_type_id":"4","last_reported":1750230683,"current_range_meters":12000,"station_id":"ce4bgjp2rcd13ifvqbh0","pricing_plan_id":"cebpf4jnsgd1na2vs0mg"},{"bike_id":"54da6006-0d53-4334-81c6-74ad31148bae","system_id":"levelo_inurba_marseille","lat":43.31256,"lon":5.3692,"is_reserved":false,"is_disabled":false,"rental_uris":{"android":"levelo://app?vid=54da6006-0d53-4334-81c6-74ad31148bae","ios":"levelo://app?vid=54da6006-0d53-4334-81c6-74ad31148bae"},"vehicle_type_id":"4","last_reported":1750230683,"current_range_meters":12000,"station_id":"ce4bgl92rcd13ifvqbq0","pricing_plan_id":"cebpf4jnsgd1na2vs0mg"},{"bike_id":"c8e63988-556f-4afa-a40a-fe6a34c3bef7","system_id":"levelo_inurba_marseille","lat":43.29579,"lon":5.3674,"is_reserved":false,"is_disabled":false,"rental_uris":{"android":"levelo://app?vid=c8e63988-556f-4afa-a40a-fe6a34c3bef7","ios":"levelo://app?vid=c8e63988-556f-4afa-a40a-fe6a34c3bef7"},"vehicle_type_id":"4","last_reported":1750230683,"current_range_meters":12000,"station_id":"ce4bgph2rcd13ifvqc2g","pricing_plan_id":"cebpf4jnsgd1na2vs0mg"},{"bike_id":"a507b3c0-a7ba-44e1-bd10-21e90f3050a2","system_id":"levelo_inurba_marseille","lat":43.280677,"lon":5.40024,"is_reserved":false,"is_disabled":false,"rental_uris":{"android":"levelo://app?vid=a507b3c0-a7ba-44e1-bd10-21e90f3050a2","ios":"levelo://app?vid=a507b3c0-a7ba-44e1-bd10-21e90f3050a2"},"vehicle_type_id":"4","last_reported":1750230683,"current_range_meters":12000,"station_id":"ce4bh292rcd13ifvqdg0","pricing_plan_id":"cebpf4jnsgd1na2vs0mg"},{"bike_id":"6953b7c0-5879-44b9-8b47-bc0b6852b997","system_id":"levelo_inurba_marseille","lat":43.25931,"lon":5.4091,"is_reserved":false,"is_disabled":false,"rental_uris":{"android":"levelo://app?vid=6953b7c0-5879-44b9-8b47-bc0b6852b997","ios":"levelo://app?vid=6953b7c0-5879-44b9-8b47-bc0b6852b997"},"vehicle_type_id":"4","last_reported":1750230683,"current_range_meters":12000,"station_id":"ce4bhm92rcd13ifvqglg","pricing_plan_id":"cebpf4jnsgd1na2vs0mg"},{"bike_id":"ec791070-eafa-4c06-b970-7958cef6417d","system_id":"levelo_inurba_marseille","lat":43.2319,"lon":5.35554,"is_reserved":false,"is_disabled":false,"rental_uris":{"android":"levelo://app?vid=ec791070-eafa-4c06-b970-7958cef6417d","ios":"levelo://app?vid=ec791070-eafa-4c06-b970-7958cef6417d"},"vehicle_type_id":"4","last_reported":1750230683,"current_range_meters":12000,"station_id":"ce4bhu92rcd13ifvqi70","pricing_plan_id":"cebpf4jnsgd1na2vs0mg"},{"bike_id":"1197e330-995f-4f41-954b-3eea58f2a4c0","system_id":"levelo_inurba_marseille","lat":43.211959,"lon":5.350708,"is_reserved":false,"is_disabled":false,"rental_uris":{"android":"levelo://app?vid=1197e330-995f-4f41-954b-3eea58f2a4c0","ios":"levelo://app?vid=1197e330-995f-4f41-954b-3eea58f2a4c0"},"vehicle_type_id":"4","last_reported":1750230683,"current_range_meters":12000,"station_id":"st_cvj6sg6p6f1abm77japg","pricing_plan_id":"cebpf4jnsgd1na2vs0mg"},{"bike_id":"5455f314-6ba9-46ca-8290-8461ec011158","system_id":"levelo_inurba_marseille","lat":43.30187,"lon":5.36611,"is_reserved":false,"is_disabled":false,"rental_uris":{"android":"levelo://app?vid=5455f314-6ba9-46ca-8290-8461ec011158","ios":"levelo://app?vid=5455f314-6ba9-46ca-8290-8461ec011158"},"vehicle_type_id":"4","last_reported":1750230683,"current_range_meters":12400,"station_id":"ce4bgrh2rcd13ifvqc8g","pricing_plan_id":"cebpf4jnsgd1na2vs0mg"},{"bike_id":"41e18dc3-e84b-4ff7-88db-11889c3cfcde","system_id":"levelo_inurba_marseille","lat":43.30952,"lon":5.39073,"is_reserved":false,"is_disabled":false,"rental_uris":{"android":"levelo://app?vid=41e18dc3-e84b-4ff7-88db-11889c3cfcde","ios":"levelo://app?vid=41e18dc3-e84b-4ff7-88db-11889c3cfcde"},"vehicle_type_id":"4","last_reported":1750230683,"current_range_meters":12400,"station_id":"ce4bgup2rcd13ifvqco0","pricing_plan_id":"cebpf4jnsgd1na2vs0mg"},{"bike_id":"2062f28b-8f4d-40c5-9c1b-cfd69b25f5fd","system_id":"levelo_inurba_marseille","lat":43.25917,"lon":5.40879,"is_reserved":false,"is_disabled":false,"rental_uris":{"android":"levelo://app?vid=2062f28b-8f4d-40c5-9c1b-cfd69b25f5fd","ios":"levelo://app?vid=2062f28b-8f4d-40c5-9c1b-cfd69b25f5fd"},"vehicle_type_id":"4","last_reported":1750230683,"current_range_meters":12400,"station_id":"ce4bhm92rcd13ifvqglg","pricing_plan_id":"cebpf4jnsgd1na2vs0mg"},{"bike_id":"3518210a-6d90-482f-a11b-11cb7c94acd1","system_id":"levelo_inurba_marseille","lat":43.26468,"lon":5.39215,"is_reserved":false,"is_disabled":false,"rental_uris":{"android":"levelo://app?vid=3518210a-6d90-482f-a11b-11cb7c94acd1","ios":"levelo://app?vid=3518210a-6d90-482f-a11b-11cb7c94acd1"},"vehicle_type_id":"4","last_reported":1750230683,"current_range_meters":12800,"station_id":"","pricing_plan_id":"cebpf4jnsgd1na2vs0mg"},{"bike_id":"383c3606-41e6-4f2c-9831-8f0cc3fcc45f","system_id":"levelo_inurba_marseille","lat":43.31225,"lon":5.36887,"is_reserved":false,"is_disabled":false,"rental_uris":{"android":"levelo://app?vid=383c3606-41e6-4f2c-9831-8f0cc3fcc45f","ios":"levelo://app?vid=383c3606-41e6-4f2c-9831-8f0cc3fcc45f"},"vehicle_type_id":"4","last_reported":1750230683,"current_range_meters":12800,"station_id":"ce4bgl92rcd13ifvqbq0","pricing_plan_id":"cebpf4jnsgd1na2vs0mg"},{"bike_id":"90200c32-65a7-4788-976c-d6f48d6f7789","system_id":"levelo_inurba_marseille","lat":43.30921,"lon":5.36846,"is_reserved":false,"is_disabled":false,"rental_uris":{"android":"levelo://app?vid=90200c32-65a7-4788-976c-d6f48d6f7789","ios":"levelo://app?vid=90200c32-65a7-4788-976c-d6f48d6f7789"},"vehicle_type_id":"4","last_reported":1750230683,"current_range_meters":12800,"station_id":"ce4bgn92rcd13ifvqbvg","pricing_plan_id":"cebpf4jnsgd1na2vs0mg"},{"bike_id":"b6d71e35-eee3-438f-94fe-4ffc3566de18","system_id":"levelo_inurba_marseille","lat":43.25928,"lon":5.40919,"is_reserved":false,"is_disabled":false,"rental_uris":{"android":"levelo://app?vid=b6d71e35-eee3-438f-94fe-4ffc3566de18","ios":"levelo://app?vid=b6d71e35-eee3-438f-94fe-4ffc3566de18"},"vehicle_type_id":"4","last_reported":1750230683,"current_range_meters":12800,"station_id":"ce4bhm92rcd13ifvqglg","pricing_plan_id":"cebpf4jnsgd1na2vs0mg"},{"bike_id":"4ebe63a4-3be3-4ccd-811c-0b69563b8948","system_id":"levelo_inurba_marseille","lat":43.23147,"lon":5.43727,"is_reserved":false,"is_disabled":false,"rental_uris":{"android":"levelo://app?vid=4ebe63a4-3be3-4ccd-811c-0b69563b8948","ios":"levelo://app?vid=4ebe63a4-3be3-4ccd-811c-0b69563b8948"},"vehicle_type_id":"4","last_reported":1750230683,"current_range_meters":12800,"station_id":"ce4bhmp2rcd13ifvqgog","pricing_plan_id":"cebpf4jnsgd1na2vs0mg"},{"bike_id":"82552b0d-28d6-46a5-a7c4-089e23e2c583","system_id":"levelo_inurba_marseille","lat":43.232,"lon":5.39976,"is_reserved":false,"is_disabled":false,"rental_uris":{"android":"levelo://app?vid=82552b0d-28d6-46a5-a7c4-089e23e2c583","ios":"levelo://app?vid=82552b0d-28d6-46a5-a7c4-089e23e2c583"},"vehicle_type_id":"4","last_reported":1750230683,"current_range_meters":12800,"station_id":"ce4bhn12rcd13ifvqgqg","pricing_plan_id":"cebpf4jnsgd1na2vs0mg"},{"bike_id":"4caf71e5-d301-43af-93cb-6a4d3605b8a4","system_id":"levelo_inurba_marseille","lat":43.317691,"lon":5.390012,"is_reserved":false,"is_disabled":false,"rental_uris":{"android":"levelo://app?vid=4caf71e5-d301-43af-93cb-6a4d3605b8a4","ios":"levelo://app?vid=4caf71e5-d301-43af-93cb-6a4d3605b8a4"},"vehicle_type_id":"4","last_reported":1750230683,"current_range_meters":12800,"station_id":"ce4bhqp2rcd13ifvqhng","pricing_plan_id":"cebpf4jnsgd1na2vs0mg"},{"bike_id":"f7fa858e-b7ee-404f-8191-6184cc003e2b","system_id":"levelo_inurba_marseille","lat":43.232,"lon":5.35552,"is_reserved":false,"is_disabled":false,"rental_uris":{"android":"levelo://app?vid=f7fa858e-b7ee-404f-8191-6184cc003e2b","ios":"levelo://app?vid=f7fa858e-b7ee-404f-8191-6184cc003e2b"},"vehicle_type_id":"4","last_reported":1750230683,"current_range_meters":12800,"station_id":"ce4bhu92rcd13ifvqi70","pricing_plan_id":"cebpf4jnsgd1na2vs0mg"},{"bike_id":"2f0f7865-53e4-4955-8eb9-1bb98bf95595","system_id":"levelo_inurba_marseille","lat":43.31833,"lon":5.37593,"is_reserved":false,"is_disabled":false,"rental_uris":{"android":"levelo://app?vid=2f0f7865-53e4-4955-8eb9-1bb98bf95595","ios":"levelo://app?vid=2f0f7865-53e4-4955-8eb9-1bb98bf95595"},"vehicle_type_id":"4","last_reported":1750230683,"current_range_meters":13600,"station_id":"","pricing_plan_id":"cebpf4jnsgd1na2vs0mg"},{"bike_id":"e0a889cf-2327-4278-9b67-453fc8c6ae2a","system_id":"levelo_inurba_marseille","lat":43.30259,"lon":5.37517,"is_reserved":false,"is_disabled":false,"rental_uris":{"android":"levelo://app?vid=e0a889cf-2327-4278-9b67-453fc8c6ae2a","ios":"levelo://app?vid=e0a889cf-2327-4278-9b67-453fc8c6ae2a"},"vehicle_type_id":"4","last_reported":1750230683,"current_range_meters":13600,"station_id":"","pricing_plan_id":"cebpf4jnsgd1na2vs0mg"},{"bike_id":"5847295c-18ee-41b4-82aa-49f600c15e72","system_id":"levelo_inurba_marseille","lat":43.28721,"lon":5.3793,"is_reserved":false,"is_disabled":false,"rental_uris":{"android":"levelo://app?vid=5847295c-18ee-41b4-82aa-49f600c15e72","ios":"levelo://app?vid=5847295c-18ee-41b4-82aa-49f600c15e72"},"vehicle_type_id":"4","last_reported":1750230683,"current_range_meters":13600,"station_id":"ce4bh9p2rcd13ifvqec0","pricing_plan_id":"cebpf4jnsgd1na2vs0mg"},{"bike_id":"699da6d6-be62-43bd-8e21-145b1a0c18a3","system_id":"levelo_inurba_marseille","lat":43.25936,"lon":5.40907,"is_reserved":false,"is_disabled":false,"rental_uris":{"android":"levelo://app?vid=699da6d6-be62-43bd-8e21-145b1a0c18a3","ios":"levelo://app?vid=699da6d6-be62-43bd-8e21-145b1a0c18a3"},"vehicle_type_id":"4","last_reported":1750230683,"current_range_meters":13600,"station_id":"ce4bhm92rcd13ifvqglg","pricing_plan_id":"cebpf4jnsgd1na2vs0mg"},{"bike_id":"55a2bf5e-d7c8-497b-a9ab-8379e5b9d43a","system_id":"levelo_inurba_marseille","lat":43.33716,"lon":5.39197,"is_reserved":false,"is_disabled":false,"rental_uris":{"android":"levelo://app?vid=55a2bf5e-d7c8-497b-a9ab-8379e5b9d43a","ios":"levelo://app?vid=55a2bf5e-d7c8-497b-a9ab-8379e5b9d43a"},"vehicle_type_id":"4","last_reported":1750230683,"current_range_meters":13600,"station_id":"ce4bhr92rcd13ifvqhsg","pricing_plan_id":"cebpf4jnsgd1na2vs0mg"},{"bike_id":"de0bda34-41a6-4231-8ed4-c93e07fc3176","system_id":"levelo_inurba_marseille","lat":43.32634,"lon":5.37508,"is_reserved":false,"is_disabled":false,"rental_uris":{"android":"levelo://app?vid=de0bda34-41a6-4231-8ed4-c93e07fc3176","ios":"levelo://app?vid=de0bda34-41a6-4231-8ed4-c93e07fc3176"},"vehicle_type_id":"4","last_reported":1750230683,"current_range_meters":14000,"station_id":"","pricing_plan_id":"cebpf4jnsgd1na2vs0mg"},{"bike_id":"36813f70-2fda-47a9-a912-83dd050a9c9a","system_id":"levelo_inurba_marseille","lat":43.29906,"lon":5.37472,"is_reserved":false,"is_disabled":false,"rental_uris":{"android":"levelo://app?vid=36813f70-2fda-47a9-a912-83dd050a9c9a","ios":"levelo://app?vid=36813f70-2fda-47a9-a912-83dd050a9c9a"},"vehicle_type_id":"4","last_reported":1750230683,"current_range_meters":14000,"station_id":"ce4bgjh2rcd13ifvqbg0","pricing_plan_id":"cebpf4jnsgd1na2vs0mg"},{"bike_id":"3bd4f1f6-53d4-48d2-84f8-875902b29eb2","system_id":"levelo_inurba_marseille","lat":43.30947,"lon":5.39037,"is_reserved":false,"is_disabled":false,"rental_uris":{"android":"levelo://app?vid=3bd4f1f6-53d4-48d2-84f8-875902b29eb2","ios":"levelo://app?vid=3bd4f1f6-53d4-48d2-84f8-875902b29eb2"},"vehicle_type_id":"4","last_reported":1750230683,"current_range_meters":14000,"station_id":"ce4bgup2rcd13ifvqco0","pricing_plan_id":"cebpf4jnsgd1na2vs0mg"},{"bike_id":"c4b867d2-fc3e-49dc-a8ac-201107111548","system_id":"levelo_inurba_marseille","lat":43.2847,"lon":5.38424,"is_reserved":false,"is_disabled":false,"rental_uris":{"android":"levelo://app?vid=c4b867d2-fc3e-49dc-a8ac-201107111548","ios":"levelo://app?vid=c4b867d2-fc3e-49dc-a8ac-201107111548"},"vehicle_type_id":"4","last_reported":1750230683,"current_range_meters":14000,"station_id":"ce4bh512rcd13ifvqe3g","pricing_plan_id":"cebpf4jnsgd1na2vs0mg"},{"bike_id":"b0e1bfa4-7891-42fd-b62b-d044c65356a3","system_id":"levelo_inurba_marseille","lat":43.31081,"lon":5.42433,"is_reserved":false,"is_disabled":false,"rental_uris":{"android":"levelo://app?vid=b0e1bfa4-7891-42fd-b62b-d044c65356a3","ios":"levelo://app?vid=b0e1bfa4-7891-42fd-b62b-d044c65356a3"},"vehicle_type_id":"4","last_reported":1750230683,"current_range_meters":14000,"station_id":"ce4bhp92rcd13ifvqhag","pricing_plan_id":"cebpf4jnsgd1na2vs0mg"},{"bike_id":"748b40b5-8f1c-4711-bade-847aefdb040d","system_id":"levelo_inurba_marseille","lat":43.317034,"lon":5.373995,"is_reserved":false,"is_disabled":false,"rental_uris":{"android":"levelo://app?vid=748b40b5-8f1c-4711-bade-847aefdb040d","ios":"levelo://app?vid=748b40b5-8f1c-4711-bade-847aefdb040d"},"vehicle_type_id":"4","last_reported":1750230683,"current_range_meters":14400,"station_id":"","pricing_plan_id":"cebpf4jnsgd1na2vs0mg"},{"bike_id":"4b8da722-ee9e-48a4-a5e5-3a8a10364708","system_id":"levelo_inurba_marseille","lat":43.3121,"lon":5.37803,"is_reserved":false,"is_disabled":false,"rental_uris":{"android":"levelo://app?vid=4b8da722-ee9e-48a4-a5e5-3a8a10364708","ios":"levelo://app?vid=4b8da722-ee9e-48a4-a5e5-3a8a10364708"},"vehicle_type_id":"4","last_reported":1750230683,"current_range_meters":14400,"station_id":"","pricing_plan_id":"cebpf4jnsgd1na2vs0mg"},{"bike_id":"83468b08-5fc5-43b8-9513-fe6f716da034","system_id":"levelo_inurba_marseille","lat":43.266305,"lon":5.381686,"is_reserved":false,"is_disabled":false,"rental_uris":{"android":"levelo://app?vid=83468b08-5fc5-43b8-9513-fe6f716da034","ios":"levelo://app?vid=83468b08-5fc5-43b8-9513-fe6f716da034"},"vehicle_type_id":"4","last_reported":1750230683,"current_range_meters":14400,"station_id":"","pricing_plan_id":"cebpf4jnsgd1na2vs0mg"},{"bike_id":"3c5145eb-e975-4e24-9ab1-28f6edd326b2","system_id":"levelo_inurba_marseille","lat":43.30466,"lon":5.37921,"is_reserved":false,"is_disabled":false,"rental_uris":{"android":"levelo://app?vid=3c5145eb-e975-4e24-9ab1-28f6edd326b2","ios":"levelo://app?vid=3c5145eb-e975-4e24-9ab1-28f6edd326b2"},"vehicle_type_id":"4","last_reported":1750230683,"current_range_meters":14400,"station_id":"ce4bgup2rcd13ifvqcn0","pricing_plan_id":"cebpf4jnsgd1na2vs0mg"},{"bike_id":"f96fac91-fcd6-4cf6-94db-3fb959156263","system_id":"levelo_inurba_marseille","lat":43.28271,"lon":5.35067,"is_reserved":false,"is_disabled":false,"rental_uris":{"android":"levelo://app?vid=f96fac91-fcd6-4cf6-94db-3fb959156263","ios":"levelo://app?vid=f96fac91-fcd6-4cf6-94db-3fb959156263"},"vehicle_type_id":"4","last_reported":1750230683,"current_range_meters":14400,"station_id":"ce4bhbp2rcd13ifvqerg","pricing_plan_id":"cebpf4jnsgd1na2vs0mg"},{"bike_id":"cc8086c3-023b-4662-b7ba-91199240f1a1","system_id":"levelo_inurba_marseille","lat":43.23047,"lon":5.35495,"is_reserved":false,"is_disabled":false,"rental_uris":{"android":"levelo://app?vid=cc8086c3-023b-4662-b7ba-91199240f1a1","ios":"levelo://app?vid=cc8086c3-023b-4662-b7ba-91199240f1a1"},"vehicle_type_id":"4","last_reported":1750230683,"current_range_meters":14400,"station_id":"cpo3342slgdg3j2ifvpg","pricing_plan_id":"cebpf4jnsgd1na2vs0mg"},{"bike_id":"b9740617-416c-49ef-a593-d345aa13726b","system_id":"levelo_inurba_marseille","lat":43.270027,"lon":5.431757,"is_reserved":false,"is_disabled":false,"rental_uris":{"android":"levelo://app?vid=b9740617-416c-49ef-a593-d345aa13726b","ios":"levelo://app?vid=b9740617-416c-49ef-a593-d345aa13726b"},"vehicle_type_id":"4","last_reported":1750230683,"current_range_meters":14800,"station_id":"","pricing_plan_id":"cebpf4jnsgd1na2vs0mg"},{"bike_id":"0dedb6f6-6801-483b-bfb8-9cd4533d158f","system_id":"levelo_inurba_marseille","lat":43.311439,"lon":5.380923,"is_reserved":false,"is_disabled":false,"rental_uris":{"android":"levelo://app?vid=0dedb6f6-6801-483b-bfb8-9cd4533d158f","ios":"levelo://app?vid=0dedb6f6-6801-483b-bfb8-9cd4533d158f"},"vehicle_type_id":"4","last_reported":1750230683,"current_range_meters":14800,"station_id":"","pricing_plan_id":"cebpf4jnsgd1na2vs0mg"},{"bike_id":"b38e8c91-ba64-466c-af19-9ec6849810bb","system_id":"levelo_inurba_marseille","lat":43.30561,"lon":5.36535,"is_reserved":false,"is_disabled":false,"rental_uris":{"android":"levelo://app?vid=b38e8c91-ba64-466c-af19-9ec6849810bb","ios":"levelo://app?vid=b38e8c91-ba64-466c-af19-9ec6849810bb"},"vehicle_type_id":"4","last_reported":1750230683,"current_range_meters":14800,"station_id":"ce4bgs12rcd13ifvqcag","pricing_plan_id":"cebpf4jnsgd1na2vs0mg"},{"bike_id":"995576c7-ba0c-4b1f-bef5-c2d740570311","system_id":"levelo_inurba_marseille","lat":43.30317,"lon":5.40444,"is_reserved":false,"is_disabled":false,"rental_uris":{"android":"levelo://app?vid=995576c7-ba0c-4b1f-bef5-c2d740570311","ios":"levelo://app?vid=995576c7-ba0c-4b1f-bef5-c2d740570311"},"vehicle_type_id":"4","last_reported":1750230683,"current_range_meters":14800,"station_id":"ce4bh012rcd13ifvqd10","pricing_plan_id":"cebpf4jnsgd1na2vs0mg"},{"bike_id":"8d0be8c3-453e-4625-aa3d-d3c9b0ce0fea","system_id":"levelo_inurba_marseille","lat":43.25492,"lon":5.37652,"is_reserved":false,"is_disabled":false,"rental_uris":{"android":"levelo://app?vid=8d0be8c3-453e-4625-aa3d-d3c9b0ce0fea","ios":"levelo://app?vid=8d0be8c3-453e-4625-aa3d-d3c9b0ce0fea"},"vehicle_type_id":"4","last_reported":1750230683,"current_range_meters":14800,"station_id":"ce4bhh12rcd13ifvqff0","pricing_plan_id":"cebpf4jnsgd1na2vs0mg"},{"bike_id":"06c3580b-2b30-4869-b78a-1ab8a85b338f","system_id":"levelo_inurba_marseille","lat":43.25933,"lon":5.40919,"is_reserved":false,"is_disabled":false,"rental_uris":{"android":"levelo://app?vid=06c3580b-2b30-4869-b78a-1ab8a85b338f","ios":"levelo://app?vid=06c3580b-2b30-4869-b78a-1ab8a85b338f"},"vehicle_type_id":"4","last_reported":1750230683,"current_range_meters":14800,"station_id":"ce4bhm92rcd13ifvqglg","pricing_plan_id":"cebpf4jnsgd1na2vs0mg"},{"bike_id":"9419eee2-4cbd-46ea-8a19-a98bf3b8c7ee","system_id":"levelo_inurba_marseille","lat":43.322472,"lon":5.382949,"is_reserved":false,"is_disabled":false,"rental_uris":{"android":"levelo://app?vid=9419eee2-4cbd-46ea-8a19-a98bf3b8c7ee","ios":"levelo://app?vid=9419eee2-4cbd-46ea-8a19-a98bf3b8c7ee"},"vehicle_type_id":"4","last_reported":1750230683,"current_range_meters":14800,"station_id":"ce4bhr12rcd13ifvqhqg","pricing_plan_id":"cebpf4jnsgd1na2vs0mg"},{"bike_id":"4cda9327-46c6-426e-87dd-c291d5dc5ff7","system_id":"levelo_inurba_marseille","lat":43.21189,"lon":5.35081,"is_reserved":false,"is_disabled":false,"rental_uris":{"android":"levelo://app?vid=4cda9327-46c6-426e-87dd-c291d5dc5ff7","ios":"levelo://app?vid=4cda9327-46c6-426e-87dd-c291d5dc5ff7"},"vehicle_type_id":"4","last_reported":1750230683,"current_range_meters":14800,"station_id":"st_cvj6sg6p6f1abm77japg","pricing_plan_id":"cebpf4jnsgd1na2vs0mg"},{"bike_id":"9e6b6795-72a7-4c2f-ae9a-06b58fcd1632","system_id":"levelo_inurba_marseille","lat":43.25902,"lon":5.40888,"is_reserved":false,"is_disabled":false,"rental_uris":{"android":"levelo://app?vid=9e6b6795-72a7-4c2f-ae9a-06b58fcd1632","ios":"levelo://app?vid=9e6b6795-72a7-4c2f-ae9a-06b58fcd1632"},"vehicle_type_id":"4","last_reported":1750230683,"current_range_meters":15200,"station_id":"ce4bhm92rcd13ifvqglg","pricing_plan_id":"cebpf4jnsgd1na2vs0mg"},{"bike_id":"9fd7bb63-ff0e-4a0d-8f74-13d436406339","system_id":"levelo_inurba_marseille","lat":43.2417,"lon":5.39729,"is_reserved":false,"is_disabled":false,"rental_uris":{"android":"levelo://app?vid=9fd7bb63-ff0e-4a0d-8f74-13d436406339","ios":"levelo://app?vid=9fd7bb63-ff0e-4a0d-8f74-13d436406339"},"vehicle_type_id":"4","last_reported":1750230683,"current_range_meters":15200,"station_id":"ce4bhn12rcd13ifvqgpg","pricing_plan_id":"cebpf4jnsgd1na2vs0mg"},{"bike_id":"653a05d9-205d-420f-b0c9-a638667f0917","system_id":"levelo_inurba_marseille","lat":43.21192,"lon":5.35064,"is_reserved":false,"is_disabled":false,"rental_uris":{"android":"levelo://app?vid=653a05d9-205d-420f-b0c9-a638667f0917","ios":"levelo://app?vid=653a05d9-205d-420f-b0c9-a638667f0917"},"vehicle_type_id":"4","last_reported":1750230683,"current_range_meters":15200,"station_id":"st_cvj6sg6p6f1abm77japg","pricing_plan_id":"cebpf4jnsgd1na2vs0mg"},{"bike_id":"f5008912-931f-40fa-bec1-3936d87fa7f8","system_id":"levelo_inurba_marseille","lat":43.30955,"lon":5.3906,"is_reserved":false,"is_disabled":false,"rental_uris":{"android":"levelo://app?vid=f5008912-931f-40fa-bec1-3936d87fa7f8","ios":"levelo://app?vid=f5008912-931f-40fa-bec1-3936d87fa7f8"},"vehicle_type_id":"4","last_reported":1750230683,"current_range_meters":16000,"station_id":"ce4bgup2rcd13ifvqco0","pricing_plan_id":"cebpf4jnsgd1na2vs0mg"},{"bike_id":"1e3b7fbb-83bd-417f-a36f-f0d184150527","system_id":"levelo_inurba_marseille","lat":43.29043,"lon":5.39982,"is_reserved":false,"is_disabled":false,"rental_uris":{"android":"levelo://app?vid=1e3b7fbb-83bd-417f-a36f-f0d184150527","ios":"levelo://app?vid=1e3b7fbb-83bd-417f-a36f-f0d184150527"},"vehicle_type_id":"4","last_reported":1750230683,"current_range_meters":16000,"station_id":"ce4bh392rcd13ifvqdm0","pricing_plan_id":"cebpf4jnsgd1na2vs0mg"},{"bike_id":"0eea15b0-017a-4a74-9d0d-10fcf0e0c63f","system_id":"levelo_inurba_marseille","lat":43.26683,"lon":5.38279,"is_reserved":false,"is_disabled":false,"rental_uris":{"android":"levelo://app?vid=0eea15b0-017a-4a74-9d0d-10fcf0e0c63f","ios":"levelo://app?vid=0eea15b0-017a-4a74-9d0d-10fcf0e0c63f"},"vehicle_type_id":"4","last_reported":1750230683,"current_range_meters":16000,"station_id":"ce4bhg92rcd13ifvqf90","pricing_plan_id":"cebpf4jnsgd1na2vs0mg"},{"bike_id":"cf3ce8b3-010d-49fa-a267-db6d9ca6e502","system_id":"levelo_inurba_marseille","lat":43.26207,"lon":5.37445,"is_reserved":false,"is_disabled":false,"rental_uris":{"android":"levelo://app?vid=cf3ce8b3-010d-49fa-a267-db6d9ca6e502","ios":"levelo://app?vid=cf3ce8b3-010d-49fa-a267-db6d9ca6e502"},"vehicle_type_id":"4","last_reported":1750230683,"current_range_meters":16000,"station_id":"ce4bhgp2rcd13ifvqfc0","pricing_plan_id":"cebpf4jnsgd1na2vs0mg"},{"bike_id":"268aafb4-1331-426c-97bc-a7d6564caeb6","system_id":"levelo_inurba_marseille","lat":43.32933,"lon":5.37919,"is_reserved":false,"is_disabled":false,"rental_uris":{"android":"levelo://app?vid=268aafb4-1331-426c-97bc-a7d6564caeb6","ios":"levelo://app?vid=268aafb4-1331-426c-97bc-a7d6564caeb6"},"vehicle_type_id":"4","last_reported":1750230683,"current_range_meters":16400,"station_id":"","pricing_plan_id":"cebpf4jnsgd1na2vs0mg"},{"bike_id":"e92bd4cd-e5c6-40c9-80e9-52bc96a037f0","system_id":"levelo_inurba_marseille","lat":43.25476,"lon":5.4175,"is_reserved":false,"is_disabled":false,"rental_uris":{"android":"levelo://app?vid=e92bd4cd-e5c6-40c9-80e9-52bc96a037f0","ios":"levelo://app?vid=e92bd4cd-e5c6-40c9-80e9-52bc96a037f0"},"vehicle_type_id":"4","last_reported":1750230683,"current_range_meters":16400,"station_id":"","pricing_plan_id":"cebpf4jnsgd1na2vs0mg"},{"bike_id":"61eaf5b1-fc24-4ed0-9fdd-595995a36dda","system_id":"levelo_inurba_marseille","lat":43.310817,"lon":5.367892,"is_reserved":false,"is_disabled":false,"rental_uris":{"android":"levelo://app?vid=61eaf5b1-fc24-4ed0-9fdd-595995a36dda","ios":"levelo://app?vid=61eaf5b1-fc24-4ed0-9fdd-595995a36dda"},"vehicle_type_id":"4","last_reported":1750230683,"current_range_meters":16400,"station_id":"ce4bgl92rcd13ifvqbq0","pricing_plan_id":"cebpf4jnsgd1na2vs0mg"},{"bike_id":"121636e2-45ef-4834-9d8a-46bf1417cdd6","system_id":"levelo_inurba_marseille","lat":43.31323,"lon":5.36716,"is_reserved":false,"is_disabled":false,"rental_uris":{"android":"levelo://app?vid=121636e2-45ef-4834-9d8a-46bf1417cdd6","ios":"levelo://app?vid=121636e2-45ef-4834-9d8a-46bf1417cdd6"},"vehicle_type_id":"4","last_reported":1750230683,"current_range_meters":16400,"station_id":"ce4bgr92rcd13ifvqc6g","pricing_plan_id":"cebpf4jnsgd1na2vs0mg"},{"bike_id":"6e4b53b9-aeeb-4d9e-b954-640bd88e729c","system_id":"levelo_inurba_marseille","lat":43.31346,"lon":5.36722,"is_reserved":false,"is_disabled":false,"rental_uris":{"android":"levelo://app?vid=6e4b53b9-aeeb-4d9e-b954-640bd88e729c","ios":"levelo://app?vid=6e4b53b9-aeeb-4d9e-b954-640bd88e729c"},"vehicle_type_id":"4","last_reported":1750230683,"current_range_meters":16400,"station_id":"ce4bgr92rcd13ifvqc6g","pricing_plan_id":"cebpf4jnsgd1na2vs0mg"},{"bike_id":"3151b431-ae3a-411c-8189-09c45ab38d79","system_id":"levelo_inurba_marseille","lat":43.308648,"lon":5.371896,"is_reserved":false,"is_disabled":false,"rental_uris":{"android":"levelo://app?vid=3151b431-ae3a-411c-8189-09c45ab38d79","ios":"levelo://app?vid=3151b431-ae3a-411c-8189-09c45ab38d79"},"vehicle_type_id":"4","last_reported":1750230683,"current_range_meters":16400,"station_id":"ce4bguh2rcd13ifvqckg","pricing_plan_id":"cebpf4jnsgd1na2vs0mg"},{"bike_id":"bd9a5dc4-057f-44cd-88aa-801a5d988d46","system_id":"levelo_inurba_marseille","lat":43.25004,"lon":5.38927,"is_reserved":false,"is_disabled":false,"rental_uris":{"android":"levelo://app?vid=bd9a5dc4-057f-44cd-88aa-801a5d988d46","ios":"levelo://app?vid=bd9a5dc4-057f-44cd-88aa-801a5d988d46"},"vehicle_type_id":"4","last_reported":1750230683,"current_range_meters":16400,"station_id":"ce4bhgp2rcd13ifvqfd0","pricing_plan_id":"cebpf4jnsgd1na2vs0mg"},{"bike_id":"f6890b8a-571c-407d-9177-d5bb94d46ca8","system_id":"levelo_inurba_marseille","lat":43.23964,"lon":5.36633,"is_reserved":false,"is_disabled":false,"rental_uris":{"android":"levelo://app?vid=f6890b8a-571c-407d-9177-d5bb94d46ca8","ios":"levelo://app?vid=f6890b8a-571c-407d-9177-d5bb94d46ca8"},"vehicle_type_id":"4","last_reported":1750230683,"current_range_meters":16400,"station_id":"ce4bhi12rcd13ifvqfp0","pricing_plan_id":"cebpf4jnsgd1na2vs0mg"},{"bike_id":"70a08be0-ce5b-4d19-9244-d18a8a4e00b3","system_id":"levelo_inurba_marseille","lat":43.24176,"lon":5.397253,"is_reserved":false,"is_disabled":false,"rental_uris":{"android":"levelo://app?vid=70a08be0-ce5b-4d19-9244-d18a8a4e00b3","ios":"levelo://app?vid=70a08be0-ce5b-4d19-9244-d18a8a4e00b3"},"vehicle_type_id":"4","last_reported":1750230683,"current_range_meters":16400,"station_id":"ce4bhn12rcd13ifvqgpg","pricing_plan_id":"cebpf4jnsgd1na2vs0mg"},{"bike_id":"a3f36728-c8be-417e-a09d-81b8a7fc1e47","system_id":"levelo_inurba_marseille","lat":43.30374,"lon":5.42489,"is_reserved":false,"is_disabled":false,"rental_uris":{"android":"levelo://app?vid=a3f36728-c8be-417e-a09d-81b8a7fc1e47","ios":"levelo://app?vid=a3f36728-c8be-417e-a09d-81b8a7fc1e47"},"vehicle_type_id":"4","last_reported":1750230683,"current_range_meters":16400,"station_id":"ce4bhoh2rcd13ifvqh6g","pricing_plan_id":"cebpf4jnsgd1na2vs0mg"},{"bike_id":"dbabe050-b258-485b-bc79-4b813f2a9e06","system_id":"levelo_inurba_marseille","lat":43.32049,"lon":5.41555,"is_reserved":false,"is_disabled":false,"rental_uris":{"android":"levelo://app?vid=dbabe050-b258-485b-bc79-4b813f2a9e06","ios":"levelo://app?vid=dbabe050-b258-485b-bc79-4b813f2a9e06"},"vehicle_type_id":"4","last_reported":1750230683,"current_range_meters":16400,"station_id":"ce4bhq92rcd13ifvqhkg","pricing_plan_id":"cebpf4jnsgd1na2vs0mg"},{"bike_id":"f025e0b0-8595-426c-b214-cb9b74c5fcfd","system_id":"levelo_inurba_marseille","lat":43.32201,"lon":5.40579,"is_reserved":false,"is_disabled":false,"rental_uris":{"android":"levelo://app?vid=f025e0b0-8595-426c-b214-cb9b74c5fcfd","ios":"levelo://app?vid=f025e0b0-8595-426c-b214-cb9b74c5fcfd"},"vehicle_type_id":"4","last_reported":1750230683,"current_range_meters":16800,"station_id":"","pricing_plan_id":"cebpf4jnsgd1na2vs0mg"},{"bike_id":"3cbf3f59-e5f5-49e2-b506-aa870488a870","system_id":"levelo_inurba_marseille","lat":43.31365,"lon":5.36811,"is_reserved":false,"is_disabled":false,"rental_uris":{"android":"levelo://app?vid=3cbf3f59-e5f5-49e2-b506-aa870488a870","ios":"levelo://app?vid=3cbf3f59-e5f5-49e2-b506-aa870488a870"},"vehicle_type_id":"4","last_reported":1750230683,"current_range_meters":16800,"station_id":"","pricing_plan_id":"cebpf4jnsgd1na2vs0mg"},{"bike_id":"8b146626-23e4-4258-8262-90b3b385fd5a","system_id":"levelo_inurba_marseille","lat":43.301819,"lon":5.36624,"is_reserved":false,"is_disabled":false,"rental_uris":{"android":"levelo://app?vid=8b146626-23e4-4258-8262-90b3b385fd5a","ios":"levelo://app?vid=8b146626-23e4-4258-8262-90b3b385fd5a"},"vehicle_type_id":"4","last_reported":1750230683,"current_range_meters":16800,"station_id":"ce4bgrh2rcd13ifvqc8g","pricing_plan_id":"cebpf4jnsgd1na2vs0mg"},{"bike_id":"d669c906-04ba-44a7-98cd-23a9ff4cc2eb","system_id":"levelo_inurba_marseille","lat":43.30539,"lon":5.36692,"is_reserved":false,"is_disabled":false,"rental_uris":{"android":"levelo://app?vid=d669c906-04ba-44a7-98cd-23a9ff4cc2eb","ios":"levelo://app?vid=d669c906-04ba-44a7-98cd-23a9ff4cc2eb"},"vehicle_type_id":"4","last_reported":1750230683,"current_range_meters":16800,"station_id":"ce4bgrp2rcd13ifvqc9g","pricing_plan_id":"cebpf4jnsgd1na2vs0mg"},{"bike_id":"5bfa6b3d-40cc-498b-b19a-72a4e64d946e","system_id":"levelo_inurba_marseille","lat":43.30542,"lon":5.36544,"is_reserved":false,"is_disabled":false,"rental_uris":{"android":"levelo://app?vid=5bfa6b3d-40cc-498b-b19a-72a4e64d946e","ios":"levelo://app?vid=5bfa6b3d-40cc-498b-b19a-72a4e64d946e"},"vehicle_type_id":"4","last_reported":1750230683,"current_range_meters":16800,"station_id":"ce4bgs12rcd13ifvqcag","pricing_plan_id":"cebpf4jnsgd1na2vs0mg"},{"bike_id":"b17f9847-a037-44a7-b8a6-3c9faf7b0896","system_id":"levelo_inurba_marseille","lat":43.30141,"lon":5.37433,"is_reserved":false,"is_disabled":false,"rental_uris":{"android":"levelo://app?vid=b17f9847-a037-44a7-b8a6-3c9faf7b0896","ios":"levelo://app?vid=b17f9847-a037-44a7-b8a6-3c9faf7b0896"},"vehicle_type_id":"4","last_reported":1750230683,"current_range_meters":16800,"station_id":"ce4bgs92rcd13ifvqcc0","pricing_plan_id":"cebpf4jnsgd1na2vs0mg"},{"bike_id":"97d66872-d5fc-4a47-8926-a7adf72fb57e","system_id":"levelo_inurba_marseille","lat":43.31496,"lon":5.37314,"is_reserved":false,"is_disabled":false,"rental_uris":{"android":"levelo://app?vid=97d66872-d5fc-4a47-8926-a7adf72fb57e","ios":"levelo://app?vid=97d66872-d5fc-4a47-8926-a7adf72fb57e"},"vehicle_type_id":"4","last_reported":1750230683,"current_range_meters":16800,"station_id":"ce4bgt12rcd13ifvqcd0","pricing_plan_id":"cebpf4jnsgd1na2vs0mg"},{"bike_id":"0a626b14-60bb-483a-bfd0-0861ef24b5ad","system_id":"levelo_inurba_marseille","lat":43.30479,"lon":5.38068,"is_reserved":false,"is_disabled":false,"rental_uris":{"android":"levelo://app?vid=0a626b14-60bb-483a-bfd0-0861ef24b5ad","ios":"levelo://app?vid=0a626b14-60bb-483a-bfd0-0861ef24b5ad"},"vehicle_type_id":"4","last_reported":1750230683,"current_range_meters":16800,"station_id":"ce4bh0p2rcd13ifvqd70","pricing_plan_id":"cebpf4jnsgd1na2vs0mg"},{"bike_id":"d6b59448-6161-4e70-befd-235ecc0fb1fc","system_id":"levelo_inurba_marseille","lat":43.232,"lon":5.35549,"is_reserved":false,"is_disabled":false,"rental_uris":{"android":"levelo://app?vid=d6b59448-6161-4e70-befd-235ecc0fb1fc","ios":"levelo://app?vid=d6b59448-6161-4e70-befd-235ecc0fb1fc"},"vehicle_type_id":"4","last_reported":1750230683,"current_range_meters":16800,"station_id":"ce4bhu92rcd13ifvqi70","pricing_plan_id":"cebpf4jnsgd1na2vs0mg"},{"bike_id":"e921cee3-b8ce-4c00-b7eb-8ab335b5e125","system_id":"levelo_inurba_marseille","lat":43.301944,"lon":5.422698,"is_reserved":false,"is_disabled":false,"rental_uris":{"android":"levelo://app?vid=e921cee3-b8ce-4c00-b7eb-8ab335b5e125","ios":"levelo://app?vid=e921cee3-b8ce-4c00-b7eb-8ab335b5e125"},"vehicle_type_id":"4","last_reported":1750230683,"current_range_meters":17200,"station_id":"","pricing_plan_id":"cebpf4jnsgd1na2vs0mg"},{"bike_id":"65fe0c2e-fcc6-45c4-a172-8e2e81da84f7","system_id":"levelo_inurba_marseille","lat":43.33156,"lon":5.38165,"is_reserved":false,"is_disabled":false,"rental_uris":{"android":"levelo://app?vid=65fe0c2e-fcc6-45c4-a172-8e2e81da84f7","ios":"levelo://app?vid=65fe0c2e-fcc6-45c4-a172-8e2e81da84f7"},"vehicle_type_id":"4","last_reported":1750230683,"current_range_meters":17200,"station_id":"","pricing_plan_id":"cebpf4jnsgd1na2vs0mg"},{"bike_id":"ae2fdae3-50bf-4bd1-ba6e-560530838045","system_id":"levelo_inurba_marseille","lat":43.2632,"lon":5.37394,"is_reserved":false,"is_disabled":false,"rental_uris":{"android":"levelo://app?vid=ae2fdae3-50bf-4bd1-ba6e-560530838045","ios":"levelo://app?vid=ae2fdae3-50bf-4bd1-ba6e-560530838045"},"vehicle_type_id":"4","last_reported":1750230683,"current_range_meters":17200,"station_id":"","pricing_plan_id":"cebpf4jnsgd1na2vs0mg"},{"bike_id":"01b00b27-26cf-4f8c-a77f-1701a449a78b","system_id":"levelo_inurba_marseille","lat":43.30185,"lon":5.3663,"is_reserved":false,"is_disabled":false,"rental_uris":{"android":"levelo://app?vid=01b00b27-26cf-4f8c-a77f-1701a449a78b","ios":"levelo://app?vid=01b00b27-26cf-4f8c-a77f-1701a449a78b"},"vehicle_type_id":"4","last_reported":1750230683,"current_range_meters":17200,"station_id":"ce4bgrh2rcd13ifvqc8g","pricing_plan_id":"cebpf4jnsgd1na2vs0mg"},{"bike_id":"b389aa1c-cc22-4ef3-9a99-8ed0d0dc75a9","system_id":"levelo_inurba_marseille","lat":43.2925,"lon":5.4092,"is_reserved":false,"is_disabled":false,"rental_uris":{"android":"levelo://app?vid=b389aa1c-cc22-4ef3-9a99-8ed0d0dc75a9","ios":"levelo://app?vid=b389aa1c-cc22-4ef3-9a99-8ed0d0dc75a9"},"vehicle_type_id":"4","last_reported":1750230683,"current_range_meters":17200,"station_id":"ce4bh192rcd13ifvqdc0","pricing_plan_id":"cebpf4jnsgd1na2vs0mg"},{"bike_id":"7acfa2f8-d6a8-46c5-ae15-f1b782bfe892","system_id":"levelo_inurba_marseille","lat":43.23972,"lon":5.36625,"is_reserved":false,"is_disabled":false,"rental_uris":{"android":"levelo://app?vid=7acfa2f8-d6a8-46c5-ae15-f1b782bfe892","ios":"levelo://app?vid=7acfa2f8-d6a8-46c5-ae15-f1b782bfe892"},"vehicle_type_id":"4","last_reported":1750230683,"current_range_meters":17200,"station_id":"ce4bhi12rcd13ifvqfp0","pricing_plan_id":"cebpf4jnsgd1na2vs0mg"},{"bike_id":"4f3842ae-753d-4560-bc4f-364adf58b7f8","system_id":"levelo_inurba_marseille","lat":43.259405,"lon":5.409034,"is_reserved":false,"is_disabled":false,"rental_uris":{"android":"levelo://app?vid=4f3842ae-753d-4560-bc4f-364adf58b7f8","ios":"levelo://app?vid=4f3842ae-753d-4560-bc4f-364adf58b7f8"},"vehicle_type_id":"4","last_reported":1750230683,"current_range_meters":17200,"station_id":"ce4bhm92rcd13ifvqglg","pricing_plan_id":"cebpf4jnsgd1na2vs0mg"},{"bike_id":"d1a40c3e-44a4-4b9a-97c3-90a5bd273762","system_id":"levelo_inurba_marseille","lat":43.24154,"lon":5.39748,"is_reserved":false,"is_disabled":false,"rental_uris":{"android":"levelo://app?vid=d1a40c3e-44a4-4b9a-97c3-90a5bd273762","ios":"levelo://app?vid=d1a40c3e-44a4-4b9a-97c3-90a5bd273762"},"vehicle_type_id":"4","last_reported":1750230683,"current_range_meters":17200,"station_id":"ce4bhn12rcd13ifvqgpg","pricing_plan_id":"cebpf4jnsgd1na2vs0mg"},{"bike_id":"3fb32369-1f25-46d2-9052-c30b5af8c776","system_id":"levelo_inurba_marseille","lat":43.22933,"lon":5.35381,"is_reserved":false,"is_disabled":false,"rental_uris":{"android":"levelo://app?vid=3fb32369-1f25-46d2-9052-c30b5af8c776","ios":"levelo://app?vid=3fb32369-1f25-46d2-9052-c30b5af8c776"},"vehicle_type_id":"4","last_reported":1750230683,"current_range_meters":17200,"station_id":"cpo3532slgdg3j2ikp40","pricing_plan_id":"cebpf4jnsgd1na2vs0mg"},{"bike_id":"b5b96b67-2c11-4425-a065-1b6a6e2684ce","system_id":"levelo_inurba_marseille","lat":43.29782,"lon":5.37098,"is_reserved":false,"is_disabled":false,"rental_uris":{"android":"levelo://app?vid=b5b96b67-2c11-4425-a065-1b6a6e2684ce","ios":"levelo://app?vid=b5b96b67-2c11-4425-a065-1b6a6e2684ce"},"vehicle_type_id":"4","last_reported":1750230683,"current_range_meters":17600,"station_id":"ce4bgop2rcd13ifvqc1g","pricing_plan_id":"cebpf4jnsgd1na2vs0mg"},{"bike_id":"0f7e5e81-7965-4173-a008-75ed52a0b141","system_id":"levelo_inurba_marseille","lat":43.25097,"lon":5.40333,"is_reserved":false,"is_disabled":false,"rental_uris":{"android":"levelo://app?vid=0f7e5e81-7965-4173-a008-75ed52a0b141","ios":"levelo://app?vid=0f7e5e81-7965-4173-a008-75ed52a0b141"},"vehicle_type_id":"4","last_reported":1750230683,"current_range_meters":17600,"station_id":"ce4bhlh2rcd13ifvqgig","pricing_plan_id":"cebpf4jnsgd1na2vs0mg"},{"bike_id":"55960bf7-558d-433c-b4cd-bc65813869be","system_id":"levelo_inurba_marseille","lat":43.33599,"lon":5.41031,"is_reserved":false,"is_disabled":false,"rental_uris":{"android":"levelo://app?vid=55960bf7-558d-433c-b4cd-bc65813869be","ios":"levelo://app?vid=55960bf7-558d-433c-b4cd-bc65813869be"},"vehicle_type_id":"4","last_reported":1750230683,"current_range_meters":17600,"station_id":"ce4bhqh2rcd13ifvqhmg","pricing_plan_id":"cebpf4jnsgd1na2vs0mg"},{"bike_id":"a7269e3f-e2c4-4028-b2ed-51436c8cf697","system_id":"levelo_inurba_marseille","lat":43.21195,"lon":5.35076,"is_reserved":false,"is_disabled":false,"rental_uris":{"android":"levelo://app?vid=a7269e3f-e2c4-4028-b2ed-51436c8cf697","ios":"levelo://app?vid=a7269e3f-e2c4-4028-b2ed-51436c8cf697"},"vehicle_type_id":"4","last_reported":1750230683,"current_range_meters":17600,"station_id":"st_cvj6sg6p6f1abm77japg","pricing_plan_id":"cebpf4jnsgd1na2vs0mg"},{"bike_id":"4b6b2a2b-d3c4-4663-8ea1-de4eff39b7b2","system_id":"levelo_inurba_marseille","lat":43.21195,"lon":5.3506,"is_reserved":false,"is_disabled":false,"rental_uris":{"android":"levelo://app?vid=4b6b2a2b-d3c4-4663-8ea1-de4eff39b7b2","ios":"levelo://app?vid=4b6b2a2b-d3c4-4663-8ea1-de4eff39b7b2"},"vehicle_type_id":"4","last_reported":1750230683,"current_range_meters":17600,"station_id":"st_cvj6sg6p6f1abm77japg","pricing_plan_id":"cebpf4jnsgd1na2vs0mg"},{"bike_id":"a85b2000-e3ea-4c9d-8512-f632fbae13d6","system_id":"levelo_inurba_marseille","lat":43.301671,"lon":5.400914,"is_reserved":false,"is_disabled":false,"rental_uris":{"android":"levelo://app?vid=a85b2000-e3ea-4c9d-8512-f632fbae13d6","ios":"levelo://app?vid=a85b2000-e3ea-4c9d-8512-f632fbae13d6"},"vehicle_type_id":"4","last_reported":1750230683,"current_range_meters":18000,"station_id":"","pricing_plan_id":"cebpf4jnsgd1na2vs0mg"},{"bike_id":"299bea92-c142-4268-b69c-fed6f34d9e7a","system_id":"levelo_inurba_marseille","lat":43.30944,"lon":5.39046,"is_reserved":false,"is_disabled":false,"rental_uris":{"android":"levelo://app?vid=299bea92-c142-4268-b69c-fed6f34d9e7a","ios":"levelo://app?vid=299bea92-c142-4268-b69c-fed6f34d9e7a"},"vehicle_type_id":"4","last_reported":1750230683,"current_range_meters":18000,"station_id":"ce4bgup2rcd13ifvqco0","pricing_plan_id":"cebpf4jnsgd1na2vs0mg"},{"bike_id":"5c9878b4-89f1-4442-84b0-44598b017874","system_id":"levelo_inurba_marseille","lat":43.25933,"lon":5.40908,"is_reserved":false,"is_disabled":false,"rental_uris":{"android":"levelo://app?vid=5c9878b4-89f1-4442-84b0-44598b017874","ios":"levelo://app?vid=5c9878b4-89f1-4442-84b0-44598b017874"},"vehicle_type_id":"4","last_reported":1750230683,"current_range_meters":18000,"station_id":"ce4bhm92rcd13ifvqglg","pricing_plan_id":"cebpf4jnsgd1na2vs0mg"},{"bike_id":"cfef7392-1433-476b-a989-3fb180315ec3","system_id":"levelo_inurba_marseille","lat":43.2418,"lon":5.39734,"is_reserved":false,"is_disabled":false,"rental_uris":{"android":"levelo://app?vid=cfef7392-1433-476b-a989-3fb180315ec3","ios":"levelo://app?vid=cfef7392-1433-476b-a989-3fb180315ec3"},"vehicle_type_id":"4","last_reported":1750230683,"current_range_meters":18000,"station_id":"ce4bhn12rcd13ifvqgpg","pricing_plan_id":"cebpf4jnsgd1na2vs0mg"},{"bike_id":"536f1899-c83b-42fe-bac7-5a3789a0ddc6","system_id":"levelo_inurba_marseille","lat":43.3248,"lon":5.36571,"is_reserved":false,"is_disabled":false,"rental_uris":{"android":"levelo://app?vid=536f1899-c83b-42fe-bac7-5a3789a0ddc6","ios":"levelo://app?vid=536f1899-c83b-42fe-bac7-5a3789a0ddc6"},"vehicle_type_id":"4","last_reported":1750230683,"current_range_meters":18000,"station_id":"ce4bhs12rcd13ifvqhvg","pricing_plan_id":"cebpf4jnsgd1na2vs0mg"},{"bike_id":"6d8c07d6-0889-4ffb-8e05-8a787c37e305","system_id":"levelo_inurba_marseille","lat":43.23191,"lon":5.35555,"is_reserved":false,"is_disabled":false,"rental_uris":{"android":"levelo://app?vid=6d8c07d6-0889-4ffb-8e05-8a787c37e305","ios":"levelo://app?vid=6d8c07d6-0889-4ffb-8e05-8a787c37e305"},"vehicle_type_id":"4","last_reported":1750230683,"current_range_meters":18000,"station_id":"ce4bhu92rcd13ifvqi70","pricing_plan_id":"cebpf4jnsgd1na2vs0mg"},{"bike_id":"77ac8037-3c3c-493a-82c2-904a9ad6c7d0","system_id":"levelo_inurba_marseille","lat":43.268041,"lon":5.390622,"is_reserved":false,"is_disabled":false,"rental_uris":{"android":"levelo://app?vid=77ac8037-3c3c-493a-82c2-904a9ad6c7d0","ios":"levelo://app?vid=77ac8037-3c3c-493a-82c2-904a9ad6c7d0"},"vehicle_type_id":"4","last_reported":1750230683,"current_range_meters":18800,"station_id":"","pricing_plan_id":"cebpf4jnsgd1na2vs0mg"},{"bike_id":"4f7a8fee-e338-4970-a4bb-64f44db806ce","system_id":"levelo_inurba_marseille","lat":43.33779,"lon":5.37441,"is_reserved":false,"is_disabled":false,"rental_uris":{"android":"levelo://app?vid=4f7a8fee-e338-4970-a4bb-64f44db806ce","ios":"levelo://app?vid=4f7a8fee-e338-4970-a4bb-64f44db806ce"},"vehicle_type_id":"4","last_reported":1750230683,"current_range_meters":18800,"station_id":"","pricing_plan_id":"cebpf4jnsgd1na2vs0mg"},{"bike_id":"1547c72e-92ad-4a77-8010-4bdb18e21634","system_id":"levelo_inurba_marseille","lat":43.30429,"lon":5.38888,"is_reserved":false,"is_disabled":false,"rental_uris":{"android":"levelo://app?vid=1547c72e-92ad-4a77-8010-4bdb18e21634","ios":"levelo://app?vid=1547c72e-92ad-4a77-8010-4bdb18e21634"},"vehicle_type_id":"4","last_reported":1750230683,"current_range_meters":18800,"station_id":"ce4bgk12rcd13ifvqbi0","pricing_plan_id":"cebpf4jnsgd1na2vs0mg"},{"bike_id":"e3b07034-0b3e-4f2e-a2dc-701edfebeb46","system_id":"levelo_inurba_marseille","lat":43.29257,"lon":5.40908,"is_reserved":false,"is_disabled":false,"rental_uris":{"android":"levelo://app?vid=e3b07034-0b3e-4f2e-a2dc-701edfebeb46","ios":"levelo://app?vid=e3b07034-0b3e-4f2e-a2dc-701edfebeb46"},"vehicle_type_id":"4","last_reported":1750230683,"current_range_meters":18800,"station_id":"ce4bh192rcd13ifvqdc0","pricing_plan_id":"cebpf4jnsgd1na2vs0mg"},{"bike_id":"41e664e8-2b52-4f44-9e5b-4ab7b5742456","system_id":"levelo_inurba_marseille","lat":43.29037,"lon":5.39996,"is_reserved":false,"is_disabled":false,"rental_uris":{"android":"levelo://app?vid=41e664e8-2b52-4f44-9e5b-4ab7b5742456","ios":"levelo://app?vid=41e664e8-2b52-4f44-9e5b-4ab7b5742456"},"vehicle_type_id":"4","last_reported":1750230683,"current_range_meters":18800,"station_id":"ce4bh392rcd13ifvqdm0","pricing_plan_id":"cebpf4jnsgd1na2vs0mg"},{"bike_id":"7aeb9e5d-46cc-4fb2-89b7-7f55fa98e63b","system_id":"levelo_inurba_marseille","lat":43.26674,"lon":5.38233,"is_reserved":false,"is_disabled":false,"rental_uris":{"android":"levelo://app?vid=7aeb9e5d-46cc-4fb2-89b7-7f55fa98e63b","ios":"levelo://app?vid=7aeb9e5d-46cc-4fb2-89b7-7f55fa98e63b"},"vehicle_type_id":"4","last_reported":1750230683,"current_range_meters":18800,"station_id":"ce4bhg92rcd13ifvqf90","pricing_plan_id":"cebpf4jnsgd1na2vs0mg"},{"bike_id":"a1400340-ade0-4e90-bc81-e640ea44a43b","system_id":"levelo_inurba_marseille","lat":43.2572,"lon":5.41101,"is_reserved":false,"is_disabled":false,"rental_uris":{"android":"levelo://app?vid=a1400340-ade0-4e90-bc81-e640ea44a43b","ios":"levelo://app?vid=a1400340-ade0-4e90-bc81-e640ea44a43b"},"vehicle_type_id":"4","last_reported":1750230683,"current_range_meters":18800,"station_id":"ce4bhkp2rcd13ifvqgd0","pricing_plan_id":"cebpf4jnsgd1na2vs0mg"},{"bike_id":"ef1bef6d-02ca-4d1e-bed5-d791a2a99a1d","system_id":"levelo_inurba_marseille","lat":43.34139,"lon":5.40911,"is_reserved":false,"is_disabled":false,"rental_uris":{"android":"levelo://app?vid=ef1bef6d-02ca-4d1e-bed5-d791a2a99a1d","ios":"levelo://app?vid=ef1bef6d-02ca-4d1e-bed5-d791a2a99a1d"},"vehicle_type_id":"4","last_reported":1750230683,"current_range_meters":18800,"station_id":"ce4bhqh2rcd13ifvqhlg","pricing_plan_id":"cebpf4jnsgd1na2vs0mg"},{"bike_id":"d7558e1a-9760-4e88-80c3-302c33f5512c","system_id":"levelo_inurba_marseille","lat":43.323584,"lon":5.388837,"is_reserved":false,"is_disabled":false,"rental_uris":{"android":"levelo://app?vid=d7558e1a-9760-4e88-80c3-302c33f5512c","ios":"levelo://app?vid=d7558e1a-9760-4e88-80c3-302c33f5512c"},"vehicle_type_id":"4","last_reported":1750230683,"current_range_meters":18800,"station_id":"ce4bhqp2rcd13ifvqhog","pricing_plan_id":"cebpf4jnsgd1na2vs0mg"},{"bike_id":"a004d7f2-75e1-49e9-b073-ad13bcf23d1e","system_id":"levelo_inurba_marseille","lat":43.231828,"lon":5.355555,"is_reserved":false,"is_disabled":false,"rental_uris":{"android":"levelo://app?vid=a004d7f2-75e1-49e9-b073-ad13bcf23d1e","ios":"levelo://app?vid=a004d7f2-75e1-49e9-b073-ad13bcf23d1e"},"vehicle_type_id":"4","last_reported":1750230683,"current_range_meters":18800,"station_id":"ce4bhu92rcd13ifvqi70","pricing_plan_id":"cebpf4jnsgd1na2vs0mg"},{"bike_id":"e5863b13-0bb4-41ee-a7a1-72091c1036b5","system_id":"levelo_inurba_marseille","lat":43.31607,"lon":5.383953,"is_reserved":false,"is_disabled":false,"rental_uris":{"android":"levelo://app?vid=e5863b13-0bb4-41ee-a7a1-72091c1036b5","ios":"levelo://app?vid=e5863b13-0bb4-41ee-a7a1-72091c1036b5"},"vehicle_type_id":"4","last_reported":1750230683,"current_range_meters":19200,"station_id":"","pricing_plan_id":"cebpf4jnsgd1na2vs0mg"},{"bike_id":"4ce5b165-f22d-40cf-abd3-1cb294861955","system_id":"levelo_inurba_marseille","lat":43.21188,"lon":5.35079,"is_reserved":false,"is_disabled":false,"rental_uris":{"android":"levelo://app?vid=4ce5b165-f22d-40cf-abd3-1cb294861955","ios":"levelo://app?vid=4ce5b165-f22d-40cf-abd3-1cb294861955"},"vehicle_type_id":"4","last_reported":1750230683,"current_range_meters":19200,"station_id":"","pricing_plan_id":"cebpf4jnsgd1na2vs0mg"},{"bike_id":"70ef62ff-542b-4301-a069-b3a629801540","system_id":"levelo_inurba_marseille","lat":43.28474,"lon":5.38423,"is_reserved":false,"is_disabled":false,"rental_uris":{"android":"levelo://app?vid=70ef62ff-542b-4301-a069-b3a629801540","ios":"levelo://app?vid=70ef62ff-542b-4301-a069-b3a629801540"},"vehicle_type_id":"4","last_reported":1750230683,"current_range_meters":19200,"station_id":"ce4bh512rcd13ifvqe3g","pricing_plan_id":"cebpf4jnsgd1na2vs0mg"},