{"last_updated":1713373567,"ttl":30,"version":"2.2","data":{"bikes":[{"bike_id":"69756e63-4f14-42d2-b9fa-e2a47915c416","system_id":"levelo_inurba_marseille","lat":43.312239,"lon":5.368562,"is_reserved":false,"is_disabled":false,"rental_uris":{"android":"levelo://app?vid=69756e63-4f14-42d2-b9fa-e2a47915c416","ios":"levelo://app?vid=69756e63-4f14-42d2-b9fa-e2a47915c416"},"vehicle_type_id":"4","last_reported":1713373567,"current_range_meters":6000,"station_id":"ce4bgl92rcd13ifvqbq0","pricing_plan_id":"cebpf4jnsgd1na2vs0mg"},{"bike_id":"14f713a1-c436-49ba-9907-36a2c59f3c56","system_id":"levelo_inurba_marseille","lat":43.312239,"lon":5.368562,"is_reserved":false,"is_disabled":false,"rental_uris":{"android":"levelo://app?vid=14f713a1-c436-49ba-9907-36a2c59f3c56","ios":"levelo://app?vid=14f713a1-c436-49ba-9907-36a2c59f3c56"},"vehicle_type_id":"4","last_reported":1713373567,"current_range_meters":0,"station_id":"ce4bgl92rcd13ifvqbq0","pricing_plan_id":"cebpf4jnsgd1na2vs0mg"},{"bike_id":"95b8a416-f191-455f-aa57-066842be3bc5","system_id":"levelo_inurba_marseille","lat":43.31247,"lon":5.36897,"is_reserved":false,"is_disabled":false,"rental_uris":{"android":"levelo://app?vid=95b8a416-f191-455f-aa57-066842be3bc5","ios":"levelo://app?vid=95b8a416-f191-455f-aa57-066842be3bc5"},"vehicle_type_id":"4","last_reported":1713373567,"current_range_meters":11600,"station_id":"ce4bgl92rcd13ifvqbq0","pricing_plan_id":"cebpf4jnsgd1na2vs0mg"},{"bike_id":"98009731-8624-472a-a6a6-2018564a97ba","system_id":"levelo_inurba_marseille","lat":43.309076,"lon":5.368465,"is_reserved":false,"is_disabled":false,"rental_uris":{"android":"levelo://app?vid=98009731-8624-472a-a6a6-2018564a97ba","ios":"levelo://app?vid=98009731-8624-472a-a6a6-2018564a97ba"},"vehicle_type_id":"4","last_reported":1713373567,"current_range_meters":20000,"station_id":"ce4bgn92rcd13ifvqbvg","pricing_plan_id":"cebpf4jnsgd1na2vs0mg"},{"bike_id":"7a76ac97-9ab4-48ee-a466-9be8d7b9f7b6","system_id":"levelo_inurba_marseille","lat":43.31339,"lon":5.37282,"is_reserved":false,"is_disabled":false,"rental_uris":{"android":"levelo://app?vid=7a76ac97-9ab4-48ee-a466-9be8d7b9f7b6","ios":"levelo://app?vid=7a76ac97-9ab4-48ee-a466-9be8d7b9f7b6"},"vehicle_type_id":"4","last_reported":1713373567,"current_range_meters":15200,"station_id":"","pricing_plan_id":"cebpf4jnsgd1na2vs0mg"},{"bike_id":"62078acb-23ff-49ff-b8ab-b848c6622f13","system_id":"levelo_inurba_marseille","lat":43.31491,"lon":5.37308,"is_reserved":false,"is_disabled":false,"rental_uris":{"android":"levelo://app?vid=62078acb-23ff-49ff-b8ab-b848c6622f13","ios":"levelo://app?vid=62078acb-23ff-49ff-b8ab-b848c6622f13"},"vehicle_type_id":"4","last_reported":1713373567,"current_range_meters":1200,"station_id":"ce4bgt12rcd13ifvqcd0","pricing_plan_id":"cebpf4jnsgd1na2vs0mg"},{"bike_id":"aa049ea3-16bf-49ca-a037-4115340cf9ae","system_id":"levelo_inurba_marseille","lat":43.314811,"lon":5.373103,"is_reserved":false,"is_disabled":false,"rental_uris":{"android":"levelo://app?vid=aa049ea3-16bf-49ca-a037-4115340cf9ae","ios":"levelo://app?vid=aa049ea3-16bf-49ca-a037-4115340cf9ae"},"vehicle_type_id":"4","last_reported":1713373567,"current_range_meters":0,"station_id":"ce4bgt12rcd13ifvqcd0","pricing_plan_id":"cebpf4jnsgd1na2vs0mg"},{"bike_id":"57a3ac61-610c-4121-8e57-c293ae22a61f","system_id":"levelo_inurba_marseille","lat":43.314811,"lon":5.373103,"is_reserved":false,"is_disabled":false,"rental_uris":{"android":"levelo://app?vid=57a3ac61-610c-4121-8e57-c293ae22a61f","ios":"levelo://app?vid=57a3ac61-610c-4121-8e57-c293ae22a61f"},"vehicle_type_id":"4","last_reported":1713373567,"current_range_meters":14400,"station_id":"ce4bgt12rcd13ifvqcd0","pricing_plan_id":"cebpf4jnsgd1na2vs0mg"},{"bike_id":"d99db3ae-5501-4c9f-ab5f-d9e2da85ab2e","system_id":"levelo_inurba_marseille","lat":43.309039,"lon":5.371797,"is_reserved":false,"is_disabled":false,"rental_uris":{"android":"levelo://app?vid=d99db3ae-5501-4c9f-ab5f-d9e2da85ab2e","ios":"levelo://app?vid=d99db3ae-5501-4c9f-ab5f-d9e2da85ab2e"},"vehicle_type_id":"4","last_reported":1713373567,"current_range_meters":13600,"station_id":"ce4bguh2rcd13ifvqckg","pricing_plan_id":"cebpf4jnsgd1na2vs0mg"},{"bike_id":"7f10f23f-cb34-424f-8475-cf8fc54d0704","system_id":"levelo_inurba_marseille","lat":43.309039,"lon":5.371797,"is_reserved":false,"is_disabled":false,"rental_uris":{"android":"levelo://app?vid=7f10f23f-cb34-424f-8475-cf8fc54d0704","ios":"levelo://app?vid=7f10f23f-cb34-424f-8475-cf8fc54d0704"},"vehicle_type_id":"4","last_reported":1713373567,"current_range_meters":8800,"station_id":"ce4bguh2rcd13ifvqckg","pricing_plan_id":"cebpf4jnsgd1na2vs0mg"},{"bike_id":"c1fc8857-9091-4fe9-a8fb-e71d3dca6a96","system_id":"levelo_inurba_marseille","lat":43.30537,"lon":5.367345,"is_reserved":false,"is_disabled":false,"rental_uris":{"android":"levelo://app?vid=c1fc8857-9091-4fe9-a8fb-e71d3dca6a96","ios":"levelo://app?vid=c1fc8857-9091-4fe9-a8fb-e71d3dca6a96"},"vehicle_type_id":"4","last_reported":1713373567,"current_range_meters":18000,"station_id":"ce4bgrp2rcd13ifvqc9g","pricing_plan_id":"cebpf4jnsgd1na2vs0mg"},{"bike_id":"52f22b5a-486d-4c62-a4ac-137bfb2f235e","system_id":"levelo_inurba_marseille","lat":43.30554,"lon":5.36534,"is_reserved":false,"is_disabled":false,"rental_uris":{"android":"levelo://app?vid=52f22b5a-486d-4c62-a4ac-137bfb2f235e","ios":"levelo://app?vid=52f22b5a-486d-4c62-a4ac-137bfb2f235e"},"vehicle_type_id":"4","last_reported":1713373567,"current_range_meters":29200,"station_id":"","pricing_plan_id":"cebpf4jnsgd1na2vs0mg"},{"bike_id":"6adf701d-5fe6-44fc-a14d-f769d8272ff1","system_id":"levelo_inurba_marseille","lat":43.30545,"lon":5.3672,"is_reserved":false,"is_disabled":false,"rental_uris":{"android":"levelo://app?vid=6adf701d-5fe6-44fc-a14d-f769d8272ff1","ios":"levelo://app?vid=6adf701d-5fe6-44fc-a14d-f769d8272ff1"},"vehicle_type_id":"4","last_reported":1713373567,"current_range_meters":0,"station_id":"ce4bgrp2rcd13ifvqc9g","pricing_plan_id":"cebpf4jnsgd1na2vs0mg"},{"bike_id":"33658706-2909-41a6-bf8e-954dbdef67ee","system_id":"levelo_inurba_marseille","lat":43.305714,"lon":5.365633,"is_reserved":false,"is_disabled":false,"rental_uris":{"android":"levelo://app?vid=33658706-2909-41a6-bf8e-954dbdef67ee","ios":"levelo://app?vid=33658706-2909-41a6-bf8e-954dbdef67ee"},"vehicle_type_id":"4","last_reported":1713373567,"current_range_meters":0,"station_id":"ce4bgs12rcd13ifvqcag","pricing_plan_id":"cebpf4jnsgd1na2vs0mg"},{"bike_id":"2e068f47-c839-4bc8-b742-78f7e382faa0","system_id":"levelo_inurba_marseille","lat":43.305368,"lon":5.367343,"is_reserved":false,"is_disabled":false,"rental_uris":{"android":"levelo://app?vid=2e068f47-c839-4bc8-b742-78f7e382faa0","ios":"levelo://app?vid=2e068f47-c839-4bc8-b742-78f7e382faa0"},"vehicle_type_id":"4","last_reported":1713373567,"current_range_meters":16000,"station_id":"ce4bgrp2rcd13ifvqc9g","pricing_plan_id":"cebpf4jnsgd1na2vs0mg"},{"bike_id":"2435efa7-a76b-4280-b940-65e45357d649","system_id":"levelo_inurba_marseille","lat":43.306756,"lon":5.373013,"is_reserved":false,"is_disabled":false,"rental_uris":{"android":"levelo://app?vid=2435efa7-a76b-4280-b940-65e45357d649","ios":"levelo://app?vid=2435efa7-a76b-4280-b940-65e45357d649"},"vehicle_type_id":"4","last_reported":1713373567,"current_range_meters":4000,"station_id":"","pricing_plan_id":"cebpf4jnsgd1na2vs0mg"},{"bike_id":"6efc5b78-c513-4bae-8ba4-e1dd5d92f736","system_id":"levelo_inurba_marseille","lat":43.305989,"lon":5.37225,"is_reserved":false,"is_disabled":false,"rental_uris":{"android":"levelo://app?vid=6efc5b78-c513-4bae-8ba4-e1dd5d92f736","ios":"levelo://app?vid=6efc5b78-c513-4bae-8ba4-e1dd5d92f736"},"vehicle_type_id":"4","last_reported":1713373567,"current_range_meters":15200,"station_id":"ce4bgqh2rcd13ifvqc4g","pricing_plan_id":"cebpf4jnsgd1na2vs0mg"},{"bike_id":"098e2707-f3bc-456d-8575-4b78700e738a","system_id":"levelo_inurba_marseille","lat":43.289741,"lon":5.378306,"is_reserved":false,"is_disabled":false,"rental_uris":{"android":"levelo://app?vid=098e2707-f3bc-456d-8575-4b78700e738a","ios":"levelo://app?vid=098e2707-f3bc-456d-8575-4b78700e738a"},"vehicle_type_id":"4","last_reported":1713373567,"current_range_meters":25600,"station_id":"ce4bh9p2rcd13ifvqed0","pricing_plan_id":"cebpf4jnsgd1na2vs0mg"},{"bike_id":"8cd28707-e8cf-46d7-80cc-a309603c9931","system_id":"levelo_inurba_marseille","lat":43.311125,"lon":5.377624,"is_reserved":false,"is_disabled":false,"rental_uris":{"android":"levelo://app?vid=8cd28707-e8cf-46d7-80cc-a309603c9931","ios":"levelo://app?vid=8cd28707-e8cf-46d7-80cc-a309603c9931"},"vehicle_type_id":"4","last_reported":1713373567,"current_range_meters":0,"station_id":"ce4bgt92rcd13ifvqcg0","pricing_plan_id":"cebpf4jnsgd1na2vs0mg"},{"bike_id":"8d7d495c-7857-4443-809e-81a6ca583322","system_id":"levelo_inurba_marseille","lat":43.245581,"lon":5.395069,"is_reserved":false,"is_disabled":false,"rental_uris":{"android":"levelo://app?vid=8d7d495c-7857-4443-809e-81a6ca583322","ios":"levelo://app?vid=8d7d495c-7857-4443-809e-81a6ca583322"},"vehicle_type_id":"4","last_reported":1713373567,"current_range_meters":21200,"station_id":"ce4bhlp2rcd13ifvqgjg","pricing_plan_id":"cebpf4jnsgd1na2vs0mg"},{"bike_id":"e07c981e-638b-4ba6-ac96-fe5ee9e5a164","system_id":"levelo_inurba_marseille","lat":43.317075,"lon":5.377367,"is_reserved":false,"is_disabled":false,"rental_uris":{"android":"levelo://app?vid=e07c981e-638b-4ba6-ac96-fe5ee9e5a164","ios":"levelo://app?vid=e07c981e-638b-4ba6-ac96-fe5ee9e5a164"},"vehicle_type_id":"4","last_reported":1713373567,"current_range_meters":31600,"station_id":"ce4bgth2rcd13ifvqch0","pricing_plan_id":"cebpf4jnsgd1na2vs0mg"},{"bike_id":"e00f5c9c-82f1-4595-be09-fbbeee63189b","system_id":"levelo_inurba_marseille","lat":43.317075,"lon":5.377367,"is_reserved":false,"is_disabled":false,"rental_uris":{"android":"levelo://app?vid=e00f5c9c-82f1-4595-be09-fbbeee63189b","ios":"levelo://app?vid=e00f5c9c-82f1-4595-be09-fbbeee63189b"},"vehicle_type_id":"4","last_reported":1713373567,"current_range_meters":25200,"station_id":"ce4bgth2rcd13ifvqch0","pricing_plan_id":"cebpf4jnsgd1na2vs0mg"},{"bike_id":"af121c7d-0da1-405c-8b31-1d7369540008","system_id":"levelo_inurba_marseille","lat":43.31306,"lon":5.3795,"is_reserved":false,"is_disabled":false,"rental_uris":{"android":"levelo://app?vid=af121c7d-0da1-405c-8b31-1d7369540008","ios":"levelo://app?vid=af121c7d-0da1-405c-8b31-1d7369540008"},"vehicle_type_id":"4","last_reported":1713373567,"current_range_meters":24400,"station_id":"","pricing_plan_id":"cebpf4jnsgd1na2vs0mg"},{"bike_id":"c532d9b0-a45a-47b0-87fc-82beebfeaea6","system_id":"levelo_inurba_marseille","lat":43.315289,"lon":5.380349,"is_reserved":false,"is_disabled":false,"rental_uris":{"android":"levelo://app?vid=c532d9b0-a45a-47b0-87fc-82beebfeaea6","ios":"levelo://app?vid=c532d9b0-a45a-47b0-87fc-82beebfeaea6"},"vehicle_type_id":"4","last_reported":1713373567,"current_range_meters":20800,"station_id":"ce4bhsp2rcd13ifvqi50","pricing_plan_id":"cebpf4jnsgd1na2vs0mg"},{"bike_id":"fe8a30a1-280f-4ab2-8de0-0fd7824459f9","system_id":"levelo_inurba_marseille","lat":43.309039,"lon":5.371797,"is_reserved":false,"is_disabled":false,"rental_uris":{"android":"levelo://app?vid=fe8a30a1-280f-4ab2-8de0-0fd7824459f9","ios":"levelo://app?vid=fe8a30a1-280f-4ab2-8de0-0fd7824459f9"},"vehicle_type_id":"4","last_reported":1713373567,"current_range_meters":10400,"station_id":"ce4bguh2rcd13ifvqckg","pricing_plan_id":"cebpf4jnsgd1na2vs0mg"},{"bike_id":"67e25b0e-a45d-4091-adb8-b234b4ca9c86","system_id":"levelo_inurba_marseille","lat":43.294162,"lon":5.386292,"is_reserved":false,"is_disabled":false,"rental_uris":{"android":"levelo://app?vid=67e25b0e-a45d-4091-adb8-b234b4ca9c86","ios":"levelo://app?vid=67e25b0e-a45d-4091-adb8-b234b4ca9c86"},"vehicle_type_id":"4","last_reported":1713373567,"current_range_meters":0,"station_id":"ce4bh2h2rcd13ifvqdh0","pricing_plan_id":"cebpf4jnsgd1na2vs0mg"},{"bike_id":"2a4875a7-4bd4-43de-a8cb-feb7770eba30","system_id":"levelo_inurba_marseille","lat":43.284787,"lon":5.384116,"is_reserved":false,"is_disabled":false,"rental_uris":{"android":"levelo://app?vid=2a4875a7-4bd4-43de-a8cb-feb7770eba30","ios":"levelo://app?vid=2a4875a7-4bd4-43de-a8cb-feb7770eba30"},"vehicle_type_id":"4","last_reported":1713373567,"current_range_meters":26800,"station_id":"ce4bh512rcd13ifvqe3g","pricing_plan_id":"cebpf4jnsgd1na2vs0mg"},{"bike_id":"30f8c3f4-6495-4dec-a5c8-7dec8a031f57","system_id":"levelo_inurba_marseille","lat":43.304606,"lon":5.379026,"is_reserved":false,"is_disabled":false,"rental_uris":{"android":"levelo://app?vid=30f8c3f4-6495-4dec-a5c8-7dec8a031f57","ios":"levelo://app?vid=30f8c3f4-6495-4dec-a5c8-7dec8a031f57"},"vehicle_type_id":"4","last_reported":1713373567,"current_range_meters":0,"station_id":"ce4bgup2rcd13ifvqcn0","pricing_plan_id":"cebpf4jnsgd1na2vs0mg"},{"bike_id":"bdd5fc7e-d9fd-4a61-a4e9-353797c4a696","system_id":"levelo_inurba_marseille","lat":43.324771,"lon":5.36557,"is_reserved":false,"is_disabled":false,"rental_uris":{"android":"levelo://app?vid=bdd5fc7e-d9fd-4a61-a4e9-353797c4a696","ios":"levelo://app?vid=bdd5fc7e-d9fd-4a61-a4e9-353797c4a696"},"vehicle_type_id":"4","last_reported":1713373567,"current_range_meters":15600,"station_id":"ce4bhs12rcd13ifvqhvg","pricing_plan_id":"cebpf4jnsgd1na2vs0mg"},{"bike_id":"2361f870-47a0-4ae4-a065-afb3cf02f8b1","system_id":"levelo_inurba_marseille","lat":43.324771,"lon":5.36557,"is_reserved":false,"is_disabled":false,"rental_uris":{"android":"levelo://app?vid=2361f870-47a0-4ae4-a065-afb3cf02f8b1","ios":"levelo://app?vid=2361f870-47a0-4ae4-a065-afb3cf02f8b1"},"vehicle_type_id":"4","last_reported":1713373567,"current_range_meters":18400,"station_id":"ce4bhs12rcd13ifvqhvg","pricing_plan_id":"cebpf4jnsgd1na2vs0mg"},{"bike_id":"bcbb6aaf-8940-4322-8b8f-7ff473c3b6b6","system_id":"levelo_inurba_marseille","lat":43.324771,"lon":5.36557,"is_reserved":false,"is_disabled":false,"rental_uris":{"android":"levelo://app?vid=bcbb6aaf-8940-4322-8b8f-7ff473c3b6b6","ios":"levelo://app?vid=bcbb6aaf-8940-4322-8b8f-7ff473c3b6b6"},"vehicle_type_id":"4","last_reported":1713373567,"current_range_meters":8000,"station_id":"ce4bhs12rcd13ifvqhvg","pricing_plan_id":"cebpf4jnsgd1na2vs0mg"},{"bike_id":"a57f1ecd-b1dd-49bb-a16e-7eee0df760af","system_id":"levelo_inurba_marseille","lat":43.32479,"lon":5.3656,"is_reserved":false,"is_disabled":false,"rental_uris":{"android":"levelo://app?vid=a57f1ecd-b1dd-49bb-a16e-7eee0df760af","ios":"levelo://app?vid=a57f1ecd-b1dd-49bb-a16e-7eee0df760af"},"vehicle_type_id":"4","last_reported":1713373567,"current_range_meters":18800,"station_id":"ce4bhs12rcd13ifvqhvg","pricing_plan_id":"cebpf4jnsgd1na2vs0mg"},{"bike_id":"46ea4275-c1ae-4b89-a602-4a05d658b071","system_id":"levelo_inurba_marseille","lat":43.324771,"lon":5.36557,"is_reserved":false,"is_disabled":false,"rental_uris":{"android":"levelo://app?vid=46ea4275-c1ae-4b89-a602-4a05d658b071","ios":"levelo://app?vid=46ea4275-c1ae-4b89-a602-4a05d658b071"},"vehicle_type_id":"4","last_reported":1713373567,"current_range_meters":18800,"station_id":"ce4bhs12rcd13ifvqhvg","pricing_plan_id":"cebpf4jnsgd1na2vs0mg"},{"bike_id":"732115dd-fc36-4cea-9cd6-0e4cc350a9d7","system_id":"levelo_inurba_marseille","lat":43.324771,"lon":5.36557,"is_reserved":false,"is_disabled":false,"rental_uris":{"android":"levelo://app?vid=732115dd-fc36-4cea-9cd6-0e4cc350a9d7","ios":"levelo://app?vid=732115dd-fc36-4cea-9cd6-0e4cc350a9d7"},"vehicle_type_id":"4","last_reported":1713373567,"current_range_meters":21600,"station_id":"ce4bhs12rcd13ifvqhvg","pricing_plan_id":"cebpf4jnsgd1na2vs0mg"},{"bike_id":"0cfc62e7-2ad7-435e-9f4e-5576818400a0","system_id":"levelo_inurba_marseille","lat":43.30297,"lon":5.3768,"is_reserved":false,"is_disabled":false,"rental_uris":{"android":"levelo://app?vid=0cfc62e7-2ad7-435e-9f4e-5576818400a0","ios":"levelo://app?vid=0cfc62e7-2ad7-435e-9f4e-5576818400a0"},"vehicle_type_id":"4","last_reported":1713373567,"current_range_meters":18800,"station_id":"","pricing_plan_id":"cebpf4jnsgd1na2vs0mg"},{"bike_id":"bada93fb-f3e7-4072-b03f-debca43b0142","system_id":"levelo_inurba_marseille","lat":43.32484,"lon":5.3657,"is_reserved":false,"is_disabled":false,"rental_uris":{"android":"levelo://app?vid=bada93fb-f3e7-4072-b03f-debca43b0142","ios":"levelo://app?vid=bada93fb-f3e7-4072-b03f-debca43b0142"},"vehicle_type_id":"4","last_reported":1713373567,"current_range_meters":1600,"station_id":"ce4bhs12rcd13ifvqhvg","pricing_plan_id":"cebpf4jnsgd1na2vs0mg"},{"bike_id":"f8d17a61-ff89-4ad9-84b0-bbffea33bd67","system_id":"levelo_inurba_marseille","lat":43.324771,"lon":5.36557,"is_reserved":false,"is_disabled":false,"rental_uris":{"android":"levelo://app?vid=f8d17a61-ff89-4ad9-84b0-bbffea33bd67","ios":"levelo://app?vid=f8d17a61-ff89-4ad9-84b0-bbffea33bd67"},"vehicle_type_id":"4","last_reported":1713373567,"current_range_meters":11200,"station_id":"ce4bhs12rcd13ifvqhvg","pricing_plan_id":"cebpf4jnsgd1na2vs0mg"},{"bike_id":"2a865e89-9216-4416-80ea-e4a80938ab34","system_id":"levelo_inurba_marseille","lat":43.313571,"lon":5.384829,"is_reserved":false,"is_disabled":false,"rental_uris":{"android":"levelo://app?vid=2a865e89-9216-4416-80ea-e4a80938ab34","ios":"levelo://app?vid=2a865e89-9216-4416-80ea-e4a80938ab34"},"vehicle_type_id":"4","last_reported":1713373567,"current_range_meters":21200,"station_id":"ce4bgt92rcd13ifvqcf0","pricing_plan_id":"cebpf4jnsgd1na2vs0mg"},{"bike_id":"a51b9dbd-b6b4-4e62-aede-beb536c98b5a","system_id":"levelo_inurba_marseille","lat":43.32485,"lon":5.36559,"is_reserved":false,"is_disabled":false,"rental_uris":{"android":"levelo://app?vid=a51b9dbd-b6b4-4e62-aede-beb536c98b5a","ios":"levelo://app?vid=a51b9dbd-b6b4-4e62-aede-beb536c98b5a"},"vehicle_type_id":"4","last_reported":1713373567,"current_range_meters":6800,"station_id":"ce4bhs12rcd13ifvqhvg","pricing_plan_id":"cebpf4jnsgd1na2vs0mg"},{"bike_id":"6850d3ac-6118-46b8-87a3-283cb8f13775","system_id":"levelo_inurba_marseille","lat":43.324771,"lon":5.36557,"is_reserved":false,"is_disabled":false,"rental_uris":{"android":"levelo://app?vid=6850d3ac-6118-46b8-87a3-283cb8f13775","ios":"levelo://app?vid=6850d3ac-6118-46b8-87a3-283cb8f13775"},"vehicle_type_id":"4","last_reported":1713373567,"current_range_meters":10000,"station_id":"ce4bhs12rcd13ifvqhvg","pricing_plan_id":"cebpf4jnsgd1na2vs0mg"},{"bike_id":"9650e995-0d72-455f-838e-dca00d5136ce","system_id":"levelo_inurba_marseille","lat":43.324771,"lon":5.36557,"is_reserved":false,"is_disabled":false,"rental_uris":{"android":"levelo://app?vid=9650e995-0d72-455f-838e-dca00d5136ce","ios":"levelo://app?vid=9650e995-0d72-455f-838e-dca00d5136ce"},"vehicle_type_id":"4","last_reported":1713373567,"current_range_meters":24800,"station_id":"ce4bhs12rcd13ifvqhvg","pricing_plan_id":"cebpf4jnsgd1na2vs0mg"},{"bike_id":"ceb2e7a0-07eb-4018-b658-bc6268cc5ad0","system_id":"levelo_inurba_marseille","lat":43.324771,"lon":5.36557,"is_reserved":false,"is_disabled":false,"rental_uris":{"android":"levelo://app?vid=ceb2e7a0-07eb-4018-b658-bc6268cc5ad0","ios":"levelo://app?vid=ceb2e7a0-07eb-4018-b658-bc6268cc5ad0"},"vehicle_type_id":"4","last_reported":1713373567,"current_range_meters":28400,"station_id":"ce4bhs12rcd13ifvqhvg","pricing_plan_id":"cebpf4jnsgd1na2vs0mg"},{"bike_id":"fb64db0d-2b82-441b-90d8-41b3d611ec49","system_id":"levelo_inurba_marseille","lat":43.310804,"lon":5.38359,"is_reserved":false,"is_disabled":false,"rental_uris":{"android":"levelo://app?vid=fb64db0d-2b82-441b-90d8-41b3d611ec49","ios":"levelo://app?vid=fb64db0d-2b82-441b-90d8-41b3d611ec49"},"vehicle_type_id":"4","last_reported":1713373567,"current_range_meters":15200,"station_id":"ce4bgv92rcd13ifvqcr0","pricing_plan_id":"cebpf4jnsgd1na2vs0mg"},{"bike_id":"ec4102cf-79b9-4b30-8ac2-31a3ae5b2f46","system_id":"levelo_inurba_marseille","lat":43.302784,"lon":5.377158,"is_reserved":false,"is_disabled":false,"rental_uris":{"android":"levelo://app?vid=ec4102cf-79b9-4b30-8ac2-31a3ae5b2f46","ios":"levelo://app?vid=ec4102cf-79b9-4b30-8ac2-31a3ae5b2f46"},"vehicle_type_id":"4","last_reported":1713373567,"current_range_meters":4000,"station_id":"ce4bguh2rcd13ifvqcj0","pricing_plan_id":"cebpf4jnsgd1na2vs0mg"},{"bike_id":"5e0422c4-4db2-4cd5-8ec6-f1a5f73617e2","system_id":"levelo_inurba_marseille","lat":43.305614,"lon":5.381366,"is_reserved":false,"is_disabled":false,"rental_uris":{"android":"levelo://app?vid=5e0422c4-4db2-4cd5-8ec6-f1a5f73617e2","ios":"levelo://app?vid=5e0422c4-4db2-4cd5-8ec6-f1a5f73617e2"},"vehicle_type_id":"4","last_reported":1713373567,"current_range_meters":18400,"station_id":"","pricing_plan_id":"cebpf4jnsgd1na2vs0mg"},{"bike_id":"b81b1e3e-2172-4dfd-8720-aafb0057bf12","system_id":"levelo_inurba_marseille","lat":43.319935,"lon":5.381699,"is_reserved":false,"is_disabled":false,"rental_uris":{"android":"levelo://app?vid=b81b1e3e-2172-4dfd-8720-aafb0057bf12","ios":"levelo://app?vid=b81b1e3e-2172-4dfd-8720-aafb0057bf12"},"vehicle_type_id":"4","last_reported":1713373567,"current_range_meters":9600,"station_id":"ce4bhr12rcd13ifvqhpg","pricing_plan_id":"cebpf4jnsgd1na2vs0mg"},{"bike_id":"334e3407-4f9b-4b57-a5ef-39033f25d948","system_id":"levelo_inurba_marseille","lat":43.319935,"lon":5.381699,"is_reserved":false,"is_disabled":false,"rental_uris":{"android":"levelo://app?vid=334e3407-4f9b-4b57-a5ef-39033f25d948","ios":"levelo://app?vid=334e3407-4f9b-4b57-a5ef-39033f25d948"},"vehicle_type_id":"4","last_reported":1713373567,"current_range_meters":20800,"station_id":"ce4bhr12rcd13ifvqhpg","pricing_plan_id":"cebpf4jnsgd1na2vs0mg"},{"bike_id":"d212c281-3522-420a-b06f-b80966290c73","system_id":"levelo_inurba_marseille","lat":43.319935,"lon":5.381699,"is_reserved":false,"is_disabled":false,"rental_uris":{"android":"levelo://app?vid=d212c281-3522-420a-b06f-b80966290c73","ios":"levelo://app?vid=d212c281-3522-420a-b06f-b80966290c73"},"vehicle_type_id":"4","last_reported":1713373567,"current_range_meters":24400,"station_id":"ce4bhr12rcd13ifvqhpg","pricing_plan_id":"cebpf4jnsgd1na2vs0mg"},{"bike_id":"db4e5948-a9e3-4f31-a53d-c0f63a3aac5e","system_id":"levelo_inurba_marseille","lat":43.319935,"lon":5.381699,"is_reserved":false,"is_disabled":false,"rental_uris":{"android":"levelo://app?vid=db4e5948-a9e3-4f31-a53d-c0f63a3aac5e","ios":"levelo://app?vid=db4e5948-a9e3-4f31-a53d-c0f63a3aac5e"},"vehicle_type_id":"4","last_reported":1713373567,"current_range_meters":16800,"station_id":"ce4bhr12rcd13ifvqhpg","pricing_plan_id":"cebpf4jnsgd1na2vs0mg"},{"bike_id":"eb084826-c14b-4714-abc5-e75cc896773b","system_id":"levelo_inurba_marseille","lat":43.319935,"lon":5.381699,"is_reserved":false,"is_disabled":false,"rental_uris":{"android":"levelo://app?vid=eb084826-c14b-4714-abc5-e75cc896773b","ios":"levelo://app?vid=eb084826-c14b-4714-abc5-e75cc896773b"},"vehicle_type_id":"4","last_reported":1713373567,"current_range_meters":9600,"station_id":"ce4bhr12rcd13ifvqhpg","pricing_plan_id":"cebpf4jnsgd1na2vs0mg"},{"bike_id":"daa56114-b9d2-4cb0-a61b-57407ec02a89","system_id":"levelo_inurba_marseille","lat":43.319935,"lon":5.381699,"is_reserved":false,"is_disabled":false,"rental_uris":{"android":"levelo://app?vid=daa56114-b9d2-4cb0-a61b-57407ec02a89","ios":"levelo://app?vid=daa56114-b9d2-4cb0-a61b-57407ec02a89"},"vehicle_type_id":"4","last_reported":1713373567,"current_range_meters":0,"station_id":"ce4bhr12rcd13ifvqhpg","pricing_plan_id":"cebpf4jnsgd1na2vs0mg"},{"bike_id":"93a074d1-f34f-473f-b326-ebb9181d8b49","system_id":"levelo_inurba_marseille","lat":43.313571,"lon":5.384829,"is_reserved":false,"is_disabled":false,"rental_uris":{"android":"levelo://app?vid=93a074d1-f34f-473f-b326-ebb9181d8b49","ios":"levelo://app?vid=93a074d1-f34f-473f-b326-ebb9181d8b49"},"vehicle_type_id":"4","last_reported":1713373567,"current_range_meters":6800,"station_id":"ce4bgt92rcd13ifvqcf0","pricing_plan_id":"cebpf4jnsgd1na2vs0mg"},{"bike_id":"c9048f59-9188-407d-b85c-42c53a56c71d","system_id":"levelo_inurba_marseille","lat":43.313617,"lon":5.384876,"is_reserved":false,"is_disabled":false,"rental_uris":{"android":"levelo://app?vid=c9048f59-9188-407d-b85c-42c53a56c71d","ios":"levelo://app?vid=c9048f59-9188-407d-b85c-42c53a56c71d"},"vehicle_type_id":"4","last_reported":1713373567,"current_range_meters":23600,"station_id":"ce4bgt92rcd13ifvqcf0","pricing_plan_id":"cebpf4jnsgd1na2vs0mg"},{"bike_id":"2a355e55-4c6c-45ed-8918-155c0dec4ec9","system_id":"levelo_inurba_marseille","lat":43.313571,"lon":5.384829,"is_reserved":false,"is_disabled":false,"rental_uris":{"android":"levelo://app?vid=2a355e55-4c6c-45ed-8918-155c0dec4ec9","ios":"levelo://app?vid=2a355e55-4c6c-45ed-8918-155c0dec4ec9"},"vehicle_type_id":"4","last_reported":1713373567,"current_range_meters":4000,"station_id":"ce4bgt92rcd13ifvqcf0","pricing_plan_id":"cebpf4jnsgd1na2vs0mg"},{"bike_id":"3efafc78-abec-43f0-9659-df20b378bc3a","system_id":"levelo_inurba_marseille","lat":43.31363,"lon":5.3849,"is_reserved":false,"is_disabled":false,"rental_uris":{"android":"levelo://app?vid=3efafc78-abec-43f0-9659-df20b378bc3a","ios":"levelo://app?vid=3efafc78-abec-43f0-9659-df20b378bc3a"},"vehicle_type_id":"4","last_reported":1713373567,"current_range_meters":0,"station_id":"ce4bgt92rcd13ifvqcf0","pricing_plan_id":"cebpf4jnsgd1na2vs0mg"},{"bike_id":"d697526c-2c08-4769-9ca9-1b470f411619","system_id":"levelo_inurba_marseille","lat":43.313596,"lon":5.384927,"is_reserved":false,"is_disabled":false,"rental_uris":{"android":"levelo://app?vid=d697526c-2c08-4769-9ca9-1b470f411619","ios":"levelo://app?vid=d697526c-2c08-4769-9ca9-1b470f411619"},"vehicle_type_id":"4","last_reported":1713373567,"current_range_meters":1600,"station_id":"ce4bgt92rcd13ifvqcf0","pricing_plan_id":"cebpf4jnsgd1na2vs0mg"},{"bike_id":"af07579d-47d5-472d-ac22-e3bff398a5fb","system_id":"levelo_inurba_marseille","lat":43.29939,"lon":5.36539,"is_reserved":false,"is_disabled":false,"rental_uris":{"android":"levelo://app?vid=af07579d-47d5-472d-ac22-e3bff398a5fb","ios":"levelo://app?vid=af07579d-47d5-472d-ac22-e3bff398a5fb"},"vehicle_type_id":"4","last_reported":1713373567,"current_range_meters":17600,"station_id":"ce4bhbh2rcd13ifvqepg","pricing_plan_id":"cebpf4jnsgd1na2vs0mg"},{"bike_id":"79b1484c-7ca2-4a8d-b15b-2987062d3cb2","system_id":"levelo_inurba_marseille","lat":43.300156,"lon":5.376562,"is_reserved":false,"is_disabled":false,"rental_uris":{"android":"levelo://app?vid=79b1484c-7ca2-4a8d-b15b-2987062d3cb2","ios":"levelo://app?vid=79b1484c-7ca2-4a8d-b15b-2987062d3cb2"},"vehicle_type_id":"4","last_reported":1713373567,"current_range_meters":24800,"station_id":"","pricing_plan_id":"cebpf4jnsgd1na2vs0mg"},{"bike_id":"198e98d5-68f5-42e7-9708-a36ccc0e8208","system_id":"levelo_inurba_marseille","lat":43.298681,"lon":5.397225,"is_reserved":false,"is_disabled":false,"rental_uris":{"android":"levelo://app?vid=198e98d5-68f5-42e7-9708-a36ccc0e8208","ios":"levelo://app?vid=198e98d5-68f5-42e7-9708-a36ccc0e8208"},"vehicle_type_id":"4","last_reported":1713373567,"current_range_meters":14000,"station_id":"ce4bh0h2rcd13ifvqd50","pricing_plan_id":"cebpf4jnsgd1na2vs0mg"},{"bike_id":"795ddde1-c763-490e-bcf5-d4799c6f74f4","system_id":"levelo_inurba_marseille","lat":43.298433,"lon":5.362774,"is_reserved":false,"is_disabled":false,"rental_uris":{"android":"levelo://app?vid=795ddde1-c763-490e-bcf5-d4799c6f74f4","ios":"levelo://app?vid=795ddde1-c763-490e-bcf5-d4799c6f74f4"},"vehicle_type_id":"4","last_reported":1713373567,"current_range_meters":11600,"station_id":"ce4bgpp2rcd13ifvqc3g","pricing_plan_id":"cebpf4jnsgd1na2vs0mg"},{"bike_id":"bbd6474a-6edf-4dd9-bb13-4bda6b0a1ccb","system_id":"levelo_inurba_marseille","lat":43.311722,"lon":5.387247,"is_reserved":false,"is_disabled":false,"rental_uris":{"android":"levelo://app?vid=bbd6474a-6edf-4dd9-bb13-4bda6b0a1ccb","ios":"levelo://app?vid=bbd6474a-6edf-4dd9-bb13-4bda6b0a1ccb"},"vehicle_type_id":"4","last_reported":1713373567,"current_range_meters":21600,"station_id":"ce4bgv12rcd13ifvqcp0","pricing_plan_id":"cebpf4jnsgd1na2vs0mg"},{"bike_id":"2d4dffc1-d210-4e46-8538-df7acbc5d313","system_id":"levelo_inurba_marseille","lat":43.311722,"lon":5.387247,"is_reserved":false,"is_disabled":false,"rental_uris":{"android":"levelo://app?vid=2d4dffc1-d210-4e46-8538-df7acbc5d313","ios":"levelo://app?vid=2d4dffc1-d210-4e46-8538-df7acbc5d313"},"vehicle_type_id":"4","last_reported":1713373567,"current_range_meters":17600,"station_id":"ce4bgv12rcd13ifvqcp0","pricing_plan_id":"cebpf4jnsgd1na2vs0mg"},{"bike_id":"66888bb1-feed-4e63-9f5b-19c273c45ed9","system_id":"levelo_inurba_marseille","lat":43.311722,"lon":5.387247,"is_reserved":false,"is_disabled":false,"rental_uris":{"android":"levelo://app?vid=66888bb1-feed-4e63-9f5b-19c273c45ed9","ios":"levelo://app?vid=66888bb1-feed-4e63-9f5b-19c273c45ed9"},"vehicle_type_id":"4","last_reported":1713373567,"current_range_meters":4400,"station_id":"ce4bgv12rcd13ifvqcp0","pricing_plan_id":"cebpf4jnsgd1na2vs0mg"},{"bike_id":"58a6f6c4-e242-48a0-a807-e68a7284be0d","system_id":"levelo_inurba_marseille","lat":43.311722,"lon":5.387247,"is_reserved":false,"is_disabled":false,"rental_uris":{"android":"levelo://app?vid=58a6f6c4-e242-48a0-a807-e68a7284be0d","ios":"levelo://app?vid=58a6f6c4-e242-48a0-a807-e68a7284be0d"},"vehicle_type_id":"4","last_reported":1713373567,"current_range_meters":29200,"station_id":"ce4bgv12rcd13ifvqcp0","pricing_plan_id":"cebpf4jnsgd1na2vs0mg"},{"bike_id":"7d5fd475-d045-43ea-a449-bbf319400056","system_id":"levelo_inurba_marseille","lat":43.30221,"lon":5.38199,"is_reserved":false,"is_disabled":false,"rental_uris":{"android":"levelo://app?vid=7d5fd475-d045-43ea-a449-bbf319400056","ios":"levelo://app?vid=7d5fd475-d045-43ea-a449-bbf319400056"},"vehicle_type_id":"4","last_reported":1713373567,"current_range_meters":7600,"station_id":"","pricing_plan_id":"cebpf4jnsgd1na2vs0mg"},{"bike_id":"734a8047-824e-4dbf-9d9c-1057a5a1352b","system_id":"levelo_inurba_marseille","lat":43.297774,"lon":5.370875,"is_reserved":false,"is_disabled":false,"rental_uris":{"android":"levelo://app?vid=734a8047-824e-4dbf-9d9c-1057a5a1352b","ios":"levelo://app?vid=734a8047-824e-4dbf-9d9c-1057a5a1352b"},"vehicle_type_id":"4","last_reported":1713373567,"current_range_meters":1600,"station_id":"ce4bgop2rcd13ifvqc1g","pricing_plan_id":"cebpf4jnsgd1na2vs0mg"},{"bike_id":"55345e05-6332-43b7-af52-f8694f8d1135","system_id":"levelo_inurba_marseille","lat":43.297774,"lon":5.370875,"is_reserved":false,"is_disabled":false,"rental_uris":{"android":"levelo://app?vid=55345e05-6332-43b7-af52-f8694f8d1135","ios":"levelo://app?vid=55345e05-6332-43b7-af52-f8694f8d1135"},"vehicle_type_id":"4","last_reported":1713373567,"current_range_meters":4800,"station_id":"ce4bgop2rcd13ifvqc1g","pricing_plan_id":"cebpf4jnsgd1na2vs0mg"},{"bike_id":"50c48fd1-1d17-430a-a7e2-4475109305e2","system_id":"levelo_inurba_marseille","lat":43.322872,"lon":5.382756,"is_reserved":false,"is_disabled":false,"rental_uris":{"android":"levelo://app?vid=50c48fd1-1d17-430a-a7e2-4475109305e2","ios":"levelo://app?vid=50c48fd1-1d17-430a-a7e2-4475109305e2"},"vehicle_type_id":"4","last_reported":1713373567,"current_range_meters":20400,"station_id":"ce4bhr12rcd13ifvqhqg","pricing_plan_id":"cebpf4jnsgd1na2vs0mg"},{"bike_id":"6c4d1a0b-97b3-4e86-87c5-6e727d67c919","system_id":"levelo_inurba_marseille","lat":43.322872,"lon":5.382756,"is_reserved":false,"is_disabled":false,"rental_uris":{"android":"levelo://app?vid=6c4d1a0b-97b3-4e86-87c5-6e727d67c919","ios":"levelo://app?vid=6c4d1a0b-97b3-4e86-87c5-6e727d67c919"},"vehicle_type_id":"4","last_reported":1713373567,"current_range_meters":27600,"station_id":"ce4bhr12rcd13ifvqhqg","pricing_plan_id":"cebpf4jnsgd1na2vs0mg"},{"bike_id":"d01831ec-1e8e-4845-af65-9d3b7b523035","system_id":"levelo_inurba_marseille","lat":43.2968,"lon":5.37291,"is_reserved":false,"is_disabled":false,"rental_uris":{"android":"levelo://app?vid=d01831ec-1e8e-4845-af65-9d3b7b523035","ios":"levelo://app?vid=d01831ec-1e8e-4845-af65-9d3b7b523035"},"vehicle_type_id":"4","last_reported":1713373567,"current_range_meters":22800,"station_id":"ce4bgk12rcd13ifvqbj0","pricing_plan_id":"cebpf4jnsgd1na2vs0mg"},{"bike_id":"41491da7-9b80-4526-a836-c104b3b80d88","system_id":"levelo_inurba_marseille","lat":43.299028,"lon":5.381509,"is_reserved":false,"is_disabled":false,"rental_uris":{"android":"levelo://app?vid=41491da7-9b80-4526-a836-c104b3b80d88","ios":"levelo://app?vid=41491da7-9b80-4526-a836-c104b3b80d88"},"vehicle_type_id":"4","last_reported":1713373567,"current_range_meters":2400,"station_id":"ce4bgj12rcd13ifvqbc0","pricing_plan_id":"cebpf4jnsgd1na2vs0mg"},{"bike_id":"243bf46e-743a-4fab-ad99-d5909d2ca03a","system_id":"levelo_inurba_marseille","lat":43.310804,"lon":5.38359,"is_reserved":false,"is_disabled":false,"rental_uris":{"android":"levelo://app?vid=243bf46e-743a-4fab-ad99-d5909d2ca03a","ios":"levelo://app?vid=243bf46e-743a-4fab-ad99-d5909d2ca03a"},"vehicle_type_id":"4","last_reported":1713373567,"current_range_meters":8400,"station_id":"ce4bgv92rcd13ifvqcr0","pricing_plan_id":"cebpf4jnsgd1na2vs0mg"},{"bike_id":"48e5089b-f5d9-4af0-bb67-cb00d8a13f42","system_id":"levelo_inurba_marseille","lat":43.299028,"lon":5.381509,"is_reserved":false,"is_disabled":false,"rental_uris":{"android":"levelo://app?vid=48e5089b-f5d9-4af0-bb67-cb00d8a13f42","ios":"levelo://app?vid=48e5089b-f5d9-4af0-bb67-cb00d8a13f42"},"vehicle_type_id":"4","last_reported":1713373567,"current_range_meters":5200,"station_id":"ce4bgj12rcd13ifvqbc0","pricing_plan_id":"cebpf4jnsgd1na2vs0mg"},{"bike_id":"494f3e98-0090-4514-ade6-5698bd536fe9","system_id":"levelo_inurba_marseille","lat":43.296921,"lon":5.376579,"is_reserved":false,"is_disabled":false,"rental_uris":{"android":"levelo://app?vid=494f3e98-0090-4514-ade6-5698bd536fe9","ios":"levelo://app?vid=494f3e98-0090-4514-ade6-5698bd536fe9"},"vehicle_type_id":"4","last_reported":1713373567,"current_range_meters":6000,"station_id":"ce4bgkh2rcd13ifvqbl0","pricing_plan_id":"cebpf4jnsgd1na2vs0mg"},{"bike_id":"5157e8cb-bbd6-41cb-8561-7dc24eb44bca","system_id":"levelo_inurba_marseille","lat":43.299028,"lon":5.381509,"is_reserved":false,"is_disabled":false,"rental_uris":{"android":"levelo://app?vid=5157e8cb-bbd6-41cb-8561-7dc24eb44bca","ios":"levelo://app?vid=5157e8cb-bbd6-41cb-8561-7dc24eb44bca"},"vehicle_type_id":"4","last_reported":1713373567,"current_range_meters":8000,"station_id":"ce4bgj12rcd13ifvqbc0","pricing_plan_id":"cebpf4jnsgd1na2vs0mg"},{"bike_id":"3978b494-97aa-47de-abe4-507c95fa2d17","system_id":"levelo_inurba_marseille","lat":43.309589,"lon":5.390258,"is_reserved":false,"is_disabled":false,"rental_uris":{"android":"levelo://app?vid=3978b494-97aa-47de-abe4-507c95fa2d17","ios":"levelo://app?vid=3978b494-97aa-47de-abe4-507c95fa2d17"},"vehicle_type_id":"4","last_reported":1713373567,"current_range_meters":28800,"station_id":"ce4bgup2rcd13ifvqco0","pricing_plan_id":"cebpf4jnsgd1na2vs0mg"},{"bike_id":"0b090f3b-d922-4ad9-b854-2359f3200014","system_id":"levelo_inurba_marseille","lat":43.309589,"lon":5.390258,"is_reserved":false,"is_disabled":false,"rental_uris":{"android":"levelo://app?vid=0b090f3b-d922-4ad9-b854-2359f3200014","ios":"levelo://app?vid=0b090f3b-d922-4ad9-b854-2359f3200014"},"vehicle_type_id":"4","last_reported":1713373567,"current_range_meters":2400,"station_id":"ce4bgup2rcd13ifvqco0","pricing_plan_id":"cebpf4jnsgd1na2vs0mg"},{"bike_id":"f68e0947-7893-4c97-93be-b8b6c5b02f2b","system_id":"levelo_inurba_marseille","lat":43.299028,"lon":5.381509,"is_reserved":false,"is_disabled":false,"rental_uris":{"android":"levelo://app?vid=f68e0947-7893-4c97-93be-b8b6c5b02f2b","ios":"levelo://app?vid=f68e0947-7893-4c97-93be-b8b6c5b02f2b"},"vehicle_type_id":"4","last_reported":1713373567,"current_range_meters":11600,"station_id":"ce4bgj12rcd13ifvqbc0","pricing_plan_id":"cebpf4jnsgd1na2vs0mg"},{"bike_id":"a36f9ebd-e1dc-47d8-b34b-5fef97f6a137","system_id":"levelo_inurba_marseille","lat":43.317557,"lon":5.390173,"is_reserved":false,"is_disabled":false,"rental_uris":{"android":"levelo://app?vid=a36f9ebd-e1dc-47d8-b34b-5fef97f6a137","ios":"levelo://app?vid=a36f9ebd-e1dc-47d8-b34b-5fef97f6a137"},"vehicle_type_id":"4","last_reported":1713373567,"current_range_meters":8800,"station_id":"ce4bhqp2rcd13ifvqhng","pricing_plan_id":"cebpf4jnsgd1na2vs0mg"},{"bike_id":"7bee203a-ac66-4fa1-849d-cdef31128d58","system_id":"levelo_inurba_marseille","lat":43.317557,"lon":5.390173,"is_reserved":false,"is_disabled":false,"rental_uris":{"android":"levelo://app?vid=7bee203a-ac66-4fa1-849d-cdef31128d58","ios":"levelo://app?vid=7bee203a-ac66-4fa1-849d-cdef31128d58"},"vehicle_type_id":"4","last_reported":1713373567,"current_range_meters":29600,"station_id":"ce4bhqp2rcd13ifvqhng","pricing_plan_id":"cebpf4jnsgd1na2vs0mg"},{"bike_id":"9ec741fc-65f6-473a-98bd-e9ea9c34b351","system_id":"levelo_inurba_marseille","lat":43.317557,"lon":5.390173,"is_reserved":false,"is_disabled":false,"rental_uris":{"android":"levelo://app?vid=9ec741fc-65f6-473a-98bd-e9ea9c34b351","ios":"levelo://app?vid=9ec741fc-65f6-473a-98bd-e9ea9c34b351"},"vehicle_type_id":"4","last_reported":1713373567,"current_range_meters":23600,"station_id":"ce4bhqp2rcd13ifvqhng","pricing_plan_id":"cebpf4jnsgd1na2vs0mg"},{"bike_id":"5725ab0f-95f4-4bee-8ba0-ca604099efc9","system_id":"levelo_inurba_marseille","lat":43.294314,"lon":5.397498,"is_reserved":false,"is_disabled":false,"rental_uris":{"android":"levelo://app?vid=5725ab0f-95f4-4bee-8ba0-ca604099efc9","ios":"levelo://app?vid=5725ab0f-95f4-4bee-8ba0-ca604099efc9"},"vehicle_type_id":"4","last_reported":1713373567,"current_range_meters":24400,"station_id":"ce4bh3h2rcd13ifvqdo0","pricing_plan_id":"cebpf4jnsgd1na2vs0mg"},{"bike_id":"c7789159-af6e-48bc-8bb0-e8ab328e33e7","system_id":"levelo_inurba_marseille","lat":43.297973,"lon":5.380879,"is_reserved":false,"is_disabled":false,"rental_uris":{"android":"levelo://app?vid=c7789159-af6e-48bc-8bb0-e8ab328e33e7","ios":"levelo://app?vid=c7789159-af6e-48bc-8bb0-e8ab328e33e7"},"vehicle_type_id":"4","last_reported":1713373567,"current_range_meters":9600,"station_id":"ce4bgip2rcd13ifvqbb0","pricing_plan_id":"cebpf4jnsgd1na2vs0mg"},{"bike_id":"d2bee78d-9ae3-41a8-90cd-4d0b7cc89dcd","system_id":"levelo_inurba_marseille","lat":43.299028,"lon":5.381509,"is_reserved":false,"is_disabled":false,"rental_uris":{"android":"levelo://app?vid=d2bee78d-9ae3-41a8-90cd-4d0b7cc89dcd","ios":"levelo://app?vid=d2bee78d-9ae3-41a8-90cd-4d0b7cc89dcd"},"vehicle_type_id":"4","last_reported":1713373567,"current_range_meters":23200,"station_id":"ce4bgj12rcd13ifvqbc0","pricing_plan_id":"cebpf4jnsgd1na2vs0mg"},{"bike_id":"3cce9a85-1350-41d4-92ae-90ad884e3b05","system_id":"levelo_inurba_marseille","lat":43.295748,"lon":5.37522,"is_reserved":false,"is_disabled":false,"rental_uris":{"android":"levelo://app?vid=3cce9a85-1350-41d4-92ae-90ad884e3b05","ios":"levelo://app?vid=3cce9a85-1350-41d4-92ae-90ad884e3b05"},"vehicle_type_id":"4","last_reported":1713373567,"current_range_meters":5200,"station_id":"ce4bgh92rcd13ifvqb50","pricing_plan_id":"cebpf4jnsgd1na2vs0mg"},{"bike_id":"6ea44e7a-881f-4e8a-924b-d31e36d037ef","system_id":"levelo_inurba_marseille","lat":43.29576,"lon":5.37515,"is_reserved":false,"is_disabled":false,"rental_uris":{"android":"levelo://app?vid=6ea44e7a-881f-4e8a-924b-d31e36d037ef","ios":"levelo://app?vid=6ea44e7a-881f-4e8a-924b-d31e36d037ef"},"vehicle_type_id":"4","last_reported":1713373567,"current_range_meters":0,"station_id":"ce4bgh92rcd13ifvqb50","pricing_plan_id":"cebpf4jnsgd1na2vs0mg"},{"bike_id":"75d30edb-2e3d-43bb-88f1-37747264a7e8","system_id":"levelo_inurba_marseille","lat":43.298037,"lon":5.381066,"is_reserved":false,"is_disabled":false,"rental_uris":{"android":"levelo://app?vid=75d30edb-2e3d-43bb-88f1-37747264a7e8","ios":"levelo://app?vid=75d30edb-2e3d-43bb-88f1-37747264a7e8"},"vehicle_type_id":"4","last_reported":1713373567,"current_range_meters":18400,"station_id":"ce4bgip2rcd13ifvqbb0","pricing_plan_id":"cebpf4jnsgd1na2vs0mg"},{"bike_id":"b9f103fe-9fe8-478c-b1a7-b88e0cf02ea0","system_id":"levelo_inurba_marseille","lat":43.298037,"lon":5.381066,"is_reserved":false,"is_disabled":false,"rental_uris":{"android":"levelo://app?vid=b9f103fe-9fe8-478c-b1a7-b88e0cf02ea0","ios":"levelo://app?vid=b9f103fe-9fe8-478c-b1a7-b88e0cf02ea0"},"vehicle_type_id":"4","last_reported":1713373567,"current_range_meters":22000,"station_id":"ce4bgip2rcd13ifvqbb0","pricing_plan_id":"cebpf4jnsgd1na2vs0mg"},{"bike_id":"9b30e3ea-0b0c-43aa-8a5f-020df945cd8a","system_id":"levelo_inurba_marseille","lat":43.30442,"lon":5.38902,"is_reserved":false,"is_disabled":false,"rental_uris":{"android":"levelo://app?vid=9b30e3ea-0b0c-43aa-8a5f-020df945cd8a","ios":"levelo://app?vid=9b30e3ea-0b0c-43aa-8a5f-020df945cd8a"},"vehicle_type_id":"4","last_reported":1713373567,"current_range_meters":6000,"station_id":"","pricing_plan_id":"cebpf4jnsgd1na2vs0mg"},{"bike_id":"926fde5b-e4be-432d-bfd2-1e9970144c41","system_id":"levelo_inurba_marseille","lat":43.304274,"lon":5.397513,"is_reserved":false,"is_disabled":false,"rental_uris":{"android":"levelo://app?vid=926fde5b-e4be-432d-bfd2-1e9970144c41","ios":"levelo://app?vid=926fde5b-e4be-432d-bfd2-1e9970144c41"},"vehicle_type_id":"4","last_reported":1713373567,"current_range_meters":1200,"station_id":"ce4bh092rcd13ifvqd20","pricing_plan_id":"cebpf4jnsgd1na2vs0mg"},{"bike_id":"770e2160-7c97-47c9-bfe6-d69dc0f71ad3","system_id":"levelo_inurba_marseille","lat":43.304278,"lon":5.388868,"is_reserved":false,"is_disabled":false,"rental_uris":{"android":"levelo://app?vid=770e2160-7c97-47c9-bfe6-d69dc0f71ad3","ios":"levelo://app?vid=770e2160-7c97-47c9-bfe6-d69dc0f71ad3"},"vehicle_type_id":"4","last_reported":1713373567,"current_range_meters":19200,"station_id":"ce4bgk12rcd13ifvqbi0","pricing_plan_id":"cebpf4jnsgd1na2vs0mg"},{"bike_id":"c0d896f9-9b40-494b-a2c1-6aac5d287cc5","system_id":"levelo_inurba_marseille","lat":43.304278,"lon":5.388868,"is_reserved":false,"is_disabled":false,"rental_uris":{"android":"levelo://app?vid=c0d896f9-9b40-494b-a2c1-6aac5d287cc5","ios":"levelo://app?vid=c0d896f9-9b40-494b-a2c1-6aac5d287cc5"},"vehicle_type_id":"4","last_reported":1713373567,"current_range_meters":400,"station_id":"ce4bgk12rcd13ifvqbi0","pricing_plan_id":"cebpf4jnsgd1na2vs0mg"},{"bike_id":"4b25da7c-6547-401e-8a7b-885d264ea3c9","system_id":"levelo_inurba_marseille","lat":43.304278,"lon":5.388868,"is_reserved":false,"is_disabled":false,"rental_uris":{"android":"levelo://app?vid=4b25da7c-6547-401e-8a7b-885d264ea3c9","ios":"levelo://app?vid=4b25da7c-6547-401e-8a7b-885d264ea3c9"},"vehicle_type_id":"4","last_reported":1713373567,"current_range_meters":17600,"station_id":"ce4bgk12rcd13ifvqbi0","pricing_plan_id":"cebpf4jnsgd1na2vs0mg"},{"bike_id":"00da2596-436a-4464-aa67-85b6075f9216","system_id":"levelo_inurba_marseille","lat":43.296277,"lon":5.377108,"is_reserved":false,"is_disabled":false,"rental_uris":{"android":"levelo://app?vid=00da2596-436a-4464-aa67-85b6075f9216","ios":"levelo://app?vid=00da2596-436a-4464-aa67-85b6075f9216"},"vehicle_type_id":"4","last_reported":1713373567,"current_range_meters":0,"station_id":"ce4bgi92rcd13ifvqb90","pricing_plan_id":"cebpf4jnsgd1na2vs0mg"},{"bike_id":"e69110b2-6939-4a4d-a174-951ee298dfc8","system_id":"levelo_inurba_marseille","lat":43.289307,"lon":5.38406,"is_reserved":false,"is_disabled":false,"rental_uris":{"android":"levelo://app?vid=e69110b2-6939-4a4d-a174-951ee298dfc8","ios":"levelo://app?vid=e69110b2-6939-4a4d-a174-951ee298dfc8"},"vehicle_type_id":"4","last_reported":1713373567,"current_range_meters":1600,"station_id":"ce4bh612rcd13ifvqe6g","pricing_plan_id":"cebpf4jnsgd1na2vs0mg"},{"bike_id":"e95d4325-b11d-40d2-9368-4619f00b928c","system_id":"levelo_inurba_marseille","lat":43.310804,"lon":5.38359,"is_reserved":false,"is_disabled":false,"rental_uris":{"android":"levelo://app?vid=e95d4325-b11d-40d2-9368-4619f00b928c","ios":"levelo://app?vid=e95d4325-b11d-40d2-9368-4619f00b928c"},"vehicle_type_id":"4","last_reported":1713373567,"current_range_meters":5600,"station_id":"ce4bgv92rcd13ifvqcr0","pricing_plan_id":"cebpf4jnsgd1na2vs0mg"},{"bike_id":"be2b0b00-34b1-4f85-895a-bf295f1a4df1","system_id":"levelo_inurba_marseille","lat":43.323771,"lon":5.389306,"is_reserved":false,"is_disabled":false,"rental_uris":{"android":"levelo://app?vid=be2b0b00-34b1-4f85-895a-bf295f1a4df1","ios":"levelo://app?vid=be2b0b00-34b1-4f85-895a-bf295f1a4df1"},"vehicle_type_id":"4","last_reported":1713373567,"current_range_meters":22000,"station_id":"","pricing_plan_id":"cebpf4jnsgd1na2vs0mg"},{"bike_id":"4587c3de-7402-40d5-a2d3-2d268763e168","system_id":"levelo_inurba_marseille","lat":43.29602,"lon":5.381084,"is_reserved":false,"is_disabled":false,"rental_uris":{"android":"levelo://app?vid=4587c3de-7402-40d5-a2d3-2d268763e168","ios":"levelo://app?vid=4587c3de-7402-40d5-a2d3-2d268763e168"},"vehicle_type_id":"4","last_reported":1713373567,"current_range_meters":0,"station_id":"ce4bgl12rcd13ifvqbo0","pricing_plan_id":"cebpf4jnsgd1na2vs0mg"},{"bike_id":"c7b8fc04-0456-4ab3-a366-cb2d48f1418d","system_id":"levelo_inurba_marseille","lat":43.293259,"lon":5.371586,"is_reserved":false,"is_disabled":false,"rental_uris":{"android":"levelo://app?vid=c7b8fc04-0456-4ab3-a366-cb2d48f1418d","ios":"levelo://app?vid=c7b8fc04-0456-4ab3-a366-cb2d48f1418d"},"vehicle_type_id":"4","last_reported":1713373567,"current_range_meters":18400,"station_id":"ce4bgh92rcd13ifvqb40","pricing_plan_id":"cebpf4jnsgd1na2vs0mg"},{"bike_id":"6311d3ed-4cc8-46e8-9efd-704c48f7d9ac","system_id":"levelo_inurba_marseille","lat":43.292749,"lon":5.368398,"is_reserved":false,"is_disabled":false,"rental_uris":{"android":"levelo://app?vid=6311d3ed-4cc8-46e8-9efd-704c48f7d9ac","ios":"levelo://app?vid=6311d3ed-4cc8-46e8-9efd-704c48f7d9ac"},"vehicle_type_id":"4","last_reported":1713373567,"current_range_meters":12000,"station_id":"ce4bhbp2rcd13ifvqesg","pricing_plan_id":"cebpf4jnsgd1na2vs0mg"},{"bike_id":"ac3f90b3-3a60-491b-92e0-018988bc3552","system_id":"levelo_inurba_marseille","lat":43.303002,"lon":5.392142,"is_reserved":false,"is_disabled":false,"rental_uris":{"android":"levelo://app?vid=ac3f90b3-3a60-491b-92e0-018988bc3552","ios":"levelo://app?vid=ac3f90b3-3a60-491b-92e0-018988bc3552"},"vehicle_type_id":"4","last_reported":1713373567,"current_range_meters":10800,"station_id":"ce4bgkh2rcd13ifvqbk0","pricing_plan_id":"cebpf4jnsgd1na2vs0mg"},{"bike_id":"3d4893f8-52c7-4e45-8a58-4a4c36535b90","system_id":"levelo_inurba_marseille","lat":43.303002,"lon":5.392142,"is_reserved":false,"is_disabled":false,"rental_uris":{"android":"levelo://app?vid=3d4893f8-52c7-4e45-8a58-4a4c36535b90","ios":"levelo://app?vid=3d4893f8-52c7-4e45-8a58-4a4c36535b90"},"vehicle_type_id":"4","last_reported":1713373567,"current_range_meters":29200,"station_id":"ce4bgkh2rcd13ifvqbk0","pricing_plan_id":"cebpf4jnsgd1na2vs0mg"},{"bike_id":"a82429c4-d956-4d13-b7e4-c143bc5360d0","system_id":"levelo_inurba_marseille","lat":43.2938,"lon":5.37857,"is_reserved":false,"is_disabled":false,"rental_uris":{"android":"levelo://app?vid=a82429c4-d956-4d13-b7e4-c143bc5360d0","ios":"levelo://app?vid=a82429c4-d956-4d13-b7e4-c143bc5360d0"},"vehicle_type_id":"4","last_reported":1713373567,"current_range_meters":29200,"station_id":"ce4bgjh2rcd13ifvqbf0","pricing_plan_id":"cebpf4jnsgd1na2vs0mg"},{"bike_id":"e245b515-d6ec-4b84-a370-024fb02939cc","system_id":"levelo_inurba_marseille","lat":43.292228,"lon":5.360528,"is_reserved":false,"is_disabled":false,"rental_uris":{"android":"levelo://app?vid=e245b515-d6ec-4b84-a370-024fb02939cc","ios":"levelo://app?vid=e245b515-d6ec-4b84-a370-024fb02939cc"},"vehicle_type_id":"4","last_reported":1713373567,"current_range_meters":0,"station_id":"ce4bhbh2rcd13ifvqeqg","pricing_plan_id":"cebpf4jnsgd1na2vs0mg"},{"bike_id":"02869303-044f-416e-b123-85611ac2c876","system_id":"levelo_inurba_marseille","lat":43.291675,"lon":5.371583,"is_reserved":false,"is_disabled":false,"rental_uris":{"android":"levelo://app?vid=02869303-044f-416e-b123-85611ac2c876","ios":"levelo://app?vid=02869303-044f-416e-b123-85611ac2c876"},"vehicle_type_id":"4","last_reported":1713373567,"current_range_meters":0,"station_id":"ce4bha92rcd13ifvqeh0","pricing_plan_id":"cebpf4jnsgd1na2vs0mg"},{"bike_id":"3ac324f9-9feb-4e63-81c8-9a980cc72a84","system_id":"levelo_inurba_marseille","lat":43.291671,"lon":5.371575,"is_reserved":false,"is_disabled":false,"rental_uris":{"android":"levelo://app?vid=3ac324f9-9feb-4e63-81c8-9a980cc72a84","ios":"levelo://app?vid=3ac324f9-9feb-4e63-81c8-9a980cc72a84"},"vehicle_type_id":"4","last_reported":1713373567,"current_range_meters":21200,"station_id":"ce4bha92rcd13ifvqeh0","pricing_plan_id":"cebpf4jnsgd1na2vs0mg"},{"bike_id":"bbcfb983-033f-4da7-9815-2265c056fb25","system_id":"levelo_inurba_marseille","lat":43.311722,"lon":5.387247,"is_reserved":false,"is_disabled":false,"rental_uris":{"android":"levelo://app?vid=bbcfb983-033f-4da7-9815-2265c056fb25","ios":"levelo://app?vid=bbcfb983-033f-4da7-9815-2265c056fb25"},"vehicle_type_id":"4","last_reported":1713373567,"current_range_meters":2400,"station_id":"ce4bgv12rcd13ifvqcp0","pricing_plan_id":"cebpf4jnsgd1na2vs0mg"},{"bike_id":"a3fcb2ee-6ed7-4f39-86d3-4e29cf08480b","system_id":"levelo_inurba_marseille","lat":43.29188,"lon":5.35803,"is_reserved":false,"is_disabled":false,"rental_uris":{"android":"levelo://app?vid=a3fcb2ee-6ed7-4f39-86d3-4e29cf08480b","ios":"levelo://app?vid=a3fcb2ee-6ed7-4f39-86d3-4e29cf08480b"},"vehicle_type_id":"4","last_reported":1713373567,"current_range_meters":0,"station_id":"ce4bhb12rcd13ifvqel0","pricing_plan_id":"cebpf4jnsgd1na2vs0mg"},{"bike_id":"2079af81-15cc-4bca-ad71-2cc83f05caa5","system_id":"levelo_inurba_marseille","lat":43.313291,"lon":5.396838,"is_reserved":false,"is_disabled":false,"rental_uris":{"android":"levelo://app?vid=2079af81-15cc-4bca-ad71-2cc83f05caa5","ios":"levelo://app?vid=2079af81-15cc-4bca-ad71-2cc83f05caa5"},"vehicle_type_id":"4","last_reported":1713373567,"current_range_meters":20400,"station_id":"ce4bgvp2rcd13ifvqcu0","pricing_plan_id":"cebpf4jnsgd1na2vs0mg"},{"bike_id":"dcc77a47-9d03-4ff0-b43d-2e8fb4d4ee48","system_id":"levelo_inurba_marseille","lat":43.313291,"lon":5.396838,"is_reserved":false,"is_disabled":false,"rental_uris":{"android":"levelo://app?vid=dcc77a47-9d03-4ff0-b43d-2e8fb4d4ee48","ios":"levelo://app?vid=dcc77a47-9d03-4ff0-b43d-2e8fb4d4ee48"},"vehicle_type_id":"4","last_reported":1713373567,"current_range_meters":7600,"station_id":"ce4bgvp2rcd13ifvqcu0","pricing_plan_id":"cebpf4jnsgd1na2vs0mg"},{"bike_id":"796267d8-e46b-450b-a6e5-0ad6f5bed933","system_id":"levelo_inurba_marseille","lat":43.291733,"lon":5.357767,"is_reserved":false,"is_disabled":false,"rental_uris":{"android":"levelo://app?vid=796267d8-e46b-450b-a6e5-0ad6f5bed933","ios":"levelo://app?vid=796267d8-e46b-450b-a6e5-0ad6f5bed933"},"vehicle_type_id":"4","last_reported":1713373567,"current_range_meters":31200,"station_id":"ce4bhb12rcd13ifvqel0","pricing_plan_id":"cebpf4jnsgd1na2vs0mg"},{"bike_id":"3c71848f-3ecf-422e-889b-25aef284b039","system_id":"levelo_inurba_marseille","lat":43.295214,"lon":5.385531,"is_reserved":false,"is_disabled":false,"rental_uris":{"android":"levelo://app?vid=3c71848f-3ecf-422e-889b-25aef284b039","ios":"levelo://app?vid=3c71848f-3ecf-422e-889b-25aef284b039"},"vehicle_type_id":"4","last_reported":1713373567,"current_range_meters":27600,"station_id":"ce4bgih2rcd13ifvqba0","pricing_plan_id":"cebpf4jnsgd1na2vs0mg"},{"bike_id":"39c5a0c8-1897-42ab-b50e-2d013b396edb","system_id":"levelo_inurba_marseille","lat":43.290779,"lon":5.371482,"is_reserved":false,"is_disabled":false,"rental_uris":{"android":"levelo://app?vid=39c5a0c8-1897-42ab-b50e-2d013b396edb","ios":"levelo://app?vid=39c5a0c8-1897-42ab-b50e-2d013b396edb"},"vehicle_type_id":"4","last_reported":1713373567,"current_range_meters":400,"station_id":"ce4bh5p2rcd13ifvqe4g","pricing_plan_id":"cebpf4jnsgd1na2vs0mg"},{"bike_id":"09468807-432d-4231-b6b2-f8af3ca68a63","system_id":"levelo_inurba_marseille","lat":43.289184,"lon":5.366408,"is_reserved":false,"is_disabled":false,"rental_uris":{"android":"levelo://app?vid=09468807-432d-4231-b6b2-f8af3ca68a63","ios":"levelo://app?vid=09468807-432d-4231-b6b2-f8af3ca68a63"},"vehicle_type_id":"4","last_reported":1713373567,"current_range_meters":3600,"station_id":"ce4bhap2rcd13ifvqek0","pricing_plan_id":"cebpf4jnsgd1na2vs0mg"},{"bike_id":"2cc3ed7b-ab47-4458-b2a5-811b99df5dc6","system_id":"levelo_inurba_marseille","lat":43.302008,"lon":5.394694,"is_reserved":false,"is_disabled":false,"rental_uris":{"android":"levelo://app?vid=2cc3ed7b-ab47-4458-b2a5-811b99df5dc6","ios":"levelo://app?vid=2cc3ed7b-ab47-4458-b2a5-811b99df5dc6"},"vehicle_type_id":"4","last_reported":1713373567,"current_range_meters":2000,"station_id":"ce4bh0p2rcd13ifvqd70","pricing_plan_id":"cebpf4jnsgd1na2vs0mg"},{"bike_id":"0868a95e-413d-4ccd-a483-2f9ea569c943","system_id":"levelo_inurba_marseille","lat":43.302008,"lon":5.394694,"is_reserved":false,"is_disabled":false,"rental_uris":{"android":"levelo://app?vid=0868a95e-413d-4ccd-a483-2f9ea569c943","ios":"levelo://app?vid=0868a95e-413d-4ccd-a483-2f9ea569c943"},"vehicle_type_id":"4","last_reported":1713373567,"current_range_meters":1600,"station_id":"ce4bh0p2rcd13ifvqd70","pricing_plan_id":"cebpf4jnsgd1na2vs0mg"},{"bike_id":"24ce8541-302d-4590-b2e0-c614f7dd6225","system_id":"levelo_inurba_marseille","lat":43.302008,"lon":5.394694,"is_reserved":false,"is_disabled":false,"rental_uris":{"android":"levelo://app?vid=24ce8541-302d-4590-b2e0-c614f7dd6225","ios":"levelo://app?vid=24ce8541-302d-4590-b2e0-c614f7dd6225"},"vehicle_type_id":"4","last_reported":1713373567,"current_range_meters":0,"station_id":"ce4bh0p2rcd13ifvqd70","pricing_plan_id":"cebpf4jnsgd1na2vs0mg"},{"bike_id":"26808aaf-c24d-4421-a700-dc7f6ba296a1","system_id":"levelo_inurba_marseille","lat":43.302008,"lon":5.394694,"is_reserved":false,"is_disabled":false,"rental_uris":{"android":"levelo://app?vid=26808aaf-c24d-4421-a700-dc7f6ba296a1","ios":"levelo://app?vid=26808aaf-c24d-4421-a700-dc7f6ba296a1"},"vehicle_type_id":"4","last_reported":1713373567,"current_range_meters":8400,"station_id":"ce4bh0p2rcd13ifvqd70","pricing_plan_id":"cebpf4jnsgd1na2vs0mg"},{"bike_id":"a9d8b525-153c-4ad0-9663-a3707453d503","system_id":"levelo_inurba_marseille","lat":43.302008,"lon":5.394694,"is_reserved":false,"is_disabled":false,"rental_uris":{"android":"levelo://app?vid=a9d8b525-153c-4ad0-9663-a3707453d503","ios":"levelo://app?vid=a9d8b525-153c-4ad0-9663-a3707453d503"},"vehicle_type_id":"4","last_reported":1713373567,"current_range_meters":22800,"station_id":"ce4bh0p2rcd13ifvqd70","pricing_plan_id":"cebpf4jnsgd1na2vs0mg"},{"bike_id":"2574022c-4ff3-4ca5-ac97-7efa624f185d","system_id":"levelo_inurba_marseille","lat":43.302008,"lon":5.394694,"is_reserved":false,"is_disabled":false,"rental_uris":{"android":"levelo://app?vid=2574022c-4ff3-4ca5-ac97-7efa624f185d","ios":"levelo://app?vid=2574022c-4ff3-4ca5-ac97-7efa624f185d"},"vehicle_type_id":"4","last_reported":1713373567,"current_range_meters":22000,"station_id":"ce4bh0p2rcd13ifvqd70","pricing_plan_id":"cebpf4jnsgd1na2vs0mg"},{"bike_id":"3fc87398-fac6-4740-9234-dcbdacb232b9","system_id":"levelo_inurba_marseille","lat":43.302008,"lon":5.394694,"is_reserved":false,"is_disabled":false,"rental_uris":{"android":"levelo://app?vid=3fc87398-fac6-4740-9234-dcbdacb232b9","ios":"levelo://app?vid=3fc87398-fac6-4740-9234-dcbdacb232b9"},"vehicle_type_id":"4","last_reported":1713373567,"current_range_meters":11600,"station_id":"ce4bh0p2rcd13ifvqd70","pricing_plan_id":"cebpf4jnsgd1na2vs0mg"},{"bike_id":"99a49275-34a2-41bd-885f-1e44150a774c","system_id":"levelo_inurba_marseille","lat":43.302008,"lon":5.394694,"is_reserved":false,"is_disabled":false,"rental_uris":{"android":"levelo://app?vid=99a49275-34a2-41bd-885f-1e44150a774c","ios":"levelo://app?vid=99a49275-34a2-41bd-885f-1e44150a774c"},"vehicle_type_id":"4","last_reported":1713373567,"current_range_meters":4800,"station_id":"ce4bh0p2rcd13ifvqd70","pricing_plan_id":"cebpf4jnsgd1na2vs0mg"},{"bike_id":"2be400bc-7338-426b-b926-1ab08478b545","system_id":"levelo_inurba_marseille","lat":43.302008,"lon":5.394694,"is_reserved":false,"is_disabled":false,"rental_uris":{"android":"levelo://app?vid=2be400bc-7338-426b-b926-1ab08478b545","ios":"levelo://app?vid=2be400bc-7338-426b-b926-1ab08478b545"},"vehicle_type_id":"4","last_reported":1713373567,"current_range_meters":14000,"station_id":"ce4bh0p2rcd13ifvqd70","pricing_plan_id":"cebpf4jnsgd1na2vs0mg"},{"bike_id":"42e5811d-115f-4581-8275-cadef198e661","system_id":"levelo_inurba_marseille","lat":43.302008,"lon":5.394694,"is_reserved":false,"is_disabled":false,"rental_uris":{"android":"levelo://app?vid=42e5811d-115f-4581-8275-cadef198e661","ios":"levelo://app?vid=42e5811d-115f-4581-8275-cadef198e661"},"vehicle_type_id":"4","last_reported":1713373567,"current_range_meters":11200,"station_id":"ce4bh0p2rcd13ifvqd70","pricing_plan_id":"cebpf4jnsgd1na2vs0mg"},{"bike_id":"e2311b9a-d639-404f-b0a9-8b8cc5cfea15","system_id":"levelo_inurba_marseille","lat":43.290624,"lon":5.359245,"is_reserved":false,"is_disabled":false,"rental_uris":{"android":"levelo://app?vid=e2311b9a-d639-404f-b0a9-8b8cc5cfea15","ios":"levelo://app?vid=e2311b9a-d639-404f-b0a9-8b8cc5cfea15"},"vehicle_type_id":"4","last_reported":1713373567,"current_range_meters":22400,"station_id":"ce4bha92rcd13ifvqeg0","pricing_plan_id":"cebpf4jnsgd1na2vs0mg"},{"bike_id":"2afcf7bf-a146-4549-aceb-716998525c6f","system_id":"levelo_inurba_marseille","lat":43.290631,"lon":5.359244,"is_reserved":false,"is_disabled":false,"rental_uris":{"android":"levelo://app?vid=2afcf7bf-a146-4549-aceb-716998525c6f","ios":"levelo://app?vid=2afcf7bf-a146-4549-aceb-716998525c6f"},"vehicle_type_id":"4","last_reported":1713373567,"current_range_meters":11200,"station_id":"ce4bha92rcd13ifvqeg0","pricing_plan_id":"cebpf4jnsgd1na2vs0mg"},{"bike_id":"d4c31041-a05a-4f6b-ad35-7a1b4ff0ffb6","system_id":"levelo_inurba_marseille","lat":43.290631,"lon":5.359244,"is_reserved":false,"is_disabled":false,"rental_uris":{"android":"levelo://app?vid=d4c31041-a05a-4f6b-ad35-7a1b4ff0ffb6","ios":"levelo://app?vid=d4c31041-a05a-4f6b-ad35-7a1b4ff0ffb6"},"vehicle_type_id":"4","last_reported":1713373567,"current_range_meters":25600,"station_id":"ce4bha92rcd13ifvqeg0","pricing_plan_id":"cebpf4jnsgd1na2vs0mg"},{"bike_id":"c8249bab-573f-43d4-b59b-bea8595d3617","system_id":"levelo_inurba_marseille","lat":43.29424,"lon":5.38618,"is_reserved":false,"is_disabled":false,"rental_uris":{"android":"levelo://app?vid=c8249bab-573f-43d4-b59b-bea8595d3617","ios":"levelo://app?vid=c8249bab-573f-43d4-b59b-bea8595d3617"},"vehicle_type_id":"4","last_reported":1713373567,"current_range_meters":12400,"station_id":"ce4bh2h2rcd13ifvqdh0","pricing_plan_id":"cebpf4jnsgd1na2vs0mg"},{"bike_id":"2ece9f45-ccc1-4c1b-b649-5cf5130b7bdf","system_id":"levelo_inurba_marseille","lat":43.2942,"lon":5.38617,"is_reserved":false,"is_disabled":false,"rental_uris":{"android":"levelo://app?vid=2ece9f45-ccc1-4c1b-b649-5cf5130b7bdf","ios":"levelo://app?vid=2ece9f45-ccc1-4c1b-b649-5cf5130b7bdf"},"vehicle_type_id":"4","last_reported":1713373567,"current_range_meters":0,"station_id":"ce4bh2h2rcd13ifvqdh0","pricing_plan_id":"cebpf4jnsgd1na2vs0mg"},{"bike_id":"08ce5796-ddee-40ae-924b-f7c94b11e500","system_id":"levelo_inurba_marseille","lat":43.292644,"lon":5.384257,"is_reserved":false,"is_disabled":false,"rental_uris":{"android":"levelo://app?vid=08ce5796-ddee-40ae-924b-f7c94b11e500","ios":"levelo://app?vid=08ce5796-ddee-40ae-924b-f7c94b11e500"},"vehicle_type_id":"4","last_reported":1713373567,"current_range_meters":17200,"station_id":"ce4bh692rcd13ifvqea0","pricing_plan_id":"cebpf4jnsgd1na2vs0mg"},{"bike_id":"a10910f9-ae89-4027-88c7-ea048873f7d4","system_id":"levelo_inurba_marseille","lat":43.294162,"lon":5.386292,"is_reserved":false,"is_disabled":false,"rental_uris":{"android":"levelo://app?vid=a10910f9-ae89-4027-88c7-ea048873f7d4","ios":"levelo://app?vid=a10910f9-ae89-4027-88c7-ea048873f7d4"},"vehicle_type_id":"4","last_reported":1713373567,"current_range_meters":0,"station_id":"ce4bh2h2rcd13ifvqdh0","pricing_plan_id":"cebpf4jnsgd1na2vs0mg"},{"bike_id":"a1bb668c-f63a-4e35-8b9f-167cde6f3070","system_id":"levelo_inurba_marseille","lat":43.294162,"lon":5.386292,"is_reserved":false,"is_disabled":false,"rental_uris":{"android":"levelo://app?vid=a1bb668c-f63a-4e35-8b9f-167cde6f3070","ios":"levelo://app?vid=a1bb668c-f63a-4e35-8b9f-167cde6f3070"},"vehicle_type_id":"4","last_reported":1713373567,"current_range_meters":18800,"station_id":"ce4bh2h2rcd13ifvqdh0","pricing_plan_id":"cebpf4jnsgd1na2vs0mg"},{"bike_id":"dfbedb6b-094a-4c66-ad04-75a0bc975da4","system_id":"levelo_inurba_marseille","lat":43.29416,"lon":5.38619,"is_reserved":false,"is_disabled":false,"rental_uris":{"android":"levelo://app?vid=dfbedb6b-094a-4c66-ad04-75a0bc975da4","ios":"levelo://app?vid=dfbedb6b-094a-4c66-ad04-75a0bc975da4"},"vehicle_type_id":"4","last_reported":1713373567,"current_range_meters":4400,"station_id":"ce4bh2h2rcd13ifvqdh0","pricing_plan_id":"cebpf4jnsgd1na2vs0mg"},{"bike_id":"3b839e43-4100-45cf-87fa-ff67274bc1fe","system_id":"levelo_inurba_marseille","lat":43.294162,"lon":5.386292,"is_reserved":false,"is_disabled":false,"rental_uris":{"android":"levelo://app?vid=3b839e43-4100-45cf-87fa-ff67274bc1fe","ios":"levelo://app?vid=3b839e43-4100-45cf-87fa-ff67274bc1fe"},"vehicle_type_id":"4","last_reported":1713373567,"current_range_meters":31200,"station_id":"ce4bh2h2rcd13ifvqdh0","pricing_plan_id":"cebpf4jnsgd1na2vs0mg"},{"bike_id":"9c9d13fd-7bcf-4cc7-b6cb-36c76be8598c","system_id":"levelo_inurba_marseille","lat":43.290319,"lon":5.375732,"is_reserved":false,"is_disabled":false,"rental_uris":{"android":"levelo://app?vid=9c9d13fd-7bcf-4cc7-b6cb-36c76be8598c","ios":"levelo://app?vid=9c9d13fd-7bcf-4cc7-b6cb-36c76be8598c"},"vehicle_type_id":"4","last_reported":1713373567,"current_range_meters":13200,"station_id":"ce4bh692rcd13ifvqe90","pricing_plan_id":"cebpf4jnsgd1na2vs0mg"},{"bike_id":"6353ca50-41c9-4eb4-9589-bc19f699cc8e","system_id":"levelo_inurba_marseille","lat":43.294162,"lon":5.386292,"is_reserved":false,"is_disabled":false,"rental_uris":{"android":"levelo://app?vid=6353ca50-41c9-4eb4-9589-bc19f699cc8e","ios":"levelo://app?vid=6353ca50-41c9-4eb4-9589-bc19f699cc8e"},"vehicle_type_id":"4","last_reported":1713373567,"current_range_meters":18000,"station_id":"ce4bh2h2rcd13ifvqdh0","pricing_plan_id":"cebpf4jnsgd1na2vs0mg"},{"bike_id":"11b74460-24d7-429f-b477-053c319ea434","system_id":"levelo_inurba_marseille","lat":43.290624,"lon":5.359245,"is_reserved":false,"is_disabled":false,"rental_uris":{"android":"levelo://app?vid=11b74460-24d7-429f-b477-053c319ea434","ios":"levelo://app?vid=11b74460-24d7-429f-b477-053c319ea434"},"vehicle_type_id":"4","last_reported":1713373567,"current_range_meters":3600,"station_id":"ce4bha92rcd13ifvqeg0","pricing_plan_id":"cebpf4jnsgd1na2vs0mg"},{"bike_id":"9bed4170-e232-40cc-998b-d36bc4690307","system_id":"levelo_inurba_marseille","lat":43.289468,"lon":5.363719,"is_reserved":false,"is_disabled":false,"rental_uris":{"android":"levelo://app?vid=9bed4170-e232-40cc-998b-d36bc4690307","ios":"levelo://app?vid=9bed4170-e232-40cc-998b-d36bc4690307"},"vehicle_type_id":"4","last_reported":1713373567,"current_range_meters":6400,"station_id":"ce4bhc92rcd13ifvqetg","pricing_plan_id":"cebpf4jnsgd1na2vs0mg"},{"bike_id":"7792442c-516a-461a-a23a-ff4a7160a8de","system_id":"levelo_inurba_marseille","lat":43.289184,"lon":5.366408,"is_reserved":false,"is_disabled":false,"rental_uris":{"android":"levelo://app?vid=7792442c-516a-461a-a23a-ff4a7160a8de","ios":"levelo://app?vid=7792442c-516a-461a-a23a-ff4a7160a8de"},"vehicle_type_id":"4","last_reported":1713373567,"current_range_meters":10000,"station_id":"ce4bhap2rcd13ifvqek0","pricing_plan_id":"cebpf4jnsgd1na2vs0mg"},{"bike_id":"2b97d499-3f64-4fd6-acea-9633b82cc13b","system_id":"levelo_inurba_marseille","lat":43.289184,"lon":5.366408,"is_reserved":false,"is_disabled":false,"rental_uris":{"android":"levelo://app?vid=2b97d499-3f64-4fd6-acea-9633b82cc13b","ios":"levelo://app?vid=2b97d499-3f64-4fd6-acea-9633b82cc13b"},"vehicle_type_id":"4","last_reported":1713373567,"current_range_meters":6400,"station_id":"ce4bhap2rcd13ifvqek0","pricing_plan_id":"cebpf4jnsgd1na2vs0mg"},{"bike_id":"61d2c316-46f9-456e-ae9c-30558bd19dbc","system_id":"levelo_inurba_marseille","lat":43.289468,"lon":5.363719,"is_reserved":false,"is_disabled":false,"rental_uris":{"android":"levelo://app?vid=61d2c316-46f9-456e-ae9c-30558bd19dbc","ios":"levelo://app?vid=61d2c316-46f9-456e-ae9c-30558bd19dbc"},"vehicle_type_id":"4","last_reported":1713373567,"current_range_meters":14800,"station_id":"ce4bhc92rcd13ifvqetg","pricing_plan_id":"cebpf4jnsgd1na2vs0mg"},{"bike_id":"09ac2558-3618-433a-a899-1e8eada84244","system_id":"levelo_inurba_marseille","lat":43.289184,"lon":5.366408,"is_reserved":false,"is_disabled":false,"rental_uris":{"android":"levelo://app?vid=09ac2558-3618-433a-a899-1e8eada84244","ios":"levelo://app?vid=09ac2558-3618-433a-a899-1e8eada84244"},"vehicle_type_id":"4","last_reported":1713373567,"current_range_meters":3600,"station_id":"ce4bhap2rcd13ifvqek0","pricing_plan_id":"cebpf4jnsgd1na2vs0mg"},{"bike_id":"04372019-82d9-4db2-a0e8-cbf0e19a4cdb","system_id":"levelo_inurba_marseille","lat":43.2893,"lon":5.36392,"is_reserved":false,"is_disabled":false,"rental_uris":{"android":"levelo://app?vid=04372019-82d9-4db2-a0e8-cbf0e19a4cdb","ios":"levelo://app?vid=04372019-82d9-4db2-a0e8-cbf0e19a4cdb"},"vehicle_type_id":"4","last_reported":1713373567,"current_range_meters":800,"station_id":"ce4bhc92rcd13ifvqetg","pricing_plan_id":"cebpf4jnsgd1na2vs0mg"},{"bike_id":"74412eeb-9fb7-42de-beb5-1be809fb9101","system_id":"levelo_inurba_marseille","lat":43.292628,"lon":5.383926,"is_reserved":false,"is_disabled":false,"rental_uris":{"android":"levelo://app?vid=74412eeb-9fb7-42de-beb5-1be809fb9101","ios":"levelo://app?vid=74412eeb-9fb7-42de-beb5-1be809fb9101"},"vehicle_type_id":"4","last_reported":1713373567,"current_range_meters":14000,"station_id":"ce4bh692rcd13ifvqea0","pricing_plan_id":"cebpf4jnsgd1na2vs0mg"},{"bike_id":"78920c56-670b-460b-978a-6f81bf471c88","system_id":"levelo_inurba_marseille","lat":43.292644,"lon":5.384257,"is_reserved":false,"is_disabled":false,"rental_uris":{"android":"levelo://app?vid=78920c56-670b-460b-978a-6f81bf471c88","ios":"levelo://app?vid=78920c56-670b-460b-978a-6f81bf471c88"},"vehicle_type_id":"4","last_reported":1713373567,"current_range_meters":26000,"station_id":"ce4bh692rcd13ifvqea0","pricing_plan_id":"cebpf4jnsgd1na2vs0mg"},{"bike_id":"21685829-3307-4254-a5f9-6618321ab499","system_id":"levelo_inurba_marseille","lat":43.292644,"lon":5.384257,"is_reserved":false,"is_disabled":false,"rental_uris":{"android":"levelo://app?vid=21685829-3307-4254-a5f9-6618321ab499","ios":"levelo://app?vid=21685829-3307-4254-a5f9-6618321ab499"},"vehicle_type_id":"4","last_reported":1713373567,"current_range_meters":8000,"station_id":"ce4bh692rcd13ifvqea0","pricing_plan_id":"cebpf4jnsgd1na2vs0mg"},{"bike_id":"4e6e8098-70b1-4b72-9fa9-25bac4d80a0b","system_id":"levelo_inurba_marseille","lat":43.292644,"lon":5.384257,"is_reserved":false,"is_disabled":false,"rental_uris":{"android":"levelo://app?vid=4e6e8098-70b1-4b72-9fa9-25bac4d80a0b","ios":"levelo://app?vid=4e6e8098-70b1-4b72-9fa9-25bac4d80a0b"},"vehicle_type_id":"4","last_reported":1713373567,"current_range_meters":14000,"station_id":"ce4bh692rcd13ifvqea0","pricing_plan_id":"cebpf4jnsgd1na2vs0mg"},{"bike_id":"ed6e3db4-a870-4d1e-9f79-0ca241f6d304","system_id":"levelo_inurba_marseille","lat":43.292644,"lon":5.384257,"is_reserved":false,"is_disabled":false,"rental_uris":{"android":"levelo://app?vid=ed6e3db4-a870-4d1e-9f79-0ca241f6d304","ios":"levelo://app?vid=ed6e3db4-a870-4d1e-9f79-0ca241f6d304"},"vehicle_type_id":"4","last_reported":1713373567,"current_range_meters":3600,"station_id":"ce4bh692rcd13ifvqea0","pricing_plan_id":"cebpf4jnsgd1na2vs0mg"},{"bike_id":"39dbce54-fe83-401b-97ac-747b00fc4eb0","system_id":"levelo_inurba_marseille","lat":43.292644,"lon":5.384257,"is_reserved":false,"is_disabled":false,"rental_uris":{"android":"levelo://app?vid=39dbce54-fe83-401b-97ac-747b00fc4eb0","ios":"levelo://app?vid=39dbce54-fe83-401b-97ac-747b00fc4eb0"},"vehicle_type_id":"4","last_reported":1713373567,"current_range_meters":11200,"station_id":"ce4bh692rcd13ifvqea0","pricing_plan_id":"cebpf4jnsgd1na2vs0mg"},{"bike_id":"f72e946a-0041-410f-8bbc-f278f7bd40fb","system_id":"levelo_inurba_marseille","lat":43.292644,"lon":5.384257,"is_reserved":false,"is_disabled":false,"rental_uris":{"android":"levelo://app?vid=f72e946a-0041-410f-8bbc-f278f7bd40fb","ios":"levelo://app?vid=f72e946a-0041-410f-8bbc-f278f7bd40fb"},"vehicle_type_id":"4","last_reported":1713373567,"current_range_meters":3600,"station_id":"ce4bh692rcd13ifvqea0","pricing_plan_id":"cebpf4jnsgd1na2vs0mg"},{"bike_id":"7d1f21b1-b672-4547-a7b3-3e1a8d7e4419","system_id":"levelo_inurba_marseille","lat":43.292644,"lon":5.384257,"is_reserved":false,"is_disabled":false,"rental_uris":{"android":"levelo://app?vid=7d1f21b1-b672-4547-a7b3-3e1a8d7e4419","ios":"levelo://app?vid=7d1f21b1-b672-4547-a7b3-3e1a8d7e4419"},"vehicle_type_id":"4","last_reported":1713373567,"current_range_meters":4400,"station_id":"ce4bh692rcd13ifvqea0","pricing_plan_id":"cebpf4jnsgd1na2vs0mg"},{"bike_id":"0d47320c-ec60-4af0-81c1-a3beef1ed7c2","system_id":"levelo_inurba_marseille","lat":43.292644,"lon":5.384257,"is_reserved":false,"is_disabled":false,"rental_uris":{"android":"levelo://app?vid=0d47320c-ec60-4af0-81c1-a3beef1ed7c2","ios":"levelo://app?vid=0d47320c-ec60-4af0-81c1-a3beef1ed7c2"},"vehicle_type_id":"4","last_reported":1713373567,"current_range_meters":23200,"station_id":"ce4bh692rcd13ifvqea0","pricing_plan_id":"cebpf4jnsgd1na2vs0mg"},{"bike_id":"b5bfa097-bf66-4149-b828-167c8b444ce5","system_id":"levelo_inurba_marseille","lat":43.292644,"lon":5.384257,"is_reserved":false,"is_disabled":false,"rental_uris":{"android":"levelo://app?vid=b5bfa097-bf66-4149-b828-167c8b444ce5","ios":"levelo://app?vid=b5bfa097-bf66-4149-b828-167c8b444ce5"},"vehicle_type_id":"4","last_reported":1713373567,"current_range_meters":19200,"station_id":"ce4bh692rcd13ifvqea0","pricing_plan_id":"cebpf4jnsgd1na2vs0mg"},{"bike_id":"740277fe-b822-4118-9a41-eb2ab8423d98","system_id":"levelo_inurba_marseille","lat":43.292644,"lon":5.384257,"is_reserved":false,"is_disabled":false,"rental_uris":{"android":"levelo://app?vid=740277fe-b822-4118-9a41-eb2ab8423d98","ios":"levelo://app?vid=740277fe-b822-4118-9a41-eb2ab8423d98"},"vehicle_type_id":"4","last_reported":1713373567,"current_range_meters":23200,"station_id":"ce4bh692rcd13ifvqea0","pricing_plan_id":"cebpf4jnsgd1na2vs0mg"},{"bike_id":"23ff640a-c236-483a-af13-a73d2e7ebb41","system_id":"levelo_inurba_marseille","lat":43.292661,"lon":5.384451,"is_reserved":false,"is_disabled":false,"rental_uris":{"android":"levelo://app?vid=23ff640a-c236-483a-af13-a73d2e7ebb41","ios":"levelo://app?vid=23ff640a-c236-483a-af13-a73d2e7ebb41"},"vehicle_type_id":"4","last_reported":1713373567,"current_range_meters":800,"station_id":"ce4bh692rcd13ifvqea0","pricing_plan_id":"cebpf4jnsgd1na2vs0mg"},{"bike_id":"cd79a716-f2f2-4163-9774-92902ce48ebc","system_id":"levelo_inurba_marseille","lat":43.292644,"lon":5.384257,"is_reserved":false,"is_disabled":false,"rental_uris":{"android":"levelo://app?vid=cd79a716-f2f2-4163-9774-92902ce48ebc","ios":"levelo://app?vid=cd79a716-f2f2-4163-9774-92902ce48ebc"},"vehicle_type_id":"4","last_reported":1713373567,"current_range_meters":21600,"station_id":"ce4bh692rcd13ifvqea0","pricing_plan_id":"cebpf4jnsgd1na2vs0mg"},{"bike_id":"14c8afa3-82e5-4f9f-94d6-61c4235e7779","system_id":"levelo_inurba_marseille","lat":43.292644,"lon":5.384257,"is_reserved":false,"is_disabled":false,"rental_uris":{"android":"levelo://app?vid=14c8afa3-82e5-4f9f-94d6-61c4235e7779","ios":"levelo://app?vid=14c8afa3-82e5-4f9f-94d6-61c4235e7779"},"vehicle_type_id":"4","last_reported":1713373567,"current_range_meters":18800,"station_id":"ce4bh692rcd13ifvqea0","pricing_plan_id":"cebpf4jnsgd1na2vs0mg"},{"bike_id":"e1a18b28-f2ce-49e3-988b-0da4d34b66b6","system_id":"levelo_inurba_marseille","lat":43.292644,"lon":5.384257,"is_reserved":false,"is_disabled":false,"rental_uris":{"android":"levelo://app?vid=e1a18b28-f2ce-49e3-988b-0da4d34b66b6","ios":"levelo://app?vid=e1a18b28-f2ce-49e3-988b-0da4d34b66b6"},"vehicle_type_id":"4","last_reported":1713373567,"current_range_meters":24800,"station_id":"ce4bh692rcd13ifvqea0","pricing_plan_id":"cebpf4jnsgd1na2vs0mg"},{"bike_id":"d4318754-5642-4282-9aef-38ef159615a7","system_id":"levelo_inurba_marseille","lat":43.292644,"lon":5.384257,"is_reserved":false,"is_disabled":false,"rental_uris":{"android":"levelo://app?vid=d4318754-5642-4282-9aef-38ef159615a7","ios":"levelo://app?vid=d4318754-5642-4282-9aef-38ef159615a7"},"vehicle_type_id":"4","last_reported":1713373567,"current_range_meters":0,"station_id":"ce4bh692rcd13ifvqea0","pricing_plan_id":"cebpf4jnsgd1na2vs0mg"},{"bike_id":"94ba9f28-afc3-49aa-890f-00cc8a9e4217","system_id":"levelo_inurba_marseille","lat":43.292644,"lon":5.384257,"is_reserved":false,"is_disabled":false,"rental_uris":{"android":"levelo://app?vid=94ba9f28-afc3-49aa-890f-00cc8a9e4217","ios":"levelo://app?vid=94ba9f28-afc3-49aa-890f-00cc8a9e4217"},"vehicle_type_id":"4","last_reported":1713373567,"current_range_meters":25200,"station_id":"ce4bh692rcd13ifvqea0","pricing_plan_id":"cebpf4jnsgd1na2vs0mg"},{"bike_id":"5212267f-49b7-41cc-84c1-bac005d02823","system_id":"levelo_inurba_marseille","lat":43.2926,"lon":5.38445,"is_reserved":false,"is_disabled":false,"rental_uris":{"android":"levelo://app?vid=5212267f-49b7-41cc-84c1-bac005d02823","ios":"levelo://app?vid=5212267f-49b7-41cc-84c1-bac005d02823"},"vehicle_type_id":"4","last_reported":1713373567,"current_range_meters":0,"station_id":"ce4bh692rcd13ifvqea0","pricing_plan_id":"cebpf4jnsgd1na2vs0mg"},{"bike_id":"89b870db-4216-4931-807b-5e1256be28bc","system_id":"levelo_inurba_marseille","lat":43.292644,"lon":5.384257,"is_reserved":false,"is_disabled":false,"rental_uris":{"android":"levelo://app?vid=89b870db-4216-4931-807b-5e1256be28bc","ios":"levelo://app?vid=89b870db-4216-4931-807b-5e1256be28bc"},"vehicle_type_id":"4","last_reported":1713373567,"current_range_meters":24000,"station_id":"ce4bh692rcd13ifvqea0","pricing_plan_id":"cebpf4jnsgd1na2vs0mg"},{"bike_id":"b1889e95-9ff7-4e16-9c16-789c4f462296","system_id":"levelo_inurba_marseille","lat":43.292644,"lon":5.384257,"is_reserved":false,"is_disabled":false,"rental_uris":{"android":"levelo://app?vid=b1889e95-9ff7-4e16-9c16-789c4f462296","ios":"levelo://app?vid=b1889e95-9ff7-4e16-9c16-789c4f462296"},"vehicle_type_id":"4","last_reported":1713373567,"current_range_meters":22800,"station_id":"ce4bh692rcd13ifvqea0","pricing_plan_id":"cebpf4jnsgd1na2vs0mg"},{"bike_id":"8672a033-b6f9-4867-8887-7e65ce7c0259","system_id":"levelo_inurba_marseille","lat":43.290103,"lon":5.356114,"is_reserved":false,"is_disabled":false,"rental_uris":{"android":"levelo://app?vid=8672a033-b6f9-4867-8887-7e65ce7c0259","ios":"levelo://app?vid=8672a033-b6f9-4867-8887-7e65ce7c0259"},"vehicle_type_id":"4","last_reported":1713373567,"current_range_meters":20800,"station_id":"ce4bhb92rcd13ifvqen0","pricing_plan_id":"cebpf4jnsgd1na2vs0mg"},{"bike_id":"e15e559d-dcc5-458d-9726-91e1ee1bcdc9","system_id":"levelo_inurba_marseille","lat":43.290103,"lon":5.356114,"is_reserved":false,"is_disabled":false,"rental_uris":{"android":"levelo://app?vid=e15e559d-dcc5-458d-9726-91e1ee1bcdc9","ios":"levelo://app?vid=e15e559d-dcc5-458d-9726-91e1ee1bcdc9"},"vehicle_type_id":"4","last_reported":1713373567,"current_range_meters":9200,"station_id":"ce4bhb92rcd13ifvqen0","pricing_plan_id":"cebpf4jnsgd1na2vs0mg"},{"bike_id":"a973f5c3-5271-46ea-bc30-dfe6e85ef15f","system_id":"levelo_inurba_marseille","lat":43.290104,"lon":5.356111,"is_reserved":false,"is_disabled":false,"rental_uris":{"android":"levelo://app?vid=a973f5c3-5271-46ea-bc30-dfe6e85ef15f","ios":"levelo://app?vid=a973f5c3-5271-46ea-bc30-dfe6e85ef15f"},"vehicle_type_id":"4","last_reported":1713373567,"current_range_meters":10800,"station_id":"ce4bhb92rcd13ifvqen0","pricing_plan_id":"cebpf4jnsgd1na2vs0mg"},{"bike_id":"5beb70c0-e15f-4147-b5b2-5d72d7f4fe38","system_id":"levelo_inurba_marseille","lat":43.290104,"lon":5.356111,"is_reserved":false,"is_disabled":false,"rental_uris":{"android":"levelo://app?vid=5beb70c0-e15f-4147-b5b2-5d72d7f4fe38","ios":"levelo://app?vid=5beb70c0-e15f-4147-b5b2-5d72d7f4fe38"},"vehicle_type_id":"4","last_reported":1713373567,"current_range_meters":30800,"station_id":"ce4bhb92rcd13ifvqen0","pricing_plan_id":"cebpf4jnsgd1na2vs0mg"},{"bike_id":"d49c98d7-b6a0-4146-aefc-1d21f94cd07f","system_id":"levelo_inurba_marseille","lat":43.29006,"lon":5.35609,"is_reserved":false,"is_disabled":false,"rental_uris":{"android":"levelo://app?vid=d49c98d7-b6a0-4146-aefc-1d21f94cd07f","ios":"levelo://app?vid=d49c98d7-b6a0-4146-aefc-1d21f94cd07f"},"vehicle_type_id":"4","last_reported":1713373567,"current_range_meters":8000,"station_id":"ce4bhb92rcd13ifvqen0","pricing_plan_id":"cebpf4jnsgd1na2vs0mg"},{"bike_id":"e0d84076-f8d0-4447-bf19-47aa7d76a5d7","system_id":"levelo_inurba_marseille","lat":43.290104,"lon":5.356111,"is_reserved":false,"is_disabled":false,"rental_uris":{"android":"levelo://app?vid=e0d84076-f8d0-4447-bf19-47aa7d76a5d7","ios":"levelo://app?vid=e0d84076-f8d0-4447-bf19-47aa7d76a5d7"},"vehicle_type_id":"4","last_reported":1713373567,"current_range_meters":16000,"station_id":"ce4bhb92rcd13ifvqen0","pricing_plan_id":"cebpf4jnsgd1na2vs0mg"},{"bike_id":"1701bdce-c035-417f-984e-54c424694e78","system_id":"levelo_inurba_marseille","lat":43.290103,"lon":5.356114,"is_reserved":false,"is_disabled":false,"rental_uris":{"android":"levelo://app?vid=1701bdce-c035-417f-984e-54c424694e78","ios":"levelo://app?vid=1701bdce-c035-417f-984e-54c424694e78"},"vehicle_type_id":"4","last_reported":1713373567,"current_range_meters":31200,"station_id":"ce4bhb92rcd13ifvqen0","pricing_plan_id":"cebpf4jnsgd1na2vs0mg"},{"bike_id":"9f793c51-9b45-419e-b36e-151f710ec48f","system_id":"levelo_inurba_marseille","lat":43.290104,"lon":5.356111,"is_reserved":false,"is_disabled":false,"rental_uris":{"android":"levelo://app?vid=9f793c51-9b45-419e-b36e-151f710ec48f","ios":"levelo://app?vid=9f793c51-9b45-419e-b36e-151f710ec48f"},"vehicle_type_id":"4","last_reported":1713373567,"current_range_meters":31200,"station_id":"ce4bhb92rcd13ifvqen0","pricing_plan_id":"cebpf4jnsgd1na2vs0mg"},{"bike_id":"b23f1c7d-c19a-4d46-a991-c8fca546a95a","system_id":"levelo_inurba_marseille","lat":43.290104,"lon":5.356111,"is_reserved":false,"is_disabled":false,"rental_uris":{"android":"levelo://app?vid=b23f1c7d-c19a-4d46-a991-c8fca546a95a","ios":"levelo://app?vid=b23f1c7d-c19a-4d46-a991-c8fca546a95a"},"vehicle_type_id":"4","last_reported":1713373567,"current_range_meters":30400,"station_id":"ce4bhb92rcd13ifvqen0","pricing_plan_id":"cebpf4jnsgd1na2vs0mg"},{"bike_id":"ce7b5657-9f1f-4af1-af43-a3c62d29941d","system_id":"levelo_inurba_marseille","lat":43.290995,"lon":5.381361,"is_reserved":false,"is_disabled":false,"rental_uris":{"android":"levelo://app?vid=ce7b5657-9f1f-4af1-af43-a3c62d29941d","ios":"levelo://app?vid=ce7b5657-9f1f-4af1-af43-a3c62d29941d"},"vehicle_type_id":"4","last_reported":1713373567,"current_range_meters":2800,"station_id":"ce4bh512rcd13ifvqe2g","pricing_plan_id":"cebpf4jnsgd1na2vs0mg"},{"bike_id":"c317d5e0-7ac1-4ea2-a391-4a0c2c296719","system_id":"levelo_inurba_marseille","lat":43.302008,"lon":5.394694,"is_reserved":false,"is_disabled":false,"rental_uris":{"android":"levelo://app?vid=c317d5e0-7ac1-4ea2-a391-4a0c2c296719","ios":"levelo://app?vid=c317d5e0-7ac1-4ea2-a391-4a0c2c296719"},"vehicle_type_id":"4","last_reported":1713373567,"current_range_meters":9600,"station_id":"ce4bh0p2rcd13ifvqd70","pricing_plan_id":"cebpf4jnsgd1na2vs0mg"},{"bike_id":"47212c7b-1e9c-4fd8-b90e-d49b58cc1aec","system_id":"levelo_inurba_marseille","lat":43.29792,"lon":5.39335,"is_reserved":false,"is_disabled":false,"rental_uris":{"android":"levelo://app?vid=47212c7b-1e9c-4fd8-b90e-d49b58cc1aec","ios":"levelo://app?vid=47212c7b-1e9c-4fd8-b90e-d49b58cc1aec"},"vehicle_type_id":"4","last_reported":1713373567,"current_range_meters":0,"station_id":"chh1huq6cuj3fo74tm60","pricing_plan_id":"cebpf4jnsgd1na2vs0mg"},{"bike_id":"144cece6-efcd-4bc1-9e39-2f6dd1d81ef5","system_id":"levelo_inurba_marseille","lat":43.295169,"lon":5.390426,"is_reserved":false,"is_disabled":false,"rental_uris":{"android":"levelo://app?vid=144cece6-efcd-4bc1-9e39-2f6dd1d81ef5","ios":"levelo://app?vid=144cece6-efcd-4bc1-9e39-2f6dd1d81ef5"},"vehicle_type_id":"4","last_reported":1713373567,"current_range_meters":27200,"station_id":"ce4bh3p2rcd13ifvqdp0","pricing_plan_id":"cebpf4jnsgd1na2vs0mg"},{"bike_id":"bcd0970f-9521-4ca3-a0fb-18cf51f4c8ae","system_id":"levelo_inurba_marseille","lat":43.295169,"lon":5.390426,"is_reserved":false,"is_disabled":false,"rental_uris":{"android":"levelo://app?vid=bcd0970f-9521-4ca3-a0fb-18cf51f4c8ae","ios":"levelo://app?vid=bcd0970f-9521-4ca3-a0fb-18cf51f4c8ae"},"vehicle_type_id":"4","last_reported":1713373567,"current_range_meters":30000,"station_id":"ce4bh3p2rcd13ifvqdp0","pricing_plan_id":"cebpf4jnsgd1na2vs0mg"},{"bike_id":"da24bee5-1fb3-43e5-984e-15260fdc0cc8","system_id":"levelo_inurba_marseille","lat":43.295169,"lon":5.390426,"is_reserved":false,"is_disabled":false,"rental_uris":{"android":"levelo://app?vid=da24bee5-1fb3-43e5-984e-15260fdc0cc8","ios":"levelo://app?vid=da24bee5-1fb3-43e5-984e-15260fdc0cc8"},"vehicle_type_id":"4","last_reported":1713373567,"current_range_meters":11600,"station_id":"ce4bh3p2rcd13ifvqdp0","pricing_plan_id":"cebpf4jnsgd1na2vs0mg"},{"bike_id":"4dcfb76b-009b-45a6-98d1-9f20f6d4c0c2","system_id":"levelo_inurba_marseille","lat":43.297815,"lon":5.393548,"is_reserved":false,"is_disabled":false,"rental_uris":{"android":"levelo://app?vid=4dcfb76b-009b-45a6-98d1-9f20f6d4c0c2","ios":"levelo://app?vid=4dcfb76b-009b-45a6-98d1-9f20f6d4c0c2"},"vehicle_type_id":"4","last_reported":1713373567,"current_range_meters":14800,"station_id":"chh1huq6cuj3fo74tm60","pricing_plan_id":"cebpf4jnsgd1na2vs0mg"},{"bike_id":"a1a5106f-64dc-4032-871f-a3f8358588b9","system_id":"levelo_inurba_marseille","lat":43.295169,"lon":5.390426,"is_reserved":false,"is_disabled":false,"rental_uris":{"android":"levelo://app?vid=a1a5106f-64dc-4032-871f-a3f8358588b9","ios":"levelo://app?vid=a1a5106f-64dc-4032-871f-a3f8358588b9"},"vehicle_type_id":"4","last_reported":1713373567,"current_range_meters":20000,"station_id":"ce4bh3p2rcd13ifvqdp0","pricing_plan_id":"cebpf4jnsgd1na2vs0mg"},{"bike_id":"6dd31ea9-77e7-4c5e-8861-6af193f622b3","system_id":"levelo_inurba_marseille","lat":43.295169,"lon":5.390426,"is_reserved":false,"is_disabled":false,"rental_uris":{"android":"levelo://app?vid=6dd31ea9-77e7-4c5e-8861-6af193f622b3","ios":"levelo://app?vid=6dd31ea9-77e7-4c5e-8861-6af193f622b3"},"vehicle_type_id":"4","last_reported":1713373567,"current_range_meters":6400,"station_id":"ce4bh3p2rcd13ifvqdp0","pricing_plan_id":"cebpf4jnsgd1na2vs0mg"},{"bike_id":"c3ddaefa-153e-4222-b950-75ff9c266b0c","system_id":"levelo_inurba_marseille","lat":43.289743,"lon":5.378304,"is_reserved":false,"is_disabled":false,"rental_uris":{"android":"levelo://app?vid=c3ddaefa-153e-4222-b950-75ff9c266b0c","ios":"levelo://app?vid=c3ddaefa-153e-4222-b950-75ff9c266b0c"},"vehicle_type_id":"4","last_reported":1713373567,"current_range_meters":2400,"station_id":"ce4bh9p2rcd13ifvqed0","pricing_plan_id":"cebpf4jnsgd1na2vs0mg"},{"bike_id":"339775ea-1e65-43fb-bfa7-3fdc2c3b5c97","system_id":"levelo_inurba_marseille","lat":43.330442,"lon":5.389148,"is_reserved":false,"is_disabled":false,"rental_uris":{"android":"levelo://app?vid=339775ea-1e65-43fb-bfa7-3fdc2c3b5c97","ios":"levelo://app?vid=339775ea-1e65-43fb-bfa7-3fdc2c3b5c97"},"vehicle_type_id":"4","last_reported":1713373567,"current_range_meters":2800,"station_id":"ce4bhr92rcd13ifvqhrg","pricing_plan_id":"cebpf4jnsgd1na2vs0mg"},{"bike_id":"eb27d065-fa83-4868-923d-dd6c14c58306","system_id":"levelo_inurba_marseille","lat":43.295169,"lon":5.390426,"is_reserved":false,"is_disabled":false,"rental_uris":{"android":"levelo://app?vid=eb27d065-fa83-4868-923d-dd6c14c58306","ios":"levelo://app?vid=eb27d065-fa83-4868-923d-dd6c14c58306"},"vehicle_type_id":"4","last_reported":1713373567,"current_range_meters":15200,"station_id":"ce4bh3p2rcd13ifvqdp0","pricing_plan_id":"cebpf4jnsgd1na2vs0mg"},{"bike_id":"22cbf198-4ac5-4b78-af9c-f8eb618cd3c3","system_id":"levelo_inurba_marseille","lat":43.330442,"lon":5.389148,"is_reserved":false,"is_disabled":false,"rental_uris":{"android":"levelo://app?vid=22cbf198-4ac5-4b78-af9c-f8eb618cd3c3","ios":"levelo://app?vid=22cbf198-4ac5-4b78-af9c-f8eb618cd3c3"},"vehicle_type_id":"4","last_reported":1713373567,"current_range_meters":31200,"station_id":"ce4bhr92rcd13ifvqhrg","pricing_plan_id":"cebpf4jnsgd1na2vs0mg"},{"bike_id":"1e6210b7-529a-47f5-8faf-a0ce468c4ae3","system_id":"levelo_inurba_marseille","lat":43.330442,"lon":5.389148,"is_reserved":false,"is_disabled":false,"rental_uris":{"android":"levelo://app?vid=1e6210b7-529a-47f5-8faf-a0ce468c4ae3","ios":"levelo://app?vid=1e6210b7-529a-47f5-8faf-a0ce468c4ae3"},"vehicle_type_id":"4","last_reported":1713373567,"current_range_meters":28000,"station_id":"ce4bhr92rcd13ifvqhrg","pricing_plan_id":"cebpf4jnsgd1na2vs0mg"},{"bike_id":"086976ff-7dae-4647-9a6c-afb024a7db88","system_id":"levelo_inurba_marseille","lat":43.330442,"lon":5.389148,"is_reserved":false,"is_disabled":false,"rental_uris":{"android":"levelo://app?vid=086976ff-7dae-4647-9a6c-afb024a7db88","ios":"levelo://app?vid=086976ff-7dae-4647-9a6c-afb024a7db88"},"vehicle_type_id":"4","last_reported":1713373567,"current_range_meters":400,"station_id":"ce4bhr92rcd13ifvqhrg","pricing_plan_id":"cebpf4jnsgd1na2vs0mg"},{"bike_id":"2d10d41b-0bfc-4abd-bdbf-6c37df94b99f","system_id":"levelo_inurba_marseille","lat":43.295169,"lon":5.390426,"is_reserved":false,"is_disabled":false,"rental_uris":{"android":"levelo://app?vid=2d10d41b-0bfc-4abd-bdbf-6c37df94b99f","ios":"levelo://app?vid=2d10d41b-0bfc-4abd-bdbf-6c37df94b99f"},"vehicle_type_id":"4","last_reported":1713373567,"current_range_meters":21200,"station_id":"ce4bh3p2rcd13ifvqdp0","pricing_plan_id":"cebpf4jnsgd1na2vs0mg"},{"bike_id":"537200da-e636-485a-963f-8f5d9f949019","system_id":"levelo_inurba_marseille","lat":43.33022,"lon":5.39053,"is_reserved":false,"is_disabled":false,"rental_uris":{"android":"levelo://app?vid=537200da-e636-485a-963f-8f5d9f949019","ios":"levelo://app?vid=537200da-e636-485a-963f-8f5d9f949019"},"vehicle_type_id":"4","last_reported":1713373567,"current_range_meters":13200,"station_id":"ce4bhr92rcd13ifvqhrg","pricing_plan_id":"cebpf4jnsgd1na2vs0mg"},{"bike_id":"be2fe186-16c3-413e-b681-62df123146dc","system_id":"levelo_inurba_marseille","lat":43.295169,"lon":5.390426,"is_reserved":false,"is_disabled":false,"rental_uris":{"android":"levelo://app?vid=be2fe186-16c3-413e-b681-62df123146dc","ios":"levelo://app?vid=be2fe186-16c3-413e-b681-62df123146dc"},"vehicle_type_id":"4","last_reported":1713373567,"current_range_meters":9600,"station_id":"ce4bh3p2rcd13ifvqdp0","pricing_plan_id":"cebpf4jnsgd1na2vs0mg"},{"bike_id":"0238e745-4706-4800-9c89-b6c765d92816","system_id":"levelo_inurba_marseille","lat":43.33027,"lon":5.390547,"is_reserved":false,"is_disabled":false,"rental_uris":{"android":"levelo://app?vid=0238e745-4706-4800-9c89-b6c765d92816","ios":"levelo://app?vid=0238e745-4706-4800-9c89-b6c765d92816"},"vehicle_type_id":"4","last_reported":1713373567,"current_range_meters":0,"station_id":"ce4bhr92rcd13ifvqhrg","pricing_plan_id":"cebpf4jnsgd1na2vs0mg"},{"bike_id":"536494f1-56e3-4b26-9237-37f595393b43","system_id":"levelo_inurba_marseille","lat":43.283498,"lon":5.380948,"is_reserved":false,"is_disabled":false,"rental_uris":{"android":"levelo://app?vid=536494f1-56e3-4b26-9237-37f595393b43","ios":"levelo://app?vid=536494f1-56e3-4b26-9237-37f595393b43"},"vehicle_type_id":"4","last_reported":1713373567,"current_range_meters":27600,"station_id":"ce4bh412rcd13ifvqdr0","pricing_plan_id":"cebpf4jnsgd1na2vs0mg"},{"bike_id":"edfe0f8f-cf27-456e-a5a1-a2e4b50c500d","system_id":"levelo_inurba_marseille","lat":43.28856,"lon":5.358371,"is_reserved":false,"is_disabled":false,"rental_uris":{"android":"levelo://app?vid=edfe0f8f-cf27-456e-a5a1-a2e4b50c500d","ios":"levelo://app?vid=edfe0f8f-cf27-456e-a5a1-a2e4b50c500d"},"vehicle_type_id":"4","last_reported":1713373567,"current_range_meters":12400,"station_id":"ce4bhb12rcd13ifvqem0","pricing_plan_id":"cebpf4jnsgd1na2vs0mg"},{"bike_id":"9ff34f4d-f19f-48ab-99de-876f5438e6b7","system_id":"levelo_inurba_marseille","lat":43.283502,"lon":5.386471,"is_reserved":false,"is_disabled":false,"rental_uris":{"android":"levelo://app?vid=9ff34f4d-f19f-48ab-99de-876f5438e6b7","ios":"levelo://app?vid=9ff34f4d-f19f-48ab-99de-876f5438e6b7"},"vehicle_type_id":"4","last_reported":1713373567,"current_range_meters":16400,"station_id":"ce4bh492rcd13ifvqdvg","pricing_plan_id":"cebpf4jnsgd1na2vs0mg"},{"bike_id":"72191d04-44af-4150-bdc2-b4a494176bf4","system_id":"levelo_inurba_marseille","lat":43.28856,"lon":5.358371,"is_reserved":false,"is_disabled":false,"rental_uris":{"android":"levelo://app?vid=72191d04-44af-4150-bdc2-b4a494176bf4","ios":"levelo://app?vid=72191d04-44af-4150-bdc2-b4a494176bf4"},"vehicle_type_id":"4","last_reported":1713373567,"current_range_meters":27200,"station_id":"ce4bhb12rcd13ifvqem0","pricing_plan_id":"cebpf4jnsgd1na2vs0mg"},{"bike_id":"340c5316-6de2-4e54-bd77-299bd97bedf7","system_id":"levelo_inurba_marseille","lat":43.28856,"lon":5.358371,"is_reserved":false,"is_disabled":false,"rental_uris":{"android":"levelo://app?vid=340c5316-6de2-4e54-bd77-299bd97bedf7","ios":"levelo://app?vid=340c5316-6de2-4e54-bd77-299bd97bedf7"},"vehicle_type_id":"4","last_reported":1713373567,"current_range_meters":27600,"station_id":"ce4bhb12rcd13ifvqem0","pricing_plan_id":"cebpf4jnsgd1na2vs0mg"},{"bike_id":"7ac095c8-125c-4f33-892c-bc83cf832599","system_id":"levelo_inurba_marseille","lat":43.28856,"lon":5.358371,"is_reserved":false,"is_disabled":false,"rental_uris":{"android":"levelo://app?vid=7ac095c8-125c-4f33-892c-bc83cf832599","ios":"levelo://app?vid=7ac095c8-125c-4f33-892c-bc83cf832599"},"vehicle_type_id":"4","last_reported":1713373567,"current_range_meters":27200,"station_id":"ce4bhb12rcd13ifvqem0","pricing_plan_id":"cebpf4jnsgd1na2vs0mg"},{"bike_id":"19eca764-aa41-4fcf-99fc-f25547a61bb9","system_id":"levelo_inurba_marseille","lat":43.319179,"lon":5.407725,"is_reserved":false,"is_disabled":false,"rental_uris":{"android":"levelo://app?vid=19eca764-aa41-4fcf-99fc-f25547a61bb9","ios":"levelo://app?vid=19eca764-aa41-4fcf-99fc-f25547a61bb9"},"vehicle_type_id":"4","last_reported":1713373567,"current_range_meters":20000,"station_id":"ce4bhq12rcd13ifvqhig","pricing_plan_id":"cebpf4jnsgd1na2vs0mg"},{"bike_id":"3129af6e-fda5-4e50-a48a-6c6e15889265","system_id":"levelo_inurba_marseille","lat":43.28856,"lon":5.358371,"is_reserved":false,"is_disabled":false,"rental_uris":{"android":"levelo://app?vid=3129af6e-fda5-4e50-a48a-6c6e15889265","ios":"levelo://app?vid=3129af6e-fda5-4e50-a48a-6c6e15889265"},"vehicle_type_id":"4","last_reported":1713373567,"current_range_meters":22000,"station_id":"ce4bhb12rcd13ifvqem0","pricing_plan_id":"cebpf4jnsgd1na2vs0mg"},{"bike_id":"722fe8dc-2696-4409-a523-97cca4f0c999","system_id":"levelo_inurba_marseille","lat":43.28856,"lon":5.358371,"is_reserved":false,"is_disabled":false,"rental_uris":{"android":"levelo://app?vid=722fe8dc-2696-4409-a523-97cca4f0c999","ios":"levelo://app?vid=722fe8dc-2696-4409-a523-97cca4f0c999"},"vehicle_type_id":"4","last_reported":1713373567,"current_range_meters":1200,"station_id":"ce4bhb12rcd13ifvqem0","pricing_plan_id":"cebpf4jnsgd1na2vs0mg"},{"bike_id":"47857cd1-cb59-4f05-94f8-e36b1e1387ff","system_id":"levelo_inurba_marseille","lat":43.28856,"lon":5.358371,"is_reserved":false,"is_disabled":false,"rental_uris":{"android":"levelo://app?vid=47857cd1-cb59-4f05-94f8-e36b1e1387ff","ios":"levelo://app?vid=47857cd1-cb59-4f05-94f8-e36b1e1387ff"},"vehicle_type_id":"4","last_reported":1713373567,"current_range_meters":26400,"station_id":"ce4bhb12rcd13ifvqem0","pricing_plan_id":"cebpf4jnsgd1na2vs0mg"},{"bike_id":"971f7a57-0d01-42d5-a4fd-5a2ab76c5c67","system_id":"levelo_inurba_marseille","lat":43.31284,"lon":5.40166,"is_reserved":false,"is_disabled":false,"rental_uris":{"android":"levelo://app?vid=971f7a57-0d01-42d5-a4fd-5a2ab76c5c67","ios":"levelo://app?vid=971f7a57-0d01-42d5-a4fd-5a2ab76c5c67"},"vehicle_type_id":"4","last_reported":1713373567,"current_range_meters":25200,"station_id":"ce4bh092rcd13ifvqd30","pricing_plan_id":"cebpf4jnsgd1na2vs0mg"},{"bike_id":"5e4c3bc6-00f9-40f0-bc9a-3071c34d959b","system_id":"levelo_inurba_marseille","lat":43.312609,"lon":5.401662,"is_reserved":false,"is_disabled":false,"rental_uris":{"android":"levelo://app?vid=5e4c3bc6-00f9-40f0-bc9a-3071c34d959b","ios":"levelo://app?vid=5e4c3bc6-00f9-40f0-bc9a-3071c34d959b"},"vehicle_type_id":"4","last_reported":1713373567,"current_range_meters":1200,"station_id":"ce4bh092rcd13ifvqd30","pricing_plan_id":"cebpf4jnsgd1na2vs0mg"},{"bike_id":"456b2116-a626-4f11-8448-87a2e82adad1","system_id":"levelo_inurba_marseille","lat":43.312609,"lon":5.401662,"is_reserved":false,"is_disabled":false,"rental_uris":{"android":"levelo://app?vid=456b2116-a626-4f11-8448-87a2e82adad1","ios":"levelo://app?vid=456b2116-a626-4f11-8448-87a2e82adad1"},"vehicle_type_id":"4","last_reported":1713373567,"current_range_meters":17600,"station_id":"ce4bh092rcd13ifvqd30","pricing_plan_id":"cebpf4jnsgd1na2vs0mg"},{"bike_id":"ec781ac8-727e-46f6-b702-5d47fa5a20a2","system_id":"levelo_inurba_marseille","lat":43.312698,"lon":5.401818,"is_reserved":false,"is_disabled":false,"rental_uris":{"android":"levelo://app?vid=ec781ac8-727e-46f6-b702-5d47fa5a20a2","ios":"levelo://app?vid=ec781ac8-727e-46f6-b702-5d47fa5a20a2"},"vehicle_type_id":"4","last_reported":1713373567,"current_range_meters":26000,"station_id":"ce4bh092rcd13ifvqd30","pricing_plan_id":"cebpf4jnsgd1na2vs0mg"},{"bike_id":"b1ef5a3c-efbd-4f2e-9925-5584efb427ea","system_id":"levelo_inurba_marseille","lat":43.3127,"lon":5.40182,"is_reserved":false,"is_disabled":false,"rental_uris":{"android":"levelo://app?vid=b1ef5a3c-efbd-4f2e-9925-5584efb427ea","ios":"levelo://app?vid=b1ef5a3c-efbd-4f2e-9925-5584efb427ea"},"vehicle_type_id":"4","last_reported":1713373567,"current_range_meters":5200,"station_id":"ce4bh092rcd13ifvqd30","pricing_plan_id":"cebpf4jnsgd1na2vs0mg"},{"bike_id":"4e03fccd-dbbf-4dbc-9ccc-03e8f48f99e2","system_id":"levelo_inurba_marseille","lat":43.337563,"lon":5.37446,"is_reserved":false,"is_disabled":false,"rental_uris":{"android":"levelo://app?vid=4e03fccd-dbbf-4dbc-9ccc-03e8f48f99e2","ios":"levelo://app?vid=4e03fccd-dbbf-4dbc-9ccc-03e8f48f99e2"},"vehicle_type_id":"4","last_reported":1713373567,"current_range_meters":29600,"station_id":"","pricing_plan_id":"cebpf4jnsgd1na2vs0mg"},{"bike_id":"6ecc9ba7-ecb0-4b79-a999-4623f5aa9fe0","system_id":"levelo_inurba_marseille","lat":43.337569,"lon":5.37451,"is_reserved":false,"is_disabled":false,"rental_uris":{"android":"levelo://app?vid=6ecc9ba7-ecb0-4b79-a999-4623f5aa9fe0","ios":"levelo://app?vid=6ecc9ba7-ecb0-4b79-a999-4623f5aa9fe0"},"vehicle_type_id":"4","last_reported":1713373567,"current_range_meters":18800,"station_id":"","pricing_plan_id":"cebpf4jnsgd1na2vs0mg"},{"bike_id":"a503501e-28fd-478d-b705-9d517f8dbcf3","system_id":"levelo_inurba_marseille","lat":43.309371,"lon":5.401449,"is_reserved":false,"is_disabled":false,"rental_uris":{"android":"levelo://app?vid=a503501e-28fd-478d-b705-9d517f8dbcf3","ios":"levelo://app?vid=a503501e-28fd-478d-b705-9d517f8dbcf3"},"vehicle_type_id":"4","last_reported":1713373567,"current_range_meters":16800,"station_id":"ce4bgvp2rcd13ifvqct0","pricing_plan_id":"cebpf4jnsgd1na2vs0mg"},{"bike_id":"beaaf8b7-2436-4b5a-9d43-9c50376523d7","system_id":"levelo_inurba_marseille","lat":43.301117,"lon":5.398795,"is_reserved":false,"is_disabled":false,"rental_uris":{"android":"levelo://app?vid=beaaf8b7-2436-4b5a-9d43-9c50376523d7","ios":"levelo://app?vid=beaaf8b7-2436-4b5a-9d43-9c50376523d7"},"vehicle_type_id":"4","last_reported":1713373567,"current_range_meters":6800,"station_id":"ce4bh0h2rcd13ifvqd40","pricing_plan_id":"cebpf4jnsgd1na2vs0mg"},{"bike_id":"d68af7dd-b5e4-4cf2-8cfd-b42df167f0fe","system_id":"levelo_inurba_marseille","lat":43.30671,"lon":5.40112,"is_reserved":false,"is_disabled":false,"rental_uris":{"android":"levelo://app?vid=d68af7dd-b5e4-4cf2-8cfd-b42df167f0fe","ios":"levelo://app?vid=d68af7dd-b5e4-4cf2-8cfd-b42df167f0fe"},"vehicle_type_id":"4","last_reported":1713373567,"current_range_meters":13600,"station_id":"","pricing_plan_id":"cebpf4jnsgd1na2vs0mg"},{"bike_id":"dc66bb17-027c-445a-bbca-3f9bb2bb4881","system_id":"levelo_inurba_marseille","lat":43.301117,"lon":5.398795,"is_reserved":false,"is_disabled":false,"rental_uris":{"android":"levelo://app?vid=dc66bb17-027c-445a-bbca-3f9bb2bb4881","ios":"levelo://app?vid=dc66bb17-027c-445a-bbca-3f9bb2bb4881"},"vehicle_type_id":"4","last_reported":1713373567,"current_range_meters":6000,"station_id":"ce4bh0h2rcd13ifvqd40","pricing_plan_id":"cebpf4jnsgd1na2vs0mg"},{"bike_id":"90418150-1044-41f3-9158-ef618654c90d","system_id":"levelo_inurba_marseille","lat":43.301418,"lon":5.398518,"is_reserved":false,"is_disabled":false,"rental_uris":{"android":"levelo://app?vid=90418150-1044-41f3-9158-ef618654c90d","ios":"levelo://app?vid=90418150-1044-41f3-9158-ef618654c90d"},"vehicle_type_id":"4","last_reported":1713373567,"current_range_meters":10000,"station_id":"ce4bh0h2rcd13ifvqd40","pricing_plan_id":"cebpf4jnsgd1na2vs0mg"},{"bike_id":"29325363-8931-4cc3-8603-2e0762eb12ad","system_id":"levelo_inurba_marseille","lat":43.301117,"lon":5.398795,"is_reserved":false,"is_disabled":false,"rental_uris":{"android":"levelo://app?vid=29325363-8931-4cc3-8603-2e0762eb12ad","ios":"levelo://app?vid=29325363-8931-4cc3-8603-2e0762eb12ad"},"vehicle_type_id":"4","last_reported":1713373567,"current_range_meters":400,"station_id":"ce4bh0h2rcd13ifvqd40","pricing_plan_id":"cebpf4jnsgd1na2vs0mg"},{"bike_id":"21f2fdd5-9928-4472-8504-30f17033b2ca","system_id":"levelo_inurba_marseille","lat":43.30139,"lon":5.3986,"is_reserved":false,"is_disabled":false,"rental_uris":{"android":"levelo://app?vid=21f2fdd5-9928-4472-8504-30f17033b2ca","ios":"levelo://app?vid=21f2fdd5-9928-4472-8504-30f17033b2ca"},"vehicle_type_id":"4","last_reported":1713373567,"current_range_meters":0,"station_id":"ce4bh0h2rcd13ifvqd40","pricing_plan_id":"cebpf4jnsgd1na2vs0mg"},{"bike_id":"2b2e0823-4167-4ed0-8cc8-03dd9892671f","system_id":"levelo_inurba_marseille","lat":43.30642,"lon":5.401031,"is_reserved":false,"is_disabled":false,"rental_uris":{"android":"levelo://app?vid=2b2e0823-4167-4ed0-8cc8-03dd9892671f","ios":"levelo://app?vid=2b2e0823-4167-4ed0-8cc8-03dd9892671f"},"vehicle_type_id":"4","last_reported":1713373567,"current_range_meters":18000,"station_id":"ce4bh112rcd13ifvqda0","pricing_plan_id":"cebpf4jnsgd1na2vs0mg"},{"bike_id":"ed5169bf-2c81-4636-aef5-61f97a2318ee","system_id":"levelo_inurba_marseille","lat":43.301298,"lon":5.398715,"is_reserved":false,"is_disabled":false,"rental_uris":{"android":"levelo://app?vid=ed5169bf-2c81-4636-aef5-61f97a2318ee","ios":"levelo://app?vid=ed5169bf-2c81-4636-aef5-61f97a2318ee"},"vehicle_type_id":"4","last_reported":1713373567,"current_range_meters":12400,"station_id":"ce4bh0h2rcd13ifvqd40","pricing_plan_id":"cebpf4jnsgd1na2vs0mg"},{"bike_id":"79a3df49-3190-4fee-ad76-16bf96918425","system_id":"levelo_inurba_marseille","lat":43.28727,"lon":5.36078,"is_reserved":false,"is_disabled":false,"rental_uris":{"android":"levelo://app?vid=79a3df49-3190-4fee-ad76-16bf96918425","ios":"levelo://app?vid=79a3df49-3190-4fee-ad76-16bf96918425"},"vehicle_type_id":"4","last_reported":1713373567,"current_range_meters":20400,"station_id":"cki0cbj6b192h4jlfktg","pricing_plan_id":"cebpf4jnsgd1na2vs0mg"},{"bike_id":"02606aa0-7eef-40f5-9da3-892795a2003a","system_id":"levelo_inurba_marseille","lat":43.306412,"lon":5.401035,"is_reserved":false,"is_disabled":false,"rental_uris":{"android":"levelo://app?vid=02606aa0-7eef-40f5-9da3-892795a2003a","ios":"levelo://app?vid=02606aa0-7eef-40f5-9da3-892795a2003a"},