{"last_updated":1704543126,"ttl":30,"version":"2.2","data":{"bikes":[{"bike_id":"75ae0ebb-e9ac-4b0d-ae87-e81945d75ebf","system_id":"levelo_inurba_marseille","lat":43.31343,"lon":5.36719,"is_reserved":false,"is_disabled":false,"rental_uris":{"android":"levelo://app?vid=75ae0ebb-e9ac-4b0d-ae87-e81945d75ebf","ios":"levelo://app?vid=75ae0ebb-e9ac-4b0d-ae87-e81945d75ebf"},"vehicle_type_id":"4","last_reported":1704543126,"current_range_meters":28000,"station_id":"ce4bgr92rcd13ifvqc6g","pricing_plan_id":"free"},{"bike_id":"caa6d607-4880-4102-9f9e-4261941eea08","system_id":"levelo_inurba_marseille","lat":43.312239,"lon":5.368562,"is_reserved":false,"is_disabled":false,"rental_uris":{"android":"levelo://app?vid=caa6d607-4880-4102-9f9e-4261941eea08","ios":"levelo://app?vid=caa6d607-4880-4102-9f9e-4261941eea08"},"vehicle_type_id":"4","last_reported":1704543126,"current_range_meters":5600,"station_id":"ce4bgl92rcd13ifvqbq0","pricing_plan_id":"free"},{"bike_id":"cc8890d5-6b8b-4419-8be0-a71832d276d3","system_id":"levelo_inurba_marseille","lat":43.31353,"lon":5.36715,"is_reserved":false,"is_disabled":false,"rental_uris":{"android":"levelo://app?vid=cc8890d5-6b8b-4419-8be0-a71832d276d3","ios":"levelo://app?vid=cc8890d5-6b8b-4419-8be0-a71832d276d3"},"vehicle_type_id":"4","last_reported":1704543126,"current_range_meters":28000,"station_id":"ce4bgr92rcd13ifvqc6g","pricing_plan_id":"free"},{"bike_id":"34835cbd-fb88-44b9-9be8-983e87d05d84","system_id":"levelo_inurba_marseille","lat":43.305714,"lon":5.365633,"is_reserved":false,"is_disabled":false,"rental_uris":{"android":"levelo://app?vid=34835cbd-fb88-44b9-9be8-983e87d05d84","ios":"levelo://app?vid=34835cbd-fb88-44b9-9be8-983e87d05d84"},"vehicle_type_id":"4","last_reported":1704543126,"current_range_meters":11600,"station_id":"ce4bgs12rcd13ifvqcag","pricing_plan_id":"free"},{"bike_id":"d5c8dc4a-bbbb-4d2c-8c30-99d7a7446934","system_id":"levelo_inurba_marseille","lat":43.305714,"lon":5.365633,"is_reserved":false,"is_disabled":false,"rental_uris":{"android":"levelo://app?vid=d5c8dc4a-bbbb-4d2c-8c30-99d7a7446934","ios":"levelo://app?vid=d5c8dc4a-bbbb-4d2c-8c30-99d7a7446934"},"vehicle_type_id":"4","last_reported":1704543126,"current_range_meters":22400,"station_id":"ce4bgs12rcd13ifvqcag","pricing_plan_id":"free"},{"bike_id":"f05253be-c91f-44f7-b4d3-94ab492af09b","system_id":"levelo_inurba_marseille","lat":43.305368,"lon":5.367343,"is_reserved":false,"is_disabled":false,"rental_uris":{"android":"levelo://app?vid=f05253be-c91f-44f7-b4d3-94ab492af09b","ios":"levelo://app?vid=f05253be-c91f-44f7-b4d3-94ab492af09b"},"vehicle_type_id":"4","last_reported":1704543126,"current_range_meters":18000,"station_id":"ce4bgrp2rcd13ifvqc9g","pricing_plan_id":"free"},{"bike_id":"4d635f9b-f15e-4089-91ee-c5ba379f47e4","system_id":"levelo_inurba_marseille","lat":43.305714,"lon":5.365633,"is_reserved":false,"is_disabled":false,"rental_uris":{"android":"levelo://app?vid=4d635f9b-f15e-4089-91ee-c5ba379f47e4","ios":"levelo://app?vid=4d635f9b-f15e-4089-91ee-c5ba379f47e4"},"vehicle_type_id":"4","last_reported":1704543126,"current_range_meters":28800,"station_id":"ce4bgs12rcd13ifvqcag","pricing_plan_id":"free"},{"bike_id":"b16b0121-ba82-4d9b-8862-5652dfd825d9","system_id":"levelo_inurba_marseille","lat":43.305706,"lon":5.365654,"is_reserved":false,"is_disabled":false,"rental_uris":{"android":"levelo://app?vid=b16b0121-ba82-4d9b-8862-5652dfd825d9","ios":"levelo://app?vid=b16b0121-ba82-4d9b-8862-5652dfd825d9"},"vehicle_type_id":"4","last_reported":1704543126,"current_range_meters":13200,"station_id":"ce4bgs12rcd13ifvqcag","pricing_plan_id":"free"},{"bike_id":"f68dba62-bf1e-41f3-a26e-989b3e8be8be","system_id":"levelo_inurba_marseille","lat":43.305706,"lon":5.365654,"is_reserved":false,"is_disabled":false,"rental_uris":{"android":"levelo://app?vid=f68dba62-bf1e-41f3-a26e-989b3e8be8be","ios":"levelo://app?vid=f68dba62-bf1e-41f3-a26e-989b3e8be8be"},"vehicle_type_id":"4","last_reported":1704543126,"current_range_meters":31600,"station_id":"ce4bgs12rcd13ifvqcag","pricing_plan_id":"free"},{"bike_id":"700070ef-6769-4d5e-8927-810da1b0df1e","system_id":"levelo_inurba_marseille","lat":43.305706,"lon":5.365654,"is_reserved":false,"is_disabled":false,"rental_uris":{"android":"levelo://app?vid=700070ef-6769-4d5e-8927-810da1b0df1e","ios":"levelo://app?vid=700070ef-6769-4d5e-8927-810da1b0df1e"},"vehicle_type_id":"4","last_reported":1704543126,"current_range_meters":12000,"station_id":"ce4bgs12rcd13ifvqcag","pricing_plan_id":"free"},{"bike_id":"4d885b1b-3fef-4591-815f-f204603b10fc","system_id":"levelo_inurba_marseille","lat":43.305706,"lon":5.365654,"is_reserved":false,"is_disabled":false,"rental_uris":{"android":"levelo://app?vid=4d885b1b-3fef-4591-815f-f204603b10fc","ios":"levelo://app?vid=4d885b1b-3fef-4591-815f-f204603b10fc"},"vehicle_type_id":"4","last_reported":1704543126,"current_range_meters":25600,"station_id":"ce4bgs12rcd13ifvqcag","pricing_plan_id":"free"},{"bike_id":"3cbea1cd-7072-4e9a-a659-ceed40ffac38","system_id":"levelo_inurba_marseille","lat":43.305706,"lon":5.365654,"is_reserved":false,"is_disabled":false,"rental_uris":{"android":"levelo://app?vid=3cbea1cd-7072-4e9a-a659-ceed40ffac38","ios":"levelo://app?vid=3cbea1cd-7072-4e9a-a659-ceed40ffac38"},"vehicle_type_id":"4","last_reported":1704543126,"current_range_meters":22800,"station_id":"ce4bgs12rcd13ifvqcag","pricing_plan_id":"free"},{"bike_id":"a19aa242-7f85-4f34-b179-629aebb762b3","system_id":"levelo_inurba_marseille","lat":43.311131,"lon":5.377651,"is_reserved":false,"is_disabled":false,"rental_uris":{"android":"levelo://app?vid=a19aa242-7f85-4f34-b179-629aebb762b3","ios":"levelo://app?vid=a19aa242-7f85-4f34-b179-629aebb762b3"},"vehicle_type_id":"4","last_reported":1704543126,"current_range_meters":22400,"station_id":"ce4bgt92rcd13ifvqcg0","pricing_plan_id":"free"},{"bike_id":"b64c5ad0-fde3-493f-9cb8-5b1db4bc57fc","system_id":"levelo_inurba_marseille","lat":43.311125,"lon":5.377624,"is_reserved":false,"is_disabled":false,"rental_uris":{"android":"levelo://app?vid=b64c5ad0-fde3-493f-9cb8-5b1db4bc57fc","ios":"levelo://app?vid=b64c5ad0-fde3-493f-9cb8-5b1db4bc57fc"},"vehicle_type_id":"4","last_reported":1704543126,"current_range_meters":26400,"station_id":"ce4bgt92rcd13ifvqcg0","pricing_plan_id":"free"},{"bike_id":"d852df57-12a7-4466-a2ba-2621f6aefc6c","system_id":"levelo_inurba_marseille","lat":43.311125,"lon":5.377624,"is_reserved":false,"is_disabled":false,"rental_uris":{"android":"levelo://app?vid=d852df57-12a7-4466-a2ba-2621f6aefc6c","ios":"levelo://app?vid=d852df57-12a7-4466-a2ba-2621f6aefc6c"},"vehicle_type_id":"4","last_reported":1704543126,"current_range_meters":31200,"station_id":"ce4bgt92rcd13ifvqcg0","pricing_plan_id":"free"},{"bike_id":"5d52ee39-e84d-4983-ab7d-2dc7c78c8cfa","system_id":"levelo_inurba_marseille","lat":43.311125,"lon":5.377624,"is_reserved":false,"is_disabled":false,"rental_uris":{"android":"levelo://app?vid=5d52ee39-e84d-4983-ab7d-2dc7c78c8cfa","ios":"levelo://app?vid=5d52ee39-e84d-4983-ab7d-2dc7c78c8cfa"},"vehicle_type_id":"4","last_reported":1704543126,"current_range_meters":21200,"station_id":"ce4bgt92rcd13ifvqcg0","pricing_plan_id":"free"},{"bike_id":"3e9110c9-9a1a-40d7-b786-b39bfa669418","system_id":"levelo_inurba_marseille","lat":43.307945,"lon":5.376487,"is_reserved":false,"is_disabled":false,"rental_uris":{"android":"levelo://app?vid=3e9110c9-9a1a-40d7-b786-b39bfa669418","ios":"levelo://app?vid=3e9110c9-9a1a-40d7-b786-b39bfa669418"},"vehicle_type_id":"4","last_reported":1704543126,"current_range_meters":22800,"station_id":"ce4bgv92rcd13ifvqcq0","pricing_plan_id":"free"},{"bike_id":"060d0ade-853e-4d42-8c3f-264bcde9ab8f","system_id":"levelo_inurba_marseille","lat":43.317075,"lon":5.377367,"is_reserved":false,"is_disabled":false,"rental_uris":{"android":"levelo://app?vid=060d0ade-853e-4d42-8c3f-264bcde9ab8f","ios":"levelo://app?vid=060d0ade-853e-4d42-8c3f-264bcde9ab8f"},"vehicle_type_id":"4","last_reported":1704543126,"current_range_meters":10800,"station_id":"ce4bgth2rcd13ifvqch0","pricing_plan_id":"free"},{"bike_id":"c4e90871-bb94-4085-82dc-ccbd997a22ca","system_id":"levelo_inurba_marseille","lat":43.31537,"lon":5.37903,"is_reserved":false,"is_disabled":false,"rental_uris":{"android":"levelo://app?vid=c4e90871-bb94-4085-82dc-ccbd997a22ca","ios":"levelo://app?vid=c4e90871-bb94-4085-82dc-ccbd997a22ca"},"vehicle_type_id":"4","last_reported":1704543126,"current_range_meters":10400,"station_id":"","pricing_plan_id":"free"},{"bike_id":"0c6acae8-b948-4b12-8120-4b079eaf0eda","system_id":"levelo_inurba_marseille","lat":43.303046,"lon":5.368981,"is_reserved":false,"is_disabled":false,"rental_uris":{"android":"levelo://app?vid=0c6acae8-b948-4b12-8120-4b079eaf0eda","ios":"levelo://app?vid=0c6acae8-b948-4b12-8120-4b079eaf0eda"},"vehicle_type_id":"4","last_reported":1704543126,"current_range_meters":30400,"station_id":"ce4bgqh2rcd13ifvqc5g","pricing_plan_id":"free"},{"bike_id":"d3977a53-ad10-452a-9d04-264689b3e61d","system_id":"levelo_inurba_marseille","lat":43.3153,"lon":5.38025,"is_reserved":false,"is_disabled":false,"rental_uris":{"android":"levelo://app?vid=d3977a53-ad10-452a-9d04-264689b3e61d","ios":"levelo://app?vid=d3977a53-ad10-452a-9d04-264689b3e61d"},"vehicle_type_id":"4","last_reported":1704543126,"current_range_meters":17600,"station_id":"ce4bhsp2rcd13ifvqi50","pricing_plan_id":"free"},{"bike_id":"81380ced-4b36-4c25-95d1-26a4926ec2e8","system_id":"levelo_inurba_marseille","lat":43.324771,"lon":5.36557,"is_reserved":false,"is_disabled":false,"rental_uris":{"android":"levelo://app?vid=81380ced-4b36-4c25-95d1-26a4926ec2e8","ios":"levelo://app?vid=81380ced-4b36-4c25-95d1-26a4926ec2e8"},"vehicle_type_id":"4","last_reported":1704543126,"current_range_meters":26800,"station_id":"ce4bhs12rcd13ifvqhvg","pricing_plan_id":"free"},{"bike_id":"02d23d8e-3145-486e-a07d-306ed471a4ca","system_id":"levelo_inurba_marseille","lat":43.301429,"lon":5.37413,"is_reserved":false,"is_disabled":false,"rental_uris":{"android":"levelo://app?vid=02d23d8e-3145-486e-a07d-306ed471a4ca","ios":"levelo://app?vid=02d23d8e-3145-486e-a07d-306ed471a4ca"},"vehicle_type_id":"4","last_reported":1704543126,"current_range_meters":26800,"station_id":"ce4bgs92rcd13ifvqcc0","pricing_plan_id":"free"},{"bike_id":"066e96ea-f6c1-470e-b8f6-1787ce8c2234","system_id":"levelo_inurba_marseille","lat":43.319935,"lon":5.381699,"is_reserved":false,"is_disabled":false,"rental_uris":{"android":"levelo://app?vid=066e96ea-f6c1-470e-b8f6-1787ce8c2234","ios":"levelo://app?vid=066e96ea-f6c1-470e-b8f6-1787ce8c2234"},"vehicle_type_id":"4","last_reported":1704543126,"current_range_meters":22400,"station_id":"ce4bhr12rcd13ifvqhpg","pricing_plan_id":"free"},{"bike_id":"cb0afc8e-7eb3-4014-90ef-c94b3631fc61","system_id":"levelo_inurba_marseille","lat":43.313571,"lon":5.384829,"is_reserved":false,"is_disabled":false,"rental_uris":{"android":"levelo://app?vid=cb0afc8e-7eb3-4014-90ef-c94b3631fc61","ios":"levelo://app?vid=cb0afc8e-7eb3-4014-90ef-c94b3631fc61"},"vehicle_type_id":"4","last_reported":1704543126,"current_range_meters":26400,"station_id":"ce4bgt92rcd13ifvqcf0","pricing_plan_id":"free"},{"bike_id":"17504bde-947a-4cd6-98b3-9a4c66aca99b","system_id":"levelo_inurba_marseille","lat":43.313827,"lon":5.385007,"is_reserved":false,"is_disabled":false,"rental_uris":{"android":"levelo://app?vid=17504bde-947a-4cd6-98b3-9a4c66aca99b","ios":"levelo://app?vid=17504bde-947a-4cd6-98b3-9a4c66aca99b"},"vehicle_type_id":"4","last_reported":1704543126,"current_range_meters":6000,"station_id":"","pricing_plan_id":"free"},{"bike_id":"cb8340f1-b97c-489d-bc40-f3a0d8ba81cb","system_id":"levelo_inurba_marseille","lat":43.299724,"lon":5.371829,"is_reserved":false,"is_disabled":false,"rental_uris":{"android":"levelo://app?vid=cb8340f1-b97c-489d-bc40-f3a0d8ba81cb","ios":"levelo://app?vid=cb8340f1-b97c-489d-bc40-f3a0d8ba81cb"},"vehicle_type_id":"4","last_reported":1704543126,"current_range_meters":27200,"station_id":"ce4bgr92rcd13ifvqc7g","pricing_plan_id":"free"},{"bike_id":"bd71316f-ae5c-4e6b-9e95-c62ddab26421","system_id":"levelo_inurba_marseille","lat":43.299724,"lon":5.371829,"is_reserved":false,"is_disabled":false,"rental_uris":{"android":"levelo://app?vid=bd71316f-ae5c-4e6b-9e95-c62ddab26421","ios":"levelo://app?vid=bd71316f-ae5c-4e6b-9e95-c62ddab26421"},"vehicle_type_id":"4","last_reported":1704543126,"current_range_meters":8800,"station_id":"ce4bgr92rcd13ifvqc7g","pricing_plan_id":"free"},{"bike_id":"3c69489c-925b-4888-a83b-5a2156f1e4a8","system_id":"levelo_inurba_marseille","lat":43.30018,"lon":5.37438,"is_reserved":false,"is_disabled":false,"rental_uris":{"android":"levelo://app?vid=3c69489c-925b-4888-a83b-5a2156f1e4a8","ios":"levelo://app?vid=3c69489c-925b-4888-a83b-5a2156f1e4a8"},"vehicle_type_id":"4","last_reported":1704543126,"current_range_meters":26400,"station_id":"","pricing_plan_id":"free"},{"bike_id":"b22604ec-0c4b-41b4-a20e-38add68f7682","system_id":"levelo_inurba_marseille","lat":43.325682,"lon":5.374836,"is_reserved":false,"is_disabled":false,"rental_uris":{"android":"levelo://app?vid=b22604ec-0c4b-41b4-a20e-38add68f7682","ios":"levelo://app?vid=b22604ec-0c4b-41b4-a20e-38add68f7682"},"vehicle_type_id":"4","last_reported":1704543126,"current_range_meters":14000,"station_id":"","pricing_plan_id":"free"},{"bike_id":"90f624c9-e920-42f0-bdb2-c7157855cdc0","system_id":"levelo_inurba_marseille","lat":43.311548,"lon":5.386816,"is_reserved":false,"is_disabled":false,"rental_uris":{"android":"levelo://app?vid=90f624c9-e920-42f0-bdb2-c7157855cdc0","ios":"levelo://app?vid=90f624c9-e920-42f0-bdb2-c7157855cdc0"},"vehicle_type_id":"4","last_reported":1704543126,"current_range_meters":13200,"station_id":"ce4bgv12rcd13ifvqcp0","pricing_plan_id":"free"},{"bike_id":"6ee20984-0d42-43d9-93c8-2b838aef357a","system_id":"levelo_inurba_marseille","lat":43.305364,"lon":5.384119,"is_reserved":false,"is_disabled":false,"rental_uris":{"android":"levelo://app?vid=6ee20984-0d42-43d9-93c8-2b838aef357a","ios":"levelo://app?vid=6ee20984-0d42-43d9-93c8-2b838aef357a"},"vehicle_type_id":"4","last_reported":1704543126,"current_range_meters":23600,"station_id":"ce4bgg92rcd13ifvqb30","pricing_plan_id":"free"},{"bike_id":"cef140a4-7888-4a0c-8d4a-36fcb792d02e","system_id":"levelo_inurba_marseille","lat":43.298433,"lon":5.362774,"is_reserved":false,"is_disabled":false,"rental_uris":{"android":"levelo://app?vid=cef140a4-7888-4a0c-8d4a-36fcb792d02e","ios":"levelo://app?vid=cef140a4-7888-4a0c-8d4a-36fcb792d02e"},"vehicle_type_id":"4","last_reported":1704543126,"current_range_meters":30000,"station_id":"ce4bgpp2rcd13ifvqc3g","pricing_plan_id":"free"},{"bike_id":"36b590db-00a3-4ab8-8276-5f4181acda7e","system_id":"levelo_inurba_marseille","lat":43.298433,"lon":5.362774,"is_reserved":false,"is_disabled":false,"rental_uris":{"android":"levelo://app?vid=36b590db-00a3-4ab8-8276-5f4181acda7e","ios":"levelo://app?vid=36b590db-00a3-4ab8-8276-5f4181acda7e"},"vehicle_type_id":"4","last_reported":1704543126,"current_range_meters":31200,"station_id":"ce4bgpp2rcd13ifvqc3g","pricing_plan_id":"free"},{"bike_id":"47052536-72c0-449c-b2bb-822d32b7017d","system_id":"levelo_inurba_marseille","lat":43.3119,"lon":5.38711,"is_reserved":false,"is_disabled":false,"rental_uris":{"android":"levelo://app?vid=47052536-72c0-449c-b2bb-822d32b7017d","ios":"levelo://app?vid=47052536-72c0-449c-b2bb-822d32b7017d"},"vehicle_type_id":"4","last_reported":1704543126,"current_range_meters":12000,"station_id":"ce4bgv12rcd13ifvqcp0","pricing_plan_id":"free"},{"bike_id":"41e3ffd0-59af-425b-8819-4223cf1be0d4","system_id":"levelo_inurba_marseille","lat":43.298433,"lon":5.362774,"is_reserved":false,"is_disabled":false,"rental_uris":{"android":"levelo://app?vid=41e3ffd0-59af-425b-8819-4223cf1be0d4","ios":"levelo://app?vid=41e3ffd0-59af-425b-8819-4223cf1be0d4"},"vehicle_type_id":"4","last_reported":1704543126,"current_range_meters":31200,"station_id":"ce4bgpp2rcd13ifvqc3g","pricing_plan_id":"free"},{"bike_id":"1015d239-a123-4b0a-aee5-695c4c4b7f49","system_id":"levelo_inurba_marseille","lat":43.311722,"lon":5.387247,"is_reserved":false,"is_disabled":false,"rental_uris":{"android":"levelo://app?vid=1015d239-a123-4b0a-aee5-695c4c4b7f49","ios":"levelo://app?vid=1015d239-a123-4b0a-aee5-695c4c4b7f49"},"vehicle_type_id":"4","last_reported":1704543126,"current_range_meters":27600,"station_id":"ce4bgv12rcd13ifvqcp0","pricing_plan_id":"free"},{"bike_id":"462dd073-2280-416a-ac77-6fe151f7b831","system_id":"levelo_inurba_marseille","lat":43.299243,"lon":5.374807,"is_reserved":false,"is_disabled":false,"rental_uris":{"android":"levelo://app?vid=462dd073-2280-416a-ac77-6fe151f7b831","ios":"levelo://app?vid=462dd073-2280-416a-ac77-6fe151f7b831"},"vehicle_type_id":"4","last_reported":1704543126,"current_range_meters":30400,"station_id":"ce4bgjh2rcd13ifvqbg0","pricing_plan_id":"free"},{"bike_id":"17f6138c-b422-4039-8115-471a22ece2b5","system_id":"levelo_inurba_marseille","lat":43.297794,"lon":5.370888,"is_reserved":false,"is_disabled":false,"rental_uris":{"android":"levelo://app?vid=17f6138c-b422-4039-8115-471a22ece2b5","ios":"levelo://app?vid=17f6138c-b422-4039-8115-471a22ece2b5"},"vehicle_type_id":"4","last_reported":1704543126,"current_range_meters":25600,"station_id":"ce4bgop2rcd13ifvqc1g","pricing_plan_id":"free"},{"bike_id":"1b220229-7949-4df4-9b23-533b0f3a0a7e","system_id":"levelo_inurba_marseille","lat":43.297774,"lon":5.370875,"is_reserved":false,"is_disabled":false,"rental_uris":{"android":"levelo://app?vid=1b220229-7949-4df4-9b23-533b0f3a0a7e","ios":"levelo://app?vid=1b220229-7949-4df4-9b23-533b0f3a0a7e"},"vehicle_type_id":"4","last_reported":1704543126,"current_range_meters":9200,"station_id":"ce4bgop2rcd13ifvqc1g","pricing_plan_id":"free"},{"bike_id":"276c91d7-6ca9-48bc-bf75-acd9920b9ec2","system_id":"levelo_inurba_marseille","lat":43.32288,"lon":5.38265,"is_reserved":false,"is_disabled":false,"rental_uris":{"android":"levelo://app?vid=276c91d7-6ca9-48bc-bf75-acd9920b9ec2","ios":"levelo://app?vid=276c91d7-6ca9-48bc-bf75-acd9920b9ec2"},"vehicle_type_id":"4","last_reported":1704543126,"current_range_meters":26400,"station_id":"ce4bhr12rcd13ifvqhqg","pricing_plan_id":"free"},{"bike_id":"3bb7c7dd-5eca-4a2d-a889-98c939c30e62","system_id":"levelo_inurba_marseille","lat":43.32286,"lon":5.38268,"is_reserved":false,"is_disabled":false,"rental_uris":{"android":"levelo://app?vid=3bb7c7dd-5eca-4a2d-a889-98c939c30e62","ios":"levelo://app?vid=3bb7c7dd-5eca-4a2d-a889-98c939c30e62"},"vehicle_type_id":"4","last_reported":1704543126,"current_range_meters":30800,"station_id":"ce4bhr12rcd13ifvqhqg","pricing_plan_id":"free"},{"bike_id":"09da622d-5ec6-4261-a95d-695d32c570ab","system_id":"levelo_inurba_marseille","lat":43.32289,"lon":5.38274,"is_reserved":false,"is_disabled":false,"rental_uris":{"android":"levelo://app?vid=09da622d-5ec6-4261-a95d-695d32c570ab","ios":"levelo://app?vid=09da622d-5ec6-4261-a95d-695d32c570ab"},"vehicle_type_id":"4","last_reported":1704543126,"current_range_meters":15200,"station_id":"ce4bhr12rcd13ifvqhqg","pricing_plan_id":"free"},{"bike_id":"d0aaa14f-1070-4a80-a2f2-78508dd9f6bd","system_id":"levelo_inurba_marseille","lat":43.322872,"lon":5.382756,"is_reserved":false,"is_disabled":false,"rental_uris":{"android":"levelo://app?vid=d0aaa14f-1070-4a80-a2f2-78508dd9f6bd","ios":"levelo://app?vid=d0aaa14f-1070-4a80-a2f2-78508dd9f6bd"},"vehicle_type_id":"4","last_reported":1704543126,"current_range_meters":31200,"station_id":"ce4bhr12rcd13ifvqhqg","pricing_plan_id":"free"},{"bike_id":"297a7823-4b34-45b3-8282-c78d31cc9f05","system_id":"levelo_inurba_marseille","lat":43.322872,"lon":5.382756,"is_reserved":false,"is_disabled":false,"rental_uris":{"android":"levelo://app?vid=297a7823-4b34-45b3-8282-c78d31cc9f05","ios":"levelo://app?vid=297a7823-4b34-45b3-8282-c78d31cc9f05"},"vehicle_type_id":"4","last_reported":1704543126,"current_range_meters":28000,"station_id":"ce4bhr12rcd13ifvqhqg","pricing_plan_id":"free"},{"bike_id":"c7d38364-eef9-4110-a7ab-31802bbfdd34","system_id":"levelo_inurba_marseille","lat":43.297794,"lon":5.370888,"is_reserved":false,"is_disabled":false,"rental_uris":{"android":"levelo://app?vid=c7d38364-eef9-4110-a7ab-31802bbfdd34","ios":"levelo://app?vid=c7d38364-eef9-4110-a7ab-31802bbfdd34"},"vehicle_type_id":"4","last_reported":1704543126,"current_range_meters":27600,"station_id":"ce4bgop2rcd13ifvqc1g","pricing_plan_id":"free"},{"bike_id":"2226457b-0c49-43c5-a740-390da299c0bf","system_id":"levelo_inurba_marseille","lat":43.32286,"lon":5.38282,"is_reserved":false,"is_disabled":false,"rental_uris":{"android":"levelo://app?vid=2226457b-0c49-43c5-a740-390da299c0bf","ios":"levelo://app?vid=2226457b-0c49-43c5-a740-390da299c0bf"},"vehicle_type_id":"4","last_reported":1704543126,"current_range_meters":4000,"station_id":"ce4bhr12rcd13ifvqhqg","pricing_plan_id":"free"},{"bike_id":"f661f6de-13d0-42ff-819f-05ad69d6ac0a","system_id":"levelo_inurba_marseille","lat":43.32816,"lon":5.36696,"is_reserved":false,"is_disabled":false,"rental_uris":{"android":"levelo://app?vid=f661f6de-13d0-42ff-819f-05ad69d6ac0a","ios":"levelo://app?vid=f661f6de-13d0-42ff-819f-05ad69d6ac0a"},"vehicle_type_id":"4","last_reported":1704543126,"current_range_meters":7200,"station_id":"ce4bhs92rcd13ifvqi0g","pricing_plan_id":"free"},{"bike_id":"66addf4b-70b7-4ac4-8e17-37956e9ecfbb","system_id":"levelo_inurba_marseille","lat":43.328213,"lon":5.366758,"is_reserved":false,"is_disabled":false,"rental_uris":{"android":"levelo://app?vid=66addf4b-70b7-4ac4-8e17-37956e9ecfbb","ios":"levelo://app?vid=66addf4b-70b7-4ac4-8e17-37956e9ecfbb"},"vehicle_type_id":"4","last_reported":1704543126,"current_range_meters":24000,"station_id":"ce4bhs92rcd13ifvqi0g","pricing_plan_id":"free"},{"bike_id":"c224ea64-7bb8-45be-8a3a-d137d9e17684","system_id":"levelo_inurba_marseille","lat":43.32824,"lon":5.36684,"is_reserved":false,"is_disabled":false,"rental_uris":{"android":"levelo://app?vid=c224ea64-7bb8-45be-8a3a-d137d9e17684","ios":"levelo://app?vid=c224ea64-7bb8-45be-8a3a-d137d9e17684"},"vehicle_type_id":"4","last_reported":1704543126,"current_range_meters":19200,"station_id":"ce4bhs92rcd13ifvqi0g","pricing_plan_id":"free"},{"bike_id":"387c1dff-fb7e-4547-838e-1af3f69c4219","system_id":"levelo_inurba_marseille","lat":43.32824,"lon":5.36681,"is_reserved":false,"is_disabled":false,"rental_uris":{"android":"levelo://app?vid=387c1dff-fb7e-4547-838e-1af3f69c4219","ios":"levelo://app?vid=387c1dff-fb7e-4547-838e-1af3f69c4219"},"vehicle_type_id":"4","last_reported":1704543126,"current_range_meters":10000,"station_id":"ce4bhs92rcd13ifvqi0g","pricing_plan_id":"free"},{"bike_id":"0f4d3e9a-7c47-4898-8890-89e08c97b864","system_id":"levelo_inurba_marseille","lat":43.32825,"lon":5.36685,"is_reserved":false,"is_disabled":false,"rental_uris":{"android":"levelo://app?vid=0f4d3e9a-7c47-4898-8890-89e08c97b864","ios":"levelo://app?vid=0f4d3e9a-7c47-4898-8890-89e08c97b864"},"vehicle_type_id":"4","last_reported":1704543126,"current_range_meters":25600,"station_id":"ce4bhs92rcd13ifvqi0g","pricing_plan_id":"free"},{"bike_id":"42895378-a21e-445b-8e89-325727904609","system_id":"levelo_inurba_marseille","lat":43.328371,"lon":5.366909,"is_reserved":false,"is_disabled":false,"rental_uris":{"android":"levelo://app?vid=42895378-a21e-445b-8e89-325727904609","ios":"levelo://app?vid=42895378-a21e-445b-8e89-325727904609"},"vehicle_type_id":"4","last_reported":1704543126,"current_range_meters":26400,"station_id":"ce4bhs92rcd13ifvqi0g","pricing_plan_id":"free"},{"bike_id":"2a198080-4532-4feb-a3cd-69d8ee187294","system_id":"levelo_inurba_marseille","lat":43.32826,"lon":5.36685,"is_reserved":false,"is_disabled":false,"rental_uris":{"android":"levelo://app?vid=2a198080-4532-4feb-a3cd-69d8ee187294","ios":"levelo://app?vid=2a198080-4532-4feb-a3cd-69d8ee187294"},"vehicle_type_id":"4","last_reported":1704543126,"current_range_meters":18000,"station_id":"ce4bhs92rcd13ifvqi0g","pricing_plan_id":"free"},{"bike_id":"43f47c35-ec23-411b-b2fa-7957e35eab11","system_id":"levelo_inurba_marseille","lat":43.328371,"lon":5.366909,"is_reserved":false,"is_disabled":false,"rental_uris":{"android":"levelo://app?vid=43f47c35-ec23-411b-b2fa-7957e35eab11","ios":"levelo://app?vid=43f47c35-ec23-411b-b2fa-7957e35eab11"},"vehicle_type_id":"4","last_reported":1704543126,"current_range_meters":15200,"station_id":"ce4bhs92rcd13ifvqi0g","pricing_plan_id":"free"},{"bike_id":"0725f2a6-de18-43ea-a245-f699ddc19b55","system_id":"levelo_inurba_marseille","lat":43.328371,"lon":5.366909,"is_reserved":false,"is_disabled":false,"rental_uris":{"android":"levelo://app?vid=0725f2a6-de18-43ea-a245-f699ddc19b55","ios":"levelo://app?vid=0725f2a6-de18-43ea-a245-f699ddc19b55"},"vehicle_type_id":"4","last_reported":1704543126,"current_range_meters":13200,"station_id":"ce4bhs92rcd13ifvqi0g","pricing_plan_id":"free"},{"bike_id":"ee966a52-c4f3-4b5b-b8b2-c85b17eb5fb4","system_id":"levelo_inurba_marseille","lat":43.328371,"lon":5.366909,"is_reserved":false,"is_disabled":false,"rental_uris":{"android":"levelo://app?vid=ee966a52-c4f3-4b5b-b8b2-c85b17eb5fb4","ios":"levelo://app?vid=ee966a52-c4f3-4b5b-b8b2-c85b17eb5fb4"},"vehicle_type_id":"4","last_reported":1704543126,"current_range_meters":20800,"station_id":"ce4bhs92rcd13ifvqi0g","pricing_plan_id":"free"},{"bike_id":"064b14d2-f3e9-43be-a725-c95d6c66fd15","system_id":"levelo_inurba_marseille","lat":43.328371,"lon":5.366909,"is_reserved":false,"is_disabled":false,"rental_uris":{"android":"levelo://app?vid=064b14d2-f3e9-43be-a725-c95d6c66fd15","ios":"levelo://app?vid=064b14d2-f3e9-43be-a725-c95d6c66fd15"},"vehicle_type_id":"4","last_reported":1704543126,"current_range_meters":26800,"station_id":"ce4bhs92rcd13ifvqi0g","pricing_plan_id":"free"},{"bike_id":"20ee9ffc-dea6-4ee0-aa5b-7f51a0c56576","system_id":"levelo_inurba_marseille","lat":43.298912,"lon":5.378871,"is_reserved":false,"is_disabled":false,"rental_uris":{"android":"levelo://app?vid=20ee9ffc-dea6-4ee0-aa5b-7f51a0c56576","ios":"levelo://app?vid=20ee9ffc-dea6-4ee0-aa5b-7f51a0c56576"},"vehicle_type_id":"4","last_reported":1704543126,"current_range_meters":19600,"station_id":"","pricing_plan_id":"free"},{"bike_id":"d3a7128e-285e-4de8-b2fa-9e2608bf8049","system_id":"levelo_inurba_marseille","lat":43.296131,"lon":5.370791,"is_reserved":false,"is_disabled":false,"rental_uris":{"android":"levelo://app?vid=d3a7128e-285e-4de8-b2fa-9e2608bf8049","ios":"levelo://app?vid=d3a7128e-285e-4de8-b2fa-9e2608bf8049"},"vehicle_type_id":"4","last_reported":1704543126,"current_range_meters":28800,"station_id":"ce4bgnh2rcd13ifvqc0g","pricing_plan_id":"free"},{"bike_id":"221145dc-662e-4470-b7bf-4c3ba688b031","system_id":"levelo_inurba_marseille","lat":43.29618,"lon":5.37156,"is_reserved":false,"is_disabled":false,"rental_uris":{"android":"levelo://app?vid=221145dc-662e-4470-b7bf-4c3ba688b031","ios":"levelo://app?vid=221145dc-662e-4470-b7bf-4c3ba688b031"},"vehicle_type_id":"4","last_reported":1704543126,"current_range_meters":30800,"station_id":"ce4bgnh2rcd13ifvqc0g","pricing_plan_id":"free"},{"bike_id":"ce3b28e4-7cb9-4fae-983e-39d52ffff224","system_id":"levelo_inurba_marseille","lat":43.296921,"lon":5.376579,"is_reserved":false,"is_disabled":false,"rental_uris":{"android":"levelo://app?vid=ce3b28e4-7cb9-4fae-983e-39d52ffff224","ios":"levelo://app?vid=ce3b28e4-7cb9-4fae-983e-39d52ffff224"},"vehicle_type_id":"4","last_reported":1704543126,"current_range_meters":29200,"station_id":"ce4bgkh2rcd13ifvqbl0","pricing_plan_id":"free"},{"bike_id":"7784a1d3-64e8-402f-a150-88e69f13f753","system_id":"levelo_inurba_marseille","lat":43.296921,"lon":5.376579,"is_reserved":false,"is_disabled":false,"rental_uris":{"android":"levelo://app?vid=7784a1d3-64e8-402f-a150-88e69f13f753","ios":"levelo://app?vid=7784a1d3-64e8-402f-a150-88e69f13f753"},"vehicle_type_id":"4","last_reported":1704543126,"current_range_meters":30000,"station_id":"ce4bgkh2rcd13ifvqbl0","pricing_plan_id":"free"},{"bike_id":"33883e8f-dbdf-4554-8699-65102b6e131b","system_id":"levelo_inurba_marseille","lat":43.29716,"lon":5.376837,"is_reserved":false,"is_disabled":false,"rental_uris":{"android":"levelo://app?vid=33883e8f-dbdf-4554-8699-65102b6e131b","ios":"levelo://app?vid=33883e8f-dbdf-4554-8699-65102b6e131b"},"vehicle_type_id":"4","last_reported":1704543126,"current_range_meters":28000,"station_id":"ce4bgkh2rcd13ifvqbl0","pricing_plan_id":"free"},{"bike_id":"d4d6ef0d-ad9c-4227-94ec-595b8524ea37","system_id":"levelo_inurba_marseille","lat":43.296921,"lon":5.376579,"is_reserved":false,"is_disabled":false,"rental_uris":{"android":"levelo://app?vid=d4d6ef0d-ad9c-4227-94ec-595b8524ea37","ios":"levelo://app?vid=d4d6ef0d-ad9c-4227-94ec-595b8524ea37"},"vehicle_type_id":"4","last_reported":1704543126,"current_range_meters":20800,"station_id":"ce4bgkh2rcd13ifvqbl0","pricing_plan_id":"free"},{"bike_id":"53474f5a-62d6-4ce6-aacf-609c65919dc1","system_id":"levelo_inurba_marseille","lat":43.301117,"lon":5.398795,"is_reserved":false,"is_disabled":false,"rental_uris":{"android":"levelo://app?vid=53474f5a-62d6-4ce6-aacf-609c65919dc1","ios":"levelo://app?vid=53474f5a-62d6-4ce6-aacf-609c65919dc1"},"vehicle_type_id":"4","last_reported":1704543126,"current_range_meters":20400,"station_id":"ce4bh0h2rcd13ifvqd40","pricing_plan_id":"free"},{"bike_id":"21062911-1a5a-4eaa-9904-78a48623459c","system_id":"levelo_inurba_marseille","lat":43.299028,"lon":5.381509,"is_reserved":false,"is_disabled":false,"rental_uris":{"android":"levelo://app?vid=21062911-1a5a-4eaa-9904-78a48623459c","ios":"levelo://app?vid=21062911-1a5a-4eaa-9904-78a48623459c"},"vehicle_type_id":"4","last_reported":1704543126,"current_range_meters":23200,"station_id":"ce4bgj12rcd13ifvqbc0","pricing_plan_id":"free"},{"bike_id":"1c489e1d-bceb-428f-b444-644df861085d","system_id":"levelo_inurba_marseille","lat":43.299028,"lon":5.381509,"is_reserved":false,"is_disabled":false,"rental_uris":{"android":"levelo://app?vid=1c489e1d-bceb-428f-b444-644df861085d","ios":"levelo://app?vid=1c489e1d-bceb-428f-b444-644df861085d"},"vehicle_type_id":"4","last_reported":1704543126,"current_range_meters":15600,"station_id":"ce4bgj12rcd13ifvqbc0","pricing_plan_id":"free"},{"bike_id":"ac4b2227-ea03-48b6-9761-3be6bf8686a2","system_id":"levelo_inurba_marseille","lat":43.309589,"lon":5.390258,"is_reserved":false,"is_disabled":false,"rental_uris":{"android":"levelo://app?vid=ac4b2227-ea03-48b6-9761-3be6bf8686a2","ios":"levelo://app?vid=ac4b2227-ea03-48b6-9761-3be6bf8686a2"},"vehicle_type_id":"4","last_reported":1704543126,"current_range_meters":27600,"station_id":"ce4bgup2rcd13ifvqco0","pricing_plan_id":"free"},{"bike_id":"4442d518-1966-4d29-b4b8-ff3934ec88fd","system_id":"levelo_inurba_marseille","lat":43.299054,"lon":5.381448,"is_reserved":false,"is_disabled":false,"rental_uris":{"android":"levelo://app?vid=4442d518-1966-4d29-b4b8-ff3934ec88fd","ios":"levelo://app?vid=4442d518-1966-4d29-b4b8-ff3934ec88fd"},"vehicle_type_id":"4","last_reported":1704543126,"current_range_meters":24000,"station_id":"ce4bgj12rcd13ifvqbc0","pricing_plan_id":"free"},{"bike_id":"da430d79-c247-4832-b899-15a2dfcde566","system_id":"levelo_inurba_marseille","lat":43.299028,"lon":5.381509,"is_reserved":false,"is_disabled":false,"rental_uris":{"android":"levelo://app?vid=da430d79-c247-4832-b899-15a2dfcde566","ios":"levelo://app?vid=da430d79-c247-4832-b899-15a2dfcde566"},"vehicle_type_id":"4","last_reported":1704543126,"current_range_meters":31200,"station_id":"ce4bgj12rcd13ifvqbc0","pricing_plan_id":"free"},{"bike_id":"c56ed040-d05f-46b2-95bf-f73862895805","system_id":"levelo_inurba_marseille","lat":43.299,"lon":5.38141,"is_reserved":false,"is_disabled":false,"rental_uris":{"android":"levelo://app?vid=c56ed040-d05f-46b2-95bf-f73862895805","ios":"levelo://app?vid=c56ed040-d05f-46b2-95bf-f73862895805"},"vehicle_type_id":"4","last_reported":1704543126,"current_range_meters":28000,"station_id":"ce4bgj12rcd13ifvqbc0","pricing_plan_id":"free"},{"bike_id":"4ec22cb3-08b4-4041-8c0e-836a6eb73940","system_id":"levelo_inurba_marseille","lat":43.299014,"lon":5.381462,"is_reserved":false,"is_disabled":false,"rental_uris":{"android":"levelo://app?vid=4ec22cb3-08b4-4041-8c0e-836a6eb73940","ios":"levelo://app?vid=4ec22cb3-08b4-4041-8c0e-836a6eb73940"},"vehicle_type_id":"4","last_reported":1704543126,"current_range_meters":19600,"station_id":"ce4bgj12rcd13ifvqbc0","pricing_plan_id":"free"},{"bike_id":"9a396a94-0247-4dd0-a40a-36e2698f7a77","system_id":"levelo_inurba_marseille","lat":43.299028,"lon":5.381509,"is_reserved":false,"is_disabled":false,"rental_uris":{"android":"levelo://app?vid=9a396a94-0247-4dd0-a40a-36e2698f7a77","ios":"levelo://app?vid=9a396a94-0247-4dd0-a40a-36e2698f7a77"},"vehicle_type_id":"4","last_reported":1704543126,"current_range_meters":23200,"station_id":"ce4bgj12rcd13ifvqbc0","pricing_plan_id":"free"},{"bike_id":"b521dea7-c91c-413f-af60-5facf6bec682","system_id":"levelo_inurba_marseille","lat":43.309589,"lon":5.390258,"is_reserved":false,"is_disabled":false,"rental_uris":{"android":"levelo://app?vid=b521dea7-c91c-413f-af60-5facf6bec682","ios":"levelo://app?vid=b521dea7-c91c-413f-af60-5facf6bec682"},"vehicle_type_id":"4","last_reported":1704543126,"current_range_meters":29600,"station_id":"ce4bgup2rcd13ifvqco0","pricing_plan_id":"free"},{"bike_id":"9f14d50e-27b5-44b6-a0e2-875c455c8419","system_id":"levelo_inurba_marseille","lat":43.296921,"lon":5.376579,"is_reserved":false,"is_disabled":false,"rental_uris":{"android":"levelo://app?vid=9f14d50e-27b5-44b6-a0e2-875c455c8419","ios":"levelo://app?vid=9f14d50e-27b5-44b6-a0e2-875c455c8419"},"vehicle_type_id":"4","last_reported":1704543126,"current_range_meters":13200,"station_id":"ce4bgkh2rcd13ifvqbl0","pricing_plan_id":"free"},{"bike_id":"9f99198d-706b-47c3-9d54-a5e733922f25","system_id":"levelo_inurba_marseille","lat":43.317557,"lon":5.390173,"is_reserved":false,"is_disabled":false,"rental_uris":{"android":"levelo://app?vid=9f99198d-706b-47c3-9d54-a5e733922f25","ios":"levelo://app?vid=9f99198d-706b-47c3-9d54-a5e733922f25"},"vehicle_type_id":"4","last_reported":1704543126,"current_range_meters":31200,"station_id":"ce4bhqp2rcd13ifvqhng","pricing_plan_id":"free"},{"bike_id":"9117e731-3746-4a96-a279-e3661b3df329","system_id":"levelo_inurba_marseille","lat":43.31757,"lon":5.39015,"is_reserved":false,"is_disabled":false,"rental_uris":{"android":"levelo://app?vid=9117e731-3746-4a96-a279-e3661b3df329","ios":"levelo://app?vid=9117e731-3746-4a96-a279-e3661b3df329"},"vehicle_type_id":"4","last_reported":1704543126,"current_range_meters":31200,"station_id":"ce4bhqp2rcd13ifvqhng","pricing_plan_id":"free"},{"bike_id":"e37c395a-9586-41ec-a7f6-e0ff510c2fd8","system_id":"levelo_inurba_marseille","lat":43.317557,"lon":5.390173,"is_reserved":false,"is_disabled":false,"rental_uris":{"android":"levelo://app?vid=e37c395a-9586-41ec-a7f6-e0ff510c2fd8","ios":"levelo://app?vid=e37c395a-9586-41ec-a7f6-e0ff510c2fd8"},"vehicle_type_id":"4","last_reported":1704543126,"current_range_meters":31200,"station_id":"ce4bhqp2rcd13ifvqhng","pricing_plan_id":"free"},{"bike_id":"fc457524-f122-4fd7-8ee4-283d15af7027","system_id":"levelo_inurba_marseille","lat":43.317557,"lon":5.390173,"is_reserved":false,"is_disabled":false,"rental_uris":{"android":"levelo://app?vid=fc457524-f122-4fd7-8ee4-283d15af7027","ios":"levelo://app?vid=fc457524-f122-4fd7-8ee4-283d15af7027"},"vehicle_type_id":"4","last_reported":1704543126,"current_range_meters":21200,"station_id":"ce4bhqp2rcd13ifvqhng","pricing_plan_id":"free"},{"bike_id":"712bc03c-4301-4f23-a402-31c4a3f6ea54","system_id":"levelo_inurba_marseille","lat":43.317557,"lon":5.390173,"is_reserved":false,"is_disabled":false,"rental_uris":{"android":"levelo://app?vid=712bc03c-4301-4f23-a402-31c4a3f6ea54","ios":"levelo://app?vid=712bc03c-4301-4f23-a402-31c4a3f6ea54"},"vehicle_type_id":"4","last_reported":1704543126,"current_range_meters":8000,"station_id":"ce4bhqp2rcd13ifvqhng","pricing_plan_id":"free"},{"bike_id":"7613a77e-a079-4ca3-b3b4-fb874ded63fb","system_id":"levelo_inurba_marseille","lat":43.31755,"lon":5.39025,"is_reserved":false,"is_disabled":false,"rental_uris":{"android":"levelo://app?vid=7613a77e-a079-4ca3-b3b4-fb874ded63fb","ios":"levelo://app?vid=7613a77e-a079-4ca3-b3b4-fb874ded63fb"},"vehicle_type_id":"4","last_reported":1704543126,"current_range_meters":24400,"station_id":"ce4bhqp2rcd13ifvqhng","pricing_plan_id":"free"},{"bike_id":"e2dc8e92-8398-4b96-b149-e4463dae558f","system_id":"levelo_inurba_marseille","lat":43.298037,"lon":5.381066,"is_reserved":false,"is_disabled":false,"rental_uris":{"android":"levelo://app?vid=e2dc8e92-8398-4b96-b149-e4463dae558f","ios":"levelo://app?vid=e2dc8e92-8398-4b96-b149-e4463dae558f"},"vehicle_type_id":"4","last_reported":1704543126,"current_range_meters":1600,"station_id":"ce4bgip2rcd13ifvqbb0","pricing_plan_id":"free"},{"bike_id":"e2392f01-0b7d-4843-8ca6-70889c9f888a","system_id":"levelo_inurba_marseille","lat":43.298037,"lon":5.381066,"is_reserved":false,"is_disabled":false,"rental_uris":{"android":"levelo://app?vid=e2392f01-0b7d-4843-8ca6-70889c9f888a","ios":"levelo://app?vid=e2392f01-0b7d-4843-8ca6-70889c9f888a"},"vehicle_type_id":"4","last_reported":1704543126,"current_range_meters":15600,"station_id":"ce4bgip2rcd13ifvqbb0","pricing_plan_id":"free"},{"bike_id":"2ab493a1-1723-46ac-a488-0b9bda8dad47","system_id":"levelo_inurba_marseille","lat":43.298037,"lon":5.381066,"is_reserved":false,"is_disabled":false,"rental_uris":{"android":"levelo://app?vid=2ab493a1-1723-46ac-a488-0b9bda8dad47","ios":"levelo://app?vid=2ab493a1-1723-46ac-a488-0b9bda8dad47"},"vehicle_type_id":"4","last_reported":1704543126,"current_range_meters":11200,"station_id":"ce4bgip2rcd13ifvqbb0","pricing_plan_id":"free"},{"bike_id":"028cb1c9-e0b6-4408-b070-39723a397983","system_id":"levelo_inurba_marseille","lat":43.295748,"lon":5.37522,"is_reserved":false,"is_disabled":false,"rental_uris":{"android":"levelo://app?vid=028cb1c9-e0b6-4408-b070-39723a397983","ios":"levelo://app?vid=028cb1c9-e0b6-4408-b070-39723a397983"},"vehicle_type_id":"4","last_reported":1704543126,"current_range_meters":10800,"station_id":"ce4bgh92rcd13ifvqb50","pricing_plan_id":"free"},{"bike_id":"7b0ad038-7757-4a47-99b8-76409ce0e494","system_id":"levelo_inurba_marseille","lat":43.295748,"lon":5.37522,"is_reserved":false,"is_disabled":false,"rental_uris":{"android":"levelo://app?vid=7b0ad038-7757-4a47-99b8-76409ce0e494","ios":"levelo://app?vid=7b0ad038-7757-4a47-99b8-76409ce0e494"},"vehicle_type_id":"4","last_reported":1704543126,"current_range_meters":8000,"station_id":"ce4bgh92rcd13ifvqb50","pricing_plan_id":"free"},{"bike_id":"96cdae50-db7a-4587-a015-270862a19d9e","system_id":"levelo_inurba_marseille","lat":43.298037,"lon":5.381066,"is_reserved":false,"is_disabled":false,"rental_uris":{"android":"levelo://app?vid=96cdae50-db7a-4587-a015-270862a19d9e","ios":"levelo://app?vid=96cdae50-db7a-4587-a015-270862a19d9e"},"vehicle_type_id":"4","last_reported":1704543126,"current_range_meters":12000,"station_id":"ce4bgip2rcd13ifvqbb0","pricing_plan_id":"free"},{"bike_id":"254f18eb-ad08-4d42-84d4-db18f0db27ce","system_id":"levelo_inurba_marseille","lat":43.304274,"lon":5.388873,"is_reserved":false,"is_disabled":false,"rental_uris":{"android":"levelo://app?vid=254f18eb-ad08-4d42-84d4-db18f0db27ce","ios":"levelo://app?vid=254f18eb-ad08-4d42-84d4-db18f0db27ce"},"vehicle_type_id":"4","last_reported":1704543126,"current_range_meters":24800,"station_id":"ce4bgk12rcd13ifvqbi0","pricing_plan_id":"free"},{"bike_id":"aa187c64-8aed-4f10-ac01-c148215b0afc","system_id":"levelo_inurba_marseille","lat":43.304278,"lon":5.388868,"is_reserved":false,"is_disabled":false,"rental_uris":{"android":"levelo://app?vid=aa187c64-8aed-4f10-ac01-c148215b0afc","ios":"levelo://app?vid=aa187c64-8aed-4f10-ac01-c148215b0afc"},"vehicle_type_id":"4","last_reported":1704543126,"current_range_meters":23600,"station_id":"ce4bgk12rcd13ifvqbi0","pricing_plan_id":"free"},{"bike_id":"808bce3c-cea6-4768-a9db-f76a5f204272","system_id":"levelo_inurba_marseille","lat":43.296277,"lon":5.377108,"is_reserved":false,"is_disabled":false,"rental_uris":{"android":"levelo://app?vid=808bce3c-cea6-4768-a9db-f76a5f204272","ios":"levelo://app?vid=808bce3c-cea6-4768-a9db-f76a5f204272"},"vehicle_type_id":"4","last_reported":1704543126,"current_range_meters":15600,"station_id":"ce4bgi92rcd13ifvqb90","pricing_plan_id":"free"},{"bike_id":"5a42ad66-f9b2-4fc0-9e63-8bd65070218b","system_id":"levelo_inurba_marseille","lat":43.296263,"lon":5.377094,"is_reserved":false,"is_disabled":false,"rental_uris":{"android":"levelo://app?vid=5a42ad66-f9b2-4fc0-9e63-8bd65070218b","ios":"levelo://app?vid=5a42ad66-f9b2-4fc0-9e63-8bd65070218b"},"vehicle_type_id":"4","last_reported":1704543126,"current_range_meters":21200,"station_id":"ce4bgi92rcd13ifvqb90","pricing_plan_id":"free"},{"bike_id":"d60802d6-4f47-444a-b234-883690eec05b","system_id":"levelo_inurba_marseille","lat":43.33062,"lon":5.3627,"is_reserved":false,"is_disabled":false,"rental_uris":{"android":"levelo://app?vid=d60802d6-4f47-444a-b234-883690eec05b","ios":"levelo://app?vid=d60802d6-4f47-444a-b234-883690eec05b"},"vehicle_type_id":"4","last_reported":1704543126,"current_range_meters":400,"station_id":"","pricing_plan_id":"free"},{"bike_id":"1f8c9d43-40b1-4ad4-84c2-c725e5a1ad16","system_id":"levelo_inurba_marseille","lat":43.296263,"lon":5.377094,"is_reserved":false,"is_disabled":false,"rental_uris":{"android":"levelo://app?vid=1f8c9d43-40b1-4ad4-84c2-c725e5a1ad16","ios":"levelo://app?vid=1f8c9d43-40b1-4ad4-84c2-c725e5a1ad16"},"vehicle_type_id":"4","last_reported":1704543126,"current_range_meters":9200,"station_id":"ce4bgi92rcd13ifvqb90","pricing_plan_id":"free"},{"bike_id":"615b5709-a729-4b67-aced-411e6966d588","system_id":"levelo_inurba_marseille","lat":43.296263,"lon":5.377094,"is_reserved":false,"is_disabled":false,"rental_uris":{"android":"levelo://app?vid=615b5709-a729-4b67-aced-411e6966d588","ios":"levelo://app?vid=615b5709-a729-4b67-aced-411e6966d588"},"vehicle_type_id":"4","last_reported":1704543126,"current_range_meters":22000,"station_id":"ce4bgi92rcd13ifvqb90","pricing_plan_id":"free"},{"bike_id":"230724b5-0696-4eee-bddb-91de00825718","system_id":"levelo_inurba_marseille","lat":43.299707,"lon":5.384859,"is_reserved":false,"is_disabled":false,"rental_uris":{"android":"levelo://app?vid=230724b5-0696-4eee-bddb-91de00825718","ios":"levelo://app?vid=230724b5-0696-4eee-bddb-91de00825718"},"vehicle_type_id":"4","last_reported":1704543126,"current_range_meters":20400,"station_id":"ce4bgj92rcd13ifvqbd0","pricing_plan_id":"free"},{"bike_id":"1ac874b6-96fd-4804-ac6b-7d83b00e917f","system_id":"levelo_inurba_marseille","lat":43.299717,"lon":5.384845,"is_reserved":false,"is_disabled":false,"rental_uris":{"android":"levelo://app?vid=1ac874b6-96fd-4804-ac6b-7d83b00e917f","ios":"levelo://app?vid=1ac874b6-96fd-4804-ac6b-7d83b00e917f"},"vehicle_type_id":"4","last_reported":1704543126,"current_range_meters":28000,"station_id":"ce4bgj92rcd13ifvqbd0","pricing_plan_id":"free"},{"bike_id":"b28b4198-f70a-46a1-8157-b80b9fdb985e","system_id":"levelo_inurba_marseille","lat":43.299717,"lon":5.384845,"is_reserved":false,"is_disabled":false,"rental_uris":{"android":"levelo://app?vid=b28b4198-f70a-46a1-8157-b80b9fdb985e","ios":"levelo://app?vid=b28b4198-f70a-46a1-8157-b80b9fdb985e"},"vehicle_type_id":"4","last_reported":1704543126,"current_range_meters":27200,"station_id":"ce4bgj92rcd13ifvqbd0","pricing_plan_id":"free"},{"bike_id":"79ea12ea-641d-47bf-9f14-9ccda86240c2","system_id":"levelo_inurba_marseille","lat":43.299724,"lon":5.384848,"is_reserved":false,"is_disabled":false,"rental_uris":{"android":"levelo://app?vid=79ea12ea-641d-47bf-9f14-9ccda86240c2","ios":"levelo://app?vid=79ea12ea-641d-47bf-9f14-9ccda86240c2"},"vehicle_type_id":"4","last_reported":1704543126,"current_range_meters":21200,"station_id":"ce4bgj92rcd13ifvqbd0","pricing_plan_id":"free"},{"bike_id":"bcc4b4fa-9ac5-4feb-a862-87ac5e76acea","system_id":"levelo_inurba_marseille","lat":43.2936,"lon":5.37835,"is_reserved":false,"is_disabled":false,"rental_uris":{"android":"levelo://app?vid=bcc4b4fa-9ac5-4feb-a862-87ac5e76acea","ios":"levelo://app?vid=bcc4b4fa-9ac5-4feb-a862-87ac5e76acea"},"vehicle_type_id":"4","last_reported":1704543126,"current_range_meters":30800,"station_id":"ce4bgjh2rcd13ifvqbf0","pricing_plan_id":"free"},{"bike_id":"5c64383b-30f1-4378-92f6-ebd7274bec06","system_id":"levelo_inurba_marseille","lat":43.32367,"lon":5.388836,"is_reserved":false,"is_disabled":false,"rental_uris":{"android":"levelo://app?vid=5c64383b-30f1-4378-92f6-ebd7274bec06","ios":"levelo://app?vid=5c64383b-30f1-4378-92f6-ebd7274bec06"},"vehicle_type_id":"4","last_reported":1704543126,"current_range_meters":23600,"station_id":"ce4bhqp2rcd13ifvqhog","pricing_plan_id":"free"},{"bike_id":"4cd573db-c619-49df-be64-bf81925e4048","system_id":"levelo_inurba_marseille","lat":43.29601,"lon":5.381084,"is_reserved":false,"is_disabled":false,"rental_uris":{"android":"levelo://app?vid=4cd573db-c619-49df-be64-bf81925e4048","ios":"levelo://app?vid=4cd573db-c619-49df-be64-bf81925e4048"},"vehicle_type_id":"4","last_reported":1704543126,"current_range_meters":30400,"station_id":"ce4bgl12rcd13ifvqbo0","pricing_plan_id":"free"},{"bike_id":"13866efb-65c2-4f6b-b26a-969c2e36d5c6","system_id":"levelo_inurba_marseille","lat":43.293249,"lon":5.371578,"is_reserved":false,"is_disabled":false,"rental_uris":{"android":"levelo://app?vid=13866efb-65c2-4f6b-b26a-969c2e36d5c6","ios":"levelo://app?vid=13866efb-65c2-4f6b-b26a-969c2e36d5c6"},"vehicle_type_id":"4","last_reported":1704543126,"current_range_meters":19200,"station_id":"ce4bgh92rcd13ifvqb40","pricing_plan_id":"free"},{"bike_id":"e6c8e0a1-05ff-4edd-bae9-438770b8f2bd","system_id":"levelo_inurba_marseille","lat":43.293259,"lon":5.371586,"is_reserved":false,"is_disabled":false,"rental_uris":{"android":"levelo://app?vid=e6c8e0a1-05ff-4edd-bae9-438770b8f2bd","ios":"levelo://app?vid=e6c8e0a1-05ff-4edd-bae9-438770b8f2bd"},"vehicle_type_id":"4","last_reported":1704543126,"current_range_meters":21600,"station_id":"ce4bgh92rcd13ifvqb40","pricing_plan_id":"free"},{"bike_id":"ad74a838-ac3b-4d3f-bb0b-0d4d28e42947","system_id":"levelo_inurba_marseille","lat":43.293009,"lon":5.374584,"is_reserved":false,"is_disabled":false,"rental_uris":{"android":"levelo://app?vid=ad74a838-ac3b-4d3f-bb0b-0d4d28e42947","ios":"levelo://app?vid=ad74a838-ac3b-4d3f-bb0b-0d4d28e42947"},"vehicle_type_id":"4","last_reported":1704543126,"current_range_meters":27600,"station_id":"ce4bgi12rcd13ifvqb70","pricing_plan_id":"free"},{"bike_id":"ee491cb1-d3e4-4775-a77c-dc7222d77e91","system_id":"levelo_inurba_marseille","lat":43.293009,"lon":5.374584,"is_reserved":false,"is_disabled":false,"rental_uris":{"android":"levelo://app?vid=ee491cb1-d3e4-4775-a77c-dc7222d77e91","ios":"levelo://app?vid=ee491cb1-d3e4-4775-a77c-dc7222d77e91"},"vehicle_type_id":"4","last_reported":1704543126,"current_range_meters":18800,"station_id":"ce4bgi12rcd13ifvqb70","pricing_plan_id":"free"},{"bike_id":"cfec66a2-af38-408c-aa6b-e706355c1934","system_id":"levelo_inurba_marseille","lat":43.305994,"lon":5.393687,"is_reserved":false,"is_disabled":false,"rental_uris":{"android":"levelo://app?vid=cfec66a2-af38-408c-aa6b-e706355c1934","ios":"levelo://app?vid=cfec66a2-af38-408c-aa6b-e706355c1934"},"vehicle_type_id":"4","last_reported":1704543126,"current_range_meters":24800,"station_id":"ce4bh0p2rcd13ifvqd80","pricing_plan_id":"free"},{"bike_id":"68c6d7c6-89d6-4dff-97e5-4db5455e9123","system_id":"levelo_inurba_marseille","lat":43.293009,"lon":5.374584,"is_reserved":false,"is_disabled":false,"rental_uris":{"android":"levelo://app?vid=68c6d7c6-89d6-4dff-97e5-4db5455e9123","ios":"levelo://app?vid=68c6d7c6-89d6-4dff-97e5-4db5455e9123"},"vehicle_type_id":"4","last_reported":1704543126,"current_range_meters":30400,"station_id":"ce4bgi12rcd13ifvqb70","pricing_plan_id":"free"},{"bike_id":"a9aa3a61-0aa0-46e8-9daf-37051d3d6499","system_id":"levelo_inurba_marseille","lat":43.293549,"lon":5.377331,"is_reserved":false,"is_disabled":false,"rental_uris":{"android":"levelo://app?vid=a9aa3a61-0aa0-46e8-9daf-37051d3d6499","ios":"levelo://app?vid=a9aa3a61-0aa0-46e8-9daf-37051d3d6499"},"vehicle_type_id":"4","last_reported":1704543126,"current_range_meters":0,"station_id":"","pricing_plan_id":"free"},{"bike_id":"d49891a7-9393-4aea-abc7-40596654b19f","system_id":"levelo_inurba_marseille","lat":43.2936,"lon":5.37835,"is_reserved":false,"is_disabled":false,"rental_uris":{"android":"levelo://app?vid=d49891a7-9393-4aea-abc7-40596654b19f","ios":"levelo://app?vid=d49891a7-9393-4aea-abc7-40596654b19f"},"vehicle_type_id":"4","last_reported":1704543126,"current_range_meters":28000,"station_id":"ce4bgjh2rcd13ifvqbf0","pricing_plan_id":"free"},{"bike_id":"71ce4d6a-b90b-48ec-ad26-b5511d20d353","system_id":"levelo_inurba_marseille","lat":43.2936,"lon":5.37835,"is_reserved":false,"is_disabled":false,"rental_uris":{"android":"levelo://app?vid=71ce4d6a-b90b-48ec-ad26-b5511d20d353","ios":"levelo://app?vid=71ce4d6a-b90b-48ec-ad26-b5511d20d353"},"vehicle_type_id":"4","last_reported":1704543126,"current_range_meters":29200,"station_id":"ce4bgjh2rcd13ifvqbf0","pricing_plan_id":"free"},{"bike_id":"b78268ba-f984-4c25-981e-ddf6b2a67796","system_id":"levelo_inurba_marseille","lat":43.2936,"lon":5.37835,"is_reserved":false,"is_disabled":false,"rental_uris":{"android":"levelo://app?vid=b78268ba-f984-4c25-981e-ddf6b2a67796","ios":"levelo://app?vid=b78268ba-f984-4c25-981e-ddf6b2a67796"},"vehicle_type_id":"4","last_reported":1704543126,"current_range_meters":28800,"station_id":"ce4bgjh2rcd13ifvqbf0","pricing_plan_id":"free"},{"bike_id":"d28b8e36-2859-4c2d-9530-ec694e699de3","system_id":"levelo_inurba_marseille","lat":43.292311,"lon":5.360731,"is_reserved":false,"is_disabled":false,"rental_uris":{"android":"levelo://app?vid=d28b8e36-2859-4c2d-9530-ec694e699de3","ios":"levelo://app?vid=d28b8e36-2859-4c2d-9530-ec694e699de3"},"vehicle_type_id":"4","last_reported":1704543126,"current_range_meters":28400,"station_id":"ce4bhbh2rcd13ifvqeqg","pricing_plan_id":"free"},{"bike_id":"6466fe78-3a89-4002-af50-b3d619f5eabf","system_id":"levelo_inurba_marseille","lat":43.29223,"lon":5.36057,"is_reserved":false,"is_disabled":false,"rental_uris":{"android":"levelo://app?vid=6466fe78-3a89-4002-af50-b3d619f5eabf","ios":"levelo://app?vid=6466fe78-3a89-4002-af50-b3d619f5eabf"},"vehicle_type_id":"4","last_reported":1704543126,"current_range_meters":19200,"station_id":"ce4bhbh2rcd13ifvqeqg","pricing_plan_id":"free"},{"bike_id":"0d55302f-669a-42f4-8bdb-7dda33a8ff04","system_id":"levelo_inurba_marseille","lat":43.29208,"lon":5.36035,"is_reserved":false,"is_disabled":false,"rental_uris":{"android":"levelo://app?vid=0d55302f-669a-42f4-8bdb-7dda33a8ff04","ios":"levelo://app?vid=0d55302f-669a-42f4-8bdb-7dda33a8ff04"},"vehicle_type_id":"4","last_reported":1704543126,"current_range_meters":17600,"station_id":"ce4bhbh2rcd13ifvqeqg","pricing_plan_id":"free"},{"bike_id":"638cb32e-1864-4764-adf4-99a005c4b5cd","system_id":"levelo_inurba_marseille","lat":43.291675,"lon":5.371583,"is_reserved":false,"is_disabled":false,"rental_uris":{"android":"levelo://app?vid=638cb32e-1864-4764-adf4-99a005c4b5cd","ios":"levelo://app?vid=638cb32e-1864-4764-adf4-99a005c4b5cd"},"vehicle_type_id":"4","last_reported":1704543126,"current_range_meters":18000,"station_id":"ce4bha92rcd13ifvqeh0","pricing_plan_id":"free"},{"bike_id":"483bac8b-8503-42b9-91e8-c25cceab8f93","system_id":"levelo_inurba_marseille","lat":43.302108,"lon":5.392893,"is_reserved":false,"is_disabled":false,"rental_uris":{"android":"levelo://app?vid=483bac8b-8503-42b9-91e8-c25cceab8f93","ios":"levelo://app?vid=483bac8b-8503-42b9-91e8-c25cceab8f93"},"vehicle_type_id":"4","last_reported":1704543126,"current_range_meters":30000,"station_id":"","pricing_plan_id":"free"},{"bike_id":"1b67dfe0-b301-4d31-bb63-92d5f4be328a","system_id":"levelo_inurba_marseille","lat":43.291994,"lon":5.357886,"is_reserved":false,"is_disabled":false,"rental_uris":{"android":"levelo://app?vid=1b67dfe0-b301-4d31-bb63-92d5f4be328a","ios":"levelo://app?vid=1b67dfe0-b301-4d31-bb63-92d5f4be328a"},"vehicle_type_id":"4","last_reported":1704543126,"current_range_meters":8400,"station_id":"ce4bhb12rcd13ifvqel0","pricing_plan_id":"free"},{"bike_id":"f78e7baf-4983-4535-8aa9-d1707f7f02b9","system_id":"levelo_inurba_marseille","lat":43.29193,"lon":5.35798,"is_reserved":false,"is_disabled":false,"rental_uris":{"android":"levelo://app?vid=f78e7baf-4983-4535-8aa9-d1707f7f02b9","ios":"levelo://app?vid=f78e7baf-4983-4535-8aa9-d1707f7f02b9"},"vehicle_type_id":"4","last_reported":1704543126,"current_range_meters":22000,"station_id":"ce4bhb12rcd13ifvqel0","pricing_plan_id":"free"},{"bike_id":"23e7a9db-5fc9-4888-8940-11cf40f2b052","system_id":"levelo_inurba_marseille","lat":43.313291,"lon":5.396838,"is_reserved":false,"is_disabled":false,"rental_uris":{"android":"levelo://app?vid=23e7a9db-5fc9-4888-8940-11cf40f2b052","ios":"levelo://app?vid=23e7a9db-5fc9-4888-8940-11cf40f2b052"},"vehicle_type_id":"4","last_reported":1704543126,"current_range_meters":20000,"station_id":"ce4bgvp2rcd13ifvqcu0","pricing_plan_id":"free"},{"bike_id":"260aabdf-0df8-4e48-8644-5a4749ca884c","system_id":"levelo_inurba_marseille","lat":43.291994,"lon":5.357886,"is_reserved":false,"is_disabled":false,"rental_uris":{"android":"levelo://app?vid=260aabdf-0df8-4e48-8644-5a4749ca884c","ios":"levelo://app?vid=260aabdf-0df8-4e48-8644-5a4749ca884c"},"vehicle_type_id":"4","last_reported":1704543126,"current_range_meters":16400,"station_id":"ce4bhb12rcd13ifvqel0","pricing_plan_id":"free"},{"bike_id":"3120e9f8-7c30-4b19-91ec-f9314b2d25b3","system_id":"levelo_inurba_marseille","lat":43.313291,"lon":5.396838,"is_reserved":false,"is_disabled":false,"rental_uris":{"android":"levelo://app?vid=3120e9f8-7c30-4b19-91ec-f9314b2d25b3","ios":"levelo://app?vid=3120e9f8-7c30-4b19-91ec-f9314b2d25b3"},"vehicle_type_id":"4","last_reported":1704543126,"current_range_meters":24000,"station_id":"ce4bgvp2rcd13ifvqcu0","pricing_plan_id":"free"},{"bike_id":"b1f6a4d4-4035-4acf-a16a-278b5b875ac1","system_id":"levelo_inurba_marseille","lat":43.309038,"lon":5.396546,"is_reserved":false,"is_disabled":false,"rental_uris":{"android":"levelo://app?vid=b1f6a4d4-4035-4acf-a16a-278b5b875ac1","ios":"levelo://app?vid=b1f6a4d4-4035-4acf-a16a-278b5b875ac1"},"vehicle_type_id":"4","last_reported":1704543126,"current_range_meters":24000,"station_id":"ce4bh012rcd13ifvqcv0","pricing_plan_id":"free"},{"bike_id":"4a9311c4-4db5-4367-b1f7-d435bd185033","system_id":"levelo_inurba_marseille","lat":43.33273,"lon":5.37989,"is_reserved":false,"is_disabled":false,"rental_uris":{"android":"levelo://app?vid=4a9311c4-4db5-4367-b1f7-d435bd185033","ios":"levelo://app?vid=4a9311c4-4db5-4367-b1f7-d435bd185033"},"vehicle_type_id":"4","last_reported":1704543126,"current_range_meters":0,"station_id":"","pricing_plan_id":"free"},{"bike_id":"4ebb5191-e6dd-47fc-9243-6c323a5f2cdf","system_id":"levelo_inurba_marseille","lat":43.290327,"lon":5.375711,"is_reserved":false,"is_disabled":false,"rental_uris":{"android":"levelo://app?vid=4ebb5191-e6dd-47fc-9243-6c323a5f2cdf","ios":"levelo://app?vid=4ebb5191-e6dd-47fc-9243-6c323a5f2cdf"},"vehicle_type_id":"4","last_reported":1704543126,"current_range_meters":26800,"station_id":"ce4bh692rcd13ifvqe90","pricing_plan_id":"free"},{"bike_id":"d4801ba1-f833-45ac-9a93-76351fd966ab","system_id":"levelo_inurba_marseille","lat":43.294153,"lon":5.386305,"is_reserved":false,"is_disabled":false,"rental_uris":{"android":"levelo://app?vid=d4801ba1-f833-45ac-9a93-76351fd966ab","ios":"levelo://app?vid=d4801ba1-f833-45ac-9a93-76351fd966ab"},"vehicle_type_id":"4","last_reported":1704543126,"current_range_meters":18000,"station_id":"ce4bh2h2rcd13ifvqdh0","pricing_plan_id":"free"},{"bike_id":"c892a230-1e85-4b31-bfa6-973ebb5680b0","system_id":"levelo_inurba_marseille","lat":43.292642,"lon":5.384254,"is_reserved":false,"is_disabled":false,"rental_uris":{"android":"levelo://app?vid=c892a230-1e85-4b31-bfa6-973ebb5680b0","ios":"levelo://app?vid=c892a230-1e85-4b31-bfa6-973ebb5680b0"},"vehicle_type_id":"4","last_reported":1704543126,"current_range_meters":12800,"station_id":"ce4bh692rcd13ifvqea0","pricing_plan_id":"free"},{"bike_id":"ec83bef7-f01a-45d1-8fb2-035abe06880a","system_id":"levelo_inurba_marseille","lat":43.289468,"lon":5.363719,"is_reserved":false,"is_disabled":false,"rental_uris":{"android":"levelo://app?vid=ec83bef7-f01a-45d1-8fb2-035abe06880a","ios":"levelo://app?vid=ec83bef7-f01a-45d1-8fb2-035abe06880a"},"vehicle_type_id":"4","last_reported":1704543126,"current_range_meters":19200,"station_id":"ce4bhc92rcd13ifvqetg","pricing_plan_id":"free"},{"bike_id":"42cdbcb2-801a-472f-8a35-a9fa6311619b","system_id":"levelo_inurba_marseille","lat":43.289468,"lon":5.363719,"is_reserved":false,"is_disabled":false,"rental_uris":{"android":"levelo://app?vid=42cdbcb2-801a-472f-8a35-a9fa6311619b","ios":"levelo://app?vid=42cdbcb2-801a-472f-8a35-a9fa6311619b"},"vehicle_type_id":"4","last_reported":1704543126,"current_range_meters":30400,"station_id":"ce4bhc92rcd13ifvqetg","pricing_plan_id":"free"},{"bike_id":"eb60ebb4-28a5-457f-9113-dcedd7ffe203","system_id":"levelo_inurba_marseille","lat":43.304296,"lon":5.397513,"is_reserved":false,"is_disabled":false,"rental_uris":{"android":"levelo://app?vid=eb60ebb4-28a5-457f-9113-dcedd7ffe203","ios":"levelo://app?vid=eb60ebb4-28a5-457f-9113-dcedd7ffe203"},"vehicle_type_id":"4","last_reported":1704543126,"current_range_meters":25200,"station_id":"ce4bh092rcd13ifvqd20","pricing_plan_id":"free"},{"bike_id":"cfa2f244-ff13-4743-8e66-15ce7ae6119d","system_id":"levelo_inurba_marseille","lat":43.2901,"lon":5.381269,"is_reserved":false,"is_disabled":false,"rental_uris":{"android":"levelo://app?vid=cfa2f244-ff13-4743-8e66-15ce7ae6119d","ios":"levelo://app?vid=cfa2f244-ff13-4743-8e66-15ce7ae6119d"},"vehicle_type_id":"4","last_reported":1704543126,"current_range_meters":26400,"station_id":"ce4bh4p2rcd13ifvqe1g","pricing_plan_id":"free"},{"bike_id":"448a02e4-b142-4b16-aa03-ef5e6742edb8","system_id":"levelo_inurba_marseille","lat":43.290103,"lon":5.356114,"is_reserved":false,"is_disabled":false,"rental_uris":{"android":"levelo://app?vid=448a02e4-b142-4b16-aa03-ef5e6742edb8","ios":"levelo://app?vid=448a02e4-b142-4b16-aa03-ef5e6742edb8"},"vehicle_type_id":"4","last_reported":1704543126,"current_range_meters":26800,"station_id":"ce4bhb92rcd13ifvqen0","pricing_plan_id":"free"},{"bike_id":"5d01b684-28ce-4c37-bcf8-e97f6b2cb9be","system_id":"levelo_inurba_marseille","lat":43.290104,"lon":5.356111,"is_reserved":false,"is_disabled":false,"rental_uris":{"android":"levelo://app?vid=5d01b684-28ce-4c37-bcf8-e97f6b2cb9be","ios":"levelo://app?vid=5d01b684-28ce-4c37-bcf8-e97f6b2cb9be"},"vehicle_type_id":"4","last_reported":1704543126,"current_range_meters":31200,"station_id":"ce4bhb92rcd13ifvqen0","pricing_plan_id":"free"},{"bike_id":"c58bcad1-11d5-46e2-aebd-e1fbe92a7012","system_id":"levelo_inurba_marseille","lat":43.28988,"lon":5.37818,"is_reserved":false,"is_disabled":false,"rental_uris":{"android":"levelo://app?vid=c58bcad1-11d5-46e2-aebd-e1fbe92a7012","ios":"levelo://app?vid=c58bcad1-11d5-46e2-aebd-e1fbe92a7012"},"vehicle_type_id":"4","last_reported":1704543126,"current_range_meters":0,"station_id":"ce4bh9p2rcd13ifvqed0","pricing_plan_id":"free"},{"bike_id":"c8f1c66d-517e-47cd-8c74-1fbdb664b117","system_id":"levelo_inurba_marseille","lat":43.330442,"lon":5.389148,"is_reserved":false,"is_disabled":false,"rental_uris":{"android":"levelo://app?vid=c8f1c66d-517e-47cd-8c74-1fbdb664b117","ios":"levelo://app?vid=c8f1c66d-517e-47cd-8c74-1fbdb664b117"},"vehicle_type_id":"4","last_reported":1704543126,"current_range_meters":18800,"station_id":"ce4bhr92rcd13ifvqhrg","pricing_plan_id":"free"},{"bike_id":"db1033e7-d202-408d-8fcc-78dc2d4afb4d","system_id":"levelo_inurba_marseille","lat":43.330442,"lon":5.389148,"is_reserved":false,"is_disabled":false,"rental_uris":{"android":"levelo://app?vid=db1033e7-d202-408d-8fcc-78dc2d4afb4d","ios":"levelo://app?vid=db1033e7-d202-408d-8fcc-78dc2d4afb4d"},"vehicle_type_id":"4","last_reported":1704543126,"current_range_meters":19600,"station_id":"ce4bhr92rcd13ifvqhrg","pricing_plan_id":"free"},{"bike_id":"6c5eebbe-3606-40f4-b51a-cdf8266c0074","system_id":"levelo_inurba_marseille","lat":43.330442,"lon":5.389148,"is_reserved":false,"is_disabled":false,"rental_uris":{"android":"levelo://app?vid=6c5eebbe-3606-40f4-b51a-cdf8266c0074","ios":"levelo://app?vid=6c5eebbe-3606-40f4-b51a-cdf8266c0074"},"vehicle_type_id":"4","last_reported":1704543126,"current_range_meters":13200,"station_id":"ce4bhr92rcd13ifvqhrg","pricing_plan_id":"free"},{"bike_id":"42a2d22f-ce67-446d-ab38-453f93bc49fa","system_id":"levelo_inurba_marseille","lat":43.330442,"lon":5.389148,"is_reserved":false,"is_disabled":false,"rental_uris":{"android":"levelo://app?vid=42a2d22f-ce67-446d-ab38-453f93bc49fa","ios":"levelo://app?vid=42a2d22f-ce67-446d-ab38-453f93bc49fa"},"vehicle_type_id":"4","last_reported":1704543126,"current_range_meters":17200,"station_id":"ce4bhr92rcd13ifvqhrg","pricing_plan_id":"free"},{"bike_id":"22a5df5d-e54b-40c7-bcb5-b15796202a79","system_id":"levelo_inurba_marseille","lat":43.28977,"lon":5.37829,"is_reserved":false,"is_disabled":false,"rental_uris":{"android":"levelo://app?vid=22a5df5d-e54b-40c7-bcb5-b15796202a79","ios":"levelo://app?vid=22a5df5d-e54b-40c7-bcb5-b15796202a79"},"vehicle_type_id":"4","last_reported":1704543126,"current_range_meters":27200,"station_id":"ce4bh9p2rcd13ifvqed0","pricing_plan_id":"free"},{"bike_id":"8de6259e-b5f0-4e36-9bf6-ac4ca3e78218","system_id":"levelo_inurba_marseille","lat":43.330442,"lon":5.389148,"is_reserved":false,"is_disabled":false,"rental_uris":{"android":"levelo://app?vid=8de6259e-b5f0-4e36-9bf6-ac4ca3e78218","ios":"levelo://app?vid=8de6259e-b5f0-4e36-9bf6-ac4ca3e78218"},"vehicle_type_id":"4","last_reported":1704543126,"current_range_meters":30800,"station_id":"ce4bhr92rcd13ifvqhrg","pricing_plan_id":"free"},{"bike_id":"c66c3696-5d1b-4cf7-8856-36c6313e824c","system_id":"levelo_inurba_marseille","lat":43.330442,"lon":5.389148,"is_reserved":false,"is_disabled":false,"rental_uris":{"android":"levelo://app?vid=c66c3696-5d1b-4cf7-8856-36c6313e824c","ios":"levelo://app?vid=c66c3696-5d1b-4cf7-8856-36c6313e824c"},"vehicle_type_id":"4","last_reported":1704543126,"current_range_meters":30800,"station_id":"ce4bhr92rcd13ifvqhrg","pricing_plan_id":"free"},{"bike_id":"5c0e221b-54dc-4307-a6ad-cc1692cf4df3","system_id":"levelo_inurba_marseille","lat":43.330442,"lon":5.389148,"is_reserved":false,"is_disabled":false,"rental_uris":{"android":"levelo://app?vid=5c0e221b-54dc-4307-a6ad-cc1692cf4df3","ios":"levelo://app?vid=5c0e221b-54dc-4307-a6ad-cc1692cf4df3"},"vehicle_type_id":"4","last_reported":1704543126,"current_range_meters":19600,"station_id":"ce4bhr92rcd13ifvqhrg","pricing_plan_id":"free"},{"bike_id":"57a59c67-703f-4a83-aae5-f27109cb99b9","system_id":"levelo_inurba_marseille","lat":43.330442,"lon":5.389148,"is_reserved":false,"is_disabled":false,"rental_uris":{"android":"levelo://app?vid=57a59c67-703f-4a83-aae5-f27109cb99b9","ios":"levelo://app?vid=57a59c67-703f-4a83-aae5-f27109cb99b9"},"vehicle_type_id":"4","last_reported":1704543126,"current_range_meters":22800,"station_id":"ce4bhr92rcd13ifvqhrg","pricing_plan_id":"free"},{"bike_id":"604d70e1-4bfc-4c1a-ad50-5c45b428d61e","system_id":"levelo_inurba_marseille","lat":43.330442,"lon":5.389148,"is_reserved":false,"is_disabled":false,"rental_uris":{"android":"levelo://app?vid=604d70e1-4bfc-4c1a-ad50-5c45b428d61e","ios":"levelo://app?vid=604d70e1-4bfc-4c1a-ad50-5c45b428d61e"},"vehicle_type_id":"4","last_reported":1704543126,"current_range_meters":24000,"station_id":"ce4bhr92rcd13ifvqhrg","pricing_plan_id":"free"},{"bike_id":"50a06571-ee32-4006-8417-dd8ead2ab8e4","system_id":"levelo_inurba_marseille","lat":43.33019,"lon":5.3905,"is_reserved":false,"is_disabled":false,"rental_uris":{"android":"levelo://app?vid=50a06571-ee32-4006-8417-dd8ead2ab8e4","ios":"levelo://app?vid=50a06571-ee32-4006-8417-dd8ead2ab8e4"},"vehicle_type_id":"4","last_reported":1704543126,"current_range_meters":29600,"station_id":"ce4bhr92rcd13ifvqhrg","pricing_plan_id":"free"},{"bike_id":"8625464e-66d0-4621-bd34-1a2874fb7a19","system_id":"levelo_inurba_marseille","lat":43.330442,"lon":5.389148,"is_reserved":false,"is_disabled":false,"rental_uris":{"android":"levelo://app?vid=8625464e-66d0-4621-bd34-1a2874fb7a19","ios":"levelo://app?vid=8625464e-66d0-4621-bd34-1a2874fb7a19"},"vehicle_type_id":"4","last_reported":1704543126,"current_range_meters":11600,"station_id":"ce4bhr92rcd13ifvqhrg","pricing_plan_id":"free"},{"bike_id":"c68c4e16-cf93-49a2-b6f5-472dd9c9c8c0","system_id":"levelo_inurba_marseille","lat":43.289741,"lon":5.378306,"is_reserved":false,"is_disabled":false,"rental_uris":{"android":"levelo://app?vid=c68c4e16-cf93-49a2-b6f5-472dd9c9c8c0","ios":"levelo://app?vid=c68c4e16-cf93-49a2-b6f5-472dd9c9c8c0"},"vehicle_type_id":"4","last_reported":1704543126,"current_range_meters":21600,"station_id":"ce4bh9p2rcd13ifvqed0","pricing_plan_id":"free"},{"bike_id":"d6262992-60ab-49f2-a527-545079dabe25","system_id":"levelo_inurba_marseille","lat":43.2901,"lon":5.381269,"is_reserved":false,"is_disabled":false,"rental_uris":{"android":"levelo://app?vid=d6262992-60ab-49f2-a527-545079dabe25","ios":"levelo://app?vid=d6262992-60ab-49f2-a527-545079dabe25"},"vehicle_type_id":"4","last_reported":1704543126,"current_range_meters":29600,"station_id":"ce4bh4p2rcd13ifvqe1g","pricing_plan_id":"free"},{"bike_id":"52f99b64-46a9-4289-a172-e3aded01fbd3","system_id":"levelo_inurba_marseille","lat":43.290094,"lon":5.381264,"is_reserved":false,"is_disabled":false,"rental_uris":{"android":"levelo://app?vid=52f99b64-46a9-4289-a172-e3aded01fbd3","ios":"levelo://app?vid=52f99b64-46a9-4289-a172-e3aded01fbd3"},"vehicle_type_id":"4","last_reported":1704543126,"current_range_meters":24800,"station_id":"ce4bh4p2rcd13ifvqe1g","pricing_plan_id":"free"},{"bike_id":"3ab4e673-5881-40cc-972c-ad362189393f","system_id":"levelo_inurba_marseille","lat":43.290094,"lon":5.381264,"is_reserved":false,"is_disabled":false,"rental_uris":{"android":"levelo://app?vid=3ab4e673-5881-40cc-972c-ad362189393f","ios":"levelo://app?vid=3ab4e673-5881-40cc-972c-ad362189393f"},"vehicle_type_id":"4","last_reported":1704543126,"current_range_meters":24000,"station_id":"ce4bh4p2rcd13ifvqe1g","pricing_plan_id":"free"},{"bike_id":"783f3d8e-7de2-490c-8f2a-1521bbd49566","system_id":"levelo_inurba_marseille","lat":43.30642,"lon":5.401031,"is_reserved":false,"is_disabled":false,"rental_uris":{"android":"levelo://app?vid=783f3d8e-7de2-490c-8f2a-1521bbd49566","ios":"levelo://app?vid=783f3d8e-7de2-490c-8f2a-1521bbd49566"},"vehicle_type_id":"4","last_reported":1704543126,"current_range_meters":14000,"station_id":"ce4bh112rcd13ifvqda0","pricing_plan_id":"free"},{"bike_id":"15a304ba-385a-4562-aef4-66ad2574f1ae","system_id":"levelo_inurba_marseille","lat":43.30642,"lon":5.401031,"is_reserved":false,"is_disabled":false,"rental_uris":{"android":"levelo://app?vid=15a304ba-385a-4562-aef4-66ad2574f1ae","ios":"levelo://app?vid=15a304ba-385a-4562-aef4-66ad2574f1ae"},"vehicle_type_id":"4","last_reported":1704543126,"current_range_meters":18400,"station_id":"ce4bh112rcd13ifvqda0","pricing_plan_id":"free"},{"bike_id":"dc103682-9549-4801-b11c-87faf10a6952","system_id":"levelo_inurba_marseille","lat":43.306412,"lon":5.401035,"is_reserved":false,"is_disabled":false,"rental_uris":{"android":"levelo://app?vid=dc103682-9549-4801-b11c-87faf10a6952","ios":"levelo://app?vid=dc103682-9549-4801-b11c-87faf10a6952"},"vehicle_type_id":"4","last_reported":1704543126,"current_range_meters":22400,"station_id":"ce4bh112rcd13ifvqda0","pricing_plan_id":"free"},{"bike_id":"21fe0d90-f257-4b12-afcd-c708280158e3","system_id":"levelo_inurba_marseille","lat":43.301117,"lon":5.398795,"is_reserved":false,"is_disabled":false,"rental_uris":{"android":"levelo://app?vid=21fe0d90-f257-4b12-afcd-c708280158e3","ios":"levelo://app?vid=21fe0d90-f257-4b12-afcd-c708280158e3"},"vehicle_type_id":"4","last_reported":1704543126,"current_range_meters":26000,"station_id":"ce4bh0h2rcd13ifvqd40","pricing_plan_id":"free"},{"bike_id":"046da006-9c36-4b9c-b672-07aefaece507","system_id":"levelo_inurba_marseille","lat":43.298681,"lon":5.397225,"is_reserved":false,"is_disabled":false,"rental_uris":{"android":"levelo://app?vid=046da006-9c36-4b9c-b672-07aefaece507","ios":"levelo://app?vid=046da006-9c36-4b9c-b672-07aefaece507"},"vehicle_type_id":"4","last_reported":1704543126,"current_range_meters":6800,"station_id":"ce4bh0h2rcd13ifvqd50","pricing_plan_id":"free"},{"bike_id":"dbafbe5f-e662-4b1e-8ca7-c39aca794de2","system_id":"levelo_inurba_marseille","lat":43.29867,"lon":5.39741,"is_reserved":false,"is_disabled":false,"rental_uris":{"android":"levelo://app?vid=dbafbe5f-e662-4b1e-8ca7-c39aca794de2","ios":"levelo://app?vid=dbafbe5f-e662-4b1e-8ca7-c39aca794de2"},"vehicle_type_id":"4","last_reported":1704543126,"current_range_meters":0,"station_id":"ce4bh0h2rcd13ifvqd50","pricing_plan_id":"free"},{"bike_id":"56443c53-dcb1-40b8-926c-dfaa9b601fb7","system_id":"levelo_inurba_marseille","lat":43.28695,"lon":5.37392,"is_reserved":false,"is_disabled":false,"rental_uris":{"android":"levelo://app?vid=56443c53-dcb1-40b8-926c-dfaa9b601fb7","ios":"levelo://app?vid=56443c53-dcb1-40b8-926c-dfaa9b601fb7"},"vehicle_type_id":"4","last_reported":1704543126,"current_range_meters":20000,"station_id":"ce4bh3p2rcd13ifvqdq0","pricing_plan_id":"free"},{"bike_id":"18555c5c-abce-4abd-b408-13a26cc8b891","system_id":"levelo_inurba_marseille","lat":43.302759,"lon":5.400793,"is_reserved":false,"is_disabled":false,"rental_uris":{"android":"levelo://app?vid=18555c5c-abce-4abd-b408-13a26cc8b891","ios":"levelo://app?vid=18555c5c-abce-4abd-b408-13a26cc8b891"},"vehicle_type_id":"4","last_reported":1704543126,"current_range_meters":26800,"station_id":"ce4bgvh2rcd13ifvqcs0","pricing_plan_id":"free"},{"bike_id":"25485c57-4857-46d4-a7d6-1c315b7232b6","system_id":"levelo_inurba_marseille","lat":43.290345,"lon":5.38646,"is_reserved":false,"is_disabled":false,"rental_uris":{"android":"levelo://app?vid=25485c57-4857-46d4-a7d6-1c315b7232b6","ios":"levelo://app?vid=25485c57-4857-46d4-a7d6-1c315b7232b6"},"vehicle_type_id":"4","last_reported":1704543126,"current_range_meters":2800,"station_id":"ce4bh4p2rcd13ifvqe0g","pricing_plan_id":"free"},{"bike_id":"82434316-f525-4096-900e-b4adc29c65b7","system_id":"levelo_inurba_marseille","lat":43.291994,"lon":5.392907,"is_reserved":false,"is_disabled":false,"rental_uris":{"android":"levelo://app?vid=82434316-f525-4096-900e-b4adc29c65b7","ios":"levelo://app?vid=82434316-f525-4096-900e-b4adc29c65b7"},"vehicle_type_id":"4","last_reported":1704543126,"current_range_meters":26400,"station_id":"ce4bh192rcd13ifvqdd0","pricing_plan_id":"free"},{"bike_id":"f5da93ad-0983-4f6c-885e-b1e38fc0b9bf","system_id":"levelo_inurba_marseille","lat":43.284534,"lon":5.358662,"is_reserved":false,"is_disabled":false,"rental_uris":{"android":"levelo://app?vid=f5da93ad-0983-4f6c-885e-b1e38fc0b9bf","ios":"levelo://app?vid=f5da93ad-0983-4f6c-885e-b1e38fc0b9bf"},"vehicle_type_id":"4","last_reported":1704543126,"current_range_meters":30000,"station_id":"ce4bhah2rcd13ifvqei0","pricing_plan_id":"free"},{"bike_id":"df06724d-2c48-4f33-a9b8-50f835185d5a","system_id":"levelo_inurba_marseille","lat":43.284538,"lon":5.358657,"is_reserved":false,"is_disabled":false,"rental_uris":{"android":"levelo://app?vid=df06724d-2c48-4f33-a9b8-50f835185d5a","ios":"levelo://app?vid=df06724d-2c48-4f33-a9b8-50f835185d5a"},"vehicle_type_id":"4","last_reported":1704543126,"current_range_meters":16400,"station_id":"ce4bhah2rcd13ifvqei0","pricing_plan_id":"free"},{"bike_id":"0d654698-630c-42ea-8e11-8c834181e9fd","system_id":"levelo_inurba_marseille","lat":43.2846,"lon":5.359,"is_reserved":false,"is_disabled":false,"rental_uris":{"android":"levelo://app?vid=0d654698-630c-42ea-8e11-8c834181e9fd","ios":"levelo://app?vid=0d654698-630c-42ea-8e11-8c834181e9fd"},"vehicle_type_id":"4","last_reported":1704543126,"current_range_meters":29600,"station_id":"ce4bhah2rcd13ifvqei0","pricing_plan_id":"free"},{"bike_id":"c819b083-45aa-41cb-9ae2-466978dfb81a","system_id":"levelo_inurba_marseille","lat":43.294314,"lon":5.397498,"is_reserved":false,"is_disabled":false,"rental_uris":{"android":"levelo://app?vid=c819b083-45aa-41cb-9ae2-466978dfb81a","ios":"levelo://app?vid=c819b083-45aa-41cb-9ae2-466978dfb81a"},"vehicle_type_id":"4","last_reported":1704543126,"current_range_meters":25200,"station_id":"ce4bh3h2rcd13ifvqdo0","pricing_plan_id":"free"},{"bike_id":"33d2ef93-ecdc-4950-811e-45392036276a","system_id":"levelo_inurba_marseille","lat":43.294314,"lon":5.397498,"is_reserved":false,"is_disabled":false,"rental_uris":{"android":"levelo://app?vid=33d2ef93-ecdc-4950-811e-45392036276a","ios":"levelo://app?vid=33d2ef93-ecdc-4950-811e-45392036276a"},"vehicle_type_id":"4","last_reported":1704543126,"current_range_meters":15600,"station_id":"ce4bh3h2rcd13ifvqdo0","pricing_plan_id":"free"},{"bike_id":"e7d08906-0d87-4715-8ffa-bdb9be03abd3","system_id":"levelo_inurba_marseille","lat":43.285856,"lon":5.350771,"is_reserved":false,"is_disabled":false,"rental_uris":{"android":"levelo://app?vid=e7d08906-0d87-4715-8ffa-bdb9be03abd3","ios":"levelo://app?vid=e7d08906-0d87-4715-8ffa-bdb9be03abd3"},"vehicle_type_id":"4","last_reported":1704543126,"current_range_meters":22000,"station_id":"ce4bhch2rcd13ifvqeug","pricing_plan_id":"free"},{"bike_id":"a8ba5dfd-2657-46d0-93ae-350274875d66","system_id":"levelo_inurba_marseille","lat":43.285856,"lon":5.350771,"is_reserved":false,"is_disabled":false,"rental_uris":{"android":"levelo://app?vid=a8ba5dfd-2657-46d0-93ae-350274875d66","ios":"levelo://app?vid=a8ba5dfd-2657-46d0-93ae-350274875d66"},"vehicle_type_id":"4","last_reported":1704543126,"current_range_meters":22400,"station_id":"ce4bhch2rcd13ifvqeug","pricing_plan_id":"free"},{"bike_id":"77dcd9db-8541-482e-80ea-3465701dc93c","system_id":"levelo_inurba_marseille","lat":43.285856,"lon":5.350771,"is_reserved":false,"is_disabled":false,"rental_uris":{"android":"levelo://app?vid=77dcd9db-8541-482e-80ea-3465701dc93c","ios":"levelo://app?vid=77dcd9db-8541-482e-80ea-3465701dc93c"},"vehicle_type_id":"4","last_reported":1704543126,"current_range_meters":19600,"station_id":"ce4bhch2rcd13ifvqeug","pricing_plan_id":"free"},{"bike_id":"01e59b64-29e9-4e48-86ad-7a3b4b582e04","system_id":"levelo_inurba_marseille","lat":43.285856,"lon":5.350771,"is_reserved":false,"is_disabled":false,"rental_uris":{"android":"levelo://app?vid=01e59b64-29e9-4e48-86ad-7a3b4b582e04","ios":"levelo://app?vid=01e59b64-29e9-4e48-86ad-7a3b4b582e04"},"vehicle_type_id":"4","last_reported":1704543126,"current_range_meters":30800,"station_id":"ce4bhch2rcd13ifvqeug","pricing_plan_id":"free"},{"bike_id":"43b3ea92-a636-409a-a2bf-2cfcdf83346d","system_id":"levelo_inurba_marseille","lat":43.285856,"lon":5.350771,"is_reserved":false,"is_disabled":false,"rental_uris":{"android":"levelo://app?vid=43b3ea92-a636-409a-a2bf-2cfcdf83346d","ios":"levelo://app?vid=43b3ea92-a636-409a-a2bf-2cfcdf83346d"},"vehicle_type_id":"4","last_reported":1704543126,"current_range_meters":28800,"station_id":"ce4bhch2rcd13ifvqeug","pricing_plan_id":"free"},{"bike_id":"5688a380-9bf4-41fc-824e-d906fd2a2179","system_id":"levelo_inurba_marseille","lat":43.285856,"lon":5.350771,"is_reserved":false,"is_disabled":false,"rental_uris":{"android":"levelo://app?vid=5688a380-9bf4-41fc-824e-d906fd2a2179","ios":"levelo://app?vid=5688a380-9bf4-41fc-824e-d906fd2a2179"},"vehicle_type_id":"4","last_reported":1704543126,"current_range_meters":18000,"station_id":"ce4bhch2rcd13ifvqeug","pricing_plan_id":"free"},{"bike_id":"9b40d70f-b9ee-4916-8add-ab1d5d4f4bbb","system_id":"levelo_inurba_marseille","lat":43.285856,"lon":5.350771,"is_reserved":false,"is_disabled":false,"rental_uris":{"android":"levelo://app?vid=9b40d70f-b9ee-4916-8add-ab1d5d4f4bbb","ios":"levelo://app?vid=9b40d70f-b9ee-4916-8add-ab1d5d4f4bbb"},"vehicle_type_id":"4","last_reported":1704543126,"current_range_meters":24400,"station_id":"ce4bhch2rcd13ifvqeug","pricing_plan_id":"free"},{"bike_id":"b0d9c37a-12b7-4fcf-b2cc-70034df7a04b","system_id":"levelo_inurba_marseille","lat":43.29819,"lon":5.4017,"is_reserved":false,"is_disabled":false,"rental_uris":{"android":"levelo://app?vid=b0d9c37a-12b7-4fcf-b2cc-70034df7a04b","ios":"levelo://app?vid=b0d9c37a-12b7-4fcf-b2cc-70034df7a04b"},"vehicle_type_id":"4","last_reported":1704543126,"current_range_meters":4000,"station_id":"","pricing_plan_id":"free"},{"bike_id":"67c72f4a-7b31-4bdf-9850-ae2a821d6828","system_id":"levelo_inurba_marseille","lat":43.2841,"lon":5.37514,"is_reserved":false,"is_disabled":false,"rental_uris":{"android":"levelo://app?vid=67c72f4a-7b31-4bdf-9850-ae2a821d6828","ios":"levelo://app?vid=67c72f4a-7b31-4bdf-9850-ae2a821d6828"},"vehicle_type_id":"4","last_reported":1704543126,"current_range_meters":20800,"station_id":"ce4bh412rcd13ifvqds0","pricing_plan_id":"free"},{"bike_id":"a8019ab3-e51e-46ce-a07d-c71d953d4f74","system_id":"levelo_inurba_marseille","lat":43.28411,"lon":5.37521,"is_reserved":false,"is_disabled":false,"rental_uris":{"android":"levelo://app?vid=a8019ab3-e51e-46ce-a07d-c71d953d4f74","ios":"levelo://app?vid=a8019ab3-e51e-46ce-a07d-c71d953d4f74"},"vehicle_type_id":"4","last_reported":1704543126,"current_range_meters":6000,"station_id":"ce4bh412rcd13ifvqds0","pricing_plan_id":"free"},{"bike_id":"b60fc089-3a06-4a5b-bf59-6ac03c73160b","system_id":"levelo_inurba_marseille","lat":43.295713,"lon":5.399639,"is_reserved":false,"is_disabled":false,"rental_uris":{"android":"levelo://app?vid=b60fc089-3a06-4a5b-bf59-6ac03c73160b","ios":"levelo://app?vid=b60fc089-3a06-4a5b-bf59-6ac03c73160b"},"vehicle_type_id":"4","last_reported":1704543126,"current_range_meters":28400,"station_id":"ce4bh312rcd13ifvqdj0","pricing_plan_id":"free"},{"bike_id":"d7333d1c-2ef3-48be-96fa-44eed520e3b8","system_id":"levelo_inurba_marseille","lat":43.286595,"lon":5.386795,"is_reserved":false,"is_disabled":false,"rental_uris":{"android":"levelo://app?vid=d7333d1c-2ef3-48be-96fa-44eed520e3b8","ios":"levelo://app?vid=d7333d1c-2ef3-48be-96fa-44eed520e3b8"},"vehicle_type_id":"4","last_reported":1704543126,"current_range_meters":31200,"station_id":"ce4bh492rcd13ifvqdug","pricing_plan_id":"free"},{"bike_id":"0caa76fc-4f8c-4dfc-ac90-624e8f65412d","system_id":"levelo_inurba_marseille","lat":43.286595,"lon":5.386795,"is_reserved":false,"is_disabled":false,"rental_uris":{"android":"levelo://app?vid=0caa76fc-4f8c-4dfc-ac90-624e8f65412d","ios":"levelo://app?vid=0caa76fc-4f8c-4dfc-ac90-624e8f65412d"},"vehicle_type_id":"4","last_reported":1704543126,"current_range_meters":18800,"station_id":"ce4bh492rcd13ifvqdug","pricing_plan_id":"free"},{"bike_id":"bb5e020d-9220-4e42-b057-26c6ab2f2335","system_id":"levelo_inurba_marseille","lat":43.286595,"lon":5.386795,"is_reserved":false,"is_disabled":false,"rental_uris":{"android":"levelo://app?vid=bb5e020d-9220-4e42-b057-26c6ab2f2335","ios":"levelo://app?vid=bb5e020d-9220-4e42-b057-26c6ab2f2335"},"vehicle_type_id":"4","last_reported":1704543126,"current_range_meters":16800,"station_id":"ce4bh492rcd13ifvqdug","pricing_plan_id":"free"},{"bike_id":"f32fa364-7b7d-405d-8dd2-4664e8d27e1d","system_id":"levelo_inurba_marseille","lat":43.286595,"lon":5.386795,"is_reserved":false,"is_disabled":false,"rental_uris":{"android":"levelo://app?vid=f32fa364-7b7d-405d-8dd2-4664e8d27e1d","ios":"levelo://app?vid=f32fa364-7b7d-405d-8dd2-4664e8d27e1d"},"vehicle_type_id":"4","last_reported":1704543126,"current_range_meters":13200,"station_id":"ce4bh492rcd13ifvqdug","pricing_plan_id":"free"},{"bike_id":"bce8678c-604c-47b5-bab5-671f09410ac8","system_id":"levelo_inurba_marseille","lat":43.319179,"lon":5.407725,"is_reserved":false,"is_disabled":false,"rental_uris":{"android":"levelo://app?vid=bce8678c-604c-47b5-bab5-671f09410ac8","ios":"levelo://app?vid=bce8678c-604c-47b5-bab5-671f09410ac8"},"vehicle_type_id":"4","last_reported":1704543126,"current_range_meters":29600,"station_id":"ce4bhq12rcd13ifvqhig","pricing_plan_id":"free"},{"bike_id":"65aa9c00-8297-4303-b0eb-18ed86d243f6","system_id":"levelo_inurba_marseille","lat":43.323329,"lon":5.406143,"is_reserved":false,"is_disabled":false,"rental_uris":{"android":"levelo://app?vid=65aa9c00-8297-4303-b0eb-18ed86d243f6","ios":"levelo://app?vid=65aa9c00-8297-4303-b0eb-18ed86d243f6"},"vehicle_type_id":"4","last_reported":1704543126,"current_range_meters":27200,"station_id":"ce4bhq92rcd13ifvqhjg","pricing_plan_id":"free"},{"bike_id":"47c304eb-ecdd-4363-b7ef-9d921fc0a565","system_id":"levelo_inurba_marseille","lat":43.337168,"lon":5.391825,"is_reserved":false,"is_disabled":false,"rental_uris":{"android":"levelo://app?vid=47c304eb-ecdd-4363-b7ef-9d921fc0a565","ios":"levelo://app?vid=47c304eb-ecdd-4363-b7ef-9d921fc0a565"},"vehicle_type_id":"4","last_reported":1704543126,"current_range_meters":31200,"station_id":"ce4bhr92rcd13ifvqhsg","pricing_plan_id":"free"},{"bike_id":"aeb57664-48e5-497a-9efe-5b92aedeb36d","system_id":"levelo_inurba_marseille","lat":43.284793,"lon":5.384119,"is_reserved":false,"is_disabled":false,"rental_uris":{"android":"levelo://app?vid=aeb57664-48e5-497a-9efe-5b92aedeb36d","ios":"levelo://app?vid=aeb57664-48e5-497a-9efe-5b92aedeb36d"},"vehicle_type_id":"4","last_reported":1704543126,"current_range_meters":23200,"station_id":"ce4bh512rcd13ifvqe3g","pricing_plan_id":"free"},{"bike_id":"9f9643c6-53e3-4611-af2c-8ead073a5b16","system_id":"levelo_inurba_marseille","lat":43.288501,"lon":5.393087,"is_reserved":false,"is_disabled":false,"rental_uris":{"android":"levelo://app?vid=9f9643c6-53e3-4611-af2c-8ead073a5b16","ios":"levelo://app?vid=9f9643c6-53e3-4611-af2c-8ead073a5b16"},"vehicle_type_id":"4","last_reported":1704543126,"current_range_meters":8400,"station_id":"ce4bh2p2rcd13ifvqdi0","pricing_plan_id":"free"},{"bike_id":"74c757a3-57f5-43bc-9cbd-c0caf045d565","system_id":"levelo_inurba_marseille","lat":43.284219,"lon":5.3497,"is_reserved":false,"is_disabled":false,"rental_uris":{"android":"levelo://app?vid=74c757a3-57f5-43bc-9cbd-c0caf045d565","ios":"levelo://app?vid=74c757a3-57f5-43bc-9cbd-c0caf045d565"},"vehicle_type_id":"4","last_reported":1704543126,"current_range_meters":29600,"station_id":"ce4bhbh2rcd13ifvqepg","pricing_plan_id":"free"},{"bike_id":"fec936a2-4cce-45e2-bd05-fc3f48e48d94","system_id":"levelo_inurba_marseille","lat":43.284219,"lon":5.3497,"is_reserved":false,"is_disabled":false,"rental_uris":{"android":"levelo://app?vid=fec936a2-4cce-45e2-bd05-fc3f48e48d94","ios":"levelo://app?vid=fec936a2-4cce-45e2-bd05-fc3f48e48d94"},"vehicle_type_id":"4","last_reported":1704543126,"current_range_meters":30400,"station_id":"ce4bhbh2rcd13ifvqepg","pricing_plan_id":"free"},{"bike_id":"90e56a0f-3fe2-420f-ba7d-b67b9dc69527","system_id":"levelo_inurba_marseille","lat":43.289363,"lon":5.396322,"is_reserved":false,"is_disabled":false,"rental_uris":{"android":"levelo://app?vid=90e56a0f-3fe2-420f-ba7d-b67b9dc69527","ios":"levelo://app?vid=90e56a0f-3fe2-420f-ba7d-b67b9dc69527"},"vehicle_type_id":"4","last_reported":1704543126,"current_range_meters":25600,"station_id":"ce4bh3h2rcd13ifvqdn0","pricing_plan_id":"free"},{"bike_id":"fd817817-289b-4ac7-a1d1-8ad432f14ee3","system_id":"levelo_inurba_marseille","lat":43.282744,"lon":5.350533,"is_reserved":false,"is_disabled":false,"rental_uris":{"android":"levelo://app?vid=fd817817-289b-4ac7-a1d1-8ad432f14ee3","ios":"levelo://app?vid=fd817817-289b-4ac7-a1d1-8ad432f14ee3"},"vehicle_type_id":"4","last_reported":1704543126,"current_range_meters":21200,"station_id":"ce4bhbp2rcd13ifvqerg","pricing_plan_id":"free"},{"bike_id":"11b2db57-7d29-4a06-8682-d6cdd66a2c74","system_id":"levelo_inurba_marseille","lat":43.282744,"lon":5.350533,"is_reserved":false,"is_disabled":false,"rental_uris":{"android":"levelo://app?vid=11b2db57-7d29-4a06-8682-d6cdd66a2c74","ios":"levelo://app?vid=11b2db57-7d29-4a06-8682-d6cdd66a2c74"},"vehicle_type_id":"4","last_reported":1704543126,"current_range_meters":8400,"station_id":"ce4bhbp2rcd13ifvqerg","pricing_plan_id":"free"},{"bike_id":"5eb379ff-9691-48e3-9afe-cbaece97f5e8","system_id":"levelo_inurba_marseille","lat":43.282754,"lon":5.350519,"is_reserved":false,"is_disabled":false,"rental_uris":{"android":"levelo://app?vid=5eb379ff-9691-48e3-9afe-cbaece97f5e8","ios":"levelo://app?vid=5eb379ff-9691-48e3-9afe-cbaece97f5e8"},"vehicle_type_id":"4","last_reported":1704543126,"current_range_meters":31200,"station_id":"ce4bhbp2rcd13ifvqerg","pricing_plan_id":"free"},{"bike_id":"f8dd31ec-fac5-40aa-bf57-1849aadae574","system_id":"levelo_inurba_marseille","lat":43.282744,"lon":5.350533,"is_reserved":false,"is_disabled":false,"rental_uris":{"android":"levelo://app?vid=f8dd31ec-fac5-40aa-bf57-1849aadae574","ios":"levelo://app?vid=f8dd31ec-fac5-40aa-bf57-1849aadae574"},"vehicle_type_id":"4","last_reported":1704543126,"current_range_meters":28400,"station_id":"ce4bhbp2rcd13ifvqerg","pricing_plan_id":"free"},{"bike_id":"3e8c8ee1-92df-43ed-9705-bd594ab2bcdb","system_id":"levelo_inurba_marseille","lat":43.282744,"lon":5.350533,"is_reserved":false,"is_disabled":false,"rental_uris":{"android":"levelo://app?vid=3e8c8ee1-92df-43ed-9705-bd594ab2bcdb","ios":"levelo://app?vid=3e8c8ee1-92df-43ed-9705-bd594ab2bcdb"},"vehicle_type_id":"4","last_reported":1704543126,"current_range_meters":10000,"station_id":"ce4bhbp2rcd13ifvqerg","pricing_plan_id":"free"},{"bike_id":"7223a5e2-a16a-4374-abac-e94b52e1c96b","system_id":"levelo_inurba_marseille","lat":43.282744,"lon":5.350533,"is_reserved":false,"is_disabled":false,"rental_uris":{"android":"levelo://app?vid=7223a5e2-a16a-4374-abac-e94b52e1c96b","ios":"levelo://app?vid=7223a5e2-a16a-4374-abac-e94b52e1c96b"},"vehicle_type_id":"4","last_reported":1704543126,"current_range_meters":31200,"station_id":"ce4bhbp2rcd13ifvqerg","pricing_plan_id":"free"},{"bike_id":"37062e89-e990-4dae-add6-411096a13786","system_id":"levelo_inurba_marseille","lat":43.28267,"lon":5.3507,"is_reserved":false,"is_disabled":false,"rental_uris":{"android":"levelo://app?vid=37062e89-e990-4dae-add6-411096a13786","ios":"levelo://app?vid=37062e89-e990-4dae-add6-411096a13786"},"vehicle_type_id":"4","last_reported":1704543126,"current_range_meters":22800,"station_id":"ce4bhbp2rcd13ifvqerg","pricing_plan_id":"free"},{"bike_id":"f504af7c-df2b-40ed-b292-73fc5838a0d1","system_id":"levelo_inurba_marseille","lat":43.282744,"lon":5.350533,"is_reserved":false,"is_disabled":false,"rental_uris":{"android":"levelo://app?vid=f504af7c-df2b-40ed-b292-73fc5838a0d1","ios":"levelo://app?vid=f504af7c-df2b-40ed-b292-73fc5838a0d1"},"vehicle_type_id":"4","last_reported":1704543126,"current_range_meters":4800,"station_id":"ce4bhbp2rcd13ifvqerg","pricing_plan_id":"free"},{"bike_id":"d1cab46f-89b8-402e-a574-e16d0fdd23bd","system_id":"levelo_inurba_marseille","lat":43.282649,"lon":5.350723,"is_reserved":false,"is_disabled":false,"rental_uris":{"android":"levelo://app?vid=d1cab46f-89b8-402e-a574-e16d0fdd23bd","ios":"levelo://app?vid=d1cab46f-89b8-402e-a574-e16d0fdd23bd"},"vehicle_type_id":"4","last_reported":1704543126,"current_range_meters":31200,"station_id":"ce4bhbp2rcd13ifvqerg","pricing_plan_id":"free"},{"bike_id":"ccfbd2d6-82a9-4851-b567-efb1358ab5b0","system_id":"levelo_inurba_marseille","lat":43.28265,"lon":5.3507,"is_reserved":false,"is_disabled":false,"rental_uris":{"android":"levelo://app?vid=ccfbd2d6-82a9-4851-b567-efb1358ab5b0","ios":"levelo://app?vid=ccfbd2d6-82a9-4851-b567-efb1358ab5b0"},"vehicle_type_id":"4","last_reported":1704543126,"current_range_meters":18000,"station_id":"ce4bhbp2rcd13ifvqerg","pricing_plan_id":"free"},{"bike_id":"5751b2b6-9363-40e1-bd46-5a518aa5ce6c","system_id":"levelo_inurba_marseille","lat":43.282606,"lon":5.350722,"is_reserved":false,"is_disabled":false,"rental_uris":{"android":"levelo://app?vid=5751b2b6-9363-40e1-bd46-5a518aa5ce6c","ios":"levelo://app?vid=5751b2b6-9363-40e1-bd46-5a518aa5ce6c"},"vehicle_type_id":"4","last_reported":1704543126,"current_range_meters":31200,"station_id":"ce4bhbp2rcd13ifvqerg","pricing_plan_id":"free"},{"bike_id":"f8543914-2b6c-4712-9b9a-f5c5850fecb6","system_id":"levelo_inurba_marseille","lat":43.280382,"lon":5.369291,"is_reserved":false,"is_disabled":false,"rental_uris":{"android":"levelo://app?vid=f8543914-2b6c-4712-9b9a-f5c5850fecb6","ios":"levelo://app?vid=f8543914-2b6c-4712-9b9a-f5c5850fecb6"},"vehicle_type_id":"4","last_reported":1704543126,"current_range_meters":9600,"station_id":"ce4bha12rcd13ifvqef0","pricing_plan_id":"free"},{"bike_id":"fb7ca303-2920-4fc6-8965-d4a8b2dc3988","system_id":"levelo_inurba_marseille","lat":43.28039,"lon":5.369297,"is_reserved":false,"is_disabled":false,"rental_uris":{"android":"levelo://app?vid=fb7ca303-2920-4fc6-8965-d4a8b2dc3988","ios":"levelo://app?vid=fb7ca303-2920-4fc6-8965-d4a8b2dc3988"},"vehicle_type_id":"4","last_reported":1704543126,"current_range_meters":18400,"station_id":"ce4bha12rcd13ifvqef0","pricing_plan_id":"free"},{"bike_id":"3bb18d2a-5ee4-46af-a248-810def259108","system_id":"levelo_inurba_marseille","lat":43.29041,"lon":5.399634,"is_reserved":false,"is_disabled":false,"rental_uris":{"android":"levelo://app?vid=3bb18d2a-5ee4-46af-a248-810def259108","ios":"levelo://app?vid=3bb18d2a-5ee4-46af-a248-810def259108"},"vehicle_type_id":"4","last_reported":1704543126,"current_range_meters":16000,"station_id":"ce4bh392rcd13ifvqdm0","pricing_plan_id":"free"},{"bike_id":"f17e86df-c3b1-4808-b600-3e4b1f14793d","system_id":"levelo_inurba_marseille","lat":43.29041,"lon":5.399634,"is_reserved":false,"is_disabled":false,"rental_uris":{"android":"levelo://app?vid=f17e86df-c3b1-4808-b600-3e4b1f14793d","ios":"levelo://app?vid=f17e86df-c3b1-4808-b600-3e4b1f14793d"},"vehicle_type_id":"4","last_reported":1704543126,"current_range_meters":22800,"station_id":"ce4bh392rcd13ifvqdm0","pricing_plan_id":"free"},{"bike_id":"8358b551-c0e2-4b74-9c3b-6e8167fbf356","system_id":"levelo_inurba_marseille","lat":43.29041,"lon":5.399634,"is_reserved":false,"is_disabled":false,"rental_uris":{"android":"levelo://app?vid=8358b551-c0e2-4b74-9c3b-6e8167fbf356","ios":"levelo://app?vid=8358b551-c0e2-4b74-9c3b-6e8167fbf356"},"vehicle_type_id":"4","last_reported":1704543126,"current_range_meters":12400,"station_id":"ce4bh392rcd13ifvqdm0","pricing_plan_id":"free"},{"bike_id":"a479b3af-4f01-4350-a0ee-905ff07cf438","system_id":"levelo_inurba_marseille","lat":43.281044,"lon":5.378308,"is_reserved":false,"is_disabled":false,"rental_uris":{"android":"levelo://app?vid=a479b3af-4f01-4350-a0ee-905ff07cf438","ios":"levelo://app?vid=a479b3af-4f01-4350-a0ee-905ff07cf438"},"vehicle_type_id":"4","last_reported":1704543126,"current_range_meters":27200,"station_id":"ce4bha12rcd13ifvqee0","pricing_plan_id":"free"},{"bike_id":"641c391a-6d9a-4f84-8c6f-76c5854bb15a","system_id":"levelo_inurba_marseille","lat":43.281044,"lon":5.378308,"is_reserved":false,"is_disabled":false,"rental_uris":{"android":"levelo://app?vid=641c391a-6d9a-4f84-8c6f-76c5854bb15a","ios":"levelo://app?vid=641c391a-6d9a-4f84-8c6f-76c5854bb15a"},"vehicle_type_id":"4","last_reported":1704543126,"current_range_meters":27200,"station_id":"ce4bha12rcd13ifvqee0","pricing_plan_id":"free"},{"bike_id":"86675393-d442-4f40-b90a-6e0e48a92317","system_id":"levelo_inurba_marseille","lat":43.296263,"lon":5.40601,"is_reserved":false,"is_disabled":false,"rental_uris":{"android":"levelo://app?vid=86675393-d442-4f40-b90a-6e0e48a92317","ios":"levelo://app?vid=86675393-d442-4f40-b90a-6e0e48a92317"},"vehicle_type_id":"4","last_reported":1704543126,"current_range_meters":16000,"station_id":"ce4bh0h2rcd13ifvqd60","pricing_plan_id":"free"},{"bike_id":"9422007c-9e64-424e-893c-70f5a1bd1c20","system_id":"levelo_inurba_marseille","lat":43.28573,"lon":5.394992,"is_reserved":false,"is_disabled":false,"rental_uris":{"android":"levelo://app?vid=9422007c-9e64-424e-893c-70f5a1bd1c20","ios":"levelo://app?vid=9422007c-9e64-424e-893c-70f5a1bd1c20"},"vehicle_type_id":"4","last_reported":1704543126,"current_range_meters":20800,"station_id":"ce4bh292rcd13ifvqdg0","pricing_plan_id":"free"},{"bike_id":"e6b3cd94-e642-4e8b-afe0-04d0a4759014","system_id":"levelo_inurba_marseille","lat":43.326605,"lon":5.409903,"is_reserved":false,"is_disabled":false,"rental_uris":{"android":"levelo://app?vid=e6b3cd94-e642-4e8b-afe0-04d0a4759014","ios":"levelo://app?vid=e6b3cd94-e642-4e8b-afe0-04d0a4759014"},"vehicle_type_id":"4","last_reported":1704543126,"current_range_meters":27200,"station_id":"ce4bhpp2rcd13ifvqhgg","pricing_plan_id":"free"},{"bike_id":"804748a1-919c-4286-95e2-023037287763","system_id":"levelo_inurba_marseille","lat":43.326605,"lon":5.409903,"is_reserved":false,"is_disabled":false,"rental_uris":{"android":"levelo://app?vid=804748a1-919c-4286-95e2-023037287763","ios":"levelo://app?vid=804748a1-919c-4286-95e2-023037287763"},"vehicle_type_id":"4","last_reported":1704543126,"current_range_meters":28400,"station_id":"ce4bhpp2rcd13ifvqhgg","pricing_plan_id":"free"},{"bike_id":"a0d20dd8-a3b3-4fa3-a6e9-2896226abf35","system_id":"levelo_inurba_marseille","lat":43.326605,"lon":5.409903,"is_reserved":false,"is_disabled":false,"rental_uris":{"android":"levelo://app?vid=a0d20dd8-a3b3-4fa3-a6e9-2896226abf35","ios":"levelo://app?vid=a0d20dd8-a3b3-4fa3-a6e9-2896226abf35"},"vehicle_type_id":"4","last_reported":1704543126,"current_range_meters":11200,"station_id":"ce4bhpp2rcd13ifvqhgg","pricing_plan_id":"free"},{"bike_id":"a2573cfe-3924-46cb-aea9-913237773d6f","system_id":"levelo_inurba_marseille","lat":43.326605,"lon":5.409903,"is_reserved":false,"is_disabled":false,"rental_uris":{"android":"levelo://app?vid=a2573cfe-3924-46cb-aea9-913237773d6f","ios":"levelo://app?vid=a2573cfe-3924-46cb-aea9-913237773d6f"},"vehicle_type_id":"4","last_reported":1704543126,"current_range_meters":26000,"station_id":"ce4bhpp2rcd13ifvqhgg","pricing_plan_id":"free"},{"bike_id":"a5551089-d570-4f13-9a5e-d88b46be8d2f","system_id":"levelo_inurba_marseille","lat":43.304188,"lon":5.412904,"is_reserved":false,"is_disabled":false,"rental_uris":{"android":"levelo://app?vid=a5551089-d570-4f13-9a5e-d88b46be8d2f","ios":"levelo://app?vid=a5551089-d570-4f13-9a5e-d88b46be8d2f"},"vehicle_type_id":"4","last_reported":1704543126,"current_range_meters":11600,"station_id":"ce4bhop2rcd13ifvqh8g","pricing_plan_id":"free"},{"bike_id":"6f5dd678-cd3f-482b-8df5-f7c0e4ff7fb0","system_id":"levelo_inurba_marseille","lat":43.304188,"lon":5.412904,"is_reserved":false,"is_disabled":false,"rental_uris":{"android":"levelo://app?vid=6f5dd678-cd3f-482b-8df5-f7c0e4ff7fb0","ios":"levelo://app?vid=6f5dd678-cd3f-482b-8df5-f7c0e4ff7fb0"},"vehicle_type_id":"4","last_reported":1704543126,"current_range_meters":8000,"station_id":"ce4bhop2rcd13ifvqh8g","pricing_plan_id":"free"},{"bike_id":"8b8c15ed-5404-4033-83d8-1a6cebb9b450","system_id":"levelo_inurba_marseille","lat":43.304188,"lon":5.412904,"is_reserved":false,"is_disabled":false,"rental_uris":{"android":"levelo://app?vid=8b8c15ed-5404-4033-83d8-1a6cebb9b450","ios":"levelo://app?vid=8b8c15ed-5404-4033-83d8-1a6cebb9b450"},"vehicle_type_id":"4","last_reported":1704543126,"current_range_meters":31200,"station_id":"ce4bhop2rcd13ifvqh8g","pricing_plan_id":"free"},{"bike_id":"bd3bd074-eb1e-4844-81d5-4254570b3691","system_id":"levelo_inurba_marseille","lat":43.304188,"lon":5.412904,"is_reserved":false,"is_disabled":false,"rental_uris":{"android":"levelo://app?vid=bd3bd074-eb1e-4844-81d5-4254570b3691","ios":"levelo://app?vid=bd3bd074-eb1e-4844-81d5-4254570b3691"},"vehicle_type_id":"4","last_reported":1704543126,"current_range_meters":23200,"station_id":"ce4bhop2rcd13ifvqh8g","pricing_plan_id":"free"},{"bike_id":"1d80621e-f3b5-465d-9aaf-d28e670b6cf1","system_id":"levelo_inurba_marseille","lat":43.287154,"lon":5.399979,"is_reserved":false,"is_disabled":false,"rental_uris":{"android":"levelo://app?vid=1d80621e-f3b5-465d-9aaf-d28e670b6cf1","ios":"levelo://app?vid=1d80621e-f3b5-465d-9aaf-d28e670b6cf1"},"vehicle_type_id":"4","last_reported":1704543126,"current_range_meters":18400,"station_id":"ce4bho92rcd13ifvqh3g","pricing_plan_id":"free"},{"bike_id":"4e07c34b-96d9-4130-9f32-8252d3238c6e","system_id":"levelo_inurba_marseille","lat":43.320583,"lon":5.415381,"is_reserved":false,"is_disabled":false,"rental_uris":{"android":"levelo://app?vid=4e07c34b-96d9-4130-9f32-8252d3238c6e","ios":"levelo://app?vid=4e07c34b-96d9-4130-9f32-8252d3238c6e"},"vehicle_type_id":"4","last_reported":1704543126,"current_range_meters":8800,"station_id":"ce4bhq92rcd13ifvqhkg","pricing_plan_id":"free"},{"bike_id":"c091dd33-318a-4a7a-b50f-997c9e30af63","system_id":"levelo_inurba_marseille","lat":43.299577,"lon":5.413277,"is_reserved":false,"is_disabled":false,"rental_uris":{"android":"levelo://app?vid=c091dd33-318a-4a7a-b50f-997c9e30af63","ios":"levelo://app?vid=c091dd33-318a-4a7a-b50f-997c9e30af63"},"vehicle_type_id":"4","last_reported":1704543126,"current_range_meters":30400,"station_id":"ce4bhp12rcd13ifvqh9g","pricing_plan_id":"free"},{"bike_id":"58842251-ed28-4f09-8946-47bdfa618013","system_id":"levelo_inurba_marseille","lat":43.292571,"lon":5.409107,"is_reserved":false,"is_disabled":false,"rental_uris":{"android":"levelo://app?vid=58842251-ed28-4f09-8946-47bdfa618013","ios":"levelo://app?vid=58842251-ed28-4f09-8946-47bdfa618013"},"vehicle_type_id":"4","last_reported":1704543126,"current_range_meters":16800,"station_id":"ce4bh192rcd13ifvqdc0","pricing_plan_id":"free"},{"bike_id":"88e3e306-7d0d-453d-a7ea-90f621d7faa6","system_id":"levelo_inurba_marseille","lat":43.27618,"lon":5.361009,"is_reserved":false,"is_disabled":false,"rental_uris":{"android":"levelo://app?vid=88e3e306-7d0d-453d-a7ea-90f621d7faa6","ios":"levelo://app?vid=88e3e306-7d0d-453d-a7ea-90f621d7faa6"},"vehicle_type_id":"4","last_reported":1704543126,"current_range_meters":20000,"station_id":"ce4bgj92rcd13ifvqbe0","pricing_plan_id":"free"},{"bike_id":"f5949106-917a-47f4-864b-ec544cb9e921","system_id":"levelo_inurba_marseille","lat":43.325243,"lon":5.414326,"is_reserved":false,"is_disabled":false,"rental_uris":{"android":"levelo://app?vid=f5949106-917a-47f4-864b-ec544cb9e921","ios":"levelo://app?vid=f5949106-917a-47f4-864b-ec544cb9e921"},"vehicle_type_id":"4","last_reported":1704543126,"current_range_meters":25200,"station_id":"ce4bhq12rcd13ifvqhhg","pricing_plan_id":"free"},{"bike_id":"141d8f62-d431-4979-8358-54f524263357","system_id":"levelo_inurba_marseille","lat":43.325356,"lon":5.414508,"is_reserved":false,"is_disabled":false,"rental_uris":{"android":"levelo://app?vid=141d8f62-d431-4979-8358-54f524263357","ios":"levelo://app?vid=141d8f62-d431-4979-8358-54f524263357"},"vehicle_type_id":"4","last_reported":1704543126,"current_range_meters":22800,"station_id":"ce4bhq12rcd13ifvqhhg","pricing_plan_id":"free"},{"bike_id":"b4f4eaa3-3eb2-4a4a-9a99-de22ec95d711","system_id":"levelo_inurba_marseille","lat":43.276179,"lon":5.361009,"is_reserved":false,"is_disabled":false,"rental_uris":{"android":"levelo://app?vid=b4f4eaa3-3eb2-4a4a-9a99-de22ec95d711","ios":"levelo://app?vid=b4f4eaa3-3eb2-4a4a-9a99-de22ec95d711"},"vehicle_type_id":"4","last_reported":1704543126,"current_range_meters":9200,"station_id":"ce4bgj92rcd13ifvqbe0","pricing_plan_id":"free"},{"bike_id":"e18f46a1-7f0d-477a-b99e-971c6068e120","system_id":"levelo_inurba_marseille","lat":43.280784,"lon":5.396622,"is_reserved":false,"is_disabled":false,"rental_uris":{"android":"levelo://app?vid=e18f46a1-7f0d-477a-b99e-971c6068e120","ios":"levelo://app?vid=e18f46a1-7f0d-477a-b99e-971c6068e120"},"vehicle_type_id":"4","last_reported":1704543126,"current_range_meters":31200,"station_id":"ce4bho12rcd13ifvqh2g","pricing_plan_id":"free"},{"bike_id":"914a82e4-d608-4374-969e-5df1dc85d42f","system_id":"levelo_inurba_marseille","lat":43.303837,"lon":5.418724,"is_reserved":false,"is_disabled":false,"rental_uris":{"android":"levelo://app?vid=914a82e4-d608-4374-969e-5df1dc85d42f","ios":"levelo://app?vid=914a82e4-d608-4374-969e-5df1dc85d42f"},"vehicle_type_id":"4","last_reported":1704543126,"current_range_meters":31200,"station_id":"ce4bhop2rcd13ifvqh7g","pricing_plan_id":"free"},