{"last_updated":1753460038,"ttl":60,"version":"2.2","data":{"bikes":[{"bike_id":"2bf6bffe-b207-4557-83a8-5416ffb85e3b","system_id":"levelo_inurba_marseille","lat":43.297752,"lon":5.371104,"is_reserved":false,"is_disabled":false,"rental_uris":{"android":"levelo://app?vid=2bf6bffe-b207-4557-83a8-5416ffb85e3b","ios":"levelo://app?vid=2bf6bffe-b207-4557-83a8-5416ffb85e3b"},"vehicle_type_id":"4","last_reported":1753460038,"current_range_meters":2800,"station_id":"","pricing_plan_id":"cebpf4jnsgd1na2vs0mg"},{"bike_id":"ed3a088b-42d0-4428-ba9f-67002e44e2f2","system_id":"levelo_inurba_marseille","lat":43.260602,"lon":5.375322,"is_reserved":false,"is_disabled":false,"rental_uris":{"android":"levelo://app?vid=ed3a088b-42d0-4428-ba9f-67002e44e2f2","ios":"levelo://app?vid=ed3a088b-42d0-4428-ba9f-67002e44e2f2"},"vehicle_type_id":"4","last_reported":1753460038,"current_range_meters":2800,"station_id":"ce4bhgh2rcd13ifvqfa0","pricing_plan_id":"cebpf4jnsgd1na2vs0mg"},{"bike_id":"0a00d187-4766-4f2e-afe3-fcecab6ca135","system_id":"levelo_inurba_marseille","lat":43.27177,"lon":5.40997,"is_reserved":false,"is_disabled":false,"rental_uris":{"android":"levelo://app?vid=0a00d187-4766-4f2e-afe3-fcecab6ca135","ios":"levelo://app?vid=0a00d187-4766-4f2e-afe3-fcecab6ca135"},"vehicle_type_id":"4","last_reported":1753460038,"current_range_meters":3200,"station_id":"ce4bhl12rcd13ifvqgf0","pricing_plan_id":"cebpf4jnsgd1na2vs0mg"},{"bike_id":"330b66b1-1704-4bf5-b7ba-caa71f506696","system_id":"levelo_inurba_marseille","lat":43.2963,"lon":5.40594,"is_reserved":false,"is_disabled":false,"rental_uris":{"android":"levelo://app?vid=330b66b1-1704-4bf5-b7ba-caa71f506696","ios":"levelo://app?vid=330b66b1-1704-4bf5-b7ba-caa71f506696"},"vehicle_type_id":"4","last_reported":1753460038,"current_range_meters":2800,"station_id":"ce4bh0h2rcd13ifvqd60","pricing_plan_id":"cebpf4jnsgd1na2vs0mg"},{"bike_id":"1e7724e5-8377-4d45-9aa7-f99d6a92e611","system_id":"levelo_inurba_marseille","lat":43.28042,"lon":5.36944,"is_reserved":false,"is_disabled":false,"rental_uris":{"android":"levelo://app?vid=1e7724e5-8377-4d45-9aa7-f99d6a92e611","ios":"levelo://app?vid=1e7724e5-8377-4d45-9aa7-f99d6a92e611"},"vehicle_type_id":"4","last_reported":1753460038,"current_range_meters":2800,"station_id":"ce4bha12rcd13ifvqef0","pricing_plan_id":"cebpf4jnsgd1na2vs0mg"},{"bike_id":"519a6e92-8cd2-4f56-8985-6699433521bf","system_id":"levelo_inurba_marseille","lat":43.29042,"lon":5.40009,"is_reserved":false,"is_disabled":false,"rental_uris":{"android":"levelo://app?vid=519a6e92-8cd2-4f56-8985-6699433521bf","ios":"levelo://app?vid=519a6e92-8cd2-4f56-8985-6699433521bf"},"vehicle_type_id":"4","last_reported":1753460038,"current_range_meters":2800,"station_id":"ce4bh392rcd13ifvqdm0","pricing_plan_id":"cebpf4jnsgd1na2vs0mg"},{"bike_id":"bb49a11c-8389-4f8c-9cae-d2451e11ad1e","system_id":"levelo_inurba_marseille","lat":43.28623,"lon":5.35115,"is_reserved":false,"is_disabled":false,"rental_uris":{"android":"levelo://app?vid=bb49a11c-8389-4f8c-9cae-d2451e11ad1e","ios":"levelo://app?vid=bb49a11c-8389-4f8c-9cae-d2451e11ad1e"},"vehicle_type_id":"4","last_reported":1753460038,"current_range_meters":3600,"station_id":"ce4bhch2rcd13ifvqeug","pricing_plan_id":"cebpf4jnsgd1na2vs0mg"},{"bike_id":"94f577f7-8a03-4398-a28b-003fa58e9525","system_id":"levelo_inurba_marseille","lat":43.258735,"lon":5.398406,"is_reserved":false,"is_disabled":false,"rental_uris":{"android":"levelo://app?vid=94f577f7-8a03-4398-a28b-003fa58e9525","ios":"levelo://app?vid=94f577f7-8a03-4398-a28b-003fa58e9525"},"vehicle_type_id":"4","last_reported":1753460038,"current_range_meters":3600,"station_id":"ce4bhl92rcd13ifvqghg","pricing_plan_id":"cebpf4jnsgd1na2vs0mg"},{"bike_id":"fe65d7d6-638d-40a5-bccf-533e7cf482a6","system_id":"levelo_inurba_marseille","lat":43.283486,"lon":5.432644,"is_reserved":false,"is_disabled":false,"rental_uris":{"android":"levelo://app?vid=fe65d7d6-638d-40a5-bccf-533e7cf482a6","ios":"levelo://app?vid=fe65d7d6-638d-40a5-bccf-533e7cf482a6"},"vehicle_type_id":"4","last_reported":1753460038,"current_range_meters":4000,"station_id":"","pricing_plan_id":"cebpf4jnsgd1na2vs0mg"},{"bike_id":"d14811d7-4ede-46cf-8422-414e484e6718","system_id":"levelo_inurba_marseille","lat":43.291992,"lon":5.358017,"is_reserved":false,"is_disabled":false,"rental_uris":{"android":"levelo://app?vid=d14811d7-4ede-46cf-8422-414e484e6718","ios":"levelo://app?vid=d14811d7-4ede-46cf-8422-414e484e6718"},"vehicle_type_id":"4","last_reported":1753460038,"current_range_meters":4400,"station_id":"ce4bhb12rcd13ifvqel0","pricing_plan_id":"cebpf4jnsgd1na2vs0mg"},{"bike_id":"cb49670c-90dd-4911-907e-ad47cc86a448","system_id":"levelo_inurba_marseille","lat":43.30793,"lon":5.37637,"is_reserved":false,"is_disabled":false,"rental_uris":{"android":"levelo://app?vid=cb49670c-90dd-4911-907e-ad47cc86a448","ios":"levelo://app?vid=cb49670c-90dd-4911-907e-ad47cc86a448"},"vehicle_type_id":"4","last_reported":1753460038,"current_range_meters":4800,"station_id":"ce4bgv92rcd13ifvqcq0","pricing_plan_id":"cebpf4jnsgd1na2vs0mg"},{"bike_id":"8e84bf04-d2f7-4278-a9af-076ffbe4af52","system_id":"levelo_inurba_marseille","lat":43.244147,"lon":5.371343,"is_reserved":false,"is_disabled":false,"rental_uris":{"android":"levelo://app?vid=8e84bf04-d2f7-4278-a9af-076ffbe4af52","ios":"levelo://app?vid=8e84bf04-d2f7-4278-a9af-076ffbe4af52"},"vehicle_type_id":"4","last_reported":1753460038,"current_range_meters":4800,"station_id":"ce4bhhh2rcd13ifvqfk0","pricing_plan_id":"cebpf4jnsgd1na2vs0mg"},{"bike_id":"5fad58cf-c4bc-4e61-9e48-8e595aeb63fc","system_id":"levelo_inurba_marseille","lat":43.3046,"lon":5.37907,"is_reserved":false,"is_disabled":false,"rental_uris":{"android":"levelo://app?vid=5fad58cf-c4bc-4e61-9e48-8e595aeb63fc","ios":"levelo://app?vid=5fad58cf-c4bc-4e61-9e48-8e595aeb63fc"},"vehicle_type_id":"4","last_reported":1753460038,"current_range_meters":7200,"station_id":"ce4bgup2rcd13ifvqcn0","pricing_plan_id":"cebpf4jnsgd1na2vs0mg"},{"bike_id":"f3810c5b-fbf2-4a53-ac07-fd79c8aded65","system_id":"levelo_inurba_marseille","lat":43.29096,"lon":5.38134,"is_reserved":false,"is_disabled":false,"rental_uris":{"android":"levelo://app?vid=f3810c5b-fbf2-4a53-ac07-fd79c8aded65","ios":"levelo://app?vid=f3810c5b-fbf2-4a53-ac07-fd79c8aded65"},"vehicle_type_id":"4","last_reported":1753460038,"current_range_meters":6000,"station_id":"ce4bh512rcd13ifvqe2g","pricing_plan_id":"cebpf4jnsgd1na2vs0mg"},{"bike_id":"d87b56f9-aec8-4c18-8340-d7aba9319bde","system_id":"levelo_inurba_marseille","lat":43.275022,"lon":5.39649,"is_reserved":false,"is_disabled":false,"rental_uris":{"android":"levelo://app?vid=d87b56f9-aec8-4c18-8340-d7aba9319bde","ios":"levelo://app?vid=d87b56f9-aec8-4c18-8340-d7aba9319bde"},"vehicle_type_id":"4","last_reported":1753460038,"current_range_meters":6400,"station_id":"","pricing_plan_id":"cebpf4jnsgd1na2vs0mg"},{"bike_id":"a030074b-f0e6-47e2-ba66-25fadb9d0d23","system_id":"levelo_inurba_marseille","lat":43.27373,"lon":5.36257,"is_reserved":false,"is_disabled":false,"rental_uris":{"android":"levelo://app?vid=a030074b-f0e6-47e2-ba66-25fadb9d0d23","ios":"levelo://app?vid=a030074b-f0e6-47e2-ba66-25fadb9d0d23"},"vehicle_type_id":"4","last_reported":1753460038,"current_range_meters":6800,"station_id":"ce4bhbh2rcd13ifvqeo0","pricing_plan_id":"cebpf4jnsgd1na2vs0mg"},{"bike_id":"c2887108-aebf-4ed9-875c-dbf0e8a07c32","system_id":"levelo_inurba_marseille","lat":43.29035,"lon":5.37571,"is_reserved":false,"is_disabled":false,"rental_uris":{"android":"levelo://app?vid=c2887108-aebf-4ed9-875c-dbf0e8a07c32","ios":"levelo://app?vid=c2887108-aebf-4ed9-875c-dbf0e8a07c32"},"vehicle_type_id":"4","last_reported":1753460038,"current_range_meters":9200,"station_id":"ce4bh692rcd13ifvqe90","pricing_plan_id":"cebpf4jnsgd1na2vs0mg"},{"bike_id":"3843a00f-81d8-45fd-a52a-64868b9c8532","system_id":"levelo_inurba_marseille","lat":43.29756,"lon":5.37705,"is_reserved":false,"is_disabled":false,"rental_uris":{"android":"levelo://app?vid=3843a00f-81d8-45fd-a52a-64868b9c8532","ios":"levelo://app?vid=3843a00f-81d8-45fd-a52a-64868b9c8532"},"vehicle_type_id":"4","last_reported":1753460038,"current_range_meters":6800,"station_id":"","pricing_plan_id":"cebpf4jnsgd1na2vs0mg"},{"bike_id":"8dcab7ff-30e3-4f9e-a515-fabad1a70180","system_id":"levelo_inurba_marseille","lat":43.28406,"lon":5.37506,"is_reserved":false,"is_disabled":false,"rental_uris":{"android":"levelo://app?vid=8dcab7ff-30e3-4f9e-a515-fabad1a70180","ios":"levelo://app?vid=8dcab7ff-30e3-4f9e-a515-fabad1a70180"},"vehicle_type_id":"4","last_reported":1753460038,"current_range_meters":6400,"station_id":"ce4bh412rcd13ifvqds0","pricing_plan_id":"cebpf4jnsgd1na2vs0mg"},{"bike_id":"a8dd734b-05cf-443a-afda-f62c6cd71d2b","system_id":"levelo_inurba_marseille","lat":43.29098,"lon":5.38123,"is_reserved":false,"is_disabled":false,"rental_uris":{"android":"levelo://app?vid=a8dd734b-05cf-443a-afda-f62c6cd71d2b","ios":"levelo://app?vid=a8dd734b-05cf-443a-afda-f62c6cd71d2b"},"vehicle_type_id":"4","last_reported":1753460038,"current_range_meters":6400,"station_id":"ce4bh512rcd13ifvqe2g","pricing_plan_id":"cebpf4jnsgd1na2vs0mg"},{"bike_id":"eb8ddd22-8f35-4cca-bdbd-2e402b1a8a24","system_id":"levelo_inurba_marseille","lat":43.296266,"lon":5.405872,"is_reserved":false,"is_disabled":false,"rental_uris":{"android":"levelo://app?vid=eb8ddd22-8f35-4cca-bdbd-2e402b1a8a24","ios":"levelo://app?vid=eb8ddd22-8f35-4cca-bdbd-2e402b1a8a24"},"vehicle_type_id":"4","last_reported":1753460038,"current_range_meters":6800,"station_id":"ce4bh0h2rcd13ifvqd60","pricing_plan_id":"cebpf4jnsgd1na2vs0mg"},{"bike_id":"e19cd9bd-8f1f-4909-a624-5af678243303","system_id":"levelo_inurba_marseille","lat":43.29061,"lon":5.39881,"is_reserved":false,"is_disabled":false,"rental_uris":{"android":"levelo://app?vid=e19cd9bd-8f1f-4909-a624-5af678243303","ios":"levelo://app?vid=e19cd9bd-8f1f-4909-a624-5af678243303"},"vehicle_type_id":"4","last_reported":1753460038,"current_range_meters":7200,"station_id":"","pricing_plan_id":"cebpf4jnsgd1na2vs0mg"},{"bike_id":"5cb0bce7-14b9-4dad-aa50-9c8659423dc7","system_id":"levelo_inurba_marseille","lat":43.30546,"lon":5.3654,"is_reserved":false,"is_disabled":false,"rental_uris":{"android":"levelo://app?vid=5cb0bce7-14b9-4dad-aa50-9c8659423dc7","ios":"levelo://app?vid=5cb0bce7-14b9-4dad-aa50-9c8659423dc7"},"vehicle_type_id":"4","last_reported":1753460038,"current_range_meters":7200,"station_id":"ce4bgs12rcd13ifvqcag","pricing_plan_id":"cebpf4jnsgd1na2vs0mg"},{"bike_id":"386ceff3-0065-4468-9506-8b201fcd93c7","system_id":"levelo_inurba_marseille","lat":43.29442,"lon":5.39754,"is_reserved":false,"is_disabled":false,"rental_uris":{"android":"levelo://app?vid=386ceff3-0065-4468-9506-8b201fcd93c7","ios":"levelo://app?vid=386ceff3-0065-4468-9506-8b201fcd93c7"},"vehicle_type_id":"4","last_reported":1753460038,"current_range_meters":8800,"station_id":"ce4bh3h2rcd13ifvqdo0","pricing_plan_id":"cebpf4jnsgd1na2vs0mg"},{"bike_id":"403d6a0c-2997-4092-9019-b08537ee7555","system_id":"levelo_inurba_marseille","lat":43.23184,"lon":5.39981,"is_reserved":false,"is_disabled":false,"rental_uris":{"android":"levelo://app?vid=403d6a0c-2997-4092-9019-b08537ee7555","ios":"levelo://app?vid=403d6a0c-2997-4092-9019-b08537ee7555"},"vehicle_type_id":"4","last_reported":1753460038,"current_range_meters":8000,"station_id":"ce4bhn12rcd13ifvqgqg","pricing_plan_id":"cebpf4jnsgd1na2vs0mg"},{"bike_id":"4d463c9d-4c29-4819-a423-2cce2a59a6fd","system_id":"levelo_inurba_marseille","lat":43.30269,"lon":5.40078,"is_reserved":false,"is_disabled":false,"rental_uris":{"android":"levelo://app?vid=4d463c9d-4c29-4819-a423-2cce2a59a6fd","ios":"levelo://app?vid=4d463c9d-4c29-4819-a423-2cce2a59a6fd"},"vehicle_type_id":"4","last_reported":1753460038,"current_range_meters":8000,"station_id":"ce4bgvh2rcd13ifvqcs0","pricing_plan_id":"cebpf4jnsgd1na2vs0mg"},{"bike_id":"b93c0803-f824-4cb7-a4ed-57da1403b68e","system_id":"levelo_inurba_marseille","lat":43.325583,"lon":5.379059,"is_reserved":false,"is_disabled":true,"rental_uris":{"android":"levelo://app?vid=b93c0803-f824-4cb7-a4ed-57da1403b68e","ios":"levelo://app?vid=b93c0803-f824-4cb7-a4ed-57da1403b68e"},"vehicle_type_id":"4","last_reported":1753460038,"current_range_meters":8000,"station_id":"","pricing_plan_id":"cebpf4jnsgd1na2vs0mg"},{"bike_id":"51979a68-a8cc-400e-b7b9-cd8004031e65","system_id":"levelo_inurba_marseille","lat":43.225,"lon":5.34789,"is_reserved":false,"is_disabled":false,"rental_uris":{"android":"levelo://app?vid=51979a68-a8cc-400e-b7b9-cd8004031e65","ios":"levelo://app?vid=51979a68-a8cc-400e-b7b9-cd8004031e65"},"vehicle_type_id":"4","last_reported":1753460038,"current_range_meters":8000,"station_id":"st_cvj5dfep6f1abm77gieg","pricing_plan_id":"cebpf4jnsgd1na2vs0mg"},{"bike_id":"1bdd2b9f-c81a-4023-bd21-5e0d73b8034e","system_id":"levelo_inurba_marseille","lat":43.290365,"lon":5.381242,"is_reserved":false,"is_disabled":false,"rental_uris":{"android":"levelo://app?vid=1bdd2b9f-c81a-4023-bd21-5e0d73b8034e","ios":"levelo://app?vid=1bdd2b9f-c81a-4023-bd21-5e0d73b8034e"},"vehicle_type_id":"4","last_reported":1753460038,"current_range_meters":9600,"station_id":"ce4bh4p2rcd13ifvqe1g","pricing_plan_id":"cebpf4jnsgd1na2vs0mg"},{"bike_id":"b2d9b512-461e-4c22-8160-83c7cfb0cdf8","system_id":"levelo_inurba_marseille","lat":43.27946,"lon":5.41045,"is_reserved":false,"is_disabled":true,"rental_uris":{"android":"levelo://app?vid=b2d9b512-461e-4c22-8160-83c7cfb0cdf8","ios":"levelo://app?vid=b2d9b512-461e-4c22-8160-83c7cfb0cdf8"},"vehicle_type_id":"4","last_reported":1753460038,"current_range_meters":8400,"station_id":"ce4bhnp2rcd13ifvqh0g","pricing_plan_id":"cebpf4jnsgd1na2vs0mg"},{"bike_id":"bcfeb788-eed8-4a22-9566-78b3af0fa09b","system_id":"levelo_inurba_marseille","lat":43.29911,"lon":5.37591,"is_reserved":false,"is_disabled":false,"rental_uris":{"android":"levelo://app?vid=bcfeb788-eed8-4a22-9566-78b3af0fa09b","ios":"levelo://app?vid=bcfeb788-eed8-4a22-9566-78b3af0fa09b"},"vehicle_type_id":"4","last_reported":1753460038,"current_range_meters":8400,"station_id":"","pricing_plan_id":"cebpf4jnsgd1na2vs0mg"},{"bike_id":"82dc3b99-1b79-41b4-a816-b6f727b80704","system_id":"levelo_inurba_marseille","lat":43.29525,"lon":5.39057,"is_reserved":false,"is_disabled":false,"rental_uris":{"android":"levelo://app?vid=82dc3b99-1b79-41b4-a816-b6f727b80704","ios":"levelo://app?vid=82dc3b99-1b79-41b4-a816-b6f727b80704"},"vehicle_type_id":"4","last_reported":1753460038,"current_range_meters":8000,"station_id":"ce4bh3p2rcd13ifvqdp0","pricing_plan_id":"cebpf4jnsgd1na2vs0mg"},{"bike_id":"be20cd4a-2a27-41e0-bfa9-c12a0b4ce629","system_id":"levelo_inurba_marseille","lat":43.29008,"lon":5.35619,"is_reserved":false,"is_disabled":false,"rental_uris":{"android":"levelo://app?vid=be20cd4a-2a27-41e0-bfa9-c12a0b4ce629","ios":"levelo://app?vid=be20cd4a-2a27-41e0-bfa9-c12a0b4ce629"},"vehicle_type_id":"4","last_reported":1753460038,"current_range_meters":9200,"station_id":"ce4bhb92rcd13ifvqen0","pricing_plan_id":"cebpf4jnsgd1na2vs0mg"},{"bike_id":"fd4ba70a-7bfa-434e-8564-04bf25cc9f63","system_id":"levelo_inurba_marseille","lat":43.28119,"lon":5.44106,"is_reserved":false,"is_disabled":false,"rental_uris":{"android":"levelo://app?vid=fd4ba70a-7bfa-434e-8564-04bf25cc9f63","ios":"levelo://app?vid=fd4ba70a-7bfa-434e-8564-04bf25cc9f63"},"vehicle_type_id":"4","last_reported":1753460038,"current_range_meters":8400,"station_id":"","pricing_plan_id":"cebpf4jnsgd1na2vs0mg"},{"bike_id":"70882187-6004-46ef-8d9a-d96d0572b56c","system_id":"levelo_inurba_marseille","lat":43.23964,"lon":5.36627,"is_reserved":false,"is_disabled":false,"rental_uris":{"android":"levelo://app?vid=70882187-6004-46ef-8d9a-d96d0572b56c","ios":"levelo://app?vid=70882187-6004-46ef-8d9a-d96d0572b56c"},"vehicle_type_id":"4","last_reported":1753460038,"current_range_meters":8800,"station_id":"ce4bhi12rcd13ifvqfp0","pricing_plan_id":"cebpf4jnsgd1na2vs0mg"},{"bike_id":"65a8d36c-a77e-4275-98f6-d1fceee39396","system_id":"levelo_inurba_marseille","lat":43.28351,"lon":5.38111,"is_reserved":false,"is_disabled":false,"rental_uris":{"android":"levelo://app?vid=65a8d36c-a77e-4275-98f6-d1fceee39396","ios":"levelo://app?vid=65a8d36c-a77e-4275-98f6-d1fceee39396"},"vehicle_type_id":"4","last_reported":1753460038,"current_range_meters":8800,"station_id":"ce4bh412rcd13ifvqdr0","pricing_plan_id":"cebpf4jnsgd1na2vs0mg"},{"bike_id":"f28d2bb9-4217-4196-a573-ba6f4c172497","system_id":"levelo_inurba_marseille","lat":43.28172,"lon":5.36087,"is_reserved":false,"is_disabled":false,"rental_uris":{"android":"levelo://app?vid=f28d2bb9-4217-4196-a573-ba6f4c172497","ios":"levelo://app?vid=f28d2bb9-4217-4196-a573-ba6f4c172497"},"vehicle_type_id":"4","last_reported":1753460038,"current_range_meters":8800,"station_id":"","pricing_plan_id":"cebpf4jnsgd1na2vs0mg"},{"bike_id":"f2ed422c-6a7f-4560-ac02-76a502c05e83","system_id":"levelo_inurba_marseille","lat":43.2904,"lon":5.37581,"is_reserved":false,"is_disabled":false,"rental_uris":{"android":"levelo://app?vid=f2ed422c-6a7f-4560-ac02-76a502c05e83","ios":"levelo://app?vid=f2ed422c-6a7f-4560-ac02-76a502c05e83"},"vehicle_type_id":"4","last_reported":1753460038,"current_range_meters":11200,"station_id":"ce4bh692rcd13ifvqe90","pricing_plan_id":"cebpf4jnsgd1na2vs0mg"},{"bike_id":"89808fb0-7784-4c67-aa0f-85624d4e7599","system_id":"levelo_inurba_marseille","lat":43.25115,"lon":5.40324,"is_reserved":false,"is_disabled":false,"rental_uris":{"android":"levelo://app?vid=89808fb0-7784-4c67-aa0f-85624d4e7599","ios":"levelo://app?vid=89808fb0-7784-4c67-aa0f-85624d4e7599"},"vehicle_type_id":"4","last_reported":1753460038,"current_range_meters":9200,"station_id":"ce4bhlh2rcd13ifvqgig","pricing_plan_id":"cebpf4jnsgd1na2vs0mg"},{"bike_id":"6677b716-3fc1-4e4f-9d1b-fb11898aad5a","system_id":"levelo_inurba_marseille","lat":43.30106,"lon":5.398899,"is_reserved":false,"is_disabled":false,"rental_uris":{"android":"levelo://app?vid=6677b716-3fc1-4e4f-9d1b-fb11898aad5a","ios":"levelo://app?vid=6677b716-3fc1-4e4f-9d1b-fb11898aad5a"},"vehicle_type_id":"4","last_reported":1753460038,"current_range_meters":8800,"station_id":"ce4bh0h2rcd13ifvqd40","pricing_plan_id":"cebpf4jnsgd1na2vs0mg"},{"bike_id":"65fabc23-cf2a-4ca8-a868-9941476ce202","system_id":"levelo_inurba_marseille","lat":43.23612,"lon":5.361826,"is_reserved":false,"is_disabled":false,"rental_uris":{"android":"levelo://app?vid=65fabc23-cf2a-4ca8-a868-9941476ce202","ios":"levelo://app?vid=65fabc23-cf2a-4ca8-a868-9941476ce202"},"vehicle_type_id":"4","last_reported":1753460038,"current_range_meters":9200,"station_id":"","pricing_plan_id":"cebpf4jnsgd1na2vs0mg"},{"bike_id":"d21c382a-8de7-4fc9-b8e4-a792d3dd2e73","system_id":"levelo_inurba_marseille","lat":43.28665,"lon":5.38675,"is_reserved":false,"is_disabled":false,"rental_uris":{"android":"levelo://app?vid=d21c382a-8de7-4fc9-b8e4-a792d3dd2e73","ios":"levelo://app?vid=d21c382a-8de7-4fc9-b8e4-a792d3dd2e73"},"vehicle_type_id":"4","last_reported":1753460038,"current_range_meters":9200,"station_id":"ce4bh492rcd13ifvqdug","pricing_plan_id":"cebpf4jnsgd1na2vs0mg"},{"bike_id":"1eefbf58-43f4-4b61-947c-dace442a0adb","system_id":"levelo_inurba_marseille","lat":43.27074,"lon":5.42277,"is_reserved":false,"is_disabled":false,"rental_uris":{"android":"levelo://app?vid=1eefbf58-43f4-4b61-947c-dace442a0adb","ios":"levelo://app?vid=1eefbf58-43f4-4b61-947c-dace442a0adb"},"vehicle_type_id":"4","last_reported":1753460038,"current_range_meters":13600,"station_id":"ce4bhk92rcd13ifvqgb0","pricing_plan_id":"cebpf4jnsgd1na2vs0mg"},{"bike_id":"d074ec9c-13dc-4781-bcdd-5b7118fbd176","system_id":"levelo_inurba_marseille","lat":43.28849,"lon":5.35851,"is_reserved":false,"is_disabled":false,"rental_uris":{"android":"levelo://app?vid=d074ec9c-13dc-4781-bcdd-5b7118fbd176","ios":"levelo://app?vid=d074ec9c-13dc-4781-bcdd-5b7118fbd176"},"vehicle_type_id":"4","last_reported":1753460038,"current_range_meters":9200,"station_id":"ce4bhb12rcd13ifvqem0","pricing_plan_id":"cebpf4jnsgd1na2vs0mg"},{"bike_id":"8901d840-b5dc-4feb-87d6-8502060c062e","system_id":"levelo_inurba_marseille","lat":43.27379,"lon":5.36283,"is_reserved":false,"is_disabled":false,"rental_uris":{"android":"levelo://app?vid=8901d840-b5dc-4feb-87d6-8502060c062e","ios":"levelo://app?vid=8901d840-b5dc-4feb-87d6-8502060c062e"},"vehicle_type_id":"4","last_reported":1753460038,"current_range_meters":9600,"station_id":"ce4bhbh2rcd13ifvqeo0","pricing_plan_id":"cebpf4jnsgd1na2vs0mg"},{"bike_id":"9fae9177-db02-411c-87b2-d8f3ec2f2d27","system_id":"levelo_inurba_marseille","lat":43.28611,"lon":5.35113,"is_reserved":false,"is_disabled":false,"rental_uris":{"android":"levelo://app?vid=9fae9177-db02-411c-87b2-d8f3ec2f2d27","ios":"levelo://app?vid=9fae9177-db02-411c-87b2-d8f3ec2f2d27"},"vehicle_type_id":"4","last_reported":1753460038,"current_range_meters":9600,"station_id":"ce4bhch2rcd13ifvqeug","pricing_plan_id":"cebpf4jnsgd1na2vs0mg"},{"bike_id":"d62fa972-cf10-438d-898e-a03e121f6ffa","system_id":"levelo_inurba_marseille","lat":43.29319,"lon":5.40723,"is_reserved":false,"is_disabled":false,"rental_uris":{"android":"levelo://app?vid=d62fa972-cf10-438d-898e-a03e121f6ffa","ios":"levelo://app?vid=d62fa972-cf10-438d-898e-a03e121f6ffa"},"vehicle_type_id":"4","last_reported":1753460038,"current_range_meters":9600,"station_id":"","pricing_plan_id":"cebpf4jnsgd1na2vs0mg"},{"bike_id":"e0016831-49cb-4d1c-9387-8c7673ee5a14","system_id":"levelo_inurba_marseille","lat":43.298369,"lon":5.362597,"is_reserved":false,"is_disabled":false,"rental_uris":{"android":"levelo://app?vid=e0016831-49cb-4d1c-9387-8c7673ee5a14","ios":"levelo://app?vid=e0016831-49cb-4d1c-9387-8c7673ee5a14"},"vehicle_type_id":"4","last_reported":1753460038,"current_range_meters":9600,"station_id":"ce4bgpp2rcd13ifvqc3g","pricing_plan_id":"cebpf4jnsgd1na2vs0mg"},{"bike_id":"c963afb3-af5f-44ff-a5aa-8b70520765cb","system_id":"levelo_inurba_marseille","lat":43.28012,"lon":5.39998,"is_reserved":false,"is_disabled":false,"rental_uris":{"android":"levelo://app?vid=c963afb3-af5f-44ff-a5aa-8b70520765cb","ios":"levelo://app?vid=c963afb3-af5f-44ff-a5aa-8b70520765cb"},"vehicle_type_id":"4","last_reported":1753460038,"current_range_meters":9600,"station_id":"ce4bho92rcd13ifvqh4g","pricing_plan_id":"cebpf4jnsgd1na2vs0mg"},{"bike_id":"b55c36ec-7b64-4d1b-8750-4a2dc3aad67a","system_id":"levelo_inurba_marseille","lat":43.29191,"lon":5.35792,"is_reserved":false,"is_disabled":false,"rental_uris":{"android":"levelo://app?vid=b55c36ec-7b64-4d1b-8750-4a2dc3aad67a","ios":"levelo://app?vid=b55c36ec-7b64-4d1b-8750-4a2dc3aad67a"},"vehicle_type_id":"4","last_reported":1753460038,"current_range_meters":9600,"station_id":"ce4bhb12rcd13ifvqel0","pricing_plan_id":"cebpf4jnsgd1na2vs0mg"},{"bike_id":"a1676a90-aeae-4e28-8472-3e88e730a66f","system_id":"levelo_inurba_marseille","lat":43.29049,"lon":5.43964,"is_reserved":false,"is_disabled":false,"rental_uris":{"android":"levelo://app?vid=a1676a90-aeae-4e28-8472-3e88e730a66f","ios":"levelo://app?vid=a1676a90-aeae-4e28-8472-3e88e730a66f"},"vehicle_type_id":"4","last_reported":1753460038,"current_range_meters":10000,"station_id":"","pricing_plan_id":"cebpf4jnsgd1na2vs0mg"},{"bike_id":"3229b87b-8569-4a7f-a3e1-f9abb51518a4","system_id":"levelo_inurba_marseille","lat":43.291,"lon":5.38125,"is_reserved":false,"is_disabled":false,"rental_uris":{"android":"levelo://app?vid=3229b87b-8569-4a7f-a3e1-f9abb51518a4","ios":"levelo://app?vid=3229b87b-8569-4a7f-a3e1-f9abb51518a4"},"vehicle_type_id":"4","last_reported":1753460038,"current_range_meters":10000,"station_id":"ce4bh512rcd13ifvqe2g","pricing_plan_id":"cebpf4jnsgd1na2vs0mg"},{"bike_id":"2cdd71c3-85d9-4cbc-ad23-affba8f05218","system_id":"levelo_inurba_marseille","lat":43.28999,"lon":5.35628,"is_reserved":false,"is_disabled":false,"rental_uris":{"android":"levelo://app?vid=2cdd71c3-85d9-4cbc-ad23-affba8f05218","ios":"levelo://app?vid=2cdd71c3-85d9-4cbc-ad23-affba8f05218"},"vehicle_type_id":"4","last_reported":1753460038,"current_range_meters":10000,"station_id":"ce4bhb92rcd13ifvqen0","pricing_plan_id":"cebpf4jnsgd1na2vs0mg"},{"bike_id":"5b94eff9-2e0f-4c0e-b3f6-ab7ca2eca31a","system_id":"levelo_inurba_marseille","lat":43.27375,"lon":5.36223,"is_reserved":false,"is_disabled":true,"rental_uris":{"android":"levelo://app?vid=5b94eff9-2e0f-4c0e-b3f6-ab7ca2eca31a","ios":"levelo://app?vid=5b94eff9-2e0f-4c0e-b3f6-ab7ca2eca31a"},"vehicle_type_id":"4","last_reported":1753460038,"current_range_meters":10000,"station_id":"ce4bhbh2rcd13ifvqeo0","pricing_plan_id":"cebpf4jnsgd1na2vs0mg"},{"bike_id":"2e8e7fa4-47bc-4567-b903-96abfb4fdf66","system_id":"levelo_inurba_marseille","lat":43.29701,"lon":5.44183,"is_reserved":false,"is_disabled":false,"rental_uris":{"android":"levelo://app?vid=2e8e7fa4-47bc-4567-b903-96abfb4fdf66","ios":"levelo://app?vid=2e8e7fa4-47bc-4567-b903-96abfb4fdf66"},"vehicle_type_id":"4","last_reported":1753460038,"current_range_meters":10000,"station_id":"","pricing_plan_id":"cebpf4jnsgd1na2vs0mg"},{"bike_id":"51f685b0-1ea1-493c-a9b6-332e9482cb8a","system_id":"levelo_inurba_marseille","lat":43.2623,"lon":5.40451,"is_reserved":false,"is_disabled":false,"rental_uris":{"android":"levelo://app?vid=51f685b0-1ea1-493c-a9b6-332e9482cb8a","ios":"levelo://app?vid=51f685b0-1ea1-493c-a9b6-332e9482cb8a"},"vehicle_type_id":"4","last_reported":1753460038,"current_range_meters":10000,"station_id":"ce4bhmh2rcd13ifvqgmg","pricing_plan_id":"cebpf4jnsgd1na2vs0mg"},{"bike_id":"9229263b-c44d-4dce-bb99-0b78f3cbc575","system_id":"levelo_inurba_marseille","lat":43.29574,"lon":5.39963,"is_reserved":false,"is_disabled":false,"rental_uris":{"android":"levelo://app?vid=9229263b-c44d-4dce-bb99-0b78f3cbc575","ios":"levelo://app?vid=9229263b-c44d-4dce-bb99-0b78f3cbc575"},"vehicle_type_id":"4","last_reported":1753460038,"current_range_meters":9600,"station_id":"ce4bh312rcd13ifvqdj0","pricing_plan_id":"cebpf4jnsgd1na2vs0mg"},{"bike_id":"28996d9d-408c-45cd-a5b6-7cffea0dfd1b","system_id":"levelo_inurba_marseille","lat":43.24387,"lon":5.37065,"is_reserved":false,"is_disabled":false,"rental_uris":{"android":"levelo://app?vid=28996d9d-408c-45cd-a5b6-7cffea0dfd1b","ios":"levelo://app?vid=28996d9d-408c-45cd-a5b6-7cffea0dfd1b"},"vehicle_type_id":"4","last_reported":1753460038,"current_range_meters":8000,"station_id":"ce4bhhh2rcd13ifvqfk0","pricing_plan_id":"cebpf4jnsgd1na2vs0mg"},{"bike_id":"aaab88fe-0e8a-4ca0-b847-ba0aaa02d49c","system_id":"levelo_inurba_marseille","lat":43.23195,"lon":5.35551,"is_reserved":false,"is_disabled":false,"rental_uris":{"android":"levelo://app?vid=aaab88fe-0e8a-4ca0-b847-ba0aaa02d49c","ios":"levelo://app?vid=aaab88fe-0e8a-4ca0-b847-ba0aaa02d49c"},"vehicle_type_id":"4","last_reported":1753460038,"current_range_meters":10800,"station_id":"ce4bhu92rcd13ifvqi70","pricing_plan_id":"cebpf4jnsgd1na2vs0mg"},{"bike_id":"d68f3124-e473-42d9-93d7-0d6c6613e4e0","system_id":"levelo_inurba_marseille","lat":43.28858,"lon":5.35837,"is_reserved":false,"is_disabled":false,"rental_uris":{"android":"levelo://app?vid=d68f3124-e473-42d9-93d7-0d6c6613e4e0","ios":"levelo://app?vid=d68f3124-e473-42d9-93d7-0d6c6613e4e0"},"vehicle_type_id":"4","last_reported":1753460038,"current_range_meters":10800,"station_id":"ce4bhb12rcd13ifvqem0","pricing_plan_id":"cebpf4jnsgd1na2vs0mg"},{"bike_id":"42e541a3-11e3-4d98-a9ec-6dd63fb4199b","system_id":"levelo_inurba_marseille","lat":43.3042,"lon":5.42457,"is_reserved":false,"is_disabled":false,"rental_uris":{"android":"levelo://app?vid=42e541a3-11e3-4d98-a9ec-6dd63fb4199b","ios":"levelo://app?vid=42e541a3-11e3-4d98-a9ec-6dd63fb4199b"},"vehicle_type_id":"4","last_reported":1753460038,"current_range_meters":10800,"station_id":"ce4bhoh2rcd13ifvqh6g","pricing_plan_id":"cebpf4jnsgd1na2vs0mg"},{"bike_id":"8cfb561b-6069-421d-8f39-be60da80fb96","system_id":"levelo_inurba_marseille","lat":43.29531,"lon":5.38549,"is_reserved":false,"is_disabled":false,"rental_uris":{"android":"levelo://app?vid=8cfb561b-6069-421d-8f39-be60da80fb96","ios":"levelo://app?vid=8cfb561b-6069-421d-8f39-be60da80fb96"},"vehicle_type_id":"4","last_reported":1753460038,"current_range_meters":7200,"station_id":"ce4bgih2rcd13ifvqba0","pricing_plan_id":"cebpf4jnsgd1na2vs0mg"},{"bike_id":"dd476682-98c0-492a-b39b-e7b1106bdd1e","system_id":"levelo_inurba_marseille","lat":43.28852,"lon":5.39304,"is_reserved":false,"is_disabled":false,"rental_uris":{"android":"levelo://app?vid=dd476682-98c0-492a-b39b-e7b1106bdd1e","ios":"levelo://app?vid=dd476682-98c0-492a-b39b-e7b1106bdd1e"},"vehicle_type_id":"4","last_reported":1753460038,"current_range_meters":10800,"station_id":"ce4bh2p2rcd13ifvqdi0","pricing_plan_id":"cebpf4jnsgd1na2vs0mg"},{"bike_id":"f7623b57-5f88-4ef7-8535-1d8b44f90d27","system_id":"levelo_inurba_marseille","lat":43.22503,"lon":5.34774,"is_reserved":false,"is_disabled":false,"rental_uris":{"android":"levelo://app?vid=f7623b57-5f88-4ef7-8535-1d8b44f90d27","ios":"levelo://app?vid=f7623b57-5f88-4ef7-8535-1d8b44f90d27"},"vehicle_type_id":"4","last_reported":1753460038,"current_range_meters":10800,"station_id":"","pricing_plan_id":"cebpf4jnsgd1na2vs0mg"},{"bike_id":"ff30a5ee-0e9d-4bfa-a593-c7beaf9df463","system_id":"levelo_inurba_marseille","lat":43.33538,"lon":5.36195,"is_reserved":false,"is_disabled":false,"rental_uris":{"android":"levelo://app?vid=ff30a5ee-0e9d-4bfa-a593-c7beaf9df463","ios":"levelo://app?vid=ff30a5ee-0e9d-4bfa-a593-c7beaf9df463"},"vehicle_type_id":"4","last_reported":1753460038,"current_range_meters":10800,"station_id":"","pricing_plan_id":"cebpf4jnsgd1na2vs0mg"},{"bike_id":"ac7f3c2f-452c-4620-beb4-96f9c8da3434","system_id":"levelo_inurba_marseille","lat":43.30626,"lon":5.38498,"is_reserved":false,"is_disabled":false,"rental_uris":{"android":"levelo://app?vid=ac7f3c2f-452c-4620-beb4-96f9c8da3434","ios":"levelo://app?vid=ac7f3c2f-452c-4620-beb4-96f9c8da3434"},"vehicle_type_id":"4","last_reported":1753460038,"current_range_meters":10800,"station_id":"","pricing_plan_id":"cebpf4jnsgd1na2vs0mg"},{"bike_id":"7feb8988-afa4-483f-89aa-ea1cccb350f6","system_id":"levelo_inurba_marseille","lat":43.29577,"lon":5.39985,"is_reserved":false,"is_disabled":false,"rental_uris":{"android":"levelo://app?vid=7feb8988-afa4-483f-89aa-ea1cccb350f6","ios":"levelo://app?vid=7feb8988-afa4-483f-89aa-ea1cccb350f6"},"vehicle_type_id":"4","last_reported":1753460038,"current_range_meters":10800,"station_id":"ce4bh312rcd13ifvqdj0","pricing_plan_id":"cebpf4jnsgd1na2vs0mg"},{"bike_id":"d9abc884-1e39-4c17-a75b-1a0653aa2b43","system_id":"levelo_inurba_marseille","lat":43.28611,"lon":5.35102,"is_reserved":false,"is_disabled":false,"rental_uris":{"android":"levelo://app?vid=d9abc884-1e39-4c17-a75b-1a0653aa2b43","ios":"levelo://app?vid=d9abc884-1e39-4c17-a75b-1a0653aa2b43"},"vehicle_type_id":"4","last_reported":1753460038,"current_range_meters":10800,"station_id":"ce4bhch2rcd13ifvqeug","pricing_plan_id":"cebpf4jnsgd1na2vs0mg"},{"bike_id":"79079a9a-8322-4f6c-a9e6-9aba90ee17ba","system_id":"levelo_inurba_marseille","lat":43.337761,"lon":5.374285,"is_reserved":false,"is_disabled":false,"rental_uris":{"android":"levelo://app?vid=79079a9a-8322-4f6c-a9e6-9aba90ee17ba","ios":"levelo://app?vid=79079a9a-8322-4f6c-a9e6-9aba90ee17ba"},"vehicle_type_id":"4","last_reported":1753460038,"current_range_meters":10800,"station_id":"","pricing_plan_id":"cebpf4jnsgd1na2vs0mg"},{"bike_id":"35ee41ab-1155-4c5d-a3ff-d1e05b86be8c","system_id":"levelo_inurba_marseille","lat":43.31285,"lon":5.43072,"is_reserved":false,"is_disabled":false,"rental_uris":{"android":"levelo://app?vid=35ee41ab-1155-4c5d-a3ff-d1e05b86be8c","ios":"levelo://app?vid=35ee41ab-1155-4c5d-a3ff-d1e05b86be8c"},"vehicle_type_id":"4","last_reported":1753460038,"current_range_meters":10800,"station_id":"","pricing_plan_id":"cebpf4jnsgd1na2vs0mg"},{"bike_id":"eca7bab0-33c7-4f8f-8cfc-e9584415e940","system_id":"levelo_inurba_marseille","lat":43.26027,"lon":5.37549,"is_reserved":false,"is_disabled":false,"rental_uris":{"android":"levelo://app?vid=eca7bab0-33c7-4f8f-8cfc-e9584415e940","ios":"levelo://app?vid=eca7bab0-33c7-4f8f-8cfc-e9584415e940"},"vehicle_type_id":"4","last_reported":1753460038,"current_range_meters":10800,"station_id":"","pricing_plan_id":"cebpf4jnsgd1na2vs0mg"},{"bike_id":"54862db9-d20a-43a1-a5c8-d44f6515d2d4","system_id":"levelo_inurba_marseille","lat":43.2917,"lon":5.37157,"is_reserved":false,"is_disabled":false,"rental_uris":{"android":"levelo://app?vid=54862db9-d20a-43a1-a5c8-d44f6515d2d4","ios":"levelo://app?vid=54862db9-d20a-43a1-a5c8-d44f6515d2d4"},"vehicle_type_id":"4","last_reported":1753460038,"current_range_meters":10800,"station_id":"ce4bha92rcd13ifvqeh0","pricing_plan_id":"cebpf4jnsgd1na2vs0mg"},{"bike_id":"f8675083-8ec4-4d15-b87e-bb22cb12616f","system_id":"levelo_inurba_marseille","lat":43.32121,"lon":5.36761,"is_reserved":false,"is_disabled":false,"rental_uris":{"android":"levelo://app?vid=f8675083-8ec4-4d15-b87e-bb22cb12616f","ios":"levelo://app?vid=f8675083-8ec4-4d15-b87e-bb22cb12616f"},"vehicle_type_id":"4","last_reported":1753460038,"current_range_meters":11200,"station_id":"ce4bhrh2rcd13ifvqhug","pricing_plan_id":"cebpf4jnsgd1na2vs0mg"},{"bike_id":"0939eecf-ab8e-4e0f-8dde-ab5f40cfd3cc","system_id":"levelo_inurba_marseille","lat":43.28421,"lon":5.34992,"is_reserved":false,"is_disabled":true,"rental_uris":{"android":"levelo://app?vid=0939eecf-ab8e-4e0f-8dde-ab5f40cfd3cc","ios":"levelo://app?vid=0939eecf-ab8e-4e0f-8dde-ab5f40cfd3cc"},"vehicle_type_id":"4","last_reported":1753460038,"current_range_meters":11200,"station_id":"ce4bhbh2rcd13ifvqepg","pricing_plan_id":"cebpf4jnsgd1na2vs0mg"},{"bike_id":"082808f4-9aa1-4204-8466-c0dcbaa4e71d","system_id":"levelo_inurba_marseille","lat":43.24547,"lon":5.39523,"is_reserved":false,"is_disabled":false,"rental_uris":{"android":"levelo://app?vid=082808f4-9aa1-4204-8466-c0dcbaa4e71d","ios":"levelo://app?vid=082808f4-9aa1-4204-8466-c0dcbaa4e71d"},"vehicle_type_id":"4","last_reported":1753460038,"current_range_meters":10800,"station_id":"ce4bhlp2rcd13ifvqgjg","pricing_plan_id":"cebpf4jnsgd1na2vs0mg"},{"bike_id":"b0642f06-95ff-41f6-9f4a-0722c8309d1c","system_id":"levelo_inurba_marseille","lat":43.26886,"lon":5.36871,"is_reserved":false,"is_disabled":false,"rental_uris":{"android":"levelo://app?vid=b0642f06-95ff-41f6-9f4a-0722c8309d1c","ios":"levelo://app?vid=b0642f06-95ff-41f6-9f4a-0722c8309d1c"},"vehicle_type_id":"4","last_reported":1753460038,"current_range_meters":11600,"station_id":"","pricing_plan_id":"cebpf4jnsgd1na2vs0mg"},{"bike_id":"1c31f24b-2b9e-48c3-b103-bffd32b92420","system_id":"levelo_inurba_marseille","lat":43.3352,"lon":5.40845,"is_reserved":false,"is_disabled":false,"rental_uris":{"android":"levelo://app?vid=1c31f24b-2b9e-48c3-b103-bffd32b92420","ios":"levelo://app?vid=1c31f24b-2b9e-48c3-b103-bffd32b92420"},"vehicle_type_id":"4","last_reported":1753460038,"current_range_meters":11600,"station_id":"","pricing_plan_id":"cebpf4jnsgd1na2vs0mg"},{"bike_id":"43cf4049-15dd-4e8c-88a8-61cd8dc10bf5","system_id":"levelo_inurba_marseille","lat":43.3342,"lon":5.39779,"is_reserved":false,"is_disabled":false,"rental_uris":{"android":"levelo://app?vid=43cf4049-15dd-4e8c-88a8-61cd8dc10bf5","ios":"levelo://app?vid=43cf4049-15dd-4e8c-88a8-61cd8dc10bf5"},"vehicle_type_id":"4","last_reported":1753460038,"current_range_meters":11600,"station_id":"","pricing_plan_id":"cebpf4jnsgd1na2vs0mg"},{"bike_id":"378521b9-2f88-49b6-9620-86cb628eab29","system_id":"levelo_inurba_marseille","lat":43.27179,"lon":5.40992,"is_reserved":false,"is_disabled":false,"rental_uris":{"android":"levelo://app?vid=378521b9-2f88-49b6-9620-86cb628eab29","ios":"levelo://app?vid=378521b9-2f88-49b6-9620-86cb628eab29"},"vehicle_type_id":"4","last_reported":1753460038,"current_range_meters":11600,"station_id":"ce4bhl12rcd13ifvqgf0","pricing_plan_id":"cebpf4jnsgd1na2vs0mg"},{"bike_id":"9067c7cd-2e8a-4ff2-b9ba-128ce3753ddc","system_id":"levelo_inurba_marseille","lat":43.28422,"lon":5.34988,"is_reserved":false,"is_disabled":false,"rental_uris":{"android":"levelo://app?vid=9067c7cd-2e8a-4ff2-b9ba-128ce3753ddc","ios":"levelo://app?vid=9067c7cd-2e8a-4ff2-b9ba-128ce3753ddc"},"vehicle_type_id":"4","last_reported":1753460038,"current_range_meters":11600,"station_id":"ce4bhbh2rcd13ifvqepg","pricing_plan_id":"cebpf4jnsgd1na2vs0mg"},{"bike_id":"db22ab85-3235-400a-818d-9d01edd69a83","system_id":"levelo_inurba_marseille","lat":43.27912,"lon":5.39587,"is_reserved":false,"is_disabled":false,"rental_uris":{"android":"levelo://app?vid=db22ab85-3235-400a-818d-9d01edd69a83","ios":"levelo://app?vid=db22ab85-3235-400a-818d-9d01edd69a83"},"vehicle_type_id":"4","last_reported":1753460038,"current_range_meters":11600,"station_id":"ce4bhf92rcd13ifvqf40","pricing_plan_id":"cebpf4jnsgd1na2vs0mg"},{"bike_id":"9a0236cf-a9bd-472a-b64b-97bbc97765a0","system_id":"levelo_inurba_marseille","lat":43.312784,"lon":5.401755,"is_reserved":false,"is_disabled":false,"rental_uris":{"android":"levelo://app?vid=9a0236cf-a9bd-472a-b64b-97bbc97765a0","ios":"levelo://app?vid=9a0236cf-a9bd-472a-b64b-97bbc97765a0"},"vehicle_type_id":"4","last_reported":1753460038,"current_range_meters":11600,"station_id":"ce4bh092rcd13ifvqd30","pricing_plan_id":"cebpf4jnsgd1na2vs0mg"},{"bike_id":"a12459fb-772e-4b74-9514-784297907c96","system_id":"levelo_inurba_marseille","lat":43.27063,"lon":5.42281,"is_reserved":false,"is_disabled":false,"rental_uris":{"android":"levelo://app?vid=a12459fb-772e-4b74-9514-784297907c96","ios":"levelo://app?vid=a12459fb-772e-4b74-9514-784297907c96"},"vehicle_type_id":"4","last_reported":1753460038,"current_range_meters":11600,"station_id":"ce4bhk92rcd13ifvqgb0","pricing_plan_id":"cebpf4jnsgd1na2vs0mg"},{"bike_id":"4d344348-7f96-4ed6-ab24-56cde583d817","system_id":"levelo_inurba_marseille","lat":43.24159,"lon":5.36401,"is_reserved":false,"is_disabled":false,"rental_uris":{"android":"levelo://app?vid=4d344348-7f96-4ed6-ab24-56cde583d817","ios":"levelo://app?vid=4d344348-7f96-4ed6-ab24-56cde583d817"},"vehicle_type_id":"4","last_reported":1753460038,"current_range_meters":11600,"station_id":"cpo36qri1sfpv3e86is0","pricing_plan_id":"cebpf4jnsgd1na2vs0mg"},{"bike_id":"e412b200-e79e-461c-95dc-3828ee643915","system_id":"levelo_inurba_marseille","lat":43.303009,"lon":5.392191,"is_reserved":false,"is_disabled":false,"rental_uris":{"android":"levelo://app?vid=e412b200-e79e-461c-95dc-3828ee643915","ios":"levelo://app?vid=e412b200-e79e-461c-95dc-3828ee643915"},"vehicle_type_id":"4","last_reported":1753460038,"current_range_meters":12000,"station_id":"ce4bgkh2rcd13ifvqbk0","pricing_plan_id":"cebpf4jnsgd1na2vs0mg"},{"bike_id":"b530595d-f0aa-4b55-ae95-1501387d5bb8","system_id":"levelo_inurba_marseille","lat":43.30415,"lon":5.41286,"is_reserved":false,"is_disabled":false,"rental_uris":{"android":"levelo://app?vid=b530595d-f0aa-4b55-ae95-1501387d5bb8","ios":"levelo://app?vid=b530595d-f0aa-4b55-ae95-1501387d5bb8"},"vehicle_type_id":"4","last_reported":1753460038,"current_range_meters":12000,"station_id":"ce4bhop2rcd13ifvqh8g","pricing_plan_id":"cebpf4jnsgd1na2vs0mg"},{"bike_id":"7587fbe7-2313-4f4c-8bf9-dd0b11582574","system_id":"levelo_inurba_marseille","lat":43.29012,"lon":5.35609,"is_reserved":false,"is_disabled":false,"rental_uris":{"android":"levelo://app?vid=7587fbe7-2313-4f4c-8bf9-dd0b11582574","ios":"levelo://app?vid=7587fbe7-2313-4f4c-8bf9-dd0b11582574"},"vehicle_type_id":"4","last_reported":1753460038,"current_range_meters":12000,"station_id":"ce4bhb92rcd13ifvqen0","pricing_plan_id":"cebpf4jnsgd1na2vs0mg"},{"bike_id":"490fd0a3-3ae2-4135-acff-5c94025f5f04","system_id":"levelo_inurba_marseille","lat":43.27938,"lon":5.39555,"is_reserved":false,"is_disabled":true,"rental_uris":{"android":"levelo://app?vid=490fd0a3-3ae2-4135-acff-5c94025f5f04","ios":"levelo://app?vid=490fd0a3-3ae2-4135-acff-5c94025f5f04"},"vehicle_type_id":"4","last_reported":1753460038,"current_range_meters":12400,"station_id":"ce4bhf92rcd13ifvqf40","pricing_plan_id":"cebpf4jnsgd1na2vs0mg"},{"bike_id":"42ae8987-466e-4721-a2fa-468b3da5e5fe","system_id":"levelo_inurba_marseille","lat":43.2846,"lon":5.35894,"is_reserved":false,"is_disabled":false,"rental_uris":{"android":"levelo://app?vid=42ae8987-466e-4721-a2fa-468b3da5e5fe","ios":"levelo://app?vid=42ae8987-466e-4721-a2fa-468b3da5e5fe"},"vehicle_type_id":"4","last_reported":1753460038,"current_range_meters":12400,"station_id":"ce4bhah2rcd13ifvqei0","pricing_plan_id":"cebpf4jnsgd1na2vs0mg"},{"bike_id":"328673d5-1342-4bf1-9c56-f2f874a3c34e","system_id":"levelo_inurba_marseille","lat":43.29317,"lon":5.37471,"is_reserved":false,"is_disabled":false,"rental_uris":{"android":"levelo://app?vid=328673d5-1342-4bf1-9c56-f2f874a3c34e","ios":"levelo://app?vid=328673d5-1342-4bf1-9c56-f2f874a3c34e"},"vehicle_type_id":"4","last_reported":1753460038,"current_range_meters":10800,"station_id":"ce4bgi12rcd13ifvqb70","pricing_plan_id":"cebpf4jnsgd1na2vs0mg"},{"bike_id":"34a2e458-d2d9-4dd2-8286-a0218386a409","system_id":"levelo_inurba_marseille","lat":43.27376,"lon":5.36251,"is_reserved":false,"is_disabled":false,"rental_uris":{"android":"levelo://app?vid=34a2e458-d2d9-4dd2-8286-a0218386a409","ios":"levelo://app?vid=34a2e458-d2d9-4dd2-8286-a0218386a409"},"vehicle_type_id":"4","last_reported":1753460038,"current_range_meters":12800,"station_id":"ce4bhbh2rcd13ifvqeo0","pricing_plan_id":"cebpf4jnsgd1na2vs0mg"},{"bike_id":"f5946966-362d-4482-95cd-26bc2fe9dcf5","system_id":"levelo_inurba_marseille","lat":43.293666,"lon":5.378406,"is_reserved":false,"is_disabled":false,"rental_uris":{"android":"levelo://app?vid=f5946966-362d-4482-95cd-26bc2fe9dcf5","ios":"levelo://app?vid=f5946966-362d-4482-95cd-26bc2fe9dcf5"},"vehicle_type_id":"4","last_reported":1753460038,"current_range_meters":12800,"station_id":"ce4bgjh2rcd13ifvqbf0","pricing_plan_id":"cebpf4jnsgd1na2vs0mg"},{"bike_id":"078febbd-6d49-4abf-8b46-d33f87f8da46","system_id":"levelo_inurba_marseille","lat":43.25455,"lon":5.37996,"is_reserved":false,"is_disabled":false,"rental_uris":{"android":"levelo://app?vid=078febbd-6d49-4abf-8b46-d33f87f8da46","ios":"levelo://app?vid=078febbd-6d49-4abf-8b46-d33f87f8da46"},"vehicle_type_id":"4","last_reported":1753460038,"current_range_meters":12800,"station_id":"","pricing_plan_id":"cebpf4jnsgd1na2vs0mg"},{"bike_id":"5d7cab9a-17de-4bd5-9961-ff32f18c1c46","system_id":"levelo_inurba_marseille","lat":43.30592,"lon":5.39353,"is_reserved":false,"is_disabled":false,"rental_uris":{"android":"levelo://app?vid=5d7cab9a-17de-4bd5-9961-ff32f18c1c46","ios":"levelo://app?vid=5d7cab9a-17de-4bd5-9961-ff32f18c1c46"},"vehicle_type_id":"4","last_reported":1753460038,"current_range_meters":12800,"station_id":"ce4bh0p2rcd13ifvqd80","pricing_plan_id":"cebpf4jnsgd1na2vs0mg"},{"bike_id":"1419f639-8f0c-411a-bd3b-46b74185e2d8","system_id":"levelo_inurba_marseille","lat":43.30893,"lon":5.37187,"is_reserved":false,"is_disabled":false,"rental_uris":{"android":"levelo://app?vid=1419f639-8f0c-411a-bd3b-46b74185e2d8","ios":"levelo://app?vid=1419f639-8f0c-411a-bd3b-46b74185e2d8"},"vehicle_type_id":"4","last_reported":1753460038,"current_range_meters":12800,"station_id":"ce4bguh2rcd13ifvqckg","pricing_plan_id":"cebpf4jnsgd1na2vs0mg"},{"bike_id":"71258c65-3dee-4a65-a037-dcda1783505a","system_id":"levelo_inurba_marseille","lat":43.31508,"lon":5.3692,"is_reserved":false,"is_disabled":false,"rental_uris":{"android":"levelo://app?vid=71258c65-3dee-4a65-a037-dcda1783505a","ios":"levelo://app?vid=71258c65-3dee-4a65-a037-dcda1783505a"},"vehicle_type_id":"4","last_reported":1753460038,"current_range_meters":12800,"station_id":"","pricing_plan_id":"cebpf4jnsgd1na2vs0mg"},{"bike_id":"a6513558-f13b-4f64-933f-60c5a1434fd8","system_id":"levelo_inurba_marseille","lat":43.294787,"lon":5.381742,"is_reserved":false,"is_disabled":false,"rental_uris":{"android":"levelo://app?vid=a6513558-f13b-4f64-933f-60c5a1434fd8","ios":"levelo://app?vid=a6513558-f13b-4f64-933f-60c5a1434fd8"},"vehicle_type_id":"4","last_reported":1753460038,"current_range_meters":12400,"station_id":"ce4bh612rcd13ifvqe6g","pricing_plan_id":"cebpf4jnsgd1na2vs0mg"},{"bike_id":"c017b4de-074c-46ed-bc0a-5b7912813135","system_id":"levelo_inurba_marseille","lat":43.260826,"lon":5.373154,"is_reserved":false,"is_disabled":false,"rental_uris":{"android":"levelo://app?vid=c017b4de-074c-46ed-bc0a-5b7912813135","ios":"levelo://app?vid=c017b4de-074c-46ed-bc0a-5b7912813135"},"vehicle_type_id":"4","last_reported":1753460038,"current_range_meters":12800,"station_id":"","pricing_plan_id":"cebpf4jnsgd1na2vs0mg"},{"bike_id":"0b4a2858-f646-4670-be07-42485ec48748","system_id":"levelo_inurba_marseille","lat":43.30789,"lon":5.3764,"is_reserved":false,"is_disabled":false,"rental_uris":{"android":"levelo://app?vid=0b4a2858-f646-4670-be07-42485ec48748","ios":"levelo://app?vid=0b4a2858-f646-4670-be07-42485ec48748"},"vehicle_type_id":"4","last_reported":1753460038,"current_range_meters":12800,"station_id":"ce4bgv92rcd13ifvqcq0","pricing_plan_id":"cebpf4jnsgd1na2vs0mg"},{"bike_id":"12f1ccbe-caad-447a-81e6-68f78b4f48b3","system_id":"levelo_inurba_marseille","lat":43.28534,"lon":5.35182,"is_reserved":false,"is_disabled":false,"rental_uris":{"android":"levelo://app?vid=12f1ccbe-caad-447a-81e6-68f78b4f48b3","ios":"levelo://app?vid=12f1ccbe-caad-447a-81e6-68f78b4f48b3"},"vehicle_type_id":"4","last_reported":1753460038,"current_range_meters":13600,"station_id":"","pricing_plan_id":"cebpf4jnsgd1na2vs0mg"},{"bike_id":"5440a182-b760-4205-92c8-d9ab0a9c67c8","system_id":"levelo_inurba_marseille","lat":43.28426,"lon":5.3498,"is_reserved":false,"is_disabled":true,"rental_uris":{"android":"levelo://app?vid=5440a182-b760-4205-92c8-d9ab0a9c67c8","ios":"levelo://app?vid=5440a182-b760-4205-92c8-d9ab0a9c67c8"},"vehicle_type_id":"4","last_reported":1753460038,"current_range_meters":13600,"station_id":"ce4bhbh2rcd13ifvqepg","pricing_plan_id":"cebpf4jnsgd1na2vs0mg"},{"bike_id":"1189c360-e3cc-44e3-873f-22f5188fa907","system_id":"levelo_inurba_marseille","lat":43.268724,"lon":5.401908,"is_reserved":false,"is_disabled":false,"rental_uris":{"android":"levelo://app?vid=1189c360-e3cc-44e3-873f-22f5188fa907","ios":"levelo://app?vid=1189c360-e3cc-44e3-873f-22f5188fa907"},"vehicle_type_id":"4","last_reported":1753460038,"current_range_meters":13600,"station_id":"ce4bhgp2rcd13ifvqfd0","pricing_plan_id":"cebpf4jnsgd1na2vs0mg"},{"bike_id":"a1e2d411-0528-4291-8889-0f1e09d64329","system_id":"levelo_inurba_marseille","lat":43.305096,"lon":5.393275,"is_reserved":false,"is_disabled":false,"rental_uris":{"android":"levelo://app?vid=a1e2d411-0528-4291-8889-0f1e09d64329","ios":"levelo://app?vid=a1e2d411-0528-4291-8889-0f1e09d64329"},"vehicle_type_id":"4","last_reported":1753460038,"current_range_meters":13600,"station_id":"ce4bh0p2rcd13ifvqd80","pricing_plan_id":"cebpf4jnsgd1na2vs0mg"},{"bike_id":"591fb768-7e78-4b54-88b5-e73a5af76b19","system_id":"levelo_inurba_marseille","lat":43.229205,"lon":5.353712,"is_reserved":false,"is_disabled":false,"rental_uris":{"android":"levelo://app?vid=591fb768-7e78-4b54-88b5-e73a5af76b19","ios":"levelo://app?vid=591fb768-7e78-4b54-88b5-e73a5af76b19"},"vehicle_type_id":"4","last_reported":1753460038,"current_range_meters":13600,"station_id":"cpo3532slgdg3j2ikp40","pricing_plan_id":"cebpf4jnsgd1na2vs0mg"},{"bike_id":"00715a9a-6ee7-488b-a172-e4574c85ffc3","system_id":"levelo_inurba_marseille","lat":43.28936,"lon":5.38383,"is_reserved":false,"is_disabled":false,"rental_uris":{"android":"levelo://app?vid=00715a9a-6ee7-488b-a172-e4574c85ffc3","ios":"levelo://app?vid=00715a9a-6ee7-488b-a172-e4574c85ffc3"},"vehicle_type_id":"4","last_reported":1753460038,"current_range_meters":13600,"station_id":"ce4bh612rcd13ifvqe6g","pricing_plan_id":"cebpf4jnsgd1na2vs0mg"},{"bike_id":"c2977d1e-296b-4b02-b492-b1d48457b948","system_id":"levelo_inurba_marseille","lat":43.27844,"lon":5.39212,"is_reserved":false,"is_disabled":false,"rental_uris":{"android":"levelo://app?vid=c2977d1e-296b-4b02-b492-b1d48457b948","ios":"levelo://app?vid=c2977d1e-296b-4b02-b492-b1d48457b948"},"vehicle_type_id":"4","last_reported":1753460038,"current_range_meters":14000,"station_id":"ce4bhjp2rcd13ifvqga0","pricing_plan_id":"cebpf4jnsgd1na2vs0mg"},{"bike_id":"0edcce4d-8430-4cec-9c0e-b4962c3eabfe","system_id":"levelo_inurba_marseille","lat":43.28654,"lon":5.38651,"is_reserved":false,"is_disabled":false,"rental_uris":{"android":"levelo://app?vid=0edcce4d-8430-4cec-9c0e-b4962c3eabfe","ios":"levelo://app?vid=0edcce4d-8430-4cec-9c0e-b4962c3eabfe"},"vehicle_type_id":"4","last_reported":1753460038,"current_range_meters":14000,"station_id":"ce4bh492rcd13ifvqdug","pricing_plan_id":"cebpf4jnsgd1na2vs0mg"},{"bike_id":"ccca3042-9358-40fc-ac03-e327e01c225f","system_id":"levelo_inurba_marseille","lat":43.232948,"lon":5.361106,"is_reserved":false,"is_disabled":false,"rental_uris":{"android":"levelo://app?vid=ccca3042-9358-40fc-ac03-e327e01c225f","ios":"levelo://app?vid=ccca3042-9358-40fc-ac03-e327e01c225f"},"vehicle_type_id":"4","last_reported":1753460038,"current_range_meters":14000,"station_id":"","pricing_plan_id":"cebpf4jnsgd1na2vs0mg"},{"bike_id":"a3fe9995-2e3e-423b-9540-429a92fa997e","system_id":"levelo_inurba_marseille","lat":43.30184,"lon":5.37216,"is_reserved":false,"is_disabled":false,"rental_uris":{"android":"levelo://app?vid=a3fe9995-2e3e-423b-9540-429a92fa997e","ios":"levelo://app?vid=a3fe9995-2e3e-423b-9540-429a92fa997e"},"vehicle_type_id":"4","last_reported":1753460038,"current_range_meters":14000,"station_id":"","pricing_plan_id":"cebpf4jnsgd1na2vs0mg"},{"bike_id":"14290dc3-0ecb-4c09-bf2e-6db4a8e35188","system_id":"levelo_inurba_marseille","lat":43.243883,"lon":5.370647,"is_reserved":false,"is_disabled":false,"rental_uris":{"android":"levelo://app?vid=14290dc3-0ecb-4c09-bf2e-6db4a8e35188","ios":"levelo://app?vid=14290dc3-0ecb-4c09-bf2e-6db4a8e35188"},"vehicle_type_id":"4","last_reported":1753460038,"current_range_meters":14000,"station_id":"ce4bhhh2rcd13ifvqfk0","pricing_plan_id":"cebpf4jnsgd1na2vs0mg"},{"bike_id":"775d7352-96b7-4b67-b05a-6e361319c894","system_id":"levelo_inurba_marseille","lat":43.28421,"lon":5.34989,"is_reserved":false,"is_disabled":false,"rental_uris":{"android":"levelo://app?vid=775d7352-96b7-4b67-b05a-6e361319c894","ios":"levelo://app?vid=775d7352-96b7-4b67-b05a-6e361319c894"},"vehicle_type_id":"4","last_reported":1753460038,"current_range_meters":14400,"station_id":"ce4bhbh2rcd13ifvqepg","pricing_plan_id":"cebpf4jnsgd1na2vs0mg"},{"bike_id":"6aee0e72-1303-4f7b-b13a-045646186055","system_id":"levelo_inurba_marseille","lat":43.23199,"lon":5.35559,"is_reserved":false,"is_disabled":false,"rental_uris":{"android":"levelo://app?vid=6aee0e72-1303-4f7b-b13a-045646186055","ios":"levelo://app?vid=6aee0e72-1303-4f7b-b13a-045646186055"},"vehicle_type_id":"4","last_reported":1753460038,"current_range_meters":14400,"station_id":"ce4bhu92rcd13ifvqi70","pricing_plan_id":"cebpf4jnsgd1na2vs0mg"},{"bike_id":"a599a931-cd0b-4371-bf32-405cc907a4d9","system_id":"levelo_inurba_marseille","lat":43.27101,"lon":5.42293,"is_reserved":false,"is_disabled":false,"rental_uris":{"android":"levelo://app?vid=a599a931-cd0b-4371-bf32-405cc907a4d9","ios":"levelo://app?vid=a599a931-cd0b-4371-bf32-405cc907a4d9"},"vehicle_type_id":"4","last_reported":1753460038,"current_range_meters":14000,"station_id":"ce4bhk92rcd13ifvqgb0","pricing_plan_id":"cebpf4jnsgd1na2vs0mg"},{"bike_id":"9dd87b6a-2fce-4766-a145-2c22469fcbdf","system_id":"levelo_inurba_marseille","lat":43.23965,"lon":5.36635,"is_reserved":false,"is_disabled":false,"rental_uris":{"android":"levelo://app?vid=9dd87b6a-2fce-4766-a145-2c22469fcbdf","ios":"levelo://app?vid=9dd87b6a-2fce-4766-a145-2c22469fcbdf"},"vehicle_type_id":"4","last_reported":1753460038,"current_range_meters":14400,"station_id":"ce4bhi12rcd13ifvqfp0","pricing_plan_id":"cebpf4jnsgd1na2vs0mg"},{"bike_id":"aa50a6ce-ac48-4e1a-af27-a62425c7ed21","system_id":"levelo_inurba_marseille","lat":43.303009,"lon":5.392151,"is_reserved":false,"is_disabled":false,"rental_uris":{"android":"levelo://app?vid=aa50a6ce-ac48-4e1a-af27-a62425c7ed21","ios":"levelo://app?vid=aa50a6ce-ac48-4e1a-af27-a62425c7ed21"},"vehicle_type_id":"4","last_reported":1753460038,"current_range_meters":12400,"station_id":"ce4bgkh2rcd13ifvqbk0","pricing_plan_id":"cebpf4jnsgd1na2vs0mg"},{"bike_id":"ba00d103-850b-4592-9be9-fea05914fea6","system_id":"levelo_inurba_marseille","lat":43.24074,"lon":5.37761,"is_reserved":false,"is_disabled":false,"rental_uris":{"android":"levelo://app?vid=ba00d103-850b-4592-9be9-fea05914fea6","ios":"levelo://app?vid=ba00d103-850b-4592-9be9-fea05914fea6"},"vehicle_type_id":"4","last_reported":1753460038,"current_range_meters":14400,"station_id":"ce4bhnp2rcd13ifvqgvg","pricing_plan_id":"cebpf4jnsgd1na2vs0mg"},{"bike_id":"22abd279-ac3d-4b7c-8221-b68bbacaab0e","system_id":"levelo_inurba_marseille","lat":43.26206,"lon":5.37441,"is_reserved":false,"is_disabled":false,"rental_uris":{"android":"levelo://app?vid=22abd279-ac3d-4b7c-8221-b68bbacaab0e","ios":"levelo://app?vid=22abd279-ac3d-4b7c-8221-b68bbacaab0e"},"vehicle_type_id":"4","last_reported":1753460038,"current_range_meters":14800,"station_id":"ce4bhgp2rcd13ifvqfc0","pricing_plan_id":"cebpf4jnsgd1na2vs0mg"},{"bike_id":"e5b42a10-9d05-44b4-bd4a-6add49cdd079","system_id":"levelo_inurba_marseille","lat":43.31269,"lon":5.40166,"is_reserved":false,"is_disabled":false,"rental_uris":{"android":"levelo://app?vid=e5b42a10-9d05-44b4-bd4a-6add49cdd079","ios":"levelo://app?vid=e5b42a10-9d05-44b4-bd4a-6add49cdd079"},"vehicle_type_id":"4","last_reported":1753460038,"current_range_meters":14400,"station_id":"ce4bh092rcd13ifvqd30","pricing_plan_id":"cebpf4jnsgd1na2vs0mg"},{"bike_id":"998111db-eeca-4c77-9e0c-e081b470aa34","system_id":"levelo_inurba_marseille","lat":43.27815,"lon":5.40704,"is_reserved":false,"is_disabled":false,"rental_uris":{"android":"levelo://app?vid=998111db-eeca-4c77-9e0c-e081b470aa34","ios":"levelo://app?vid=998111db-eeca-4c77-9e0c-e081b470aa34"},"vehicle_type_id":"4","last_reported":1753460038,"current_range_meters":14800,"station_id":"ce4bhnh2rcd13ifvqgtg","pricing_plan_id":"cebpf4jnsgd1na2vs0mg"},{"bike_id":"45919cfe-4302-488b-8296-1458eac6db93","system_id":"levelo_inurba_marseille","lat":43.290311,"lon":5.399895,"is_reserved":false,"is_disabled":true,"rental_uris":{"android":"levelo://app?vid=45919cfe-4302-488b-8296-1458eac6db93","ios":"levelo://app?vid=45919cfe-4302-488b-8296-1458eac6db93"},"vehicle_type_id":"4","last_reported":1753460038,"current_range_meters":14800,"station_id":"ce4bh392rcd13ifvqdm0","pricing_plan_id":"cebpf4jnsgd1na2vs0mg"},{"bike_id":"16c03804-f0d6-4679-a697-26efa9c77b88","system_id":"levelo_inurba_marseille","lat":43.3025,"lon":5.40063,"is_reserved":false,"is_disabled":false,"rental_uris":{"android":"levelo://app?vid=16c03804-f0d6-4679-a697-26efa9c77b88","ios":"levelo://app?vid=16c03804-f0d6-4679-a697-26efa9c77b88"},"vehicle_type_id":"4","last_reported":1753460038,"current_range_meters":14800,"station_id":"ce4bgvh2rcd13ifvqcs0","pricing_plan_id":"cebpf4jnsgd1na2vs0mg"},{"bike_id":"3a7676c6-2410-4935-8950-203fa0da9f85","system_id":"levelo_inurba_marseille","lat":43.29191,"lon":5.35806,"is_reserved":false,"is_disabled":false,"rental_uris":{"android":"levelo://app?vid=3a7676c6-2410-4935-8950-203fa0da9f85","ios":"levelo://app?vid=3a7676c6-2410-4935-8950-203fa0da9f85"},"vehicle_type_id":"4","last_reported":1753460038,"current_range_meters":16400,"station_id":"ce4bhb12rcd13ifvqel0","pricing_plan_id":"cebpf4jnsgd1na2vs0mg"},{"bike_id":"c8989259-f758-4290-8308-4f89e363aceb","system_id":"levelo_inurba_marseille","lat":43.32489,"lon":5.36566,"is_reserved":false,"is_disabled":false,"rental_uris":{"android":"levelo://app?vid=c8989259-f758-4290-8308-4f89e363aceb","ios":"levelo://app?vid=c8989259-f758-4290-8308-4f89e363aceb"},"vehicle_type_id":"4","last_reported":1753460038,"current_range_meters":14400,"station_id":"ce4bhs12rcd13ifvqhvg","pricing_plan_id":"cebpf4jnsgd1na2vs0mg"},{"bike_id":"ec2ff7fe-96f8-4ea8-9c99-8b7c542133c4","system_id":"levelo_inurba_marseille","lat":43.273804,"lon":5.36252,"is_reserved":false,"is_disabled":false,"rental_uris":{"android":"levelo://app?vid=ec2ff7fe-96f8-4ea8-9c99-8b7c542133c4","ios":"levelo://app?vid=ec2ff7fe-96f8-4ea8-9c99-8b7c542133c4"},"vehicle_type_id":"4","last_reported":1753460038,"current_range_meters":14800,"station_id":"ce4bhbh2rcd13ifvqeo0","pricing_plan_id":"cebpf4jnsgd1na2vs0mg"},{"bike_id":"e0d651f5-5160-4395-a0b6-4ca1bb481902","system_id":"levelo_inurba_marseille","lat":43.32362,"lon":5.36765,"is_reserved":false,"is_disabled":false,"rental_uris":{"android":"levelo://app?vid=e0d651f5-5160-4395-a0b6-4ca1bb481902","ios":"levelo://app?vid=e0d651f5-5160-4395-a0b6-4ca1bb481902"},"vehicle_type_id":"4","last_reported":1753460038,"current_range_meters":15200,"station_id":"ce4bhsh2rcd13ifvqi2g","pricing_plan_id":"cebpf4jnsgd1na2vs0mg"},{"bike_id":"d79b409f-ca1b-43df-9348-1c6665f1fc25","system_id":"levelo_inurba_marseille","lat":43.22498,"lon":5.34775,"is_reserved":false,"is_disabled":false,"rental_uris":{"android":"levelo://app?vid=d79b409f-ca1b-43df-9348-1c6665f1fc25","ios":"levelo://app?vid=d79b409f-ca1b-43df-9348-1c6665f1fc25"},"vehicle_type_id":"4","last_reported":1753460038,"current_range_meters":15200,"station_id":"st_cvj5dfep6f1abm77gieg","pricing_plan_id":"cebpf4jnsgd1na2vs0mg"},{"bike_id":"ab2f7023-9227-411e-8e85-268d15c0fbf3","system_id":"levelo_inurba_marseille","lat":43.30153,"lon":5.3807,"is_reserved":false,"is_disabled":false,"rental_uris":{"android":"levelo://app?vid=ab2f7023-9227-411e-8e85-268d15c0fbf3","ios":"levelo://app?vid=ab2f7023-9227-411e-8e85-268d15c0fbf3"},"vehicle_type_id":"4","last_reported":1753460038,"current_range_meters":15200,"station_id":"ce4bgjp2rcd13ifvqbh0","pricing_plan_id":"cebpf4jnsgd1na2vs0mg"},{"bike_id":"ea674066-1eca-4bcb-8fe2-bb9a2d15180b","system_id":"levelo_inurba_marseille","lat":43.217479,"lon":5.346024,"is_reserved":false,"is_disabled":false,"rental_uris":{"android":"levelo://app?vid=ea674066-1eca-4bcb-8fe2-bb9a2d15180b","ios":"levelo://app?vid=ea674066-1eca-4bcb-8fe2-bb9a2d15180b"},"vehicle_type_id":"4","last_reported":1753460038,"current_range_meters":15200,"station_id":"st_cvj6r9ubvosntc0bgbag","pricing_plan_id":"cebpf4jnsgd1na2vs0mg"},{"bike_id":"f6177b34-6f67-445e-ae37-0eaa5b52634b","system_id":"levelo_inurba_marseille","lat":43.22953,"lon":5.35361,"is_reserved":false,"is_disabled":false,"rental_uris":{"android":"levelo://app?vid=f6177b34-6f67-445e-ae37-0eaa5b52634b","ios":"levelo://app?vid=f6177b34-6f67-445e-ae37-0eaa5b52634b"},"vehicle_type_id":"4","last_reported":1753460038,"current_range_meters":15200,"station_id":"cpo3532slgdg3j2ikp40","pricing_plan_id":"cebpf4jnsgd1na2vs0mg"},{"bike_id":"ca640dd8-5616-43be-be91-00a1a08ce2ce","system_id":"levelo_inurba_marseille","lat":43.31758,"lon":5.39014,"is_reserved":false,"is_disabled":false,"rental_uris":{"android":"levelo://app?vid=ca640dd8-5616-43be-be91-00a1a08ce2ce","ios":"levelo://app?vid=ca640dd8-5616-43be-be91-00a1a08ce2ce"},"vehicle_type_id":"4","last_reported":1753460038,"current_range_meters":14800,"station_id":"ce4bhqp2rcd13ifvqhng","pricing_plan_id":"cebpf4jnsgd1na2vs0mg"},{"bike_id":"c54ff59d-c443-4efe-88ce-ec43b99b22b7","system_id":"levelo_inurba_marseille","lat":43.22923,"lon":5.35378,"is_reserved":false,"is_disabled":false,"rental_uris":{"android":"levelo://app?vid=c54ff59d-c443-4efe-88ce-ec43b99b22b7","ios":"levelo://app?vid=c54ff59d-c443-4efe-88ce-ec43b99b22b7"},"vehicle_type_id":"4","last_reported":1753460038,"current_range_meters":15200,"station_id":"cpo3532slgdg3j2ikp40","pricing_plan_id":"cebpf4jnsgd1na2vs0mg"},{"bike_id":"7e6cbf23-0744-43af-8253-8c672c5274d7","system_id":"levelo_inurba_marseille","lat":43.28608,"lon":5.37068,"is_reserved":false,"is_disabled":false,"rental_uris":{"android":"levelo://app?vid=7e6cbf23-0744-43af-8253-8c672c5274d7","ios":"levelo://app?vid=7e6cbf23-0744-43af-8253-8c672c5274d7"},"vehicle_type_id":"4","last_reported":1753460038,"current_range_meters":16000,"station_id":"ce4bht12rcd13ifvqi60","pricing_plan_id":"cebpf4jnsgd1na2vs0mg"},{"bike_id":"f3874552-67ae-42b2-8118-9593cfbe8355","system_id":"levelo_inurba_marseille","lat":43.24166,"lon":5.36398,"is_reserved":false,"is_disabled":false,"rental_uris":{"android":"levelo://app?vid=f3874552-67ae-42b2-8118-9593cfbe8355","ios":"levelo://app?vid=f3874552-67ae-42b2-8118-9593cfbe8355"},"vehicle_type_id":"4","last_reported":1753460038,"current_range_meters":16000,"station_id":"cpo36qri1sfpv3e86is0","pricing_plan_id":"cebpf4jnsgd1na2vs0mg"},{"bike_id":"22dca147-1260-44d8-822d-d9d1d50cce31","system_id":"levelo_inurba_marseille","lat":43.27473,"lon":5.39579,"is_reserved":false,"is_disabled":false,"rental_uris":{"android":"levelo://app?vid=22dca147-1260-44d8-822d-d9d1d50cce31","ios":"levelo://app?vid=22dca147-1260-44d8-822d-d9d1d50cce31"},"vehicle_type_id":"4","last_reported":1753460038,"current_range_meters":16000,"station_id":"","pricing_plan_id":"cebpf4jnsgd1na2vs0mg"},{"bike_id":"325601ca-b159-4df0-a3af-69e7d5a7d645","system_id":"levelo_inurba_marseille","lat":43.2859,"lon":5.37071,"is_reserved":false,"is_disabled":false,"rental_uris":{"android":"levelo://app?vid=325601ca-b159-4df0-a3af-69e7d5a7d645","ios":"levelo://app?vid=325601ca-b159-4df0-a3af-69e7d5a7d645"},"vehicle_type_id":"4","last_reported":1753460038,"current_range_meters":16000,"station_id":"ce4bht12rcd13ifvqi60","pricing_plan_id":"cebpf4jnsgd1na2vs0mg"},{"bike_id":"9575837e-b363-4708-9b96-c153c5fc2eb1","system_id":"levelo_inurba_marseille","lat":43.32358,"lon":5.3675,"is_reserved":false,"is_disabled":false,"rental_uris":{"android":"levelo://app?vid=9575837e-b363-4708-9b96-c153c5fc2eb1","ios":"levelo://app?vid=9575837e-b363-4708-9b96-c153c5fc2eb1"},"vehicle_type_id":"4","last_reported":1753460038,"current_range_meters":16000,"station_id":"ce4bhsh2rcd13ifvqi2g","pricing_plan_id":"cebpf4jnsgd1na2vs0mg"},{"bike_id":"21a22bc7-65fe-4b97-a005-517b211a0b98","system_id":"levelo_inurba_marseille","lat":43.23061,"lon":5.35492,"is_reserved":false,"is_disabled":false,"rental_uris":{"android":"levelo://app?vid=21a22bc7-65fe-4b97-a005-517b211a0b98","ios":"levelo://app?vid=21a22bc7-65fe-4b97-a005-517b211a0b98"},"vehicle_type_id":"4","last_reported":1753460038,"current_range_meters":16000,"station_id":"cpo3342slgdg3j2ifvpg","pricing_plan_id":"cebpf4jnsgd1na2vs0mg"},{"bike_id":"be334176-1494-4e7c-b592-cdd9d0bc5dca","system_id":"levelo_inurba_marseille","lat":43.2828,"lon":5.35065,"is_reserved":false,"is_disabled":false,"rental_uris":{"android":"levelo://app?vid=be334176-1494-4e7c-b592-cdd9d0bc5dca","ios":"levelo://app?vid=be334176-1494-4e7c-b592-cdd9d0bc5dca"},"vehicle_type_id":"4","last_reported":1753460038,"current_range_meters":16000,"station_id":"ce4bhbp2rcd13ifvqerg","pricing_plan_id":"cebpf4jnsgd1na2vs0mg"},{"bike_id":"605a26a7-be30-47d9-81e5-e981767b1778","system_id":"levelo_inurba_marseille","lat":43.26959,"lon":5.38634,"is_reserved":false,"is_disabled":false,"rental_uris":{"android":"levelo://app?vid=605a26a7-be30-47d9-81e5-e981767b1778","ios":"levelo://app?vid=605a26a7-be30-47d9-81e5-e981767b1778"},"vehicle_type_id":"4","last_reported":1753460038,"current_range_meters":16000,"station_id":"ce4bhh92rcd13ifvqfh0","pricing_plan_id":"cebpf4jnsgd1na2vs0mg"},{"bike_id":"36f324cb-a9ad-46b7-afb0-26f814934e1f","system_id":"levelo_inurba_marseille","lat":43.26211,"lon":5.37434,"is_reserved":false,"is_disabled":false,"rental_uris":{"android":"levelo://app?vid=36f324cb-a9ad-46b7-afb0-26f814934e1f","ios":"levelo://app?vid=36f324cb-a9ad-46b7-afb0-26f814934e1f"},"vehicle_type_id":"4","last_reported":1753460038,"current_range_meters":16000,"station_id":"ce4bhgp2rcd13ifvqfc0","pricing_plan_id":"cebpf4jnsgd1na2vs0mg"},{"bike_id":"a08ade87-a150-4b38-9e39-d0f1419f2841","system_id":"levelo_inurba_marseille","lat":43.29012,"lon":5.35607,"is_reserved":false,"is_disabled":false,"rental_uris":{"android":"levelo://app?vid=a08ade87-a150-4b38-9e39-d0f1419f2841","ios":"levelo://app?vid=a08ade87-a150-4b38-9e39-d0f1419f2841"},"vehicle_type_id":"4","last_reported":1753460038,"current_range_meters":16000,"station_id":"ce4bhb92rcd13ifvqen0","pricing_plan_id":"cebpf4jnsgd1na2vs0mg"},{"bike_id":"0eea4261-2e64-4baa-81ff-57398c90e78f","system_id":"levelo_inurba_marseille","lat":43.30632,"lon":5.40094,"is_reserved":false,"is_disabled":false,"rental_uris":{"android":"levelo://app?vid=0eea4261-2e64-4baa-81ff-57398c90e78f","ios":"levelo://app?vid=0eea4261-2e64-4baa-81ff-57398c90e78f"},"vehicle_type_id":"4","last_reported":1753460038,"current_range_meters":16000,"station_id":"ce4bh112rcd13ifvqda0","pricing_plan_id":"cebpf4jnsgd1na2vs0mg"},{"bike_id":"4150f367-c77b-49d6-9460-8034f7438f5c","system_id":"levelo_inurba_marseille","lat":43.262054,"lon":5.374491,"is_reserved":false,"is_disabled":false,"rental_uris":{"android":"levelo://app?vid=4150f367-c77b-49d6-9460-8034f7438f5c","ios":"levelo://app?vid=4150f367-c77b-49d6-9460-8034f7438f5c"},"vehicle_type_id":"4","last_reported":1753460038,"current_range_meters":16000,"station_id":"","pricing_plan_id":"cebpf4jnsgd1na2vs0mg"},{"bike_id":"4d72a855-a15c-4b80-87db-d5d3b8786584","system_id":"levelo_inurba_marseille","lat":43.286178,"lon":5.351052,"is_reserved":false,"is_disabled":false,"rental_uris":{"android":"levelo://app?vid=4d72a855-a15c-4b80-87db-d5d3b8786584","ios":"levelo://app?vid=4d72a855-a15c-4b80-87db-d5d3b8786584"},"vehicle_type_id":"4","last_reported":1753460038,"current_range_meters":16400,"station_id":"ce4bhch2rcd13ifvqeug","pricing_plan_id":"cebpf4jnsgd1na2vs0mg"},{"bike_id":"303275e5-7303-4c92-9a75-3e5756937b3f","system_id":"levelo_inurba_marseille","lat":43.232,"lon":5.35554,"is_reserved":false,"is_disabled":false,"rental_uris":{"android":"levelo://app?vid=303275e5-7303-4c92-9a75-3e5756937b3f","ios":"levelo://app?vid=303275e5-7303-4c92-9a75-3e5756937b3f"},"vehicle_type_id":"4","last_reported":1753460038,"current_range_meters":16400,"station_id":"ce4bhu92rcd13ifvqi70","pricing_plan_id":"cebpf4jnsgd1na2vs0mg"},{"bike_id":"de99b14c-9afd-4bdd-bc56-50354c110c3d","system_id":"levelo_inurba_marseille","lat":43.25467,"lon":5.37687,"is_reserved":false,"is_disabled":false,"rental_uris":{"android":"levelo://app?vid=de99b14c-9afd-4bdd-bc56-50354c110c3d","ios":"levelo://app?vid=de99b14c-9afd-4bdd-bc56-50354c110c3d"},"vehicle_type_id":"4","last_reported":1753460038,"current_range_meters":16400,"station_id":"","pricing_plan_id":"cebpf4jnsgd1na2vs0mg"},{"bike_id":"7a8a3812-6586-42ad-890f-d6d8d8f4dfa3","system_id":"levelo_inurba_marseille","lat":43.28155,"lon":5.42635,"is_reserved":false,"is_disabled":false,"rental_uris":{"android":"levelo://app?vid=7a8a3812-6586-42ad-890f-d6d8d8f4dfa3","ios":"levelo://app?vid=7a8a3812-6586-42ad-890f-d6d8d8f4dfa3"},"vehicle_type_id":"4","last_reported":1753460038,"current_range_meters":16400,"station_id":"ce4bhnh2rcd13ifvqgug","pricing_plan_id":"cebpf4jnsgd1na2vs0mg"},{"bike_id":"c26f1b4d-11e7-4aaa-8fd1-0c8a6e22bd7c","system_id":"levelo_inurba_marseille","lat":43.301327,"lon":5.387808,"is_reserved":false,"is_disabled":true,"rental_uris":{"android":"levelo://app?vid=c26f1b4d-11e7-4aaa-8fd1-0c8a6e22bd7c","ios":"levelo://app?vid=c26f1b4d-11e7-4aaa-8fd1-0c8a6e22bd7c"},"vehicle_type_id":"4","last_reported":1753460038,"current_range_meters":16400,"station_id":"ce4bghh2rcd13ifvqb60","pricing_plan_id":"cebpf4jnsgd1na2vs0mg"},{"bike_id":"830ac2da-3449-4c4f-88c4-7edd782ac2a3","system_id":"levelo_inurba_marseille","lat":43.229305,"lon":5.35384,"is_reserved":false,"is_disabled":false,"rental_uris":{"android":"levelo://app?vid=830ac2da-3449-4c4f-88c4-7edd782ac2a3","ios":"levelo://app?vid=830ac2da-3449-4c4f-88c4-7edd782ac2a3"},"vehicle_type_id":"4","last_reported":1753460038,"current_range_meters":16400,"station_id":"cpo3532slgdg3j2ikp40","pricing_plan_id":"cebpf4jnsgd1na2vs0mg"},{"bike_id":"d42fd1d9-8599-4423-8a25-1889aaf7e28d","system_id":"levelo_inurba_marseille","lat":43.22919,"lon":5.35373,"is_reserved":false,"is_disabled":false,"rental_uris":{"android":"levelo://app?vid=d42fd1d9-8599-4423-8a25-1889aaf7e28d","ios":"levelo://app?vid=d42fd1d9-8599-4423-8a25-1889aaf7e28d"},"vehicle_type_id":"4","last_reported":1753460038,"current_range_meters":16400,"station_id":"cpo3532slgdg3j2ikp40","pricing_plan_id":"cebpf4jnsgd1na2vs0mg"},{"bike_id":"91479530-3e0c-4a40-8d51-a03ea004edff","system_id":"levelo_inurba_marseille","lat":43.28361,"lon":5.3865,"is_reserved":false,"is_disabled":false,"rental_uris":{"android":"levelo://app?vid=91479530-3e0c-4a40-8d51-a03ea004edff","ios":"levelo://app?vid=91479530-3e0c-4a40-8d51-a03ea004edff"},"vehicle_type_id":"4","last_reported":1753460038,"current_range_meters":16400,"station_id":"ce4bh492rcd13ifvqdvg","pricing_plan_id":"cebpf4jnsgd1na2vs0mg"},{"bike_id":"4eedb553-1a5f-47e4-a136-f5051ab058e6","system_id":"levelo_inurba_marseille","lat":43.28447,"lon":5.35004,"is_reserved":false,"is_disabled":true,"rental_uris":{"android":"levelo://app?vid=4eedb553-1a5f-47e4-a136-f5051ab058e6","ios":"levelo://app?vid=4eedb553-1a5f-47e4-a136-f5051ab058e6"},"vehicle_type_id":"4","last_reported":1753460038,"current_range_meters":16400,"station_id":"ce4bhbh2rcd13ifvqepg","pricing_plan_id":"cebpf4jnsgd1na2vs0mg"},{"bike_id":"2f7aa8ee-b17f-447e-ac1c-06bff5e89da8","system_id":"levelo_inurba_marseille","lat":43.29897,"lon":5.4366,"is_reserved":false,"is_disabled":false,"rental_uris":{"android":"levelo://app?vid=2f7aa8ee-b17f-447e-ac1c-06bff5e89da8","ios":"levelo://app?vid=2f7aa8ee-b17f-447e-ac1c-06bff5e89da8"},"vehicle_type_id":"4","last_reported":1753460038,"current_range_meters":16400,"station_id":"ce4bhpp2rcd13ifvqhfg","pricing_plan_id":"cebpf4jnsgd1na2vs0mg"},{"bike_id":"33f82924-5acb-458e-bffa-9a270a37ed22","system_id":"levelo_inurba_marseille","lat":43.28168,"lon":5.42677,"is_reserved":false,"is_disabled":false,"rental_uris":{"android":"levelo://app?vid=33f82924-5acb-458e-bffa-9a270a37ed22","ios":"levelo://app?vid=33f82924-5acb-458e-bffa-9a270a37ed22"},"vehicle_type_id":"4","last_reported":1753460038,"current_range_meters":16400,"station_id":"ce4bhnh2rcd13ifvqgug","pricing_plan_id":"cebpf4jnsgd1na2vs0mg"},{"bike_id":"dd4669b8-7a1e-455c-921c-cef6ea4213f0","system_id":"levelo_inurba_marseille","lat":43.29803,"lon":5.37661,"is_reserved":false,"is_disabled":false,"rental_uris":{"android":"levelo://app?vid=dd4669b8-7a1e-455c-921c-cef6ea4213f0","ios":"levelo://app?vid=dd4669b8-7a1e-455c-921c-cef6ea4213f0"},"vehicle_type_id":"4","last_reported":1753460038,"current_range_meters":16400,"station_id":"","pricing_plan_id":"cebpf4jnsgd1na2vs0mg"},{"bike_id":"57755280-973c-4ff3-9c25-8f15e2c5b510","system_id":"levelo_inurba_marseille","lat":43.31872,"lon":5.37373,"is_reserved":false,"is_disabled":false,"rental_uris":{"android":"levelo://app?vid=57755280-973c-4ff3-9c25-8f15e2c5b510","ios":"levelo://app?vid=57755280-973c-4ff3-9c25-8f15e2c5b510"},"vehicle_type_id":"4","last_reported":1753460038,"current_range_meters":16400,"station_id":"","pricing_plan_id":"cebpf4jnsgd1na2vs0mg"},{"bike_id":"09b7f600-cb1e-4ea0-adc2-9c3dcb778794","system_id":"levelo_inurba_marseille","lat":43.22495,"lon":5.34802,"is_reserved":false,"is_disabled":false,"rental_uris":{"android":"levelo://app?vid=09b7f600-cb1e-4ea0-adc2-9c3dcb778794","ios":"levelo://app?vid=09b7f600-cb1e-4ea0-adc2-9c3dcb778794"},"vehicle_type_id":"4","last_reported":1753460038,"current_range_meters":16800,"station_id":"st_cvj5dfep6f1abm77gieg","pricing_plan_id":"cebpf4jnsgd1na2vs0mg"},{"bike_id":"7f7a4770-cb44-4cbe-afee-f7531a238fa9","system_id":"levelo_inurba_marseille","lat":43.225059,"lon":5.347842,"is_reserved":false,"is_disabled":false,"rental_uris":{"android":"levelo://app?vid=7f7a4770-cb44-4cbe-afee-f7531a238fa9","ios":"levelo://app?vid=7f7a4770-cb44-4cbe-afee-f7531a238fa9"},"vehicle_type_id":"4","last_reported":1753460038,"current_range_meters":16800,"station_id":"st_cvj5dfep6f1abm77gieg","pricing_plan_id":"cebpf4jnsgd1na2vs0mg"},{"bike_id":"7528e0ee-3254-4380-8007-ffef61e356ca","system_id":"levelo_inurba_marseille","lat":43.265608,"lon":5.372831,"is_reserved":false,"is_disabled":false,"rental_uris":{"android":"levelo://app?vid=7528e0ee-3254-4380-8007-ffef61e356ca","ios":"levelo://app?vid=7528e0ee-3254-4380-8007-ffef61e356ca"},"vehicle_type_id":"4","last_reported":1753460038,"current_range_meters":16800,"station_id":"ce4bhg12rcd13ifvqf70","pricing_plan_id":"cebpf4jnsgd1na2vs0mg"},{"bike_id":"cba20a87-5830-439f-b8e5-4c5266ee8a9e","system_id":"levelo_inurba_marseille","lat":43.30539,"lon":5.36547,"is_reserved":false,"is_disabled":false,"rental_uris":{"android":"levelo://app?vid=cba20a87-5830-439f-b8e5-4c5266ee8a9e","ios":"levelo://app?vid=cba20a87-5830-439f-b8e5-4c5266ee8a9e"},"vehicle_type_id":"4","last_reported":1753460038,"current_range_meters":16800,"station_id":"ce4bgs12rcd13ifvqcag","pricing_plan_id":"cebpf4jnsgd1na2vs0mg"},{"bike_id":"cce481ce-a36b-4197-bfc4-5c71baf4e647","system_id":"levelo_inurba_marseille","lat":43.23964,"lon":5.36629,"is_reserved":false,"is_disabled":false,"rental_uris":{"android":"levelo://app?vid=cce481ce-a36b-4197-bfc4-5c71baf4e647","ios":"levelo://app?vid=cce481ce-a36b-4197-bfc4-5c71baf4e647"},"vehicle_type_id":"4","last_reported":1753460038,"current_range_meters":16400,"station_id":"ce4bhi12rcd13ifvqfp0","pricing_plan_id":"cebpf4jnsgd1na2vs0mg"},{"bike_id":"5dd6632a-55e0-4842-85cd-b9ca74b0c782","system_id":"levelo_inurba_marseille","lat":43.27378,"lon":5.36252,"is_reserved":false,"is_disabled":false,"rental_uris":{"android":"levelo://app?vid=5dd6632a-55e0-4842-85cd-b9ca74b0c782","ios":"levelo://app?vid=5dd6632a-55e0-4842-85cd-b9ca74b0c782"},"vehicle_type_id":"4","last_reported":1753460038,"current_range_meters":16800,"station_id":"ce4bhbh2rcd13ifvqeo0","pricing_plan_id":"cebpf4jnsgd1na2vs0mg"},{"bike_id":"1c2c668e-bae5-4812-ac9a-e577813ee283","system_id":"levelo_inurba_marseille","lat":43.296837,"lon":5.372927,"is_reserved":false,"is_disabled":false,"rental_uris":{"android":"levelo://app?vid=1c2c668e-bae5-4812-ac9a-e577813ee283","ios":"levelo://app?vid=1c2c668e-bae5-4812-ac9a-e577813ee283"},"vehicle_type_id":"4","last_reported":1753460038,"current_range_meters":16800,"station_id":"ce4bgk12rcd13ifvqbj0","pricing_plan_id":"cebpf4jnsgd1na2vs0mg"},{"bike_id":"847b44c9-efab-4746-8937-dcebf1206fff","system_id":"levelo_inurba_marseille","lat":43.262095,"lon":5.374463,"is_reserved":false,"is_disabled":true,"rental_uris":{"android":"levelo://app?vid=847b44c9-efab-4746-8937-dcebf1206fff","ios":"levelo://app?vid=847b44c9-efab-4746-8937-dcebf1206fff"},"vehicle_type_id":"4","last_reported":1753460038,"current_range_meters":17200,"station_id":"ce4bhgp2rcd13ifvqfc0","pricing_plan_id":"cebpf4jnsgd1na2vs0mg"},{"bike_id":"5c2fb198-445e-4ca2-af32-cf1be65ac76c","system_id":"levelo_inurba_marseille","lat":43.26568,"lon":5.38998,"is_reserved":false,"is_disabled":false,"rental_uris":{"android":"levelo://app?vid=5c2fb198-445e-4ca2-af32-cf1be65ac76c","ios":"levelo://app?vid=5c2fb198-445e-4ca2-af32-cf1be65ac76c"},"vehicle_type_id":"4","last_reported":1753460038,"current_range_meters":17200,"station_id":"ce4bhe12rcd13ifvqf30","pricing_plan_id":"cebpf4jnsgd1na2vs0mg"},{"bike_id":"f8a5258a-c32a-4c32-9d50-8d119f529a04","system_id":"levelo_inurba_marseille","lat":43.229317,"lon":5.353746,"is_reserved":false,"is_disabled":false,"rental_uris":{"android":"levelo://app?vid=f8a5258a-c32a-4c32-9d50-8d119f529a04","ios":"levelo://app?vid=f8a5258a-c32a-4c32-9d50-8d119f529a04"},"vehicle_type_id":"4","last_reported":1753460038,"current_range_meters":17200,"station_id":"cpo3532slgdg3j2ikp40","pricing_plan_id":"cebpf4jnsgd1na2vs0mg"},{"bike_id":"a520aef3-d8ee-479c-910a-c0447822ca28","system_id":"levelo_inurba_marseille","lat":43.32664,"lon":5.40982,"is_reserved":false,"is_disabled":false,"rental_uris":{"android":"levelo://app?vid=a520aef3-d8ee-479c-910a-c0447822ca28","ios":"levelo://app?vid=a520aef3-d8ee-479c-910a-c0447822ca28"},"vehicle_type_id":"4","last_reported":1753460038,"current_range_meters":17200,"station_id":"ce4bhpp2rcd13ifvqhgg","pricing_plan_id":"cebpf4jnsgd1na2vs0mg"},{"bike_id":"e76020d0-8449-4a2b-b018-6a3cd648bd17","system_id":"levelo_inurba_marseille","lat":43.26205,"lon":5.37928,"is_reserved":false,"is_disabled":false,"rental_uris":{"android":"levelo://app?vid=e76020d0-8449-4a2b-b018-6a3cd648bd17","ios":"levelo://app?vid=e76020d0-8449-4a2b-b018-6a3cd648bd17"},"vehicle_type_id":"4","last_reported":1753460038,"current_range_meters":17200,"station_id":"ce4bhjp2rcd13ifvqg90","pricing_plan_id":"cebpf4jnsgd1na2vs0mg"},{"bike_id":"b5faf0f0-8a73-4fc4-b6fc-daffce16b582","system_id":"levelo_inurba_marseille","lat":43.30167,"lon":5.38081,"is_reserved":false,"is_disabled":false,"rental_uris":{"android":"levelo://app?vid=b5faf0f0-8a73-4fc4-b6fc-daffce16b582","ios":"levelo://app?vid=b5faf0f0-8a73-4fc4-b6fc-daffce16b582"},"vehicle_type_id":"4","last_reported":1753460038,"current_range_meters":17200,"station_id":"ce4bgjp2rcd13ifvqbh0","pricing_plan_id":"cebpf4jnsgd1na2vs0mg"},{"bike_id":"329c8f00-9fb0-47d7-84ef-1bc64e291f9c","system_id":"levelo_inurba_marseille","lat":43.292789,"lon":5.36837,"is_reserved":false,"is_disabled":false,"rental_uris":{"android":"levelo://app?vid=329c8f00-9fb0-47d7-84ef-1bc64e291f9c","ios":"levelo://app?vid=329c8f00-9fb0-47d7-84ef-1bc64e291f9c"},"vehicle_type_id":"4","last_reported":1753460038,"current_range_meters":17200,"station_id":"","pricing_plan_id":"cebpf4jnsgd1na2vs0mg"},{"bike_id":"a8168de4-2b04-493b-88cf-cf9bcdf6f496","system_id":"levelo_inurba_marseille","lat":43.23194,"lon":5.35552,"is_reserved":false,"is_disabled":false,"rental_uris":{"android":"levelo://app?vid=a8168de4-2b04-493b-88cf-cf9bcdf6f496","ios":"levelo://app?vid=a8168de4-2b04-493b-88cf-cf9bcdf6f496"},"vehicle_type_id":"4","last_reported":1753460038,"current_range_meters":17600,"station_id":"ce4bhu92rcd13ifvqi70","pricing_plan_id":"cebpf4jnsgd1na2vs0mg"},{"bike_id":"16971f4c-ccac-4993-ad28-795396f2377f","system_id":"levelo_inurba_marseille","lat":43.24145,"lon":5.36408,"is_reserved":false,"is_disabled":false,"rental_uris":{"android":"levelo://app?vid=16971f4c-ccac-4993-ad28-795396f2377f","ios":"levelo://app?vid=16971f4c-ccac-4993-ad28-795396f2377f"},"vehicle_type_id":"4","last_reported":1753460038,"current_range_meters":17600,"station_id":"cpo36qri1sfpv3e86is0","pricing_plan_id":"cebpf4jnsgd1na2vs0mg"},{"bike_id":"152247a2-6f09-485f-acf9-4f6bd27a046c","system_id":"levelo_inurba_marseille","lat":43.28147,"lon":5.42646,"is_reserved":false,"is_disabled":false,"rental_uris":{"android":"levelo://app?vid=152247a2-6f09-485f-acf9-4f6bd27a046c","ios":"levelo://app?vid=152247a2-6f09-485f-acf9-4f6bd27a046c"},"vehicle_type_id":"4","last_reported":1753460038,"current_range_meters":17600,"station_id":"ce4bhnh2rcd13ifvqgug","pricing_plan_id":"cebpf4jnsgd1na2vs0mg"},{"bike_id":"ec74f06a-40dc-4c39-a0cb-57d6f568a4e5","system_id":"levelo_inurba_marseille","lat":43.22936,"lon":5.35371,"is_reserved":false,"is_disabled":false,"rental_uris":{"android":"levelo://app?vid=ec74f06a-40dc-4c39-a0cb-57d6f568a4e5","ios":"levelo://app?vid=ec74f06a-40dc-4c39-a0cb-57d6f568a4e5"},"vehicle_type_id":"4","last_reported":1753460038,"current_range_meters":17600,"station_id":"cpo3532slgdg3j2ikp40","pricing_plan_id":"cebpf4jnsgd1na2vs0mg"},{"bike_id":"8c9d2e68-50a8-4cee-bea1-1ac015e57b56","system_id":"levelo_inurba_marseille","lat":43.32341,"lon":5.40624,"is_reserved":false,"is_disabled":false,"rental_uris":{"android":"levelo://app?vid=8c9d2e68-50a8-4cee-bea1-1ac015e57b56","ios":"levelo://app?vid=8c9d2e68-50a8-4cee-bea1-1ac015e57b56"},"vehicle_type_id":"4","last_reported":1753460038,"current_range_meters":17600,"station_id":"ce4bhq92rcd13ifvqhjg","pricing_plan_id":"cebpf4jnsgd1na2vs0mg"},{"bike_id":"80acebb2-0350-48ac-b0aa-274664838171","system_id":"levelo_inurba_marseille","lat":43.24173,"lon":5.364004,"is_reserved":false,"is_disabled":false,"rental_uris":{"android":"levelo://app?vid=80acebb2-0350-48ac-b0aa-274664838171","ios":"levelo://app?vid=80acebb2-0350-48ac-b0aa-274664838171"},"vehicle_type_id":"4","last_reported":1753460038,"current_range_meters":17600,"station_id":"cpo36qri1sfpv3e86is0","pricing_plan_id":"cebpf4jnsgd1na2vs0mg"},{"bike_id":"6ab0b13c-2ff1-417a-acfd-489d6800d4c9","system_id":"levelo_inurba_marseille","lat":43.2738,"lon":5.3625,"is_reserved":false,"is_disabled":true,"rental_uris":{"android":"levelo://app?vid=6ab0b13c-2ff1-417a-acfd-489d6800d4c9","ios":"levelo://app?vid=6ab0b13c-2ff1-417a-acfd-489d6800d4c9"},"vehicle_type_id":"4","last_reported":1753460038,"current_range_meters":17600,"station_id":"","pricing_plan_id":"cebpf4jnsgd1na2vs0mg"},{"bike_id":"8f4ca69e-9621-4ffd-91af-41f939f5f71e","system_id":"levelo_inurba_marseille","lat":43.239669,"lon":5.36626,"is_reserved":false,"is_disabled":false,"rental_uris":{"android":"levelo://app?vid=8f4ca69e-9621-4ffd-91af-41f939f5f71e","ios":"levelo://app?vid=8f4ca69e-9621-4ffd-91af-41f939f5f71e"},"vehicle_type_id":"4","last_reported":1753460038,"current_range_meters":18000,"station_id":"ce4bhi12rcd13ifvqfp0","pricing_plan_id":"cebpf4jnsgd1na2vs0mg"},{"bike_id":"c3c2652b-f2d7-4ed4-89ec-9559feb01451","system_id":"levelo_inurba_marseille","lat":43.292236,"lon":5.360521,"is_reserved":false,"is_disabled":true,"rental_uris":{"android":"levelo://app?vid=c3c2652b-f2d7-4ed4-89ec-9559feb01451","ios":"levelo://app?vid=c3c2652b-f2d7-4ed4-89ec-9559feb01451"},"vehicle_type_id":"4","last_reported":1753460038,"current_range_meters":18000,"station_id":"ce4bhbh2rcd13ifvqeqg","pricing_plan_id":"cebpf4jnsgd1na2vs0mg"},{"bike_id":"516409be-5a1e-4e1c-a8fb-3766ae12df90","system_id":"levelo_inurba_marseille","lat":43.31368,"lon":5.38492,"is_reserved":false,"is_disabled":false,"rental_uris":{"android":"levelo://app?vid=516409be-5a1e-4e1c-a8fb-3766ae12df90","ios":"levelo://app?vid=516409be-5a1e-4e1c-a8fb-3766ae12df90"},"vehicle_type_id":"4","last_reported":1753460038,"current_range_meters":18000,"station_id":"ce4bgt92rcd13ifvqcf0","pricing_plan_id":"cebpf4jnsgd1na2vs0mg"},{"bike_id":"1855cbe1-5a05-480e-9057-6e9b3976dbbe","system_id":"levelo_inurba_marseille","lat":43.33726,"lon":5.39191,"is_reserved":false,"is_disabled":false,"rental_uris":{"android":"levelo://app?vid=1855cbe1-5a05-480e-9057-6e9b3976dbbe","ios":"levelo://app?vid=1855cbe1-5a05-480e-9057-6e9b3976dbbe"},"vehicle_type_id":"4","last_reported":1753460038,"current_range_meters":18000,"station_id":"ce4bhr92rcd13ifvqhsg","pricing_plan_id":"cebpf4jnsgd1na2vs0mg"},{"bike_id":"4725c8bb-b455-44be-ad32-1af213838fa0","system_id":"levelo_inurba_marseille","lat":43.282806,"lon":5.350853,"is_reserved":false,"is_disabled":false,"rental_uris":{"android":"levelo://app?vid=4725c8bb-b455-44be-ad32-1af213838fa0","ios":"levelo://app?vid=4725c8bb-b455-44be-ad32-1af213838fa0"},"vehicle_type_id":"4","last_reported":1753460038,"current_range_meters":17600,"station_id":"ce4bhbp2rcd13ifvqerg","pricing_plan_id":"cebpf4jnsgd1na2vs0mg"},{"bike_id":"2b9bf796-0d9d-44c6-a7a6-5e498bc64385","system_id":"levelo_inurba_marseille","lat":43.26687,"lon":5.38275,"is_reserved":false,"is_disabled":false,"rental_uris":{"android":"levelo://app?vid=2b9bf796-0d9d-44c6-a7a6-5e498bc64385","ios":"levelo://app?vid=2b9bf796-0d9d-44c6-a7a6-5e498bc64385"},"vehicle_type_id":"4","last_reported":1753460038,"current_range_meters":18000,"station_id":"ce4bhg92rcd13ifvqf90","pricing_plan_id":"cebpf4jnsgd1na2vs0mg"},{"bike_id":"c99d6fc9-f577-4c02-8501-975f4d87dee7","system_id":"levelo_inurba_marseille","lat":43.26229,"lon":5.40449,"is_reserved":false,"is_disabled":false,"rental_uris":{"android":"levelo://app?vid=c99d6fc9-f577-4c02-8501-975f4d87dee7","ios":"levelo://app?vid=c99d6fc9-f577-4c02-8501-975f4d87dee7"},"vehicle_type_id":"4","last_reported":1753460038,"current_range_meters":18000,"station_id":"ce4bhmh2rcd13ifvqgmg","pricing_plan_id":"cebpf4jnsgd1na2vs0mg"},{"bike_id":"d1118ba2-7ab0-47ff-a120-ca2f2f1b3dfe","system_id":"levelo_inurba_marseille","lat":43.28623,"lon":5.35106,"is_reserved":false,"is_disabled":false,"rental_uris":{"android":"levelo://app?vid=d1118ba2-7ab0-47ff-a120-ca2f2f1b3dfe","ios":"levelo://app?vid=d1118ba2-7ab0-47ff-a120-ca2f2f1b3dfe"},"vehicle_type_id":"4","last_reported":1753460038,"current_range_meters":18000,"station_id":"ce4bhch2rcd13ifvqeug","pricing_plan_id":"cebpf4jnsgd1na2vs0mg"},{"bike_id":"df862e7b-9252-4a5d-a07f-056518201c75","system_id":"levelo_inurba_marseille","lat":43.30935,"lon":5.36831,"is_reserved":false,"is_disabled":false,"rental_uris":{"android":"levelo://app?vid=df862e7b-9252-4a5d-a07f-056518201c75","ios":"levelo://app?vid=df862e7b-9252-4a5d-a07f-056518201c75"},"vehicle_type_id":"4","last_reported":1753460038,"current_range_meters":18000,"station_id":"ce4bgn92rcd13ifvqbvg","pricing_plan_id":"cebpf4jnsgd1na2vs0mg"},{"bike_id":"80e70210-9802-41b4-9c34-6a915916cf88","system_id":"levelo_inurba_marseille","lat":43.29843,"lon":5.362685,"is_reserved":false,"is_disabled":false,"rental_uris":{"android":"levelo://app?vid=80e70210-9802-41b4-9c34-6a915916cf88","ios":"levelo://app?vid=80e70210-9802-41b4-9c34-6a915916cf88"},"vehicle_type_id":"4","last_reported":1753460038,"current_range_meters":18000,"station_id":"ce4bgpp2rcd13ifvqc3g","pricing_plan_id":"cebpf4jnsgd1na2vs0mg"},{"bike_id":"5fdac892-5788-4b60-8be7-09dd43754d01","system_id":"levelo_inurba_marseille","lat":43.25872,"lon":5.39893,"is_reserved":false,"is_disabled":false,"rental_uris":{"android":"levelo://app?vid=5fdac892-5788-4b60-8be7-09dd43754d01","ios":"levelo://app?vid=5fdac892-5788-4b60-8be7-09dd43754d01"},"vehicle_type_id":"4","last_reported":1753460038,"current_range_meters":18000,"station_id":"ce4bhl92rcd13ifvqghg","pricing_plan_id":"cebpf4jnsgd1na2vs0mg"},{"bike_id":"2c1587f6-c8c8-454c-82f5-3204e1a93abf","system_id":"levelo_inurba_marseille","lat":43.28616,"lon":5.35096,"is_reserved":false,"is_disabled":false,"rental_uris":{"android":"levelo://app?vid=2c1587f6-c8c8-454c-82f5-3204e1a93abf","ios":"levelo://app?vid=2c1587f6-c8c8-454c-82f5-3204e1a93abf"},"vehicle_type_id":"4","last_reported":1753460038,"current_range_meters":18800,"station_id":"ce4bhch2rcd13ifvqeug","pricing_plan_id":"cebpf4jnsgd1na2vs0mg"},{"bike_id":"bbfcba62-ab55-418b-9d31-925eaeeac99f","system_id":"levelo_inurba_marseille","lat":43.28607,"lon":5.37064,"is_reserved":false,"is_disabled":false,"rental_uris":{"android":"levelo://app?vid=bbfcba62-ab55-418b-9d31-925eaeeac99f","ios":"levelo://app?vid=bbfcba62-ab55-418b-9d31-925eaeeac99f"},"vehicle_type_id":"4","last_reported":1753460038,"current_range_meters":18800,"station_id":"ce4bht12rcd13ifvqi60","pricing_plan_id":"cebpf4jnsgd1na2vs0mg"},{"bike_id":"c3155f65-a33a-41b9-95f8-ae18f38f49a7","system_id":"levelo_inurba_marseille","lat":43.27378,"lon":5.36255,"is_reserved":false,"is_disabled":false,"rental_uris":{"android":"levelo://app?vid=c3155f65-a33a-41b9-95f8-ae18f38f49a7","ios":"levelo://app?vid=c3155f65-a33a-41b9-95f8-ae18f38f49a7"},"vehicle_type_id":"4","last_reported":1753460038,"current_range_meters":18800,"station_id":"ce4bhbh2rcd13ifvqeo0","pricing_plan_id":"cebpf4jnsgd1na2vs0mg"},{"bike_id":"07889d7f-750d-4c2a-9f82-d7fdd37d056c","system_id":"levelo_inurba_marseille","lat":43.28607,"lon":5.37068,"is_reserved":false,"is_disabled":false,"rental_uris":{"android":"levelo://app?vid=07889d7f-750d-4c2a-9f82-d7fdd37d056c","ios":"levelo://app?vid=07889d7f-750d-4c2a-9f82-d7fdd37d056c"},"vehicle_type_id":"4","last_reported":1753460038,"current_range_meters":18800,"station_id":"ce4bht12rcd13ifvqi60","pricing_plan_id":"cebpf4jnsgd1na2vs0mg"},{"bike_id":"55f97efc-c950-4951-8ddd-2ccde70b140e","system_id":"levelo_inurba_marseille","lat":43.22514,"lon":5.34784,"is_reserved":false,"is_disabled":false,"rental_uris":{"android":"levelo://app?vid=55f97efc-c950-4951-8ddd-2ccde70b140e","ios":"levelo://app?vid=55f97efc-c950-4951-8ddd-2ccde70b140e"},"vehicle_type_id":"4","last_reported":1753460038,"current_range_meters":18800,"station_id":"st_cvj5dfep6f1abm77gieg","pricing_plan_id":"cebpf4jnsgd1na2vs0mg"},{"bike_id":"1d5cd942-ec46-432c-ab0d-a9a2a9ce1568","system_id":"levelo_inurba_marseille","lat":43.28161,"lon":5.42626,"is_reserved":false,"is_disabled":false,"rental_uris":{"android":"levelo://app?vid=1d5cd942-ec46-432c-ab0d-a9a2a9ce1568","ios":"levelo://app?vid=1d5cd942-ec46-432c-ab0d-a9a2a9ce1568"},"vehicle_type_id":"4","last_reported":1753460038,"current_range_meters":18800,"station_id":"ce4bhnh2rcd13ifvqgug","pricing_plan_id":"cebpf4jnsgd1na2vs0mg"},{"bike_id":"e7652c6c-2402-49f7-a93f-025650a12a4e","system_id":"levelo_inurba_marseille","lat":43.28632,"lon":5.35101,"is_reserved":false,"is_disabled":false,"rental_uris":{"android":"levelo://app?vid=e7652c6c-2402-49f7-a93f-025650a12a4e","ios":"levelo://app?vid=e7652c6c-2402-49f7-a93f-025650a12a4e"},"vehicle_type_id":"4","last_reported":1753460038,"current_range_meters":18800,"station_id":"ce4bhch2rcd13ifvqeug","pricing_plan_id":"cebpf4jnsgd1na2vs0mg"},{"bike_id":"fe39a6a1-a1ae-4536-a4a0-ea1534e73ed3","system_id":"levelo_inurba_marseille","lat":43.26931,"lon":5.40202,"is_reserved":false,"is_disabled":false,"rental_uris":{"android":"levelo://app?vid=fe39a6a1-a1ae-4536-a4a0-ea1534e73ed3","ios":"levelo://app?vid=fe39a6a1-a1ae-4536-a4a0-ea1534e73ed3"},"vehicle_type_id":"4","last_reported":1753460038,"current_range_meters":18800,"station_id":"cjm6bp8fraef2m0cb0m0","pricing_plan_id":"cebpf4jnsgd1na2vs0mg"},{"bike_id":"1e5c96a6-9d0f-4d5f-85ef-5a5f8ac0317a","system_id":"levelo_inurba_marseille","lat":43.33469,"lon":5.39133,"is_reserved":false,"is_disabled":false,"rental_uris":{"android":"levelo://app?vid=1e5c96a6-9d0f-4d5f-85ef-5a5f8ac0317a","ios":"levelo://app?vid=1e5c96a6-9d0f-4d5f-85ef-5a5f8ac0317a"},"vehicle_type_id":"4","last_reported":1753460038,"current_range_meters":18800,"station_id":"","pricing_plan_id":"cebpf4jnsgd1na2vs0mg"},{"bike_id":"7254aad9-4b7a-44b4-89bb-4f6b7cb10520","system_id":"levelo_inurba_marseille","lat":43.26069,"lon":5.39412,"is_reserved":false,"is_disabled":false,"rental_uris":{"android":"levelo://app?vid=7254aad9-4b7a-44b4-89bb-4f6b7cb10520","ios":"levelo://app?vid=7254aad9-4b7a-44b4-89bb-4f6b7cb10520"},"vehicle_type_id":"4","last_reported":1753460038,"current_range_meters":18800,"station_id":"ce4bhh92rcd13ifvqfj0","pricing_plan_id":"cebpf4jnsgd1na2vs0mg"},{"bike_id":"f440d3f0-27b0-454f-9da2-95f9324abd9a","system_id":"levelo_inurba_marseille","lat":43.29011,"lon":5.35618,"is_reserved":false,"is_disabled":false,"rental_uris":{"android":"levelo://app?vid=f440d3f0-27b0-454f-9da2-95f9324abd9a","ios":"levelo://app?vid=f440d3f0-27b0-454f-9da2-95f9324abd9a"},"vehicle_type_id":"4","last_reported":1753460038,"current_range_meters":18800,"station_id":"ce4bhb92rcd13ifvqen0","pricing_plan_id":"cebpf4jnsgd1na2vs0mg"},{"bike_id":"a1d5115b-997f-44a5-8b4b-21cb29757407","system_id":"levelo_inurba_marseille","lat":43.312088,"lon":5.373234,"is_reserved":false,"is_disabled":false,"rental_uris":{"android":"levelo://app?vid=a1d5115b-997f-44a5-8b4b-21cb29757407","ios":"levelo://app?vid=a1d5115b-997f-44a5-8b4b-21cb29757407"},"vehicle_type_id":"4","last_reported":1753460038,"current_range_meters":18800,"station_id":"","pricing_plan_id":"cebpf4jnsgd1na2vs0mg"},{"bike_id":"e452e1c2-2b57-4593-a40f-0668c58e1327","system_id":"levelo_inurba_marseille","lat":43.30297,"lon":5.39203,"is_reserved":false,"is_disabled":false,"rental_uris":{"android":"levelo://app?vid=e452e1c2-2b57-4593-a40f-0668c58e1327","ios":"levelo://app?vid=e452e1c2-2b57-4593-a40f-0668c58e1327"},"vehicle_type_id":"4","last_reported":1753460038,"current_range_meters":18800,"station_id":"ce4bgkh2rcd13ifvqbk0","pricing_plan_id":"cebpf4jnsgd1na2vs0mg"},{"bike_id":"f56ed009-c55a-4186-b57d-5335023afd89","system_id":"levelo_inurba_marseille","lat":43.2705,"lon":5.4026,"is_reserved":false,"is_disabled":false,"rental_uris":{"android":"levelo://app?vid=f56ed009-c55a-4186-b57d-5335023afd89","ios":"levelo://app?vid=f56ed009-c55a-4186-b57d-5335023afd89"},"vehicle_type_id":"4","last_reported":1753460038,"current_range_meters":18800,"station_id":"ce4bhk92rcd13ifvqgc0","pricing_plan_id":"cebpf4jnsgd1na2vs0mg"},{"bike_id":"c3b53303-9018-4d5a-91fe-ce0c3b3be56d","system_id":"levelo_inurba_marseille","lat":43.286193,"lon":5.370546,"is_reserved":false,"is_disabled":false,"rental_uris":{"android":"levelo://app?vid=c3b53303-9018-4d5a-91fe-ce0c3b3be56d","ios":"levelo://app?vid=c3b53303-9018-4d5a-91fe-ce0c3b3be56d"},"vehicle_type_id":"4","last_reported":1753460038,"current_range_meters":18800,"station_id":"ce4bht12rcd13ifvqi60","pricing_plan_id":"cebpf4jnsgd1na2vs0mg"},{"bike_id":"f4fd8122-3542-41c9-a204-ae963e556aa2","system_id":"levelo_inurba_marseille","lat":43.23064,"lon":5.35506,"is_reserved":false,"is_disabled":false,"rental_uris":{"android":"levelo://app?vid=f4fd8122-3542-41c9-a204-ae963e556aa2","ios":"levelo://app?vid=f4fd8122-3542-41c9-a204-ae963e556aa2"},"vehicle_type_id":"4","last_reported":1753460038,"current_range_meters":19200,"station_id":"cpo3342slgdg3j2ifvpg","pricing_plan_id":"cebpf4jnsgd1na2vs0mg"},{"bike_id":"c67d6350-b5e2-4efc-8dfa-4f80abda9b71","system_id":"levelo_inurba_marseille","lat":43.290265,"lon":5.381402,"is_reserved":false,"is_disabled":false,"rental_uris":{"android":"levelo://app?vid=c67d6350-b5e2-4efc-8dfa-4f80abda9b71","ios":"levelo://app?vid=c67d6350-b5e2-4efc-8dfa-4f80abda9b71"},"vehicle_type_id":"4","last_reported":1753460038,"current_range_meters":20000,"station_id":"ce4bh4p2rcd13ifvqe1g","pricing_plan_id":"cebpf4jnsgd1na2vs0mg"},{"bike_id":"0dca9880-efff-4d3c-bfe8-3cbbd4a53750","system_id":"levelo_inurba_marseille","lat":43.33616,"lon":5.41037,"is_reserved":false,"is_disabled":false,"rental_uris":{"android":"levelo://app?vid=0dca9880-efff-4d3c-bfe8-3cbbd4a53750","ios":"levelo://app?vid=0dca9880-efff-4d3c-bfe8-3cbbd4a53750"},"vehicle_type_id":"4","last_reported":1753460038,"current_range_meters":18800,"station_id":"ce4bhqh2rcd13ifvqhmg","pricing_plan_id":"cebpf4jnsgd1na2vs0mg"},{"bike_id":"3c5c829d-f8d2-4754-8adb-4f267933a19e","system_id":"levelo_inurba_marseille","lat":43.25506,"lon":5.37651,"is_reserved":false,"is_disabled":false,"rental_uris":{"android":"levelo://app?vid=3c5c829d-f8d2-4754-8adb-4f267933a19e","ios":"levelo://app?vid=3c5c829d-f8d2-4754-8adb-4f267933a19e"},"vehicle_type_id":"4","last_reported":1753460038,"current_range_meters":19200,"station_id":"ce4bhh12rcd13ifvqff0","pricing_plan_id":"cebpf4jnsgd1na2vs0mg"},{"bike_id":"f617e095-2ce3-4dfb-8f30-8dc122524b41","system_id":"levelo_inurba_marseille","lat":43.29198,"lon":5.35801,"is_reserved":false,"is_disabled":false,"rental_uris":{"android":"levelo://app?vid=f617e095-2ce3-4dfb-8f30-8dc122524b41","ios":"levelo://app?vid=f617e095-2ce3-4dfb-8f30-8dc122524b41"},"vehicle_type_id":"4","last_reported":1753460038,"current_range_meters":19200,"station_id":"ce4bhb12rcd13ifvqel0","pricing_plan_id":"cebpf4jnsgd1na2vs0mg"},{"bike_id":"c8643813-cfee-4c97-ab8d-3b3f5f43ad05","system_id":"levelo_inurba_marseille","lat":43.289447,"lon":5.365851,"is_reserved":false,"is_disabled":false,"rental_uris":{"android":"levelo://app?vid=c8643813-cfee-4c97-ab8d-3b3f5f43ad05","ios":"levelo://app?vid=c8643813-cfee-4c97-ab8d-3b3f5f43ad05"},"vehicle_type_id":"4","last_reported":1753460038,"current_range_meters":19200,"station_id":"ce4bhap2rcd13ifvqek0","pricing_plan_id":"cebpf4jnsgd1na2vs0mg"},{"bike_id":"85333a3b-9be8-4a22-af2c-50f33eb8750c","system_id":"levelo_inurba_marseille","lat":43.24176,"lon":5.36374,"is_reserved":false,"is_disabled":false,"rental_uris":{"android":"levelo://app?vid=85333a3b-9be8-4a22-af2c-50f33eb8750c","ios":"levelo://app?vid=85333a3b-9be8-4a22-af2c-50f33eb8750c"},"vehicle_type_id":"4","last_reported":1753460038,"current_range_meters":19200,"station_id":"cpo36qri1sfpv3e86is0","pricing_plan_id":"cebpf4jnsgd1na2vs0mg"},{"bike_id":"43dbc09e-d0e4-4ddb-bafe-4f55874d23a9","system_id":"levelo_inurba_marseille","lat":43.30237,"lon":5.38226,"is_reserved":false,"is_disabled":false,"rental_uris":{"android":"levelo://app?vid=43dbc09e-d0e4-4ddb-bafe-4f55874d23a9","ios":"levelo://app?vid=43dbc09e-d0e4-4ddb-bafe-4f55874d23a9"},"vehicle_type_id":"4","last_reported":1753460038,"current_range_meters":19200,"station_id":"","pricing_plan_id":"cebpf4jnsgd1na2vs0mg"},{"bike_id":"534086b7-5d73-40cd-a02b-128e089b663f","system_id":"levelo_inurba_marseille","lat":43.26196,"lon":5.37448,"is_reserved":false,"is_disabled":false,"rental_uris":{"android":"levelo://app?vid=534086b7-5d73-40cd-a02b-128e089b663f","ios":"levelo://app?vid=534086b7-5d73-40cd-a02b-128e089b663f"},"vehicle_type_id":"4","last_reported":1753460038,"current_range_meters":19200,"station_id":"ce4bhgp2rcd13ifvqfc0","pricing_plan_id":"cebpf4jnsgd1na2vs0mg"},{"bike_id":"2e56bdbb-501b-4a29-a682-67be98d7c787","system_id":"levelo_inurba_marseille","lat":43.26594,"lon":5.39032,"is_reserved":false,"is_disabled":false,"rental_uris":{"android":"levelo://app?vid=2e56bdbb-501b-4a29-a682-67be98d7c787","ios":"levelo://app?vid=2e56bdbb-501b-4a29-a682-67be98d7c787"},"vehicle_type_id":"4","last_reported":1753460038,"current_range_meters":19200,"station_id":"ce4bhe12rcd13ifvqf30","pricing_plan_id":"cebpf4jnsgd1na2vs0mg"},{"bike_id":"725317c6-351b-43e5-b68d-45c3db010ac3","system_id":"levelo_inurba_marseille","lat":43.281547,"lon":5.426325,"is_reserved":false,"is_disabled":false,"rental_uris":{"android":"levelo://app?vid=725317c6-351b-43e5-b68d-45c3db010ac3","ios":"levelo://app?vid=725317c6-351b-43e5-b68d-45c3db010ac3"},"vehicle_type_id":"4","last_reported":1753460038,"current_range_meters":19600,"station_id":"ce4bhnh2rcd13ifvqgug","pricing_plan_id":"cebpf4jnsgd1na2vs0mg"},{"bike_id":"33fffa1b-7232-4b4d-b67c-e2e3f2292ec8","system_id":"levelo_inurba_marseille","lat":43.27685,"lon":5.38884,"is_reserved":false,"is_disabled":false,"rental_uris":{"android":"levelo://app?vid=33fffa1b-7232-4b4d-b67c-e2e3f2292ec8","ios":"levelo://app?vid=33fffa1b-7232-4b4d-b67c-e2e3f2292ec8"},"vehicle_type_id":"4","last_reported":1753460038,"current_range_meters":19600,"station_id":"ce4bhi12rcd13ifvqfo0","pricing_plan_id":"cebpf4jnsgd1na2vs0mg"},{"bike_id":"2703e0a4-7218-4353-b33c-9609c06a5516","system_id":"levelo_inurba_marseille","lat":43.2749,"lon":5.42441,"is_reserved":false,"is_disabled":false,"rental_uris":{"android":"levelo://app?vid=2703e0a4-7218-4353-b33c-9609c06a5516","ios":"levelo://app?vid=2703e0a4-7218-4353-b33c-9609c06a5516"},"vehicle_type_id":"4","last_reported":1753460038,"current_range_meters":19600,"station_id":"ce4bhn92rcd13ifvqgrg","pricing_plan_id":"cebpf4jnsgd1na2vs0mg"},{"bike_id":"a05343f6-5345-451e-92c9-8d14b4ec04eb","system_id":"levelo_inurba_marseille","lat":43.314919,"lon":5.373082,"is_reserved":false,"is_disabled":true,"rental_uris":{"android":"levelo://app?vid=a05343f6-5345-451e-92c9-8d14b4ec04eb","ios":"levelo://app?vid=a05343f6-5345-451e-92c9-8d14b4ec04eb"},"vehicle_type_id":"4","last_reported":1753460038,"current_range_meters":19600,"station_id":"","pricing_plan_id":"cebpf4jnsgd1na2vs0mg"},{"bike_id":"e1a307c1-7326-4db1-99ce-025abe363be4","system_id":"levelo_inurba_marseille","lat":43.29858,"lon":5.36285,"is_reserved":false,"is_disabled":false,"rental_uris":{"android":"levelo://app?vid=e1a307c1-7326-4db1-99ce-025abe363be4","ios":"levelo://app?vid=e1a307c1-7326-4db1-99ce-025abe363be4"},"vehicle_type_id":"4","last_reported":1753460038,"current_range_meters":19600,"station_id":"ce4bgpp2rcd13ifvqc3g","pricing_plan_id":"cebpf4jnsgd1na2vs0mg"},{"bike_id":"febfb0dd-62aa-4333-8aa6-5a2dfd2c5e17","system_id":"levelo_inurba_marseille","lat":43.33156,"lon":5.35975,"is_reserved":false,"is_disabled":false,"rental_uris":{"android":"levelo://app?vid=febfb0dd-62aa-4333-8aa6-5a2dfd2c5e17","ios":"levelo://app?vid=febfb0dd-62aa-4333-8aa6-5a2dfd2c5e17"},"vehicle_type_id":"4","last_reported":1753460038,"current_range_meters":19600,"station_id":"","pricing_plan_id":"cebpf4jnsgd1na2vs0mg"},{"bike_id":"4f069cb2-e85f-44ab-8659-b3444c19b657","system_id":"levelo_inurba_marseille","lat":43.23189,"lon":5.35552,"is_reserved":false,"is_disabled":false,"rental_uris":{"android":"levelo://app?vid=4f069cb2-e85f-44ab-8659-b3444c19b657","ios":"levelo://app?vid=4f069cb2-e85f-44ab-8659-b3444c19b657"},"vehicle_type_id":"4","last_reported":1753460038,"current_range_meters":19600,"station_id":"ce4bhu92rcd13ifvqi70","pricing_plan_id":"cebpf4jnsgd1na2vs0mg"},