{"last_updated":1751983843,"ttl":60,"version":"2.2","data":{"bikes":[{"bike_id":"cd20cfea-2f2f-444d-a882-a49b6cf370eb","system_id":"levelo_inurba_marseille","lat":43.337444,"lon":5.374475,"is_reserved":false,"is_disabled":true,"rental_uris":{"android":"levelo://app?vid=cd20cfea-2f2f-444d-a882-a49b6cf370eb","ios":"levelo://app?vid=cd20cfea-2f2f-444d-a882-a49b6cf370eb"},"vehicle_type_id":"4","last_reported":1751983843,"current_range_meters":0,"station_id":"","pricing_plan_id":"cebpf4jnsgd1na2vs0mg"},{"bike_id":"3da29fb8-fc97-44c6-b9ac-31dd456b2fd4","system_id":"levelo_inurba_marseille","lat":43.33771,"lon":5.37424,"is_reserved":false,"is_disabled":true,"rental_uris":{"android":"levelo://app?vid=3da29fb8-fc97-44c6-b9ac-31dd456b2fd4","ios":"levelo://app?vid=3da29fb8-fc97-44c6-b9ac-31dd456b2fd4"},"vehicle_type_id":"4","last_reported":1751983843,"current_range_meters":0,"station_id":"","pricing_plan_id":"cebpf4jnsgd1na2vs0mg"},{"bike_id":"01861ad8-a8d7-4be6-816e-651927c87584","system_id":"levelo_inurba_marseille","lat":43.33751,"lon":5.37456,"is_reserved":false,"is_disabled":true,"rental_uris":{"android":"levelo://app?vid=01861ad8-a8d7-4be6-816e-651927c87584","ios":"levelo://app?vid=01861ad8-a8d7-4be6-816e-651927c87584"},"vehicle_type_id":"4","last_reported":1751983843,"current_range_meters":0,"station_id":"","pricing_plan_id":"cebpf4jnsgd1na2vs0mg"},{"bike_id":"3d508917-55ee-42b6-894b-89c2a444dc06","system_id":"levelo_inurba_marseille","lat":43.33794,"lon":5.37494,"is_reserved":false,"is_disabled":true,"rental_uris":{"android":"levelo://app?vid=3d508917-55ee-42b6-894b-89c2a444dc06","ios":"levelo://app?vid=3d508917-55ee-42b6-894b-89c2a444dc06"},"vehicle_type_id":"4","last_reported":1751983843,"current_range_meters":0,"station_id":"","pricing_plan_id":"cebpf4jnsgd1na2vs0mg"},{"bike_id":"6661cbd2-6ba2-4b46-b15e-1188df0f29d7","system_id":"levelo_inurba_marseille","lat":43.2138,"lon":5.35051,"is_reserved":false,"is_disabled":true,"rental_uris":{"android":"levelo://app?vid=6661cbd2-6ba2-4b46-b15e-1188df0f29d7","ios":"levelo://app?vid=6661cbd2-6ba2-4b46-b15e-1188df0f29d7"},"vehicle_type_id":"4","last_reported":1751983843,"current_range_meters":0,"station_id":"","pricing_plan_id":"cebpf4jnsgd1na2vs0mg"},{"bike_id":"f619513e-0984-42d2-8794-fc6696bc6c16","system_id":"levelo_inurba_marseille","lat":43.29939,"lon":5.36566,"is_reserved":false,"is_disabled":true,"rental_uris":{"android":"levelo://app?vid=f619513e-0984-42d2-8794-fc6696bc6c16","ios":"levelo://app?vid=f619513e-0984-42d2-8794-fc6696bc6c16"},"vehicle_type_id":"4","last_reported":1751983843,"current_range_meters":0,"station_id":"ce4bgm92rcd13ifvqbr0","pricing_plan_id":"cebpf4jnsgd1na2vs0mg"},{"bike_id":"6e1f8ed4-27e0-46fe-aae1-e522dc13691a","system_id":"levelo_inurba_marseille","lat":43.30135,"lon":5.37407,"is_reserved":false,"is_disabled":true,"rental_uris":{"android":"levelo://app?vid=6e1f8ed4-27e0-46fe-aae1-e522dc13691a","ios":"levelo://app?vid=6e1f8ed4-27e0-46fe-aae1-e522dc13691a"},"vehicle_type_id":"4","last_reported":1751983843,"current_range_meters":0,"station_id":"ce4bgs92rcd13ifvqcc0","pricing_plan_id":"cebpf4jnsgd1na2vs0mg"},{"bike_id":"d17d8914-0518-41e4-87b1-04f70bdf2dc4","system_id":"levelo_inurba_marseille","lat":43.30588,"lon":5.3936,"is_reserved":false,"is_disabled":true,"rental_uris":{"android":"levelo://app?vid=d17d8914-0518-41e4-87b1-04f70bdf2dc4","ios":"levelo://app?vid=d17d8914-0518-41e4-87b1-04f70bdf2dc4"},"vehicle_type_id":"4","last_reported":1751983843,"current_range_meters":0,"station_id":"ce4bh0p2rcd13ifvqd80","pricing_plan_id":"cebpf4jnsgd1na2vs0mg"},{"bike_id":"1a93522c-a0bf-4a81-8f86-b02e2aea8296","system_id":"levelo_inurba_marseille","lat":43.2737,"lon":5.3626,"is_reserved":false,"is_disabled":true,"rental_uris":{"android":"levelo://app?vid=1a93522c-a0bf-4a81-8f86-b02e2aea8296","ios":"levelo://app?vid=1a93522c-a0bf-4a81-8f86-b02e2aea8296"},"vehicle_type_id":"4","last_reported":1751983843,"current_range_meters":0,"station_id":"ce4bhbh2rcd13ifvqeo0","pricing_plan_id":"cebpf4jnsgd1na2vs0mg"},{"bike_id":"c2cc834c-1ed8-423d-a8d9-915547e7f3ab","system_id":"levelo_inurba_marseille","lat":43.28614,"lon":5.35106,"is_reserved":false,"is_disabled":true,"rental_uris":{"android":"levelo://app?vid=c2cc834c-1ed8-423d-a8d9-915547e7f3ab","ios":"levelo://app?vid=c2cc834c-1ed8-423d-a8d9-915547e7f3ab"},"vehicle_type_id":"4","last_reported":1751983843,"current_range_meters":0,"station_id":"ce4bhch2rcd13ifvqeug","pricing_plan_id":"cebpf4jnsgd1na2vs0mg"},{"bike_id":"505840c2-0e34-47f4-a875-7017b731ed27","system_id":"levelo_inurba_marseille","lat":43.26954,"lon":5.38631,"is_reserved":false,"is_disabled":true,"rental_uris":{"android":"levelo://app?vid=505840c2-0e34-47f4-a875-7017b731ed27","ios":"levelo://app?vid=505840c2-0e34-47f4-a875-7017b731ed27"},"vehicle_type_id":"4","last_reported":1751983843,"current_range_meters":0,"station_id":"ce4bhh92rcd13ifvqfh0","pricing_plan_id":"cebpf4jnsgd1na2vs0mg"},{"bike_id":"3fa60b66-7123-4290-8ce2-567d218498c6","system_id":"levelo_inurba_marseille","lat":43.257245,"lon":5.41107,"is_reserved":false,"is_disabled":true,"rental_uris":{"android":"levelo://app?vid=3fa60b66-7123-4290-8ce2-567d218498c6","ios":"levelo://app?vid=3fa60b66-7123-4290-8ce2-567d218498c6"},"vehicle_type_id":"4","last_reported":1751983843,"current_range_meters":0,"station_id":"ce4bhkp2rcd13ifvqgd0","pricing_plan_id":"cebpf4jnsgd1na2vs0mg"},{"bike_id":"d5677444-d26f-45f5-84d9-a37e6d9b2f41","system_id":"levelo_inurba_marseille","lat":43.25936,"lon":5.40918,"is_reserved":false,"is_disabled":true,"rental_uris":{"android":"levelo://app?vid=d5677444-d26f-45f5-84d9-a37e6d9b2f41","ios":"levelo://app?vid=d5677444-d26f-45f5-84d9-a37e6d9b2f41"},"vehicle_type_id":"4","last_reported":1751983843,"current_range_meters":0,"station_id":"ce4bhm92rcd13ifvqglg","pricing_plan_id":"cebpf4jnsgd1na2vs0mg"},{"bike_id":"07776292-a328-471d-a8be-92d2382b012f","system_id":"levelo_inurba_marseille","lat":43.28147,"lon":5.42637,"is_reserved":false,"is_disabled":true,"rental_uris":{"android":"levelo://app?vid=07776292-a328-471d-a8be-92d2382b012f","ios":"levelo://app?vid=07776292-a328-471d-a8be-92d2382b012f"},"vehicle_type_id":"4","last_reported":1751983843,"current_range_meters":0,"station_id":"ce4bhnh2rcd13ifvqgug","pricing_plan_id":"cebpf4jnsgd1na2vs0mg"},{"bike_id":"839a9aee-4978-4941-acc0-bcf3fcf351f0","system_id":"levelo_inurba_marseille","lat":43.231947,"lon":5.355563,"is_reserved":false,"is_disabled":true,"rental_uris":{"android":"levelo://app?vid=839a9aee-4978-4941-acc0-bcf3fcf351f0","ios":"levelo://app?vid=839a9aee-4978-4941-acc0-bcf3fcf351f0"},"vehicle_type_id":"4","last_reported":1751983843,"current_range_meters":0,"station_id":"ce4bhu92rcd13ifvqi70","pricing_plan_id":"cebpf4jnsgd1na2vs0mg"},{"bike_id":"504c60c7-e0e1-40aa-9435-18721848df14","system_id":"levelo_inurba_marseille","lat":43.29526,"lon":5.38537,"is_reserved":false,"is_disabled":true,"rental_uris":{"android":"levelo://app?vid=504c60c7-e0e1-40aa-9435-18721848df14","ios":"levelo://app?vid=504c60c7-e0e1-40aa-9435-18721848df14"},"vehicle_type_id":"4","last_reported":1751983843,"current_range_meters":400,"station_id":"ce4bgih2rcd13ifvqba0","pricing_plan_id":"cebpf4jnsgd1na2vs0mg"},{"bike_id":"54a2f1e5-2131-4519-86e0-7f2d61397e98","system_id":"levelo_inurba_marseille","lat":43.30553,"lon":5.36551,"is_reserved":false,"is_disabled":true,"rental_uris":{"android":"levelo://app?vid=54a2f1e5-2131-4519-86e0-7f2d61397e98","ios":"levelo://app?vid=54a2f1e5-2131-4519-86e0-7f2d61397e98"},"vehicle_type_id":"4","last_reported":1751983843,"current_range_meters":400,"station_id":"ce4bgs12rcd13ifvqcag","pricing_plan_id":"cebpf4jnsgd1na2vs0mg"},{"bike_id":"43035b1e-2a0b-43f8-8093-06978f0376da","system_id":"levelo_inurba_marseille","lat":43.30893,"lon":5.37191,"is_reserved":false,"is_disabled":true,"rental_uris":{"android":"levelo://app?vid=43035b1e-2a0b-43f8-8093-06978f0376da","ios":"levelo://app?vid=43035b1e-2a0b-43f8-8093-06978f0376da"},"vehicle_type_id":"4","last_reported":1751983843,"current_range_meters":800,"station_id":"ce4bguh2rcd13ifvqckg","pricing_plan_id":"cebpf4jnsgd1na2vs0mg"},{"bike_id":"17591950-ff53-454b-a1db-5b17b83e011a","system_id":"levelo_inurba_marseille","lat":43.28923,"lon":5.38388,"is_reserved":false,"is_disabled":true,"rental_uris":{"android":"levelo://app?vid=17591950-ff53-454b-a1db-5b17b83e011a","ios":"levelo://app?vid=17591950-ff53-454b-a1db-5b17b83e011a"},"vehicle_type_id":"4","last_reported":1751983843,"current_range_meters":800,"station_id":"ce4bh612rcd13ifvqe6g","pricing_plan_id":"cebpf4jnsgd1na2vs0mg"},{"bike_id":"9215fa8b-11b1-4866-80bf-515b7b42bc97","system_id":"levelo_inurba_marseille","lat":43.28485,"lon":5.38418,"is_reserved":false,"is_disabled":true,"rental_uris":{"android":"levelo://app?vid=9215fa8b-11b1-4866-80bf-515b7b42bc97","ios":"levelo://app?vid=9215fa8b-11b1-4866-80bf-515b7b42bc97"},"vehicle_type_id":"4","last_reported":1751983843,"current_range_meters":1200,"station_id":"ce4bh512rcd13ifvqe3g","pricing_plan_id":"cebpf4jnsgd1na2vs0mg"},{"bike_id":"77515c47-72ed-4c95-9778-b8f5f78dae7e","system_id":"levelo_inurba_marseille","lat":43.28479,"lon":5.384138,"is_reserved":false,"is_disabled":true,"rental_uris":{"android":"levelo://app?vid=77515c47-72ed-4c95-9778-b8f5f78dae7e","ios":"levelo://app?vid=77515c47-72ed-4c95-9778-b8f5f78dae7e"},"vehicle_type_id":"4","last_reported":1751983843,"current_range_meters":1200,"station_id":"ce4bh512rcd13ifvqe3g","pricing_plan_id":"cebpf4jnsgd1na2vs0mg"},{"bike_id":"852387ec-a13e-4a01-a740-ea3dcf13d72b","system_id":"levelo_inurba_marseille","lat":43.27202,"lon":5.39191,"is_reserved":false,"is_disabled":true,"rental_uris":{"android":"levelo://app?vid=852387ec-a13e-4a01-a740-ea3dcf13d72b","ios":"levelo://app?vid=852387ec-a13e-4a01-a740-ea3dcf13d72b"},"vehicle_type_id":"4","last_reported":1751983843,"current_range_meters":1200,"station_id":"ce4bhhp2rcd13ifvqfm0","pricing_plan_id":"cebpf4jnsgd1na2vs0mg"},{"bike_id":"ed290504-6948-4f69-8584-2e2b0286febf","system_id":"levelo_inurba_marseille","lat":43.21201,"lon":5.3507,"is_reserved":false,"is_disabled":true,"rental_uris":{"android":"levelo://app?vid=ed290504-6948-4f69-8584-2e2b0286febf","ios":"levelo://app?vid=ed290504-6948-4f69-8584-2e2b0286febf"},"vehicle_type_id":"4","last_reported":1751983843,"current_range_meters":1200,"station_id":"st_cvj6sg6p6f1abm77japg","pricing_plan_id":"cebpf4jnsgd1na2vs0mg"},{"bike_id":"0f1c7783-be1c-44d4-b7fe-6b4cc56b45ce","system_id":"levelo_inurba_marseille","lat":43.31195,"lon":5.36851,"is_reserved":false,"is_disabled":true,"rental_uris":{"android":"levelo://app?vid=0f1c7783-be1c-44d4-b7fe-6b4cc56b45ce","ios":"levelo://app?vid=0f1c7783-be1c-44d4-b7fe-6b4cc56b45ce"},"vehicle_type_id":"4","last_reported":1751983843,"current_range_meters":1600,"station_id":"ce4bgl92rcd13ifvqbq0","pricing_plan_id":"cebpf4jnsgd1na2vs0mg"},{"bike_id":"b9f3be9f-2fbf-4cd2-8fbe-abe044ea0ca3","system_id":"levelo_inurba_marseille","lat":43.28486,"lon":5.38575,"is_reserved":false,"is_disabled":true,"rental_uris":{"android":"levelo://app?vid=b9f3be9f-2fbf-4cd2-8fbe-abe044ea0ca3","ios":"levelo://app?vid=b9f3be9f-2fbf-4cd2-8fbe-abe044ea0ca3"},"vehicle_type_id":"4","last_reported":1751983843,"current_range_meters":1600,"station_id":"ce4bh8p2rcd13ifvqeb0","pricing_plan_id":"cebpf4jnsgd1na2vs0mg"},{"bike_id":"f019955e-f7a1-4a35-8f42-1fdf08ee12bc","system_id":"levelo_inurba_marseille","lat":43.29707,"lon":5.377642,"is_reserved":false,"is_disabled":true,"rental_uris":{"android":"levelo://app?vid=f019955e-f7a1-4a35-8f42-1fdf08ee12bc","ios":"levelo://app?vid=f019955e-f7a1-4a35-8f42-1fdf08ee12bc"},"vehicle_type_id":"4","last_reported":1751983843,"current_range_meters":2000,"station_id":"","pricing_plan_id":"cebpf4jnsgd1na2vs0mg"},{"bike_id":"c74171f3-62cc-4530-9f1b-ac8df7e71376","system_id":"levelo_inurba_marseille","lat":43.30552,"lon":5.384032,"is_reserved":false,"is_disabled":true,"rental_uris":{"android":"levelo://app?vid=c74171f3-62cc-4530-9f1b-ac8df7e71376","ios":"levelo://app?vid=c74171f3-62cc-4530-9f1b-ac8df7e71376"},"vehicle_type_id":"4","last_reported":1751983843,"current_range_meters":2000,"station_id":"ce4bgg92rcd13ifvqb30","pricing_plan_id":"cebpf4jnsgd1na2vs0mg"},{"bike_id":"616336cc-0c91-47ba-88e7-9d04794daa36","system_id":"levelo_inurba_marseille","lat":43.25762,"lon":5.41096,"is_reserved":false,"is_disabled":false,"rental_uris":{"android":"levelo://app?vid=616336cc-0c91-47ba-88e7-9d04794daa36","ios":"levelo://app?vid=616336cc-0c91-47ba-88e7-9d04794daa36"},"vehicle_type_id":"4","last_reported":1751983843,"current_range_meters":2800,"station_id":"","pricing_plan_id":"cebpf4jnsgd1na2vs0mg"},{"bike_id":"5dca33cf-60d9-40cd-bafd-b8058d47bcb2","system_id":"levelo_inurba_marseille","lat":43.28412,"lon":5.37515,"is_reserved":false,"is_disabled":false,"rental_uris":{"android":"levelo://app?vid=5dca33cf-60d9-40cd-bafd-b8058d47bcb2","ios":"levelo://app?vid=5dca33cf-60d9-40cd-bafd-b8058d47bcb2"},"vehicle_type_id":"4","last_reported":1751983843,"current_range_meters":2800,"station_id":"ce4bh412rcd13ifvqds0","pricing_plan_id":"cebpf4jnsgd1na2vs0mg"},{"bike_id":"3b638e02-6a55-403d-b500-cc62d0041fbc","system_id":"levelo_inurba_marseille","lat":43.26937,"lon":5.38905,"is_reserved":false,"is_disabled":false,"rental_uris":{"android":"levelo://app?vid=3b638e02-6a55-403d-b500-cc62d0041fbc","ios":"levelo://app?vid=3b638e02-6a55-403d-b500-cc62d0041fbc"},"vehicle_type_id":"4","last_reported":1751983843,"current_range_meters":2800,"station_id":"ce4bhhh2rcd13ifvqfl0","pricing_plan_id":"cebpf4jnsgd1na2vs0mg"},{"bike_id":"47cc12e9-1f9d-4b29-b948-db655857089a","system_id":"levelo_inurba_marseille","lat":43.22504,"lon":5.34792,"is_reserved":false,"is_disabled":false,"rental_uris":{"android":"levelo://app?vid=47cc12e9-1f9d-4b29-b948-db655857089a","ios":"levelo://app?vid=47cc12e9-1f9d-4b29-b948-db655857089a"},"vehicle_type_id":"4","last_reported":1751983843,"current_range_meters":2800,"station_id":"st_cvj5dfep6f1abm77gieg","pricing_plan_id":"cebpf4jnsgd1na2vs0mg"},{"bike_id":"f3812cc5-393b-4e88-95e3-4855b286937b","system_id":"levelo_inurba_marseille","lat":43.3107,"lon":5.38354,"is_reserved":false,"is_disabled":false,"rental_uris":{"android":"levelo://app?vid=f3812cc5-393b-4e88-95e3-4855b286937b","ios":"levelo://app?vid=f3812cc5-393b-4e88-95e3-4855b286937b"},"vehicle_type_id":"4","last_reported":1751983843,"current_range_meters":3200,"station_id":"ce4bgv92rcd13ifvqcr0","pricing_plan_id":"cebpf4jnsgd1na2vs0mg"},{"bike_id":"79da8375-8fc3-4e29-9a82-c8ae1aafdb35","system_id":"levelo_inurba_marseille","lat":43.27902,"lon":5.38002,"is_reserved":false,"is_disabled":false,"rental_uris":{"android":"levelo://app?vid=79da8375-8fc3-4e29-9a82-c8ae1aafdb35","ios":"levelo://app?vid=79da8375-8fc3-4e29-9a82-c8ae1aafdb35"},"vehicle_type_id":"4","last_reported":1751983843,"current_range_meters":3200,"station_id":"ce4bhf92rcd13ifvqf50","pricing_plan_id":"cebpf4jnsgd1na2vs0mg"},{"bike_id":"751c9dc1-e7e1-4d5f-98a2-128b51af8359","system_id":"levelo_inurba_marseille","lat":43.255146,"lon":5.406431,"is_reserved":false,"is_disabled":false,"rental_uris":{"android":"levelo://app?vid=751c9dc1-e7e1-4d5f-98a2-128b51af8359","ios":"levelo://app?vid=751c9dc1-e7e1-4d5f-98a2-128b51af8359"},"vehicle_type_id":"4","last_reported":1751983843,"current_range_meters":3200,"station_id":"ce4bhkp2rcd13ifvqgd0","pricing_plan_id":"cebpf4jnsgd1na2vs0mg"},{"bike_id":"ff6969fc-5512-4edf-a61d-6936ccb9a278","system_id":"levelo_inurba_marseille","lat":43.330142,"lon":5.36378,"is_reserved":false,"is_disabled":false,"rental_uris":{"android":"levelo://app?vid=ff6969fc-5512-4edf-a61d-6936ccb9a278","ios":"levelo://app?vid=ff6969fc-5512-4edf-a61d-6936ccb9a278"},"vehicle_type_id":"4","last_reported":1751983843,"current_range_meters":3600,"station_id":"","pricing_plan_id":"cebpf4jnsgd1na2vs0mg"},{"bike_id":"58a1f571-b980-4f9f-be9f-6f84b67139ba","system_id":"levelo_inurba_marseille","lat":43.28563,"lon":5.39504,"is_reserved":false,"is_disabled":false,"rental_uris":{"android":"levelo://app?vid=58a1f571-b980-4f9f-be9f-6f84b67139ba","ios":"levelo://app?vid=58a1f571-b980-4f9f-be9f-6f84b67139ba"},"vehicle_type_id":"4","last_reported":1751983843,"current_range_meters":3600,"station_id":"ce4bh292rcd13ifvqdg0","pricing_plan_id":"cebpf4jnsgd1na2vs0mg"},{"bike_id":"b361cf8c-f0e8-4ad9-8e91-9458f68f3e3e","system_id":"levelo_inurba_marseille","lat":43.278937,"lon":5.380318,"is_reserved":false,"is_disabled":false,"rental_uris":{"android":"levelo://app?vid=b361cf8c-f0e8-4ad9-8e91-9458f68f3e3e","ios":"levelo://app?vid=b361cf8c-f0e8-4ad9-8e91-9458f68f3e3e"},"vehicle_type_id":"4","last_reported":1751983843,"current_range_meters":4000,"station_id":"ce4bhf92rcd13ifvqf50","pricing_plan_id":"cebpf4jnsgd1na2vs0mg"},{"bike_id":"e562ad4e-a577-4b7b-a74e-7e00b9c0f52f","system_id":"levelo_inurba_marseille","lat":43.22504,"lon":5.3478,"is_reserved":false,"is_disabled":false,"rental_uris":{"android":"levelo://app?vid=e562ad4e-a577-4b7b-a74e-7e00b9c0f52f","ios":"levelo://app?vid=e562ad4e-a577-4b7b-a74e-7e00b9c0f52f"},"vehicle_type_id":"4","last_reported":1751983843,"current_range_meters":4000,"station_id":"st_cvj5dfep6f1abm77gieg","pricing_plan_id":"cebpf4jnsgd1na2vs0mg"},{"bike_id":"7ae32b87-7a0b-489d-823c-18c48e3a0576","system_id":"levelo_inurba_marseille","lat":43.24169,"lon":5.36398,"is_reserved":false,"is_disabled":false,"rental_uris":{"android":"levelo://app?vid=7ae32b87-7a0b-489d-823c-18c48e3a0576","ios":"levelo://app?vid=7ae32b87-7a0b-489d-823c-18c48e3a0576"},"vehicle_type_id":"4","last_reported":1751983843,"current_range_meters":4400,"station_id":"cpo36qri1sfpv3e86is0","pricing_plan_id":"cebpf4jnsgd1na2vs0mg"},{"bike_id":"47a1d137-a2bc-4fb6-8bf4-8d4d4ff48400","system_id":"levelo_inurba_marseille","lat":43.28473,"lon":5.38415,"is_reserved":false,"is_disabled":false,"rental_uris":{"android":"levelo://app?vid=47a1d137-a2bc-4fb6-8bf4-8d4d4ff48400","ios":"levelo://app?vid=47a1d137-a2bc-4fb6-8bf4-8d4d4ff48400"},"vehicle_type_id":"4","last_reported":1751983843,"current_range_meters":4800,"station_id":"ce4bh512rcd13ifvqe3g","pricing_plan_id":"cebpf4jnsgd1na2vs0mg"},{"bike_id":"c1d1c631-fe35-46e2-9d1c-8dc269178f6f","system_id":"levelo_inurba_marseille","lat":43.283487,"lon":5.381056,"is_reserved":false,"is_disabled":false,"rental_uris":{"android":"levelo://app?vid=c1d1c631-fe35-46e2-9d1c-8dc269178f6f","ios":"levelo://app?vid=c1d1c631-fe35-46e2-9d1c-8dc269178f6f"},"vehicle_type_id":"4","last_reported":1751983843,"current_range_meters":5600,"station_id":"ce4bh412rcd13ifvqdr0","pricing_plan_id":"cebpf4jnsgd1na2vs0mg"},{"bike_id":"4d052368-28c5-4c9e-a0de-faa7c604fa5a","system_id":"levelo_inurba_marseille","lat":43.2678,"lon":5.39411,"is_reserved":false,"is_disabled":false,"rental_uris":{"android":"levelo://app?vid=4d052368-28c5-4c9e-a0de-faa7c604fa5a","ios":"levelo://app?vid=4d052368-28c5-4c9e-a0de-faa7c604fa5a"},"vehicle_type_id":"4","last_reported":1751983843,"current_range_meters":5600,"station_id":"ce4bhh12rcd13ifvqfg0","pricing_plan_id":"cebpf4jnsgd1na2vs0mg"},{"bike_id":"7b527f00-f6ea-4963-b59d-8da04a2feedb","system_id":"levelo_inurba_marseille","lat":43.32076,"lon":5.40117,"is_reserved":false,"is_disabled":false,"rental_uris":{"android":"levelo://app?vid=7b527f00-f6ea-4963-b59d-8da04a2feedb","ios":"levelo://app?vid=7b527f00-f6ea-4963-b59d-8da04a2feedb"},"vehicle_type_id":"4","last_reported":1751983843,"current_range_meters":6000,"station_id":"","pricing_plan_id":"cebpf4jnsgd1na2vs0mg"},{"bike_id":"8573ae46-2c7c-43f8-9f6b-b3622f3766f3","system_id":"levelo_inurba_marseille","lat":43.29964,"lon":5.38498,"is_reserved":false,"is_disabled":false,"rental_uris":{"android":"levelo://app?vid=8573ae46-2c7c-43f8-9f6b-b3622f3766f3","ios":"levelo://app?vid=8573ae46-2c7c-43f8-9f6b-b3622f3766f3"},"vehicle_type_id":"4","last_reported":1751983843,"current_range_meters":6000,"station_id":"ce4bgj92rcd13ifvqbd0","pricing_plan_id":"cebpf4jnsgd1na2vs0mg"},{"bike_id":"2fffb826-572f-4476-b7bd-dfab5f5427f1","system_id":"levelo_inurba_marseille","lat":43.31685,"lon":5.40479,"is_reserved":false,"is_disabled":false,"rental_uris":{"android":"levelo://app?vid=2fffb826-572f-4476-b7bd-dfab5f5427f1","ios":"levelo://app?vid=2fffb826-572f-4476-b7bd-dfab5f5427f1"},"vehicle_type_id":"4","last_reported":1751983843,"current_range_meters":6000,"station_id":"ce4bh012rcd13ifvqd00","pricing_plan_id":"cebpf4jnsgd1na2vs0mg"},{"bike_id":"b0f2f6d4-1335-4aeb-a164-40964a028510","system_id":"levelo_inurba_marseille","lat":43.30137,"lon":5.38082,"is_reserved":false,"is_disabled":false,"rental_uris":{"android":"levelo://app?vid=b0f2f6d4-1335-4aeb-a164-40964a028510","ios":"levelo://app?vid=b0f2f6d4-1335-4aeb-a164-40964a028510"},"vehicle_type_id":"4","last_reported":1751983843,"current_range_meters":6400,"station_id":"ce4bgjp2rcd13ifvqbh0","pricing_plan_id":"cebpf4jnsgd1na2vs0mg"},{"bike_id":"f40fe9fd-9f3d-418d-848e-82c2176452eb","system_id":"levelo_inurba_marseille","lat":43.28263,"lon":5.35064,"is_reserved":false,"is_disabled":false,"rental_uris":{"android":"levelo://app?vid=f40fe9fd-9f3d-418d-848e-82c2176452eb","ios":"levelo://app?vid=f40fe9fd-9f3d-418d-848e-82c2176452eb"},"vehicle_type_id":"4","last_reported":1751983843,"current_range_meters":6400,"station_id":"ce4bhbp2rcd13ifvqerg","pricing_plan_id":"cebpf4jnsgd1na2vs0mg"},{"bike_id":"3c94d2c6-2996-41de-9e54-fa8af7df6912","system_id":"levelo_inurba_marseille","lat":43.21741,"lon":5.34605,"is_reserved":false,"is_disabled":false,"rental_uris":{"android":"levelo://app?vid=3c94d2c6-2996-41de-9e54-fa8af7df6912","ios":"levelo://app?vid=3c94d2c6-2996-41de-9e54-fa8af7df6912"},"vehicle_type_id":"4","last_reported":1751983843,"current_range_meters":6800,"station_id":"","pricing_plan_id":"cebpf4jnsgd1na2vs0mg"},{"bike_id":"3b22f952-d0bc-4c00-8fd3-7e27b88aea23","system_id":"levelo_inurba_marseille","lat":43.29659,"lon":5.36245,"is_reserved":false,"is_disabled":false,"rental_uris":{"android":"levelo://app?vid=3b22f952-d0bc-4c00-8fd3-7e27b88aea23","ios":"levelo://app?vid=3b22f952-d0bc-4c00-8fd3-7e27b88aea23"},"vehicle_type_id":"4","last_reported":1751983843,"current_range_meters":6800,"station_id":"","pricing_plan_id":"cebpf4jnsgd1na2vs0mg"},{"bike_id":"e97ee5c0-87e5-403c-92ed-929b14d6ff8f","system_id":"levelo_inurba_marseille","lat":43.283298,"lon":5.385018,"is_reserved":false,"is_disabled":false,"rental_uris":{"android":"levelo://app?vid=e97ee5c0-87e5-403c-92ed-929b14d6ff8f","ios":"levelo://app?vid=e97ee5c0-87e5-403c-92ed-929b14d6ff8f"},"vehicle_type_id":"4","last_reported":1751983843,"current_range_meters":6800,"station_id":"","pricing_plan_id":"cebpf4jnsgd1na2vs0mg"},{"bike_id":"88ea42cb-cf0f-4e4a-8442-732645bc4ba5","system_id":"levelo_inurba_marseille","lat":43.31078,"lon":5.36711,"is_reserved":false,"is_disabled":false,"rental_uris":{"android":"levelo://app?vid=88ea42cb-cf0f-4e4a-8442-732645bc4ba5","ios":"levelo://app?vid=88ea42cb-cf0f-4e4a-8442-732645bc4ba5"},"vehicle_type_id":"4","last_reported":1751983843,"current_range_meters":6800,"station_id":"","pricing_plan_id":"cebpf4jnsgd1na2vs0mg"},{"bike_id":"49c2d64d-25cd-4af2-b4f1-ec24ac5779c5","system_id":"levelo_inurba_marseille","lat":43.306547,"lon":5.400888,"is_reserved":false,"is_disabled":false,"rental_uris":{"android":"levelo://app?vid=49c2d64d-25cd-4af2-b4f1-ec24ac5779c5","ios":"levelo://app?vid=49c2d64d-25cd-4af2-b4f1-ec24ac5779c5"},"vehicle_type_id":"4","last_reported":1751983843,"current_range_meters":6800,"station_id":"ce4bh112rcd13ifvqda0","pricing_plan_id":"cebpf4jnsgd1na2vs0mg"},{"bike_id":"fbc3ee87-5184-4865-89a9-ec278cb89e7e","system_id":"levelo_inurba_marseille","lat":43.301514,"lon":5.380663,"is_reserved":false,"is_disabled":false,"rental_uris":{"android":"levelo://app?vid=fbc3ee87-5184-4865-89a9-ec278cb89e7e","ios":"levelo://app?vid=fbc3ee87-5184-4865-89a9-ec278cb89e7e"},"vehicle_type_id":"4","last_reported":1751983843,"current_range_meters":7200,"station_id":"ce4bgjp2rcd13ifvqbh0","pricing_plan_id":"cebpf4jnsgd1na2vs0mg"},{"bike_id":"37f2becd-23f9-4f13-a711-38b8024eeec7","system_id":"levelo_inurba_marseille","lat":43.33768,"lon":5.37516,"is_reserved":false,"is_disabled":false,"rental_uris":{"android":"levelo://app?vid=37f2becd-23f9-4f13-a711-38b8024eeec7","ios":"levelo://app?vid=37f2becd-23f9-4f13-a711-38b8024eeec7"},"vehicle_type_id":"4","last_reported":1751983843,"current_range_meters":8000,"station_id":"","pricing_plan_id":"cebpf4jnsgd1na2vs0mg"},{"bike_id":"8b4159d1-af7c-4aae-9010-be5712ea3fb9","system_id":"levelo_inurba_marseille","lat":43.26679,"lon":5.38276,"is_reserved":false,"is_disabled":false,"rental_uris":{"android":"levelo://app?vid=8b4159d1-af7c-4aae-9010-be5712ea3fb9","ios":"levelo://app?vid=8b4159d1-af7c-4aae-9010-be5712ea3fb9"},"vehicle_type_id":"4","last_reported":1751983843,"current_range_meters":8000,"station_id":"ce4bhg92rcd13ifvqf90","pricing_plan_id":"cebpf4jnsgd1na2vs0mg"},{"bike_id":"6be72918-3cd2-4aad-b445-794042e160be","system_id":"levelo_inurba_marseille","lat":43.231836,"lon":5.399839,"is_reserved":false,"is_disabled":false,"rental_uris":{"android":"levelo://app?vid=6be72918-3cd2-4aad-b445-794042e160be","ios":"levelo://app?vid=6be72918-3cd2-4aad-b445-794042e160be"},"vehicle_type_id":"4","last_reported":1751983843,"current_range_meters":8000,"station_id":"ce4bhn12rcd13ifvqgqg","pricing_plan_id":"cebpf4jnsgd1na2vs0mg"},{"bike_id":"b2254882-941e-42b1-be36-ebc1c96e0473","system_id":"levelo_inurba_marseille","lat":43.30014,"lon":5.36395,"is_reserved":false,"is_disabled":false,"rental_uris":{"android":"levelo://app?vid=b2254882-941e-42b1-be36-ebc1c96e0473","ios":"levelo://app?vid=b2254882-941e-42b1-be36-ebc1c96e0473"},"vehicle_type_id":"4","last_reported":1751983843,"current_range_meters":8400,"station_id":"","pricing_plan_id":"cebpf4jnsgd1na2vs0mg"},{"bike_id":"f386750a-c2ec-4f5d-9a50-0178b32ef1fc","system_id":"levelo_inurba_marseille","lat":43.2902,"lon":5.35609,"is_reserved":false,"is_disabled":false,"rental_uris":{"android":"levelo://app?vid=f386750a-c2ec-4f5d-9a50-0178b32ef1fc","ios":"levelo://app?vid=f386750a-c2ec-4f5d-9a50-0178b32ef1fc"},"vehicle_type_id":"4","last_reported":1751983843,"current_range_meters":8400,"station_id":"ce4bhb92rcd13ifvqen0","pricing_plan_id":"cebpf4jnsgd1na2vs0mg"},{"bike_id":"d6543ad0-16d4-4793-8970-3736097362b9","system_id":"levelo_inurba_marseille","lat":43.28613,"lon":5.35101,"is_reserved":false,"is_disabled":false,"rental_uris":{"android":"levelo://app?vid=d6543ad0-16d4-4793-8970-3736097362b9","ios":"levelo://app?vid=d6543ad0-16d4-4793-8970-3736097362b9"},"vehicle_type_id":"4","last_reported":1751983843,"current_range_meters":8400,"station_id":"ce4bhch2rcd13ifvqeug","pricing_plan_id":"cebpf4jnsgd1na2vs0mg"},{"bike_id":"625cf6e2-53ad-48e8-8f2b-c97a61b545be","system_id":"levelo_inurba_marseille","lat":43.23181,"lon":5.39996,"is_reserved":false,"is_disabled":false,"rental_uris":{"android":"levelo://app?vid=625cf6e2-53ad-48e8-8f2b-c97a61b545be","ios":"levelo://app?vid=625cf6e2-53ad-48e8-8f2b-c97a61b545be"},"vehicle_type_id":"4","last_reported":1751983843,"current_range_meters":8400,"station_id":"ce4bhn12rcd13ifvqgqg","pricing_plan_id":"cebpf4jnsgd1na2vs0mg"},{"bike_id":"2c423baa-ecca-420a-87d7-ad0b7e0b9ebb","system_id":"levelo_inurba_marseille","lat":43.28036,"lon":5.35356,"is_reserved":false,"is_disabled":false,"rental_uris":{"android":"levelo://app?vid=2c423baa-ecca-420a-87d7-ad0b7e0b9ebb","ios":"levelo://app?vid=2c423baa-ecca-420a-87d7-ad0b7e0b9ebb"},"vehicle_type_id":"4","last_reported":1751983843,"current_range_meters":8800,"station_id":"","pricing_plan_id":"cebpf4jnsgd1na2vs0mg"},{"bike_id":"6cf9aec3-b5d1-405a-ac04-e6db7600cc55","system_id":"levelo_inurba_marseille","lat":43.2756,"lon":5.38417,"is_reserved":false,"is_disabled":false,"rental_uris":{"android":"levelo://app?vid=6cf9aec3-b5d1-405a-ac04-e6db7600cc55","ios":"levelo://app?vid=6cf9aec3-b5d1-405a-ac04-e6db7600cc55"},"vehicle_type_id":"4","last_reported":1751983843,"current_range_meters":8800,"station_id":"ce4bhh92rcd13ifvqfi0","pricing_plan_id":"cebpf4jnsgd1na2vs0mg"},{"bike_id":"48082b34-fbbb-4a3e-8d10-0eb69300a24e","system_id":"levelo_inurba_marseille","lat":43.30773,"lon":5.37654,"is_reserved":false,"is_disabled":false,"rental_uris":{"android":"levelo://app?vid=48082b34-fbbb-4a3e-8d10-0eb69300a24e","ios":"levelo://app?vid=48082b34-fbbb-4a3e-8d10-0eb69300a24e"},"vehicle_type_id":"4","last_reported":1751983843,"current_range_meters":9200,"station_id":"ce4bgv92rcd13ifvqcq0","pricing_plan_id":"cebpf4jnsgd1na2vs0mg"},{"bike_id":"5f4282b9-bb9d-418e-acfc-1abb66bf6f95","system_id":"levelo_inurba_marseille","lat":43.29049,"lon":5.35918,"is_reserved":false,"is_disabled":false,"rental_uris":{"android":"levelo://app?vid=5f4282b9-bb9d-418e-acfc-1abb66bf6f95","ios":"levelo://app?vid=5f4282b9-bb9d-418e-acfc-1abb66bf6f95"},"vehicle_type_id":"4","last_reported":1751983843,"current_range_meters":9200,"station_id":"ce4bha92rcd13ifvqeg0","pricing_plan_id":"cebpf4jnsgd1na2vs0mg"},{"bike_id":"c0fdd7c4-5cd8-4dc4-8a9c-2583b6ed88ac","system_id":"levelo_inurba_marseille","lat":43.28698,"lon":5.39981,"is_reserved":false,"is_disabled":false,"rental_uris":{"android":"levelo://app?vid=c0fdd7c4-5cd8-4dc4-8a9c-2583b6ed88ac","ios":"levelo://app?vid=c0fdd7c4-5cd8-4dc4-8a9c-2583b6ed88ac"},"vehicle_type_id":"4","last_reported":1751983843,"current_range_meters":9200,"station_id":"ce4bho92rcd13ifvqh3g","pricing_plan_id":"cebpf4jnsgd1na2vs0mg"},{"bike_id":"a70cfab5-f447-4d61-b80a-343a49825360","system_id":"levelo_inurba_marseille","lat":43.31697,"lon":5.37608,"is_reserved":false,"is_disabled":false,"rental_uris":{"android":"levelo://app?vid=a70cfab5-f447-4d61-b80a-343a49825360","ios":"levelo://app?vid=a70cfab5-f447-4d61-b80a-343a49825360"},"vehicle_type_id":"4","last_reported":1751983843,"current_range_meters":9600,"station_id":"","pricing_plan_id":"cebpf4jnsgd1na2vs0mg"},{"bike_id":"1beb9811-25b2-4378-9566-9af6e47206ed","system_id":"levelo_inurba_marseille","lat":43.30558,"lon":5.36516,"is_reserved":false,"is_disabled":false,"rental_uris":{"android":"levelo://app?vid=1beb9811-25b2-4378-9566-9af6e47206ed","ios":"levelo://app?vid=1beb9811-25b2-4378-9566-9af6e47206ed"},"vehicle_type_id":"4","last_reported":1751983843,"current_range_meters":9600,"station_id":"ce4bgs12rcd13ifvqcag","pricing_plan_id":"cebpf4jnsgd1na2vs0mg"},{"bike_id":"f8dc89b9-88e1-4d80-8f23-ae9007f5be9c","system_id":"levelo_inurba_marseille","lat":43.30546,"lon":5.36547,"is_reserved":false,"is_disabled":false,"rental_uris":{"android":"levelo://app?vid=f8dc89b9-88e1-4d80-8f23-ae9007f5be9c","ios":"levelo://app?vid=f8dc89b9-88e1-4d80-8f23-ae9007f5be9c"},"vehicle_type_id":"4","last_reported":1751983843,"current_range_meters":9600,"station_id":"ce4bgs12rcd13ifvqcag","pricing_plan_id":"cebpf4jnsgd1na2vs0mg"},{"bike_id":"4721d3bf-e19f-4b9d-830e-46d3fbc4d50a","system_id":"levelo_inurba_marseille","lat":43.281367,"lon":5.351579,"is_reserved":false,"is_disabled":false,"rental_uris":{"android":"levelo://app?vid=4721d3bf-e19f-4b9d-830e-46d3fbc4d50a","ios":"levelo://app?vid=4721d3bf-e19f-4b9d-830e-46d3fbc4d50a"},"vehicle_type_id":"4","last_reported":1751983843,"current_range_meters":9600,"station_id":"ce4bha12rcd13ifvqef0","pricing_plan_id":"cebpf4jnsgd1na2vs0mg"},{"bike_id":"74b10b56-4e03-43c7-8697-4d34248bed46","system_id":"levelo_inurba_marseille","lat":43.28616,"lon":5.35108,"is_reserved":false,"is_disabled":false,"rental_uris":{"android":"levelo://app?vid=74b10b56-4e03-43c7-8697-4d34248bed46","ios":"levelo://app?vid=74b10b56-4e03-43c7-8697-4d34248bed46"},"vehicle_type_id":"4","last_reported":1751983843,"current_range_meters":9600,"station_id":"ce4bhch2rcd13ifvqeug","pricing_plan_id":"cebpf4jnsgd1na2vs0mg"},{"bike_id":"d9af8011-b181-4105-8941-372c6f5279f6","system_id":"levelo_inurba_marseille","lat":43.25943,"lon":5.40899,"is_reserved":false,"is_disabled":false,"rental_uris":{"android":"levelo://app?vid=d9af8011-b181-4105-8941-372c6f5279f6","ios":"levelo://app?vid=d9af8011-b181-4105-8941-372c6f5279f6"},"vehicle_type_id":"4","last_reported":1751983843,"current_range_meters":9600,"station_id":"ce4bhm92rcd13ifvqglg","pricing_plan_id":"cebpf4jnsgd1na2vs0mg"},{"bike_id":"609f29a1-1f47-44d4-b3e9-459a7c078101","system_id":"levelo_inurba_marseille","lat":43.29189,"lon":5.39322,"is_reserved":false,"is_disabled":false,"rental_uris":{"android":"levelo://app?vid=609f29a1-1f47-44d4-b3e9-459a7c078101","ios":"levelo://app?vid=609f29a1-1f47-44d4-b3e9-459a7c078101"},"vehicle_type_id":"4","last_reported":1751983843,"current_range_meters":10000,"station_id":"ce4bh192rcd13ifvqdd0","pricing_plan_id":"cebpf4jnsgd1na2vs0mg"},{"bike_id":"373f7154-05e4-4923-8d21-eb4b99691656","system_id":"levelo_inurba_marseille","lat":43.3152,"lon":5.38677,"is_reserved":false,"is_disabled":false,"rental_uris":{"android":"levelo://app?vid=373f7154-05e4-4923-8d21-eb4b99691656","ios":"levelo://app?vid=373f7154-05e4-4923-8d21-eb4b99691656"},"vehicle_type_id":"4","last_reported":1751983843,"current_range_meters":10800,"station_id":"","pricing_plan_id":"cebpf4jnsgd1na2vs0mg"},{"bike_id":"45e37d71-850e-4b84-9bdf-1b4632421c2b","system_id":"levelo_inurba_marseille","lat":43.2979,"lon":5.40399,"is_reserved":false,"is_disabled":false,"rental_uris":{"android":"levelo://app?vid=45e37d71-850e-4b84-9bdf-1b4632421c2b","ios":"levelo://app?vid=45e37d71-850e-4b84-9bdf-1b4632421c2b"},"vehicle_type_id":"4","last_reported":1751983843,"current_range_meters":10800,"station_id":"ce4bh112rcd13ifvqd90","pricing_plan_id":"cebpf4jnsgd1na2vs0mg"},{"bike_id":"eb574cb4-988e-4626-880d-382a52dc88d0","system_id":"levelo_inurba_marseille","lat":43.28567,"lon":5.39501,"is_reserved":false,"is_disabled":false,"rental_uris":{"android":"levelo://app?vid=eb574cb4-988e-4626-880d-382a52dc88d0","ios":"levelo://app?vid=eb574cb4-988e-4626-880d-382a52dc88d0"},"vehicle_type_id":"4","last_reported":1751983843,"current_range_meters":10800,"station_id":"ce4bh292rcd13ifvqdg0","pricing_plan_id":"cebpf4jnsgd1na2vs0mg"},{"bike_id":"1dfe2a62-5151-4cd4-bb1b-c713bf0a102e","system_id":"levelo_inurba_marseille","lat":43.28458,"lon":5.35886,"is_reserved":false,"is_disabled":false,"rental_uris":{"android":"levelo://app?vid=1dfe2a62-5151-4cd4-bb1b-c713bf0a102e","ios":"levelo://app?vid=1dfe2a62-5151-4cd4-bb1b-c713bf0a102e"},"vehicle_type_id":"4","last_reported":1751983843,"current_range_meters":10800,"station_id":"ce4bhah2rcd13ifvqei0","pricing_plan_id":"cebpf4jnsgd1na2vs0mg"},{"bike_id":"f79f8f41-2857-434e-930c-c10e408821bb","system_id":"levelo_inurba_marseille","lat":43.27065,"lon":5.42287,"is_reserved":false,"is_disabled":false,"rental_uris":{"android":"levelo://app?vid=f79f8f41-2857-434e-930c-c10e408821bb","ios":"levelo://app?vid=f79f8f41-2857-434e-930c-c10e408821bb"},"vehicle_type_id":"4","last_reported":1751983843,"current_range_meters":10800,"station_id":"ce4bhk92rcd13ifvqgb0","pricing_plan_id":"cebpf4jnsgd1na2vs0mg"},{"bike_id":"9a2d0bdb-48c4-4f1f-9694-de2461dcfac3","system_id":"levelo_inurba_marseille","lat":43.274927,"lon":5.424501,"is_reserved":false,"is_disabled":false,"rental_uris":{"android":"levelo://app?vid=9a2d0bdb-48c4-4f1f-9694-de2461dcfac3","ios":"levelo://app?vid=9a2d0bdb-48c4-4f1f-9694-de2461dcfac3"},"vehicle_type_id":"4","last_reported":1751983843,"current_range_meters":10800,"station_id":"ce4bhn92rcd13ifvqgrg","pricing_plan_id":"cebpf4jnsgd1na2vs0mg"},{"bike_id":"2090512e-543d-4a55-b888-2423e2f84234","system_id":"levelo_inurba_marseille","lat":43.24061,"lon":5.37724,"is_reserved":false,"is_disabled":false,"rental_uris":{"android":"levelo://app?vid=2090512e-543d-4a55-b888-2423e2f84234","ios":"levelo://app?vid=2090512e-543d-4a55-b888-2423e2f84234"},"vehicle_type_id":"4","last_reported":1751983843,"current_range_meters":10800,"station_id":"ce4bhnp2rcd13ifvqgvg","pricing_plan_id":"cebpf4jnsgd1na2vs0mg"},{"bike_id":"c2226164-c58c-4ac9-bc6a-a01e184aeeee","system_id":"levelo_inurba_marseille","lat":43.32491,"lon":5.36584,"is_reserved":false,"is_disabled":false,"rental_uris":{"android":"levelo://app?vid=c2226164-c58c-4ac9-bc6a-a01e184aeeee","ios":"levelo://app?vid=c2226164-c58c-4ac9-bc6a-a01e184aeeee"},"vehicle_type_id":"4","last_reported":1751983843,"current_range_meters":10800,"station_id":"ce4bhs12rcd13ifvqhvg","pricing_plan_id":"cebpf4jnsgd1na2vs0mg"},{"bike_id":"298ec104-135b-422b-8d68-86b06772e8b3","system_id":"levelo_inurba_marseille","lat":43.21754,"lon":5.34595,"is_reserved":false,"is_disabled":false,"rental_uris":{"android":"levelo://app?vid=298ec104-135b-422b-8d68-86b06772e8b3","ios":"levelo://app?vid=298ec104-135b-422b-8d68-86b06772e8b3"},"vehicle_type_id":"4","last_reported":1751983843,"current_range_meters":10800,"station_id":"st_cvj6r9ubvosntc0bgbag","pricing_plan_id":"cebpf4jnsgd1na2vs0mg"},{"bike_id":"cc87a91c-f1eb-4228-a766-fd1259d8aca6","system_id":"levelo_inurba_marseille","lat":43.29606,"lon":5.3773,"is_reserved":false,"is_disabled":false,"rental_uris":{"android":"levelo://app?vid=cc87a91c-f1eb-4228-a766-fd1259d8aca6","ios":"levelo://app?vid=cc87a91c-f1eb-4228-a766-fd1259d8aca6"},"vehicle_type_id":"4","last_reported":1751983843,"current_range_meters":11200,"station_id":"ce4bgi92rcd13ifvqb90","pricing_plan_id":"cebpf4jnsgd1na2vs0mg"},{"bike_id":"f01d6e40-c925-4fb6-a623-240bc6191389","system_id":"levelo_inurba_marseille","lat":43.28564,"lon":5.39498,"is_reserved":false,"is_disabled":false,"rental_uris":{"android":"levelo://app?vid=f01d6e40-c925-4fb6-a623-240bc6191389","ios":"levelo://app?vid=f01d6e40-c925-4fb6-a623-240bc6191389"},"vehicle_type_id":"4","last_reported":1751983843,"current_range_meters":11200,"station_id":"ce4bh292rcd13ifvqdg0","pricing_plan_id":"cebpf4jnsgd1na2vs0mg"},{"bike_id":"6f99b30e-56d8-4e2d-aae5-6012313d060c","system_id":"levelo_inurba_marseille","lat":43.29264,"lon":5.38433,"is_reserved":false,"is_disabled":false,"rental_uris":{"android":"levelo://app?vid=6f99b30e-56d8-4e2d-aae5-6012313d060c","ios":"levelo://app?vid=6f99b30e-56d8-4e2d-aae5-6012313d060c"},"vehicle_type_id":"4","last_reported":1751983843,"current_range_meters":11200,"station_id":"ce4bh692rcd13ifvqea0","pricing_plan_id":"cebpf4jnsgd1na2vs0mg"},{"bike_id":"1e19dd50-d7b0-43e3-b6af-1337ffe3b55d","system_id":"levelo_inurba_marseille","lat":43.27833,"lon":5.39209,"is_reserved":false,"is_disabled":false,"rental_uris":{"android":"levelo://app?vid=1e19dd50-d7b0-43e3-b6af-1337ffe3b55d","ios":"levelo://app?vid=1e19dd50-d7b0-43e3-b6af-1337ffe3b55d"},"vehicle_type_id":"4","last_reported":1751983843,"current_range_meters":11200,"station_id":"ce4bhjp2rcd13ifvqga0","pricing_plan_id":"cebpf4jnsgd1na2vs0mg"},{"bike_id":"a9fd3e12-457b-4213-a7e1-b92703b095cb","system_id":"levelo_inurba_marseille","lat":43.27158,"lon":5.391998,"is_reserved":false,"is_disabled":false,"rental_uris":{"android":"levelo://app?vid=a9fd3e12-457b-4213-a7e1-b92703b095cb","ios":"levelo://app?vid=a9fd3e12-457b-4213-a7e1-b92703b095cb"},"vehicle_type_id":"4","last_reported":1751983843,"current_range_meters":11200,"station_id":"ce4bhnh2rcd13ifvqgtg","pricing_plan_id":"cebpf4jnsgd1na2vs0mg"},{"bike_id":"98f46642-8fdc-43be-8379-a5bf33d8441b","system_id":"levelo_inurba_marseille","lat":43.211902,"lon":5.350709,"is_reserved":false,"is_disabled":false,"rental_uris":{"android":"levelo://app?vid=98f46642-8fdc-43be-8379-a5bf33d8441b","ios":"levelo://app?vid=98f46642-8fdc-43be-8379-a5bf33d8441b"},"vehicle_type_id":"4","last_reported":1751983843,"current_range_meters":11200,"station_id":"st_cvj6sg6p6f1abm77japg","pricing_plan_id":"cebpf4jnsgd1na2vs0mg"},{"bike_id":"c2ee7d66-374b-44cd-b9d7-9ad64301293b","system_id":"levelo_inurba_marseille","lat":43.33753,"lon":5.37469,"is_reserved":false,"is_disabled":false,"rental_uris":{"android":"levelo://app?vid=c2ee7d66-374b-44cd-b9d7-9ad64301293b","ios":"levelo://app?vid=c2ee7d66-374b-44cd-b9d7-9ad64301293b"},"vehicle_type_id":"4","last_reported":1751983843,"current_range_meters":11600,"station_id":"","pricing_plan_id":"cebpf4jnsgd1na2vs0mg"},{"bike_id":"361c5398-2978-4873-882e-a3172612449b","system_id":"levelo_inurba_marseille","lat":43.26233,"lon":5.404,"is_reserved":false,"is_disabled":false,"rental_uris":{"android":"levelo://app?vid=361c5398-2978-4873-882e-a3172612449b","ios":"levelo://app?vid=361c5398-2978-4873-882e-a3172612449b"},"vehicle_type_id":"4","last_reported":1751983843,"current_range_meters":11600,"station_id":"ce4bhmh2rcd13ifvqgmg","pricing_plan_id":"cebpf4jnsgd1na2vs0mg"},{"bike_id":"e54a69bc-634c-4579-91a1-2ea1e7521c68","system_id":"levelo_inurba_marseille","lat":43.30148,"lon":5.37216,"is_reserved":false,"is_disabled":false,"rental_uris":{"android":"levelo://app?vid=e54a69bc-634c-4579-91a1-2ea1e7521c68","ios":"levelo://app?vid=e54a69bc-634c-4579-91a1-2ea1e7521c68"},"vehicle_type_id":"4","last_reported":1751983843,"current_range_meters":12000,"station_id":"","pricing_plan_id":"cebpf4jnsgd1na2vs0mg"},{"bike_id":"6ffc31bf-be63-440b-8353-4ff83386083b","system_id":"levelo_inurba_marseille","lat":43.298421,"lon":5.364077,"is_reserved":false,"is_disabled":false,"rental_uris":{"android":"levelo://app?vid=6ffc31bf-be63-440b-8353-4ff83386083b","ios":"levelo://app?vid=6ffc31bf-be63-440b-8353-4ff83386083b"},"vehicle_type_id":"4","last_reported":1751983843,"current_range_meters":12000,"station_id":"","pricing_plan_id":"cebpf4jnsgd1na2vs0mg"},{"bike_id":"ef37d4e2-0ac0-46be-951e-4995a78ba684","system_id":"levelo_inurba_marseille","lat":43.25488,"lon":5.37652,"is_reserved":false,"is_disabled":false,"rental_uris":{"android":"levelo://app?vid=ef37d4e2-0ac0-46be-951e-4995a78ba684","ios":"levelo://app?vid=ef37d4e2-0ac0-46be-951e-4995a78ba684"},"vehicle_type_id":"4","last_reported":1751983843,"current_range_meters":12000,"station_id":"ce4bhh12rcd13ifvqff0","pricing_plan_id":"cebpf4jnsgd1na2vs0mg"},{"bike_id":"d0c5d792-0761-4141-a0b1-6f288f3c6fc1","system_id":"levelo_inurba_marseille","lat":43.271863,"lon":5.392129,"is_reserved":false,"is_disabled":false,"rental_uris":{"android":"levelo://app?vid=d0c5d792-0761-4141-a0b1-6f288f3c6fc1","ios":"levelo://app?vid=d0c5d792-0761-4141-a0b1-6f288f3c6fc1"},"vehicle_type_id":"4","last_reported":1751983843,"current_range_meters":12000,"station_id":"ce4bhhp2rcd13ifvqfm0","pricing_plan_id":"cebpf4jnsgd1na2vs0mg"},{"bike_id":"910e7672-d724-4195-a4e9-ffc3ceef0d80","system_id":"levelo_inurba_marseille","lat":43.30797,"lon":5.43531,"is_reserved":false,"is_disabled":false,"rental_uris":{"android":"levelo://app?vid=910e7672-d724-4195-a4e9-ffc3ceef0d80","ios":"levelo://app?vid=910e7672-d724-4195-a4e9-ffc3ceef0d80"},"vehicle_type_id":"4","last_reported":1751983843,"current_range_meters":12000,"station_id":"ce4bhph2rcd13ifvqheg","pricing_plan_id":"cebpf4jnsgd1na2vs0mg"},{"bike_id":"888522e3-39b6-4ff3-ad74-ff6c6f771157","system_id":"levelo_inurba_marseille","lat":43.29495,"lon":5.4027,"is_reserved":false,"is_disabled":false,"rental_uris":{"android":"levelo://app?vid=888522e3-39b6-4ff3-ad74-ff6c6f771157","ios":"levelo://app?vid=888522e3-39b6-4ff3-ad74-ff6c6f771157"},"vehicle_type_id":"4","last_reported":1751983843,"current_range_meters":12400,"station_id":"","pricing_plan_id":"cebpf4jnsgd1na2vs0mg"},{"bike_id":"6ffb9c74-b998-47e4-b4dc-0c50b5ccae2c","system_id":"levelo_inurba_marseille","lat":43.27205,"lon":5.39185,"is_reserved":false,"is_disabled":false,"rental_uris":{"android":"levelo://app?vid=6ffb9c74-b998-47e4-b4dc-0c50b5ccae2c","ios":"levelo://app?vid=6ffb9c74-b998-47e4-b4dc-0c50b5ccae2c"},"vehicle_type_id":"4","last_reported":1751983843,"current_range_meters":12400,"station_id":"ce4bhhp2rcd13ifvqfm0","pricing_plan_id":"cebpf4jnsgd1na2vs0mg"},{"bike_id":"624cb722-0a96-4b62-8eb0-82852e21331a","system_id":"levelo_inurba_marseille","lat":43.28987,"lon":5.37848,"is_reserved":false,"is_disabled":false,"rental_uris":{"android":"levelo://app?vid=624cb722-0a96-4b62-8eb0-82852e21331a","ios":"levelo://app?vid=624cb722-0a96-4b62-8eb0-82852e21331a"},"vehicle_type_id":"4","last_reported":1751983843,"current_range_meters":12800,"station_id":"ce4bh9p2rcd13ifvqed0","pricing_plan_id":"cebpf4jnsgd1na2vs0mg"},{"bike_id":"e0bd17d7-b3c6-413f-a4b8-bf1ee6f08a4d","system_id":"levelo_inurba_marseille","lat":43.290045,"lon":5.356121,"is_reserved":false,"is_disabled":false,"rental_uris":{"android":"levelo://app?vid=e0bd17d7-b3c6-413f-a4b8-bf1ee6f08a4d","ios":"levelo://app?vid=e0bd17d7-b3c6-413f-a4b8-bf1ee6f08a4d"},"vehicle_type_id":"4","last_reported":1751983843,"current_range_meters":12800,"station_id":"ce4bhb92rcd13ifvqen0","pricing_plan_id":"cebpf4jnsgd1na2vs0mg"},{"bike_id":"82f40aca-214c-480a-99d7-4df294448107","system_id":"levelo_inurba_marseille","lat":43.254894,"lon":5.376452,"is_reserved":false,"is_disabled":false,"rental_uris":{"android":"levelo://app?vid=82f40aca-214c-480a-99d7-4df294448107","ios":"levelo://app?vid=82f40aca-214c-480a-99d7-4df294448107"},"vehicle_type_id":"4","last_reported":1751983843,"current_range_meters":12800,"station_id":"ce4bhh12rcd13ifvqff0","pricing_plan_id":"cebpf4jnsgd1na2vs0mg"},{"bike_id":"c7e78a87-c19a-4f90-b6b2-c9ba248dda83","system_id":"levelo_inurba_marseille","lat":43.26926,"lon":5.38927,"is_reserved":false,"is_disabled":false,"rental_uris":{"android":"levelo://app?vid=c7e78a87-c19a-4f90-b6b2-c9ba248dda83","ios":"levelo://app?vid=c7e78a87-c19a-4f90-b6b2-c9ba248dda83"},"vehicle_type_id":"4","last_reported":1751983843,"current_range_meters":12800,"station_id":"ce4bhhh2rcd13ifvqfl0","pricing_plan_id":"cebpf4jnsgd1na2vs0mg"},{"bike_id":"a3653a29-bef8-4d42-8540-9b2bbd5cd893","system_id":"levelo_inurba_marseille","lat":43.324828,"lon":5.36567,"is_reserved":false,"is_disabled":false,"rental_uris":{"android":"levelo://app?vid=a3653a29-bef8-4d42-8540-9b2bbd5cd893","ios":"levelo://app?vid=a3653a29-bef8-4d42-8540-9b2bbd5cd893"},"vehicle_type_id":"4","last_reported":1751983843,"current_range_meters":12800,"station_id":"ce4bhs12rcd13ifvqhvg","pricing_plan_id":"cebpf4jnsgd1na2vs0mg"},{"bike_id":"b287377f-3d0b-47ac-86fe-9e0dfc1563de","system_id":"levelo_inurba_marseille","lat":43.22496,"lon":5.3478,"is_reserved":false,"is_disabled":false,"rental_uris":{"android":"levelo://app?vid=b287377f-3d0b-47ac-86fe-9e0dfc1563de","ios":"levelo://app?vid=b287377f-3d0b-47ac-86fe-9e0dfc1563de"},"vehicle_type_id":"4","last_reported":1751983843,"current_range_meters":12800,"station_id":"st_cvj5dfep6f1abm77gieg","pricing_plan_id":"cebpf4jnsgd1na2vs0mg"},{"bike_id":"efd91062-2555-487a-965d-5e07b0b92c07","system_id":"levelo_inurba_marseille","lat":43.27326,"lon":5.39065,"is_reserved":false,"is_disabled":false,"rental_uris":{"android":"levelo://app?vid=efd91062-2555-487a-965d-5e07b0b92c07","ios":"levelo://app?vid=efd91062-2555-487a-965d-5e07b0b92c07"},"vehicle_type_id":"4","last_reported":1751983843,"current_range_meters":13600,"station_id":"ce4bhgp2rcd13ifvqfe0","pricing_plan_id":"cebpf4jnsgd1na2vs0mg"},{"bike_id":"77c63ecf-8ec4-46ab-b695-3fed0ff0fb70","system_id":"levelo_inurba_marseille","lat":43.29884,"lon":5.4368,"is_reserved":false,"is_disabled":false,"rental_uris":{"android":"levelo://app?vid=77c63ecf-8ec4-46ab-b695-3fed0ff0fb70","ios":"levelo://app?vid=77c63ecf-8ec4-46ab-b695-3fed0ff0fb70"},"vehicle_type_id":"4","last_reported":1751983843,"current_range_meters":13600,"station_id":"ce4bhpp2rcd13ifvqhfg","pricing_plan_id":"cebpf4jnsgd1na2vs0mg"},{"bike_id":"d5ef770d-9759-47e3-b3a5-7d2785ef76db","system_id":"levelo_inurba_marseille","lat":43.32929,"lon":5.39031,"is_reserved":false,"is_disabled":false,"rental_uris":{"android":"levelo://app?vid=d5ef770d-9759-47e3-b3a5-7d2785ef76db","ios":"levelo://app?vid=d5ef770d-9759-47e3-b3a5-7d2785ef76db"},"vehicle_type_id":"4","last_reported":1751983843,"current_range_meters":14000,"station_id":"","pricing_plan_id":"cebpf4jnsgd1na2vs0mg"},{"bike_id":"afd2c671-b274-4716-95f7-9abfdfc6dc55","system_id":"levelo_inurba_marseille","lat":43.31401,"lon":5.37541,"is_reserved":false,"is_disabled":false,"rental_uris":{"android":"levelo://app?vid=afd2c671-b274-4716-95f7-9abfdfc6dc55","ios":"levelo://app?vid=afd2c671-b274-4716-95f7-9abfdfc6dc55"},"vehicle_type_id":"4","last_reported":1751983843,"current_range_meters":14000,"station_id":"","pricing_plan_id":"cebpf4jnsgd1na2vs0mg"},{"bike_id":"94ee0226-6045-4461-a167-18aa1f20956e","system_id":"levelo_inurba_marseille","lat":43.28401,"lon":5.37511,"is_reserved":false,"is_disabled":false,"rental_uris":{"android":"levelo://app?vid=94ee0226-6045-4461-a167-18aa1f20956e","ios":"levelo://app?vid=94ee0226-6045-4461-a167-18aa1f20956e"},"vehicle_type_id":"4","last_reported":1751983843,"current_range_meters":14000,"station_id":"ce4bh412rcd13ifvqds0","pricing_plan_id":"cebpf4jnsgd1na2vs0mg"},{"bike_id":"6122be3d-55b1-4b9d-b29f-6fd6f38e2567","system_id":"levelo_inurba_marseille","lat":43.28476,"lon":5.38419,"is_reserved":false,"is_disabled":false,"rental_uris":{"android":"levelo://app?vid=6122be3d-55b1-4b9d-b29f-6fd6f38e2567","ios":"levelo://app?vid=6122be3d-55b1-4b9d-b29f-6fd6f38e2567"},"vehicle_type_id":"4","last_reported":1751983843,"current_range_meters":14000,"station_id":"ce4bh512rcd13ifvqe3g","pricing_plan_id":"cebpf4jnsgd1na2vs0mg"},{"bike_id":"5bed0d45-631d-4b51-bf21-315438cd51cd","system_id":"levelo_inurba_marseille","lat":43.28129,"lon":5.42616,"is_reserved":false,"is_disabled":false,"rental_uris":{"android":"levelo://app?vid=5bed0d45-631d-4b51-bf21-315438cd51cd","ios":"levelo://app?vid=5bed0d45-631d-4b51-bf21-315438cd51cd"},"vehicle_type_id":"4","last_reported":1751983843,"current_range_meters":14000,"station_id":"ce4bhnh2rcd13ifvqgug","pricing_plan_id":"cebpf4jnsgd1na2vs0mg"},{"bike_id":"f5c5d48c-b7cf-48a8-84f0-a80044871d04","system_id":"levelo_inurba_marseille","lat":43.264907,"lon":5.395394,"is_reserved":false,"is_disabled":false,"rental_uris":{"android":"levelo://app?vid=f5c5d48c-b7cf-48a8-84f0-a80044871d04","ios":"levelo://app?vid=f5c5d48c-b7cf-48a8-84f0-a80044871d04"},"vehicle_type_id":"4","last_reported":1751983843,"current_range_meters":14800,"station_id":"","pricing_plan_id":"cebpf4jnsgd1na2vs0mg"},{"bike_id":"87c2d236-4978-4760-be77-27d7f5a212e4","system_id":"levelo_inurba_marseille","lat":43.29644,"lon":5.36205,"is_reserved":false,"is_disabled":false,"rental_uris":{"android":"levelo://app?vid=87c2d236-4978-4760-be77-27d7f5a212e4","ios":"levelo://app?vid=87c2d236-4978-4760-be77-27d7f5a212e4"},"vehicle_type_id":"4","last_reported":1751983843,"current_range_meters":14800,"station_id":"","pricing_plan_id":"cebpf4jnsgd1na2vs0mg"},{"bike_id":"bc91ac3b-909c-48b6-951a-ecee23e820fe","system_id":"levelo_inurba_marseille","lat":43.306,"lon":5.37222,"is_reserved":false,"is_disabled":false,"rental_uris":{"android":"levelo://app?vid=bc91ac3b-909c-48b6-951a-ecee23e820fe","ios":"levelo://app?vid=bc91ac3b-909c-48b6-951a-ecee23e820fe"},"vehicle_type_id":"4","last_reported":1751983843,"current_range_meters":14800,"station_id":"ce4bgqh2rcd13ifvqc4g","pricing_plan_id":"cebpf4jnsgd1na2vs0mg"},{"bike_id":"3b7bf8c8-b509-4dbb-a478-b3bf82667099","system_id":"levelo_inurba_marseille","lat":43.29884,"lon":5.38901,"is_reserved":false,"is_disabled":false,"rental_uris":{"android":"levelo://app?vid=3b7bf8c8-b509-4dbb-a478-b3bf82667099","ios":"levelo://app?vid=3b7bf8c8-b509-4dbb-a478-b3bf82667099"},"vehicle_type_id":"4","last_reported":1751983843,"current_range_meters":14800,"station_id":"ce4bh392rcd13ifvqdl0","pricing_plan_id":"cebpf4jnsgd1na2vs0mg"},{"bike_id":"940f04f4-5dec-4ff8-8d1b-fd8eb1722f45","system_id":"levelo_inurba_marseille","lat":43.27497,"lon":5.42456,"is_reserved":false,"is_disabled":false,"rental_uris":{"android":"levelo://app?vid=940f04f4-5dec-4ff8-8d1b-fd8eb1722f45","ios":"levelo://app?vid=940f04f4-5dec-4ff8-8d1b-fd8eb1722f45"},"vehicle_type_id":"4","last_reported":1751983843,"current_range_meters":14800,"station_id":"ce4bhn92rcd13ifvqgrg","pricing_plan_id":"cebpf4jnsgd1na2vs0mg"},{"bike_id":"3030cb07-c041-4d87-a253-8c849c24aa85","system_id":"levelo_inurba_marseille","lat":43.32624,"lon":5.36227,"is_reserved":false,"is_disabled":false,"rental_uris":{"android":"levelo://app?vid=3030cb07-c041-4d87-a253-8c849c24aa85","ios":"levelo://app?vid=3030cb07-c041-4d87-a253-8c849c24aa85"},"vehicle_type_id":"4","last_reported":1751983843,"current_range_meters":15200,"station_id":"","pricing_plan_id":"cebpf4jnsgd1na2vs0mg"},{"bike_id":"a3a3043d-c808-4263-8f68-f97fde7e86c0","system_id":"levelo_inurba_marseille","lat":43.30082,"lon":5.38091,"is_reserved":false,"is_disabled":false,"rental_uris":{"android":"levelo://app?vid=a3a3043d-c808-4263-8f68-f97fde7e86c0","ios":"levelo://app?vid=a3a3043d-c808-4263-8f68-f97fde7e86c0"},"vehicle_type_id":"4","last_reported":1751983843,"current_range_meters":15200,"station_id":"","pricing_plan_id":"cebpf4jnsgd1na2vs0mg"},{"bike_id":"677cafa1-cfd2-4ff4-b0da-71527690964c","system_id":"levelo_inurba_marseille","lat":43.3136,"lon":5.38499,"is_reserved":false,"is_disabled":false,"rental_uris":{"android":"levelo://app?vid=677cafa1-cfd2-4ff4-b0da-71527690964c","ios":"levelo://app?vid=677cafa1-cfd2-4ff4-b0da-71527690964c"},"vehicle_type_id":"4","last_reported":1751983843,"current_range_meters":15200,"station_id":"ce4bgt92rcd13ifvqcf0","pricing_plan_id":"cebpf4jnsgd1na2vs0mg"},{"bike_id":"e3069ed6-1bf3-4800-bb3b-037e2a6e0ccd","system_id":"levelo_inurba_marseille","lat":43.284,"lon":5.37535,"is_reserved":false,"is_disabled":false,"rental_uris":{"android":"levelo://app?vid=e3069ed6-1bf3-4800-bb3b-037e2a6e0ccd","ios":"levelo://app?vid=e3069ed6-1bf3-4800-bb3b-037e2a6e0ccd"},"vehicle_type_id":"4","last_reported":1751983843,"current_range_meters":15200,"station_id":"ce4bh412rcd13ifvqds0","pricing_plan_id":"cebpf4jnsgd1na2vs0mg"},{"bike_id":"4f239468-da5d-4eea-8189-bd23753654f1","system_id":"levelo_inurba_marseille","lat":43.280344,"lon":5.369612,"is_reserved":false,"is_disabled":false,"rental_uris":{"android":"levelo://app?vid=4f239468-da5d-4eea-8189-bd23753654f1","ios":"levelo://app?vid=4f239468-da5d-4eea-8189-bd23753654f1"},"vehicle_type_id":"4","last_reported":1751983843,"current_range_meters":15200,"station_id":"ce4bha12rcd13ifvqef0","pricing_plan_id":"cebpf4jnsgd1na2vs0mg"},{"bike_id":"def02f4e-f795-415c-a597-1b2cc2f1e8ea","system_id":"levelo_inurba_marseille","lat":43.30377,"lon":5.42477,"is_reserved":false,"is_disabled":false,"rental_uris":{"android":"levelo://app?vid=def02f4e-f795-415c-a597-1b2cc2f1e8ea","ios":"levelo://app?vid=def02f4e-f795-415c-a597-1b2cc2f1e8ea"},"vehicle_type_id":"4","last_reported":1751983843,"current_range_meters":15200,"station_id":"ce4bhoh2rcd13ifvqh6g","pricing_plan_id":"cebpf4jnsgd1na2vs0mg"},{"bike_id":"13c84df3-55fc-4465-b582-17389625d267","system_id":"levelo_inurba_marseille","lat":43.260181,"lon":5.417521,"is_reserved":false,"is_disabled":false,"rental_uris":{"android":"levelo://app?vid=13c84df3-55fc-4465-b582-17389625d267","ios":"levelo://app?vid=13c84df3-55fc-4465-b582-17389625d267"},"vehicle_type_id":"4","last_reported":1751983843,"current_range_meters":16000,"station_id":"","pricing_plan_id":"cebpf4jnsgd1na2vs0mg"},{"bike_id":"865797cd-3648-4678-90af-fdb3236e61f3","system_id":"levelo_inurba_marseille","lat":43.30573,"lon":5.36709,"is_reserved":false,"is_disabled":false,"rental_uris":{"android":"levelo://app?vid=865797cd-3648-4678-90af-fdb3236e61f3","ios":"levelo://app?vid=865797cd-3648-4678-90af-fdb3236e61f3"},"vehicle_type_id":"4","last_reported":1751983843,"current_range_meters":16000,"station_id":"ce4bgrp2rcd13ifvqc9g","pricing_plan_id":"cebpf4jnsgd1na2vs0mg"},{"bike_id":"589ab234-675a-4d9a-b49f-995a3ed33c18","system_id":"levelo_inurba_marseille","lat":43.30779,"lon":5.37648,"is_reserved":false,"is_disabled":false,"rental_uris":{"android":"levelo://app?vid=589ab234-675a-4d9a-b49f-995a3ed33c18","ios":"levelo://app?vid=589ab234-675a-4d9a-b49f-995a3ed33c18"},"vehicle_type_id":"4","last_reported":1751983843,"current_range_meters":16000,"station_id":"ce4bgv92rcd13ifvqcq0","pricing_plan_id":"cebpf4jnsgd1na2vs0mg"},{"bike_id":"c519e614-9068-4a10-a084-59fe38f106c0","system_id":"levelo_inurba_marseille","lat":43.267861,"lon":5.393632,"is_reserved":false,"is_disabled":false,"rental_uris":{"android":"levelo://app?vid=c519e614-9068-4a10-a084-59fe38f106c0","ios":"levelo://app?vid=c519e614-9068-4a10-a084-59fe38f106c0"},"vehicle_type_id":"4","last_reported":1751983843,"current_range_meters":16000,"station_id":"ce4bhh12rcd13ifvqfg0","pricing_plan_id":"cebpf4jnsgd1na2vs0mg"},{"bike_id":"60613399-c723-4b5d-b014-23a3c7d0dabc","system_id":"levelo_inurba_marseille","lat":43.286084,"lon":5.370702,"is_reserved":false,"is_disabled":false,"rental_uris":{"android":"levelo://app?vid=60613399-c723-4b5d-b014-23a3c7d0dabc","ios":"levelo://app?vid=60613399-c723-4b5d-b014-23a3c7d0dabc"},"vehicle_type_id":"4","last_reported":1751983843,"current_range_meters":16000,"station_id":"ce4bht12rcd13ifvqi60","pricing_plan_id":"cebpf4jnsgd1na2vs0mg"},{"bike_id":"3c78f3be-0595-4cde-ab3a-21eba194a66a","system_id":"levelo_inurba_marseille","lat":43.21754,"lon":5.34596,"is_reserved":false,"is_disabled":false,"rental_uris":{"android":"levelo://app?vid=3c78f3be-0595-4cde-ab3a-21eba194a66a","ios":"levelo://app?vid=3c78f3be-0595-4cde-ab3a-21eba194a66a"},"vehicle_type_id":"4","last_reported":1751983843,"current_range_meters":16400,"station_id":"","pricing_plan_id":"cebpf4jnsgd1na2vs0mg"},{"bike_id":"4a414fc3-eddc-421b-aaa5-54ff4f0d1b7c","system_id":"levelo_inurba_marseille","lat":43.21759,"lon":5.34602,"is_reserved":false,"is_disabled":false,"rental_uris":{"android":"levelo://app?vid=4a414fc3-eddc-421b-aaa5-54ff4f0d1b7c","ios":"levelo://app?vid=4a414fc3-eddc-421b-aaa5-54ff4f0d1b7c"},"vehicle_type_id":"4","last_reported":1751983843,"current_range_meters":16400,"station_id":"","pricing_plan_id":"cebpf4jnsgd1na2vs0mg"},{"bike_id":"322e8d32-5687-4823-b7d0-dae347d53a6f","system_id":"levelo_inurba_marseille","lat":43.29703,"lon":5.36609,"is_reserved":false,"is_disabled":false,"rental_uris":{"android":"levelo://app?vid=322e8d32-5687-4823-b7d0-dae347d53a6f","ios":"levelo://app?vid=322e8d32-5687-4823-b7d0-dae347d53a6f"},"vehicle_type_id":"4","last_reported":1751983843,"current_range_meters":16400,"station_id":"ce4bgn12rcd13ifvqbt0","pricing_plan_id":"cebpf4jnsgd1na2vs0mg"},{"bike_id":"da9e0cc6-b739-410b-895b-cad8f90bf164","system_id":"levelo_inurba_marseille","lat":43.26168,"lon":5.37964,"is_reserved":false,"is_disabled":false,"rental_uris":{"android":"levelo://app?vid=da9e0cc6-b739-410b-895b-cad8f90bf164","ios":"levelo://app?vid=da9e0cc6-b739-410b-895b-cad8f90bf164"},"vehicle_type_id":"4","last_reported":1751983843,"current_range_meters":16400,"station_id":"ce4bhjp2rcd13ifvqg90","pricing_plan_id":"cebpf4jnsgd1na2vs0mg"},{"bike_id":"dfed5170-dd30-4c34-b10d-0827cb5726cb","system_id":"levelo_inurba_marseille","lat":43.23193,"lon":5.39989,"is_reserved":false,"is_disabled":false,"rental_uris":{"android":"levelo://app?vid=dfed5170-dd30-4c34-b10d-0827cb5726cb","ios":"levelo://app?vid=dfed5170-dd30-4c34-b10d-0827cb5726cb"},"vehicle_type_id":"4","last_reported":1751983843,"current_range_meters":16400,"station_id":"ce4bhn12rcd13ifvqgqg","pricing_plan_id":"cebpf4jnsgd1na2vs0mg"},{"bike_id":"5dd43541-6136-41b8-9703-885fa4203f8c","system_id":"levelo_inurba_marseille","lat":43.23179,"lon":5.39986,"is_reserved":false,"is_disabled":false,"rental_uris":{"android":"levelo://app?vid=5dd43541-6136-41b8-9703-885fa4203f8c","ios":"levelo://app?vid=5dd43541-6136-41b8-9703-885fa4203f8c"},"vehicle_type_id":"4","last_reported":1751983843,"current_range_meters":16400,"station_id":"ce4bhn12rcd13ifvqgqg","pricing_plan_id":"cebpf4jnsgd1na2vs0mg"},{"bike_id":"37ec3e6f-3faa-46d4-9e6e-2f26f1e904cd","system_id":"levelo_inurba_marseille","lat":43.27494,"lon":5.42447,"is_reserved":false,"is_disabled":false,"rental_uris":{"android":"levelo://app?vid=37ec3e6f-3faa-46d4-9e6e-2f26f1e904cd","ios":"levelo://app?vid=37ec3e6f-3faa-46d4-9e6e-2f26f1e904cd"},"vehicle_type_id":"4","last_reported":1751983843,"current_range_meters":16400,"station_id":"ce4bhn92rcd13ifvqgrg","pricing_plan_id":"cebpf4jnsgd1na2vs0mg"},{"bike_id":"a0967684-aa48-48c0-a325-5bbf21808b32","system_id":"levelo_inurba_marseille","lat":43.32484,"lon":5.3655,"is_reserved":false,"is_disabled":false,"rental_uris":{"android":"levelo://app?vid=a0967684-aa48-48c0-a325-5bbf21808b32","ios":"levelo://app?vid=a0967684-aa48-48c0-a325-5bbf21808b32"},"vehicle_type_id":"4","last_reported":1751983843,"current_range_meters":16400,"station_id":"ce4bhs12rcd13ifvqhvg","pricing_plan_id":"cebpf4jnsgd1na2vs0mg"},{"bike_id":"ea7df389-5dc0-4c58-88fe-80a5af035925","system_id":"levelo_inurba_marseille","lat":43.298465,"lon":5.364301,"is_reserved":false,"is_disabled":false,"rental_uris":{"android":"levelo://app?vid=ea7df389-5dc0-4c58-88fe-80a5af035925","ios":"levelo://app?vid=ea7df389-5dc0-4c58-88fe-80a5af035925"},"vehicle_type_id":"4","last_reported":1751983843,"current_range_meters":16800,"station_id":"","pricing_plan_id":"cebpf4jnsgd1na2vs0mg"},{"bike_id":"08eb8b96-6b30-4528-85b1-0d879eee35c1","system_id":"levelo_inurba_marseille","lat":43.28658,"lon":5.3866,"is_reserved":false,"is_disabled":false,"rental_uris":{"android":"levelo://app?vid=08eb8b96-6b30-4528-85b1-0d879eee35c1","ios":"levelo://app?vid=08eb8b96-6b30-4528-85b1-0d879eee35c1"},"vehicle_type_id":"4","last_reported":1751983843,"current_range_meters":16800,"station_id":"ce4bh492rcd13ifvqdug","pricing_plan_id":"cebpf4jnsgd1na2vs0mg"},{"bike_id":"e07099cc-ccdf-4511-aa53-76cc8d902771","system_id":"levelo_inurba_marseille","lat":43.28995,"lon":5.3561,"is_reserved":false,"is_disabled":false,"rental_uris":{"android":"levelo://app?vid=e07099cc-ccdf-4511-aa53-76cc8d902771","ios":"levelo://app?vid=e07099cc-ccdf-4511-aa53-76cc8d902771"},"vehicle_type_id":"4","last_reported":1751983843,"current_range_meters":16800,"station_id":"ce4bhb92rcd13ifvqen0","pricing_plan_id":"cebpf4jnsgd1na2vs0mg"},{"bike_id":"2f82a57b-30f3-4db6-8d1b-a11f19eb1349","system_id":"levelo_inurba_marseille","lat":43.27496,"lon":5.42446,"is_reserved":false,"is_disabled":false,"rental_uris":{"android":"levelo://app?vid=2f82a57b-30f3-4db6-8d1b-a11f19eb1349","ios":"levelo://app?vid=2f82a57b-30f3-4db6-8d1b-a11f19eb1349"},"vehicle_type_id":"4","last_reported":1751983843,"current_range_meters":16800,"station_id":"ce4bhn92rcd13ifvqgrg","pricing_plan_id":"cebpf4jnsgd1na2vs0mg"},{"bike_id":"b0da33a9-14f2-427d-8d55-dab494082b70","system_id":"levelo_inurba_marseille","lat":43.30415,"lon":5.41278,"is_reserved":false,"is_disabled":false,"rental_uris":{"android":"levelo://app?vid=b0da33a9-14f2-427d-8d55-dab494082b70","ios":"levelo://app?vid=b0da33a9-14f2-427d-8d55-dab494082b70"},"vehicle_type_id":"4","last_reported":1751983843,"current_range_meters":16800,"station_id":"ce4bhop2rcd13ifvqh8g","pricing_plan_id":"cebpf4jnsgd1na2vs0mg"},{"bike_id":"dc6aa8ed-171a-411d-8ce9-8847acb1ad2b","system_id":"levelo_inurba_marseille","lat":43.298454,"lon":5.362579,"is_reserved":false,"is_disabled":false,"rental_uris":{"android":"levelo://app?vid=dc6aa8ed-171a-411d-8ce9-8847acb1ad2b","ios":"levelo://app?vid=dc6aa8ed-171a-411d-8ce9-8847acb1ad2b"},"vehicle_type_id":"4","last_reported":1751983843,"current_range_meters":17200,"station_id":"ce4bgpp2rcd13ifvqc3g","pricing_plan_id":"cebpf4jnsgd1na2vs0mg"},{"bike_id":"093c6075-fb95-4ea5-ae3c-9ebd2aedeaa8","system_id":"levelo_inurba_marseille","lat":43.31375,"lon":5.367337,"is_reserved":false,"is_disabled":false,"rental_uris":{"android":"levelo://app?vid=093c6075-fb95-4ea5-ae3c-9ebd2aedeaa8","ios":"levelo://app?vid=093c6075-fb95-4ea5-ae3c-9ebd2aedeaa8"},"vehicle_type_id":"4","last_reported":1751983843,"current_range_meters":17200,"station_id":"ce4bgr92rcd13ifvqc6g","pricing_plan_id":"cebpf4jnsgd1na2vs0mg"},{"bike_id":"15429e61-e877-487b-abb1-05aebd3bb914","system_id":"levelo_inurba_marseille","lat":43.30539,"lon":5.36552,"is_reserved":false,"is_disabled":false,"rental_uris":{"android":"levelo://app?vid=15429e61-e877-487b-abb1-05aebd3bb914","ios":"levelo://app?vid=15429e61-e877-487b-abb1-05aebd3bb914"},"vehicle_type_id":"4","last_reported":1751983843,"current_range_meters":17200,"station_id":"ce4bgs12rcd13ifvqcag","pricing_plan_id":"cebpf4jnsgd1na2vs0mg"},{"bike_id":"88bdd5e4-407e-4475-b50d-41526c3101a1","system_id":"levelo_inurba_marseille","lat":43.30271,"lon":5.37703,"is_reserved":false,"is_disabled":false,"rental_uris":{"android":"levelo://app?vid=88bdd5e4-407e-4475-b50d-41526c3101a1","ios":"levelo://app?vid=88bdd5e4-407e-4475-b50d-41526c3101a1"},"vehicle_type_id":"4","last_reported":1751983843,"current_range_meters":17200,"station_id":"ce4bguh2rcd13ifvqcj0","pricing_plan_id":"cebpf4jnsgd1na2vs0mg"},{"bike_id":"d838120f-9a10-473d-beb1-c271315cae04","system_id":"levelo_inurba_marseille","lat":43.2841,"lon":5.35001,"is_reserved":false,"is_disabled":false,"rental_uris":{"android":"levelo://app?vid=d838120f-9a10-473d-beb1-c271315cae04","ios":"levelo://app?vid=d838120f-9a10-473d-beb1-c271315cae04"},"vehicle_type_id":"4","last_reported":1751983843,"current_range_meters":17200,"station_id":"ce4bhbh2rcd13ifvqepg","pricing_plan_id":"cebpf4jnsgd1na2vs0mg"},{"bike_id":"95376b8a-f9b0-4882-b8bd-7187a8851202","system_id":"levelo_inurba_marseille","lat":43.27206,"lon":5.3918,"is_reserved":false,"is_disabled":false,"rental_uris":{"android":"levelo://app?vid=95376b8a-f9b0-4882-b8bd-7187a8851202","ios":"levelo://app?vid=95376b8a-f9b0-4882-b8bd-7187a8851202"},"vehicle_type_id":"4","last_reported":1751983843,"current_range_meters":17200,"station_id":"ce4bhhp2rcd13ifvqfm0","pricing_plan_id":"cebpf4jnsgd1na2vs0mg"},{"bike_id":"61b46aba-3e0c-4cfe-b31f-57fbc1f0f643","system_id":"levelo_inurba_marseille","lat":43.2407,"lon":5.37761,"is_reserved":false,"is_disabled":false,"rental_uris":{"android":"levelo://app?vid=61b46aba-3e0c-4cfe-b31f-57fbc1f0f643","ios":"levelo://app?vid=61b46aba-3e0c-4cfe-b31f-57fbc1f0f643"},"vehicle_type_id":"4","last_reported":1751983843,"current_range_meters":17200,"station_id":"ce4bhnp2rcd13ifvqgvg","pricing_plan_id":"cebpf4jnsgd1na2vs0mg"},{"bike_id":"6d57421a-ce17-4fba-9ce2-b6e739dec75c","system_id":"levelo_inurba_marseille","lat":43.293709,"lon":5.378423,"is_reserved":false,"is_disabled":false,"rental_uris":{"android":"levelo://app?vid=6d57421a-ce17-4fba-9ce2-b6e739dec75c","ios":"levelo://app?vid=6d57421a-ce17-4fba-9ce2-b6e739dec75c"},"vehicle_type_id":"4","last_reported":1751983843,"current_range_meters":17600,"station_id":"ce4bgjh2rcd13ifvqbf0","pricing_plan_id":"cebpf4jnsgd1na2vs0mg"},{"bike_id":"35e8b568-a7f8-40d8-ac65-5784d03c7384","system_id":"levelo_inurba_marseille","lat":43.30134,"lon":5.38072,"is_reserved":false,"is_disabled":false,"rental_uris":{"android":"levelo://app?vid=35e8b568-a7f8-40d8-ac65-5784d03c7384","ios":"levelo://app?vid=35e8b568-a7f8-40d8-ac65-5784d03c7384"},"vehicle_type_id":"4","last_reported":1751983843,"current_range_meters":17600,"station_id":"ce4bgjp2rcd13ifvqbh0","pricing_plan_id":"cebpf4jnsgd1na2vs0mg"},{"bike_id":"1d7fac14-2cca-4632-8110-30634afef477","system_id":"levelo_inurba_marseille","lat":43.30903,"lon":5.36843,"is_reserved":false,"is_disabled":false,"rental_uris":{"android":"levelo://app?vid=1d7fac14-2cca-4632-8110-30634afef477","ios":"levelo://app?vid=1d7fac14-2cca-4632-8110-30634afef477"},"vehicle_type_id":"4","last_reported":1751983843,"current_range_meters":17600,"station_id":"ce4bgn92rcd13ifvqbvg","pricing_plan_id":"cebpf4jnsgd1na2vs0mg"},{"bike_id":"f5993312-df83-434b-8105-91efbfa1e2bc","system_id":"levelo_inurba_marseille","lat":43.30565,"lon":5.36556,"is_reserved":false,"is_disabled":false,"rental_uris":{"android":"levelo://app?vid=f5993312-df83-434b-8105-91efbfa1e2bc","ios":"levelo://app?vid=f5993312-df83-434b-8105-91efbfa1e2bc"},"vehicle_type_id":"4","last_reported":1751983843,"current_range_meters":17600,"station_id":"ce4bgs12rcd13ifvqcag","pricing_plan_id":"cebpf4jnsgd1na2vs0mg"},{"bike_id":"c7915cae-4cfe-4d56-a32f-9797e3dd58a8","system_id":"levelo_inurba_marseille","lat":43.30638,"lon":5.40103,"is_reserved":false,"is_disabled":false,"rental_uris":{"android":"levelo://app?vid=c7915cae-4cfe-4d56-a32f-9797e3dd58a8","ios":"levelo://app?vid=c7915cae-4cfe-4d56-a32f-9797e3dd58a8"},"vehicle_type_id":"4","last_reported":1751983843,"current_range_meters":17600,"station_id":"ce4bh112rcd13ifvqda0","pricing_plan_id":"cebpf4jnsgd1na2vs0mg"},{"bike_id":"1e112a52-32ff-42af-8077-893c4a6d3611","system_id":"levelo_inurba_marseille","lat":43.28412,"lon":5.35009,"is_reserved":false,"is_disabled":false,"rental_uris":{"android":"levelo://app?vid=1e112a52-32ff-42af-8077-893c4a6d3611","ios":"levelo://app?vid=1e112a52-32ff-42af-8077-893c4a6d3611"},"vehicle_type_id":"4","last_reported":1751983843,"current_range_meters":17600,"station_id":"ce4bhbh2rcd13ifvqepg","pricing_plan_id":"cebpf4jnsgd1na2vs0mg"},{"bike_id":"9959d7fa-4898-43a5-a1ec-b9fed544cad3","system_id":"levelo_inurba_marseille","lat":43.284228,"lon":5.349979,"is_reserved":false,"is_disabled":false,"rental_uris":{"android":"levelo://app?vid=9959d7fa-4898-43a5-a1ec-b9fed544cad3","ios":"levelo://app?vid=9959d7fa-4898-43a5-a1ec-b9fed544cad3"},"vehicle_type_id":"4","last_reported":1751983843,"current_range_meters":17600,"station_id":"ce4bhbh2rcd13ifvqepg","pricing_plan_id":"cebpf4jnsgd1na2vs0mg"},{"bike_id":"dd7f1d43-95a2-43c6-b9bd-fbe2f07a4e25","system_id":"levelo_inurba_marseille","lat":43.27317,"lon":5.39083,"is_reserved":false,"is_disabled":false,"rental_uris":{"android":"levelo://app?vid=dd7f1d43-95a2-43c6-b9bd-fbe2f07a4e25","ios":"levelo://app?vid=dd7f1d43-95a2-43c6-b9bd-fbe2f07a4e25"},"vehicle_type_id":"4","last_reported":1751983843,"current_range_meters":17600,"station_id":"ce4bhgp2rcd13ifvqfe0","pricing_plan_id":"cebpf4jnsgd1na2vs0mg"},{"bike_id":"537ae664-491b-4af7-9081-62566cf8f1c2","system_id":"levelo_inurba_marseille","lat":43.25922,"lon":5.40912,"is_reserved":false,"is_disabled":false,"rental_uris":{"android":"levelo://app?vid=537ae664-491b-4af7-9081-62566cf8f1c2","ios":"levelo://app?vid=537ae664-491b-4af7-9081-62566cf8f1c2"},"vehicle_type_id":"4","last_reported":1751983843,"current_range_meters":17600,"station_id":"ce4bhm92rcd13ifvqglg","pricing_plan_id":"cebpf4jnsgd1na2vs0mg"},{"bike_id":"c2b72fe0-bae6-4c7b-ad48-9e771b203dc8","system_id":"levelo_inurba_marseille","lat":43.31355,"lon":5.38472,"is_reserved":false,"is_disabled":false,"rental_uris":{"android":"levelo://app?vid=c2b72fe0-bae6-4c7b-ad48-9e771b203dc8","ios":"levelo://app?vid=c2b72fe0-bae6-4c7b-ad48-9e771b203dc8"},"vehicle_type_id":"4","last_reported":1751983843,"current_range_meters":18000,"station_id":"ce4bgt92rcd13ifvqcf0","pricing_plan_id":"cebpf4jnsgd1na2vs0mg"},{"bike_id":"a322b9b0-5332-4c92-9010-61cf8ed8d53d","system_id":"levelo_inurba_marseille","lat":43.28456,"lon":5.35879,"is_reserved":false,"is_disabled":false,"rental_uris":{"android":"levelo://app?vid=a322b9b0-5332-4c92-9010-61cf8ed8d53d","ios":"levelo://app?vid=a322b9b0-5332-4c92-9010-61cf8ed8d53d"},"vehicle_type_id":"4","last_reported":1751983843,"current_range_meters":18000,"station_id":"ce4bhah2rcd13ifvqei0","pricing_plan_id":"cebpf4jnsgd1na2vs0mg"},{"bike_id":"f187bca7-730c-495f-b36c-b985f85f6d76","system_id":"levelo_inurba_marseille","lat":43.28618,"lon":5.35109,"is_reserved":false,"is_disabled":false,"rental_uris":{"android":"levelo://app?vid=f187bca7-730c-495f-b36c-b985f85f6d76","ios":"levelo://app?vid=f187bca7-730c-495f-b36c-b985f85f6d76"},"vehicle_type_id":"4","last_reported":1751983843,"current_range_meters":18000,"station_id":"ce4bhch2rcd13ifvqeug","pricing_plan_id":"cebpf4jnsgd1na2vs0mg"},{"bike_id":"47010cf3-3508-4647-a445-6721247c371c","system_id":"levelo_inurba_marseille","lat":43.28712,"lon":5.39982,"is_reserved":false,"is_disabled":false,"rental_uris":{"android":"levelo://app?vid=47010cf3-3508-4647-a445-6721247c371c","ios":"levelo://app?vid=47010cf3-3508-4647-a445-6721247c371c"},"vehicle_type_id":"4","last_reported":1751983843,"current_range_meters":18000,"station_id":"ce4bho92rcd13ifvqh3g","pricing_plan_id":"cebpf4jnsgd1na2vs0mg"},{"bike_id":"730acc7c-d5c8-4dfa-992b-6204d9203e70","system_id":"levelo_inurba_marseille","lat":43.32038,"lon":5.41561,"is_reserved":false,"is_disabled":false,"rental_uris":{"android":"levelo://app?vid=730acc7c-d5c8-4dfa-992b-6204d9203e70","ios":"levelo://app?vid=730acc7c-d5c8-4dfa-992b-6204d9203e70"},"vehicle_type_id":"4","last_reported":1751983843,"current_range_meters":18000,"station_id":"ce4bhq92rcd13ifvqhkg","pricing_plan_id":"cebpf4jnsgd1na2vs0mg"},{"bike_id":"87813777-972f-438d-b9d3-c90ab0ceef83","system_id":"levelo_inurba_marseille","lat":43.3073,"lon":5.42439,"is_reserved":false,"is_disabled":false,"rental_uris":{"android":"levelo://app?vid=87813777-972f-438d-b9d3-c90ab0ceef83","ios":"levelo://app?vid=87813777-972f-438d-b9d3-c90ab0ceef83"},"vehicle_type_id":"4","last_reported":1751983843,"current_range_meters":18000,"station_id":"st_cvj6ca6bvosntc0bfgr0","pricing_plan_id":"cebpf4jnsgd1na2vs0mg"},{"bike_id":"1e91cee9-7d4a-458c-9805-68ef6c30eb40","system_id":"levelo_inurba_marseille","lat":43.21749,"lon":5.34589,"is_reserved":false,"is_disabled":false,"rental_uris":{"android":"levelo://app?vid=1e91cee9-7d4a-458c-9805-68ef6c30eb40","ios":"levelo://app?vid=1e91cee9-7d4a-458c-9805-68ef6c30eb40"},"vehicle_type_id":"4","last_reported":1751983843,"current_range_meters":18000,"station_id":"st_cvj6r9ubvosntc0bgbag","pricing_plan_id":"cebpf4jnsgd1na2vs0mg"},{"bike_id":"d0f90c24-dd03-411b-9731-55305f76b7c8","system_id":"levelo_inurba_marseille","lat":43.21205,"lon":5.35079,"is_reserved":false,"is_disabled":false,"rental_uris":{"android":"levelo://app?vid=d0f90c24-dd03-411b-9731-55305f76b7c8","ios":"levelo://app?vid=d0f90c24-dd03-411b-9731-55305f76b7c8"},"vehicle_type_id":"4","last_reported":1751983843,"current_range_meters":18000,"station_id":"st_cvj6sg6p6f1abm77japg","pricing_plan_id":"cebpf4jnsgd1na2vs0mg"},{"bike_id":"18cc1aff-754f-4758-a56e-ac01c6bb4fed","system_id":"levelo_inurba_marseille","lat":43.30645,"lon":5.38025,"is_reserved":false,"is_disabled":false,"rental_uris":{"android":"levelo://app?vid=18cc1aff-754f-4758-a56e-ac01c6bb4fed","ios":"levelo://app?vid=18cc1aff-754f-4758-a56e-ac01c6bb4fed"},"vehicle_type_id":"4","last_reported":1751983843,"current_range_meters":18800,"station_id":"","pricing_plan_id":"cebpf4jnsgd1na2vs0mg"},{"bike_id":"5e4b110f-4f34-4a9e-a5f5-7ace7520bbd5","system_id":"levelo_inurba_marseille","lat":43.29676,"lon":5.37424,"is_reserved":false,"is_disabled":false,"rental_uris":{"android":"levelo://app?vid=5e4b110f-4f34-4a9e-a5f5-7ace7520bbd5","ios":"levelo://app?vid=5e4b110f-4f34-4a9e-a5f5-7ace7520bbd5"},"vehicle_type_id":"4","last_reported":1751983843,"current_range_meters":18800,"station_id":"","pricing_plan_id":"cebpf4jnsgd1na2vs0mg"},{"bike_id":"95bb5ae3-41b2-43b4-955f-38cf5daa6eea","system_id":"levelo_inurba_marseille","lat":43.31233,"lon":5.36884,"is_reserved":false,"is_disabled":false,"rental_uris":{"android":"levelo://app?vid=95bb5ae3-41b2-43b4-955f-38cf5daa6eea","ios":"levelo://app?vid=95bb5ae3-41b2-43b4-955f-38cf5daa6eea"},"vehicle_type_id":"4","last_reported":1751983843,"current_range_meters":18800,"station_id":"ce4bgl92rcd13ifvqbq0","pricing_plan_id":"cebpf4jnsgd1na2vs0mg"},{"bike_id":"a4403df6-1742-47d7-8e86-ab4ac4be5233","system_id":"levelo_inurba_marseille","lat":43.30302,"lon":5.369,"is_reserved":false,"is_disabled":false,"rental_uris":{"android":"levelo://app?vid=a4403df6-1742-47d7-8e86-ab4ac4be5233","ios":"levelo://app?vid=a4403df6-1742-47d7-8e86-ab4ac4be5233"},"vehicle_type_id":"4","last_reported":1751983843,"current_range_meters":18800,"station_id":"ce4bgqh2rcd13ifvqc5g","pricing_plan_id":"cebpf4jnsgd1na2vs0mg"},{"bike_id":"f06ad9c1-4d2d-477f-9cf5-8a8b31168797","system_id":"levelo_inurba_marseille","lat":43.28727,"lon":5.37366,"is_reserved":false,"is_disabled":false,"rental_uris":{"android":"levelo://app?vid=f06ad9c1-4d2d-477f-9cf5-8a8b31168797","ios":"levelo://app?vid=f06ad9c1-4d2d-477f-9cf5-8a8b31168797"},"vehicle_type_id":"4","last_reported":1751983843,"current_range_meters":18800,"station_id":"ce4bh3p2rcd13ifvqdq0","pricing_plan_id":"cebpf4jnsgd1na2vs0mg"},{"bike_id":"8b6556f0-b1a0-495a-9af8-2f63475c8a21","system_id":"levelo_inurba_marseille","lat":43.287,"lon":5.37397,"is_reserved":false,"is_disabled":false,"rental_uris":{"android":"levelo://app?vid=8b6556f0-b1a0-495a-9af8-2f63475c8a21","ios":"levelo://app?vid=8b6556f0-b1a0-495a-9af8-2f63475c8a21"},"vehicle_type_id":"4","last_reported":1751983843,"current_range_meters":18800,"station_id":"ce4bh3p2rcd13ifvqdq0","pricing_plan_id":"cebpf4jnsgd1na2vs0mg"},{"bike_id":"0c505ed0-6f21-404c-a3d1-264c9a7d40d5","system_id":"levelo_inurba_marseille","lat":43.28247,"lon":5.35068,"is_reserved":false,"is_disabled":false,"rental_uris":{"android":"levelo://app?vid=0c505ed0-6f21-404c-a3d1-264c9a7d40d5","ios":"levelo://app?vid=0c505ed0-6f21-404c-a3d1-264c9a7d40d5"},"vehicle_type_id":"4","last_reported":1751983843,"current_range_meters":18800,"station_id":"ce4bhbp2rcd13ifvqerg","pricing_plan_id":"cebpf4jnsgd1na2vs0mg"},{"bike_id":"f5c16f07-bc6f-4121-91a7-5ad90eec4f34","system_id":"levelo_inurba_marseille","lat":43.31226,"lon":5.37324,"is_reserved":false,"is_disabled":false,"rental_uris":{"android":"levelo://app?vid=f5c16f07-bc6f-4121-91a7-5ad90eec4f34","ios":"levelo://app?vid=f5c16f07-bc6f-4121-91a7-5ad90eec4f34"},"vehicle_type_id":"4","last_reported":1751983843,"current_range_meters":19200,"station_id":"","pricing_plan_id":"cebpf4jnsgd1na2vs0mg"},{"bike_id":"ab5b73c0-1a35-4203-89c0-f1229c688e99","system_id":"levelo_inurba_marseille","lat":43.3027,"lon":5.39641,"is_reserved":false,"is_disabled":false,"rental_uris":{"android":"levelo://app?vid=ab5b73c0-1a35-4203-89c0-f1229c688e99","ios":"levelo://app?vid=ab5b73c0-1a35-4203-89c0-f1229c688e99"},"vehicle_type_id":"4","last_reported":1751983843,"current_range_meters":19200,"station_id":"","pricing_plan_id":"cebpf4jnsgd1na2vs0mg"},{"bike_id":"bbacb642-3231-4f8a-be80-9fe3a8f7b5be","system_id":"levelo_inurba_marseille","lat":43.29587,"lon":5.38103,"is_reserved":false,"is_disabled":false,"rental_uris":{"android":"levelo://app?vid=bbacb642-3231-4f8a-be80-9fe3a8f7b5be","ios":"levelo://app?vid=bbacb642-3231-4f8a-be80-9fe3a8f7b5be"},"vehicle_type_id":"4","last_reported":1751983843,"current_range_meters":19200,"station_id":"ce4bgl12rcd13ifvqbo0","pricing_plan_id":"cebpf4jnsgd1na2vs0mg"},{"bike_id":"ae2d6287-ad5e-4b56-b5a3-f03af7994ad9","system_id":"levelo_inurba_marseille","lat":43.30161,"lon":5.37371,"is_reserved":false,"is_disabled":false,"rental_uris":{"android":"levelo://app?vid=ae2d6287-ad5e-4b56-b5a3-f03af7994ad9","ios":"levelo://app?vid=ae2d6287-ad5e-4b56-b5a3-f03af7994ad9"},"vehicle_type_id":"4","last_reported":1751983843,"current_range_meters":19200,"station_id":"ce4bgs92rcd13ifvqcc0","pricing_plan_id":"cebpf4jnsgd1na2vs0mg"},{"bike_id":"21c19a43-5640-465a-8402-41d7f9eeab79","system_id":"levelo_inurba_marseille","lat":43.29572,"lon":5.39992,"is_reserved":false,"is_disabled":false,"rental_uris":{"android":"levelo://app?vid=21c19a43-5640-465a-8402-41d7f9eeab79","ios":"levelo://app?vid=21c19a43-5640-465a-8402-41d7f9eeab79"},"vehicle_type_id":"4","last_reported":1751983843,"current_range_meters":19200,"station_id":"ce4bh312rcd13ifvqdj0","pricing_plan_id":"cebpf4jnsgd1na2vs0mg"},{"bike_id":"058fd885-773e-49c6-a92f-fa9bee67cf1a","system_id":"levelo_inurba_marseille","lat":43.28462,"lon":5.35883,"is_reserved":false,"is_disabled":false,"rental_uris":{"android":"levelo://app?vid=058fd885-773e-49c6-a92f-fa9bee67cf1a","ios":"levelo://app?vid=058fd885-773e-49c6-a92f-fa9bee67cf1a"},"vehicle_type_id":"4","last_reported":1751983843,"current_range_meters":19200,"station_id":"ce4bhah2rcd13ifvqei0","pricing_plan_id":"cebpf4jnsgd1na2vs0mg"},{"bike_id":"fb4122cd-0277-4297-8cd5-1b777b465e3e","system_id":"levelo_inurba_marseille","lat":43.24093,"lon":5.37755,"is_reserved":false,"is_disabled":false,"rental_uris":{"android":"levelo://app?vid=fb4122cd-0277-4297-8cd5-1b777b465e3e","ios":"levelo://app?vid=fb4122cd-0277-4297-8cd5-1b777b465e3e"},"vehicle_type_id":"4","last_reported":1751983843,"current_range_meters":19200,"station_id":"ce4bhnp2rcd13ifvqgvg","pricing_plan_id":"cebpf4jnsgd1na2vs0mg"},{"bike_id":"56eb3fdf-ea87-4fcf-85df-3680fa66363e","system_id":"levelo_inurba_marseille","lat":43.22509,"lon":5.34758,"is_reserved":false,"is_disabled":false,"rental_uris":{"android":"levelo://app?vid=56eb3fdf-ea87-4fcf-85df-3680fa66363e","ios":"levelo://app?vid=56eb3fdf-ea87-4fcf-85df-3680fa66363e"},"vehicle_type_id":"4","last_reported":1751983843,"current_range_meters":19200,"station_id":"st_cvj5dfep6f1abm77gieg","pricing_plan_id":"cebpf4jnsgd1na2vs0mg"},{"bike_id":"b2caa530-bb19-4cc6-a6bd-61e3e1d7432e","system_id":"levelo_inurba_marseille","lat":43.33763,"lon":5.37461,"is_reserved":false,"is_disabled":false,"rental_uris":{"android":"levelo://app?vid=b2caa530-bb19-4cc6-a6bd-61e3e1d7432e","ios":"levelo://app?vid=b2caa530-bb19-4cc6-a6bd-61e3e1d7432e"},"vehicle_type_id":"4","last_reported":1751983843,"current_range_meters":19600,"station_id":"","pricing_plan_id":"cebpf4jnsgd1na2vs0mg"},{"bike_id":"b757ffbb-2b71-4330-9f60-5f8a9d46d16e","system_id":"levelo_inurba_marseille","lat":43.29613,"lon":5.37138,"is_reserved":false,"is_disabled":false,"rental_uris":{"android":"levelo://app?vid=b757ffbb-2b71-4330-9f60-5f8a9d46d16e","ios":"levelo://app?vid=b757ffbb-2b71-4330-9f60-5f8a9d46d16e"},"vehicle_type_id":"4","last_reported":1751983843,"current_range_meters":19600,"station_id":"ce4bgnh2rcd13ifvqc0g","pricing_plan_id":"cebpf4jnsgd1na2vs0mg"},{"bike_id":"4acaf512-a7d4-403d-9669-da010a61428f","system_id":"levelo_inurba_marseille","lat":43.30543,"lon":5.36533,"is_reserved":false,"is_disabled":false,"rental_uris":{"android":"levelo://app?vid=4acaf512-a7d4-403d-9669-da010a61428f","ios":"levelo://app?vid=4acaf512-a7d4-403d-9669-da010a61428f"},"vehicle_type_id":"4","last_reported":1751983843,"current_range_meters":19600,"station_id":"ce4bgs12rcd13ifvqcag","pricing_plan_id":"cebpf4jnsgd1na2vs0mg"},{"bike_id":"0f17f92e-e264-4c54-b3e8-630cd0e6172d","system_id":"levelo_inurba_marseille","lat":43.29518,"lon":5.39406,"is_reserved":false,"is_disabled":false,"rental_uris":{"android":"levelo://app?vid=0f17f92e-e264-4c54-b3e8-630cd0e6172d","ios":"levelo://app?vid=0f17f92e-e264-4c54-b3e8-630cd0e6172d"},"vehicle_type_id":"4","last_reported":1751983843,"current_range_meters":19600,"station_id":"ce4bh292rcd13ifvqdf0","pricing_plan_id":"cebpf4jnsgd1na2vs0mg"},{"bike_id":"9a9677fa-d53b-45f8-b3d6-cfed2a40699c","system_id":"levelo_inurba_marseille","lat":43.26932,"lon":5.38924,"is_reserved":false,"is_disabled":false,"rental_uris":{"android":"levelo://app?vid=9a9677fa-d53b-45f8-b3d6-cfed2a40699c","ios":"levelo://app?vid=9a9677fa-d53b-45f8-b3d6-cfed2a40699c"},"vehicle_type_id":"4","last_reported":1751983843,"current_range_meters":19600,"station_id":"ce4bhhh2rcd13ifvqfl0","pricing_plan_id":"cebpf4jnsgd1na2vs0mg"},{"bike_id":"697d5fc4-b988-4a4e-8323-c1ce5ed61a61","system_id":"levelo_inurba_marseille","lat":43.21189,"lon":5.35056,"is_reserved":false,"is_disabled":false,"rental_uris":{"android":"levelo://app?vid=697d5fc4-b988-4a4e-8323-c1ce5ed61a61","ios":"levelo://app?vid=697d5fc4-b988-4a4e-8323-c1ce5ed61a61"},"vehicle_type_id":"4","last_reported":1751983843,"current_range_meters":19600,"station_id":"st_cvj6sg6p6f1abm77japg","pricing_plan_id":"cebpf4jnsgd1na2vs0mg"},{"bike_id":"b6d9b946-f66a-4c6f-96e5-5d23e176360c","system_id":"levelo_inurba_marseille","lat":43.31315,"lon":5.38172,"is_reserved":false,"is_disabled":false,"rental_uris":{"android":"levelo://app?vid=b6d9b946-f66a-4c6f-96e5-5d23e176360c","ios":"levelo://app?vid=b6d9b946-f66a-4c6f-96e5-5d23e176360c"},"vehicle_type_id":"4","last_reported":1751983843,"current_range_meters":20000,"station_id":"","pricing_plan_id":"cebpf4jnsgd1na2vs0mg"},{"bike_id":"91caa7cf-da48-4b77-92af-de77619dbcc7","system_id":"levelo_inurba_marseille","lat":43.30545,"lon":5.36703,"is_reserved":false,"is_disabled":false,"rental_uris":{"android":"levelo://app?vid=91caa7cf-da48-4b77-92af-de77619dbcc7","ios":"levelo://app?vid=91caa7cf-da48-4b77-92af-de77619dbcc7"},"vehicle_type_id":"4","last_reported":1751983843,"current_range_meters":20000,"station_id":"ce4bgrp2rcd13ifvqc9g","pricing_plan_id":"cebpf4jnsgd1na2vs0mg"},{"bike_id":"ee7f4a3f-5614-4b1f-aa63-c40e8307f8a9","system_id":"levelo_inurba_marseille","lat":43.31681,"lon":5.40473,"is_reserved":false,"is_disabled":false,"rental_uris":{"android":"levelo://app?vid=ee7f4a3f-5614-4b1f-aa63-c40e8307f8a9","ios":"levelo://app?vid=ee7f4a3f-5614-4b1f-aa63-c40e8307f8a9"},"vehicle_type_id":"4","last_reported":1751983843,"current_range_meters":20000,"station_id":"ce4bh012rcd13ifvqd00","pricing_plan_id":"cebpf4jnsgd1na2vs0mg"},{"bike_id":"52b43456-8c69-4db0-a4f1-321218b998c0","system_id":"levelo_inurba_marseille","lat":43.28418,"lon":5.34988,"is_reserved":false,"is_disabled":false,"rental_uris":{"android":"levelo://app?vid=52b43456-8c69-4db0-a4f1-321218b998c0","ios":"levelo://app?vid=52b43456-8c69-4db0-a4f1-321218b998c0"},"vehicle_type_id":"4","last_reported":1751983843,"current_range_meters":20000,"station_id":"ce4bhbh2rcd13ifvqepg","pricing_plan_id":"cebpf4jnsgd1na2vs0mg"},{"bike_id":"2a62aa0f-67db-4233-8eed-970c06f62577","system_id":"levelo_inurba_marseille","lat":43.28267,"lon":5.35061,"is_reserved":false,"is_disabled":false,"rental_uris":{"android":"levelo://app?vid=2a62aa0f-67db-4233-8eed-970c06f62577","ios":"levelo://app?vid=2a62aa0f-67db-4233-8eed-970c06f62577"},"vehicle_type_id":"4","last_reported":1751983843,"current_range_meters":20000,"station_id":"ce4bhbp2rcd13ifvqerg","pricing_plan_id":"cebpf4jnsgd1na2vs0mg"},{"bike_id":"b28aa0a0-791c-4a08-9a16-c7bf6ea0ed5a","system_id":"levelo_inurba_marseille","lat":43.22484,"lon":5.3482,"is_reserved":false,"is_disabled":false,"rental_uris":{"android":"levelo://app?vid=b28aa0a0-791c-4a08-9a16-c7bf6ea0ed5a","ios":"levelo://app?vid=b28aa0a0-791c-4a08-9a16-c7bf6ea0ed5a"},"vehicle_type_id":"4","last_reported":1751983843,"current_range_meters":20000,"station_id":"st_cvj5dfep6f1abm77gieg","pricing_plan_id":"cebpf4jnsgd1na2vs0mg"},{"bike_id":"15286feb-5dfb-498c-a584-add36819e4ef","system_id":"levelo_inurba_marseille","lat":43.21176,"lon":5.35074,"is_reserved":false,"is_disabled":false,"rental_uris":{"android":"levelo://app?vid=15286feb-5dfb-498c-a584-add36819e4ef","ios":"levelo://app?vid=15286feb-5dfb-498c-a584-add36819e4ef"},"vehicle_type_id":"4","last_reported":1751983843,"current_range_meters":20000,"station_id":"st_cvj6sg6p6f1abm77japg","pricing_plan_id":"cebpf4jnsgd1na2vs0mg"},{"bike_id":"1be39311-cfa5-4cbb-b93d-fb0870d6e611","system_id":"levelo_inurba_marseille","lat":43.211886,"lon":5.350716,"is_reserved":false,"is_disabled":false,"rental_uris":{"android":"levelo://app?vid=1be39311-cfa5-4cbb-b93d-fb0870d6e611","ios":"levelo://app?vid=1be39311-cfa5-4cbb-b93d-fb0870d6e611"},"vehicle_type_id":"4","last_reported":1751983843,"current_range_meters":20000,"station_id":"st_cvj6sg6p6f1abm77japg","pricing_plan_id":"cebpf4jnsgd1na2vs0mg"},{"bike_id":"320f2a33-deaa-4e0a-a3d5-c39ce8ad680a","system_id":"levelo_inurba_marseille","lat":43.31547,"lon":5.37456,"is_reserved":false,"is_disabled":false,"rental_uris":{"android":"levelo://app?vid=320f2a33-deaa-4e0a-a3d5-c39ce8ad680a","ios":"levelo://app?vid=320f2a33-deaa-4e0a-a3d5-c39ce8ad680a"},"vehicle_type_id":"4","last_reported":1751983843,"current_range_meters":20400,"station_id":"","pricing_plan_id":"cebpf4jnsgd1na2vs0mg"},{"bike_id":"904a8b8b-cb6e-43e2-b99a-e5b8f9078d48","system_id":"levelo_inurba_marseille","lat":43.30926,"lon":5.40152,"is_reserved":false,"is_disabled":false,"rental_uris":{"android":"levelo://app?vid=904a8b8b-cb6e-43e2-b99a-e5b8f9078d48","ios":"levelo://app?vid=904a8b8b-cb6e-43e2-b99a-e5b8f9078d48"},"vehicle_type_id":"4","last_reported":1751983843,"current_range_meters":20400,"station_id":"ce4bgvp2rcd13ifvqct0","pricing_plan_id":"cebpf4jnsgd1na2vs0mg"},{"bike_id":"015ea429-1ec7-4c43-a3a2-9aca5563599c","system_id":"levelo_inurba_marseille","lat":43.28345,"lon":5.38104,"is_reserved":false,"is_disabled":false,"rental_uris":{"android":"levelo://app?vid=015ea429-1ec7-4c43-a3a2-9aca5563599c","ios":"levelo://app?vid=015ea429-1ec7-4c43-a3a2-9aca5563599c"},"vehicle_type_id":"4","last_reported":1751983843,"current_range_meters":20400,"station_id":"ce4bh412rcd13ifvqdr0","pricing_plan_id":"cebpf4jnsgd1na2vs0mg"},{"bike_id":"73bbe95d-b1e8-401e-a19e-7c8889e8ef94","system_id":"levelo_inurba_marseille","lat":43.29269,"lon":5.38437,"is_reserved":false,"is_disabled":false,"rental_uris":{"android":"levelo://app?vid=73bbe95d-b1e8-401e-a19e-7c8889e8ef94","ios":"levelo://app?vid=73bbe95d-b1e8-401e-a19e-7c8889e8ef94"},"vehicle_type_id":"4","last_reported":1751983843,"current_range_meters":20400,"station_id":"ce4bh692rcd13ifvqea0","pricing_plan_id":"cebpf4jnsgd1na2vs0mg"},{"bike_id":"fd7d08d0-d8e9-446a-9f54-3e0aa7641460","system_id":"levelo_inurba_marseille","lat":43.24389,"lon":5.37053,"is_reserved":false,"is_disabled":false,"rental_uris":{"android":"levelo://app?vid=fd7d08d0-d8e9-446a-9f54-3e0aa7641460","ios":"levelo://app?vid=fd7d08d0-d8e9-446a-9f54-3e0aa7641460"},"vehicle_type_id":"4","last_reported":1751983843,"current_range_meters":20400,"station_id":"ce4bhhh2rcd13ifvqfk0","pricing_plan_id":"cebpf4jnsgd1na2vs0mg"},{"bike_id":"ab04b546-2504-413f-96d8-08d15739aeed","system_id":"levelo_inurba_marseille","lat":43.25936,"lon":5.40894,"is_reserved":false,"is_disabled":false,"rental_uris":{"android":"levelo://app?vid=ab04b546-2504-413f-96d8-08d15739aeed","ios":"levelo://app?vid=ab04b546-2504-413f-96d8-08d15739aeed"},"vehicle_type_id":"4","last_reported":1751983843,"current_range_meters":20400,"station_id":"ce4bhm92rcd13ifvqglg","pricing_plan_id":"cebpf4jnsgd1na2vs0mg"},{"bike_id":"19c552da-55bc-46d8-97cb-d1fbabdad01a","system_id":"levelo_inurba_marseille","lat":43.211878,"lon":5.350699,"is_reserved":false,"is_disabled":false,"rental_uris":{"android":"levelo://app?vid=19c552da-55bc-46d8-97cb-d1fbabdad01a","ios":"levelo://app?vid=19c552da-55bc-46d8-97cb-d1fbabdad01a"},"vehicle_type_id":"4","last_reported":1751983843,"current_range_meters":20400,"station_id":"st_cvj6sg6p6f1abm77japg","pricing_plan_id":"cebpf4jnsgd1na2vs0mg"},{"bike_id":"5a5872c6-a97c-4e06-96d5-1828b33141df","system_id":"levelo_inurba_marseille","lat":43.31314,"lon":5.36865,"is_reserved":false,"is_disabled":false,"rental_uris":{"android":"levelo://app?vid=5a5872c6-a97c-4e06-96d5-1828b33141df","ios":"levelo://app?vid=5a5872c6-a97c-4e06-96d5-1828b33141df"},"vehicle_type_id":"4","last_reported":1751983843,"current_range_meters":20800,"station_id":"","pricing_plan_id":"cebpf4jnsgd1na2vs0mg"},{"bike_id":"3355e509-4d8d-434d-9908-210c4c02e82e","system_id":"levelo_inurba_marseille","lat":43.31468,"lon":5.37306,"is_reserved":false,"is_disabled":false,"rental_uris":{"android":"levelo://app?vid=3355e509-4d8d-434d-9908-210c4c02e82e","ios":"levelo://app?vid=3355e509-4d8d-434d-9908-210c4c02e82e"},"vehicle_type_id":"4","last_reported":1751983843,"current_range_meters":20800,"station_id":"ce4bgt12rcd13ifvqcd0","pricing_plan_id":"cebpf4jnsgd1na2vs0mg"},{"bike_id":"b4074bce-94fe-4ab6-bec7-26f670adb100","system_id":"levelo_inurba_marseille","lat":43.30276,"lon":5.37702,"is_reserved":false,"is_disabled":false,"rental_uris":{"android":"levelo://app?vid=b4074bce-94fe-4ab6-bec7-26f670adb100","ios":"levelo://app?vid=b4074bce-94fe-4ab6-bec7-26f670adb100"},"vehicle_type_id":"4","last_reported":1751983843,"current_range_meters":20800,"station_id":"ce4bguh2rcd13ifvqcj0","pricing_plan_id":"cebpf4jnsgd1na2vs0mg"},{"bike_id":"34136e20-8bc3-4a64-bb34-0cfb08fa9713","system_id":"levelo_inurba_marseille","lat":43.30926,"lon":5.40142,"is_reserved":false,"is_disabled":false,"rental_uris":{"android":"levelo://app?vid=34136e20-8bc3-4a64-bb34-0cfb08fa9713","ios":"levelo://app?vid=34136e20-8bc3-4a64-bb34-0cfb08fa9713"},"vehicle_type_id":"4","last_reported":1751983843,"current_range_meters":20800,"station_id":"ce4bgvp2rcd13ifvqct0","pricing_plan_id":"cebpf4jnsgd1na2vs0mg"},{"bike_id":"779e1734-651e-4c56-840c-6d2319b7cadb","system_id":"levelo_inurba_marseille","lat":43.324,"lon":5.36711,"is_reserved":false,"is_disabled":false,"rental_uris":{"android":"levelo://app?vid=779e1734-651e-4c56-840c-6d2319b7cadb","ios":"levelo://app?vid=779e1734-651e-4c56-840c-6d2319b7cadb"},"vehicle_type_id":"4","last_reported":1751983843,"current_range_meters":21600,"station_id":"","pricing_plan_id":"cebpf4jnsgd1na2vs0mg"},{"bike_id":"72584d62-bcbd-4a2e-99b6-9262695f5b58","system_id":"levelo_inurba_marseille","lat":43.30875,"lon":5.37206,"is_reserved":false,"is_disabled":false,"rental_uris":{"android":"levelo://app?vid=72584d62-bcbd-4a2e-99b6-9262695f5b58","ios":"levelo://app?vid=72584d62-bcbd-4a2e-99b6-9262695f5b58"},"vehicle_type_id":"4","last_reported":1751983843,"current_range_meters":21600,"station_id":"ce4bguh2rcd13ifvqckg","pricing_plan_id":"cebpf4jnsgd1na2vs0mg"},{"bike_id":"1209fe8a-e378-4741-a1ef-db96c2c0fe10","system_id":"levelo_inurba_marseille","lat":43.28466,"lon":5.3841,"is_reserved":false,"is_disabled":false,"rental_uris":{"android":"levelo://app?vid=1209fe8a-e378-4741-a1ef-db96c2c0fe10","ios":"levelo://app?vid=1209fe8a-e378-4741-a1ef-db96c2c0fe10"},"vehicle_type_id":"4","last_reported":1751983843,"current_range_meters":21600,"station_id":"ce4bh512rcd13ifvqe3g","pricing_plan_id":"cebpf4jnsgd1na2vs0mg"},{"bike_id":"604a98e9-353d-45d8-84ef-4338f352e782","system_id":"levelo_inurba_marseille","lat":43.28941,"lon":5.36403,"is_reserved":false,"is_disabled":false,"rental_uris":{"android":"levelo://app?vid=604a98e9-353d-45d8-84ef-4338f352e782","ios":"levelo://app?vid=604a98e9-353d-45d8-84ef-4338f352e782"},"vehicle_type_id":"4","last_reported":1751983843,"current_range_meters":21600,"station_id":"ce4bhc92rcd13ifvqetg","pricing_plan_id":"cebpf4jnsgd1na2vs0mg"},{"bike_id":"40fa92fc-f934-431e-b290-17833f63b829","system_id":"levelo_inurba_marseille","lat":43.23173,"lon":5.35714,"is_reserved":false,"is_disabled":false,"rental_uris":{"android":"levelo://app?vid=40fa92fc-f934-431e-b290-17833f63b829","ios":"levelo://app?vid=40fa92fc-f934-431e-b290-17833f63b829"},"vehicle_type_id":"4","last_reported":1751983843,"current_range_meters":22000,"station_id":"","pricing_plan_id":"cebpf4jnsgd1na2vs0mg"},{"bike_id":"999f2a33-af15-4ca0-853a-d2550f2d6574","system_id":"levelo_inurba_marseille","lat":43.234477,"lon":5.359413,"is_reserved":false,"is_disabled":false,"rental_uris":{"android":"levelo://app?vid=999f2a33-af15-4ca0-853a-d2550f2d6574","ios":"levelo://app?vid=999f2a33-af15-4ca0-853a-d2550f2d6574"},"vehicle_type_id":"4","last_reported":1751983843,"current_range_meters":22000,"station_id":"","pricing_plan_id":"cebpf4jnsgd1na2vs0mg"},{"bike_id":"306ce1a6-757b-4897-8796-d879ee9a33eb","system_id":"levelo_inurba_marseille","lat":43.29128,"lon":5.40866,"is_reserved":false,"is_disabled":false,"rental_uris":{"android":"levelo://app?vid=306ce1a6-757b-4897-8796-d879ee9a33eb","ios":"levelo://app?vid=306ce1a6-757b-4897-8796-d879ee9a33eb"},"vehicle_type_id":"4","last_reported":1751983843,"current_range_meters":22000,"station_id":"","pricing_plan_id":"cebpf4jnsgd1na2vs0mg"},{"bike_id":"799bcea9-5b25-4874-8ea7-6fd8ae7b818e","system_id":"levelo_inurba_marseille","lat":43.30145,"lon":5.38086,"is_reserved":false,"is_disabled":false,"rental_uris":{"android":"levelo://app?vid=799bcea9-5b25-4874-8ea7-6fd8ae7b818e","ios":"levelo://app?vid=799bcea9-5b25-4874-8ea7-6fd8ae7b818e"},"vehicle_type_id":"4","last_reported":1751983843,"current_range_meters":22000,"station_id":"ce4bgjp2rcd13ifvqbh0","pricing_plan_id":"cebpf4jnsgd1na2vs0mg"},{"bike_id":"7bfa94ea-8973-475e-94f6-f59e4eae846f","system_id":"levelo_inurba_marseille","lat":43.29935,"lon":5.36553,"is_reserved":false,"is_disabled":false,"rental_uris":{"android":"levelo://app?vid=7bfa94ea-8973-475e-94f6-f59e4eae846f","ios":"levelo://app?vid=7bfa94ea-8973-475e-94f6-f59e4eae846f"},"vehicle_type_id":"4","last_reported":1751983843,"current_range_meters":22000,"station_id":"ce4bgm92rcd13ifvqbr0","pricing_plan_id":"cebpf4jnsgd1na2vs0mg"},{"bike_id":"bdd35582-b253-4864-9c58-1b41d966f02c","system_id":"levelo_inurba_marseille","lat":43.2919,"lon":5.39319,"is_reserved":false,"is_disabled":false,"rental_uris":{"android":"levelo://app?vid=bdd35582-b253-4864-9c58-1b41d966f02c","ios":"levelo://app?vid=bdd35582-b253-4864-9c58-1b41d966f02c"},"vehicle_type_id":"4","last_reported":1751983843,"current_range_meters":22000,"station_id":"ce4bh192rcd13ifvqdd0","pricing_plan_id":"cebpf4jnsgd1na2vs0mg"},{"bike_id":"1e3bfec9-2668-4a4d-ad51-5402bd721c05","system_id":"levelo_inurba_marseille","lat":43.25491,"lon":5.37646,"is_reserved":false,"is_disabled":false,"rental_uris":{"android":"levelo://app?vid=1e3bfec9-2668-4a4d-ad51-5402bd721c05","ios":"levelo://app?vid=1e3bfec9-2668-4a4d-ad51-5402bd721c05"},"vehicle_type_id":"4","last_reported":1751983843,"current_range_meters":22000,"station_id":"ce4bhh12rcd13ifvqff0","pricing_plan_id":"cebpf4jnsgd1na2vs0mg"},{"bike_id":"cfe4010c-2112-4442-8740-784a76333861","system_id":"levelo_inurba_marseille","lat":43.21734,"lon":5.34602,"is_reserved":false,"is_disabled":false,"rental_uris":{"android":"levelo://app?vid=cfe4010c-2112-4442-8740-784a76333861","ios":"levelo://app?vid=cfe4010c-2112-4442-8740-784a76333861"},"vehicle_type_id":"4","last_reported":1751983843,"current_range_meters":22000,"station_id":"st_cvj6r9ubvosntc0bgbag","pricing_plan_id":"cebpf4jnsgd1na2vs0mg"},{"bike_id":"9aa4ab5f-5d11-40fb-b329-694b38fd49cc","system_id":"levelo_inurba_marseille","lat":43.30307,"lon":5.37705,"is_reserved":false,"is_disabled":false,"rental_uris":{"android":"levelo://app?vid=9aa4ab5f-5d11-40fb-b329-694b38fd49cc","ios":"levelo://app?vid=9aa4ab5f-5d11-40fb-b329-694b38fd49cc"},"vehicle_type_id":"4","last_reported":1751983843,"current_range_meters":22400,"station_id":"ce4bguh2rcd13ifvqcj0","pricing_plan_id":"cebpf4jnsgd1na2vs0mg"},{"bike_id":"ee2269ef-86f9-4a32-af59-df38e7d1caf1","system_id":"levelo_inurba_marseille","lat":43.29213,"lon":5.36065,"is_reserved":false,"is_disabled":false,"rental_uris":{"android":"levelo://app?vid=ee2269ef-86f9-4a32-af59-df38e7d1caf1","ios":"levelo://app?vid=ee2269ef-86f9-4a32-af59-df38e7d1caf1"},"vehicle_type_id":"4","last_reported":1751983843,"current_range_meters":22400,"station_id":"ce4bhbh2rcd13ifvqeqg","pricing_plan_id":"cebpf4jnsgd1na2vs0mg"},{"bike_id":"01fd2969-88ba-423b-9244-ec06a5c1df66","system_id":"levelo_inurba_marseille","lat":43.26221,"lon":5.37449,"is_reserved":false,"is_disabled":false,"rental_uris":{"android":"levelo://app?vid=01fd2969-88ba-423b-9244-ec06a5c1df66","ios":"levelo://app?vid=01fd2969-88ba-423b-9244-ec06a5c1df66"},"vehicle_type_id":"4","last_reported":1751983843,"current_range_meters":22400,"station_id":"ce4bhgp2rcd13ifvqfc0","pricing_plan_id":"cebpf4jnsgd1na2vs0mg"},{"bike_id":"ce97a356-6256-4c1a-b8aa-b8238d400db3","system_id":"levelo_inurba_marseille","lat":43.27808,"lon":5.40714,"is_reserved":false,"is_disabled":false,"rental_uris":{"android":"levelo://app?vid=ce97a356-6256-4c1a-b8aa-b8238d400db3","ios":"levelo://app?vid=ce97a356-6256-4c1a-b8aa-b8238d400db3"},"vehicle_type_id":"4","last_reported":1751983843,"current_range_meters":22400,"station_id":"ce4bhnh2rcd13ifvqgtg","pricing_plan_id":"cebpf4jnsgd1na2vs0mg"},{"bike_id":"c0735136-e0f1-410b-b7bc-03f3deffba27","system_id":"levelo_inurba_marseille","lat":43.21731,"lon":5.34614,"is_reserved":false,"is_disabled":false,"rental_uris":{"android":"levelo://app?vid=c0735136-e0f1-410b-b7bc-03f3deffba27","ios":"levelo://app?vid=c0735136-e0f1-410b-b7bc-03f3deffba27"},"vehicle_type_id":"4","last_reported":1751983843,"current_range_meters":22400,"station_id":"st_cvj6r9ubvosntc0bgbag","pricing_plan_id":"cebpf4jnsgd1na2vs0mg"},{"bike_id":"db4b2392-1699-4e33-a383-3e82af59e18a","system_id":"levelo_inurba_marseille","lat":43.29936,"lon":5.36538,"is_reserved":false,"is_disabled":false,"rental_uris":{"android":"levelo://app?vid=db4b2392-1699-4e33-a383-3e82af59e18a","ios":"levelo://app?vid=db4b2392-1699-4e33-a383-3e82af59e18a"},"vehicle_type_id":"4","last_reported":1751983843,"current_range_meters":22800,"station_id":"ce4bgm92rcd13ifvqbr0","pricing_plan_id":"cebpf4jnsgd1na2vs0mg"},{"bike_id":"af7d276e-38c6-411b-906b-5f8d47576c41","system_id":"levelo_inurba_marseille","lat":43.30929,"lon":5.40145,"is_reserved":false,"is_disabled":false,"rental_uris":{"android":"levelo://app?vid=af7d276e-38c6-411b-906b-5f8d47576c41","ios":"levelo://app?vid=af7d276e-38c6-411b-906b-5f8d47576c41"},