{"last_updated":1701684501,"ttl":30,"version":"2.2","data":{"bikes":[{"bike_id":"5b1b5bed-ca5a-414c-9728-36e25ea4caa7","system_id":"levelo_inurba_marseille","lat":43.31341,"lon":5.367098,"is_reserved":false,"is_disabled":false,"rental_uris":{"android":"levelo://app?vid=5b1b5bed-ca5a-414c-9728-36e25ea4caa7","ios":"levelo://app?vid=5b1b5bed-ca5a-414c-9728-36e25ea4caa7"},"vehicle_type_id":"4","last_reported":1701684501,"current_range_meters":31200,"station_id":"ce4bgr92rcd13ifvqc6g","pricing_plan_id":"free"},{"bike_id":"9fd2c2a3-9211-4206-bfa3-f779f0a0bb0a","system_id":"levelo_inurba_marseille","lat":43.31341,"lon":5.367098,"is_reserved":false,"is_disabled":false,"rental_uris":{"android":"levelo://app?vid=9fd2c2a3-9211-4206-bfa3-f779f0a0bb0a","ios":"levelo://app?vid=9fd2c2a3-9211-4206-bfa3-f779f0a0bb0a"},"vehicle_type_id":"4","last_reported":1701684501,"current_range_meters":32000,"station_id":"ce4bgr92rcd13ifvqc6g","pricing_plan_id":"free"},{"bike_id":"7761dd5b-4f3b-4342-9d88-90a06e46ccc0","system_id":"levelo_inurba_marseille","lat":43.31341,"lon":5.367098,"is_reserved":false,"is_disabled":false,"rental_uris":{"android":"levelo://app?vid=7761dd5b-4f3b-4342-9d88-90a06e46ccc0","ios":"levelo://app?vid=7761dd5b-4f3b-4342-9d88-90a06e46ccc0"},"vehicle_type_id":"4","last_reported":1701684501,"current_range_meters":25600,"station_id":"ce4bgr92rcd13ifvqc6g","pricing_plan_id":"free"},{"bike_id":"0a256dd4-efc7-41da-a03e-0f8cf2240442","system_id":"levelo_inurba_marseille","lat":43.31341,"lon":5.367098,"is_reserved":false,"is_disabled":false,"rental_uris":{"android":"levelo://app?vid=0a256dd4-efc7-41da-a03e-0f8cf2240442","ios":"levelo://app?vid=0a256dd4-efc7-41da-a03e-0f8cf2240442"},"vehicle_type_id":"4","last_reported":1701684501,"current_range_meters":29200,"station_id":"ce4bgr92rcd13ifvqc6g","pricing_plan_id":"free"},{"bike_id":"329896f5-e6d6-4f46-ba59-d0c444e5a534","system_id":"levelo_inurba_marseille","lat":43.313391,"lon":5.36706,"is_reserved":false,"is_disabled":false,"rental_uris":{"android":"levelo://app?vid=329896f5-e6d6-4f46-ba59-d0c444e5a534","ios":"levelo://app?vid=329896f5-e6d6-4f46-ba59-d0c444e5a534"},"vehicle_type_id":"4","last_reported":1701684501,"current_range_meters":16000,"station_id":"ce4bgr92rcd13ifvqc6g","pricing_plan_id":"free"},{"bike_id":"1d1266c1-f156-4ba9-8684-af505cad0dc4","system_id":"levelo_inurba_marseille","lat":43.31341,"lon":5.367098,"is_reserved":false,"is_disabled":false,"rental_uris":{"android":"levelo://app?vid=1d1266c1-f156-4ba9-8684-af505cad0dc4","ios":"levelo://app?vid=1d1266c1-f156-4ba9-8684-af505cad0dc4"},"vehicle_type_id":"4","last_reported":1701684501,"current_range_meters":27200,"station_id":"ce4bgr92rcd13ifvqc6g","pricing_plan_id":"free"},{"bike_id":"7d010324-72b9-4171-b0f6-ae456597a9b2","system_id":"levelo_inurba_marseille","lat":43.31341,"lon":5.367098,"is_reserved":false,"is_disabled":false,"rental_uris":{"android":"levelo://app?vid=7d010324-72b9-4171-b0f6-ae456597a9b2","ios":"levelo://app?vid=7d010324-72b9-4171-b0f6-ae456597a9b2"},"vehicle_type_id":"4","last_reported":1701684501,"current_range_meters":26800,"station_id":"ce4bgr92rcd13ifvqc6g","pricing_plan_id":"free"},{"bike_id":"549e12a1-62c9-4bbb-9a3a-a61e019544aa","system_id":"levelo_inurba_marseille","lat":43.313391,"lon":5.36706,"is_reserved":false,"is_disabled":false,"rental_uris":{"android":"levelo://app?vid=549e12a1-62c9-4bbb-9a3a-a61e019544aa","ios":"levelo://app?vid=549e12a1-62c9-4bbb-9a3a-a61e019544aa"},"vehicle_type_id":"4","last_reported":1701684501,"current_range_meters":31600,"station_id":"ce4bgr92rcd13ifvqc6g","pricing_plan_id":"free"},{"bike_id":"93bc443b-95f1-4e8b-aa1e-4ae50e6b89d7","system_id":"levelo_inurba_marseille","lat":43.313391,"lon":5.36706,"is_reserved":false,"is_disabled":false,"rental_uris":{"android":"levelo://app?vid=93bc443b-95f1-4e8b-aa1e-4ae50e6b89d7","ios":"levelo://app?vid=93bc443b-95f1-4e8b-aa1e-4ae50e6b89d7"},"vehicle_type_id":"4","last_reported":1701684501,"current_range_meters":20400,"station_id":"ce4bgr92rcd13ifvqc6g","pricing_plan_id":"free"},{"bike_id":"f6c69f67-bcc4-4ecc-9133-ea97d071d7ee","system_id":"levelo_inurba_marseille","lat":43.313391,"lon":5.36706,"is_reserved":false,"is_disabled":false,"rental_uris":{"android":"levelo://app?vid=f6c69f67-bcc4-4ecc-9133-ea97d071d7ee","ios":"levelo://app?vid=f6c69f67-bcc4-4ecc-9133-ea97d071d7ee"},"vehicle_type_id":"4","last_reported":1701684501,"current_range_meters":8800,"station_id":"ce4bgr92rcd13ifvqc6g","pricing_plan_id":"free"},{"bike_id":"d769e570-e7b8-4fb3-807d-9df912daee7c","system_id":"levelo_inurba_marseille","lat":43.313391,"lon":5.36706,"is_reserved":false,"is_disabled":false,"rental_uris":{"android":"levelo://app?vid=d769e570-e7b8-4fb3-807d-9df912daee7c","ios":"levelo://app?vid=d769e570-e7b8-4fb3-807d-9df912daee7c"},"vehicle_type_id":"4","last_reported":1701684501,"current_range_meters":14400,"station_id":"ce4bgr92rcd13ifvqc6g","pricing_plan_id":"free"},{"bike_id":"0637ab4b-796f-4481-bf55-db78446d9143","system_id":"levelo_inurba_marseille","lat":43.313391,"lon":5.36706,"is_reserved":false,"is_disabled":false,"rental_uris":{"android":"levelo://app?vid=0637ab4b-796f-4481-bf55-db78446d9143","ios":"levelo://app?vid=0637ab4b-796f-4481-bf55-db78446d9143"},"vehicle_type_id":"4","last_reported":1701684501,"current_range_meters":14400,"station_id":"ce4bgr92rcd13ifvqc6g","pricing_plan_id":"free"},{"bike_id":"eaf80ade-1f68-4fe7-b62d-1e9bba26c62e","system_id":"levelo_inurba_marseille","lat":43.313391,"lon":5.36706,"is_reserved":false,"is_disabled":false,"rental_uris":{"android":"levelo://app?vid=eaf80ade-1f68-4fe7-b62d-1e9bba26c62e","ios":"levelo://app?vid=eaf80ade-1f68-4fe7-b62d-1e9bba26c62e"},"vehicle_type_id":"4","last_reported":1701684501,"current_range_meters":14800,"station_id":"ce4bgr92rcd13ifvqc6g","pricing_plan_id":"free"},{"bike_id":"285c93d8-a911-4b68-b9ca-c285ac9c9041","system_id":"levelo_inurba_marseille","lat":43.312239,"lon":5.368562,"is_reserved":false,"is_disabled":false,"rental_uris":{"android":"levelo://app?vid=285c93d8-a911-4b68-b9ca-c285ac9c9041","ios":"levelo://app?vid=285c93d8-a911-4b68-b9ca-c285ac9c9041"},"vehicle_type_id":"4","last_reported":1701684501,"current_range_meters":9600,"station_id":"ce4bgl92rcd13ifvqbq0","pricing_plan_id":"free"},{"bike_id":"b23b0555-d909-4bcd-8bce-44dfdd786222","system_id":"levelo_inurba_marseille","lat":43.312239,"lon":5.368562,"is_reserved":false,"is_disabled":false,"rental_uris":{"android":"levelo://app?vid=b23b0555-d909-4bcd-8bce-44dfdd786222","ios":"levelo://app?vid=b23b0555-d909-4bcd-8bce-44dfdd786222"},"vehicle_type_id":"4","last_reported":1701684501,"current_range_meters":17200,"station_id":"ce4bgl92rcd13ifvqbq0","pricing_plan_id":"free"},{"bike_id":"49971ac8-eb05-4661-8b00-5548faed97d1","system_id":"levelo_inurba_marseille","lat":43.312239,"lon":5.368562,"is_reserved":false,"is_disabled":false,"rental_uris":{"android":"levelo://app?vid=49971ac8-eb05-4661-8b00-5548faed97d1","ios":"levelo://app?vid=49971ac8-eb05-4661-8b00-5548faed97d1"},"vehicle_type_id":"4","last_reported":1701684501,"current_range_meters":22400,"station_id":"ce4bgl92rcd13ifvqbq0","pricing_plan_id":"free"},{"bike_id":"8e9566f4-bb76-47ca-92f2-69cf9756d197","system_id":"levelo_inurba_marseille","lat":43.312192,"lon":5.368582,"is_reserved":false,"is_disabled":false,"rental_uris":{"android":"levelo://app?vid=8e9566f4-bb76-47ca-92f2-69cf9756d197","ios":"levelo://app?vid=8e9566f4-bb76-47ca-92f2-69cf9756d197"},"vehicle_type_id":"4","last_reported":1701684501,"current_range_meters":15200,"station_id":"ce4bgl92rcd13ifvqbq0","pricing_plan_id":"free"},{"bike_id":"098b0466-e4f7-41b5-808a-9e90540f65a9","system_id":"levelo_inurba_marseille","lat":43.309076,"lon":5.368465,"is_reserved":false,"is_disabled":false,"rental_uris":{"android":"levelo://app?vid=098b0466-e4f7-41b5-808a-9e90540f65a9","ios":"levelo://app?vid=098b0466-e4f7-41b5-808a-9e90540f65a9"},"vehicle_type_id":"4","last_reported":1701684501,"current_range_meters":5600,"station_id":"ce4bgn92rcd13ifvqbvg","pricing_plan_id":"free"},{"bike_id":"320857b5-a322-4f83-8ab0-a1dcf3ff272c","system_id":"levelo_inurba_marseille","lat":43.309076,"lon":5.368465,"is_reserved":false,"is_disabled":false,"rental_uris":{"android":"levelo://app?vid=320857b5-a322-4f83-8ab0-a1dcf3ff272c","ios":"levelo://app?vid=320857b5-a322-4f83-8ab0-a1dcf3ff272c"},"vehicle_type_id":"4","last_reported":1701684501,"current_range_meters":31200,"station_id":"ce4bgn92rcd13ifvqbvg","pricing_plan_id":"free"},{"bike_id":"26692493-2092-4545-8734-a8463f83838c","system_id":"levelo_inurba_marseille","lat":43.309076,"lon":5.368465,"is_reserved":false,"is_disabled":false,"rental_uris":{"android":"levelo://app?vid=26692493-2092-4545-8734-a8463f83838c","ios":"levelo://app?vid=26692493-2092-4545-8734-a8463f83838c"},"vehicle_type_id":"4","last_reported":1701684501,"current_range_meters":27600,"station_id":"ce4bgn92rcd13ifvqbvg","pricing_plan_id":"free"},{"bike_id":"cfd17f12-bb3c-4c24-bef7-085990ad9ce2","system_id":"levelo_inurba_marseille","lat":43.309076,"lon":5.368465,"is_reserved":false,"is_disabled":false,"rental_uris":{"android":"levelo://app?vid=cfd17f12-bb3c-4c24-bef7-085990ad9ce2","ios":"levelo://app?vid=cfd17f12-bb3c-4c24-bef7-085990ad9ce2"},"vehicle_type_id":"4","last_reported":1701684501,"current_range_meters":18400,"station_id":"ce4bgn92rcd13ifvqbvg","pricing_plan_id":"free"},{"bike_id":"4201e1d5-a13b-45f7-85c8-47c917f6277f","system_id":"levelo_inurba_marseille","lat":43.309076,"lon":5.368465,"is_reserved":false,"is_disabled":false,"rental_uris":{"android":"levelo://app?vid=4201e1d5-a13b-45f7-85c8-47c917f6277f","ios":"levelo://app?vid=4201e1d5-a13b-45f7-85c8-47c917f6277f"},"vehicle_type_id":"4","last_reported":1701684501,"current_range_meters":23600,"station_id":"ce4bgn92rcd13ifvqbvg","pricing_plan_id":"free"},{"bike_id":"6c84a195-8bf2-4490-a4e2-48550505377d","system_id":"levelo_inurba_marseille","lat":43.309076,"lon":5.368465,"is_reserved":false,"is_disabled":false,"rental_uris":{"android":"levelo://app?vid=6c84a195-8bf2-4490-a4e2-48550505377d","ios":"levelo://app?vid=6c84a195-8bf2-4490-a4e2-48550505377d"},"vehicle_type_id":"4","last_reported":1701684501,"current_range_meters":12400,"station_id":"ce4bgn92rcd13ifvqbvg","pricing_plan_id":"free"},{"bike_id":"e706824d-ab97-49a0-9082-08cfe2c74a92","system_id":"levelo_inurba_marseille","lat":43.309076,"lon":5.368465,"is_reserved":false,"is_disabled":false,"rental_uris":{"android":"levelo://app?vid=e706824d-ab97-49a0-9082-08cfe2c74a92","ios":"levelo://app?vid=e706824d-ab97-49a0-9082-08cfe2c74a92"},"vehicle_type_id":"4","last_reported":1701684501,"current_range_meters":29600,"station_id":"ce4bgn92rcd13ifvqbvg","pricing_plan_id":"free"},{"bike_id":"567f62f8-7be0-40fb-b015-e330b3255b7c","system_id":"levelo_inurba_marseille","lat":43.309076,"lon":5.368465,"is_reserved":false,"is_disabled":false,"rental_uris":{"android":"levelo://app?vid=567f62f8-7be0-40fb-b015-e330b3255b7c","ios":"levelo://app?vid=567f62f8-7be0-40fb-b015-e330b3255b7c"},"vehicle_type_id":"4","last_reported":1701684501,"current_range_meters":11200,"station_id":"ce4bgn92rcd13ifvqbvg","pricing_plan_id":"free"},{"bike_id":"abb3b8ca-30ec-4588-a269-c946154c4ef7","system_id":"levelo_inurba_marseille","lat":43.305407,"lon":5.367024,"is_reserved":false,"is_disabled":false,"rental_uris":{"android":"levelo://app?vid=abb3b8ca-30ec-4588-a269-c946154c4ef7","ios":"levelo://app?vid=abb3b8ca-30ec-4588-a269-c946154c4ef7"},"vehicle_type_id":"4","last_reported":1701684501,"current_range_meters":13600,"station_id":"ce4bgrp2rcd13ifvqc9g","pricing_plan_id":"free"},{"bike_id":"baa1ddcc-7c38-4f7d-89ac-ac0924fe5606","system_id":"levelo_inurba_marseille","lat":43.305714,"lon":5.365633,"is_reserved":false,"is_disabled":false,"rental_uris":{"android":"levelo://app?vid=baa1ddcc-7c38-4f7d-89ac-ac0924fe5606","ios":"levelo://app?vid=baa1ddcc-7c38-4f7d-89ac-ac0924fe5606"},"vehicle_type_id":"4","last_reported":1701684501,"current_range_meters":29600,"station_id":"ce4bgs12rcd13ifvqcag","pricing_plan_id":"free"},{"bike_id":"3a8ae7ec-0adf-427d-851b-77bd40457721","system_id":"levelo_inurba_marseille","lat":43.30536,"lon":5.36716,"is_reserved":false,"is_disabled":false,"rental_uris":{"android":"levelo://app?vid=3a8ae7ec-0adf-427d-851b-77bd40457721","ios":"levelo://app?vid=3a8ae7ec-0adf-427d-851b-77bd40457721"},"vehicle_type_id":"4","last_reported":1701684501,"current_range_meters":9200,"station_id":"ce4bgrp2rcd13ifvqc9g","pricing_plan_id":"free"},{"bike_id":"f25d3ec8-5180-444a-af8d-e8a66bc108e7","system_id":"levelo_inurba_marseille","lat":43.305714,"lon":5.365633,"is_reserved":false,"is_disabled":false,"rental_uris":{"android":"levelo://app?vid=f25d3ec8-5180-444a-af8d-e8a66bc108e7","ios":"levelo://app?vid=f25d3ec8-5180-444a-af8d-e8a66bc108e7"},"vehicle_type_id":"4","last_reported":1701684501,"current_range_meters":30400,"station_id":"ce4bgs12rcd13ifvqcag","pricing_plan_id":"free"},{"bike_id":"5b4514ee-3246-4558-9d4c-abc2e52c24e7","system_id":"levelo_inurba_marseille","lat":43.305706,"lon":5.365654,"is_reserved":false,"is_disabled":false,"rental_uris":{"android":"levelo://app?vid=5b4514ee-3246-4558-9d4c-abc2e52c24e7","ios":"levelo://app?vid=5b4514ee-3246-4558-9d4c-abc2e52c24e7"},"vehicle_type_id":"4","last_reported":1701684501,"current_range_meters":26000,"station_id":"ce4bgs12rcd13ifvqcag","pricing_plan_id":"free"},{"bike_id":"5d597ddc-1808-4b9b-82bd-5e6a70aefaca","system_id":"levelo_inurba_marseille","lat":43.31941,"lon":5.373325,"is_reserved":false,"is_disabled":false,"rental_uris":{"android":"levelo://app?vid=5d597ddc-1808-4b9b-82bd-5e6a70aefaca","ios":"levelo://app?vid=5d597ddc-1808-4b9b-82bd-5e6a70aefaca"},"vehicle_type_id":"4","last_reported":1701684501,"current_range_meters":0,"station_id":"","pricing_plan_id":"free"},{"bike_id":"e913f328-1e31-4c22-bd87-f809ea246de4","system_id":"levelo_inurba_marseille","lat":43.317168,"lon":5.376883,"is_reserved":false,"is_disabled":false,"rental_uris":{"android":"levelo://app?vid=e913f328-1e31-4c22-bd87-f809ea246de4","ios":"levelo://app?vid=e913f328-1e31-4c22-bd87-f809ea246de4"},"vehicle_type_id":"4","last_reported":1701684501,"current_range_meters":0,"station_id":"","pricing_plan_id":"free"},{"bike_id":"fb6fd937-527b-4585-9058-0dfdc6436ac8","system_id":"levelo_inurba_marseille","lat":43.31351,"lon":5.37909,"is_reserved":false,"is_disabled":false,"rental_uris":{"android":"levelo://app?vid=fb6fd937-527b-4585-9058-0dfdc6436ac8","ios":"levelo://app?vid=fb6fd937-527b-4585-9058-0dfdc6436ac8"},"vehicle_type_id":"4","last_reported":1701684501,"current_range_meters":14400,"station_id":"","pricing_plan_id":"free"},{"bike_id":"33fa7ae6-91d1-4ce4-a868-f95fce5eaedc","system_id":"levelo_inurba_marseille","lat":43.303046,"lon":5.368981,"is_reserved":false,"is_disabled":false,"rental_uris":{"android":"levelo://app?vid=33fa7ae6-91d1-4ce4-a868-f95fce5eaedc","ios":"levelo://app?vid=33fa7ae6-91d1-4ce4-a868-f95fce5eaedc"},"vehicle_type_id":"4","last_reported":1701684501,"current_range_meters":27200,"station_id":"ce4bgqh2rcd13ifvqc5g","pricing_plan_id":"free"},{"bike_id":"e2d07980-b13e-4b8f-841d-905fccb538b6","system_id":"levelo_inurba_marseille","lat":43.303046,"lon":5.368981,"is_reserved":false,"is_disabled":false,"rental_uris":{"android":"levelo://app?vid=e2d07980-b13e-4b8f-841d-905fccb538b6","ios":"levelo://app?vid=e2d07980-b13e-4b8f-841d-905fccb538b6"},"vehicle_type_id":"4","last_reported":1701684501,"current_range_meters":15200,"station_id":"ce4bgqh2rcd13ifvqc5g","pricing_plan_id":"free"},{"bike_id":"4f060e9e-aca2-4257-a6ca-f6628812f38f","system_id":"levelo_inurba_marseille","lat":43.315319,"lon":5.380324,"is_reserved":false,"is_disabled":false,"rental_uris":{"android":"levelo://app?vid=4f060e9e-aca2-4257-a6ca-f6628812f38f","ios":"levelo://app?vid=4f060e9e-aca2-4257-a6ca-f6628812f38f"},"vehicle_type_id":"4","last_reported":1701684501,"current_range_meters":22800,"station_id":"ce4bhsp2rcd13ifvqi50","pricing_plan_id":"free"},{"bike_id":"b2f11747-27e7-47ba-8fcc-f49cb37d9824","system_id":"levelo_inurba_marseille","lat":43.304606,"lon":5.379026,"is_reserved":false,"is_disabled":false,"rental_uris":{"android":"levelo://app?vid=b2f11747-27e7-47ba-8fcc-f49cb37d9824","ios":"levelo://app?vid=b2f11747-27e7-47ba-8fcc-f49cb37d9824"},"vehicle_type_id":"4","last_reported":1701684501,"current_range_meters":24000,"station_id":"ce4bgup2rcd13ifvqcn0","pricing_plan_id":"free"},{"bike_id":"a01a0c4d-e87f-4a3e-85c6-3c2a20af41dc","system_id":"levelo_inurba_marseille","lat":43.304606,"lon":5.379026,"is_reserved":false,"is_disabled":false,"rental_uris":{"android":"levelo://app?vid=a01a0c4d-e87f-4a3e-85c6-3c2a20af41dc","ios":"levelo://app?vid=a01a0c4d-e87f-4a3e-85c6-3c2a20af41dc"},"vehicle_type_id":"4","last_reported":1701684501,"current_range_meters":4400,"station_id":"ce4bgup2rcd13ifvqcn0","pricing_plan_id":"free"},{"bike_id":"0ed70aa2-dc7c-46e5-b124-a9a38bc12c5c","system_id":"levelo_inurba_marseille","lat":43.301429,"lon":5.37413,"is_reserved":false,"is_disabled":false,"rental_uris":{"android":"levelo://app?vid=0ed70aa2-dc7c-46e5-b124-a9a38bc12c5c","ios":"levelo://app?vid=0ed70aa2-dc7c-46e5-b124-a9a38bc12c5c"},"vehicle_type_id":"4","last_reported":1701684501,"current_range_meters":14800,"station_id":"ce4bgs92rcd13ifvqcc0","pricing_plan_id":"free"},{"bike_id":"667c2851-3d28-498b-9c47-1fd6035b6509","system_id":"levelo_inurba_marseille","lat":43.302784,"lon":5.377158,"is_reserved":false,"is_disabled":false,"rental_uris":{"android":"levelo://app?vid=667c2851-3d28-498b-9c47-1fd6035b6509","ios":"levelo://app?vid=667c2851-3d28-498b-9c47-1fd6035b6509"},"vehicle_type_id":"4","last_reported":1701684501,"current_range_meters":26000,"station_id":"ce4bguh2rcd13ifvqcj0","pricing_plan_id":"free"},{"bike_id":"0b801cce-c48e-49e4-ac72-6e2a8952985a","system_id":"levelo_inurba_marseille","lat":43.301429,"lon":5.37413,"is_reserved":false,"is_disabled":false,"rental_uris":{"android":"levelo://app?vid=0b801cce-c48e-49e4-ac72-6e2a8952985a","ios":"levelo://app?vid=0b801cce-c48e-49e4-ac72-6e2a8952985a"},"vehicle_type_id":"4","last_reported":1701684501,"current_range_meters":28400,"station_id":"ce4bgs92rcd13ifvqcc0","pricing_plan_id":"free"},{"bike_id":"2275aca5-3158-4c2c-8022-ca5d2714bc86","system_id":"levelo_inurba_marseille","lat":43.319997,"lon":5.381594,"is_reserved":false,"is_disabled":false,"rental_uris":{"android":"levelo://app?vid=2275aca5-3158-4c2c-8022-ca5d2714bc86","ios":"levelo://app?vid=2275aca5-3158-4c2c-8022-ca5d2714bc86"},"vehicle_type_id":"4","last_reported":1701684501,"current_range_meters":8000,"station_id":"ce4bhr12rcd13ifvqhpg","pricing_plan_id":"free"},{"bike_id":"9fdb7f97-586d-42d2-befd-15216ba2e422","system_id":"levelo_inurba_marseille","lat":43.31183,"lon":5.38523,"is_reserved":false,"is_disabled":false,"rental_uris":{"android":"levelo://app?vid=9fdb7f97-586d-42d2-befd-15216ba2e422","ios":"levelo://app?vid=9fdb7f97-586d-42d2-befd-15216ba2e422"},"vehicle_type_id":"4","last_reported":1701684501,"current_range_meters":0,"station_id":"","pricing_plan_id":"free"},{"bike_id":"b8e472a2-8140-4330-9893-8fd8c62848ff","system_id":"levelo_inurba_marseille","lat":43.305364,"lon":5.384119,"is_reserved":false,"is_disabled":false,"rental_uris":{"android":"levelo://app?vid=b8e472a2-8140-4330-9893-8fd8c62848ff","ios":"levelo://app?vid=b8e472a2-8140-4330-9893-8fd8c62848ff"},"vehicle_type_id":"4","last_reported":1701684501,"current_range_meters":26800,"station_id":"ce4bgg92rcd13ifvqb30","pricing_plan_id":"free"},{"bike_id":"7b270567-40da-453b-8c37-a37b285f8ebf","system_id":"levelo_inurba_marseille","lat":43.29822,"lon":5.36547,"is_reserved":false,"is_disabled":false,"rental_uris":{"android":"levelo://app?vid=7b270567-40da-453b-8c37-a37b285f8ebf","ios":"levelo://app?vid=7b270567-40da-453b-8c37-a37b285f8ebf"},"vehicle_type_id":"4","last_reported":1701684501,"current_range_meters":18800,"station_id":"","pricing_plan_id":"free"},{"bike_id":"6bd0c11d-ff47-415c-9962-843dbce0d5eb","system_id":"levelo_inurba_marseille","lat":43.305364,"lon":5.384119,"is_reserved":false,"is_disabled":false,"rental_uris":{"android":"levelo://app?vid=6bd0c11d-ff47-415c-9962-843dbce0d5eb","ios":"levelo://app?vid=6bd0c11d-ff47-415c-9962-843dbce0d5eb"},"vehicle_type_id":"4","last_reported":1701684501,"current_range_meters":23200,"station_id":"ce4bgg92rcd13ifvqb30","pricing_plan_id":"free"},{"bike_id":"a02170d4-6a84-4254-a317-c4c137874b8b","system_id":"levelo_inurba_marseille","lat":43.298433,"lon":5.362774,"is_reserved":false,"is_disabled":false,"rental_uris":{"android":"levelo://app?vid=a02170d4-6a84-4254-a317-c4c137874b8b","ios":"levelo://app?vid=a02170d4-6a84-4254-a317-c4c137874b8b"},"vehicle_type_id":"4","last_reported":1701684501,"current_range_meters":14800,"station_id":"ce4bgpp2rcd13ifvqc3g","pricing_plan_id":"free"},{"bike_id":"4c61f1d7-b68f-424e-92b1-0e437fae88b9","system_id":"levelo_inurba_marseille","lat":43.298433,"lon":5.362774,"is_reserved":false,"is_disabled":false,"rental_uris":{"android":"levelo://app?vid=4c61f1d7-b68f-424e-92b1-0e437fae88b9","ios":"levelo://app?vid=4c61f1d7-b68f-424e-92b1-0e437fae88b9"},"vehicle_type_id":"4","last_reported":1701684501,"current_range_meters":25600,"station_id":"ce4bgpp2rcd13ifvqc3g","pricing_plan_id":"free"},{"bike_id":"620ce715-03d9-4fb5-9895-6968fc4b73c0","system_id":"levelo_inurba_marseille","lat":43.297794,"lon":5.370888,"is_reserved":false,"is_disabled":false,"rental_uris":{"android":"levelo://app?vid=620ce715-03d9-4fb5-9895-6968fc4b73c0","ios":"levelo://app?vid=620ce715-03d9-4fb5-9895-6968fc4b73c0"},"vehicle_type_id":"4","last_reported":1701684501,"current_range_meters":26400,"station_id":"ce4bgop2rcd13ifvqc1g","pricing_plan_id":"free"},{"bike_id":"cdd6948d-41bb-4104-b1c8-abe1b06e0800","system_id":"levelo_inurba_marseille","lat":43.297774,"lon":5.370875,"is_reserved":false,"is_disabled":false,"rental_uris":{"android":"levelo://app?vid=cdd6948d-41bb-4104-b1c8-abe1b06e0800","ios":"levelo://app?vid=cdd6948d-41bb-4104-b1c8-abe1b06e0800"},"vehicle_type_id":"4","last_reported":1701684501,"current_range_meters":28000,"station_id":"ce4bgop2rcd13ifvqc1g","pricing_plan_id":"free"},{"bike_id":"c477d28a-023f-48dc-9b5a-c3f6bad6c889","system_id":"levelo_inurba_marseille","lat":43.32827,"lon":5.3668,"is_reserved":false,"is_disabled":false,"rental_uris":{"android":"levelo://app?vid=c477d28a-023f-48dc-9b5a-c3f6bad6c889","ios":"levelo://app?vid=c477d28a-023f-48dc-9b5a-c3f6bad6c889"},"vehicle_type_id":"4","last_reported":1701684501,"current_range_meters":22000,"station_id":"ce4bhs92rcd13ifvqi0g","pricing_plan_id":"free"},{"bike_id":"c6ce3b8f-2076-4eb8-b7d5-d674dca50e8e","system_id":"levelo_inurba_marseille","lat":43.328371,"lon":5.366909,"is_reserved":false,"is_disabled":false,"rental_uris":{"android":"levelo://app?vid=c6ce3b8f-2076-4eb8-b7d5-d674dca50e8e","ios":"levelo://app?vid=c6ce3b8f-2076-4eb8-b7d5-d674dca50e8e"},"vehicle_type_id":"4","last_reported":1701684501,"current_range_meters":7200,"station_id":"ce4bhs92rcd13ifvqi0g","pricing_plan_id":"free"},{"bike_id":"f8284d70-c5e7-490d-9c5a-74a62dd38512","system_id":"levelo_inurba_marseille","lat":43.3283,"lon":5.36666,"is_reserved":false,"is_disabled":false,"rental_uris":{"android":"levelo://app?vid=f8284d70-c5e7-490d-9c5a-74a62dd38512","ios":"levelo://app?vid=f8284d70-c5e7-490d-9c5a-74a62dd38512"},"vehicle_type_id":"4","last_reported":1701684501,"current_range_meters":13600,"station_id":"ce4bhs92rcd13ifvqi0g","pricing_plan_id":"free"},{"bike_id":"8874ef37-d11b-4860-b7df-daab8952a737","system_id":"levelo_inurba_marseille","lat":43.328371,"lon":5.366909,"is_reserved":false,"is_disabled":false,"rental_uris":{"android":"levelo://app?vid=8874ef37-d11b-4860-b7df-daab8952a737","ios":"levelo://app?vid=8874ef37-d11b-4860-b7df-daab8952a737"},"vehicle_type_id":"4","last_reported":1701684501,"current_range_meters":20000,"station_id":"ce4bhs92rcd13ifvqi0g","pricing_plan_id":"free"},{"bike_id":"d0d5c39d-ba06-4d02-a3a8-e824946b5f23","system_id":"levelo_inurba_marseille","lat":43.328371,"lon":5.366909,"is_reserved":false,"is_disabled":false,"rental_uris":{"android":"levelo://app?vid=d0d5c39d-ba06-4d02-a3a8-e824946b5f23","ios":"levelo://app?vid=d0d5c39d-ba06-4d02-a3a8-e824946b5f23"},"vehicle_type_id":"4","last_reported":1701684501,"current_range_meters":28800,"station_id":"ce4bhs92rcd13ifvqi0g","pricing_plan_id":"free"},{"bike_id":"5c26bdfb-7b7c-43fb-8a01-250128a1a6f8","system_id":"levelo_inurba_marseille","lat":43.29805,"lon":5.3743,"is_reserved":false,"is_disabled":false,"rental_uris":{"android":"levelo://app?vid=5c26bdfb-7b7c-43fb-8a01-250128a1a6f8","ios":"levelo://app?vid=5c26bdfb-7b7c-43fb-8a01-250128a1a6f8"},"vehicle_type_id":"4","last_reported":1701684501,"current_range_meters":20800,"station_id":"","pricing_plan_id":"free"},{"bike_id":"fa3383d1-816b-40fb-95f1-257b50fc00ab","system_id":"levelo_inurba_marseille","lat":43.297163,"lon":5.365866,"is_reserved":false,"is_disabled":false,"rental_uris":{"android":"levelo://app?vid=fa3383d1-816b-40fb-95f1-257b50fc00ab","ios":"levelo://app?vid=fa3383d1-816b-40fb-95f1-257b50fc00ab"},"vehicle_type_id":"4","last_reported":1701684501,"current_range_meters":28400,"station_id":"ce4bgn12rcd13ifvqbt0","pricing_plan_id":"free"},{"bike_id":"3dd0d15c-5365-4722-8cb5-37061c5d6070","system_id":"levelo_inurba_marseille","lat":43.29573,"lon":5.367355,"is_reserved":false,"is_disabled":false,"rental_uris":{"android":"levelo://app?vid=3dd0d15c-5365-4722-8cb5-37061c5d6070","ios":"levelo://app?vid=3dd0d15c-5365-4722-8cb5-37061c5d6070"},"vehicle_type_id":"4","last_reported":1701684501,"current_range_meters":22400,"station_id":"ce4bgph2rcd13ifvqc2g","pricing_plan_id":"free"},{"bike_id":"eaa0e7e7-2390-47fa-909b-7b240952cbef","system_id":"levelo_inurba_marseille","lat":43.316538,"lon":5.38954,"is_reserved":false,"is_disabled":false,"rental_uris":{"android":"levelo://app?vid=eaa0e7e7-2390-47fa-909b-7b240952cbef","ios":"levelo://app?vid=eaa0e7e7-2390-47fa-909b-7b240952cbef"},"vehicle_type_id":"4","last_reported":1701684501,"current_range_meters":17600,"station_id":"","pricing_plan_id":"free"},{"bike_id":"4548ab25-66bb-4382-835b-566fd347fcac","system_id":"levelo_inurba_marseille","lat":43.309589,"lon":5.390258,"is_reserved":false,"is_disabled":false,"rental_uris":{"android":"levelo://app?vid=4548ab25-66bb-4382-835b-566fd347fcac","ios":"levelo://app?vid=4548ab25-66bb-4382-835b-566fd347fcac"},"vehicle_type_id":"4","last_reported":1701684501,"current_range_meters":6400,"station_id":"ce4bgup2rcd13ifvqco0","pricing_plan_id":"free"},{"bike_id":"52659e2d-1f2d-4d41-9842-e1dee0bdc265","system_id":"levelo_inurba_marseille","lat":43.305714,"lon":5.365633,"is_reserved":false,"is_disabled":false,"rental_uris":{"android":"levelo://app?vid=52659e2d-1f2d-4d41-9842-e1dee0bdc265","ios":"levelo://app?vid=52659e2d-1f2d-4d41-9842-e1dee0bdc265"},"vehicle_type_id":"4","last_reported":1701684501,"current_range_meters":19600,"station_id":"ce4bgs12rcd13ifvqcag","pricing_plan_id":"free"},{"bike_id":"54fbc5ef-c6d7-46ce-8f12-15981d8d0488","system_id":"levelo_inurba_marseille","lat":43.299028,"lon":5.381509,"is_reserved":false,"is_disabled":false,"rental_uris":{"android":"levelo://app?vid=54fbc5ef-c6d7-46ce-8f12-15981d8d0488","ios":"levelo://app?vid=54fbc5ef-c6d7-46ce-8f12-15981d8d0488"},"vehicle_type_id":"4","last_reported":1701684501,"current_range_meters":25200,"station_id":"ce4bgj12rcd13ifvqbc0","pricing_plan_id":"free"},{"bike_id":"ae81485e-1d4d-4d60-a588-e4e00e9361f5","system_id":"levelo_inurba_marseille","lat":43.317557,"lon":5.390173,"is_reserved":false,"is_disabled":false,"rental_uris":{"android":"levelo://app?vid=ae81485e-1d4d-4d60-a588-e4e00e9361f5","ios":"levelo://app?vid=ae81485e-1d4d-4d60-a588-e4e00e9361f5"},"vehicle_type_id":"4","last_reported":1701684501,"current_range_meters":28400,"station_id":"ce4bhqp2rcd13ifvqhng","pricing_plan_id":"free"},{"bike_id":"cbdb1b26-1b7b-4316-9220-24d1960a98cf","system_id":"levelo_inurba_marseille","lat":43.317557,"lon":5.390173,"is_reserved":false,"is_disabled":false,"rental_uris":{"android":"levelo://app?vid=cbdb1b26-1b7b-4316-9220-24d1960a98cf","ios":"levelo://app?vid=cbdb1b26-1b7b-4316-9220-24d1960a98cf"},"vehicle_type_id":"4","last_reported":1701684501,"current_range_meters":13200,"station_id":"ce4bhqp2rcd13ifvqhng","pricing_plan_id":"free"},{"bike_id":"c6c5acc0-3971-43b9-ba4d-33c881a5a76e","system_id":"levelo_inurba_marseille","lat":43.317557,"lon":5.390173,"is_reserved":false,"is_disabled":false,"rental_uris":{"android":"levelo://app?vid=c6c5acc0-3971-43b9-ba4d-33c881a5a76e","ios":"levelo://app?vid=c6c5acc0-3971-43b9-ba4d-33c881a5a76e"},"vehicle_type_id":"4","last_reported":1701684501,"current_range_meters":18000,"station_id":"ce4bhqp2rcd13ifvqhng","pricing_plan_id":"free"},{"bike_id":"a71c79c9-2e02-4efa-8ab0-fbd47268f50a","system_id":"levelo_inurba_marseille","lat":43.317514,"lon":5.39031,"is_reserved":false,"is_disabled":false,"rental_uris":{"android":"levelo://app?vid=a71c79c9-2e02-4efa-8ab0-fbd47268f50a","ios":"levelo://app?vid=a71c79c9-2e02-4efa-8ab0-fbd47268f50a"},"vehicle_type_id":"4","last_reported":1701684501,"current_range_meters":20400,"station_id":"ce4bhqp2rcd13ifvqhng","pricing_plan_id":"free"},{"bike_id":"af94a7ac-8b42-4461-90e4-d9310fd2fb3e","system_id":"levelo_inurba_marseille","lat":43.298037,"lon":5.381066,"is_reserved":false,"is_disabled":false,"rental_uris":{"android":"levelo://app?vid=af94a7ac-8b42-4461-90e4-d9310fd2fb3e","ios":"levelo://app?vid=af94a7ac-8b42-4461-90e4-d9310fd2fb3e"},"vehicle_type_id":"4","last_reported":1701684501,"current_range_meters":28000,"station_id":"ce4bgip2rcd13ifvqbb0","pricing_plan_id":"free"},{"bike_id":"87e742fe-26a4-4286-a6a1-7da3d242c966","system_id":"levelo_inurba_marseille","lat":43.304274,"lon":5.388873,"is_reserved":false,"is_disabled":false,"rental_uris":{"android":"levelo://app?vid=87e742fe-26a4-4286-a6a1-7da3d242c966","ios":"levelo://app?vid=87e742fe-26a4-4286-a6a1-7da3d242c966"},"vehicle_type_id":"4","last_reported":1701684501,"current_range_meters":20400,"station_id":"ce4bgk12rcd13ifvqbi0","pricing_plan_id":"free"},{"bike_id":"d168be12-8108-4616-b9d4-f3585624e403","system_id":"levelo_inurba_marseille","lat":43.296263,"lon":5.377094,"is_reserved":false,"is_disabled":false,"rental_uris":{"android":"levelo://app?vid=d168be12-8108-4616-b9d4-f3585624e403","ios":"levelo://app?vid=d168be12-8108-4616-b9d4-f3585624e403"},"vehicle_type_id":"4","last_reported":1701684501,"current_range_meters":24800,"station_id":"ce4bgi92rcd13ifvqb90","pricing_plan_id":"free"},{"bike_id":"21d1ed74-e021-4930-ad38-ffa197b4e760","system_id":"levelo_inurba_marseille","lat":43.299717,"lon":5.384845,"is_reserved":false,"is_disabled":false,"rental_uris":{"android":"levelo://app?vid=21d1ed74-e021-4930-ad38-ffa197b4e760","ios":"levelo://app?vid=21d1ed74-e021-4930-ad38-ffa197b4e760"},"vehicle_type_id":"4","last_reported":1701684501,"current_range_meters":24800,"station_id":"ce4bgj92rcd13ifvqbd0","pricing_plan_id":"free"},{"bike_id":"50afbed8-e220-49f2-ba30-249c6c0bd1b2","system_id":"levelo_inurba_marseille","lat":43.299724,"lon":5.384848,"is_reserved":false,"is_disabled":false,"rental_uris":{"android":"levelo://app?vid=50afbed8-e220-49f2-ba30-249c6c0bd1b2","ios":"levelo://app?vid=50afbed8-e220-49f2-ba30-249c6c0bd1b2"},"vehicle_type_id":"4","last_reported":1701684501,"current_range_meters":27600,"station_id":"ce4bgj92rcd13ifvqbd0","pricing_plan_id":"free"},{"bike_id":"29851edb-e6e9-40fc-baf2-05b0aeeb5fc4","system_id":"levelo_inurba_marseille","lat":43.32367,"lon":5.388836,"is_reserved":false,"is_disabled":false,"rental_uris":{"android":"levelo://app?vid=29851edb-e6e9-40fc-baf2-05b0aeeb5fc4","ios":"levelo://app?vid=29851edb-e6e9-40fc-baf2-05b0aeeb5fc4"},"vehicle_type_id":"4","last_reported":1701684501,"current_range_meters":3600,"station_id":"ce4bhqp2rcd13ifvqhog","pricing_plan_id":"free"},{"bike_id":"3da06301-ff6e-4350-ad63-1b8cf983b44c","system_id":"levelo_inurba_marseille","lat":43.292311,"lon":5.360731,"is_reserved":false,"is_disabled":false,"rental_uris":{"android":"levelo://app?vid=3da06301-ff6e-4350-ad63-1b8cf983b44c","ios":"levelo://app?vid=3da06301-ff6e-4350-ad63-1b8cf983b44c"},"vehicle_type_id":"4","last_reported":1701684501,"current_range_meters":21200,"station_id":"ce4bhbh2rcd13ifvqeqg","pricing_plan_id":"free"},{"bike_id":"ef438e5a-db04-4d97-bda7-82a556c5f32d","system_id":"levelo_inurba_marseille","lat":43.292311,"lon":5.360731,"is_reserved":false,"is_disabled":false,"rental_uris":{"android":"levelo://app?vid=ef438e5a-db04-4d97-bda7-82a556c5f32d","ios":"levelo://app?vid=ef438e5a-db04-4d97-bda7-82a556c5f32d"},"vehicle_type_id":"4","last_reported":1701684501,"current_range_meters":19200,"station_id":"ce4bhbh2rcd13ifvqeqg","pricing_plan_id":"free"},{"bike_id":"7a0b87d6-a655-4e9b-91d6-709504b62187","system_id":"levelo_inurba_marseille","lat":43.29529,"lon":5.385581,"is_reserved":false,"is_disabled":false,"rental_uris":{"android":"levelo://app?vid=7a0b87d6-a655-4e9b-91d6-709504b62187","ios":"levelo://app?vid=7a0b87d6-a655-4e9b-91d6-709504b62187"},"vehicle_type_id":"4","last_reported":1701684501,"current_range_meters":23600,"station_id":"ce4bgih2rcd13ifvqba0","pricing_plan_id":"free"},{"bike_id":"af0a9114-6e48-44a7-9612-87db96d66f44","system_id":"levelo_inurba_marseille","lat":43.304274,"lon":5.397513,"is_reserved":false,"is_disabled":false,"rental_uris":{"android":"levelo://app?vid=af0a9114-6e48-44a7-9612-87db96d66f44","ios":"levelo://app?vid=af0a9114-6e48-44a7-9612-87db96d66f44"},"vehicle_type_id":"4","last_reported":1701684501,"current_range_meters":18000,"station_id":"ce4bh092rcd13ifvqd20","pricing_plan_id":"free"},{"bike_id":"3a921694-0b5c-4b5a-b06c-ddddf55fd3f9","system_id":"levelo_inurba_marseille","lat":43.304296,"lon":5.397513,"is_reserved":false,"is_disabled":false,"rental_uris":{"android":"levelo://app?vid=3a921694-0b5c-4b5a-b06c-ddddf55fd3f9","ios":"levelo://app?vid=3a921694-0b5c-4b5a-b06c-ddddf55fd3f9"},"vehicle_type_id":"4","last_reported":1701684501,"current_range_meters":26400,"station_id":"ce4bh092rcd13ifvqd20","pricing_plan_id":"free"},{"bike_id":"eecf2282-4024-408a-8839-ff3c4b41cd6f","system_id":"levelo_inurba_marseille","lat":43.290995,"lon":5.381361,"is_reserved":false,"is_disabled":false,"rental_uris":{"android":"levelo://app?vid=eecf2282-4024-408a-8839-ff3c4b41cd6f","ios":"levelo://app?vid=eecf2282-4024-408a-8839-ff3c4b41cd6f"},"vehicle_type_id":"4","last_reported":1701684501,"current_range_meters":24000,"station_id":"ce4bh512rcd13ifvqe2g","pricing_plan_id":"free"},{"bike_id":"f2b155a0-1050-4235-b4c9-fdef3244cd6c","system_id":"levelo_inurba_marseille","lat":43.295169,"lon":5.390426,"is_reserved":false,"is_disabled":false,"rental_uris":{"android":"levelo://app?vid=f2b155a0-1050-4235-b4c9-fdef3244cd6c","ios":"levelo://app?vid=f2b155a0-1050-4235-b4c9-fdef3244cd6c"},"vehicle_type_id":"4","last_reported":1701684501,"current_range_meters":29600,"station_id":"ce4bh3p2rcd13ifvqdp0","pricing_plan_id":"free"},{"bike_id":"6f370f95-716b-40c0-a02a-984b90a2086d","system_id":"levelo_inurba_marseille","lat":43.289743,"lon":5.378304,"is_reserved":false,"is_disabled":false,"rental_uris":{"android":"levelo://app?vid=6f370f95-716b-40c0-a02a-984b90a2086d","ios":"levelo://app?vid=6f370f95-716b-40c0-a02a-984b90a2086d"},"vehicle_type_id":"4","last_reported":1701684501,"current_range_meters":18400,"station_id":"ce4bh9p2rcd13ifvqed0","pricing_plan_id":"free"},{"bike_id":"75aae73a-1219-4986-b70e-a56f337e495e","system_id":"levelo_inurba_marseille","lat":43.28856,"lon":5.358371,"is_reserved":false,"is_disabled":false,"rental_uris":{"android":"levelo://app?vid=75aae73a-1219-4986-b70e-a56f337e495e","ios":"levelo://app?vid=75aae73a-1219-4986-b70e-a56f337e495e"},"vehicle_type_id":"4","last_reported":1701684501,"current_range_meters":22400,"station_id":"ce4bhb12rcd13ifvqem0","pricing_plan_id":"free"},{"bike_id":"94dff6b1-c359-4e63-9b5b-5f815ee3ce54","system_id":"levelo_inurba_marseille","lat":43.337377,"lon":5.374487,"is_reserved":false,"is_disabled":false,"rental_uris":{"android":"levelo://app?vid=94dff6b1-c359-4e63-9b5b-5f815ee3ce54","ios":"levelo://app?vid=94dff6b1-c359-4e63-9b5b-5f815ee3ce54"},"vehicle_type_id":"4","last_reported":1701684501,"current_range_meters":10000,"station_id":"","pricing_plan_id":"free"},{"bike_id":"a6d30fb2-2e63-47bd-9244-71c52b231c0b","system_id":"levelo_inurba_marseille","lat":43.301317,"lon":5.398681,"is_reserved":false,"is_disabled":false,"rental_uris":{"android":"levelo://app?vid=a6d30fb2-2e63-47bd-9244-71c52b231c0b","ios":"levelo://app?vid=a6d30fb2-2e63-47bd-9244-71c52b231c0b"},"vehicle_type_id":"4","last_reported":1701684501,"current_range_meters":0,"station_id":"","pricing_plan_id":"free"},{"bike_id":"33ce39a2-3e76-4b71-b387-a04b5b89f029","system_id":"levelo_inurba_marseille","lat":43.286961,"lon":5.373785,"is_reserved":false,"is_disabled":false,"rental_uris":{"android":"levelo://app?vid=33ce39a2-3e76-4b71-b387-a04b5b89f029","ios":"levelo://app?vid=33ce39a2-3e76-4b71-b387-a04b5b89f029"},"vehicle_type_id":"4","last_reported":1701684501,"current_range_meters":20400,"station_id":"ce4bh3p2rcd13ifvqdq0","pricing_plan_id":"free"},{"bike_id":"9e49de5b-39b7-47e1-9e0d-8e9756523e09","system_id":"levelo_inurba_marseille","lat":43.302008,"lon":5.394694,"is_reserved":false,"is_disabled":false,"rental_uris":{"android":"levelo://app?vid=9e49de5b-39b7-47e1-9e0d-8e9756523e09","ios":"levelo://app?vid=9e49de5b-39b7-47e1-9e0d-8e9756523e09"},"vehicle_type_id":"4","last_reported":1701684501,"current_range_meters":24800,"station_id":"ce4bh0p2rcd13ifvqd70","pricing_plan_id":"free"},{"bike_id":"0d139901-623a-400f-b22f-b57c1f439975","system_id":"levelo_inurba_marseille","lat":43.284534,"lon":5.358662,"is_reserved":false,"is_disabled":false,"rental_uris":{"android":"levelo://app?vid=0d139901-623a-400f-b22f-b57c1f439975","ios":"levelo://app?vid=0d139901-623a-400f-b22f-b57c1f439975"},"vehicle_type_id":"4","last_reported":1701684501,"current_range_meters":24000,"station_id":"ce4bhah2rcd13ifvqei0","pricing_plan_id":"free"},{"bike_id":"0573e2df-4fa8-424f-b470-65bc7d0e8325","system_id":"levelo_inurba_marseille","lat":43.294314,"lon":5.397498,"is_reserved":false,"is_disabled":false,"rental_uris":{"android":"levelo://app?vid=0573e2df-4fa8-424f-b470-65bc7d0e8325","ios":"levelo://app?vid=0573e2df-4fa8-424f-b470-65bc7d0e8325"},"vehicle_type_id":"4","last_reported":1701684501,"current_range_meters":13600,"station_id":"ce4bh3h2rcd13ifvqdo0","pricing_plan_id":"free"},{"bike_id":"78aa54fc-c264-4671-8c0c-59759069a77a","system_id":"levelo_inurba_marseille","lat":43.285856,"lon":5.350771,"is_reserved":false,"is_disabled":false,"rental_uris":{"android":"levelo://app?vid=78aa54fc-c264-4671-8c0c-59759069a77a","ios":"levelo://app?vid=78aa54fc-c264-4671-8c0c-59759069a77a"},"vehicle_type_id":"4","last_reported":1701684501,"current_range_meters":9600,"station_id":"ce4bhch2rcd13ifvqeug","pricing_plan_id":"free"},{"bike_id":"b686b8a8-ca19-4d96-b2a7-299d4f07bc59","system_id":"levelo_inurba_marseille","lat":43.286137,"lon":5.351023,"is_reserved":false,"is_disabled":false,"rental_uris":{"android":"levelo://app?vid=b686b8a8-ca19-4d96-b2a7-299d4f07bc59","ios":"levelo://app?vid=b686b8a8-ca19-4d96-b2a7-299d4f07bc59"},"vehicle_type_id":"4","last_reported":1701684501,"current_range_meters":30000,"station_id":"ce4bhch2rcd13ifvqeug","pricing_plan_id":"free"},{"bike_id":"19f67075-5441-4bb1-88c2-68051f38468b","system_id":"levelo_inurba_marseille","lat":43.283998,"lon":5.375062,"is_reserved":false,"is_disabled":false,"rental_uris":{"android":"levelo://app?vid=19f67075-5441-4bb1-88c2-68051f38468b","ios":"levelo://app?vid=19f67075-5441-4bb1-88c2-68051f38468b"},"vehicle_type_id":"4","last_reported":1701684501,"current_range_meters":24400,"station_id":"ce4bh412rcd13ifvqds0","pricing_plan_id":"free"},{"bike_id":"23a6e18e-5ad6-40cf-b6fb-7a4b1a6034c9","system_id":"levelo_inurba_marseille","lat":43.337168,"lon":5.391825,"is_reserved":false,"is_disabled":false,"rental_uris":{"android":"levelo://app?vid=23a6e18e-5ad6-40cf-b6fb-7a4b1a6034c9","ios":"levelo://app?vid=23a6e18e-5ad6-40cf-b6fb-7a4b1a6034c9"},"vehicle_type_id":"4","last_reported":1701684501,"current_range_meters":28000,"station_id":"ce4bhr92rcd13ifvqhsg","pricing_plan_id":"free"},{"bike_id":"05afa003-da4e-4bd9-80ce-3e8360212277","system_id":"levelo_inurba_marseille","lat":43.33717,"lon":5.391857,"is_reserved":false,"is_disabled":false,"rental_uris":{"android":"levelo://app?vid=05afa003-da4e-4bd9-80ce-3e8360212277","ios":"levelo://app?vid=05afa003-da4e-4bd9-80ce-3e8360212277"},"vehicle_type_id":"4","last_reported":1701684501,"current_range_meters":18800,"station_id":"ce4bhr92rcd13ifvqhsg","pricing_plan_id":"free"},{"bike_id":"4b021143-be23-4d8d-ac72-086548831286","system_id":"levelo_inurba_marseille","lat":43.33717,"lon":5.391857,"is_reserved":false,"is_disabled":false,"rental_uris":{"android":"levelo://app?vid=4b021143-be23-4d8d-ac72-086548831286","ios":"levelo://app?vid=4b021143-be23-4d8d-ac72-086548831286"},"vehicle_type_id":"4","last_reported":1701684501,"current_range_meters":31600,"station_id":"ce4bhr92rcd13ifvqhsg","pricing_plan_id":"free"},{"bike_id":"2f73a9c6-ea7c-45de-beee-438befc58a7b","system_id":"levelo_inurba_marseille","lat":43.33717,"lon":5.391857,"is_reserved":false,"is_disabled":false,"rental_uris":{"android":"levelo://app?vid=2f73a9c6-ea7c-45de-beee-438befc58a7b","ios":"levelo://app?vid=2f73a9c6-ea7c-45de-beee-438befc58a7b"},"vehicle_type_id":"4","last_reported":1701684501,"current_range_meters":15200,"station_id":"ce4bhr92rcd13ifvqhsg","pricing_plan_id":"free"},{"bike_id":"9ddf5614-1b10-4369-82eb-f48ce97b415d","system_id":"levelo_inurba_marseille","lat":43.284793,"lon":5.384113,"is_reserved":false,"is_disabled":false,"rental_uris":{"android":"levelo://app?vid=9ddf5614-1b10-4369-82eb-f48ce97b415d","ios":"levelo://app?vid=9ddf5614-1b10-4369-82eb-f48ce97b415d"},"vehicle_type_id":"4","last_reported":1701684501,"current_range_meters":14000,"station_id":"ce4bh512rcd13ifvqe3g","pricing_plan_id":"free"},{"bike_id":"376eed6f-bc26-4757-a937-2505b0e43e3a","system_id":"levelo_inurba_marseille","lat":43.283494,"lon":5.380945,"is_reserved":false,"is_disabled":false,"rental_uris":{"android":"levelo://app?vid=376eed6f-bc26-4757-a937-2505b0e43e3a","ios":"levelo://app?vid=376eed6f-bc26-4757-a937-2505b0e43e3a"},"vehicle_type_id":"4","last_reported":1701684501,"current_range_meters":13200,"station_id":"ce4bh412rcd13ifvqdr0","pricing_plan_id":"free"},{"bike_id":"45cef143-0774-4b55-ae91-b77bdbfc7b38","system_id":"levelo_inurba_marseille","lat":43.284219,"lon":5.3497,"is_reserved":false,"is_disabled":false,"rental_uris":{"android":"levelo://app?vid=45cef143-0774-4b55-ae91-b77bdbfc7b38","ios":"levelo://app?vid=45cef143-0774-4b55-ae91-b77bdbfc7b38"},"vehicle_type_id":"4","last_reported":1701684501,"current_range_meters":28800,"station_id":"ce4bhbh2rcd13ifvqepg","pricing_plan_id":"free"},{"bike_id":"21752b81-0626-41e4-9d15-8ad0e7067d85","system_id":"levelo_inurba_marseille","lat":43.284217,"lon":5.349697,"is_reserved":false,"is_disabled":false,"rental_uris":{"android":"levelo://app?vid=21752b81-0626-41e4-9d15-8ad0e7067d85","ios":"levelo://app?vid=21752b81-0626-41e4-9d15-8ad0e7067d85"},"vehicle_type_id":"4","last_reported":1701684501,"current_range_meters":30800,"station_id":"ce4bhbh2rcd13ifvqepg","pricing_plan_id":"free"},{"bike_id":"a866bc16-e7f7-4f7e-940f-a88c5225ad41","system_id":"levelo_inurba_marseille","lat":43.29041,"lon":5.399634,"is_reserved":false,"is_disabled":false,"rental_uris":{"android":"levelo://app?vid=a866bc16-e7f7-4f7e-940f-a88c5225ad41","ios":"levelo://app?vid=a866bc16-e7f7-4f7e-940f-a88c5225ad41"},"vehicle_type_id":"4","last_reported":1701684501,"current_range_meters":11600,"station_id":"ce4bh392rcd13ifvqdm0","pricing_plan_id":"free"},{"bike_id":"b9968b8c-f070-4e45-a8bf-f6771143b30a","system_id":"levelo_inurba_marseille","lat":43.29041,"lon":5.399634,"is_reserved":false,"is_disabled":false,"rental_uris":{"android":"levelo://app?vid=b9968b8c-f070-4e45-a8bf-f6771143b30a","ios":"levelo://app?vid=b9968b8c-f070-4e45-a8bf-f6771143b30a"},"vehicle_type_id":"4","last_reported":1701684501,"current_range_meters":18800,"station_id":"ce4bh392rcd13ifvqdm0","pricing_plan_id":"free"},{"bike_id":"13d15ca2-efd0-470a-b2e5-2c329c94d7d7","system_id":"levelo_inurba_marseille","lat":43.28118,"lon":5.38207,"is_reserved":false,"is_disabled":false,"rental_uris":{"android":"levelo://app?vid=13d15ca2-efd0-470a-b2e5-2c329c94d7d7","ios":"levelo://app?vid=13d15ca2-efd0-470a-b2e5-2c329c94d7d7"},"vehicle_type_id":"4","last_reported":1701684501,"current_range_meters":13200,"station_id":"","pricing_plan_id":"free"},{"bike_id":"bf67dce8-c342-4745-923f-69fc7b0305d5","system_id":"levelo_inurba_marseille","lat":43.284462,"lon":5.392121,"is_reserved":false,"is_disabled":false,"rental_uris":{"android":"levelo://app?vid=bf67dce8-c342-4745-923f-69fc7b0305d5","ios":"levelo://app?vid=bf67dce8-c342-4745-923f-69fc7b0305d5"},"vehicle_type_id":"4","last_reported":1701684501,"current_range_meters":13600,"station_id":"ce4bhoh2rcd13ifvqh5g","pricing_plan_id":"free"},{"bike_id":"a1e555e1-517b-432f-a3cc-409cb4020186","system_id":"levelo_inurba_marseille","lat":43.28573,"lon":5.394992,"is_reserved":false,"is_disabled":false,"rental_uris":{"android":"levelo://app?vid=a1e555e1-517b-432f-a3cc-409cb4020186","ios":"levelo://app?vid=a1e555e1-517b-432f-a3cc-409cb4020186"},"vehicle_type_id":"4","last_reported":1701684501,"current_range_meters":21200,"station_id":"ce4bh292rcd13ifvqdg0","pricing_plan_id":"free"},{"bike_id":"b366d8b0-36c3-42fb-84b1-5845103b6480","system_id":"levelo_inurba_marseille","lat":43.28573,"lon":5.394992,"is_reserved":false,"is_disabled":false,"rental_uris":{"android":"levelo://app?vid=b366d8b0-36c3-42fb-84b1-5845103b6480","ios":"levelo://app?vid=b366d8b0-36c3-42fb-84b1-5845103b6480"},"vehicle_type_id":"4","last_reported":1701684501,"current_range_meters":1200,"station_id":"ce4bh292rcd13ifvqdg0","pricing_plan_id":"free"},{"bike_id":"b864ce6b-1102-4853-a9a3-2f7705ca0065","system_id":"levelo_inurba_marseille","lat":43.320045,"lon":5.415046,"is_reserved":false,"is_disabled":false,"rental_uris":{"android":"levelo://app?vid=b864ce6b-1102-4853-a9a3-2f7705ca0065","ios":"levelo://app?vid=b864ce6b-1102-4853-a9a3-2f7705ca0065"},"vehicle_type_id":"4","last_reported":1701684501,"current_range_meters":28800,"station_id":"ce4bhq92rcd13ifvqhkg","pricing_plan_id":"free"},{"bike_id":"0b36325d-7ed7-4315-9fcd-d28e7b9c0ad6","system_id":"levelo_inurba_marseille","lat":43.279742,"lon":5.38744,"is_reserved":false,"is_disabled":false,"rental_uris":{"android":"levelo://app?vid=0b36325d-7ed7-4315-9fcd-d28e7b9c0ad6","ios":"levelo://app?vid=0b36325d-7ed7-4315-9fcd-d28e7b9c0ad6"},"vehicle_type_id":"4","last_reported":1701684501,"current_range_meters":14800,"station_id":"ce4bhg12rcd13ifvqf80","pricing_plan_id":"free"},{"bike_id":"7fd65d4d-d2b4-4a51-a23e-2f89e34ff291","system_id":"levelo_inurba_marseille","lat":43.279742,"lon":5.38744,"is_reserved":false,"is_disabled":false,"rental_uris":{"android":"levelo://app?vid=7fd65d4d-d2b4-4a51-a23e-2f89e34ff291","ios":"levelo://app?vid=7fd65d4d-d2b4-4a51-a23e-2f89e34ff291"},"vehicle_type_id":"4","last_reported":1701684501,"current_range_meters":13200,"station_id":"ce4bhg12rcd13ifvqf80","pricing_plan_id":"free"},{"bike_id":"0da37ed4-bac2-4367-be03-b22617a8c7c7","system_id":"levelo_inurba_marseille","lat":43.325233,"lon":5.414318,"is_reserved":false,"is_disabled":false,"rental_uris":{"android":"levelo://app?vid=0da37ed4-bac2-4367-be03-b22617a8c7c7","ios":"levelo://app?vid=0da37ed4-bac2-4367-be03-b22617a8c7c7"},"vehicle_type_id":"4","last_reported":1701684501,"current_range_meters":29200,"station_id":"ce4bhq12rcd13ifvqhhg","pricing_plan_id":"free"},{"bike_id":"42799abd-7493-4700-ac99-6ab0ae79d508","system_id":"levelo_inurba_marseille","lat":43.32547,"lon":5.41434,"is_reserved":false,"is_disabled":false,"rental_uris":{"android":"levelo://app?vid=42799abd-7493-4700-ac99-6ab0ae79d508","ios":"levelo://app?vid=42799abd-7493-4700-ac99-6ab0ae79d508"},"vehicle_type_id":"4","last_reported":1701684501,"current_range_meters":15200,"station_id":"ce4bhq12rcd13ifvqhhg","pricing_plan_id":"free"},{"bike_id":"5a25bf69-6178-4680-ba62-eb181662b01d","system_id":"levelo_inurba_marseille","lat":43.325243,"lon":5.414326,"is_reserved":false,"is_disabled":false,"rental_uris":{"android":"levelo://app?vid=5a25bf69-6178-4680-ba62-eb181662b01d","ios":"levelo://app?vid=5a25bf69-6178-4680-ba62-eb181662b01d"},"vehicle_type_id":"4","last_reported":1701684501,"current_range_meters":26400,"station_id":"ce4bhq12rcd13ifvqhhg","pricing_plan_id":"free"},{"bike_id":"7bd2208d-341e-43cb-9d17-06f746e5d7a8","system_id":"levelo_inurba_marseille","lat":43.27611,"lon":5.36108,"is_reserved":false,"is_disabled":false,"rental_uris":{"android":"levelo://app?vid=7bd2208d-341e-43cb-9d17-06f746e5d7a8","ios":"levelo://app?vid=7bd2208d-341e-43cb-9d17-06f746e5d7a8"},"vehicle_type_id":"4","last_reported":1701684501,"current_range_meters":0,"station_id":"ce4bgj92rcd13ifvqbe0","pricing_plan_id":"free"},{"bike_id":"c0de6499-2376-42d4-97e2-9aeff38da8aa","system_id":"levelo_inurba_marseille","lat":43.280784,"lon":5.396622,"is_reserved":false,"is_disabled":false,"rental_uris":{"android":"levelo://app?vid=c0de6499-2376-42d4-97e2-9aeff38da8aa","ios":"levelo://app?vid=c0de6499-2376-42d4-97e2-9aeff38da8aa"},"vehicle_type_id":"4","last_reported":1701684501,"current_range_meters":28000,"station_id":"ce4bho12rcd13ifvqh2g","pricing_plan_id":"free"},{"bike_id":"d8138366-200c-4f0a-868e-37ec9469c672","system_id":"levelo_inurba_marseille","lat":43.278401,"lon":5.392152,"is_reserved":false,"is_disabled":false,"rental_uris":{"android":"levelo://app?vid=d8138366-200c-4f0a-868e-37ec9469c672","ios":"levelo://app?vid=d8138366-200c-4f0a-868e-37ec9469c672"},"vehicle_type_id":"4","last_reported":1701684501,"current_range_meters":28000,"station_id":"ce4bhjp2rcd13ifvqga0","pricing_plan_id":"free"},{"bike_id":"6e86a137-d458-4d9c-9722-1e567cb95281","system_id":"levelo_inurba_marseille","lat":43.278399,"lon":5.392139,"is_reserved":false,"is_disabled":false,"rental_uris":{"android":"levelo://app?vid=6e86a137-d458-4d9c-9722-1e567cb95281","ios":"levelo://app?vid=6e86a137-d458-4d9c-9722-1e567cb95281"},"vehicle_type_id":"4","last_reported":1701684501,"current_range_meters":27600,"station_id":"ce4bhjp2rcd13ifvqga0","pricing_plan_id":"free"},{"bike_id":"3ea28be1-d23c-49b6-a64f-225039a206c7","system_id":"levelo_inurba_marseille","lat":43.273613,"lon":5.362705,"is_reserved":false,"is_disabled":false,"rental_uris":{"android":"levelo://app?vid=3ea28be1-d23c-49b6-a64f-225039a206c7","ios":"levelo://app?vid=3ea28be1-d23c-49b6-a64f-225039a206c7"},"vehicle_type_id":"4","last_reported":1701684501,"current_range_meters":27200,"station_id":"ce4bhbh2rcd13ifvqeo0","pricing_plan_id":"free"},{"bike_id":"8a0e7938-1d64-4254-a270-22f5c0986632","system_id":"levelo_inurba_marseille","lat":43.273609,"lon":5.362708,"is_reserved":false,"is_disabled":false,"rental_uris":{"android":"levelo://app?vid=8a0e7938-1d64-4254-a270-22f5c0986632","ios":"levelo://app?vid=8a0e7938-1d64-4254-a270-22f5c0986632"},"vehicle_type_id":"4","last_reported":1701684501,"current_range_meters":31200,"station_id":"ce4bhbh2rcd13ifvqeo0","pricing_plan_id":"free"},{"bike_id":"c1f3b903-62f9-4d4c-ada3-06f74bad596b","system_id":"levelo_inurba_marseille","lat":43.33612,"lon":5.410321,"is_reserved":false,"is_disabled":false,"rental_uris":{"android":"levelo://app?vid=c1f3b903-62f9-4d4c-ada3-06f74bad596b","ios":"levelo://app?vid=c1f3b903-62f9-4d4c-ada3-06f74bad596b"},"vehicle_type_id":"4","last_reported":1701684501,"current_range_meters":27200,"station_id":"ce4bhqh2rcd13ifvqhmg","pricing_plan_id":"free"},{"bike_id":"eac3d9de-eeb6-448f-80c9-79a5d1bfd339","system_id":"levelo_inurba_marseille","lat":43.33612,"lon":5.410321,"is_reserved":false,"is_disabled":false,"rental_uris":{"android":"levelo://app?vid=eac3d9de-eeb6-448f-80c9-79a5d1bfd339","ios":"levelo://app?vid=eac3d9de-eeb6-448f-80c9-79a5d1bfd339"},"vehicle_type_id":"4","last_reported":1701684501,"current_range_meters":30400,"station_id":"ce4bhqh2rcd13ifvqhmg","pricing_plan_id":"free"},{"bike_id":"8ceb9436-1b12-4bfd-ba8b-a535ac6cf291","system_id":"levelo_inurba_marseille","lat":43.33612,"lon":5.410321,"is_reserved":false,"is_disabled":false,"rental_uris":{"android":"levelo://app?vid=8ceb9436-1b12-4bfd-ba8b-a535ac6cf291","ios":"levelo://app?vid=8ceb9436-1b12-4bfd-ba8b-a535ac6cf291"},"vehicle_type_id":"4","last_reported":1701684501,"current_range_meters":23600,"station_id":"ce4bhqh2rcd13ifvqhmg","pricing_plan_id":"free"},{"bike_id":"11d8d21a-245a-459d-a65a-79ac375f16a5","system_id":"levelo_inurba_marseille","lat":43.279975,"lon":5.40009,"is_reserved":false,"is_disabled":false,"rental_uris":{"android":"levelo://app?vid=11d8d21a-245a-459d-a65a-79ac375f16a5","ios":"levelo://app?vid=11d8d21a-245a-459d-a65a-79ac375f16a5"},"vehicle_type_id":"4","last_reported":1701684501,"current_range_meters":27200,"station_id":"ce4bho92rcd13ifvqh4g","pricing_plan_id":"free"},{"bike_id":"d97b9f7f-84c7-4749-82c7-b7f1a1599719","system_id":"levelo_inurba_marseille","lat":43.31715,"lon":5.42398,"is_reserved":false,"is_disabled":false,"rental_uris":{"android":"levelo://app?vid=d97b9f7f-84c7-4749-82c7-b7f1a1599719","ios":"levelo://app?vid=d97b9f7f-84c7-4749-82c7-b7f1a1599719"},"vehicle_type_id":"4","last_reported":1701684501,"current_range_meters":2800,"station_id":"ce4bhp92rcd13ifvqhbg","pricing_plan_id":"free"},{"bike_id":"4c266738-4562-4ce1-aca7-b04f03b275b5","system_id":"levelo_inurba_marseille","lat":43.317121,"lon":5.423936,"is_reserved":false,"is_disabled":false,"rental_uris":{"android":"levelo://app?vid=4c266738-4562-4ce1-aca7-b04f03b275b5","ios":"levelo://app?vid=4c266738-4562-4ce1-aca7-b04f03b275b5"},"vehicle_type_id":"4","last_reported":1701684501,"current_range_meters":29600,"station_id":"ce4bhp92rcd13ifvqhbg","pricing_plan_id":"free"},{"bike_id":"049ae131-4fca-4c04-a57a-4af68fe56b48","system_id":"levelo_inurba_marseille","lat":43.310785,"lon":5.424305,"is_reserved":false,"is_disabled":false,"rental_uris":{"android":"levelo://app?vid=049ae131-4fca-4c04-a57a-4af68fe56b48","ios":"levelo://app?vid=049ae131-4fca-4c04-a57a-4af68fe56b48"},"vehicle_type_id":"4","last_reported":1701684501,"current_range_meters":28800,"station_id":"ce4bhp92rcd13ifvqhag","pricing_plan_id":"free"},{"bike_id":"910fd3aa-d2e0-4553-894a-6161d41c7fcd","system_id":"levelo_inurba_marseille","lat":43.27609,"lon":5.39475,"is_reserved":false,"is_disabled":false,"rental_uris":{"android":"levelo://app?vid=910fd3aa-d2e0-4553-894a-6161d41c7fcd","ios":"levelo://app?vid=910fd3aa-d2e0-4553-894a-6161d41c7fcd"},"vehicle_type_id":"4","last_reported":1701684501,"current_range_meters":11600,"station_id":"","pricing_plan_id":"free"},{"bike_id":"24512130-767c-4da7-a81e-def6b1744033","system_id":"levelo_inurba_marseille","lat":43.295511,"lon":5.422926,"is_reserved":false,"is_disabled":false,"rental_uris":{"android":"levelo://app?vid=24512130-767c-4da7-a81e-def6b1744033","ios":"levelo://app?vid=24512130-767c-4da7-a81e-def6b1744033"},"vehicle_type_id":"4","last_reported":1701684501,"current_range_meters":11200,"station_id":"ce4bhph2rcd13ifvqhdg","pricing_plan_id":"free"},{"bike_id":"55c23f66-31a6-4882-8fa6-769301f13946","system_id":"levelo_inurba_marseille","lat":43.295523,"lon":5.422926,"is_reserved":false,"is_disabled":false,"rental_uris":{"android":"levelo://app?vid=55c23f66-31a6-4882-8fa6-769301f13946","ios":"levelo://app?vid=55c23f66-31a6-4882-8fa6-769301f13946"},"vehicle_type_id":"4","last_reported":1701684501,"current_range_meters":30400,"station_id":"ce4bhph2rcd13ifvqhdg","pricing_plan_id":"free"},{"bike_id":"939b60ca-347d-4311-a9c3-44ae23d596a0","system_id":"levelo_inurba_marseille","lat":43.295511,"lon":5.422926,"is_reserved":false,"is_disabled":false,"rental_uris":{"android":"levelo://app?vid=939b60ca-347d-4311-a9c3-44ae23d596a0","ios":"levelo://app?vid=939b60ca-347d-4311-a9c3-44ae23d596a0"},"vehicle_type_id":"4","last_reported":1701684501,"current_range_meters":31600,"station_id":"ce4bhph2rcd13ifvqhdg","pricing_plan_id":"free"},{"bike_id":"9a0a5cfb-c1bb-4181-b78a-7b00e89dbb28","system_id":"levelo_inurba_marseille","lat":43.27204,"lon":5.39187,"is_reserved":false,"is_disabled":false,"rental_uris":{"android":"levelo://app?vid=9a0a5cfb-c1bb-4181-b78a-7b00e89dbb28","ios":"levelo://app?vid=9a0a5cfb-c1bb-4181-b78a-7b00e89dbb28"},"vehicle_type_id":"4","last_reported":1701684501,"current_range_meters":14800,"station_id":"ce4bhhp2rcd13ifvqfm0","pricing_plan_id":"free"},{"bike_id":"ba6c20c7-52f2-4634-9862-4634f03889a7","system_id":"levelo_inurba_marseille","lat":43.269467,"lon":5.386439,"is_reserved":false,"is_disabled":false,"rental_uris":{"android":"levelo://app?vid=ba6c20c7-52f2-4634-9862-4634f03889a7","ios":"levelo://app?vid=ba6c20c7-52f2-4634-9862-4634f03889a7"},"vehicle_type_id":"4","last_reported":1701684501,"current_range_meters":24800,"station_id":"ce4bhh92rcd13ifvqfh0","pricing_plan_id":"free"},{"bike_id":"0b838350-a586-42c9-bd0a-6681c033ae62","system_id":"levelo_inurba_marseille","lat":43.269467,"lon":5.386439,"is_reserved":false,"is_disabled":false,"rental_uris":{"android":"levelo://app?vid=0b838350-a586-42c9-bd0a-6681c033ae62","ios":"levelo://app?vid=0b838350-a586-42c9-bd0a-6681c033ae62"},"vehicle_type_id":"4","last_reported":1701684501,"current_range_meters":27600,"station_id":"ce4bhh92rcd13ifvqfh0","pricing_plan_id":"free"},{"bike_id":"527696c8-5f22-4064-9a88-faf5708b4a18","system_id":"levelo_inurba_marseille","lat":43.269467,"lon":5.386439,"is_reserved":false,"is_disabled":false,"rental_uris":{"android":"levelo://app?vid=527696c8-5f22-4064-9a88-faf5708b4a18","ios":"levelo://app?vid=527696c8-5f22-4064-9a88-faf5708b4a18"},"vehicle_type_id":"4","last_reported":1701684501,"current_range_meters":26000,"station_id":"ce4bhh92rcd13ifvqfh0","pricing_plan_id":"free"},{"bike_id":"2d985e96-f553-443f-8bfa-0230da31848e","system_id":"levelo_inurba_marseille","lat":43.269467,"lon":5.386439,"is_reserved":false,"is_disabled":false,"rental_uris":{"android":"levelo://app?vid=2d985e96-f553-443f-8bfa-0230da31848e","ios":"levelo://app?vid=2d985e96-f553-443f-8bfa-0230da31848e"},"vehicle_type_id":"4","last_reported":1701684501,"current_range_meters":30400,"station_id":"ce4bhh92rcd13ifvqfh0","pricing_plan_id":"free"},{"bike_id":"76428908-f402-4f05-9bf9-f7b908ca58bd","system_id":"levelo_inurba_marseille","lat":43.27952,"lon":5.41039,"is_reserved":false,"is_disabled":false,"rental_uris":{"android":"levelo://app?vid=76428908-f402-4f05-9bf9-f7b908ca58bd","ios":"levelo://app?vid=76428908-f402-4f05-9bf9-f7b908ca58bd"},"vehicle_type_id":"4","last_reported":1701684501,"current_range_meters":20800,"station_id":"ce4bhnp2rcd13ifvqh0g","pricing_plan_id":"free"},{"bike_id":"f8f560c8-6dc3-423c-8b03-e06c54d42693","system_id":"levelo_inurba_marseille","lat":43.279465,"lon":5.410561,"is_reserved":false,"is_disabled":false,"rental_uris":{"android":"levelo://app?vid=f8f560c8-6dc3-423c-8b03-e06c54d42693","ios":"levelo://app?vid=f8f560c8-6dc3-423c-8b03-e06c54d42693"},"vehicle_type_id":"4","last_reported":1701684501,"current_range_meters":22000,"station_id":"ce4bhnp2rcd13ifvqh0g","pricing_plan_id":"free"},{"bike_id":"7bf64022-48bc-48c8-b276-bb4faf5683b3","system_id":"levelo_inurba_marseille","lat":43.26681,"lon":5.382694,"is_reserved":false,"is_disabled":false,"rental_uris":{"android":"levelo://app?vid=7bf64022-48bc-48c8-b276-bb4faf5683b3","ios":"levelo://app?vid=7bf64022-48bc-48c8-b276-bb4faf5683b3"},"vehicle_type_id":"4","last_reported":1701684501,"current_range_meters":25200,"station_id":"ce4bhg92rcd13ifvqf90","pricing_plan_id":"free"},{"bike_id":"ea6316e9-334e-49b5-812d-e8f8c9ccb35f","system_id":"levelo_inurba_marseille","lat":43.26681,"lon":5.382694,"is_reserved":false,"is_disabled":false,"rental_uris":{"android":"levelo://app?vid=ea6316e9-334e-49b5-812d-e8f8c9ccb35f","ios":"levelo://app?vid=ea6316e9-334e-49b5-812d-e8f8c9ccb35f"},"vehicle_type_id":"4","last_reported":1701684501,"current_range_meters":22000,"station_id":"ce4bhg92rcd13ifvqf90","pricing_plan_id":"free"},{"bike_id":"7a4cc2ce-de58-4624-b1df-9b37dcf9d96f","system_id":"levelo_inurba_marseille","lat":43.26681,"lon":5.382694,"is_reserved":false,"is_disabled":false,"rental_uris":{"android":"levelo://app?vid=7a4cc2ce-de58-4624-b1df-9b37dcf9d96f","ios":"levelo://app?vid=7a4cc2ce-de58-4624-b1df-9b37dcf9d96f"},"vehicle_type_id":"4","last_reported":1701684501,"current_range_meters":14400,"station_id":"ce4bhg92rcd13ifvqf90","pricing_plan_id":"free"},{"bike_id":"a789502c-81da-4b15-8b87-6ec568c248f6","system_id":"levelo_inurba_marseille","lat":43.26681,"lon":5.382694,"is_reserved":false,"is_disabled":false,"rental_uris":{"android":"levelo://app?vid=a789502c-81da-4b15-8b87-6ec568c248f6","ios":"levelo://app?vid=a789502c-81da-4b15-8b87-6ec568c248f6"},"vehicle_type_id":"4","last_reported":1701684501,"current_range_meters":31600,"station_id":"ce4bhg92rcd13ifvqf90","pricing_plan_id":"free"},{"bike_id":"e326da63-87b2-4790-bd5f-aa6920af9e30","system_id":"levelo_inurba_marseille","lat":43.265558,"lon":5.372822,"is_reserved":false,"is_disabled":false,"rental_uris":{"android":"levelo://app?vid=e326da63-87b2-4790-bd5f-aa6920af9e30","ios":"levelo://app?vid=e326da63-87b2-4790-bd5f-aa6920af9e30"},"vehicle_type_id":"4","last_reported":1701684501,"current_range_meters":20000,"station_id":"ce4bhg12rcd13ifvqf70","pricing_plan_id":"free"},{"bike_id":"0988ab1d-3404-4117-b2ea-c883ba45a061","system_id":"levelo_inurba_marseille","lat":43.26202,"lon":5.379299,"is_reserved":false,"is_disabled":false,"rental_uris":{"android":"levelo://app?vid=0988ab1d-3404-4117-b2ea-c883ba45a061","ios":"levelo://app?vid=0988ab1d-3404-4117-b2ea-c883ba45a061"},"vehicle_type_id":"4","last_reported":1701684501,"current_range_meters":28000,"station_id":"ce4bhjp2rcd13ifvqg90","pricing_plan_id":"free"},{"bike_id":"b3a4a88c-d155-447c-ad55-fd92c25575ce","system_id":"levelo_inurba_marseille","lat":43.262012,"lon":5.379307,"is_reserved":false,"is_disabled":false,"rental_uris":{"android":"levelo://app?vid=b3a4a88c-d155-447c-ad55-fd92c25575ce","ios":"levelo://app?vid=b3a4a88c-d155-447c-ad55-fd92c25575ce"},"vehicle_type_id":"4","last_reported":1701684501,"current_range_meters":29200,"station_id":"ce4bhjp2rcd13ifvqg90","pricing_plan_id":"free"},{"bike_id":"afe992f1-d65a-4c7f-8730-bdb1a5c5635f","system_id":"levelo_inurba_marseille","lat":43.26202,"lon":5.379299,"is_reserved":false,"is_disabled":false,"rental_uris":{"android":"levelo://app?vid=afe992f1-d65a-4c7f-8730-bdb1a5c5635f","ios":"levelo://app?vid=afe992f1-d65a-4c7f-8730-bdb1a5c5635f"},"vehicle_type_id":"4","last_reported":1701684501,"current_range_meters":19200,"station_id":"ce4bhjp2rcd13ifvqg90","pricing_plan_id":"free"},{"bike_id":"1346e3a4-157f-46b9-9ad3-17cf740a6866","system_id":"levelo_inurba_marseille","lat":43.26202,"lon":5.379299,"is_reserved":false,"is_disabled":false,"rental_uris":{"android":"levelo://app?vid=1346e3a4-157f-46b9-9ad3-17cf740a6866","ios":"levelo://app?vid=1346e3a4-157f-46b9-9ad3-17cf740a6866"},"vehicle_type_id":"4","last_reported":1701684501,"current_range_meters":16800,"station_id":"ce4bhjp2rcd13ifvqg90","pricing_plan_id":"free"},{"bike_id":"3bb6943d-b5fe-4de5-88be-a93b0167c81b","system_id":"levelo_inurba_marseille","lat":43.281548,"lon":5.42643,"is_reserved":false,"is_disabled":false,"rental_uris":{"android":"levelo://app?vid=3bb6943d-b5fe-4de5-88be-a93b0167c81b","ios":"levelo://app?vid=3bb6943d-b5fe-4de5-88be-a93b0167c81b"},"vehicle_type_id":"4","last_reported":1701684501,"current_range_meters":30800,"station_id":"ce4bhnh2rcd13ifvqgug","pricing_plan_id":"free"},{"bike_id":"5b3e0566-b00a-45ce-bada-6ddf6f7727ce","system_id":"levelo_inurba_marseille","lat":43.28153,"lon":5.42644,"is_reserved":false,"is_disabled":false,"rental_uris":{"android":"levelo://app?vid=5b3e0566-b00a-45ce-bada-6ddf6f7727ce","ios":"levelo://app?vid=5b3e0566-b00a-45ce-bada-6ddf6f7727ce"},"vehicle_type_id":"4","last_reported":1701684501,"current_range_meters":16400,"station_id":"ce4bhnh2rcd13ifvqgug","pricing_plan_id":"free"},{"bike_id":"7a96db8f-5eb4-405b-8773-67506ad37afb","system_id":"levelo_inurba_marseille","lat":43.28149,"lon":5.42646,"is_reserved":false,"is_disabled":false,"rental_uris":{"android":"levelo://app?vid=7a96db8f-5eb4-405b-8773-67506ad37afb","ios":"levelo://app?vid=7a96db8f-5eb4-405b-8773-67506ad37afb"},"vehicle_type_id":"4","last_reported":1701684501,"current_range_meters":9600,"station_id":"ce4bhnh2rcd13ifvqgug","pricing_plan_id":"free"},{"bike_id":"8ec842f3-eb01-40b7-a399-0d860fa789db","system_id":"levelo_inurba_marseille","lat":43.2607,"lon":5.393983,"is_reserved":false,"is_disabled":false,"rental_uris":{"android":"levelo://app?vid=8ec842f3-eb01-40b7-a399-0d860fa789db","ios":"levelo://app?vid=8ec842f3-eb01-40b7-a399-0d860fa789db"},"vehicle_type_id":"4","last_reported":1701684501,"current_range_meters":28000,"station_id":"ce4bhh92rcd13ifvqfj0","pricing_plan_id":"free"},{"bike_id":"958686c9-9c63-438a-b5a9-67bff506c73b","system_id":"levelo_inurba_marseille","lat":43.2607,"lon":5.393983,"is_reserved":false,"is_disabled":false,"rental_uris":{"android":"levelo://app?vid=958686c9-9c63-438a-b5a9-67bff506c73b","ios":"levelo://app?vid=958686c9-9c63-438a-b5a9-67bff506c73b"},"vehicle_type_id":"4","last_reported":1701684501,"current_range_meters":20000,"station_id":"ce4bhh92rcd13ifvqfj0","pricing_plan_id":"free"},{"bike_id":"f535f8c9-e9ee-4ae0-bfac-eaa3439dbcba","system_id":"levelo_inurba_marseille","lat":43.275,"lon":5.42444,"is_reserved":false,"is_disabled":false,"rental_uris":{"android":"levelo://app?vid=f535f8c9-e9ee-4ae0-bfac-eaa3439dbcba","ios":"levelo://app?vid=f535f8c9-e9ee-4ae0-bfac-eaa3439dbcba"},"vehicle_type_id":"4","last_reported":1701684501,"current_range_meters":22800,"station_id":"ce4bhn92rcd13ifvqgrg","pricing_plan_id":"free"},{"bike_id":"80415d5d-a2fd-4537-a117-050f1d8d2b2f","system_id":"levelo_inurba_marseille","lat":43.27497,"lon":5.42448,"is_reserved":false,"is_disabled":false,"rental_uris":{"android":"levelo://app?vid=80415d5d-a2fd-4537-a117-050f1d8d2b2f","ios":"levelo://app?vid=80415d5d-a2fd-4537-a117-050f1d8d2b2f"},"vehicle_type_id":"4","last_reported":1701684501,"current_range_meters":17200,"station_id":"ce4bhn92rcd13ifvqgrg","pricing_plan_id":"free"},{"bike_id":"f7bce490-38ce-426e-8a28-e1380519c898","system_id":"levelo_inurba_marseille","lat":43.27496,"lon":5.42448,"is_reserved":false,"is_disabled":false,"rental_uris":{"android":"levelo://app?vid=f7bce490-38ce-426e-8a28-e1380519c898","ios":"levelo://app?vid=f7bce490-38ce-426e-8a28-e1380519c898"},"vehicle_type_id":"4","last_reported":1701684501,"current_range_meters":22400,"station_id":"ce4bhn92rcd13ifvqgrg","pricing_plan_id":"free"},{"bike_id":"1fea76db-2e1b-4050-8d89-01ef580781b9","system_id":"levelo_inurba_marseille","lat":43.27494,"lon":5.42448,"is_reserved":false,"is_disabled":false,"rental_uris":{"android":"levelo://app?vid=1fea76db-2e1b-4050-8d89-01ef580781b9","ios":"levelo://app?vid=1fea76db-2e1b-4050-8d89-01ef580781b9"},"vehicle_type_id":"4","last_reported":1701684501,"current_range_meters":6400,"station_id":"ce4bhn92rcd13ifvqgrg","pricing_plan_id":"free"},{"bike_id":"2c4ea684-d3df-425b-8578-5e576ab8d9b6","system_id":"levelo_inurba_marseille","lat":43.27497,"lon":5.42452,"is_reserved":false,"is_disabled":false,"rental_uris":{"android":"levelo://app?vid=2c4ea684-d3df-425b-8578-5e576ab8d9b6","ios":"levelo://app?vid=2c4ea684-d3df-425b-8578-5e576ab8d9b6"},"vehicle_type_id":"4","last_reported":1701684501,"current_range_meters":12800,"station_id":"ce4bhn92rcd13ifvqgrg","pricing_plan_id":"free"},{"bike_id":"07d0b2fd-f0f7-482c-ab1d-d90abfaf4599","system_id":"levelo_inurba_marseille","lat":43.27496,"lon":5.42451,"is_reserved":false,"is_disabled":false,"rental_uris":{"android":"levelo://app?vid=07d0b2fd-f0f7-482c-ab1d-d90abfaf4599","ios":"levelo://app?vid=07d0b2fd-f0f7-482c-ab1d-d90abfaf4599"},"vehicle_type_id":"4","last_reported":1701684501,"current_range_meters":22800,"station_id":"ce4bhn92rcd13ifvqgrg","pricing_plan_id":"free"},{"bike_id":"f1a4bd6d-e695-438c-b29b-aede97329226","system_id":"levelo_inurba_marseille","lat":43.27494,"lon":5.42449,"is_reserved":false,"is_disabled":false,"rental_uris":{"android":"levelo://app?vid=f1a4bd6d-e695-438c-b29b-aede97329226","ios":"levelo://app?vid=f1a4bd6d-e695-438c-b29b-aede97329226"},"vehicle_type_id":"4","last_reported":1701684501,"current_range_meters":20000,"station_id":"ce4bhn92rcd13ifvqgrg","pricing_plan_id":"free"},{"bike_id":"d397b818-4d16-4fe1-98f5-a3e82caa7de2","system_id":"levelo_inurba_marseille","lat":43.27495,"lon":5.42451,"is_reserved":false,"is_disabled":false,"rental_uris":{"android":"levelo://app?vid=d397b818-4d16-4fe1-98f5-a3e82caa7de2","ios":"levelo://app?vid=d397b818-4d16-4fe1-98f5-a3e82caa7de2"},"vehicle_type_id":"4","last_reported":1701684501,"current_range_meters":18800,"station_id":"ce4bhn92rcd13ifvqgrg","pricing_plan_id":"free"},{"bike_id":"0cf91f44-1c71-4055-a585-bd700e726a30","system_id":"levelo_inurba_marseille","lat":43.27493,"lon":5.42451,"is_reserved":false,"is_disabled":false,"rental_uris":{"android":"levelo://app?vid=0cf91f44-1c71-4055-a585-bd700e726a30","ios":"levelo://app?vid=0cf91f44-1c71-4055-a585-bd700e726a30"},"vehicle_type_id":"4","last_reported":1701684501,"current_range_meters":18800,"station_id":"ce4bhn92rcd13ifvqgrg","pricing_plan_id":"free"},{"bike_id":"181aadf4-f85a-4357-a2a1-52ece302f63a","system_id":"levelo_inurba_marseille","lat":43.27492,"lon":5.42452,"is_reserved":false,"is_disabled":false,"rental_uris":{"android":"levelo://app?vid=181aadf4-f85a-4357-a2a1-52ece302f63a","ios":"levelo://app?vid=181aadf4-f85a-4357-a2a1-52ece302f63a"},"vehicle_type_id":"4","last_reported":1701684501,"current_range_meters":20000,"station_id":"ce4bhn92rcd13ifvqgrg","pricing_plan_id":"free"},{"bike_id":"74f8af55-ccdf-4cc0-85c6-e8172bf564aa","system_id":"levelo_inurba_marseille","lat":43.27494,"lon":5.42456,"is_reserved":false,"is_disabled":false,"rental_uris":{"android":"levelo://app?vid=74f8af55-ccdf-4cc0-85c6-e8172bf564aa","ios":"levelo://app?vid=74f8af55-ccdf-4cc0-85c6-e8172bf564aa"},"vehicle_type_id":"4","last_reported":1701684501,"current_range_meters":18400,"station_id":"ce4bhn92rcd13ifvqgrg","pricing_plan_id":"free"},{"bike_id":"2896d740-c829-4769-ab23-e2aa604b10cd","system_id":"levelo_inurba_marseille","lat":43.27495,"lon":5.42458,"is_reserved":false,"is_disabled":false,"rental_uris":{"android":"levelo://app?vid=2896d740-c829-4769-ab23-e2aa604b10cd","ios":"levelo://app?vid=2896d740-c829-4769-ab23-e2aa604b10cd"},"vehicle_type_id":"4","last_reported":1701684501,"current_range_meters":28400,"station_id":"ce4bhn92rcd13ifvqgrg","pricing_plan_id":"free"},{"bike_id":"1442ffd9-954e-48a9-97d8-1c007af2e23d","system_id":"levelo_inurba_marseille","lat":43.27491,"lon":5.42454,"is_reserved":false,"is_disabled":false,"rental_uris":{"android":"levelo://app?vid=1442ffd9-954e-48a9-97d8-1c007af2e23d","ios":"levelo://app?vid=1442ffd9-954e-48a9-97d8-1c007af2e23d"},"vehicle_type_id":"4","last_reported":1701684501,"current_range_meters":10800,"station_id":"ce4bhn92rcd13ifvqgrg","pricing_plan_id":"free"},{"bike_id":"df2fc6a0-a2bf-42d2-b706-39d05cae4606","system_id":"levelo_inurba_marseille","lat":43.25581,"lon":5.3823,"is_reserved":false,"is_disabled":false,"rental_uris":{"android":"levelo://app?vid=df2fc6a0-a2bf-42d2-b706-39d05cae4606","ios":"levelo://app?vid=df2fc6a0-a2bf-42d2-b706-39d05cae4606"},"vehicle_type_id":"4","last_reported":1701684501,"current_range_meters":0,"station_id":"ce4bhih2rcd13ifvqfs0","pricing_plan_id":"free"},{"bike_id":"01cafc76-788b-4956-a52f-65796b80b893","system_id":"levelo_inurba_marseille","lat":43.255813,"lon":5.382328,"is_reserved":false,"is_disabled":false,"rental_uris":{"android":"levelo://app?vid=01cafc76-788b-4956-a52f-65796b80b893","ios":"levelo://app?vid=01cafc76-788b-4956-a52f-65796b80b893"},"vehicle_type_id":"4","last_reported":1701684501,"current_range_meters":14800,"station_id":"ce4bhih2rcd13ifvqfs0","pricing_plan_id":"free"},{"bike_id":"343abc3c-e02d-437e-b758-4b73aef440db","system_id":"levelo_inurba_marseille","lat":43.25508,"lon":5.37643,"is_reserved":false,"is_disabled":false,"rental_uris":{"android":"levelo://app?vid=343abc3c-e02d-437e-b758-4b73aef440db","ios":"levelo://app?vid=343abc3c-e02d-437e-b758-4b73aef440db"},"vehicle_type_id":"4","last_reported":1701684501,"current_range_meters":28000,"station_id":"ce4bhh12rcd13ifvqff0","pricing_plan_id":"free"},{"bike_id":"66b21a0c-94da-405d-8137-c1cddb78fb4e","system_id":"levelo_inurba_marseille","lat":43.25575,"lon":5.38244,"is_reserved":false,"is_disabled":false,"rental_uris":{"android":"levelo://app?vid=66b21a0c-94da-405d-8137-c1cddb78fb4e","ios":"levelo://app?vid=66b21a0c-94da-405d-8137-c1cddb78fb4e"},"vehicle_type_id":"4","last_reported":1701684501,"current_range_meters":17600,"station_id":"ce4bhih2rcd13ifvqfs0","pricing_plan_id":"free"},{"bike_id":"078d677a-d2ec-4c03-84a9-8d054f095a15","system_id":"levelo_inurba_marseille","lat":43.25504,"lon":5.37642,"is_reserved":false,"is_disabled":false,"rental_uris":{"android":"levelo://app?vid=078d677a-d2ec-4c03-84a9-8d054f095a15","ios":"levelo://app?vid=078d677a-d2ec-4c03-84a9-8d054f095a15"},"vehicle_type_id":"4","last_reported":1701684501,"current_range_meters":24400,"station_id":"ce4bhh12rcd13ifvqff0","pricing_plan_id":"free"},{"bike_id":"c4190b31-98fb-4e4e-b800-789652f41352","system_id":"levelo_inurba_marseille","lat":43.255026,"lon":5.376506,"is_reserved":false,"is_disabled":false,"rental_uris":{"android":"levelo://app?vid=c4190b31-98fb-4e4e-b800-789652f41352","ios":"levelo://app?vid=c4190b31-98fb-4e4e-b800-789652f41352"},"vehicle_type_id":"4","last_reported":1701684501,"current_range_meters":23200,"station_id":"","pricing_plan_id":"free"},{"bike_id":"ded07d4e-258c-4066-b4f9-5f396988446c","system_id":"levelo_inurba_marseille","lat":43.255015,"lon":5.376495,"is_reserved":false,"is_disabled":false,"rental_uris":{"android":"levelo://app?vid=ded07d4e-258c-4066-b4f9-5f396988446c","ios":"levelo://app?vid=ded07d4e-258c-4066-b4f9-5f396988446c"},"vehicle_type_id":"4","last_reported":1701684501,"current_range_meters":18800,"station_id":"ce4bhh12rcd13ifvqff0","pricing_plan_id":"free"},{"bike_id":"917cb5c7-1c75-44ef-90ca-5958cfd31a67","system_id":"levelo_inurba_marseille","lat":43.25499,"lon":5.37647,"is_reserved":false,"is_disabled":false,"rental_uris":{"android":"levelo://app?vid=917cb5c7-1c75-44ef-90ca-5958cfd31a67","ios":"levelo://app?vid=917cb5c7-1c75-44ef-90ca-5958cfd31a67"},"vehicle_type_id":"4","last_reported":1701684501,"current_range_meters":25600,"station_id":"ce4bhh12rcd13ifvqff0","pricing_plan_id":"free"},{"bike_id":"e72008a9-53a7-4941-a163-953a03680224","system_id":"levelo_inurba_marseille","lat":43.254983,"lon":5.376489,"is_reserved":false,"is_disabled":false,"rental_uris":{"android":"levelo://app?vid=e72008a9-53a7-4941-a163-953a03680224","ios":"levelo://app?vid=e72008a9-53a7-4941-a163-953a03680224"},"vehicle_type_id":"4","last_reported":1701684501,"current_range_meters":13600,"station_id":"ce4bhh12rcd13ifvqff0","pricing_plan_id":"free"},{"bike_id":"7c0fa8ce-63ea-40a6-ad15-9b21c53beeea","system_id":"levelo_inurba_marseille","lat":43.254982,"lon":5.37651,"is_reserved":false,"is_disabled":false,"rental_uris":{"android":"levelo://app?vid=7c0fa8ce-63ea-40a6-ad15-9b21c53beeea","ios":"levelo://app?vid=7c0fa8ce-63ea-40a6-ad15-9b21c53beeea"},"vehicle_type_id":"4","last_reported":1701684501,"current_range_meters":14000,"station_id":"ce4bhh12rcd13ifvqff0","pricing_plan_id":"free"},{"bike_id":"dcf42513-b79f-4adc-9d0b-3660790d450a","system_id":"levelo_inurba_marseille","lat":43.270721,"lon":5.422764,"is_reserved":false,"is_disabled":false,"rental_uris":{"android":"levelo://app?vid=dcf42513-b79f-4adc-9d0b-3660790d450a","ios":"levelo://app?vid=dcf42513-b79f-4adc-9d0b-3660790d450a"},"vehicle_type_id":"4","last_reported":1701684501,"current_range_meters":14800,"station_id":"ce4bhk92rcd13ifvqgb0","pricing_plan_id":"free"},{"bike_id":"e6fee166-d8ae-4019-abb3-6c4f3b176b93","system_id":"levelo_inurba_marseille","lat":43.270721,"lon":5.422764,"is_reserved":false,"is_disabled":false,"rental_uris":{"android":"levelo://app?vid=e6fee166-d8ae-4019-abb3-6c4f3b176b93","ios":"levelo://app?vid=e6fee166-d8ae-4019-abb3-6c4f3b176b93"},"vehicle_type_id":"4","last_reported":1701684501,"current_range_meters":31600,"station_id":"ce4bhk92rcd13ifvqgb0","pricing_plan_id":"free"},{"bike_id":"e7f61b20-5739-458e-b724-183ead7dfffd","system_id":"levelo_inurba_marseille","lat":43.25937,"lon":5.40905,"is_reserved":false,"is_disabled":false,"rental_uris":{"android":"levelo://app?vid=e7f61b20-5739-458e-b724-183ead7dfffd","ios":"levelo://app?vid=e7f61b20-5739-458e-b724-183ead7dfffd"},"vehicle_type_id":"4","last_reported":1701684501,"current_range_meters":8000,"station_id":"ce4bhm92rcd13ifvqglg","pricing_plan_id":"free"},{"bike_id":"cb118d21-1e7e-4798-bb69-af48b989b18d","system_id":"levelo_inurba_marseille","lat":43.25933,"lon":5.40913,"is_reserved":false,"is_disabled":false,"rental_uris":{"android":"levelo://app?vid=cb118d21-1e7e-4798-bb69-af48b989b18d","ios":"levelo://app?vid=cb118d21-1e7e-4798-bb69-af48b989b18d"},"vehicle_type_id":"4","last_reported":1701684501,"current_range_meters":23200,"station_id":"ce4bhm92rcd13ifvqglg","pricing_plan_id":"free"},{"bike_id":"79931ad1-634d-46b6-b4f2-2d3e004f3743","system_id":"levelo_inurba_marseille","lat":43.259013,"lon":5.409301,"is_reserved":false,"is_disabled":false,"rental_uris":{"android":"levelo://app?vid=79931ad1-634d-46b6-b4f2-2d3e004f3743","ios":"levelo://app?vid=79931ad1-634d-46b6-b4f2-2d3e004f3743"},"vehicle_type_id":"4","last_reported":1701684501,"current_range_meters":3200,"station_id":"ce4bhm92rcd13ifvqglg","pricing_plan_id":"free"},{"bike_id":"e8e1ca85-bc08-4e64-87b5-a7fd1983faf8","system_id":"levelo_inurba_marseille","lat":43.259009,"lon":5.40929,"is_reserved":false,"is_disabled":false,"rental_uris":{"android":"levelo://app?vid=e8e1ca85-bc08-4e64-87b5-a7fd1983faf8","ios":"levelo://app?vid=e8e1ca85-bc08-4e64-87b5-a7fd1983faf8"},"vehicle_type_id":"4","last_reported":1701684501,"current_range_meters":22400,"station_id":"ce4bhm92rcd13ifvqglg","pricing_plan_id":"free"},{"bike_id":"bee61dc6-9764-4267-a768-a1fb711af849","system_id":"levelo_inurba_marseille","lat":43.259009,"lon":5.40929,"is_reserved":false,"is_disabled":false,"rental_uris":{"android":"levelo://app?vid=bee61dc6-9764-4267-a768-a1fb711af849","ios":"levelo://app?vid=bee61dc6-9764-4267-a768-a1fb711af849"},"vehicle_type_id":"4","last_reported":1701684501,"current_range_meters":19200,"station_id":"ce4bhm92rcd13ifvqglg","pricing_plan_id":"free"},{"bike_id":"09f8919c-9a0d-4acc-ad67-8ce676366609","system_id":"levelo_inurba_marseille","lat":43.2593,"lon":5.40914,"is_reserved":false,"is_disabled":false,"rental_uris":{"android":"levelo://app?vid=09f8919c-9a0d-4acc-ad67-8ce676366609","ios":"levelo://app?vid=09f8919c-9a0d-4acc-ad67-8ce676366609"},"vehicle_type_id":"4","last_reported":1701684501,"current_range_meters":23600,"station_id":"ce4bhm92rcd13ifvqglg","pricing_plan_id":"free"},{"bike_id":"4b531910-b0c4-4ee2-9fa5-bba2025def72","system_id":"levelo_inurba_marseille","lat":43.250023,"lon":5.38919,"is_reserved":false,"is_disabled":false,"rental_uris":{"android":"levelo://app?vid=4b531910-b0c4-4ee2-9fa5-bba2025def72","ios":"levelo://app?vid=4b531910-b0c4-4ee2-9fa5-bba2025def72"},"vehicle_type_id":"4","last_reported":1701684501,"current_range_meters":23200,"station_id":"ce4bhgp2rcd13ifvqfd0","pricing_plan_id":"free"},{"bike_id":"0050d107-a2d5-4a6c-a474-13f7a477852a","system_id":"levelo_inurba_marseille","lat":43.250023,"lon":5.38919,"is_reserved":false,"is_disabled":false,"rental_uris":{"android":"levelo://app?vid=0050d107-a2d5-4a6c-a474-13f7a477852a","ios":"levelo://app?vid=0050d107-a2d5-4a6c-a474-13f7a477852a"},"vehicle_type_id":"4","last_reported":1701684501,"current_range_meters":26800,"station_id":"ce4bhgp2rcd13ifvqfd0","pricing_plan_id":"free"},{"bike_id":"2c92eded-66e5-4d53-98a0-b64e6c9c913c","system_id":"levelo_inurba_marseille","lat":43.25001,"lon":5.389186,"is_reserved":false,"is_disabled":false,"rental_uris":{"android":"levelo://app?vid=2c92eded-66e5-4d53-98a0-b64e6c9c913c","ios":"levelo://app?vid=2c92eded-66e5-4d53-98a0-b64e6c9c913c"},"vehicle_type_id":"4","last_reported":1701684501,"current_range_meters":10000,"station_id":"ce4bhgp2rcd13ifvqfd0","pricing_plan_id":"free"},{"bike_id":"b2095e5c-185a-415c-8fcf-3a12b5c3cb72","system_id":"levelo_inurba_marseille","lat":43.250023,"lon":5.38919,"is_reserved":false,"is_disabled":false,"rental_uris":{"android":"levelo://app?vid=b2095e5c-185a-415c-8fcf-3a12b5c3cb72","ios":"levelo://app?vid=b2095e5c-185a-415c-8fcf-3a12b5c3cb72"},"vehicle_type_id":"4","last_reported":1701684501,"current_range_meters":18400,"station_id":"ce4bhgp2rcd13ifvqfd0","pricing_plan_id":"free"},{"bike_id":"e1486615-1f97-47a6-969e-80868e9295bf","system_id":"levelo_inurba_marseille","lat":43.2509,"lon":5.39521,"is_reserved":false,"is_disabled":false,"rental_uris":{"android":"levelo://app?vid=e1486615-1f97-47a6-969e-80868e9295bf","ios":"levelo://app?vid=e1486615-1f97-47a6-969e-80868e9295bf"},"vehicle_type_id":"4","last_reported":1701684501,"current_range_meters":12400,"station_id":"ce4bhm12rcd13ifvqgkg","pricing_plan_id":"free"},{"bike_id":"481b4a30-a0f8-4018-9d41-21ac5012a2fa","system_id":"levelo_inurba_marseille","lat":43.24693,"lon":5.382096,"is_reserved":false,"is_disabled":false,"rental_uris":{"android":"levelo://app?vid=481b4a30-a0f8-4018-9d41-21ac5012a2fa","ios":"levelo://app?vid=481b4a30-a0f8-4018-9d41-21ac5012a2fa"},"vehicle_type_id":"4","last_reported":1701684501,"current_range_meters":20800,"station_id":"ce4bhih2rcd13ifvqfr0","pricing_plan_id":"free"},{"bike_id":"4d762fd6-f6ff-48e7-aac0-19bf59f60ecd","system_id":"levelo_inurba_marseille","lat":43.246467,"lon":5.388984,"is_reserved":false,"is_disabled":false,"rental_uris":{"android":"levelo://app?vid=4d762fd6-f6ff-48e7-aac0-19bf59f60ecd","ios":"levelo://app?vid=4d762fd6-f6ff-48e7-aac0-19bf59f60ecd"},"vehicle_type_id":"4","last_reported":1701684501,"current_range_meters":13600,"station_id":"ce4bhg12rcd13ifvqf60","pricing_plan_id":"free"},{"bike_id":"25176d52-a3e5-4451-ae29-3b13e8ea26fe","system_id":"levelo_inurba_marseille","lat":43.246467,"lon":5.388984,"is_reserved":false,"is_disabled":false,"rental_uris":{"android":"levelo://app?vid=25176d52-a3e5-4451-ae29-3b13e8ea26fe","ios":"levelo://app?vid=25176d52-a3e5-4451-ae29-3b13e8ea26fe"},"vehicle_type_id":"4","last_reported":1701684501,"current_range_meters":27600,"station_id":"ce4bhg12rcd13ifvqf60","pricing_plan_id":"free"},{"bike_id":"0c99bbb2-aa98-46ad-830d-f1f0e833610a","system_id":"levelo_inurba_marseille","lat":43.243884,"lon":5.370737,"is_reserved":false,"is_disabled":false,"rental_uris":{"android":"levelo://app?vid=0c99bbb2-aa98-46ad-830d-f1f0e833610a","ios":"levelo://app?vid=0c99bbb2-aa98-46ad-830d-f1f0e833610a"},"vehicle_type_id":"4","last_reported":1701684501,"current_range_meters":23600,"station_id":"ce4bhhh2rcd13ifvqfk0","pricing_plan_id":"free"},{"bike_id":"837823c0-1805-4907-8b03-832503f29a7f","system_id":"levelo_inurba_marseille","lat":43.243884,"lon":5.370737,"is_reserved":false,"is_disabled":false,"rental_uris":{"android":"levelo://app?vid=837823c0-1805-4907-8b03-832503f29a7f","ios":"levelo://app?vid=837823c0-1805-4907-8b03-832503f29a7f"},"vehicle_type_id":"4","last_reported":1701684501,"current_range_meters":30000,"station_id":"ce4bhhh2rcd13ifvqfk0","pricing_plan_id":"free"},{"bike_id":"40dd6df8-9a91-4104-9816-30c6f87a1c59","system_id":"levelo_inurba_marseille","lat":43.243884,"lon":5.370736,"is_reserved":false,"is_disabled":false,"rental_uris":{"android":"levelo://app?vid=40dd6df8-9a91-4104-9816-30c6f87a1c59","ios":"levelo://app?vid=40dd6df8-9a91-4104-9816-30c6f87a1c59"},"vehicle_type_id":"4","last_reported":1701684501,"current_range_meters":15600,"station_id":"ce4bhhh2rcd13ifvqfk0","pricing_plan_id":"free"},{"bike_id":"24f755ce-b094-48d8-96ab-65f254e17598","system_id":"levelo_inurba_marseille","lat":43.243884,"lon":5.370737,"is_reserved":false,"is_disabled":false,"rental_uris":{"android":"levelo://app?vid=24f755ce-b094-48d8-96ab-65f254e17598","ios":"levelo://app?vid=24f755ce-b094-48d8-96ab-65f254e17598"},"vehicle_type_id":"4","last_reported":1701684501,"current_range_meters":28000,"station_id":"ce4bhhh2rcd13ifvqfk0","pricing_plan_id":"free"},{"bike_id":"d90f7333-a64b-4ebd-8384-161bbc00c4c4","system_id":"levelo_inurba_marseille","lat":43.243884,"lon":5.370736,"is_reserved":false,"is_disabled":false,"rental_uris":{"android":"levelo://app?vid=d90f7333-a64b-4ebd-8384-161bbc00c4c4","ios":"levelo://app?vid=d90f7333-a64b-4ebd-8384-161bbc00c4c4"},"vehicle_type_id":"4","last_reported":1701684501,"current_range_meters":12400,"station_id":"ce4bhhh2rcd13ifvqfk0","pricing_plan_id":"free"},{"bike_id":"8a8e58fc-03cd-4b4c-9b9e-3683264c747e","system_id":"levelo_inurba_marseille","lat":43.245581,"lon":5.395069,"is_reserved":false,"is_disabled":false,"rental_uris":{"android":"levelo://app?vid=8a8e58fc-03cd-4b4c-9b9e-3683264c747e","ios":"levelo://app?vid=8a8e58fc-03cd-4b4c-9b9e-3683264c747e"},"vehicle_type_id":"4","last_reported":1701684501,"current_range_meters":28000,"station_id":"ce4bhlp2rcd13ifvqgjg","pricing_plan_id":"free"},{"bike_id":"43dcc53c-0402-4665-82aa-27920a7c50a2","system_id":"levelo_inurba_marseille","lat":43.239588,"lon":5.366238,"is_reserved":false,"is_disabled":false,"rental_uris":{"android":"levelo://app?vid=43dcc53c-0402-4665-82aa-27920a7c50a2","ios":"levelo://app?vid=43dcc53c-0402-4665-82aa-27920a7c50a2"},"vehicle_type_id":"4","last_reported":1701684501,"current_range_meters":22400,"station_id":"ce4bhi12rcd13ifvqfp0","pricing_plan_id":"free"},{"bike_id":"15ec8c74-bb7d-4bed-ae17-b97a26635983","system_id":"levelo_inurba_marseille","lat":43.239588,"lon":5.366238,"is_reserved":false,"is_disabled":false,"rental_uris":{"android":"levelo://app?vid=15ec8c74-bb7d-4bed-ae17-b97a26635983","ios":"levelo://app?vid=15ec8c74-bb7d-4bed-ae17-b97a26635983"},"vehicle_type_id":"4","last_reported":1701684501,"current_range_meters":25600,"station_id":"ce4bhi12rcd13ifvqfp0","pricing_plan_id":"free"},{"bike_id":"d20a470f-eec9-4be7-9312-f4382b146bbd","system_id":"levelo_inurba_marseille","lat":43.239588,"lon":5.366238,"is_reserved":false,"is_disabled":false,"rental_uris":{"android":"levelo://app?vid=d20a470f-eec9-4be7-9312-f4382b146bbd","ios":"levelo://app?vid=d20a470f-eec9-4be7-9312-f4382b146bbd"},"vehicle_type_id":"4","last_reported":1701684501,"current_range_meters":18000,"station_id":"ce4bhi12rcd13ifvqfp0","pricing_plan_id":"free"},{"bike_id":"634fbb7f-7480-4299-9adf-8771e3abcb11","system_id":"levelo_inurba_marseille","lat":43.239588,"lon":5.366238,"is_reserved":false,"is_disabled":false,"rental_uris":{"android":"levelo://app?vid=634fbb7f-7480-4299-9adf-8771e3abcb11","ios":"levelo://app?vid=634fbb7f-7480-4299-9adf-8771e3abcb11"},"vehicle_type_id":"4","last_reported":1701684501,"current_range_meters":16800,"station_id":"ce4bhi12rcd13ifvqfp0","pricing_plan_id":"free"},{"bike_id":"2232eb50-8241-47c3-aeb9-f6e3ee401704","system_id":"levelo_inurba_marseille","lat":43.239588,"lon":5.366238,"is_reserved":false,"is_disabled":false,"rental_uris":{"android":"levelo://app?vid=2232eb50-8241-47c3-aeb9-f6e3ee401704","ios":"levelo://app?vid=2232eb50-8241-47c3-aeb9-f6e3ee401704"},"vehicle_type_id":"4","last_reported":1701684501,"current_range_meters":30800,"station_id":"ce4bhi12rcd13ifvqfp0","pricing_plan_id":"free"},{"bike_id":"7f284465-fada-4bfe-83d9-86527b7b5358","system_id":"levelo_inurba_marseille","lat":43.239588,"lon":5.366238,"is_reserved":false,"is_disabled":false,"rental_uris":{"android":"levelo://app?vid=7f284465-fada-4bfe-83d9-86527b7b5358","ios":"levelo://app?vid=7f284465-fada-4bfe-83d9-86527b7b5358"},"vehicle_type_id":"4","last_reported":1701684501,"current_range_meters":26800,"station_id":"ce4bhi12rcd13ifvqfp0","pricing_plan_id":"free"},{"bike_id":"eb1d283c-e696-4afd-beba-5a6438129bb8","system_id":"levelo_inurba_marseille","lat":43.241782,"lon":5.397261,"is_reserved":false,"is_disabled":false,"rental_uris":{"android":"levelo://app?vid=eb1d283c-e696-4afd-beba-5a6438129bb8","ios":"levelo://app?vid=eb1d283c-e696-4afd-beba-5a6438129bb8"},"vehicle_type_id":"4","last_reported":1701684501,"current_range_meters":3600,"station_id":"ce4bhn12rcd13ifvqgpg","pricing_plan_id":"free"},{"bike_id":"9e01ee59-41e6-425c-ae1f-3e33312fefcd","system_id":"levelo_inurba_marseille","lat":43.231923,"lon":5.355545,"is_reserved":false,"is_disabled":false,"rental_uris":{"android":"levelo://app?vid=9e01ee59-41e6-425c-ae1f-3e33312fefcd","ios":"levelo://app?vid=9e01ee59-41e6-425c-ae1f-3e33312fefcd"},"vehicle_type_id":"4","last_reported":1701684501,"current_range_meters":12400,"station_id":"ce4bhu92rcd13ifvqi70","pricing_plan_id":"free"},{"bike_id":"cf3102c4-88e0-4a41-86b7-69a76932d3e6","system_id":"levelo_inurba_marseille","lat":43.231923,"lon":5.355545,"is_reserved":false,"is_disabled":false,"rental_uris":{"android":"levelo://app?vid=cf3102c4-88e0-4a41-86b7-69a76932d3e6","ios":"levelo://app?vid=cf3102c4-88e0-4a41-86b7-69a76932d3e6"},"vehicle_type_id":"4","last_reported":1701684501,"current_range_meters":31600,"station_id":"ce4bhu92rcd13ifvqi70","pricing_plan_id":"free"},{"bike_id":"6041d620-664b-4836-b597-a0e62593a032","system_id":"levelo_inurba_marseille","lat":43.231923,"lon":5.355545,"is_reserved":false,"is_disabled":false,"rental_uris":{"android":"levelo://app?vid=6041d620-664b-4836-b597-a0e62593a032","ios":"levelo://app?vid=6041d620-664b-4836-b597-a0e62593a032"},"vehicle_type_id":"4","last_reported":1701684501,"current_range_meters":24800,"station_id":"ce4bhu92rcd13ifvqi70","pricing_plan_id":"free"},{"bike_id":"2b04708e-eed8-4471-916a-9fdeea01eec7","system_id":"levelo_inurba_marseille","lat":43.231923,"lon":5.355545,"is_reserved":false,"is_disabled":false,"rental_uris":{"android":"levelo://app?vid=2b04708e-eed8-4471-916a-9fdeea01eec7","ios":"levelo://app?vid=2b04708e-eed8-4471-916a-9fdeea01eec7"},"vehicle_type_id":"4","last_reported":1701684501,"current_range_meters":28800,"station_id":"ce4bhu92rcd13ifvqi70","pricing_plan_id":"free"},{"bike_id":"22bd98e3-c33f-4c44-ae2b-f96729d36f4f","system_id":"levelo_inurba_marseille","lat":43.231793,"lon":5.400044,"is_reserved":false,"is_disabled":false,"rental_uris":{"android":"levelo://app?vid=22bd98e3-c33f-4c44-ae2b-f96729d36f4f","ios":"levelo://app?vid=22bd98e3-c33f-4c44-ae2b-f96729d36f4f"},"vehicle_type_id":"4","last_reported":1701684501,"current_range_meters":31200,"station_id":"ce4bhn12rcd13ifvqgqg","pricing_plan_id":"free"},{"bike_id":"0cf73e26-cfe4-495a-8675-6603ab968aec","system_id":"levelo_inurba_marseille","lat":43.231794,"lon":5.400052,"is_reserved":false,"is_disabled":false,"rental_uris":{"android":"levelo://app?vid=0cf73e26-cfe4-495a-8675-6603ab968aec","ios":"levelo://app?vid=0cf73e26-cfe4-495a-8675-6603ab968aec"},"vehicle_type_id":"4","last_reported":1701684501,"current_range_meters":28800,"station_id":"ce4bhn12rcd13ifvqgqg","pricing_plan_id":"free"},{"bike_id":"554e18bc-f6bd-448a-9d3a-a49810d0b6de","system_id":"levelo_inurba_marseille","lat":43.231794,"lon":5.400052,"is_reserved":false,"is_disabled":false,"rental_uris":{"android":"levelo://app?vid=554e18bc-f6bd-448a-9d3a-a49810d0b6de","ios":"levelo://app?vid=554e18bc-f6bd-448a-9d3a-a49810d0b6de"},"vehicle_type_id":"4","last_reported":1701684501,"current_range_meters":14800,"station_id":"ce4bhn12rcd13ifvqgqg","pricing_plan_id":"free"},{"bike_id":"88cf855f-bb31-40e0-8afc-686df3c193ab","system_id":"levelo_inurba_marseille","lat":43.231794,"lon":5.400052,"is_reserved":false,"is_disabled":false,"rental_uris":{"android":"levelo://app?vid=88cf855f-bb31-40e0-8afc-686df3c193ab","ios":"levelo://app?vid=88cf855f-bb31-40e0-8afc-686df3c193ab"},"vehicle_type_id":"4","last_reported":1701684501,"current_range_meters":28800,"station_id":"ce4bhn12rcd13ifvqgqg","pricing_plan_id":"free"},{"bike_id":"8bb4a4e8-9672-4d13-b6c9-9d0eb28673b3","system_id":"levelo_inurba_marseille","lat":43.231793,"lon":5.400044,"is_reserved":false,"is_disabled":false,"rental_uris":{"android":"levelo://app?vid=8bb4a4e8-9672-4d13-b6c9-9d0eb28673b3","ios":"levelo://app?vid=8bb4a4e8-9672-4d13-b6c9-9d0eb28673b3"},"vehicle_type_id":"4","last_reported":1701684501,"current_range_meters":30000,"station_id":"ce4bhn12rcd13ifvqgqg","pricing_plan_id":"free"},{"bike_id":"8f0fb87f-53e2-432d-b05f-ab1e816b61dc","system_id":"levelo_inurba_marseille","lat":43.231794,"lon":5.400052,"is_reserved":false,"is_disabled":false,"rental_uris":{"android":"levelo://app?vid=8f0fb87f-53e2-432d-b05f-ab1e816b61dc","ios":"levelo://app?vid=8f0fb87f-53e2-432d-b05f-ab1e816b61dc"},"vehicle_type_id":"4","last_reported":1701684501,"current_range_meters":31200,"station_id":"ce4bhn12rcd13ifvqgqg","pricing_plan_id":"free"},{"bike_id":"e44db449-6914-4cfb-bde0-4c3cbeca97c3","system_id":"levelo_inurba_marseille","lat":43.231794,"lon":5.400052,"is_reserved":false,"is_disabled":false,"rental_uris":{"android":"levelo://app?vid=e44db449-6914-4cfb-bde0-4c3cbeca97c3","ios":"levelo://app?vid=e44db449-6914-4cfb-bde0-4c3cbeca97c3"},"vehicle_type_id":"4","last_reported":1701684501,"current_range_meters":30800,"station_id":"ce4bhn12rcd13ifvqgqg","pricing_plan_id":"free"},{"bike_id":"6bd9f065-50d9-4657-9ca0-a006f413d305","system_id":"levelo_inurba_marseille","lat":43.231794,"lon":5.400052,"is_reserved":false,"is_disabled":false,"rental_uris":{"android":"levelo://app?vid=6bd9f065-50d9-4657-9ca0-a006f413d305","ios":"levelo://app?vid=6bd9f065-50d9-4657-9ca0-a006f413d305"},"vehicle_type_id":"4","last_reported":1701684501,"current_range_meters":31600,"station_id":"ce4bhn12rcd13ifvqgqg","pricing_plan_id":"free"},{"bike_id":"e47e98e0-4256-4c41-ae86-e531a41b9213","system_id":"levelo_inurba_marseille","lat":43.231794,"lon":5.400052,"is_reserved":false,"is_disabled":false,"rental_uris":{"android":"levelo://app?vid=e47e98e0-4256-4c41-ae86-e531a41b9213","ios":"levelo://app?vid=e47e98e0-4256-4c41-ae86-e531a41b9213"},"vehicle_type_id":"4","last_reported":1701684501,"current_range_meters":31600,"station_id":"ce4bhn12rcd13ifvqgqg","pricing_plan_id":"free"},{"bike_id":"5d9be6d5-2985-432d-ac4f-8e0798b2a0ac","system_id":"levelo_inurba_marseille","lat":43.231793,"lon":5.400044,"is_reserved":false,"is_disabled":false,"rental_uris":{"android":"levelo://app?vid=5d9be6d5-2985-432d-ac4f-8e0798b2a0ac","ios":"levelo://app?vid=5d9be6d5-2985-432d-ac4f-8e0798b2a0ac"},"vehicle_type_id":"4","last_reported":1701684501,"current_range_meters":30000,"station_id":"ce4bhn12rcd13ifvqgqg","pricing_plan_id":"free"},{"bike_id":"ab5eae98-96ca-4718-91b7-353de917f40d","system_id":"levelo_inurba_marseille","lat":43.231793,"lon":5.400044,"is_reserved":false,"is_disabled":false,"rental_uris":{"android":"levelo://app?vid=ab5eae98-96ca-4718-91b7-353de917f40d","ios":"levelo://app?vid=ab5eae98-96ca-4718-91b7-353de917f40d"},"vehicle_type_id":"4","last_reported":1701684501,"current_range_meters":31200,"station_id":"ce4bhn12rcd13ifvqgqg","pricing_plan_id":"free"},{"bike_id":"77b1a551-da7f-429a-980e-bfc6767a5958","system_id":"levelo_inurba_marseille","lat":43.231794,"lon":5.400052,"is_reserved":false,"is_disabled":false,"rental_uris":{"android":"levelo://app?vid=77b1a551-da7f-429a-980e-bfc6767a5958","ios":"levelo://app?vid=77b1a551-da7f-429a-980e-bfc6767a5958"},"vehicle_type_id":"4","last_reported":1701684501,"current_range_meters":31600,"station_id":"ce4bhn12rcd13ifvqgqg","pricing_plan_id":"free"},{"bike_id":"8018717d-336c-48a7-9c90-84a6551a8bc7","system_id":"levelo_inurba_marseille","lat":43.231491,"lon":5.436998,"is_reserved":false,"is_disabled":false,"rental_uris":{"android":"levelo://app?vid=8018717d-336c-48a7-9c90-84a6551a8bc7","ios":"levelo://app?vid=8018717d-336c-48a7-9c90-84a6551a8bc7"},"vehicle_type_id":"4","last_reported":1701684501,"current_range_meters":5600,"station_id":"ce4bhmp2rcd13ifvqgog","pricing_plan_id":"free"},{"bike_id":"818b7971-a62f-4d0c-b4d6-ebcff5688a44","system_id":"levelo_inurba_marseille","lat":43.231562,"lon":5.436933,"is_reserved":false,"is_disabled":false,"rental_uris":{"android":"levelo://app?vid=818b7971-a62f-4d0c-b4d6-ebcff5688a44","ios":"levelo://app?vid=818b7971-a62f-4d0c-b4d6-ebcff5688a44"},"vehicle_type_id":"4","last_reported":1701684501,"current_range_meters":28000,"station_id":"ce4bhmp2rcd13ifvqgog","pricing_plan_id":"free"},{"bike_id":"2e1f4911-ec15-4212-aa8f-8ade17ab151d","system_id":"levelo_inurba_marseille","lat":43.231562,"lon":5.436933,"is_reserved":false,"is_disabled":false,"rental_uris":{"android":"levelo://app?vid=2e1f4911-ec15-4212-aa8f-8ade17ab151d","ios":"levelo://app?vid=2e1f4911-ec15-4212-aa8f-8ade17ab151d"},"vehicle_type_id":"4","last_reported":1701684501,"current_range_meters":8000,"station_id":"ce4bhmp2rcd13ifvqgog","pricing_plan_id":"free"},{"bike_id":"ae0514d8-3f62-486c-99ef-e7173585d2a8","system_id":"levelo_inurba_marseille","lat":43.231562,"lon":5.436933,"is_reserved":false,"is_disabled":false,"rental_uris":{"android":"levelo://app?vid=ae0514d8-3f62-486c-99ef-e7173585d2a8","ios":"levelo://app?vid=ae0514d8-3f62-486c-99ef-e7173585d2a8"},"vehicle_type_id":"4","last_reported":1701684501,"current_range_meters":4800,"station_id":"ce4bhmp2rcd13ifvqgog","pricing_plan_id":"free"},{"bike_id":"706f037c-7ec0-40f4-884a-de295754c8cd","system_id":"levelo_inurba_marseille","lat":43.231562,"lon":5.436933,"is_reserved":false,"is_disabled":false,"rental_uris":{"android":"levelo://app?vid=706f037c-7ec0-40f4-884a-de295754c8cd","ios":"levelo://app?vid=706f037c-7ec0-40f4-884a-de295754c8cd"},"vehicle_type_id":"4","last_reported":1701684501,"current_range_meters":10400,"station_id":"ce4bhmp2rcd13ifvqgog","pricing_plan_id":"free"},{"bike_id":"31d0811f-403f-42aa-9ea6-b138ed5aedee","system_id":"levelo_inurba_marseille","lat":43.231562,"lon":5.436933,"is_reserved":false,"is_disabled":false,"rental_uris":{"android":"levelo://app?vid=31d0811f-403f-42aa-9ea6-b138ed5aedee","ios":"levelo://app?vid=31d0811f-403f-42aa-9ea6-b138ed5aedee"},"vehicle_type_id":"4","last_reported":1701684501,"current_range_meters":31600,"station_id":"ce4bhmp2rcd13ifvqgog","pricing_plan_id":"free"},{"bike_id":"de3cf5f3-8a01-4cf0-bf71-534ad46f0972","system_id":"levelo_inurba_marseille","lat":43.231562,"lon":5.436933,"is_reserved":false,"is_disabled":false,"rental_uris":{"android":"levelo://app?vid=de3cf5f3-8a01-4cf0-bf71-534ad46f0972","ios":"levelo://app?vid=de3cf5f3-8a01-4cf0-bf71-534ad46f0972"},"vehicle_type_id":"4","last_reported":1701684501,"current_range_meters":10400,"station_id":"ce4bhmp2rcd13ifvqgog","pricing_plan_id":"free"},{"bike_id":"30690881-465e-4f4e-a81a-04a1a40e4341","system_id":"levelo_inurba_marseille","lat":43.231562,"lon":5.436933,"is_reserved":false,"is_disabled":false,"rental_uris":{"android":"levelo://app?vid=30690881-465e-4f4e-a81a-04a1a40e4341","ios":"levelo://app?vid=30690881-465e-4f4e-a81a-04a1a40e4341"},"vehicle_type_id":"4","last_reported":1701684501,"current_range_meters":9200,"station_id":"ce4bhmp2rcd13ifvqgog","pricing_plan_id":"free"},{"bike_id":"9a101203-a4c3-4653-b04e-23d858664d35","system_id":"levelo_inurba_marseille","lat":43.231562,"lon":5.436933,"is_reserved":false,"is_disabled":false,"rental_uris":{"android":"levelo://app?vid=9a101203-a4c3-4653-b04e-23d858664d35","ios":"levelo://app?vid=9a101203-a4c3-4653-b04e-23d858664d35"},"vehicle_type_id":"4","last_reported":1701684501,"current_range_meters":28400,"station_id":"ce4bhmp2rcd13ifvqgog","pricing_plan_id":"free"},{"bike_id":"b718cec7-5e66-4216-830b-20c4cb80c1f6","system_id":"levelo_inurba_marseille","lat":43.231562,"lon":5.436933,"is_reserved":false,"is_disabled":false,"rental_uris":{"android":"levelo://app?vid=b718cec7-5e66-4216-830b-20c4cb80c1f6","ios":"levelo://app?vid=b718cec7-5e66-4216-830b-20c4cb80c1f6"},"vehicle_type_id":"4","last_reported":1701684501,"current_range_meters":30400,"station_id":"ce4bhmp2rcd13ifvqgog","pricing_plan_id":"free"}]}}