{"last_updated":1712610398,"ttl":30,"version":"2.2","data":{"bikes":[{"bike_id":"59211f08-0990-4089-be8f-5fd37ba0a086","system_id":"levelo_inurba_marseille","lat":43.31243,"lon":5.3665,"is_reserved":false,"is_disabled":false,"rental_uris":{"android":"levelo://app?vid=59211f08-0990-4089-be8f-5fd37ba0a086","ios":"levelo://app?vid=59211f08-0990-4089-be8f-5fd37ba0a086"},"vehicle_type_id":"4","last_reported":1712610398,"current_range_meters":12800,"station_id":"","pricing_plan_id":"cebpf4jnsgd1na2vs0mg"},{"bike_id":"99a2134b-199d-4c21-acab-0c7a07d6b892","system_id":"levelo_inurba_marseille","lat":43.313531,"lon":5.367247,"is_reserved":false,"is_disabled":false,"rental_uris":{"android":"levelo://app?vid=99a2134b-199d-4c21-acab-0c7a07d6b892","ios":"levelo://app?vid=99a2134b-199d-4c21-acab-0c7a07d6b892"},"vehicle_type_id":"4","last_reported":1712610398,"current_range_meters":0,"station_id":"ce4bgr92rcd13ifvqc6g","pricing_plan_id":"cebpf4jnsgd1na2vs0mg"},{"bike_id":"1a12e7e2-b7a2-4aae-8ae8-60901abed7a4","system_id":"levelo_inurba_marseille","lat":43.309076,"lon":5.368465,"is_reserved":false,"is_disabled":false,"rental_uris":{"android":"levelo://app?vid=1a12e7e2-b7a2-4aae-8ae8-60901abed7a4","ios":"levelo://app?vid=1a12e7e2-b7a2-4aae-8ae8-60901abed7a4"},"vehicle_type_id":"4","last_reported":1712610398,"current_range_meters":17600,"station_id":"ce4bgn92rcd13ifvqbvg","pricing_plan_id":"cebpf4jnsgd1na2vs0mg"},{"bike_id":"5e25fdfb-2819-4bdb-b0f5-7e39527f56eb","system_id":"levelo_inurba_marseille","lat":43.309076,"lon":5.368465,"is_reserved":false,"is_disabled":false,"rental_uris":{"android":"levelo://app?vid=5e25fdfb-2819-4bdb-b0f5-7e39527f56eb","ios":"levelo://app?vid=5e25fdfb-2819-4bdb-b0f5-7e39527f56eb"},"vehicle_type_id":"4","last_reported":1712610398,"current_range_meters":13600,"station_id":"ce4bgn92rcd13ifvqbvg","pricing_plan_id":"cebpf4jnsgd1na2vs0mg"},{"bike_id":"73706916-b3f3-4ff0-b068-cec67895e8b1","system_id":"levelo_inurba_marseille","lat":43.308473,"lon":5.36775,"is_reserved":false,"is_disabled":false,"rental_uris":{"android":"levelo://app?vid=73706916-b3f3-4ff0-b068-cec67895e8b1","ios":"levelo://app?vid=73706916-b3f3-4ff0-b068-cec67895e8b1"},"vehicle_type_id":"4","last_reported":1712610398,"current_range_meters":3200,"station_id":"","pricing_plan_id":"cebpf4jnsgd1na2vs0mg"},{"bike_id":"fe057305-bacc-4507-8303-77741b72db83","system_id":"levelo_inurba_marseille","lat":43.303046,"lon":5.368981,"is_reserved":false,"is_disabled":false,"rental_uris":{"android":"levelo://app?vid=fe057305-bacc-4507-8303-77741b72db83","ios":"levelo://app?vid=fe057305-bacc-4507-8303-77741b72db83"},"vehicle_type_id":"4","last_reported":1712610398,"current_range_meters":9200,"station_id":"ce4bgqh2rcd13ifvqc5g","pricing_plan_id":"cebpf4jnsgd1na2vs0mg"},{"bike_id":"5ab0b934-ede6-4403-ad0b-f2d3c1a1fc05","system_id":"levelo_inurba_marseille","lat":43.314811,"lon":5.373103,"is_reserved":false,"is_disabled":false,"rental_uris":{"android":"levelo://app?vid=5ab0b934-ede6-4403-ad0b-f2d3c1a1fc05","ios":"levelo://app?vid=5ab0b934-ede6-4403-ad0b-f2d3c1a1fc05"},"vehicle_type_id":"4","last_reported":1712610398,"current_range_meters":0,"station_id":"ce4bgt12rcd13ifvqcd0","pricing_plan_id":"cebpf4jnsgd1na2vs0mg"},{"bike_id":"858e09fc-3801-4363-a351-575b8bac6775","system_id":"levelo_inurba_marseille","lat":43.309039,"lon":5.371797,"is_reserved":false,"is_disabled":false,"rental_uris":{"android":"levelo://app?vid=858e09fc-3801-4363-a351-575b8bac6775","ios":"levelo://app?vid=858e09fc-3801-4363-a351-575b8bac6775"},"vehicle_type_id":"4","last_reported":1712610398,"current_range_meters":18800,"station_id":"ce4bguh2rcd13ifvqckg","pricing_plan_id":"cebpf4jnsgd1na2vs0mg"},{"bike_id":"85002ddc-3446-464e-8c0f-ba975b1f356d","system_id":"levelo_inurba_marseille","lat":43.30889,"lon":5.37209,"is_reserved":false,"is_disabled":false,"rental_uris":{"android":"levelo://app?vid=85002ddc-3446-464e-8c0f-ba975b1f356d","ios":"levelo://app?vid=85002ddc-3446-464e-8c0f-ba975b1f356d"},"vehicle_type_id":"4","last_reported":1712610398,"current_range_meters":0,"station_id":"ce4bguh2rcd13ifvqckg","pricing_plan_id":"cebpf4jnsgd1na2vs0mg"},{"bike_id":"68c7d4a5-651e-4be9-8e57-881748208321","system_id":"levelo_inurba_marseille","lat":43.309039,"lon":5.371797,"is_reserved":false,"is_disabled":false,"rental_uris":{"android":"levelo://app?vid=68c7d4a5-651e-4be9-8e57-881748208321","ios":"levelo://app?vid=68c7d4a5-651e-4be9-8e57-881748208321"},"vehicle_type_id":"4","last_reported":1712610398,"current_range_meters":20400,"station_id":"ce4bguh2rcd13ifvqckg","pricing_plan_id":"cebpf4jnsgd1na2vs0mg"},{"bike_id":"d1adb709-7742-4312-b552-1f74ed801022","system_id":"levelo_inurba_marseille","lat":43.308818,"lon":5.372054,"is_reserved":false,"is_disabled":false,"rental_uris":{"android":"levelo://app?vid=d1adb709-7742-4312-b552-1f74ed801022","ios":"levelo://app?vid=d1adb709-7742-4312-b552-1f74ed801022"},"vehicle_type_id":"4","last_reported":1712610398,"current_range_meters":16000,"station_id":"ce4bguh2rcd13ifvqckg","pricing_plan_id":"cebpf4jnsgd1na2vs0mg"},{"bike_id":"b6e7eaef-c92b-4e9d-bda8-17d07ad0989a","system_id":"levelo_inurba_marseille","lat":43.30537,"lon":5.367345,"is_reserved":false,"is_disabled":false,"rental_uris":{"android":"levelo://app?vid=b6e7eaef-c92b-4e9d-bda8-17d07ad0989a","ios":"levelo://app?vid=b6e7eaef-c92b-4e9d-bda8-17d07ad0989a"},"vehicle_type_id":"4","last_reported":1712610398,"current_range_meters":26800,"station_id":"ce4bgrp2rcd13ifvqc9g","pricing_plan_id":"cebpf4jnsgd1na2vs0mg"},{"bike_id":"299a61a3-f76b-41be-be20-9b21f158585e","system_id":"levelo_inurba_marseille","lat":43.305712,"lon":5.365641,"is_reserved":false,"is_disabled":false,"rental_uris":{"android":"levelo://app?vid=299a61a3-f76b-41be-be20-9b21f158585e","ios":"levelo://app?vid=299a61a3-f76b-41be-be20-9b21f158585e"},"vehicle_type_id":"4","last_reported":1712610398,"current_range_meters":0,"station_id":"ce4bgs12rcd13ifvqcag","pricing_plan_id":"cebpf4jnsgd1na2vs0mg"},{"bike_id":"0f6d8882-7f76-41a7-bd65-70c5952de0b3","system_id":"levelo_inurba_marseille","lat":43.31033,"lon":5.376813,"is_reserved":false,"is_disabled":false,"rental_uris":{"android":"levelo://app?vid=0f6d8882-7f76-41a7-bd65-70c5952de0b3","ios":"levelo://app?vid=0f6d8882-7f76-41a7-bd65-70c5952de0b3"},"vehicle_type_id":"4","last_reported":1712610398,"current_range_meters":5600,"station_id":"","pricing_plan_id":"cebpf4jnsgd1na2vs0mg"},{"bike_id":"ca1577e9-4a90-4879-8271-4af1843a35ec","system_id":"levelo_inurba_marseille","lat":43.302784,"lon":5.377158,"is_reserved":false,"is_disabled":false,"rental_uris":{"android":"levelo://app?vid=ca1577e9-4a90-4879-8271-4af1843a35ec","ios":"levelo://app?vid=ca1577e9-4a90-4879-8271-4af1843a35ec"},"vehicle_type_id":"4","last_reported":1712610398,"current_range_meters":30000,"station_id":"ce4bguh2rcd13ifvqcj0","pricing_plan_id":"cebpf4jnsgd1na2vs0mg"},{"bike_id":"bd8fefb7-5afe-416b-85e6-9a3cf43c49e7","system_id":"levelo_inurba_marseille","lat":43.311125,"lon":5.377624,"is_reserved":false,"is_disabled":false,"rental_uris":{"android":"levelo://app?vid=bd8fefb7-5afe-416b-85e6-9a3cf43c49e7","ios":"levelo://app?vid=bd8fefb7-5afe-416b-85e6-9a3cf43c49e7"},"vehicle_type_id":"4","last_reported":1712610398,"current_range_meters":0,"station_id":"ce4bgt92rcd13ifvqcg0","pricing_plan_id":"cebpf4jnsgd1na2vs0mg"},{"bike_id":"a56b2dc1-1de8-4d10-a38b-eb683790d947","system_id":"levelo_inurba_marseille","lat":43.311125,"lon":5.377624,"is_reserved":false,"is_disabled":false,"rental_uris":{"android":"levelo://app?vid=a56b2dc1-1de8-4d10-a38b-eb683790d947","ios":"levelo://app?vid=a56b2dc1-1de8-4d10-a38b-eb683790d947"},"vehicle_type_id":"4","last_reported":1712610398,"current_range_meters":11200,"station_id":"ce4bgt92rcd13ifvqcg0","pricing_plan_id":"cebpf4jnsgd1na2vs0mg"},{"bike_id":"e1d23c5f-72da-4b82-a97c-aaf6ac371e92","system_id":"levelo_inurba_marseille","lat":43.311131,"lon":5.377651,"is_reserved":false,"is_disabled":false,"rental_uris":{"android":"levelo://app?vid=e1d23c5f-72da-4b82-a97c-aaf6ac371e92","ios":"levelo://app?vid=e1d23c5f-72da-4b82-a97c-aaf6ac371e92"},"vehicle_type_id":"4","last_reported":1712610398,"current_range_meters":0,"station_id":"ce4bgt92rcd13ifvqcg0","pricing_plan_id":"cebpf4jnsgd1na2vs0mg"},{"bike_id":"77c460f4-cabf-4ad3-8c2a-f634704fe794","system_id":"levelo_inurba_marseille","lat":43.30786,"lon":5.37648,"is_reserved":false,"is_disabled":false,"rental_uris":{"android":"levelo://app?vid=77c460f4-cabf-4ad3-8c2a-f634704fe794","ios":"levelo://app?vid=77c460f4-cabf-4ad3-8c2a-f634704fe794"},"vehicle_type_id":"4","last_reported":1712610398,"current_range_meters":0,"station_id":"ce4bgv92rcd13ifvqcq0","pricing_plan_id":"cebpf4jnsgd1na2vs0mg"},{"bike_id":"8f1a1fef-8341-454c-b216-b41e65d9d17d","system_id":"levelo_inurba_marseille","lat":43.307795,"lon":5.376505,"is_reserved":false,"is_disabled":false,"rental_uris":{"android":"levelo://app?vid=8f1a1fef-8341-454c-b216-b41e65d9d17d","ios":"levelo://app?vid=8f1a1fef-8341-454c-b216-b41e65d9d17d"},"vehicle_type_id":"4","last_reported":1712610398,"current_range_meters":24000,"station_id":"ce4bgv92rcd13ifvqcq0","pricing_plan_id":"cebpf4jnsgd1na2vs0mg"},{"bike_id":"ac98e0ba-2c51-4089-9115-c16d8a339180","system_id":"levelo_inurba_marseille","lat":43.30783,"lon":5.37656,"is_reserved":false,"is_disabled":false,"rental_uris":{"android":"levelo://app?vid=ac98e0ba-2c51-4089-9115-c16d8a339180","ios":"levelo://app?vid=ac98e0ba-2c51-4089-9115-c16d8a339180"},"vehicle_type_id":"4","last_reported":1712610398,"current_range_meters":0,"station_id":"ce4bgv92rcd13ifvqcq0","pricing_plan_id":"cebpf4jnsgd1na2vs0mg"},{"bike_id":"0f0672e7-1868-4af6-81c1-0b733312d95e","system_id":"levelo_inurba_marseille","lat":43.299222,"lon":5.365554,"is_reserved":false,"is_disabled":false,"rental_uris":{"android":"levelo://app?vid=0f0672e7-1868-4af6-81c1-0b733312d95e","ios":"levelo://app?vid=0f0672e7-1868-4af6-81c1-0b733312d95e"},"vehicle_type_id":"4","last_reported":1712610398,"current_range_meters":0,"station_id":"ce4bgm92rcd13ifvqbr0","pricing_plan_id":"cebpf4jnsgd1na2vs0mg"},{"bike_id":"eb01b0e6-fe31-4e71-850f-6aaf98c86b1e","system_id":"levelo_inurba_marseille","lat":43.30963,"lon":5.37964,"is_reserved":false,"is_disabled":false,"rental_uris":{"android":"levelo://app?vid=eb01b0e6-fe31-4e71-850f-6aaf98c86b1e","ios":"levelo://app?vid=eb01b0e6-fe31-4e71-850f-6aaf98c86b1e"},"vehicle_type_id":"4","last_reported":1712610398,"current_range_meters":0,"station_id":"","pricing_plan_id":"cebpf4jnsgd1na2vs0mg"},{"bike_id":"593cb4c3-0b32-485b-be73-16abb5d470ca","system_id":"levelo_inurba_marseille","lat":43.287184,"lon":5.37937,"is_reserved":false,"is_disabled":false,"rental_uris":{"android":"levelo://app?vid=593cb4c3-0b32-485b-be73-16abb5d470ca","ios":"levelo://app?vid=593cb4c3-0b32-485b-be73-16abb5d470ca"},"vehicle_type_id":"4","last_reported":1712610398,"current_range_meters":10400,"station_id":"ce4bh9p2rcd13ifvqec0","pricing_plan_id":"cebpf4jnsgd1na2vs0mg"},{"bike_id":"1ba95ad0-c20e-459f-a2c0-5e356e208730","system_id":"levelo_inurba_marseille","lat":43.30304,"lon":5.368987,"is_reserved":false,"is_disabled":false,"rental_uris":{"android":"levelo://app?vid=1ba95ad0-c20e-459f-a2c0-5e356e208730","ios":"levelo://app?vid=1ba95ad0-c20e-459f-a2c0-5e356e208730"},"vehicle_type_id":"4","last_reported":1712610398,"current_range_meters":20400,"station_id":"ce4bgqh2rcd13ifvqc5g","pricing_plan_id":"cebpf4jnsgd1na2vs0mg"},{"bike_id":"da01c756-2491-4f26-af5e-5457a01ac88d","system_id":"levelo_inurba_marseille","lat":43.32367,"lon":5.388836,"is_reserved":false,"is_disabled":false,"rental_uris":{"android":"levelo://app?vid=da01c756-2491-4f26-af5e-5457a01ac88d","ios":"levelo://app?vid=da01c756-2491-4f26-af5e-5457a01ac88d"},"vehicle_type_id":"4","last_reported":1712610398,"current_range_meters":24800,"station_id":"ce4bhqp2rcd13ifvqhog","pricing_plan_id":"cebpf4jnsgd1na2vs0mg"},{"bike_id":"f7b6e468-6c9f-4968-9db0-eb9379cafcb3","system_id":"levelo_inurba_marseille","lat":43.308012,"lon":5.381511,"is_reserved":false,"is_disabled":false,"rental_uris":{"android":"levelo://app?vid=f7b6e468-6c9f-4968-9db0-eb9379cafcb3","ios":"levelo://app?vid=f7b6e468-6c9f-4968-9db0-eb9379cafcb3"},"vehicle_type_id":"4","last_reported":1712610398,"current_range_meters":11200,"station_id":"ce4bgt12rcd13ifvqce0","pricing_plan_id":"cebpf4jnsgd1na2vs0mg"},{"bike_id":"ae926fd1-b305-4fc4-b53e-f069dd36ea42","system_id":"levelo_inurba_marseille","lat":43.308012,"lon":5.381511,"is_reserved":false,"is_disabled":false,"rental_uris":{"android":"levelo://app?vid=ae926fd1-b305-4fc4-b53e-f069dd36ea42","ios":"levelo://app?vid=ae926fd1-b305-4fc4-b53e-f069dd36ea42"},"vehicle_type_id":"4","last_reported":1712610398,"current_range_meters":10000,"station_id":"ce4bgt12rcd13ifvqce0","pricing_plan_id":"cebpf4jnsgd1na2vs0mg"},{"bike_id":"ff8f74f9-3e8d-49a3-aaa8-815a80f9c45a","system_id":"levelo_inurba_marseille","lat":43.308012,"lon":5.381511,"is_reserved":false,"is_disabled":false,"rental_uris":{"android":"levelo://app?vid=ff8f74f9-3e8d-49a3-aaa8-815a80f9c45a","ios":"levelo://app?vid=ff8f74f9-3e8d-49a3-aaa8-815a80f9c45a"},"vehicle_type_id":"4","last_reported":1712610398,"current_range_meters":2400,"station_id":"ce4bgt12rcd13ifvqce0","pricing_plan_id":"cebpf4jnsgd1na2vs0mg"},{"bike_id":"7dd1f947-2281-42f0-8747-b68f3755a83f","system_id":"levelo_inurba_marseille","lat":43.308012,"lon":5.381511,"is_reserved":false,"is_disabled":false,"rental_uris":{"android":"levelo://app?vid=7dd1f947-2281-42f0-8747-b68f3755a83f","ios":"levelo://app?vid=7dd1f947-2281-42f0-8747-b68f3755a83f"},"vehicle_type_id":"4","last_reported":1712610398,"current_range_meters":6000,"station_id":"ce4bgt12rcd13ifvqce0","pricing_plan_id":"cebpf4jnsgd1na2vs0mg"},{"bike_id":"c85cf482-ec77-4a19-9183-19c9821720d2","system_id":"levelo_inurba_marseille","lat":43.308012,"lon":5.381511,"is_reserved":false,"is_disabled":false,"rental_uris":{"android":"levelo://app?vid=c85cf482-ec77-4a19-9183-19c9821720d2","ios":"levelo://app?vid=c85cf482-ec77-4a19-9183-19c9821720d2"},"vehicle_type_id":"4","last_reported":1712610398,"current_range_meters":0,"station_id":"ce4bgt12rcd13ifvqce0","pricing_plan_id":"cebpf4jnsgd1na2vs0mg"},{"bike_id":"836f4623-2225-47ca-a21d-c74ac7e67ab4","system_id":"levelo_inurba_marseille","lat":43.32473,"lon":5.36575,"is_reserved":false,"is_disabled":false,"rental_uris":{"android":"levelo://app?vid=836f4623-2225-47ca-a21d-c74ac7e67ab4","ios":"levelo://app?vid=836f4623-2225-47ca-a21d-c74ac7e67ab4"},"vehicle_type_id":"4","last_reported":1712610398,"current_range_meters":17600,"station_id":"ce4bhs12rcd13ifvqhvg","pricing_plan_id":"cebpf4jnsgd1na2vs0mg"},{"bike_id":"3ac01dbe-312a-40cd-9dde-2a0416234a50","system_id":"levelo_inurba_marseille","lat":43.304606,"lon":5.379026,"is_reserved":false,"is_disabled":false,"rental_uris":{"android":"levelo://app?vid=3ac01dbe-312a-40cd-9dde-2a0416234a50","ios":"levelo://app?vid=3ac01dbe-312a-40cd-9dde-2a0416234a50"},"vehicle_type_id":"4","last_reported":1712610398,"current_range_meters":12000,"station_id":"ce4bgup2rcd13ifvqcn0","pricing_plan_id":"cebpf4jnsgd1na2vs0mg"},{"bike_id":"dd1eeaf3-7ce5-435e-b6c8-fd616106d621","system_id":"levelo_inurba_marseille","lat":43.324771,"lon":5.36557,"is_reserved":false,"is_disabled":false,"rental_uris":{"android":"levelo://app?vid=dd1eeaf3-7ce5-435e-b6c8-fd616106d621","ios":"levelo://app?vid=dd1eeaf3-7ce5-435e-b6c8-fd616106d621"},"vehicle_type_id":"4","last_reported":1712610398,"current_range_meters":19600,"station_id":"ce4bhs12rcd13ifvqhvg","pricing_plan_id":"cebpf4jnsgd1na2vs0mg"},{"bike_id":"de1964ab-11b3-48d2-944d-d9e9ec8f8a92","system_id":"levelo_inurba_marseille","lat":43.324771,"lon":5.36557,"is_reserved":false,"is_disabled":false,"rental_uris":{"android":"levelo://app?vid=de1964ab-11b3-48d2-944d-d9e9ec8f8a92","ios":"levelo://app?vid=de1964ab-11b3-48d2-944d-d9e9ec8f8a92"},"vehicle_type_id":"4","last_reported":1712610398,"current_range_meters":3600,"station_id":"ce4bhs12rcd13ifvqhvg","pricing_plan_id":"cebpf4jnsgd1na2vs0mg"},{"bike_id":"b61f5fce-3370-4eb2-9cfe-757ef3a5f155","system_id":"levelo_inurba_marseille","lat":43.324771,"lon":5.36557,"is_reserved":false,"is_disabled":false,"rental_uris":{"android":"levelo://app?vid=b61f5fce-3370-4eb2-9cfe-757ef3a5f155","ios":"levelo://app?vid=b61f5fce-3370-4eb2-9cfe-757ef3a5f155"},"vehicle_type_id":"4","last_reported":1712610398,"current_range_meters":25200,"station_id":"ce4bhs12rcd13ifvqhvg","pricing_plan_id":"cebpf4jnsgd1na2vs0mg"},{"bike_id":"d3b996e9-4da1-4b89-87ff-4d5a0f28982e","system_id":"levelo_inurba_marseille","lat":43.324771,"lon":5.36557,"is_reserved":false,"is_disabled":false,"rental_uris":{"android":"levelo://app?vid=d3b996e9-4da1-4b89-87ff-4d5a0f28982e","ios":"levelo://app?vid=d3b996e9-4da1-4b89-87ff-4d5a0f28982e"},"vehicle_type_id":"4","last_reported":1712610398,"current_range_meters":15200,"station_id":"ce4bhs12rcd13ifvqhvg","pricing_plan_id":"cebpf4jnsgd1na2vs0mg"},{"bike_id":"f2f0a323-f4cf-4d69-bda0-3382b45e92bd","system_id":"levelo_inurba_marseille","lat":43.324787,"lon":5.365807,"is_reserved":false,"is_disabled":false,"rental_uris":{"android":"levelo://app?vid=f2f0a323-f4cf-4d69-bda0-3382b45e92bd","ios":"levelo://app?vid=f2f0a323-f4cf-4d69-bda0-3382b45e92bd"},"vehicle_type_id":"4","last_reported":1712610398,"current_range_meters":9600,"station_id":"ce4bhs12rcd13ifvqhvg","pricing_plan_id":"cebpf4jnsgd1na2vs0mg"},{"bike_id":"b7373fc7-088e-4fcb-9af9-2e8e176eee32","system_id":"levelo_inurba_marseille","lat":43.308051,"lon":5.43527,"is_reserved":false,"is_disabled":false,"rental_uris":{"android":"levelo://app?vid=b7373fc7-088e-4fcb-9af9-2e8e176eee32","ios":"levelo://app?vid=b7373fc7-088e-4fcb-9af9-2e8e176eee32"},"vehicle_type_id":"4","last_reported":1712610398,"current_range_meters":1200,"station_id":"ce4bhph2rcd13ifvqheg","pricing_plan_id":"cebpf4jnsgd1na2vs0mg"},{"bike_id":"93f39419-5cbf-400a-91d0-19b962f1e4df","system_id":"levelo_inurba_marseille","lat":43.324771,"lon":5.36557,"is_reserved":false,"is_disabled":false,"rental_uris":{"android":"levelo://app?vid=93f39419-5cbf-400a-91d0-19b962f1e4df","ios":"levelo://app?vid=93f39419-5cbf-400a-91d0-19b962f1e4df"},"vehicle_type_id":"4","last_reported":1712610398,"current_range_meters":5200,"station_id":"ce4bhs12rcd13ifvqhvg","pricing_plan_id":"cebpf4jnsgd1na2vs0mg"},{"bike_id":"5cd7436a-1c11-4873-af7d-baa07ac34cd8","system_id":"levelo_inurba_marseille","lat":43.324771,"lon":5.36557,"is_reserved":false,"is_disabled":false,"rental_uris":{"android":"levelo://app?vid=5cd7436a-1c11-4873-af7d-baa07ac34cd8","ios":"levelo://app?vid=5cd7436a-1c11-4873-af7d-baa07ac34cd8"},"vehicle_type_id":"4","last_reported":1712610398,"current_range_meters":21200,"station_id":"ce4bhs12rcd13ifvqhvg","pricing_plan_id":"cebpf4jnsgd1na2vs0mg"},{"bike_id":"d453f5f1-b263-477b-864b-bf2146099cf6","system_id":"levelo_inurba_marseille","lat":43.324771,"lon":5.36557,"is_reserved":false,"is_disabled":false,"rental_uris":{"android":"levelo://app?vid=d453f5f1-b263-477b-864b-bf2146099cf6","ios":"levelo://app?vid=d453f5f1-b263-477b-864b-bf2146099cf6"},"vehicle_type_id":"4","last_reported":1712610398,"current_range_meters":19200,"station_id":"ce4bhs12rcd13ifvqhvg","pricing_plan_id":"cebpf4jnsgd1na2vs0mg"},{"bike_id":"7f1175c4-0172-440d-b61d-b816cff96fbc","system_id":"levelo_inurba_marseille","lat":43.324771,"lon":5.36557,"is_reserved":false,"is_disabled":false,"rental_uris":{"android":"levelo://app?vid=7f1175c4-0172-440d-b61d-b816cff96fbc","ios":"levelo://app?vid=7f1175c4-0172-440d-b61d-b816cff96fbc"},"vehicle_type_id":"4","last_reported":1712610398,"current_range_meters":21200,"station_id":"ce4bhs12rcd13ifvqhvg","pricing_plan_id":"cebpf4jnsgd1na2vs0mg"},{"bike_id":"466fa14b-daa3-4177-b540-e71b4a8e6995","system_id":"levelo_inurba_marseille","lat":43.324771,"lon":5.36557,"is_reserved":false,"is_disabled":false,"rental_uris":{"android":"levelo://app?vid=466fa14b-daa3-4177-b540-e71b4a8e6995","ios":"levelo://app?vid=466fa14b-daa3-4177-b540-e71b4a8e6995"},"vehicle_type_id":"4","last_reported":1712610398,"current_range_meters":21200,"station_id":"ce4bhs12rcd13ifvqhvg","pricing_plan_id":"cebpf4jnsgd1na2vs0mg"},{"bike_id":"d12e7c2e-a3f2-4647-9ec1-aad839340afa","system_id":"levelo_inurba_marseille","lat":43.324771,"lon":5.36557,"is_reserved":false,"is_disabled":false,"rental_uris":{"android":"levelo://app?vid=d12e7c2e-a3f2-4647-9ec1-aad839340afa","ios":"levelo://app?vid=d12e7c2e-a3f2-4647-9ec1-aad839340afa"},"vehicle_type_id":"4","last_reported":1712610398,"current_range_meters":14400,"station_id":"ce4bhs12rcd13ifvqhvg","pricing_plan_id":"cebpf4jnsgd1na2vs0mg"},{"bike_id":"8c866bc7-737e-4c29-8bba-ab56157d3a7a","system_id":"levelo_inurba_marseille","lat":43.324771,"lon":5.36557,"is_reserved":false,"is_disabled":false,"rental_uris":{"android":"levelo://app?vid=8c866bc7-737e-4c29-8bba-ab56157d3a7a","ios":"levelo://app?vid=8c866bc7-737e-4c29-8bba-ab56157d3a7a"},"vehicle_type_id":"4","last_reported":1712610398,"current_range_meters":2000,"station_id":"ce4bhs12rcd13ifvqhvg","pricing_plan_id":"cebpf4jnsgd1na2vs0mg"},{"bike_id":"28a60fa5-83d7-47ac-8e02-bbd9305ed0d8","system_id":"levelo_inurba_marseille","lat":43.32489,"lon":5.36579,"is_reserved":false,"is_disabled":false,"rental_uris":{"android":"levelo://app?vid=28a60fa5-83d7-47ac-8e02-bbd9305ed0d8","ios":"levelo://app?vid=28a60fa5-83d7-47ac-8e02-bbd9305ed0d8"},"vehicle_type_id":"4","last_reported":1712610398,"current_range_meters":14000,"station_id":"ce4bhs12rcd13ifvqhvg","pricing_plan_id":"cebpf4jnsgd1na2vs0mg"},{"bike_id":"27c81a18-cdda-4f1a-8d82-041f4af2b280","system_id":"levelo_inurba_marseille","lat":43.310804,"lon":5.38359,"is_reserved":false,"is_disabled":false,"rental_uris":{"android":"levelo://app?vid=27c81a18-cdda-4f1a-8d82-041f4af2b280","ios":"levelo://app?vid=27c81a18-cdda-4f1a-8d82-041f4af2b280"},"vehicle_type_id":"4","last_reported":1712610398,"current_range_meters":13200,"station_id":"ce4bgv92rcd13ifvqcr0","pricing_plan_id":"cebpf4jnsgd1na2vs0mg"},{"bike_id":"fb51d4af-83ae-43db-930b-282507ba3fa2","system_id":"levelo_inurba_marseille","lat":43.310804,"lon":5.38359,"is_reserved":false,"is_disabled":false,"rental_uris":{"android":"levelo://app?vid=fb51d4af-83ae-43db-930b-282507ba3fa2","ios":"levelo://app?vid=fb51d4af-83ae-43db-930b-282507ba3fa2"},"vehicle_type_id":"4","last_reported":1712610398,"current_range_meters":0,"station_id":"ce4bgv92rcd13ifvqcr0","pricing_plan_id":"cebpf4jnsgd1na2vs0mg"},{"bike_id":"dae4365e-f06a-4f88-91d4-2ae0f7d00109","system_id":"levelo_inurba_marseille","lat":43.310804,"lon":5.38359,"is_reserved":false,"is_disabled":false,"rental_uris":{"android":"levelo://app?vid=dae4365e-f06a-4f88-91d4-2ae0f7d00109","ios":"levelo://app?vid=dae4365e-f06a-4f88-91d4-2ae0f7d00109"},"vehicle_type_id":"4","last_reported":1712610398,"current_range_meters":800,"station_id":"ce4bgv92rcd13ifvqcr0","pricing_plan_id":"cebpf4jnsgd1na2vs0mg"},{"bike_id":"1e9b32b7-4e2d-485d-90ad-1d14255b48ca","system_id":"levelo_inurba_marseille","lat":43.310804,"lon":5.38359,"is_reserved":false,"is_disabled":false,"rental_uris":{"android":"levelo://app?vid=1e9b32b7-4e2d-485d-90ad-1d14255b48ca","ios":"levelo://app?vid=1e9b32b7-4e2d-485d-90ad-1d14255b48ca"},"vehicle_type_id":"4","last_reported":1712610398,"current_range_meters":0,"station_id":"ce4bgv92rcd13ifvqcr0","pricing_plan_id":"cebpf4jnsgd1na2vs0mg"},{"bike_id":"6c98f2c1-2659-4153-aba4-686a879422ed","system_id":"levelo_inurba_marseille","lat":43.310804,"lon":5.38359,"is_reserved":false,"is_disabled":false,"rental_uris":{"android":"levelo://app?vid=6c98f2c1-2659-4153-aba4-686a879422ed","ios":"levelo://app?vid=6c98f2c1-2659-4153-aba4-686a879422ed"},"vehicle_type_id":"4","last_reported":1712610398,"current_range_meters":0,"station_id":"ce4bgv92rcd13ifvqcr0","pricing_plan_id":"cebpf4jnsgd1na2vs0mg"},{"bike_id":"e854f0d2-12e6-4bf9-aa84-67b754d0b9ef","system_id":"levelo_inurba_marseille","lat":43.31358,"lon":5.3849,"is_reserved":false,"is_disabled":false,"rental_uris":{"android":"levelo://app?vid=e854f0d2-12e6-4bf9-aa84-67b754d0b9ef","ios":"levelo://app?vid=e854f0d2-12e6-4bf9-aa84-67b754d0b9ef"},"vehicle_type_id":"4","last_reported":1712610398,"current_range_meters":15200,"station_id":"ce4bgt92rcd13ifvqcf0","pricing_plan_id":"cebpf4jnsgd1na2vs0mg"},{"bike_id":"507057a2-9c2c-46c8-9eea-7e4653b466e6","system_id":"levelo_inurba_marseille","lat":43.31353,"lon":5.38496,"is_reserved":false,"is_disabled":false,"rental_uris":{"android":"levelo://app?vid=507057a2-9c2c-46c8-9eea-7e4653b466e6","ios":"levelo://app?vid=507057a2-9c2c-46c8-9eea-7e4653b466e6"},"vehicle_type_id":"4","last_reported":1712610398,"current_range_meters":0,"station_id":"ce4bgt92rcd13ifvqcf0","pricing_plan_id":"cebpf4jnsgd1na2vs0mg"},{"bike_id":"c4054830-584a-4c53-b39c-ce84e2fd8932","system_id":"levelo_inurba_marseille","lat":43.3136,"lon":5.38497,"is_reserved":false,"is_disabled":false,"rental_uris":{"android":"levelo://app?vid=c4054830-584a-4c53-b39c-ce84e2fd8932","ios":"levelo://app?vid=c4054830-584a-4c53-b39c-ce84e2fd8932"},"vehicle_type_id":"4","last_reported":1712610398,"current_range_meters":8800,"station_id":"ce4bgt92rcd13ifvqcf0","pricing_plan_id":"cebpf4jnsgd1na2vs0mg"},{"bike_id":"c5165671-91db-4649-a988-0b62db71c58b","system_id":"levelo_inurba_marseille","lat":43.299222,"lon":5.365554,"is_reserved":false,"is_disabled":false,"rental_uris":{"android":"levelo://app?vid=c5165671-91db-4649-a988-0b62db71c58b","ios":"levelo://app?vid=c5165671-91db-4649-a988-0b62db71c58b"},"vehicle_type_id":"4","last_reported":1712610398,"current_range_meters":0,"station_id":"ce4bgm92rcd13ifvqbr0","pricing_plan_id":"cebpf4jnsgd1na2vs0mg"},{"bike_id":"da5ef7ba-3a72-496e-846a-b1926f773235","system_id":"levelo_inurba_marseille","lat":43.299724,"lon":5.371829,"is_reserved":false,"is_disabled":false,"rental_uris":{"android":"levelo://app?vid=da5ef7ba-3a72-496e-846a-b1926f773235","ios":"levelo://app?vid=da5ef7ba-3a72-496e-846a-b1926f773235"},"vehicle_type_id":"4","last_reported":1712610398,"current_range_meters":17600,"station_id":"ce4bgr92rcd13ifvqc7g","pricing_plan_id":"cebpf4jnsgd1na2vs0mg"},{"bike_id":"6dd41630-0d30-49ba-aea5-20e574d5d65b","system_id":"levelo_inurba_marseille","lat":43.29854,"lon":5.36442,"is_reserved":false,"is_disabled":false,"rental_uris":{"android":"levelo://app?vid=6dd41630-0d30-49ba-aea5-20e574d5d65b","ios":"levelo://app?vid=6dd41630-0d30-49ba-aea5-20e574d5d65b"},"vehicle_type_id":"4","last_reported":1712610398,"current_range_meters":12800,"station_id":"","pricing_plan_id":"cebpf4jnsgd1na2vs0mg"},{"bike_id":"e080447a-c32f-42ea-a580-f4d0af3727f4","system_id":"levelo_inurba_marseille","lat":43.305364,"lon":5.384119,"is_reserved":false,"is_disabled":false,"rental_uris":{"android":"levelo://app?vid=e080447a-c32f-42ea-a580-f4d0af3727f4","ios":"levelo://app?vid=e080447a-c32f-42ea-a580-f4d0af3727f4"},"vehicle_type_id":"4","last_reported":1712610398,"current_range_meters":2000,"station_id":"ce4bgg92rcd13ifvqb30","pricing_plan_id":"cebpf4jnsgd1na2vs0mg"},{"bike_id":"8f1cb92d-e220-450b-b71c-8d65ffff273b","system_id":"levelo_inurba_marseille","lat":43.299243,"lon":5.374807,"is_reserved":false,"is_disabled":false,"rental_uris":{"android":"levelo://app?vid=8f1cb92d-e220-450b-b71c-8d65ffff273b","ios":"levelo://app?vid=8f1cb92d-e220-450b-b71c-8d65ffff273b"},"vehicle_type_id":"4","last_reported":1712610398,"current_range_meters":10800,"station_id":"ce4bgjh2rcd13ifvqbg0","pricing_plan_id":"cebpf4jnsgd1na2vs0mg"},{"bike_id":"e304b877-9d38-4d86-8204-13dc6c783b18","system_id":"levelo_inurba_marseille","lat":43.29915,"lon":5.37469,"is_reserved":false,"is_disabled":false,"rental_uris":{"android":"levelo://app?vid=e304b877-9d38-4d86-8204-13dc6c783b18","ios":"levelo://app?vid=e304b877-9d38-4d86-8204-13dc6c783b18"},"vehicle_type_id":"4","last_reported":1712610398,"current_range_meters":0,"station_id":"ce4bgjh2rcd13ifvqbg0","pricing_plan_id":"cebpf4jnsgd1na2vs0mg"},{"bike_id":"8c387b75-58b6-45e4-ae5e-0bf7a8584333","system_id":"levelo_inurba_marseille","lat":43.311722,"lon":5.387247,"is_reserved":false,"is_disabled":false,"rental_uris":{"android":"levelo://app?vid=8c387b75-58b6-45e4-ae5e-0bf7a8584333","ios":"levelo://app?vid=8c387b75-58b6-45e4-ae5e-0bf7a8584333"},"vehicle_type_id":"4","last_reported":1712610398,"current_range_meters":3600,"station_id":"ce4bgv12rcd13ifvqcp0","pricing_plan_id":"cebpf4jnsgd1na2vs0mg"},{"bike_id":"a854eb33-5cf1-4b38-a92d-09277a135927","system_id":"levelo_inurba_marseille","lat":43.311722,"lon":5.387247,"is_reserved":false,"is_disabled":false,"rental_uris":{"android":"levelo://app?vid=a854eb33-5cf1-4b38-a92d-09277a135927","ios":"levelo://app?vid=a854eb33-5cf1-4b38-a92d-09277a135927"},"vehicle_type_id":"4","last_reported":1712610398,"current_range_meters":19600,"station_id":"ce4bgv12rcd13ifvqcp0","pricing_plan_id":"cebpf4jnsgd1na2vs0mg"},{"bike_id":"7f4fd7ee-f434-4331-8fb7-3a2cfd958dad","system_id":"levelo_inurba_marseille","lat":43.299243,"lon":5.374807,"is_reserved":false,"is_disabled":false,"rental_uris":{"android":"levelo://app?vid=7f4fd7ee-f434-4331-8fb7-3a2cfd958dad","ios":"levelo://app?vid=7f4fd7ee-f434-4331-8fb7-3a2cfd958dad"},"vehicle_type_id":"4","last_reported":1712610398,"current_range_meters":0,"station_id":"ce4bgjh2rcd13ifvqbg0","pricing_plan_id":"cebpf4jnsgd1na2vs0mg"},{"bike_id":"6ce396fa-6316-44a5-940c-644f7fb814e5","system_id":"levelo_inurba_marseille","lat":43.311722,"lon":5.387247,"is_reserved":false,"is_disabled":false,"rental_uris":{"android":"levelo://app?vid=6ce396fa-6316-44a5-940c-644f7fb814e5","ios":"levelo://app?vid=6ce396fa-6316-44a5-940c-644f7fb814e5"},"vehicle_type_id":"4","last_reported":1712610398,"current_range_meters":29600,"station_id":"ce4bgv12rcd13ifvqcp0","pricing_plan_id":"cebpf4jnsgd1na2vs0mg"},{"bike_id":"d410833c-b16c-4abc-b5c4-5c11e85bed38","system_id":"levelo_inurba_marseille","lat":43.299243,"lon":5.374807,"is_reserved":false,"is_disabled":false,"rental_uris":{"android":"levelo://app?vid=d410833c-b16c-4abc-b5c4-5c11e85bed38","ios":"levelo://app?vid=d410833c-b16c-4abc-b5c4-5c11e85bed38"},"vehicle_type_id":"4","last_reported":1712610398,"current_range_meters":400,"station_id":"ce4bgjh2rcd13ifvqbg0","pricing_plan_id":"cebpf4jnsgd1na2vs0mg"},{"bike_id":"1d7ff535-6e14-4e7e-b125-88827eeaeab6","system_id":"levelo_inurba_marseille","lat":43.297774,"lon":5.370875,"is_reserved":false,"is_disabled":false,"rental_uris":{"android":"levelo://app?vid=1d7ff535-6e14-4e7e-b125-88827eeaeab6","ios":"levelo://app?vid=1d7ff535-6e14-4e7e-b125-88827eeaeab6"},"vehicle_type_id":"4","last_reported":1712610398,"current_range_meters":14400,"station_id":"ce4bgop2rcd13ifvqc1g","pricing_plan_id":"cebpf4jnsgd1na2vs0mg"},{"bike_id":"ac63ec27-45a0-478a-8117-f0a1a60b5bef","system_id":"levelo_inurba_marseille","lat":43.322872,"lon":5.382756,"is_reserved":false,"is_disabled":false,"rental_uris":{"android":"levelo://app?vid=ac63ec27-45a0-478a-8117-f0a1a60b5bef","ios":"levelo://app?vid=ac63ec27-45a0-478a-8117-f0a1a60b5bef"},"vehicle_type_id":"4","last_reported":1712610398,"current_range_meters":4000,"station_id":"ce4bhr12rcd13ifvqhqg","pricing_plan_id":"cebpf4jnsgd1na2vs0mg"},{"bike_id":"4f6a2b4c-6725-485d-83c3-05cad3f78400","system_id":"levelo_inurba_marseille","lat":43.322872,"lon":5.382756,"is_reserved":false,"is_disabled":false,"rental_uris":{"android":"levelo://app?vid=4f6a2b4c-6725-485d-83c3-05cad3f78400","ios":"levelo://app?vid=4f6a2b4c-6725-485d-83c3-05cad3f78400"},"vehicle_type_id":"4","last_reported":1712610398,"current_range_meters":12800,"station_id":"ce4bhr12rcd13ifvqhqg","pricing_plan_id":"cebpf4jnsgd1na2vs0mg"},{"bike_id":"c6c56787-5af4-461a-a1fb-627309935cd3","system_id":"levelo_inurba_marseille","lat":43.322872,"lon":5.382756,"is_reserved":false,"is_disabled":false,"rental_uris":{"android":"levelo://app?vid=c6c56787-5af4-461a-a1fb-627309935cd3","ios":"levelo://app?vid=c6c56787-5af4-461a-a1fb-627309935cd3"},"vehicle_type_id":"4","last_reported":1712610398,"current_range_meters":22400,"station_id":"ce4bhr12rcd13ifvqhqg","pricing_plan_id":"cebpf4jnsgd1na2vs0mg"},{"bike_id":"ef917e02-8ff1-479d-bcd2-ec84c3631e70","system_id":"levelo_inurba_marseille","lat":43.297163,"lon":5.365866,"is_reserved":false,"is_disabled":false,"rental_uris":{"android":"levelo://app?vid=ef917e02-8ff1-479d-bcd2-ec84c3631e70","ios":"levelo://app?vid=ef917e02-8ff1-479d-bcd2-ec84c3631e70"},"vehicle_type_id":"4","last_reported":1712610398,"current_range_meters":20000,"station_id":"ce4bgn12rcd13ifvqbt0","pricing_plan_id":"cebpf4jnsgd1na2vs0mg"},{"bike_id":"ce262d47-6adc-4310-a652-b999cfa2d70d","system_id":"levelo_inurba_marseille","lat":43.322872,"lon":5.382756,"is_reserved":false,"is_disabled":false,"rental_uris":{"android":"levelo://app?vid=ce262d47-6adc-4310-a652-b999cfa2d70d","ios":"levelo://app?vid=ce262d47-6adc-4310-a652-b999cfa2d70d"},"vehicle_type_id":"4","last_reported":1712610398,"current_range_meters":17200,"station_id":"ce4bhr12rcd13ifvqhqg","pricing_plan_id":"cebpf4jnsgd1na2vs0mg"},{"bike_id":"268960fa-29a0-45a0-af94-70b75d75c05e","system_id":"levelo_inurba_marseille","lat":43.322872,"lon":5.382756,"is_reserved":false,"is_disabled":false,"rental_uris":{"android":"levelo://app?vid=268960fa-29a0-45a0-af94-70b75d75c05e","ios":"levelo://app?vid=268960fa-29a0-45a0-af94-70b75d75c05e"},"vehicle_type_id":"4","last_reported":1712610398,"current_range_meters":8000,"station_id":"ce4bhr12rcd13ifvqhqg","pricing_plan_id":"cebpf4jnsgd1na2vs0mg"},{"bike_id":"79a09dc1-a136-4553-b035-ca9b20a658e5","system_id":"levelo_inurba_marseille","lat":43.30181,"lon":5.3818,"is_reserved":false,"is_disabled":false,"rental_uris":{"android":"levelo://app?vid=79a09dc1-a136-4553-b035-ca9b20a658e5","ios":"levelo://app?vid=79a09dc1-a136-4553-b035-ca9b20a658e5"},"vehicle_type_id":"4","last_reported":1712610398,"current_range_meters":0,"station_id":"","pricing_plan_id":"cebpf4jnsgd1na2vs0mg"},{"bike_id":"79237915-46a8-4614-abc0-371b8a1f18c3","system_id":"levelo_inurba_marseille","lat":43.297774,"lon":5.370875,"is_reserved":false,"is_disabled":false,"rental_uris":{"android":"levelo://app?vid=79237915-46a8-4614-abc0-371b8a1f18c3","ios":"levelo://app?vid=79237915-46a8-4614-abc0-371b8a1f18c3"},"vehicle_type_id":"4","last_reported":1712610398,"current_range_meters":14400,"station_id":"ce4bgop2rcd13ifvqc1g","pricing_plan_id":"cebpf4jnsgd1na2vs0mg"},{"bike_id":"a7b21e5a-dc6a-4c61-a5dd-10854c26bc74","system_id":"levelo_inurba_marseille","lat":43.297163,"lon":5.365866,"is_reserved":false,"is_disabled":false,"rental_uris":{"android":"levelo://app?vid=a7b21e5a-dc6a-4c61-a5dd-10854c26bc74","ios":"levelo://app?vid=a7b21e5a-dc6a-4c61-a5dd-10854c26bc74"},"vehicle_type_id":"4","last_reported":1712610398,"current_range_meters":19600,"station_id":"ce4bgn12rcd13ifvqbt0","pricing_plan_id":"cebpf4jnsgd1na2vs0mg"},{"bike_id":"6e775b2b-cdbc-45fe-a404-77036f5ba9c3","system_id":"levelo_inurba_marseille","lat":43.297163,"lon":5.365866,"is_reserved":false,"is_disabled":false,"rental_uris":{"android":"levelo://app?vid=6e775b2b-cdbc-45fe-a404-77036f5ba9c3","ios":"levelo://app?vid=6e775b2b-cdbc-45fe-a404-77036f5ba9c3"},"vehicle_type_id":"4","last_reported":1712610398,"current_range_meters":26000,"station_id":"ce4bgn12rcd13ifvqbt0","pricing_plan_id":"cebpf4jnsgd1na2vs0mg"},{"bike_id":"ce88a173-9e7d-496b-8b64-0e7815567834","system_id":"levelo_inurba_marseille","lat":43.297163,"lon":5.365866,"is_reserved":false,"is_disabled":false,"rental_uris":{"android":"levelo://app?vid=ce88a173-9e7d-496b-8b64-0e7815567834","ios":"levelo://app?vid=ce88a173-9e7d-496b-8b64-0e7815567834"},"vehicle_type_id":"4","last_reported":1712610398,"current_range_meters":11200,"station_id":"ce4bgn12rcd13ifvqbt0","pricing_plan_id":"cebpf4jnsgd1na2vs0mg"},{"bike_id":"d87d80e1-f37e-4a9e-a252-02e5dda816b6","system_id":"levelo_inurba_marseille","lat":43.297163,"lon":5.365866,"is_reserved":false,"is_disabled":false,"rental_uris":{"android":"levelo://app?vid=d87d80e1-f37e-4a9e-a252-02e5dda816b6","ios":"levelo://app?vid=d87d80e1-f37e-4a9e-a252-02e5dda816b6"},"vehicle_type_id":"4","last_reported":1712610398,"current_range_meters":25200,"station_id":"ce4bgn12rcd13ifvqbt0","pricing_plan_id":"cebpf4jnsgd1na2vs0mg"},{"bike_id":"f513b37d-cd43-44a3-87d7-69f7577bef1b","system_id":"levelo_inurba_marseille","lat":43.297163,"lon":5.365866,"is_reserved":false,"is_disabled":false,"rental_uris":{"android":"levelo://app?vid=f513b37d-cd43-44a3-87d7-69f7577bef1b","ios":"levelo://app?vid=f513b37d-cd43-44a3-87d7-69f7577bef1b"},"vehicle_type_id":"4","last_reported":1712610398,"current_range_meters":400,"station_id":"ce4bgn12rcd13ifvqbt0","pricing_plan_id":"cebpf4jnsgd1na2vs0mg"},{"bike_id":"fbbc59bb-700d-4665-8832-3c0900dba292","system_id":"levelo_inurba_marseille","lat":43.30846,"lon":5.38895,"is_reserved":false,"is_disabled":false,"rental_uris":{"android":"levelo://app?vid=fbbc59bb-700d-4665-8832-3c0900dba292","ios":"levelo://app?vid=fbbc59bb-700d-4665-8832-3c0900dba292"},"vehicle_type_id":"4","last_reported":1712610398,"current_range_meters":14400,"station_id":"","pricing_plan_id":"cebpf4jnsgd1na2vs0mg"},{"bike_id":"62340960-bafc-47fd-bb25-c821a12581c4","system_id":"levelo_inurba_marseille","lat":43.296131,"lon":5.370773,"is_reserved":false,"is_disabled":false,"rental_uris":{"android":"levelo://app?vid=62340960-bafc-47fd-bb25-c821a12581c4","ios":"levelo://app?vid=62340960-bafc-47fd-bb25-c821a12581c4"},"vehicle_type_id":"4","last_reported":1712610398,"current_range_meters":28400,"station_id":"ce4bgnh2rcd13ifvqc0g","pricing_plan_id":"cebpf4jnsgd1na2vs0mg"},{"bike_id":"f3261959-6e46-4ad5-955c-b0e72d7a7aa8","system_id":"levelo_inurba_marseille","lat":43.29725,"lon":5.37685,"is_reserved":false,"is_disabled":false,"rental_uris":{"android":"levelo://app?vid=f3261959-6e46-4ad5-955c-b0e72d7a7aa8","ios":"levelo://app?vid=f3261959-6e46-4ad5-955c-b0e72d7a7aa8"},"vehicle_type_id":"4","last_reported":1712610398,"current_range_meters":0,"station_id":"ce4bgkh2rcd13ifvqbl0","pricing_plan_id":"cebpf4jnsgd1na2vs0mg"},{"bike_id":"385bd37e-7319-43b5-9101-d213b491d7f3","system_id":"levelo_inurba_marseille","lat":43.29907,"lon":5.3814,"is_reserved":false,"is_disabled":false,"rental_uris":{"android":"levelo://app?vid=385bd37e-7319-43b5-9101-d213b491d7f3","ios":"levelo://app?vid=385bd37e-7319-43b5-9101-d213b491d7f3"},"vehicle_type_id":"4","last_reported":1712610398,"current_range_meters":6000,"station_id":"ce4bhah2rcd13ifvqei0","pricing_plan_id":"cebpf4jnsgd1na2vs0mg"},{"bike_id":"cd38c9e7-51fa-4b28-afbe-e5b22bc4ff2b","system_id":"levelo_inurba_marseille","lat":43.309589,"lon":5.390258,"is_reserved":false,"is_disabled":false,"rental_uris":{"android":"levelo://app?vid=cd38c9e7-51fa-4b28-afbe-e5b22bc4ff2b","ios":"levelo://app?vid=cd38c9e7-51fa-4b28-afbe-e5b22bc4ff2b"},"vehicle_type_id":"4","last_reported":1712610398,"current_range_meters":400,"station_id":"ce4bgup2rcd13ifvqco0","pricing_plan_id":"cebpf4jnsgd1na2vs0mg"},{"bike_id":"29f9d04b-727d-4d69-be63-d8b70ce8ff43","system_id":"levelo_inurba_marseille","lat":43.299028,"lon":5.381509,"is_reserved":false,"is_disabled":false,"rental_uris":{"android":"levelo://app?vid=29f9d04b-727d-4d69-be63-d8b70ce8ff43","ios":"levelo://app?vid=29f9d04b-727d-4d69-be63-d8b70ce8ff43"},"vehicle_type_id":"4","last_reported":1712610398,"current_range_meters":10400,"station_id":"ce4bgj12rcd13ifvqbc0","pricing_plan_id":"cebpf4jnsgd1na2vs0mg"},{"bike_id":"d3a8c98b-d916-4d17-8de4-04a69fe467b1","system_id":"levelo_inurba_marseille","lat":43.29698,"lon":5.37679,"is_reserved":false,"is_disabled":false,"rental_uris":{"android":"levelo://app?vid=d3a8c98b-d916-4d17-8de4-04a69fe467b1","ios":"levelo://app?vid=d3a8c98b-d916-4d17-8de4-04a69fe467b1"},"vehicle_type_id":"4","last_reported":1712610398,"current_range_meters":1200,"station_id":"ce4bgkh2rcd13ifvqbl0","pricing_plan_id":"cebpf4jnsgd1na2vs0mg"},{"bike_id":"cfffa38e-a328-434d-bfa5-e0ae054e6a80","system_id":"levelo_inurba_marseille","lat":43.299028,"lon":5.381509,"is_reserved":false,"is_disabled":false,"rental_uris":{"android":"levelo://app?vid=cfffa38e-a328-434d-bfa5-e0ae054e6a80","ios":"levelo://app?vid=cfffa38e-a328-434d-bfa5-e0ae054e6a80"},"vehicle_type_id":"4","last_reported":1712610398,"current_range_meters":7200,"station_id":"ce4bgj12rcd13ifvqbc0","pricing_plan_id":"cebpf4jnsgd1na2vs0mg"},{"bike_id":"3aa51378-4a45-4e8c-a155-0ad68c37a88d","system_id":"levelo_inurba_marseille","lat":43.309543,"lon":5.390405,"is_reserved":false,"is_disabled":false,"rental_uris":{"android":"levelo://app?vid=3aa51378-4a45-4e8c-a155-0ad68c37a88d","ios":"levelo://app?vid=3aa51378-4a45-4e8c-a155-0ad68c37a88d"},"vehicle_type_id":"4","last_reported":1712610398,"current_range_meters":0,"station_id":"ce4bgup2rcd13ifvqco0","pricing_plan_id":"cebpf4jnsgd1na2vs0mg"},{"bike_id":"4e023382-5c51-4d1b-aa3f-527211f5ef6d","system_id":"levelo_inurba_marseille","lat":43.317557,"lon":5.390173,"is_reserved":false,"is_disabled":false,"rental_uris":{"android":"levelo://app?vid=4e023382-5c51-4d1b-aa3f-527211f5ef6d","ios":"levelo://app?vid=4e023382-5c51-4d1b-aa3f-527211f5ef6d"},"vehicle_type_id":"4","last_reported":1712610398,"current_range_meters":21600,"station_id":"ce4bhqp2rcd13ifvqhng","pricing_plan_id":"cebpf4jnsgd1na2vs0mg"},{"bike_id":"727d6e30-ed46-4a87-8a8a-e40ecbba1d85","system_id":"levelo_inurba_marseille","lat":43.295748,"lon":5.37522,"is_reserved":false,"is_disabled":false,"rental_uris":{"android":"levelo://app?vid=727d6e30-ed46-4a87-8a8a-e40ecbba1d85","ios":"levelo://app?vid=727d6e30-ed46-4a87-8a8a-e40ecbba1d85"},"vehicle_type_id":"4","last_reported":1712610398,"current_range_meters":0,"station_id":"ce4bgh92rcd13ifvqb50","pricing_plan_id":"cebpf4jnsgd1na2vs0mg"},{"bike_id":"94192563-6e1e-4c9f-b28d-576ac42b79da","system_id":"levelo_inurba_marseille","lat":43.29579,"lon":5.37519,"is_reserved":false,"is_disabled":false,"rental_uris":{"android":"levelo://app?vid=94192563-6e1e-4c9f-b28d-576ac42b79da","ios":"levelo://app?vid=94192563-6e1e-4c9f-b28d-576ac42b79da"},"vehicle_type_id":"4","last_reported":1712610398,"current_range_meters":0,"station_id":"ce4bgh92rcd13ifvqb50","pricing_plan_id":"cebpf4jnsgd1na2vs0mg"},{"bike_id":"54ba20e0-445b-41f0-829a-9cba35de42bc","system_id":"levelo_inurba_marseille","lat":43.297971,"lon":5.381094,"is_reserved":false,"is_disabled":false,"rental_uris":{"android":"levelo://app?vid=54ba20e0-445b-41f0-829a-9cba35de42bc","ios":"levelo://app?vid=54ba20e0-445b-41f0-829a-9cba35de42bc"},"vehicle_type_id":"4","last_reported":1712610398,"current_range_meters":0,"station_id":"ce4bgip2rcd13ifvqbb0","pricing_plan_id":"cebpf4jnsgd1na2vs0mg"},{"bike_id":"35b86bb6-5ca8-487f-a000-0844c9d4447e","system_id":"levelo_inurba_marseille","lat":43.301939,"lon":5.366286,"is_reserved":false,"is_disabled":false,"rental_uris":{"android":"levelo://app?vid=35b86bb6-5ca8-487f-a000-0844c9d4447e","ios":"levelo://app?vid=35b86bb6-5ca8-487f-a000-0844c9d4447e"},"vehicle_type_id":"4","last_reported":1712610398,"current_range_meters":28400,"station_id":"ce4bgrh2rcd13ifvqc8g","pricing_plan_id":"cebpf4jnsgd1na2vs0mg"},{"bike_id":"9f571d42-1eca-4bf4-9c91-902d15aac5b2","system_id":"levelo_inurba_marseille","lat":43.304274,"lon":5.388873,"is_reserved":false,"is_disabled":false,"rental_uris":{"android":"levelo://app?vid=9f571d42-1eca-4bf4-9c91-902d15aac5b2","ios":"levelo://app?vid=9f571d42-1eca-4bf4-9c91-902d15aac5b2"},"vehicle_type_id":"4","last_reported":1712610398,"current_range_meters":19200,"station_id":"ce4bgk12rcd13ifvqbi0","pricing_plan_id":"cebpf4jnsgd1na2vs0mg"},{"bike_id":"fd7357b9-54a7-4ff4-86fd-784209829ff4","system_id":"levelo_inurba_marseille","lat":43.30425,"lon":5.38884,"is_reserved":false,"is_disabled":false,"rental_uris":{"android":"levelo://app?vid=fd7357b9-54a7-4ff4-86fd-784209829ff4","ios":"levelo://app?vid=fd7357b9-54a7-4ff4-86fd-784209829ff4"},"vehicle_type_id":"4","last_reported":1712610398,"current_range_meters":8400,"station_id":"ce4bgk12rcd13ifvqbi0","pricing_plan_id":"cebpf4jnsgd1na2vs0mg"},{"bike_id":"b273c6d3-d42f-4840-bacd-cb0e6ebfc406","system_id":"levelo_inurba_marseille","lat":43.304278,"lon":5.388868,"is_reserved":false,"is_disabled":false,"rental_uris":{"android":"levelo://app?vid=b273c6d3-d42f-4840-bacd-cb0e6ebfc406","ios":"levelo://app?vid=b273c6d3-d42f-4840-bacd-cb0e6ebfc406"},"vehicle_type_id":"4","last_reported":1712610398,"current_range_meters":31200,"station_id":"ce4bgk12rcd13ifvqbi0","pricing_plan_id":"cebpf4jnsgd1na2vs0mg"},{"bike_id":"267f81ff-4a0e-4a49-a20f-f10b0df53696","system_id":"levelo_inurba_marseille","lat":43.304274,"lon":5.388873,"is_reserved":false,"is_disabled":false,"rental_uris":{"android":"levelo://app?vid=267f81ff-4a0e-4a49-a20f-f10b0df53696","ios":"levelo://app?vid=267f81ff-4a0e-4a49-a20f-f10b0df53696"},"vehicle_type_id":"4","last_reported":1712610398,"current_range_meters":28000,"station_id":"ce4bgk12rcd13ifvqbi0","pricing_plan_id":"cebpf4jnsgd1na2vs0mg"},{"bike_id":"cd718e8c-4530-49a4-a173-3e53be6dd230","system_id":"levelo_inurba_marseille","lat":43.30423,"lon":5.38894,"is_reserved":false,"is_disabled":false,"rental_uris":{"android":"levelo://app?vid=cd718e8c-4530-49a4-a173-3e53be6dd230","ios":"levelo://app?vid=cd718e8c-4530-49a4-a173-3e53be6dd230"},"vehicle_type_id":"4","last_reported":1712610398,"current_range_meters":26000,"station_id":"ce4bgk12rcd13ifvqbi0","pricing_plan_id":"cebpf4jnsgd1na2vs0mg"},{"bike_id":"5a97f9f0-f690-40eb-96f4-ce3a4c5e2965","system_id":"levelo_inurba_marseille","lat":43.289468,"lon":5.363719,"is_reserved":false,"is_disabled":false,"rental_uris":{"android":"levelo://app?vid=5a97f9f0-f690-40eb-96f4-ce3a4c5e2965","ios":"levelo://app?vid=5a97f9f0-f690-40eb-96f4-ce3a4c5e2965"},"vehicle_type_id":"4","last_reported":1712610398,"current_range_meters":20800,"station_id":"ce4bhc92rcd13ifvqetg","pricing_plan_id":"cebpf4jnsgd1na2vs0mg"},{"bike_id":"450bb0ae-34a5-4a24-b63a-6be7ee38a9b5","system_id":"levelo_inurba_marseille","lat":43.2901,"lon":5.381269,"is_reserved":false,"is_disabled":false,"rental_uris":{"android":"levelo://app?vid=450bb0ae-34a5-4a24-b63a-6be7ee38a9b5","ios":"levelo://app?vid=450bb0ae-34a5-4a24-b63a-6be7ee38a9b5"},"vehicle_type_id":"4","last_reported":1712610398,"current_range_meters":14400,"station_id":"ce4bh4p2rcd13ifvqe1g","pricing_plan_id":"cebpf4jnsgd1na2vs0mg"},{"bike_id":"dec90b39-65f2-4db1-b247-ab59f24e154c","system_id":"levelo_inurba_marseille","lat":43.29525,"lon":5.37501,"is_reserved":false,"is_disabled":false,"rental_uris":{"android":"levelo://app?vid=dec90b39-65f2-4db1-b247-ab59f24e154c","ios":"levelo://app?vid=dec90b39-65f2-4db1-b247-ab59f24e154c"},"vehicle_type_id":"4","last_reported":1712610398,"current_range_meters":8800,"station_id":"","pricing_plan_id":"cebpf4jnsgd1na2vs0mg"},{"bike_id":"add87a23-3ed8-4a7e-9637-c921b00a344b","system_id":"levelo_inurba_marseille","lat":43.292749,"lon":5.368402,"is_reserved":false,"is_disabled":false,"rental_uris":{"android":"levelo://app?vid=add87a23-3ed8-4a7e-9637-c921b00a344b","ios":"levelo://app?vid=add87a23-3ed8-4a7e-9637-c921b00a344b"},"vehicle_type_id":"4","last_reported":1712610398,"current_range_meters":1200,"station_id":"ce4bhbp2rcd13ifvqesg","pricing_plan_id":"cebpf4jnsgd1na2vs0mg"},{"bike_id":"fe5278dd-e5d2-4c27-a0e8-eeff1c46c35b","system_id":"levelo_inurba_marseille","lat":43.299717,"lon":5.384845,"is_reserved":false,"is_disabled":false,"rental_uris":{"android":"levelo://app?vid=fe5278dd-e5d2-4c27-a0e8-eeff1c46c35b","ios":"levelo://app?vid=fe5278dd-e5d2-4c27-a0e8-eeff1c46c35b"},"vehicle_type_id":"4","last_reported":1712610398,"current_range_meters":0,"station_id":"ce4bgj92rcd13ifvqbd0","pricing_plan_id":"cebpf4jnsgd1na2vs0mg"},{"bike_id":"fb982edb-a753-4a52-91a0-e2de8df90360","system_id":"levelo_inurba_marseille","lat":43.299717,"lon":5.384845,"is_reserved":false,"is_disabled":false,"rental_uris":{"android":"levelo://app?vid=fb982edb-a753-4a52-91a0-e2de8df90360","ios":"levelo://app?vid=fb982edb-a753-4a52-91a0-e2de8df90360"},"vehicle_type_id":"4","last_reported":1712610398,"current_range_meters":24000,"station_id":"ce4bgj92rcd13ifvqbd0","pricing_plan_id":"cebpf4jnsgd1na2vs0mg"},{"bike_id":"0f31e290-f00e-48e6-9c69-df2b84f5966e","system_id":"levelo_inurba_marseille","lat":43.29389,"lon":5.36293,"is_reserved":false,"is_disabled":false,"rental_uris":{"android":"levelo://app?vid=0f31e290-f00e-48e6-9c69-df2b84f5966e","ios":"levelo://app?vid=0f31e290-f00e-48e6-9c69-df2b84f5966e"},"vehicle_type_id":"4","last_reported":1712610398,"current_range_meters":18400,"station_id":"","pricing_plan_id":"cebpf4jnsgd1na2vs0mg"},{"bike_id":"a9747bc7-e36c-46fc-bacb-511491cdb58f","system_id":"levelo_inurba_marseille","lat":43.29386,"lon":5.36298,"is_reserved":false,"is_disabled":false,"rental_uris":{"android":"levelo://app?vid=a9747bc7-e36c-46fc-bacb-511491cdb58f","ios":"levelo://app?vid=a9747bc7-e36c-46fc-bacb-511491cdb58f"},"vehicle_type_id":"4","last_reported":1712610398,"current_range_meters":11600,"station_id":"","pricing_plan_id":"cebpf4jnsgd1na2vs0mg"},{"bike_id":"115b0ad9-bfd3-45b6-8a41-fe32bc21a039","system_id":"levelo_inurba_marseille","lat":43.29382,"lon":5.36299,"is_reserved":false,"is_disabled":false,"rental_uris":{"android":"levelo://app?vid=115b0ad9-bfd3-45b6-8a41-fe32bc21a039","ios":"levelo://app?vid=115b0ad9-bfd3-45b6-8a41-fe32bc21a039"},"vehicle_type_id":"4","last_reported":1712610398,"current_range_meters":6800,"station_id":"","pricing_plan_id":"cebpf4jnsgd1na2vs0mg"},{"bike_id":"1808db17-e5f0-48ab-8040-2167b420659d","system_id":"levelo_inurba_marseille","lat":43.32367,"lon":5.388836,"is_reserved":false,"is_disabled":false,"rental_uris":{"android":"levelo://app?vid=1808db17-e5f0-48ab-8040-2167b420659d","ios":"levelo://app?vid=1808db17-e5f0-48ab-8040-2167b420659d"},"vehicle_type_id":"4","last_reported":1712610398,"current_range_meters":30800,"station_id":"ce4bhqp2rcd13ifvqhog","pricing_plan_id":"cebpf4jnsgd1na2vs0mg"},{"bike_id":"ea6e2bcc-ba08-4768-8752-e42689e3ba04","system_id":"levelo_inurba_marseille","lat":43.32367,"lon":5.388836,"is_reserved":false,"is_disabled":false,"rental_uris":{"android":"levelo://app?vid=ea6e2bcc-ba08-4768-8752-e42689e3ba04","ios":"levelo://app?vid=ea6e2bcc-ba08-4768-8752-e42689e3ba04"},"vehicle_type_id":"4","last_reported":1712610398,"current_range_meters":7200,"station_id":"ce4bhqp2rcd13ifvqhog","pricing_plan_id":"cebpf4jnsgd1na2vs0mg"},{"bike_id":"7e77403c-d4fa-4825-9128-8f63a631667f","system_id":"levelo_inurba_marseille","lat":43.295985,"lon":5.381048,"is_reserved":false,"is_disabled":false,"rental_uris":{"android":"levelo://app?vid=7e77403c-d4fa-4825-9128-8f63a631667f","ios":"levelo://app?vid=7e77403c-d4fa-4825-9128-8f63a631667f"},"vehicle_type_id":"4","last_reported":1712610398,"current_range_meters":0,"station_id":"ce4bgl12rcd13ifvqbo0","pricing_plan_id":"cebpf4jnsgd1na2vs0mg"},{"bike_id":"c8ddcd8c-155f-4867-8c4f-5c1d1680fe69","system_id":"levelo_inurba_marseille","lat":43.29602,"lon":5.381084,"is_reserved":false,"is_disabled":false,"rental_uris":{"android":"levelo://app?vid=c8ddcd8c-155f-4867-8c4f-5c1d1680fe69","ios":"levelo://app?vid=c8ddcd8c-155f-4867-8c4f-5c1d1680fe69"},"vehicle_type_id":"4","last_reported":1712610398,"current_range_meters":0,"station_id":"ce4bgl12rcd13ifvqbo0","pricing_plan_id":"cebpf4jnsgd1na2vs0mg"},{"bike_id":"e0227968-a14e-43ac-b7d6-ecd922e7e186","system_id":"levelo_inurba_marseille","lat":43.31412,"lon":5.39418,"is_reserved":false,"is_disabled":false,"rental_uris":{"android":"levelo://app?vid=e0227968-a14e-43ac-b7d6-ecd922e7e186","ios":"levelo://app?vid=e0227968-a14e-43ac-b7d6-ecd922e7e186"},"vehicle_type_id":"4","last_reported":1712610398,"current_range_meters":29200,"station_id":"","pricing_plan_id":"cebpf4jnsgd1na2vs0mg"},{"bike_id":"cc9fef11-0e84-48c3-a1ed-053998f79ec5","system_id":"levelo_inurba_marseille","lat":43.29313,"lon":5.37176,"is_reserved":false,"is_disabled":false,"rental_uris":{"android":"levelo://app?vid=cc9fef11-0e84-48c3-a1ed-053998f79ec5","ios":"levelo://app?vid=cc9fef11-0e84-48c3-a1ed-053998f79ec5"},"vehicle_type_id":"4","last_reported":1712610398,"current_range_meters":0,"station_id":"ce4bgh92rcd13ifvqb40","pricing_plan_id":"cebpf4jnsgd1na2vs0mg"},{"bike_id":"7de1e9f8-dba9-4894-a2e5-e6e473a9dd23","system_id":"levelo_inurba_marseille","lat":43.292749,"lon":5.368402,"is_reserved":false,"is_disabled":false,"rental_uris":{"android":"levelo://app?vid=7de1e9f8-dba9-4894-a2e5-e6e473a9dd23","ios":"levelo://app?vid=7de1e9f8-dba9-4894-a2e5-e6e473a9dd23"},"vehicle_type_id":"4","last_reported":1712610398,"current_range_meters":15200,"station_id":"ce4bhbp2rcd13ifvqesg","pricing_plan_id":"cebpf4jnsgd1na2vs0mg"},{"bike_id":"de4a28c7-37a9-4737-97f1-d2494e5e82bd","system_id":"levelo_inurba_marseille","lat":43.292749,"lon":5.368402,"is_reserved":false,"is_disabled":false,"rental_uris":{"android":"levelo://app?vid=de4a28c7-37a9-4737-97f1-d2494e5e82bd","ios":"levelo://app?vid=de4a28c7-37a9-4737-97f1-d2494e5e82bd"},"vehicle_type_id":"4","last_reported":1712610398,"current_range_meters":0,"station_id":"ce4bhbp2rcd13ifvqesg","pricing_plan_id":"cebpf4jnsgd1na2vs0mg"},{"bike_id":"c64c55c3-f871-4d90-8032-c7fe4f466806","system_id":"levelo_inurba_marseille","lat":43.316828,"lon":5.404723,"is_reserved":false,"is_disabled":false,"rental_uris":{"android":"levelo://app?vid=c64c55c3-f871-4d90-8032-c7fe4f466806","ios":"levelo://app?vid=c64c55c3-f871-4d90-8032-c7fe4f466806"},"vehicle_type_id":"4","last_reported":1712610398,"current_range_meters":0,"station_id":"ce4bh012rcd13ifvqd00","pricing_plan_id":"cebpf4jnsgd1na2vs0mg"},{"bike_id":"74012dfe-a337-4d6a-8fcb-a3071934b82a","system_id":"levelo_inurba_marseille","lat":43.292749,"lon":5.368402,"is_reserved":false,"is_disabled":false,"rental_uris":{"android":"levelo://app?vid=74012dfe-a337-4d6a-8fcb-a3071934b82a","ios":"levelo://app?vid=74012dfe-a337-4d6a-8fcb-a3071934b82a"},"vehicle_type_id":"4","last_reported":1712610398,"current_range_meters":0,"station_id":"ce4bhbp2rcd13ifvqesg","pricing_plan_id":"cebpf4jnsgd1na2vs0mg"},{"bike_id":"03b82d94-495f-4c0a-961b-6a6df2cb03bd","system_id":"levelo_inurba_marseille","lat":43.305994,"lon":5.393687,"is_reserved":false,"is_disabled":false,"rental_uris":{"android":"levelo://app?vid=03b82d94-495f-4c0a-961b-6a6df2cb03bd","ios":"levelo://app?vid=03b82d94-495f-4c0a-961b-6a6df2cb03bd"},"vehicle_type_id":"4","last_reported":1712610398,"current_range_meters":30800,"station_id":"ce4bh0p2rcd13ifvqd80","pricing_plan_id":"cebpf4jnsgd1na2vs0mg"},{"bike_id":"b38d4059-78bb-4d31-96aa-ca3af7963557","system_id":"levelo_inurba_marseille","lat":43.305994,"lon":5.393687,"is_reserved":false,"is_disabled":false,"rental_uris":{"android":"levelo://app?vid=b38d4059-78bb-4d31-96aa-ca3af7963557","ios":"levelo://app?vid=b38d4059-78bb-4d31-96aa-ca3af7963557"},"vehicle_type_id":"4","last_reported":1712610398,"current_range_meters":31200,"station_id":"ce4bh0p2rcd13ifvqd80","pricing_plan_id":"cebpf4jnsgd1na2vs0mg"},{"bike_id":"445fb73c-80eb-47a1-9068-8cfae560da14","system_id":"levelo_inurba_marseille","lat":43.29303,"lon":5.37464,"is_reserved":false,"is_disabled":false,"rental_uris":{"android":"levelo://app?vid=445fb73c-80eb-47a1-9068-8cfae560da14","ios":"levelo://app?vid=445fb73c-80eb-47a1-9068-8cfae560da14"},"vehicle_type_id":"4","last_reported":1712610398,"current_range_meters":12000,"station_id":"ce4bgi12rcd13ifvqb70","pricing_plan_id":"cebpf4jnsgd1na2vs0mg"},{"bike_id":"083d5145-e252-47f0-bc6e-0ec656dedf9e","system_id":"levelo_inurba_marseille","lat":43.305994,"lon":5.393687,"is_reserved":false,"is_disabled":false,"rental_uris":{"android":"levelo://app?vid=083d5145-e252-47f0-bc6e-0ec656dedf9e","ios":"levelo://app?vid=083d5145-e252-47f0-bc6e-0ec656dedf9e"},"vehicle_type_id":"4","last_reported":1712610398,"current_range_meters":31200,"station_id":"ce4bh0p2rcd13ifvqd80","pricing_plan_id":"cebpf4jnsgd1na2vs0mg"},{"bike_id":"b64f18c0-dbba-421f-b4b9-ad800821fc1e","system_id":"levelo_inurba_marseille","lat":43.305994,"lon":5.393687,"is_reserved":false,"is_disabled":false,"rental_uris":{"android":"levelo://app?vid=b64f18c0-dbba-421f-b4b9-ad800821fc1e","ios":"levelo://app?vid=b64f18c0-dbba-421f-b4b9-ad800821fc1e"},"vehicle_type_id":"4","last_reported":1712610398,"current_range_meters":27200,"station_id":"ce4bh0p2rcd13ifvqd80","pricing_plan_id":"cebpf4jnsgd1na2vs0mg"},{"bike_id":"0e82ad39-e3d1-47f9-9440-6c96b1038e2d","system_id":"levelo_inurba_marseille","lat":43.291994,"lon":5.392907,"is_reserved":false,"is_disabled":false,"rental_uris":{"android":"levelo://app?vid=0e82ad39-e3d1-47f9-9440-6c96b1038e2d","ios":"levelo://app?vid=0e82ad39-e3d1-47f9-9440-6c96b1038e2d"},"vehicle_type_id":"4","last_reported":1712610398,"current_range_meters":28400,"station_id":"ce4bh192rcd13ifvqdd0","pricing_plan_id":"cebpf4jnsgd1na2vs0mg"},{"bike_id":"561b3d48-cdda-4127-9fac-d078e6c3869e","system_id":"levelo_inurba_marseille","lat":43.305994,"lon":5.393687,"is_reserved":false,"is_disabled":false,"rental_uris":{"android":"levelo://app?vid=561b3d48-cdda-4127-9fac-d078e6c3869e","ios":"levelo://app?vid=561b3d48-cdda-4127-9fac-d078e6c3869e"},"vehicle_type_id":"4","last_reported":1712610398,"current_range_meters":23200,"station_id":"ce4bh0p2rcd13ifvqd80","pricing_plan_id":"cebpf4jnsgd1na2vs0mg"},{"bike_id":"64db7208-6bdd-443d-a533-0db75ed6a0d5","system_id":"levelo_inurba_marseille","lat":43.29296,"lon":5.37467,"is_reserved":false,"is_disabled":false,"rental_uris":{"android":"levelo://app?vid=64db7208-6bdd-443d-a533-0db75ed6a0d5","ios":"levelo://app?vid=64db7208-6bdd-443d-a533-0db75ed6a0d5"},"vehicle_type_id":"4","last_reported":1712610398,"current_range_meters":4800,"station_id":"ce4bgi12rcd13ifvqb70","pricing_plan_id":"cebpf4jnsgd1na2vs0mg"},{"bike_id":"de36ac2a-d357-44cc-8493-281c89291b64","system_id":"levelo_inurba_marseille","lat":43.305994,"lon":5.393687,"is_reserved":false,"is_disabled":false,"rental_uris":{"android":"levelo://app?vid=de36ac2a-d357-44cc-8493-281c89291b64","ios":"levelo://app?vid=de36ac2a-d357-44cc-8493-281c89291b64"},"vehicle_type_id":"4","last_reported":1712610398,"current_range_meters":0,"station_id":"ce4bh0p2rcd13ifvqd80","pricing_plan_id":"cebpf4jnsgd1na2vs0mg"},{"bike_id":"032484f5-eeb3-4629-8638-987a5ec09fad","system_id":"levelo_inurba_marseille","lat":43.293009,"lon":5.374584,"is_reserved":false,"is_disabled":false,"rental_uris":{"android":"levelo://app?vid=032484f5-eeb3-4629-8638-987a5ec09fad","ios":"levelo://app?vid=032484f5-eeb3-4629-8638-987a5ec09fad"},"vehicle_type_id":"4","last_reported":1712610398,"current_range_meters":6400,"station_id":"ce4bgi12rcd13ifvqb70","pricing_plan_id":"cebpf4jnsgd1na2vs0mg"},{"bike_id":"360a9b4c-fdd2-46fc-9b20-92789c1e8176","system_id":"levelo_inurba_marseille","lat":43.303,"lon":5.392,"is_reserved":false,"is_disabled":false,"rental_uris":{"android":"levelo://app?vid=360a9b4c-fdd2-46fc-9b20-92789c1e8176","ios":"levelo://app?vid=360a9b4c-fdd2-46fc-9b20-92789c1e8176"},"vehicle_type_id":"4","last_reported":1712610398,"current_range_meters":16400,"station_id":"ce4bgkh2rcd13ifvqbk0","pricing_plan_id":"cebpf4jnsgd1na2vs0mg"},{"bike_id":"2d4499b5-8f17-4044-97af-48bfce7c3a7d","system_id":"levelo_inurba_marseille","lat":43.2936,"lon":5.37835,"is_reserved":false,"is_disabled":false,"rental_uris":{"android":"levelo://app?vid=2d4499b5-8f17-4044-97af-48bfce7c3a7d","ios":"levelo://app?vid=2d4499b5-8f17-4044-97af-48bfce7c3a7d"},"vehicle_type_id":"4","last_reported":1712610398,"current_range_meters":10400,"station_id":"ce4bgjh2rcd13ifvqbf0","pricing_plan_id":"cebpf4jnsgd1na2vs0mg"},{"bike_id":"a4399d87-7354-44ff-8e26-a097ab5c7a3d","system_id":"levelo_inurba_marseille","lat":43.302992,"lon":5.392136,"is_reserved":false,"is_disabled":false,"rental_uris":{"android":"levelo://app?vid=a4399d87-7354-44ff-8e26-a097ab5c7a3d","ios":"levelo://app?vid=a4399d87-7354-44ff-8e26-a097ab5c7a3d"},"vehicle_type_id":"4","last_reported":1712610398,"current_range_meters":24400,"station_id":"ce4bgkh2rcd13ifvqbk0","pricing_plan_id":"cebpf4jnsgd1na2vs0mg"},{"bike_id":"4176d703-4a6a-4fda-a19c-c6edc5d9572d","system_id":"levelo_inurba_marseille","lat":43.292311,"lon":5.360731,"is_reserved":false,"is_disabled":false,"rental_uris":{"android":"levelo://app?vid=4176d703-4a6a-4fda-a19c-c6edc5d9572d","ios":"levelo://app?vid=4176d703-4a6a-4fda-a19c-c6edc5d9572d"},"vehicle_type_id":"4","last_reported":1712610398,"current_range_meters":3600,"station_id":"ce4bhbh2rcd13ifvqeqg","pricing_plan_id":"cebpf4jnsgd1na2vs0mg"},{"bike_id":"b82b5201-c753-48ef-b7e5-ab4f8415f1b8","system_id":"levelo_inurba_marseille","lat":43.298764,"lon":5.388973,"is_reserved":false,"is_disabled":false,"rental_uris":{"android":"levelo://app?vid=b82b5201-c753-48ef-b7e5-ab4f8415f1b8","ios":"levelo://app?vid=b82b5201-c753-48ef-b7e5-ab4f8415f1b8"},"vehicle_type_id":"4","last_reported":1712610398,"current_range_meters":3600,"station_id":"ce4bh392rcd13ifvqdl0","pricing_plan_id":"cebpf4jnsgd1na2vs0mg"},{"bike_id":"6c3e958b-05f4-49f5-bffb-6cbc890d9ca4","system_id":"levelo_inurba_marseille","lat":43.298764,"lon":5.388973,"is_reserved":false,"is_disabled":false,"rental_uris":{"android":"levelo://app?vid=6c3e958b-05f4-49f5-bffb-6cbc890d9ca4","ios":"levelo://app?vid=6c3e958b-05f4-49f5-bffb-6cbc890d9ca4"},"vehicle_type_id":"4","last_reported":1712610398,"current_range_meters":14800,"station_id":"ce4bh392rcd13ifvqdl0","pricing_plan_id":"cebpf4jnsgd1na2vs0mg"},{"bike_id":"94447b95-b281-45f3-b5e6-e5bc71168e91","system_id":"levelo_inurba_marseille","lat":43.291675,"lon":5.371583,"is_reserved":false,"is_disabled":false,"rental_uris":{"android":"levelo://app?vid=94447b95-b281-45f3-b5e6-e5bc71168e91","ios":"levelo://app?vid=94447b95-b281-45f3-b5e6-e5bc71168e91"},"vehicle_type_id":"4","last_reported":1712610398,"current_range_meters":27200,"station_id":"ce4bha92rcd13ifvqeh0","pricing_plan_id":"cebpf4jnsgd1na2vs0mg"},{"bike_id":"80295071-4a1d-45ba-98bb-db5811f947ec","system_id":"levelo_inurba_marseille","lat":43.29865,"lon":5.38903,"is_reserved":false,"is_disabled":false,"rental_uris":{"android":"levelo://app?vid=80295071-4a1d-45ba-98bb-db5811f947ec","ios":"levelo://app?vid=80295071-4a1d-45ba-98bb-db5811f947ec"},"vehicle_type_id":"4","last_reported":1712610398,"current_range_meters":0,"station_id":"ce4bh392rcd13ifvqdl0","pricing_plan_id":"cebpf4jnsgd1na2vs0mg"},{"bike_id":"3e315390-0ceb-4817-9bf5-631366151c39","system_id":"levelo_inurba_marseille","lat":43.29866,"lon":5.38905,"is_reserved":false,"is_disabled":false,"rental_uris":{"android":"levelo://app?vid=3e315390-0ceb-4817-9bf5-631366151c39","ios":"levelo://app?vid=3e315390-0ceb-4817-9bf5-631366151c39"},"vehicle_type_id":"4","last_reported":1712610398,"current_range_meters":0,"station_id":"ce4bh392rcd13ifvqdl0","pricing_plan_id":"cebpf4jnsgd1na2vs0mg"},{"bike_id":"1d4bb2a6-0297-4311-8e65-a23b372657b5","system_id":"levelo_inurba_marseille","lat":43.302863,"lon":5.393005,"is_reserved":false,"is_disabled":false,"rental_uris":{"android":"levelo://app?vid=1d4bb2a6-0297-4311-8e65-a23b372657b5","ios":"levelo://app?vid=1d4bb2a6-0297-4311-8e65-a23b372657b5"},"vehicle_type_id":"4","last_reported":1712610398,"current_range_meters":27600,"station_id":"","pricing_plan_id":"cebpf4jnsgd1na2vs0mg"},{"bike_id":"a4f56b27-24ed-4a32-bd04-5e9bb1c3b0ea","system_id":"levelo_inurba_marseille","lat":43.309047,"lon":5.396551,"is_reserved":false,"is_disabled":false,"rental_uris":{"android":"levelo://app?vid=a4f56b27-24ed-4a32-bd04-5e9bb1c3b0ea","ios":"levelo://app?vid=a4f56b27-24ed-4a32-bd04-5e9bb1c3b0ea"},"vehicle_type_id":"4","last_reported":1712610398,"current_range_meters":0,"station_id":"ce4bh012rcd13ifvqcv0","pricing_plan_id":"cebpf4jnsgd1na2vs0mg"},{"bike_id":"0dd458e0-43cd-4c62-9d0b-e27f92d9be22","system_id":"levelo_inurba_marseille","lat":43.313291,"lon":5.396838,"is_reserved":false,"is_disabled":false,"rental_uris":{"android":"levelo://app?vid=0dd458e0-43cd-4c62-9d0b-e27f92d9be22","ios":"levelo://app?vid=0dd458e0-43cd-4c62-9d0b-e27f92d9be22"},"vehicle_type_id":"4","last_reported":1712610398,"current_range_meters":8800,"station_id":"ce4bgvp2rcd13ifvqcu0","pricing_plan_id":"cebpf4jnsgd1na2vs0mg"},{"bike_id":"40f4ea5e-3a68-46bc-a9ab-e1a1e6f39c21","system_id":"levelo_inurba_marseille","lat":43.309038,"lon":5.396546,"is_reserved":false,"is_disabled":false,"rental_uris":{"android":"levelo://app?vid=40f4ea5e-3a68-46bc-a9ab-e1a1e6f39c21","ios":"levelo://app?vid=40f4ea5e-3a68-46bc-a9ab-e1a1e6f39c21"},"vehicle_type_id":"4","last_reported":1712610398,"current_range_meters":14400,"station_id":"ce4bh012rcd13ifvqcv0","pricing_plan_id":"cebpf4jnsgd1na2vs0mg"},{"bike_id":"4d6a1fed-c56e-484a-a372-79da3b282752","system_id":"levelo_inurba_marseille","lat":43.309038,"lon":5.396546,"is_reserved":false,"is_disabled":false,"rental_uris":{"android":"levelo://app?vid=4d6a1fed-c56e-484a-a372-79da3b282752","ios":"levelo://app?vid=4d6a1fed-c56e-484a-a372-79da3b282752"},"vehicle_type_id":"4","last_reported":1712610398,"current_range_meters":29600,"station_id":"ce4bh012rcd13ifvqcv0","pricing_plan_id":"cebpf4jnsgd1na2vs0mg"},{"bike_id":"444cddd7-2f95-4814-835c-2e817bf5fac0","system_id":"levelo_inurba_marseille","lat":43.29189,"lon":5.35801,"is_reserved":false,"is_disabled":false,"rental_uris":{"android":"levelo://app?vid=444cddd7-2f95-4814-835c-2e817bf5fac0","ios":"levelo://app?vid=444cddd7-2f95-4814-835c-2e817bf5fac0"},"vehicle_type_id":"4","last_reported":1712610398,"current_range_meters":0,"station_id":"ce4bhb12rcd13ifvqel0","pricing_plan_id":"cebpf4jnsgd1na2vs0mg"},{"bike_id":"093a4445-8fa9-4769-a22f-fc3ff883f0a4","system_id":"levelo_inurba_marseille","lat":43.309038,"lon":5.396546,"is_reserved":false,"is_disabled":false,"rental_uris":{"android":"levelo://app?vid=093a4445-8fa9-4769-a22f-fc3ff883f0a4","ios":"levelo://app?vid=093a4445-8fa9-4769-a22f-fc3ff883f0a4"},"vehicle_type_id":"4","last_reported":1712610398,"current_range_meters":27600,"station_id":"ce4bh012rcd13ifvqcv0","pricing_plan_id":"cebpf4jnsgd1na2vs0mg"},{"bike_id":"6184fc20-54e9-4fc4-b712-ac364aaf40d7","system_id":"levelo_inurba_marseille","lat":43.313291,"lon":5.396838,"is_reserved":false,"is_disabled":false,"rental_uris":{"android":"levelo://app?vid=6184fc20-54e9-4fc4-b712-ac364aaf40d7","ios":"levelo://app?vid=6184fc20-54e9-4fc4-b712-ac364aaf40d7"},"vehicle_type_id":"4","last_reported":1712610398,"current_range_meters":27200,"station_id":"ce4bgvp2rcd13ifvqcu0","pricing_plan_id":"cebpf4jnsgd1na2vs0mg"},{"bike_id":"acbd54a4-0d9c-4a98-80c8-0d983933e6f7","system_id":"levelo_inurba_marseille","lat":43.313291,"lon":5.396838,"is_reserved":false,"is_disabled":false,"rental_uris":{"android":"levelo://app?vid=acbd54a4-0d9c-4a98-80c8-0d983933e6f7","ios":"levelo://app?vid=acbd54a4-0d9c-4a98-80c8-0d983933e6f7"},"vehicle_type_id":"4","last_reported":1712610398,"current_range_meters":7200,"station_id":"ce4bgvp2rcd13ifvqcu0","pricing_plan_id":"cebpf4jnsgd1na2vs0mg"},{"bike_id":"ed048514-7055-49f9-8b76-754cde3f3e05","system_id":"levelo_inurba_marseille","lat":43.313291,"lon":5.396838,"is_reserved":false,"is_disabled":false,"rental_uris":{"android":"levelo://app?vid=ed048514-7055-49f9-8b76-754cde3f3e05","ios":"levelo://app?vid=ed048514-7055-49f9-8b76-754cde3f3e05"},"vehicle_type_id":"4","last_reported":1712610398,"current_range_meters":6000,"station_id":"ce4bgvp2rcd13ifvqcu0","pricing_plan_id":"cebpf4jnsgd1na2vs0mg"},{"bike_id":"6aa6b6a0-81d1-47d4-b889-dbb19115fffb","system_id":"levelo_inurba_marseille","lat":43.309038,"lon":5.396546,"is_reserved":false,"is_disabled":false,"rental_uris":{"android":"levelo://app?vid=6aa6b6a0-81d1-47d4-b889-dbb19115fffb","ios":"levelo://app?vid=6aa6b6a0-81d1-47d4-b889-dbb19115fffb"},"vehicle_type_id":"4","last_reported":1712610398,"current_range_meters":18400,"station_id":"ce4bh012rcd13ifvqcv0","pricing_plan_id":"cebpf4jnsgd1na2vs0mg"},{"bike_id":"add27eb3-a361-43ee-afb9-d819a1f97155","system_id":"levelo_inurba_marseille","lat":43.309047,"lon":5.396551,"is_reserved":false,"is_disabled":false,"rental_uris":{"android":"levelo://app?vid=add27eb3-a361-43ee-afb9-d819a1f97155","ios":"levelo://app?vid=add27eb3-a361-43ee-afb9-d819a1f97155"},"vehicle_type_id":"4","last_reported":1712610398,"current_range_meters":22400,"station_id":"ce4bh012rcd13ifvqcv0","pricing_plan_id":"cebpf4jnsgd1na2vs0mg"},{"bike_id":"adb864db-508c-492f-8d0b-9eeab6d2e1ec","system_id":"levelo_inurba_marseille","lat":43.309047,"lon":5.396551,"is_reserved":false,"is_disabled":false,"rental_uris":{"android":"levelo://app?vid=adb864db-508c-492f-8d0b-9eeab6d2e1ec","ios":"levelo://app?vid=adb864db-508c-492f-8d0b-9eeab6d2e1ec"},"vehicle_type_id":"4","last_reported":1712610398,"current_range_meters":31600,"station_id":"ce4bh012rcd13ifvqcv0","pricing_plan_id":"cebpf4jnsgd1na2vs0mg"},{"bike_id":"3118be01-d314-4a1c-b937-b4fd183478e2","system_id":"levelo_inurba_marseille","lat":43.313291,"lon":5.396838,"is_reserved":false,"is_disabled":false,"rental_uris":{"android":"levelo://app?vid=3118be01-d314-4a1c-b937-b4fd183478e2","ios":"levelo://app?vid=3118be01-d314-4a1c-b937-b4fd183478e2"},"vehicle_type_id":"4","last_reported":1712610398,"current_range_meters":3200,"station_id":"ce4bgvp2rcd13ifvqcu0","pricing_plan_id":"cebpf4jnsgd1na2vs0mg"},{"bike_id":"66e7669e-0b5a-4a26-bcf2-74decee1c578","system_id":"levelo_inurba_marseille","lat":43.313291,"lon":5.396838,"is_reserved":false,"is_disabled":false,"rental_uris":{"android":"levelo://app?vid=66e7669e-0b5a-4a26-bcf2-74decee1c578","ios":"levelo://app?vid=66e7669e-0b5a-4a26-bcf2-74decee1c578"},"vehicle_type_id":"4","last_reported":1712610398,"current_range_meters":29200,"station_id":"ce4bgvp2rcd13ifvqcu0","pricing_plan_id":"cebpf4jnsgd1na2vs0mg"},{"bike_id":"cafd8be9-0a91-41c6-a4da-9ff6111746ed","system_id":"levelo_inurba_marseille","lat":43.309038,"lon":5.396546,"is_reserved":false,"is_disabled":false,"rental_uris":{"android":"levelo://app?vid=cafd8be9-0a91-41c6-a4da-9ff6111746ed","ios":"levelo://app?vid=cafd8be9-0a91-41c6-a4da-9ff6111746ed"},"vehicle_type_id":"4","last_reported":1712610398,"current_range_meters":7600,"station_id":"ce4bh012rcd13ifvqcv0","pricing_plan_id":"cebpf4jnsgd1na2vs0mg"},{"bike_id":"2f7ab3d2-503c-4004-ba83-e9e206b373a4","system_id":"levelo_inurba_marseille","lat":43.309038,"lon":5.396546,"is_reserved":false,"is_disabled":false,"rental_uris":{"android":"levelo://app?vid=2f7ab3d2-503c-4004-ba83-e9e206b373a4","ios":"levelo://app?vid=2f7ab3d2-503c-4004-ba83-e9e206b373a4"},"vehicle_type_id":"4","last_reported":1712610398,"current_range_meters":0,"station_id":"ce4bh012rcd13ifvqcv0","pricing_plan_id":"cebpf4jnsgd1na2vs0mg"},{"bike_id":"0712e152-04c5-4bd7-96ab-6152068b7b38","system_id":"levelo_inurba_marseille","lat":43.29529,"lon":5.385581,"is_reserved":false,"is_disabled":false,"rental_uris":{"android":"levelo://app?vid=0712e152-04c5-4bd7-96ab-6152068b7b38","ios":"levelo://app?vid=0712e152-04c5-4bd7-96ab-6152068b7b38"},"vehicle_type_id":"4","last_reported":1712610398,"current_range_meters":1200,"station_id":"ce4bgih2rcd13ifvqba0","pricing_plan_id":"cebpf4jnsgd1na2vs0mg"},{"bike_id":"2c6f0fb6-aa47-45ad-b1ec-f1b074d3da97","system_id":"levelo_inurba_marseille","lat":43.290779,"lon":5.371482,"is_reserved":false,"is_disabled":false,"rental_uris":{"android":"levelo://app?vid=2c6f0fb6-aa47-45ad-b1ec-f1b074d3da97","ios":"levelo://app?vid=2c6f0fb6-aa47-45ad-b1ec-f1b074d3da97"},"vehicle_type_id":"4","last_reported":1712610398,"current_range_meters":22400,"station_id":"ce4bh5p2rcd13ifvqe4g","pricing_plan_id":"cebpf4jnsgd1na2vs0mg"},{"bike_id":"e0772f67-41fa-4de7-8774-24e36e5f49ff","system_id":"levelo_inurba_marseille","lat":43.290319,"lon":5.375732,"is_reserved":false,"is_disabled":false,"rental_uris":{"android":"levelo://app?vid=e0772f67-41fa-4de7-8774-24e36e5f49ff","ios":"levelo://app?vid=e0772f67-41fa-4de7-8774-24e36e5f49ff"},"vehicle_type_id":"4","last_reported":1712610398,"current_range_meters":31200,"station_id":"ce4bh692rcd13ifvqe90","pricing_plan_id":"cebpf4jnsgd1na2vs0mg"},{"bike_id":"b3a49353-ed3a-4ef4-8b51-8489356e1166","system_id":"levelo_inurba_marseille","lat":43.290327,"lon":5.375711,"is_reserved":false,"is_disabled":false,"rental_uris":{"android":"levelo://app?vid=b3a49353-ed3a-4ef4-8b51-8489356e1166","ios":"levelo://app?vid=b3a49353-ed3a-4ef4-8b51-8489356e1166"},"vehicle_type_id":"4","last_reported":1712610398,"current_range_meters":2800,"station_id":"ce4bh692rcd13ifvqe90","pricing_plan_id":"cebpf4jnsgd1na2vs0mg"},{"bike_id":"08905c1b-1a60-44a3-bba3-b4450971eaf7","system_id":"levelo_inurba_marseille","lat":43.290345,"lon":5.38646,"is_reserved":false,"is_disabled":false,"rental_uris":{"android":"levelo://app?vid=08905c1b-1a60-44a3-bba3-b4450971eaf7","ios":"levelo://app?vid=08905c1b-1a60-44a3-bba3-b4450971eaf7"},"vehicle_type_id":"4","last_reported":1712610398,"current_range_meters":30800,"station_id":"ce4bh4p2rcd13ifvqe0g","pricing_plan_id":"cebpf4jnsgd1na2vs0mg"},{"bike_id":"4ea15f8c-9f27-4014-8b57-187a345b84d0","system_id":"levelo_inurba_marseille","lat":43.294153,"lon":5.386305,"is_reserved":false,"is_disabled":false,"rental_uris":{"android":"levelo://app?vid=4ea15f8c-9f27-4014-8b57-187a345b84d0","ios":"levelo://app?vid=4ea15f8c-9f27-4014-8b57-187a345b84d0"},"vehicle_type_id":"4","last_reported":1712610398,"current_range_meters":4800,"station_id":"ce4bh2h2rcd13ifvqdh0","pricing_plan_id":"cebpf4jnsgd1na2vs0mg"},{"bike_id":"ff1cfdda-0001-49e4-90f1-b7c70fa462e3","system_id":"levelo_inurba_marseille","lat":43.29421,"lon":5.38625,"is_reserved":false,"is_disabled":false,"rental_uris":{"android":"levelo://app?vid=ff1cfdda-0001-49e4-90f1-b7c70fa462e3","ios":"levelo://app?vid=ff1cfdda-0001-49e4-90f1-b7c70fa462e3"},"vehicle_type_id":"4","last_reported":1712610398,"current_range_meters":4400,"station_id":"ce4bh2h2rcd13ifvqdh0","pricing_plan_id":"cebpf4jnsgd1na2vs0mg"},{"bike_id":"ed02c25b-b609-4aa6-81e5-7447ec9d4dcd","system_id":"levelo_inurba_marseille","lat":43.294153,"lon":5.386305,"is_reserved":false,"is_disabled":false,"rental_uris":{"android":"levelo://app?vid=ed02c25b-b609-4aa6-81e5-7447ec9d4dcd","ios":"levelo://app?vid=ed02c25b-b609-4aa6-81e5-7447ec9d4dcd"},"vehicle_type_id":"4","last_reported":1712610398,"current_range_meters":27200,"station_id":"ce4bh2h2rcd13ifvqdh0","pricing_plan_id":"cebpf4jnsgd1na2vs0mg"},{"bike_id":"28d65441-29c9-4900-ab8d-cb81e66052ab","system_id":"levelo_inurba_marseille","lat":43.294153,"lon":5.386305,"is_reserved":false,"is_disabled":false,"rental_uris":{"android":"levelo://app?vid=28d65441-29c9-4900-ab8d-cb81e66052ab","ios":"levelo://app?vid=28d65441-29c9-4900-ab8d-cb81e66052ab"},"vehicle_type_id":"4","last_reported":1712610398,"current_range_meters":24400,"station_id":"ce4bh2h2rcd13ifvqdh0","pricing_plan_id":"cebpf4jnsgd1na2vs0mg"},{"bike_id":"a48661bd-4319-40d7-844c-8f1618459309","system_id":"levelo_inurba_marseille","lat":43.289184,"lon":5.366408,"is_reserved":false,"is_disabled":false,"rental_uris":{"android":"levelo://app?vid=a48661bd-4319-40d7-844c-8f1618459309","ios":"levelo://app?vid=a48661bd-4319-40d7-844c-8f1618459309"},"vehicle_type_id":"4","last_reported":1712610398,"current_range_meters":0,"station_id":"ce4bhap2rcd13ifvqek0","pricing_plan_id":"cebpf4jnsgd1na2vs0mg"},{"bike_id":"b806ee11-31a4-4240-9b2e-aabc9b71e096","system_id":"levelo_inurba_marseille","lat":43.2942,"lon":5.38629,"is_reserved":false,"is_disabled":false,"rental_uris":{"android":"levelo://app?vid=b806ee11-31a4-4240-9b2e-aabc9b71e096","ios":"levelo://app?vid=b806ee11-31a4-4240-9b2e-aabc9b71e096"},"vehicle_type_id":"4","last_reported":1712610398,"current_range_meters":16800,"station_id":"ce4bh2h2rcd13ifvqdh0","pricing_plan_id":"cebpf4jnsgd1na2vs0mg"},{"bike_id":"bde8acf2-c297-451a-b68b-532a6991d30c","system_id":"levelo_inurba_marseille","lat":43.294153,"lon":5.386305,"is_reserved":false,"is_disabled":false,"rental_uris":{"android":"levelo://app?vid=bde8acf2-c297-451a-b68b-532a6991d30c","ios":"levelo://app?vid=bde8acf2-c297-451a-b68b-532a6991d30c"},"vehicle_type_id":"4","last_reported":1712610398,"current_range_meters":19200,"station_id":"ce4bh2h2rcd13ifvqdh0","pricing_plan_id":"cebpf4jnsgd1na2vs0mg"},{"bike_id":"65d3a854-3fe3-40b8-a688-cd07a7025577","system_id":"levelo_inurba_marseille","lat":43.29418,"lon":5.38626,"is_reserved":false,"is_disabled":false,"rental_uris":{"android":"levelo://app?vid=65d3a854-3fe3-40b8-a688-cd07a7025577","ios":"levelo://app?vid=65d3a854-3fe3-40b8-a688-cd07a7025577"},"vehicle_type_id":"4","last_reported":1712610398,"current_range_meters":25200,"station_id":"ce4bh2h2rcd13ifvqdh0","pricing_plan_id":"cebpf4jnsgd1na2vs0mg"},{"bike_id":"4ebfb5a7-a302-4595-a23f-80d4ff6434e4","system_id":"levelo_inurba_marseille","lat":43.294153,"lon":5.386305,"is_reserved":false,"is_disabled":false,"rental_uris":{"android":"levelo://app?vid=4ebfb5a7-a302-4595-a23f-80d4ff6434e4","ios":"levelo://app?vid=4ebfb5a7-a302-4595-a23f-80d4ff6434e4"},"vehicle_type_id":"4","last_reported":1712610398,"current_range_meters":6000,"station_id":"ce4bh2h2rcd13ifvqdh0","pricing_plan_id":"cebpf4jnsgd1na2vs0mg"},{"bike_id":"b942c14d-cb88-4658-b874-aa3e1b3b0e2e","system_id":"levelo_inurba_marseille","lat":43.29417,"lon":5.38627,"is_reserved":false,"is_disabled":false,"rental_uris":{"android":"levelo://app?vid=b942c14d-cb88-4658-b874-aa3e1b3b0e2e","ios":"levelo://app?vid=b942c14d-cb88-4658-b874-aa3e1b3b0e2e"},"vehicle_type_id":"4","last_reported":1712610398,"current_range_meters":2000,"station_id":"ce4bh2h2rcd13ifvqdh0","pricing_plan_id":"cebpf4jnsgd1na2vs0mg"},{"bike_id":"69a70a41-6495-4779-9642-72d1f3ad3faa","system_id":"levelo_inurba_marseille","lat":43.29415,"lon":5.38624,"is_reserved":false,"is_disabled":false,"rental_uris":{"android":"levelo://app?vid=69a70a41-6495-4779-9642-72d1f3ad3faa","ios":"levelo://app?vid=69a70a41-6495-4779-9642-72d1f3ad3faa"},"vehicle_type_id":"4","last_reported":1712610398,"current_range_meters":15200,"station_id":"ce4bh2h2rcd13ifvqdh0","pricing_plan_id":"cebpf4jnsgd1na2vs0mg"},{"bike_id":"ad986f32-3c21-4043-b79e-ff410b77ffbf","system_id":"levelo_inurba_marseille","lat":43.29417,"lon":5.38628,"is_reserved":false,"is_disabled":false,"rental_uris":{"android":"levelo://app?vid=ad986f32-3c21-4043-b79e-ff410b77ffbf","ios":"levelo://app?vid=ad986f32-3c21-4043-b79e-ff410b77ffbf"},"vehicle_type_id":"4","last_reported":1712610398,"current_range_meters":10000,"station_id":"ce4bh2h2rcd13ifvqdh0","pricing_plan_id":"cebpf4jnsgd1na2vs0mg"},{"bike_id":"56534aa1-e478-4ef5-8572-f0124d1c3c5f","system_id":"levelo_inurba_marseille","lat":43.289184,"lon":5.366408,"is_reserved":false,"is_disabled":false,"rental_uris":{"android":"levelo://app?vid=56534aa1-e478-4ef5-8572-f0124d1c3c5f","ios":"levelo://app?vid=56534aa1-e478-4ef5-8572-f0124d1c3c5f"},"vehicle_type_id":"4","last_reported":1712610398,"current_range_meters":21200,"station_id":"ce4bhap2rcd13ifvqek0","pricing_plan_id":"cebpf4jnsgd1na2vs0mg"},{"bike_id":"f56c4e83-4108-4718-bbcc-b53b739639ab","system_id":"levelo_inurba_marseille","lat":43.29416,"lon":5.3863,"is_reserved":false,"is_disabled":false,"rental_uris":{"android":"levelo://app?vid=f56c4e83-4108-4718-bbcc-b53b739639ab","ios":"levelo://app?vid=f56c4e83-4108-4718-bbcc-b53b739639ab"},"vehicle_type_id":"4","last_reported":1712610398,"current_range_meters":31200,"station_id":"ce4bh2h2rcd13ifvqdh0","pricing_plan_id":"cebpf4jnsgd1na2vs0mg"},{"bike_id":"5df3eee3-220f-4149-b5e5-f23700e37580","system_id":"levelo_inurba_marseille","lat":43.289184,"lon":5.366408,"is_reserved":false,"is_disabled":false,"rental_uris":{"android":"levelo://app?vid=5df3eee3-220f-4149-b5e5-f23700e37580","ios":"levelo://app?vid=5df3eee3-220f-4149-b5e5-f23700e37580"},"vehicle_type_id":"4","last_reported":1712610398,"current_range_meters":22000,"station_id":"ce4bhap2rcd13ifvqek0","pricing_plan_id":"cebpf4jnsgd1na2vs0mg"},{"bike_id":"5cc5c4cc-484b-4f74-b803-6658b9539f92","system_id":"levelo_inurba_marseille","lat":43.289327,"lon":5.36631,"is_reserved":false,"is_disabled":false,"rental_uris":{"android":"levelo://app?vid=5cc5c4cc-484b-4f74-b803-6658b9539f92","ios":"levelo://app?vid=5cc5c4cc-484b-4f74-b803-6658b9539f92"},"vehicle_type_id":"4","last_reported":1712610398,"current_range_meters":0,"station_id":"ce4bhap2rcd13ifvqek0","pricing_plan_id":"cebpf4jnsgd1na2vs0mg"},{"bike_id":"f8efb249-7aff-4cf1-a88c-203d681a3112","system_id":"levelo_inurba_marseille","lat":43.28941,"lon":5.364012,"is_reserved":false,"is_disabled":false,"rental_uris":{"android":"levelo://app?vid=f8efb249-7aff-4cf1-a88c-203d681a3112","ios":"levelo://app?vid=f8efb249-7aff-4cf1-a88c-203d681a3112"},"vehicle_type_id":"4","last_reported":1712610398,"current_range_meters":0,"station_id":"ce4bhc92rcd13ifvqetg","pricing_plan_id":"cebpf4jnsgd1na2vs0mg"},{"bike_id":"63ac70dc-2f69-4dda-8998-887a5cd6ad5f","system_id":"levelo_inurba_marseille","lat":43.2894,"lon":5.36383,"is_reserved":false,"is_disabled":false,"rental_uris":{"android":"levelo://app?vid=63ac70dc-2f69-4dda-8998-887a5cd6ad5f","ios":"levelo://app?vid=63ac70dc-2f69-4dda-8998-887a5cd6ad5f"},"vehicle_type_id":"4","last_reported":1712610398,"current_range_meters":0,"station_id":"ce4bhc92rcd13ifvqetg","pricing_plan_id":"cebpf4jnsgd1na2vs0mg"},{"bike_id":"39cb5ce1-e527-4ae9-927e-cafd658fa45d","system_id":"levelo_inurba_marseille","lat":43.28937,"lon":5.36408,"is_reserved":false,"is_disabled":false,"rental_uris":{"android":"levelo://app?vid=39cb5ce1-e527-4ae9-927e-cafd658fa45d","ios":"levelo://app?vid=39cb5ce1-e527-4ae9-927e-cafd658fa45d"},"vehicle_type_id":"4","last_reported":1712610398,"current_range_meters":0,"station_id":"ce4bhc92rcd13ifvqetg","pricing_plan_id":"cebpf4jnsgd1na2vs0mg"},{"bike_id":"326fba55-f171-421d-aab3-233ce7de30b7","system_id":"levelo_inurba_marseille","lat":43.289468,"lon":5.363719,"is_reserved":false,"is_disabled":false,"rental_uris":{"android":"levelo://app?vid=326fba55-f171-421d-aab3-233ce7de30b7","ios":"levelo://app?vid=326fba55-f171-421d-aab3-233ce7de30b7"},"vehicle_type_id":"4","last_reported":1712610398,"current_range_meters":27600,"station_id":"ce4bhc92rcd13ifvqetg","pricing_plan_id":"cebpf4jnsgd1na2vs0mg"},{"bike_id":"bbd1934b-b700-4571-b740-d76143490722","system_id":"levelo_inurba_marseille","lat":43.289349,"lon":5.363985,"is_reserved":false,"is_disabled":false,"rental_uris":{"android":"levelo://app?vid=bbd1934b-b700-4571-b740-d76143490722","ios":"levelo://app?vid=bbd1934b-b700-4571-b740-d76143490722"},"vehicle_type_id":"4","last_reported":1712610398,"current_range_meters":0,"station_id":"ce4bhc92rcd13ifvqetg","pricing_plan_id":"cebpf4jnsgd1na2vs0mg"},{"bike_id":"ac33a9d0-f2d1-4e5d-b591-32893e9eab36","system_id":"levelo_inurba_marseille","lat":43.28933,"lon":5.36398,"is_reserved":false,"is_disabled":false,"rental_uris":{"android":"levelo://app?vid=ac33a9d0-f2d1-4e5d-b591-32893e9eab36","ios":"levelo://app?vid=ac33a9d0-f2d1-4e5d-b591-32893e9eab36"},"vehicle_type_id":"4","last_reported":1712610398,"current_range_meters":25600,"station_id":"ce4bhc92rcd13ifvqetg","pricing_plan_id":"cebpf4jnsgd1na2vs0mg"},{"bike_id":"5febc358-c2f3-4ee0-8989-c930fb1ed489","system_id":"levelo_inurba_marseille","lat":43.292644,"lon":5.384257,"is_reserved":false,"is_disabled":false,"rental_uris":{"android":"levelo://app?vid=5febc358-c2f3-4ee0-8989-c930fb1ed489","ios":"levelo://app?vid=5febc358-c2f3-4ee0-8989-c930fb1ed489"},"vehicle_type_id":"4","last_reported":1712610398,"current_range_meters":31200,"station_id":"ce4bh692rcd13ifvqea0","pricing_plan_id":"cebpf4jnsgd1na2vs0mg"},{"bike_id":"0c573bfd-fbd3-4fd7-b0f3-66a26e5b9bce","system_id":"levelo_inurba_marseille","lat":43.304274,"lon":5.397513,"is_reserved":false,"is_disabled":false,"rental_uris":{"android":"levelo://app?vid=0c573bfd-fbd3-4fd7-b0f3-66a26e5b9bce","ios":"levelo://app?vid=0c573bfd-fbd3-4fd7-b0f3-66a26e5b9bce"},"vehicle_type_id":"4","last_reported":1712610398,"current_range_meters":26800,"station_id":"ce4bh092rcd13ifvqd20","pricing_plan_id":"cebpf4jnsgd1na2vs0mg"},{"bike_id":"4948428f-5695-4606-a735-94b4278fdf1a","system_id":"levelo_inurba_marseille","lat":43.304296,"lon":5.397513,"is_reserved":false,"is_disabled":false,"rental_uris":{"android":"levelo://app?vid=4948428f-5695-4606-a735-94b4278fdf1a","ios":"levelo://app?vid=4948428f-5695-4606-a735-94b4278fdf1a"},"vehicle_type_id":"4","last_reported":1712610398,"current_range_meters":31200,"station_id":"ce4bh092rcd13ifvqd20","pricing_plan_id":"cebpf4jnsgd1na2vs0mg"},{"bike_id":"2dbad80a-c6fd-4513-a612-7e5c4fd911ae","system_id":"levelo_inurba_marseille","lat":43.292644,"lon":5.384257,"is_reserved":false,"is_disabled":false,"rental_uris":{"android":"levelo://app?vid=2dbad80a-c6fd-4513-a612-7e5c4fd911ae","ios":"levelo://app?vid=2dbad80a-c6fd-4513-a612-7e5c4fd911ae"},"vehicle_type_id":"4","last_reported":1712610398,"current_range_meters":29200,"station_id":"ce4bh692rcd13ifvqea0","pricing_plan_id":"cebpf4jnsgd1na2vs0mg"},{"bike_id":"fef7168b-8735-4b0a-b700-6bcf6fb84d0c","system_id":"levelo_inurba_marseille","lat":43.304296,"lon":5.397513,"is_reserved":false,"is_disabled":false,"rental_uris":{"android":"levelo://app?vid=fef7168b-8735-4b0a-b700-6bcf6fb84d0c","ios":"levelo://app?vid=fef7168b-8735-4b0a-b700-6bcf6fb84d0c"},"vehicle_type_id":"4","last_reported":1712610398,"current_range_meters":31200,"station_id":"ce4bh092rcd13ifvqd20","pricing_plan_id":"cebpf4jnsgd1na2vs0mg"},{"bike_id":"9464c90a-7db0-4cae-a21c-03fb3ec28825","system_id":"levelo_inurba_marseille","lat":43.304296,"lon":5.397513,"is_reserved":false,"is_disabled":false,"rental_uris":{"android":"levelo://app?vid=9464c90a-7db0-4cae-a21c-03fb3ec28825","ios":"levelo://app?vid=9464c90a-7db0-4cae-a21c-03fb3ec28825"},"vehicle_type_id":"4","last_reported":1712610398,"current_range_meters":5200,"station_id":"ce4bh092rcd13ifvqd20","pricing_plan_id":"cebpf4jnsgd1na2vs0mg"},{"bike_id":"3b2a4c39-5060-4b9b-9748-f8e24ff74fde","system_id":"levelo_inurba_marseille","lat":43.304274,"lon":5.397513,"is_reserved":false,"is_disabled":false,"rental_uris":{"android":"levelo://app?vid=3b2a4c39-5060-4b9b-9748-f8e24ff74fde","ios":"levelo://app?vid=3b2a4c39-5060-4b9b-9748-f8e24ff74fde"},"vehicle_type_id":"4","last_reported":1712610398,"current_range_meters":12800,"station_id":"ce4bh092rcd13ifvqd20","pricing_plan_id":"cebpf4jnsgd1na2vs0mg"},{"bike_id":"97117149-88f9-4ba6-9efd-08a1d855b4ac","system_id":"levelo_inurba_marseille","lat":43.292642,"lon":5.384254,"is_reserved":false,"is_disabled":false,"rental_uris":{"android":"levelo://app?vid=97117149-88f9-4ba6-9efd-08a1d855b4ac","ios":"levelo://app?vid=97117149-88f9-4ba6-9efd-08a1d855b4ac"},"vehicle_type_id":"4","last_reported":1712610398,"current_range_meters":27600,"station_id":"ce4bh692rcd13ifvqea0","pricing_plan_id":"cebpf4jnsgd1na2vs0mg"},{"bike_id":"d6b990cd-4dec-4bec-86f1-4db36ecdbcc8","system_id":"levelo_inurba_marseille","lat":43.29256,"lon":5.3845,"is_reserved":false,"is_disabled":false,"rental_uris":{"android":"levelo://app?vid=d6b990cd-4dec-4bec-86f1-4db36ecdbcc8","ios":"levelo://app?vid=d6b990cd-4dec-4bec-86f1-4db36ecdbcc8"},"vehicle_type_id":"4","last_reported":1712610398,"current_range_meters":26000,"station_id":"ce4bh692rcd13ifvqea0","pricing_plan_id":"cebpf4jnsgd1na2vs0mg"},{"bike_id":"e096ca6d-6a1d-4454-bbe9-b21e3261acd3","system_id":"levelo_inurba_marseille","lat":43.29253,"lon":5.38449,"is_reserved":false,"is_disabled":false,"rental_uris":{"android":"levelo://app?vid=e096ca6d-6a1d-4454-bbe9-b21e3261acd3","ios":"levelo://app?vid=e096ca6d-6a1d-4454-bbe9-b21e3261acd3"},"vehicle_type_id":"4","last_reported":1712610398,"current_range_meters":4400,"station_id":"ce4bh692rcd13ifvqea0","pricing_plan_id":"cebpf4jnsgd1na2vs0mg"},{"bike_id":"51df9411-9087-40fa-a45a-678e8b41c37e","system_id":"levelo_inurba_marseille","lat":43.290103,"lon":5.356114,"is_reserved":false,"is_disabled":false,"rental_uris":{"android":"levelo://app?vid=51df9411-9087-40fa-a45a-678e8b41c37e","ios":"levelo://app?vid=51df9411-9087-40fa-a45a-678e8b41c37e"},"vehicle_type_id":"4","last_reported":1712610398,"current_range_meters":20800,"station_id":"ce4bhb92rcd13ifvqen0","pricing_plan_id":"cebpf4jnsgd1na2vs0mg"},{"bike_id":"32a9add7-341b-4bc5-a3e5-d60fda8b87d7","system_id":"levelo_inurba_marseille","lat":43.290104,"lon":5.356111,"is_reserved":false,"is_disabled":false,"rental_uris":{"android":"levelo://app?vid=32a9add7-341b-4bc5-a3e5-d60fda8b87d7","ios":"levelo://app?vid=32a9add7-341b-4bc5-a3e5-d60fda8b87d7"},"vehicle_type_id":"4","last_reported":1712610398,"current_range_meters":18400,"station_id":"ce4bhb92rcd13ifvqen0","pricing_plan_id":"cebpf4jnsgd1na2vs0mg"},{"bike_id":"83059206-610f-4e05-9483-a9f0df01d481","system_id":"levelo_inurba_marseille","lat":43.290104,"lon":5.356111,"is_reserved":false,"is_disabled":false,"rental_uris":{"android":"levelo://app?vid=83059206-610f-4e05-9483-a9f0df01d481","ios":"levelo://app?vid=83059206-610f-4e05-9483-a9f0df01d481"},"vehicle_type_id":"4","last_reported":1712610398,"current_range_meters":10800,"station_id":"ce4bhb92rcd13ifvqen0","pricing_plan_id":"cebpf4jnsgd1na2vs0mg"},{"bike_id":"d829c455-4e8e-484a-9455-11e2fd015ddd","system_id":"levelo_inurba_marseille","lat":43.290995,"lon":5.381361,"is_reserved":false,"is_disabled":false,"rental_uris":{"android":"levelo://app?vid=d829c455-4e8e-484a-9455-11e2fd015ddd","ios":"levelo://app?vid=d829c455-4e8e-484a-9455-11e2fd015ddd"},"vehicle_type_id":"4","last_reported":1712610398,"current_range_meters":0,"station_id":"ce4bh512rcd13ifvqe2g","pricing_plan_id":"cebpf4jnsgd1na2vs0mg"},{"bike_id":"e75e5901-ce64-4758-b5dc-bb8303f3cac0","system_id":"levelo_inurba_marseille","lat":43.301429,"lon":5.37413,"is_reserved":false,"is_disabled":false,"rental_uris":{"android":"levelo://app?vid=e75e5901-ce64-4758-b5dc-bb8303f3cac0","ios":"levelo://app?vid=e75e5901-ce64-4758-b5dc-bb8303f3cac0"},"vehicle_type_id":"4","last_reported":1712610398,"current_range_meters":4400,"station_id":"ce4bgs92rcd13ifvqcc0","pricing_plan_id":"cebpf4jnsgd1na2vs0mg"},{"bike_id":"5e31d99c-cf82-413d-8493-a58bd719f97b","system_id":"levelo_inurba_marseille","lat":43.2979,"lon":5.39338,"is_reserved":false,"is_disabled":false,"rental_uris":{"android":"levelo://app?vid=5e31d99c-cf82-413d-8493-a58bd719f97b","ios":"levelo://app?vid=5e31d99c-cf82-413d-8493-a58bd719f97b"},"vehicle_type_id":"4","last_reported":1712610398,"current_range_meters":0,"station_id":"chh1huq6cuj3fo74tm60","pricing_plan_id":"cebpf4jnsgd1na2vs0mg"},{"bike_id":"ff3bb256-5df9-4a3d-a9f8-4f3a8b2dbfd3","system_id":"levelo_inurba_marseille","lat":43.28842,"lon":5.36669,"is_reserved":false,"is_disabled":false,"rental_uris":{"android":"levelo://app?vid=ff3bb256-5df9-4a3d-a9f8-4f3a8b2dbfd3","ios":"levelo://app?vid=ff3bb256-5df9-4a3d-a9f8-4f3a8b2dbfd3"},"vehicle_type_id":"4","last_reported":1712610398,"current_range_meters":1200,"station_id":"ce4bhah2rcd13ifvqej0","pricing_plan_id":"cebpf4jnsgd1na2vs0mg"},{"bike_id":"e639b8d3-7def-4df5-be8a-0d4e7e7c7161","system_id":"levelo_inurba_marseille","lat":43.29786,"lon":5.39343,"is_reserved":false,"is_disabled":false,"rental_uris":{"android":"levelo://app?vid=e639b8d3-7def-4df5-be8a-0d4e7e7c7161","ios":"levelo://app?vid=e639b8d3-7def-4df5-be8a-0d4e7e7c7161"},"vehicle_type_id":"4","last_reported":1712610398,"current_range_meters":2000,"station_id":"chh1huq6cuj3fo74tm60","pricing_plan_id":"cebpf4jnsgd1na2vs0mg"},{"bike_id":"cdd5faaa-aea5-4aea-a3d5-a408c811254d","system_id":"levelo_inurba_marseille","lat":43.297815,"lon":5.393548,"is_reserved":false,"is_disabled":false,"rental_uris":{"android":"levelo://app?vid=cdd5faaa-aea5-4aea-a3d5-a408c811254d","ios":"levelo://app?vid=cdd5faaa-aea5-4aea-a3d5-a408c811254d"},"vehicle_type_id":"4","last_reported":1712610398,"current_range_meters":17600,"station_id":"chh1huq6cuj3fo74tm60","pricing_plan_id":"cebpf4jnsgd1na2vs0mg"},{"bike_id":"ab472e87-5bf9-4f70-9c53-b642400a597f","system_id":"levelo_inurba_marseille","lat":43.295169,"lon":5.390426,"is_reserved":false,"is_disabled":false,"rental_uris":{"android":"levelo://app?vid=ab472e87-5bf9-4f70-9c53-b642400a597f","ios":"levelo://app?vid=ab472e87-5bf9-4f70-9c53-b642400a597f"},"vehicle_type_id":"4","last_reported":1712610398,"current_range_meters":4400,"station_id":"ce4bh3p2rcd13ifvqdp0","pricing_plan_id":"cebpf4jnsgd1na2vs0mg"},{"bike_id":"55ab37be-ff4f-4d7a-a995-96b296ec2a47","system_id":"levelo_inurba_marseille","lat":43.297803,"lon":5.393423,"is_reserved":false,"is_disabled":false,"rental_uris":{"android":"levelo://app?vid=55ab37be-ff4f-4d7a-a995-96b296ec2a47","ios":"levelo://app?vid=55ab37be-ff4f-4d7a-a995-96b296ec2a47"},"vehicle_type_id":"4","last_reported":1712610398,"current_range_meters":0,"station_id":"chh1huq6cuj3fo74tm60","pricing_plan_id":"cebpf4jnsgd1na2vs0mg"},{"bike_id":"cb85f77f-c6fa-4330-8ab5-8d7307a81e1b","system_id":"levelo_inurba_marseille","lat":43.28981,"lon":5.37841,"is_reserved":false,"is_disabled":false,"rental_uris":{"android":"levelo://app?vid=cb85f77f-c6fa-4330-8ab5-8d7307a81e1b","ios":"levelo://app?vid=cb85f77f-c6fa-4330-8ab5-8d7307a81e1b"},"vehicle_type_id":"4","last_reported":1712610398,"current_range_meters":0,"station_id":"ce4bh9p2rcd13ifvqed0","pricing_plan_id":"cebpf4jnsgd1na2vs0mg"},{"bike_id":"27e4cf73-33c2-492e-ae46-91c52ba71937","system_id":"levelo_inurba_marseille","lat":43.295197,"lon":5.390281,"is_reserved":false,"is_disabled":false,"rental_uris":{"android":"levelo://app?vid=27e4cf73-33c2-492e-ae46-91c52ba71937","ios":"levelo://app?vid=27e4cf73-33c2-492e-ae46-91c52ba71937"},"vehicle_type_id":"4","last_reported":1712610398,"current_range_meters":0,"station_id":"ce4bh3p2rcd13ifvqdp0","pricing_plan_id":"cebpf4jnsgd1na2vs0mg"},{"bike_id":"c4541802-aedf-4a1b-afef-571f7f927053","system_id":"levelo_inurba_marseille","lat":43.29519,"lon":5.39028,"is_reserved":false,"is_disabled":false,"rental_uris":{"android":"levelo://app?vid=c4541802-aedf-4a1b-afef-571f7f927053","ios":"levelo://app?vid=c4541802-aedf-4a1b-afef-571f7f927053"},"vehicle_type_id":"4","last_reported":1712610398,"current_range_meters":4400,"station_id":"ce4bh3p2rcd13ifvqdp0","pricing_plan_id":"cebpf4jnsgd1na2vs0mg"},{"bike_id":"947df8f3-dc66-4447-8f27-8045bb3c8b36","system_id":"levelo_inurba_marseille","lat":43.330442,"lon":5.389148,"is_reserved":false,"is_disabled":false,"rental_uris":{"android":"levelo://app?vid=947df8f3-dc66-4447-8f27-8045bb3c8b36","ios":"levelo://app?vid=947df8f3-dc66-4447-8f27-8045bb3c8b36"},"vehicle_type_id":"4","last_reported":1712610398,"current_range_meters":31200,"station_id":"ce4bhr92rcd13ifvqhrg","pricing_plan_id":"cebpf4jnsgd1na2vs0mg"},{"bike_id":"833df115-212d-4b65-b996-f0340ae43926","system_id":"levelo_inurba_marseille","lat":43.29526,"lon":5.39041,"is_reserved":false,"is_disabled":false,"rental_uris":{"android":"levelo://app?vid=833df115-212d-4b65-b996-f0340ae43926","ios":"levelo://app?vid=833df115-212d-4b65-b996-f0340ae43926"},"vehicle_type_id":"4","last_reported":1712610398,"current_range_meters":10000,"station_id":"ce4bh3p2rcd13ifvqdp0","pricing_plan_id":"cebpf4jnsgd1na2vs0mg"},{"bike_id":"413db7e7-6fa2-4875-9ce8-b3d43fdc1e37","system_id":"levelo_inurba_marseille","lat":43.28976,"lon":5.37845,"is_reserved":false,"is_disabled":false,"rental_uris":{"android":"levelo://app?vid=413db7e7-6fa2-4875-9ce8-b3d43fdc1e37","ios":"levelo://app?vid=413db7e7-6fa2-4875-9ce8-b3d43fdc1e37"},"vehicle_type_id":"4","last_reported":1712610398,"current_range_meters":0,"station_id":"ce4bh9p2rcd13ifvqed0","pricing_plan_id":"cebpf4jnsgd1na2vs0mg"},{"bike_id":"6644b7ff-a469-4d8f-b1cf-77d9f1528d46","system_id":"levelo_inurba_marseille","lat":43.33022,"lon":5.39045,"is_reserved":false,"is_disabled":false,"rental_uris":{"android":"levelo://app?vid=6644b7ff-a469-4d8f-b1cf-77d9f1528d46","ios":"levelo://app?vid=6644b7ff-a469-4d8f-b1cf-77d9f1528d46"},"vehicle_type_id":"4","last_reported":1712610398,"current_range_meters":20800,"station_id":"ce4bhr92rcd13ifvqhrg","pricing_plan_id":"cebpf4jnsgd1na2vs0mg"},{"bike_id":"7a9890f4-c6d8-4404-b5ea-c9cf213982c4","system_id":"levelo_inurba_marseille","lat":43.33025,"lon":5.39041,"is_reserved":false,"is_disabled":false,"rental_uris":{"android":"levelo://app?vid=7a9890f4-c6d8-4404-b5ea-c9cf213982c4","ios":"levelo://app?vid=7a9890f4-c6d8-4404-b5ea-c9cf213982c4"},"vehicle_type_id":"4","last_reported":1712610398,"current_range_meters":18800,"station_id":"ce4bhr92rcd13ifvqhrg","pricing_plan_id":"cebpf4jnsgd1na2vs0mg"},{"bike_id":"3fc3aaec-65a5-4830-9c5f-29e241cb1301","system_id":"levelo_inurba_marseille","lat":43.330442,"lon":5.389148,"is_reserved":false,"is_disabled":false,"rental_uris":{"android":"levelo://app?vid=3fc3aaec-65a5-4830-9c5f-29e241cb1301","ios":"levelo://app?vid=3fc3aaec-65a5-4830-9c5f-29e241cb1301"},"vehicle_type_id":"4","last_reported":1712610398,"current_range_meters":23600,"station_id":"ce4bhr92rcd13ifvqhrg","pricing_plan_id":"cebpf4jnsgd1na2vs0mg"},{"bike_id":"82d5c063-5b06-44e8-b101-a1220db0361b","system_id":"levelo_inurba_marseille","lat":43.295169,"lon":5.390426,"is_reserved":false,"is_disabled":false,"rental_uris":{"android":"levelo://app?vid=82d5c063-5b06-44e8-b101-a1220db0361b","ios":"levelo://app?vid=82d5c063-5b06-44e8-b101-a1220db0361b"},"vehicle_type_id":"4","last_reported":1712610398,"current_range_meters":0,"station_id":"ce4bh3p2rcd13ifvqdp0","pricing_plan_id":"cebpf4jnsgd1na2vs0mg"},{"bike_id":"a283d2d9-0492-48e6-8559-2b3f03e91c5e","system_id":"levelo_inurba_marseille","lat":43.330442,"lon":5.389148,"is_reserved":false,"is_disabled":false,"rental_uris":{"android":"levelo://app?vid=a283d2d9-0492-48e6-8559-2b3f03e91c5e","ios":"levelo://app?vid=a283d2d9-0492-48e6-8559-2b3f03e91c5e"},"vehicle_type_id":"4","last_reported":1712610398,"current_range_meters":3600,"station_id":"ce4bhr92rcd13ifvqhrg","pricing_plan_id":"cebpf4jnsgd1na2vs0mg"},{"bike_id":"c37bda29-5ea8-4c5e-83af-dd2497e174c5","system_id":"levelo_inurba_marseille","lat":43.295169,"lon":5.390426,"is_reserved":false,"is_disabled":false,"rental_uris":{"android":"levelo://app?vid=c37bda29-5ea8-4c5e-83af-dd2497e174c5","ios":"levelo://app?vid=c37bda29-5ea8-4c5e-83af-dd2497e174c5"},"vehicle_type_id":"4","last_reported":1712610398,"current_range_meters":27200,"station_id":"ce4bh3p2rcd13ifvqdp0","pricing_plan_id":"cebpf4jnsgd1na2vs0mg"},{"bike_id":"2c27d14f-8afa-4ff8-9e8a-aef07e454311","system_id":"levelo_inurba_marseille","lat":43.295169,"lon":5.390426,"is_reserved":false,"is_disabled":false,"rental_uris":{"android":"levelo://app?vid=2c27d14f-8afa-4ff8-9e8a-aef07e454311","ios":"levelo://app?vid=2c27d14f-8afa-4ff8-9e8a-aef07e454311"},"vehicle_type_id":"4","last_reported":1712610398,"current_range_meters":30400,"station_id":"ce4bh3p2rcd13ifvqdp0","pricing_plan_id":"cebpf4jnsgd1na2vs0mg"},{"bike_id":"4200121a-ab56-4213-99b9-b27775004ee6","system_id":"levelo_inurba_marseille","lat":43.295219,"lon":5.390455,"is_reserved":false,"is_disabled":false,"rental_uris":{"android":"levelo://app?vid=4200121a-ab56-4213-99b9-b27775004ee6","ios":"levelo://app?vid=4200121a-ab56-4213-99b9-b27775004ee6"},"vehicle_type_id":"4","last_reported":1712610398,"current_range_meters":0,"station_id":"ce4bh3p2rcd13ifvqdp0","pricing_plan_id":"cebpf4jnsgd1na2vs0mg"},{"bike_id":"1dce9aa1-5232-4b74-8ce2-5f74a5bbde23","system_id":"levelo_inurba_marseille","lat":43.33113,"lon":5.38923,"is_reserved":false,"is_disabled":false,"rental_uris":{"android":"levelo://app?vid=1dce9aa1-5232-4b74-8ce2-5f74a5bbde23","ios":"levelo://app?vid=1dce9aa1-5232-4b74-8ce2-5f74a5bbde23"},"vehicle_type_id":"4","last_reported":1712610398,"current_range_meters":8000,"station_id":"","pricing_plan_id":"cebpf4jnsgd1na2vs0mg"},{"bike_id":"ab53ab35-ca1b-48c3-8517-9b396b7ab134","system_id":"levelo_inurba_marseille","lat":43.33034,"lon":5.39044,"is_reserved":false,"is_disabled":false,"rental_uris":{"android":"levelo://app?vid=ab53ab35-ca1b-48c3-8517-9b396b7ab134","ios":"levelo://app?vid=ab53ab35-ca1b-48c3-8517-9b396b7ab134"},"vehicle_type_id":"4","last_reported":1712610398,"current_range_meters":3600,"station_id":"ce4bhr92rcd13ifvqhrg","pricing_plan_id":"cebpf4jnsgd1na2vs0mg"},{"bike_id":"4507dcf5-abcb-48e2-89e5-5ce40dfdf921","system_id":"levelo_inurba_marseille","lat":43.290267,"lon":5.381493,"is_reserved":false,"is_disabled":false,"rental_uris":{"android":"levelo://app?vid=4507dcf5-abcb-48e2-89e5-5ce40dfdf921","ios":"levelo://app?vid=4507dcf5-abcb-48e2-89e5-5ce40dfdf921"},"vehicle_type_id":"4","last_reported":1712610398,"current_range_meters":28800,"station_id":"ce4bh4p2rcd13ifvqe1g","pricing_plan_id":"cebpf4jnsgd1na2vs0mg"},