{"last_updated":1744809682,"ttl":60,"version":"2.2","data":{"bikes":[{"bike_id":"588b9a5f-c1b4-42aa-a0d7-9dc4096af0cd","system_id":"levelo_inurba_marseille","lat":43.316881,"lon":5.404765,"is_reserved":false,"is_disabled":false,"rental_uris":{"android":"levelo://app?vid=588b9a5f-c1b4-42aa-a0d7-9dc4096af0cd","ios":"levelo://app?vid=588b9a5f-c1b4-42aa-a0d7-9dc4096af0cd"},"vehicle_type_id":"4","last_reported":1744809683,"current_range_meters":3200,"station_id":"ce4bh012rcd13ifvqd00","pricing_plan_id":"cebpf4jnsgd1na2vs0mg"},{"bike_id":"d09b025d-6215-42b8-93d1-bcdb1c08bd84","system_id":"levelo_inurba_marseille","lat":43.31116,"lon":5.37782,"is_reserved":false,"is_disabled":false,"rental_uris":{"android":"levelo://app?vid=d09b025d-6215-42b8-93d1-bcdb1c08bd84","ios":"levelo://app?vid=d09b025d-6215-42b8-93d1-bcdb1c08bd84"},"vehicle_type_id":"4","last_reported":1744809683,"current_range_meters":4400,"station_id":"ce4bgt92rcd13ifvqcg0","pricing_plan_id":"cebpf4jnsgd1na2vs0mg"},{"bike_id":"8837155e-0f20-43ea-9af7-f7194c61ea8c","system_id":"levelo_inurba_marseille","lat":43.26921,"lon":5.40292,"is_reserved":false,"is_disabled":false,"rental_uris":{"android":"levelo://app?vid=8837155e-0f20-43ea-9af7-f7194c61ea8c","ios":"levelo://app?vid=8837155e-0f20-43ea-9af7-f7194c61ea8c"},"vehicle_type_id":"4","last_reported":1744809683,"current_range_meters":4400,"station_id":"cjm6bp8fraef2m0cb0m0","pricing_plan_id":"cebpf4jnsgd1na2vs0mg"},{"bike_id":"b75fc7e2-35e7-4e1d-8e61-335e13a41523","system_id":"levelo_inurba_marseille","lat":43.27212,"lon":5.3918,"is_reserved":false,"is_disabled":false,"rental_uris":{"android":"levelo://app?vid=b75fc7e2-35e7-4e1d-8e61-335e13a41523","ios":"levelo://app?vid=b75fc7e2-35e7-4e1d-8e61-335e13a41523"},"vehicle_type_id":"4","last_reported":1744809683,"current_range_meters":4400,"station_id":"ce4bhhp2rcd13ifvqfm0","pricing_plan_id":"cebpf4jnsgd1na2vs0mg"},{"bike_id":"207b15a7-69f1-4c4a-a29d-f91df1564475","system_id":"levelo_inurba_marseille","lat":43.24069,"lon":5.37757,"is_reserved":false,"is_disabled":false,"rental_uris":{"android":"levelo://app?vid=207b15a7-69f1-4c4a-a29d-f91df1564475","ios":"levelo://app?vid=207b15a7-69f1-4c4a-a29d-f91df1564475"},"vehicle_type_id":"4","last_reported":1744809683,"current_range_meters":4800,"station_id":"ce4bhnp2rcd13ifvqgvg","pricing_plan_id":"cebpf4jnsgd1na2vs0mg"},{"bike_id":"e12263cb-f2cd-4c7b-8467-ca39314c224d","system_id":"levelo_inurba_marseille","lat":43.27941,"lon":5.41024,"is_reserved":false,"is_disabled":false,"rental_uris":{"android":"levelo://app?vid=e12263cb-f2cd-4c7b-8467-ca39314c224d","ios":"levelo://app?vid=e12263cb-f2cd-4c7b-8467-ca39314c224d"},"vehicle_type_id":"4","last_reported":1744809683,"current_range_meters":4800,"station_id":"ce4bhnp2rcd13ifvqh0g","pricing_plan_id":"cebpf4jnsgd1na2vs0mg"},{"bike_id":"4d5c9219-dab2-4a84-8f6e-9bff1ce514f0","system_id":"levelo_inurba_marseille","lat":43.2782,"lon":5.39205,"is_reserved":false,"is_disabled":false,"rental_uris":{"android":"levelo://app?vid=4d5c9219-dab2-4a84-8f6e-9bff1ce514f0","ios":"levelo://app?vid=4d5c9219-dab2-4a84-8f6e-9bff1ce514f0"},"vehicle_type_id":"4","last_reported":1744809683,"current_range_meters":5600,"station_id":"ce4bhjp2rcd13ifvqga0","pricing_plan_id":"cebpf4jnsgd1na2vs0mg"},{"bike_id":"c273cedc-5337-4dec-91b4-1636fd7d09ad","system_id":"levelo_inurba_marseille","lat":43.31423,"lon":5.37604,"is_reserved":false,"is_disabled":false,"rental_uris":{"android":"levelo://app?vid=c273cedc-5337-4dec-91b4-1636fd7d09ad","ios":"levelo://app?vid=c273cedc-5337-4dec-91b4-1636fd7d09ad"},"vehicle_type_id":"4","last_reported":1744809683,"current_range_meters":6000,"station_id":"","pricing_plan_id":"cebpf4jnsgd1na2vs0mg"},{"bike_id":"0b0f0ed1-c5e2-4a79-8b44-7c6a60880ced","system_id":"levelo_inurba_marseille","lat":43.28406,"lon":5.37498,"is_reserved":false,"is_disabled":false,"rental_uris":{"android":"levelo://app?vid=0b0f0ed1-c5e2-4a79-8b44-7c6a60880ced","ios":"levelo://app?vid=0b0f0ed1-c5e2-4a79-8b44-7c6a60880ced"},"vehicle_type_id":"4","last_reported":1744809683,"current_range_meters":6000,"station_id":"ce4bh412rcd13ifvqds0","pricing_plan_id":"cebpf4jnsgd1na2vs0mg"},{"bike_id":"e3a860a6-7da4-4617-aa4d-c874f7205574","system_id":"levelo_inurba_marseille","lat":43.305306,"lon":5.367105,"is_reserved":false,"is_disabled":false,"rental_uris":{"android":"levelo://app?vid=e3a860a6-7da4-4617-aa4d-c874f7205574","ios":"levelo://app?vid=e3a860a6-7da4-4617-aa4d-c874f7205574"},"vehicle_type_id":"4","last_reported":1744809683,"current_range_meters":6000,"station_id":"ce4bgrp2rcd13ifvqc9g","pricing_plan_id":"cebpf4jnsgd1na2vs0mg"},{"bike_id":"29ab2043-2779-4b0b-9a44-af8ff77b5175","system_id":"levelo_inurba_marseille","lat":43.29274,"lon":5.384537,"is_reserved":false,"is_disabled":false,"rental_uris":{"android":"levelo://app?vid=29ab2043-2779-4b0b-9a44-af8ff77b5175","ios":"levelo://app?vid=29ab2043-2779-4b0b-9a44-af8ff77b5175"},"vehicle_type_id":"4","last_reported":1744809683,"current_range_meters":10800,"station_id":"ce4bgv12rcd13ifvqcp0","pricing_plan_id":"cebpf4jnsgd1na2vs0mg"},{"bike_id":"e928d811-c26e-4316-86ec-1eab997472d4","system_id":"levelo_inurba_marseille","lat":43.24797,"lon":5.37449,"is_reserved":false,"is_disabled":false,"rental_uris":{"android":"levelo://app?vid=e928d811-c26e-4316-86ec-1eab997472d4","ios":"levelo://app?vid=e928d811-c26e-4316-86ec-1eab997472d4"},"vehicle_type_id":"4","last_reported":1744809683,"current_range_meters":6400,"station_id":"ce4bhgh2rcd13ifvqfb0","pricing_plan_id":"cebpf4jnsgd1na2vs0mg"},{"bike_id":"27a55245-8dd2-4f1a-af63-95a9d7b71690","system_id":"levelo_inurba_marseille","lat":43.31067,"lon":5.37844,"is_reserved":false,"is_disabled":false,"rental_uris":{"android":"levelo://app?vid=27a55245-8dd2-4f1a-af63-95a9d7b71690","ios":"levelo://app?vid=27a55245-8dd2-4f1a-af63-95a9d7b71690"},"vehicle_type_id":"4","last_reported":1744809683,"current_range_meters":6400,"station_id":"","pricing_plan_id":"cebpf4jnsgd1na2vs0mg"},{"bike_id":"a0636e31-c89e-4ae1-aea4-880988d0da0e","system_id":"levelo_inurba_marseille","lat":43.29561,"lon":5.42289,"is_reserved":false,"is_disabled":false,"rental_uris":{"android":"levelo://app?vid=a0636e31-c89e-4ae1-aea4-880988d0da0e","ios":"levelo://app?vid=a0636e31-c89e-4ae1-aea4-880988d0da0e"},"vehicle_type_id":"4","last_reported":1744809683,"current_range_meters":6800,"station_id":"ce4bhph2rcd13ifvqhdg","pricing_plan_id":"cebpf4jnsgd1na2vs0mg"},{"bike_id":"b146160c-5340-4991-9225-f12e90324c04","system_id":"levelo_inurba_marseille","lat":43.2992,"lon":5.3653,"is_reserved":false,"is_disabled":false,"rental_uris":{"android":"levelo://app?vid=b146160c-5340-4991-9225-f12e90324c04","ios":"levelo://app?vid=b146160c-5340-4991-9225-f12e90324c04"},"vehicle_type_id":"4","last_reported":1744809683,"current_range_meters":6800,"station_id":"ce4bgm92rcd13ifvqbr0","pricing_plan_id":"cebpf4jnsgd1na2vs0mg"},{"bike_id":"b7ab99ba-94bb-4274-aca7-e6131d0e5ab1","system_id":"levelo_inurba_marseille","lat":43.24167,"lon":5.36402,"is_reserved":false,"is_disabled":false,"rental_uris":{"android":"levelo://app?vid=b7ab99ba-94bb-4274-aca7-e6131d0e5ab1","ios":"levelo://app?vid=b7ab99ba-94bb-4274-aca7-e6131d0e5ab1"},"vehicle_type_id":"4","last_reported":1744809683,"current_range_meters":7200,"station_id":"cpo36qri1sfpv3e86is0","pricing_plan_id":"cebpf4jnsgd1na2vs0mg"},{"bike_id":"8c832129-5ac5-493b-8e4e-4cf066ff290e","system_id":"levelo_inurba_marseille","lat":43.30295,"lon":5.39203,"is_reserved":false,"is_disabled":false,"rental_uris":{"android":"levelo://app?vid=8c832129-5ac5-493b-8e4e-4cf066ff290e","ios":"levelo://app?vid=8c832129-5ac5-493b-8e4e-4cf066ff290e"},"vehicle_type_id":"4","last_reported":1744809683,"current_range_meters":7200,"station_id":"ce4bgkh2rcd13ifvqbk0","pricing_plan_id":"cebpf4jnsgd1na2vs0mg"},{"bike_id":"25e230f4-e34c-445f-87cd-877f61101b31","system_id":"levelo_inurba_marseille","lat":43.312356,"lon":5.368623,"is_reserved":false,"is_disabled":false,"rental_uris":{"android":"levelo://app?vid=25e230f4-e34c-445f-87cd-877f61101b31","ios":"levelo://app?vid=25e230f4-e34c-445f-87cd-877f61101b31"},"vehicle_type_id":"4","last_reported":1744809683,"current_range_meters":7200,"station_id":"ce4bgl92rcd13ifvqbq0","pricing_plan_id":"cebpf4jnsgd1na2vs0mg"},{"bike_id":"bba8cb5c-8674-48da-960e-e5ce40608c9a","system_id":"levelo_inurba_marseille","lat":43.28103,"lon":5.3784,"is_reserved":false,"is_disabled":false,"rental_uris":{"android":"levelo://app?vid=bba8cb5c-8674-48da-960e-e5ce40608c9a","ios":"levelo://app?vid=bba8cb5c-8674-48da-960e-e5ce40608c9a"},"vehicle_type_id":"4","last_reported":1744809683,"current_range_meters":7200,"station_id":"ce4bha12rcd13ifvqee0","pricing_plan_id":"cebpf4jnsgd1na2vs0mg"},{"bike_id":"e5c01cd9-72dc-4855-8f75-c00051c338d6","system_id":"levelo_inurba_marseille","lat":43.30219,"lon":5.39475,"is_reserved":false,"is_disabled":false,"rental_uris":{"android":"levelo://app?vid=e5c01cd9-72dc-4855-8f75-c00051c338d6","ios":"levelo://app?vid=e5c01cd9-72dc-4855-8f75-c00051c338d6"},"vehicle_type_id":"4","last_reported":1744809683,"current_range_meters":8000,"station_id":"ce4bh0p2rcd13ifvqd70","pricing_plan_id":"cebpf4jnsgd1na2vs0mg"},{"bike_id":"16c4ae36-4c11-4536-a2fe-865d5cb12c64","system_id":"levelo_inurba_marseille","lat":43.29725,"lon":5.37686,"is_reserved":false,"is_disabled":false,"rental_uris":{"android":"levelo://app?vid=16c4ae36-4c11-4536-a2fe-865d5cb12c64","ios":"levelo://app?vid=16c4ae36-4c11-4536-a2fe-865d5cb12c64"},"vehicle_type_id":"4","last_reported":1744809683,"current_range_meters":8000,"station_id":"ce4bgkh2rcd13ifvqbl0","pricing_plan_id":"cebpf4jnsgd1na2vs0mg"},{"bike_id":"7f963ed7-0de4-4f81-bd3d-132a6bf8ccaa","system_id":"levelo_inurba_marseille","lat":43.24806,"lon":5.37456,"is_reserved":false,"is_disabled":false,"rental_uris":{"android":"levelo://app?vid=7f963ed7-0de4-4f81-bd3d-132a6bf8ccaa","ios":"levelo://app?vid=7f963ed7-0de4-4f81-bd3d-132a6bf8ccaa"},"vehicle_type_id":"4","last_reported":1744809683,"current_range_meters":8000,"station_id":"ce4bhgh2rcd13ifvqfb0","pricing_plan_id":"cebpf4jnsgd1na2vs0mg"},{"bike_id":"f3389a1b-2719-4af7-8855-0abf17cd038d","system_id":"levelo_inurba_marseille","lat":43.2316,"lon":5.43707,"is_reserved":false,"is_disabled":false,"rental_uris":{"android":"levelo://app?vid=f3389a1b-2719-4af7-8855-0abf17cd038d","ios":"levelo://app?vid=f3389a1b-2719-4af7-8855-0abf17cd038d"},"vehicle_type_id":"4","last_reported":1744809683,"current_range_meters":8000,"station_id":"ce4bhmp2rcd13ifvqgog","pricing_plan_id":"cebpf4jnsgd1na2vs0mg"},{"bike_id":"534e4b6c-e6c4-4a00-a42a-116d30daa09d","system_id":"levelo_inurba_marseille","lat":43.304637,"lon":5.379117,"is_reserved":false,"is_disabled":false,"rental_uris":{"android":"levelo://app?vid=534e4b6c-e6c4-4a00-a42a-116d30daa09d","ios":"levelo://app?vid=534e4b6c-e6c4-4a00-a42a-116d30daa09d"},"vehicle_type_id":"4","last_reported":1744809683,"current_range_meters":8400,"station_id":"ce4bgup2rcd13ifvqcn0","pricing_plan_id":"cebpf4jnsgd1na2vs0mg"},{"bike_id":"575d3280-f1b1-4d58-9871-ee2b1e88b486","system_id":"levelo_inurba_marseille","lat":43.26796,"lon":5.4027,"is_reserved":false,"is_disabled":false,"rental_uris":{"android":"levelo://app?vid=575d3280-f1b1-4d58-9871-ee2b1e88b486","ios":"levelo://app?vid=575d3280-f1b1-4d58-9871-ee2b1e88b486"},"vehicle_type_id":"4","last_reported":1744809683,"current_range_meters":8400,"station_id":"ce501612rcd8frsf0b60","pricing_plan_id":"cebpf4jnsgd1na2vs0mg"},{"bike_id":"88f5330d-bd22-4d6e-81a3-1d19da2b67e0","system_id":"levelo_inurba_marseille","lat":43.2842,"lon":5.37522,"is_reserved":false,"is_disabled":false,"rental_uris":{"android":"levelo://app?vid=88f5330d-bd22-4d6e-81a3-1d19da2b67e0","ios":"levelo://app?vid=88f5330d-bd22-4d6e-81a3-1d19da2b67e0"},"vehicle_type_id":"4","last_reported":1744809683,"current_range_meters":8400,"station_id":"ce4bh412rcd13ifvqds0","pricing_plan_id":"cebpf4jnsgd1na2vs0mg"},{"bike_id":"376f754b-7bba-4962-babe-b49b1468281c","system_id":"levelo_inurba_marseille","lat":43.309289,"lon":5.401493,"is_reserved":false,"is_disabled":true,"rental_uris":{"android":"levelo://app?vid=376f754b-7bba-4962-babe-b49b1468281c","ios":"levelo://app?vid=376f754b-7bba-4962-babe-b49b1468281c"},"vehicle_type_id":"4","last_reported":1744809683,"current_range_meters":8400,"station_id":"ce4bgvp2rcd13ifvqct0","pricing_plan_id":"cebpf4jnsgd1na2vs0mg"},{"bike_id":"6b904a4f-3663-4c5e-9f48-de600ef85b14","system_id":"levelo_inurba_marseille","lat":43.2293,"lon":5.35381,"is_reserved":false,"is_disabled":false,"rental_uris":{"android":"levelo://app?vid=6b904a4f-3663-4c5e-9f48-de600ef85b14","ios":"levelo://app?vid=6b904a4f-3663-4c5e-9f48-de600ef85b14"},"vehicle_type_id":"4","last_reported":1744809683,"current_range_meters":8800,"station_id":"cpo3532slgdg3j2ikp40","pricing_plan_id":"cebpf4jnsgd1na2vs0mg"},{"bike_id":"c5dd7479-a2d3-42e0-8f4b-5c847ca5f7cc","system_id":"levelo_inurba_marseille","lat":43.24803,"lon":5.37454,"is_reserved":false,"is_disabled":false,"rental_uris":{"android":"levelo://app?vid=c5dd7479-a2d3-42e0-8f4b-5c847ca5f7cc","ios":"levelo://app?vid=c5dd7479-a2d3-42e0-8f4b-5c847ca5f7cc"},"vehicle_type_id":"4","last_reported":1744809683,"current_range_meters":8800,"station_id":"ce4bhgh2rcd13ifvqfb0","pricing_plan_id":"cebpf4jnsgd1na2vs0mg"},{"bike_id":"2797dcdb-c4e1-48b2-82d6-5677d371fa39","system_id":"levelo_inurba_marseille","lat":43.24167,"lon":5.36376,"is_reserved":false,"is_disabled":false,"rental_uris":{"android":"levelo://app?vid=2797dcdb-c4e1-48b2-82d6-5677d371fa39","ios":"levelo://app?vid=2797dcdb-c4e1-48b2-82d6-5677d371fa39"},"vehicle_type_id":"4","last_reported":1744809683,"current_range_meters":8800,"station_id":"cpo36qri1sfpv3e86is0","pricing_plan_id":"cebpf4jnsgd1na2vs0mg"},{"bike_id":"30237ae8-49a6-48ba-aa0e-bf9ffbfd73dd","system_id":"levelo_inurba_marseille","lat":43.30546,"lon":5.36541,"is_reserved":false,"is_disabled":false,"rental_uris":{"android":"levelo://app?vid=30237ae8-49a6-48ba-aa0e-bf9ffbfd73dd","ios":"levelo://app?vid=30237ae8-49a6-48ba-aa0e-bf9ffbfd73dd"},"vehicle_type_id":"4","last_reported":1744809683,"current_range_meters":8800,"station_id":"ce4bgs12rcd13ifvqcag","pricing_plan_id":"cebpf4jnsgd1na2vs0mg"},{"bike_id":"f443cfdb-db2e-4f4b-a88d-615075e28818","system_id":"levelo_inurba_marseille","lat":43.30535,"lon":5.36524,"is_reserved":false,"is_disabled":false,"rental_uris":{"android":"levelo://app?vid=f443cfdb-db2e-4f4b-a88d-615075e28818","ios":"levelo://app?vid=f443cfdb-db2e-4f4b-a88d-615075e28818"},"vehicle_type_id":"4","last_reported":1744809683,"current_range_meters":9200,"station_id":"ce4bgs12rcd13ifvqcag","pricing_plan_id":"cebpf4jnsgd1na2vs0mg"},{"bike_id":"03c8cee0-a6a5-48f4-b783-f14451736b24","system_id":"levelo_inurba_marseille","lat":43.27162,"lon":5.41009,"is_reserved":false,"is_disabled":false,"rental_uris":{"android":"levelo://app?vid=03c8cee0-a6a5-48f4-b783-f14451736b24","ios":"levelo://app?vid=03c8cee0-a6a5-48f4-b783-f14451736b24"},"vehicle_type_id":"4","last_reported":1744809683,"current_range_meters":9200,"station_id":"ce4bhl12rcd13ifvqgf0","pricing_plan_id":"cebpf4jnsgd1na2vs0mg"},{"bike_id":"5cdb7b28-f614-45c5-bd75-3b39342c5a42","system_id":"levelo_inurba_marseille","lat":43.27992,"lon":5.40019,"is_reserved":false,"is_disabled":false,"rental_uris":{"android":"levelo://app?vid=5cdb7b28-f614-45c5-bd75-3b39342c5a42","ios":"levelo://app?vid=5cdb7b28-f614-45c5-bd75-3b39342c5a42"},"vehicle_type_id":"4","last_reported":1744809683,"current_range_meters":9200,"station_id":"ce4bho92rcd13ifvqh4g","pricing_plan_id":"cebpf4jnsgd1na2vs0mg"},{"bike_id":"b57b1e88-8d90-4df6-a79a-c4f958a82cd6","system_id":"levelo_inurba_marseille","lat":43.29963,"lon":5.38499,"is_reserved":false,"is_disabled":false,"rental_uris":{"android":"levelo://app?vid=b57b1e88-8d90-4df6-a79a-c4f958a82cd6","ios":"levelo://app?vid=b57b1e88-8d90-4df6-a79a-c4f958a82cd6"},"vehicle_type_id":"4","last_reported":1744809683,"current_range_meters":9600,"station_id":"ce4bgj92rcd13ifvqbd0","pricing_plan_id":"cebpf4jnsgd1na2vs0mg"},{"bike_id":"0a0e6526-4844-45d1-8b0b-f44d85f12fa7","system_id":"levelo_inurba_marseille","lat":43.30899,"lon":5.37186,"is_reserved":false,"is_disabled":false,"rental_uris":{"android":"levelo://app?vid=0a0e6526-4844-45d1-8b0b-f44d85f12fa7","ios":"levelo://app?vid=0a0e6526-4844-45d1-8b0b-f44d85f12fa7"},"vehicle_type_id":"4","last_reported":1744809683,"current_range_meters":9600,"station_id":"ce4bguh2rcd13ifvqckg","pricing_plan_id":"cebpf4jnsgd1na2vs0mg"},{"bike_id":"45c6b552-68fd-454d-84d3-cf79221aaee4","system_id":"levelo_inurba_marseille","lat":43.29858,"lon":5.40862,"is_reserved":false,"is_disabled":false,"rental_uris":{"android":"levelo://app?vid=45c6b552-68fd-454d-84d3-cf79221aaee4","ios":"levelo://app?vid=45c6b552-68fd-454d-84d3-cf79221aaee4"},"vehicle_type_id":"4","last_reported":1744809683,"current_range_meters":10000,"station_id":"","pricing_plan_id":"cebpf4jnsgd1na2vs0mg"},{"bike_id":"1c0c17d4-38c5-4a1c-8a19-a752fa5d90ed","system_id":"levelo_inurba_marseille","lat":43.23187,"lon":5.3998,"is_reserved":false,"is_disabled":false,"rental_uris":{"android":"levelo://app?vid=1c0c17d4-38c5-4a1c-8a19-a752fa5d90ed","ios":"levelo://app?vid=1c0c17d4-38c5-4a1c-8a19-a752fa5d90ed"},"vehicle_type_id":"4","last_reported":1744809683,"current_range_meters":10000,"station_id":"ce4bhn12rcd13ifvqgqg","pricing_plan_id":"cebpf4jnsgd1na2vs0mg"},{"bike_id":"ae669bac-ccfa-4f88-b834-b0199f708b96","system_id":"levelo_inurba_marseille","lat":43.28845,"lon":5.3584,"is_reserved":false,"is_disabled":false,"rental_uris":{"android":"levelo://app?vid=ae669bac-ccfa-4f88-b834-b0199f708b96","ios":"levelo://app?vid=ae669bac-ccfa-4f88-b834-b0199f708b96"},"vehicle_type_id":"4","last_reported":1744809683,"current_range_meters":10800,"station_id":"ce4bhb12rcd13ifvqem0","pricing_plan_id":"cebpf4jnsgd1na2vs0mg"},{"bike_id":"04cf4fa0-e4b0-4772-b6fb-339b99054880","system_id":"levelo_inurba_marseille","lat":43.3133,"lon":5.39689,"is_reserved":false,"is_disabled":false,"rental_uris":{"android":"levelo://app?vid=04cf4fa0-e4b0-4772-b6fb-339b99054880","ios":"levelo://app?vid=04cf4fa0-e4b0-4772-b6fb-339b99054880"},"vehicle_type_id":"4","last_reported":1744809683,"current_range_meters":10800,"station_id":"ce4bgvp2rcd13ifvqcu0","pricing_plan_id":"cebpf4jnsgd1na2vs0mg"},{"bike_id":"7eacb872-0584-4b06-8fad-feb612d3799a","system_id":"levelo_inurba_marseille","lat":43.29787,"lon":5.38099,"is_reserved":false,"is_disabled":false,"rental_uris":{"android":"levelo://app?vid=7eacb872-0584-4b06-8fad-feb612d3799a","ios":"levelo://app?vid=7eacb872-0584-4b06-8fad-feb612d3799a"},"vehicle_type_id":"4","last_reported":1744809683,"current_range_meters":10800,"station_id":"ce4bgip2rcd13ifvqbb0","pricing_plan_id":"cebpf4jnsgd1na2vs0mg"},{"bike_id":"ee465a00-80df-4308-a2c3-b5ea33f92667","system_id":"levelo_inurba_marseille","lat":43.32093,"lon":5.36771,"is_reserved":false,"is_disabled":false,"rental_uris":{"android":"levelo://app?vid=ee465a00-80df-4308-a2c3-b5ea33f92667","ios":"levelo://app?vid=ee465a00-80df-4308-a2c3-b5ea33f92667"},"vehicle_type_id":"4","last_reported":1744809683,"current_range_meters":10800,"station_id":"ce4bhrh2rcd13ifvqhug","pricing_plan_id":"cebpf4jnsgd1na2vs0mg"},{"bike_id":"eeec4aa3-87e9-4496-be2e-938ceb91cf85","system_id":"levelo_inurba_marseille","lat":43.29319,"lon":5.37217,"is_reserved":false,"is_disabled":true,"rental_uris":{"android":"levelo://app?vid=eeec4aa3-87e9-4496-be2e-938ceb91cf85","ios":"levelo://app?vid=eeec4aa3-87e9-4496-be2e-938ceb91cf85"},"vehicle_type_id":"4","last_reported":1744809683,"current_range_meters":11200,"station_id":"ce4bgh92rcd13ifvqb40","pricing_plan_id":"cebpf4jnsgd1na2vs0mg"},{"bike_id":"561936ef-54e4-4d15-b2a7-dfd018b9e12e","system_id":"levelo_inurba_marseille","lat":43.29819,"lon":5.4026,"is_reserved":false,"is_disabled":false,"rental_uris":{"android":"levelo://app?vid=561936ef-54e4-4d15-b2a7-dfd018b9e12e","ios":"levelo://app?vid=561936ef-54e4-4d15-b2a7-dfd018b9e12e"},"vehicle_type_id":"4","last_reported":1744809683,"current_range_meters":11200,"station_id":"","pricing_plan_id":"cebpf4jnsgd1na2vs0mg"},{"bike_id":"0e71401f-211e-41d3-b544-82fb663532e4","system_id":"levelo_inurba_marseille","lat":43.33148,"lon":5.37673,"is_reserved":false,"is_disabled":false,"rental_uris":{"android":"levelo://app?vid=0e71401f-211e-41d3-b544-82fb663532e4","ios":"levelo://app?vid=0e71401f-211e-41d3-b544-82fb663532e4"},"vehicle_type_id":"4","last_reported":1744809683,"current_range_meters":11200,"station_id":"","pricing_plan_id":"cebpf4jnsgd1na2vs0mg"},{"bike_id":"e8412f40-a8dc-44ee-bbc2-e01b1cf2ab9a","system_id":"levelo_inurba_marseille","lat":43.27827,"lon":5.39206,"is_reserved":false,"is_disabled":false,"rental_uris":{"android":"levelo://app?vid=e8412f40-a8dc-44ee-bbc2-e01b1cf2ab9a","ios":"levelo://app?vid=e8412f40-a8dc-44ee-bbc2-e01b1cf2ab9a"},"vehicle_type_id":"4","last_reported":1744809683,"current_range_meters":11600,"station_id":"ce4bhjp2rcd13ifvqga0","pricing_plan_id":"cebpf4jnsgd1na2vs0mg"},{"bike_id":"c4f36b71-1e12-49c7-b15e-ebd021cfb80f","system_id":"levelo_inurba_marseille","lat":43.310734,"lon":5.38354,"is_reserved":false,"is_disabled":false,"rental_uris":{"android":"levelo://app?vid=c4f36b71-1e12-49c7-b15e-ebd021cfb80f","ios":"levelo://app?vid=c4f36b71-1e12-49c7-b15e-ebd021cfb80f"},"vehicle_type_id":"4","last_reported":1744809683,"current_range_meters":11600,"station_id":"ce4bgv92rcd13ifvqcr0","pricing_plan_id":"cebpf4jnsgd1na2vs0mg"},{"bike_id":"8ece13d7-e6aa-4d06-88de-c3e6a1495859","system_id":"levelo_inurba_marseille","lat":43.299133,"lon":5.381555,"is_reserved":false,"is_disabled":false,"rental_uris":{"android":"levelo://app?vid=8ece13d7-e6aa-4d06-88de-c3e6a1495859","ios":"levelo://app?vid=8ece13d7-e6aa-4d06-88de-c3e6a1495859"},"vehicle_type_id":"4","last_reported":1744809683,"current_range_meters":12000,"station_id":"ce4bgj12rcd13ifvqbc0","pricing_plan_id":"cebpf4jnsgd1na2vs0mg"},{"bike_id":"4220a71d-b00b-46df-8353-e10f2175efff","system_id":"levelo_inurba_marseille","lat":43.32361,"lon":5.36764,"is_reserved":false,"is_disabled":false,"rental_uris":{"android":"levelo://app?vid=4220a71d-b00b-46df-8353-e10f2175efff","ios":"levelo://app?vid=4220a71d-b00b-46df-8353-e10f2175efff"},"vehicle_type_id":"4","last_reported":1744809683,"current_range_meters":12000,"station_id":"ce4bhsh2rcd13ifvqi2g","pricing_plan_id":"cebpf4jnsgd1na2vs0mg"},{"bike_id":"f66e9184-6144-4d05-86a5-08e1062e8ef8","system_id":"levelo_inurba_marseille","lat":43.2592,"lon":5.40896,"is_reserved":false,"is_disabled":false,"rental_uris":{"android":"levelo://app?vid=f66e9184-6144-4d05-86a5-08e1062e8ef8","ios":"levelo://app?vid=f66e9184-6144-4d05-86a5-08e1062e8ef8"},"vehicle_type_id":"4","last_reported":1744809683,"current_range_meters":12000,"station_id":"ce4bhm92rcd13ifvqglg","pricing_plan_id":"cebpf4jnsgd1na2vs0mg"},{"bike_id":"08665e19-be9b-4b06-a7d4-30f714f1faad","system_id":"levelo_inurba_marseille","lat":43.25726,"lon":5.41102,"is_reserved":false,"is_disabled":false,"rental_uris":{"android":"levelo://app?vid=08665e19-be9b-4b06-a7d4-30f714f1faad","ios":"levelo://app?vid=08665e19-be9b-4b06-a7d4-30f714f1faad"},"vehicle_type_id":"4","last_reported":1744809683,"current_range_meters":12400,"station_id":"ce4bhkp2rcd13ifvqgd0","pricing_plan_id":"cebpf4jnsgd1na2vs0mg"},{"bike_id":"5bd2378a-0ba2-4601-8114-ff49dc777988","system_id":"levelo_inurba_marseille","lat":43.30907,"lon":5.36873,"is_reserved":false,"is_disabled":false,"rental_uris":{"android":"levelo://app?vid=5bd2378a-0ba2-4601-8114-ff49dc777988","ios":"levelo://app?vid=5bd2378a-0ba2-4601-8114-ff49dc777988"},"vehicle_type_id":"4","last_reported":1744809683,"current_range_meters":12800,"station_id":"ce4bgn92rcd13ifvqbvg","pricing_plan_id":"cebpf4jnsgd1na2vs0mg"},{"bike_id":"834ec9e1-9d50-4bee-85ae-d1db335c55e5","system_id":"levelo_inurba_marseille","lat":43.31792,"lon":5.36812,"is_reserved":false,"is_disabled":false,"rental_uris":{"android":"levelo://app?vid=834ec9e1-9d50-4bee-85ae-d1db335c55e5","ios":"levelo://app?vid=834ec9e1-9d50-4bee-85ae-d1db335c55e5"},"vehicle_type_id":"4","last_reported":1744809683,"current_range_meters":12800,"station_id":"","pricing_plan_id":"cebpf4jnsgd1na2vs0mg"},{"bike_id":"f1d1d668-e9a3-40c6-8b34-e48aa0afdf58","system_id":"levelo_inurba_marseille","lat":43.30163,"lon":5.38088,"is_reserved":false,"is_disabled":false,"rental_uris":{"android":"levelo://app?vid=f1d1d668-e9a3-40c6-8b34-e48aa0afdf58","ios":"levelo://app?vid=f1d1d668-e9a3-40c6-8b34-e48aa0afdf58"},"vehicle_type_id":"4","last_reported":1744809683,"current_range_meters":12800,"station_id":"ce4bgjp2rcd13ifvqbh0","pricing_plan_id":"cebpf4jnsgd1na2vs0mg"},{"bike_id":"0aa4addf-1d86-4554-870f-089734e7c610","system_id":"levelo_inurba_marseille","lat":43.29292,"lon":5.37441,"is_reserved":false,"is_disabled":false,"rental_uris":{"android":"levelo://app?vid=0aa4addf-1d86-4554-870f-089734e7c610","ios":"levelo://app?vid=0aa4addf-1d86-4554-870f-089734e7c610"},"vehicle_type_id":"4","last_reported":1744809683,"current_range_meters":13600,"station_id":"ce4bgi12rcd13ifvqb70","pricing_plan_id":"cebpf4jnsgd1na2vs0mg"},{"bike_id":"03a015a5-5d24-4c0f-9573-f27a03521326","system_id":"levelo_inurba_marseille","lat":43.30274,"lon":5.37713,"is_reserved":false,"is_disabled":false,"rental_uris":{"android":"levelo://app?vid=03a015a5-5d24-4c0f-9573-f27a03521326","ios":"levelo://app?vid=03a015a5-5d24-4c0f-9573-f27a03521326"},"vehicle_type_id":"4","last_reported":1744809683,"current_range_meters":13600,"station_id":"ce4bguh2rcd13ifvqcj0","pricing_plan_id":"cebpf4jnsgd1na2vs0mg"},{"bike_id":"9dfac58f-93cc-484b-8c14-26df20841603","system_id":"levelo_inurba_marseille","lat":43.29042,"lon":5.3591,"is_reserved":false,"is_disabled":false,"rental_uris":{"android":"levelo://app?vid=9dfac58f-93cc-484b-8c14-26df20841603","ios":"levelo://app?vid=9dfac58f-93cc-484b-8c14-26df20841603"},"vehicle_type_id":"4","last_reported":1744809683,"current_range_meters":14000,"station_id":"ce4bha92rcd13ifvqeg0","pricing_plan_id":"cebpf4jnsgd1na2vs0mg"},{"bike_id":"b4bba65f-7d2a-4966-8355-1ad7d975f76c","system_id":"levelo_inurba_marseille","lat":43.29928,"lon":5.37458,"is_reserved":false,"is_disabled":false,"rental_uris":{"android":"levelo://app?vid=b4bba65f-7d2a-4966-8355-1ad7d975f76c","ios":"levelo://app?vid=b4bba65f-7d2a-4966-8355-1ad7d975f76c"},"vehicle_type_id":"4","last_reported":1744809683,"current_range_meters":14000,"station_id":"ce4bgjh2rcd13ifvqbg0","pricing_plan_id":"cebpf4jnsgd1na2vs0mg"},{"bike_id":"90aab251-1ff9-4010-ba90-86de6b1ffc35","system_id":"levelo_inurba_marseille","lat":43.23144,"lon":5.43723,"is_reserved":false,"is_disabled":false,"rental_uris":{"android":"levelo://app?vid=90aab251-1ff9-4010-ba90-86de6b1ffc35","ios":"levelo://app?vid=90aab251-1ff9-4010-ba90-86de6b1ffc35"},"vehicle_type_id":"4","last_reported":1744809683,"current_range_meters":14000,"station_id":"ce4bhmp2rcd13ifvqgog","pricing_plan_id":"cebpf4jnsgd1na2vs0mg"},{"bike_id":"dbf6dd73-8162-48f1-bd38-854d43e56564","system_id":"levelo_inurba_marseille","lat":43.24643,"lon":5.38165,"is_reserved":false,"is_disabled":false,"rental_uris":{"android":"levelo://app?vid=dbf6dd73-8162-48f1-bd38-854d43e56564","ios":"levelo://app?vid=dbf6dd73-8162-48f1-bd38-854d43e56564"},"vehicle_type_id":"4","last_reported":1744809683,"current_range_meters":14400,"station_id":"ce4bhih2rcd13ifvqfr0","pricing_plan_id":"cebpf4jnsgd1na2vs0mg"},{"bike_id":"3369f7bc-af4b-44b9-aec1-c2bceb4a7e3d","system_id":"levelo_inurba_marseille","lat":43.29567,"lon":5.37529,"is_reserved":false,"is_disabled":false,"rental_uris":{"android":"levelo://app?vid=3369f7bc-af4b-44b9-aec1-c2bceb4a7e3d","ios":"levelo://app?vid=3369f7bc-af4b-44b9-aec1-c2bceb4a7e3d"},"vehicle_type_id":"4","last_reported":1744809683,"current_range_meters":14400,"station_id":"ce4bgh92rcd13ifvqb50","pricing_plan_id":"cebpf4jnsgd1na2vs0mg"},{"bike_id":"dda27a58-e2ca-4fce-a851-41cf6185682c","system_id":"levelo_inurba_marseille","lat":43.30277,"lon":5.3769,"is_reserved":false,"is_disabled":false,"rental_uris":{"android":"levelo://app?vid=dda27a58-e2ca-4fce-a851-41cf6185682c","ios":"levelo://app?vid=dda27a58-e2ca-4fce-a851-41cf6185682c"},"vehicle_type_id":"4","last_reported":1744809683,"current_range_meters":14800,"station_id":"ce4bguh2rcd13ifvqcj0","pricing_plan_id":"cebpf4jnsgd1na2vs0mg"},{"bike_id":"4328369a-71e3-42f0-af9b-b3d103933d00","system_id":"levelo_inurba_marseille","lat":43.33563,"lon":5.41135,"is_reserved":false,"is_disabled":false,"rental_uris":{"android":"levelo://app?vid=4328369a-71e3-42f0-af9b-b3d103933d00","ios":"levelo://app?vid=4328369a-71e3-42f0-af9b-b3d103933d00"},"vehicle_type_id":"4","last_reported":1744809683,"current_range_meters":14800,"station_id":"","pricing_plan_id":"cebpf4jnsgd1na2vs0mg"},{"bike_id":"a6d451ba-0fef-4616-9459-0a9167b4802c","system_id":"levelo_inurba_marseille","lat":43.29382,"lon":5.37841,"is_reserved":false,"is_disabled":false,"rental_uris":{"android":"levelo://app?vid=a6d451ba-0fef-4616-9459-0a9167b4802c","ios":"levelo://app?vid=a6d451ba-0fef-4616-9459-0a9167b4802c"},"vehicle_type_id":"4","last_reported":1744809683,"current_range_meters":14800,"station_id":"ce4bgjh2rcd13ifvqbf0","pricing_plan_id":"cebpf4jnsgd1na2vs0mg"},{"bike_id":"eef0f7e9-3fd3-478d-8d05-1e689878276c","system_id":"levelo_inurba_marseille","lat":43.27995,"lon":5.40011,"is_reserved":false,"is_disabled":false,"rental_uris":{"android":"levelo://app?vid=eef0f7e9-3fd3-478d-8d05-1e689878276c","ios":"levelo://app?vid=eef0f7e9-3fd3-478d-8d05-1e689878276c"},"vehicle_type_id":"4","last_reported":1744809683,"current_range_meters":14800,"station_id":"ce4bho92rcd13ifvqh4g","pricing_plan_id":"cebpf4jnsgd1na2vs0mg"},{"bike_id":"7feb4729-42fd-470d-9dd7-7f0363fdf83d","system_id":"levelo_inurba_marseille","lat":43.27919,"lon":5.39579,"is_reserved":false,"is_disabled":false,"rental_uris":{"android":"levelo://app?vid=7feb4729-42fd-470d-9dd7-7f0363fdf83d","ios":"levelo://app?vid=7feb4729-42fd-470d-9dd7-7f0363fdf83d"},"vehicle_type_id":"4","last_reported":1744809683,"current_range_meters":14800,"station_id":"ce4bhf92rcd13ifvqf40","pricing_plan_id":"cebpf4jnsgd1na2vs0mg"},{"bike_id":"e671135f-6e8d-4f7d-b793-34acac25fdfc","system_id":"levelo_inurba_marseille","lat":43.32345,"lon":5.36746,"is_reserved":false,"is_disabled":false,"rental_uris":{"android":"levelo://app?vid=e671135f-6e8d-4f7d-b793-34acac25fdfc","ios":"levelo://app?vid=e671135f-6e8d-4f7d-b793-34acac25fdfc"},"vehicle_type_id":"4","last_reported":1744809683,"current_range_meters":15200,"station_id":"ce4bhsh2rcd13ifvqi2g","pricing_plan_id":"cebpf4jnsgd1na2vs0mg"},{"bike_id":"bb4c7007-6ffb-4d6f-bebc-e65ec0473f32","system_id":"levelo_inurba_marseille","lat":43.31236,"lon":5.3686,"is_reserved":false,"is_disabled":false,"rental_uris":{"android":"levelo://app?vid=bb4c7007-6ffb-4d6f-bebc-e65ec0473f32","ios":"levelo://app?vid=bb4c7007-6ffb-4d6f-bebc-e65ec0473f32"},"vehicle_type_id":"4","last_reported":1744809683,"current_range_meters":15200,"station_id":"ce4bgl92rcd13ifvqbq0","pricing_plan_id":"cebpf4jnsgd1na2vs0mg"},{"bike_id":"6bf5a380-400e-4cd6-bc1e-356afac9ee45","system_id":"levelo_inurba_marseille","lat":43.2416,"lon":5.36403,"is_reserved":false,"is_disabled":false,"rental_uris":{"android":"levelo://app?vid=6bf5a380-400e-4cd6-bc1e-356afac9ee45","ios":"levelo://app?vid=6bf5a380-400e-4cd6-bc1e-356afac9ee45"},"vehicle_type_id":"4","last_reported":1744809683,"current_range_meters":16000,"station_id":"cpo36qri1sfpv3e86is0","pricing_plan_id":"cebpf4jnsgd1na2vs0mg"},{"bike_id":"6c103f9f-c959-46ad-a2e8-e44f9660c68e","system_id":"levelo_inurba_marseille","lat":43.21212,"lon":5.35079,"is_reserved":false,"is_disabled":false,"rental_uris":{"android":"levelo://app?vid=6c103f9f-c959-46ad-a2e8-e44f9660c68e","ios":"levelo://app?vid=6c103f9f-c959-46ad-a2e8-e44f9660c68e"},"vehicle_type_id":"4","last_reported":1744809683,"current_range_meters":16000,"station_id":"st_cvj6sg6p6f1abm77japg","pricing_plan_id":"cebpf4jnsgd1na2vs0mg"},{"bike_id":"88a0cb80-a51d-46bc-8228-c9a9fb028348","system_id":"levelo_inurba_marseille","lat":43.25633,"lon":5.42012,"is_reserved":false,"is_disabled":false,"rental_uris":{"android":"levelo://app?vid=88a0cb80-a51d-46bc-8228-c9a9fb028348","ios":"levelo://app?vid=88a0cb80-a51d-46bc-8228-c9a9fb028348"},"vehicle_type_id":"4","last_reported":1744809683,"current_range_meters":16000,"station_id":"","pricing_plan_id":"cebpf4jnsgd1na2vs0mg"},{"bike_id":"c1404c22-3a48-4367-bbbd-d0bf216e29bc","system_id":"levelo_inurba_marseille","lat":43.309529,"lon":5.390389,"is_reserved":false,"is_disabled":false,"rental_uris":{"android":"levelo://app?vid=c1404c22-3a48-4367-bbbd-d0bf216e29bc","ios":"levelo://app?vid=c1404c22-3a48-4367-bbbd-d0bf216e29bc"},"vehicle_type_id":"4","last_reported":1744809683,"current_range_meters":16000,"station_id":"ce4bgup2rcd13ifvqco0","pricing_plan_id":"cebpf4jnsgd1na2vs0mg"},{"bike_id":"2be2e8c5-ff49-4a5a-963a-4bbeabb11512","system_id":"levelo_inurba_marseille","lat":43.30747,"lon":5.42438,"is_reserved":false,"is_disabled":false,"rental_uris":{"android":"levelo://app?vid=2be2e8c5-ff49-4a5a-963a-4bbeabb11512","ios":"levelo://app?vid=2be2e8c5-ff49-4a5a-963a-4bbeabb11512"},"vehicle_type_id":"4","last_reported":1744809683,"current_range_meters":16000,"station_id":"st_cvj6ca6bvosntc0bfgr0","pricing_plan_id":"cebpf4jnsgd1na2vs0mg"},{"bike_id":"6c753cfd-e2a2-46b2-a74f-cf2c42d3ccc5","system_id":"levelo_inurba_marseille","lat":43.30481,"lon":5.37912,"is_reserved":false,"is_disabled":false,"rental_uris":{"android":"levelo://app?vid=6c753cfd-e2a2-46b2-a74f-cf2c42d3ccc5","ios":"levelo://app?vid=6c753cfd-e2a2-46b2-a74f-cf2c42d3ccc5"},"vehicle_type_id":"4","last_reported":1744809683,"current_range_meters":16400,"station_id":"ce4bgup2rcd13ifvqcn0","pricing_plan_id":"cebpf4jnsgd1na2vs0mg"},{"bike_id":"8b5f6de4-e202-4aa4-b826-afbc8a994f6f","system_id":"levelo_inurba_marseille","lat":43.30213,"lon":5.39472,"is_reserved":false,"is_disabled":false,"rental_uris":{"android":"levelo://app?vid=8b5f6de4-e202-4aa4-b826-afbc8a994f6f","ios":"levelo://app?vid=8b5f6de4-e202-4aa4-b826-afbc8a994f6f"},"vehicle_type_id":"4","last_reported":1744809683,"current_range_meters":16400,"station_id":"ce4bh0p2rcd13ifvqd70","pricing_plan_id":"cebpf4jnsgd1na2vs0mg"},{"bike_id":"5f30f24d-a413-48b0-bec4-9117ecfed4ed","system_id":"levelo_inurba_marseille","lat":43.29067,"lon":5.37168,"is_reserved":false,"is_disabled":false,"rental_uris":{"android":"levelo://app?vid=5f30f24d-a413-48b0-bec4-9117ecfed4ed","ios":"levelo://app?vid=5f30f24d-a413-48b0-bec4-9117ecfed4ed"},"vehicle_type_id":"4","last_reported":1744809683,"current_range_meters":16400,"station_id":"ce4bh5p2rcd13ifvqe4g","pricing_plan_id":"cebpf4jnsgd1na2vs0mg"},{"bike_id":"60ed6980-2c34-4754-ad59-4c9dd6d7cc20","system_id":"levelo_inurba_marseille","lat":43.30156,"lon":5.38084,"is_reserved":false,"is_disabled":false,"rental_uris":{"android":"levelo://app?vid=60ed6980-2c34-4754-ad59-4c9dd6d7cc20","ios":"levelo://app?vid=60ed6980-2c34-4754-ad59-4c9dd6d7cc20"},"vehicle_type_id":"4","last_reported":1744809683,"current_range_meters":16400,"station_id":"ce4bgjp2rcd13ifvqbh0","pricing_plan_id":"cebpf4jnsgd1na2vs0mg"},{"bike_id":"f462d1c0-a98e-4d8b-b578-9a1b5c4d74d9","system_id":"levelo_inurba_marseille","lat":43.295441,"lon":5.423012,"is_reserved":false,"is_disabled":false,"rental_uris":{"android":"levelo://app?vid=f462d1c0-a98e-4d8b-b578-9a1b5c4d74d9","ios":"levelo://app?vid=f462d1c0-a98e-4d8b-b578-9a1b5c4d74d9"},"vehicle_type_id":"4","last_reported":1744809683,"current_range_meters":16800,"station_id":"ce4bhph2rcd13ifvqhdg","pricing_plan_id":"cebpf4jnsgd1na2vs0mg"},{"bike_id":"10a05b79-c3d5-4be7-a18b-8140be240501","system_id":"levelo_inurba_marseille","lat":43.29599,"lon":5.38109,"is_reserved":false,"is_disabled":false,"rental_uris":{"android":"levelo://app?vid=10a05b79-c3d5-4be7-a18b-8140be240501","ios":"levelo://app?vid=10a05b79-c3d5-4be7-a18b-8140be240501"},"vehicle_type_id":"4","last_reported":1744809683,"current_range_meters":16800,"station_id":"ce4bgl12rcd13ifvqbo0","pricing_plan_id":"cebpf4jnsgd1na2vs0mg"},{"bike_id":"c31c0ecc-e896-4522-8f59-f94ab8194ac3","system_id":"levelo_inurba_marseille","lat":43.31697,"lon":5.4046,"is_reserved":false,"is_disabled":false,"rental_uris":{"android":"levelo://app?vid=c31c0ecc-e896-4522-8f59-f94ab8194ac3","ios":"levelo://app?vid=c31c0ecc-e896-4522-8f59-f94ab8194ac3"},"vehicle_type_id":"4","last_reported":1744809683,"current_range_meters":16800,"station_id":"ce4bh012rcd13ifvqd00","pricing_plan_id":"cebpf4jnsgd1na2vs0mg"},{"bike_id":"da2251a7-2b2b-4dd1-8be8-8f047831f0e4","system_id":"levelo_inurba_marseille","lat":43.30308,"lon":5.39192,"is_reserved":false,"is_disabled":true,"rental_uris":{"android":"levelo://app?vid=da2251a7-2b2b-4dd1-8be8-8f047831f0e4","ios":"levelo://app?vid=da2251a7-2b2b-4dd1-8be8-8f047831f0e4"},"vehicle_type_id":"4","last_reported":1744809683,"current_range_meters":16800,"station_id":"ce4bgkh2rcd13ifvqbk0","pricing_plan_id":"cebpf4jnsgd1na2vs0mg"},{"bike_id":"6d808110-2d8c-4565-a3c5-2c4f66ab2217","system_id":"levelo_inurba_marseille","lat":43.2971,"lon":5.37735,"is_reserved":false,"is_disabled":false,"rental_uris":{"android":"levelo://app?vid=6d808110-2d8c-4565-a3c5-2c4f66ab2217","ios":"levelo://app?vid=6d808110-2d8c-4565-a3c5-2c4f66ab2217"},"vehicle_type_id":"4","last_reported":1744809683,"current_range_meters":16800,"station_id":"ce4bgkh2rcd13ifvqbl0","pricing_plan_id":"cebpf4jnsgd1na2vs0mg"},{"bike_id":"b2b5fca9-1c00-4f10-b835-ccdcc8af05da","system_id":"levelo_inurba_marseille","lat":43.25906,"lon":5.4087,"is_reserved":false,"is_disabled":false,"rental_uris":{"android":"levelo://app?vid=b2b5fca9-1c00-4f10-b835-ccdcc8af05da","ios":"levelo://app?vid=b2b5fca9-1c00-4f10-b835-ccdcc8af05da"},"vehicle_type_id":"4","last_reported":1744809683,"current_range_meters":16800,"station_id":"ce4bhm92rcd13ifvqglg","pricing_plan_id":"cebpf4jnsgd1na2vs0mg"},{"bike_id":"970a4b57-ac2b-4ad4-bc8a-239431db997e","system_id":"levelo_inurba_marseille","lat":43.26938,"lon":5.40231,"is_reserved":false,"is_disabled":false,"rental_uris":{"android":"levelo://app?vid=970a4b57-ac2b-4ad4-bc8a-239431db997e","ios":"levelo://app?vid=970a4b57-ac2b-4ad4-bc8a-239431db997e"},"vehicle_type_id":"4","last_reported":1744809683,"current_range_meters":16800,"station_id":"cjm6bp8fraef2m0cb0m0","pricing_plan_id":"cebpf4jnsgd1na2vs0mg"},{"bike_id":"d01f576d-3e90-412e-8750-88651a01cd22","system_id":"levelo_inurba_marseille","lat":43.28617,"lon":5.35107,"is_reserved":false,"is_disabled":false,"rental_uris":{"android":"levelo://app?vid=d01f576d-3e90-412e-8750-88651a01cd22","ios":"levelo://app?vid=d01f576d-3e90-412e-8750-88651a01cd22"},"vehicle_type_id":"4","last_reported":1744809683,"current_range_meters":16800,"station_id":"ce4bhch2rcd13ifvqeug","pricing_plan_id":"cebpf4jnsgd1na2vs0mg"},{"bike_id":"b6b4fba7-65bd-4354-9ef8-9be346fbbc8a","system_id":"levelo_inurba_marseille","lat":43.30302,"lon":5.37667,"is_reserved":false,"is_disabled":false,"rental_uris":{"android":"levelo://app?vid=b6b4fba7-65bd-4354-9ef8-9be346fbbc8a","ios":"levelo://app?vid=b6b4fba7-65bd-4354-9ef8-9be346fbbc8a"},"vehicle_type_id":"4","last_reported":1744809683,"current_range_meters":17200,"station_id":"ce4bguh2rcd13ifvqcj0","pricing_plan_id":"cebpf4jnsgd1na2vs0mg"},{"bike_id":"0f6fa938-1e93-4b05-9d6d-f83a3c264b50","system_id":"levelo_inurba_marseille","lat":43.287053,"lon":5.39995,"is_reserved":false,"is_disabled":false,"rental_uris":{"android":"levelo://app?vid=0f6fa938-1e93-4b05-9d6d-f83a3c264b50","ios":"levelo://app?vid=0f6fa938-1e93-4b05-9d6d-f83a3c264b50"},"vehicle_type_id":"4","last_reported":1744809683,"current_range_meters":17200,"station_id":"ce4bh3p2rcd13ifvqdp0","pricing_plan_id":"cebpf4jnsgd1na2vs0mg"},{"bike_id":"cfad297e-6e3f-46db-9682-15db71b2c04f","system_id":"levelo_inurba_marseille","lat":43.28477,"lon":5.38408,"is_reserved":false,"is_disabled":false,"rental_uris":{"android":"levelo://app?vid=cfad297e-6e3f-46db-9682-15db71b2c04f","ios":"levelo://app?vid=cfad297e-6e3f-46db-9682-15db71b2c04f"},"vehicle_type_id":"4","last_reported":1744809683,"current_range_meters":17200,"station_id":"ce4bh512rcd13ifvqe3g","pricing_plan_id":"cebpf4jnsgd1na2vs0mg"},{"bike_id":"57406be6-c0b4-4691-8abf-3f6842e4ec81","system_id":"levelo_inurba_marseille","lat":43.284551,"lon":5.391824,"is_reserved":false,"is_disabled":true,"rental_uris":{"android":"levelo://app?vid=57406be6-c0b4-4691-8abf-3f6842e4ec81","ios":"levelo://app?vid=57406be6-c0b4-4691-8abf-3f6842e4ec81"},"vehicle_type_id":"4","last_reported":1744809683,"current_range_meters":17200,"station_id":"ce4bhoh2rcd13ifvqh5g","pricing_plan_id":"cebpf4jnsgd1na2vs0mg"},{"bike_id":"88dc6a23-9b04-48b0-bf85-c177443d0763","system_id":"levelo_inurba_marseille","lat":43.33591,"lon":5.41007,"is_reserved":false,"is_disabled":false,"rental_uris":{"android":"levelo://app?vid=88dc6a23-9b04-48b0-bf85-c177443d0763","ios":"levelo://app?vid=88dc6a23-9b04-48b0-bf85-c177443d0763"},"vehicle_type_id":"4","last_reported":1744809683,"current_range_meters":16800,"station_id":"ce4bhqh2rcd13ifvqhmg","pricing_plan_id":"cebpf4jnsgd1na2vs0mg"},{"bike_id":"b453c917-0db1-40bd-ad8a-e14424b609f7","system_id":"levelo_inurba_marseille","lat":43.27056,"lon":5.40255,"is_reserved":false,"is_disabled":false,"rental_uris":{"android":"levelo://app?vid=b453c917-0db1-40bd-ad8a-e14424b609f7","ios":"levelo://app?vid=b453c917-0db1-40bd-ad8a-e14424b609f7"},"vehicle_type_id":"4","last_reported":1744809683,"current_range_meters":17600,"station_id":"ce4bhk92rcd13ifvqgc0","pricing_plan_id":"cebpf4jnsgd1na2vs0mg"},{"bike_id":"55ad988e-462d-4f85-8e4f-a9aaf5e402e7","system_id":"levelo_inurba_marseille","lat":43.25932,"lon":5.40892,"is_reserved":false,"is_disabled":false,"rental_uris":{"android":"levelo://app?vid=55ad988e-462d-4f85-8e4f-a9aaf5e402e7","ios":"levelo://app?vid=55ad988e-462d-4f85-8e4f-a9aaf5e402e7"},"vehicle_type_id":"4","last_reported":1744809683,"current_range_meters":17600,"station_id":"ce4bhm92rcd13ifvqglg","pricing_plan_id":"cebpf4jnsgd1na2vs0mg"},{"bike_id":"da0699e6-fffb-42fd-bda2-fa249cfedfd8","system_id":"levelo_inurba_marseille","lat":43.31483,"lon":5.37307,"is_reserved":false,"is_disabled":false,"rental_uris":{"android":"levelo://app?vid=da0699e6-fffb-42fd-bda2-fa249cfedfd8","ios":"levelo://app?vid=da0699e6-fffb-42fd-bda2-fa249cfedfd8"},"vehicle_type_id":"4","last_reported":1744809683,"current_range_meters":18000,"station_id":"ce4bgt12rcd13ifvqcd0","pricing_plan_id":"cebpf4jnsgd1na2vs0mg"},{"bike_id":"8c95c56e-fd38-4747-b8d7-85ddf29bba6c","system_id":"levelo_inurba_marseille","lat":43.29799,"lon":5.38089,"is_reserved":false,"is_disabled":false,"rental_uris":{"android":"levelo://app?vid=8c95c56e-fd38-4747-b8d7-85ddf29bba6c","ios":"levelo://app?vid=8c95c56e-fd38-4747-b8d7-85ddf29bba6c"},"vehicle_type_id":"4","last_reported":1744809683,"current_range_meters":18000,"station_id":"ce4bgip2rcd13ifvqbb0","pricing_plan_id":"cebpf4jnsgd1na2vs0mg"},{"bike_id":"182b0849-c1c2-4e02-a196-85df37bf5057","system_id":"levelo_inurba_marseille","lat":43.25583,"lon":5.38239,"is_reserved":false,"is_disabled":false,"rental_uris":{"android":"levelo://app?vid=182b0849-c1c2-4e02-a196-85df37bf5057","ios":"levelo://app?vid=182b0849-c1c2-4e02-a196-85df37bf5057"},"vehicle_type_id":"4","last_reported":1744809683,"current_range_meters":18000,"station_id":"ce4bhih2rcd13ifvqfs0","pricing_plan_id":"cebpf4jnsgd1na2vs0mg"},{"bike_id":"315ed96d-e208-4e1c-abb5-5fdce13094c7","system_id":"levelo_inurba_marseille","lat":43.29297,"lon":5.37442,"is_reserved":false,"is_disabled":false,"rental_uris":{"android":"levelo://app?vid=315ed96d-e208-4e1c-abb5-5fdce13094c7","ios":"levelo://app?vid=315ed96d-e208-4e1c-abb5-5fdce13094c7"},"vehicle_type_id":"4","last_reported":1744809683,"current_range_meters":18000,"station_id":"ce4bgi12rcd13ifvqb70","pricing_plan_id":"cebpf4jnsgd1na2vs0mg"},{"bike_id":"67bec80b-3af2-4acd-9daa-4500c6ed3654","system_id":"levelo_inurba_marseille","lat":43.24163,"lon":5.36392,"is_reserved":false,"is_disabled":false,"rental_uris":{"android":"levelo://app?vid=67bec80b-3af2-4acd-9daa-4500c6ed3654","ios":"levelo://app?vid=67bec80b-3af2-4acd-9daa-4500c6ed3654"},"vehicle_type_id":"4","last_reported":1744809683,"current_range_meters":18000,"station_id":"cpo36qri1sfpv3e86is0","pricing_plan_id":"cebpf4jnsgd1na2vs0mg"},{"bike_id":"479d5a5f-271f-4ac2-a568-4c71926ce846","system_id":"levelo_inurba_marseille","lat":43.2621,"lon":5.37443,"is_reserved":false,"is_disabled":false,"rental_uris":{"android":"levelo://app?vid=479d5a5f-271f-4ac2-a568-4c71926ce846","ios":"levelo://app?vid=479d5a5f-271f-4ac2-a568-4c71926ce846"},"vehicle_type_id":"4","last_reported":1744809683,"current_range_meters":18000,"station_id":"ce4bhgp2rcd13ifvqfc0","pricing_plan_id":"cebpf4jnsgd1na2vs0mg"},{"bike_id":"f9e8d214-a03d-463b-9e44-20082da914ee","system_id":"levelo_inurba_marseille","lat":43.31755,"lon":5.39014,"is_reserved":false,"is_disabled":false,"rental_uris":{"android":"levelo://app?vid=f9e8d214-a03d-463b-9e44-20082da914ee","ios":"levelo://app?vid=f9e8d214-a03d-463b-9e44-20082da914ee"},"vehicle_type_id":"4","last_reported":1744809683,"current_range_meters":18800,"station_id":"ce4bhqp2rcd13ifvqhng","pricing_plan_id":"cebpf4jnsgd1na2vs0mg"},{"bike_id":"9f3a5dd8-a360-4b18-82ad-d26b0a34023d","system_id":"levelo_inurba_marseille","lat":43.30535,"lon":5.36526,"is_reserved":false,"is_disabled":false,"rental_uris":{"android":"levelo://app?vid=9f3a5dd8-a360-4b18-82ad-d26b0a34023d","ios":"levelo://app?vid=9f3a5dd8-a360-4b18-82ad-d26b0a34023d"},"vehicle_type_id":"4","last_reported":1744809683,"current_range_meters":18800,"station_id":"ce4bgs12rcd13ifvqcag","pricing_plan_id":"cebpf4jnsgd1na2vs0mg"},{"bike_id":"2d03e3c2-09e4-4978-8dbc-31228f7e9fd5","system_id":"levelo_inurba_marseille","lat":43.25578,"lon":5.38223,"is_reserved":false,"is_disabled":false,"rental_uris":{"android":"levelo://app?vid=2d03e3c2-09e4-4978-8dbc-31228f7e9fd5","ios":"levelo://app?vid=2d03e3c2-09e4-4978-8dbc-31228f7e9fd5"},"vehicle_type_id":"4","last_reported":1744809683,"current_range_meters":18800,"station_id":"ce4bhih2rcd13ifvqfs0","pricing_plan_id":"cebpf4jnsgd1na2vs0mg"},{"bike_id":"42c08a69-4da2-4e41-846d-41d3dcb5abcb","system_id":"levelo_inurba_marseille","lat":43.28093,"lon":5.37838,"is_reserved":false,"is_disabled":false,"rental_uris":{"android":"levelo://app?vid=42c08a69-4da2-4e41-846d-41d3dcb5abcb","ios":"levelo://app?vid=42c08a69-4da2-4e41-846d-41d3dcb5abcb"},"vehicle_type_id":"4","last_reported":1744809683,"current_range_meters":18800,"station_id":"ce4bha12rcd13ifvqee0","pricing_plan_id":"cebpf4jnsgd1na2vs0mg"},{"bike_id":"e3bbf163-eadf-423b-85c5-996bf8a4e270","system_id":"levelo_inurba_marseille","lat":43.24062,"lon":5.37772,"is_reserved":false,"is_disabled":false,"rental_uris":{"android":"levelo://app?vid=e3bbf163-eadf-423b-85c5-996bf8a4e270","ios":"levelo://app?vid=e3bbf163-eadf-423b-85c5-996bf8a4e270"},"vehicle_type_id":"4","last_reported":1744809683,"current_range_meters":18800,"station_id":"ce4bhnp2rcd13ifvqgvg","pricing_plan_id":"cebpf4jnsgd1na2vs0mg"},{"bike_id":"649e44eb-2a88-412e-9725-faa6238bc83e","system_id":"levelo_inurba_marseille","lat":43.312374,"lon":5.368546,"is_reserved":false,"is_disabled":false,"rental_uris":{"android":"levelo://app?vid=649e44eb-2a88-412e-9725-faa6238bc83e","ios":"levelo://app?vid=649e44eb-2a88-412e-9725-faa6238bc83e"},"vehicle_type_id":"4","last_reported":1744809683,"current_range_meters":19200,"station_id":"ce4bgl92rcd13ifvqbq0","pricing_plan_id":"cebpf4jnsgd1na2vs0mg"},{"bike_id":"f054fa40-83b2-4433-8d16-1d8b41a7d7b2","system_id":"levelo_inurba_marseille","lat":43.25116,"lon":5.39533,"is_reserved":false,"is_disabled":false,"rental_uris":{"android":"levelo://app?vid=f054fa40-83b2-4433-8d16-1d8b41a7d7b2","ios":"levelo://app?vid=f054fa40-83b2-4433-8d16-1d8b41a7d7b2"},"vehicle_type_id":"4","last_reported":1744809683,"current_range_meters":18800,"station_id":"ce4bhm12rcd13ifvqgkg","pricing_plan_id":"cebpf4jnsgd1na2vs0mg"},{"bike_id":"d1dcda6a-5686-4b94-90ae-b3c82f87f747","system_id":"levelo_inurba_marseille","lat":43.28701,"lon":5.37401,"is_reserved":false,"is_disabled":false,"rental_uris":{"android":"levelo://app?vid=d1dcda6a-5686-4b94-90ae-b3c82f87f747","ios":"levelo://app?vid=d1dcda6a-5686-4b94-90ae-b3c82f87f747"},"vehicle_type_id":"4","last_reported":1744809683,"current_range_meters":18000,"station_id":"ce4bh3p2rcd13ifvqdq0","pricing_plan_id":"cebpf4jnsgd1na2vs0mg"},{"bike_id":"a0ddb0a5-f7f0-4281-aa27-9e82747cc573","system_id":"levelo_inurba_marseille","lat":43.33751,"lon":5.37483,"is_reserved":false,"is_disabled":false,"rental_uris":{"android":"levelo://app?vid=a0ddb0a5-f7f0-4281-aa27-9e82747cc573","ios":"levelo://app?vid=a0ddb0a5-f7f0-4281-aa27-9e82747cc573"},"vehicle_type_id":"4","last_reported":1744809683,"current_range_meters":18800,"station_id":"","pricing_plan_id":"cebpf4jnsgd1na2vs0mg"},{"bike_id":"cbc26eb3-91dd-4e10-93a9-a0e367e405a7","system_id":"levelo_inurba_marseille","lat":43.2691,"lon":5.40257,"is_reserved":false,"is_disabled":false,"rental_uris":{"android":"levelo://app?vid=cbc26eb3-91dd-4e10-93a9-a0e367e405a7","ios":"levelo://app?vid=cbc26eb3-91dd-4e10-93a9-a0e367e405a7"},"vehicle_type_id":"4","last_reported":1744809683,"current_range_meters":18800,"station_id":"cjm6bp8fraef2m0cb0m0","pricing_plan_id":"cebpf4jnsgd1na2vs0mg"},{"bike_id":"88f3759b-2c1f-4762-b11a-067d1d7bb035","system_id":"levelo_inurba_marseille","lat":43.24166,"lon":5.39725,"is_reserved":false,"is_disabled":false,"rental_uris":{"android":"levelo://app?vid=88f3759b-2c1f-4762-b11a-067d1d7bb035","ios":"levelo://app?vid=88f3759b-2c1f-4762-b11a-067d1d7bb035"},"vehicle_type_id":"4","last_reported":1744809683,"current_range_meters":19200,"station_id":"ce4bhn12rcd13ifvqgpg","pricing_plan_id":"cebpf4jnsgd1na2vs0mg"},{"bike_id":"fad54022-9237-4316-92c8-06c8f5d57a8d","system_id":"levelo_inurba_marseille","lat":43.24661,"lon":5.38163,"is_reserved":false,"is_disabled":false,"rental_uris":{"android":"levelo://app?vid=fad54022-9237-4316-92c8-06c8f5d57a8d","ios":"levelo://app?vid=fad54022-9237-4316-92c8-06c8f5d57a8d"},"vehicle_type_id":"4","last_reported":1744809683,"current_range_meters":19600,"station_id":"ce4bhih2rcd13ifvqfr0","pricing_plan_id":"cebpf4jnsgd1na2vs0mg"},{"bike_id":"4dadb54f-ca04-4cd2-a8c9-3cffa07bf38d","system_id":"levelo_inurba_marseille","lat":43.29842,"lon":5.36275,"is_reserved":false,"is_disabled":false,"rental_uris":{"android":"levelo://app?vid=4dadb54f-ca04-4cd2-a8c9-3cffa07bf38d","ios":"levelo://app?vid=4dadb54f-ca04-4cd2-a8c9-3cffa07bf38d"},"vehicle_type_id":"4","last_reported":1744809683,"current_range_meters":19600,"station_id":"ce4bgpp2rcd13ifvqc3g","pricing_plan_id":"cebpf4jnsgd1na2vs0mg"},{"bike_id":"8bc01458-e04d-4e1e-9f4f-473a9ad28594","system_id":"levelo_inurba_marseille","lat":43.27915,"lon":5.39597,"is_reserved":false,"is_disabled":false,"rental_uris":{"android":"levelo://app?vid=8bc01458-e04d-4e1e-9f4f-473a9ad28594","ios":"levelo://app?vid=8bc01458-e04d-4e1e-9f4f-473a9ad28594"},"vehicle_type_id":"4","last_reported":1744809683,"current_range_meters":19600,"station_id":"ce4bhf92rcd13ifvqf40","pricing_plan_id":"cebpf4jnsgd1na2vs0mg"},{"bike_id":"cb2339f4-0371-4078-a89b-835123189f9a","system_id":"levelo_inurba_marseille","lat":43.25725,"lon":5.41102,"is_reserved":false,"is_disabled":false,"rental_uris":{"android":"levelo://app?vid=cb2339f4-0371-4078-a89b-835123189f9a","ios":"levelo://app?vid=cb2339f4-0371-4078-a89b-835123189f9a"},"vehicle_type_id":"4","last_reported":1744809683,"current_range_meters":19600,"station_id":"ce4bhkp2rcd13ifvqgd0","pricing_plan_id":"cebpf4jnsgd1na2vs0mg"},{"bike_id":"0dfc670f-94c3-42ac-b303-0bffbc52575d","system_id":"levelo_inurba_marseille","lat":43.31122,"lon":5.37772,"is_reserved":false,"is_disabled":false,"rental_uris":{"android":"levelo://app?vid=0dfc670f-94c3-42ac-b303-0bffbc52575d","ios":"levelo://app?vid=0dfc670f-94c3-42ac-b303-0bffbc52575d"},"vehicle_type_id":"4","last_reported":1744809683,"current_range_meters":19600,"station_id":"ce4bgt92rcd13ifvqcg0","pricing_plan_id":"cebpf4jnsgd1na2vs0mg"},{"bike_id":"dda116ff-b1f2-4720-9cc4-eb1f30161ff5","system_id":"levelo_inurba_marseille","lat":43.27829,"lon":5.39215,"is_reserved":false,"is_disabled":false,"rental_uris":{"android":"levelo://app?vid=dda116ff-b1f2-4720-9cc4-eb1f30161ff5","ios":"levelo://app?vid=dda116ff-b1f2-4720-9cc4-eb1f30161ff5"},"vehicle_type_id":"4","last_reported":1744809683,"current_range_meters":19600,"station_id":"ce4bhjp2rcd13ifvqga0","pricing_plan_id":"cebpf4jnsgd1na2vs0mg"},{"bike_id":"d46b2e48-9179-435a-9682-3a6a1ec18d25","system_id":"levelo_inurba_marseille","lat":43.28701,"lon":5.39984,"is_reserved":false,"is_disabled":false,"rental_uris":{"android":"levelo://app?vid=d46b2e48-9179-435a-9682-3a6a1ec18d25","ios":"levelo://app?vid=d46b2e48-9179-435a-9682-3a6a1ec18d25"},"vehicle_type_id":"4","last_reported":1744809683,"current_range_meters":19600,"station_id":"ce4bho92rcd13ifvqh3g","pricing_plan_id":"cebpf4jnsgd1na2vs0mg"},{"bike_id":"00109c26-30db-4a20-9d6c-8e14047387c2","system_id":"levelo_inurba_marseille","lat":43.29729,"lon":5.37707,"is_reserved":false,"is_disabled":false,"rental_uris":{"android":"levelo://app?vid=00109c26-30db-4a20-9d6c-8e14047387c2","ios":"levelo://app?vid=00109c26-30db-4a20-9d6c-8e14047387c2"},"vehicle_type_id":"4","last_reported":1744809683,"current_range_meters":19600,"station_id":"ce4bgkh2rcd13ifvqbl0","pricing_plan_id":"cebpf4jnsgd1na2vs0mg"},{"bike_id":"f9294aff-5b6f-4d62-9db7-b7bdca4ffaf5","system_id":"levelo_inurba_marseille","lat":43.32564,"lon":5.41469,"is_reserved":false,"is_disabled":false,"rental_uris":{"android":"levelo://app?vid=f9294aff-5b6f-4d62-9db7-b7bdca4ffaf5","ios":"levelo://app?vid=f9294aff-5b6f-4d62-9db7-b7bdca4ffaf5"},"vehicle_type_id":"4","last_reported":1744809683,"current_range_meters":19600,"station_id":"","pricing_plan_id":"cebpf4jnsgd1na2vs0mg"},{"bike_id":"a489f5c2-b07a-42dc-9a5f-be6bc6460226","system_id":"levelo_inurba_marseille","lat":43.295358,"lon":5.385518,"is_reserved":false,"is_disabled":false,"rental_uris":{"android":"levelo://app?vid=a489f5c2-b07a-42dc-9a5f-be6bc6460226","ios":"levelo://app?vid=a489f5c2-b07a-42dc-9a5f-be6bc6460226"},"vehicle_type_id":"4","last_reported":1744809683,"current_range_meters":19600,"station_id":"ce4bgi12rcd13ifvqb70","pricing_plan_id":"cebpf4jnsgd1na2vs0mg"},{"bike_id":"ceb52a59-0806-44d8-9596-f48eeae7037e","system_id":"levelo_inurba_marseille","lat":43.23125,"lon":5.43698,"is_reserved":false,"is_disabled":false,"rental_uris":{"android":"levelo://app?vid=ceb52a59-0806-44d8-9596-f48eeae7037e","ios":"levelo://app?vid=ceb52a59-0806-44d8-9596-f48eeae7037e"},"vehicle_type_id":"4","last_reported":1744809683,"current_range_meters":19600,"station_id":"ce4bhmp2rcd13ifvqgog","pricing_plan_id":"cebpf4jnsgd1na2vs0mg"},{"bike_id":"439c6cb6-7b03-4e89-b858-34cc7d6863ae","system_id":"levelo_inurba_marseille","lat":43.31219,"lon":5.36854,"is_reserved":false,"is_disabled":false,"rental_uris":{"android":"levelo://app?vid=439c6cb6-7b03-4e89-b858-34cc7d6863ae","ios":"levelo://app?vid=439c6cb6-7b03-4e89-b858-34cc7d6863ae"},"vehicle_type_id":"4","last_reported":1744809683,"current_range_meters":19600,"station_id":"ce4bgl92rcd13ifvqbq0","pricing_plan_id":"cebpf4jnsgd1na2vs0mg"},{"bike_id":"f8ca688b-8d89-46b7-9110-baed5a9ba379","system_id":"levelo_inurba_marseille","lat":43.31142,"lon":5.37043,"is_reserved":false,"is_disabled":false,"rental_uris":{"android":"levelo://app?vid=f8ca688b-8d89-46b7-9110-baed5a9ba379","ios":"levelo://app?vid=f8ca688b-8d89-46b7-9110-baed5a9ba379"},"vehicle_type_id":"4","last_reported":1744809683,"current_range_meters":20000,"station_id":"","pricing_plan_id":"cebpf4jnsgd1na2vs0mg"},{"bike_id":"3f9ced0f-8844-4943-b112-2f2efa3a76c8","system_id":"levelo_inurba_marseille","lat":43.28106,"lon":5.37834,"is_reserved":false,"is_disabled":false,"rental_uris":{"android":"levelo://app?vid=3f9ced0f-8844-4943-b112-2f2efa3a76c8","ios":"levelo://app?vid=3f9ced0f-8844-4943-b112-2f2efa3a76c8"},"vehicle_type_id":"4","last_reported":1744809683,"current_range_meters":20000,"station_id":"ce4bha12rcd13ifvqee0","pricing_plan_id":"cebpf4jnsgd1na2vs0mg"},{"bike_id":"af8aa001-7f73-471e-987b-3e247ec3c791","system_id":"levelo_inurba_marseille","lat":43.281,"lon":5.37845,"is_reserved":false,"is_disabled":false,"rental_uris":{"android":"levelo://app?vid=af8aa001-7f73-471e-987b-3e247ec3c791","ios":"levelo://app?vid=af8aa001-7f73-471e-987b-3e247ec3c791"},"vehicle_type_id":"4","last_reported":1744809683,"current_range_meters":20000,"station_id":"ce4bha12rcd13ifvqee0","pricing_plan_id":"cebpf4jnsgd1na2vs0mg"},{"bike_id":"7a646f77-c728-420f-bf42-9a37eccc4037","system_id":"levelo_inurba_marseille","lat":43.22502,"lon":5.34783,"is_reserved":false,"is_disabled":false,"rental_uris":{"android":"levelo://app?vid=7a646f77-c728-420f-bf42-9a37eccc4037","ios":"levelo://app?vid=7a646f77-c728-420f-bf42-9a37eccc4037"},"vehicle_type_id":"4","last_reported":1744809683,"current_range_meters":20400,"station_id":"st_cvj5dfep6f1abm77gieg","pricing_plan_id":"cebpf4jnsgd1na2vs0mg"},{"bike_id":"c075e5f9-7973-48ad-adba-ff01af506039","system_id":"levelo_inurba_marseille","lat":43.30548,"lon":5.36538,"is_reserved":false,"is_disabled":false,"rental_uris":{"android":"levelo://app?vid=c075e5f9-7973-48ad-adba-ff01af506039","ios":"levelo://app?vid=c075e5f9-7973-48ad-adba-ff01af506039"},"vehicle_type_id":"4","last_reported":1744809683,"current_range_meters":20400,"station_id":"ce4bgs12rcd13ifvqcag","pricing_plan_id":"cebpf4jnsgd1na2vs0mg"},{"bike_id":"bc0837a1-279f-4396-af1b-42270f8cd9b7","system_id":"levelo_inurba_marseille","lat":43.26219,"lon":5.40459,"is_reserved":false,"is_disabled":false,"rental_uris":{"android":"levelo://app?vid=bc0837a1-279f-4396-af1b-42270f8cd9b7","ios":"levelo://app?vid=bc0837a1-279f-4396-af1b-42270f8cd9b7"},"vehicle_type_id":"4","last_reported":1744809683,"current_range_meters":20400,"station_id":"ce4bhmh2rcd13ifvqgmg","pricing_plan_id":"cebpf4jnsgd1na2vs0mg"},{"bike_id":"a698e6fe-68fe-4b74-800e-582c43813e2f","system_id":"levelo_inurba_marseille","lat":43.2809,"lon":5.37861,"is_reserved":false,"is_disabled":false,"rental_uris":{"android":"levelo://app?vid=a698e6fe-68fe-4b74-800e-582c43813e2f","ios":"levelo://app?vid=a698e6fe-68fe-4b74-800e-582c43813e2f"},"vehicle_type_id":"4","last_reported":1744809683,"current_range_meters":20400,"station_id":"ce4bha12rcd13ifvqee0","pricing_plan_id":"cebpf4jnsgd1na2vs0mg"},{"bike_id":"d750596a-6ac6-4755-84cc-45acd4464f3d","system_id":"levelo_inurba_marseille","lat":43.243964,"lon":5.370748,"is_reserved":false,"is_disabled":false,"rental_uris":{"android":"levelo://app?vid=d750596a-6ac6-4755-84cc-45acd4464f3d","ios":"levelo://app?vid=d750596a-6ac6-4755-84cc-45acd4464f3d"},"vehicle_type_id":"4","last_reported":1744809683,"current_range_meters":20800,"station_id":"ce4bhhh2rcd13ifvqfk0","pricing_plan_id":"cebpf4jnsgd1na2vs0mg"},{"bike_id":"75e0f95b-4d0f-4273-aa75-c7fe15bd4e96","system_id":"levelo_inurba_marseille","lat":43.265,"lon":5.39536,"is_reserved":false,"is_disabled":false,"rental_uris":{"android":"levelo://app?vid=75e0f95b-4d0f-4273-aa75-c7fe15bd4e96","ios":"levelo://app?vid=75e0f95b-4d0f-4273-aa75-c7fe15bd4e96"},"vehicle_type_id":"4","last_reported":1744809683,"current_range_meters":20800,"station_id":"ce4bhi12rcd13ifvqfq0","pricing_plan_id":"cebpf4jnsgd1na2vs0mg"},{"bike_id":"08f4dcee-7656-4957-9022-f13783bb2667","system_id":"levelo_inurba_marseille","lat":43.29688,"lon":5.37234,"is_reserved":false,"is_disabled":false,"rental_uris":{"android":"levelo://app?vid=08f4dcee-7656-4957-9022-f13783bb2667","ios":"levelo://app?vid=08f4dcee-7656-4957-9022-f13783bb2667"},"vehicle_type_id":"4","last_reported":1744809683,"current_range_meters":20800,"station_id":"ce4bgk12rcd13ifvqbj0","pricing_plan_id":"cebpf4jnsgd1na2vs0mg"},{"bike_id":"d39e5537-c00a-4bf8-9f22-53966b448679","system_id":"levelo_inurba_marseille","lat":43.29544,"lon":5.42264,"is_reserved":false,"is_disabled":false,"rental_uris":{"android":"levelo://app?vid=d39e5537-c00a-4bf8-9f22-53966b448679","ios":"levelo://app?vid=d39e5537-c00a-4bf8-9f22-53966b448679"},"vehicle_type_id":"4","last_reported":1744809683,"current_range_meters":20800,"station_id":"ce4bhph2rcd13ifvqhdg","pricing_plan_id":"cebpf4jnsgd1na2vs0mg"},{"bike_id":"eacff3de-8ff9-479e-8be7-43eea2b6b916","system_id":"levelo_inurba_marseille","lat":43.29534,"lon":5.38555,"is_reserved":false,"is_disabled":false,"rental_uris":{"android":"levelo://app?vid=eacff3de-8ff9-479e-8be7-43eea2b6b916","ios":"levelo://app?vid=eacff3de-8ff9-479e-8be7-43eea2b6b916"},"vehicle_type_id":"4","last_reported":1744809683,"current_range_meters":20800,"station_id":"ce4bgih2rcd13ifvqba0","pricing_plan_id":"cebpf4jnsgd1na2vs0mg"},{"bike_id":"ccb7a8e4-757c-4e6f-90e3-f97fac7da5b7","system_id":"levelo_inurba_marseille","lat":43.29274,"lon":5.38444,"is_reserved":false,"is_disabled":false,"rental_uris":{"android":"levelo://app?vid=ccb7a8e4-757c-4e6f-90e3-f97fac7da5b7","ios":"levelo://app?vid=ccb7a8e4-757c-4e6f-90e3-f97fac7da5b7"},"vehicle_type_id":"4","last_reported":1744809683,"current_range_meters":20800,"station_id":"ce4bh692rcd13ifvqea0","pricing_plan_id":"cebpf4jnsgd1na2vs0mg"},{"bike_id":"0ca8aa9e-3f7c-4773-9390-31f01422cc03","system_id":"levelo_inurba_marseille","lat":43.29956,"lon":5.4132,"is_reserved":false,"is_disabled":false,"rental_uris":{"android":"levelo://app?vid=0ca8aa9e-3f7c-4773-9390-31f01422cc03","ios":"levelo://app?vid=0ca8aa9e-3f7c-4773-9390-31f01422cc03"},"vehicle_type_id":"4","last_reported":1744809683,"current_range_meters":20400,"station_id":"ce4bhp12rcd13ifvqh9g","pricing_plan_id":"cebpf4jnsgd1na2vs0mg"},{"bike_id":"6f2360da-5688-4f6a-8ebd-9e32ee7c678f","system_id":"levelo_inurba_marseille","lat":43.31678,"lon":5.40445,"is_reserved":false,"is_disabled":false,"rental_uris":{"android":"levelo://app?vid=6f2360da-5688-4f6a-8ebd-9e32ee7c678f","ios":"levelo://app?vid=6f2360da-5688-4f6a-8ebd-9e32ee7c678f"},"vehicle_type_id":"4","last_reported":1744809683,"current_range_meters":20800,"station_id":"ce4bh012rcd13ifvqd00","pricing_plan_id":"cebpf4jnsgd1na2vs0mg"},{"bike_id":"3f761246-0d21-4df1-9aa1-2fe452c29abd","system_id":"levelo_inurba_marseille","lat":43.2175,"lon":5.34606,"is_reserved":false,"is_disabled":false,"rental_uris":{"android":"levelo://app?vid=3f761246-0d21-4df1-9aa1-2fe452c29abd","ios":"levelo://app?vid=3f761246-0d21-4df1-9aa1-2fe452c29abd"},"vehicle_type_id":"4","last_reported":1744809683,"current_range_meters":20800,"station_id":"st_cvj6r9ubvosntc0bgbag","pricing_plan_id":"cebpf4jnsgd1na2vs0mg"},{"bike_id":"603e0957-45c6-4b02-9585-2babcca99d6f","system_id":"levelo_inurba_marseille","lat":43.26898,"lon":5.40254,"is_reserved":false,"is_disabled":false,"rental_uris":{"android":"levelo://app?vid=603e0957-45c6-4b02-9585-2babcca99d6f","ios":"levelo://app?vid=603e0957-45c6-4b02-9585-2babcca99d6f"},"vehicle_type_id":"4","last_reported":1744809683,"current_range_meters":21600,"station_id":"cjm6bp8fraef2m0cb0m0","pricing_plan_id":"cebpf4jnsgd1na2vs0mg"},{"bike_id":"5dcdba20-c421-403e-9fc9-2e0f516a830a","system_id":"levelo_inurba_marseille","lat":43.30277,"lon":5.37712,"is_reserved":false,"is_disabled":false,"rental_uris":{"android":"levelo://app?vid=5dcdba20-c421-403e-9fc9-2e0f516a830a","ios":"levelo://app?vid=5dcdba20-c421-403e-9fc9-2e0f516a830a"},"vehicle_type_id":"4","last_reported":1744809683,"current_range_meters":21600,"station_id":"ce4bguh2rcd13ifvqcj0","pricing_plan_id":"cebpf4jnsgd1na2vs0mg"},{"bike_id":"521d471c-f1d5-4396-beef-ac63677e0c30","system_id":"levelo_inurba_marseille","lat":43.26937,"lon":5.40258,"is_reserved":false,"is_disabled":false,"rental_uris":{"android":"levelo://app?vid=521d471c-f1d5-4396-beef-ac63677e0c30","ios":"levelo://app?vid=521d471c-f1d5-4396-beef-ac63677e0c30"},"vehicle_type_id":"4","last_reported":1744809683,"current_range_meters":21600,"station_id":"cjm6bp8fraef2m0cb0m0","pricing_plan_id":"cebpf4jnsgd1na2vs0mg"},{"bike_id":"2984cec8-23de-4a73-97a3-c0829eb8b5c7","system_id":"levelo_inurba_marseille","lat":43.27909,"lon":5.39578,"is_reserved":false,"is_disabled":false,"rental_uris":{"android":"levelo://app?vid=2984cec8-23de-4a73-97a3-c0829eb8b5c7","ios":"levelo://app?vid=2984cec8-23de-4a73-97a3-c0829eb8b5c7"},"vehicle_type_id":"4","last_reported":1744809683,"current_range_meters":22000,"station_id":"ce4bhf92rcd13ifvqf40","pricing_plan_id":"cebpf4jnsgd1na2vs0mg"},{"bike_id":"94c8b160-29dd-45c4-9d5f-86d40f79a61c","system_id":"levelo_inurba_marseille","lat":43.26233,"lon":5.40445,"is_reserved":false,"is_disabled":false,"rental_uris":{"android":"levelo://app?vid=94c8b160-29dd-45c4-9d5f-86d40f79a61c","ios":"levelo://app?vid=94c8b160-29dd-45c4-9d5f-86d40f79a61c"},"vehicle_type_id":"4","last_reported":1744809683,"current_range_meters":22000,"station_id":"ce4bhmh2rcd13ifvqgmg","pricing_plan_id":"cebpf4jnsgd1na2vs0mg"},{"bike_id":"ded55843-7be2-41bc-bdc1-049a3515b49b","system_id":"levelo_inurba_marseille","lat":43.29283,"lon":5.3746,"is_reserved":false,"is_disabled":false,"rental_uris":{"android":"levelo://app?vid=ded55843-7be2-41bc-bdc1-049a3515b49b","ios":"levelo://app?vid=ded55843-7be2-41bc-bdc1-049a3515b49b"},"vehicle_type_id":"4","last_reported":1744809683,"current_range_meters":22000,"station_id":"ce4bgi12rcd13ifvqb70","pricing_plan_id":"cebpf4jnsgd1na2vs0mg"},{"bike_id":"abb2de47-ed6b-4551-aa9e-ba4f01a38449","system_id":"levelo_inurba_marseille","lat":43.305,"lon":5.37908,"is_reserved":false,"is_disabled":false,"rental_uris":{"android":"levelo://app?vid=abb2de47-ed6b-4551-aa9e-ba4f01a38449","ios":"levelo://app?vid=abb2de47-ed6b-4551-aa9e-ba4f01a38449"},"vehicle_type_id":"4","last_reported":1744809683,"current_range_meters":22000,"station_id":"ce4bgup2rcd13ifvqcn0","pricing_plan_id":"cebpf4jnsgd1na2vs0mg"},{"bike_id":"aee95794-cb6b-4b52-b771-af96eadbaa72","system_id":"levelo_inurba_marseille","lat":43.28153,"lon":5.42645,"is_reserved":false,"is_disabled":false,"rental_uris":{"android":"levelo://app?vid=aee95794-cb6b-4b52-b771-af96eadbaa72","ios":"levelo://app?vid=aee95794-cb6b-4b52-b771-af96eadbaa72"},"vehicle_type_id":"4","last_reported":1744809683,"current_range_meters":22000,"station_id":"ce4bhnh2rcd13ifvqgug","pricing_plan_id":"cebpf4jnsgd1na2vs0mg"},{"bike_id":"e09b4c34-6357-43c3-84ad-0a95a8ec10e5","system_id":"levelo_inurba_marseille","lat":43.22497,"lon":5.34777,"is_reserved":false,"is_disabled":false,"rental_uris":{"android":"levelo://app?vid=e09b4c34-6357-43c3-84ad-0a95a8ec10e5","ios":"levelo://app?vid=e09b4c34-6357-43c3-84ad-0a95a8ec10e5"},"vehicle_type_id":"4","last_reported":1744809683,"current_range_meters":22400,"station_id":"","pricing_plan_id":"cebpf4jnsgd1na2vs0mg"},{"bike_id":"4527dea2-da22-4c31-804b-ea0cbfc916cc","system_id":"levelo_inurba_marseille","lat":43.284,"lon":5.38078,"is_reserved":false,"is_disabled":false,"rental_uris":{"android":"levelo://app?vid=4527dea2-da22-4c31-804b-ea0cbfc916cc","ios":"levelo://app?vid=4527dea2-da22-4c31-804b-ea0cbfc916cc"},"vehicle_type_id":"4","last_reported":1744809683,"current_range_meters":22400,"station_id":"","pricing_plan_id":"cebpf4jnsgd1na2vs0mg"},{"bike_id":"0bf390d3-4bdb-4303-803f-909d4f2f95e6","system_id":"levelo_inurba_marseille","lat":43.30543,"lon":5.36699,"is_reserved":false,"is_disabled":false,"rental_uris":{"android":"levelo://app?vid=0bf390d3-4bdb-4303-803f-909d4f2f95e6","ios":"levelo://app?vid=0bf390d3-4bdb-4303-803f-909d4f2f95e6"},"vehicle_type_id":"4","last_reported":1744809683,"current_range_meters":22400,"station_id":"ce4bgrp2rcd13ifvqc9g","pricing_plan_id":"cebpf4jnsgd1na2vs0mg"},{"bike_id":"f49c4e21-3368-4dd3-b8d1-f136aaf28dbc","system_id":"levelo_inurba_marseille","lat":43.31229,"lon":5.36875,"is_reserved":false,"is_disabled":false,"rental_uris":{"android":"levelo://app?vid=f49c4e21-3368-4dd3-b8d1-f136aaf28dbc","ios":"levelo://app?vid=f49c4e21-3368-4dd3-b8d1-f136aaf28dbc"},"vehicle_type_id":"4","last_reported":1744809683,"current_range_meters":22400,"station_id":"ce4bgl92rcd13ifvqbq0","pricing_plan_id":"cebpf4jnsgd1na2vs0mg"},{"bike_id":"04fb422e-0aec-4205-8e11-f392462c55c3","system_id":"levelo_inurba_marseille","lat":43.26806,"lon":5.40271,"is_reserved":false,"is_disabled":false,"rental_uris":{"android":"levelo://app?vid=04fb422e-0aec-4205-8e11-f392462c55c3","ios":"levelo://app?vid=04fb422e-0aec-4205-8e11-f392462c55c3"},"vehicle_type_id":"4","last_reported":1744809683,"current_range_meters":22400,"station_id":"ce501612rcd8frsf0b60","pricing_plan_id":"cebpf4jnsgd1na2vs0mg"},{"bike_id":"d173482c-33fe-4e3f-b3dc-50194ba6dd74","system_id":"levelo_inurba_marseille","lat":43.24157,"lon":5.39731,"is_reserved":false,"is_disabled":false,"rental_uris":{"android":"levelo://app?vid=d173482c-33fe-4e3f-b3dc-50194ba6dd74","ios":"levelo://app?vid=d173482c-33fe-4e3f-b3dc-50194ba6dd74"},"vehicle_type_id":"4","last_reported":1744809683,"current_range_meters":22400,"station_id":"ce4bhn12rcd13ifvqgpg","pricing_plan_id":"cebpf4jnsgd1na2vs0mg"},{"bike_id":"95cb4257-47a7-43ca-9e16-7d5e93c960cc","system_id":"levelo_inurba_marseille","lat":43.31249,"lon":5.36815,"is_reserved":false,"is_disabled":false,"rental_uris":{"android":"levelo://app?vid=95cb4257-47a7-43ca-9e16-7d5e93c960cc","ios":"levelo://app?vid=95cb4257-47a7-43ca-9e16-7d5e93c960cc"},"vehicle_type_id":"4","last_reported":1744809683,"current_range_meters":22400,"station_id":"ce4bgl92rcd13ifvqbq0","pricing_plan_id":"cebpf4jnsgd1na2vs0mg"},{"bike_id":"272ea20a-4c31-4d01-a01c-10f418156f2e","system_id":"levelo_inurba_marseille","lat":43.23137,"lon":5.43706,"is_reserved":false,"is_disabled":false,"rental_uris":{"android":"levelo://app?vid=272ea20a-4c31-4d01-a01c-10f418156f2e","ios":"levelo://app?vid=272ea20a-4c31-4d01-a01c-10f418156f2e"},"vehicle_type_id":"4","last_reported":1744809683,"current_range_meters":22400,"station_id":"ce4bhmp2rcd13ifvqgog","pricing_plan_id":"cebpf4jnsgd1na2vs0mg"},{"bike_id":"f4c69777-4974-401f-817d-b79514aea718","system_id":"levelo_inurba_marseille","lat":43.26207,"lon":5.37463,"is_reserved":false,"is_disabled":false,"rental_uris":{"android":"levelo://app?vid=f4c69777-4974-401f-817d-b79514aea718","ios":"levelo://app?vid=f4c69777-4974-401f-817d-b79514aea718"},"vehicle_type_id":"4","last_reported":1744809683,"current_range_meters":22800,"station_id":"ce4bhgp2rcd13ifvqfc0","pricing_plan_id":"cebpf4jnsgd1na2vs0mg"},{"bike_id":"41fb0398-f2fe-4abb-ae37-a38f47615ea9","system_id":"levelo_inurba_marseille","lat":43.32306,"lon":5.36711,"is_reserved":false,"is_disabled":false,"rental_uris":{"android":"levelo://app?vid=41fb0398-f2fe-4abb-ae37-a38f47615ea9","ios":"levelo://app?vid=41fb0398-f2fe-4abb-ae37-a38f47615ea9"},"vehicle_type_id":"4","last_reported":1744809683,"current_range_meters":22800,"station_id":"","pricing_plan_id":"cebpf4jnsgd1na2vs0mg"},{"bike_id":"6b25c985-766f-4506-85f5-cbe4c5c089d4","system_id":"levelo_inurba_marseille","lat":43.2956,"lon":5.37505,"is_reserved":false,"is_disabled":false,"rental_uris":{"android":"levelo://app?vid=6b25c985-766f-4506-85f5-cbe4c5c089d4","ios":"levelo://app?vid=6b25c985-766f-4506-85f5-cbe4c5c089d4"},"vehicle_type_id":"4","last_reported":1744809683,"current_range_meters":22800,"station_id":"ce4bgh92rcd13ifvqb50","pricing_plan_id":"cebpf4jnsgd1na2vs0mg"},{"bike_id":"8934c9ff-b955-4903-b5d2-c595dc711b7c","system_id":"levelo_inurba_marseille","lat":43.29572,"lon":5.39963,"is_reserved":false,"is_disabled":true,"rental_uris":{"android":"levelo://app?vid=8934c9ff-b955-4903-b5d2-c595dc711b7c","ios":"levelo://app?vid=8934c9ff-b955-4903-b5d2-c595dc711b7c"},"vehicle_type_id":"4","last_reported":1744809683,"current_range_meters":22800,"station_id":"ce4bh312rcd13ifvqdj0","pricing_plan_id":"cebpf4jnsgd1na2vs0mg"},{"bike_id":"6676d03d-80da-445b-b2a1-fbbfb8d61b7e","system_id":"levelo_inurba_marseille","lat":43.29796,"lon":5.39334,"is_reserved":false,"is_disabled":false,"rental_uris":{"android":"levelo://app?vid=6676d03d-80da-445b-b2a1-fbbfb8d61b7e","ios":"levelo://app?vid=6676d03d-80da-445b-b2a1-fbbfb8d61b7e"},"vehicle_type_id":"4","last_reported":1744809683,"current_range_meters":22800,"station_id":"chh1huq6cuj3fo74tm60","pricing_plan_id":"cebpf4jnsgd1na2vs0mg"},{"bike_id":"4ab43c8f-2442-44d2-844d-0e2cb5bfba0c","system_id":"levelo_inurba_marseille","lat":43.30544,"lon":5.36533,"is_reserved":false,"is_disabled":false,"rental_uris":{"android":"levelo://app?vid=4ab43c8f-2442-44d2-844d-0e2cb5bfba0c","ios":"levelo://app?vid=4ab43c8f-2442-44d2-844d-0e2cb5bfba0c"},"vehicle_type_id":"4","last_reported":1744809683,"current_range_meters":22800,"station_id":"ce4bgs12rcd13ifvqcag","pricing_plan_id":"cebpf4jnsgd1na2vs0mg"},{"bike_id":"c73ab921-dd9a-4810-95bf-f34353c47ee8","system_id":"levelo_inurba_marseille","lat":43.30267,"lon":5.37704,"is_reserved":false,"is_disabled":false,"rental_uris":{"android":"levelo://app?vid=c73ab921-dd9a-4810-95bf-f34353c47ee8","ios":"levelo://app?vid=c73ab921-dd9a-4810-95bf-f34353c47ee8"},"vehicle_type_id":"4","last_reported":1744809683,"current_range_meters":22800,"station_id":"ce4bguh2rcd13ifvqcj0","pricing_plan_id":"cebpf4jnsgd1na2vs0mg"},{"bike_id":"2a2693f8-84bd-4c3e-aeca-0bb59056b5de","system_id":"levelo_inurba_marseille","lat":43.26931,"lon":5.40265,"is_reserved":false,"is_disabled":false,"rental_uris":{"android":"levelo://app?vid=2a2693f8-84bd-4c3e-aeca-0bb59056b5de","ios":"levelo://app?vid=2a2693f8-84bd-4c3e-aeca-0bb59056b5de"},"vehicle_type_id":"4","last_reported":1744809683,"current_range_meters":23200,"station_id":"cjm6bp8fraef2m0cb0m0","pricing_plan_id":"cebpf4jnsgd1na2vs0mg"},{"bike_id":"0f1f7a77-09e0-4e89-93d1-8f66b799b48e","system_id":"levelo_inurba_marseille","lat":43.292819,"lon":5.368371,"is_reserved":false,"is_disabled":false,"rental_uris":{"android":"levelo://app?vid=0f1f7a77-09e0-4e89-93d1-8f66b799b48e","ios":"levelo://app?vid=0f1f7a77-09e0-4e89-93d1-8f66b799b48e"},"vehicle_type_id":"4","last_reported":1744809683,"current_range_meters":23200,"station_id":"ce4bhbp2rcd13ifvqesg","pricing_plan_id":"cebpf4jnsgd1na2vs0mg"},{"bike_id":"1f860ff4-35b9-4b4d-9a2a-a8cb98cda9b3","system_id":"levelo_inurba_marseille","lat":43.27837,"lon":5.39216,"is_reserved":false,"is_disabled":false,"rental_uris":{"android":"levelo://app?vid=1f860ff4-35b9-4b4d-9a2a-a8cb98cda9b3","ios":"levelo://app?vid=1f860ff4-35b9-4b4d-9a2a-a8cb98cda9b3"},"vehicle_type_id":"4","last_reported":1744809683,"current_range_meters":23200,"station_id":"ce4bhjp2rcd13ifvqga0","pricing_plan_id":"cebpf4jnsgd1na2vs0mg"},{"bike_id":"ed8407f7-4e42-4d25-b902-ef1c6cb83a12","system_id":"levelo_inurba_marseille","lat":43.24168,"lon":5.36399,"is_reserved":false,"is_disabled":false,"rental_uris":{"android":"levelo://app?vid=ed8407f7-4e42-4d25-b902-ef1c6cb83a12","ios":"levelo://app?vid=ed8407f7-4e42-4d25-b902-ef1c6cb83a12"},"vehicle_type_id":"4","last_reported":1744809683,"current_range_meters":23200,"station_id":"cpo36qri1sfpv3e86is0","pricing_plan_id":"cebpf4jnsgd1na2vs0mg"},{"bike_id":"7eb8853e-3665-40f5-8308-1299f0674652","system_id":"levelo_inurba_marseille","lat":43.30371,"lon":5.42513,"is_reserved":false,"is_disabled":false,"rental_uris":{"android":"levelo://app?vid=7eb8853e-3665-40f5-8308-1299f0674652","ios":"levelo://app?vid=7eb8853e-3665-40f5-8308-1299f0674652"},"vehicle_type_id":"4","last_reported":1744809683,"current_range_meters":23200,"station_id":"ce4bhoh2rcd13ifvqh6g","pricing_plan_id":"cebpf4jnsgd1na2vs0mg"},{"bike_id":"1292eade-51b2-4ca9-aab0-24bc821e8601","system_id":"levelo_inurba_marseille","lat":43.25502,"lon":5.37659,"is_reserved":false,"is_disabled":false,"rental_uris":{"android":"levelo://app?vid=1292eade-51b2-4ca9-aab0-24bc821e8601","ios":"levelo://app?vid=1292eade-51b2-4ca9-aab0-24bc821e8601"},"vehicle_type_id":"4","last_reported":1744809683,"current_range_meters":23200,"station_id":"ce4bhh12rcd13ifvqff0","pricing_plan_id":"cebpf4jnsgd1na2vs0mg"},{"bike_id":"69c4b081-5dfd-43dc-b379-4639328545a7","system_id":"levelo_inurba_marseille","lat":43.25509,"lon":5.37652,"is_reserved":false,"is_disabled":false,"rental_uris":{"android":"levelo://app?vid=69c4b081-5dfd-43dc-b379-4639328545a7","ios":"levelo://app?vid=69c4b081-5dfd-43dc-b379-4639328545a7"},"vehicle_type_id":"4","last_reported":1744809683,"current_range_meters":23200,"station_id":"ce4bhh12rcd13ifvqff0","pricing_plan_id":"cebpf4jnsgd1na2vs0mg"},{"bike_id":"243a776c-ce76-43c4-bd7a-bcab360c9801","system_id":"levelo_inurba_marseille","lat":43.296134,"lon":5.377238,"is_reserved":false,"is_disabled":false,"rental_uris":{"android":"levelo://app?vid=243a776c-ce76-43c4-bd7a-bcab360c9801","ios":"levelo://app?vid=243a776c-ce76-43c4-bd7a-bcab360c9801"},"vehicle_type_id":"4","last_reported":1744809683,"current_range_meters":24000,"station_id":"ce4bgi92rcd13ifvqb90","pricing_plan_id":"cebpf4jnsgd1na2vs0mg"},{"bike_id":"9b32d9b0-b425-4d34-812f-0c610ee31565","system_id":"levelo_inurba_marseille","lat":43.30202,"lon":5.39455,"is_reserved":false,"is_disabled":true,"rental_uris":{"android":"levelo://app?vid=9b32d9b0-b425-4d34-812f-0c610ee31565","ios":"levelo://app?vid=9b32d9b0-b425-4d34-812f-0c610ee31565"},"vehicle_type_id":"4","last_reported":1744809683,"current_range_meters":24000,"station_id":"ce4bh0p2rcd13ifvqd70","pricing_plan_id":"cebpf4jnsgd1na2vs0mg"},{"bike_id":"327df600-16a2-4306-a905-98ad19fbb263","system_id":"levelo_inurba_marseille","lat":43.296,"lon":5.38102,"is_reserved":false,"is_disabled":false,"rental_uris":{"android":"levelo://app?vid=327df600-16a2-4306-a905-98ad19fbb263","ios":"levelo://app?vid=327df600-16a2-4306-a905-98ad19fbb263"},"vehicle_type_id":"4","last_reported":1744809683,"current_range_meters":24000,"station_id":"ce4bgl12rcd13ifvqbo0","pricing_plan_id":"cebpf4jnsgd1na2vs0mg"},{"bike_id":"789c3822-56ca-4769-bcd4-8845bdea2fda","system_id":"levelo_inurba_marseille","lat":43.24164,"lon":5.36399,"is_reserved":false,"is_disabled":false,"rental_uris":{"android":"levelo://app?vid=789c3822-56ca-4769-bcd4-8845bdea2fda","ios":"levelo://app?vid=789c3822-56ca-4769-bcd4-8845bdea2fda"},"vehicle_type_id":"4","last_reported":1744809683,"current_range_meters":24000,"station_id":"cpo36qri1sfpv3e86is0","pricing_plan_id":"cebpf4jnsgd1na2vs0mg"},{"bike_id":"5c50ae30-5f77-4243-86fb-00e2d7606f9b","system_id":"levelo_inurba_marseille","lat":43.29798,"lon":5.38077,"is_reserved":false,"is_disabled":false,"rental_uris":{"android":"levelo://app?vid=5c50ae30-5f77-4243-86fb-00e2d7606f9b","ios":"levelo://app?vid=5c50ae30-5f77-4243-86fb-00e2d7606f9b"},"vehicle_type_id":"4","last_reported":1744809683,"current_range_meters":24000,"station_id":"ce4bgip2rcd13ifvqbb0","pricing_plan_id":"cebpf4jnsgd1na2vs0mg"},{"bike_id":"bc140d56-5426-4329-8de2-925ded4c3ae5","system_id":"levelo_inurba_marseille","lat":43.30534,"lon":5.36689,"is_reserved":false,"is_disabled":false,"rental_uris":{"android":"levelo://app?vid=bc140d56-5426-4329-8de2-925ded4c3ae5","ios":"levelo://app?vid=bc140d56-5426-4329-8de2-925ded4c3ae5"},"vehicle_type_id":"4","last_reported":1744809683,"current_range_meters":24000,"station_id":"ce4bgrp2rcd13ifvqc9g","pricing_plan_id":"cebpf4jnsgd1na2vs0mg"},{"bike_id":"6a4fbb12-b47f-4294-a881-1db64b65579d","system_id":"levelo_inurba_marseille","lat":43.28413,"lon":5.37511,"is_reserved":false,"is_disabled":false,"rental_uris":{"android":"levelo://app?vid=6a4fbb12-b47f-4294-a881-1db64b65579d","ios":"levelo://app?vid=6a4fbb12-b47f-4294-a881-1db64b65579d"},"vehicle_type_id":"4","last_reported":1744809683,"current_range_meters":24000,"station_id":"ce4bh412rcd13ifvqds0","pricing_plan_id":"cebpf4jnsgd1na2vs0mg"},{"bike_id":"89f52e97-869e-41c6-9753-303cbb680b63","system_id":"levelo_inurba_marseille","lat":43.29531,"lon":5.38549,"is_reserved":false,"is_disabled":false,"rental_uris":{"android":"levelo://app?vid=89f52e97-869e-41c6-9753-303cbb680b63","ios":"levelo://app?vid=89f52e97-869e-41c6-9753-303cbb680b63"},"vehicle_type_id":"4","last_reported":1744809683,"current_range_meters":24000,"station_id":"ce4bgih2rcd13ifvqba0","pricing_plan_id":"cebpf4jnsgd1na2vs0mg"},{"bike_id":"27cf0460-4202-4023-88b3-be81e7e750b2","system_id":"levelo_inurba_marseille","lat":43.287759,"lon":5.382694,"is_reserved":false,"is_disabled":false,"rental_uris":{"android":"levelo://app?vid=27cf0460-4202-4023-88b3-be81e7e750b2","ios":"levelo://app?vid=27cf0460-4202-4023-88b3-be81e7e750b2"},"vehicle_type_id":"4","last_reported":1744809683,"current_range_meters":24000,"station_id":"ce4bhf92rcd13ifvqf40","pricing_plan_id":"cebpf4jnsgd1na2vs0mg"},{"bike_id":"da9385be-9753-44ca-a738-f49ae91fe80c","system_id":"levelo_inurba_marseille","lat":43.29094,"lon":5.38157,"is_reserved":false,"is_disabled":false,"rental_uris":{"android":"levelo://app?vid=da9385be-9753-44ca-a738-f49ae91fe80c","ios":"levelo://app?vid=da9385be-9753-44ca-a738-f49ae91fe80c"},"vehicle_type_id":"4","last_reported":1744809683,"current_range_meters":24400,"station_id":"ce4bh512rcd13ifvqe2g","pricing_plan_id":"cebpf4jnsgd1na2vs0mg"},{"bike_id":"8d631704-7df1-4c86-bc42-234be877196a","system_id":"levelo_inurba_marseille","lat":43.30529,"lon":5.3653,"is_reserved":false,"is_disabled":false,"rental_uris":{"android":"levelo://app?vid=8d631704-7df1-4c86-bc42-234be877196a","ios":"levelo://app?vid=8d631704-7df1-4c86-bc42-234be877196a"},"vehicle_type_id":"4","last_reported":1744809683,"current_range_meters":24400,"station_id":"ce4bgs12rcd13ifvqcag","pricing_plan_id":"cebpf4jnsgd1na2vs0mg"},{"bike_id":"2a3df68e-728a-4b9c-bbc2-4259a4448e26","system_id":"levelo_inurba_marseille","lat":43.27988,"lon":5.4003,"is_reserved":false,"is_disabled":false,"rental_uris":{"android":"levelo://app?vid=2a3df68e-728a-4b9c-bbc2-4259a4448e26","ios":"levelo://app?vid=2a3df68e-728a-4b9c-bbc2-4259a4448e26"},"vehicle_type_id":"4","last_reported":1744809683,"current_range_meters":24400,"station_id":"ce4bho92rcd13ifvqh4g","pricing_plan_id":"cebpf4jnsgd1na2vs0mg"},{"bike_id":"5626c75a-e879-4a61-9cac-b2b7d62ab04c","system_id":"levelo_inurba_marseille","lat":43.28621,"lon":5.35105,"is_reserved":false,"is_disabled":false,"rental_uris":{"android":"levelo://app?vid=5626c75a-e879-4a61-9cac-b2b7d62ab04c","ios":"levelo://app?vid=5626c75a-e879-4a61-9cac-b2b7d62ab04c"},"vehicle_type_id":"4","last_reported":1744809683,"current_range_meters":24400,"station_id":"ce4bhch2rcd13ifvqeug","pricing_plan_id":"cebpf4jnsgd1na2vs0mg"},{"bike_id":"ec89c210-3c21-4708-958a-dedc8c3e7ca2","system_id":"levelo_inurba_marseille","lat":43.30545,"lon":5.36535,"is_reserved":false,"is_disabled":false,"rental_uris":{"android":"levelo://app?vid=ec89c210-3c21-4708-958a-dedc8c3e7ca2","ios":"levelo://app?vid=ec89c210-3c21-4708-958a-dedc8c3e7ca2"},"vehicle_type_id":"4","last_reported":1744809683,"current_range_meters":24400,"station_id":"ce4bgs12rcd13ifvqcag","pricing_plan_id":"cebpf4jnsgd1na2vs0mg"},{"bike_id":"7ed91d22-3d5b-4254-83bf-64eb2a7d5481","system_id":"levelo_inurba_marseille","lat":43.22501,"lon":5.34777,"is_reserved":false,"is_disabled":false,"rental_uris":{"android":"levelo://app?vid=7ed91d22-3d5b-4254-83bf-64eb2a7d5481","ios":"levelo://app?vid=7ed91d22-3d5b-4254-83bf-64eb2a7d5481"},"vehicle_type_id":"4","last_reported":1744809683,"current_range_meters":24400,"station_id":"","pricing_plan_id":"cebpf4jnsgd1na2vs0mg"},{"bike_id":"efa8f913-87c0-496c-8c40-335b871b79e6","system_id":"levelo_inurba_marseille","lat":43.28106,"lon":5.37876,"is_reserved":false,"is_disabled":false,"rental_uris":{"android":"levelo://app?vid=efa8f913-87c0-496c-8c40-335b871b79e6","ios":"levelo://app?vid=efa8f913-87c0-496c-8c40-335b871b79e6"},"vehicle_type_id":"4","last_reported":1744809683,"current_range_meters":24400,"station_id":"ce4bha12rcd13ifvqee0","pricing_plan_id":"cebpf4jnsgd1na2vs0mg"},{"bike_id":"6fd16c1d-68a4-4b51-8579-6a0d593dff16","system_id":"levelo_inurba_marseille","lat":43.33604,"lon":5.41037,"is_reserved":false,"is_disabled":false,"rental_uris":{"android":"levelo://app?vid=6fd16c1d-68a4-4b51-8579-6a0d593dff16","ios":"levelo://app?vid=6fd16c1d-68a4-4b51-8579-6a0d593dff16"},"vehicle_type_id":"4","last_reported":1744809683,"current_range_meters":24400,"station_id":"ce4bhqh2rcd13ifvqhmg","pricing_plan_id":"cebpf4jnsgd1na2vs0mg"},{"bike_id":"0e3e3c6e-c468-492e-b55f-f379705b617e","system_id":"levelo_inurba_marseille","lat":43.2938,"lon":5.3784,"is_reserved":false,"is_disabled":false,"rental_uris":{"android":"levelo://app?vid=0e3e3c6e-c468-492e-b55f-f379705b617e","ios":"levelo://app?vid=0e3e3c6e-c468-492e-b55f-f379705b617e"},"vehicle_type_id":"4","last_reported":1744809683,"current_range_meters":24400,"station_id":"ce4bgvp2rcd13ifvqcu0","pricing_plan_id":"cebpf4jnsgd1na2vs0mg"},{"bike_id":"71dfcc9a-ff02-4d55-aa3d-6d598b1d06b6","system_id":"levelo_inurba_marseille","lat":43.27211,"lon":5.39157,"is_reserved":false,"is_disabled":false,"rental_uris":{"android":"levelo://app?vid=71dfcc9a-ff02-4d55-aa3d-6d598b1d06b6","ios":"levelo://app?vid=71dfcc9a-ff02-4d55-aa3d-6d598b1d06b6"},"vehicle_type_id":"4","last_reported":1744809683,"current_range_meters":24400,"station_id":"ce4bhhp2rcd13ifvqfm0","pricing_plan_id":"cebpf4jnsgd1na2vs0mg"},{"bike_id":"2d94ed43-5644-4e24-a254-01c8094a35f0","system_id":"levelo_inurba_marseille","lat":43.26984,"lon":5.40364,"is_reserved":false,"is_disabled":false,"rental_uris":{"android":"levelo://app?vid=2d94ed43-5644-4e24-a254-01c8094a35f0","ios":"levelo://app?vid=2d94ed43-5644-4e24-a254-01c8094a35f0"},"vehicle_type_id":"4","last_reported":1744809683,"current_range_meters":24400,"station_id":"cjm6bp8fraef2m0cb0m0","pricing_plan_id":"cebpf4jnsgd1na2vs0mg"},{"bike_id":"f9653653-58f6-4fdd-8ddf-d9e24a4f8674","system_id":"levelo_inurba_marseille","lat":43.24809,"lon":5.37459,"is_reserved":false,"is_disabled":false,"rental_uris":{"android":"levelo://app?vid=f9653653-58f6-4fdd-8ddf-d9e24a4f8674","ios":"levelo://app?vid=f9653653-58f6-4fdd-8ddf-d9e24a4f8674"},"vehicle_type_id":"4","last_reported":1744809683,"current_range_meters":24400,"station_id":"ce4bhgh2rcd13ifvqfb0","pricing_plan_id":"cebpf4jnsgd1na2vs0mg"},{"bike_id":"33efbe4e-e642-4271-be29-4926b421ca5b","system_id":"levelo_inurba_marseille","lat":43.2416,"lon":5.36395,"is_reserved":false,"is_disabled":false,"rental_uris":{"android":"levelo://app?vid=33efbe4e-e642-4271-be29-4926b421ca5b","ios":"levelo://app?vid=33efbe4e-e642-4271-be29-4926b421ca5b"},"vehicle_type_id":"4","last_reported":1744809683,"current_range_meters":24400,"station_id":"cpo36qri1sfpv3e86is0","pricing_plan_id":"cebpf4jnsgd1na2vs0mg"},{"bike_id":"e30e52b5-4cb6-44db-8a2b-c9b7dfdf3690","system_id":"levelo_inurba_marseille","lat":43.29729,"lon":5.37686,"is_reserved":false,"is_disabled":false,"rental_uris":{"android":"levelo://app?vid=e30e52b5-4cb6-44db-8a2b-c9b7dfdf3690","ios":"levelo://app?vid=e30e52b5-4cb6-44db-8a2b-c9b7dfdf3690"},"vehicle_type_id":"4","last_reported":1744809683,"current_range_meters":24400,"station_id":"ce4bgkh2rcd13ifvqbl0","pricing_plan_id":"cebpf4jnsgd1na2vs0mg"},{"bike_id":"164e968e-a170-4ac2-9964-de4325164194","system_id":"levelo_inurba_marseille","lat":43.2962,"lon":5.37706,"is_reserved":false,"is_disabled":false,"rental_uris":{"android":"levelo://app?vid=164e968e-a170-4ac2-9964-de4325164194","ios":"levelo://app?vid=164e968e-a170-4ac2-9964-de4325164194"},"vehicle_type_id":"4","last_reported":1744809683,"current_range_meters":24400,"station_id":"ce4bgi92rcd13ifvqb90","pricing_plan_id":"cebpf4jnsgd1na2vs0mg"},{"bike_id":"30fe3aed-bc04-4a33-8741-67f8596fad28","system_id":"levelo_inurba_marseille","lat":43.27679,"lon":5.38907,"is_reserved":false,"is_disabled":false,"rental_uris":{"android":"levelo://app?vid=30fe3aed-bc04-4a33-8741-67f8596fad28","ios":"levelo://app?vid=30fe3aed-bc04-4a33-8741-67f8596fad28"},"vehicle_type_id":"4","last_reported":1744809683,"current_range_meters":24400,"station_id":"ce4bhi12rcd13ifvqfo0","pricing_plan_id":"cebpf4jnsgd1na2vs0mg"},{"bike_id":"68342d9f-f0b6-47e7-b690-b27078e67a77","system_id":"levelo_inurba_marseille","lat":43.24167,"lon":5.36389,"is_reserved":false,"is_disabled":false,"rental_uris":{"android":"levelo://app?vid=68342d9f-f0b6-47e7-b690-b27078e67a77","ios":"levelo://app?vid=68342d9f-f0b6-47e7-b690-b27078e67a77"},"vehicle_type_id":"4","last_reported":1744809683,"current_range_meters":24800,"station_id":"cpo36qri1sfpv3e86is0","pricing_plan_id":"cebpf4jnsgd1na2vs0mg"},{"bike_id":"fab5cd6a-61b6-4d16-aad7-01dc9fa23b11","system_id":"levelo_inurba_marseille","lat":43.30545,"lon":5.36533,"is_reserved":false,"is_disabled":false,"rental_uris":{"android":"levelo://app?vid=fab5cd6a-61b6-4d16-aad7-01dc9fa23b11","ios":"levelo://app?vid=fab5cd6a-61b6-4d16-aad7-01dc9fa23b11"},"vehicle_type_id":"4","last_reported":1744809683,"current_range_meters":24800,"station_id":"ce4bgs12rcd13ifvqcag","pricing_plan_id":"cebpf4jnsgd1na2vs0mg"},{"bike_id":"05c03798-10e6-4a2e-b872-ddfcbf583379","system_id":"levelo_inurba_marseille","lat":43.30141,"lon":5.39881,"is_reserved":false,"is_disabled":false,"rental_uris":{"android":"levelo://app?vid=05c03798-10e6-4a2e-b872-ddfcbf583379","ios":"levelo://app?vid=05c03798-10e6-4a2e-b872-ddfcbf583379"},"vehicle_type_id":"4","last_reported":1744809683,"current_range_meters":24800,"station_id":"ce4bh0h2rcd13ifvqd40","pricing_plan_id":"cebpf4jnsgd1na2vs0mg"},{"bike_id":"873bcab6-b973-48ed-b129-34762c209441","system_id":"levelo_inurba_marseille","lat":43.31493,"lon":5.37309,"is_reserved":false,"is_disabled":false,"rental_uris":{"android":"levelo://app?vid=873bcab6-b973-48ed-b129-34762c209441","ios":"levelo://app?vid=873bcab6-b973-48ed-b129-34762c209441"},"vehicle_type_id":"4","last_reported":1744809683,"current_range_meters":24800,"station_id":"ce4bgt12rcd13ifvqcd0","pricing_plan_id":"cebpf4jnsgd1na2vs0mg"},{"bike_id":"50942032-0a92-46b4-af35-4f352cc42e7a","system_id":"levelo_inurba_marseille","lat":43.30929,"lon":5.36873,"is_reserved":false,"is_disabled":false,"rental_uris":{"android":"levelo://app?vid=50942032-0a92-46b4-af35-4f352cc42e7a","ios":"levelo://app?vid=50942032-0a92-46b4-af35-4f352cc42e7a"},"vehicle_type_id":"4","last_reported":1744809683,"current_range_meters":24800,"station_id":"ce4bgn92rcd13ifvqbvg","pricing_plan_id":"cebpf4jnsgd1na2vs0mg"},{"bike_id":"8c0be09f-1a08-4f03-adf3-9ab53d05b7e1","system_id":"levelo_inurba_marseille","lat":43.30415,"lon":5.41264,"is_reserved":false,"is_disabled":true,"rental_uris":{"android":"levelo://app?vid=8c0be09f-1a08-4f03-adf3-9ab53d05b7e1","ios":"levelo://app?vid=8c0be09f-1a08-4f03-adf3-9ab53d05b7e1"},"vehicle_type_id":"4","last_reported":1744809683,"current_range_meters":24800,"station_id":"ce4bhop2rcd13ifvqh8g","pricing_plan_id":"cebpf4jnsgd1na2vs0mg"},{"bike_id":"f9d3fbe6-73e5-424e-af02-f446d5b07152","system_id":"levelo_inurba_marseille","lat":43.21755,"lon":5.3461,"is_reserved":false,"is_disabled":false,"rental_uris":{"android":"levelo://app?vid=f9d3fbe6-73e5-424e-af02-f446d5b07152","ios":"levelo://app?vid=f9d3fbe6-73e5-424e-af02-f446d5b07152"},"vehicle_type_id":"4","last_reported":1744809683,"current_range_meters":24800,"station_id":"st_cvj6r9ubvosntc0bgbag","pricing_plan_id":"cebpf4jnsgd1na2vs0mg"},{"bike_id":"831a4537-6201-4ed0-864c-c6f639c19a24","system_id":"levelo_inurba_marseille","lat":43.32459,"lon":5.36577,"is_reserved":false,"is_disabled":false,"rental_uris":{"android":"levelo://app?vid=831a4537-6201-4ed0-864c-c6f639c19a24","ios":"levelo://app?vid=831a4537-6201-4ed0-864c-c6f639c19a24"},"vehicle_type_id":"4","last_reported":1744809683,"current_range_meters":24800,"station_id":"ce4bhs12rcd13ifvqhvg","pricing_plan_id":"cebpf4jnsgd1na2vs0mg"},{"bike_id":"8a45fc60-e70b-4aa1-8724-454bc54648e5","system_id":"levelo_inurba_marseille","lat":43.3054,"lon":5.36531,"is_reserved":false,"is_disabled":false,"rental_uris":{"android":"levelo://app?vid=8a45fc60-e70b-4aa1-8724-454bc54648e5","ios":"levelo://app?vid=8a45fc60-e70b-4aa1-8724-454bc54648e5"},"vehicle_type_id":"4","last_reported":1744809683,"current_range_meters":24800,"station_id":"ce4bgs12rcd13ifvqcag","pricing_plan_id":"cebpf4jnsgd1na2vs0mg"},{"bike_id":"c305c827-8b59-4e6c-91de-4d8a3fcbcac2","system_id":"levelo_inurba_marseille","lat":43.241688,"lon":5.363986,"is_reserved":false,"is_disabled":false,"rental_uris":{"android":"levelo://app?vid=c305c827-8b59-4e6c-91de-4d8a3fcbcac2","ios":"levelo://app?vid=c305c827-8b59-4e6c-91de-4d8a3fcbcac2"},"vehicle_type_id":"4","last_reported":1744809683,"current_range_meters":24800,"station_id":"cpo36qri1sfpv3e86is0","pricing_plan_id":"cebpf4jnsgd1na2vs0mg"},{"bike_id":"6e1fdf5e-1056-4ab9-8e91-60e710764eea","system_id":"levelo_inurba_marseille","lat":43.314926,"lon":5.373106,"is_reserved":false,"is_disabled":false,"rental_uris":{"android":"levelo://app?vid=6e1fdf5e-1056-4ab9-8e91-60e710764eea","ios":"levelo://app?vid=6e1fdf5e-1056-4ab9-8e91-60e710764eea"},"vehicle_type_id":"4","last_reported":1744809683,"current_range_meters":25200,"station_id":"ce4bgt12rcd13ifvqcd0","pricing_plan_id":"cebpf4jnsgd1na2vs0mg"},{"bike_id":"9ff5a7ef-d1e0-4ae6-9224-c69447f908f9","system_id":"levelo_inurba_marseille","lat":43.2986,"lon":5.36275,"is_reserved":false,"is_disabled":false,"rental_uris":{"android":"levelo://app?vid=9ff5a7ef-d1e0-4ae6-9224-c69447f908f9","ios":"levelo://app?vid=9ff5a7ef-d1e0-4ae6-9224-c69447f908f9"},"vehicle_type_id":"4","last_reported":1744809683,"current_range_meters":25200,"station_id":"ce4bgpp2rcd13ifvqc3g","pricing_plan_id":"cebpf4jnsgd1na2vs0mg"},{"bike_id":"3d03a228-5dff-430f-942d-e5ceaa114072","system_id":"levelo_inurba_marseille","lat":43.29258,"lon":5.37618,"is_reserved":false,"is_disabled":false,"rental_uris":{"android":"levelo://app?vid=3d03a228-5dff-430f-942d-e5ceaa114072","ios":"levelo://app?vid=3d03a228-5dff-430f-942d-e5ceaa114072"},"vehicle_type_id":"4","last_reported":1744809683,"current_range_meters":25200,"station_id":"ce4bgi12rcd13ifvqb80","pricing_plan_id":"cebpf4jnsgd1na2vs0mg"},{"bike_id":"04cd718a-739b-4f09-8fdf-74e445452766","system_id":"levelo_inurba_marseille","lat":43.31486,"lon":5.37308,"is_reserved":false,"is_disabled":false,"rental_uris":{"android":"levelo://app?vid=04cd718a-739b-4f09-8fdf-74e445452766","ios":"levelo://app?vid=04cd718a-739b-4f09-8fdf-74e445452766"},"vehicle_type_id":"4","last_reported":1744809683,"current_range_meters":25200,"station_id":"ce4bgt12rcd13ifvqcd0","pricing_plan_id":"cebpf4jnsgd1na2vs0mg"},{"bike_id":"748ce7be-303b-4e02-8a76-47e344a3d081","system_id":"levelo_inurba_marseille","lat":43.30141,"lon":5.38116,"is_reserved":false,"is_disabled":false,"rental_uris":{"android":"levelo://app?vid=748ce7be-303b-4e02-8a76-47e344a3d081","ios":"levelo://app?vid=748ce7be-303b-4e02-8a76-47e344a3d081"},"vehicle_type_id":"4","last_reported":1744809683,"current_range_meters":25200,"station_id":"ce4bgjp2rcd13ifvqbh0","pricing_plan_id":"cebpf4jnsgd1na2vs0mg"},{"bike_id":"b0487ad7-b525-4c48-a103-705afe5b3c0f","system_id":"levelo_inurba_marseille","lat":43.30155,"lon":5.38092,"is_reserved":false,"is_disabled":false,"rental_uris":{"android":"levelo://app?vid=b0487ad7-b525-4c48-a103-705afe5b3c0f","ios":"levelo://app?vid=b0487ad7-b525-4c48-a103-705afe5b3c0f"},"vehicle_type_id":"4","last_reported":1744809683,"current_range_meters":25200,"station_id":"ce4bgjp2rcd13ifvqbh0","pricing_plan_id":"cebpf4jnsgd1na2vs0mg"},{"bike_id":"f60e1d05-4eed-4231-b9ad-7e0ab6eed0ed","system_id":"levelo_inurba_marseille","lat":43.30785,"lon":5.38154,"is_reserved":false,"is_disabled":false,"rental_uris":{"android":"levelo://app?vid=f60e1d05-4eed-4231-b9ad-7e0ab6eed0ed","ios":"levelo://app?vid=f60e1d05-4eed-4231-b9ad-7e0ab6eed0ed"},"vehicle_type_id":"4","last_reported":1744809683,"current_range_meters":24800,"station_id":"ce4bgt12rcd13ifvqce0","pricing_plan_id":"cebpf4jnsgd1na2vs0mg"},{"bike_id":"ae5433ba-42ca-4b31-bb65-b1cb5613431f","system_id":"levelo_inurba_marseille","lat":43.30552,"lon":5.36509,"is_reserved":false,"is_disabled":false,"rental_uris":{"android":"levelo://app?vid=ae5433ba-42ca-4b31-bb65-b1cb5613431f","ios":"levelo://app?vid=ae5433ba-42ca-4b31-bb65-b1cb5613431f"},"vehicle_type_id":"4","last_reported":1744809683,"current_range_meters":25200,"station_id":"ce4bgs12rcd13ifvqcag","pricing_plan_id":"cebpf4jnsgd1na2vs0mg"},{"bike_id":"6ecdc43d-457e-418c-b171-4865ef2a9b75","system_id":"levelo_inurba_marseille","lat":43.29538,"lon":5.39028,"is_reserved":false,"is_disabled":false,"rental_uris":{"android":"levelo://app?vid=6ecdc43d-457e-418c-b171-4865ef2a9b75","ios":"levelo://app?vid=6ecdc43d-457e-418c-b171-4865ef2a9b75"},"vehicle_type_id":"4","last_reported":1744809683,"current_range_meters":25200,"station_id":"ce4bh3p2rcd13ifvqdp0","pricing_plan_id":"cebpf4jnsgd1na2vs0mg"},{"bike_id":"d240c5c7-d336-49ca-a35b-6edc4c737b17","system_id":"levelo_inurba_marseille","lat":43.2862,"lon":5.35102,"is_reserved":false,"is_disabled":false,"rental_uris":{"android":"levelo://app?vid=d240c5c7-d336-49ca-a35b-6edc4c737b17","ios":"levelo://app?vid=d240c5c7-d336-49ca-a35b-6edc4c737b17"},"vehicle_type_id":"4","last_reported":1744809683,"current_range_meters":25200,"station_id":"ce4bhch2rcd13ifvqeug","pricing_plan_id":"cebpf4jnsgd1na2vs0mg"},{"bike_id":"7bed040b-9d65-4254-ae2c-e2a18b358087","system_id":"levelo_inurba_marseille","lat":43.26212,"lon":5.37418,"is_reserved":false,"is_disabled":false,"rental_uris":{"android":"levelo://app?vid=7bed040b-9d65-4254-ae2c-e2a18b358087","ios":"levelo://app?vid=7bed040b-9d65-4254-ae2c-e2a18b358087"},"vehicle_type_id":"4","last_reported":1744809683,"current_range_meters":25600,"station_id":"ce4bhgp2rcd13ifvqfc0","pricing_plan_id":"cebpf4jnsgd1na2vs0mg"},{"bike_id":"3c9b2525-0ba5-462f-bbcb-3e391ef7072a","system_id":"levelo_inurba_marseille","lat":43.29933,"lon":5.37464,"is_reserved":false,"is_disabled":false,"rental_uris":{"android":"levelo://app?vid=3c9b2525-0ba5-462f-bbcb-3e391ef7072a","ios":"levelo://app?vid=3c9b2525-0ba5-462f-bbcb-3e391ef7072a"},"vehicle_type_id":"4","last_reported":1744809683,"current_range_meters":25600,"station_id":"ce4bgjh2rcd13ifvqbg0","pricing_plan_id":"cebpf4jnsgd1na2vs0mg"},{"bike_id":"c292ce06-3065-4f08-89c5-72ba03ee342f","system_id":"levelo_inurba_marseille","lat":43.27426,"lon":5.39404,"is_reserved":false,"is_disabled":false,"rental_uris":{"android":"levelo://app?vid=c292ce06-3065-4f08-89c5-72ba03ee342f","ios":"levelo://app?vid=c292ce06-3065-4f08-89c5-72ba03ee342f"},"vehicle_type_id":"4","last_reported":1744809683,"current_range_meters":25600,"station_id":"ce4bhdp2rcd13ifvqf20","pricing_plan_id":"cebpf4jnsgd1na2vs0mg"},{"bike_id":"3581a557-df5b-4025-b229-61257f8d5f16","system_id":"levelo_inurba_marseille","lat":43.30115,"lon":5.39875,"is_reserved":false,"is_disabled":false,"rental_uris":{"android":"levelo://app?vid=3581a557-df5b-4025-b229-61257f8d5f16","ios":"levelo://app?vid=3581a557-df5b-4025-b229-61257f8d5f16"},"vehicle_type_id":"4","last_reported":1744809683,"current_range_meters":25200,"station_id":"ce4bh0h2rcd13ifvqd40","pricing_plan_id":"cebpf4jnsgd1na2vs0mg"},{"bike_id":"4f7bc508-0505-44fd-ba44-fccc64589167","system_id":"levelo_inurba_marseille","lat":43.24179,"lon":5.39713,"is_reserved":false,"is_disabled":false,"rental_uris":{"android":"levelo://app?vid=4f7bc508-0505-44fd-ba44-fccc64589167","ios":"levelo://app?vid=4f7bc508-0505-44fd-ba44-fccc64589167"},"vehicle_type_id":"4","last_reported":1744809683,"current_range_meters":25600,"station_id":"ce4bhn12rcd13ifvqgpg","pricing_plan_id":"cebpf4jnsgd1na2vs0mg"},{"bike_id":"0a0f370f-fdd7-4e06-ad19-0aa0e844850f","system_id":"levelo_inurba_marseille","lat":43.27918,"lon":5.39573,"is_reserved":false,"is_disabled":false,"rental_uris":{"android":"levelo://app?vid=0a0f370f-fdd7-4e06-ad19-0aa0e844850f","ios":"levelo://app?vid=0a0f370f-fdd7-4e06-ad19-0aa0e844850f"},"vehicle_type_id":"4","last_reported":1744809683,"current_range_meters":25600,"station_id":"ce4bhf92rcd13ifvqf40","pricing_plan_id":"cebpf4jnsgd1na2vs0mg"},{"bike_id":"39cdcda5-1688-4ef8-a8ba-562ba29d65b6","system_id":"levelo_inurba_marseille","lat":43.2791,"lon":5.39581,"is_reserved":false,"is_disabled":false,"rental_uris":{"android":"levelo://app?vid=39cdcda5-1688-4ef8-a8ba-562ba29d65b6","ios":"levelo://app?vid=39cdcda5-1688-4ef8-a8ba-562ba29d65b6"},"vehicle_type_id":"4","last_reported":1744809683,"current_range_meters":25600,"station_id":"ce4bhf92rcd13ifvqf40","pricing_plan_id":"cebpf4jnsgd1na2vs0mg"},