{"last_updated":1773654795,"ttl":60,"version":"2.2","data":{"bikes":[{"bike_id":"92f3491f-c110-409f-a1bd-f0b80f29baf7","system_id":"levelo_inurba_marseille","lat":43.30545,"lon":5.384316,"is_reserved":false,"is_disabled":false,"rental_uris":{"android":"levelo://app?vid=92f3491f-c110-409f-a1bd-f0b80f29baf7","ios":"levelo://app?vid=92f3491f-c110-409f-a1bd-f0b80f29baf7"},"vehicle_type_id":"4","last_reported":1773654795,"current_range_meters":27600,"station_id":"ce4bgg92rcd13ifvqb30","pricing_plan_id":"cebpf4jnsgd1na2vs0mg"},{"bike_id":"f18077e7-a01f-4bdc-8d1a-e93985fb7e36","system_id":"levelo_inurba_marseille","lat":43.30311,"lon":5.36906,"is_reserved":false,"is_disabled":false,"rental_uris":{"android":"levelo://app?vid=f18077e7-a01f-4bdc-8d1a-e93985fb7e36","ios":"levelo://app?vid=f18077e7-a01f-4bdc-8d1a-e93985fb7e36"},"vehicle_type_id":"4","last_reported":1773654795,"current_range_meters":39200,"station_id":"ce4bgqh2rcd13ifvqc5g","pricing_plan_id":"cebpf4jnsgd1na2vs0mg"},{"bike_id":"3b2bdc32-9d02-4e50-90eb-b900d9d29264","system_id":"levelo_inurba_marseille","lat":43.30951,"lon":5.39049,"is_reserved":false,"is_disabled":false,"rental_uris":{"android":"levelo://app?vid=3b2bdc32-9d02-4e50-90eb-b900d9d29264","ios":"levelo://app?vid=3b2bdc32-9d02-4e50-90eb-b900d9d29264"},"vehicle_type_id":"4","last_reported":1773654795,"current_range_meters":18800,"station_id":"ce4bgup2rcd13ifvqco0","pricing_plan_id":"cebpf4jnsgd1na2vs0mg"},{"bike_id":"a4ca7329-3ac2-44ac-9c8b-c3829e8c8f46","system_id":"levelo_inurba_marseille","lat":43.27384,"lon":5.36236,"is_reserved":false,"is_disabled":true,"rental_uris":{"android":"levelo://app?vid=a4ca7329-3ac2-44ac-9c8b-c3829e8c8f46","ios":"levelo://app?vid=a4ca7329-3ac2-44ac-9c8b-c3829e8c8f46"},"vehicle_type_id":"4","last_reported":1773654795,"current_range_meters":31200,"station_id":"ce4bhbh2rcd13ifvqeo0","pricing_plan_id":"cebpf4jnsgd1na2vs0mg"},{"bike_id":"262fc779-5499-41b9-b1a0-e5728b5cb059","system_id":"levelo_inurba_marseille","lat":43.284412,"lon":5.375429,"is_reserved":false,"is_disabled":true,"rental_uris":{"android":"levelo://app?vid=262fc779-5499-41b9-b1a0-e5728b5cb059","ios":"levelo://app?vid=262fc779-5499-41b9-b1a0-e5728b5cb059"},"vehicle_type_id":"4","last_reported":1773654795,"current_range_meters":3200,"station_id":"ce4bgkh2rcd13ifvqbk0","pricing_plan_id":"cebpf4jnsgd1na2vs0mg"},{"bike_id":"d55a3828-aea9-4f87-9209-2eba44a51d90","system_id":"levelo_inurba_marseille","lat":43.30133,"lon":5.38772,"is_reserved":false,"is_disabled":false,"rental_uris":{"android":"levelo://app?vid=d55a3828-aea9-4f87-9209-2eba44a51d90","ios":"levelo://app?vid=d55a3828-aea9-4f87-9209-2eba44a51d90"},"vehicle_type_id":"4","last_reported":1773654795,"current_range_meters":7200,"station_id":"ce4bghh2rcd13ifvqb60","pricing_plan_id":"cebpf4jnsgd1na2vs0mg"},{"bike_id":"0ae745ab-afb8-4357-87b5-3deaa4ba80bf","system_id":"levelo_inurba_marseille","lat":43.25716,"lon":5.41088,"is_reserved":false,"is_disabled":false,"rental_uris":{"android":"levelo://app?vid=0ae745ab-afb8-4357-87b5-3deaa4ba80bf","ios":"levelo://app?vid=0ae745ab-afb8-4357-87b5-3deaa4ba80bf"},"vehicle_type_id":"4","last_reported":1773654795,"current_range_meters":28400,"station_id":"ce4bhkp2rcd13ifvqgd0","pricing_plan_id":"cebpf4jnsgd1na2vs0mg"},{"bike_id":"7ea6be57-26f9-4545-a645-092474974232","system_id":"levelo_inurba_marseille","lat":43.24652,"lon":5.38891,"is_reserved":false,"is_disabled":false,"rental_uris":{"android":"levelo://app?vid=7ea6be57-26f9-4545-a645-092474974232","ios":"levelo://app?vid=7ea6be57-26f9-4545-a645-092474974232"},"vehicle_type_id":"4","last_reported":1773654795,"current_range_meters":38000,"station_id":"ce4bhg12rcd13ifvqf60","pricing_plan_id":"cebpf4jnsgd1na2vs0mg"},{"bike_id":"0af203fb-c1fe-4f43-a9a2-b6b372ffe20c","system_id":"levelo_inurba_marseille","lat":43.28474,"lon":5.48393,"is_reserved":false,"is_disabled":false,"rental_uris":{"android":"levelo://app?vid=0af203fb-c1fe-4f43-a9a2-b6b372ffe20c","ios":"levelo://app?vid=0af203fb-c1fe-4f43-a9a2-b6b372ffe20c"},"vehicle_type_id":"4","last_reported":1773654795,"current_range_meters":19200,"station_id":"","pricing_plan_id":"cebpf4jnsgd1na2vs0mg"},{"bike_id":"0ecd47cf-a7b9-4223-8093-c6087cb3bd4a","system_id":"levelo_inurba_marseille","lat":43.28414,"lon":5.34961,"is_reserved":false,"is_disabled":false,"rental_uris":{"android":"levelo://app?vid=0ecd47cf-a7b9-4223-8093-c6087cb3bd4a","ios":"levelo://app?vid=0ecd47cf-a7b9-4223-8093-c6087cb3bd4a"},"vehicle_type_id":"4","last_reported":1773654795,"current_range_meters":21600,"station_id":"ce4bhbh2rcd13ifvqepg","pricing_plan_id":"cebpf4jnsgd1na2vs0mg"},{"bike_id":"319b1581-475f-4797-be0a-0bd4a5861756","system_id":"levelo_inurba_marseille","lat":43.31376,"lon":5.3666,"is_reserved":false,"is_disabled":false,"rental_uris":{"android":"levelo://app?vid=319b1581-475f-4797-be0a-0bd4a5861756","ios":"levelo://app?vid=319b1581-475f-4797-be0a-0bd4a5861756"},"vehicle_type_id":"4","last_reported":1773654795,"current_range_meters":34000,"station_id":"","pricing_plan_id":"cebpf4jnsgd1na2vs0mg"},{"bike_id":"e4cf0b84-eff9-4db0-a015-7cb21f6dc8b2","system_id":"levelo_inurba_marseille","lat":43.25843,"lon":5.39425,"is_reserved":false,"is_disabled":false,"rental_uris":{"android":"levelo://app?vid=e4cf0b84-eff9-4db0-a015-7cb21f6dc8b2","ios":"levelo://app?vid=e4cf0b84-eff9-4db0-a015-7cb21f6dc8b2"},"vehicle_type_id":"4","last_reported":1773654795,"current_range_meters":7200,"station_id":"ce4bhip2rcd13ifvqft0","pricing_plan_id":"cebpf4jnsgd1na2vs0mg"},{"bike_id":"ee3a78bd-9b7f-41d0-9f1d-2dcc5ec6f6cf","system_id":"levelo_inurba_marseille","lat":43.27307,"lon":5.39084,"is_reserved":false,"is_disabled":false,"rental_uris":{"android":"levelo://app?vid=ee3a78bd-9b7f-41d0-9f1d-2dcc5ec6f6cf","ios":"levelo://app?vid=ee3a78bd-9b7f-41d0-9f1d-2dcc5ec6f6cf"},"vehicle_type_id":"4","last_reported":1773654795,"current_range_meters":38800,"station_id":"ce4bhgp2rcd13ifvqfe0","pricing_plan_id":"cebpf4jnsgd1na2vs0mg"},{"bike_id":"e06b6f91-93be-4271-a893-ca5b609ebf7f","system_id":"levelo_inurba_marseille","lat":43.30541,"lon":5.36537,"is_reserved":false,"is_disabled":false,"rental_uris":{"android":"levelo://app?vid=e06b6f91-93be-4271-a893-ca5b609ebf7f","ios":"levelo://app?vid=e06b6f91-93be-4271-a893-ca5b609ebf7f"},"vehicle_type_id":"4","last_reported":1773654795,"current_range_meters":20400,"station_id":"ce4bgs12rcd13ifvqcag","pricing_plan_id":"cebpf4jnsgd1na2vs0mg"},{"bike_id":"28a8752b-e59a-4b10-b32f-45f3a0be1d2f","system_id":"levelo_inurba_marseille","lat":43.32785,"lon":5.35961,"is_reserved":false,"is_disabled":false,"rental_uris":{"android":"levelo://app?vid=28a8752b-e59a-4b10-b32f-45f3a0be1d2f","ios":"levelo://app?vid=28a8752b-e59a-4b10-b32f-45f3a0be1d2f"},"vehicle_type_id":"4","last_reported":1773654795,"current_range_meters":17200,"station_id":"","pricing_plan_id":"cebpf4jnsgd1na2vs0mg"},{"bike_id":"7e113368-8b43-4dc9-a7d3-1b200ce7f912","system_id":"levelo_inurba_marseille","lat":43.27091,"lon":5.38308,"is_reserved":false,"is_disabled":false,"rental_uris":{"android":"levelo://app?vid=7e113368-8b43-4dc9-a7d3-1b200ce7f912","ios":"levelo://app?vid=7e113368-8b43-4dc9-a7d3-1b200ce7f912"},"vehicle_type_id":"4","last_reported":1773654795,"current_range_meters":28800,"station_id":"st_d3n2fo6cfp8s73cte1j0","pricing_plan_id":"cebpf4jnsgd1na2vs0mg"},{"bike_id":"ff630ac9-3879-47ac-9e5a-425f1a8a4498","system_id":"levelo_inurba_marseille","lat":43.30182,"lon":5.36591,"is_reserved":false,"is_disabled":false,"rental_uris":{"android":"levelo://app?vid=ff630ac9-3879-47ac-9e5a-425f1a8a4498","ios":"levelo://app?vid=ff630ac9-3879-47ac-9e5a-425f1a8a4498"},"vehicle_type_id":"4","last_reported":1773654795,"current_range_meters":37600,"station_id":"ce4bgrh2rcd13ifvqc8g","pricing_plan_id":"cebpf4jnsgd1na2vs0mg"},{"bike_id":"ee0cf3c9-e978-4094-86ec-91b1d823e957","system_id":"levelo_inurba_marseille","lat":43.30534,"lon":5.36551,"is_reserved":false,"is_disabled":false,"rental_uris":{"android":"levelo://app?vid=ee0cf3c9-e978-4094-86ec-91b1d823e957","ios":"levelo://app?vid=ee0cf3c9-e978-4094-86ec-91b1d823e957"},"vehicle_type_id":"4","last_reported":1773654795,"current_range_meters":30800,"station_id":"ce4bgs12rcd13ifvqcag","pricing_plan_id":"cebpf4jnsgd1na2vs0mg"},{"bike_id":"6d2a69d8-d20f-4ec0-be72-54a9cb146081","system_id":"levelo_inurba_marseille","lat":43.302126,"lon":5.394624,"is_reserved":false,"is_disabled":true,"rental_uris":{"android":"levelo://app?vid=6d2a69d8-d20f-4ec0-be72-54a9cb146081","ios":"levelo://app?vid=6d2a69d8-d20f-4ec0-be72-54a9cb146081"},"vehicle_type_id":"4","last_reported":1773654795,"current_range_meters":27600,"station_id":"ce4bh0p2rcd13ifvqd70","pricing_plan_id":"cebpf4jnsgd1na2vs0mg"},{"bike_id":"19abd266-dbc3-445e-b45a-6ed02e732436","system_id":"levelo_inurba_marseille","lat":43.30411,"lon":5.4131,"is_reserved":false,"is_disabled":false,"rental_uris":{"android":"levelo://app?vid=19abd266-dbc3-445e-b45a-6ed02e732436","ios":"levelo://app?vid=19abd266-dbc3-445e-b45a-6ed02e732436"},"vehicle_type_id":"4","last_reported":1773654795,"current_range_meters":26800,"station_id":"ce4bhop2rcd13ifvqh8g","pricing_plan_id":"cebpf4jnsgd1na2vs0mg"},{"bike_id":"5675330b-5acd-460a-bae0-c1ffc6a920ff","system_id":"levelo_inurba_marseille","lat":43.33743,"lon":5.37466,"is_reserved":false,"is_disabled":false,"rental_uris":{"android":"levelo://app?vid=5675330b-5acd-460a-bae0-c1ffc6a920ff","ios":"levelo://app?vid=5675330b-5acd-460a-bae0-c1ffc6a920ff"},"vehicle_type_id":"4","last_reported":1773654795,"current_range_meters":22000,"station_id":"","pricing_plan_id":"cebpf4jnsgd1na2vs0mg"},{"bike_id":"8fc40567-b791-4317-b952-acc2abec6d07","system_id":"levelo_inurba_marseille","lat":43.27538,"lon":5.4253,"is_reserved":false,"is_disabled":false,"rental_uris":{"android":"levelo://app?vid=8fc40567-b791-4317-b952-acc2abec6d07","ios":"levelo://app?vid=8fc40567-b791-4317-b952-acc2abec6d07"},"vehicle_type_id":"4","last_reported":1773654795,"current_range_meters":14800,"station_id":"","pricing_plan_id":"cebpf4jnsgd1na2vs0mg"},{"bike_id":"772463ed-7cb1-4997-b1e8-cc819038b901","system_id":"levelo_inurba_marseille","lat":43.30162,"lon":5.38098,"is_reserved":false,"is_disabled":false,"rental_uris":{"android":"levelo://app?vid=772463ed-7cb1-4997-b1e8-cc819038b901","ios":"levelo://app?vid=772463ed-7cb1-4997-b1e8-cc819038b901"},"vehicle_type_id":"4","last_reported":1773654795,"current_range_meters":35600,"station_id":"ce4bgjp2rcd13ifvqbh0","pricing_plan_id":"cebpf4jnsgd1na2vs0mg"},{"bike_id":"7ad27f40-d3be-4dad-b3fa-bbd204962e97","system_id":"levelo_inurba_marseille","lat":43.29268,"lon":5.38427,"is_reserved":false,"is_disabled":false,"rental_uris":{"android":"levelo://app?vid=7ad27f40-d3be-4dad-b3fa-bbd204962e97","ios":"levelo://app?vid=7ad27f40-d3be-4dad-b3fa-bbd204962e97"},"vehicle_type_id":"4","last_reported":1773654795,"current_range_meters":14400,"station_id":"ce4bh692rcd13ifvqea0","pricing_plan_id":"cebpf4jnsgd1na2vs0mg"},{"bike_id":"8acdbfcd-8604-4639-b956-e17d0d7838e3","system_id":"levelo_inurba_marseille","lat":43.27182,"lon":5.40984,"is_reserved":false,"is_disabled":false,"rental_uris":{"android":"levelo://app?vid=8acdbfcd-8604-4639-b956-e17d0d7838e3","ios":"levelo://app?vid=8acdbfcd-8604-4639-b956-e17d0d7838e3"},"vehicle_type_id":"4","last_reported":1773654795,"current_range_meters":39200,"station_id":"ce4bhl12rcd13ifvqgf0","pricing_plan_id":"cebpf4jnsgd1na2vs0mg"},{"bike_id":"e9246b18-4607-48e7-b174-46b7b76833d4","system_id":"levelo_inurba_marseille","lat":43.292786,"lon":5.401178,"is_reserved":false,"is_disabled":true,"rental_uris":{"android":"levelo://app?vid=e9246b18-4607-48e7-b174-46b7b76833d4","ios":"levelo://app?vid=e9246b18-4607-48e7-b174-46b7b76833d4"},"vehicle_type_id":"4","last_reported":1773654795,"current_range_meters":20400,"station_id":"ce4bh312rcd13ifvqdk0","pricing_plan_id":"cebpf4jnsgd1na2vs0mg"},{"bike_id":"4a8d7a43-5dbb-42a2-b5ca-8c6627ac6666","system_id":"levelo_inurba_marseille","lat":43.30207,"lon":5.36703,"is_reserved":false,"is_disabled":false,"rental_uris":{"android":"levelo://app?vid=4a8d7a43-5dbb-42a2-b5ca-8c6627ac6666","ios":"levelo://app?vid=4a8d7a43-5dbb-42a2-b5ca-8c6627ac6666"},"vehicle_type_id":"4","last_reported":1773654795,"current_range_meters":40000,"station_id":"ce4bgrh2rcd13ifvqc8g","pricing_plan_id":"cebpf4jnsgd1na2vs0mg"},{"bike_id":"518f2a62-8f35-4c0f-98cd-48f3892470ad","system_id":"levelo_inurba_marseille","lat":43.29603,"lon":5.37684,"is_reserved":false,"is_disabled":false,"rental_uris":{"android":"levelo://app?vid=518f2a62-8f35-4c0f-98cd-48f3892470ad","ios":"levelo://app?vid=518f2a62-8f35-4c0f-98cd-48f3892470ad"},"vehicle_type_id":"4","last_reported":1773654795,"current_range_meters":33600,"station_id":"ce4bgi92rcd13ifvqb90","pricing_plan_id":"cebpf4jnsgd1na2vs0mg"},{"bike_id":"5296aef9-3e8d-4c7d-b712-00f2c790aeaf","system_id":"levelo_inurba_marseille","lat":43.29077,"lon":5.37241,"is_reserved":false,"is_disabled":false,"rental_uris":{"android":"levelo://app?vid=5296aef9-3e8d-4c7d-b712-00f2c790aeaf","ios":"levelo://app?vid=5296aef9-3e8d-4c7d-b712-00f2c790aeaf"},"vehicle_type_id":"4","last_reported":1773654795,"current_range_meters":24000,"station_id":"","pricing_plan_id":"cebpf4jnsgd1na2vs0mg"},{"bike_id":"7d5b997f-5115-45cd-8ced-c8507a994f25","system_id":"levelo_inurba_marseille","lat":43.30192,"lon":5.36619,"is_reserved":false,"is_disabled":false,"rental_uris":{"android":"levelo://app?vid=7d5b997f-5115-45cd-8ced-c8507a994f25","ios":"levelo://app?vid=7d5b997f-5115-45cd-8ced-c8507a994f25"},"vehicle_type_id":"4","last_reported":1773654795,"current_range_meters":22000,"station_id":"ce4bgrh2rcd13ifvqc8g","pricing_plan_id":"cebpf4jnsgd1na2vs0mg"},{"bike_id":"3d31c737-ae93-44f8-9419-6651a907c080","system_id":"levelo_inurba_marseille","lat":43.23953,"lon":5.36652,"is_reserved":false,"is_disabled":false,"rental_uris":{"android":"levelo://app?vid=3d31c737-ae93-44f8-9419-6651a907c080","ios":"levelo://app?vid=3d31c737-ae93-44f8-9419-6651a907c080"},"vehicle_type_id":"4","last_reported":1773654795,"current_range_meters":17200,"station_id":"ce4bhi12rcd13ifvqfp0","pricing_plan_id":"cebpf4jnsgd1na2vs0mg"},{"bike_id":"0e4481fe-0470-4c7f-a25a-91fa3a5fcbcc","system_id":"levelo_inurba_marseille","lat":43.28118,"lon":5.37843,"is_reserved":false,"is_disabled":false,"rental_uris":{"android":"levelo://app?vid=0e4481fe-0470-4c7f-a25a-91fa3a5fcbcc","ios":"levelo://app?vid=0e4481fe-0470-4c7f-a25a-91fa3a5fcbcc"},"vehicle_type_id":"4","last_reported":1773654795,"current_range_meters":25200,"station_id":"ce4bha12rcd13ifvqee0","pricing_plan_id":"cebpf4jnsgd1na2vs0mg"},{"bike_id":"bf35deae-c02e-4382-b944-c4bbe450d63e","system_id":"levelo_inurba_marseille","lat":43.26686,"lon":5.38266,"is_reserved":false,"is_disabled":false,"rental_uris":{"android":"levelo://app?vid=bf35deae-c02e-4382-b944-c4bbe450d63e","ios":"levelo://app?vid=bf35deae-c02e-4382-b944-c4bbe450d63e"},"vehicle_type_id":"4","last_reported":1773654795,"current_range_meters":40000,"station_id":"ce4bhg92rcd13ifvqf90","pricing_plan_id":"cebpf4jnsgd1na2vs0mg"},{"bike_id":"dde154cb-ca64-42e5-8030-61b3e61d8774","system_id":"levelo_inurba_marseille","lat":43.2951,"lon":5.37437,"is_reserved":false,"is_disabled":false,"rental_uris":{"android":"levelo://app?vid=dde154cb-ca64-42e5-8030-61b3e61d8774","ios":"levelo://app?vid=dde154cb-ca64-42e5-8030-61b3e61d8774"},"vehicle_type_id":"4","last_reported":1773654795,"current_range_meters":38400,"station_id":"ce4bgkp2rcd13ifvqbmg","pricing_plan_id":"cebpf4jnsgd1na2vs0mg"},{"bike_id":"9d21bae3-6b88-4720-9012-b71962781d5d","system_id":"levelo_inurba_marseille","lat":43.25877,"lon":5.39924,"is_reserved":false,"is_disabled":true,"rental_uris":{"android":"levelo://app?vid=9d21bae3-6b88-4720-9012-b71962781d5d","ios":"levelo://app?vid=9d21bae3-6b88-4720-9012-b71962781d5d"},"vehicle_type_id":"4","last_reported":1773654795,"current_range_meters":39200,"station_id":"ce4bhl92rcd13ifvqghg","pricing_plan_id":"cebpf4jnsgd1na2vs0mg"},{"bike_id":"c5f68eaa-d3dc-425f-a69c-13a6f9f5140a","system_id":"levelo_inurba_marseille","lat":43.32546,"lon":5.41441,"is_reserved":false,"is_disabled":false,"rental_uris":{"android":"levelo://app?vid=c5f68eaa-d3dc-425f-a69c-13a6f9f5140a","ios":"levelo://app?vid=c5f68eaa-d3dc-425f-a69c-13a6f9f5140a"},"vehicle_type_id":"4","last_reported":1773654795,"current_range_meters":36800,"station_id":"ce4bhq12rcd13ifvqhhg","pricing_plan_id":"cebpf4jnsgd1na2vs0mg"},{"bike_id":"933a2485-1198-4e3d-a3be-1c25ad5c0c97","system_id":"levelo_inurba_marseille","lat":43.25916,"lon":5.40888,"is_reserved":false,"is_disabled":false,"rental_uris":{"android":"levelo://app?vid=933a2485-1198-4e3d-a3be-1c25ad5c0c97","ios":"levelo://app?vid=933a2485-1198-4e3d-a3be-1c25ad5c0c97"},"vehicle_type_id":"4","last_reported":1773654795,"current_range_meters":5600,"station_id":"ce4bhm92rcd13ifvqglg","pricing_plan_id":"cebpf4jnsgd1na2vs0mg"},{"bike_id":"b278ad17-e09c-46d1-95da-e7299e72a641","system_id":"levelo_inurba_marseille","lat":43.22566,"lon":5.41635,"is_reserved":false,"is_disabled":false,"rental_uris":{"android":"levelo://app?vid=b278ad17-e09c-46d1-95da-e7299e72a641","ios":"levelo://app?vid=b278ad17-e09c-46d1-95da-e7299e72a641"},"vehicle_type_id":"4","last_reported":1773654795,"current_range_meters":31200,"station_id":"st_d2o4gvlbi1j2169b742g","pricing_plan_id":"cebpf4jnsgd1na2vs0mg"},{"bike_id":"7e55300e-c6ce-4cea-b352-04866308b200","system_id":"levelo_inurba_marseille","lat":43.2962,"lon":5.42176,"is_reserved":false,"is_disabled":false,"rental_uris":{"android":"levelo://app?vid=7e55300e-c6ce-4cea-b352-04866308b200","ios":"levelo://app?vid=7e55300e-c6ce-4cea-b352-04866308b200"},"vehicle_type_id":"4","last_reported":1773654795,"current_range_meters":20400,"station_id":"","pricing_plan_id":"cebpf4jnsgd1na2vs0mg"},{"bike_id":"b873da24-1045-4d09-b91f-3e423eac7b45","system_id":"levelo_inurba_marseille","lat":43.33194,"lon":5.37689,"is_reserved":false,"is_disabled":false,"rental_uris":{"android":"levelo://app?vid=b873da24-1045-4d09-b91f-3e423eac7b45","ios":"levelo://app?vid=b873da24-1045-4d09-b91f-3e423eac7b45"},"vehicle_type_id":"4","last_reported":1773654795,"current_range_meters":5600,"station_id":"st_d46cu089ee8s73dldbu0","pricing_plan_id":"cebpf4jnsgd1na2vs0mg"},{"bike_id":"54f965b4-98fe-41df-a421-e7a9058d140b","system_id":"levelo_inurba_marseille","lat":43.30569,"lon":5.36558,"is_reserved":false,"is_disabled":false,"rental_uris":{"android":"levelo://app?vid=54f965b4-98fe-41df-a421-e7a9058d140b","ios":"levelo://app?vid=54f965b4-98fe-41df-a421-e7a9058d140b"},"vehicle_type_id":"4","last_reported":1773654795,"current_range_meters":8800,"station_id":"ce4bgs12rcd13ifvqcag","pricing_plan_id":"cebpf4jnsgd1na2vs0mg"},{"bike_id":"6451d17f-d1b7-49ca-bcb9-e39c1e229018","system_id":"levelo_inurba_marseille","lat":43.2842,"lon":5.35005,"is_reserved":false,"is_disabled":false,"rental_uris":{"android":"levelo://app?vid=6451d17f-d1b7-49ca-bcb9-e39c1e229018","ios":"levelo://app?vid=6451d17f-d1b7-49ca-bcb9-e39c1e229018"},"vehicle_type_id":"4","last_reported":1773654795,"current_range_meters":39200,"station_id":"ce4bhbh2rcd13ifvqepg","pricing_plan_id":"cebpf4jnsgd1na2vs0mg"},{"bike_id":"28c9c9bb-a40d-4b63-a12b-d6e8281724a0","system_id":"levelo_inurba_marseille","lat":43.27681,"lon":5.38895,"is_reserved":false,"is_disabled":false,"rental_uris":{"android":"levelo://app?vid=28c9c9bb-a40d-4b63-a12b-d6e8281724a0","ios":"levelo://app?vid=28c9c9bb-a40d-4b63-a12b-d6e8281724a0"},"vehicle_type_id":"4","last_reported":1773654795,"current_range_meters":7200,"station_id":"ce4bhi12rcd13ifvqfo0","pricing_plan_id":"cebpf4jnsgd1na2vs0mg"},{"bike_id":"a19df20f-9231-402c-af4b-243a8eb73680","system_id":"levelo_inurba_marseille","lat":43.33178,"lon":5.37698,"is_reserved":false,"is_disabled":false,"rental_uris":{"android":"levelo://app?vid=a19df20f-9231-402c-af4b-243a8eb73680","ios":"levelo://app?vid=a19df20f-9231-402c-af4b-243a8eb73680"},"vehicle_type_id":"4","last_reported":1773654795,"current_range_meters":39200,"station_id":"st_d46cu089ee8s73dldbu0","pricing_plan_id":"cebpf4jnsgd1na2vs0mg"},{"bike_id":"88ac2cc8-fe8a-496f-b23a-95d2c31b57da","system_id":"levelo_inurba_marseille","lat":43.30088,"lon":5.37423,"is_reserved":false,"is_disabled":false,"rental_uris":{"android":"levelo://app?vid=88ac2cc8-fe8a-496f-b23a-95d2c31b57da","ios":"levelo://app?vid=88ac2cc8-fe8a-496f-b23a-95d2c31b57da"},"vehicle_type_id":"4","last_reported":1773654795,"current_range_meters":38400,"station_id":"","pricing_plan_id":"cebpf4jnsgd1na2vs0mg"},{"bike_id":"b992d013-31c6-40e6-b76c-ffb49d136524","system_id":"levelo_inurba_marseille","lat":43.32366,"lon":5.38872,"is_reserved":false,"is_disabled":false,"rental_uris":{"android":"levelo://app?vid=b992d013-31c6-40e6-b76c-ffb49d136524","ios":"levelo://app?vid=b992d013-31c6-40e6-b76c-ffb49d136524"},"vehicle_type_id":"4","last_reported":1773654795,"current_range_meters":38400,"station_id":"ce4bhqp2rcd13ifvqhog","pricing_plan_id":"cebpf4jnsgd1na2vs0mg"},{"bike_id":"6ac2841e-8bc8-45a6-bf30-51d81eb94a22","system_id":"levelo_inurba_marseille","lat":43.2826,"lon":5.35093,"is_reserved":false,"is_disabled":false,"rental_uris":{"android":"levelo://app?vid=6ac2841e-8bc8-45a6-bf30-51d81eb94a22","ios":"levelo://app?vid=6ac2841e-8bc8-45a6-bf30-51d81eb94a22"},"vehicle_type_id":"4","last_reported":1773654795,"current_range_meters":28000,"station_id":"ce4bhbp2rcd13ifvqerg","pricing_plan_id":"cebpf4jnsgd1na2vs0mg"},{"bike_id":"cab3f41b-7bc8-4e09-baa0-b80b41a112e3","system_id":"levelo_inurba_marseille","lat":43.30799,"lon":5.37649,"is_reserved":false,"is_disabled":false,"rental_uris":{"android":"levelo://app?vid=cab3f41b-7bc8-4e09-baa0-b80b41a112e3","ios":"levelo://app?vid=cab3f41b-7bc8-4e09-baa0-b80b41a112e3"},"vehicle_type_id":"4","last_reported":1773654795,"current_range_meters":32800,"station_id":"ce4bgv92rcd13ifvqcq0","pricing_plan_id":"cebpf4jnsgd1na2vs0mg"},{"bike_id":"77216a7f-364c-4873-bc97-ce369405114b","system_id":"levelo_inurba_marseille","lat":43.30118,"lon":5.43112,"is_reserved":false,"is_disabled":false,"rental_uris":{"android":"levelo://app?vid=77216a7f-364c-4873-bc97-ce369405114b","ios":"levelo://app?vid=77216a7f-364c-4873-bc97-ce369405114b"},"vehicle_type_id":"4","last_reported":1773654795,"current_range_meters":4000,"station_id":"st_d3js3co5814s73ftftug","pricing_plan_id":"cebpf4jnsgd1na2vs0mg"},{"bike_id":"6a4f4a2a-66e3-4916-8695-45549b884152","system_id":"levelo_inurba_marseille","lat":43.23964,"lon":5.36641,"is_reserved":false,"is_disabled":false,"rental_uris":{"android":"levelo://app?vid=6a4f4a2a-66e3-4916-8695-45549b884152","ios":"levelo://app?vid=6a4f4a2a-66e3-4916-8695-45549b884152"},"vehicle_type_id":"4","last_reported":1773654795,"current_range_meters":32000,"station_id":"ce4bhi12rcd13ifvqfp0","pricing_plan_id":"cebpf4jnsgd1na2vs0mg"},{"bike_id":"9b239944-ef15-4318-90d7-ee3527eb9d62","system_id":"levelo_inurba_marseille","lat":43.26397,"lon":5.41039,"is_reserved":false,"is_disabled":false,"rental_uris":{"android":"levelo://app?vid=9b239944-ef15-4318-90d7-ee3527eb9d62","ios":"levelo://app?vid=9b239944-ef15-4318-90d7-ee3527eb9d62"},"vehicle_type_id":"4","last_reported":1773654795,"current_range_meters":26000,"station_id":"","pricing_plan_id":"cebpf4jnsgd1na2vs0mg"},{"bike_id":"0daf6109-b8b0-47a6-a266-d3ab8c2a01a8","system_id":"levelo_inurba_marseille","lat":43.26565,"lon":5.40322,"is_reserved":false,"is_disabled":false,"rental_uris":{"android":"levelo://app?vid=0daf6109-b8b0-47a6-a266-d3ab8c2a01a8","ios":"levelo://app?vid=0daf6109-b8b0-47a6-a266-d3ab8c2a01a8"},"vehicle_type_id":"4","last_reported":1773654795,"current_range_meters":30400,"station_id":"ce4bhmp2rcd13ifvqgng","pricing_plan_id":"cebpf4jnsgd1na2vs0mg"},{"bike_id":"d9f8ae01-1fce-4759-bd15-2b091b139d21","system_id":"levelo_inurba_marseille","lat":43.30528,"lon":5.36781,"is_reserved":false,"is_disabled":false,"rental_uris":{"android":"levelo://app?vid=d9f8ae01-1fce-4759-bd15-2b091b139d21","ios":"levelo://app?vid=d9f8ae01-1fce-4759-bd15-2b091b139d21"},"vehicle_type_id":"4","last_reported":1773654795,"current_range_meters":28400,"station_id":"ce4bgrp2rcd13ifvqc9g","pricing_plan_id":"cebpf4jnsgd1na2vs0mg"},{"bike_id":"014fbe6d-acef-4024-b919-caaae3fc7ea1","system_id":"levelo_inurba_marseille","lat":43.2862,"lon":5.35094,"is_reserved":false,"is_disabled":false,"rental_uris":{"android":"levelo://app?vid=014fbe6d-acef-4024-b919-caaae3fc7ea1","ios":"levelo://app?vid=014fbe6d-acef-4024-b919-caaae3fc7ea1"},"vehicle_type_id":"4","last_reported":1773654795,"current_range_meters":28000,"station_id":"ce4bhch2rcd13ifvqeug","pricing_plan_id":"cebpf4jnsgd1na2vs0mg"},{"bike_id":"b5f02cd4-343e-4cdc-ba83-b9e2daa6537f","system_id":"levelo_inurba_marseille","lat":43.26704,"lon":5.38249,"is_reserved":false,"is_disabled":false,"rental_uris":{"android":"levelo://app?vid=b5f02cd4-343e-4cdc-ba83-b9e2daa6537f","ios":"levelo://app?vid=b5f02cd4-343e-4cdc-ba83-b9e2daa6537f"},"vehicle_type_id":"4","last_reported":1773654795,"current_range_meters":35600,"station_id":"ce4bhg92rcd13ifvqf90","pricing_plan_id":"cebpf4jnsgd1na2vs0mg"},{"bike_id":"19373765-144a-4790-8089-8a5de9544f1f","system_id":"levelo_inurba_marseille","lat":43.24183,"lon":5.39691,"is_reserved":false,"is_disabled":false,"rental_uris":{"android":"levelo://app?vid=19373765-144a-4790-8089-8a5de9544f1f","ios":"levelo://app?vid=19373765-144a-4790-8089-8a5de9544f1f"},"vehicle_type_id":"4","last_reported":1773654795,"current_range_meters":28800,"station_id":"ce4bhn12rcd13ifvqgpg","pricing_plan_id":"cebpf4jnsgd1na2vs0mg"},{"bike_id":"d0dab2fa-d617-4c19-a612-133b45b47130","system_id":"levelo_inurba_marseille","lat":43.23199,"lon":5.35552,"is_reserved":false,"is_disabled":false,"rental_uris":{"android":"levelo://app?vid=d0dab2fa-d617-4c19-a612-133b45b47130","ios":"levelo://app?vid=d0dab2fa-d617-4c19-a612-133b45b47130"},"vehicle_type_id":"4","last_reported":1773654795,"current_range_meters":22000,"station_id":"ce4bhu92rcd13ifvqi70","pricing_plan_id":"cebpf4jnsgd1na2vs0mg"},{"bike_id":"491ba74c-a458-433d-a534-dfa81b7720cd","system_id":"levelo_inurba_marseille","lat":43.21735,"lon":5.3454,"is_reserved":false,"is_disabled":false,"rental_uris":{"android":"levelo://app?vid=491ba74c-a458-433d-a534-dfa81b7720cd","ios":"levelo://app?vid=491ba74c-a458-433d-a534-dfa81b7720cd"},"vehicle_type_id":"4","last_reported":1773654795,"current_range_meters":10000,"station_id":"","pricing_plan_id":"cebpf4jnsgd1na2vs0mg"},{"bike_id":"4933ac27-248a-4686-b475-7cc87b6d5074","system_id":"levelo_inurba_marseille","lat":43.24127,"lon":5.3774,"is_reserved":false,"is_disabled":false,"rental_uris":{"android":"levelo://app?vid=4933ac27-248a-4686-b475-7cc87b6d5074","ios":"levelo://app?vid=4933ac27-248a-4686-b475-7cc87b6d5074"},"vehicle_type_id":"4","last_reported":1773654795,"current_range_meters":35200,"station_id":"ce4bhnp2rcd13ifvqgvg","pricing_plan_id":"cebpf4jnsgd1na2vs0mg"},{"bike_id":"c2d75a77-7dda-428e-bdbd-a97c9d7e2102","system_id":"levelo_inurba_marseille","lat":43.27066,"lon":5.38299,"is_reserved":false,"is_disabled":true,"rental_uris":{"android":"levelo://app?vid=c2d75a77-7dda-428e-bdbd-a97c9d7e2102","ios":"levelo://app?vid=c2d75a77-7dda-428e-bdbd-a97c9d7e2102"},"vehicle_type_id":"4","last_reported":1773654795,"current_range_meters":36000,"station_id":"st_d3n2fo6cfp8s73cte1j0","pricing_plan_id":"cebpf4jnsgd1na2vs0mg"},{"bike_id":"857b6928-ed90-4f6e-a6cf-93ba460b7680","system_id":"levelo_inurba_marseille","lat":43.32373,"lon":5.38887,"is_reserved":false,"is_disabled":false,"rental_uris":{"android":"levelo://app?vid=857b6928-ed90-4f6e-a6cf-93ba460b7680","ios":"levelo://app?vid=857b6928-ed90-4f6e-a6cf-93ba460b7680"},"vehicle_type_id":"4","last_reported":1773654795,"current_range_meters":39200,"station_id":"ce4bhqp2rcd13ifvqhog","pricing_plan_id":"cebpf4jnsgd1na2vs0mg"},{"bike_id":"147d9e2e-4d7d-4c39-81db-3a5e5196e84c","system_id":"levelo_inurba_marseille","lat":43.30178,"lon":5.36602,"is_reserved":false,"is_disabled":false,"rental_uris":{"android":"levelo://app?vid=147d9e2e-4d7d-4c39-81db-3a5e5196e84c","ios":"levelo://app?vid=147d9e2e-4d7d-4c39-81db-3a5e5196e84c"},"vehicle_type_id":"4","last_reported":1773654795,"current_range_meters":30000,"station_id":"ce4bgrh2rcd13ifvqc8g","pricing_plan_id":"cebpf4jnsgd1na2vs0mg"},{"bike_id":"e378ab9d-c754-4563-b960-fd5460f9bff6","system_id":"levelo_inurba_marseille","lat":43.29907,"lon":5.37577,"is_reserved":false,"is_disabled":false,"rental_uris":{"android":"levelo://app?vid=e378ab9d-c754-4563-b960-fd5460f9bff6","ios":"levelo://app?vid=e378ab9d-c754-4563-b960-fd5460f9bff6"},"vehicle_type_id":"4","last_reported":1773654795,"current_range_meters":38800,"station_id":"","pricing_plan_id":"cebpf4jnsgd1na2vs0mg"},{"bike_id":"dea631f7-42a0-4fc4-b750-984aa138e4f3","system_id":"levelo_inurba_marseille","lat":43.32347,"lon":5.38835,"is_reserved":false,"is_disabled":false,"rental_uris":{"android":"levelo://app?vid=dea631f7-42a0-4fc4-b750-984aa138e4f3","ios":"levelo://app?vid=dea631f7-42a0-4fc4-b750-984aa138e4f3"},"vehicle_type_id":"4","last_reported":1773654795,"current_range_meters":33600,"station_id":"ce4bhqp2rcd13ifvqhog","pricing_plan_id":"cebpf4jnsgd1na2vs0mg"},{"bike_id":"12bb0608-da9d-4e04-8f31-0e077a96fffb","system_id":"levelo_inurba_marseille","lat":43.25591,"lon":5.38229,"is_reserved":false,"is_disabled":false,"rental_uris":{"android":"levelo://app?vid=12bb0608-da9d-4e04-8f31-0e077a96fffb","ios":"levelo://app?vid=12bb0608-da9d-4e04-8f31-0e077a96fffb"},"vehicle_type_id":"4","last_reported":1773654795,"current_range_meters":28000,"station_id":"ce4bhih2rcd13ifvqfs0","pricing_plan_id":"cebpf4jnsgd1na2vs0mg"},{"bike_id":"ef124b6c-1864-4cf0-9457-14566d1138f0","system_id":"levelo_inurba_marseille","lat":43.2637,"lon":5.41053,"is_reserved":false,"is_disabled":false,"rental_uris":{"android":"levelo://app?vid=ef124b6c-1864-4cf0-9457-14566d1138f0","ios":"levelo://app?vid=ef124b6c-1864-4cf0-9457-14566d1138f0"},"vehicle_type_id":"4","last_reported":1773654795,"current_range_meters":27200,"station_id":"st_d4e5ca6na9uc73bfl5fg","pricing_plan_id":"cebpf4jnsgd1na2vs0mg"},{"bike_id":"fb9fd7c0-1f0e-473c-835c-9d5348822fc0","system_id":"levelo_inurba_marseille","lat":43.29036,"lon":5.40045,"is_reserved":false,"is_disabled":true,"rental_uris":{"android":"levelo://app?vid=fb9fd7c0-1f0e-473c-835c-9d5348822fc0","ios":"levelo://app?vid=fb9fd7c0-1f0e-473c-835c-9d5348822fc0"},"vehicle_type_id":"4","last_reported":1773654795,"current_range_meters":15200,"station_id":"","pricing_plan_id":"cebpf4jnsgd1na2vs0mg"},{"bike_id":"38d0531b-a376-45b1-a464-727ba8a8c5fe","system_id":"levelo_inurba_marseille","lat":43.29218,"lon":5.3933,"is_reserved":false,"is_disabled":true,"rental_uris":{"android":"levelo://app?vid=38d0531b-a376-45b1-a464-727ba8a8c5fe","ios":"levelo://app?vid=38d0531b-a376-45b1-a464-727ba8a8c5fe"},"vehicle_type_id":"4","last_reported":1773654795,"current_range_meters":14000,"station_id":"ce4bh192rcd13ifvqdd0","pricing_plan_id":"cebpf4jnsgd1na2vs0mg"},{"bike_id":"1dbc2359-923d-4f88-a168-a5102060bfcb","system_id":"levelo_inurba_marseille","lat":43.28284,"lon":5.35084,"is_reserved":false,"is_disabled":false,"rental_uris":{"android":"levelo://app?vid=1dbc2359-923d-4f88-a168-a5102060bfcb","ios":"levelo://app?vid=1dbc2359-923d-4f88-a168-a5102060bfcb"},"vehicle_type_id":"4","last_reported":1773654795,"current_range_meters":16000,"station_id":"ce4bhbp2rcd13ifvqerg","pricing_plan_id":"cebpf4jnsgd1na2vs0mg"},{"bike_id":"badacbb6-0c1f-4bd5-900a-66dcf61f42d5","system_id":"levelo_inurba_marseille","lat":43.26061,"lon":5.39395,"is_reserved":false,"is_disabled":false,"rental_uris":{"android":"levelo://app?vid=badacbb6-0c1f-4bd5-900a-66dcf61f42d5","ios":"levelo://app?vid=badacbb6-0c1f-4bd5-900a-66dcf61f42d5"},"vehicle_type_id":"4","last_reported":1773654795,"current_range_meters":20400,"station_id":"ce4bhh92rcd13ifvqfj0","pricing_plan_id":"cebpf4jnsgd1na2vs0mg"},{"bike_id":"f85f9766-0c59-47a0-aa84-124bac8ee080","system_id":"levelo_inurba_marseille","lat":43.26401,"lon":5.41073,"is_reserved":false,"is_disabled":false,"rental_uris":{"android":"levelo://app?vid=f85f9766-0c59-47a0-aa84-124bac8ee080","ios":"levelo://app?vid=f85f9766-0c59-47a0-aa84-124bac8ee080"},"vehicle_type_id":"4","last_reported":1773654795,"current_range_meters":38400,"station_id":"st_d4e5ca6na9uc73bfl5fg","pricing_plan_id":"cebpf4jnsgd1na2vs0mg"},{"bike_id":"5dedbb18-e988-4c62-a1b7-6082fc58ac3f","system_id":"levelo_inurba_marseille","lat":43.25095,"lon":5.3952,"is_reserved":false,"is_disabled":false,"rental_uris":{"android":"levelo://app?vid=5dedbb18-e988-4c62-a1b7-6082fc58ac3f","ios":"levelo://app?vid=5dedbb18-e988-4c62-a1b7-6082fc58ac3f"},"vehicle_type_id":"4","last_reported":1773654795,"current_range_meters":4800,"station_id":"ce4bhm12rcd13ifvqgkg","pricing_plan_id":"cebpf4jnsgd1na2vs0mg"},{"bike_id":"eae93aa7-3e13-4cee-88a1-0399616b2ef4","system_id":"levelo_inurba_marseille","lat":43.30946,"lon":5.39033,"is_reserved":false,"is_disabled":false,"rental_uris":{"android":"levelo://app?vid=eae93aa7-3e13-4cee-88a1-0399616b2ef4","ios":"levelo://app?vid=eae93aa7-3e13-4cee-88a1-0399616b2ef4"},"vehicle_type_id":"4","last_reported":1773654795,"current_range_meters":28800,"station_id":"ce4bgup2rcd13ifvqco0","pricing_plan_id":"cebpf4jnsgd1na2vs0mg"},{"bike_id":"b703ef60-e0c5-4a16-9b7e-b94c3a170a5a","system_id":"levelo_inurba_marseille","lat":43.2416,"lon":5.39719,"is_reserved":false,"is_disabled":false,"rental_uris":{"android":"levelo://app?vid=b703ef60-e0c5-4a16-9b7e-b94c3a170a5a","ios":"levelo://app?vid=b703ef60-e0c5-4a16-9b7e-b94c3a170a5a"},"vehicle_type_id":"4","last_reported":1773654795,"current_range_meters":20000,"station_id":"ce4bhn12rcd13ifvqgpg","pricing_plan_id":"cebpf4jnsgd1na2vs0mg"},{"bike_id":"2ab628f4-4cfd-478e-9f06-4eed69164c58","system_id":"levelo_inurba_marseille","lat":43.31369,"lon":5.36699,"is_reserved":false,"is_disabled":false,"rental_uris":{"android":"levelo://app?vid=2ab628f4-4cfd-478e-9f06-4eed69164c58","ios":"levelo://app?vid=2ab628f4-4cfd-478e-9f06-4eed69164c58"},"vehicle_type_id":"4","last_reported":1773654795,"current_range_meters":30800,"station_id":"ce4bgr92rcd13ifvqc6g","pricing_plan_id":"cebpf4jnsgd1na2vs0mg"},{"bike_id":"c215c369-554d-4d6d-87e1-bb4ae4c0462c","system_id":"levelo_inurba_marseille","lat":43.29275,"lon":5.37609,"is_reserved":false,"is_disabled":false,"rental_uris":{"android":"levelo://app?vid=c215c369-554d-4d6d-87e1-bb4ae4c0462c","ios":"levelo://app?vid=c215c369-554d-4d6d-87e1-bb4ae4c0462c"},"vehicle_type_id":"4","last_reported":1773654795,"current_range_meters":38400,"station_id":"ce4bgi12rcd13ifvqb80","pricing_plan_id":"cebpf4jnsgd1na2vs0mg"},{"bike_id":"6bd46585-7360-490f-b2a6-8e61e6304105","system_id":"levelo_inurba_marseille","lat":43.29743,"lon":5.42786,"is_reserved":false,"is_disabled":false,"rental_uris":{"android":"levelo://app?vid=6bd46585-7360-490f-b2a6-8e61e6304105","ios":"levelo://app?vid=6bd46585-7360-490f-b2a6-8e61e6304105"},"vehicle_type_id":"4","last_reported":1773654795,"current_range_meters":15200,"station_id":"st_d3md5207bmas73dh9klg","pricing_plan_id":"cebpf4jnsgd1na2vs0mg"},{"bike_id":"4c177e21-a8fe-4f57-a94f-d114f72249f7","system_id":"levelo_inurba_marseille","lat":43.31858,"lon":5.3697,"is_reserved":false,"is_disabled":false,"rental_uris":{"android":"levelo://app?vid=4c177e21-a8fe-4f57-a94f-d114f72249f7","ios":"levelo://app?vid=4c177e21-a8fe-4f57-a94f-d114f72249f7"},"vehicle_type_id":"4","last_reported":1773654795,"current_range_meters":36800,"station_id":"","pricing_plan_id":"cebpf4jnsgd1na2vs0mg"},{"bike_id":"962cd1c7-7f8e-4808-ad6d-1605d16400d7","system_id":"levelo_inurba_marseille","lat":43.26524,"lon":5.39028,"is_reserved":false,"is_disabled":false,"rental_uris":{"android":"levelo://app?vid=962cd1c7-7f8e-4808-ad6d-1605d16400d7","ios":"levelo://app?vid=962cd1c7-7f8e-4808-ad6d-1605d16400d7"},"vehicle_type_id":"4","last_reported":1773654795,"current_range_meters":14000,"station_id":"ce4bhe12rcd13ifvqf30","pricing_plan_id":"cebpf4jnsgd1na2vs0mg"},{"bike_id":"3cf889fb-bbe4-469a-8cd8-7b20282218a8","system_id":"levelo_inurba_marseille","lat":43.30262,"lon":5.40088,"is_reserved":false,"is_disabled":false,"rental_uris":{"android":"levelo://app?vid=3cf889fb-bbe4-469a-8cd8-7b20282218a8","ios":"levelo://app?vid=3cf889fb-bbe4-469a-8cd8-7b20282218a8"},"vehicle_type_id":"4","last_reported":1773654795,"current_range_meters":16000,"station_id":"ce4bgvh2rcd13ifvqcs0","pricing_plan_id":"cebpf4jnsgd1na2vs0mg"},{"bike_id":"d38dfe2b-c4c7-4f28-a65f-b52995b3c60a","system_id":"levelo_inurba_marseille","lat":43.29357,"lon":5.37855,"is_reserved":false,"is_disabled":false,"rental_uris":{"android":"levelo://app?vid=d38dfe2b-c4c7-4f28-a65f-b52995b3c60a","ios":"levelo://app?vid=d38dfe2b-c4c7-4f28-a65f-b52995b3c60a"},"vehicle_type_id":"4","last_reported":1773654795,"current_range_meters":13600,"station_id":"ce4bgjh2rcd13ifvqbf0","pricing_plan_id":"cebpf4jnsgd1na2vs0mg"},{"bike_id":"ef951b85-4708-4028-a818-d2cffff93ec5","system_id":"levelo_inurba_marseille","lat":43.30574,"lon":5.3723,"is_reserved":false,"is_disabled":false,"rental_uris":{"android":"levelo://app?vid=ef951b85-4708-4028-a818-d2cffff93ec5","ios":"levelo://app?vid=ef951b85-4708-4028-a818-d2cffff93ec5"},"vehicle_type_id":"4","last_reported":1773654795,"current_range_meters":28000,"station_id":"ce4bgqh2rcd13ifvqc4g","pricing_plan_id":"cebpf4jnsgd1na2vs0mg"},{"bike_id":"b775ba00-6949-40df-9603-1e36a7545ad4","system_id":"levelo_inurba_marseille","lat":43.30423,"lon":5.41281,"is_reserved":false,"is_disabled":false,"rental_uris":{"android":"levelo://app?vid=b775ba00-6949-40df-9603-1e36a7545ad4","ios":"levelo://app?vid=b775ba00-6949-40df-9603-1e36a7545ad4"},"vehicle_type_id":"4","last_reported":1773654795,"current_range_meters":38800,"station_id":"ce4bhop2rcd13ifvqh8g","pricing_plan_id":"cebpf4jnsgd1na2vs0mg"},{"bike_id":"90006b8d-6aa9-4ebe-9082-e177c10b421a","system_id":"levelo_inurba_marseille","lat":43.30409,"lon":5.36891,"is_reserved":false,"is_disabled":false,"rental_uris":{"android":"levelo://app?vid=90006b8d-6aa9-4ebe-9082-e177c10b421a","ios":"levelo://app?vid=90006b8d-6aa9-4ebe-9082-e177c10b421a"},"vehicle_type_id":"4","last_reported":1773654795,"current_range_meters":37600,"station_id":"","pricing_plan_id":"cebpf4jnsgd1na2vs0mg"},{"bike_id":"584f7aa0-b582-45fa-adcb-d34128f4ce54","system_id":"levelo_inurba_marseille","lat":43.27814,"lon":5.40727,"is_reserved":false,"is_disabled":true,"rental_uris":{"android":"levelo://app?vid=584f7aa0-b582-45fa-adcb-d34128f4ce54","ios":"levelo://app?vid=584f7aa0-b582-45fa-adcb-d34128f4ce54"},"vehicle_type_id":"4","last_reported":1773654795,"current_range_meters":9200,"station_id":"ce4bhnh2rcd13ifvqgtg","pricing_plan_id":"cebpf4jnsgd1na2vs0mg"},{"bike_id":"155b0320-79c3-41cb-91e9-f84de49ff2b3","system_id":"levelo_inurba_marseille","lat":43.25948,"lon":5.40879,"is_reserved":false,"is_disabled":false,"rental_uris":{"android":"levelo://app?vid=155b0320-79c3-41cb-91e9-f84de49ff2b3","ios":"levelo://app?vid=155b0320-79c3-41cb-91e9-f84de49ff2b3"},"vehicle_type_id":"4","last_reported":1773654795,"current_range_meters":16400,"station_id":"ce4bhm92rcd13ifvqglg","pricing_plan_id":"cebpf4jnsgd1na2vs0mg"},{"bike_id":"8ae3cd93-1df5-4c86-a3cd-ea1407ea9258","system_id":"levelo_inurba_marseille","lat":43.30746,"lon":5.42449,"is_reserved":false,"is_disabled":false,"rental_uris":{"android":"levelo://app?vid=8ae3cd93-1df5-4c86-a3cd-ea1407ea9258","ios":"levelo://app?vid=8ae3cd93-1df5-4c86-a3cd-ea1407ea9258"},"vehicle_type_id":"4","last_reported":1773654795,"current_range_meters":32800,"station_id":"st_cvj6ca6bvosntc0bfgr0","pricing_plan_id":"cebpf4jnsgd1na2vs0mg"},{"bike_id":"0bd699b8-0f51-4e7d-b635-e29484ca415b","system_id":"levelo_inurba_marseille","lat":43.2552,"lon":5.38199,"is_reserved":false,"is_disabled":false,"rental_uris":{"android":"levelo://app?vid=0bd699b8-0f51-4e7d-b635-e29484ca415b","ios":"levelo://app?vid=0bd699b8-0f51-4e7d-b635-e29484ca415b"},"vehicle_type_id":"4","last_reported":1773654795,"current_range_meters":19600,"station_id":"","pricing_plan_id":"cebpf4jnsgd1na2vs0mg"},{"bike_id":"a1a487e0-263f-4bcb-a083-313a46d262d6","system_id":"levelo_inurba_marseille","lat":43.29116,"lon":5.43276,"is_reserved":false,"is_disabled":true,"rental_uris":{"android":"levelo://app?vid=a1a487e0-263f-4bcb-a083-313a46d262d6","ios":"levelo://app?vid=a1a487e0-263f-4bcb-a083-313a46d262d6"},"vehicle_type_id":"4","last_reported":1773654795,"current_range_meters":22400,"station_id":"","pricing_plan_id":"cebpf4jnsgd1na2vs0mg"},{"bike_id":"80349c10-4722-47ae-a549-f9c542386094","system_id":"levelo_inurba_marseille","lat":43.30548,"lon":5.36531,"is_reserved":false,"is_disabled":false,"rental_uris":{"android":"levelo://app?vid=80349c10-4722-47ae-a549-f9c542386094","ios":"levelo://app?vid=80349c10-4722-47ae-a549-f9c542386094"},"vehicle_type_id":"4","last_reported":1773654795,"current_range_meters":39200,"station_id":"ce4bgs12rcd13ifvqcag","pricing_plan_id":"cebpf4jnsgd1na2vs0mg"},{"bike_id":"cf8deb66-32d1-4c57-ab14-8252abf0d0ad","system_id":"levelo_inurba_marseille","lat":43.25724,"lon":5.41106,"is_reserved":false,"is_disabled":false,"rental_uris":{"android":"levelo://app?vid=cf8deb66-32d1-4c57-ab14-8252abf0d0ad","ios":"levelo://app?vid=cf8deb66-32d1-4c57-ab14-8252abf0d0ad"},"vehicle_type_id":"4","last_reported":1773654795,"current_range_meters":38400,"station_id":"ce4bhkp2rcd13ifvqgd0","pricing_plan_id":"cebpf4jnsgd1na2vs0mg"},{"bike_id":"446e2ee1-b35e-4a1a-90af-7bde6ac960d1","system_id":"levelo_inurba_marseille","lat":43.26686,"lon":5.38279,"is_reserved":false,"is_disabled":false,"rental_uris":{"android":"levelo://app?vid=446e2ee1-b35e-4a1a-90af-7bde6ac960d1","ios":"levelo://app?vid=446e2ee1-b35e-4a1a-90af-7bde6ac960d1"},"vehicle_type_id":"4","last_reported":1773654795,"current_range_meters":22400,"station_id":"ce4bhg92rcd13ifvqf90","pricing_plan_id":"cebpf4jnsgd1na2vs0mg"},{"bike_id":"ddd64a40-0275-4ca7-a97f-2eff5d3e514a","system_id":"levelo_inurba_marseille","lat":43.28474,"lon":5.48396,"is_reserved":false,"is_disabled":false,"rental_uris":{"android":"levelo://app?vid=ddd64a40-0275-4ca7-a97f-2eff5d3e514a","ios":"levelo://app?vid=ddd64a40-0275-4ca7-a97f-2eff5d3e514a"},"vehicle_type_id":"4","last_reported":1773654795,"current_range_meters":8800,"station_id":"","pricing_plan_id":"cebpf4jnsgd1na2vs0mg"},{"bike_id":"01fb8154-7529-482f-ae88-1aab3364d088","system_id":"levelo_inurba_marseille","lat":43.2896,"lon":5.36644,"is_reserved":false,"is_disabled":false,"rental_uris":{"android":"levelo://app?vid=01fb8154-7529-482f-ae88-1aab3364d088","ios":"levelo://app?vid=01fb8154-7529-482f-ae88-1aab3364d088"},"vehicle_type_id":"4","last_reported":1773654795,"current_range_meters":36800,"station_id":"ce4bhap2rcd13ifvqek0","pricing_plan_id":"cebpf4jnsgd1na2vs0mg"},{"bike_id":"81467cca-3c71-4094-a5dc-2ce923c92b67","system_id":"levelo_inurba_marseille","lat":43.26706,"lon":5.38255,"is_reserved":false,"is_disabled":false,"rental_uris":{"android":"levelo://app?vid=81467cca-3c71-4094-a5dc-2ce923c92b67","ios":"levelo://app?vid=81467cca-3c71-4094-a5dc-2ce923c92b67"},"vehicle_type_id":"4","last_reported":1773654795,"current_range_meters":27600,"station_id":"ce4bhg92rcd13ifvqf90","pricing_plan_id":"cebpf4jnsgd1na2vs0mg"},{"bike_id":"f0752db4-9746-4f09-a991-9d3088a31eb9","system_id":"levelo_inurba_marseille","lat":43.28634,"lon":5.3509,"is_reserved":false,"is_disabled":false,"rental_uris":{"android":"levelo://app?vid=f0752db4-9746-4f09-a991-9d3088a31eb9","ios":"levelo://app?vid=f0752db4-9746-4f09-a991-9d3088a31eb9"},"vehicle_type_id":"4","last_reported":1773654795,"current_range_meters":14000,"station_id":"ce4bhch2rcd13ifvqeug","pricing_plan_id":"cebpf4jnsgd1na2vs0mg"},{"bike_id":"7459a8ce-4c42-4485-90ec-512304b48dd0","system_id":"levelo_inurba_marseille","lat":43.2419,"lon":5.39731,"is_reserved":false,"is_disabled":false,"rental_uris":{"android":"levelo://app?vid=7459a8ce-4c42-4485-90ec-512304b48dd0","ios":"levelo://app?vid=7459a8ce-4c42-4485-90ec-512304b48dd0"},"vehicle_type_id":"4","last_reported":1773654795,"current_range_meters":35200,"station_id":"ce4bhn12rcd13ifvqgpg","pricing_plan_id":"cebpf4jnsgd1na2vs0mg"},{"bike_id":"1a2ad8e0-25f4-4b1d-a268-792ddb756ae5","system_id":"levelo_inurba_marseille","lat":43.33543,"lon":5.37474,"is_reserved":false,"is_disabled":false,"rental_uris":{"android":"levelo://app?vid=1a2ad8e0-25f4-4b1d-a268-792ddb756ae5","ios":"levelo://app?vid=1a2ad8e0-25f4-4b1d-a268-792ddb756ae5"},"vehicle_type_id":"4","last_reported":1773654795,"current_range_meters":13600,"station_id":"st_d46tts09ee8s73dlu43g","pricing_plan_id":"cebpf4jnsgd1na2vs0mg"},{"bike_id":"5dea7ece-1d9b-471d-a08a-4a42d6f62761","system_id":"levelo_inurba_marseille","lat":43.28607,"lon":5.35084,"is_reserved":false,"is_disabled":false,"rental_uris":{"android":"levelo://app?vid=5dea7ece-1d9b-471d-a08a-4a42d6f62761","ios":"levelo://app?vid=5dea7ece-1d9b-471d-a08a-4a42d6f62761"},"vehicle_type_id":"4","last_reported":1773654795,"current_range_meters":33200,"station_id":"ce4bhch2rcd13ifvqeug","pricing_plan_id":"cebpf4jnsgd1na2vs0mg"},{"bike_id":"62a968e7-817d-43b4-aded-c3ea6cb5a0b3","system_id":"levelo_inurba_marseille","lat":43.2668,"lon":5.38266,"is_reserved":false,"is_disabled":false,"rental_uris":{"android":"levelo://app?vid=62a968e7-817d-43b4-aded-c3ea6cb5a0b3","ios":"levelo://app?vid=62a968e7-817d-43b4-aded-c3ea6cb5a0b3"},"vehicle_type_id":"4","last_reported":1773654795,"current_range_meters":28400,"station_id":"ce4bhg92rcd13ifvqf90","pricing_plan_id":"cebpf4jnsgd1na2vs0mg"},{"bike_id":"32344c74-1154-4ea4-8d10-eee4123f8fff","system_id":"levelo_inurba_marseille","lat":43.27496,"lon":5.42449,"is_reserved":false,"is_disabled":false,"rental_uris":{"android":"levelo://app?vid=32344c74-1154-4ea4-8d10-eee4123f8fff","ios":"levelo://app?vid=32344c74-1154-4ea4-8d10-eee4123f8fff"},"vehicle_type_id":"4","last_reported":1773654795,"current_range_meters":14800,"station_id":"ce4bhn92rcd13ifvqgrg","pricing_plan_id":"cebpf4jnsgd1na2vs0mg"},{"bike_id":"8e34bded-9525-4894-bb7f-75c7d720f9d9","system_id":"levelo_inurba_marseille","lat":43.25572,"lon":5.38228,"is_reserved":false,"is_disabled":false,"rental_uris":{"android":"levelo://app?vid=8e34bded-9525-4894-bb7f-75c7d720f9d9","ios":"levelo://app?vid=8e34bded-9525-4894-bb7f-75c7d720f9d9"},"vehicle_type_id":"4","last_reported":1773654795,"current_range_meters":39200,"station_id":"ce4bhih2rcd13ifvqfs0","pricing_plan_id":"cebpf4jnsgd1na2vs0mg"},{"bike_id":"d1141fb4-59b4-44f4-91cc-49a601f9de2f","system_id":"levelo_inurba_marseille","lat":43.25109,"lon":5.40319,"is_reserved":false,"is_disabled":false,"rental_uris":{"android":"levelo://app?vid=d1141fb4-59b4-44f4-91cc-49a601f9de2f","ios":"levelo://app?vid=d1141fb4-59b4-44f4-91cc-49a601f9de2f"},"vehicle_type_id":"4","last_reported":1773654795,"current_range_meters":3200,"station_id":"ce4bhlh2rcd13ifvqgig","pricing_plan_id":"cebpf4jnsgd1na2vs0mg"},{"bike_id":"ab254f0f-6223-4ab3-84a5-b7f85602871b","system_id":"levelo_inurba_marseille","lat":43.28716,"lon":5.37944,"is_reserved":false,"is_disabled":true,"rental_uris":{"android":"levelo://app?vid=ab254f0f-6223-4ab3-84a5-b7f85602871b","ios":"levelo://app?vid=ab254f0f-6223-4ab3-84a5-b7f85602871b"},"vehicle_type_id":"4","last_reported":1773654795,"current_range_meters":32400,"station_id":"ce4bh9p2rcd13ifvqec0","pricing_plan_id":"cebpf4jnsgd1na2vs0mg"},{"bike_id":"529a3fba-c634-4c3b-b494-ce629a839a61","system_id":"levelo_inurba_marseille","lat":43.24546,"lon":5.39527,"is_reserved":false,"is_disabled":false,"rental_uris":{"android":"levelo://app?vid=529a3fba-c634-4c3b-b494-ce629a839a61","ios":"levelo://app?vid=529a3fba-c634-4c3b-b494-ce629a839a61"},"vehicle_type_id":"4","last_reported":1773654795,"current_range_meters":20000,"station_id":"ce4bhlp2rcd13ifvqgjg","pricing_plan_id":"cebpf4jnsgd1na2vs0mg"},{"bike_id":"8d7bb8e1-ba6a-4d85-92d2-55de86941036","system_id":"levelo_inurba_marseille","lat":43.30161,"lon":5.39868,"is_reserved":false,"is_disabled":true,"rental_uris":{"android":"levelo://app?vid=8d7bb8e1-ba6a-4d85-92d2-55de86941036","ios":"levelo://app?vid=8d7bb8e1-ba6a-4d85-92d2-55de86941036"},"vehicle_type_id":"4","last_reported":1773654795,"current_range_meters":36800,"station_id":"ce4bh0h2rcd13ifvqd40","pricing_plan_id":"cebpf4jnsgd1na2vs0mg"},{"bike_id":"8cd1cb91-e77a-4739-b4e7-2ebabe99c839","system_id":"levelo_inurba_marseille","lat":43.3096,"lon":5.39032,"is_reserved":false,"is_disabled":false,"rental_uris":{"android":"levelo://app?vid=8cd1cb91-e77a-4739-b4e7-2ebabe99c839","ios":"levelo://app?vid=8cd1cb91-e77a-4739-b4e7-2ebabe99c839"},"vehicle_type_id":"4","last_reported":1773654795,"current_range_meters":4000,"station_id":"ce4bgup2rcd13ifvqco0","pricing_plan_id":"cebpf4jnsgd1na2vs0mg"},{"bike_id":"143d16da-44d6-45e7-a9ae-c2ad8ff29ee0","system_id":"levelo_inurba_marseille","lat":43.24812,"lon":5.3742,"is_reserved":false,"is_disabled":false,"rental_uris":{"android":"levelo://app?vid=143d16da-44d6-45e7-a9ae-c2ad8ff29ee0","ios":"levelo://app?vid=143d16da-44d6-45e7-a9ae-c2ad8ff29ee0"},"vehicle_type_id":"4","last_reported":1773654795,"current_range_meters":16000,"station_id":"ce4bhgh2rcd13ifvqfb0","pricing_plan_id":"cebpf4jnsgd1na2vs0mg"},{"bike_id":"15fae588-9faa-4edc-ac66-02c222ab7251","system_id":"levelo_inurba_marseille","lat":43.30173,"lon":5.37411,"is_reserved":false,"is_disabled":false,"rental_uris":{"android":"levelo://app?vid=15fae588-9faa-4edc-ac66-02c222ab7251","ios":"levelo://app?vid=15fae588-9faa-4edc-ac66-02c222ab7251"},"vehicle_type_id":"4","last_reported":1773654795,"current_range_meters":14800,"station_id":"ce4bgs92rcd13ifvqcc0","pricing_plan_id":"cebpf4jnsgd1na2vs0mg"},{"bike_id":"ff8738cd-a9bf-4508-bea6-36829be4e407","system_id":"levelo_inurba_marseille","lat":43.28643,"lon":5.35152,"is_reserved":false,"is_disabled":false,"rental_uris":{"android":"levelo://app?vid=ff8738cd-a9bf-4508-bea6-36829be4e407","ios":"levelo://app?vid=ff8738cd-a9bf-4508-bea6-36829be4e407"},"vehicle_type_id":"4","last_reported":1773654795,"current_range_meters":24000,"station_id":"ce4bhch2rcd13ifvqeug","pricing_plan_id":"cebpf4jnsgd1na2vs0mg"},{"bike_id":"e842dc60-ab62-4379-a0ed-030031db5b1e","system_id":"levelo_inurba_marseille","lat":43.21198,"lon":5.35071,"is_reserved":false,"is_disabled":false,"rental_uris":{"android":"levelo://app?vid=e842dc60-ab62-4379-a0ed-030031db5b1e","ios":"levelo://app?vid=e842dc60-ab62-4379-a0ed-030031db5b1e"},"vehicle_type_id":"4","last_reported":1773654795,"current_range_meters":11200,"station_id":"","pricing_plan_id":"cebpf4jnsgd1na2vs0mg"},{"bike_id":"70014854-acff-49ca-9046-c49e81b9ca34","system_id":"levelo_inurba_marseille","lat":43.2175,"lon":5.34595,"is_reserved":false,"is_disabled":false,"rental_uris":{"android":"levelo://app?vid=70014854-acff-49ca-9046-c49e81b9ca34","ios":"levelo://app?vid=70014854-acff-49ca-9046-c49e81b9ca34"},"vehicle_type_id":"4","last_reported":1773654795,"current_range_meters":26800,"station_id":"st_cvj6r9ubvosntc0bgbag","pricing_plan_id":"cebpf4jnsgd1na2vs0mg"},{"bike_id":"ebae0e78-6890-4e81-8932-827cabc0dcd4","system_id":"levelo_inurba_marseille","lat":43.303,"lon":5.3688,"is_reserved":false,"is_disabled":false,"rental_uris":{"android":"levelo://app?vid=ebae0e78-6890-4e81-8932-827cabc0dcd4","ios":"levelo://app?vid=ebae0e78-6890-4e81-8932-827cabc0dcd4"},"vehicle_type_id":"4","last_reported":1773654795,"current_range_meters":40000,"station_id":"ce4bgqh2rcd13ifvqc5g","pricing_plan_id":"cebpf4jnsgd1na2vs0mg"},{"bike_id":"3998c6a9-9fc6-4061-bac8-8f38e33bf625","system_id":"levelo_inurba_marseille","lat":43.25084,"lon":5.39522,"is_reserved":false,"is_disabled":false,"rental_uris":{"android":"levelo://app?vid=3998c6a9-9fc6-4061-bac8-8f38e33bf625","ios":"levelo://app?vid=3998c6a9-9fc6-4061-bac8-8f38e33bf625"},"vehicle_type_id":"4","last_reported":1773654795,"current_range_meters":38800,"station_id":"ce4bhm12rcd13ifvqgkg","pricing_plan_id":"cebpf4jnsgd1na2vs0mg"},{"bike_id":"f390fab6-52a0-4bcf-a47e-3a9e67e606d0","system_id":"levelo_inurba_marseille","lat":43.31411,"lon":5.37322,"is_reserved":false,"is_disabled":false,"rental_uris":{"android":"levelo://app?vid=f390fab6-52a0-4bcf-a47e-3a9e67e606d0","ios":"levelo://app?vid=f390fab6-52a0-4bcf-a47e-3a9e67e606d0"},"vehicle_type_id":"4","last_reported":1773654795,"current_range_meters":35200,"station_id":"","pricing_plan_id":"cebpf4jnsgd1na2vs0mg"},{"bike_id":"177dde7b-d2de-4c6f-a770-315c66758692","system_id":"levelo_inurba_marseille","lat":43.28461,"lon":5.48409,"is_reserved":false,"is_disabled":false,"rental_uris":{"android":"levelo://app?vid=177dde7b-d2de-4c6f-a770-315c66758692","ios":"levelo://app?vid=177dde7b-d2de-4c6f-a770-315c66758692"},"vehicle_type_id":"4","last_reported":1773654795,"current_range_meters":33200,"station_id":"","pricing_plan_id":"cebpf4jnsgd1na2vs0mg"},{"bike_id":"6f54e01c-8e88-4d8b-ae33-a3d8388a376b","system_id":"levelo_inurba_marseille","lat":43.25026,"lon":5.38945,"is_reserved":false,"is_disabled":false,"rental_uris":{"android":"levelo://app?vid=6f54e01c-8e88-4d8b-ae33-a3d8388a376b","ios":"levelo://app?vid=6f54e01c-8e88-4d8b-ae33-a3d8388a376b"},"vehicle_type_id":"4","last_reported":1773654795,"current_range_meters":25200,"station_id":"ce4bhgp2rcd13ifvqfd0","pricing_plan_id":"cebpf4jnsgd1na2vs0mg"},{"bike_id":"a051cb11-967e-431a-9bb7-b0327fee3e80","system_id":"levelo_inurba_marseille","lat":43.31484,"lon":5.40598,"is_reserved":false,"is_disabled":false,"rental_uris":{"android":"levelo://app?vid=a051cb11-967e-431a-9bb7-b0327fee3e80","ios":"levelo://app?vid=a051cb11-967e-431a-9bb7-b0327fee3e80"},"vehicle_type_id":"4","last_reported":1773654795,"current_range_meters":26800,"station_id":"","pricing_plan_id":"cebpf4jnsgd1na2vs0mg"},{"bike_id":"5b8559b0-3e9d-4180-86ed-03032c99a483","system_id":"levelo_inurba_marseille","lat":43.23407,"lon":5.41283,"is_reserved":false,"is_disabled":false,"rental_uris":{"android":"levelo://app?vid=5b8559b0-3e9d-4180-86ed-03032c99a483","ios":"levelo://app?vid=5b8559b0-3e9d-4180-86ed-03032c99a483"},"vehicle_type_id":"4","last_reported":1773654795,"current_range_meters":17600,"station_id":"","pricing_plan_id":"cebpf4jnsgd1na2vs0mg"},{"bike_id":"1741325f-8422-4356-83e0-b5761d6e485a","system_id":"levelo_inurba_marseille","lat":43.31367,"lon":5.3668,"is_reserved":false,"is_disabled":false,"rental_uris":{"android":"levelo://app?vid=1741325f-8422-4356-83e0-b5761d6e485a","ios":"levelo://app?vid=1741325f-8422-4356-83e0-b5761d6e485a"},"vehicle_type_id":"4","last_reported":1773654795,"current_range_meters":35600,"station_id":"ce4bgr92rcd13ifvqc6g","pricing_plan_id":"cebpf4jnsgd1na2vs0mg"},{"bike_id":"fdb59933-d372-4b8d-824f-32df33db4cd9","system_id":"levelo_inurba_marseille","lat":43.302099,"lon":5.3947,"is_reserved":false,"is_disabled":true,"rental_uris":{"android":"levelo://app?vid=fdb59933-d372-4b8d-824f-32df33db4cd9","ios":"levelo://app?vid=fdb59933-d372-4b8d-824f-32df33db4cd9"},"vehicle_type_id":"4","last_reported":1773654795,"current_range_meters":0,"station_id":"","pricing_plan_id":"cebpf4jnsgd1na2vs0mg"},{"bike_id":"43918b9b-ff13-4bbb-ac03-aa8307d32985","system_id":"levelo_inurba_marseille","lat":43.23183,"lon":5.35569,"is_reserved":false,"is_disabled":false,"rental_uris":{"android":"levelo://app?vid=43918b9b-ff13-4bbb-ac03-aa8307d32985","ios":"levelo://app?vid=43918b9b-ff13-4bbb-ac03-aa8307d32985"},"vehicle_type_id":"4","last_reported":1773654795,"current_range_meters":28400,"station_id":"ce4bhu92rcd13ifvqi70","pricing_plan_id":"cebpf4jnsgd1na2vs0mg"},{"bike_id":"f4b7fd6d-fc43-40a0-9444-97cda83baecc","system_id":"levelo_inurba_marseille","lat":43.28489,"lon":5.48391,"is_reserved":false,"is_disabled":false,"rental_uris":{"android":"levelo://app?vid=f4b7fd6d-fc43-40a0-9444-97cda83baecc","ios":"levelo://app?vid=f4b7fd6d-fc43-40a0-9444-97cda83baecc"},"vehicle_type_id":"4","last_reported":1773654795,"current_range_meters":26000,"station_id":"","pricing_plan_id":"cebpf4jnsgd1na2vs0mg"},{"bike_id":"fce53e3f-2b05-475a-b415-658c62442be4","system_id":"levelo_inurba_marseille","lat":43.24091,"lon":5.37763,"is_reserved":false,"is_disabled":true,"rental_uris":{"android":"levelo://app?vid=fce53e3f-2b05-475a-b415-658c62442be4","ios":"levelo://app?vid=fce53e3f-2b05-475a-b415-658c62442be4"},"vehicle_type_id":"4","last_reported":1773654795,"current_range_meters":0,"station_id":"ce4bhnp2rcd13ifvqgvg","pricing_plan_id":"cebpf4jnsgd1na2vs0mg"},{"bike_id":"ad5d6575-373a-4626-b109-e5e54a834cdc","system_id":"levelo_inurba_marseille","lat":43.30892,"lon":5.40092,"is_reserved":false,"is_disabled":true,"rental_uris":{"android":"levelo://app?vid=ad5d6575-373a-4626-b109-e5e54a834cdc","ios":"levelo://app?vid=ad5d6575-373a-4626-b109-e5e54a834cdc"},"vehicle_type_id":"4","last_reported":1773654795,"current_range_meters":28400,"station_id":"","pricing_plan_id":"cebpf4jnsgd1na2vs0mg"},{"bike_id":"2eab267c-8a58-47ba-a189-65b2865b609a","system_id":"levelo_inurba_marseille","lat":43.337535,"lon":5.37448,"is_reserved":false,"is_disabled":false,"rental_uris":{"android":"levelo://app?vid=2eab267c-8a58-47ba-a189-65b2865b609a","ios":"levelo://app?vid=2eab267c-8a58-47ba-a189-65b2865b609a"},"vehicle_type_id":"4","last_reported":1773654795,"current_range_meters":39200,"station_id":"","pricing_plan_id":"cebpf4jnsgd1na2vs0mg"},{"bike_id":"06e2f918-f90a-467d-8613-9c86e6e485be","system_id":"levelo_inurba_marseille","lat":43.29646,"lon":5.37152,"is_reserved":false,"is_disabled":true,"rental_uris":{"android":"levelo://app?vid=06e2f918-f90a-467d-8613-9c86e6e485be","ios":"levelo://app?vid=06e2f918-f90a-467d-8613-9c86e6e485be"},"vehicle_type_id":"4","last_reported":1773654795,"current_range_meters":38000,"station_id":"ce4bgnh2rcd13ifvqc0g","pricing_plan_id":"cebpf4jnsgd1na2vs0mg"},{"bike_id":"8cf11af3-a06c-4250-b156-2ebe886a2214","system_id":"levelo_inurba_marseille","lat":43.23157,"lon":5.43712,"is_reserved":false,"is_disabled":false,"rental_uris":{"android":"levelo://app?vid=8cf11af3-a06c-4250-b156-2ebe886a2214","ios":"levelo://app?vid=8cf11af3-a06c-4250-b156-2ebe886a2214"},"vehicle_type_id":"4","last_reported":1773654795,"current_range_meters":20800,"station_id":"ce4bhmp2rcd13ifvqgog","pricing_plan_id":"cebpf4jnsgd1na2vs0mg"},{"bike_id":"47437dbd-a43a-491e-9da9-be7faee139eb","system_id":"levelo_inurba_marseille","lat":43.32485,"lon":5.36547,"is_reserved":false,"is_disabled":false,"rental_uris":{"android":"levelo://app?vid=47437dbd-a43a-491e-9da9-be7faee139eb","ios":"levelo://app?vid=47437dbd-a43a-491e-9da9-be7faee139eb"},"vehicle_type_id":"4","last_reported":1773654795,"current_range_meters":39200,"station_id":"ce4bhs12rcd13ifvqhvg","pricing_plan_id":"cebpf4jnsgd1na2vs0mg"},{"bike_id":"23a2a20d-b5bc-44e2-9bf1-eb6f34f23aa5","system_id":"levelo_inurba_marseille","lat":43.2316,"lon":5.43698,"is_reserved":false,"is_disabled":false,"rental_uris":{"android":"levelo://app?vid=23a2a20d-b5bc-44e2-9bf1-eb6f34f23aa5","ios":"levelo://app?vid=23a2a20d-b5bc-44e2-9bf1-eb6f34f23aa5"},"vehicle_type_id":"4","last_reported":1773654795,"current_range_meters":14000,"station_id":"ce4bhmp2rcd13ifvqgog","pricing_plan_id":"cebpf4jnsgd1na2vs0mg"},{"bike_id":"119a192a-68c8-4937-b929-2eba08e28111","system_id":"levelo_inurba_marseille","lat":43.30185,"lon":5.36601,"is_reserved":false,"is_disabled":false,"rental_uris":{"android":"levelo://app?vid=119a192a-68c8-4937-b929-2eba08e28111","ios":"levelo://app?vid=119a192a-68c8-4937-b929-2eba08e28111"},"vehicle_type_id":"4","last_reported":1773654795,"current_range_meters":36400,"station_id":"ce4bgrh2rcd13ifvqc8g","pricing_plan_id":"cebpf4jnsgd1na2vs0mg"},{"bike_id":"0ee37d41-0e9a-4678-a12e-855b464a6d09","system_id":"levelo_inurba_marseille","lat":43.28851,"lon":5.3932,"is_reserved":false,"is_disabled":false,"rental_uris":{"android":"levelo://app?vid=0ee37d41-0e9a-4678-a12e-855b464a6d09","ios":"levelo://app?vid=0ee37d41-0e9a-4678-a12e-855b464a6d09"},"vehicle_type_id":"4","last_reported":1773654795,"current_range_meters":34800,"station_id":"ce4bh2p2rcd13ifvqdi0","pricing_plan_id":"cebpf4jnsgd1na2vs0mg"},{"bike_id":"a337c444-d955-42a9-9ab5-59bda235775a","system_id":"levelo_inurba_marseille","lat":43.29918,"lon":5.37467,"is_reserved":false,"is_disabled":false,"rental_uris":{"android":"levelo://app?vid=a337c444-d955-42a9-9ab5-59bda235775a","ios":"levelo://app?vid=a337c444-d955-42a9-9ab5-59bda235775a"},"vehicle_type_id":"4","last_reported":1773654795,"current_range_meters":39200,"station_id":"ce4bgjh2rcd13ifvqbg0","pricing_plan_id":"cebpf4jnsgd1na2vs0mg"},{"bike_id":"49fc7284-9e84-4e41-b11a-a6f445433570","system_id":"levelo_inurba_marseille","lat":43.28095,"lon":5.39643,"is_reserved":false,"is_disabled":true,"rental_uris":{"android":"levelo://app?vid=49fc7284-9e84-4e41-b11a-a6f445433570","ios":"levelo://app?vid=49fc7284-9e84-4e41-b11a-a6f445433570"},"vehicle_type_id":"4","last_reported":1773654795,"current_range_meters":32000,"station_id":"ce4bho12rcd13ifvqh2g","pricing_plan_id":"cebpf4jnsgd1na2vs0mg"},{"bike_id":"d704426a-1f6b-4db1-a876-d214da7986d1","system_id":"levelo_inurba_marseille","lat":43.29422,"lon":5.39732,"is_reserved":false,"is_disabled":false,"rental_uris":{"android":"levelo://app?vid=d704426a-1f6b-4db1-a876-d214da7986d1","ios":"levelo://app?vid=d704426a-1f6b-4db1-a876-d214da7986d1"},"vehicle_type_id":"4","last_reported":1773654795,"current_range_meters":19600,"station_id":"ce4bh3h2rcd13ifvqdo0","pricing_plan_id":"cebpf4jnsgd1na2vs0mg"},{"bike_id":"903d0f64-5f6f-4f96-af65-0b4751c7ee97","system_id":"levelo_inurba_marseille","lat":43.28948,"lon":5.36603,"is_reserved":false,"is_disabled":false,"rental_uris":{"android":"levelo://app?vid=903d0f64-5f6f-4f96-af65-0b4751c7ee97","ios":"levelo://app?vid=903d0f64-5f6f-4f96-af65-0b4751c7ee97"},"vehicle_type_id":"4","last_reported":1773654795,"current_range_meters":17600,"station_id":"ce4bhap2rcd13ifvqek0","pricing_plan_id":"cebpf4jnsgd1na2vs0mg"},{"bike_id":"4f8a8f64-0cea-447a-a6cb-ea09d24d6c0e","system_id":"levelo_inurba_marseille","lat":43.22562,"lon":5.41557,"is_reserved":false,"is_disabled":false,"rental_uris":{"android":"levelo://app?vid=4f8a8f64-0cea-447a-a6cb-ea09d24d6c0e","ios":"levelo://app?vid=4f8a8f64-0cea-447a-a6cb-ea09d24d6c0e"},"vehicle_type_id":"4","last_reported":1773654795,"current_range_meters":36400,"station_id":"st_d2o4gvlbi1j2169b742g","pricing_plan_id":"cebpf4jnsgd1na2vs0mg"},{"bike_id":"0adcc58c-e2a2-4863-ace0-5a79a2514524","system_id":"levelo_inurba_marseille","lat":43.30133,"lon":5.3741,"is_reserved":false,"is_disabled":false,"rental_uris":{"android":"levelo://app?vid=0adcc58c-e2a2-4863-ace0-5a79a2514524","ios":"levelo://app?vid=0adcc58c-e2a2-4863-ace0-5a79a2514524"},"vehicle_type_id":"4","last_reported":1773654795,"current_range_meters":39200,"station_id":"ce4bgs92rcd13ifvqcc0","pricing_plan_id":"cebpf4jnsgd1na2vs0mg"},{"bike_id":"fae7e927-24da-4d38-910e-c7296d949fc4","system_id":"levelo_inurba_marseille","lat":43.3144,"lon":5.36699,"is_reserved":false,"is_disabled":false,"rental_uris":{"android":"levelo://app?vid=fae7e927-24da-4d38-910e-c7296d949fc4","ios":"levelo://app?vid=fae7e927-24da-4d38-910e-c7296d949fc4"},"vehicle_type_id":"4","last_reported":1773654795,"current_range_meters":30800,"station_id":"ce4bgr92rcd13ifvqc6g","pricing_plan_id":"cebpf4jnsgd1na2vs0mg"},{"bike_id":"34257e2b-5da9-4af1-bdd7-664aa8db6834","system_id":"levelo_inurba_marseille","lat":43.23207,"lon":5.3556,"is_reserved":false,"is_disabled":false,"rental_uris":{"android":"levelo://app?vid=34257e2b-5da9-4af1-bdd7-664aa8db6834","ios":"levelo://app?vid=34257e2b-5da9-4af1-bdd7-664aa8db6834"},"vehicle_type_id":"4","last_reported":1773654795,"current_range_meters":35200,"station_id":"ce4bhu92rcd13ifvqi70","pricing_plan_id":"cebpf4jnsgd1na2vs0mg"},{"bike_id":"288bcbf7-3a52-4b2b-9af2-61f8cf367965","system_id":"levelo_inurba_marseille","lat":43.25734,"lon":5.41119,"is_reserved":false,"is_disabled":false,"rental_uris":{"android":"levelo://app?vid=288bcbf7-3a52-4b2b-9af2-61f8cf367965","ios":"levelo://app?vid=288bcbf7-3a52-4b2b-9af2-61f8cf367965"},"vehicle_type_id":"4","last_reported":1773654795,"current_range_meters":34800,"station_id":"ce4bhkp2rcd13ifvqgd0","pricing_plan_id":"cebpf4jnsgd1na2vs0mg"},{"bike_id":"fec66160-eca4-4055-a135-94a62af705e8","system_id":"levelo_inurba_marseille","lat":43.2498,"lon":5.38932,"is_reserved":false,"is_disabled":false,"rental_uris":{"android":"levelo://app?vid=fec66160-eca4-4055-a135-94a62af705e8","ios":"levelo://app?vid=fec66160-eca4-4055-a135-94a62af705e8"},"vehicle_type_id":"4","last_reported":1773654795,"current_range_meters":8800,"station_id":"ce4bhgp2rcd13ifvqfd0","pricing_plan_id":"cebpf4jnsgd1na2vs0mg"},{"bike_id":"491cd09c-e0c2-44f1-852f-8525d428457d","system_id":"levelo_inurba_marseille","lat":43.3109,"lon":5.42434,"is_reserved":false,"is_disabled":false,"rental_uris":{"android":"levelo://app?vid=491cd09c-e0c2-44f1-852f-8525d428457d","ios":"levelo://app?vid=491cd09c-e0c2-44f1-852f-8525d428457d"},"vehicle_type_id":"4","last_reported":1773654795,"current_range_meters":22800,"station_id":"ce4bhp92rcd13ifvqhag","pricing_plan_id":"cebpf4jnsgd1na2vs0mg"},{"bike_id":"ec6aecc9-6355-43c0-b67e-09bbbeca1a71","system_id":"levelo_inurba_marseille","lat":43.30164,"lon":5.38102,"is_reserved":false,"is_disabled":false,"rental_uris":{"android":"levelo://app?vid=ec6aecc9-6355-43c0-b67e-09bbbeca1a71","ios":"levelo://app?vid=ec6aecc9-6355-43c0-b67e-09bbbeca1a71"},"vehicle_type_id":"4","last_reported":1773654795,"current_range_meters":28800,"station_id":"ce4bgjp2rcd13ifvqbh0","pricing_plan_id":"cebpf4jnsgd1na2vs0mg"},{"bike_id":"8efb579a-a563-4156-bc48-a4542721ceab","system_id":"levelo_inurba_marseille","lat":43.23201,"lon":5.35548,"is_reserved":false,"is_disabled":false,"rental_uris":{"android":"levelo://app?vid=8efb579a-a563-4156-bc48-a4542721ceab","ios":"levelo://app?vid=8efb579a-a563-4156-bc48-a4542721ceab"},"vehicle_type_id":"4","last_reported":1773654795,"current_range_meters":17600,"station_id":"ce4bhu92rcd13ifvqi70","pricing_plan_id":"cebpf4jnsgd1na2vs0mg"},{"bike_id":"1874b19e-0548-464e-a099-f4a065d3ad45","system_id":"levelo_inurba_marseille","lat":43.26884,"lon":5.40266,"is_reserved":false,"is_disabled":false,"rental_uris":{"android":"levelo://app?vid=1874b19e-0548-464e-a099-f4a065d3ad45","ios":"levelo://app?vid=1874b19e-0548-464e-a099-f4a065d3ad45"},"vehicle_type_id":"4","last_reported":1773654795,"current_range_meters":39200,"station_id":"cjm6bp8fraef2m0cb0m0","pricing_plan_id":"cebpf4jnsgd1na2vs0mg"},{"bike_id":"7e690084-4f89-4d28-85cf-303dbf78e8d0","system_id":"levelo_inurba_marseille","lat":43.30877,"lon":5.39619,"is_reserved":false,"is_disabled":false,"rental_uris":{"android":"levelo://app?vid=7e690084-4f89-4d28-85cf-303dbf78e8d0","ios":"levelo://app?vid=7e690084-4f89-4d28-85cf-303dbf78e8d0"},"vehicle_type_id":"4","last_reported":1773654795,"current_range_meters":39200,"station_id":"ce4bh012rcd13ifvqcv0","pricing_plan_id":"cebpf4jnsgd1na2vs0mg"},{"bike_id":"a7c58bd4-82e2-4124-a2ab-cc2a89a16713","system_id":"levelo_inurba_marseille","lat":43.30131,"lon":5.43074,"is_reserved":false,"is_disabled":false,"rental_uris":{"android":"levelo://app?vid=a7c58bd4-82e2-4124-a2ab-cc2a89a16713","ios":"levelo://app?vid=a7c58bd4-82e2-4124-a2ab-cc2a89a16713"},"vehicle_type_id":"4","last_reported":1773654795,"current_range_meters":8800,"station_id":"st_d3js3co5814s73ftftug","pricing_plan_id":"cebpf4jnsgd1na2vs0mg"},{"bike_id":"e59ffb01-b028-44ab-a5e5-5d8f6dba3aee","system_id":"levelo_inurba_marseille","lat":43.29802,"lon":5.37075,"is_reserved":false,"is_disabled":false,"rental_uris":{"android":"levelo://app?vid=e59ffb01-b028-44ab-a5e5-5d8f6dba3aee","ios":"levelo://app?vid=e59ffb01-b028-44ab-a5e5-5d8f6dba3aee"},"vehicle_type_id":"4","last_reported":1773654795,"current_range_meters":38000,"station_id":"ce4bgop2rcd13ifvqc1g","pricing_plan_id":"cebpf4jnsgd1na2vs0mg"},{"bike_id":"f10523e5-8852-4b92-a3d2-5f484309f0c9","system_id":"levelo_inurba_marseille","lat":43.30412,"lon":5.42499,"is_reserved":false,"is_disabled":false,"rental_uris":{"android":"levelo://app?vid=f10523e5-8852-4b92-a3d2-5f484309f0c9","ios":"levelo://app?vid=f10523e5-8852-4b92-a3d2-5f484309f0c9"},"vehicle_type_id":"4","last_reported":1773654795,"current_range_meters":12800,"station_id":"ce4bhoh2rcd13ifvqh6g","pricing_plan_id":"cebpf4jnsgd1na2vs0mg"},{"bike_id":"c53fbb2a-979a-463a-b9d8-b70e0a06d8d0","system_id":"levelo_inurba_marseille","lat":43.28612,"lon":5.35107,"is_reserved":false,"is_disabled":false,"rental_uris":{"android":"levelo://app?vid=c53fbb2a-979a-463a-b9d8-b70e0a06d8d0","ios":"levelo://app?vid=c53fbb2a-979a-463a-b9d8-b70e0a06d8d0"},"vehicle_type_id":"4","last_reported":1773654795,"current_range_meters":34000,"station_id":"ce4bhch2rcd13ifvqeug","pricing_plan_id":"cebpf4jnsgd1na2vs0mg"},{"bike_id":"68e2f950-bef9-4fdc-928b-c8e8fc4792ef","system_id":"levelo_inurba_marseille","lat":43.29998,"lon":5.38502,"is_reserved":false,"is_disabled":false,"rental_uris":{"android":"levelo://app?vid=68e2f950-bef9-4fdc-928b-c8e8fc4792ef","ios":"levelo://app?vid=68e2f950-bef9-4fdc-928b-c8e8fc4792ef"},"vehicle_type_id":"4","last_reported":1773654795,"current_range_meters":5600,"station_id":"ce4bgj92rcd13ifvqbd0","pricing_plan_id":"cebpf4jnsgd1na2vs0mg"},{"bike_id":"eb1d1e5d-c035-4be2-ab4f-714082cc667f","system_id":"levelo_inurba_marseille","lat":43.25097,"lon":5.39488,"is_reserved":false,"is_disabled":false,"rental_uris":{"android":"levelo://app?vid=eb1d1e5d-c035-4be2-ab4f-714082cc667f","ios":"levelo://app?vid=eb1d1e5d-c035-4be2-ab4f-714082cc667f"},"vehicle_type_id":"4","last_reported":1773654795,"current_range_meters":18000,"station_id":"ce4bhm12rcd13ifvqgkg","pricing_plan_id":"cebpf4jnsgd1na2vs0mg"},{"bike_id":"cf3d27ef-91c6-429a-962e-d10a32a01938","system_id":"levelo_inurba_marseille","lat":43.29805,"lon":5.44058,"is_reserved":false,"is_disabled":false,"rental_uris":{"android":"levelo://app?vid=cf3d27ef-91c6-429a-962e-d10a32a01938","ios":"levelo://app?vid=cf3d27ef-91c6-429a-962e-d10a32a01938"},"vehicle_type_id":"4","last_reported":1773654795,"current_range_meters":8800,"station_id":"st_d3jp68qikq2c7381ktn0","pricing_plan_id":"cebpf4jnsgd1na2vs0mg"},{"bike_id":"7e6a1a7b-3526-463b-ac8e-a0a48ab0f275","system_id":"levelo_inurba_marseille","lat":43.33778,"lon":5.37481,"is_reserved":false,"is_disabled":true,"rental_uris":{"android":"levelo://app?vid=7e6a1a7b-3526-463b-ac8e-a0a48ab0f275","ios":"levelo://app?vid=7e6a1a7b-3526-463b-ac8e-a0a48ab0f275"},"vehicle_type_id":"4","last_reported":1773654795,"current_range_meters":0,"station_id":"","pricing_plan_id":"cebpf4jnsgd1na2vs0mg"},{"bike_id":"6d0a1d1d-62d9-4b05-b15c-9b1404f11361","system_id":"levelo_inurba_marseille","lat":43.23955,"lon":5.36642,"is_reserved":false,"is_disabled":false,"rental_uris":{"android":"levelo://app?vid=6d0a1d1d-62d9-4b05-b15c-9b1404f11361","ios":"levelo://app?vid=6d0a1d1d-62d9-4b05-b15c-9b1404f11361"},"vehicle_type_id":"4","last_reported":1773654795,"current_range_meters":37600,"station_id":"ce4bhi12rcd13ifvqfp0","pricing_plan_id":"cebpf4jnsgd1na2vs0mg"},{"bike_id":"b0132243-f4b6-4b7e-aa11-7c099a0ff718","system_id":"levelo_inurba_marseille","lat":43.29923,"lon":5.36524,"is_reserved":false,"is_disabled":false,"rental_uris":{"android":"levelo://app?vid=b0132243-f4b6-4b7e-aa11-7c099a0ff718","ios":"levelo://app?vid=b0132243-f4b6-4b7e-aa11-7c099a0ff718"},"vehicle_type_id":"4","last_reported":1773654795,"current_range_meters":38400,"station_id":"ce4bgm92rcd13ifvqbr0","pricing_plan_id":"cebpf4jnsgd1na2vs0mg"},{"bike_id":"ff3c80d4-6915-439d-8d4f-2189798176f6","system_id":"levelo_inurba_marseille","lat":43.2993,"lon":5.36523,"is_reserved":false,"is_disabled":false,"rental_uris":{"android":"levelo://app?vid=ff3c80d4-6915-439d-8d4f-2189798176f6","ios":"levelo://app?vid=ff3c80d4-6915-439d-8d4f-2189798176f6"},"vehicle_type_id":"4","last_reported":1773654795,"current_range_meters":9200,"station_id":"ce4bgm92rcd13ifvqbr0","pricing_plan_id":"cebpf4jnsgd1na2vs0mg"},{"bike_id":"5607fa5a-079a-40ca-a3e8-0103cfeafbcd","system_id":"levelo_inurba_marseille","lat":43.28927,"lon":5.36639,"is_reserved":false,"is_disabled":false,"rental_uris":{"android":"levelo://app?vid=5607fa5a-079a-40ca-a3e8-0103cfeafbcd","ios":"levelo://app?vid=5607fa5a-079a-40ca-a3e8-0103cfeafbcd"},"vehicle_type_id":"4","last_reported":1773654795,"current_range_meters":36400,"station_id":"ce4bhap2rcd13ifvqek0","pricing_plan_id":"cebpf4jnsgd1na2vs0mg"},{"bike_id":"33ea331a-235c-4538-b457-f6db87b8d884","system_id":"levelo_inurba_marseille","lat":43.26585,"lon":5.39013,"is_reserved":false,"is_disabled":false,"rental_uris":{"android":"levelo://app?vid=33ea331a-235c-4538-b457-f6db87b8d884","ios":"levelo://app?vid=33ea331a-235c-4538-b457-f6db87b8d884"},"vehicle_type_id":"4","last_reported":1773654795,"current_range_meters":4000,"station_id":"ce4bhe12rcd13ifvqf30","pricing_plan_id":"cebpf4jnsgd1na2vs0mg"},{"bike_id":"43fd69de-65fd-4ba3-a530-eb0926089a5e","system_id":"levelo_inurba_marseille","lat":43.30145,"lon":5.38066,"is_reserved":false,"is_disabled":false,"rental_uris":{"android":"levelo://app?vid=43fd69de-65fd-4ba3-a530-eb0926089a5e","ios":"levelo://app?vid=43fd69de-65fd-4ba3-a530-eb0926089a5e"},"vehicle_type_id":"4","last_reported":1773654795,"current_range_meters":5600,"station_id":"ce4bgjp2rcd13ifvqbh0","pricing_plan_id":"cebpf4jnsgd1na2vs0mg"},{"bike_id":"fb26e4bc-a6b0-4c55-a381-444e2c65af1e","system_id":"levelo_inurba_marseille","lat":43.30467,"lon":5.37905,"is_reserved":false,"is_disabled":false,"rental_uris":{"android":"levelo://app?vid=fb26e4bc-a6b0-4c55-a381-444e2c65af1e","ios":"levelo://app?vid=fb26e4bc-a6b0-4c55-a381-444e2c65af1e"},"vehicle_type_id":"4","last_reported":1773654795,"current_range_meters":31200,"station_id":"ce4bgup2rcd13ifvqcn0","pricing_plan_id":"cebpf4jnsgd1na2vs0mg"},{"bike_id":"88bd1de4-947e-43e7-996f-b3a6c434223c","system_id":"levelo_inurba_marseille","lat":43.2584,"lon":5.39429,"is_reserved":false,"is_disabled":true,"rental_uris":{"android":"levelo://app?vid=88bd1de4-947e-43e7-996f-b3a6c434223c","ios":"levelo://app?vid=88bd1de4-947e-43e7-996f-b3a6c434223c"},"vehicle_type_id":"4","last_reported":1773654795,"current_range_meters":34000,"station_id":"ce4bhip2rcd13ifvqft0","pricing_plan_id":"cebpf4jnsgd1na2vs0mg"},{"bike_id":"05f50eb5-8d59-44ce-ba20-2d5c1a8a4c7b","system_id":"levelo_inurba_marseille","lat":43.31719,"lon":5.42402,"is_reserved":false,"is_disabled":false,"rental_uris":{"android":"levelo://app?vid=05f50eb5-8d59-44ce-ba20-2d5c1a8a4c7b","ios":"levelo://app?vid=05f50eb5-8d59-44ce-ba20-2d5c1a8a4c7b"},"vehicle_type_id":"4","last_reported":1773654795,"current_range_meters":19200,"station_id":"ce4bhp92rcd13ifvqhbg","pricing_plan_id":"cebpf4jnsgd1na2vs0mg"},{"bike_id":"693953b5-d1a2-4ed9-9673-97b8ea6995fa","system_id":"levelo_inurba_marseille","lat":43.30535,"lon":5.36528,"is_reserved":false,"is_disabled":false,"rental_uris":{"android":"levelo://app?vid=693953b5-d1a2-4ed9-9673-97b8ea6995fa","ios":"levelo://app?vid=693953b5-d1a2-4ed9-9673-97b8ea6995fa"},"vehicle_type_id":"4","last_reported":1773654795,"current_range_meters":34800,"station_id":"ce4bgs12rcd13ifvqcag","pricing_plan_id":"cebpf4jnsgd1na2vs0mg"},{"bike_id":"fb32a1c0-e487-43ab-b761-dcce914aad54","system_id":"levelo_inurba_marseille","lat":43.25102,"lon":5.40309,"is_reserved":false,"is_disabled":false,"rental_uris":{"android":"levelo://app?vid=fb32a1c0-e487-43ab-b761-dcce914aad54","ios":"levelo://app?vid=fb32a1c0-e487-43ab-b761-dcce914aad54"},"vehicle_type_id":"4","last_reported":1773654795,"current_range_meters":39200,"station_id":"ce4bhlh2rcd13ifvqgig","pricing_plan_id":"cebpf4jnsgd1na2vs0mg"},{"bike_id":"cfbbae9e-650f-48ab-92e2-75d0f7cb2be9","system_id":"levelo_inurba_marseille","lat":43.30549,"lon":5.36549,"is_reserved":false,"is_disabled":false,"rental_uris":{"android":"levelo://app?vid=cfbbae9e-650f-48ab-92e2-75d0f7cb2be9","ios":"levelo://app?vid=cfbbae9e-650f-48ab-92e2-75d0f7cb2be9"},"vehicle_type_id":"4","last_reported":1773654795,"current_range_meters":39200,"station_id":"ce4bgs12rcd13ifvqcag","pricing_plan_id":"cebpf4jnsgd1na2vs0mg"},{"bike_id":"b62acf11-2308-4a20-baab-6b62da62f978","system_id":"levelo_inurba_marseille","lat":43.27828,"lon":5.40699,"is_reserved":false,"is_disabled":true,"rental_uris":{"android":"levelo://app?vid=b62acf11-2308-4a20-baab-6b62da62f978","ios":"levelo://app?vid=b62acf11-2308-4a20-baab-6b62da62f978"},"vehicle_type_id":"4","last_reported":1773654795,"current_range_meters":29600,"station_id":"ce4bhnh2rcd13ifvqgtg","pricing_plan_id":"cebpf4jnsgd1na2vs0mg"},{"bike_id":"0c8bc945-f98e-4148-ac18-caefb213f997","system_id":"levelo_inurba_marseille","lat":43.28155,"lon":5.42614,"is_reserved":false,"is_disabled":false,"rental_uris":{"android":"levelo://app?vid=0c8bc945-f98e-4148-ac18-caefb213f997","ios":"levelo://app?vid=0c8bc945-f98e-4148-ac18-caefb213f997"},"vehicle_type_id":"4","last_reported":1773654795,"current_range_meters":38000,"station_id":"ce4bhnh2rcd13ifvqgug","pricing_plan_id":"cebpf4jnsgd1na2vs0mg"},{"bike_id":"58f111c3-d4d8-401b-b1de-be436e4b63d6","system_id":"levelo_inurba_marseille","lat":43.23186,"lon":5.39994,"is_reserved":false,"is_disabled":false,"rental_uris":{"android":"levelo://app?vid=58f111c3-d4d8-401b-b1de-be436e4b63d6","ios":"levelo://app?vid=58f111c3-d4d8-401b-b1de-be436e4b63d6"},"vehicle_type_id":"4","last_reported":1773654795,"current_range_meters":29600,"station_id":"ce4bhn12rcd13ifvqgqg","pricing_plan_id":"cebpf4jnsgd1na2vs0mg"},{"bike_id":"e6d9e185-de29-413a-8517-3942df1a652a","system_id":"levelo_inurba_marseille","lat":43.2984,"lon":5.36278,"is_reserved":false,"is_disabled":false,"rental_uris":{"android":"levelo://app?vid=e6d9e185-de29-413a-8517-3942df1a652a","ios":"levelo://app?vid=e6d9e185-de29-413a-8517-3942df1a652a"},"vehicle_type_id":"4","last_reported":1773654795,"current_range_meters":31200,"station_id":"ce4bgpp2rcd13ifvqc3g","pricing_plan_id":"cebpf4jnsgd1na2vs0mg"},{"bike_id":"da48670a-22f4-47b5-ac7e-4649db27bcfe","system_id":"levelo_inurba_marseille","lat":43.30481,"lon":5.37953,"is_reserved":false,"is_disabled":false,"rental_uris":{"android":"levelo://app?vid=da48670a-22f4-47b5-ac7e-4649db27bcfe","ios":"levelo://app?vid=da48670a-22f4-47b5-ac7e-4649db27bcfe"},"vehicle_type_id":"4","last_reported":1773654795,"current_range_meters":30000,"station_id":"ce4bgup2rcd13ifvqcn0","pricing_plan_id":"cebpf4jnsgd1na2vs0mg"},{"bike_id":"543b6cd7-57c9-4fca-8f52-23881734a377","system_id":"levelo_inurba_marseille","lat":43.30156,"lon":5.37392,"is_reserved":false,"is_disabled":false,"rental_uris":{"android":"levelo://app?vid=543b6cd7-57c9-4fca-8f52-23881734a377","ios":"levelo://app?vid=543b6cd7-57c9-4fca-8f52-23881734a377"},"vehicle_type_id":"4","last_reported":1773654795,"current_range_meters":31200,"station_id":"ce4bgs92rcd13ifvqcc0","pricing_plan_id":"cebpf4jnsgd1na2vs0mg"},{"bike_id":"ffd2aa79-124b-40e3-b74b-93a25fcdb83f","system_id":"levelo_inurba_marseille","lat":43.23188,"lon":5.39979,"is_reserved":false,"is_disabled":false,"rental_uris":{"android":"levelo://app?vid=ffd2aa79-124b-40e3-b74b-93a25fcdb83f","ios":"levelo://app?vid=ffd2aa79-124b-40e3-b74b-93a25fcdb83f"},"vehicle_type_id":"4","last_reported":1773654795,"current_range_meters":27200,"station_id":"ce4bhn12rcd13ifvqgqg","pricing_plan_id":"cebpf4jnsgd1na2vs0mg"},{"bike_id":"40450e44-cc9d-407c-957a-1aeb6f187932","system_id":"levelo_inurba_marseille","lat":43.22553,"lon":5.41617,"is_reserved":false,"is_disabled":false,"rental_uris":{"android":"levelo://app?vid=40450e44-cc9d-407c-957a-1aeb6f187932","ios":"levelo://app?vid=40450e44-cc9d-407c-957a-1aeb6f187932"},"vehicle_type_id":"4","last_reported":1773654795,"current_range_meters":8400,"station_id":"st_d2o4gvlbi1j2169b742g","pricing_plan_id":"cebpf4jnsgd1na2vs0mg"},{"bike_id":"e24aa91d-22b2-440b-bc6d-25ab2b336b7a","system_id":"levelo_inurba_marseille","lat":43.23201,"lon":5.35547,"is_reserved":false,"is_disabled":false,"rental_uris":{"android":"levelo://app?vid=e24aa91d-22b2-440b-bc6d-25ab2b336b7a","ios":"levelo://app?vid=e24aa91d-22b2-440b-bc6d-25ab2b336b7a"},"vehicle_type_id":"4","last_reported":1773654795,"current_range_meters":39200,"station_id":"ce4bhu92rcd13ifvqi70","pricing_plan_id":"cebpf4jnsgd1na2vs0mg"},{"bike_id":"bc4f7328-cab9-4fcd-8fd6-48b670075c96","system_id":"levelo_inurba_marseille","lat":43.30662,"lon":5.36676,"is_reserved":false,"is_disabled":false,"rental_uris":{"android":"levelo://app?vid=bc4f7328-cab9-4fcd-8fd6-48b670075c96","ios":"levelo://app?vid=bc4f7328-cab9-4fcd-8fd6-48b670075c96"},"vehicle_type_id":"4","last_reported":1773654795,"current_range_meters":36400,"station_id":"ce4bgs12rcd13ifvqcag","pricing_plan_id":"cebpf4jnsgd1na2vs0mg"},{"bike_id":"8439959a-aa48-4561-86c2-9e9a8b3321dc","system_id":"levelo_inurba_marseille","lat":43.3175,"lon":5.38996,"is_reserved":false,"is_disabled":false,"rental_uris":{"android":"levelo://app?vid=8439959a-aa48-4561-86c2-9e9a8b3321dc","ios":"levelo://app?vid=8439959a-aa48-4561-86c2-9e9a8b3321dc"},"vehicle_type_id":"4","last_reported":1773654795,"current_range_meters":24000,"station_id":"ce4bhqp2rcd13ifvqhng","pricing_plan_id":"cebpf4jnsgd1na2vs0mg"},{"bike_id":"eaa5390d-2d68-4739-8254-52f983e127b1","system_id":"levelo_inurba_marseille","lat":43.28467,"lon":5.48408,"is_reserved":false,"is_disabled":false,"rental_uris":{"android":"levelo://app?vid=eaa5390d-2d68-4739-8254-52f983e127b1","ios":"levelo://app?vid=eaa5390d-2d68-4739-8254-52f983e127b1"},"vehicle_type_id":"4","last_reported":1773654795,"current_range_meters":22000,"station_id":"","pricing_plan_id":"cebpf4jnsgd1na2vs0mg"},{"bike_id":"aa92ee91-d927-465e-8d23-f8f01011b889","system_id":"levelo_inurba_marseille","lat":43.24958,"lon":5.40486,"is_reserved":false,"is_disabled":false,"rental_uris":{"android":"levelo://app?vid=aa92ee91-d927-465e-8d23-f8f01011b889","ios":"levelo://app?vid=aa92ee91-d927-465e-8d23-f8f01011b889"},"vehicle_type_id":"4","last_reported":1773654795,"current_range_meters":9200,"station_id":"st_d2ngiaodas8pm72gd1h0","pricing_plan_id":"cebpf4jnsgd1na2vs0mg"},{"bike_id":"f600dfed-37c5-40ac-aedc-f809faf7de9d","system_id":"levelo_inurba_marseille","lat":43.304628,"lon":5.379062,"is_reserved":false,"is_disabled":false,"rental_uris":{"android":"levelo://app?vid=f600dfed-37c5-40ac-aedc-f809faf7de9d","ios":"levelo://app?vid=f600dfed-37c5-40ac-aedc-f809faf7de9d"},"vehicle_type_id":"4","last_reported":1773654795,"current_range_meters":22000,"station_id":"ce4bgup2rcd13ifvqcn0","pricing_plan_id":"cebpf4jnsgd1na2vs0mg"},{"bike_id":"eba7007a-22fe-4603-b600-e6d79c47801e","system_id":"levelo_inurba_marseille","lat":43.27181,"lon":5.40986,"is_reserved":false,"is_disabled":false,"rental_uris":{"android":"levelo://app?vid=eba7007a-22fe-4603-b600-e6d79c47801e","ios":"levelo://app?vid=eba7007a-22fe-4603-b600-e6d79c47801e"},"vehicle_type_id":"4","last_reported":1773654795,"current_range_meters":28800,"station_id":"ce4bhl12rcd13ifvqgf0","pricing_plan_id":"cebpf4jnsgd1na2vs0mg"},{"bike_id":"8aaf525a-2438-4977-86b2-70256683bfeb","system_id":"levelo_inurba_marseille","lat":43.28534,"lon":5.4409,"is_reserved":false,"is_disabled":false,"rental_uris":{"android":"levelo://app?vid=8aaf525a-2438-4977-86b2-70256683bfeb","ios":"levelo://app?vid=8aaf525a-2438-4977-86b2-70256683bfeb"},"vehicle_type_id":"4","last_reported":1773654795,"current_range_meters":32800,"station_id":"st_d3j3df2ikq2c7380ej80","pricing_plan_id":"cebpf4jnsgd1na2vs0mg"},{"bike_id":"085c5bb5-85ae-49c1-a127-07fab03a2d5e","system_id":"levelo_inurba_marseille","lat":43.24663,"lon":5.38176,"is_reserved":false,"is_disabled":false,"rental_uris":{"android":"levelo://app?vid=085c5bb5-85ae-49c1-a127-07fab03a2d5e","ios":"levelo://app?vid=085c5bb5-85ae-49c1-a127-07fab03a2d5e"},"vehicle_type_id":"4","last_reported":1773654795,"current_range_meters":7200,"station_id":"ce4bhih2rcd13ifvqfr0","pricing_plan_id":"cebpf4jnsgd1na2vs0mg"},{"bike_id":"85384336-ec8c-4d14-8cf7-dd1704f5ada9","system_id":"levelo_inurba_marseille","lat":43.28418,"lon":5.34977,"is_reserved":false,"is_disabled":false,"rental_uris":{"android":"levelo://app?vid=85384336-ec8c-4d14-8cf7-dd1704f5ada9","ios":"levelo://app?vid=85384336-ec8c-4d14-8cf7-dd1704f5ada9"},"vehicle_type_id":"4","last_reported":1773654795,"current_range_meters":36400,"station_id":"ce4bhbh2rcd13ifvqepg","pricing_plan_id":"cebpf4jnsgd1na2vs0mg"},{"bike_id":"41e37a6a-8cf3-4e64-8889-8b8c47ff4735","system_id":"levelo_inurba_marseille","lat":43.29898,"lon":5.37468,"is_reserved":false,"is_disabled":false,"rental_uris":{"android":"levelo://app?vid=41e37a6a-8cf3-4e64-8889-8b8c47ff4735","ios":"levelo://app?vid=41e37a6a-8cf3-4e64-8889-8b8c47ff4735"},"vehicle_type_id":"4","last_reported":1773654795,"current_range_meters":35200,"station_id":"ce4bgjh2rcd13ifvqbg0","pricing_plan_id":"cebpf4jnsgd1na2vs0mg"},{"bike_id":"595f9878-31d2-4c93-8b8e-9fa0ff0679bb","system_id":"levelo_inurba_marseille","lat":43.30383,"lon":5.4249,"is_reserved":false,"is_disabled":false,"rental_uris":{"android":"levelo://app?vid=595f9878-31d2-4c93-8b8e-9fa0ff0679bb","ios":"levelo://app?vid=595f9878-31d2-4c93-8b8e-9fa0ff0679bb"},"vehicle_type_id":"4","last_reported":1773654795,"current_range_meters":27200,"station_id":"ce4bhoh2rcd13ifvqh6g","pricing_plan_id":"cebpf4jnsgd1na2vs0mg"},{"bike_id":"e1a4d46a-c23c-441f-8d70-9dc1a65b67f9","system_id":"levelo_inurba_marseille","lat":43.21736,"lon":5.34587,"is_reserved":false,"is_disabled":false,"rental_uris":{"android":"levelo://app?vid=e1a4d46a-c23c-441f-8d70-9dc1a65b67f9","ios":"levelo://app?vid=e1a4d46a-c23c-441f-8d70-9dc1a65b67f9"},"vehicle_type_id":"4","last_reported":1773654795,"current_range_meters":36800,"station_id":"st_cvj6r9ubvosntc0bgbag","pricing_plan_id":"cebpf4jnsgd1na2vs0mg"},{"bike_id":"ac4f12c8-de07-47e6-ae02-f4e247fda71d","system_id":"levelo_inurba_marseille","lat":43.30539,"lon":5.36522,"is_reserved":false,"is_disabled":false,"rental_uris":{"android":"levelo://app?vid=ac4f12c8-de07-47e6-ae02-f4e247fda71d","ios":"levelo://app?vid=ac4f12c8-de07-47e6-ae02-f4e247fda71d"},"vehicle_type_id":"4","last_reported":1773654795,"current_range_meters":27600,"station_id":"ce4bgs12rcd13ifvqcag","pricing_plan_id":"cebpf4jnsgd1na2vs0mg"},{"bike_id":"592a7547-d375-47f5-a92c-507aad4780b8","system_id":"levelo_inurba_marseille","lat":43.22574,"lon":5.41655,"is_reserved":false,"is_disabled":false,"rental_uris":{"android":"levelo://app?vid=592a7547-d375-47f5-a92c-507aad4780b8","ios":"levelo://app?vid=592a7547-d375-47f5-a92c-507aad4780b8"},"vehicle_type_id":"4","last_reported":1773654795,"current_range_meters":34000,"station_id":"st_d2o4gvlbi1j2169b742g","pricing_plan_id":"cebpf4jnsgd1na2vs0mg"},{"bike_id":"b51100a3-5fc1-439d-aae8-1f50eba7a69f","system_id":"levelo_inurba_marseille","lat":43.26203,"lon":5.37886,"is_reserved":false,"is_disabled":false,"rental_uris":{"android":"levelo://app?vid=b51100a3-5fc1-439d-aae8-1f50eba7a69f","ios":"levelo://app?vid=b51100a3-5fc1-439d-aae8-1f50eba7a69f"},"vehicle_type_id":"4","last_reported":1773654795,"current_range_meters":38000,"station_id":"ce4bhjp2rcd13ifvqg90","pricing_plan_id":"cebpf4jnsgd1na2vs0mg"},{"bike_id":"0261f6e5-2774-40dd-b946-99be025dda00","system_id":"levelo_inurba_marseille","lat":43.24075,"lon":5.37715,"is_reserved":false,"is_disabled":false,"rental_uris":{"android":"levelo://app?vid=0261f6e5-2774-40dd-b946-99be025dda00","ios":"levelo://app?vid=0261f6e5-2774-40dd-b946-99be025dda00"},"vehicle_type_id":"4","last_reported":1773654795,"current_range_meters":28400,"station_id":"ce4bhnp2rcd13ifvqgvg","pricing_plan_id":"cebpf4jnsgd1na2vs0mg"},{"bike_id":"83af84c7-8680-473f-815e-1fce8416d40c","system_id":"levelo_inurba_marseille","lat":43.31166,"lon":5.39338,"is_reserved":false,"is_disabled":false,"rental_uris":{"android":"levelo://app?vid=83af84c7-8680-473f-815e-1fce8416d40c","ios":"levelo://app?vid=83af84c7-8680-473f-815e-1fce8416d40c"},"vehicle_type_id":"4","last_reported":1773654795,"current_range_meters":25200,"station_id":"","pricing_plan_id":"cebpf4jnsgd1na2vs0mg"},{"bike_id":"10815e11-61cb-415f-8a36-f29cace97448","system_id":"levelo_inurba_marseille","lat":43.30515,"lon":5.36688,"is_reserved":false,"is_disabled":false,"rental_uris":{"android":"levelo://app?vid=10815e11-61cb-415f-8a36-f29cace97448","ios":"levelo://app?vid=10815e11-61cb-415f-8a36-f29cace97448"},"vehicle_type_id":"4","last_reported":1773654795,"current_range_meters":31200,"station_id":"ce4bgrp2rcd13ifvqc9g","pricing_plan_id":"cebpf4jnsgd1na2vs0mg"},{"bike_id":"1e4b6d08-d88d-4a13-8c98-44800c1e0ab2","system_id":"levelo_inurba_marseille","lat":43.31108,"lon":5.37784,"is_reserved":false,"is_disabled":false,"rental_uris":{"android":"levelo://app?vid=1e4b6d08-d88d-4a13-8c98-44800c1e0ab2","ios":"levelo://app?vid=1e4b6d08-d88d-4a13-8c98-44800c1e0ab2"},"vehicle_type_id":"4","last_reported":1773654795,"current_range_meters":34800,"station_id":"ce4bgt92rcd13ifvqcg0","pricing_plan_id":"cebpf4jnsgd1na2vs0mg"},{"bike_id":"688ad0fc-0044-4a8e-93c5-7cd0ed028117","system_id":"levelo_inurba_marseille","lat":43.29664,"lon":5.39494,"is_reserved":false,"is_disabled":false,"rental_uris":{"android":"levelo://app?vid=688ad0fc-0044-4a8e-93c5-7cd0ed028117","ios":"levelo://app?vid=688ad0fc-0044-4a8e-93c5-7cd0ed028117"},"vehicle_type_id":"4","last_reported":1773654795,"current_range_meters":7200,"station_id":"","pricing_plan_id":"cebpf4jnsgd1na2vs0mg"},{"bike_id":"8aafbcd1-e0fe-4ef4-b089-a98b4c86c0ee","system_id":"levelo_inurba_marseille","lat":43.26179,"lon":5.37393,"is_reserved":false,"is_disabled":true,"rental_uris":{"android":"levelo://app?vid=8aafbcd1-e0fe-4ef4-b089-a98b4c86c0ee","ios":"levelo://app?vid=8aafbcd1-e0fe-4ef4-b089-a98b4c86c0ee"},"vehicle_type_id":"4","last_reported":1773654795,"current_range_meters":26800,"station_id":"ce4bhgp2rcd13ifvqfc0","pricing_plan_id":"cebpf4jnsgd1na2vs0mg"},{"bike_id":"d5fd9186-fdca-434a-b5a5-37ed55126db5","system_id":"levelo_inurba_marseille","lat":43.30437,"lon":5.39715,"is_reserved":false,"is_disabled":false,"rental_uris":{"android":"levelo://app?vid=d5fd9186-fdca-434a-b5a5-37ed55126db5","ios":"levelo://app?vid=d5fd9186-fdca-434a-b5a5-37ed55126db5"},"vehicle_type_id":"4","last_reported":1773654795,"current_range_meters":32800,"station_id":"ce4bh092rcd13ifvqd20","pricing_plan_id":"cebpf4jnsgd1na2vs0mg"},{"bike_id":"deca76b1-7d82-4cda-9d78-923f62bd21c3","system_id":"levelo_inurba_marseille","lat":43.337444,"lon":5.374475,"is_reserved":false,"is_disabled":false,"rental_uris":{"android":"levelo://app?vid=deca76b1-7d82-4cda-9d78-923f62bd21c3","ios":"levelo://app?vid=deca76b1-7d82-4cda-9d78-923f62bd21c3"},"vehicle_type_id":"4","last_reported":1773654795,"current_range_meters":38800,"station_id":"","pricing_plan_id":"cebpf4jnsgd1na2vs0mg"},{"bike_id":"b3e8b3aa-26db-449c-8162-0ed85a2bc616","system_id":"levelo_inurba_marseille","lat":43.31721,"lon":5.39519,"is_reserved":false,"is_disabled":false,"rental_uris":{"android":"levelo://app?vid=b3e8b3aa-26db-449c-8162-0ed85a2bc616","ios":"levelo://app?vid=b3e8b3aa-26db-449c-8162-0ed85a2bc616"},"vehicle_type_id":"4","last_reported":1773654795,"current_range_meters":20400,"station_id":"","pricing_plan_id":"cebpf4jnsgd1na2vs0mg"},{"bike_id":"0415130a-da16-48a1-9d0b-27915824da9e","system_id":"levelo_inurba_marseille","lat":43.30003,"lon":5.37181,"is_reserved":false,"is_disabled":false,"rental_uris":{"android":"levelo://app?vid=0415130a-da16-48a1-9d0b-27915824da9e","ios":"levelo://app?vid=0415130a-da16-48a1-9d0b-27915824da9e"},"vehicle_type_id":"4","last_reported":1773654795,"current_range_meters":4800,"station_id":"ce4bgr92rcd13ifvqc7g","pricing_plan_id":"cebpf4jnsgd1na2vs0mg"},{"bike_id":"7cf4be83-26ac-4c93-9356-1166c34c70ba","system_id":"levelo_inurba_marseille","lat":43.33014,"lon":5.41264,"is_reserved":false,"is_disabled":false,"rental_uris":{"android":"levelo://app?vid=7cf4be83-26ac-4c93-9356-1166c34c70ba","ios":"levelo://app?vid=7cf4be83-26ac-4c93-9356-1166c34c70ba"},"vehicle_type_id":"4","last_reported":1773654795,"current_range_meters":10800,"station_id":"","pricing_plan_id":"cebpf4jnsgd1na2vs0mg"},{"bike_id":"d03f9bdb-4ab4-4e1f-ae03-3cffd5c48c8d","system_id":"levelo_inurba_marseille","lat":43.22928,"lon":5.35381,"is_reserved":false,"is_disabled":false,"rental_uris":{"android":"levelo://app?vid=d03f9bdb-4ab4-4e1f-ae03-3cffd5c48c8d","ios":"levelo://app?vid=d03f9bdb-4ab4-4e1f-ae03-3cffd5c48c8d"},"vehicle_type_id":"4","last_reported":1773654795,"current_range_meters":10800,"station_id":"cpo3532slgdg3j2ikp40","pricing_plan_id":"cebpf4jnsgd1na2vs0mg"},{"bike_id":"0bc934b5-7c04-4747-ad3e-6dcb8b4efc58","system_id":"levelo_inurba_marseille","lat":43.30249,"lon":5.40088,"is_reserved":false,"is_disabled":false,"rental_uris":{"android":"levelo://app?vid=0bc934b5-7c04-4747-ad3e-6dcb8b4efc58","ios":"levelo://app?vid=0bc934b5-7c04-4747-ad3e-6dcb8b4efc58"},"vehicle_type_id":"4","last_reported":1773654795,"current_range_meters":39200,"station_id":"ce4bgvh2rcd13ifvqcs0","pricing_plan_id":"cebpf4jnsgd1na2vs0mg"},{"bike_id":"41f7a5e6-5e09-4ac7-8267-4af1b266aef0","system_id":"levelo_inurba_marseille","lat":43.27369,"lon":5.36247,"is_reserved":false,"is_disabled":true,"rental_uris":{"android":"levelo://app?vid=41f7a5e6-5e09-4ac7-8267-4af1b266aef0","ios":"levelo://app?vid=41f7a5e6-5e09-4ac7-8267-4af1b266aef0"},"vehicle_type_id":"4","last_reported":1773654795,"current_range_meters":34800,"station_id":"ce4bhbh2rcd13ifvqeo0","pricing_plan_id":"cebpf4jnsgd1na2vs0mg"},{"bike_id":"3cf91713-4e9f-4c8a-812f-e18f85f482d5","system_id":"levelo_inurba_marseille","lat":43.27368,"lon":5.3626,"is_reserved":false,"is_disabled":false,"rental_uris":{"android":"levelo://app?vid=3cf91713-4e9f-4c8a-812f-e18f85f482d5","ios":"levelo://app?vid=3cf91713-4e9f-4c8a-812f-e18f85f482d5"},"vehicle_type_id":"4","last_reported":1773654795,"current_range_meters":31200,"station_id":"ce4bhbh2rcd13ifvqeo0","pricing_plan_id":"cebpf4jnsgd1na2vs0mg"},{"bike_id":"0aa11af6-4a66-4b65-b781-8959dd3e1b05","system_id":"levelo_inurba_marseille","lat":43.2991,"lon":5.38077,"is_reserved":false,"is_disabled":false,"rental_uris":{"android":"levelo://app?vid=0aa11af6-4a66-4b65-b781-8959dd3e1b05","ios":"levelo://app?vid=0aa11af6-4a66-4b65-b781-8959dd3e1b05"},"vehicle_type_id":"4","last_reported":1773654795,"current_range_meters":28800,"station_id":"","pricing_plan_id":"cebpf4jnsgd1na2vs0mg"},{"bike_id":"1bb6f4d3-0e1a-4b07-a28b-2997a4dde9d7","system_id":"levelo_inurba_marseille","lat":43.25592,"lon":5.38238,"is_reserved":false,"is_disabled":false,"rental_uris":{"android":"levelo://app?vid=1bb6f4d3-0e1a-4b07-a28b-2997a4dde9d7","ios":"levelo://app?vid=1bb6f4d3-0e1a-4b07-a28b-2997a4dde9d7"},"vehicle_type_id":"4","last_reported":1773654795,"current_range_meters":16000,"station_id":"ce4bhih2rcd13ifvqfs0","pricing_plan_id":"cebpf4jnsgd1na2vs0mg"},{"bike_id":"c4997af9-0ce1-4c4d-877a-8bdb47c10212","system_id":"levelo_inurba_marseille","lat":43.28748,"lon":5.39989,"is_reserved":false,"is_disabled":false,"rental_uris":{"android":"levelo://app?vid=c4997af9-0ce1-4c4d-877a-8bdb47c10212","ios":"levelo://app?vid=c4997af9-0ce1-4c4d-877a-8bdb47c10212"},"vehicle_type_id":"4","last_reported":1773654795,"current_range_meters":29600,"station_id":"ce4bho92rcd13ifvqh3g","pricing_plan_id":"cebpf4jnsgd1na2vs0mg"},{"bike_id":"b573ef7e-3ef0-492b-a282-15d0167477a9","system_id":"levelo_inurba_marseille","lat":43.3015,"lon":5.3741,"is_reserved":false,"is_disabled":false,"rental_uris":{"android":"levelo://app?vid=b573ef7e-3ef0-492b-a282-15d0167477a9","ios":"levelo://app?vid=b573ef7e-3ef0-492b-a282-15d0167477a9"},"vehicle_type_id":"4","last_reported":1773654795,"current_range_meters":17600,"station_id":"ce4bgs92rcd13ifvqcc0","pricing_plan_id":"cebpf4jnsgd1na2vs0mg"},{"bike_id":"070475bf-1a52-421a-820b-baec73f3c197","system_id":"levelo_inurba_marseille","lat":43.26573,"lon":5.39011,"is_reserved":false,"is_disabled":false,"rental_uris":{"android":"levelo://app?vid=070475bf-1a52-421a-820b-baec73f3c197","ios":"levelo://app?vid=070475bf-1a52-421a-820b-baec73f3c197"},"vehicle_type_id":"4","last_reported":1773654795,"current_range_meters":36400,"station_id":"ce4bhe12rcd13ifvqf30","pricing_plan_id":"cebpf4jnsgd1na2vs0mg"},{"bike_id":"d580b3d2-4540-4599-aca2-cb3dfb6727eb","system_id":"levelo_inurba_marseille","lat":43.28846,"lon":5.39305,"is_reserved":false,"is_disabled":false,"rental_uris":{"android":"levelo://app?vid=d580b3d2-4540-4599-aca2-cb3dfb6727eb","ios":"levelo://app?vid=d580b3d2-4540-4599-aca2-cb3dfb6727eb"},"vehicle_type_id":"4","last_reported":1773654795,"current_range_meters":35600,"station_id":"ce4bh2p2rcd13ifvqdi0","pricing_plan_id":"cebpf4jnsgd1na2vs0mg"},{"bike_id":"c5301128-1c98-473f-b471-0306f238104d","system_id":"levelo_inurba_marseille","lat":43.23984,"lon":5.36611,"is_reserved":false,"is_disabled":false,"rental_uris":{"android":"levelo://app?vid=c5301128-1c98-473f-b471-0306f238104d","ios":"levelo://app?vid=c5301128-1c98-473f-b471-0306f238104d"},"vehicle_type_id":"4","last_reported":1773654795,"current_range_meters":37600,"station_id":"ce4bhi12rcd13ifvqfp0","pricing_plan_id":"cebpf4jnsgd1na2vs0mg"},{"bike_id":"c8f5ec7e-ccc6-49f8-b39a-2f757784a180","system_id":"levelo_inurba_marseille","lat":43.3145,"lon":5.37329,"is_reserved":false,"is_disabled":false,"rental_uris":{"android":"levelo://app?vid=c8f5ec7e-ccc6-49f8-b39a-2f757784a180","ios":"levelo://app?vid=c8f5ec7e-ccc6-49f8-b39a-2f757784a180"},"vehicle_type_id":"4","last_reported":1773654795,"current_range_meters":8400,"station_id":"ce4bgt12rcd13ifvqcd0","pricing_plan_id":"cebpf4jnsgd1na2vs0mg"},{"bike_id":"59c6c206-cb2d-498e-b5d4-afbeb631b392","system_id":"levelo_inurba_marseille","lat":43.29007,"lon":5.35614,"is_reserved":false,"is_disabled":false,"rental_uris":{"android":"levelo://app?vid=59c6c206-cb2d-498e-b5d4-afbeb631b392","ios":"levelo://app?vid=59c6c206-cb2d-498e-b5d4-afbeb631b392"},"vehicle_type_id":"4","last_reported":1773654795,"current_range_meters":12400,"station_id":"ce4bhb92rcd13ifvqen0","pricing_plan_id":"cebpf4jnsgd1na2vs0mg"},{"bike_id":"f505b7fb-59c0-4e9b-9f6b-da16344a75a6","system_id":"levelo_inurba_marseille","lat":43.28604,"lon":5.3512,"is_reserved":false,"is_disabled":false,"rental_uris":{"android":"levelo://app?vid=f505b7fb-59c0-4e9b-9f6b-da16344a75a6","ios":"levelo://app?vid=f505b7fb-59c0-4e9b-9f6b-da16344a75a6"},"vehicle_type_id":"4","last_reported":1773654795,"current_range_meters":37600,"station_id":"ce4bhch2rcd13ifvqeug","pricing_plan_id":"cebpf4jnsgd1na2vs0mg"},{"bike_id":"a3c5b423-a9fa-4272-80e8-5e01ae0ee9f8","system_id":"levelo_inurba_marseille","lat":43.26056,"lon":5.394,"is_reserved":false,"is_disabled":false,"rental_uris":{"android":"levelo://app?vid=a3c5b423-a9fa-4272-80e8-5e01ae0ee9f8","ios":"levelo://app?vid=a3c5b423-a9fa-4272-80e8-5e01ae0ee9f8"},"vehicle_type_id":"4","last_reported":1773654795,"current_range_meters":11200,"station_id":"ce4bhh92rcd13ifvqfj0","pricing_plan_id":"cebpf4jnsgd1na2vs0mg"},{"bike_id":"d8424054-6509-4dd6-8936-68fc2d266a65","system_id":"levelo_inurba_marseille","lat":43.2558,"lon":5.38235,"is_reserved":false,"is_disabled":false,"rental_uris":{"android":"levelo://app?vid=d8424054-6509-4dd6-8936-68fc2d266a65","ios":"levelo://app?vid=d8424054-6509-4dd6-8936-68fc2d266a65"},"vehicle_type_id":"4","last_reported":1773654795,"current_range_meters":39200,"station_id":"ce4bhih2rcd13ifvqfs0","pricing_plan_id":"cebpf4jnsgd1na2vs0mg"},{"bike_id":"c08790ee-290c-4751-aa26-71b718778d0d","system_id":"levelo_inurba_marseille","lat":43.28967,"lon":5.36622,"is_reserved":false,"is_disabled":false,"rental_uris":{"android":"levelo://app?vid=c08790ee-290c-4751-aa26-71b718778d0d","ios":"levelo://app?vid=c08790ee-290c-4751-aa26-71b718778d0d"},"vehicle_type_id":"4","last_reported":1773654795,"current_range_meters":39200,"station_id":"ce4bhap2rcd13ifvqek0","pricing_plan_id":"cebpf4jnsgd1na2vs0mg"},{"bike_id":"1a015caf-5869-4f89-80f8-4ca2a3c0d8ad","system_id":"levelo_inurba_marseille","lat":43.24841,"lon":5.37438,"is_reserved":false,"is_disabled":false,"rental_uris":{"android":"levelo://app?vid=1a015caf-5869-4f89-80f8-4ca2a3c0d8ad","ios":"levelo://app?vid=1a015caf-5869-4f89-80f8-4ca2a3c0d8ad"},"vehicle_type_id":"4","last_reported":1773654795,"current_range_meters":39200,"station_id":"","pricing_plan_id":"cebpf4jnsgd1na2vs0mg"},