{"last_updated":1685354811,"ttl":30,"version":"2.2","data":{"bikes":[{"bike_id":"940b2001-7592-4b57-b8f4-87c6f2a4771a","system_id":"levelo_inurba_marseille","lat":43.313391,"lon":5.36706,"is_reserved":false,"is_disabled":false,"rental_uris":{"android":"levelo://app?vid=940b2001-7592-4b57-b8f4-87c6f2a4771a","ios":"levelo://app?vid=940b2001-7592-4b57-b8f4-87c6f2a4771a"},"vehicle_type_id":"4","last_reported":1685354811,"current_range_meters":27600,"station_id":"ce4bgr92rcd13ifvqc6g","pricing_plan_id":"free"},{"bike_id":"8c2c6a1f-bfcd-48a0-be6c-00b274b3cc94","system_id":"levelo_inurba_marseille","lat":43.31346,"lon":5.36692,"is_reserved":false,"is_disabled":false,"rental_uris":{"android":"levelo://app?vid=8c2c6a1f-bfcd-48a0-be6c-00b274b3cc94","ios":"levelo://app?vid=8c2c6a1f-bfcd-48a0-be6c-00b274b3cc94"},"vehicle_type_id":"4","last_reported":1685354811,"current_range_meters":29200,"station_id":"ce4bgr92rcd13ifvqc6g","pricing_plan_id":"free"},{"bike_id":"31517a56-97e4-4d1d-a2f8-4ff2a44a8000","system_id":"levelo_inurba_marseille","lat":43.313391,"lon":5.36706,"is_reserved":false,"is_disabled":false,"rental_uris":{"android":"levelo://app?vid=31517a56-97e4-4d1d-a2f8-4ff2a44a8000","ios":"levelo://app?vid=31517a56-97e4-4d1d-a2f8-4ff2a44a8000"},"vehicle_type_id":"4","last_reported":1685354811,"current_range_meters":31200,"station_id":"ce4bgr92rcd13ifvqc6g","pricing_plan_id":"free"},{"bike_id":"402ccca3-6035-40e5-adb3-51301963a9d6","system_id":"levelo_inurba_marseille","lat":43.31349,"lon":5.36701,"is_reserved":false,"is_disabled":false,"rental_uris":{"android":"levelo://app?vid=402ccca3-6035-40e5-adb3-51301963a9d6","ios":"levelo://app?vid=402ccca3-6035-40e5-adb3-51301963a9d6"},"vehicle_type_id":"4","last_reported":1685354811,"current_range_meters":30000,"station_id":"ce4bgr92rcd13ifvqc6g","pricing_plan_id":"free"},{"bike_id":"fc5df670-e00a-4882-86d6-57562b4778e7","system_id":"levelo_inurba_marseille","lat":43.31351,"lon":5.36708,"is_reserved":false,"is_disabled":false,"rental_uris":{"android":"levelo://app?vid=fc5df670-e00a-4882-86d6-57562b4778e7","ios":"levelo://app?vid=fc5df670-e00a-4882-86d6-57562b4778e7"},"vehicle_type_id":"4","last_reported":1685354811,"current_range_meters":29200,"station_id":"ce4bgr92rcd13ifvqc6g","pricing_plan_id":"free"},{"bike_id":"71012bdb-7af0-4127-ba18-2aad7984aff7","system_id":"levelo_inurba_marseille","lat":43.31356,"lon":5.36712,"is_reserved":false,"is_disabled":false,"rental_uris":{"android":"levelo://app?vid=71012bdb-7af0-4127-ba18-2aad7984aff7","ios":"levelo://app?vid=71012bdb-7af0-4127-ba18-2aad7984aff7"},"vehicle_type_id":"4","last_reported":1685354811,"current_range_meters":24800,"station_id":"ce4bgr92rcd13ifvqc6g","pricing_plan_id":"free"},{"bike_id":"93fb35ce-5b65-47d0-98ec-af4bf7633058","system_id":"levelo_inurba_marseille","lat":43.312239,"lon":5.368562,"is_reserved":false,"is_disabled":false,"rental_uris":{"android":"levelo://app?vid=93fb35ce-5b65-47d0-98ec-af4bf7633058","ios":"levelo://app?vid=93fb35ce-5b65-47d0-98ec-af4bf7633058"},"vehicle_type_id":"4","last_reported":1685354811,"current_range_meters":30800,"station_id":"ce4bgl92rcd13ifvqbq0","pricing_plan_id":"free"},{"bike_id":"428d6a4d-1c90-48c8-9129-99af962bd6c5","system_id":"levelo_inurba_marseille","lat":43.312239,"lon":5.368562,"is_reserved":false,"is_disabled":false,"rental_uris":{"android":"levelo://app?vid=428d6a4d-1c90-48c8-9129-99af962bd6c5","ios":"levelo://app?vid=428d6a4d-1c90-48c8-9129-99af962bd6c5"},"vehicle_type_id":"4","last_reported":1685354811,"current_range_meters":27200,"station_id":"ce4bgl92rcd13ifvqbq0","pricing_plan_id":"free"},{"bike_id":"bde12189-5015-496c-ad9a-d34e59533c5b","system_id":"levelo_inurba_marseille","lat":43.312239,"lon":5.368562,"is_reserved":false,"is_disabled":false,"rental_uris":{"android":"levelo://app?vid=bde12189-5015-496c-ad9a-d34e59533c5b","ios":"levelo://app?vid=bde12189-5015-496c-ad9a-d34e59533c5b"},"vehicle_type_id":"4","last_reported":1685354811,"current_range_meters":18400,"station_id":"ce4bgl92rcd13ifvqbq0","pricing_plan_id":"free"},{"bike_id":"ba62f53f-c96d-4125-a2ad-5c3ce31452d9","system_id":"levelo_inurba_marseille","lat":43.312239,"lon":5.368562,"is_reserved":false,"is_disabled":false,"rental_uris":{"android":"levelo://app?vid=ba62f53f-c96d-4125-a2ad-5c3ce31452d9","ios":"levelo://app?vid=ba62f53f-c96d-4125-a2ad-5c3ce31452d9"},"vehicle_type_id":"4","last_reported":1685354811,"current_range_meters":30400,"station_id":"ce4bgl92rcd13ifvqbq0","pricing_plan_id":"free"},{"bike_id":"01597115-3ff6-48f6-a95f-5aa90ffcff55","system_id":"levelo_inurba_marseille","lat":43.312239,"lon":5.368562,"is_reserved":false,"is_disabled":false,"rental_uris":{"android":"levelo://app?vid=01597115-3ff6-48f6-a95f-5aa90ffcff55","ios":"levelo://app?vid=01597115-3ff6-48f6-a95f-5aa90ffcff55"},"vehicle_type_id":"4","last_reported":1685354811,"current_range_meters":26000,"station_id":"ce4bgl92rcd13ifvqbq0","pricing_plan_id":"free"},{"bike_id":"01631a75-5a72-419f-bad8-d0cdf3a8ed3b","system_id":"levelo_inurba_marseille","lat":43.312239,"lon":5.368562,"is_reserved":false,"is_disabled":false,"rental_uris":{"android":"levelo://app?vid=01631a75-5a72-419f-bad8-d0cdf3a8ed3b","ios":"levelo://app?vid=01631a75-5a72-419f-bad8-d0cdf3a8ed3b"},"vehicle_type_id":"4","last_reported":1685354811,"current_range_meters":11200,"station_id":"ce4bgl92rcd13ifvqbq0","pricing_plan_id":"free"},{"bike_id":"9325ecf4-ff47-40c3-bdbb-ecbdb9361211","system_id":"levelo_inurba_marseille","lat":43.312239,"lon":5.368562,"is_reserved":false,"is_disabled":false,"rental_uris":{"android":"levelo://app?vid=9325ecf4-ff47-40c3-bdbb-ecbdb9361211","ios":"levelo://app?vid=9325ecf4-ff47-40c3-bdbb-ecbdb9361211"},"vehicle_type_id":"4","last_reported":1685354811,"current_range_meters":31200,"station_id":"ce4bgl92rcd13ifvqbq0","pricing_plan_id":"free"},{"bike_id":"fc5491e5-68ae-4510-a109-71d98b485145","system_id":"levelo_inurba_marseille","lat":43.314811,"lon":5.373103,"is_reserved":false,"is_disabled":false,"rental_uris":{"android":"levelo://app?vid=fc5491e5-68ae-4510-a109-71d98b485145","ios":"levelo://app?vid=fc5491e5-68ae-4510-a109-71d98b485145"},"vehicle_type_id":"4","last_reported":1685354811,"current_range_meters":28000,"station_id":"ce4bgt12rcd13ifvqcd0","pricing_plan_id":"free"},{"bike_id":"50d39a45-0b37-444a-ab25-fb50229a846e","system_id":"levelo_inurba_marseille","lat":43.314811,"lon":5.373103,"is_reserved":false,"is_disabled":false,"rental_uris":{"android":"levelo://app?vid=50d39a45-0b37-444a-ab25-fb50229a846e","ios":"levelo://app?vid=50d39a45-0b37-444a-ab25-fb50229a846e"},"vehicle_type_id":"4","last_reported":1685354811,"current_range_meters":23200,"station_id":"ce4bgt12rcd13ifvqcd0","pricing_plan_id":"free"},{"bike_id":"7c4c8193-4d20-4306-a718-28380cdc404a","system_id":"levelo_inurba_marseille","lat":43.314811,"lon":5.373103,"is_reserved":false,"is_disabled":false,"rental_uris":{"android":"levelo://app?vid=7c4c8193-4d20-4306-a718-28380cdc404a","ios":"levelo://app?vid=7c4c8193-4d20-4306-a718-28380cdc404a"},"vehicle_type_id":"4","last_reported":1685354811,"current_range_meters":30000,"station_id":"ce4bgt12rcd13ifvqcd0","pricing_plan_id":"free"},{"bike_id":"cafa39a6-151e-4b43-8798-0e078854a369","system_id":"levelo_inurba_marseille","lat":43.314811,"lon":5.373104,"is_reserved":false,"is_disabled":false,"rental_uris":{"android":"levelo://app?vid=cafa39a6-151e-4b43-8798-0e078854a369","ios":"levelo://app?vid=cafa39a6-151e-4b43-8798-0e078854a369"},"vehicle_type_id":"4","last_reported":1685354811,"current_range_meters":31200,"station_id":"ce4bgt12rcd13ifvqcd0","pricing_plan_id":"free"},{"bike_id":"d226e977-3f0b-4b0c-a0e0-157c44aec210","system_id":"levelo_inurba_marseille","lat":43.314811,"lon":5.373104,"is_reserved":false,"is_disabled":false,"rental_uris":{"android":"levelo://app?vid=d226e977-3f0b-4b0c-a0e0-157c44aec210","ios":"levelo://app?vid=d226e977-3f0b-4b0c-a0e0-157c44aec210"},"vehicle_type_id":"4","last_reported":1685354811,"current_range_meters":28000,"station_id":"ce4bgt12rcd13ifvqcd0","pricing_plan_id":"free"},{"bike_id":"09ff56ca-723c-4b20-af2f-491b6f1b8a24","system_id":"levelo_inurba_marseille","lat":43.30887,"lon":5.37189,"is_reserved":false,"is_disabled":false,"rental_uris":{"android":"levelo://app?vid=09ff56ca-723c-4b20-af2f-491b6f1b8a24","ios":"levelo://app?vid=09ff56ca-723c-4b20-af2f-491b6f1b8a24"},"vehicle_type_id":"4","last_reported":1685354811,"current_range_meters":28000,"station_id":"","pricing_plan_id":"free"},{"bike_id":"a166aebb-1e35-4bf9-a906-18f0b913dd2b","system_id":"levelo_inurba_marseille","lat":43.305368,"lon":5.367343,"is_reserved":false,"is_disabled":false,"rental_uris":{"android":"levelo://app?vid=a166aebb-1e35-4bf9-a906-18f0b913dd2b","ios":"levelo://app?vid=a166aebb-1e35-4bf9-a906-18f0b913dd2b"},"vehicle_type_id":"4","last_reported":1685354811,"current_range_meters":8400,"station_id":"ce4bgrp2rcd13ifvqc9g","pricing_plan_id":"free"},{"bike_id":"51e4458b-b03b-472e-bbc4-7f163dbe5c8a","system_id":"levelo_inurba_marseille","lat":43.305368,"lon":5.367343,"is_reserved":false,"is_disabled":false,"rental_uris":{"android":"levelo://app?vid=51e4458b-b03b-472e-bbc4-7f163dbe5c8a","ios":"levelo://app?vid=51e4458b-b03b-472e-bbc4-7f163dbe5c8a"},"vehicle_type_id":"4","last_reported":1685354811,"current_range_meters":28800,"station_id":"ce4bgrp2rcd13ifvqc9g","pricing_plan_id":"free"},{"bike_id":"af369f2c-31d1-4b30-a619-0df2ff58cda9","system_id":"levelo_inurba_marseille","lat":43.305368,"lon":5.367343,"is_reserved":false,"is_disabled":false,"rental_uris":{"android":"levelo://app?vid=af369f2c-31d1-4b30-a619-0df2ff58cda9","ios":"levelo://app?vid=af369f2c-31d1-4b30-a619-0df2ff58cda9"},"vehicle_type_id":"4","last_reported":1685354811,"current_range_meters":18000,"station_id":"ce4bgrp2rcd13ifvqc9g","pricing_plan_id":"free"},{"bike_id":"a15574de-0b84-4e7e-8d3b-cd8b2d5f802a","system_id":"levelo_inurba_marseille","lat":43.305706,"lon":5.365654,"is_reserved":false,"is_disabled":false,"rental_uris":{"android":"levelo://app?vid=a15574de-0b84-4e7e-8d3b-cd8b2d5f802a","ios":"levelo://app?vid=a15574de-0b84-4e7e-8d3b-cd8b2d5f802a"},"vehicle_type_id":"4","last_reported":1685354811,"current_range_meters":17600,"station_id":"ce4bgs12rcd13ifvqcag","pricing_plan_id":"free"},{"bike_id":"502eaca2-c744-4cc9-a672-f9693d81411c","system_id":"levelo_inurba_marseille","lat":43.305706,"lon":5.365654,"is_reserved":false,"is_disabled":false,"rental_uris":{"android":"levelo://app?vid=502eaca2-c744-4cc9-a672-f9693d81411c","ios":"levelo://app?vid=502eaca2-c744-4cc9-a672-f9693d81411c"},"vehicle_type_id":"4","last_reported":1685354811,"current_range_meters":30000,"station_id":"ce4bgs12rcd13ifvqcag","pricing_plan_id":"free"},{"bike_id":"4c373154-4afe-4f52-8b48-57c423941a5b","system_id":"levelo_inurba_marseille","lat":43.305368,"lon":5.367343,"is_reserved":false,"is_disabled":false,"rental_uris":{"android":"levelo://app?vid=4c373154-4afe-4f52-8b48-57c423941a5b","ios":"levelo://app?vid=4c373154-4afe-4f52-8b48-57c423941a5b"},"vehicle_type_id":"4","last_reported":1685354811,"current_range_meters":23200,"station_id":"ce4bgrp2rcd13ifvqc9g","pricing_plan_id":"free"},{"bike_id":"7cdc1277-605a-4271-af82-4af19abb6634","system_id":"levelo_inurba_marseille","lat":43.305368,"lon":5.367343,"is_reserved":false,"is_disabled":false,"rental_uris":{"android":"levelo://app?vid=7cdc1277-605a-4271-af82-4af19abb6634","ios":"levelo://app?vid=7cdc1277-605a-4271-af82-4af19abb6634"},"vehicle_type_id":"4","last_reported":1685354811,"current_range_meters":20000,"station_id":"ce4bgrp2rcd13ifvqc9g","pricing_plan_id":"free"},{"bike_id":"061f2f60-b715-4704-9bd6-1e516d1ba848","system_id":"levelo_inurba_marseille","lat":43.305989,"lon":5.37225,"is_reserved":false,"is_disabled":false,"rental_uris":{"android":"levelo://app?vid=061f2f60-b715-4704-9bd6-1e516d1ba848","ios":"levelo://app?vid=061f2f60-b715-4704-9bd6-1e516d1ba848"},"vehicle_type_id":"4","last_reported":1685354811,"current_range_meters":15200,"station_id":"ce4bgqh2rcd13ifvqc4g","pricing_plan_id":"free"},{"bike_id":"1baa8182-01a4-494f-8c7c-6c54d62b76e8","system_id":"levelo_inurba_marseille","lat":43.305989,"lon":5.37225,"is_reserved":false,"is_disabled":false,"rental_uris":{"android":"levelo://app?vid=1baa8182-01a4-494f-8c7c-6c54d62b76e8","ios":"levelo://app?vid=1baa8182-01a4-494f-8c7c-6c54d62b76e8"},"vehicle_type_id":"4","last_reported":1685354811,"current_range_meters":29600,"station_id":"ce4bgqh2rcd13ifvqc4g","pricing_plan_id":"free"},{"bike_id":"c2dacee4-95e9-422f-88b1-0c1975b3a478","system_id":"levelo_inurba_marseille","lat":43.305989,"lon":5.37225,"is_reserved":false,"is_disabled":false,"rental_uris":{"android":"levelo://app?vid=c2dacee4-95e9-422f-88b1-0c1975b3a478","ios":"levelo://app?vid=c2dacee4-95e9-422f-88b1-0c1975b3a478"},"vehicle_type_id":"4","last_reported":1685354811,"current_range_meters":31200,"station_id":"ce4bgqh2rcd13ifvqc4g","pricing_plan_id":"free"},{"bike_id":"9e6539e6-addd-4cb9-a871-ce0c5f834281","system_id":"levelo_inurba_marseille","lat":43.306039,"lon":5.372336,"is_reserved":false,"is_disabled":false,"rental_uris":{"android":"levelo://app?vid=9e6539e6-addd-4cb9-a871-ce0c5f834281","ios":"levelo://app?vid=9e6539e6-addd-4cb9-a871-ce0c5f834281"},"vehicle_type_id":"4","last_reported":1685354811,"current_range_meters":30000,"station_id":"","pricing_plan_id":"free"},{"bike_id":"00ff1957-d89a-409f-a388-9a018ba2d252","system_id":"levelo_inurba_marseille","lat":43.305989,"lon":5.37225,"is_reserved":false,"is_disabled":false,"rental_uris":{"android":"levelo://app?vid=00ff1957-d89a-409f-a388-9a018ba2d252","ios":"levelo://app?vid=00ff1957-d89a-409f-a388-9a018ba2d252"},"vehicle_type_id":"4","last_reported":1685354811,"current_range_meters":22400,"station_id":"ce4bgqh2rcd13ifvqc4g","pricing_plan_id":"free"},{"bike_id":"a1cdb12c-0b45-4117-8f42-1b1145ff4526","system_id":"levelo_inurba_marseille","lat":43.311131,"lon":5.377651,"is_reserved":false,"is_disabled":false,"rental_uris":{"android":"levelo://app?vid=a1cdb12c-0b45-4117-8f42-1b1145ff4526","ios":"levelo://app?vid=a1cdb12c-0b45-4117-8f42-1b1145ff4526"},"vehicle_type_id":"4","last_reported":1685354811,"current_range_meters":25200,"station_id":"ce4bgt92rcd13ifvqcg0","pricing_plan_id":"free"},{"bike_id":"1bd0ee59-3467-428b-8628-87bd08eb7521","system_id":"levelo_inurba_marseille","lat":43.31124,"lon":5.37764,"is_reserved":false,"is_disabled":false,"rental_uris":{"android":"levelo://app?vid=1bd0ee59-3467-428b-8628-87bd08eb7521","ios":"levelo://app?vid=1bd0ee59-3467-428b-8628-87bd08eb7521"},"vehicle_type_id":"4","last_reported":1685354811,"current_range_meters":23200,"station_id":"ce4bgt92rcd13ifvqcg0","pricing_plan_id":"free"},{"bike_id":"d401fec2-02df-433d-b5fe-f4dd12a3a073","system_id":"levelo_inurba_marseille","lat":43.311125,"lon":5.377624,"is_reserved":false,"is_disabled":false,"rental_uris":{"android":"levelo://app?vid=d401fec2-02df-433d-b5fe-f4dd12a3a073","ios":"levelo://app?vid=d401fec2-02df-433d-b5fe-f4dd12a3a073"},"vehicle_type_id":"4","last_reported":1685354811,"current_range_meters":28400,"station_id":"ce4bgt92rcd13ifvqcg0","pricing_plan_id":"free"},{"bike_id":"0d512558-5ef9-46f3-bb93-65c56b740327","system_id":"levelo_inurba_marseille","lat":43.311125,"lon":5.377624,"is_reserved":false,"is_disabled":false,"rental_uris":{"android":"levelo://app?vid=0d512558-5ef9-46f3-bb93-65c56b740327","ios":"levelo://app?vid=0d512558-5ef9-46f3-bb93-65c56b740327"},"vehicle_type_id":"4","last_reported":1685354811,"current_range_meters":21200,"station_id":"ce4bgt92rcd13ifvqcg0","pricing_plan_id":"free"},{"bike_id":"cfe8b94b-e6f8-4730-bb47-d0b7129b7594","system_id":"levelo_inurba_marseille","lat":43.30921,"lon":5.37685,"is_reserved":false,"is_disabled":false,"rental_uris":{"android":"levelo://app?vid=cfe8b94b-e6f8-4730-bb47-d0b7129b7594","ios":"levelo://app?vid=cfe8b94b-e6f8-4730-bb47-d0b7129b7594"},"vehicle_type_id":"4","last_reported":1685354811,"current_range_meters":20800,"station_id":"","pricing_plan_id":"free"},{"bike_id":"ac46bd21-4552-4c0d-9719-e4d4af40510d","system_id":"levelo_inurba_marseille","lat":43.317075,"lon":5.377367,"is_reserved":false,"is_disabled":false,"rental_uris":{"android":"levelo://app?vid=ac46bd21-4552-4c0d-9719-e4d4af40510d","ios":"levelo://app?vid=ac46bd21-4552-4c0d-9719-e4d4af40510d"},"vehicle_type_id":"4","last_reported":1685354811,"current_range_meters":23600,"station_id":"ce4bgth2rcd13ifvqch0","pricing_plan_id":"free"},{"bike_id":"f58e8f23-e58e-4590-a365-bb46d88dffc9","system_id":"levelo_inurba_marseille","lat":43.303046,"lon":5.368981,"is_reserved":false,"is_disabled":false,"rental_uris":{"android":"levelo://app?vid=f58e8f23-e58e-4590-a365-bb46d88dffc9","ios":"levelo://app?vid=f58e8f23-e58e-4590-a365-bb46d88dffc9"},"vehicle_type_id":"4","last_reported":1685354811,"current_range_meters":20000,"station_id":"ce4bgqh2rcd13ifvqc5g","pricing_plan_id":"free"},{"bike_id":"ed4a4d44-378b-4161-a77d-8196dbf8baa8","system_id":"levelo_inurba_marseille","lat":43.303056,"lon":5.369006,"is_reserved":false,"is_disabled":false,"rental_uris":{"android":"levelo://app?vid=ed4a4d44-378b-4161-a77d-8196dbf8baa8","ios":"levelo://app?vid=ed4a4d44-378b-4161-a77d-8196dbf8baa8"},"vehicle_type_id":"4","last_reported":1685354811,"current_range_meters":19200,"station_id":"ce4bgqh2rcd13ifvqc5g","pricing_plan_id":"free"},{"bike_id":"9a7d1a88-7bc5-4bee-a909-7b1c07088442","system_id":"levelo_inurba_marseille","lat":43.315293,"lon":5.380349,"is_reserved":false,"is_disabled":false,"rental_uris":{"android":"levelo://app?vid=9a7d1a88-7bc5-4bee-a909-7b1c07088442","ios":"levelo://app?vid=9a7d1a88-7bc5-4bee-a909-7b1c07088442"},"vehicle_type_id":"4","last_reported":1685354811,"current_range_meters":24800,"station_id":"ce4bhsp2rcd13ifvqi50","pricing_plan_id":"free"},{"bike_id":"d03dfde3-848d-4a12-b8c5-302f4c16e8c3","system_id":"levelo_inurba_marseille","lat":43.315293,"lon":5.380349,"is_reserved":false,"is_disabled":false,"rental_uris":{"android":"levelo://app?vid=d03dfde3-848d-4a12-b8c5-302f4c16e8c3","ios":"levelo://app?vid=d03dfde3-848d-4a12-b8c5-302f4c16e8c3"},"vehicle_type_id":"4","last_reported":1685354811,"current_range_meters":18400,"station_id":"ce4bhsp2rcd13ifvqi50","pricing_plan_id":"free"},{"bike_id":"d35a04e4-8986-4b90-9bc4-99f3aac692f3","system_id":"levelo_inurba_marseille","lat":43.301939,"lon":5.366286,"is_reserved":false,"is_disabled":false,"rental_uris":{"android":"levelo://app?vid=d35a04e4-8986-4b90-9bc4-99f3aac692f3","ios":"levelo://app?vid=d35a04e4-8986-4b90-9bc4-99f3aac692f3"},"vehicle_type_id":"4","last_reported":1685354811,"current_range_meters":16400,"station_id":"ce4bgrh2rcd13ifvqc8g","pricing_plan_id":"free"},{"bike_id":"7cde5d5a-8b43-45a4-86a5-5b645d24df2f","system_id":"levelo_inurba_marseille","lat":43.301939,"lon":5.366286,"is_reserved":false,"is_disabled":false,"rental_uris":{"android":"levelo://app?vid=7cde5d5a-8b43-45a4-86a5-5b645d24df2f","ios":"levelo://app?vid=7cde5d5a-8b43-45a4-86a5-5b645d24df2f"},"vehicle_type_id":"4","last_reported":1685354811,"current_range_meters":24800,"station_id":"ce4bgrh2rcd13ifvqc8g","pricing_plan_id":"free"},{"bike_id":"d68f79a7-cff8-4565-ae77-5e7948170001","system_id":"levelo_inurba_marseille","lat":43.313571,"lon":5.384829,"is_reserved":false,"is_disabled":false,"rental_uris":{"android":"levelo://app?vid=d68f79a7-cff8-4565-ae77-5e7948170001","ios":"levelo://app?vid=d68f79a7-cff8-4565-ae77-5e7948170001"},"vehicle_type_id":"4","last_reported":1685354811,"current_range_meters":25600,"station_id":"ce4bgt92rcd13ifvqcf0","pricing_plan_id":"free"},{"bike_id":"0044db71-46c6-493d-9472-6351332f7424","system_id":"levelo_inurba_marseille","lat":43.304606,"lon":5.379026,"is_reserved":false,"is_disabled":false,"rental_uris":{"android":"levelo://app?vid=0044db71-46c6-493d-9472-6351332f7424","ios":"levelo://app?vid=0044db71-46c6-493d-9472-6351332f7424"},"vehicle_type_id":"4","last_reported":1685354811,"current_range_meters":31200,"station_id":"ce4bgup2rcd13ifvqcn0","pricing_plan_id":"free"},{"bike_id":"ce1eadfd-bbe9-4878-b30b-e635de2be166","system_id":"levelo_inurba_marseille","lat":43.304606,"lon":5.379026,"is_reserved":false,"is_disabled":false,"rental_uris":{"android":"levelo://app?vid=ce1eadfd-bbe9-4878-b30b-e635de2be166","ios":"levelo://app?vid=ce1eadfd-bbe9-4878-b30b-e635de2be166"},"vehicle_type_id":"4","last_reported":1685354811,"current_range_meters":23600,"station_id":"ce4bgup2rcd13ifvqcn0","pricing_plan_id":"free"},{"bike_id":"7b4e7e72-8358-416e-9fcc-686ff3eb5a2d","system_id":"levelo_inurba_marseille","lat":43.304606,"lon":5.379026,"is_reserved":false,"is_disabled":false,"rental_uris":{"android":"levelo://app?vid=7b4e7e72-8358-416e-9fcc-686ff3eb5a2d","ios":"levelo://app?vid=7b4e7e72-8358-416e-9fcc-686ff3eb5a2d"},"vehicle_type_id":"4","last_reported":1685354811,"current_range_meters":28000,"station_id":"ce4bgup2rcd13ifvqcn0","pricing_plan_id":"free"},{"bike_id":"da9b3511-a106-4de8-b2ee-355fdcbb7876","system_id":"levelo_inurba_marseille","lat":43.304606,"lon":5.379026,"is_reserved":false,"is_disabled":false,"rental_uris":{"android":"levelo://app?vid=da9b3511-a106-4de8-b2ee-355fdcbb7876","ios":"levelo://app?vid=da9b3511-a106-4de8-b2ee-355fdcbb7876"},"vehicle_type_id":"4","last_reported":1685354811,"current_range_meters":15600,"station_id":"ce4bgup2rcd13ifvqcn0","pricing_plan_id":"free"},{"bike_id":"1d525216-7286-49b8-8698-793b5f4cd1e8","system_id":"levelo_inurba_marseille","lat":43.298433,"lon":5.362774,"is_reserved":false,"is_disabled":false,"rental_uris":{"android":"levelo://app?vid=1d525216-7286-49b8-8698-793b5f4cd1e8","ios":"levelo://app?vid=1d525216-7286-49b8-8698-793b5f4cd1e8"},"vehicle_type_id":"4","last_reported":1685354811,"current_range_meters":27600,"station_id":"ce4bgpp2rcd13ifvqc3g","pricing_plan_id":"free"},{"bike_id":"5f6421bb-fd4f-4a23-a760-591a1ea1eab4","system_id":"levelo_inurba_marseille","lat":43.298433,"lon":5.362774,"is_reserved":false,"is_disabled":false,"rental_uris":{"android":"levelo://app?vid=5f6421bb-fd4f-4a23-a760-591a1ea1eab4","ios":"levelo://app?vid=5f6421bb-fd4f-4a23-a760-591a1ea1eab4"},"vehicle_type_id":"4","last_reported":1685354811,"current_range_meters":24800,"station_id":"ce4bgpp2rcd13ifvqc3g","pricing_plan_id":"free"},{"bike_id":"cfbeaa0d-d5e1-4854-831f-55481f86303c","system_id":"levelo_inurba_marseille","lat":43.298433,"lon":5.362774,"is_reserved":false,"is_disabled":false,"rental_uris":{"android":"levelo://app?vid=cfbeaa0d-d5e1-4854-831f-55481f86303c","ios":"levelo://app?vid=cfbeaa0d-d5e1-4854-831f-55481f86303c"},"vehicle_type_id":"4","last_reported":1685354811,"current_range_meters":26400,"station_id":"ce4bgpp2rcd13ifvqc3g","pricing_plan_id":"free"},{"bike_id":"e15d0be6-369b-4bf0-9084-2907e33ad23f","system_id":"levelo_inurba_marseille","lat":43.298433,"lon":5.362774,"is_reserved":false,"is_disabled":false,"rental_uris":{"android":"levelo://app?vid=e15d0be6-369b-4bf0-9084-2907e33ad23f","ios":"levelo://app?vid=e15d0be6-369b-4bf0-9084-2907e33ad23f"},"vehicle_type_id":"4","last_reported":1685354811,"current_range_meters":31200,"station_id":"ce4bgpp2rcd13ifvqc3g","pricing_plan_id":"free"},{"bike_id":"a9a0077b-4461-4817-9067-c4c19fbe4e42","system_id":"levelo_inurba_marseille","lat":43.298433,"lon":5.362774,"is_reserved":false,"is_disabled":false,"rental_uris":{"android":"levelo://app?vid=a9a0077b-4461-4817-9067-c4c19fbe4e42","ios":"levelo://app?vid=a9a0077b-4461-4817-9067-c4c19fbe4e42"},"vehicle_type_id":"4","last_reported":1685354811,"current_range_meters":28800,"station_id":"ce4bgpp2rcd13ifvqc3g","pricing_plan_id":"free"},{"bike_id":"936957ae-1140-4f5c-9809-7e628422a747","system_id":"levelo_inurba_marseille","lat":43.298433,"lon":5.362774,"is_reserved":false,"is_disabled":false,"rental_uris":{"android":"levelo://app?vid=936957ae-1140-4f5c-9809-7e628422a747","ios":"levelo://app?vid=936957ae-1140-4f5c-9809-7e628422a747"},"vehicle_type_id":"4","last_reported":1685354811,"current_range_meters":7200,"station_id":"ce4bgpp2rcd13ifvqc3g","pricing_plan_id":"free"},{"bike_id":"14f2d4ab-ef49-4fce-a47b-7cdf9b51c3ed","system_id":"levelo_inurba_marseille","lat":43.298433,"lon":5.362774,"is_reserved":false,"is_disabled":false,"rental_uris":{"android":"levelo://app?vid=14f2d4ab-ef49-4fce-a47b-7cdf9b51c3ed","ios":"levelo://app?vid=14f2d4ab-ef49-4fce-a47b-7cdf9b51c3ed"},"vehicle_type_id":"4","last_reported":1685354811,"current_range_meters":31200,"station_id":"ce4bgpp2rcd13ifvqc3g","pricing_plan_id":"free"},{"bike_id":"9e0e5ca3-496a-43f3-9a58-703483b4b8eb","system_id":"levelo_inurba_marseille","lat":43.298433,"lon":5.362774,"is_reserved":false,"is_disabled":false,"rental_uris":{"android":"levelo://app?vid=9e0e5ca3-496a-43f3-9a58-703483b4b8eb","ios":"levelo://app?vid=9e0e5ca3-496a-43f3-9a58-703483b4b8eb"},"vehicle_type_id":"4","last_reported":1685354811,"current_range_meters":30400,"station_id":"ce4bgpp2rcd13ifvqc3g","pricing_plan_id":"free"},{"bike_id":"29af8e36-e513-41d4-9dc2-2da1cbd9adac","system_id":"levelo_inurba_marseille","lat":43.299243,"lon":5.37481,"is_reserved":false,"is_disabled":false,"rental_uris":{"android":"levelo://app?vid=29af8e36-e513-41d4-9dc2-2da1cbd9adac","ios":"levelo://app?vid=29af8e36-e513-41d4-9dc2-2da1cbd9adac"},"vehicle_type_id":"4","last_reported":1685354811,"current_range_meters":21200,"station_id":"ce4bgjh2rcd13ifvqbg0","pricing_plan_id":"free"},{"bike_id":"6b06d5af-3399-4abe-b739-473c053931de","system_id":"levelo_inurba_marseille","lat":43.298433,"lon":5.362774,"is_reserved":false,"is_disabled":false,"rental_uris":{"android":"levelo://app?vid=6b06d5af-3399-4abe-b739-473c053931de","ios":"levelo://app?vid=6b06d5af-3399-4abe-b739-473c053931de"},"vehicle_type_id":"4","last_reported":1685354811,"current_range_meters":28400,"station_id":"ce4bgpp2rcd13ifvqc3g","pricing_plan_id":"free"},{"bike_id":"e5e92baa-6723-4455-a14a-0a5bdc64f887","system_id":"levelo_inurba_marseille","lat":43.299243,"lon":5.37481,"is_reserved":false,"is_disabled":false,"rental_uris":{"android":"levelo://app?vid=e5e92baa-6723-4455-a14a-0a5bdc64f887","ios":"levelo://app?vid=e5e92baa-6723-4455-a14a-0a5bdc64f887"},"vehicle_type_id":"4","last_reported":1685354811,"current_range_meters":31200,"station_id":"ce4bgjh2rcd13ifvqbg0","pricing_plan_id":"free"},{"bike_id":"99a83d4a-6b12-4379-b8ee-383c670dc125","system_id":"levelo_inurba_marseille","lat":43.298433,"lon":5.362774,"is_reserved":false,"is_disabled":false,"rental_uris":{"android":"levelo://app?vid=99a83d4a-6b12-4379-b8ee-383c670dc125","ios":"levelo://app?vid=99a83d4a-6b12-4379-b8ee-383c670dc125"},"vehicle_type_id":"4","last_reported":1685354811,"current_range_meters":28400,"station_id":"ce4bgpp2rcd13ifvqc3g","pricing_plan_id":"free"},{"bike_id":"04285a28-16ba-4b98-a700-c9b6c0efe70a","system_id":"levelo_inurba_marseille","lat":43.311722,"lon":5.387247,"is_reserved":false,"is_disabled":false,"rental_uris":{"android":"levelo://app?vid=04285a28-16ba-4b98-a700-c9b6c0efe70a","ios":"levelo://app?vid=04285a28-16ba-4b98-a700-c9b6c0efe70a"},"vehicle_type_id":"4","last_reported":1685354811,"current_range_meters":19200,"station_id":"ce4bgv12rcd13ifvqcp0","pricing_plan_id":"free"},{"bike_id":"5895156f-f83a-4b54-a0b5-57f02c18ef1a","system_id":"levelo_inurba_marseille","lat":43.328371,"lon":5.366912,"is_reserved":false,"is_disabled":false,"rental_uris":{"android":"levelo://app?vid=5895156f-f83a-4b54-a0b5-57f02c18ef1a","ios":"levelo://app?vid=5895156f-f83a-4b54-a0b5-57f02c18ef1a"},"vehicle_type_id":"4","last_reported":1685354811,"current_range_meters":22800,"station_id":"ce4bhs92rcd13ifvqi0g","pricing_plan_id":"free"},{"bike_id":"85bd337c-95b8-41c4-acad-eea10ed96e55","system_id":"levelo_inurba_marseille","lat":43.328371,"lon":5.366912,"is_reserved":false,"is_disabled":false,"rental_uris":{"android":"levelo://app?vid=85bd337c-95b8-41c4-acad-eea10ed96e55","ios":"levelo://app?vid=85bd337c-95b8-41c4-acad-eea10ed96e55"},"vehicle_type_id":"4","last_reported":1685354811,"current_range_meters":10400,"station_id":"ce4bhs92rcd13ifvqi0g","pricing_plan_id":"free"},{"bike_id":"eaaaca8a-5144-400c-a545-6580a399e6dc","system_id":"levelo_inurba_marseille","lat":43.328371,"lon":5.366912,"is_reserved":false,"is_disabled":false,"rental_uris":{"android":"levelo://app?vid=eaaaca8a-5144-400c-a545-6580a399e6dc","ios":"levelo://app?vid=eaaaca8a-5144-400c-a545-6580a399e6dc"},"vehicle_type_id":"4","last_reported":1685354811,"current_range_meters":16800,"station_id":"ce4bhs92rcd13ifvqi0g","pricing_plan_id":"free"},{"bike_id":"39f0b63d-3425-4917-a4ec-6e10d4e34869","system_id":"levelo_inurba_marseille","lat":43.3283,"lon":5.36679,"is_reserved":false,"is_disabled":false,"rental_uris":{"android":"levelo://app?vid=39f0b63d-3425-4917-a4ec-6e10d4e34869","ios":"levelo://app?vid=39f0b63d-3425-4917-a4ec-6e10d4e34869"},"vehicle_type_id":"4","last_reported":1685354811,"current_range_meters":22800,"station_id":"ce4bhs92rcd13ifvqi0g","pricing_plan_id":"free"},{"bike_id":"d11da2d4-50ab-475d-a497-999f76f85bd5","system_id":"levelo_inurba_marseille","lat":43.32832,"lon":5.36682,"is_reserved":false,"is_disabled":false,"rental_uris":{"android":"levelo://app?vid=d11da2d4-50ab-475d-a497-999f76f85bd5","ios":"levelo://app?vid=d11da2d4-50ab-475d-a497-999f76f85bd5"},"vehicle_type_id":"4","last_reported":1685354811,"current_range_meters":22800,"station_id":"ce4bhs92rcd13ifvqi0g","pricing_plan_id":"free"},{"bike_id":"450e3cce-c604-4299-8daa-749739d3bfa4","system_id":"levelo_inurba_marseille","lat":43.328332,"lon":5.366961,"is_reserved":false,"is_disabled":false,"rental_uris":{"android":"levelo://app?vid=450e3cce-c604-4299-8daa-749739d3bfa4","ios":"levelo://app?vid=450e3cce-c604-4299-8daa-749739d3bfa4"},"vehicle_type_id":"4","last_reported":1685354811,"current_range_meters":16400,"station_id":"","pricing_plan_id":"free"},{"bike_id":"bb02e8c4-7ece-4a76-841a-f5003b7fc8ba","system_id":"levelo_inurba_marseille","lat":43.29715,"lon":5.36602,"is_reserved":false,"is_disabled":false,"rental_uris":{"android":"levelo://app?vid=bb02e8c4-7ece-4a76-841a-f5003b7fc8ba","ios":"levelo://app?vid=bb02e8c4-7ece-4a76-841a-f5003b7fc8ba"},"vehicle_type_id":"4","last_reported":1685354811,"current_range_meters":10800,"station_id":"","pricing_plan_id":"free"},{"bike_id":"60edb3b2-d8e9-4c71-b2fa-9e940834a4e9","system_id":"levelo_inurba_marseille","lat":43.32835,"lon":5.36684,"is_reserved":false,"is_disabled":false,"rental_uris":{"android":"levelo://app?vid=60edb3b2-d8e9-4c71-b2fa-9e940834a4e9","ios":"levelo://app?vid=60edb3b2-d8e9-4c71-b2fa-9e940834a4e9"},"vehicle_type_id":"4","last_reported":1685354811,"current_range_meters":25600,"station_id":"ce4bhs92rcd13ifvqi0g","pricing_plan_id":"free"},{"bike_id":"12882c5f-6199-4329-88b4-eaad11931b47","system_id":"levelo_inurba_marseille","lat":43.29713,"lon":5.36616,"is_reserved":false,"is_disabled":false,"rental_uris":{"android":"levelo://app?vid=12882c5f-6199-4329-88b4-eaad11931b47","ios":"levelo://app?vid=12882c5f-6199-4329-88b4-eaad11931b47"},"vehicle_type_id":"4","last_reported":1685354811,"current_range_meters":26000,"station_id":"","pricing_plan_id":"free"},{"bike_id":"37b0f05a-6d95-4eb8-a5ca-6af508b1fc5f","system_id":"levelo_inurba_marseille","lat":43.2968,"lon":5.37291,"is_reserved":false,"is_disabled":false,"rental_uris":{"android":"levelo://app?vid=37b0f05a-6d95-4eb8-a5ca-6af508b1fc5f","ios":"levelo://app?vid=37b0f05a-6d95-4eb8-a5ca-6af508b1fc5f"},"vehicle_type_id":"4","last_reported":1685354811,"current_range_meters":30000,"station_id":"ce4bgk12rcd13ifvqbj0","pricing_plan_id":"free"},{"bike_id":"008f50da-9ed9-43bd-b830-f7dc4cb193de","system_id":"levelo_inurba_marseille","lat":43.2968,"lon":5.37291,"is_reserved":false,"is_disabled":false,"rental_uris":{"android":"levelo://app?vid=008f50da-9ed9-43bd-b830-f7dc4cb193de","ios":"levelo://app?vid=008f50da-9ed9-43bd-b830-f7dc4cb193de"},"vehicle_type_id":"4","last_reported":1685354811,"current_range_meters":31200,"station_id":"ce4bgk12rcd13ifvqbj0","pricing_plan_id":"free"},{"bike_id":"1a9da52b-f690-4d8c-8890-5e9b0173e622","system_id":"levelo_inurba_marseille","lat":43.29573,"lon":5.367355,"is_reserved":false,"is_disabled":false,"rental_uris":{"android":"levelo://app?vid=1a9da52b-f690-4d8c-8890-5e9b0173e622","ios":"levelo://app?vid=1a9da52b-f690-4d8c-8890-5e9b0173e622"},"vehicle_type_id":"4","last_reported":1685354811,"current_range_meters":28800,"station_id":"ce4bgph2rcd13ifvqc2g","pricing_plan_id":"free"},{"bike_id":"72a39bb0-626f-432a-b29f-85c9dd7998f2","system_id":"levelo_inurba_marseille","lat":43.299028,"lon":5.381509,"is_reserved":false,"is_disabled":false,"rental_uris":{"android":"levelo://app?vid=72a39bb0-626f-432a-b29f-85c9dd7998f2","ios":"levelo://app?vid=72a39bb0-626f-432a-b29f-85c9dd7998f2"},"vehicle_type_id":"4","last_reported":1685354811,"current_range_meters":24000,"station_id":"ce4bgj12rcd13ifvqbc0","pricing_plan_id":"free"},{"bike_id":"8f95eb7f-6e9d-4f82-805b-e8029bb76891","system_id":"levelo_inurba_marseille","lat":43.296935,"lon":5.376544,"is_reserved":false,"is_disabled":false,"rental_uris":{"android":"levelo://app?vid=8f95eb7f-6e9d-4f82-805b-e8029bb76891","ios":"levelo://app?vid=8f95eb7f-6e9d-4f82-805b-e8029bb76891"},"vehicle_type_id":"4","last_reported":1685354811,"current_range_meters":26800,"station_id":"ce4bgkh2rcd13ifvqbl0","pricing_plan_id":"free"},{"bike_id":"b0d4e2ad-3549-4cdf-ba8e-845396640965","system_id":"levelo_inurba_marseille","lat":43.317557,"lon":5.390173,"is_reserved":false,"is_disabled":false,"rental_uris":{"android":"levelo://app?vid=b0d4e2ad-3549-4cdf-ba8e-845396640965","ios":"levelo://app?vid=b0d4e2ad-3549-4cdf-ba8e-845396640965"},"vehicle_type_id":"4","last_reported":1685354811,"current_range_meters":16800,"station_id":"ce4bhqp2rcd13ifvqhng","pricing_plan_id":"free"},{"bike_id":"4e47e224-f043-4b39-8717-7e2398006d83","system_id":"levelo_inurba_marseille","lat":43.298037,"lon":5.381066,"is_reserved":false,"is_disabled":false,"rental_uris":{"android":"levelo://app?vid=4e47e224-f043-4b39-8717-7e2398006d83","ios":"levelo://app?vid=4e47e224-f043-4b39-8717-7e2398006d83"},"vehicle_type_id":"4","last_reported":1685354811,"current_range_meters":22400,"station_id":"ce4bgip2rcd13ifvqbb0","pricing_plan_id":"free"},{"bike_id":"e3a3bdaa-8855-4ecf-ab5a-799a90bd0485","system_id":"levelo_inurba_marseille","lat":43.295748,"lon":5.37522,"is_reserved":false,"is_disabled":false,"rental_uris":{"android":"levelo://app?vid=e3a3bdaa-8855-4ecf-ab5a-799a90bd0485","ios":"levelo://app?vid=e3a3bdaa-8855-4ecf-ab5a-799a90bd0485"},"vehicle_type_id":"4","last_reported":1685354811,"current_range_meters":27200,"station_id":"ce4bgh92rcd13ifvqb50","pricing_plan_id":"free"},{"bike_id":"cafb1b0b-2691-400f-92fe-372245728918","system_id":"levelo_inurba_marseille","lat":43.298037,"lon":5.381066,"is_reserved":false,"is_disabled":false,"rental_uris":{"android":"levelo://app?vid=cafb1b0b-2691-400f-92fe-372245728918","ios":"levelo://app?vid=cafb1b0b-2691-400f-92fe-372245728918"},"vehicle_type_id":"4","last_reported":1685354811,"current_range_meters":31200,"station_id":"ce4bgip2rcd13ifvqbb0","pricing_plan_id":"free"},{"bike_id":"ddfffe7f-ecf3-4188-879b-1dc09c6ec0d1","system_id":"levelo_inurba_marseille","lat":43.32371,"lon":5.3889,"is_reserved":false,"is_disabled":false,"rental_uris":{"android":"levelo://app?vid=ddfffe7f-ecf3-4188-879b-1dc09c6ec0d1","ios":"levelo://app?vid=ddfffe7f-ecf3-4188-879b-1dc09c6ec0d1"},"vehicle_type_id":"4","last_reported":1685354811,"current_range_meters":12400,"station_id":"ce4bhqp2rcd13ifvqhog","pricing_plan_id":"free"},{"bike_id":"6b8e5bfc-f1d8-4bc0-838a-b67019bf593e","system_id":"levelo_inurba_marseille","lat":43.29602,"lon":5.381084,"is_reserved":false,"is_disabled":false,"rental_uris":{"android":"levelo://app?vid=6b8e5bfc-f1d8-4bc0-838a-b67019bf593e","ios":"levelo://app?vid=6b8e5bfc-f1d8-4bc0-838a-b67019bf593e"},"vehicle_type_id":"4","last_reported":1685354811,"current_range_meters":22800,"station_id":"ce4bgl12rcd13ifvqbo0","pricing_plan_id":"free"},{"bike_id":"40b49f02-cfc9-4667-99ba-53e2f6fcd1ba","system_id":"levelo_inurba_marseille","lat":43.29602,"lon":5.381084,"is_reserved":false,"is_disabled":false,"rental_uris":{"android":"levelo://app?vid=40b49f02-cfc9-4667-99ba-53e2f6fcd1ba","ios":"levelo://app?vid=40b49f02-cfc9-4667-99ba-53e2f6fcd1ba"},"vehicle_type_id":"4","last_reported":1685354811,"current_range_meters":30800,"station_id":"ce4bgl12rcd13ifvqbo0","pricing_plan_id":"free"},{"bike_id":"cfaf47f9-cf5b-48dc-b7c7-35cff02c862f","system_id":"levelo_inurba_marseille","lat":43.29601,"lon":5.381084,"is_reserved":false,"is_disabled":false,"rental_uris":{"android":"levelo://app?vid=cfaf47f9-cf5b-48dc-b7c7-35cff02c862f","ios":"levelo://app?vid=cfaf47f9-cf5b-48dc-b7c7-35cff02c862f"},"vehicle_type_id":"4","last_reported":1685354811,"current_range_meters":15200,"station_id":"ce4bgl12rcd13ifvqbo0","pricing_plan_id":"free"},{"bike_id":"0c2b18ab-8d10-4d96-baa7-774f45b05737","system_id":"levelo_inurba_marseille","lat":43.29271,"lon":5.36843,"is_reserved":false,"is_disabled":false,"rental_uris":{"android":"levelo://app?vid=0c2b18ab-8d10-4d96-baa7-774f45b05737","ios":"levelo://app?vid=0c2b18ab-8d10-4d96-baa7-774f45b05737"},"vehicle_type_id":"4","last_reported":1685354811,"current_range_meters":31200,"station_id":"ce4bhbp2rcd13ifvqesg","pricing_plan_id":"free"},{"bike_id":"be927636-eb0d-468b-b494-9b4c7f1e08e8","system_id":"levelo_inurba_marseille","lat":43.293009,"lon":5.374584,"is_reserved":false,"is_disabled":false,"rental_uris":{"android":"levelo://app?vid=be927636-eb0d-468b-b494-9b4c7f1e08e8","ios":"levelo://app?vid=be927636-eb0d-468b-b494-9b4c7f1e08e8"},"vehicle_type_id":"4","last_reported":1685354811,"current_range_meters":6400,"station_id":"ce4bgi12rcd13ifvqb70","pricing_plan_id":"free"},{"bike_id":"b2e1c37e-500b-4208-b1ea-f4a3a1852261","system_id":"levelo_inurba_marseille","lat":43.293009,"lon":5.374584,"is_reserved":false,"is_disabled":false,"rental_uris":{"android":"levelo://app?vid=b2e1c37e-500b-4208-b1ea-f4a3a1852261","ios":"levelo://app?vid=b2e1c37e-500b-4208-b1ea-f4a3a1852261"},"vehicle_type_id":"4","last_reported":1685354811,"current_range_meters":0,"station_id":"ce4bgi12rcd13ifvqb70","pricing_plan_id":"free"},{"bike_id":"6914f6b0-b0f2-4d0b-ab33-11c321ffee01","system_id":"levelo_inurba_marseille","lat":43.2936,"lon":5.37835,"is_reserved":false,"is_disabled":false,"rental_uris":{"android":"levelo://app?vid=6914f6b0-b0f2-4d0b-ab33-11c321ffee01","ios":"levelo://app?vid=6914f6b0-b0f2-4d0b-ab33-11c321ffee01"},"vehicle_type_id":"4","last_reported":1685354811,"current_range_meters":15200,"station_id":"ce4bgjh2rcd13ifvqbf0","pricing_plan_id":"free"},{"bike_id":"cfecaf4c-71a9-4523-bbf6-8c7066a2395d","system_id":"levelo_inurba_marseille","lat":43.292311,"lon":5.360731,"is_reserved":false,"is_disabled":false,"rental_uris":{"android":"levelo://app?vid=cfecaf4c-71a9-4523-bbf6-8c7066a2395d","ios":"levelo://app?vid=cfecaf4c-71a9-4523-bbf6-8c7066a2395d"},"vehicle_type_id":"4","last_reported":1685354811,"current_range_meters":28400,"station_id":"ce4bhbh2rcd13ifvqeqg","pricing_plan_id":"free"},{"bike_id":"4ef2f39a-e24a-42f0-9edf-92727fb78301","system_id":"levelo_inurba_marseille","lat":43.292311,"lon":5.360731,"is_reserved":false,"is_disabled":false,"rental_uris":{"android":"levelo://app?vid=4ef2f39a-e24a-42f0-9edf-92727fb78301","ios":"levelo://app?vid=4ef2f39a-e24a-42f0-9edf-92727fb78301"},"vehicle_type_id":"4","last_reported":1685354811,"current_range_meters":30800,"station_id":"ce4bhbh2rcd13ifvqeqg","pricing_plan_id":"free"},{"bike_id":"e8118149-8f8f-4ea7-87ac-7973ce545d00","system_id":"levelo_inurba_marseille","lat":43.298764,"lon":5.388973,"is_reserved":false,"is_disabled":false,"rental_uris":{"android":"levelo://app?vid=e8118149-8f8f-4ea7-87ac-7973ce545d00","ios":"levelo://app?vid=e8118149-8f8f-4ea7-87ac-7973ce545d00"},"vehicle_type_id":"4","last_reported":1685354811,"current_range_meters":22400,"station_id":"ce4bh392rcd13ifvqdl0","pricing_plan_id":"free"},{"bike_id":"78dc78c9-421c-4799-a170-d0f97bb5df0d","system_id":"levelo_inurba_marseille","lat":43.292663,"lon":5.376389,"is_reserved":false,"is_disabled":false,"rental_uris":{"android":"levelo://app?vid=78dc78c9-421c-4799-a170-d0f97bb5df0d","ios":"levelo://app?vid=78dc78c9-421c-4799-a170-d0f97bb5df0d"},"vehicle_type_id":"4","last_reported":1685354811,"current_range_meters":28400,"station_id":"ce4bgi12rcd13ifvqb80","pricing_plan_id":"free"},{"bike_id":"eb1ce620-5a66-4396-acf0-f0c66cde5c94","system_id":"levelo_inurba_marseille","lat":43.298764,"lon":5.388973,"is_reserved":false,"is_disabled":false,"rental_uris":{"android":"levelo://app?vid=eb1ce620-5a66-4396-acf0-f0c66cde5c94","ios":"levelo://app?vid=eb1ce620-5a66-4396-acf0-f0c66cde5c94"},"vehicle_type_id":"4","last_reported":1685354811,"current_range_meters":22800,"station_id":"ce4bh392rcd13ifvqdl0","pricing_plan_id":"free"},{"bike_id":"ccd7061a-ecaf-42a1-872a-b8d369178941","system_id":"levelo_inurba_marseille","lat":43.298764,"lon":5.388973,"is_reserved":false,"is_disabled":false,"rental_uris":{"android":"levelo://app?vid=ccd7061a-ecaf-42a1-872a-b8d369178941","ios":"levelo://app?vid=ccd7061a-ecaf-42a1-872a-b8d369178941"},"vehicle_type_id":"4","last_reported":1685354811,"current_range_meters":8000,"station_id":"ce4bh392rcd13ifvqdl0","pricing_plan_id":"free"},{"bike_id":"9189a9f5-c9da-400a-afbf-9686c4f2daf4","system_id":"levelo_inurba_marseille","lat":43.291671,"lon":5.371575,"is_reserved":false,"is_disabled":false,"rental_uris":{"android":"levelo://app?vid=9189a9f5-c9da-400a-afbf-9686c4f2daf4","ios":"levelo://app?vid=9189a9f5-c9da-400a-afbf-9686c4f2daf4"},"vehicle_type_id":"4","last_reported":1685354811,"current_range_meters":10000,"station_id":"ce4bha92rcd13ifvqeh0","pricing_plan_id":"free"},{"bike_id":"fdf3d5ad-6ede-4b49-b298-16fdce871bba","system_id":"levelo_inurba_marseille","lat":43.298764,"lon":5.388973,"is_reserved":false,"is_disabled":false,"rental_uris":{"android":"levelo://app?vid=fdf3d5ad-6ede-4b49-b298-16fdce871bba","ios":"levelo://app?vid=fdf3d5ad-6ede-4b49-b298-16fdce871bba"},"vehicle_type_id":"4","last_reported":1685354811,"current_range_meters":21200,"station_id":"ce4bh392rcd13ifvqdl0","pricing_plan_id":"free"},{"bike_id":"7724dfa5-d181-4506-9f68-5444d8524dde","system_id":"levelo_inurba_marseille","lat":43.291671,"lon":5.371575,"is_reserved":false,"is_disabled":false,"rental_uris":{"android":"levelo://app?vid=7724dfa5-d181-4506-9f68-5444d8524dde","ios":"levelo://app?vid=7724dfa5-d181-4506-9f68-5444d8524dde"},"vehicle_type_id":"4","last_reported":1685354811,"current_range_meters":28000,"station_id":"ce4bha92rcd13ifvqeh0","pricing_plan_id":"free"},{"bike_id":"c5525bac-6aab-4e1a-9c36-5bbc5d667f9d","system_id":"levelo_inurba_marseille","lat":43.291994,"lon":5.357886,"is_reserved":false,"is_disabled":false,"rental_uris":{"android":"levelo://app?vid=c5525bac-6aab-4e1a-9c36-5bbc5d667f9d","ios":"levelo://app?vid=c5525bac-6aab-4e1a-9c36-5bbc5d667f9d"},"vehicle_type_id":"4","last_reported":1685354811,"current_range_meters":15600,"station_id":"ce4bhb12rcd13ifvqel0","pricing_plan_id":"free"},{"bike_id":"6840f96e-af0b-4dfc-af9d-710998a1d8c6","system_id":"levelo_inurba_marseille","lat":43.291994,"lon":5.357886,"is_reserved":false,"is_disabled":false,"rental_uris":{"android":"levelo://app?vid=6840f96e-af0b-4dfc-af9d-710998a1d8c6","ios":"levelo://app?vid=6840f96e-af0b-4dfc-af9d-710998a1d8c6"},"vehicle_type_id":"4","last_reported":1685354811,"current_range_meters":17600,"station_id":"ce4bhb12rcd13ifvqel0","pricing_plan_id":"free"},{"bike_id":"19a7fb98-abb8-4f22-91b4-45a199696d9c","system_id":"levelo_inurba_marseille","lat":43.295169,"lon":5.390426,"is_reserved":false,"is_disabled":false,"rental_uris":{"android":"levelo://app?vid=19a7fb98-abb8-4f22-91b4-45a199696d9c","ios":"levelo://app?vid=19a7fb98-abb8-4f22-91b4-45a199696d9c"},"vehicle_type_id":"4","last_reported":1685354811,"current_range_meters":10800,"station_id":"ce4bh3p2rcd13ifvqdp0","pricing_plan_id":"free"},{"bike_id":"eed7aff9-763d-4b20-8543-3da2f49485f3","system_id":"levelo_inurba_marseille","lat":43.29529,"lon":5.385581,"is_reserved":false,"is_disabled":false,"rental_uris":{"android":"levelo://app?vid=eed7aff9-763d-4b20-8543-3da2f49485f3","ios":"levelo://app?vid=eed7aff9-763d-4b20-8543-3da2f49485f3"},"vehicle_type_id":"4","last_reported":1685354811,"current_range_meters":26000,"station_id":"ce4bgih2rcd13ifvqba0","pricing_plan_id":"free"},{"bike_id":"6f083652-db7c-426f-a21d-65fa006bdcfb","system_id":"levelo_inurba_marseille","lat":43.290327,"lon":5.375711,"is_reserved":false,"is_disabled":false,"rental_uris":{"android":"levelo://app?vid=6f083652-db7c-426f-a21d-65fa006bdcfb","ios":"levelo://app?vid=6f083652-db7c-426f-a21d-65fa006bdcfb"},"vehicle_type_id":"4","last_reported":1685354811,"current_range_meters":30400,"station_id":"ce4bh692rcd13ifvqe90","pricing_plan_id":"free"},{"bike_id":"2ef6a64a-eefd-42ec-b273-15eba5df5692","system_id":"levelo_inurba_marseille","lat":43.290357,"lon":5.375613,"is_reserved":false,"is_disabled":false,"rental_uris":{"android":"levelo://app?vid=2ef6a64a-eefd-42ec-b273-15eba5df5692","ios":"levelo://app?vid=2ef6a64a-eefd-42ec-b273-15eba5df5692"},"vehicle_type_id":"4","last_reported":1685354811,"current_range_meters":19600,"station_id":"","pricing_plan_id":"free"},{"bike_id":"4322112d-c1cc-4652-adc8-a2af43931945","system_id":"levelo_inurba_marseille","lat":43.29031,"lon":5.37545,"is_reserved":false,"is_disabled":false,"rental_uris":{"android":"levelo://app?vid=4322112d-c1cc-4652-adc8-a2af43931945","ios":"levelo://app?vid=4322112d-c1cc-4652-adc8-a2af43931945"},"vehicle_type_id":"4","last_reported":1685354811,"current_range_meters":29600,"station_id":"ce4bh692rcd13ifvqe90","pricing_plan_id":"free"},{"bike_id":"7ea8760a-2bbb-4076-8655-5cea236b8187","system_id":"levelo_inurba_marseille","lat":43.294162,"lon":5.386292,"is_reserved":false,"is_disabled":false,"rental_uris":{"android":"levelo://app?vid=7ea8760a-2bbb-4076-8655-5cea236b8187","ios":"levelo://app?vid=7ea8760a-2bbb-4076-8655-5cea236b8187"},"vehicle_type_id":"4","last_reported":1685354811,"current_range_meters":27600,"station_id":"ce4bh2h2rcd13ifvqdh0","pricing_plan_id":"free"},{"bike_id":"669a90b1-0149-45a2-a853-c9bd301ce264","system_id":"levelo_inurba_marseille","lat":43.316651,"lon":5.3991,"is_reserved":false,"is_disabled":false,"rental_uris":{"android":"levelo://app?vid=669a90b1-0149-45a2-a853-c9bd301ce264","ios":"levelo://app?vid=669a90b1-0149-45a2-a853-c9bd301ce264"},"vehicle_type_id":"4","last_reported":1685354811,"current_range_meters":10000,"station_id":"ce4bgvp2rcd13ifvqcu0","pricing_plan_id":"free"},{"bike_id":"3db11661-ae64-4573-910c-d211c06240cd","system_id":"levelo_inurba_marseille","lat":43.33043,"lon":5.38914,"is_reserved":false,"is_disabled":false,"rental_uris":{"android":"levelo://app?vid=3db11661-ae64-4573-910c-d211c06240cd","ios":"levelo://app?vid=3db11661-ae64-4573-910c-d211c06240cd"},"vehicle_type_id":"4","last_reported":1685354811,"current_range_meters":24800,"station_id":"ce4bhr92rcd13ifvqhrg","pricing_plan_id":"free"},{"bike_id":"d9afa43b-7c65-455f-b45e-2591fae6b1a4","system_id":"levelo_inurba_marseille","lat":43.290104,"lon":5.356111,"is_reserved":false,"is_disabled":false,"rental_uris":{"android":"levelo://app?vid=d9afa43b-7c65-455f-b45e-2591fae6b1a4","ios":"levelo://app?vid=d9afa43b-7c65-455f-b45e-2591fae6b1a4"},"vehicle_type_id":"4","last_reported":1685354811,"current_range_meters":30000,"station_id":"ce4bhb92rcd13ifvqen0","pricing_plan_id":"free"},{"bike_id":"ab494057-529e-4d05-a7e5-7be914bfad42","system_id":"levelo_inurba_marseille","lat":43.290104,"lon":5.356111,"is_reserved":false,"is_disabled":false,"rental_uris":{"android":"levelo://app?vid=ab494057-529e-4d05-a7e5-7be914bfad42","ios":"levelo://app?vid=ab494057-529e-4d05-a7e5-7be914bfad42"},"vehicle_type_id":"4","last_reported":1685354811,"current_range_meters":18400,"station_id":"ce4bhb92rcd13ifvqen0","pricing_plan_id":"free"},{"bike_id":"b5adac2f-2ec7-4bbc-85a5-4ebabe690062","system_id":"levelo_inurba_marseille","lat":43.290103,"lon":5.356114,"is_reserved":false,"is_disabled":false,"rental_uris":{"android":"levelo://app?vid=b5adac2f-2ec7-4bbc-85a5-4ebabe690062","ios":"levelo://app?vid=b5adac2f-2ec7-4bbc-85a5-4ebabe690062"},"vehicle_type_id":"4","last_reported":1685354811,"current_range_meters":20000,"station_id":"ce4bhb92rcd13ifvqen0","pricing_plan_id":"free"},{"bike_id":"f173764c-5d50-495e-93f2-8ee4771af714","system_id":"levelo_inurba_marseille","lat":43.290995,"lon":5.381361,"is_reserved":false,"is_disabled":false,"rental_uris":{"android":"levelo://app?vid=f173764c-5d50-495e-93f2-8ee4771af714","ios":"levelo://app?vid=f173764c-5d50-495e-93f2-8ee4771af714"},"vehicle_type_id":"4","last_reported":1685354811,"current_range_meters":20000,"station_id":"ce4bh512rcd13ifvqe2g","pricing_plan_id":"free"},{"bike_id":"15f93ff9-74b4-45d7-9b99-64b4fe875a4b","system_id":"levelo_inurba_marseille","lat":43.295169,"lon":5.390426,"is_reserved":false,"is_disabled":false,"rental_uris":{"android":"levelo://app?vid=15f93ff9-74b4-45d7-9b99-64b4fe875a4b","ios":"levelo://app?vid=15f93ff9-74b4-45d7-9b99-64b4fe875a4b"},"vehicle_type_id":"4","last_reported":1685354811,"current_range_meters":15600,"station_id":"ce4bh3p2rcd13ifvqdp0","pricing_plan_id":"free"},{"bike_id":"5ec3d377-929a-4640-a73a-22efdd82238e","system_id":"levelo_inurba_marseille","lat":43.295169,"lon":5.390426,"is_reserved":false,"is_disabled":false,"rental_uris":{"android":"levelo://app?vid=5ec3d377-929a-4640-a73a-22efdd82238e","ios":"levelo://app?vid=5ec3d377-929a-4640-a73a-22efdd82238e"},"vehicle_type_id":"4","last_reported":1685354811,"current_range_meters":29200,"station_id":"ce4bh3p2rcd13ifvqdp0","pricing_plan_id":"free"},{"bike_id":"ed7cd29f-e1b7-4e30-ba14-d1b278bc47b8","system_id":"levelo_inurba_marseille","lat":43.289741,"lon":5.378306,"is_reserved":false,"is_disabled":false,"rental_uris":{"android":"levelo://app?vid=ed7cd29f-e1b7-4e30-ba14-d1b278bc47b8","ios":"levelo://app?vid=ed7cd29f-e1b7-4e30-ba14-d1b278bc47b8"},"vehicle_type_id":"4","last_reported":1685354811,"current_range_meters":24400,"station_id":"ce4bh9p2rcd13ifvqed0","pricing_plan_id":"free"},{"bike_id":"141c14ea-594b-43ee-894e-8c44af1dcd73","system_id":"levelo_inurba_marseille","lat":43.33739,"lon":5.3745,"is_reserved":false,"is_disabled":false,"rental_uris":{"android":"levelo://app?vid=141c14ea-594b-43ee-894e-8c44af1dcd73","ios":"levelo://app?vid=141c14ea-594b-43ee-894e-8c44af1dcd73"},"vehicle_type_id":"4","last_reported":1685354811,"current_range_meters":30400,"station_id":"","pricing_plan_id":"free"},{"bike_id":"493860ce-e063-4684-ab33-c360eaf64153","system_id":"levelo_inurba_marseille","lat":43.33744,"lon":5.37451,"is_reserved":false,"is_disabled":false,"rental_uris":{"android":"levelo://app?vid=493860ce-e063-4684-ab33-c360eaf64153","ios":"levelo://app?vid=493860ce-e063-4684-ab33-c360eaf64153"},"vehicle_type_id":"4","last_reported":1685354811,"current_range_meters":14800,"station_id":"","pricing_plan_id":"free"},{"bike_id":"c67b547c-3fcb-4384-8614-e15f558fec55","system_id":"levelo_inurba_marseille","lat":43.33744,"lon":5.37451,"is_reserved":false,"is_disabled":false,"rental_uris":{"android":"levelo://app?vid=c67b547c-3fcb-4384-8614-e15f558fec55","ios":"levelo://app?vid=c67b547c-3fcb-4384-8614-e15f558fec55"},"vehicle_type_id":"4","last_reported":1685354811,"current_range_meters":24000,"station_id":"","pricing_plan_id":"free"},{"bike_id":"5aaf445f-f097-4041-99e9-0b2edc8a39b1","system_id":"levelo_inurba_marseille","lat":43.3375,"lon":5.37453,"is_reserved":false,"is_disabled":false,"rental_uris":{"android":"levelo://app?vid=5aaf445f-f097-4041-99e9-0b2edc8a39b1","ios":"levelo://app?vid=5aaf445f-f097-4041-99e9-0b2edc8a39b1"},"vehicle_type_id":"4","last_reported":1685354811,"current_range_meters":30000,"station_id":"","pricing_plan_id":"free"},{"bike_id":"218130b3-c939-4819-819f-d36ab368ac76","system_id":"levelo_inurba_marseille","lat":43.30642,"lon":5.401031,"is_reserved":false,"is_disabled":false,"rental_uris":{"android":"levelo://app?vid=218130b3-c939-4819-819f-d36ab368ac76","ios":"levelo://app?vid=218130b3-c939-4819-819f-d36ab368ac76"},"vehicle_type_id":"4","last_reported":1685354811,"current_range_meters":23200,"station_id":"ce4bh112rcd13ifvqda0","pricing_plan_id":"free"},{"bike_id":"556c6db1-2600-4c2b-9521-aae8453517c1","system_id":"levelo_inurba_marseille","lat":43.33765,"lon":5.37438,"is_reserved":false,"is_disabled":false,"rental_uris":{"android":"levelo://app?vid=556c6db1-2600-4c2b-9521-aae8453517c1","ios":"levelo://app?vid=556c6db1-2600-4c2b-9521-aae8453517c1"},"vehicle_type_id":"4","last_reported":1685354811,"current_range_meters":10400,"station_id":"","pricing_plan_id":"free"},{"bike_id":"2fc17a84-d2f2-4ed1-8da0-8f77e85635e7","system_id":"levelo_inurba_marseille","lat":43.30642,"lon":5.401031,"is_reserved":false,"is_disabled":false,"rental_uris":{"android":"levelo://app?vid=2fc17a84-d2f2-4ed1-8da0-8f77e85635e7","ios":"levelo://app?vid=2fc17a84-d2f2-4ed1-8da0-8f77e85635e7"},"vehicle_type_id":"4","last_reported":1685354811,"current_range_meters":29200,"station_id":"ce4bh112rcd13ifvqda0","pricing_plan_id":"free"},{"bike_id":"88082252-2d00-4fd7-abd5-5c2572b70b6a","system_id":"levelo_inurba_marseille","lat":43.3377,"lon":5.37427,"is_reserved":false,"is_disabled":false,"rental_uris":{"android":"levelo://app?vid=88082252-2d00-4fd7-abd5-5c2572b70b6a","ios":"levelo://app?vid=88082252-2d00-4fd7-abd5-5c2572b70b6a"},"vehicle_type_id":"4","last_reported":1685354811,"current_range_meters":29600,"station_id":"","pricing_plan_id":"free"},{"bike_id":"7d9ce697-c49a-4b8c-860d-4a4a11bcc354","system_id":"levelo_inurba_marseille","lat":43.3377,"lon":5.37429,"is_reserved":false,"is_disabled":false,"rental_uris":{"android":"levelo://app?vid=7d9ce697-c49a-4b8c-860d-4a4a11bcc354","ios":"levelo://app?vid=7d9ce697-c49a-4b8c-860d-4a4a11bcc354"},"vehicle_type_id":"4","last_reported":1685354811,"current_range_meters":28400,"station_id":"","pricing_plan_id":"free"},{"bike_id":"eb12f086-6062-4eac-a369-73014a3e7da4","system_id":"levelo_inurba_marseille","lat":43.30642,"lon":5.401031,"is_reserved":false,"is_disabled":false,"rental_uris":{"android":"levelo://app?vid=eb12f086-6062-4eac-a369-73014a3e7da4","ios":"levelo://app?vid=eb12f086-6062-4eac-a369-73014a3e7da4"},"vehicle_type_id":"4","last_reported":1685354811,"current_range_meters":24000,"station_id":"ce4bh112rcd13ifvqda0","pricing_plan_id":"free"},{"bike_id":"3aba17df-7718-4ccb-a251-b2e5d3bfb0c6","system_id":"levelo_inurba_marseille","lat":43.286591,"lon":5.363346,"is_reserved":false,"is_disabled":false,"rental_uris":{"android":"levelo://app?vid=3aba17df-7718-4ccb-a251-b2e5d3bfb0c6","ios":"levelo://app?vid=3aba17df-7718-4ccb-a251-b2e5d3bfb0c6"},"vehicle_type_id":"4","last_reported":1685354811,"current_range_meters":20800,"station_id":"ce4bhah2rcd13ifvqej0","pricing_plan_id":"free"},{"bike_id":"26ea3d11-1784-42e9-83ba-42123a5ee886","system_id":"levelo_inurba_marseille","lat":43.29033,"lon":5.38646,"is_reserved":false,"is_disabled":false,"rental_uris":{"android":"levelo://app?vid=26ea3d11-1784-42e9-83ba-42123a5ee886","ios":"levelo://app?vid=26ea3d11-1784-42e9-83ba-42123a5ee886"},"vehicle_type_id":"4","last_reported":1685354811,"current_range_meters":16800,"station_id":"ce4bh4p2rcd13ifvqe0g","pricing_plan_id":"free"},{"bike_id":"e955c132-ac66-444a-abc8-83b5a857b842","system_id":"levelo_inurba_marseille","lat":43.290336,"lon":5.386425,"is_reserved":false,"is_disabled":false,"rental_uris":{"android":"levelo://app?vid=e955c132-ac66-444a-abc8-83b5a857b842","ios":"levelo://app?vid=e955c132-ac66-444a-abc8-83b5a857b842"},"vehicle_type_id":"4","last_reported":1685354811,"current_range_meters":25200,"station_id":"ce4bh4p2rcd13ifvqe0g","pricing_plan_id":"free"},{"bike_id":"82d54ad2-bba8-40eb-9861-a5bb963615de","system_id":"levelo_inurba_marseille","lat":43.28611,"lon":5.37055,"is_reserved":false,"is_disabled":false,"rental_uris":{"android":"levelo://app?vid=82d54ad2-bba8-40eb-9861-a5bb963615de","ios":"levelo://app?vid=82d54ad2-bba8-40eb-9861-a5bb963615de"},"vehicle_type_id":"4","last_reported":1685354811,"current_range_meters":30000,"station_id":"ce4bht12rcd13ifvqi60","pricing_plan_id":"free"},{"bike_id":"7bf233b2-ac65-488f-b73f-3e0717721bcb","system_id":"levelo_inurba_marseille","lat":43.2861,"lon":5.37062,"is_reserved":false,"is_disabled":false,"rental_uris":{"android":"levelo://app?vid=7bf233b2-ac65-488f-b73f-3e0717721bcb","ios":"levelo://app?vid=7bf233b2-ac65-488f-b73f-3e0717721bcb"},"vehicle_type_id":"4","last_reported":1685354811,"current_range_meters":20000,"station_id":"ce4bht12rcd13ifvqi60","pricing_plan_id":"free"},{"bike_id":"a3183711-c028-49a3-99f2-e89c758437d0","system_id":"levelo_inurba_marseille","lat":43.287185,"lon":5.379373,"is_reserved":false,"is_disabled":false,"rental_uris":{"android":"levelo://app?vid=a3183711-c028-49a3-99f2-e89c758437d0","ios":"levelo://app?vid=a3183711-c028-49a3-99f2-e89c758437d0"},"vehicle_type_id":"4","last_reported":1685354811,"current_range_meters":27600,"station_id":"ce4bh9p2rcd13ifvqec0","pricing_plan_id":"free"},{"bike_id":"b0eb2da1-37ae-432b-a27a-66e6ce711976","system_id":"levelo_inurba_marseille","lat":43.296277,"lon":5.377108,"is_reserved":false,"is_disabled":false,"rental_uris":{"android":"levelo://app?vid=b0eb2da1-37ae-432b-a27a-66e6ce711976","ios":"levelo://app?vid=b0eb2da1-37ae-432b-a27a-66e6ce711976"},"vehicle_type_id":"4","last_reported":1685354811,"current_range_meters":12800,"station_id":"ce4bgi92rcd13ifvqb90","pricing_plan_id":"free"},{"bike_id":"26c9141e-1e63-4741-9e6e-1d6a42ac54f0","system_id":"levelo_inurba_marseille","lat":43.28618,"lon":5.35101,"is_reserved":false,"is_disabled":false,"rental_uris":{"android":"levelo://app?vid=26c9141e-1e63-4741-9e6e-1d6a42ac54f0","ios":"levelo://app?vid=26c9141e-1e63-4741-9e6e-1d6a42ac54f0"},"vehicle_type_id":"4","last_reported":1685354811,"current_range_meters":20800,"station_id":"","pricing_plan_id":"free"},{"bike_id":"7d0ce5b7-7c22-4977-a515-21bdbacf9a39","system_id":"levelo_inurba_marseille","lat":43.285848,"lon":5.350787,"is_reserved":false,"is_disabled":false,"rental_uris":{"android":"levelo://app?vid=7d0ce5b7-7c22-4977-a515-21bdbacf9a39","ios":"levelo://app?vid=7d0ce5b7-7c22-4977-a515-21bdbacf9a39"},"vehicle_type_id":"4","last_reported":1685354811,"current_range_meters":20800,"station_id":"ce4bhch2rcd13ifvqeug","pricing_plan_id":"free"},{"bike_id":"54c05652-49de-43f6-b4c9-fbf1d6119344","system_id":"levelo_inurba_marseille","lat":43.286132,"lon":5.351062,"is_reserved":false,"is_disabled":false,"rental_uris":{"android":"levelo://app?vid=54c05652-49de-43f6-b4c9-fbf1d6119344","ios":"levelo://app?vid=54c05652-49de-43f6-b4c9-fbf1d6119344"},"vehicle_type_id":"4","last_reported":1685354811,"current_range_meters":29600,"station_id":"","pricing_plan_id":"free"},{"bike_id":"5def35d2-320b-4ffd-922c-4d28df7eed1f","system_id":"levelo_inurba_marseille","lat":43.28611,"lon":5.35104,"is_reserved":false,"is_disabled":false,"rental_uris":{"android":"levelo://app?vid=5def35d2-320b-4ffd-922c-4d28df7eed1f","ios":"levelo://app?vid=5def35d2-320b-4ffd-922c-4d28df7eed1f"},"vehicle_type_id":"4","last_reported":1685354811,"current_range_meters":29200,"station_id":"","pricing_plan_id":"free"},{"bike_id":"2954a995-48e4-4b9c-85b5-76a36f36f296","system_id":"levelo_inurba_marseille","lat":43.295713,"lon":5.399639,"is_reserved":false,"is_disabled":false,"rental_uris":{"android":"levelo://app?vid=2954a995-48e4-4b9c-85b5-76a36f36f296","ios":"levelo://app?vid=2954a995-48e4-4b9c-85b5-76a36f36f296"},"vehicle_type_id":"4","last_reported":1685354811,"current_range_meters":17200,"station_id":"ce4bh312rcd13ifvqdj0","pricing_plan_id":"free"},{"bike_id":"6cffa211-744d-4de4-a55c-4c4f30512e43","system_id":"levelo_inurba_marseille","lat":43.286595,"lon":5.386795,"is_reserved":false,"is_disabled":false,"rental_uris":{"android":"levelo://app?vid=6cffa211-744d-4de4-a55c-4c4f30512e43","ios":"levelo://app?vid=6cffa211-744d-4de4-a55c-4c4f30512e43"},"vehicle_type_id":"4","last_reported":1685354811,"current_range_meters":16800,"station_id":"ce4bh492rcd13ifvqdug","pricing_plan_id":"free"},{"bike_id":"df583e43-72b5-4150-accd-008b771cf7b8","system_id":"levelo_inurba_marseille","lat":43.323464,"lon":5.406297,"is_reserved":false,"is_disabled":false,"rental_uris":{"android":"levelo://app?vid=df583e43-72b5-4150-accd-008b771cf7b8","ios":"levelo://app?vid=df583e43-72b5-4150-accd-008b771cf7b8"},"vehicle_type_id":"4","last_reported":1685354811,"current_range_meters":16400,"station_id":"ce4bhq92rcd13ifvqhjg","pricing_plan_id":"free"},{"bike_id":"1f56d34b-9287-45de-8add-9e5d01cc351b","system_id":"levelo_inurba_marseille","lat":43.284787,"lon":5.384116,"is_reserved":false,"is_disabled":false,"rental_uris":{"android":"levelo://app?vid=1f56d34b-9287-45de-8add-9e5d01cc351b","ios":"levelo://app?vid=1f56d34b-9287-45de-8add-9e5d01cc351b"},"vehicle_type_id":"4","last_reported":1685354811,"current_range_meters":27600,"station_id":"ce4bh512rcd13ifvqe3g","pricing_plan_id":"free"},{"bike_id":"9341f40b-892d-4ea6-a8f4-6ef0f8b41b7e","system_id":"levelo_inurba_marseille","lat":43.288501,"lon":5.393087,"is_reserved":false,"is_disabled":false,"rental_uris":{"android":"levelo://app?vid=9341f40b-892d-4ea6-a8f4-6ef0f8b41b7e","ios":"levelo://app?vid=9341f40b-892d-4ea6-a8f4-6ef0f8b41b7e"},"vehicle_type_id":"4","last_reported":1685354811,"current_range_meters":18000,"station_id":"ce4bh2p2rcd13ifvqdi0","pricing_plan_id":"free"},{"bike_id":"8814a642-7f18-4f8b-b81b-f4474527ccb2","system_id":"levelo_inurba_marseille","lat":43.284219,"lon":5.3497,"is_reserved":false,"is_disabled":false,"rental_uris":{"android":"levelo://app?vid=8814a642-7f18-4f8b-b81b-f4474527ccb2","ios":"levelo://app?vid=8814a642-7f18-4f8b-b81b-f4474527ccb2"},"vehicle_type_id":"4","last_reported":1685354811,"current_range_meters":24400,"station_id":"ce4bhbh2rcd13ifvqepg","pricing_plan_id":"free"},{"bike_id":"c3958a18-3025-47f7-97b0-e6656a98467c","system_id":"levelo_inurba_marseille","lat":43.28428,"lon":5.35001,"is_reserved":false,"is_disabled":false,"rental_uris":{"android":"levelo://app?vid=c3958a18-3025-47f7-97b0-e6656a98467c","ios":"levelo://app?vid=c3958a18-3025-47f7-97b0-e6656a98467c"},"vehicle_type_id":"4","last_reported":1685354811,"current_range_meters":25200,"station_id":"ce4bhbh2rcd13ifvqepg","pricing_plan_id":"free"},{"bike_id":"5f581570-a5ac-49b3-a9ce-22540a19a64a","system_id":"levelo_inurba_marseille","lat":43.284219,"lon":5.3497,"is_reserved":false,"is_disabled":false,"rental_uris":{"android":"levelo://app?vid=5f581570-a5ac-49b3-a9ce-22540a19a64a","ios":"levelo://app?vid=5f581570-a5ac-49b3-a9ce-22540a19a64a"},"vehicle_type_id":"4","last_reported":1685354811,"current_range_meters":31200,"station_id":"ce4bhbh2rcd13ifvqepg","pricing_plan_id":"free"},{"bike_id":"4c366bb2-b002-4ae1-818e-6364d17b0af7","system_id":"levelo_inurba_marseille","lat":43.28427,"lon":5.34994,"is_reserved":false,"is_disabled":false,"rental_uris":{"android":"levelo://app?vid=4c366bb2-b002-4ae1-818e-6364d17b0af7","ios":"levelo://app?vid=4c366bb2-b002-4ae1-818e-6364d17b0af7"},"vehicle_type_id":"4","last_reported":1685354811,"current_range_meters":26000,"station_id":"","pricing_plan_id":"free"},{"bike_id":"a3992aca-cbf3-4cac-8e40-1b4d85140d3b","system_id":"levelo_inurba_marseille","lat":43.284219,"lon":5.3497,"is_reserved":false,"is_disabled":false,"rental_uris":{"android":"levelo://app?vid=a3992aca-cbf3-4cac-8e40-1b4d85140d3b","ios":"levelo://app?vid=a3992aca-cbf3-4cac-8e40-1b4d85140d3b"},"vehicle_type_id":"4","last_reported":1685354811,"current_range_meters":16800,"station_id":"ce4bhbh2rcd13ifvqepg","pricing_plan_id":"free"},{"bike_id":"c8d468b6-e1fa-4404-a601-22a5c71855e5","system_id":"levelo_inurba_marseille","lat":43.28426,"lon":5.34992,"is_reserved":false,"is_disabled":false,"rental_uris":{"android":"levelo://app?vid=c8d468b6-e1fa-4404-a601-22a5c71855e5","ios":"levelo://app?vid=c8d468b6-e1fa-4404-a601-22a5c71855e5"},"vehicle_type_id":"4","last_reported":1685354811,"current_range_meters":21200,"station_id":"ce4bhbh2rcd13ifvqepg","pricing_plan_id":"free"},{"bike_id":"8c394fcb-d728-4e7f-a0b5-612ed94968cd","system_id":"levelo_inurba_marseille","lat":43.284219,"lon":5.3497,"is_reserved":false,"is_disabled":false,"rental_uris":{"android":"levelo://app?vid=8c394fcb-d728-4e7f-a0b5-612ed94968cd","ios":"levelo://app?vid=8c394fcb-d728-4e7f-a0b5-612ed94968cd"},"vehicle_type_id":"4","last_reported":1685354811,"current_range_meters":27600,"station_id":"ce4bhbh2rcd13ifvqepg","pricing_plan_id":"free"},{"bike_id":"4eeb4196-f341-4c45-bb40-fa51cebdbf56","system_id":"levelo_inurba_marseille","lat":43.28427,"lon":5.34985,"is_reserved":false,"is_disabled":false,"rental_uris":{"android":"levelo://app?vid=4eeb4196-f341-4c45-bb40-fa51cebdbf56","ios":"levelo://app?vid=4eeb4196-f341-4c45-bb40-fa51cebdbf56"},"vehicle_type_id":"4","last_reported":1685354811,"current_range_meters":28400,"station_id":"ce4bhbh2rcd13ifvqepg","pricing_plan_id":"free"},{"bike_id":"6aa63b05-16a0-4a87-a1fb-a3f95acee867","system_id":"levelo_inurba_marseille","lat":43.284219,"lon":5.3497,"is_reserved":false,"is_disabled":false,"rental_uris":{"android":"levelo://app?vid=6aa63b05-16a0-4a87-a1fb-a3f95acee867","ios":"levelo://app?vid=6aa63b05-16a0-4a87-a1fb-a3f95acee867"},"vehicle_type_id":"4","last_reported":1685354811,"current_range_meters":31600,"station_id":"ce4bhbh2rcd13ifvqepg","pricing_plan_id":"free"},{"bike_id":"2715cd73-c3ef-4511-860c-855735d78ebc","system_id":"levelo_inurba_marseille","lat":43.28425,"lon":5.3499,"is_reserved":false,"is_disabled":false,"rental_uris":{"android":"levelo://app?vid=2715cd73-c3ef-4511-860c-855735d78ebc","ios":"levelo://app?vid=2715cd73-c3ef-4511-860c-855735d78ebc"},"vehicle_type_id":"4","last_reported":1685354811,"current_range_meters":8800,"station_id":"ce4bhbh2rcd13ifvqepg","pricing_plan_id":"free"},{"bike_id":"997aad4a-7a02-4932-9d5e-12ffcda6a693","system_id":"levelo_inurba_marseille","lat":43.28424,"lon":5.34993,"is_reserved":false,"is_disabled":false,"rental_uris":{"android":"levelo://app?vid=997aad4a-7a02-4932-9d5e-12ffcda6a693","ios":"levelo://app?vid=997aad4a-7a02-4932-9d5e-12ffcda6a693"},"vehicle_type_id":"4","last_reported":1685354811,"current_range_meters":31200,"station_id":"ce4bhbh2rcd13ifvqepg","pricing_plan_id":"free"},{"bike_id":"75028646-017f-4646-ad2f-729306ba47bb","system_id":"levelo_inurba_marseille","lat":43.28423,"lon":5.34994,"is_reserved":false,"is_disabled":false,"rental_uris":{"android":"levelo://app?vid=75028646-017f-4646-ad2f-729306ba47bb","ios":"levelo://app?vid=75028646-017f-4646-ad2f-729306ba47bb"},"vehicle_type_id":"4","last_reported":1685354811,"current_range_meters":22400,"station_id":"","pricing_plan_id":"free"},{"bike_id":"ce429d90-d737-4307-a97c-9bef8896c4f3","system_id":"levelo_inurba_marseille","lat":43.284219,"lon":5.3497,"is_reserved":false,"is_disabled":false,"rental_uris":{"android":"levelo://app?vid=ce429d90-d737-4307-a97c-9bef8896c4f3","ios":"levelo://app?vid=ce429d90-d737-4307-a97c-9bef8896c4f3"},"vehicle_type_id":"4","last_reported":1685354811,"current_range_meters":31200,"station_id":"ce4bhbh2rcd13ifvqepg","pricing_plan_id":"free"},{"bike_id":"9567ff1b-9bc2-4bce-9b64-21f1a40c1ccb","system_id":"levelo_inurba_marseille","lat":43.28425,"lon":5.34986,"is_reserved":false,"is_disabled":false,"rental_uris":{"android":"levelo://app?vid=9567ff1b-9bc2-4bce-9b64-21f1a40c1ccb","ios":"levelo://app?vid=9567ff1b-9bc2-4bce-9b64-21f1a40c1ccb"},"vehicle_type_id":"4","last_reported":1685354811,"current_range_meters":20800,"station_id":"ce4bhbh2rcd13ifvqepg","pricing_plan_id":"free"},{"bike_id":"c00bf755-034a-4160-914f-cd8a1035af91","system_id":"levelo_inurba_marseille","lat":43.28425,"lon":5.34983,"is_reserved":false,"is_disabled":false,"rental_uris":{"android":"levelo://app?vid=c00bf755-034a-4160-914f-cd8a1035af91","ios":"levelo://app?vid=c00bf755-034a-4160-914f-cd8a1035af91"},"vehicle_type_id":"4","last_reported":1685354811,"current_range_meters":31200,"station_id":"ce4bhbh2rcd13ifvqepg","pricing_plan_id":"free"},{"bike_id":"c70c44f8-711b-4a3c-9852-07b43a3df41c","system_id":"levelo_inurba_marseille","lat":43.284219,"lon":5.3497,"is_reserved":false,"is_disabled":false,"rental_uris":{"android":"levelo://app?vid=c70c44f8-711b-4a3c-9852-07b43a3df41c","ios":"levelo://app?vid=c70c44f8-711b-4a3c-9852-07b43a3df41c"},"vehicle_type_id":"4","last_reported":1685354811,"current_range_meters":31200,"station_id":"ce4bhbh2rcd13ifvqepg","pricing_plan_id":"free"},{"bike_id":"7f26a831-ef87-4067-ae81-e01f335dc546","system_id":"levelo_inurba_marseille","lat":43.284219,"lon":5.3497,"is_reserved":false,"is_disabled":false,"rental_uris":{"android":"levelo://app?vid=7f26a831-ef87-4067-ae81-e01f335dc546","ios":"levelo://app?vid=7f26a831-ef87-4067-ae81-e01f335dc546"},"vehicle_type_id":"4","last_reported":1685354811,"current_range_meters":30800,"station_id":"ce4bhbh2rcd13ifvqepg","pricing_plan_id":"free"},{"bike_id":"3ccfacaf-1db8-45cc-ae29-4350242eb281","system_id":"levelo_inurba_marseille","lat":43.28422,"lon":5.3498,"is_reserved":false,"is_disabled":false,"rental_uris":{"android":"levelo://app?vid=3ccfacaf-1db8-45cc-ae29-4350242eb281","ios":"levelo://app?vid=3ccfacaf-1db8-45cc-ae29-4350242eb281"},"vehicle_type_id":"4","last_reported":1685354811,"current_range_meters":24000,"station_id":"ce4bhbh2rcd13ifvqepg","pricing_plan_id":"free"},{"bike_id":"131c4074-1730-4a2f-af7f-4ffef07f262d","system_id":"levelo_inurba_marseille","lat":43.284219,"lon":5.3497,"is_reserved":false,"is_disabled":false,"rental_uris":{"android":"levelo://app?vid=131c4074-1730-4a2f-af7f-4ffef07f262d","ios":"levelo://app?vid=131c4074-1730-4a2f-af7f-4ffef07f262d"},"vehicle_type_id":"4","last_reported":1685354811,"current_range_meters":31200,"station_id":"ce4bhbh2rcd13ifvqepg","pricing_plan_id":"free"},{"bike_id":"418b8bbb-0cab-4459-af32-79eb76221347","system_id":"levelo_inurba_marseille","lat":43.28419,"lon":5.34977,"is_reserved":false,"is_disabled":false,"rental_uris":{"android":"levelo://app?vid=418b8bbb-0cab-4459-af32-79eb76221347","ios":"levelo://app?vid=418b8bbb-0cab-4459-af32-79eb76221347"},"vehicle_type_id":"4","last_reported":1685354811,"current_range_meters":16400,"station_id":"ce4bhbh2rcd13ifvqepg","pricing_plan_id":"free"},{"bike_id":"2caacb22-a7eb-40bb-987f-cd0b70a54b54","system_id":"levelo_inurba_marseille","lat":43.28417,"lon":5.34979,"is_reserved":false,"is_disabled":false,"rental_uris":{"android":"levelo://app?vid=2caacb22-a7eb-40bb-987f-cd0b70a54b54","ios":"levelo://app?vid=2caacb22-a7eb-40bb-987f-cd0b70a54b54"},"vehicle_type_id":"4","last_reported":1685354811,"current_range_meters":26800,"station_id":"ce4bhbh2rcd13ifvqepg","pricing_plan_id":"free"},{"bike_id":"d7995c48-763e-413d-aeff-e2710c8d5804","system_id":"levelo_inurba_marseille","lat":43.289363,"lon":5.396322,"is_reserved":false,"is_disabled":false,"rental_uris":{"android":"levelo://app?vid=d7995c48-763e-413d-aeff-e2710c8d5804","ios":"levelo://app?vid=d7995c48-763e-413d-aeff-e2710c8d5804"},"vehicle_type_id":"4","last_reported":1685354811,"current_range_meters":26400,"station_id":"ce4bh3h2rcd13ifvqdn0","pricing_plan_id":"free"},{"bike_id":"062589db-efad-48b4-b9a5-8aed6bb8b7a7","system_id":"levelo_inurba_marseille","lat":43.292724,"lon":5.401131,"is_reserved":false,"is_disabled":false,"rental_uris":{"android":"levelo://app?vid=062589db-efad-48b4-b9a5-8aed6bb8b7a7","ios":"levelo://app?vid=062589db-efad-48b4-b9a5-8aed6bb8b7a7"},"vehicle_type_id":"4","last_reported":1685354811,"current_range_meters":12000,"station_id":"ce4bh312rcd13ifvqdk0","pricing_plan_id":"free"},{"bike_id":"0eb3623e-f515-43bf-80c2-56269bc49298","system_id":"levelo_inurba_marseille","lat":43.29285,"lon":5.40126,"is_reserved":false,"is_disabled":false,"rental_uris":{"android":"levelo://app?vid=0eb3623e-f515-43bf-80c2-56269bc49298","ios":"levelo://app?vid=0eb3623e-f515-43bf-80c2-56269bc49298"},"vehicle_type_id":"4","last_reported":1685354811,"current_range_meters":24000,"station_id":"ce4bh312rcd13ifvqdk0","pricing_plan_id":"free"},{"bike_id":"c6d1ac23-8830-41b5-b69a-7756f780af46","system_id":"levelo_inurba_marseille","lat":43.282754,"lon":5.350519,"is_reserved":false,"is_disabled":false,"rental_uris":{"android":"levelo://app?vid=c6d1ac23-8830-41b5-b69a-7756f780af46","ios":"levelo://app?vid=c6d1ac23-8830-41b5-b69a-7756f780af46"},"vehicle_type_id":"4","last_reported":1685354811,"current_range_meters":31200,"station_id":"ce4bhbp2rcd13ifvqerg","pricing_plan_id":"free"},{"bike_id":"fba8e799-9e67-4b20-b8a9-bbfb077563ab","system_id":"levelo_inurba_marseille","lat":43.28278,"lon":5.35076,"is_reserved":false,"is_disabled":false,"rental_uris":{"android":"levelo://app?vid=fba8e799-9e67-4b20-b8a9-bbfb077563ab","ios":"levelo://app?vid=fba8e799-9e67-4b20-b8a9-bbfb077563ab"},"vehicle_type_id":"4","last_reported":1685354811,"current_range_meters":31200,"station_id":"ce4bhbp2rcd13ifvqerg","pricing_plan_id":"free"},{"bike_id":"824d221b-5588-4248-8630-185fa4112b0e","system_id":"levelo_inurba_marseille","lat":43.282744,"lon":5.350533,"is_reserved":false,"is_disabled":false,"rental_uris":{"android":"levelo://app?vid=824d221b-5588-4248-8630-185fa4112b0e","ios":"levelo://app?vid=824d221b-5588-4248-8630-185fa4112b0e"},"vehicle_type_id":"4","last_reported":1685354811,"current_range_meters":30000,"station_id":"ce4bhbp2rcd13ifvqerg","pricing_plan_id":"free"},{"bike_id":"45f13e00-ee1e-46ad-9f63-e9b83e965b63","system_id":"levelo_inurba_marseille","lat":43.28278,"lon":5.35068,"is_reserved":false,"is_disabled":false,"rental_uris":{"android":"levelo://app?vid=45f13e00-ee1e-46ad-9f63-e9b83e965b63","ios":"levelo://app?vid=45f13e00-ee1e-46ad-9f63-e9b83e965b63"},"vehicle_type_id":"4","last_reported":1685354811,"current_range_meters":26000,"station_id":"ce4bhbp2rcd13ifvqerg","pricing_plan_id":"free"},{"bike_id":"9a2e093e-f1f4-48ef-ada0-5ef12d4c4e7f","system_id":"levelo_inurba_marseille","lat":43.282744,"lon":5.350533,"is_reserved":false,"is_disabled":false,"rental_uris":{"android":"levelo://app?vid=9a2e093e-f1f4-48ef-ada0-5ef12d4c4e7f","ios":"levelo://app?vid=9a2e093e-f1f4-48ef-ada0-5ef12d4c4e7f"},"vehicle_type_id":"4","last_reported":1685354811,"current_range_meters":6400,"station_id":"ce4bhbp2rcd13ifvqerg","pricing_plan_id":"free"},{"bike_id":"9b300d98-8ed5-4cdd-9add-7f7d560da12f","system_id":"levelo_inurba_marseille","lat":43.28274,"lon":5.3507,"is_reserved":false,"is_disabled":false,"rental_uris":{"android":"levelo://app?vid=9b300d98-8ed5-4cdd-9add-7f7d560da12f","ios":"levelo://app?vid=9b300d98-8ed5-4cdd-9add-7f7d560da12f"},"vehicle_type_id":"4","last_reported":1685354811,"current_range_meters":24800,"station_id":"","pricing_plan_id":"free"},{"bike_id":"6800d838-2c4d-469e-a7f9-d71e04d7799f","system_id":"levelo_inurba_marseille","lat":43.28272,"lon":5.35074,"is_reserved":false,"is_disabled":false,"rental_uris":{"android":"levelo://app?vid=6800d838-2c4d-469e-a7f9-d71e04d7799f","ios":"levelo://app?vid=6800d838-2c4d-469e-a7f9-d71e04d7799f"},"vehicle_type_id":"4","last_reported":1685354811,"current_range_meters":23600,"station_id":"","pricing_plan_id":"free"},{"bike_id":"66129e6c-f624-4196-b46e-ffde5310526b","system_id":"levelo_inurba_marseille","lat":43.282744,"lon":5.350533,"is_reserved":false,"is_disabled":false,"rental_uris":{"android":"levelo://app?vid=66129e6c-f624-4196-b46e-ffde5310526b","ios":"levelo://app?vid=66129e6c-f624-4196-b46e-ffde5310526b"},"vehicle_type_id":"4","last_reported":1685354811,"current_range_meters":4000,"station_id":"ce4bhbp2rcd13ifvqerg","pricing_plan_id":"free"},{"bike_id":"34b118e8-7ba6-41fe-a469-eb67dc5ab4a1","system_id":"levelo_inurba_marseille","lat":43.2827,"lon":5.35058,"is_reserved":false,"is_disabled":false,"rental_uris":{"android":"levelo://app?vid=34b118e8-7ba6-41fe-a469-eb67dc5ab4a1","ios":"levelo://app?vid=34b118e8-7ba6-41fe-a469-eb67dc5ab4a1"},"vehicle_type_id":"4","last_reported":1685354811,"current_range_meters":23200,"station_id":"ce4bhbp2rcd13ifvqerg","pricing_plan_id":"free"},{"bike_id":"ceaf087b-376d-4e97-bcd9-d8ec967ad73e","system_id":"levelo_inurba_marseille","lat":43.28268,"lon":5.35062,"is_reserved":false,"is_disabled":false,"rental_uris":{"android":"levelo://app?vid=ceaf087b-376d-4e97-bcd9-d8ec967ad73e","ios":"levelo://app?vid=ceaf087b-376d-4e97-bcd9-d8ec967ad73e"},"vehicle_type_id":"4","last_reported":1685354811,"current_range_meters":12400,"station_id":"ce4bhbp2rcd13ifvqerg","pricing_plan_id":"free"},{"bike_id":"a0e3d4cb-6282-41ed-81cb-64ff6cdf8713","system_id":"levelo_inurba_marseille","lat":43.282744,"lon":5.350533,"is_reserved":false,"is_disabled":false,"rental_uris":{"android":"levelo://app?vid=a0e3d4cb-6282-41ed-81cb-64ff6cdf8713","ios":"levelo://app?vid=a0e3d4cb-6282-41ed-81cb-64ff6cdf8713"},"vehicle_type_id":"4","last_reported":1685354811,"current_range_meters":22400,"station_id":"ce4bhbp2rcd13ifvqerg","pricing_plan_id":"free"},{"bike_id":"ea6d1b5a-0d9e-4c5d-8204-8252f218cecc","system_id":"levelo_inurba_marseille","lat":43.28039,"lon":5.369297,"is_reserved":false,"is_disabled":false,"rental_uris":{"android":"levelo://app?vid=ea6d1b5a-0d9e-4c5d-8204-8252f218cecc","ios":"levelo://app?vid=ea6d1b5a-0d9e-4c5d-8204-8252f218cecc"},"vehicle_type_id":"4","last_reported":1685354811,"current_range_meters":27200,"station_id":"ce4bha12rcd13ifvqef0","pricing_plan_id":"free"},{"bike_id":"e2b2f4e3-578d-46c6-8e8f-fdd668de82e5","system_id":"levelo_inurba_marseille","lat":43.281044,"lon":5.378308,"is_reserved":false,"is_disabled":false,"rental_uris":{"android":"levelo://app?vid=e2b2f4e3-578d-46c6-8e8f-fdd668de82e5","ios":"levelo://app?vid=e2b2f4e3-578d-46c6-8e8f-fdd668de82e5"},"vehicle_type_id":"4","last_reported":1685354811,"current_range_meters":30400,"station_id":"ce4bha12rcd13ifvqee0","pricing_plan_id":"free"},{"bike_id":"28d24cde-cf39-4ecf-a6de-f997cf99bdb5","system_id":"levelo_inurba_marseille","lat":43.281044,"lon":5.378308,"is_reserved":false,"is_disabled":false,"rental_uris":{"android":"levelo://app?vid=28d24cde-cf39-4ecf-a6de-f997cf99bdb5","ios":"levelo://app?vid=28d24cde-cf39-4ecf-a6de-f997cf99bdb5"},"vehicle_type_id":"4","last_reported":1685354811,"current_range_meters":31200,"station_id":"ce4bha12rcd13ifvqee0","pricing_plan_id":"free"},{"bike_id":"28f3d92a-5152-4128-8264-90c8ad05d962","system_id":"levelo_inurba_marseille","lat":43.281044,"lon":5.378308,"is_reserved":false,"is_disabled":false,"rental_uris":{"android":"levelo://app?vid=28f3d92a-5152-4128-8264-90c8ad05d962","ios":"levelo://app?vid=28f3d92a-5152-4128-8264-90c8ad05d962"},"vehicle_type_id":"4","last_reported":1685354811,"current_range_meters":27200,"station_id":"ce4bha12rcd13ifvqee0","pricing_plan_id":"free"},{"bike_id":"3e41d46e-08ab-4c4a-8830-1c33b5f71073","system_id":"levelo_inurba_marseille","lat":43.281044,"lon":5.378308,"is_reserved":false,"is_disabled":false,"rental_uris":{"android":"levelo://app?vid=3e41d46e-08ab-4c4a-8830-1c33b5f71073","ios":"levelo://app?vid=3e41d46e-08ab-4c4a-8830-1c33b5f71073"},"vehicle_type_id":"4","last_reported":1685354811,"current_range_meters":20800,"station_id":"ce4bha12rcd13ifvqee0","pricing_plan_id":"free"},{"bike_id":"468cfd49-a198-4a7e-b95b-adcb7e4dd43b","system_id":"levelo_inurba_marseille","lat":43.281044,"lon":5.378308,"is_reserved":false,"is_disabled":false,"rental_uris":{"android":"levelo://app?vid=468cfd49-a198-4a7e-b95b-adcb7e4dd43b","ios":"levelo://app?vid=468cfd49-a198-4a7e-b95b-adcb7e4dd43b"},"vehicle_type_id":"4","last_reported":1685354811,"current_range_meters":28400,"station_id":"ce4bha12rcd13ifvqee0","pricing_plan_id":"free"},{"bike_id":"b00caf07-e0f3-44e9-9aa4-0218f00a36e2","system_id":"levelo_inurba_marseille","lat":43.281044,"lon":5.378308,"is_reserved":false,"is_disabled":false,"rental_uris":{"android":"levelo://app?vid=b00caf07-e0f3-44e9-9aa4-0218f00a36e2","ios":"levelo://app?vid=b00caf07-e0f3-44e9-9aa4-0218f00a36e2"},"vehicle_type_id":"4","last_reported":1685354811,"current_range_meters":27200,"station_id":"ce4bha12rcd13ifvqee0","pricing_plan_id":"free"},{"bike_id":"f52d70a0-4608-4eb3-acaf-24c59af3b3cc","system_id":"levelo_inurba_marseille","lat":43.281044,"lon":5.378308,"is_reserved":false,"is_disabled":false,"rental_uris":{"android":"levelo://app?vid=f52d70a0-4608-4eb3-acaf-24c59af3b3cc","ios":"levelo://app?vid=f52d70a0-4608-4eb3-acaf-24c59af3b3cc"},"vehicle_type_id":"4","last_reported":1685354811,"current_range_meters":31200,"station_id":"ce4bha12rcd13ifvqee0","pricing_plan_id":"free"},{"bike_id":"3b67bc6e-8944-4253-814b-a2f19dde0459","system_id":"levelo_inurba_marseille","lat":43.281044,"lon":5.378308,"is_reserved":false,"is_disabled":false,"rental_uris":{"android":"levelo://app?vid=3b67bc6e-8944-4253-814b-a2f19dde0459","ios":"levelo://app?vid=3b67bc6e-8944-4253-814b-a2f19dde0459"},"vehicle_type_id":"4","last_reported":1685354811,"current_range_meters":30800,"station_id":"ce4bha12rcd13ifvqee0","pricing_plan_id":"free"},{"bike_id":"c0844923-b99a-4609-98ce-885ae8b3ffe1","system_id":"levelo_inurba_marseille","lat":43.296263,"lon":5.40601,"is_reserved":false,"is_disabled":false,"rental_uris":{"android":"levelo://app?vid=c0844923-b99a-4609-98ce-885ae8b3ffe1","ios":"levelo://app?vid=c0844923-b99a-4609-98ce-885ae8b3ffe1"},"vehicle_type_id":"4","last_reported":1685354811,"current_range_meters":31200,"station_id":"ce4bh0h2rcd13ifvqd60","pricing_plan_id":"free"},{"bike_id":"91762a64-6866-45fc-9137-e7dedd0a10f6","system_id":"levelo_inurba_marseille","lat":43.281044,"lon":5.378308,"is_reserved":false,"is_disabled":false,"rental_uris":{"android":"levelo://app?vid=91762a64-6866-45fc-9137-e7dedd0a10f6","ios":"levelo://app?vid=91762a64-6866-45fc-9137-e7dedd0a10f6"},"vehicle_type_id":"4","last_reported":1685354811,"current_range_meters":27600,"station_id":"ce4bha12rcd13ifvqee0","pricing_plan_id":"free"},{"bike_id":"cbc15f0a-fede-4b7a-8f70-abfd1bcaf19a","system_id":"levelo_inurba_marseille","lat":43.296263,"lon":5.40601,"is_reserved":false,"is_disabled":false,"rental_uris":{"android":"levelo://app?vid=cbc15f0a-fede-4b7a-8f70-abfd1bcaf19a","ios":"levelo://app?vid=cbc15f0a-fede-4b7a-8f70-abfd1bcaf19a"},"vehicle_type_id":"4","last_reported":1685354811,"current_range_meters":23200,"station_id":"ce4bh0h2rcd13ifvqd60","pricing_plan_id":"free"},{"bike_id":"a12d4cc1-e9c8-42a9-8cd0-c364b314138d","system_id":"levelo_inurba_marseille","lat":43.281044,"lon":5.378308,"is_reserved":false,"is_disabled":false,"rental_uris":{"android":"levelo://app?vid=a12d4cc1-e9c8-42a9-8cd0-c364b314138d","ios":"levelo://app?vid=a12d4cc1-e9c8-42a9-8cd0-c364b314138d"},"vehicle_type_id":"4","last_reported":1685354811,"current_range_meters":30800,"station_id":"ce4bha12rcd13ifvqee0","pricing_plan_id":"free"},{"bike_id":"5fd20427-793f-47da-a17d-b9b0f886c336","system_id":"levelo_inurba_marseille","lat":43.284462,"lon":5.392121,"is_reserved":false,"is_disabled":false,"rental_uris":{"android":"levelo://app?vid=5fd20427-793f-47da-a17d-b9b0f886c336","ios":"levelo://app?vid=5fd20427-793f-47da-a17d-b9b0f886c336"},"vehicle_type_id":"4","last_reported":1685354811,"current_range_meters":14000,"station_id":"ce4bhoh2rcd13ifvqh5g","pricing_plan_id":"free"},{"bike_id":"9d5f3b51-e40c-44c2-8add-b3016492552f","system_id":"levelo_inurba_marseille","lat":43.284462,"lon":5.392121,"is_reserved":false,"is_disabled":false,"rental_uris":{"android":"levelo://app?vid=9d5f3b51-e40c-44c2-8add-b3016492552f","ios":"levelo://app?vid=9d5f3b51-e40c-44c2-8add-b3016492552f"},"vehicle_type_id":"4","last_reported":1685354811,"current_range_meters":19200,"station_id":"ce4bhoh2rcd13ifvqh5g","pricing_plan_id":"free"},{"bike_id":"2cf90c90-9ddb-4207-a0c0-704f570036df","system_id":"levelo_inurba_marseille","lat":43.304188,"lon":5.412904,"is_reserved":false,"is_disabled":false,"rental_uris":{"android":"levelo://app?vid=2cf90c90-9ddb-4207-a0c0-704f570036df","ios":"levelo://app?vid=2cf90c90-9ddb-4207-a0c0-704f570036df"},"vehicle_type_id":"4","last_reported":1685354811,"current_range_meters":25600,"station_id":"ce4bhop2rcd13ifvqh8g","pricing_plan_id":"free"},{"bike_id":"db1489de-a7c4-4c0f-8abf-73d0898bb77a","system_id":"levelo_inurba_marseille","lat":43.28172,"lon":5.39172,"is_reserved":false,"is_disabled":false,"rental_uris":{"android":"levelo://app?vid=db1489de-a7c4-4c0f-8abf-73d0898bb77a","ios":"levelo://app?vid=db1489de-a7c4-4c0f-8abf-73d0898bb77a"},"vehicle_type_id":"4","last_reported":1685354811,"current_range_meters":15200,"station_id":"","pricing_plan_id":"free"},{"bike_id":"148c7c86-d6fa-4301-9def-0c634104dd64","system_id":"levelo_inurba_marseille","lat":43.27621,"lon":5.3611,"is_reserved":false,"is_disabled":false,"rental_uris":{"android":"levelo://app?vid=148c7c86-d6fa-4301-9def-0c634104dd64","ios":"levelo://app?vid=148c7c86-d6fa-4301-9def-0c634104dd64"},"vehicle_type_id":"4","last_reported":1685354811,"current_range_meters":2000,"station_id":"ce4bgj92rcd13ifvqbe0","pricing_plan_id":"free"},{"bike_id":"cb8bb557-ac40-492b-934c-53faa05d81cd","system_id":"levelo_inurba_marseille","lat":43.27621,"lon":5.36106,"is_reserved":false,"is_disabled":false,"rental_uris":{"android":"levelo://app?vid=cb8bb557-ac40-492b-934c-53faa05d81cd","ios":"levelo://app?vid=cb8bb557-ac40-492b-934c-53faa05d81cd"},"vehicle_type_id":"4","last_reported":1685354811,"current_range_meters":29200,"station_id":"ce4bgj92rcd13ifvqbe0","pricing_plan_id":"free"},{"bike_id":"9e4affc1-ef85-4c4b-a22a-4bd60b93e1c8","system_id":"levelo_inurba_marseille","lat":43.27618,"lon":5.36106,"is_reserved":false,"is_disabled":false,"rental_uris":{"android":"levelo://app?vid=9e4affc1-ef85-4c4b-a22a-4bd60b93e1c8","ios":"levelo://app?vid=9e4affc1-ef85-4c4b-a22a-4bd60b93e1c8"},"vehicle_type_id":"4","last_reported":1685354811,"current_range_meters":25600,"station_id":"ce4bgj92rcd13ifvqbe0","pricing_plan_id":"free"},{"bike_id":"941475d9-c5aa-4c9e-967b-dc8e076355fd","system_id":"levelo_inurba_marseille","lat":43.276179,"lon":5.361009,"is_reserved":false,"is_disabled":false,"rental_uris":{"android":"levelo://app?vid=941475d9-c5aa-4c9e-967b-dc8e076355fd","ios":"levelo://app?vid=941475d9-c5aa-4c9e-967b-dc8e076355fd"},"vehicle_type_id":"4","last_reported":1685354811,"current_range_meters":30000,"station_id":"ce4bgj92rcd13ifvqbe0","pricing_plan_id":"free"},{"bike_id":"66a03f50-ec32-4d9e-942b-eff3cfc13164","system_id":"levelo_inurba_marseille","lat":43.27616,"lon":5.36109,"is_reserved":false,"is_disabled":false,"rental_uris":{"android":"levelo://app?vid=66a03f50-ec32-4d9e-942b-eff3cfc13164","ios":"levelo://app?vid=66a03f50-ec32-4d9e-942b-eff3cfc13164"},"vehicle_type_id":"4","last_reported":1685354811,"current_range_meters":31200,"station_id":"ce4bgj92rcd13ifvqbe0","pricing_plan_id":"free"},{"bike_id":"a2e9cbfa-4b2b-4934-a99d-91122d833ef6","system_id":"levelo_inurba_marseille","lat":43.276179,"lon":5.361009,"is_reserved":false,"is_disabled":false,"rental_uris":{"android":"levelo://app?vid=a2e9cbfa-4b2b-4934-a99d-91122d833ef6","ios":"levelo://app?vid=a2e9cbfa-4b2b-4934-a99d-91122d833ef6"},"vehicle_type_id":"4","last_reported":1685354811,"current_range_meters":28800,"station_id":"ce4bgj92rcd13ifvqbe0","pricing_plan_id":"free"},{"bike_id":"dc4f6018-cec7-4b45-900d-9641e701581e","system_id":"levelo_inurba_marseille","lat":43.276179,"lon":5.361009,"is_reserved":false,"is_disabled":false,"rental_uris":{"android":"levelo://app?vid=dc4f6018-cec7-4b45-900d-9641e701581e","ios":"levelo://app?vid=dc4f6018-cec7-4b45-900d-9641e701581e"},"vehicle_type_id":"4","last_reported":1685354811,"current_range_meters":19600,"station_id":"ce4bgj92rcd13ifvqbe0","pricing_plan_id":"free"},{"bike_id":"004f8bed-ab50-46b6-907f-a5000d115a28","system_id":"levelo_inurba_marseille","lat":43.276179,"lon":5.361009,"is_reserved":false,"is_disabled":false,"rental_uris":{"android":"levelo://app?vid=004f8bed-ab50-46b6-907f-a5000d115a28","ios":"levelo://app?vid=004f8bed-ab50-46b6-907f-a5000d115a28"},"vehicle_type_id":"4","last_reported":1685354811,"current_range_meters":31200,"station_id":"ce4bgj92rcd13ifvqbe0","pricing_plan_id":"free"},{"bike_id":"ca6faf05-0f3b-4010-a2f1-8fb9acd54108","system_id":"levelo_inurba_marseille","lat":43.303837,"lon":5.418724,"is_reserved":false,"is_disabled":false,"rental_uris":{"android":"levelo://app?vid=ca6faf05-0f3b-4010-a2f1-8fb9acd54108","ios":"levelo://app?vid=ca6faf05-0f3b-4010-a2f1-8fb9acd54108"},"vehicle_type_id":"4","last_reported":1685354811,"current_range_meters":31200,"station_id":"ce4bhop2rcd13ifvqh7g","pricing_plan_id":"free"},{"bike_id":"6bac119f-7fdc-462a-b9aa-b2ea52a69389","system_id":"levelo_inurba_marseille","lat":43.2738,"lon":5.36254,"is_reserved":false,"is_disabled":false,"rental_uris":{"android":"levelo://app?vid=6bac119f-7fdc-462a-b9aa-b2ea52a69389","ios":"levelo://app?vid=6bac119f-7fdc-462a-b9aa-b2ea52a69389"},"vehicle_type_id":"4","last_reported":1685354811,"current_range_meters":22800,"station_id":"ce4bhbh2rcd13ifvqeo0","pricing_plan_id":"free"},{"bike_id":"5f8f222c-e693-48a6-8a92-dd5f7084e2f0","system_id":"levelo_inurba_marseille","lat":43.27377,"lon":5.36258,"is_reserved":false,"is_disabled":false,"rental_uris":{"android":"levelo://app?vid=5f8f222c-e693-48a6-8a92-dd5f7084e2f0","ios":"levelo://app?vid=5f8f222c-e693-48a6-8a92-dd5f7084e2f0"},"vehicle_type_id":"4","last_reported":1685354811,"current_range_meters":26000,"station_id":"ce4bhbh2rcd13ifvqeo0","pricing_plan_id":"free"},{"bike_id":"d5ef9f63-1c74-45bd-a165-7a5ea090c2c1","system_id":"levelo_inurba_marseille","lat":43.27377,"lon":5.36255,"is_reserved":false,"is_disabled":false,"rental_uris":{"android":"levelo://app?vid=d5ef9f63-1c74-45bd-a165-7a5ea090c2c1","ios":"levelo://app?vid=d5ef9f63-1c74-45bd-a165-7a5ea090c2c1"},"vehicle_type_id":"4","last_reported":1685354811,"current_range_meters":15200,"station_id":"ce4bhbh2rcd13ifvqeo0","pricing_plan_id":"free"},{"bike_id":"c8096ef5-1305-46e9-8a91-7bd6c46d8f8d","system_id":"levelo_inurba_marseille","lat":43.27376,"lon":5.36257,"is_reserved":false,"is_disabled":false,"rental_uris":{"android":"levelo://app?vid=c8096ef5-1305-46e9-8a91-7bd6c46d8f8d","ios":"levelo://app?vid=c8096ef5-1305-46e9-8a91-7bd6c46d8f8d"},"vehicle_type_id":"4","last_reported":1685354811,"current_range_meters":18400,"station_id":"ce4bhbh2rcd13ifvqeo0","pricing_plan_id":"free"},{"bike_id":"b17318f2-8ca9-44be-9033-bcc68967c998","system_id":"levelo_inurba_marseille","lat":43.27376,"lon":5.36246,"is_reserved":false,"is_disabled":false,"rental_uris":{"android":"levelo://app?vid=b17318f2-8ca9-44be-9033-bcc68967c998","ios":"levelo://app?vid=b17318f2-8ca9-44be-9033-bcc68967c998"},"vehicle_type_id":"4","last_reported":1685354811,"current_range_meters":26000,"station_id":"ce4bhbh2rcd13ifvqeo0","pricing_plan_id":"free"},{"bike_id":"ff645cf7-de40-47c8-814d-b4e7df3d0296","system_id":"levelo_inurba_marseille","lat":43.273609,"lon":5.362708,"is_reserved":false,"is_disabled":false,"rental_uris":{"android":"levelo://app?vid=ff645cf7-de40-47c8-814d-b4e7df3d0296","ios":"levelo://app?vid=ff645cf7-de40-47c8-814d-b4e7df3d0296"},"vehicle_type_id":"4","last_reported":1685354811,"current_range_meters":31200,"station_id":"ce4bhbh2rcd13ifvqeo0","pricing_plan_id":"free"},{"bike_id":"90028714-f1a0-4dbd-8ede-050aa4b12b73","system_id":"levelo_inurba_marseille","lat":43.27375,"lon":5.36249,"is_reserved":false,"is_disabled":false,"rental_uris":{"android":"levelo://app?vid=90028714-f1a0-4dbd-8ede-050aa4b12b73","ios":"levelo://app?vid=90028714-f1a0-4dbd-8ede-050aa4b12b73"},"vehicle_type_id":"4","last_reported":1685354811,"current_range_meters":19600,"station_id":"ce4bhbh2rcd13ifvqeo0","pricing_plan_id":"free"},{"bike_id":"94023db1-6bb7-415c-8a3e-28a4f1a183de","system_id":"levelo_inurba_marseille","lat":43.27375,"lon":5.36245,"is_reserved":false,"is_disabled":false,"rental_uris":{"android":"levelo://app?vid=94023db1-6bb7-415c-8a3e-28a4f1a183de","ios":"levelo://app?vid=94023db1-6bb7-415c-8a3e-28a4f1a183de"},"vehicle_type_id":"4","last_reported":1685354811,"current_range_meters":20400,"station_id":"ce4bhbh2rcd13ifvqeo0","pricing_plan_id":"free"},{"bike_id":"c9479f6c-dd6a-43b7-86d1-59fddd68cfd8","system_id":"levelo_inurba_marseille","lat":43.27374,"lon":5.36252,"is_reserved":false,"is_disabled":false,"rental_uris":{"android":"levelo://app?vid=c9479f6c-dd6a-43b7-86d1-59fddd68cfd8","ios":"levelo://app?vid=c9479f6c-dd6a-43b7-86d1-59fddd68cfd8"},"vehicle_type_id":"4","last_reported":1685354811,"current_range_meters":28800,"station_id":"ce4bhbh2rcd13ifvqeo0","pricing_plan_id":"free"},{"bike_id":"cd50e38f-be01-4043-b35c-a9a528b15b22","system_id":"levelo_inurba_marseille","lat":43.27372,"lon":5.36255,"is_reserved":false,"is_disabled":false,"rental_uris":{"android":"levelo://app?vid=cd50e38f-be01-4043-b35c-a9a528b15b22","ios":"levelo://app?vid=cd50e38f-be01-4043-b35c-a9a528b15b22"},"vehicle_type_id":"4","last_reported":1685354811,"current_range_meters":21600,"station_id":"ce4bhbh2rcd13ifvqeo0","pricing_plan_id":"free"},{"bike_id":"97dbe8b9-b946-418b-ab88-f9014f8cda2a","system_id":"levelo_inurba_marseille","lat":43.273609,"lon":5.362708,"is_reserved":false,"is_disabled":false,"rental_uris":{"android":"levelo://app?vid=97dbe8b9-b946-418b-ab88-f9014f8cda2a","ios":"levelo://app?vid=97dbe8b9-b946-418b-ab88-f9014f8cda2a"},"vehicle_type_id":"4","last_reported":1685354811,"current_range_meters":7200,"station_id":"ce4bhbh2rcd13ifvqeo0","pricing_plan_id":"free"},{"bike_id":"42feee98-1897-4ff1-97d5-9f48ec395d07","system_id":"levelo_inurba_marseille","lat":43.273609,"lon":5.362708,"is_reserved":false,"is_disabled":false,"rental_uris":{"android":"levelo://app?vid=42feee98-1897-4ff1-97d5-9f48ec395d07","ios":"levelo://app?vid=42feee98-1897-4ff1-97d5-9f48ec395d07"},"vehicle_type_id":"4","last_reported":1685354811,"current_range_meters":30000,"station_id":"ce4bhbh2rcd13ifvqeo0","pricing_plan_id":"free"},{"bike_id":"91b49189-18df-431a-bbbf-f0b2350181de","system_id":"levelo_inurba_marseille","lat":43.28429,"lon":5.408,"is_reserved":false,"is_disabled":false,"rental_uris":{"android":"levelo://app?vid=91b49189-18df-431a-bbbf-f0b2350181de","ios":"levelo://app?vid=91b49189-18df-431a-bbbf-f0b2350181de"},"vehicle_type_id":"4","last_reported":1685354811,"current_range_meters":4000,"station_id":"","pricing_plan_id":"free"},{"bike_id":"a6c5099f-fac0-4b23-86a2-4db6eeeb83ae","system_id":"levelo_inurba_marseille","lat":43.317121,"lon":5.423936,"is_reserved":false,"is_disabled":false,"rental_uris":{"android":"levelo://app?vid=a6c5099f-fac0-4b23-86a2-4db6eeeb83ae","ios":"levelo://app?vid=a6c5099f-fac0-4b23-86a2-4db6eeeb83ae"},"vehicle_type_id":"4","last_reported":1685354811,"current_range_meters":21200,"station_id":"ce4bhp92rcd13ifvqhbg","pricing_plan_id":"free"},{"bike_id":"cc1cc54e-1a9a-49f4-a8bd-07697f28e60a","system_id":"levelo_inurba_marseille","lat":43.317121,"lon":5.423936,"is_reserved":false,"is_disabled":false,"rental_uris":{"android":"levelo://app?vid=cc1cc54e-1a9a-49f4-a8bd-07697f28e60a","ios":"levelo://app?vid=cc1cc54e-1a9a-49f4-a8bd-07697f28e60a"},"vehicle_type_id":"4","last_reported":1685354811,"current_range_meters":28400,"station_id":"ce4bhp92rcd13ifvqhbg","pricing_plan_id":"free"},{"bike_id":"b6fde87d-9380-4612-9856-6a4c15e474d5","system_id":"levelo_inurba_marseille","lat":43.310785,"lon":5.424305,"is_reserved":false,"is_disabled":false,"rental_uris":{"android":"levelo://app?vid=b6fde87d-9380-4612-9856-6a4c15e474d5","ios":"levelo://app?vid=b6fde87d-9380-4612-9856-6a4c15e474d5"},"vehicle_type_id":"4","last_reported":1685354811,"current_range_meters":29200,"station_id":"ce4bhp92rcd13ifvqhag","pricing_plan_id":"free"},{"bike_id":"6b586849-4cb2-4f0c-a6d8-7549b3a03b77","system_id":"levelo_inurba_marseille","lat":43.310785,"lon":5.424305,"is_reserved":false,"is_disabled":false,"rental_uris":{"android":"levelo://app?vid=6b586849-4cb2-4f0c-a6d8-7549b3a03b77","ios":"levelo://app?vid=6b586849-4cb2-4f0c-a6d8-7549b3a03b77"},"vehicle_type_id":"4","last_reported":1685354811,"current_range_meters":25600,"station_id":"ce4bhp92rcd13ifvqhag","pricing_plan_id":"free"},{"bike_id":"1aa99106-6380-4167-a5ae-4a6e083874c9","system_id":"levelo_inurba_marseille","lat":43.310785,"lon":5.424305,"is_reserved":false,"is_disabled":false,"rental_uris":{"android":"levelo://app?vid=1aa99106-6380-4167-a5ae-4a6e083874c9","ios":"levelo://app?vid=1aa99106-6380-4167-a5ae-4a6e083874c9"},"vehicle_type_id":"4","last_reported":1685354811,"current_range_meters":26800,"station_id":"ce4bhp92rcd13ifvqhag","pricing_plan_id":"free"},{"bike_id":"a836af40-09af-4eb0-8db9-1fc5b0f18843","system_id":"levelo_inurba_marseille","lat":43.27332,"lon":5.39095,"is_reserved":false,"is_disabled":false,"rental_uris":{"android":"levelo://app?vid=a836af40-09af-4eb0-8db9-1fc5b0f18843","ios":"levelo://app?vid=a836af40-09af-4eb0-8db9-1fc5b0f18843"},"vehicle_type_id":"4","last_reported":1685354811,"current_range_meters":0,"station_id":"ce4bhgp2rcd13ifvqfe0","pricing_plan_id":"free"},{"bike_id":"d80e67f3-5599-493a-bad1-1f92ebef0b95","system_id":"levelo_inurba_marseille","lat":43.304096,"lon":5.425385,"is_reserved":false,"is_disabled":false,"rental_uris":{"android":"levelo://app?vid=d80e67f3-5599-493a-bad1-1f92ebef0b95","ios":"levelo://app?vid=d80e67f3-5599-493a-bad1-1f92ebef0b95"},"vehicle_type_id":"4","last_reported":1685354811,"current_range_meters":10400,"station_id":"ce4bhoh2rcd13ifvqh6g","pricing_plan_id":"free"},{"bike_id":"6390dd97-3f50-4160-bb3e-8286a27a0e7b","system_id":"levelo_inurba_marseille","lat":43.304096,"lon":5.425385,"is_reserved":false,"is_disabled":false,"rental_uris":{"android":"levelo://app?vid=6390dd97-3f50-4160-bb3e-8286a27a0e7b","ios":"levelo://app?vid=6390dd97-3f50-4160-bb3e-8286a27a0e7b"},"vehicle_type_id":"4","last_reported":1685354811,"current_range_meters":25600,"station_id":"ce4bhoh2rcd13ifvqh6g","pricing_plan_id":"free"},{"bike_id":"006b1477-59d9-4abf-bf30-fe468e8a0337","system_id":"levelo_inurba_marseille","lat":43.30448,"lon":5.42547,"is_reserved":false,"is_disabled":false,"rental_uris":{"android":"levelo://app?vid=006b1477-59d9-4abf-bf30-fe468e8a0337","ios":"levelo://app?vid=006b1477-59d9-4abf-bf30-fe468e8a0337"},"vehicle_type_id":"4","last_reported":1685354811,"current_range_meters":27200,"station_id":"","pricing_plan_id":"free"},{"bike_id":"4ccce2f7-ce49-4f2d-854c-e845debf3029","system_id":"levelo_inurba_marseille","lat":43.30412,"lon":5.42552,"is_reserved":false,"is_disabled":false,"rental_uris":{"android":"levelo://app?vid=4ccce2f7-ce49-4f2d-854c-e845debf3029","ios":"levelo://app?vid=4ccce2f7-ce49-4f2d-854c-e845debf3029"},"vehicle_type_id":"4","last_reported":1685354811,"current_range_meters":14400,"station_id":"ce4bhoh2rcd13ifvqh6g","pricing_plan_id":"free"},{"bike_id":"29dd7db9-268d-4e11-9de5-f9528bcd0c2c","system_id":"levelo_inurba_marseille","lat":43.295523,"lon":5.422926,"is_reserved":false,"is_disabled":false,"rental_uris":{"android":"levelo://app?vid=29dd7db9-268d-4e11-9de5-f9528bcd0c2c","ios":"levelo://app?vid=29dd7db9-268d-4e11-9de5-f9528bcd0c2c"},"vehicle_type_id":"4","last_reported":1685354811,"current_range_meters":30400,"station_id":"ce4bhph2rcd13ifvqhdg","pricing_plan_id":"free"},{"bike_id":"122dab0e-2acc-4a25-b685-9d8ab3805a7d","system_id":"levelo_inurba_marseille","lat":43.269319,"lon":5.389397,"is_reserved":false,"is_disabled":false,"rental_uris":{"android":"levelo://app?vid=122dab0e-2acc-4a25-b685-9d8ab3805a7d","ios":"levelo://app?vid=122dab0e-2acc-4a25-b685-9d8ab3805a7d"},"vehicle_type_id":"4","last_reported":1685354811,"current_range_meters":30000,"station_id":"ce4bhhh2rcd13ifvqfl0","pricing_plan_id":"free"},{"bike_id":"2fcc0c23-ac53-41eb-a2d4-d3336177ee7b","system_id":"levelo_inurba_marseille","lat":43.32009,"lon":5.43008,"is_reserved":false,"is_disabled":false,"rental_uris":{"android":"levelo://app?vid=2fcc0c23-ac53-41eb-a2d4-d3336177ee7b","ios":"levelo://app?vid=2fcc0c23-ac53-41eb-a2d4-d3336177ee7b"},"vehicle_type_id":"4","last_reported":1685354811,"current_range_meters":12400,"station_id":"","pricing_plan_id":"free"},{"bike_id":"4f5caaf9-68fa-47db-b662-31176c21a741","system_id":"levelo_inurba_marseille","lat":43.26681,"lon":5.382694,"is_reserved":false,"is_disabled":false,"rental_uris":{"android":"levelo://app?vid=4f5caaf9-68fa-47db-b662-31176c21a741","ios":"levelo://app?vid=4f5caaf9-68fa-47db-b662-31176c21a741"},"vehicle_type_id":"4","last_reported":1685354811,"current_range_meters":31200,"station_id":"ce4bhg92rcd13ifvqf90","pricing_plan_id":"free"},