{"last_updated":1719058379,"ttl":30,"version":"2.2","data":{"bikes":[{"bike_id":"dd98eac2-8104-4081-a8ee-18a6457c82b5","system_id":"levelo_inurba_marseille","lat":43.31341,"lon":5.367098,"is_reserved":false,"is_disabled":false,"rental_uris":{"android":"levelo://app?vid=dd98eac2-8104-4081-a8ee-18a6457c82b5","ios":"levelo://app?vid=dd98eac2-8104-4081-a8ee-18a6457c82b5"},"vehicle_type_id":"4","last_reported":1719058379,"current_range_meters":31200,"station_id":"ce4bgr92rcd13ifvqc6g","pricing_plan_id":"cebpf4jnsgd1na2vs0mg"},{"bike_id":"54b88342-110b-4658-a23e-ef6b467865fe","system_id":"levelo_inurba_marseille","lat":43.312239,"lon":5.368562,"is_reserved":false,"is_disabled":false,"rental_uris":{"android":"levelo://app?vid=54b88342-110b-4658-a23e-ef6b467865fe","ios":"levelo://app?vid=54b88342-110b-4658-a23e-ef6b467865fe"},"vehicle_type_id":"4","last_reported":1719058379,"current_range_meters":26800,"station_id":"ce4bgl92rcd13ifvqbq0","pricing_plan_id":"cebpf4jnsgd1na2vs0mg"},{"bike_id":"87f4ac48-92df-41bc-b93f-f1ae608901b1","system_id":"levelo_inurba_marseille","lat":43.30915,"lon":5.36844,"is_reserved":false,"is_disabled":false,"rental_uris":{"android":"levelo://app?vid=87f4ac48-92df-41bc-b93f-f1ae608901b1","ios":"levelo://app?vid=87f4ac48-92df-41bc-b93f-f1ae608901b1"},"vehicle_type_id":"4","last_reported":1719058379,"current_range_meters":5200,"station_id":"ce4bgn92rcd13ifvqbvg","pricing_plan_id":"cebpf4jnsgd1na2vs0mg"},{"bike_id":"24d509b5-ef37-465b-b8cc-6a71986a5c4f","system_id":"levelo_inurba_marseille","lat":43.308726,"lon":5.368153,"is_reserved":false,"is_disabled":false,"rental_uris":{"android":"levelo://app?vid=24d509b5-ef37-465b-b8cc-6a71986a5c4f","ios":"levelo://app?vid=24d509b5-ef37-465b-b8cc-6a71986a5c4f"},"vehicle_type_id":"4","last_reported":1719058379,"current_range_meters":21200,"station_id":"ce4bgn92rcd13ifvqbvg","pricing_plan_id":"cebpf4jnsgd1na2vs0mg"},{"bike_id":"f820de3e-a2ba-4b72-b488-2290ebdb9db7","system_id":"levelo_inurba_marseille","lat":43.31498,"lon":5.37298,"is_reserved":false,"is_disabled":false,"rental_uris":{"android":"levelo://app?vid=f820de3e-a2ba-4b72-b488-2290ebdb9db7","ios":"levelo://app?vid=f820de3e-a2ba-4b72-b488-2290ebdb9db7"},"vehicle_type_id":"4","last_reported":1719058379,"current_range_meters":30400,"station_id":"ce4bgt12rcd13ifvqcd0","pricing_plan_id":"cebpf4jnsgd1na2vs0mg"},{"bike_id":"16320164-8390-4994-bb16-b0524cabd2cc","system_id":"levelo_inurba_marseille","lat":43.314811,"lon":5.373103,"is_reserved":false,"is_disabled":false,"rental_uris":{"android":"levelo://app?vid=16320164-8390-4994-bb16-b0524cabd2cc","ios":"levelo://app?vid=16320164-8390-4994-bb16-b0524cabd2cc"},"vehicle_type_id":"4","last_reported":1719058379,"current_range_meters":22800,"station_id":"ce4bgt12rcd13ifvqcd0","pricing_plan_id":"cebpf4jnsgd1na2vs0mg"},{"bike_id":"b7b63dab-a17b-4855-9c2a-b515b3276579","system_id":"levelo_inurba_marseille","lat":43.314811,"lon":5.373104,"is_reserved":false,"is_disabled":false,"rental_uris":{"android":"levelo://app?vid=b7b63dab-a17b-4855-9c2a-b515b3276579","ios":"levelo://app?vid=b7b63dab-a17b-4855-9c2a-b515b3276579"},"vehicle_type_id":"4","last_reported":1719058379,"current_range_meters":13600,"station_id":"ce4bgt12rcd13ifvqcd0","pricing_plan_id":"cebpf4jnsgd1na2vs0mg"},{"bike_id":"1872cd67-90b0-45ad-95c0-5517faa2713f","system_id":"levelo_inurba_marseille","lat":43.314811,"lon":5.373104,"is_reserved":false,"is_disabled":false,"rental_uris":{"android":"levelo://app?vid=1872cd67-90b0-45ad-95c0-5517faa2713f","ios":"levelo://app?vid=1872cd67-90b0-45ad-95c0-5517faa2713f"},"vehicle_type_id":"4","last_reported":1719058379,"current_range_meters":16800,"station_id":"ce4bgt12rcd13ifvqcd0","pricing_plan_id":"cebpf4jnsgd1na2vs0mg"},{"bike_id":"c34d5eda-b943-4e4d-ad87-93709f541431","system_id":"levelo_inurba_marseille","lat":43.314811,"lon":5.373104,"is_reserved":false,"is_disabled":false,"rental_uris":{"android":"levelo://app?vid=c34d5eda-b943-4e4d-ad87-93709f541431","ios":"levelo://app?vid=c34d5eda-b943-4e4d-ad87-93709f541431"},"vehicle_type_id":"4","last_reported":1719058379,"current_range_meters":31200,"station_id":"ce4bgt12rcd13ifvqcd0","pricing_plan_id":"cebpf4jnsgd1na2vs0mg"},{"bike_id":"8bccd08c-dc1c-4587-80e0-2c5ae2119a5b","system_id":"levelo_inurba_marseille","lat":43.309039,"lon":5.371797,"is_reserved":false,"is_disabled":false,"rental_uris":{"android":"levelo://app?vid=8bccd08c-dc1c-4587-80e0-2c5ae2119a5b","ios":"levelo://app?vid=8bccd08c-dc1c-4587-80e0-2c5ae2119a5b"},"vehicle_type_id":"4","last_reported":1719058379,"current_range_meters":16800,"station_id":"ce4bguh2rcd13ifvqckg","pricing_plan_id":"cebpf4jnsgd1na2vs0mg"},{"bike_id":"20f31c62-307b-4c16-93b6-6fcc5accd677","system_id":"levelo_inurba_marseille","lat":43.31458,"lon":5.373641,"is_reserved":false,"is_disabled":false,"rental_uris":{"android":"levelo://app?vid=20f31c62-307b-4c16-93b6-6fcc5accd677","ios":"levelo://app?vid=20f31c62-307b-4c16-93b6-6fcc5accd677"},"vehicle_type_id":"4","last_reported":1719058379,"current_range_meters":16400,"station_id":"","pricing_plan_id":"cebpf4jnsgd1na2vs0mg"},{"bike_id":"8cc75193-e8d0-4ec9-b80e-ec8bd83ebb27","system_id":"levelo_inurba_marseille","lat":43.309034,"lon":5.371783,"is_reserved":false,"is_disabled":false,"rental_uris":{"android":"levelo://app?vid=8cc75193-e8d0-4ec9-b80e-ec8bd83ebb27","ios":"levelo://app?vid=8cc75193-e8d0-4ec9-b80e-ec8bd83ebb27"},"vehicle_type_id":"4","last_reported":1719058379,"current_range_meters":13200,"station_id":"ce4bguh2rcd13ifvqckg","pricing_plan_id":"cebpf4jnsgd1na2vs0mg"},{"bike_id":"9b3f4433-a008-4bf5-a688-f0c6e6da94d8","system_id":"levelo_inurba_marseille","lat":43.305712,"lon":5.365641,"is_reserved":false,"is_disabled":false,"rental_uris":{"android":"levelo://app?vid=9b3f4433-a008-4bf5-a688-f0c6e6da94d8","ios":"levelo://app?vid=9b3f4433-a008-4bf5-a688-f0c6e6da94d8"},"vehicle_type_id":"4","last_reported":1719058379,"current_range_meters":27600,"station_id":"ce4bgs12rcd13ifvqcag","pricing_plan_id":"cebpf4jnsgd1na2vs0mg"},{"bike_id":"d5be9f9b-9167-4456-a512-25bdd858d7a6","system_id":"levelo_inurba_marseille","lat":43.30554,"lon":5.36564,"is_reserved":false,"is_disabled":false,"rental_uris":{"android":"levelo://app?vid=d5be9f9b-9167-4456-a512-25bdd858d7a6","ios":"levelo://app?vid=d5be9f9b-9167-4456-a512-25bdd858d7a6"},"vehicle_type_id":"4","last_reported":1719058379,"current_range_meters":18400,"station_id":"ce4bgs12rcd13ifvqcag","pricing_plan_id":"cebpf4jnsgd1na2vs0mg"},{"bike_id":"b7852d79-b508-40ad-8d3d-5d121592f7d3","system_id":"levelo_inurba_marseille","lat":43.305714,"lon":5.365633,"is_reserved":false,"is_disabled":false,"rental_uris":{"android":"levelo://app?vid=b7852d79-b508-40ad-8d3d-5d121592f7d3","ios":"levelo://app?vid=b7852d79-b508-40ad-8d3d-5d121592f7d3"},"vehicle_type_id":"4","last_reported":1719058379,"current_range_meters":18800,"station_id":"ce4bgs12rcd13ifvqcag","pricing_plan_id":"cebpf4jnsgd1na2vs0mg"},{"bike_id":"aad67edf-2b92-4d18-aa66-b218c2adbaf7","system_id":"levelo_inurba_marseille","lat":43.30532,"lon":5.36661,"is_reserved":false,"is_disabled":false,"rental_uris":{"android":"levelo://app?vid=aad67edf-2b92-4d18-aa66-b218c2adbaf7","ios":"levelo://app?vid=aad67edf-2b92-4d18-aa66-b218c2adbaf7"},"vehicle_type_id":"4","last_reported":1719058379,"current_range_meters":22400,"station_id":"","pricing_plan_id":"cebpf4jnsgd1na2vs0mg"},{"bike_id":"01060de6-d057-4f9c-8921-428c59709ef0","system_id":"levelo_inurba_marseille","lat":43.305989,"lon":5.37225,"is_reserved":false,"is_disabled":false,"rental_uris":{"android":"levelo://app?vid=01060de6-d057-4f9c-8921-428c59709ef0","ios":"levelo://app?vid=01060de6-d057-4f9c-8921-428c59709ef0"},"vehicle_type_id":"4","last_reported":1719058379,"current_range_meters":19600,"station_id":"ce4bgqh2rcd13ifvqc4g","pricing_plan_id":"cebpf4jnsgd1na2vs0mg"},{"bike_id":"748323fd-f9b3-4a30-b0ac-3bc70dcc1b1c","system_id":"levelo_inurba_marseille","lat":43.305989,"lon":5.37225,"is_reserved":false,"is_disabled":false,"rental_uris":{"android":"levelo://app?vid=748323fd-f9b3-4a30-b0ac-3bc70dcc1b1c","ios":"levelo://app?vid=748323fd-f9b3-4a30-b0ac-3bc70dcc1b1c"},"vehicle_type_id":"4","last_reported":1719058379,"current_range_meters":26800,"station_id":"ce4bgqh2rcd13ifvqc4g","pricing_plan_id":"cebpf4jnsgd1na2vs0mg"},{"bike_id":"e561d401-cc62-4d25-b4c4-18219e12a7ba","system_id":"levelo_inurba_marseille","lat":43.305989,"lon":5.37225,"is_reserved":false,"is_disabled":false,"rental_uris":{"android":"levelo://app?vid=e561d401-cc62-4d25-b4c4-18219e12a7ba","ios":"levelo://app?vid=e561d401-cc62-4d25-b4c4-18219e12a7ba"},"vehicle_type_id":"4","last_reported":1719058379,"current_range_meters":15200,"station_id":"ce4bgqh2rcd13ifvqc4g","pricing_plan_id":"cebpf4jnsgd1na2vs0mg"},{"bike_id":"9bfa9612-6645-4f26-85d3-d6a6b6c630af","system_id":"levelo_inurba_marseille","lat":43.305989,"lon":5.37225,"is_reserved":false,"is_disabled":false,"rental_uris":{"android":"levelo://app?vid=9bfa9612-6645-4f26-85d3-d6a6b6c630af","ios":"levelo://app?vid=9bfa9612-6645-4f26-85d3-d6a6b6c630af"},"vehicle_type_id":"4","last_reported":1719058379,"current_range_meters":18400,"station_id":"ce4bgqh2rcd13ifvqc4g","pricing_plan_id":"cebpf4jnsgd1na2vs0mg"},{"bike_id":"f9e4257f-239b-4573-a65f-5adb2b178fbf","system_id":"levelo_inurba_marseille","lat":43.307823,"lon":5.376453,"is_reserved":false,"is_disabled":false,"rental_uris":{"android":"levelo://app?vid=f9e4257f-239b-4573-a65f-5adb2b178fbf","ios":"levelo://app?vid=f9e4257f-239b-4573-a65f-5adb2b178fbf"},"vehicle_type_id":"4","last_reported":1719058379,"current_range_meters":11600,"station_id":"ce4bgv92rcd13ifvqcq0","pricing_plan_id":"cebpf4jnsgd1na2vs0mg"},{"bike_id":"c8d74784-cfa3-4dc0-a55e-c53d6b6b7590","system_id":"levelo_inurba_marseille","lat":43.31356,"lon":5.379688,"is_reserved":false,"is_disabled":false,"rental_uris":{"android":"levelo://app?vid=c8d74784-cfa3-4dc0-a55e-c53d6b6b7590","ios":"levelo://app?vid=c8d74784-cfa3-4dc0-a55e-c53d6b6b7590"},"vehicle_type_id":"4","last_reported":1719058379,"current_range_meters":17200,"station_id":"","pricing_plan_id":"cebpf4jnsgd1na2vs0mg"},{"bike_id":"28f65da3-eafe-42ff-992d-e41e0151a72c","system_id":"levelo_inurba_marseille","lat":43.315346,"lon":5.380256,"is_reserved":false,"is_disabled":false,"rental_uris":{"android":"levelo://app?vid=28f65da3-eafe-42ff-992d-e41e0151a72c","ios":"levelo://app?vid=28f65da3-eafe-42ff-992d-e41e0151a72c"},"vehicle_type_id":"4","last_reported":1719058379,"current_range_meters":0,"station_id":"ce4bhsp2rcd13ifvqi50","pricing_plan_id":"cebpf4jnsgd1na2vs0mg"},{"bike_id":"5b8007bb-0dd8-4352-b213-d088b8c4b4e0","system_id":"levelo_inurba_marseille","lat":43.31543,"lon":5.38035,"is_reserved":false,"is_disabled":false,"rental_uris":{"android":"levelo://app?vid=5b8007bb-0dd8-4352-b213-d088b8c4b4e0","ios":"levelo://app?vid=5b8007bb-0dd8-4352-b213-d088b8c4b4e0"},"vehicle_type_id":"4","last_reported":1719058379,"current_range_meters":9200,"station_id":"ce4bhsp2rcd13ifvqi50","pricing_plan_id":"cebpf4jnsgd1na2vs0mg"},{"bike_id":"1aa9382d-bd55-4aff-8971-b23615fccdae","system_id":"levelo_inurba_marseille","lat":43.311,"lon":5.38145,"is_reserved":false,"is_disabled":false,"rental_uris":{"android":"levelo://app?vid=1aa9382d-bd55-4aff-8971-b23615fccdae","ios":"levelo://app?vid=1aa9382d-bd55-4aff-8971-b23615fccdae"},"vehicle_type_id":"4","last_reported":1719058379,"current_range_meters":5600,"station_id":"","pricing_plan_id":"cebpf4jnsgd1na2vs0mg"},{"bike_id":"b9ccbfc2-534c-447b-8a7a-87fd659ee701","system_id":"levelo_inurba_marseille","lat":43.308012,"lon":5.381511,"is_reserved":false,"is_disabled":false,"rental_uris":{"android":"levelo://app?vid=b9ccbfc2-534c-447b-8a7a-87fd659ee701","ios":"levelo://app?vid=b9ccbfc2-534c-447b-8a7a-87fd659ee701"},"vehicle_type_id":"4","last_reported":1719058379,"current_range_meters":23600,"station_id":"ce4bgt12rcd13ifvqce0","pricing_plan_id":"cebpf4jnsgd1na2vs0mg"},{"bike_id":"ed14ec74-1f1c-4cfd-8d26-59aa92fdca8a","system_id":"levelo_inurba_marseille","lat":43.301004,"lon":5.367342,"is_reserved":false,"is_disabled":false,"rental_uris":{"android":"levelo://app?vid=ed14ec74-1f1c-4cfd-8d26-59aa92fdca8a","ios":"levelo://app?vid=ed14ec74-1f1c-4cfd-8d26-59aa92fdca8a"},"vehicle_type_id":"4","last_reported":1719058379,"current_range_meters":26000,"station_id":"","pricing_plan_id":"cebpf4jnsgd1na2vs0mg"},{"bike_id":"bd0b160c-d11a-4105-87c5-fcd3759f3d6b","system_id":"levelo_inurba_marseille","lat":43.30468,"lon":5.37892,"is_reserved":false,"is_disabled":false,"rental_uris":{"android":"levelo://app?vid=bd0b160c-d11a-4105-87c5-fcd3759f3d6b","ios":"levelo://app?vid=bd0b160c-d11a-4105-87c5-fcd3759f3d6b"},"vehicle_type_id":"4","last_reported":1719058379,"current_range_meters":24400,"station_id":"ce4bgup2rcd13ifvqcn0","pricing_plan_id":"cebpf4jnsgd1na2vs0mg"},{"bike_id":"631966ca-1559-4083-a7b3-7ddfe953a657","system_id":"levelo_inurba_marseille","lat":43.304606,"lon":5.379026,"is_reserved":false,"is_disabled":false,"rental_uris":{"android":"levelo://app?vid=631966ca-1559-4083-a7b3-7ddfe953a657","ios":"levelo://app?vid=631966ca-1559-4083-a7b3-7ddfe953a657"},"vehicle_type_id":"4","last_reported":1719058379,"current_range_meters":18800,"station_id":"ce4bgup2rcd13ifvqcn0","pricing_plan_id":"cebpf4jnsgd1na2vs0mg"},{"bike_id":"9c30b5ca-8e08-49da-a46d-5c67654d8309","system_id":"levelo_inurba_marseille","lat":43.310804,"lon":5.38359,"is_reserved":false,"is_disabled":false,"rental_uris":{"android":"levelo://app?vid=9c30b5ca-8e08-49da-a46d-5c67654d8309","ios":"levelo://app?vid=9c30b5ca-8e08-49da-a46d-5c67654d8309"},"vehicle_type_id":"4","last_reported":1719058379,"current_range_meters":19600,"station_id":"ce4bgv92rcd13ifvqcr0","pricing_plan_id":"cebpf4jnsgd1na2vs0mg"},{"bike_id":"68420240-c9b9-4a69-b368-f790c3f15d20","system_id":"levelo_inurba_marseille","lat":43.30143,"lon":5.37413,"is_reserved":false,"is_disabled":false,"rental_uris":{"android":"levelo://app?vid=68420240-c9b9-4a69-b368-f790c3f15d20","ios":"levelo://app?vid=68420240-c9b9-4a69-b368-f790c3f15d20"},"vehicle_type_id":"4","last_reported":1719058379,"current_range_meters":14400,"station_id":"ce4bgs92rcd13ifvqcc0","pricing_plan_id":"cebpf4jnsgd1na2vs0mg"},{"bike_id":"40e96f29-29c8-43f9-9a8b-d9933ef20244","system_id":"levelo_inurba_marseille","lat":43.302784,"lon":5.377158,"is_reserved":false,"is_disabled":false,"rental_uris":{"android":"levelo://app?vid=40e96f29-29c8-43f9-9a8b-d9933ef20244","ios":"levelo://app?vid=40e96f29-29c8-43f9-9a8b-d9933ef20244"},"vehicle_type_id":"4","last_reported":1719058379,"current_range_meters":18400,"station_id":"ce4bguh2rcd13ifvqcj0","pricing_plan_id":"cebpf4jnsgd1na2vs0mg"},{"bike_id":"2c05e115-9dd8-4076-97b6-06c330ad8489","system_id":"levelo_inurba_marseille","lat":43.301429,"lon":5.37413,"is_reserved":false,"is_disabled":false,"rental_uris":{"android":"levelo://app?vid=2c05e115-9dd8-4076-97b6-06c330ad8489","ios":"levelo://app?vid=2c05e115-9dd8-4076-97b6-06c330ad8489"},"vehicle_type_id":"4","last_reported":1719058379,"current_range_meters":22400,"station_id":"ce4bgs92rcd13ifvqcc0","pricing_plan_id":"cebpf4jnsgd1na2vs0mg"},{"bike_id":"ad6f6ba0-5e91-4e74-bd34-160b22e23d77","system_id":"levelo_inurba_marseille","lat":43.302784,"lon":5.377158,"is_reserved":false,"is_disabled":false,"rental_uris":{"android":"levelo://app?vid=ad6f6ba0-5e91-4e74-bd34-160b22e23d77","ios":"levelo://app?vid=ad6f6ba0-5e91-4e74-bd34-160b22e23d77"},"vehicle_type_id":"4","last_reported":1719058379,"current_range_meters":22400,"station_id":"ce4bguh2rcd13ifvqcj0","pricing_plan_id":"cebpf4jnsgd1na2vs0mg"},{"bike_id":"80f7a144-d454-4780-90a1-f68af47968ff","system_id":"levelo_inurba_marseille","lat":43.30143,"lon":5.37413,"is_reserved":false,"is_disabled":false,"rental_uris":{"android":"levelo://app?vid=80f7a144-d454-4780-90a1-f68af47968ff","ios":"levelo://app?vid=80f7a144-d454-4780-90a1-f68af47968ff"},"vehicle_type_id":"4","last_reported":1719058379,"current_range_meters":30800,"station_id":"ce4bgs92rcd13ifvqcc0","pricing_plan_id":"cebpf4jnsgd1na2vs0mg"},{"bike_id":"290ebb12-4fa5-493e-befd-fed435c9f2c1","system_id":"levelo_inurba_marseille","lat":43.31996,"lon":5.38154,"is_reserved":false,"is_disabled":false,"rental_uris":{"android":"levelo://app?vid=290ebb12-4fa5-493e-befd-fed435c9f2c1","ios":"levelo://app?vid=290ebb12-4fa5-493e-befd-fed435c9f2c1"},"vehicle_type_id":"4","last_reported":1719058379,"current_range_meters":0,"station_id":"ce4bhr12rcd13ifvqhpg","pricing_plan_id":"cebpf4jnsgd1na2vs0mg"},{"bike_id":"82d4ada4-8e3b-4eac-8950-152222f60cdb","system_id":"levelo_inurba_marseille","lat":43.319935,"lon":5.381699,"is_reserved":false,"is_disabled":false,"rental_uris":{"android":"levelo://app?vid=82d4ada4-8e3b-4eac-8950-152222f60cdb","ios":"levelo://app?vid=82d4ada4-8e3b-4eac-8950-152222f60cdb"},"vehicle_type_id":"4","last_reported":1719058379,"current_range_meters":10000,"station_id":"ce4bhr12rcd13ifvqhpg","pricing_plan_id":"cebpf4jnsgd1na2vs0mg"},{"bike_id":"49c4c74f-b185-4d9f-aec5-ea82c88eff98","system_id":"levelo_inurba_marseille","lat":43.313571,"lon":5.384829,"is_reserved":false,"is_disabled":false,"rental_uris":{"android":"levelo://app?vid=49c4c74f-b185-4d9f-aec5-ea82c88eff98","ios":"levelo://app?vid=49c4c74f-b185-4d9f-aec5-ea82c88eff98"},"vehicle_type_id":"4","last_reported":1719058379,"current_range_meters":20000,"station_id":"ce4bgt92rcd13ifvqcf0","pricing_plan_id":"cebpf4jnsgd1na2vs0mg"},{"bike_id":"5722ba7f-fdae-4093-b99f-f5526b3a8986","system_id":"levelo_inurba_marseille","lat":43.313571,"lon":5.384829,"is_reserved":false,"is_disabled":false,"rental_uris":{"android":"levelo://app?vid=5722ba7f-fdae-4093-b99f-f5526b3a8986","ios":"levelo://app?vid=5722ba7f-fdae-4093-b99f-f5526b3a8986"},"vehicle_type_id":"4","last_reported":1719058379,"current_range_meters":20000,"station_id":"ce4bgt92rcd13ifvqcf0","pricing_plan_id":"cebpf4jnsgd1na2vs0mg"},{"bike_id":"b1011ea2-e8b9-45ff-8d12-fd144c3a88bb","system_id":"levelo_inurba_marseille","lat":43.29993,"lon":5.37171,"is_reserved":false,"is_disabled":false,"rental_uris":{"android":"levelo://app?vid=b1011ea2-e8b9-45ff-8d12-fd144c3a88bb","ios":"levelo://app?vid=b1011ea2-e8b9-45ff-8d12-fd144c3a88bb"},"vehicle_type_id":"4","last_reported":1719058379,"current_range_meters":0,"station_id":"ce4bgr92rcd13ifvqc7g","pricing_plan_id":"cebpf4jnsgd1na2vs0mg"},{"bike_id":"be5a86d4-21b1-4e7b-9ce3-c08f5fc19216","system_id":"levelo_inurba_marseille","lat":43.299893,"lon":5.37166,"is_reserved":false,"is_disabled":false,"rental_uris":{"android":"levelo://app?vid=be5a86d4-21b1-4e7b-9ce3-c08f5fc19216","ios":"levelo://app?vid=be5a86d4-21b1-4e7b-9ce3-c08f5fc19216"},"vehicle_type_id":"4","last_reported":1719058379,"current_range_meters":14000,"station_id":"ce4bgr92rcd13ifvqc7g","pricing_plan_id":"cebpf4jnsgd1na2vs0mg"},{"bike_id":"cb31262a-059f-4f8e-9775-21d905fc957c","system_id":"levelo_inurba_marseille","lat":43.299724,"lon":5.371829,"is_reserved":false,"is_disabled":false,"rental_uris":{"android":"levelo://app?vid=cb31262a-059f-4f8e-9775-21d905fc957c","ios":"levelo://app?vid=cb31262a-059f-4f8e-9775-21d905fc957c"},"vehicle_type_id":"4","last_reported":1719058379,"current_range_meters":5200,"station_id":"ce4bgr92rcd13ifvqc7g","pricing_plan_id":"cebpf4jnsgd1na2vs0mg"},{"bike_id":"6bd1a044-52ca-4bb4-a5e4-a0a6306462e1","system_id":"levelo_inurba_marseille","lat":43.30034,"lon":5.37408,"is_reserved":false,"is_disabled":false,"rental_uris":{"android":"levelo://app?vid=6bd1a044-52ca-4bb4-a5e4-a0a6306462e1","ios":"levelo://app?vid=6bd1a044-52ca-4bb4-a5e4-a0a6306462e1"},"vehicle_type_id":"4","last_reported":1719058379,"current_range_meters":28400,"station_id":"ce4bgr92rcd13ifvqc7g","pricing_plan_id":"cebpf4jnsgd1na2vs0mg"},{"bike_id":"f4051837-4f84-4545-8b0e-a6591f57a30d","system_id":"levelo_inurba_marseille","lat":43.324718,"lon":5.376805,"is_reserved":false,"is_disabled":false,"rental_uris":{"android":"levelo://app?vid=f4051837-4f84-4545-8b0e-a6591f57a30d","ios":"levelo://app?vid=f4051837-4f84-4545-8b0e-a6591f57a30d"},"vehicle_type_id":"4","last_reported":1719058379,"current_range_meters":23600,"station_id":"ce4bgj12rcd13ifvqbc0","pricing_plan_id":"cebpf4jnsgd1na2vs0mg"},{"bike_id":"45254c3e-0fb7-47d2-aad8-4141fefe30b9","system_id":"levelo_inurba_marseille","lat":43.298433,"lon":5.362774,"is_reserved":false,"is_disabled":false,"rental_uris":{"android":"levelo://app?vid=45254c3e-0fb7-47d2-aad8-4141fefe30b9","ios":"levelo://app?vid=45254c3e-0fb7-47d2-aad8-4141fefe30b9"},"vehicle_type_id":"4","last_reported":1719058379,"current_range_meters":23200,"station_id":"ce4bgpp2rcd13ifvqc3g","pricing_plan_id":"cebpf4jnsgd1na2vs0mg"},{"bike_id":"3e00553a-53fc-4e5a-95e6-f1907aef20d3","system_id":"levelo_inurba_marseille","lat":43.298433,"lon":5.362774,"is_reserved":false,"is_disabled":false,"rental_uris":{"android":"levelo://app?vid=3e00553a-53fc-4e5a-95e6-f1907aef20d3","ios":"levelo://app?vid=3e00553a-53fc-4e5a-95e6-f1907aef20d3"},"vehicle_type_id":"4","last_reported":1719058379,"current_range_meters":1200,"station_id":"ce4bgpp2rcd13ifvqc3g","pricing_plan_id":"cebpf4jnsgd1na2vs0mg"},{"bike_id":"30db6727-0b3d-4d3b-8af5-275f8f96989a","system_id":"levelo_inurba_marseille","lat":43.311722,"lon":5.387247,"is_reserved":false,"is_disabled":false,"rental_uris":{"android":"levelo://app?vid=30db6727-0b3d-4d3b-8af5-275f8f96989a","ios":"levelo://app?vid=30db6727-0b3d-4d3b-8af5-275f8f96989a"},"vehicle_type_id":"4","last_reported":1719058379,"current_range_meters":26000,"station_id":"ce4bgv12rcd13ifvqcp0","pricing_plan_id":"cebpf4jnsgd1na2vs0mg"},{"bike_id":"16ea175c-40bc-4951-8632-9ac5c156fb37","system_id":"levelo_inurba_marseille","lat":43.297774,"lon":5.370875,"is_reserved":false,"is_disabled":false,"rental_uris":{"android":"levelo://app?vid=16ea175c-40bc-4951-8632-9ac5c156fb37","ios":"levelo://app?vid=16ea175c-40bc-4951-8632-9ac5c156fb37"},"vehicle_type_id":"4","last_reported":1719058379,"current_range_meters":27200,"station_id":"ce4bgop2rcd13ifvqc1g","pricing_plan_id":"cebpf4jnsgd1na2vs0mg"},{"bike_id":"f1a07f95-6b30-48e5-b1b5-6bbb7139b7e4","system_id":"levelo_inurba_marseille","lat":43.297774,"lon":5.370875,"is_reserved":false,"is_disabled":false,"rental_uris":{"android":"levelo://app?vid=f1a07f95-6b30-48e5-b1b5-6bbb7139b7e4","ios":"levelo://app?vid=f1a07f95-6b30-48e5-b1b5-6bbb7139b7e4"},"vehicle_type_id":"4","last_reported":1719058379,"current_range_meters":8400,"station_id":"ce4bgop2rcd13ifvqc1g","pricing_plan_id":"cebpf4jnsgd1na2vs0mg"},{"bike_id":"168b50c0-2abf-4082-a506-e387b3e830dd","system_id":"levelo_inurba_marseille","lat":43.322872,"lon":5.382756,"is_reserved":false,"is_disabled":false,"rental_uris":{"android":"levelo://app?vid=168b50c0-2abf-4082-a506-e387b3e830dd","ios":"levelo://app?vid=168b50c0-2abf-4082-a506-e387b3e830dd"},"vehicle_type_id":"4","last_reported":1719058379,"current_range_meters":22000,"station_id":"ce4bhr12rcd13ifvqhqg","pricing_plan_id":"cebpf4jnsgd1na2vs0mg"},{"bike_id":"2cac1d62-373b-4ced-a3d4-56b588f78802","system_id":"levelo_inurba_marseille","lat":43.297163,"lon":5.365866,"is_reserved":false,"is_disabled":false,"rental_uris":{"android":"levelo://app?vid=2cac1d62-373b-4ced-a3d4-56b588f78802","ios":"levelo://app?vid=2cac1d62-373b-4ced-a3d4-56b588f78802"},"vehicle_type_id":"4","last_reported":1719058379,"current_range_meters":14400,"station_id":"ce4bgn12rcd13ifvqbt0","pricing_plan_id":"cebpf4jnsgd1na2vs0mg"},{"bike_id":"9d367cdf-2565-42ea-aa84-8fdce61ecc80","system_id":"levelo_inurba_marseille","lat":43.297163,"lon":5.365866,"is_reserved":false,"is_disabled":false,"rental_uris":{"android":"levelo://app?vid=9d367cdf-2565-42ea-aa84-8fdce61ecc80","ios":"levelo://app?vid=9d367cdf-2565-42ea-aa84-8fdce61ecc80"},"vehicle_type_id":"4","last_reported":1719058379,"current_range_meters":12000,"station_id":"ce4bgn12rcd13ifvqbt0","pricing_plan_id":"cebpf4jnsgd1na2vs0mg"},{"bike_id":"eca5510e-ea39-48f3-925c-e2686600069a","system_id":"levelo_inurba_marseille","lat":43.297163,"lon":5.365866,"is_reserved":false,"is_disabled":false,"rental_uris":{"android":"levelo://app?vid=eca5510e-ea39-48f3-925c-e2686600069a","ios":"levelo://app?vid=eca5510e-ea39-48f3-925c-e2686600069a"},"vehicle_type_id":"4","last_reported":1719058379,"current_range_meters":7600,"station_id":"ce4bgn12rcd13ifvqbt0","pricing_plan_id":"cebpf4jnsgd1na2vs0mg"},{"bike_id":"78bcfac0-9b6b-44c6-b975-6ef050e5e5e9","system_id":"levelo_inurba_marseille","lat":43.31078,"lon":5.38901,"is_reserved":false,"is_disabled":false,"rental_uris":{"android":"levelo://app?vid=78bcfac0-9b6b-44c6-b975-6ef050e5e5e9","ios":"levelo://app?vid=78bcfac0-9b6b-44c6-b975-6ef050e5e5e9"},"vehicle_type_id":"4","last_reported":1719058379,"current_range_meters":0,"station_id":"ce4bgv12rcd13ifvqcp0","pricing_plan_id":"cebpf4jnsgd1na2vs0mg"},{"bike_id":"1f6bae21-38bb-4ff3-a01a-84bbd3d28111","system_id":"levelo_inurba_marseille","lat":43.32282,"lon":5.38519,"is_reserved":false,"is_disabled":false,"rental_uris":{"android":"levelo://app?vid=1f6bae21-38bb-4ff3-a01a-84bbd3d28111","ios":"levelo://app?vid=1f6bae21-38bb-4ff3-a01a-84bbd3d28111"},"vehicle_type_id":"4","last_reported":1719058379,"current_range_meters":4400,"station_id":"","pricing_plan_id":"cebpf4jnsgd1na2vs0mg"},{"bike_id":"59e78003-8d1c-4def-afc5-82abeb125949","system_id":"levelo_inurba_marseille","lat":43.29573,"lon":5.367355,"is_reserved":false,"is_disabled":false,"rental_uris":{"android":"levelo://app?vid=59e78003-8d1c-4def-afc5-82abeb125949","ios":"levelo://app?vid=59e78003-8d1c-4def-afc5-82abeb125949"},"vehicle_type_id":"4","last_reported":1719058379,"current_range_meters":27200,"station_id":"ce4bgph2rcd13ifvqc2g","pricing_plan_id":"cebpf4jnsgd1na2vs0mg"},{"bike_id":"759c00ef-2d87-482a-8b64-a2f825e012d0","system_id":"levelo_inurba_marseille","lat":43.29573,"lon":5.367355,"is_reserved":false,"is_disabled":false,"rental_uris":{"android":"levelo://app?vid=759c00ef-2d87-482a-8b64-a2f825e012d0","ios":"levelo://app?vid=759c00ef-2d87-482a-8b64-a2f825e012d0"},"vehicle_type_id":"4","last_reported":1719058379,"current_range_meters":4400,"station_id":"ce4bgph2rcd13ifvqc2g","pricing_plan_id":"cebpf4jnsgd1na2vs0mg"},{"bike_id":"ecdf6378-5304-4837-aff5-5cb30feecd47","system_id":"levelo_inurba_marseille","lat":43.29573,"lon":5.367355,"is_reserved":false,"is_disabled":false,"rental_uris":{"android":"levelo://app?vid=ecdf6378-5304-4837-aff5-5cb30feecd47","ios":"levelo://app?vid=ecdf6378-5304-4837-aff5-5cb30feecd47"},"vehicle_type_id":"4","last_reported":1719058379,"current_range_meters":16400,"station_id":"ce4bgph2rcd13ifvqc2g","pricing_plan_id":"cebpf4jnsgd1na2vs0mg"},{"bike_id":"9096cee2-d4e4-4a33-8a71-37102a7f6f97","system_id":"levelo_inurba_marseille","lat":43.296131,"lon":5.370773,"is_reserved":false,"is_disabled":false,"rental_uris":{"android":"levelo://app?vid=9096cee2-d4e4-4a33-8a71-37102a7f6f97","ios":"levelo://app?vid=9096cee2-d4e4-4a33-8a71-37102a7f6f97"},"vehicle_type_id":"4","last_reported":1719058379,"current_range_meters":10800,"station_id":"ce4bgnh2rcd13ifvqc0g","pricing_plan_id":"cebpf4jnsgd1na2vs0mg"},{"bike_id":"12a42f32-2f70-4899-a407-3f01f0d10354","system_id":"levelo_inurba_marseille","lat":43.29573,"lon":5.367355,"is_reserved":false,"is_disabled":false,"rental_uris":{"android":"levelo://app?vid=12a42f32-2f70-4899-a407-3f01f0d10354","ios":"levelo://app?vid=12a42f32-2f70-4899-a407-3f01f0d10354"},"vehicle_type_id":"4","last_reported":1719058379,"current_range_meters":26400,"station_id":"ce4bgph2rcd13ifvqc2g","pricing_plan_id":"cebpf4jnsgd1na2vs0mg"},{"bike_id":"1df0bbf7-dd8a-4dd7-a751-f18b3b975978","system_id":"levelo_inurba_marseille","lat":43.29573,"lon":5.367355,"is_reserved":false,"is_disabled":false,"rental_uris":{"android":"levelo://app?vid=1df0bbf7-dd8a-4dd7-a751-f18b3b975978","ios":"levelo://app?vid=1df0bbf7-dd8a-4dd7-a751-f18b3b975978"},"vehicle_type_id":"4","last_reported":1719058379,"current_range_meters":28800,"station_id":"ce4bgph2rcd13ifvqc2g","pricing_plan_id":"cebpf4jnsgd1na2vs0mg"},{"bike_id":"c428c369-53e1-41ed-b1b8-e38498685a0a","system_id":"levelo_inurba_marseille","lat":43.29573,"lon":5.367355,"is_reserved":false,"is_disabled":false,"rental_uris":{"android":"levelo://app?vid=c428c369-53e1-41ed-b1b8-e38498685a0a","ios":"levelo://app?vid=c428c369-53e1-41ed-b1b8-e38498685a0a"},"vehicle_type_id":"4","last_reported":1719058379,"current_range_meters":28400,"station_id":"ce4bgph2rcd13ifvqc2g","pricing_plan_id":"cebpf4jnsgd1na2vs0mg"},{"bike_id":"1641c2ce-7c86-4e59-843f-a66eb5ccf426","system_id":"levelo_inurba_marseille","lat":43.29573,"lon":5.367355,"is_reserved":false,"is_disabled":false,"rental_uris":{"android":"levelo://app?vid=1641c2ce-7c86-4e59-843f-a66eb5ccf426","ios":"levelo://app?vid=1641c2ce-7c86-4e59-843f-a66eb5ccf426"},"vehicle_type_id":"4","last_reported":1719058379,"current_range_meters":16000,"station_id":"ce4bgph2rcd13ifvqc2g","pricing_plan_id":"cebpf4jnsgd1na2vs0mg"},{"bike_id":"7b2e76c8-ed65-451b-b1f3-507afd826aa7","system_id":"levelo_inurba_marseille","lat":43.299028,"lon":5.381509,"is_reserved":false,"is_disabled":false,"rental_uris":{"android":"levelo://app?vid=7b2e76c8-ed65-451b-b1f3-507afd826aa7","ios":"levelo://app?vid=7b2e76c8-ed65-451b-b1f3-507afd826aa7"},"vehicle_type_id":"4","last_reported":1719058379,"current_range_meters":26000,"station_id":"ce4bgj12rcd13ifvqbc0","pricing_plan_id":"cebpf4jnsgd1na2vs0mg"},{"bike_id":"a8401a86-78d4-4c71-a251-ae95abb495f3","system_id":"levelo_inurba_marseille","lat":43.299028,"lon":5.381509,"is_reserved":false,"is_disabled":false,"rental_uris":{"android":"levelo://app?vid=a8401a86-78d4-4c71-a251-ae95abb495f3","ios":"levelo://app?vid=a8401a86-78d4-4c71-a251-ae95abb495f3"},"vehicle_type_id":"4","last_reported":1719058379,"current_range_meters":31600,"station_id":"ce4bgj12rcd13ifvqbc0","pricing_plan_id":"cebpf4jnsgd1na2vs0mg"},{"bike_id":"81fe2065-63ab-4906-a19d-cac2afcb1428","system_id":"levelo_inurba_marseille","lat":43.32803,"lon":5.37751,"is_reserved":false,"is_disabled":false,"rental_uris":{"android":"levelo://app?vid=81fe2065-63ab-4906-a19d-cac2afcb1428","ios":"levelo://app?vid=81fe2065-63ab-4906-a19d-cac2afcb1428"},"vehicle_type_id":"4","last_reported":1719058379,"current_range_meters":4400,"station_id":"","pricing_plan_id":"cebpf4jnsgd1na2vs0mg"},{"bike_id":"494a0120-b8e7-4a6c-a3ac-1522c83845c0","system_id":"levelo_inurba_marseille","lat":43.299028,"lon":5.381509,"is_reserved":false,"is_disabled":false,"rental_uris":{"android":"levelo://app?vid=494a0120-b8e7-4a6c-a3ac-1522c83845c0","ios":"levelo://app?vid=494a0120-b8e7-4a6c-a3ac-1522c83845c0"},"vehicle_type_id":"4","last_reported":1719058379,"current_range_meters":19200,"station_id":"ce4bgj12rcd13ifvqbc0","pricing_plan_id":"cebpf4jnsgd1na2vs0mg"},{"bike_id":"32a836fe-e4e5-459c-8d50-47631b3eab04","system_id":"levelo_inurba_marseille","lat":43.299028,"lon":5.381509,"is_reserved":false,"is_disabled":false,"rental_uris":{"android":"levelo://app?vid=32a836fe-e4e5-459c-8d50-47631b3eab04","ios":"levelo://app?vid=32a836fe-e4e5-459c-8d50-47631b3eab04"},"vehicle_type_id":"4","last_reported":1719058379,"current_range_meters":31600,"station_id":"ce4bgj12rcd13ifvqbc0","pricing_plan_id":"cebpf4jnsgd1na2vs0mg"},{"bike_id":"89a06d3d-8713-48ba-8f46-2b409486c8cb","system_id":"levelo_inurba_marseille","lat":43.299028,"lon":5.381509,"is_reserved":false,"is_disabled":false,"rental_uris":{"android":"levelo://app?vid=89a06d3d-8713-48ba-8f46-2b409486c8cb","ios":"levelo://app?vid=89a06d3d-8713-48ba-8f46-2b409486c8cb"},"vehicle_type_id":"4","last_reported":1719058379,"current_range_meters":31600,"station_id":"ce4bgj12rcd13ifvqbc0","pricing_plan_id":"cebpf4jnsgd1na2vs0mg"},{"bike_id":"9560a4f3-10b2-4c12-8e28-ac7a99352e55","system_id":"levelo_inurba_marseille","lat":43.29915,"lon":5.3813,"is_reserved":false,"is_disabled":false,"rental_uris":{"android":"levelo://app?vid=9560a4f3-10b2-4c12-8e28-ac7a99352e55","ios":"levelo://app?vid=9560a4f3-10b2-4c12-8e28-ac7a99352e55"},"vehicle_type_id":"4","last_reported":1719058379,"current_range_meters":30400,"station_id":"ce4bgj12rcd13ifvqbc0","pricing_plan_id":"cebpf4jnsgd1na2vs0mg"},{"bike_id":"5d95a16a-fb3f-45f5-acb9-8446793ecf9a","system_id":"levelo_inurba_marseille","lat":43.309589,"lon":5.390258,"is_reserved":false,"is_disabled":false,"rental_uris":{"android":"levelo://app?vid=5d95a16a-fb3f-45f5-acb9-8446793ecf9a","ios":"levelo://app?vid=5d95a16a-fb3f-45f5-acb9-8446793ecf9a"},"vehicle_type_id":"4","last_reported":1719058379,"current_range_meters":11200,"station_id":"ce4bgup2rcd13ifvqco0","pricing_plan_id":"cebpf4jnsgd1na2vs0mg"},{"bike_id":"74b288b9-6ca2-4d3d-a83a-09c572a17240","system_id":"levelo_inurba_marseille","lat":43.299028,"lon":5.381509,"is_reserved":false,"is_disabled":false,"rental_uris":{"android":"levelo://app?vid=74b288b9-6ca2-4d3d-a83a-09c572a17240","ios":"levelo://app?vid=74b288b9-6ca2-4d3d-a83a-09c572a17240"},"vehicle_type_id":"4","last_reported":1719058379,"current_range_meters":24800,"station_id":"ce4bgj12rcd13ifvqbc0","pricing_plan_id":"cebpf4jnsgd1na2vs0mg"},{"bike_id":"dbccb359-c7bb-4779-b90f-d822bda65ece","system_id":"levelo_inurba_marseille","lat":43.29586,"lon":5.37509,"is_reserved":false,"is_disabled":false,"rental_uris":{"android":"levelo://app?vid=dbccb359-c7bb-4779-b90f-d822bda65ece","ios":"levelo://app?vid=dbccb359-c7bb-4779-b90f-d822bda65ece"},"vehicle_type_id":"4","last_reported":1719058379,"current_range_meters":28800,"station_id":"ce4bgh92rcd13ifvqb50","pricing_plan_id":"cebpf4jnsgd1na2vs0mg"},{"bike_id":"259cec5d-b280-44c8-b860-f7d969e3c155","system_id":"levelo_inurba_marseille","lat":43.304274,"lon":5.388873,"is_reserved":false,"is_disabled":false,"rental_uris":{"android":"levelo://app?vid=259cec5d-b280-44c8-b860-f7d969e3c155","ios":"levelo://app?vid=259cec5d-b280-44c8-b860-f7d969e3c155"},"vehicle_type_id":"4","last_reported":1719058379,"current_range_meters":12000,"station_id":"ce4bgk12rcd13ifvqbi0","pricing_plan_id":"cebpf4jnsgd1na2vs0mg"},{"bike_id":"17ede5cd-0662-42f4-9b95-a91f48a1f237","system_id":"levelo_inurba_marseille","lat":43.304278,"lon":5.388868,"is_reserved":false,"is_disabled":false,"rental_uris":{"android":"levelo://app?vid=17ede5cd-0662-42f4-9b95-a91f48a1f237","ios":"levelo://app?vid=17ede5cd-0662-42f4-9b95-a91f48a1f237"},"vehicle_type_id":"4","last_reported":1719058379,"current_range_meters":5600,"station_id":"ce4bgk12rcd13ifvqbi0","pricing_plan_id":"cebpf4jnsgd1na2vs0mg"},{"bike_id":"bbf2a1bf-e521-498f-a64f-f0f2c8b59cb0","system_id":"levelo_inurba_marseille","lat":43.304278,"lon":5.388868,"is_reserved":false,"is_disabled":false,"rental_uris":{"android":"levelo://app?vid=bbf2a1bf-e521-498f-a64f-f0f2c8b59cb0","ios":"levelo://app?vid=bbf2a1bf-e521-498f-a64f-f0f2c8b59cb0"},"vehicle_type_id":"4","last_reported":1719058379,"current_range_meters":19200,"station_id":"ce4bgk12rcd13ifvqbi0","pricing_plan_id":"cebpf4jnsgd1na2vs0mg"},{"bike_id":"e7877e50-65a2-4dcf-b5ce-3e9a5a783034","system_id":"levelo_inurba_marseille","lat":43.299707,"lon":5.384859,"is_reserved":false,"is_disabled":false,"rental_uris":{"android":"levelo://app?vid=e7877e50-65a2-4dcf-b5ce-3e9a5a783034","ios":"levelo://app?vid=e7877e50-65a2-4dcf-b5ce-3e9a5a783034"},"vehicle_type_id":"4","last_reported":1719058379,"current_range_meters":30000,"station_id":"ce4bgj92rcd13ifvqbd0","pricing_plan_id":"cebpf4jnsgd1na2vs0mg"},{"bike_id":"a12c9218-1597-427e-96ee-942022d2e94e","system_id":"levelo_inurba_marseille","lat":43.299707,"lon":5.384859,"is_reserved":false,"is_disabled":false,"rental_uris":{"android":"levelo://app?vid=a12c9218-1597-427e-96ee-942022d2e94e","ios":"levelo://app?vid=a12c9218-1597-427e-96ee-942022d2e94e"},"vehicle_type_id":"4","last_reported":1719058379,"current_range_meters":20800,"station_id":"ce4bgj92rcd13ifvqbd0","pricing_plan_id":"cebpf4jnsgd1na2vs0mg"},{"bike_id":"0e6a9361-917f-4444-b254-dfd93edc971f","system_id":"levelo_inurba_marseille","lat":43.295279,"lon":5.375048,"is_reserved":false,"is_disabled":false,"rental_uris":{"android":"levelo://app?vid=0e6a9361-917f-4444-b254-dfd93edc971f","ios":"levelo://app?vid=0e6a9361-917f-4444-b254-dfd93edc971f"},"vehicle_type_id":"4","last_reported":1719058379,"current_range_meters":16000,"station_id":"ce4bgkp2rcd13ifvqbmg","pricing_plan_id":"cebpf4jnsgd1na2vs0mg"},{"bike_id":"f89d73c9-aeb2-4a98-afff-2f1a0e13f3c6","system_id":"levelo_inurba_marseille","lat":43.32157,"lon":5.38926,"is_reserved":false,"is_disabled":false,"rental_uris":{"android":"levelo://app?vid=f89d73c9-aeb2-4a98-afff-2f1a0e13f3c6","ios":"levelo://app?vid=f89d73c9-aeb2-4a98-afff-2f1a0e13f3c6"},"vehicle_type_id":"4","last_reported":1719058379,"current_range_meters":9200,"station_id":"","pricing_plan_id":"cebpf4jnsgd1na2vs0mg"},{"bike_id":"894e3352-403d-4d4c-99c9-329fbc383fc8","system_id":"levelo_inurba_marseille","lat":43.32367,"lon":5.388836,"is_reserved":false,"is_disabled":false,"rental_uris":{"android":"levelo://app?vid=894e3352-403d-4d4c-99c9-329fbc383fc8","ios":"levelo://app?vid=894e3352-403d-4d4c-99c9-329fbc383fc8"},"vehicle_type_id":"4","last_reported":1719058379,"current_range_meters":0,"station_id":"ce4bhqp2rcd13ifvqhog","pricing_plan_id":"cebpf4jnsgd1na2vs0mg"},{"bike_id":"4803b7c2-4c0d-42e0-b3fe-6f94e099ecf0","system_id":"levelo_inurba_marseille","lat":43.29602,"lon":5.381084,"is_reserved":false,"is_disabled":false,"rental_uris":{"android":"levelo://app?vid=4803b7c2-4c0d-42e0-b3fe-6f94e099ecf0","ios":"levelo://app?vid=4803b7c2-4c0d-42e0-b3fe-6f94e099ecf0"},"vehicle_type_id":"4","last_reported":1719058379,"current_range_meters":27600,"station_id":"ce4bgl12rcd13ifvqbo0","pricing_plan_id":"cebpf4jnsgd1na2vs0mg"},{"bike_id":"809e399f-95a8-4c6a-9e08-2cf0ee3fe8dc","system_id":"levelo_inurba_marseille","lat":43.292749,"lon":5.368402,"is_reserved":false,"is_disabled":false,"rental_uris":{"android":"levelo://app?vid=809e399f-95a8-4c6a-9e08-2cf0ee3fe8dc","ios":"levelo://app?vid=809e399f-95a8-4c6a-9e08-2cf0ee3fe8dc"},"vehicle_type_id":"4","last_reported":1719058379,"current_range_meters":19600,"station_id":"ce4bhbp2rcd13ifvqesg","pricing_plan_id":"cebpf4jnsgd1na2vs0mg"},{"bike_id":"1f0ccf26-adba-4bc5-b71c-f53ff9639991","system_id":"levelo_inurba_marseille","lat":43.29314,"lon":5.37179,"is_reserved":false,"is_disabled":false,"rental_uris":{"android":"levelo://app?vid=1f0ccf26-adba-4bc5-b71c-f53ff9639991","ios":"levelo://app?vid=1f0ccf26-adba-4bc5-b71c-f53ff9639991"},"vehicle_type_id":"4","last_reported":1719058379,"current_range_meters":0,"station_id":"ce4bgh92rcd13ifvqb40","pricing_plan_id":"cebpf4jnsgd1na2vs0mg"},{"bike_id":"27506085-b12b-4e65-87c4-4a5f034f80a8","system_id":"levelo_inurba_marseille","lat":43.292749,"lon":5.368402,"is_reserved":false,"is_disabled":false,"rental_uris":{"android":"levelo://app?vid=27506085-b12b-4e65-87c4-4a5f034f80a8","ios":"levelo://app?vid=27506085-b12b-4e65-87c4-4a5f034f80a8"},"vehicle_type_id":"4","last_reported":1719058379,"current_range_meters":16400,"station_id":"ce4bhbp2rcd13ifvqesg","pricing_plan_id":"cebpf4jnsgd1na2vs0mg"},{"bike_id":"fe4fc032-0308-4cd4-a1c2-df4401edda54","system_id":"levelo_inurba_marseille","lat":43.293009,"lon":5.374584,"is_reserved":false,"is_disabled":false,"rental_uris":{"android":"levelo://app?vid=fe4fc032-0308-4cd4-a1c2-df4401edda54","ios":"levelo://app?vid=fe4fc032-0308-4cd4-a1c2-df4401edda54"},"vehicle_type_id":"4","last_reported":1719058379,"current_range_meters":12400,"station_id":"ce4bgi12rcd13ifvqb70","pricing_plan_id":"cebpf4jnsgd1na2vs0mg"},{"bike_id":"34206ebe-7724-4ffd-88ac-37ce6c84d960","system_id":"levelo_inurba_marseille","lat":43.305994,"lon":5.393687,"is_reserved":false,"is_disabled":false,"rental_uris":{"android":"levelo://app?vid=34206ebe-7724-4ffd-88ac-37ce6c84d960","ios":"levelo://app?vid=34206ebe-7724-4ffd-88ac-37ce6c84d960"},"vehicle_type_id":"4","last_reported":1719058379,"current_range_meters":16000,"station_id":"ce4bh0p2rcd13ifvqd80","pricing_plan_id":"cebpf4jnsgd1na2vs0mg"},{"bike_id":"e5610b5a-cb55-4eae-8830-3c37d8f11b2e","system_id":"levelo_inurba_marseille","lat":43.293,"lon":5.37452,"is_reserved":false,"is_disabled":false,"rental_uris":{"android":"levelo://app?vid=e5610b5a-cb55-4eae-8830-3c37d8f11b2e","ios":"levelo://app?vid=e5610b5a-cb55-4eae-8830-3c37d8f11b2e"},"vehicle_type_id":"4","last_reported":1719058379,"current_range_meters":0,"station_id":"ce4bgi12rcd13ifvqb70","pricing_plan_id":"cebpf4jnsgd1na2vs0mg"},{"bike_id":"2f60f892-7ac0-4a0f-8d04-728de38e2851","system_id":"levelo_inurba_marseille","lat":43.293009,"lon":5.374584,"is_reserved":false,"is_disabled":false,"rental_uris":{"android":"levelo://app?vid=2f60f892-7ac0-4a0f-8d04-728de38e2851","ios":"levelo://app?vid=2f60f892-7ac0-4a0f-8d04-728de38e2851"},"vehicle_type_id":"4","last_reported":1719058379,"current_range_meters":27600,"station_id":"ce4bgi12rcd13ifvqb70","pricing_plan_id":"cebpf4jnsgd1na2vs0mg"},{"bike_id":"53a62708-ef93-4b2f-875f-804b3eea7e7a","system_id":"levelo_inurba_marseille","lat":43.305994,"lon":5.393687,"is_reserved":false,"is_disabled":false,"rental_uris":{"android":"levelo://app?vid=53a62708-ef93-4b2f-875f-804b3eea7e7a","ios":"levelo://app?vid=53a62708-ef93-4b2f-875f-804b3eea7e7a"},"vehicle_type_id":"4","last_reported":1719058379,"current_range_meters":18800,"station_id":"ce4bh0p2rcd13ifvqd80","pricing_plan_id":"cebpf4jnsgd1na2vs0mg"},{"bike_id":"a4e42fe6-6e39-43cb-aa8a-f3a2bf62a063","system_id":"levelo_inurba_marseille","lat":43.305994,"lon":5.393687,"is_reserved":false,"is_disabled":false,"rental_uris":{"android":"levelo://app?vid=a4e42fe6-6e39-43cb-aa8a-f3a2bf62a063","ios":"levelo://app?vid=a4e42fe6-6e39-43cb-aa8a-f3a2bf62a063"},"vehicle_type_id":"4","last_reported":1719058379,"current_range_meters":22800,"station_id":"ce4bh0p2rcd13ifvqd80","pricing_plan_id":"cebpf4jnsgd1na2vs0mg"},{"bike_id":"7f0bfc3a-0d14-4c86-906d-8dbd83d81497","system_id":"levelo_inurba_marseille","lat":43.302992,"lon":5.392136,"is_reserved":false,"is_disabled":false,"rental_uris":{"android":"levelo://app?vid=7f0bfc3a-0d14-4c86-906d-8dbd83d81497","ios":"levelo://app?vid=7f0bfc3a-0d14-4c86-906d-8dbd83d81497"},"vehicle_type_id":"4","last_reported":1719058379,"current_range_meters":2000,"station_id":"ce4bgkh2rcd13ifvqbk0","pricing_plan_id":"cebpf4jnsgd1na2vs0mg"},{"bike_id":"72354c2a-eca8-4a9e-8eff-a0ac515b1b6f","system_id":"levelo_inurba_marseille","lat":43.30085,"lon":5.390856,"is_reserved":false,"is_disabled":false,"rental_uris":{"android":"levelo://app?vid=72354c2a-eca8-4a9e-8eff-a0ac515b1b6f","ios":"levelo://app?vid=72354c2a-eca8-4a9e-8eff-a0ac515b1b6f"},"vehicle_type_id":"4","last_reported":1719058379,"current_range_meters":9600,"station_id":"ce4bh192rcd13ifvqdb0","pricing_plan_id":"cebpf4jnsgd1na2vs0mg"},{"bike_id":"c6e6c4b5-918d-4db0-b4fc-8d0cebe33e22","system_id":"levelo_inurba_marseille","lat":43.292311,"lon":5.360731,"is_reserved":false,"is_disabled":false,"rental_uris":{"android":"levelo://app?vid=c6e6c4b5-918d-4db0-b4fc-8d0cebe33e22","ios":"levelo://app?vid=c6e6c4b5-918d-4db0-b4fc-8d0cebe33e22"},"vehicle_type_id":"4","last_reported":1719058379,"current_range_meters":19200,"station_id":"ce4bhbh2rcd13ifvqeqg","pricing_plan_id":"cebpf4jnsgd1na2vs0mg"},{"bike_id":"822a3a5b-7ee3-4e89-b7d3-1383e538261d","system_id":"levelo_inurba_marseille","lat":43.291671,"lon":5.371575,"is_reserved":false,"is_disabled":false,"rental_uris":{"android":"levelo://app?vid=822a3a5b-7ee3-4e89-b7d3-1383e538261d","ios":"levelo://app?vid=822a3a5b-7ee3-4e89-b7d3-1383e538261d"},"vehicle_type_id":"4","last_reported":1719058379,"current_range_meters":4000,"station_id":"ce4bha92rcd13ifvqeh0","pricing_plan_id":"cebpf4jnsgd1na2vs0mg"},{"bike_id":"8c561a78-6c7a-4eae-a2f6-491063b1cf28","system_id":"levelo_inurba_marseille","lat":43.291675,"lon":5.371583,"is_reserved":false,"is_disabled":false,"rental_uris":{"android":"levelo://app?vid=8c561a78-6c7a-4eae-a2f6-491063b1cf28","ios":"levelo://app?vid=8c561a78-6c7a-4eae-a2f6-491063b1cf28"},"vehicle_type_id":"4","last_reported":1719058379,"current_range_meters":6400,"station_id":"ce4bha92rcd13ifvqeh0","pricing_plan_id":"cebpf4jnsgd1na2vs0mg"},{"bike_id":"1a7ef4e7-57f0-4578-831d-14e288d2bfd2","system_id":"levelo_inurba_marseille","lat":43.313291,"lon":5.396838,"is_reserved":false,"is_disabled":false,"rental_uris":{"android":"levelo://app?vid=1a7ef4e7-57f0-4578-831d-14e288d2bfd2","ios":"levelo://app?vid=1a7ef4e7-57f0-4578-831d-14e288d2bfd2"},"vehicle_type_id":"4","last_reported":1719058379,"current_range_meters":29600,"station_id":"ce4bgvp2rcd13ifvqcu0","pricing_plan_id":"cebpf4jnsgd1na2vs0mg"},{"bike_id":"e1e051a1-27d8-444a-a8c6-6a8424c80dc3","system_id":"levelo_inurba_marseille","lat":43.309038,"lon":5.396546,"is_reserved":false,"is_disabled":false,"rental_uris":{"android":"levelo://app?vid=e1e051a1-27d8-444a-a8c6-6a8424c80dc3","ios":"levelo://app?vid=e1e051a1-27d8-444a-a8c6-6a8424c80dc3"},"vehicle_type_id":"4","last_reported":1719058379,"current_range_meters":31200,"station_id":"ce4bh012rcd13ifvqcv0","pricing_plan_id":"cebpf4jnsgd1na2vs0mg"},{"bike_id":"d99e7b85-954e-4a01-9a51-b1d94852e50a","system_id":"levelo_inurba_marseille","lat":43.313291,"lon":5.396838,"is_reserved":false,"is_disabled":false,"rental_uris":{"android":"levelo://app?vid=d99e7b85-954e-4a01-9a51-b1d94852e50a","ios":"levelo://app?vid=d99e7b85-954e-4a01-9a51-b1d94852e50a"},"vehicle_type_id":"4","last_reported":1719058379,"current_range_meters":3200,"station_id":"ce4bgvp2rcd13ifvqcu0","pricing_plan_id":"cebpf4jnsgd1na2vs0mg"},{"bike_id":"7bf71f68-f706-4741-aac9-c46445c5b1bc","system_id":"levelo_inurba_marseille","lat":43.29529,"lon":5.385581,"is_reserved":false,"is_disabled":false,"rental_uris":{"android":"levelo://app?vid=7bf71f68-f706-4741-aac9-c46445c5b1bc","ios":"levelo://app?vid=7bf71f68-f706-4741-aac9-c46445c5b1bc"},"vehicle_type_id":"4","last_reported":1719058379,"current_range_meters":11600,"station_id":"ce4bgih2rcd13ifvqba0","pricing_plan_id":"cebpf4jnsgd1na2vs0mg"},{"bike_id":"cae6f451-de6b-44d9-a6c1-dffb80348f9f","system_id":"levelo_inurba_marseille","lat":43.302008,"lon":5.394694,"is_reserved":false,"is_disabled":false,"rental_uris":{"android":"levelo://app?vid=cae6f451-de6b-44d9-a6c1-dffb80348f9f","ios":"levelo://app?vid=cae6f451-de6b-44d9-a6c1-dffb80348f9f"},"vehicle_type_id":"4","last_reported":1719058379,"current_range_meters":23600,"station_id":"ce4bh0p2rcd13ifvqd70","pricing_plan_id":"cebpf4jnsgd1na2vs0mg"},{"bike_id":"09e76588-430f-4c41-9ebc-84c5084cdfec","system_id":"levelo_inurba_marseille","lat":43.29052,"lon":5.37553,"is_reserved":false,"is_disabled":false,"rental_uris":{"android":"levelo://app?vid=09e76588-430f-4c41-9ebc-84c5084cdfec","ios":"levelo://app?vid=09e76588-430f-4c41-9ebc-84c5084cdfec"},"vehicle_type_id":"4","last_reported":1719058379,"current_range_meters":0,"station_id":"ce4bh692rcd13ifvqe90","pricing_plan_id":"cebpf4jnsgd1na2vs0mg"},{"bike_id":"bc053bb4-277e-48dc-96a2-65905014c625","system_id":"levelo_inurba_marseille","lat":43.290319,"lon":5.375732,"is_reserved":false,"is_disabled":false,"rental_uris":{"android":"levelo://app?vid=bc053bb4-277e-48dc-96a2-65905014c625","ios":"levelo://app?vid=bc053bb4-277e-48dc-96a2-65905014c625"},"vehicle_type_id":"4","last_reported":1719058379,"current_range_meters":26400,"station_id":"ce4bh692rcd13ifvqe90","pricing_plan_id":"cebpf4jnsgd1na2vs0mg"},{"bike_id":"d801fc21-bd96-469d-be8f-215f3fa1c6df","system_id":"levelo_inurba_marseille","lat":43.28949,"lon":5.36625,"is_reserved":false,"is_disabled":false,"rental_uris":{"android":"levelo://app?vid=d801fc21-bd96-469d-be8f-215f3fa1c6df","ios":"levelo://app?vid=d801fc21-bd96-469d-be8f-215f3fa1c6df"},"vehicle_type_id":"4","last_reported":1719058379,"current_range_meters":0,"station_id":"ce4bhap2rcd13ifvqek0","pricing_plan_id":"cebpf4jnsgd1na2vs0mg"},{"bike_id":"c3a71654-52ff-4e72-89d2-829aced4501c","system_id":"levelo_inurba_marseille","lat":43.292644,"lon":5.384257,"is_reserved":false,"is_disabled":false,"rental_uris":{"android":"levelo://app?vid=c3a71654-52ff-4e72-89d2-829aced4501c","ios":"levelo://app?vid=c3a71654-52ff-4e72-89d2-829aced4501c"},"vehicle_type_id":"4","last_reported":1719058379,"current_range_meters":9200,"station_id":"ce4bh692rcd13ifvqea0","pricing_plan_id":"cebpf4jnsgd1na2vs0mg"},{"bike_id":"a37d86b1-c8d7-4f71-977e-1a1fb658b82a","system_id":"levelo_inurba_marseille","lat":43.29275,"lon":5.38444,"is_reserved":false,"is_disabled":false,"rental_uris":{"android":"levelo://app?vid=a37d86b1-c8d7-4f71-977e-1a1fb658b82a","ios":"levelo://app?vid=a37d86b1-c8d7-4f71-977e-1a1fb658b82a"},"vehicle_type_id":"4","last_reported":1719058379,"current_range_meters":21200,"station_id":"ce4bh692rcd13ifvqea0","pricing_plan_id":"cebpf4jnsgd1na2vs0mg"},{"bike_id":"3f4dba2a-9019-4574-a042-54fb9131eef9","system_id":"levelo_inurba_marseille","lat":43.28913,"lon":5.36197,"is_reserved":false,"is_disabled":false,"rental_uris":{"android":"levelo://app?vid=3f4dba2a-9019-4574-a042-54fb9131eef9","ios":"levelo://app?vid=3f4dba2a-9019-4574-a042-54fb9131eef9"},"vehicle_type_id":"4","last_reported":1719058379,"current_range_meters":1200,"station_id":"","pricing_plan_id":"cebpf4jnsgd1na2vs0mg"},{"bike_id":"abb1eba3-ee7b-48f3-b2fe-993abbbe87b6","system_id":"levelo_inurba_marseille","lat":43.290103,"lon":5.356114,"is_reserved":false,"is_disabled":false,"rental_uris":{"android":"levelo://app?vid=abb1eba3-ee7b-48f3-b2fe-993abbbe87b6","ios":"levelo://app?vid=abb1eba3-ee7b-48f3-b2fe-993abbbe87b6"},"vehicle_type_id":"4","last_reported":1719058379,"current_range_meters":0,"station_id":"ce4bhb92rcd13ifvqen0","pricing_plan_id":"cebpf4jnsgd1na2vs0mg"},{"bike_id":"9f1ba4fa-6bbb-4335-aa9e-b4e0870a8b7e","system_id":"levelo_inurba_marseille","lat":43.290995,"lon":5.381361,"is_reserved":false,"is_disabled":false,"rental_uris":{"android":"levelo://app?vid=9f1ba4fa-6bbb-4335-aa9e-b4e0870a8b7e","ios":"levelo://app?vid=9f1ba4fa-6bbb-4335-aa9e-b4e0870a8b7e"},"vehicle_type_id":"4","last_reported":1719058379,"current_range_meters":9600,"station_id":"ce4bh512rcd13ifvqe2g","pricing_plan_id":"cebpf4jnsgd1na2vs0mg"},{"bike_id":"b32fa3ea-2414-4a69-898c-b4e5142ad7a5","system_id":"levelo_inurba_marseille","lat":43.290995,"lon":5.381361,"is_reserved":false,"is_disabled":false,"rental_uris":{"android":"levelo://app?vid=b32fa3ea-2414-4a69-898c-b4e5142ad7a5","ios":"levelo://app?vid=b32fa3ea-2414-4a69-898c-b4e5142ad7a5"},"vehicle_type_id":"4","last_reported":1719058379,"current_range_meters":25200,"station_id":"ce4bh512rcd13ifvqe2g","pricing_plan_id":"cebpf4jnsgd1na2vs0mg"},{"bike_id":"7808f775-83e0-4d9a-ada0-c73f34ac07a1","system_id":"levelo_inurba_marseille","lat":43.330442,"lon":5.389148,"is_reserved":false,"is_disabled":false,"rental_uris":{"android":"levelo://app?vid=7808f775-83e0-4d9a-ada0-c73f34ac07a1","ios":"levelo://app?vid=7808f775-83e0-4d9a-ada0-c73f34ac07a1"},"vehicle_type_id":"4","last_reported":1719058379,"current_range_meters":29200,"station_id":"ce4bhr92rcd13ifvqhrg","pricing_plan_id":"cebpf4jnsgd1na2vs0mg"},{"bike_id":"0650075c-3310-4088-9f70-e4d2f0ddb7a5","system_id":"levelo_inurba_marseille","lat":43.330442,"lon":5.389148,"is_reserved":false,"is_disabled":false,"rental_uris":{"android":"levelo://app?vid=0650075c-3310-4088-9f70-e4d2f0ddb7a5","ios":"levelo://app?vid=0650075c-3310-4088-9f70-e4d2f0ddb7a5"},"vehicle_type_id":"4","last_reported":1719058379,"current_range_meters":29200,"station_id":"ce4bhr92rcd13ifvqhrg","pricing_plan_id":"cebpf4jnsgd1na2vs0mg"},{"bike_id":"bdf88b55-41ff-4df3-9acd-95bd9925cb79","system_id":"levelo_inurba_marseille","lat":43.290094,"lon":5.381264,"is_reserved":false,"is_disabled":false,"rental_uris":{"android":"levelo://app?vid=bdf88b55-41ff-4df3-9acd-95bd9925cb79","ios":"levelo://app?vid=bdf88b55-41ff-4df3-9acd-95bd9925cb79"},"vehicle_type_id":"4","last_reported":1719058379,"current_range_meters":16800,"station_id":"ce4bh4p2rcd13ifvqe1g","pricing_plan_id":"cebpf4jnsgd1na2vs0mg"},{"bike_id":"9d5baeb0-bffb-4ed3-bc52-e4940e2e21dd","system_id":"levelo_inurba_marseille","lat":43.330442,"lon":5.389148,"is_reserved":false,"is_disabled":false,"rental_uris":{"android":"levelo://app?vid=9d5baeb0-bffb-4ed3-bc52-e4940e2e21dd","ios":"levelo://app?vid=9d5baeb0-bffb-4ed3-bc52-e4940e2e21dd"},"vehicle_type_id":"4","last_reported":1719058379,"current_range_meters":28800,"station_id":"ce4bhr92rcd13ifvqhrg","pricing_plan_id":"cebpf4jnsgd1na2vs0mg"},{"bike_id":"05092e03-5cef-41c3-9575-df5db7507ebd","system_id":"levelo_inurba_marseille","lat":43.33739,"lon":5.37464,"is_reserved":false,"is_disabled":false,"rental_uris":{"android":"levelo://app?vid=05092e03-5cef-41c3-9575-df5db7507ebd","ios":"levelo://app?vid=05092e03-5cef-41c3-9575-df5db7507ebd"},"vehicle_type_id":"4","last_reported":1719058379,"current_range_meters":19600,"station_id":"","pricing_plan_id":"cebpf4jnsgd1na2vs0mg"},{"bike_id":"2958b739-7174-41c3-aa11-53e9be758e27","system_id":"levelo_inurba_marseille","lat":43.309371,"lon":5.401449,"is_reserved":false,"is_disabled":false,"rental_uris":{"android":"levelo://app?vid=2958b739-7174-41c3-aa11-53e9be758e27","ios":"levelo://app?vid=2958b739-7174-41c3-aa11-53e9be758e27"},"vehicle_type_id":"4","last_reported":1719058379,"current_range_meters":30800,"station_id":"ce4bgvp2rcd13ifvqct0","pricing_plan_id":"cebpf4jnsgd1na2vs0mg"},{"bike_id":"a00c218c-138a-4388-aca4-2952a6961815","system_id":"levelo_inurba_marseille","lat":43.337479,"lon":5.37488,"is_reserved":false,"is_disabled":false,"rental_uris":{"android":"levelo://app?vid=a00c218c-138a-4388-aca4-2952a6961815","ios":"levelo://app?vid=a00c218c-138a-4388-aca4-2952a6961815"},"vehicle_type_id":"4","last_reported":1719058379,"current_range_meters":29200,"station_id":"","pricing_plan_id":"cebpf4jnsgd1na2vs0mg"},{"bike_id":"0e11bbab-a5d9-4098-a6f1-624d89f27c59","system_id":"levelo_inurba_marseille","lat":43.337572,"lon":5.374546,"is_reserved":false,"is_disabled":false,"rental_uris":{"android":"levelo://app?vid=0e11bbab-a5d9-4098-a6f1-624d89f27c59","ios":"levelo://app?vid=0e11bbab-a5d9-4098-a6f1-624d89f27c59"},"vehicle_type_id":"4","last_reported":1719058379,"current_range_meters":24400,"station_id":"","pricing_plan_id":"cebpf4jnsgd1na2vs0mg"},{"bike_id":"db534928-e6a2-47cc-a852-558fe66ed50c","system_id":"levelo_inurba_marseille","lat":43.337583,"lon":5.374633,"is_reserved":false,"is_disabled":false,"rental_uris":{"android":"levelo://app?vid=db534928-e6a2-47cc-a852-558fe66ed50c","ios":"levelo://app?vid=db534928-e6a2-47cc-a852-558fe66ed50c"},"vehicle_type_id":"4","last_reported":1719058379,"current_range_meters":22800,"station_id":"","pricing_plan_id":"cebpf4jnsgd1na2vs0mg"},{"bike_id":"e7be790b-07e4-40f3-b60f-da683b157943","system_id":"levelo_inurba_marseille","lat":43.33033,"lon":5.39238,"is_reserved":false,"is_disabled":false,"rental_uris":{"android":"levelo://app?vid=e7be790b-07e4-40f3-b60f-da683b157943","ios":"levelo://app?vid=e7be790b-07e4-40f3-b60f-da683b157943"},"vehicle_type_id":"4","last_reported":1719058379,"current_range_meters":19200,"station_id":"","pricing_plan_id":"cebpf4jnsgd1na2vs0mg"},{"bike_id":"a77bf3f1-dc55-4e35-8fe0-6292cee970ef","system_id":"levelo_inurba_marseille","lat":43.33035,"lon":5.39239,"is_reserved":false,"is_disabled":false,"rental_uris":{"android":"levelo://app?vid=a77bf3f1-dc55-4e35-8fe0-6292cee970ef","ios":"levelo://app?vid=a77bf3f1-dc55-4e35-8fe0-6292cee970ef"},"vehicle_type_id":"4","last_reported":1719058379,"current_range_meters":21600,"station_id":"","pricing_plan_id":"cebpf4jnsgd1na2vs0mg"},{"bike_id":"457259f4-2778-42f8-8372-c6c895d3a51d","system_id":"levelo_inurba_marseille","lat":43.33036,"lon":5.392397,"is_reserved":false,"is_disabled":false,"rental_uris":{"android":"levelo://app?vid=457259f4-2778-42f8-8372-c6c895d3a51d","ios":"levelo://app?vid=457259f4-2778-42f8-8372-c6c895d3a51d"},"vehicle_type_id":"4","last_reported":1719058379,"current_range_meters":10000,"station_id":"","pricing_plan_id":"cebpf4jnsgd1na2vs0mg"},{"bike_id":"5f11e4d7-ca6e-4afa-9466-632b95b239d5","system_id":"levelo_inurba_marseille","lat":43.33148,"lon":5.39102,"is_reserved":false,"is_disabled":false,"rental_uris":{"android":"levelo://app?vid=5f11e4d7-ca6e-4afa-9466-632b95b239d5","ios":"levelo://app?vid=5f11e4d7-ca6e-4afa-9466-632b95b239d5"},"vehicle_type_id":"4","last_reported":1719058379,"current_range_meters":1600,"station_id":"","pricing_plan_id":"cebpf4jnsgd1na2vs0mg"},{"bike_id":"4605a336-733a-4213-80a6-f9c5f02a3b1a","system_id":"levelo_inurba_marseille","lat":43.28727,"lon":5.36078,"is_reserved":false,"is_disabled":false,"rental_uris":{"android":"levelo://app?vid=4605a336-733a-4213-80a6-f9c5f02a3b1a","ios":"levelo://app?vid=4605a336-733a-4213-80a6-f9c5f02a3b1a"},"vehicle_type_id":"4","last_reported":1719058379,"current_range_meters":4400,"station_id":"cki0cbj6b192h4jlfktg","pricing_plan_id":"cebpf4jnsgd1na2vs0mg"},{"bike_id":"1529575d-3c24-4053-9dc4-3fc753c20a3e","system_id":"levelo_inurba_marseille","lat":43.3304,"lon":5.39281,"is_reserved":false,"is_disabled":false,"rental_uris":{"android":"levelo://app?vid=1529575d-3c24-4053-9dc4-3fc753c20a3e","ios":"levelo://app?vid=1529575d-3c24-4053-9dc4-3fc753c20a3e"},"vehicle_type_id":"4","last_reported":1719058379,"current_range_meters":2000,"station_id":"","pricing_plan_id":"cebpf4jnsgd1na2vs0mg"},{"bike_id":"a0c8d4aa-6c86-4219-a075-6c48eb5f6ae8","system_id":"levelo_inurba_marseille","lat":43.286915,"lon":5.363794,"is_reserved":false,"is_disabled":false,"rental_uris":{"android":"levelo://app?vid=a0c8d4aa-6c86-4219-a075-6c48eb5f6ae8","ios":"levelo://app?vid=a0c8d4aa-6c86-4219-a075-6c48eb5f6ae8"},"vehicle_type_id":"4","last_reported":1719058379,"current_range_meters":12400,"station_id":"","pricing_plan_id":"cebpf4jnsgd1na2vs0mg"},{"bike_id":"7ff4e1e7-f0c2-49e4-9f9c-09861a10f3c6","system_id":"levelo_inurba_marseille","lat":43.286961,"lon":5.373785,"is_reserved":false,"is_disabled":false,"rental_uris":{"android":"levelo://app?vid=7ff4e1e7-f0c2-49e4-9f9c-09861a10f3c6","ios":"levelo://app?vid=7ff4e1e7-f0c2-49e4-9f9c-09861a10f3c6"},"vehicle_type_id":"4","last_reported":1719058379,"current_range_meters":11600,"station_id":"ce4bh3p2rcd13ifvqdq0","pricing_plan_id":"cebpf4jnsgd1na2vs0mg"},{"bike_id":"76c511e8-66c1-4883-a0f1-7687a8f34cad","system_id":"levelo_inurba_marseille","lat":43.298681,"lon":5.397225,"is_reserved":false,"is_disabled":false,"rental_uris":{"android":"levelo://app?vid=76c511e8-66c1-4883-a0f1-7687a8f34cad","ios":"levelo://app?vid=76c511e8-66c1-4883-a0f1-7687a8f34cad"},"vehicle_type_id":"4","last_reported":1719058379,"current_range_meters":20800,"station_id":"ce4bh0h2rcd13ifvqd50","pricing_plan_id":"cebpf4jnsgd1na2vs0mg"},{"bike_id":"0c26d062-4811-487c-adc4-d3c41bdd3f58","system_id":"levelo_inurba_marseille","lat":43.298681,"lon":5.397225,"is_reserved":false,"is_disabled":false,"rental_uris":{"android":"levelo://app?vid=0c26d062-4811-487c-adc4-d3c41bdd3f58","ios":"levelo://app?vid=0c26d062-4811-487c-adc4-d3c41bdd3f58"},"vehicle_type_id":"4","last_reported":1719058379,"current_range_meters":28800,"station_id":"ce4bh0h2rcd13ifvqd50","pricing_plan_id":"cebpf4jnsgd1na2vs0mg"},{"bike_id":"871d4cbe-95d3-4dfd-bfae-2101e6a30641","system_id":"levelo_inurba_marseille","lat":43.286961,"lon":5.373785,"is_reserved":false,"is_disabled":false,"rental_uris":{"android":"levelo://app?vid=871d4cbe-95d3-4dfd-bfae-2101e6a30641","ios":"levelo://app?vid=871d4cbe-95d3-4dfd-bfae-2101e6a30641"},"vehicle_type_id":"4","last_reported":1719058379,"current_range_meters":24800,"station_id":"ce4bh3p2rcd13ifvqdq0","pricing_plan_id":"cebpf4jnsgd1na2vs0mg"},{"bike_id":"1d3281ca-ce40-42c5-9455-529ad3342ce4","system_id":"levelo_inurba_marseille","lat":43.295194,"lon":5.39397,"is_reserved":false,"is_disabled":false,"rental_uris":{"android":"levelo://app?vid=1d3281ca-ce40-42c5-9455-529ad3342ce4","ios":"levelo://app?vid=1d3281ca-ce40-42c5-9455-529ad3342ce4"},"vehicle_type_id":"4","last_reported":1719058379,"current_range_meters":7200,"station_id":"ce4bh292rcd13ifvqdf0","pricing_plan_id":"cebpf4jnsgd1na2vs0mg"},{"bike_id":"4b903d80-232b-4d78-b2f4-d5fe7e78dd3d","system_id":"levelo_inurba_marseille","lat":43.286961,"lon":5.373785,"is_reserved":false,"is_disabled":false,"rental_uris":{"android":"levelo://app?vid=4b903d80-232b-4d78-b2f4-d5fe7e78dd3d","ios":"levelo://app?vid=4b903d80-232b-4d78-b2f4-d5fe7e78dd3d"},"vehicle_type_id":"4","last_reported":1719058379,"current_range_meters":14800,"station_id":"ce4bh3p2rcd13ifvqdq0","pricing_plan_id":"cebpf4jnsgd1na2vs0mg"},{"bike_id":"b473d96a-03c1-488a-bd03-786ae4e4822e","system_id":"levelo_inurba_marseille","lat":43.289307,"lon":5.38406,"is_reserved":false,"is_disabled":false,"rental_uris":{"android":"levelo://app?vid=b473d96a-03c1-488a-bd03-786ae4e4822e","ios":"levelo://app?vid=b473d96a-03c1-488a-bd03-786ae4e4822e"},"vehicle_type_id":"4","last_reported":1719058379,"current_range_meters":19200,"station_id":"ce4bh612rcd13ifvqe6g","pricing_plan_id":"cebpf4jnsgd1na2vs0mg"},{"bike_id":"76f03740-4491-42c0-b71f-bea39b35df44","system_id":"levelo_inurba_marseille","lat":43.289307,"lon":5.38406,"is_reserved":false,"is_disabled":false,"rental_uris":{"android":"levelo://app?vid=76f03740-4491-42c0-b71f-bea39b35df44","ios":"levelo://app?vid=76f03740-4491-42c0-b71f-bea39b35df44"},"vehicle_type_id":"4","last_reported":1719058379,"current_range_meters":18400,"station_id":"ce4bh612rcd13ifvqe6g","pricing_plan_id":"cebpf4jnsgd1na2vs0mg"},{"bike_id":"a3071c01-f853-455f-b070-0f56cfea29ee","system_id":"levelo_inurba_marseille","lat":43.286039,"lon":5.370679,"is_reserved":false,"is_disabled":false,"rental_uris":{"android":"levelo://app?vid=a3071c01-f853-455f-b070-0f56cfea29ee","ios":"levelo://app?vid=a3071c01-f853-455f-b070-0f56cfea29ee"},"vehicle_type_id":"4","last_reported":1719058379,"current_range_meters":24800,"station_id":"ce4bht12rcd13ifvqi60","pricing_plan_id":"cebpf4jnsgd1na2vs0mg"},{"bike_id":"4b6e14a1-5420-4931-a1c1-cac9b2087a74","system_id":"levelo_inurba_marseille","lat":43.287185,"lon":5.379373,"is_reserved":false,"is_disabled":false,"rental_uris":{"android":"levelo://app?vid=4b6e14a1-5420-4931-a1c1-cac9b2087a74","ios":"levelo://app?vid=4b6e14a1-5420-4931-a1c1-cac9b2087a74"},"vehicle_type_id":"4","last_reported":1719058379,"current_range_meters":22400,"station_id":"ce4bh9p2rcd13ifvqec0","pricing_plan_id":"cebpf4jnsgd1na2vs0mg"},{"bike_id":"922f6d27-6a19-4cb1-a238-b47d10dfa404","system_id":"levelo_inurba_marseille","lat":43.286039,"lon":5.370681,"is_reserved":false,"is_disabled":false,"rental_uris":{"android":"levelo://app?vid=922f6d27-6a19-4cb1-a238-b47d10dfa404","ios":"levelo://app?vid=922f6d27-6a19-4cb1-a238-b47d10dfa404"},"vehicle_type_id":"4","last_reported":1719058379,"current_range_meters":18400,"station_id":"ce4bht12rcd13ifvqi60","pricing_plan_id":"cebpf4jnsgd1na2vs0mg"},{"bike_id":"d64c4fa0-4327-49a6-8ad4-fedabaf2064a","system_id":"levelo_inurba_marseille","lat":43.316911,"lon":5.404653,"is_reserved":false,"is_disabled":false,"rental_uris":{"android":"levelo://app?vid=d64c4fa0-4327-49a6-8ad4-fedabaf2064a","ios":"levelo://app?vid=d64c4fa0-4327-49a6-8ad4-fedabaf2064a"},"vehicle_type_id":"4","last_reported":1719058379,"current_range_meters":31600,"station_id":"ce4bh012rcd13ifvqd00","pricing_plan_id":"cebpf4jnsgd1na2vs0mg"},{"bike_id":"83bbf368-2356-4a49-8682-114d6f2f2eb6","system_id":"levelo_inurba_marseille","lat":43.316821,"lon":5.404737,"is_reserved":false,"is_disabled":false,"rental_uris":{"android":"levelo://app?vid=83bbf368-2356-4a49-8682-114d6f2f2eb6","ios":"levelo://app?vid=83bbf368-2356-4a49-8682-114d6f2f2eb6"},"vehicle_type_id":"4","last_reported":1719058379,"current_range_meters":17200,"station_id":"ce4bh012rcd13ifvqd00","pricing_plan_id":"cebpf4jnsgd1na2vs0mg"},{"bike_id":"270cdab4-d9de-446b-a105-c8deb6ff43d0","system_id":"levelo_inurba_marseille","lat":43.316821,"lon":5.404737,"is_reserved":false,"is_disabled":false,"rental_uris":{"android":"levelo://app?vid=270cdab4-d9de-446b-a105-c8deb6ff43d0","ios":"levelo://app?vid=270cdab4-d9de-446b-a105-c8deb6ff43d0"},"vehicle_type_id":"4","last_reported":1719058379,"current_range_meters":26000,"station_id":"ce4bh012rcd13ifvqd00","pricing_plan_id":"cebpf4jnsgd1na2vs0mg"},{"bike_id":"90d3d312-5500-42a4-8cef-08b0abdb46cd","system_id":"levelo_inurba_marseille","lat":43.291994,"lon":5.392907,"is_reserved":false,"is_disabled":false,"rental_uris":{"android":"levelo://app?vid=90d3d312-5500-42a4-8cef-08b0abdb46cd","ios":"levelo://app?vid=90d3d312-5500-42a4-8cef-08b0abdb46cd"},"vehicle_type_id":"4","last_reported":1719058379,"current_range_meters":20800,"station_id":"ce4bh192rcd13ifvqdd0","pricing_plan_id":"cebpf4jnsgd1na2vs0mg"},{"bike_id":"5fdd13d6-1a30-49ef-8611-8074ce44a9f0","system_id":"levelo_inurba_marseille","lat":43.290345,"lon":5.38646,"is_reserved":false,"is_disabled":false,"rental_uris":{"android":"levelo://app?vid=5fdd13d6-1a30-49ef-8611-8074ce44a9f0","ios":"levelo://app?vid=5fdd13d6-1a30-49ef-8611-8074ce44a9f0"},"vehicle_type_id":"4","last_reported":1719058379,"current_range_meters":24000,"station_id":"ce4bh4p2rcd13ifvqe0g","pricing_plan_id":"cebpf4jnsgd1na2vs0mg"},{"bike_id":"567751a3-c781-4c1a-abde-168103c3a1a0","system_id":"levelo_inurba_marseille","lat":43.294314,"lon":5.397498,"is_reserved":false,"is_disabled":false,"rental_uris":{"android":"levelo://app?vid=567751a3-c781-4c1a-abde-168103c3a1a0","ios":"levelo://app?vid=567751a3-c781-4c1a-abde-168103c3a1a0"},"vehicle_type_id":"4","last_reported":1719058379,"current_range_meters":9600,"station_id":"ce4bh3h2rcd13ifvqdo0","pricing_plan_id":"cebpf4jnsgd1na2vs0mg"},{"bike_id":"41908c4c-9bb1-472e-ac91-42d2d039b13e","system_id":"levelo_inurba_marseille","lat":43.285856,"lon":5.350771,"is_reserved":false,"is_disabled":false,"rental_uris":{"android":"levelo://app?vid=41908c4c-9bb1-472e-ac91-42d2d039b13e","ios":"levelo://app?vid=41908c4c-9bb1-472e-ac91-42d2d039b13e"},"vehicle_type_id":"4","last_reported":1719058379,"current_range_meters":26400,"station_id":"ce4bhch2rcd13ifvqeug","pricing_plan_id":"cebpf4jnsgd1na2vs0mg"},{"bike_id":"c3189352-324e-4166-bc3e-0861ef943e6a","system_id":"levelo_inurba_marseille","lat":43.285856,"lon":5.350771,"is_reserved":false,"is_disabled":false,"rental_uris":{"android":"levelo://app?vid=c3189352-324e-4166-bc3e-0861ef943e6a","ios":"levelo://app?vid=c3189352-324e-4166-bc3e-0861ef943e6a"},"vehicle_type_id":"4","last_reported":1719058379,"current_range_meters":31200,"station_id":"ce4bhch2rcd13ifvqeug","pricing_plan_id":"cebpf4jnsgd1na2vs0mg"},{"bike_id":"ba475ed1-bba9-4548-98eb-990e97e1d8d2","system_id":"levelo_inurba_marseille","lat":43.285856,"lon":5.350771,"is_reserved":false,"is_disabled":false,"rental_uris":{"android":"levelo://app?vid=ba475ed1-bba9-4548-98eb-990e97e1d8d2","ios":"levelo://app?vid=ba475ed1-bba9-4548-98eb-990e97e1d8d2"},"vehicle_type_id":"4","last_reported":1719058379,"current_range_meters":31200,"station_id":"ce4bhch2rcd13ifvqeug","pricing_plan_id":"cebpf4jnsgd1na2vs0mg"},{"bike_id":"efacaa47-5a27-490b-b9cb-c08a7fe1aef9","system_id":"levelo_inurba_marseille","lat":43.285856,"lon":5.350771,"is_reserved":false,"is_disabled":false,"rental_uris":{"android":"levelo://app?vid=efacaa47-5a27-490b-b9cb-c08a7fe1aef9","ios":"levelo://app?vid=efacaa47-5a27-490b-b9cb-c08a7fe1aef9"},"vehicle_type_id":"4","last_reported":1719058379,"current_range_meters":16000,"station_id":"ce4bhch2rcd13ifvqeug","pricing_plan_id":"cebpf4jnsgd1na2vs0mg"},{"bike_id":"010c56d3-b2cc-4b45-a0b6-b71d09c4ab24","system_id":"levelo_inurba_marseille","lat":43.285856,"lon":5.350771,"is_reserved":false,"is_disabled":false,"rental_uris":{"android":"levelo://app?vid=010c56d3-b2cc-4b45-a0b6-b71d09c4ab24","ios":"levelo://app?vid=010c56d3-b2cc-4b45-a0b6-b71d09c4ab24"},"vehicle_type_id":"4","last_reported":1719058379,"current_range_meters":25600,"station_id":"ce4bhch2rcd13ifvqeug","pricing_plan_id":"cebpf4jnsgd1na2vs0mg"},{"bike_id":"5e04a2af-2ab1-46f3-9609-2d78231cea8d","system_id":"levelo_inurba_marseille","lat":43.333134,"lon":5.395157,"is_reserved":false,"is_disabled":false,"rental_uris":{"android":"levelo://app?vid=5e04a2af-2ab1-46f3-9609-2d78231cea8d","ios":"levelo://app?vid=5e04a2af-2ab1-46f3-9609-2d78231cea8d"},"vehicle_type_id":"4","last_reported":1719058379,"current_range_meters":0,"station_id":"","pricing_plan_id":"cebpf4jnsgd1na2vs0mg"},{"bike_id":"00b33e56-fc24-4155-b283-1169a52b411f","system_id":"levelo_inurba_marseille","lat":43.285856,"lon":5.350771,"is_reserved":false,"is_disabled":false,"rental_uris":{"android":"levelo://app?vid=00b33e56-fc24-4155-b283-1169a52b411f","ios":"levelo://app?vid=00b33e56-fc24-4155-b283-1169a52b411f"},"vehicle_type_id":"4","last_reported":1719058379,"current_range_meters":21600,"station_id":"ce4bhch2rcd13ifvqeug","pricing_plan_id":"cebpf4jnsgd1na2vs0mg"},{"bike_id":"e0c376c2-f6cc-479d-9a38-86dd59f91a37","system_id":"levelo_inurba_marseille","lat":43.285856,"lon":5.350771,"is_reserved":false,"is_disabled":false,"rental_uris":{"android":"levelo://app?vid=e0c376c2-f6cc-479d-9a38-86dd59f91a37","ios":"levelo://app?vid=e0c376c2-f6cc-479d-9a38-86dd59f91a37"},"vehicle_type_id":"4","last_reported":1719058379,"current_range_meters":18800,"station_id":"ce4bhch2rcd13ifvqeug","pricing_plan_id":"cebpf4jnsgd1na2vs0mg"},{"bike_id":"3c9ba341-8b4f-4ff5-8285-ed8aa87db60a","system_id":"levelo_inurba_marseille","lat":43.285856,"lon":5.350771,"is_reserved":false,"is_disabled":false,"rental_uris":{"android":"levelo://app?vid=3c9ba341-8b4f-4ff5-8285-ed8aa87db60a","ios":"levelo://app?vid=3c9ba341-8b4f-4ff5-8285-ed8aa87db60a"},"vehicle_type_id":"4","last_reported":1719058379,"current_range_meters":18800,"station_id":"ce4bhch2rcd13ifvqeug","pricing_plan_id":"cebpf4jnsgd1na2vs0mg"},{"bike_id":"cec08bdd-a34c-47b7-98db-4fd8017d6a94","system_id":"levelo_inurba_marseille","lat":43.285856,"lon":5.350771,"is_reserved":false,"is_disabled":false,"rental_uris":{"android":"levelo://app?vid=cec08bdd-a34c-47b7-98db-4fd8017d6a94","ios":"levelo://app?vid=cec08bdd-a34c-47b7-98db-4fd8017d6a94"},"vehicle_type_id":"4","last_reported":1719058379,"current_range_meters":12800,"station_id":"ce4bhch2rcd13ifvqeug","pricing_plan_id":"cebpf4jnsgd1na2vs0mg"},{"bike_id":"a2409815-c29d-44c9-b535-deabaf3105b9","system_id":"levelo_inurba_marseille","lat":43.285856,"lon":5.350771,"is_reserved":false,"is_disabled":false,"rental_uris":{"android":"levelo://app?vid=a2409815-c29d-44c9-b535-deabaf3105b9","ios":"levelo://app?vid=a2409815-c29d-44c9-b535-deabaf3105b9"},"vehicle_type_id":"4","last_reported":1719058379,"current_range_meters":9200,"station_id":"ce4bhch2rcd13ifvqeug","pricing_plan_id":"cebpf4jnsgd1na2vs0mg"},{"bike_id":"886a89de-25c3-4728-98fe-91fcd3fe50d5","system_id":"levelo_inurba_marseille","lat":43.285856,"lon":5.350771,"is_reserved":false,"is_disabled":false,"rental_uris":{"android":"levelo://app?vid=886a89de-25c3-4728-98fe-91fcd3fe50d5","ios":"levelo://app?vid=886a89de-25c3-4728-98fe-91fcd3fe50d5"},"vehicle_type_id":"4","last_reported":1719058379,"current_range_meters":19600,"station_id":"ce4bhch2rcd13ifvqeug","pricing_plan_id":"cebpf4jnsgd1na2vs0mg"},{"bike_id":"6800d9f7-4a5b-4098-a4e4-94458935c1f1","system_id":"levelo_inurba_marseille","lat":43.285856,"lon":5.350771,"is_reserved":false,"is_disabled":false,"rental_uris":{"android":"levelo://app?vid=6800d9f7-4a5b-4098-a4e4-94458935c1f1","ios":"levelo://app?vid=6800d9f7-4a5b-4098-a4e4-94458935c1f1"},"vehicle_type_id":"4","last_reported":1719058379,"current_range_meters":31200,"station_id":"ce4bhch2rcd13ifvqeug","pricing_plan_id":"cebpf4jnsgd1na2vs0mg"},{"bike_id":"67047250-8321-4261-b8de-8c095a8ce691","system_id":"levelo_inurba_marseille","lat":43.285856,"lon":5.350771,"is_reserved":false,"is_disabled":false,"rental_uris":{"android":"levelo://app?vid=67047250-8321-4261-b8de-8c095a8ce691","ios":"levelo://app?vid=67047250-8321-4261-b8de-8c095a8ce691"},"vehicle_type_id":"4","last_reported":1719058379,"current_range_meters":20400,"station_id":"ce4bhch2rcd13ifvqeug","pricing_plan_id":"cebpf4jnsgd1na2vs0mg"},{"bike_id":"37fd6302-0bdc-4726-b839-5c537fcbe850","system_id":"levelo_inurba_marseille","lat":43.285856,"lon":5.350771,"is_reserved":false,"is_disabled":false,"rental_uris":{"android":"levelo://app?vid=37fd6302-0bdc-4726-b839-5c537fcbe850","ios":"levelo://app?vid=37fd6302-0bdc-4726-b839-5c537fcbe850"},"vehicle_type_id":"4","last_reported":1719058379,"current_range_meters":29200,"station_id":"ce4bhch2rcd13ifvqeug","pricing_plan_id":"cebpf4jnsgd1na2vs0mg"},{"bike_id":"de206635-623b-44ba-8ee2-f912d6bbad71","system_id":"levelo_inurba_marseille","lat":43.285856,"lon":5.350771,"is_reserved":false,"is_disabled":false,"rental_uris":{"android":"levelo://app?vid=de206635-623b-44ba-8ee2-f912d6bbad71","ios":"levelo://app?vid=de206635-623b-44ba-8ee2-f912d6bbad71"},"vehicle_type_id":"4","last_reported":1719058379,"current_range_meters":24800,"station_id":"ce4bhch2rcd13ifvqeug","pricing_plan_id":"cebpf4jnsgd1na2vs0mg"},{"bike_id":"71138d76-8d74-4964-8b32-5b5e49ec7d8a","system_id":"levelo_inurba_marseille","lat":43.285856,"lon":5.350771,"is_reserved":false,"is_disabled":false,"rental_uris":{"android":"levelo://app?vid=71138d76-8d74-4964-8b32-5b5e49ec7d8a","ios":"levelo://app?vid=71138d76-8d74-4964-8b32-5b5e49ec7d8a"},"vehicle_type_id":"4","last_reported":1719058379,"current_range_meters":21200,"station_id":"ce4bhch2rcd13ifvqeug","pricing_plan_id":"cebpf4jnsgd1na2vs0mg"},{"bike_id":"c77c12fc-aa0e-4cf6-b466-f8bb2635291e","system_id":"levelo_inurba_marseille","lat":43.285856,"lon":5.350771,"is_reserved":false,"is_disabled":false,"rental_uris":{"android":"levelo://app?vid=c77c12fc-aa0e-4cf6-b466-f8bb2635291e","ios":"levelo://app?vid=c77c12fc-aa0e-4cf6-b466-f8bb2635291e"},"vehicle_type_id":"4","last_reported":1719058379,"current_range_meters":24400,"station_id":"ce4bhch2rcd13ifvqeug","pricing_plan_id":"cebpf4jnsgd1na2vs0mg"},{"bike_id":"5520ecf8-263e-489a-a0ac-0031491f54c2","system_id":"levelo_inurba_marseille","lat":43.285856,"lon":5.350771,"is_reserved":false,"is_disabled":false,"rental_uris":{"android":"levelo://app?vid=5520ecf8-263e-489a-a0ac-0031491f54c2","ios":"levelo://app?vid=5520ecf8-263e-489a-a0ac-0031491f54c2"},"vehicle_type_id":"4","last_reported":1719058379,"current_range_meters":20800,"station_id":"ce4bhch2rcd13ifvqeug","pricing_plan_id":"cebpf4jnsgd1na2vs0mg"},{"bike_id":"d65304b8-cd02-4bbe-a996-d6f616b50b2c","system_id":"levelo_inurba_marseille","lat":43.285856,"lon":5.350771,"is_reserved":false,"is_disabled":false,"rental_uris":{"android":"levelo://app?vid=d65304b8-cd02-4bbe-a996-d6f616b50b2c","ios":"levelo://app?vid=d65304b8-cd02-4bbe-a996-d6f616b50b2c"},"vehicle_type_id":"4","last_reported":1719058379,"current_range_meters":25200,"station_id":"ce4bhch2rcd13ifvqeug","pricing_plan_id":"cebpf4jnsgd1na2vs0mg"},{"bike_id":"0ff6a91b-3492-40ea-9ec0-829f60e79fce","system_id":"levelo_inurba_marseille","lat":43.285856,"lon":5.350771,"is_reserved":false,"is_disabled":false,"rental_uris":{"android":"levelo://app?vid=0ff6a91b-3492-40ea-9ec0-829f60e79fce","ios":"levelo://app?vid=0ff6a91b-3492-40ea-9ec0-829f60e79fce"},"vehicle_type_id":"4","last_reported":1719058379,"current_range_meters":19600,"station_id":"ce4bhch2rcd13ifvqeug","pricing_plan_id":"cebpf4jnsgd1na2vs0mg"},{"bike_id":"543033f4-bbd7-4eb9-8463-db2871061419","system_id":"levelo_inurba_marseille","lat":43.283998,"lon":5.375062,"is_reserved":false,"is_disabled":false,"rental_uris":{"android":"levelo://app?vid=543033f4-bbd7-4eb9-8463-db2871061419","ios":"levelo://app?vid=543033f4-bbd7-4eb9-8463-db2871061419"},"vehicle_type_id":"4","last_reported":1719058379,"current_range_meters":28400,"station_id":"ce4bh412rcd13ifvqds0","pricing_plan_id":"cebpf4jnsgd1na2vs0mg"},{"bike_id":"827187e6-764b-493d-b652-dc2b61f2f84c","system_id":"levelo_inurba_marseille","lat":43.295713,"lon":5.399639,"is_reserved":false,"is_disabled":false,"rental_uris":{"android":"levelo://app?vid=827187e6-764b-493d-b652-dc2b61f2f84c","ios":"levelo://app?vid=827187e6-764b-493d-b652-dc2b61f2f84c"},"vehicle_type_id":"4","last_reported":1719058379,"current_range_meters":7600,"station_id":"ce4bh312rcd13ifvqdj0","pricing_plan_id":"cebpf4jnsgd1na2vs0mg"},{"bike_id":"8895ee85-cd94-423c-b91b-0d197752a04a","system_id":"levelo_inurba_marseille","lat":43.295775,"lon":5.400575,"is_reserved":false,"is_disabled":false,"rental_uris":{"android":"levelo://app?vid=8895ee85-cd94-423c-b91b-0d197752a04a","ios":"levelo://app?vid=8895ee85-cd94-423c-b91b-0d197752a04a"},"vehicle_type_id":"4","last_reported":1719058379,"current_range_meters":0,"station_id":"","pricing_plan_id":"cebpf4jnsgd1na2vs0mg"},{"bike_id":"95e2fada-9da0-4f78-bf52-39b1c8193879","system_id":"levelo_inurba_marseille","lat":43.319179,"lon":5.407725,"is_reserved":false,"is_disabled":false,"rental_uris":{"android":"levelo://app?vid=95e2fada-9da0-4f78-bf52-39b1c8193879","ios":"levelo://app?vid=95e2fada-9da0-4f78-bf52-39b1c8193879"},"vehicle_type_id":"4","last_reported":1719058379,"current_range_meters":31600,"station_id":"ce4bhq12rcd13ifvqhig","pricing_plan_id":"cebpf4jnsgd1na2vs0mg"},{"bike_id":"24e489ca-d743-4f17-812c-45fde911acec","system_id":"levelo_inurba_marseille","lat":43.319179,"lon":5.407725,"is_reserved":false,"is_disabled":false,"rental_uris":{"android":"levelo://app?vid=24e489ca-d743-4f17-812c-45fde911acec","ios":"levelo://app?vid=24e489ca-d743-4f17-812c-45fde911acec"},"vehicle_type_id":"4","last_reported":1719058379,"current_range_meters":7200,"station_id":"ce4bhq12rcd13ifvqhig","pricing_plan_id":"cebpf4jnsgd1na2vs0mg"},{"bike_id":"eadb2b90-2b37-499d-bfeb-bcdbd9774fd6","system_id":"levelo_inurba_marseille","lat":43.288308,"lon":5.391221,"is_reserved":false,"is_disabled":false,"rental_uris":{"android":"levelo://app?vid=eadb2b90-2b37-499d-bfeb-bcdbd9774fd6","ios":"levelo://app?vid=eadb2b90-2b37-499d-bfeb-bcdbd9774fd6"},"vehicle_type_id":"4","last_reported":1719058379,"current_range_meters":4800,"station_id":"","pricing_plan_id":"cebpf4jnsgd1na2vs0mg"},{"bike_id":"fba41aab-424b-417b-bf63-fc2cc05351de","system_id":"levelo_inurba_marseille","lat":43.284217,"lon":5.349697,"is_reserved":false,"is_disabled":false,"rental_uris":{"android":"levelo://app?vid=fba41aab-424b-417b-bf63-fc2cc05351de","ios":"levelo://app?vid=fba41aab-424b-417b-bf63-fc2cc05351de"},"vehicle_type_id":"4","last_reported":1719058379,"current_range_meters":18400,"station_id":"ce4bhbh2rcd13ifvqepg","pricing_plan_id":"cebpf4jnsgd1na2vs0mg"},{"bike_id":"3720418d-da95-43ab-883e-5ec4534758a0","system_id":"levelo_inurba_marseille","lat":43.337168,"lon":5.391825,"is_reserved":false,"is_disabled":false,"rental_uris":{"android":"levelo://app?vid=3720418d-da95-43ab-883e-5ec4534758a0","ios":"levelo://app?vid=3720418d-da95-43ab-883e-5ec4534758a0"},"vehicle_type_id":"4","last_reported":1719058379,"current_range_meters":3200,"station_id":"ce4bhr92rcd13ifvqhsg","pricing_plan_id":"cebpf4jnsgd1na2vs0mg"},{"bike_id":"a165f46c-d6f7-48b9-b096-5d80f826244d","system_id":"levelo_inurba_marseille","lat":43.33717,"lon":5.391857,"is_reserved":false,"is_disabled":false,"rental_uris":{"android":"levelo://app?vid=a165f46c-d6f7-48b9-b096-5d80f826244d","ios":"levelo://app?vid=a165f46c-d6f7-48b9-b096-5d80f826244d"},"vehicle_type_id":"4","last_reported":1719058379,"current_range_meters":19600,"station_id":"ce4bhr92rcd13ifvqhsg","pricing_plan_id":"cebpf4jnsgd1na2vs0mg"},{"bike_id":"b3916497-59ca-4da9-b86b-678aff8f6f3a","system_id":"levelo_inurba_marseille","lat":43.33717,"lon":5.391857,"is_reserved":false,"is_disabled":false,"rental_uris":{"android":"levelo://app?vid=b3916497-59ca-4da9-b86b-678aff8f6f3a","ios":"levelo://app?vid=b3916497-59ca-4da9-b86b-678aff8f6f3a"},"vehicle_type_id":"4","last_reported":1719058379,"current_range_meters":20800,"station_id":"ce4bhr92rcd13ifvqhsg","pricing_plan_id":"cebpf4jnsgd1na2vs0mg"},{"bike_id":"5500f12e-b909-4c25-98de-c1d58ae9bff2","system_id":"levelo_inurba_marseille","lat":43.33717,"lon":5.391857,"is_reserved":false,"is_disabled":false,"rental_uris":{"android":"levelo://app?vid=5500f12e-b909-4c25-98de-c1d58ae9bff2","ios":"levelo://app?vid=5500f12e-b909-4c25-98de-c1d58ae9bff2"},"vehicle_type_id":"4","last_reported":1719058379,"current_range_meters":0,"station_id":"ce4bhr92rcd13ifvqhsg","pricing_plan_id":"cebpf4jnsgd1na2vs0mg"},{"bike_id":"404a665e-5106-49dc-9725-792a74c363b6","system_id":"levelo_inurba_marseille","lat":43.337168,"lon":5.391825,"is_reserved":false,"is_disabled":false,"rental_uris":{"android":"levelo://app?vid=404a665e-5106-49dc-9725-792a74c363b6","ios":"levelo://app?vid=404a665e-5106-49dc-9725-792a74c363b6"},"vehicle_type_id":"4","last_reported":1719058379,"current_range_meters":17200,"station_id":"ce4bhr92rcd13ifvqhsg","pricing_plan_id":"cebpf4jnsgd1na2vs0mg"},{"bike_id":"d8b17d29-8b4b-4a6a-bada-b477a750ca64","system_id":"levelo_inurba_marseille","lat":43.33717,"lon":5.391857,"is_reserved":false,"is_disabled":false,"rental_uris":{"android":"levelo://app?vid=d8b17d29-8b4b-4a6a-bada-b477a750ca64","ios":"levelo://app?vid=d8b17d29-8b4b-4a6a-bada-b477a750ca64"},"vehicle_type_id":"4","last_reported":1719058379,"current_range_meters":15600,"station_id":"ce4bhr92rcd13ifvqhsg","pricing_plan_id":"cebpf4jnsgd1na2vs0mg"},{"bike_id":"55c4d22f-0c8a-4548-bf06-f4d15611bf57","system_id":"levelo_inurba_marseille","lat":43.284793,"lon":5.384119,"is_reserved":false,"is_disabled":false,"rental_uris":{"android":"levelo://app?vid=55c4d22f-0c8a-4548-bf06-f4d15611bf57","ios":"levelo://app?vid=55c4d22f-0c8a-4548-bf06-f4d15611bf57"},"vehicle_type_id":"4","last_reported":1719058379,"current_range_meters":7600,"station_id":"ce4bh512rcd13ifvqe3g","pricing_plan_id":"cebpf4jnsgd1na2vs0mg"},{"bike_id":"e3b89ad3-a212-4cd5-90ce-f5500918691f","system_id":"levelo_inurba_marseille","lat":43.284793,"lon":5.384119,"is_reserved":false,"is_disabled":false,"rental_uris":{"android":"levelo://app?vid=e3b89ad3-a212-4cd5-90ce-f5500918691f","ios":"levelo://app?vid=e3b89ad3-a212-4cd5-90ce-f5500918691f"},"vehicle_type_id":"4","last_reported":1719058379,"current_range_meters":6800,"station_id":"ce4bh512rcd13ifvqe3g","pricing_plan_id":"cebpf4jnsgd1na2vs0mg"},{"bike_id":"e5a6b871-4bec-4f46-ba6c-197280b4509e","system_id":"levelo_inurba_marseille","lat":43.284787,"lon":5.384116,"is_reserved":false,"is_disabled":false,"rental_uris":{"android":"levelo://app?vid=e5a6b871-4bec-4f46-ba6c-197280b4509e","ios":"levelo://app?vid=e5a6b871-4bec-4f46-ba6c-197280b4509e"},"vehicle_type_id":"4","last_reported":1719058379,"current_range_meters":2000,"station_id":"ce4bh512rcd13ifvqe3g","pricing_plan_id":"cebpf4jnsgd1na2vs0mg"},{"bike_id":"ebd01647-4578-409a-83c8-fb943fbbef1f","system_id":"levelo_inurba_marseille","lat":43.284776,"lon":5.385603,"is_reserved":false,"is_disabled":false,"rental_uris":{"android":"levelo://app?vid=ebd01647-4578-409a-83c8-fb943fbbef1f","ios":"levelo://app?vid=ebd01647-4578-409a-83c8-fb943fbbef1f"},"vehicle_type_id":"4","last_reported":1719058379,"current_range_meters":0,"station_id":"ce4bh8p2rcd13ifvqeb0","pricing_plan_id":"cebpf4jnsgd1na2vs0mg"},{"bike_id":"138582a4-5b51-405e-8998-6ddaf705d26e","system_id":"levelo_inurba_marseille","lat":43.284219,"lon":5.3497,"is_reserved":false,"is_disabled":false,"rental_uris":{"android":"levelo://app?vid=138582a4-5b51-405e-8998-6ddaf705d26e","ios":"levelo://app?vid=138582a4-5b51-405e-8998-6ddaf705d26e"},"vehicle_type_id":"4","last_reported":1719058379,"current_range_meters":10800,"station_id":"ce4bhbh2rcd13ifvqepg","pricing_plan_id":"cebpf4jnsgd1na2vs0mg"},{"bike_id":"763b6477-2895-49a1-bfc3-63d0a9526754","system_id":"levelo_inurba_marseille","lat":43.28432,"lon":5.3499,"is_reserved":false,"is_disabled":false,"rental_uris":{"android":"levelo://app?vid=763b6477-2895-49a1-bfc3-63d0a9526754","ios":"levelo://app?vid=763b6477-2895-49a1-bfc3-63d0a9526754"},"vehicle_type_id":"4","last_reported":1719058379,"current_range_meters":25600,"station_id":"ce4bhbh2rcd13ifvqepg","pricing_plan_id":"cebpf4jnsgd1na2vs0mg"},{"bike_id":"35609a37-a38a-4a91-9f91-96cd104e50ce","system_id":"levelo_inurba_marseille","lat":43.28457,"lon":5.38478,"is_reserved":false,"is_disabled":false,"rental_uris":{"android":"levelo://app?vid=35609a37-a38a-4a91-9f91-96cd104e50ce","ios":"levelo://app?vid=35609a37-a38a-4a91-9f91-96cd104e50ce"},"vehicle_type_id":"4","last_reported":1719058379,"current_range_meters":27200,"station_id":"","pricing_plan_id":"cebpf4jnsgd1na2vs0mg"},{"bike_id":"c7805fff-76a3-44ec-9d5d-ccaf3f73c4c6","system_id":"levelo_inurba_marseille","lat":43.28428,"lon":5.34993,"is_reserved":false,"is_disabled":false,"rental_uris":{"android":"levelo://app?vid=c7805fff-76a3-44ec-9d5d-ccaf3f73c4c6","ios":"levelo://app?vid=c7805fff-76a3-44ec-9d5d-ccaf3f73c4c6"},"vehicle_type_id":"4","last_reported":1719058379,"current_range_meters":19600,"station_id":"ce4bhbh2rcd13ifvqepg","pricing_plan_id":"cebpf4jnsgd1na2vs0mg"},{"bike_id":"b82c05ff-c9f1-44eb-b55a-b191abf53ddf","system_id":"levelo_inurba_marseille","lat":43.2843,"lon":5.34986,"is_reserved":false,"is_disabled":false,"rental_uris":{"android":"levelo://app?vid=b82c05ff-c9f1-44eb-b55a-b191abf53ddf","ios":"levelo://app?vid=b82c05ff-c9f1-44eb-b55a-b191abf53ddf"},"vehicle_type_id":"4","last_reported":1719058379,"current_range_meters":24000,"station_id":"ce4bhbh2rcd13ifvqepg","pricing_plan_id":"cebpf4jnsgd1na2vs0mg"},{"bike_id":"d7a78b25-cc81-489e-8218-3b311005bdba","system_id":"levelo_inurba_marseille","lat":43.2843,"lon":5.34984,"is_reserved":false,"is_disabled":false,"rental_uris":{"android":"levelo://app?vid=d7a78b25-cc81-489e-8218-3b311005bdba","ios":"levelo://app?vid=d7a78b25-cc81-489e-8218-3b311005bdba"},"vehicle_type_id":"4","last_reported":1719058379,"current_range_meters":12800,"station_id":"ce4bhbh2rcd13ifvqepg","pricing_plan_id":"cebpf4jnsgd1na2vs0mg"},{"bike_id":"61018472-8e78-4daf-9d49-84887d9c9a03","system_id":"levelo_inurba_marseille","lat":43.284217,"lon":5.349697,"is_reserved":false,"is_disabled":false,"rental_uris":{"android":"levelo://app?vid=61018472-8e78-4daf-9d49-84887d9c9a03","ios":"levelo://app?vid=61018472-8e78-4daf-9d49-84887d9c9a03"},"vehicle_type_id":"4","last_reported":1719058379,"current_range_meters":23200,"station_id":"ce4bhbh2rcd13ifvqepg","pricing_plan_id":"cebpf4jnsgd1na2vs0mg"},{"bike_id":"efb081cb-25e3-40a3-b1de-3782a753cec9","system_id":"levelo_inurba_marseille","lat":43.284266,"lon":5.349876,"is_reserved":false,"is_disabled":false,"rental_uris":{"android":"levelo://app?vid=efb081cb-25e3-40a3-b1de-3782a753cec9","ios":"levelo://app?vid=efb081cb-25e3-40a3-b1de-3782a753cec9"},"vehicle_type_id":"4","last_reported":1719058379,"current_range_meters":14000,"station_id":"ce4bhbh2rcd13ifvqepg","pricing_plan_id":"cebpf4jnsgd1na2vs0mg"},{"bike_id":"b1b5f420-5c34-49f4-8726-cb97338e9075","system_id":"levelo_inurba_marseille","lat":43.28422,"lon":5.34999,"is_reserved":false,"is_disabled":false,"rental_uris":{"android":"levelo://app?vid=b1b5f420-5c34-49f4-8726-cb97338e9075","ios":"levelo://app?vid=b1b5f420-5c34-49f4-8726-cb97338e9075"},"vehicle_type_id":"4","last_reported":1719058379,"current_range_meters":31200,"station_id":"ce4bhbh2rcd13ifvqepg","pricing_plan_id":"cebpf4jnsgd1na2vs0mg"},{"bike_id":"fc6fe18f-327f-41b1-9f09-38873f734560","system_id":"levelo_inurba_marseille","lat":43.284217,"lon":5.349697,"is_reserved":false,"is_disabled":false,"rental_uris":{"android":"levelo://app?vid=fc6fe18f-327f-41b1-9f09-38873f734560","ios":"levelo://app?vid=fc6fe18f-327f-41b1-9f09-38873f734560"},"vehicle_type_id":"4","last_reported":1719058379,"current_range_meters":26000,"station_id":"ce4bhbh2rcd13ifvqepg","pricing_plan_id":"cebpf4jnsgd1na2vs0mg"},{"bike_id":"21087f0b-c76c-4ae6-8862-9b7e4119c534","system_id":"levelo_inurba_marseille","lat":43.284217,"lon":5.349697,"is_reserved":false,"is_disabled":false,"rental_uris":{"android":"levelo://app?vid=21087f0b-c76c-4ae6-8862-9b7e4119c534","ios":"levelo://app?vid=21087f0b-c76c-4ae6-8862-9b7e4119c534"},"vehicle_type_id":"4","last_reported":1719058379,"current_range_meters":31600,"station_id":"ce4bhbh2rcd13ifvqepg","pricing_plan_id":"cebpf4jnsgd1na2vs0mg"},{"bike_id":"81266079-914c-4946-90c1-03f2ffd779f2","system_id":"levelo_inurba_marseille","lat":43.284217,"lon":5.349697,"is_reserved":false,"is_disabled":false,"rental_uris":{"android":"levelo://app?vid=81266079-914c-4946-90c1-03f2ffd779f2","ios":"levelo://app?vid=81266079-914c-4946-90c1-03f2ffd779f2"},"vehicle_type_id":"4","last_reported":1719058379,"current_range_meters":24400,"station_id":"ce4bhbh2rcd13ifvqepg","pricing_plan_id":"cebpf4jnsgd1na2vs0mg"},{"bike_id":"9e729c20-c545-4727-853c-e27993e7ddc3","system_id":"levelo_inurba_marseille","lat":43.284217,"lon":5.349697,"is_reserved":false,"is_disabled":false,"rental_uris":{"android":"levelo://app?vid=9e729c20-c545-4727-853c-e27993e7ddc3","ios":"levelo://app?vid=9e729c20-c545-4727-853c-e27993e7ddc3"},"vehicle_type_id":"4","last_reported":1719058379,"current_range_meters":16800,"station_id":"ce4bhbh2rcd13ifvqepg","pricing_plan_id":"cebpf4jnsgd1na2vs0mg"},{"bike_id":"73e58f7c-0aab-4a97-b01c-b50c7846e419","system_id":"levelo_inurba_marseille","lat":43.284217,"lon":5.349697,"is_reserved":false,"is_disabled":false,"rental_uris":{"android":"levelo://app?vid=73e58f7c-0aab-4a97-b01c-b50c7846e419","ios":"levelo://app?vid=73e58f7c-0aab-4a97-b01c-b50c7846e419"},"vehicle_type_id":"4","last_reported":1719058379,"current_range_meters":27200,"station_id":"ce4bhbh2rcd13ifvqepg","pricing_plan_id":"cebpf4jnsgd1na2vs0mg"},{"bike_id":"37128c58-8291-42b2-9f89-6426a48f6ebf","system_id":"levelo_inurba_marseille","lat":43.28423,"lon":5.34984,"is_reserved":false,"is_disabled":false,"rental_uris":{"android":"levelo://app?vid=37128c58-8291-42b2-9f89-6426a48f6ebf","ios":"levelo://app?vid=37128c58-8291-42b2-9f89-6426a48f6ebf"},"vehicle_type_id":"4","last_reported":1719058379,"current_range_meters":6000,"station_id":"ce4bhbh2rcd13ifvqepg","pricing_plan_id":"cebpf4jnsgd1na2vs0mg"},{"bike_id":"506734c6-8efe-424d-8a5d-9beada7d2683","system_id":"levelo_inurba_marseille","lat":43.284225,"lon":5.349825,"is_reserved":false,"is_disabled":false,"rental_uris":{"android":"levelo://app?vid=506734c6-8efe-424d-8a5d-9beada7d2683","ios":"levelo://app?vid=506734c6-8efe-424d-8a5d-9beada7d2683"},"vehicle_type_id":"4","last_reported":1719058379,"current_range_meters":14000,"station_id":"ce4bhbh2rcd13ifvqepg","pricing_plan_id":"cebpf4jnsgd1na2vs0mg"},{"bike_id":"1fbed9b3-8a14-4d00-9eda-8cc42ac42943","system_id":"levelo_inurba_marseille","lat":43.28423,"lon":5.34979,"is_reserved":false,"is_disabled":false,"rental_uris":{"android":"levelo://app?vid=1fbed9b3-8a14-4d00-9eda-8cc42ac42943","ios":"levelo://app?vid=1fbed9b3-8a14-4d00-9eda-8cc42ac42943"},"vehicle_type_id":"4","last_reported":1719058379,"current_range_meters":25200,"station_id":"ce4bhbh2rcd13ifvqepg","pricing_plan_id":"cebpf4jnsgd1na2vs0mg"},{"bike_id":"36da940f-fb48-4ec1-b0f7-67c753e300af","system_id":"levelo_inurba_marseille","lat":43.284219,"lon":5.3497,"is_reserved":false,"is_disabled":false,"rental_uris":{"android":"levelo://app?vid=36da940f-fb48-4ec1-b0f7-67c753e300af","ios":"levelo://app?vid=36da940f-fb48-4ec1-b0f7-67c753e300af"},"vehicle_type_id":"4","last_reported":1719058379,"current_range_meters":31200,"station_id":"ce4bhbh2rcd13ifvqepg","pricing_plan_id":"cebpf4jnsgd1na2vs0mg"},{"bike_id":"0e415e66-6248-4eb8-a570-f3c343b27f00","system_id":"levelo_inurba_marseille","lat":43.284219,"lon":5.3497,"is_reserved":false,"is_disabled":false,"rental_uris":{"android":"levelo://app?vid=0e415e66-6248-4eb8-a570-f3c343b27f00","ios":"levelo://app?vid=0e415e66-6248-4eb8-a570-f3c343b27f00"},"vehicle_type_id":"4","last_reported":1719058379,"current_range_meters":24400,"station_id":"ce4bhbh2rcd13ifvqepg","pricing_plan_id":"cebpf4jnsgd1na2vs0mg"},{"bike_id":"394d53cf-d023-4cdd-8c37-e40bf710ace7","system_id":"levelo_inurba_marseille","lat":43.2842,"lon":5.349856,"is_reserved":false,"is_disabled":false,"rental_uris":{"android":"levelo://app?vid=394d53cf-d023-4cdd-8c37-e40bf710ace7","ios":"levelo://app?vid=394d53cf-d023-4cdd-8c37-e40bf710ace7"},"vehicle_type_id":"4","last_reported":1719058379,"current_range_meters":31200,"station_id":"ce4bhbh2rcd13ifvqepg","pricing_plan_id":"cebpf4jnsgd1na2vs0mg"},{"bike_id":"765f0d88-f5da-4130-862a-e4b66ce61267","system_id":"levelo_inurba_marseille","lat":43.284217,"lon":5.349697,"is_reserved":false,"is_disabled":false,"rental_uris":{"android":"levelo://app?vid=765f0d88-f5da-4130-862a-e4b66ce61267","ios":"levelo://app?vid=765f0d88-f5da-4130-862a-e4b66ce61267"},"vehicle_type_id":"4","last_reported":1719058379,"current_range_meters":23200,"station_id":"ce4bhbh2rcd13ifvqepg","pricing_plan_id":"cebpf4jnsgd1na2vs0mg"},{"bike_id":"9fcc5896-290b-4760-9b52-046c8ecd9987","system_id":"levelo_inurba_marseille","lat":43.28423,"lon":5.34973,"is_reserved":false,"is_disabled":false,"rental_uris":{"android":"levelo://app?vid=9fcc5896-290b-4760-9b52-046c8ecd9987","ios":"levelo://app?vid=9fcc5896-290b-4760-9b52-046c8ecd9987"},"vehicle_type_id":"4","last_reported":1719058379,"current_range_meters":20000,"station_id":"ce4bhbh2rcd13ifvqepg","pricing_plan_id":"cebpf4jnsgd1na2vs0mg"},{"bike_id":"a838023b-9a02-4d25-9266-465d9268fd93","system_id":"levelo_inurba_marseille","lat":43.284217,"lon":5.349697,"is_reserved":false,"is_disabled":false,"rental_uris":{"android":"levelo://app?vid=a838023b-9a02-4d25-9266-465d9268fd93","ios":"levelo://app?vid=a838023b-9a02-4d25-9266-465d9268fd93"},"vehicle_type_id":"4","last_reported":1719058379,"current_range_meters":19600,"station_id":"ce4bhbh2rcd13ifvqepg","pricing_plan_id":"cebpf4jnsgd1na2vs0mg"},{"bike_id":"8c2e4777-1286-4e7d-bca1-673d1c9c4d97","system_id":"levelo_inurba_marseille","lat":43.284183,"lon":5.349847,"is_reserved":false,"is_disabled":false,"rental_uris":{"android":"levelo://app?vid=8c2e4777-1286-4e7d-bca1-673d1c9c4d97","ios":"levelo://app?vid=8c2e4777-1286-4e7d-bca1-673d1c9c4d97"},"vehicle_type_id":"4","last_reported":1719058379,"current_range_meters":17200,"station_id":"ce4bhbh2rcd13ifvqepg","pricing_plan_id":"cebpf4jnsgd1na2vs0mg"},{"bike_id":"32890be1-fa42-4aff-9d93-43fac31162d3","system_id":"levelo_inurba_marseille","lat":43.28422,"lon":5.34973,"is_reserved":false,"is_disabled":false,"rental_uris":{"android":"levelo://app?vid=32890be1-fa42-4aff-9d93-43fac31162d3","ios":"levelo://app?vid=32890be1-fa42-4aff-9d93-43fac31162d3"},"vehicle_type_id":"4","last_reported":1719058379,"current_range_meters":14800,"station_id":"ce4bhbh2rcd13ifvqepg","pricing_plan_id":"cebpf4jnsgd1na2vs0mg"},{"bike_id":"8b684a05-64f8-4ce5-a6b2-678f089fd468","system_id":"levelo_inurba_marseille","lat":43.28413,"lon":5.34993,"is_reserved":false,"is_disabled":false,"rental_uris":{"android":"levelo://app?vid=8b684a05-64f8-4ce5-a6b2-678f089fd468","ios":"levelo://app?vid=8b684a05-64f8-4ce5-a6b2-678f089fd468"},"vehicle_type_id":"4","last_reported":1719058379,"current_range_meters":28400,"station_id":"ce4bhbh2rcd13ifvqepg","pricing_plan_id":"cebpf4jnsgd1na2vs0mg"},{"bike_id":"663cd0c4-98d5-4647-8445-cbf0e9fbe390","system_id":"levelo_inurba_marseille","lat":43.284161,"lon":5.349769,"is_reserved":false,"is_disabled":false,"rental_uris":{"android":"levelo://app?vid=663cd0c4-98d5-4647-8445-cbf0e9fbe390","ios":"levelo://app?vid=663cd0c4-98d5-4647-8445-cbf0e9fbe390"},"vehicle_type_id":"4","last_reported":1719058379,"current_range_meters":21200,"station_id":"ce4bhbh2rcd13ifvqepg","pricing_plan_id":"cebpf4jnsgd1na2vs0mg"},{"bike_id":"618c8864-e515-41f6-8312-16cc450e15ba","system_id":"levelo_inurba_marseille","lat":43.284217,"lon":5.349697,"is_reserved":false,"is_disabled":false,"rental_uris":{"android":"levelo://app?vid=618c8864-e515-41f6-8312-16cc450e15ba","ios":"levelo://app?vid=618c8864-e515-41f6-8312-16cc450e15ba"},"vehicle_type_id":"4","last_reported":1719058379,"current_range_meters":19600,"station_id":"ce4bhbh2rcd13ifvqepg","pricing_plan_id":"cebpf4jnsgd1na2vs0mg"},{"bike_id":"75796fe6-a887-46ed-a8c3-81bd57939fee","system_id":"levelo_inurba_marseille","lat":43.284145,"lon":5.349745,"is_reserved":false,"is_disabled":false,"rental_uris":{"android":"levelo://app?vid=75796fe6-a887-46ed-a8c3-81bd57939fee","ios":"levelo://app?vid=75796fe6-a887-46ed-a8c3-81bd57939fee"},"vehicle_type_id":"4","last_reported":1719058379,"current_range_meters":16000,"station_id":"ce4bhbh2rcd13ifvqepg","pricing_plan_id":"cebpf4jnsgd1na2vs0mg"},{"bike_id":"12efe1cd-227b-4ee3-a4b0-0a0630665809","system_id":"levelo_inurba_marseille","lat":43.284145,"lon":5.349745,"is_reserved":false,"is_disabled":false,"rental_uris":{"android":"levelo://app?vid=12efe1cd-227b-4ee3-a4b0-0a0630665809","ios":"levelo://app?vid=12efe1cd-227b-4ee3-a4b0-0a0630665809"},"vehicle_type_id":"4","last_reported":1719058379,"current_range_meters":29600,"station_id":"ce4bhbh2rcd13ifvqepg","pricing_plan_id":"cebpf4jnsgd1na2vs0mg"},{"bike_id":"4bab2c7b-9020-40f9-a78b-ec964503fedb","system_id":"levelo_inurba_marseille","lat":43.284154,"lon":5.34964,"is_reserved":false,"is_disabled":false,"rental_uris":{"android":"levelo://app?vid=4bab2c7b-9020-40f9-a78b-ec964503fedb","ios":"levelo://app?vid=4bab2c7b-9020-40f9-a78b-ec964503fedb"},"vehicle_type_id":"4","last_reported":1719058379,"current_range_meters":29200,"station_id":"ce4bhbh2rcd13ifvqepg","pricing_plan_id":"cebpf4jnsgd1na2vs0mg"},{"bike_id":"4f6561ab-51a8-4c31-b394-e57f95da1b26","system_id":"levelo_inurba_marseille","lat":43.283972,"lon":5.349877,"is_reserved":false,"is_disabled":false,"rental_uris":{"android":"levelo://app?vid=4f6561ab-51a8-4c31-b394-e57f95da1b26","ios":"levelo://app?vid=4f6561ab-51a8-4c31-b394-e57f95da1b26"},"vehicle_type_id":"4","last_reported":1719058379,"current_range_meters":26000,"station_id":"ce4bhbh2rcd13ifvqepg","pricing_plan_id":"cebpf4jnsgd1na2vs0mg"},{"bike_id":"583a6c92-a085-4b13-8246-70d42a450001","system_id":"levelo_inurba_marseille","lat":43.272124,"lon":5.391768,"is_reserved":false,"is_disabled":false,"rental_uris":{"android":"levelo://app?vid=583a6c92-a085-4b13-8246-70d42a450001","ios":"levelo://app?vid=583a6c92-a085-4b13-8246-70d42a450001"},"vehicle_type_id":"4","last_reported":1719058379,"current_range_meters":2000,"station_id":"ce4bhhp2rcd13ifvqfm0","pricing_plan_id":"cebpf4jnsgd1na2vs0mg"},{"bike_id":"eaff2020-fb3f-42ba-9787-7c3043df5415","system_id":"levelo_inurba_marseille","lat":43.28284,"lon":5.35074,"is_reserved":false,"is_disabled":false,"rental_uris":{"android":"levelo://app?vid=eaff2020-fb3f-42ba-9787-7c3043df5415","ios":"levelo://app?vid=eaff2020-fb3f-42ba-9787-7c3043df5415"},"vehicle_type_id":"4","last_reported":1719058379,"current_range_meters":25200,"station_id":"ce4bhbp2rcd13ifvqerg","pricing_plan_id":"cebpf4jnsgd1na2vs0mg"},{"bike_id":"a1f06911-e0d0-45ad-94f5-268e663530db","system_id":"levelo_inurba_marseille","lat":43.282754,"lon":5.350519,"is_reserved":false,"is_disabled":false,"rental_uris":{"android":"levelo://app?vid=a1f06911-e0d0-45ad-94f5-268e663530db","ios":"levelo://app?vid=a1f06911-e0d0-45ad-94f5-268e663530db"},"vehicle_type_id":"4","last_reported":1719058379,"current_range_meters":25600,"station_id":"ce4bhbp2rcd13ifvqerg","pricing_plan_id":"cebpf4jnsgd1na2vs0mg"},{"bike_id":"8cfdf3e0-0f6c-44e8-b8ab-c88afac2dd9b","system_id":"levelo_inurba_marseille","lat":43.28283,"lon":5.35071,"is_reserved":false,"is_disabled":false,"rental_uris":{"android":"levelo://app?vid=8cfdf3e0-0f6c-44e8-b8ab-c88afac2dd9b","ios":"levelo://app?vid=8cfdf3e0-0f6c-44e8-b8ab-c88afac2dd9b"},"vehicle_type_id":"4","last_reported":1719058379,"current_range_meters":8800,"station_id":"ce4bhbp2rcd13ifvqerg","pricing_plan_id":"cebpf4jnsgd1na2vs0mg"},{"bike_id":"01bd344f-9d2c-47a7-be48-d351d3a5fc24","system_id":"levelo_inurba_marseille","lat":43.28281,"lon":5.35069,"is_reserved":false,"is_disabled":false,"rental_uris":{"android":"levelo://app?vid=01bd344f-9d2c-47a7-be48-d351d3a5fc24","ios":"levelo://app?vid=01bd344f-9d2c-47a7-be48-d351d3a5fc24"},"vehicle_type_id":"4","last_reported":1719058379,"current_range_meters":17600,"station_id":"ce4bhbp2rcd13ifvqerg","pricing_plan_id":"cebpf4jnsgd1na2vs0mg"},{"bike_id":"1351961f-49a6-4d5f-afa0-984f45d8f278","system_id":"levelo_inurba_marseille","lat":43.282754,"lon":5.350519,"is_reserved":false,"is_disabled":false,"rental_uris":{"android":"levelo://app?vid=1351961f-49a6-4d5f-afa0-984f45d8f278","ios":"levelo://app?vid=1351961f-49a6-4d5f-afa0-984f45d8f278"},"vehicle_type_id":"4","last_reported":1719058379,"current_range_meters":24400,"station_id":"ce4bhbp2rcd13ifvqerg","pricing_plan_id":"cebpf4jnsgd1na2vs0mg"},