{"last_updated":1741612758,"ttl":60,"version":"2.2","data":{"bikes":[{"bike_id":"66af443d-0319-4f3e-9993-a607d955d37d","system_id":"levelo_inurba_marseille","lat":43.28425,"lon":5.3919,"is_reserved":false,"is_disabled":false,"rental_uris":{"android":"levelo://app?vid=66af443d-0319-4f3e-9993-a607d955d37d","ios":"levelo://app?vid=66af443d-0319-4f3e-9993-a607d955d37d"},"vehicle_type_id":"4","last_reported":1741612758,"current_range_meters":2800,"station_id":"ce4bhoh2rcd13ifvqh5g","pricing_plan_id":"cebpf4jnsgd1na2vs0mg"},{"bike_id":"646631ff-7e6d-40bf-9762-84865ceaa164","system_id":"levelo_inurba_marseille","lat":43.29418,"lon":5.38627,"is_reserved":false,"is_disabled":false,"rental_uris":{"android":"levelo://app?vid=646631ff-7e6d-40bf-9762-84865ceaa164","ios":"levelo://app?vid=646631ff-7e6d-40bf-9762-84865ceaa164"},"vehicle_type_id":"4","last_reported":1741612758,"current_range_meters":2800,"station_id":"ce4bh2h2rcd13ifvqdh0","pricing_plan_id":"cebpf4jnsgd1na2vs0mg"},{"bike_id":"f60bcd96-0607-4a02-8ed2-c8c5725de779","system_id":"levelo_inurba_marseille","lat":43.3134,"lon":5.36729,"is_reserved":false,"is_disabled":false,"rental_uris":{"android":"levelo://app?vid=f60bcd96-0607-4a02-8ed2-c8c5725de779","ios":"levelo://app?vid=f60bcd96-0607-4a02-8ed2-c8c5725de779"},"vehicle_type_id":"4","last_reported":1741612758,"current_range_meters":2800,"station_id":"ce4bgr92rcd13ifvqc6g","pricing_plan_id":"cebpf4jnsgd1na2vs0mg"},{"bike_id":"803f2b82-4bc0-4ae7-b369-d8002e96387a","system_id":"levelo_inurba_marseille","lat":43.32458,"lon":5.36574,"is_reserved":false,"is_disabled":false,"rental_uris":{"android":"levelo://app?vid=803f2b82-4bc0-4ae7-b369-d8002e96387a","ios":"levelo://app?vid=803f2b82-4bc0-4ae7-b369-d8002e96387a"},"vehicle_type_id":"4","last_reported":1741612758,"current_range_meters":2800,"station_id":"ce4bhs12rcd13ifvqhvg","pricing_plan_id":"cebpf4jnsgd1na2vs0mg"},{"bike_id":"c65eadb0-f446-4c42-bf77-be36779818d4","system_id":"levelo_inurba_marseille","lat":43.27049,"lon":5.40257,"is_reserved":false,"is_disabled":false,"rental_uris":{"android":"levelo://app?vid=c65eadb0-f446-4c42-bf77-be36779818d4","ios":"levelo://app?vid=c65eadb0-f446-4c42-bf77-be36779818d4"},"vehicle_type_id":"4","last_reported":1741612758,"current_range_meters":3200,"station_id":"ce4bhk92rcd13ifvqgc0","pricing_plan_id":"cebpf4jnsgd1na2vs0mg"},{"bike_id":"11952fa9-4481-402f-bf62-50cc2fb094b8","system_id":"levelo_inurba_marseille","lat":43.24546,"lon":5.39522,"is_reserved":false,"is_disabled":false,"rental_uris":{"android":"levelo://app?vid=11952fa9-4481-402f-bf62-50cc2fb094b8","ios":"levelo://app?vid=11952fa9-4481-402f-bf62-50cc2fb094b8"},"vehicle_type_id":"4","last_reported":1741612758,"current_range_meters":3600,"station_id":"ce4bhlp2rcd13ifvqgjg","pricing_plan_id":"cebpf4jnsgd1na2vs0mg"},{"bike_id":"76705a23-1633-43d3-91dc-4fcb2ffc83a4","system_id":"levelo_inurba_marseille","lat":43.2619,"lon":5.40434,"is_reserved":false,"is_disabled":false,"rental_uris":{"android":"levelo://app?vid=76705a23-1633-43d3-91dc-4fcb2ffc83a4","ios":"levelo://app?vid=76705a23-1633-43d3-91dc-4fcb2ffc83a4"},"vehicle_type_id":"4","last_reported":1741612758,"current_range_meters":3600,"station_id":"ce4bhmh2rcd13ifvqgmg","pricing_plan_id":"cebpf4jnsgd1na2vs0mg"},{"bike_id":"3f9e1242-99e1-49ac-a600-0dea17c18e07","system_id":"levelo_inurba_marseille","lat":43.29891,"lon":5.4364,"is_reserved":false,"is_disabled":false,"rental_uris":{"android":"levelo://app?vid=3f9e1242-99e1-49ac-a600-0dea17c18e07","ios":"levelo://app?vid=3f9e1242-99e1-49ac-a600-0dea17c18e07"},"vehicle_type_id":"4","last_reported":1741612758,"current_range_meters":4000,"station_id":"ce4bhpp2rcd13ifvqhfg","pricing_plan_id":"cebpf4jnsgd1na2vs0mg"},{"bike_id":"ffcc4f00-1eb3-421e-bb93-b3a9cf974501","system_id":"levelo_inurba_marseille","lat":43.29386,"lon":5.38628,"is_reserved":false,"is_disabled":false,"rental_uris":{"android":"levelo://app?vid=ffcc4f00-1eb3-421e-bb93-b3a9cf974501","ios":"levelo://app?vid=ffcc4f00-1eb3-421e-bb93-b3a9cf974501"},"vehicle_type_id":"4","last_reported":1741612758,"current_range_meters":4400,"station_id":"ce4bh2h2rcd13ifvqdh0","pricing_plan_id":"cebpf4jnsgd1na2vs0mg"},{"bike_id":"f92f6b8e-1287-4be6-af9f-141a38cbd20a","system_id":"levelo_inurba_marseille","lat":43.29606,"lon":5.38111,"is_reserved":false,"is_disabled":false,"rental_uris":{"android":"levelo://app?vid=f92f6b8e-1287-4be6-af9f-141a38cbd20a","ios":"levelo://app?vid=f92f6b8e-1287-4be6-af9f-141a38cbd20a"},"vehicle_type_id":"4","last_reported":1741612758,"current_range_meters":1200,"station_id":"ce4bgl12rcd13ifvqbo0","pricing_plan_id":"cebpf4jnsgd1na2vs0mg"},{"bike_id":"93b65028-e8a4-4c8f-876a-ae246ea8ac90","system_id":"levelo_inurba_marseille","lat":43.31355,"lon":5.38499,"is_reserved":false,"is_disabled":true,"rental_uris":{"android":"levelo://app?vid=93b65028-e8a4-4c8f-876a-ae246ea8ac90","ios":"levelo://app?vid=93b65028-e8a4-4c8f-876a-ae246ea8ac90"},"vehicle_type_id":"4","last_reported":1741612758,"current_range_meters":4800,"station_id":"ce4bgt92rcd13ifvqcf0","pricing_plan_id":"cebpf4jnsgd1na2vs0mg"},{"bike_id":"30ca0a12-56c0-4feb-9059-10680035a6ae","system_id":"levelo_inurba_marseille","lat":43.286934,"lon":5.374027,"is_reserved":false,"is_disabled":true,"rental_uris":{"android":"levelo://app?vid=30ca0a12-56c0-4feb-9059-10680035a6ae","ios":"levelo://app?vid=30ca0a12-56c0-4feb-9059-10680035a6ae"},"vehicle_type_id":"4","last_reported":1741612758,"current_range_meters":4800,"station_id":"ce4bh3p2rcd13ifvqdq0","pricing_plan_id":"cebpf4jnsgd1na2vs0mg"},{"bike_id":"be5ea6b1-5b93-486c-bc73-61a838896794","system_id":"levelo_inurba_marseille","lat":43.28943,"lon":5.36635,"is_reserved":false,"is_disabled":false,"rental_uris":{"android":"levelo://app?vid=be5ea6b1-5b93-486c-bc73-61a838896794","ios":"levelo://app?vid=be5ea6b1-5b93-486c-bc73-61a838896794"},"vehicle_type_id":"4","last_reported":1741612758,"current_range_meters":4400,"station_id":"ce4bhap2rcd13ifvqek0","pricing_plan_id":"cebpf4jnsgd1na2vs0mg"},{"bike_id":"c06ad801-423c-4a58-bb11-182336cebef0","system_id":"levelo_inurba_marseille","lat":43.2815,"lon":5.42633,"is_reserved":false,"is_disabled":false,"rental_uris":{"android":"levelo://app?vid=c06ad801-423c-4a58-bb11-182336cebef0","ios":"levelo://app?vid=c06ad801-423c-4a58-bb11-182336cebef0"},"vehicle_type_id":"4","last_reported":1741612758,"current_range_meters":4800,"station_id":"ce4bhnh2rcd13ifvqgug","pricing_plan_id":"cebpf4jnsgd1na2vs0mg"},{"bike_id":"4f3d774e-54f9-4cc2-849e-97ccb6d66600","system_id":"levelo_inurba_marseille","lat":43.26949,"lon":5.38919,"is_reserved":false,"is_disabled":false,"rental_uris":{"android":"levelo://app?vid=4f3d774e-54f9-4cc2-849e-97ccb6d66600","ios":"levelo://app?vid=4f3d774e-54f9-4cc2-849e-97ccb6d66600"},"vehicle_type_id":"4","last_reported":1741612758,"current_range_meters":4800,"station_id":"","pricing_plan_id":"cebpf4jnsgd1na2vs0mg"},{"bike_id":"19bbe8da-d7df-496e-a677-cbaab925cf5e","system_id":"levelo_inurba_marseille","lat":43.24885,"lon":5.42507,"is_reserved":false,"is_disabled":false,"rental_uris":{"android":"levelo://app?vid=19bbe8da-d7df-496e-a677-cbaab925cf5e","ios":"levelo://app?vid=19bbe8da-d7df-496e-a677-cbaab925cf5e"},"vehicle_type_id":"4","last_reported":1741612758,"current_range_meters":5600,"station_id":"","pricing_plan_id":"cebpf4jnsgd1na2vs0mg"},{"bike_id":"27c7acb0-b8c6-4e18-a710-79cad7856bf0","system_id":"levelo_inurba_marseille","lat":43.26226,"lon":5.40468,"is_reserved":false,"is_disabled":false,"rental_uris":{"android":"levelo://app?vid=27c7acb0-b8c6-4e18-a710-79cad7856bf0","ios":"levelo://app?vid=27c7acb0-b8c6-4e18-a710-79cad7856bf0"},"vehicle_type_id":"4","last_reported":1741612758,"current_range_meters":5600,"station_id":"ce4bhmh2rcd13ifvqgmg","pricing_plan_id":"cebpf4jnsgd1na2vs0mg"},{"bike_id":"0fb818e1-b0b3-4883-8925-5246737d8a77","system_id":"levelo_inurba_marseille","lat":43.33628,"lon":5.41068,"is_reserved":false,"is_disabled":false,"rental_uris":{"android":"levelo://app?vid=0fb818e1-b0b3-4883-8925-5246737d8a77","ios":"levelo://app?vid=0fb818e1-b0b3-4883-8925-5246737d8a77"},"vehicle_type_id":"4","last_reported":1741612758,"current_range_meters":5600,"station_id":"ce4bhqh2rcd13ifvqhmg","pricing_plan_id":"cebpf4jnsgd1na2vs0mg"},{"bike_id":"34b7f4e6-f5b1-4201-a426-7fc07d653e58","system_id":"levelo_inurba_marseille","lat":43.26929,"lon":5.38925,"is_reserved":false,"is_disabled":false,"rental_uris":{"android":"levelo://app?vid=34b7f4e6-f5b1-4201-a426-7fc07d653e58","ios":"levelo://app?vid=34b7f4e6-f5b1-4201-a426-7fc07d653e58"},"vehicle_type_id":"4","last_reported":1741612758,"current_range_meters":5600,"station_id":"ce4bhhh2rcd13ifvqfl0","pricing_plan_id":"cebpf4jnsgd1na2vs0mg"},{"bike_id":"23d1911b-c775-4261-b4ed-92fb793bb3dc","system_id":"levelo_inurba_marseille","lat":43.27941,"lon":5.41041,"is_reserved":false,"is_disabled":false,"rental_uris":{"android":"levelo://app?vid=23d1911b-c775-4261-b4ed-92fb793bb3dc","ios":"levelo://app?vid=23d1911b-c775-4261-b4ed-92fb793bb3dc"},"vehicle_type_id":"4","last_reported":1741612758,"current_range_meters":5600,"station_id":"ce4bhnp2rcd13ifvqh0g","pricing_plan_id":"cebpf4jnsgd1na2vs0mg"},{"bike_id":"2807e015-88f7-449d-bf81-c0a567edf90e","system_id":"levelo_inurba_marseille","lat":43.28896,"lon":5.36418,"is_reserved":false,"is_disabled":false,"rental_uris":{"android":"levelo://app?vid=2807e015-88f7-449d-bf81-c0a567edf90e","ios":"levelo://app?vid=2807e015-88f7-449d-bf81-c0a567edf90e"},"vehicle_type_id":"4","last_reported":1741612758,"current_range_meters":6000,"station_id":"ce4bhc92rcd13ifvqetg","pricing_plan_id":"cebpf4jnsgd1na2vs0mg"},{"bike_id":"3dbf35f9-7482-4fc5-9e39-6d1390c79029","system_id":"levelo_inurba_marseille","lat":43.2407,"lon":5.3776,"is_reserved":false,"is_disabled":false,"rental_uris":{"android":"levelo://app?vid=3dbf35f9-7482-4fc5-9e39-6d1390c79029","ios":"levelo://app?vid=3dbf35f9-7482-4fc5-9e39-6d1390c79029"},"vehicle_type_id":"4","last_reported":1741612758,"current_range_meters":6000,"station_id":"ce4bhnp2rcd13ifvqgvg","pricing_plan_id":"cebpf4jnsgd1na2vs0mg"},{"bike_id":"8d1045c7-910e-4669-ad6c-3b72ff0c9caf","system_id":"levelo_inurba_marseille","lat":43.33716,"lon":5.39189,"is_reserved":false,"is_disabled":false,"rental_uris":{"android":"levelo://app?vid=8d1045c7-910e-4669-ad6c-3b72ff0c9caf","ios":"levelo://app?vid=8d1045c7-910e-4669-ad6c-3b72ff0c9caf"},"vehicle_type_id":"4","last_reported":1741612758,"current_range_meters":6000,"station_id":"ce4bhr92rcd13ifvqhsg","pricing_plan_id":"cebpf4jnsgd1na2vs0mg"},{"bike_id":"50530689-b3a7-45ef-b5a5-30326b2d0b5c","system_id":"levelo_inurba_marseille","lat":43.25082,"lon":5.39515,"is_reserved":false,"is_disabled":false,"rental_uris":{"android":"levelo://app?vid=50530689-b3a7-45ef-b5a5-30326b2d0b5c","ios":"levelo://app?vid=50530689-b3a7-45ef-b5a5-30326b2d0b5c"},"vehicle_type_id":"4","last_reported":1741612758,"current_range_meters":6000,"station_id":"ce4bhm12rcd13ifvqgkg","pricing_plan_id":"cebpf4jnsgd1na2vs0mg"},{"bike_id":"4f4a352e-9340-4de2-838c-2ce894fbea93","system_id":"levelo_inurba_marseille","lat":43.33022,"lon":5.43859,"is_reserved":false,"is_disabled":true,"rental_uris":{"android":"levelo://app?vid=4f4a352e-9340-4de2-838c-2ce894fbea93","ios":"levelo://app?vid=4f4a352e-9340-4de2-838c-2ce894fbea93"},"vehicle_type_id":"4","last_reported":1741612758,"current_range_meters":6400,"station_id":"","pricing_plan_id":"cebpf4jnsgd1na2vs0mg"},{"bike_id":"1c427250-17e1-4518-bc21-dadd7d9ed0b9","system_id":"levelo_inurba_marseille","lat":43.23966,"lon":5.36616,"is_reserved":false,"is_disabled":false,"rental_uris":{"android":"levelo://app?vid=1c427250-17e1-4518-bc21-dadd7d9ed0b9","ios":"levelo://app?vid=1c427250-17e1-4518-bc21-dadd7d9ed0b9"},"vehicle_type_id":"4","last_reported":1741612758,"current_range_meters":6400,"station_id":"ce4bhi12rcd13ifvqfp0","pricing_plan_id":"cebpf4jnsgd1na2vs0mg"},{"bike_id":"ac2efbb8-87f5-4e67-91b6-6982ed970754","system_id":"levelo_inurba_marseille","lat":43.251074,"lon":5.403204,"is_reserved":false,"is_disabled":false,"rental_uris":{"android":"levelo://app?vid=ac2efbb8-87f5-4e67-91b6-6982ed970754","ios":"levelo://app?vid=ac2efbb8-87f5-4e67-91b6-6982ed970754"},"vehicle_type_id":"4","last_reported":1741612758,"current_range_meters":6400,"station_id":"ce4bhlh2rcd13ifvqgig","pricing_plan_id":"cebpf4jnsgd1na2vs0mg"},{"bike_id":"29b82548-d416-4900-9874-14422b78b248","system_id":"levelo_inurba_marseille","lat":43.336081,"lon":5.410121,"is_reserved":false,"is_disabled":false,"rental_uris":{"android":"levelo://app?vid=29b82548-d416-4900-9874-14422b78b248","ios":"levelo://app?vid=29b82548-d416-4900-9874-14422b78b248"},"vehicle_type_id":"4","last_reported":1741612758,"current_range_meters":6800,"station_id":"ce4bhqh2rcd13ifvqhmg","pricing_plan_id":"cebpf4jnsgd1na2vs0mg"},{"bike_id":"af2bddca-48ce-444f-8066-f0b22160d6d0","system_id":"levelo_inurba_marseille","lat":43.24073,"lon":5.3776,"is_reserved":false,"is_disabled":false,"rental_uris":{"android":"levelo://app?vid=af2bddca-48ce-444f-8066-f0b22160d6d0","ios":"levelo://app?vid=af2bddca-48ce-444f-8066-f0b22160d6d0"},"vehicle_type_id":"4","last_reported":1741612758,"current_range_meters":6800,"station_id":"ce4bhnp2rcd13ifvqgvg","pricing_plan_id":"cebpf4jnsgd1na2vs0mg"},{"bike_id":"4711a0d3-184b-4ba2-86aa-fea8964a4a5c","system_id":"levelo_inurba_marseille","lat":43.31081,"lon":5.42439,"is_reserved":false,"is_disabled":false,"rental_uris":{"android":"levelo://app?vid=4711a0d3-184b-4ba2-86aa-fea8964a4a5c","ios":"levelo://app?vid=4711a0d3-184b-4ba2-86aa-fea8964a4a5c"},"vehicle_type_id":"4","last_reported":1741612758,"current_range_meters":6800,"station_id":"ce4bhp92rcd13ifvqhag","pricing_plan_id":"cebpf4jnsgd1na2vs0mg"},{"bike_id":"57ec7e96-dfc6-4ab9-b63d-eca0f741892b","system_id":"levelo_inurba_marseille","lat":43.250014,"lon":5.389241,"is_reserved":false,"is_disabled":false,"rental_uris":{"android":"levelo://app?vid=57ec7e96-dfc6-4ab9-b63d-eca0f741892b","ios":"levelo://app?vid=57ec7e96-dfc6-4ab9-b63d-eca0f741892b"},"vehicle_type_id":"4","last_reported":1741612758,"current_range_meters":6800,"station_id":"ce4bhgp2rcd13ifvqfd0","pricing_plan_id":"cebpf4jnsgd1na2vs0mg"},{"bike_id":"02c4b51e-bf67-49cc-ac4b-b69224d23002","system_id":"levelo_inurba_marseille","lat":43.33607,"lon":5.41036,"is_reserved":false,"is_disabled":false,"rental_uris":{"android":"levelo://app?vid=02c4b51e-bf67-49cc-ac4b-b69224d23002","ios":"levelo://app?vid=02c4b51e-bf67-49cc-ac4b-b69224d23002"},"vehicle_type_id":"4","last_reported":1741612758,"current_range_meters":6800,"station_id":"ce4bhqh2rcd13ifvqhmg","pricing_plan_id":"cebpf4jnsgd1na2vs0mg"},{"bike_id":"05a471dd-7e4d-44a6-9116-709bf72ec62b","system_id":"levelo_inurba_marseille","lat":43.33228,"lon":5.39892,"is_reserved":false,"is_disabled":false,"rental_uris":{"android":"levelo://app?vid=05a471dd-7e4d-44a6-9116-709bf72ec62b","ios":"levelo://app?vid=05a471dd-7e4d-44a6-9116-709bf72ec62b"},"vehicle_type_id":"4","last_reported":1741612758,"current_range_meters":7200,"station_id":"","pricing_plan_id":"cebpf4jnsgd1na2vs0mg"},{"bike_id":"06b83c8d-85b6-4af0-a9a7-21aea6b37ed6","system_id":"levelo_inurba_marseille","lat":43.27375,"lon":5.36257,"is_reserved":false,"is_disabled":false,"rental_uris":{"android":"levelo://app?vid=06b83c8d-85b6-4af0-a9a7-21aea6b37ed6","ios":"levelo://app?vid=06b83c8d-85b6-4af0-a9a7-21aea6b37ed6"},"vehicle_type_id":"4","last_reported":1741612758,"current_range_meters":7200,"station_id":"ce4bhbh2rcd13ifvqeo0","pricing_plan_id":"cebpf4jnsgd1na2vs0mg"},{"bike_id":"04b2500a-4882-4fae-8908-dff012340e2d","system_id":"levelo_inurba_marseille","lat":43.26922,"lon":5.38926,"is_reserved":false,"is_disabled":false,"rental_uris":{"android":"levelo://app?vid=04b2500a-4882-4fae-8908-dff012340e2d","ios":"levelo://app?vid=04b2500a-4882-4fae-8908-dff012340e2d"},"vehicle_type_id":"4","last_reported":1741612758,"current_range_meters":8000,"station_id":"ce4bhhh2rcd13ifvqfl0","pricing_plan_id":"cebpf4jnsgd1na2vs0mg"},{"bike_id":"c54db175-70d1-4cb2-ab2e-eb2fe97ede5f","system_id":"levelo_inurba_marseille","lat":43.29167,"lon":5.37145,"is_reserved":false,"is_disabled":false,"rental_uris":{"android":"levelo://app?vid=c54db175-70d1-4cb2-ab2e-eb2fe97ede5f","ios":"levelo://app?vid=c54db175-70d1-4cb2-ab2e-eb2fe97ede5f"},"vehicle_type_id":"4","last_reported":1741612758,"current_range_meters":8000,"station_id":"ce4bha92rcd13ifvqeh0","pricing_plan_id":"cebpf4jnsgd1na2vs0mg"},{"bike_id":"67fc845a-4e54-4c1c-8b59-aae9c41867a4","system_id":"levelo_inurba_marseille","lat":43.2707,"lon":5.42268,"is_reserved":false,"is_disabled":false,"rental_uris":{"android":"levelo://app?vid=67fc845a-4e54-4c1c-8b59-aae9c41867a4","ios":"levelo://app?vid=67fc845a-4e54-4c1c-8b59-aae9c41867a4"},"vehicle_type_id":"4","last_reported":1741612758,"current_range_meters":8000,"station_id":"ce4bhk92rcd13ifvqgb0","pricing_plan_id":"cebpf4jnsgd1na2vs0mg"},{"bike_id":"5d44eec5-0f76-4d9d-87c9-f425c19e364b","system_id":"levelo_inurba_marseille","lat":43.25083,"lon":5.39524,"is_reserved":false,"is_disabled":false,"rental_uris":{"android":"levelo://app?vid=5d44eec5-0f76-4d9d-87c9-f425c19e364b","ios":"levelo://app?vid=5d44eec5-0f76-4d9d-87c9-f425c19e364b"},"vehicle_type_id":"4","last_reported":1741612758,"current_range_meters":8000,"station_id":"ce4bhm12rcd13ifvqgkg","pricing_plan_id":"cebpf4jnsgd1na2vs0mg"},{"bike_id":"fdf2c30b-eb63-48a8-a3bf-60abc6109f1a","system_id":"levelo_inurba_marseille","lat":43.25724,"lon":5.41106,"is_reserved":false,"is_disabled":true,"rental_uris":{"android":"levelo://app?vid=fdf2c30b-eb63-48a8-a3bf-60abc6109f1a","ios":"levelo://app?vid=fdf2c30b-eb63-48a8-a3bf-60abc6109f1a"},"vehicle_type_id":"4","last_reported":1741612758,"current_range_meters":8000,"station_id":"ce4bhkp2rcd13ifvqgd0","pricing_plan_id":"cebpf4jnsgd1na2vs0mg"},{"bike_id":"cd51d82d-7247-4aac-84fc-a2391c3945a0","system_id":"levelo_inurba_marseille","lat":43.26499,"lon":5.39533,"is_reserved":false,"is_disabled":false,"rental_uris":{"android":"levelo://app?vid=cd51d82d-7247-4aac-84fc-a2391c3945a0","ios":"levelo://app?vid=cd51d82d-7247-4aac-84fc-a2391c3945a0"},"vehicle_type_id":"4","last_reported":1741612758,"current_range_meters":8000,"station_id":"ce4bhi12rcd13ifvqfq0","pricing_plan_id":"cebpf4jnsgd1na2vs0mg"},{"bike_id":"6d30fa00-fa73-4a2d-aac6-368b08cd61f0","system_id":"levelo_inurba_marseille","lat":43.3118,"lon":5.37916,"is_reserved":false,"is_disabled":false,"rental_uris":{"android":"levelo://app?vid=6d30fa00-fa73-4a2d-aac6-368b08cd61f0","ios":"levelo://app?vid=6d30fa00-fa73-4a2d-aac6-368b08cd61f0"},"vehicle_type_id":"4","last_reported":1741612758,"current_range_meters":8000,"station_id":"","pricing_plan_id":"cebpf4jnsgd1na2vs0mg"},{"bike_id":"f5d27d01-effc-4a0c-b4ac-2b42b750aca5","system_id":"levelo_inurba_marseille","lat":43.24554,"lon":5.39524,"is_reserved":false,"is_disabled":false,"rental_uris":{"android":"levelo://app?vid=f5d27d01-effc-4a0c-b4ac-2b42b750aca5","ios":"levelo://app?vid=f5d27d01-effc-4a0c-b4ac-2b42b750aca5"},"vehicle_type_id":"4","last_reported":1741612758,"current_range_meters":8000,"station_id":"ce4bhlp2rcd13ifvqgjg","pricing_plan_id":"cebpf4jnsgd1na2vs0mg"},{"bike_id":"a33ff287-61ba-4c62-8253-cbd9b33a13c6","system_id":"levelo_inurba_marseille","lat":43.24052,"lon":5.37731,"is_reserved":false,"is_disabled":true,"rental_uris":{"android":"levelo://app?vid=a33ff287-61ba-4c62-8253-cbd9b33a13c6","ios":"levelo://app?vid=a33ff287-61ba-4c62-8253-cbd9b33a13c6"},"vehicle_type_id":"4","last_reported":1741612758,"current_range_meters":8400,"station_id":"ce4bhnp2rcd13ifvqgvg","pricing_plan_id":"cebpf4jnsgd1na2vs0mg"},{"bike_id":"7f08542c-3622-4bee-8852-d0974c0ec085","system_id":"levelo_inurba_marseille","lat":43.24144,"lon":5.36342,"is_reserved":false,"is_disabled":false,"rental_uris":{"android":"levelo://app?vid=7f08542c-3622-4bee-8852-d0974c0ec085","ios":"levelo://app?vid=7f08542c-3622-4bee-8852-d0974c0ec085"},"vehicle_type_id":"4","last_reported":1741612758,"current_range_meters":8400,"station_id":"cpo36qri1sfpv3e86is0","pricing_plan_id":"cebpf4jnsgd1na2vs0mg"},{"bike_id":"65b2b67f-a719-48aa-8114-4e55c3c4e366","system_id":"levelo_inurba_marseille","lat":43.28748,"lon":5.37926,"is_reserved":false,"is_disabled":false,"rental_uris":{"android":"levelo://app?vid=65b2b67f-a719-48aa-8114-4e55c3c4e366","ios":"levelo://app?vid=65b2b67f-a719-48aa-8114-4e55c3c4e366"},"vehicle_type_id":"4","last_reported":1741612758,"current_range_meters":8400,"station_id":"ce4bh9p2rcd13ifvqec0","pricing_plan_id":"cebpf4jnsgd1na2vs0mg"},{"bike_id":"527aa410-ea26-42cd-a1e2-d495bc4b19d0","system_id":"levelo_inurba_marseille","lat":43.31361,"lon":5.36731,"is_reserved":false,"is_disabled":false,"rental_uris":{"android":"levelo://app?vid=527aa410-ea26-42cd-a1e2-d495bc4b19d0","ios":"levelo://app?vid=527aa410-ea26-42cd-a1e2-d495bc4b19d0"},"vehicle_type_id":"4","last_reported":1741612758,"current_range_meters":8400,"station_id":"ce4bgr92rcd13ifvqc6g","pricing_plan_id":"cebpf4jnsgd1na2vs0mg"},{"bike_id":"87c40d47-5266-4f6a-9a89-01987f8bf62c","system_id":"levelo_inurba_marseille","lat":43.26224,"lon":5.40433,"is_reserved":false,"is_disabled":false,"rental_uris":{"android":"levelo://app?vid=87c40d47-5266-4f6a-9a89-01987f8bf62c","ios":"levelo://app?vid=87c40d47-5266-4f6a-9a89-01987f8bf62c"},"vehicle_type_id":"4","last_reported":1741612758,"current_range_meters":8400,"station_id":"ce4bhmh2rcd13ifvqgmg","pricing_plan_id":"cebpf4jnsgd1na2vs0mg"},{"bike_id":"6c118db3-edd7-476d-8a0c-48c89e8cc106","system_id":"levelo_inurba_marseille","lat":43.34153,"lon":5.40901,"is_reserved":false,"is_disabled":false,"rental_uris":{"android":"levelo://app?vid=6c118db3-edd7-476d-8a0c-48c89e8cc106","ios":"levelo://app?vid=6c118db3-edd7-476d-8a0c-48c89e8cc106"},"vehicle_type_id":"4","last_reported":1741612758,"current_range_meters":8400,"station_id":"ce4bhqh2rcd13ifvqhlg","pricing_plan_id":"cebpf4jnsgd1na2vs0mg"},{"bike_id":"ebb2d58b-982f-41cd-b65c-668035c69ec1","system_id":"levelo_inurba_marseille","lat":43.304893,"lon":5.371559,"is_reserved":false,"is_disabled":false,"rental_uris":{"android":"levelo://app?vid=ebb2d58b-982f-41cd-b65c-668035c69ec1","ios":"levelo://app?vid=ebb2d58b-982f-41cd-b65c-668035c69ec1"},"vehicle_type_id":"4","last_reported":1741612758,"current_range_meters":8400,"station_id":"","pricing_plan_id":"cebpf4jnsgd1na2vs0mg"},{"bike_id":"dff46c56-4d93-41bc-8468-a48e8097d9cb","system_id":"levelo_inurba_marseille","lat":43.24178,"lon":5.39727,"is_reserved":false,"is_disabled":false,"rental_uris":{"android":"levelo://app?vid=dff46c56-4d93-41bc-8468-a48e8097d9cb","ios":"levelo://app?vid=dff46c56-4d93-41bc-8468-a48e8097d9cb"},"vehicle_type_id":"4","last_reported":1741612758,"current_range_meters":8400,"station_id":"ce4bhn12rcd13ifvqgpg","pricing_plan_id":"cebpf4jnsgd1na2vs0mg"},{"bike_id":"61193e8a-8e60-4220-8577-846bbeba5e58","system_id":"levelo_inurba_marseille","lat":43.31396,"lon":5.38614,"is_reserved":false,"is_disabled":false,"rental_uris":{"android":"levelo://app?vid=61193e8a-8e60-4220-8577-846bbeba5e58","ios":"levelo://app?vid=61193e8a-8e60-4220-8577-846bbeba5e58"},"vehicle_type_id":"4","last_reported":1741612758,"current_range_meters":8400,"station_id":"","pricing_plan_id":"cebpf4jnsgd1na2vs0mg"},{"bike_id":"11f35fc8-bf5a-42db-8ee3-67d16f82ad59","system_id":"levelo_inurba_marseille","lat":43.2408,"lon":5.37728,"is_reserved":false,"is_disabled":false,"rental_uris":{"android":"levelo://app?vid=11f35fc8-bf5a-42db-8ee3-67d16f82ad59","ios":"levelo://app?vid=11f35fc8-bf5a-42db-8ee3-67d16f82ad59"},"vehicle_type_id":"4","last_reported":1741612758,"current_range_meters":8800,"station_id":"ce4bhnp2rcd13ifvqgvg","pricing_plan_id":"cebpf4jnsgd1na2vs0mg"},{"bike_id":"089fa96c-06f0-4a31-aa59-e3a83d994d6c","system_id":"levelo_inurba_marseille","lat":43.281533,"lon":5.426377,"is_reserved":false,"is_disabled":false,"rental_uris":{"android":"levelo://app?vid=089fa96c-06f0-4a31-aa59-e3a83d994d6c","ios":"levelo://app?vid=089fa96c-06f0-4a31-aa59-e3a83d994d6c"},"vehicle_type_id":"4","last_reported":1741612758,"current_range_meters":8800,"station_id":"ce4bhnh2rcd13ifvqgug","pricing_plan_id":"cebpf4jnsgd1na2vs0mg"},{"bike_id":"60f4da96-da64-488c-98f7-c9a61709620a","system_id":"levelo_inurba_marseille","lat":43.25573,"lon":5.38244,"is_reserved":false,"is_disabled":false,"rental_uris":{"android":"levelo://app?vid=60f4da96-da64-488c-98f7-c9a61709620a","ios":"levelo://app?vid=60f4da96-da64-488c-98f7-c9a61709620a"},"vehicle_type_id":"4","last_reported":1741612758,"current_range_meters":8800,"station_id":"ce4bhih2rcd13ifvqfs0","pricing_plan_id":"cebpf4jnsgd1na2vs0mg"},{"bike_id":"c528ac76-1f15-4207-8438-1a21104a978d","system_id":"levelo_inurba_marseille","lat":43.24992,"lon":5.38956,"is_reserved":false,"is_disabled":false,"rental_uris":{"android":"levelo://app?vid=c528ac76-1f15-4207-8438-1a21104a978d","ios":"levelo://app?vid=c528ac76-1f15-4207-8438-1a21104a978d"},"vehicle_type_id":"4","last_reported":1741612758,"current_range_meters":8800,"station_id":"ce4bhgp2rcd13ifvqfd0","pricing_plan_id":"cebpf4jnsgd1na2vs0mg"},{"bike_id":"6c21de3e-4e93-4353-a6b4-34417a57ca50","system_id":"levelo_inurba_marseille","lat":43.28698,"lon":5.3739,"is_reserved":false,"is_disabled":false,"rental_uris":{"android":"levelo://app?vid=6c21de3e-4e93-4353-a6b4-34417a57ca50","ios":"levelo://app?vid=6c21de3e-4e93-4353-a6b4-34417a57ca50"},"vehicle_type_id":"4","last_reported":1741612758,"current_range_meters":8800,"station_id":"ce4bh3p2rcd13ifvqdq0","pricing_plan_id":"cebpf4jnsgd1na2vs0mg"},{"bike_id":"5dce6af9-f008-4be0-af34-1bd092c17dbb","system_id":"levelo_inurba_marseille","lat":43.29858,"lon":5.37979,"is_reserved":false,"is_disabled":false,"rental_uris":{"android":"levelo://app?vid=5dce6af9-f008-4be0-af34-1bd092c17dbb","ios":"levelo://app?vid=5dce6af9-f008-4be0-af34-1bd092c17dbb"},"vehicle_type_id":"4","last_reported":1741612758,"current_range_meters":9600,"station_id":"","pricing_plan_id":"cebpf4jnsgd1na2vs0mg"},{"bike_id":"88cd0832-44e6-4f03-aea6-1d150936b64d","system_id":"levelo_inurba_marseille","lat":43.30302,"lon":5.39209,"is_reserved":false,"is_disabled":false,"rental_uris":{"android":"levelo://app?vid=88cd0832-44e6-4f03-aea6-1d150936b64d","ios":"levelo://app?vid=88cd0832-44e6-4f03-aea6-1d150936b64d"},"vehicle_type_id":"4","last_reported":1741612758,"current_range_meters":9200,"station_id":"ce4bgkh2rcd13ifvqbk0","pricing_plan_id":"cebpf4jnsgd1na2vs0mg"},{"bike_id":"38098bdb-4e5d-4784-a7f5-cb533339c85c","system_id":"levelo_inurba_marseille","lat":43.29596,"lon":5.38079,"is_reserved":false,"is_disabled":true,"rental_uris":{"android":"levelo://app?vid=38098bdb-4e5d-4784-a7f5-cb533339c85c","ios":"levelo://app?vid=38098bdb-4e5d-4784-a7f5-cb533339c85c"},"vehicle_type_id":"4","last_reported":1741612758,"current_range_meters":9600,"station_id":"ce4bgl12rcd13ifvqbo0","pricing_plan_id":"cebpf4jnsgd1na2vs0mg"},{"bike_id":"2cc3342e-6c2f-4db0-8fb3-c4bec075a655","system_id":"levelo_inurba_marseille","lat":43.313934,"lon":5.37418,"is_reserved":false,"is_disabled":false,"rental_uris":{"android":"levelo://app?vid=2cc3342e-6c2f-4db0-8fb3-c4bec075a655","ios":"levelo://app?vid=2cc3342e-6c2f-4db0-8fb3-c4bec075a655"},"vehicle_type_id":"4","last_reported":1741612758,"current_range_meters":9200,"station_id":"ce4bgt12rcd13ifvqcd0","pricing_plan_id":"cebpf4jnsgd1na2vs0mg"},{"bike_id":"58f1bd74-b56c-42a1-939a-a0a436ab2fab","system_id":"levelo_inurba_marseille","lat":43.27946,"lon":5.4105,"is_reserved":false,"is_disabled":false,"rental_uris":{"android":"levelo://app?vid=58f1bd74-b56c-42a1-939a-a0a436ab2fab","ios":"levelo://app?vid=58f1bd74-b56c-42a1-939a-a0a436ab2fab"},"vehicle_type_id":"4","last_reported":1741612758,"current_range_meters":9200,"station_id":"ce4bhnp2rcd13ifvqh0g","pricing_plan_id":"cebpf4jnsgd1na2vs0mg"},{"bike_id":"565245af-1098-4207-83d1-fdf36ab786b5","system_id":"levelo_inurba_marseille","lat":43.2808,"lon":5.44194,"is_reserved":false,"is_disabled":true,"rental_uris":{"android":"levelo://app?vid=565245af-1098-4207-83d1-fdf36ab786b5","ios":"levelo://app?vid=565245af-1098-4207-83d1-fdf36ab786b5"},"vehicle_type_id":"4","last_reported":1741612758,"current_range_meters":9200,"station_id":"","pricing_plan_id":"cebpf4jnsgd1na2vs0mg"},{"bike_id":"1f72adc6-3d1a-4fad-a905-cb9dcd596e26","system_id":"levelo_inurba_marseille","lat":43.23837,"lon":5.43573,"is_reserved":false,"is_disabled":false,"rental_uris":{"android":"levelo://app?vid=1f72adc6-3d1a-4fad-a905-cb9dcd596e26","ios":"levelo://app?vid=1f72adc6-3d1a-4fad-a905-cb9dcd596e26"},"vehicle_type_id":"4","last_reported":1741612758,"current_range_meters":9200,"station_id":"","pricing_plan_id":"cebpf4jnsgd1na2vs0mg"},{"bike_id":"3ed0c8ba-c7f7-40d8-9403-a3f96d6af6b9","system_id":"levelo_inurba_marseille","lat":43.3236,"lon":5.36749,"is_reserved":false,"is_disabled":false,"rental_uris":{"android":"levelo://app?vid=3ed0c8ba-c7f7-40d8-9403-a3f96d6af6b9","ios":"levelo://app?vid=3ed0c8ba-c7f7-40d8-9403-a3f96d6af6b9"},"vehicle_type_id":"4","last_reported":1741612758,"current_range_meters":9200,"station_id":"ce4bhsh2rcd13ifvqi2g","pricing_plan_id":"cebpf4jnsgd1na2vs0mg"},{"bike_id":"98de571b-b137-41e1-a957-f1f43c068d6a","system_id":"levelo_inurba_marseille","lat":43.32482,"lon":5.36556,"is_reserved":false,"is_disabled":false,"rental_uris":{"android":"levelo://app?vid=98de571b-b137-41e1-a957-f1f43c068d6a","ios":"levelo://app?vid=98de571b-b137-41e1-a957-f1f43c068d6a"},"vehicle_type_id":"4","last_reported":1741612758,"current_range_meters":9600,"station_id":"ce4bhs12rcd13ifvqhvg","pricing_plan_id":"cebpf4jnsgd1na2vs0mg"},{"bike_id":"422634bf-36c3-465f-ba26-72dfc06f1da7","system_id":"levelo_inurba_marseille","lat":43.28849,"lon":5.39302,"is_reserved":false,"is_disabled":false,"rental_uris":{"android":"levelo://app?vid=422634bf-36c3-465f-ba26-72dfc06f1da7","ios":"levelo://app?vid=422634bf-36c3-465f-ba26-72dfc06f1da7"},"vehicle_type_id":"4","last_reported":1741612758,"current_range_meters":9600,"station_id":"ce4bh2p2rcd13ifvqdi0","pricing_plan_id":"cebpf4jnsgd1na2vs0mg"},{"bike_id":"ef6303de-f84a-4b1f-9060-2a8d28e015bb","system_id":"levelo_inurba_marseille","lat":43.24085,"lon":5.37753,"is_reserved":false,"is_disabled":false,"rental_uris":{"android":"levelo://app?vid=ef6303de-f84a-4b1f-9060-2a8d28e015bb","ios":"levelo://app?vid=ef6303de-f84a-4b1f-9060-2a8d28e015bb"},"vehicle_type_id":"4","last_reported":1741612758,"current_range_meters":9600,"station_id":"ce4bhnp2rcd13ifvqgvg","pricing_plan_id":"cebpf4jnsgd1na2vs0mg"},{"bike_id":"199cb7b2-857a-4db4-b08b-30cc2dc0c4f3","system_id":"levelo_inurba_marseille","lat":43.31714,"lon":5.43702,"is_reserved":false,"is_disabled":false,"rental_uris":{"android":"levelo://app?vid=199cb7b2-857a-4db4-b08b-30cc2dc0c4f3","ios":"levelo://app?vid=199cb7b2-857a-4db4-b08b-30cc2dc0c4f3"},"vehicle_type_id":"4","last_reported":1741612758,"current_range_meters":9600,"station_id":"ce4bhp92rcd13ifvqhcg","pricing_plan_id":"cebpf4jnsgd1na2vs0mg"},{"bike_id":"b0d7953b-0778-40fa-b0b7-b20a9d173ee7","system_id":"levelo_inurba_marseille","lat":43.30539,"lon":5.36551,"is_reserved":false,"is_disabled":false,"rental_uris":{"android":"levelo://app?vid=b0d7953b-0778-40fa-b0b7-b20a9d173ee7","ios":"levelo://app?vid=b0d7953b-0778-40fa-b0b7-b20a9d173ee7"},"vehicle_type_id":"4","last_reported":1741612758,"current_range_meters":9600,"station_id":"ce4bgs12rcd13ifvqcag","pricing_plan_id":"cebpf4jnsgd1na2vs0mg"},{"bike_id":"547f89bc-338b-412e-a1d6-3c5020e3f414","system_id":"levelo_inurba_marseille","lat":43.27325,"lon":5.39105,"is_reserved":false,"is_disabled":false,"rental_uris":{"android":"levelo://app?vid=547f89bc-338b-412e-a1d6-3c5020e3f414","ios":"levelo://app?vid=547f89bc-338b-412e-a1d6-3c5020e3f414"},"vehicle_type_id":"4","last_reported":1741612758,"current_range_meters":9600,"station_id":"ce4bhgp2rcd13ifvqfe0","pricing_plan_id":"cebpf4jnsgd1na2vs0mg"},{"bike_id":"437de0ca-4a8e-4b8f-8bc2-4082d585388f","system_id":"levelo_inurba_marseille","lat":43.31702,"lon":5.40473,"is_reserved":false,"is_disabled":false,"rental_uris":{"android":"levelo://app?vid=437de0ca-4a8e-4b8f-8bc2-4082d585388f","ios":"levelo://app?vid=437de0ca-4a8e-4b8f-8bc2-4082d585388f"},"vehicle_type_id":"4","last_reported":1741612758,"current_range_meters":9600,"station_id":"ce4bh012rcd13ifvqd00","pricing_plan_id":"cebpf4jnsgd1na2vs0mg"},{"bike_id":"9e71c5d6-019b-44ce-a688-a96e716473ec","system_id":"levelo_inurba_marseille","lat":43.32095,"lon":5.36865,"is_reserved":false,"is_disabled":false,"rental_uris":{"android":"levelo://app?vid=9e71c5d6-019b-44ce-a688-a96e716473ec","ios":"levelo://app?vid=9e71c5d6-019b-44ce-a688-a96e716473ec"},"vehicle_type_id":"4","last_reported":1741612758,"current_range_meters":9600,"station_id":"","pricing_plan_id":"cebpf4jnsgd1na2vs0mg"},{"bike_id":"a37d42aa-085d-4a56-8e08-eaf93bfe5e2b","system_id":"levelo_inurba_marseille","lat":43.31195,"lon":5.38724,"is_reserved":false,"is_disabled":true,"rental_uris":{"android":"levelo://app?vid=a37d42aa-085d-4a56-8e08-eaf93bfe5e2b","ios":"levelo://app?vid=a37d42aa-085d-4a56-8e08-eaf93bfe5e2b"},"vehicle_type_id":"4","last_reported":1741612758,"current_range_meters":9600,"station_id":"ce4bgv12rcd13ifvqcp0","pricing_plan_id":"cebpf4jnsgd1na2vs0mg"},{"bike_id":"b810bfc0-7072-4e0d-b226-90a4bd831653","system_id":"levelo_inurba_marseille","lat":43.240164,"lon":5.366177,"is_reserved":false,"is_disabled":false,"rental_uris":{"android":"levelo://app?vid=b810bfc0-7072-4e0d-b226-90a4bd831653","ios":"levelo://app?vid=b810bfc0-7072-4e0d-b226-90a4bd831653"},"vehicle_type_id":"4","last_reported":1741612758,"current_range_meters":10000,"station_id":"ce4bh512rcd13ifvqe3g","pricing_plan_id":"cebpf4jnsgd1na2vs0mg"},{"bike_id":"11f474ed-c1ba-4b2e-8789-02255da99314","system_id":"levelo_inurba_marseille","lat":43.3248,"lon":5.36562,"is_reserved":false,"is_disabled":false,"rental_uris":{"android":"levelo://app?vid=11f474ed-c1ba-4b2e-8789-02255da99314","ios":"levelo://app?vid=11f474ed-c1ba-4b2e-8789-02255da99314"},"vehicle_type_id":"4","last_reported":1741612758,"current_range_meters":10000,"station_id":"ce4bhs12rcd13ifvqhvg","pricing_plan_id":"cebpf4jnsgd1na2vs0mg"},{"bike_id":"002b9d1a-377f-44f0-91e7-7a16a8504b08","system_id":"levelo_inurba_marseille","lat":43.25869,"lon":5.39895,"is_reserved":false,"is_disabled":false,"rental_uris":{"android":"levelo://app?vid=002b9d1a-377f-44f0-91e7-7a16a8504b08","ios":"levelo://app?vid=002b9d1a-377f-44f0-91e7-7a16a8504b08"},"vehicle_type_id":"4","last_reported":1741612758,"current_range_meters":10000,"station_id":"ce4bhl92rcd13ifvqghg","pricing_plan_id":"cebpf4jnsgd1na2vs0mg"},{"bike_id":"65ebf940-f6f1-4ba2-8b75-2b2127dd3199","system_id":"levelo_inurba_marseille","lat":43.25026,"lon":5.38913,"is_reserved":false,"is_disabled":false,"rental_uris":{"android":"levelo://app?vid=65ebf940-f6f1-4ba2-8b75-2b2127dd3199","ios":"levelo://app?vid=65ebf940-f6f1-4ba2-8b75-2b2127dd3199"},"vehicle_type_id":"4","last_reported":1741612758,"current_range_meters":10000,"station_id":"ce4bhgp2rcd13ifvqfd0","pricing_plan_id":"cebpf4jnsgd1na2vs0mg"},{"bike_id":"d723d96e-6d61-47b3-af69-3008291d1459","system_id":"levelo_inurba_marseille","lat":43.26709,"lon":5.38253,"is_reserved":false,"is_disabled":false,"rental_uris":{"android":"levelo://app?vid=d723d96e-6d61-47b3-af69-3008291d1459","ios":"levelo://app?vid=d723d96e-6d61-47b3-af69-3008291d1459"},"vehicle_type_id":"4","last_reported":1741612758,"current_range_meters":10000,"station_id":"ce4bhg92rcd13ifvqf90","pricing_plan_id":"cebpf4jnsgd1na2vs0mg"},{"bike_id":"9f924323-5878-434d-90ab-1ce7dacff86e","system_id":"levelo_inurba_marseille","lat":43.30273,"lon":5.37728,"is_reserved":false,"is_disabled":false,"rental_uris":{"android":"levelo://app?vid=9f924323-5878-434d-90ab-1ce7dacff86e","ios":"levelo://app?vid=9f924323-5878-434d-90ab-1ce7dacff86e"},"vehicle_type_id":"4","last_reported":1741612758,"current_range_meters":10800,"station_id":"ce4bguh2rcd13ifvqcj0","pricing_plan_id":"cebpf4jnsgd1na2vs0mg"},{"bike_id":"63b9485b-d872-488c-a82e-bf622939e400","system_id":"levelo_inurba_marseille","lat":43.30134,"lon":5.37413,"is_reserved":false,"is_disabled":false,"rental_uris":{"android":"levelo://app?vid=63b9485b-d872-488c-a82e-bf622939e400","ios":"levelo://app?vid=63b9485b-d872-488c-a82e-bf622939e400"},"vehicle_type_id":"4","last_reported":1741612758,"current_range_meters":10800,"station_id":"ce4bgs92rcd13ifvqcc0","pricing_plan_id":"cebpf4jnsgd1na2vs0mg"},{"bike_id":"5bf1fd3d-106c-4b23-b455-ae5552f33fa7","system_id":"levelo_inurba_marseille","lat":43.25081,"lon":5.39516,"is_reserved":false,"is_disabled":false,"rental_uris":{"android":"levelo://app?vid=5bf1fd3d-106c-4b23-b455-ae5552f33fa7","ios":"levelo://app?vid=5bf1fd3d-106c-4b23-b455-ae5552f33fa7"},"vehicle_type_id":"4","last_reported":1741612758,"current_range_meters":10800,"station_id":"ce4bhm12rcd13ifvqgkg","pricing_plan_id":"cebpf4jnsgd1na2vs0mg"},{"bike_id":"4ec5d479-c92c-4224-8409-3cb864eeca2a","system_id":"levelo_inurba_marseille","lat":43.28171,"lon":5.40454,"is_reserved":false,"is_disabled":false,"rental_uris":{"android":"levelo://app?vid=4ec5d479-c92c-4224-8409-3cb864eeca2a","ios":"levelo://app?vid=4ec5d479-c92c-4224-8409-3cb864eeca2a"},"vehicle_type_id":"4","last_reported":1741612758,"current_range_meters":10800,"station_id":"","pricing_plan_id":"cebpf4jnsgd1na2vs0mg"},{"bike_id":"3ff87458-3bc7-431b-9341-70c60628992e","system_id":"levelo_inurba_marseille","lat":43.24072,"lon":5.37756,"is_reserved":false,"is_disabled":false,"rental_uris":{"android":"levelo://app?vid=3ff87458-3bc7-431b-9341-70c60628992e","ios":"levelo://app?vid=3ff87458-3bc7-431b-9341-70c60628992e"},"vehicle_type_id":"4","last_reported":1741612758,"current_range_meters":10800,"station_id":"ce4bhnp2rcd13ifvqgvg","pricing_plan_id":"cebpf4jnsgd1na2vs0mg"},{"bike_id":"075be894-d272-4532-a157-af4f02ee78bd","system_id":"levelo_inurba_marseille","lat":43.24078,"lon":5.37752,"is_reserved":false,"is_disabled":false,"rental_uris":{"android":"levelo://app?vid=075be894-d272-4532-a157-af4f02ee78bd","ios":"levelo://app?vid=075be894-d272-4532-a157-af4f02ee78bd"},"vehicle_type_id":"4","last_reported":1741612758,"current_range_meters":11200,"station_id":"ce4bhnp2rcd13ifvqgvg","pricing_plan_id":"cebpf4jnsgd1na2vs0mg"},{"bike_id":"03aab1aa-300b-4e9e-b1cd-f66d01ce135e","system_id":"levelo_inurba_marseille","lat":43.28925,"lon":5.36388,"is_reserved":false,"is_disabled":false,"rental_uris":{"android":"levelo://app?vid=03aab1aa-300b-4e9e-b1cd-f66d01ce135e","ios":"levelo://app?vid=03aab1aa-300b-4e9e-b1cd-f66d01ce135e"},"vehicle_type_id":"4","last_reported":1741612758,"current_range_meters":11200,"station_id":"ce4bhc92rcd13ifvqetg","pricing_plan_id":"cebpf4jnsgd1na2vs0mg"},{"bike_id":"f98c3e36-9871-4b27-bce8-ca3933bbfe8f","system_id":"levelo_inurba_marseille","lat":43.290061,"lon":5.356196,"is_reserved":false,"is_disabled":false,"rental_uris":{"android":"levelo://app?vid=f98c3e36-9871-4b27-bce8-ca3933bbfe8f","ios":"levelo://app?vid=f98c3e36-9871-4b27-bce8-ca3933bbfe8f"},"vehicle_type_id":"4","last_reported":1741612758,"current_range_meters":11200,"station_id":"ce4bhbh2rcd13ifvqepg","pricing_plan_id":"cebpf4jnsgd1na2vs0mg"},{"bike_id":"9042eb29-8ba4-48de-873a-d4fd18c472cb","system_id":"levelo_inurba_marseille","lat":43.24072,"lon":5.3776,"is_reserved":false,"is_disabled":false,"rental_uris":{"android":"levelo://app?vid=9042eb29-8ba4-48de-873a-d4fd18c472cb","ios":"levelo://app?vid=9042eb29-8ba4-48de-873a-d4fd18c472cb"},"vehicle_type_id":"4","last_reported":1741612758,"current_range_meters":11200,"station_id":"ce4bhnp2rcd13ifvqgvg","pricing_plan_id":"cebpf4jnsgd1na2vs0mg"},{"bike_id":"3ed1c8b0-ef18-4fe9-8893-70a2a4536b43","system_id":"levelo_inurba_marseille","lat":43.27207,"lon":5.39173,"is_reserved":false,"is_disabled":false,"rental_uris":{"android":"levelo://app?vid=3ed1c8b0-ef18-4fe9-8893-70a2a4536b43","ios":"levelo://app?vid=3ed1c8b0-ef18-4fe9-8893-70a2a4536b43"},"vehicle_type_id":"4","last_reported":1741612758,"current_range_meters":11200,"station_id":"ce4bhhp2rcd13ifvqfm0","pricing_plan_id":"cebpf4jnsgd1na2vs0mg"},{"bike_id":"ca580a85-dfcd-40b3-8993-a29c1dea0dff","system_id":"levelo_inurba_marseille","lat":43.2906,"lon":5.35922,"is_reserved":false,"is_disabled":false,"rental_uris":{"android":"levelo://app?vid=ca580a85-dfcd-40b3-8993-a29c1dea0dff","ios":"levelo://app?vid=ca580a85-dfcd-40b3-8993-a29c1dea0dff"},"vehicle_type_id":"4","last_reported":1741612758,"current_range_meters":10800,"station_id":"ce4bha92rcd13ifvqeg0","pricing_plan_id":"cebpf4jnsgd1na2vs0mg"},{"bike_id":"ae4913d3-c7b3-4e3b-8b0e-9eedefc8bcf1","system_id":"levelo_inurba_marseille","lat":43.31316,"lon":5.38865,"is_reserved":false,"is_disabled":false,"rental_uris":{"android":"levelo://app?vid=ae4913d3-c7b3-4e3b-8b0e-9eedefc8bcf1","ios":"levelo://app?vid=ae4913d3-c7b3-4e3b-8b0e-9eedefc8bcf1"},"vehicle_type_id":"4","last_reported":1741612758,"current_range_meters":11600,"station_id":"","pricing_plan_id":"cebpf4jnsgd1na2vs0mg"},{"bike_id":"f0f89911-92c8-4bf1-8e2d-6c30e30212b4","system_id":"levelo_inurba_marseille","lat":43.30142,"lon":5.37416,"is_reserved":false,"is_disabled":false,"rental_uris":{"android":"levelo://app?vid=f0f89911-92c8-4bf1-8e2d-6c30e30212b4","ios":"levelo://app?vid=f0f89911-92c8-4bf1-8e2d-6c30e30212b4"},"vehicle_type_id":"4","last_reported":1741612758,"current_range_meters":11600,"station_id":"ce4bgs92rcd13ifvqcc0","pricing_plan_id":"cebpf4jnsgd1na2vs0mg"},{"bike_id":"3363253a-c9bf-41d1-9ba5-9a8bc555e049","system_id":"levelo_inurba_marseille","lat":43.30578,"lon":5.36539,"is_reserved":false,"is_disabled":false,"rental_uris":{"android":"levelo://app?vid=3363253a-c9bf-41d1-9ba5-9a8bc555e049","ios":"levelo://app?vid=3363253a-c9bf-41d1-9ba5-9a8bc555e049"},"vehicle_type_id":"4","last_reported":1741612758,"current_range_meters":11600,"station_id":"ce4bgs12rcd13ifvqcag","pricing_plan_id":"cebpf4jnsgd1na2vs0mg"},{"bike_id":"f69b7152-3937-413e-a7e7-a1fcd79986be","system_id":"levelo_inurba_marseille","lat":43.32119,"lon":5.36815,"is_reserved":false,"is_disabled":false,"rental_uris":{"android":"levelo://app?vid=f69b7152-3937-413e-a7e7-a1fcd79986be","ios":"levelo://app?vid=f69b7152-3937-413e-a7e7-a1fcd79986be"},"vehicle_type_id":"4","last_reported":1741612758,"current_range_meters":11600,"station_id":"","pricing_plan_id":"cebpf4jnsgd1na2vs0mg"},{"bike_id":"6575187d-c34d-42ff-9de1-146e60cce25f","system_id":"levelo_inurba_marseille","lat":43.31237,"lon":5.36873,"is_reserved":false,"is_disabled":false,"rental_uris":{"android":"levelo://app?vid=6575187d-c34d-42ff-9de1-146e60cce25f","ios":"levelo://app?vid=6575187d-c34d-42ff-9de1-146e60cce25f"},"vehicle_type_id":"4","last_reported":1741612758,"current_range_meters":11600,"station_id":"ce4bgl92rcd13ifvqbq0","pricing_plan_id":"cebpf4jnsgd1na2vs0mg"},{"bike_id":"5168a913-5224-4ddf-8293-e2c5484c5bf7","system_id":"levelo_inurba_marseille","lat":43.25586,"lon":5.38228,"is_reserved":false,"is_disabled":false,"rental_uris":{"android":"levelo://app?vid=5168a913-5224-4ddf-8293-e2c5484c5bf7","ios":"levelo://app?vid=5168a913-5224-4ddf-8293-e2c5484c5bf7"},"vehicle_type_id":"4","last_reported":1741612758,"current_range_meters":11600,"station_id":"ce4bhih2rcd13ifvqfs0","pricing_plan_id":"cebpf4jnsgd1na2vs0mg"},{"bike_id":"53f6f67b-26ed-4e77-b7e0-7eeb1371c17c","system_id":"levelo_inurba_marseille","lat":43.30932,"lon":5.40144,"is_reserved":false,"is_disabled":false,"rental_uris":{"android":"levelo://app?vid=53f6f67b-26ed-4e77-b7e0-7eeb1371c17c","ios":"levelo://app?vid=53f6f67b-26ed-4e77-b7e0-7eeb1371c17c"},"vehicle_type_id":"4","last_reported":1741612758,"current_range_meters":11600,"station_id":"ce4bgvp2rcd13ifvqct0","pricing_plan_id":"cebpf4jnsgd1na2vs0mg"},{"bike_id":"4491a1e2-eb06-49d1-bf0c-ffab94d6b1ae","system_id":"levelo_inurba_marseille","lat":43.24173,"lon":5.39717,"is_reserved":false,"is_disabled":true,"rental_uris":{"android":"levelo://app?vid=4491a1e2-eb06-49d1-bf0c-ffab94d6b1ae","ios":"levelo://app?vid=4491a1e2-eb06-49d1-bf0c-ffab94d6b1ae"},"vehicle_type_id":"4","last_reported":1741612758,"current_range_meters":12000,"station_id":"ce4bhn12rcd13ifvqgpg","pricing_plan_id":"cebpf4jnsgd1na2vs0mg"},{"bike_id":"943d053b-49cf-41f1-9227-ae72d91242ed","system_id":"levelo_inurba_marseille","lat":43.28377,"lon":5.38633,"is_reserved":false,"is_disabled":false,"rental_uris":{"android":"levelo://app?vid=943d053b-49cf-41f1-9227-ae72d91242ed","ios":"levelo://app?vid=943d053b-49cf-41f1-9227-ae72d91242ed"},"vehicle_type_id":"4","last_reported":1741612758,"current_range_meters":12000,"station_id":"ce4bh492rcd13ifvqdvg","pricing_plan_id":"cebpf4jnsgd1na2vs0mg"},{"bike_id":"546628a2-a28e-4907-83a1-71e9aa739480","system_id":"levelo_inurba_marseille","lat":43.3078,"lon":5.37659,"is_reserved":false,"is_disabled":true,"rental_uris":{"android":"levelo://app?vid=546628a2-a28e-4907-83a1-71e9aa739480","ios":"levelo://app?vid=546628a2-a28e-4907-83a1-71e9aa739480"},"vehicle_type_id":"4","last_reported":1741612758,"current_range_meters":12000,"station_id":"ce4bgv92rcd13ifvqcq0","pricing_plan_id":"cebpf4jnsgd1na2vs0mg"},{"bike_id":"22c7c0df-2c7b-4f24-b11d-161b2b67a83f","system_id":"levelo_inurba_marseille","lat":43.24999,"lon":5.38935,"is_reserved":false,"is_disabled":false,"rental_uris":{"android":"levelo://app?vid=22c7c0df-2c7b-4f24-b11d-161b2b67a83f","ios":"levelo://app?vid=22c7c0df-2c7b-4f24-b11d-161b2b67a83f"},"vehicle_type_id":"4","last_reported":1741612758,"current_range_meters":12000,"station_id":"ce4bhgp2rcd13ifvqfd0","pricing_plan_id":"cebpf4jnsgd1na2vs0mg"},{"bike_id":"5a1234d6-107f-4d8d-b498-7c4e24b66e35","system_id":"levelo_inurba_marseille","lat":43.31379,"lon":5.37421,"is_reserved":false,"is_disabled":false,"rental_uris":{"android":"levelo://app?vid=5a1234d6-107f-4d8d-b498-7c4e24b66e35","ios":"levelo://app?vid=5a1234d6-107f-4d8d-b498-7c4e24b66e35"},"vehicle_type_id":"4","last_reported":1741612758,"current_range_meters":12400,"station_id":"","pricing_plan_id":"cebpf4jnsgd1na2vs0mg"},{"bike_id":"39fce8c5-4152-48c8-8d02-65c86eb18baa","system_id":"levelo_inurba_marseille","lat":43.29707,"lon":5.36621,"is_reserved":false,"is_disabled":false,"rental_uris":{"android":"levelo://app?vid=39fce8c5-4152-48c8-8d02-65c86eb18baa","ios":"levelo://app?vid=39fce8c5-4152-48c8-8d02-65c86eb18baa"},"vehicle_type_id":"4","last_reported":1741612758,"current_range_meters":12400,"station_id":"ce4bgn12rcd13ifvqbt0","pricing_plan_id":"cebpf4jnsgd1na2vs0mg"},{"bike_id":"863fe8dd-e693-4f8e-84ce-2fd09c5d38bc","system_id":"levelo_inurba_marseille","lat":43.24994,"lon":5.38938,"is_reserved":false,"is_disabled":false,"rental_uris":{"android":"levelo://app?vid=863fe8dd-e693-4f8e-84ce-2fd09c5d38bc","ios":"levelo://app?vid=863fe8dd-e693-4f8e-84ce-2fd09c5d38bc"},"vehicle_type_id":"4","last_reported":1741612758,"current_range_meters":12400,"station_id":"ce4bhgp2rcd13ifvqfd0","pricing_plan_id":"cebpf4jnsgd1na2vs0mg"},{"bike_id":"8dc2c2dc-de0f-4fd2-b739-faf253fff5e5","system_id":"levelo_inurba_marseille","lat":43.23146,"lon":5.43719,"is_reserved":false,"is_disabled":false,"rental_uris":{"android":"levelo://app?vid=8dc2c2dc-de0f-4fd2-b739-faf253fff5e5","ios":"levelo://app?vid=8dc2c2dc-de0f-4fd2-b739-faf253fff5e5"},"vehicle_type_id":"4","last_reported":1741612758,"current_range_meters":12400,"station_id":"ce4bhmp2rcd13ifvqgog","pricing_plan_id":"cebpf4jnsgd1na2vs0mg"},{"bike_id":"36af9385-62c9-4efa-8c91-37c0e49b34c4","system_id":"levelo_inurba_marseille","lat":43.25933,"lon":5.40922,"is_reserved":false,"is_disabled":false,"rental_uris":{"android":"levelo://app?vid=36af9385-62c9-4efa-8c91-37c0e49b34c4","ios":"levelo://app?vid=36af9385-62c9-4efa-8c91-37c0e49b34c4"},"vehicle_type_id":"4","last_reported":1741612758,"current_range_meters":12400,"station_id":"ce4bhm92rcd13ifvqglg","pricing_plan_id":"cebpf4jnsgd1na2vs0mg"},{"bike_id":"787941c7-68e4-4a9e-b1f1-d3bf469258e1","system_id":"levelo_inurba_marseille","lat":43.2419,"lon":5.39719,"is_reserved":false,"is_disabled":false,"rental_uris":{"android":"levelo://app?vid=787941c7-68e4-4a9e-b1f1-d3bf469258e1","ios":"levelo://app?vid=787941c7-68e4-4a9e-b1f1-d3bf469258e1"},"vehicle_type_id":"4","last_reported":1741612758,"current_range_meters":12400,"station_id":"ce4bhn12rcd13ifvqgpg","pricing_plan_id":"cebpf4jnsgd1na2vs0mg"},{"bike_id":"eb47db7d-a126-4436-9aad-27bc82558fc2","system_id":"levelo_inurba_marseille","lat":43.24076,"lon":5.3775,"is_reserved":false,"is_disabled":false,"rental_uris":{"android":"levelo://app?vid=eb47db7d-a126-4436-9aad-27bc82558fc2","ios":"levelo://app?vid=eb47db7d-a126-4436-9aad-27bc82558fc2"},"vehicle_type_id":"4","last_reported":1741612758,"current_range_meters":12400,"station_id":"ce4bhnp2rcd13ifvqgvg","pricing_plan_id":"cebpf4jnsgd1na2vs0mg"},{"bike_id":"ac118e0e-33e0-470c-969a-57b2ab25be5e","system_id":"levelo_inurba_marseille","lat":43.32336,"lon":5.40606,"is_reserved":false,"is_disabled":false,"rental_uris":{"android":"levelo://app?vid=ac118e0e-33e0-470c-969a-57b2ab25be5e","ios":"levelo://app?vid=ac118e0e-33e0-470c-969a-57b2ab25be5e"},"vehicle_type_id":"4","last_reported":1741612758,"current_range_meters":12400,"station_id":"ce4bhq92rcd13ifvqhjg","pricing_plan_id":"cebpf4jnsgd1na2vs0mg"},{"bike_id":"c426bc72-6764-4b6c-af01-e2dc0850e0cf","system_id":"levelo_inurba_marseille","lat":43.26948,"lon":5.38622,"is_reserved":false,"is_disabled":false,"rental_uris":{"android":"levelo://app?vid=c426bc72-6764-4b6c-af01-e2dc0850e0cf","ios":"levelo://app?vid=c426bc72-6764-4b6c-af01-e2dc0850e0cf"},"vehicle_type_id":"4","last_reported":1741612758,"current_range_meters":12400,"station_id":"ce4bhh92rcd13ifvqfh0","pricing_plan_id":"cebpf4jnsgd1na2vs0mg"},{"bike_id":"09bbb690-af86-458c-bbad-70d10e2033ee","system_id":"levelo_inurba_marseille","lat":43.23053,"lon":5.35498,"is_reserved":false,"is_disabled":false,"rental_uris":{"android":"levelo://app?vid=09bbb690-af86-458c-bbad-70d10e2033ee","ios":"levelo://app?vid=09bbb690-af86-458c-bbad-70d10e2033ee"},"vehicle_type_id":"4","last_reported":1741612758,"current_range_meters":12400,"station_id":"cpo3342slgdg3j2ifvpg","pricing_plan_id":"cebpf4jnsgd1na2vs0mg"},{"bike_id":"80771939-f406-42f7-81c5-33180fd8a338","system_id":"levelo_inurba_marseille","lat":43.23186,"lon":5.35576,"is_reserved":false,"is_disabled":false,"rental_uris":{"android":"levelo://app?vid=80771939-f406-42f7-81c5-33180fd8a338","ios":"levelo://app?vid=80771939-f406-42f7-81c5-33180fd8a338"},"vehicle_type_id":"4","last_reported":1741612758,"current_range_meters":12400,"station_id":"ce4bhu92rcd13ifvqi70","pricing_plan_id":"cebpf4jnsgd1na2vs0mg"},{"bike_id":"58e7c62a-27f8-456b-88aa-4349c110a69e","system_id":"levelo_inurba_marseille","lat":43.3079,"lon":5.38156,"is_reserved":false,"is_disabled":false,"rental_uris":{"android":"levelo://app?vid=58e7c62a-27f8-456b-88aa-4349c110a69e","ios":"levelo://app?vid=58e7c62a-27f8-456b-88aa-4349c110a69e"},"vehicle_type_id":"4","last_reported":1741612758,"current_range_meters":12000,"station_id":"ce4bgt12rcd13ifvqce0","pricing_plan_id":"cebpf4jnsgd1na2vs0mg"},{"bike_id":"39a544a4-9cda-43e2-be22-212a764912e7","system_id":"levelo_inurba_marseille","lat":43.24046,"lon":5.37738,"is_reserved":false,"is_disabled":false,"rental_uris":{"android":"levelo://app?vid=39a544a4-9cda-43e2-be22-212a764912e7","ios":"levelo://app?vid=39a544a4-9cda-43e2-be22-212a764912e7"},"vehicle_type_id":"4","last_reported":1741612758,"current_range_meters":12400,"station_id":"ce4bhnp2rcd13ifvqgvg","pricing_plan_id":"cebpf4jnsgd1na2vs0mg"},{"bike_id":"caeb1ed2-b70b-481f-b341-ccaa84ec7ae8","system_id":"levelo_inurba_marseille","lat":43.24687,"lon":5.38153,"is_reserved":false,"is_disabled":false,"rental_uris":{"android":"levelo://app?vid=caeb1ed2-b70b-481f-b341-ccaa84ec7ae8","ios":"levelo://app?vid=caeb1ed2-b70b-481f-b341-ccaa84ec7ae8"},"vehicle_type_id":"4","last_reported":1741612758,"current_range_meters":12400,"station_id":"ce4bhih2rcd13ifvqfr0","pricing_plan_id":"cebpf4jnsgd1na2vs0mg"},{"bike_id":"c41e3247-520d-4edc-8030-5306b79badd5","system_id":"levelo_inurba_marseille","lat":43.24651,"lon":5.38895,"is_reserved":false,"is_disabled":false,"rental_uris":{"android":"levelo://app?vid=c41e3247-520d-4edc-8030-5306b79badd5","ios":"levelo://app?vid=c41e3247-520d-4edc-8030-5306b79badd5"},"vehicle_type_id":"4","last_reported":1741612758,"current_range_meters":12800,"station_id":"ce4bhg12rcd13ifvqf60","pricing_plan_id":"cebpf4jnsgd1na2vs0mg"},{"bike_id":"244e24ec-5230-4970-a424-40a2cfa035f7","system_id":"levelo_inurba_marseille","lat":43.24065,"lon":5.37727,"is_reserved":false,"is_disabled":true,"rental_uris":{"android":"levelo://app?vid=244e24ec-5230-4970-a424-40a2cfa035f7","ios":"levelo://app?vid=244e24ec-5230-4970-a424-40a2cfa035f7"},"vehicle_type_id":"4","last_reported":1741612758,"current_range_meters":12800,"station_id":"ce4bhnp2rcd13ifvqgvg","pricing_plan_id":"cebpf4jnsgd1na2vs0mg"},{"bike_id":"b51cbabb-3fbf-4b61-ba89-6e93986f38fb","system_id":"levelo_inurba_marseille","lat":43.28419,"lon":5.37516,"is_reserved":false,"is_disabled":true,"rental_uris":{"android":"levelo://app?vid=b51cbabb-3fbf-4b61-ba89-6e93986f38fb","ios":"levelo://app?vid=b51cbabb-3fbf-4b61-ba89-6e93986f38fb"},"vehicle_type_id":"4","last_reported":1741612758,"current_range_meters":12800,"station_id":"ce4bh412rcd13ifvqds0","pricing_plan_id":"cebpf4jnsgd1na2vs0mg"},{"bike_id":"e6d1eddd-6422-4f1b-be3a-03bf9ede46c7","system_id":"levelo_inurba_marseille","lat":43.27496,"lon":5.42451,"is_reserved":false,"is_disabled":false,"rental_uris":{"android":"levelo://app?vid=e6d1eddd-6422-4f1b-be3a-03bf9ede46c7","ios":"levelo://app?vid=e6d1eddd-6422-4f1b-be3a-03bf9ede46c7"},"vehicle_type_id":"4","last_reported":1741612758,"current_range_meters":12400,"station_id":"ce4bhn92rcd13ifvqgrg","pricing_plan_id":"cebpf4jnsgd1na2vs0mg"},{"bike_id":"51772d6c-c0b3-48d9-81cb-ae5466e6f822","system_id":"levelo_inurba_marseille","lat":43.23154,"lon":5.43721,"is_reserved":false,"is_disabled":false,"rental_uris":{"android":"levelo://app?vid=51772d6c-c0b3-48d9-81cb-ae5466e6f822","ios":"levelo://app?vid=51772d6c-c0b3-48d9-81cb-ae5466e6f822"},"vehicle_type_id":"4","last_reported":1741612758,"current_range_meters":12800,"station_id":"ce4bhmp2rcd13ifvqgog","pricing_plan_id":"cebpf4jnsgd1na2vs0mg"},{"bike_id":"fe059f4b-0137-4c13-bae9-5590da0e5f09","system_id":"levelo_inurba_marseille","lat":43.30259,"lon":5.3923,"is_reserved":false,"is_disabled":false,"rental_uris":{"android":"levelo://app?vid=fe059f4b-0137-4c13-bae9-5590da0e5f09","ios":"levelo://app?vid=fe059f4b-0137-4c13-bae9-5590da0e5f09"},"vehicle_type_id":"4","last_reported":1741612758,"current_range_meters":13600,"station_id":"ce4bgkh2rcd13ifvqbk0","pricing_plan_id":"cebpf4jnsgd1na2vs0mg"},{"bike_id":"85199a05-8552-4fc5-9254-d2a2276e5176","system_id":"levelo_inurba_marseille","lat":43.26957,"lon":5.38615,"is_reserved":false,"is_disabled":false,"rental_uris":{"android":"levelo://app?vid=85199a05-8552-4fc5-9254-d2a2276e5176","ios":"levelo://app?vid=85199a05-8552-4fc5-9254-d2a2276e5176"},"vehicle_type_id":"4","last_reported":1741612758,"current_range_meters":13600,"station_id":"ce4bhh92rcd13ifvqfh0","pricing_plan_id":"cebpf4jnsgd1na2vs0mg"},{"bike_id":"2338626f-0565-48b6-9fa4-dab8eb33618f","system_id":"levelo_inurba_marseille","lat":43.25727,"lon":5.41104,"is_reserved":false,"is_disabled":false,"rental_uris":{"android":"levelo://app?vid=2338626f-0565-48b6-9fa4-dab8eb33618f","ios":"levelo://app?vid=2338626f-0565-48b6-9fa4-dab8eb33618f"},"vehicle_type_id":"4","last_reported":1741612758,"current_range_meters":13600,"station_id":"ce4bhkp2rcd13ifvqgd0","pricing_plan_id":"cebpf4jnsgd1na2vs0mg"},{"bike_id":"f06275ce-702d-4ef8-8c10-e99be0e98b36","system_id":"levelo_inurba_marseille","lat":43.304,"lon":5.413,"is_reserved":false,"is_disabled":false,"rental_uris":{"android":"levelo://app?vid=f06275ce-702d-4ef8-8c10-e99be0e98b36","ios":"levelo://app?vid=f06275ce-702d-4ef8-8c10-e99be0e98b36"},"vehicle_type_id":"4","last_reported":1741612758,"current_range_meters":13600,"station_id":"ce4bhop2rcd13ifvqh8g","pricing_plan_id":"cebpf4jnsgd1na2vs0mg"},{"bike_id":"50ff1ab3-8001-4c74-81e6-1365fba69178","system_id":"levelo_inurba_marseille","lat":43.25907,"lon":5.40927,"is_reserved":false,"is_disabled":false,"rental_uris":{"android":"levelo://app?vid=50ff1ab3-8001-4c74-81e6-1365fba69178","ios":"levelo://app?vid=50ff1ab3-8001-4c74-81e6-1365fba69178"},"vehicle_type_id":"4","last_reported":1741612758,"current_range_meters":13600,"station_id":"ce4bhm92rcd13ifvqglg","pricing_plan_id":"cebpf4jnsgd1na2vs0mg"},{"bike_id":"acc1658b-7ea3-44a5-a65b-40f1faa0438d","system_id":"levelo_inurba_marseille","lat":43.32542,"lon":5.41451,"is_reserved":false,"is_disabled":false,"rental_uris":{"android":"levelo://app?vid=acc1658b-7ea3-44a5-a65b-40f1faa0438d","ios":"levelo://app?vid=acc1658b-7ea3-44a5-a65b-40f1faa0438d"},"vehicle_type_id":"4","last_reported":1741612758,"current_range_meters":14000,"station_id":"ce4bhq12rcd13ifvqhhg","pricing_plan_id":"cebpf4jnsgd1na2vs0mg"},{"bike_id":"c9ac5b6c-1a9d-43eb-ba45-4e29cb59e453","system_id":"levelo_inurba_marseille","lat":43.28705,"lon":5.37925,"is_reserved":false,"is_disabled":false,"rental_uris":{"android":"levelo://app?vid=c9ac5b6c-1a9d-43eb-ba45-4e29cb59e453","ios":"levelo://app?vid=c9ac5b6c-1a9d-43eb-ba45-4e29cb59e453"},"vehicle_type_id":"4","last_reported":1741612758,"current_range_meters":14000,"station_id":"ce4bh9p2rcd13ifvqec0","pricing_plan_id":"cebpf4jnsgd1na2vs0mg"},{"bike_id":"0830f531-7636-4dd0-880b-224c5f7608c2","system_id":"levelo_inurba_marseille","lat":43.30458,"lon":5.37909,"is_reserved":false,"is_disabled":false,"rental_uris":{"android":"levelo://app?vid=0830f531-7636-4dd0-880b-224c5f7608c2","ios":"levelo://app?vid=0830f531-7636-4dd0-880b-224c5f7608c2"},"vehicle_type_id":"4","last_reported":1741612758,"current_range_meters":14000,"station_id":"ce4bgup2rcd13ifvqcn0","pricing_plan_id":"cebpf4jnsgd1na2vs0mg"},{"bike_id":"5f320e95-bebc-4626-b685-df944fbbc487","system_id":"levelo_inurba_marseille","lat":43.280467,"lon":5.387241,"is_reserved":false,"is_disabled":false,"rental_uris":{"android":"levelo://app?vid=5f320e95-bebc-4626-b685-df944fbbc487","ios":"levelo://app?vid=5f320e95-bebc-4626-b685-df944fbbc487"},"vehicle_type_id":"4","last_reported":1741612758,"current_range_meters":14000,"station_id":"ce4bh512rcd13ifvqe3g","pricing_plan_id":"cebpf4jnsgd1na2vs0mg"},{"bike_id":"f640465e-8c9e-425a-8e36-08d8d5201bf6","system_id":"levelo_inurba_marseille","lat":43.23196,"lon":5.35551,"is_reserved":false,"is_disabled":false,"rental_uris":{"android":"levelo://app?vid=f640465e-8c9e-425a-8e36-08d8d5201bf6","ios":"levelo://app?vid=f640465e-8c9e-425a-8e36-08d8d5201bf6"},"vehicle_type_id":"4","last_reported":1741612758,"current_range_meters":14000,"station_id":"ce4bhu92rcd13ifvqi70","pricing_plan_id":"cebpf4jnsgd1na2vs0mg"},{"bike_id":"9ec52ed9-9c0e-4e61-a378-5327e3711632","system_id":"levelo_inurba_marseille","lat":43.24784,"lon":5.41172,"is_reserved":false,"is_disabled":false,"rental_uris":{"android":"levelo://app?vid=9ec52ed9-9c0e-4e61-a378-5327e3711632","ios":"levelo://app?vid=9ec52ed9-9c0e-4e61-a378-5327e3711632"},"vehicle_type_id":"4","last_reported":1741612758,"current_range_meters":14000,"station_id":"","pricing_plan_id":"cebpf4jnsgd1na2vs0mg"},{"bike_id":"f198c4d2-04ee-4fa9-b679-92a09584c277","system_id":"levelo_inurba_marseille","lat":43.3361,"lon":5.41035,"is_reserved":false,"is_disabled":false,"rental_uris":{"android":"levelo://app?vid=f198c4d2-04ee-4fa9-b679-92a09584c277","ios":"levelo://app?vid=f198c4d2-04ee-4fa9-b679-92a09584c277"},"vehicle_type_id":"4","last_reported":1741612758,"current_range_meters":14000,"station_id":"ce4bhqh2rcd13ifvqhmg","pricing_plan_id":"cebpf4jnsgd1na2vs0mg"},{"bike_id":"1e61f1c2-f1b8-4841-8ffd-ffd9ba5d4378","system_id":"levelo_inurba_marseille","lat":43.30553,"lon":5.36561,"is_reserved":false,"is_disabled":false,"rental_uris":{"android":"levelo://app?vid=1e61f1c2-f1b8-4841-8ffd-ffd9ba5d4378","ios":"levelo://app?vid=1e61f1c2-f1b8-4841-8ffd-ffd9ba5d4378"},"vehicle_type_id":"4","last_reported":1741612758,"current_range_meters":14400,"station_id":"ce4bgs12rcd13ifvqcag","pricing_plan_id":"cebpf4jnsgd1na2vs0mg"},{"bike_id":"18e5f804-fd06-47ae-9730-65ae80ae2a2a","system_id":"levelo_inurba_marseille","lat":43.29849,"lon":5.36265,"is_reserved":false,"is_disabled":false,"rental_uris":{"android":"levelo://app?vid=18e5f804-fd06-47ae-9730-65ae80ae2a2a","ios":"levelo://app?vid=18e5f804-fd06-47ae-9730-65ae80ae2a2a"},"vehicle_type_id":"4","last_reported":1741612758,"current_range_meters":14400,"station_id":"ce4bgpp2rcd13ifvqc3g","pricing_plan_id":"cebpf4jnsgd1na2vs0mg"},{"bike_id":"fb807dd0-9f43-448d-8af4-48a25b19033e","system_id":"levelo_inurba_marseille","lat":43.29738,"lon":5.37662,"is_reserved":false,"is_disabled":false,"rental_uris":{"android":"levelo://app?vid=fb807dd0-9f43-448d-8af4-48a25b19033e","ios":"levelo://app?vid=fb807dd0-9f43-448d-8af4-48a25b19033e"},"vehicle_type_id":"4","last_reported":1741612758,"current_range_meters":14400,"station_id":"ce4bgkh2rcd13ifvqbl0","pricing_plan_id":"cebpf4jnsgd1na2vs0mg"},{"bike_id":"5c3f2f73-e991-4164-91b8-d457cf3e91e8","system_id":"levelo_inurba_marseille","lat":43.24079,"lon":5.37748,"is_reserved":false,"is_disabled":false,"rental_uris":{"android":"levelo://app?vid=5c3f2f73-e991-4164-91b8-d457cf3e91e8","ios":"levelo://app?vid=5c3f2f73-e991-4164-91b8-d457cf3e91e8"},"vehicle_type_id":"4","last_reported":1741612758,"current_range_meters":14400,"station_id":"ce4bhnp2rcd13ifvqgvg","pricing_plan_id":"cebpf4jnsgd1na2vs0mg"},{"bike_id":"ccbf617d-c92c-4154-ad70-fcdbe832004f","system_id":"levelo_inurba_marseille","lat":43.28138,"lon":5.42647,"is_reserved":false,"is_disabled":false,"rental_uris":{"android":"levelo://app?vid=ccbf617d-c92c-4154-ad70-fcdbe832004f","ios":"levelo://app?vid=ccbf617d-c92c-4154-ad70-fcdbe832004f"},"vehicle_type_id":"4","last_reported":1741612758,"current_range_meters":14400,"station_id":"ce4bhnh2rcd13ifvqgug","pricing_plan_id":"cebpf4jnsgd1na2vs0mg"},{"bike_id":"b56cf960-9c27-45f8-af0a-7c584f0dc22e","system_id":"levelo_inurba_marseille","lat":43.27993,"lon":5.41657,"is_reserved":false,"is_disabled":false,"rental_uris":{"android":"levelo://app?vid=b56cf960-9c27-45f8-af0a-7c584f0dc22e","ios":"levelo://app?vid=b56cf960-9c27-45f8-af0a-7c584f0dc22e"},"vehicle_type_id":"4","last_reported":1741612758,"current_range_meters":14400,"station_id":"ce4bho12rcd13ifvqh1g","pricing_plan_id":"cebpf4jnsgd1na2vs0mg"},{"bike_id":"27459785-4edf-4f27-b842-1984a62c6dde","system_id":"levelo_inurba_marseille","lat":43.25084,"lon":5.39523,"is_reserved":false,"is_disabled":false,"rental_uris":{"android":"levelo://app?vid=27459785-4edf-4f27-b842-1984a62c6dde","ios":"levelo://app?vid=27459785-4edf-4f27-b842-1984a62c6dde"},"vehicle_type_id":"4","last_reported":1741612758,"current_range_meters":14400,"station_id":"ce4bhm12rcd13ifvqgkg","pricing_plan_id":"cebpf4jnsgd1na2vs0mg"},{"bike_id":"eb785407-d21f-4beb-87d6-381d472676db","system_id":"levelo_inurba_marseille","lat":43.32532,"lon":5.41437,"is_reserved":false,"is_disabled":false,"rental_uris":{"android":"levelo://app?vid=eb785407-d21f-4beb-87d6-381d472676db","ios":"levelo://app?vid=eb785407-d21f-4beb-87d6-381d472676db"},"vehicle_type_id":"4","last_reported":1741612758,"current_range_meters":14400,"station_id":"ce4bhq12rcd13ifvqhhg","pricing_plan_id":"cebpf4jnsgd1na2vs0mg"},{"bike_id":"f381c9bd-14fa-41ab-b589-3ecebd6dfe48","system_id":"levelo_inurba_marseille","lat":43.32355,"lon":5.3677,"is_reserved":false,"is_disabled":false,"rental_uris":{"android":"levelo://app?vid=f381c9bd-14fa-41ab-b589-3ecebd6dfe48","ios":"levelo://app?vid=f381c9bd-14fa-41ab-b589-3ecebd6dfe48"},"vehicle_type_id":"4","last_reported":1741612758,"current_range_meters":14400,"station_id":"ce4bhsh2rcd13ifvqi2g","pricing_plan_id":"cebpf4jnsgd1na2vs0mg"},{"bike_id":"a44b4ad2-e639-4c9a-8fb7-52bbbdc7ff12","system_id":"levelo_inurba_marseille","lat":43.24987,"lon":5.38927,"is_reserved":false,"is_disabled":false,"rental_uris":{"android":"levelo://app?vid=a44b4ad2-e639-4c9a-8fb7-52bbbdc7ff12","ios":"levelo://app?vid=a44b4ad2-e639-4c9a-8fb7-52bbbdc7ff12"},"vehicle_type_id":"4","last_reported":1741612758,"current_range_meters":14800,"station_id":"ce4bhgp2rcd13ifvqfd0","pricing_plan_id":"cebpf4jnsgd1na2vs0mg"},{"bike_id":"4c38e97d-acd1-4166-a556-a68392de6ace","system_id":"levelo_inurba_marseille","lat":43.28971,"lon":5.37822,"is_reserved":false,"is_disabled":false,"rental_uris":{"android":"levelo://app?vid=4c38e97d-acd1-4166-a556-a68392de6ace","ios":"levelo://app?vid=4c38e97d-acd1-4166-a556-a68392de6ace"},"vehicle_type_id":"4","last_reported":1741612758,"current_range_meters":14800,"station_id":"ce4bh9p2rcd13ifvqed0","pricing_plan_id":"cebpf4jnsgd1na2vs0mg"},{"bike_id":"58d1b5b3-d322-4418-97d0-3066ec3d9afc","system_id":"levelo_inurba_marseille","lat":43.23194,"lon":5.35562,"is_reserved":false,"is_disabled":false,"rental_uris":{"android":"levelo://app?vid=58d1b5b3-d322-4418-97d0-3066ec3d9afc","ios":"levelo://app?vid=58d1b5b3-d322-4418-97d0-3066ec3d9afc"},"vehicle_type_id":"4","last_reported":1741612758,"current_range_meters":14800,"station_id":"ce4bhu92rcd13ifvqi70","pricing_plan_id":"cebpf4jnsgd1na2vs0mg"},{"bike_id":"e10fdf04-0df9-4d6b-82cf-7317c9395270","system_id":"levelo_inurba_marseille","lat":43.29798,"lon":5.40397,"is_reserved":false,"is_disabled":false,"rental_uris":{"android":"levelo://app?vid=e10fdf04-0df9-4d6b-82cf-7317c9395270","ios":"levelo://app?vid=e10fdf04-0df9-4d6b-82cf-7317c9395270"},"vehicle_type_id":"4","last_reported":1741612758,"current_range_meters":14800,"station_id":"ce4bh112rcd13ifvqd90","pricing_plan_id":"cebpf4jnsgd1na2vs0mg"},{"bike_id":"714996a6-64f6-41af-a68f-e639f119975d","system_id":"levelo_inurba_marseille","lat":43.25116,"lon":5.39519,"is_reserved":false,"is_disabled":true,"rental_uris":{"android":"levelo://app?vid=714996a6-64f6-41af-a68f-e639f119975d","ios":"levelo://app?vid=714996a6-64f6-41af-a68f-e639f119975d"},"vehicle_type_id":"4","last_reported":1741612758,"current_range_meters":16000,"station_id":"ce4bhm12rcd13ifvqgkg","pricing_plan_id":"cebpf4jnsgd1na2vs0mg"},{"bike_id":"e37ce02e-67cc-446a-8e8d-68511d60eabc","system_id":"levelo_inurba_marseille","lat":43.3058,"lon":5.36659,"is_reserved":false,"is_disabled":false,"rental_uris":{"android":"levelo://app?vid=e37ce02e-67cc-446a-8e8d-68511d60eabc","ios":"levelo://app?vid=e37ce02e-67cc-446a-8e8d-68511d60eabc"},"vehicle_type_id":"4","last_reported":1741612758,"current_range_meters":16000,"station_id":"ce4bgrp2rcd13ifvqc9g","pricing_plan_id":"cebpf4jnsgd1na2vs0mg"},{"bike_id":"14a64e50-67e4-4ccc-8dd3-b69f798262a6","system_id":"levelo_inurba_marseille","lat":43.25131,"lon":5.40345,"is_reserved":false,"is_disabled":false,"rental_uris":{"android":"levelo://app?vid=14a64e50-67e4-4ccc-8dd3-b69f798262a6","ios":"levelo://app?vid=14a64e50-67e4-4ccc-8dd3-b69f798262a6"},"vehicle_type_id":"4","last_reported":1741612758,"current_range_meters":16000,"station_id":"ce4bhlh2rcd13ifvqgig","pricing_plan_id":"cebpf4jnsgd1na2vs0mg"},{"bike_id":"844894c7-065d-427a-9941-8626b05204ed","system_id":"levelo_inurba_marseille","lat":43.32543,"lon":5.41435,"is_reserved":false,"is_disabled":false,"rental_uris":{"android":"levelo://app?vid=844894c7-065d-427a-9941-8626b05204ed","ios":"levelo://app?vid=844894c7-065d-427a-9941-8626b05204ed"},"vehicle_type_id":"4","last_reported":1741612758,"current_range_meters":16000,"station_id":"ce4bhq12rcd13ifvqhhg","pricing_plan_id":"cebpf4jnsgd1na2vs0mg"},{"bike_id":"4e82dc5c-c36a-46e9-85d6-d613f137f74d","system_id":"levelo_inurba_marseille","lat":43.3021,"lon":5.39469,"is_reserved":false,"is_disabled":false,"rental_uris":{"android":"levelo://app?vid=4e82dc5c-c36a-46e9-85d6-d613f137f74d","ios":"levelo://app?vid=4e82dc5c-c36a-46e9-85d6-d613f137f74d"},"vehicle_type_id":"4","last_reported":1741612758,"current_range_meters":16000,"station_id":"ce4bh0p2rcd13ifvqd70","pricing_plan_id":"cebpf4jnsgd1na2vs0mg"},{"bike_id":"7d119ed8-eb73-44b5-9e39-342cdc6fc1da","system_id":"levelo_inurba_marseille","lat":43.2957,"lon":5.37506,"is_reserved":false,"is_disabled":false,"rental_uris":{"android":"levelo://app?vid=7d119ed8-eb73-44b5-9e39-342cdc6fc1da","ios":"levelo://app?vid=7d119ed8-eb73-44b5-9e39-342cdc6fc1da"},"vehicle_type_id":"4","last_reported":1741612758,"current_range_meters":16000,"station_id":"ce4bgh92rcd13ifvqb50","pricing_plan_id":"cebpf4jnsgd1na2vs0mg"},{"bike_id":"24ea9c03-0afd-4100-ad62-62865e3edce9","system_id":"levelo_inurba_marseille","lat":43.23166,"lon":5.43706,"is_reserved":false,"is_disabled":false,"rental_uris":{"android":"levelo://app?vid=24ea9c03-0afd-4100-ad62-62865e3edce9","ios":"levelo://app?vid=24ea9c03-0afd-4100-ad62-62865e3edce9"},"vehicle_type_id":"4","last_reported":1741612758,"current_range_meters":16000,"station_id":"ce4bhmp2rcd13ifvqgog","pricing_plan_id":"cebpf4jnsgd1na2vs0mg"},{"bike_id":"9dd7e766-20bb-4a2a-a681-74728e2de11a","system_id":"levelo_inurba_marseille","lat":43.2979,"lon":5.38125,"is_reserved":false,"is_disabled":false,"rental_uris":{"android":"levelo://app?vid=9dd7e766-20bb-4a2a-a681-74728e2de11a","ios":"levelo://app?vid=9dd7e766-20bb-4a2a-a681-74728e2de11a"},"vehicle_type_id":"4","last_reported":1741612758,"current_range_meters":16400,"station_id":"ce4bgip2rcd13ifvqbb0","pricing_plan_id":"cebpf4jnsgd1na2vs0mg"},{"bike_id":"3e19dab8-46fe-40ac-bdf3-26b4f9e3cbe2","system_id":"levelo_inurba_marseille","lat":43.30551,"lon":5.36693,"is_reserved":false,"is_disabled":false,"rental_uris":{"android":"levelo://app?vid=3e19dab8-46fe-40ac-bdf3-26b4f9e3cbe2","ios":"levelo://app?vid=3e19dab8-46fe-40ac-bdf3-26b4f9e3cbe2"},"vehicle_type_id":"4","last_reported":1741612758,"current_range_meters":16400,"station_id":"ce4bgrp2rcd13ifvqc9g","pricing_plan_id":"cebpf4jnsgd1na2vs0mg"},{"bike_id":"b441f2f5-5116-4b57-bc3a-d59c2982efb4","system_id":"levelo_inurba_marseille","lat":43.3137,"lon":5.3672,"is_reserved":false,"is_disabled":false,"rental_uris":{"android":"levelo://app?vid=b441f2f5-5116-4b57-bc3a-d59c2982efb4","ios":"levelo://app?vid=b441f2f5-5116-4b57-bc3a-d59c2982efb4"},"vehicle_type_id":"4","last_reported":1741612758,"current_range_meters":16400,"station_id":"ce4bgr92rcd13ifvqc6g","pricing_plan_id":"cebpf4jnsgd1na2vs0mg"},{"bike_id":"ad88c9cc-44b2-481b-8fe8-503280b722a2","system_id":"levelo_inurba_marseille","lat":43.28713,"lon":5.3794,"is_reserved":false,"is_disabled":false,"rental_uris":{"android":"levelo://app?vid=ad88c9cc-44b2-481b-8fe8-503280b722a2","ios":"levelo://app?vid=ad88c9cc-44b2-481b-8fe8-503280b722a2"},"vehicle_type_id":"4","last_reported":1741612758,"current_range_meters":16400,"station_id":"ce4bh9p2rcd13ifvqec0","pricing_plan_id":"cebpf4jnsgd1na2vs0mg"},{"bike_id":"63829e98-5491-4aaf-8868-cfa8c984e570","system_id":"levelo_inurba_marseille","lat":43.29847,"lon":5.36258,"is_reserved":false,"is_disabled":false,"rental_uris":{"android":"levelo://app?vid=63829e98-5491-4aaf-8868-cfa8c984e570","ios":"levelo://app?vid=63829e98-5491-4aaf-8868-cfa8c984e570"},"vehicle_type_id":"4","last_reported":1741612758,"current_range_meters":16400,"station_id":"ce4bgpp2rcd13ifvqc3g","pricing_plan_id":"cebpf4jnsgd1na2vs0mg"},{"bike_id":"caed4545-182d-42df-8230-6bdcdcfdf765","system_id":"levelo_inurba_marseille","lat":43.312219,"lon":5.368662,"is_reserved":false,"is_disabled":false,"rental_uris":{"android":"levelo://app?vid=caed4545-182d-42df-8230-6bdcdcfdf765","ios":"levelo://app?vid=caed4545-182d-42df-8230-6bdcdcfdf765"},"vehicle_type_id":"4","last_reported":1741612758,"current_range_meters":16400,"station_id":"ce4bgl92rcd13ifvqbq0","pricing_plan_id":"cebpf4jnsgd1na2vs0mg"},{"bike_id":"bf49a0fd-bfe2-4bbb-8d6a-0540c7d91d25","system_id":"levelo_inurba_marseille","lat":43.32365,"lon":5.36788,"is_reserved":false,"is_disabled":false,"rental_uris":{"android":"levelo://app?vid=bf49a0fd-bfe2-4bbb-8d6a-0540c7d91d25","ios":"levelo://app?vid=bf49a0fd-bfe2-4bbb-8d6a-0540c7d91d25"},"vehicle_type_id":"4","last_reported":1741612758,"current_range_meters":16400,"station_id":"ce4bhsh2rcd13ifvqi2g","pricing_plan_id":"cebpf4jnsgd1na2vs0mg"},{"bike_id":"93001d9f-28f9-4448-9534-87e9d48a32a3","system_id":"levelo_inurba_marseille","lat":43.3015,"lon":5.37413,"is_reserved":false,"is_disabled":false,"rental_uris":{"android":"levelo://app?vid=93001d9f-28f9-4448-9534-87e9d48a32a3","ios":"levelo://app?vid=93001d9f-28f9-4448-9534-87e9d48a32a3"},"vehicle_type_id":"4","last_reported":1741612758,"current_range_meters":16400,"station_id":"ce4bgs92rcd13ifvqcc0","pricing_plan_id":"cebpf4jnsgd1na2vs0mg"},{"bike_id":"5c4469da-4264-472b-a0c7-d28eb24db0a2","system_id":"levelo_inurba_marseille","lat":43.30881,"lon":5.37162,"is_reserved":false,"is_disabled":false,"rental_uris":{"android":"levelo://app?vid=5c4469da-4264-472b-a0c7-d28eb24db0a2","ios":"levelo://app?vid=5c4469da-4264-472b-a0c7-d28eb24db0a2"},"vehicle_type_id":"4","last_reported":1741612758,"current_range_meters":16800,"station_id":"ce4bguh2rcd13ifvqckg","pricing_plan_id":"cebpf4jnsgd1na2vs0mg"},{"bike_id":"4743f1f2-e91a-4f39-8ab3-b555c4147ceb","system_id":"levelo_inurba_marseille","lat":43.29711,"lon":5.36614,"is_reserved":false,"is_disabled":false,"rental_uris":{"android":"levelo://app?vid=4743f1f2-e91a-4f39-8ab3-b555c4147ceb","ios":"levelo://app?vid=4743f1f2-e91a-4f39-8ab3-b555c4147ceb"},"vehicle_type_id":"4","last_reported":1741612758,"current_range_meters":16800,"station_id":"ce4bgn12rcd13ifvqbt0","pricing_plan_id":"cebpf4jnsgd1na2vs0mg"},{"bike_id":"415e7a31-245d-4ead-9f33-dad092a04302","system_id":"levelo_inurba_marseille","lat":43.2306,"lon":5.35493,"is_reserved":false,"is_disabled":false,"rental_uris":{"android":"levelo://app?vid=415e7a31-245d-4ead-9f33-dad092a04302","ios":"levelo://app?vid=415e7a31-245d-4ead-9f33-dad092a04302"},"vehicle_type_id":"4","last_reported":1741612758,"current_range_meters":16800,"station_id":"cpo3342slgdg3j2ifvpg","pricing_plan_id":"cebpf4jnsgd1na2vs0mg"},{"bike_id":"259dde30-071d-4e72-9e93-2afe0e28cbba","system_id":"levelo_inurba_marseille","lat":43.30647,"lon":5.37376,"is_reserved":false,"is_disabled":false,"rental_uris":{"android":"levelo://app?vid=259dde30-071d-4e72-9e93-2afe0e28cbba","ios":"levelo://app?vid=259dde30-071d-4e72-9e93-2afe0e28cbba"},"vehicle_type_id":"4","last_reported":1741612758,"current_range_meters":16800,"station_id":"","pricing_plan_id":"cebpf4jnsgd1na2vs0mg"},{"bike_id":"7b66e0d2-60fc-4baa-b134-64c6a900f5e4","system_id":"levelo_inurba_marseille","lat":43.24156,"lon":5.39712,"is_reserved":false,"is_disabled":false,"rental_uris":{"android":"levelo://app?vid=7b66e0d2-60fc-4baa-b134-64c6a900f5e4","ios":"levelo://app?vid=7b66e0d2-60fc-4baa-b134-64c6a900f5e4"},"vehicle_type_id":"4","last_reported":1741612758,"current_range_meters":16800,"station_id":"ce4bhn12rcd13ifvqgpg","pricing_plan_id":"cebpf4jnsgd1na2vs0mg"},{"bike_id":"a4565689-8c7c-4f37-a803-14ee6ecaefa1","system_id":"levelo_inurba_marseille","lat":43.26569,"lon":5.39011,"is_reserved":false,"is_disabled":false,"rental_uris":{"android":"levelo://app?vid=a4565689-8c7c-4f37-a803-14ee6ecaefa1","ios":"levelo://app?vid=a4565689-8c7c-4f37-a803-14ee6ecaefa1"},"vehicle_type_id":"4","last_reported":1741612758,"current_range_meters":16800,"station_id":"ce4bhe12rcd13ifvqf30","pricing_plan_id":"cebpf4jnsgd1na2vs0mg"},{"bike_id":"1072a1fe-3294-486d-b63a-771e2c51f7ef","system_id":"levelo_inurba_marseille","lat":43.28936,"lon":5.36395,"is_reserved":false,"is_disabled":false,"rental_uris":{"android":"levelo://app?vid=1072a1fe-3294-486d-b63a-771e2c51f7ef","ios":"levelo://app?vid=1072a1fe-3294-486d-b63a-771e2c51f7ef"},"vehicle_type_id":"4","last_reported":1741612758,"current_range_meters":16800,"station_id":"ce4bhc92rcd13ifvqetg","pricing_plan_id":"cebpf4jnsgd1na2vs0mg"},{"bike_id":"f4cdb9ce-658c-4cee-8f13-8e1c1d182ffe","system_id":"levelo_inurba_marseille","lat":43.28096,"lon":5.37825,"is_reserved":false,"is_disabled":false,"rental_uris":{"android":"levelo://app?vid=f4cdb9ce-658c-4cee-8f13-8e1c1d182ffe","ios":"levelo://app?vid=f4cdb9ce-658c-4cee-8f13-8e1c1d182ffe"},"vehicle_type_id":"4","last_reported":1741612758,"current_range_meters":16400,"station_id":"ce4bha12rcd13ifvqee0","pricing_plan_id":"cebpf4jnsgd1na2vs0mg"},{"bike_id":"8365affd-4f5f-4a7b-986c-344733ec8fc4","system_id":"levelo_inurba_marseille","lat":43.299843,"lon":5.384944,"is_reserved":false,"is_disabled":false,"rental_uris":{"android":"levelo://app?vid=8365affd-4f5f-4a7b-986c-344733ec8fc4","ios":"levelo://app?vid=8365affd-4f5f-4a7b-986c-344733ec8fc4"},"vehicle_type_id":"4","last_reported":1741612758,"current_range_meters":16400,"station_id":"ce4bgj92rcd13ifvqbd0","pricing_plan_id":"cebpf4jnsgd1na2vs0mg"},{"bike_id":"4ac46dc3-8a8c-4dfb-85b1-751044e9d5b7","system_id":"levelo_inurba_marseille","lat":43.25728,"lon":5.41108,"is_reserved":false,"is_disabled":false,"rental_uris":{"android":"levelo://app?vid=4ac46dc3-8a8c-4dfb-85b1-751044e9d5b7","ios":"levelo://app?vid=4ac46dc3-8a8c-4dfb-85b1-751044e9d5b7"},"vehicle_type_id":"4","last_reported":1741612758,"current_range_meters":16800,"station_id":"ce4bhkp2rcd13ifvqgd0","pricing_plan_id":"cebpf4jnsgd1na2vs0mg"},{"bike_id":"5eb013d6-71a0-40c2-81ea-538226936e0d","system_id":"levelo_inurba_marseille","lat":43.23145,"lon":5.43725,"is_reserved":false,"is_disabled":false,"rental_uris":{"android":"levelo://app?vid=5eb013d6-71a0-40c2-81ea-538226936e0d","ios":"levelo://app?vid=5eb013d6-71a0-40c2-81ea-538226936e0d"},"vehicle_type_id":"4","last_reported":1741612758,"current_range_meters":16800,"station_id":"ce4bhmp2rcd13ifvqgog","pricing_plan_id":"cebpf4jnsgd1na2vs0mg"},{"bike_id":"11d8e867-88f8-4e72-81aa-2b0f7e036b0c","system_id":"levelo_inurba_marseille","lat":43.30468,"lon":5.37281,"is_reserved":false,"is_disabled":false,"rental_uris":{"android":"levelo://app?vid=11d8e867-88f8-4e72-81aa-2b0f7e036b0c","ios":"levelo://app?vid=11d8e867-88f8-4e72-81aa-2b0f7e036b0c"},"vehicle_type_id":"4","last_reported":1741612758,"current_range_meters":16800,"station_id":"","pricing_plan_id":"cebpf4jnsgd1na2vs0mg"},{"bike_id":"02ccda15-ca98-4f66-a5ee-609c485d624e","system_id":"levelo_inurba_marseille","lat":43.23956,"lon":5.36632,"is_reserved":false,"is_disabled":false,"rental_uris":{"android":"levelo://app?vid=02ccda15-ca98-4f66-a5ee-609c485d624e","ios":"levelo://app?vid=02ccda15-ca98-4f66-a5ee-609c485d624e"},"vehicle_type_id":"4","last_reported":1741612758,"current_range_meters":16800,"station_id":"ce4bhi12rcd13ifvqfp0","pricing_plan_id":"cebpf4jnsgd1na2vs0mg"},{"bike_id":"e4f61b86-04a4-4652-a877-15de8ddf1997","system_id":"levelo_inurba_marseille","lat":43.31215,"lon":5.3685,"is_reserved":false,"is_disabled":false,"rental_uris":{"android":"levelo://app?vid=e4f61b86-04a4-4652-a877-15de8ddf1997","ios":"levelo://app?vid=e4f61b86-04a4-4652-a877-15de8ddf1997"},"vehicle_type_id":"4","last_reported":1741612758,"current_range_meters":16800,"station_id":"ce4bgl92rcd13ifvqbq0","pricing_plan_id":"cebpf4jnsgd1na2vs0mg"},{"bike_id":"e87143b1-9e58-4027-910b-db66df266098","system_id":"levelo_inurba_marseille","lat":43.24083,"lon":5.37741,"is_reserved":false,"is_disabled":true,"rental_uris":{"android":"levelo://app?vid=e87143b1-9e58-4027-910b-db66df266098","ios":"levelo://app?vid=e87143b1-9e58-4027-910b-db66df266098"},"vehicle_type_id":"4","last_reported":1741612758,"current_range_meters":16800,"station_id":"ce4bhnp2rcd13ifvqgvg","pricing_plan_id":"cebpf4jnsgd1na2vs0mg"},{"bike_id":"02fdb897-0b66-49cc-bb11-b59e0562ea5a","system_id":"levelo_inurba_marseille","lat":43.2894,"lon":5.36641,"is_reserved":false,"is_disabled":false,"rental_uris":{"android":"levelo://app?vid=02fdb897-0b66-49cc-bb11-b59e0562ea5a","ios":"levelo://app?vid=02fdb897-0b66-49cc-bb11-b59e0562ea5a"},"vehicle_type_id":"4","last_reported":1741612758,"current_range_meters":16800,"station_id":"ce4bhap2rcd13ifvqek0","pricing_plan_id":"cebpf4jnsgd1na2vs0mg"},{"bike_id":"660d9bc6-01e0-497a-b4a7-8401c20436f1","system_id":"levelo_inurba_marseille","lat":43.262217,"lon":5.404533,"is_reserved":false,"is_disabled":false,"rental_uris":{"android":"levelo://app?vid=660d9bc6-01e0-497a-b4a7-8401c20436f1","ios":"levelo://app?vid=660d9bc6-01e0-497a-b4a7-8401c20436f1"},"vehicle_type_id":"4","last_reported":1741612758,"current_range_meters":16800,"station_id":"ce4bhmh2rcd13ifvqgmg","pricing_plan_id":"cebpf4jnsgd1na2vs0mg"},{"bike_id":"6a12a5f9-f229-4dc6-b753-f9ad1c1bf7a1","system_id":"levelo_inurba_marseille","lat":43.29576,"lon":5.36746,"is_reserved":false,"is_disabled":false,"rental_uris":{"android":"levelo://app?vid=6a12a5f9-f229-4dc6-b753-f9ad1c1bf7a1","ios":"levelo://app?vid=6a12a5f9-f229-4dc6-b753-f9ad1c1bf7a1"},"vehicle_type_id":"4","last_reported":1741612758,"current_range_meters":16800,"station_id":"ce4bgph2rcd13ifvqc2g","pricing_plan_id":"cebpf4jnsgd1na2vs0mg"},{"bike_id":"ac8e6b48-e483-4aef-bede-c5576834d55a","system_id":"levelo_inurba_marseille","lat":43.29861,"lon":5.3628,"is_reserved":false,"is_disabled":false,"rental_uris":{"android":"levelo://app?vid=ac8e6b48-e483-4aef-bede-c5576834d55a","ios":"levelo://app?vid=ac8e6b48-e483-4aef-bede-c5576834d55a"},"vehicle_type_id":"4","last_reported":1741612758,"current_range_meters":17200,"station_id":"ce4bgpp2rcd13ifvqc3g","pricing_plan_id":"cebpf4jnsgd1na2vs0mg"},{"bike_id":"1a26001d-d49a-47a3-a711-f7ff22c1c811","system_id":"levelo_inurba_marseille","lat":43.28904,"lon":5.37184,"is_reserved":false,"is_disabled":false,"rental_uris":{"android":"levelo://app?vid=1a26001d-d49a-47a3-a711-f7ff22c1c811","ios":"levelo://app?vid=1a26001d-d49a-47a3-a711-f7ff22c1c811"},"vehicle_type_id":"4","last_reported":1741612758,"current_range_meters":17200,"station_id":"","pricing_plan_id":"cebpf4jnsgd1na2vs0mg"},{"bike_id":"7d34c987-73ce-4ca4-a4f8-fc2f3288cfda","system_id":"levelo_inurba_marseille","lat":43.24175,"lon":5.39717,"is_reserved":false,"is_disabled":false,"rental_uris":{"android":"levelo://app?vid=7d34c987-73ce-4ca4-a4f8-fc2f3288cfda","ios":"levelo://app?vid=7d34c987-73ce-4ca4-a4f8-fc2f3288cfda"},"vehicle_type_id":"4","last_reported":1741612758,"current_range_meters":17200,"station_id":"ce4bhn12rcd13ifvqgpg","pricing_plan_id":"cebpf4jnsgd1na2vs0mg"},{"bike_id":"503750a2-a895-4af8-93cd-3a6e9cfdc956","system_id":"levelo_inurba_marseille","lat":43.28697,"lon":5.37386,"is_reserved":false,"is_disabled":false,"rental_uris":{"android":"levelo://app?vid=503750a2-a895-4af8-93cd-3a6e9cfdc956","ios":"levelo://app?vid=503750a2-a895-4af8-93cd-3a6e9cfdc956"},"vehicle_type_id":"4","last_reported":1741612758,"current_range_meters":17200,"station_id":"ce4bh3p2rcd13ifvqdq0","pricing_plan_id":"cebpf4jnsgd1na2vs0mg"},{"bike_id":"3e37f03c-e5a4-4e97-951f-7786bb1c3928","system_id":"levelo_inurba_marseille","lat":43.23164,"lon":5.43717,"is_reserved":false,"is_disabled":false,"rental_uris":{"android":"levelo://app?vid=3e37f03c-e5a4-4e97-951f-7786bb1c3928","ios":"levelo://app?vid=3e37f03c-e5a4-4e97-951f-7786bb1c3928"},"vehicle_type_id":"4","last_reported":1741612758,"current_range_meters":17200,"station_id":"ce4bhmp2rcd13ifvqgog","pricing_plan_id":"cebpf4jnsgd1na2vs0mg"},{"bike_id":"c72ef83e-d8c3-4531-a65b-454010096a44","system_id":"levelo_inurba_marseille","lat":43.26768,"lon":5.39446,"is_reserved":false,"is_disabled":false,"rental_uris":{"android":"levelo://app?vid=c72ef83e-d8c3-4531-a65b-454010096a44","ios":"levelo://app?vid=c72ef83e-d8c3-4531-a65b-454010096a44"},"vehicle_type_id":"4","last_reported":1741612758,"current_range_meters":17200,"station_id":"ce4bhh12rcd13ifvqfg0","pricing_plan_id":"cebpf4jnsgd1na2vs0mg"},{"bike_id":"6735741d-0a04-4961-9e79-b0554a98abc0","system_id":"levelo_inurba_marseille","lat":43.31346,"lon":5.36723,"is_reserved":false,"is_disabled":false,"rental_uris":{"android":"levelo://app?vid=6735741d-0a04-4961-9e79-b0554a98abc0","ios":"levelo://app?vid=6735741d-0a04-4961-9e79-b0554a98abc0"},"vehicle_type_id":"4","last_reported":1741612758,"current_range_meters":17200,"station_id":"ce4bgr92rcd13ifvqc6g","pricing_plan_id":"cebpf4jnsgd1na2vs0mg"},{"bike_id":"355585e3-220d-4f5c-af9d-8e4a5dc3baae","system_id":"levelo_inurba_marseille","lat":43.24072,"lon":5.37765,"is_reserved":false,"is_disabled":false,"rental_uris":{"android":"levelo://app?vid=355585e3-220d-4f5c-af9d-8e4a5dc3baae","ios":"levelo://app?vid=355585e3-220d-4f5c-af9d-8e4a5dc3baae"},"vehicle_type_id":"4","last_reported":1741612758,"current_range_meters":17600,"station_id":"ce4bhnp2rcd13ifvqgvg","pricing_plan_id":"cebpf4jnsgd1na2vs0mg"},{"bike_id":"f6dc7e9d-be33-4c3d-b28e-234510ea7980","system_id":"levelo_inurba_marseille","lat":43.29088,"lon":5.38083,"is_reserved":false,"is_disabled":false,"rental_uris":{"android":"levelo://app?vid=f6dc7e9d-be33-4c3d-b28e-234510ea7980","ios":"levelo://app?vid=f6dc7e9d-be33-4c3d-b28e-234510ea7980"},"vehicle_type_id":"4","last_reported":1741612758,"current_range_meters":17600,"station_id":"ce4bh512rcd13ifvqe2g","pricing_plan_id":"cebpf4jnsgd1na2vs0mg"},{"bike_id":"1617cee3-cdfd-4818-b8d5-0b6b5b838d97","system_id":"levelo_inurba_marseille","lat":43.24082,"lon":5.3774,"is_reserved":false,"is_disabled":false,"rental_uris":{"android":"levelo://app?vid=1617cee3-cdfd-4818-b8d5-0b6b5b838d97","ios":"levelo://app?vid=1617cee3-cdfd-4818-b8d5-0b6b5b838d97"},"vehicle_type_id":"4","last_reported":1741612758,"current_range_meters":17600,"station_id":"ce4bhnp2rcd13ifvqgvg","pricing_plan_id":"cebpf4jnsgd1na2vs0mg"},{"bike_id":"1d97a21b-7b18-4ce0-a800-4464669c2472","system_id":"levelo_inurba_marseille","lat":43.30145,"lon":5.38085,"is_reserved":false,"is_disabled":false,"rental_uris":{"android":"levelo://app?vid=1d97a21b-7b18-4ce0-a800-4464669c2472","ios":"levelo://app?vid=1d97a21b-7b18-4ce0-a800-4464669c2472"},"vehicle_type_id":"4","last_reported":1741612758,"current_range_meters":17600,"station_id":"ce4bgjp2rcd13ifvqbh0","pricing_plan_id":"cebpf4jnsgd1na2vs0mg"},{"bike_id":"41881254-5396-45de-8e01-d29523e995a9","system_id":"levelo_inurba_marseille","lat":43.26502,"lon":5.39537,"is_reserved":false,"is_disabled":false,"rental_uris":{"android":"levelo://app?vid=41881254-5396-45de-8e01-d29523e995a9","ios":"levelo://app?vid=41881254-5396-45de-8e01-d29523e995a9"},"vehicle_type_id":"4","last_reported":1741612758,"current_range_meters":17600,"station_id":"ce4bhi12rcd13ifvqfq0","pricing_plan_id":"cebpf4jnsgd1na2vs0mg"},{"bike_id":"5a86cf8d-68d1-45dd-8ef4-19f3766a28ac","system_id":"levelo_inurba_marseille","lat":43.27592,"lon":5.38406,"is_reserved":false,"is_disabled":true,"rental_uris":{"android":"levelo://app?vid=5a86cf8d-68d1-45dd-8ef4-19f3766a28ac","ios":"levelo://app?vid=5a86cf8d-68d1-45dd-8ef4-19f3766a28ac"},"vehicle_type_id":"4","last_reported":1741612758,"current_range_meters":17600,"station_id":"ce4bhh92rcd13ifvqfi0","pricing_plan_id":"cebpf4jnsgd1na2vs0mg"},{"bike_id":"67dd6593-a8f3-47b7-b81d-690c4caaffec","system_id":"levelo_inurba_marseille","lat":43.31318,"lon":5.39718,"is_reserved":false,"is_disabled":false,"rental_uris":{"android":"levelo://app?vid=67dd6593-a8f3-47b7-b81d-690c4caaffec","ios":"levelo://app?vid=67dd6593-a8f3-47b7-b81d-690c4caaffec"},"vehicle_type_id":"4","last_reported":1741612758,"current_range_meters":17600,"station_id":"ce4bgvp2rcd13ifvqcu0","pricing_plan_id":"cebpf4jnsgd1na2vs0mg"},{"bike_id":"f735ea01-c222-4169-9d18-74a61f3e28fb","system_id":"levelo_inurba_marseille","lat":43.289703,"lon":5.378457,"is_reserved":false,"is_disabled":false,"rental_uris":{"android":"levelo://app?vid=f735ea01-c222-4169-9d18-74a61f3e28fb","ios":"levelo://app?vid=f735ea01-c222-4169-9d18-74a61f3e28fb"},"vehicle_type_id":"4","last_reported":1741612758,"current_range_meters":18000,"station_id":"ce4bh412rcd13ifvqdr0","pricing_plan_id":"cebpf4jnsgd1na2vs0mg"},{"bike_id":"2cdec81d-2593-4153-a426-2f527f1b29e2","system_id":"levelo_inurba_marseille","lat":43.23595,"lon":5.391,"is_reserved":false,"is_disabled":false,"rental_uris":{"android":"levelo://app?vid=2cdec81d-2593-4153-a426-2f527f1b29e2","ios":"levelo://app?vid=2cdec81d-2593-4153-a426-2f527f1b29e2"},"vehicle_type_id":"4","last_reported":1741612758,"current_range_meters":18000,"station_id":"","pricing_plan_id":"cebpf4jnsgd1na2vs0mg"},{"bike_id":"ff002119-77db-4661-bc70-6fdcd3d202f7","system_id":"levelo_inurba_marseille","lat":43.30555,"lon":5.36521,"is_reserved":false,"is_disabled":false,"rental_uris":{"android":"levelo://app?vid=ff002119-77db-4661-bc70-6fdcd3d202f7","ios":"levelo://app?vid=ff002119-77db-4661-bc70-6fdcd3d202f7"},"vehicle_type_id":"4","last_reported":1741612758,"current_range_meters":18000,"station_id":"ce4bgs12rcd13ifvqcag","pricing_plan_id":"cebpf4jnsgd1na2vs0mg"},{"bike_id":"e9f0ddf6-c638-4a12-8ca0-d2f9784b891b","system_id":"levelo_inurba_marseille","lat":43.27814,"lon":5.40707,"is_reserved":false,"is_disabled":false,"rental_uris":{"android":"levelo://app?vid=e9f0ddf6-c638-4a12-8ca0-d2f9784b891b","ios":"levelo://app?vid=e9f0ddf6-c638-4a12-8ca0-d2f9784b891b"},"vehicle_type_id":"4","last_reported":1741612758,"current_range_meters":18000,"station_id":"ce4bhnh2rcd13ifvqgtg","pricing_plan_id":"cebpf4jnsgd1na2vs0mg"},{"bike_id":"ed83b13a-3a54-4a73-99eb-1884e036a862","system_id":"levelo_inurba_marseille","lat":43.30127,"lon":5.39858,"is_reserved":false,"is_disabled":false,"rental_uris":{"android":"levelo://app?vid=ed83b13a-3a54-4a73-99eb-1884e036a862","ios":"levelo://app?vid=ed83b13a-3a54-4a73-99eb-1884e036a862"},"vehicle_type_id":"4","last_reported":1741612758,"current_range_meters":18000,"station_id":"ce4bh0h2rcd13ifvqd40","pricing_plan_id":"cebpf4jnsgd1na2vs0mg"},{"bike_id":"7394a886-cc0b-4476-9283-ea68d1731284","system_id":"levelo_inurba_marseille","lat":43.28418,"lon":5.37501,"is_reserved":false,"is_disabled":false,"rental_uris":{"android":"levelo://app?vid=7394a886-cc0b-4476-9283-ea68d1731284","ios":"levelo://app?vid=7394a886-cc0b-4476-9283-ea68d1731284"},"vehicle_type_id":"4","last_reported":1741612758,"current_range_meters":18000,"station_id":"ce4bh412rcd13ifvqds0","pricing_plan_id":"cebpf4jnsgd1na2vs0mg"},{"bike_id":"303473d0-c71d-4532-867e-1af4d571971a","system_id":"levelo_inurba_marseille","lat":43.31099,"lon":5.42433,"is_reserved":false,"is_disabled":false,"rental_uris":{"android":"levelo://app?vid=303473d0-c71d-4532-867e-1af4d571971a","ios":"levelo://app?vid=303473d0-c71d-4532-867e-1af4d571971a"},"vehicle_type_id":"4","last_reported":1741612758,"current_range_meters":18000,"station_id":"ce4bhp92rcd13ifvqhag","pricing_plan_id":"cebpf4jnsgd1na2vs0mg"},{"bike_id":"565febc3-3424-4d4c-95ca-5705a262f891","system_id":"levelo_inurba_marseille","lat":43.28162,"lon":5.42655,"is_reserved":false,"is_disabled":false,"rental_uris":{"android":"levelo://app?vid=565febc3-3424-4d4c-95ca-5705a262f891","ios":"levelo://app?vid=565febc3-3424-4d4c-95ca-5705a262f891"},"vehicle_type_id":"4","last_reported":1741612758,"current_range_meters":18000,"station_id":"ce4bhnh2rcd13ifvqgug","pricing_plan_id":"cebpf4jnsgd1na2vs0mg"},{"bike_id":"080b3e92-a85d-42ef-a83a-1ffc3d9be0e9","system_id":"levelo_inurba_marseille","lat":43.2979,"lon":5.38099,"is_reserved":false,"is_disabled":false,"rental_uris":{"android":"levelo://app?vid=080b3e92-a85d-42ef-a83a-1ffc3d9be0e9","ios":"levelo://app?vid=080b3e92-a85d-42ef-a83a-1ffc3d9be0e9"},"vehicle_type_id":"4","last_reported":1741612758,"current_range_meters":18000,"station_id":"ce4bgip2rcd13ifvqbb0","pricing_plan_id":"cebpf4jnsgd1na2vs0mg"},{"bike_id":"5bdb40ba-3e54-4990-89fd-56ecb836491e","system_id":"levelo_inurba_marseille","lat":43.23139,"lon":5.43734,"is_reserved":false,"is_disabled":false,"rental_uris":{"android":"levelo://app?vid=5bdb40ba-3e54-4990-89fd-56ecb836491e","ios":"levelo://app?vid=5bdb40ba-3e54-4990-89fd-56ecb836491e"},"vehicle_type_id":"4","last_reported":1741612758,"current_range_meters":18800,"station_id":"ce4bhmp2rcd13ifvqgog","pricing_plan_id":"cebpf4jnsgd1na2vs0mg"},{"bike_id":"ad4403aa-9122-4c46-b577-9d401e35aa35","system_id":"levelo_inurba_marseille","lat":43.23966,"lon":5.36622,"is_reserved":false,"is_disabled":false,"rental_uris":{"android":"levelo://app?vid=ad4403aa-9122-4c46-b577-9d401e35aa35","ios":"levelo://app?vid=ad4403aa-9122-4c46-b577-9d401e35aa35"},"vehicle_type_id":"4","last_reported":1741612758,"current_range_meters":18000,"station_id":"ce4bhi12rcd13ifvqfp0","pricing_plan_id":"cebpf4jnsgd1na2vs0mg"},{"bike_id":"5837efa3-6531-4377-a228-5a19b042c80e","system_id":"levelo_inurba_marseille","lat":43.27208,"lon":5.39198,"is_reserved":false,"is_disabled":false,"rental_uris":{"android":"levelo://app?vid=5837efa3-6531-4377-a228-5a19b042c80e","ios":"levelo://app?vid=5837efa3-6531-4377-a228-5a19b042c80e"},"vehicle_type_id":"4","last_reported":1741612758,"current_range_meters":18800,"station_id":"ce4bhhp2rcd13ifvqfm0","pricing_plan_id":"cebpf4jnsgd1na2vs0mg"},{"bike_id":"fdaa1059-b581-419b-ac4d-269c36f9ab41","system_id":"levelo_inurba_marseille","lat":43.32106,"lon":5.36771,"is_reserved":false,"is_disabled":false,"rental_uris":{"android":"levelo://app?vid=fdaa1059-b581-419b-ac4d-269c36f9ab41","ios":"levelo://app?vid=fdaa1059-b581-419b-ac4d-269c36f9ab41"},"vehicle_type_id":"4","last_reported":1741612758,"current_range_meters":18800,"station_id":"ce4bhrh2rcd13ifvqhug","pricing_plan_id":"cebpf4jnsgd1na2vs0mg"},{"bike_id":"5540180e-55d0-4c4d-8e95-598bebdc1ae2","system_id":"levelo_inurba_marseille","lat":43.32484,"lon":5.3657,"is_reserved":false,"is_disabled":false,"rental_uris":{"android":"levelo://app?vid=5540180e-55d0-4c4d-8e95-598bebdc1ae2","ios":"levelo://app?vid=5540180e-55d0-4c4d-8e95-598bebdc1ae2"},"vehicle_type_id":"4","last_reported":1741612758,"current_range_meters":18800,"station_id":"ce4bhs12rcd13ifvqhvg","pricing_plan_id":"cebpf4jnsgd1na2vs0mg"},{"bike_id":"0bab9a11-637e-4d69-93e1-df8c4801598d","system_id":"levelo_inurba_marseille","lat":43.30191,"lon":5.3737,"is_reserved":false,"is_disabled":false,"rental_uris":{"android":"levelo://app?vid=0bab9a11-637e-4d69-93e1-df8c4801598d","ios":"levelo://app?vid=0bab9a11-637e-4d69-93e1-df8c4801598d"},"vehicle_type_id":"4","last_reported":1741612758,"current_range_meters":18800,"station_id":"ce4bgs92rcd13ifvqcc0","pricing_plan_id":"cebpf4jnsgd1na2vs0mg"},{"bike_id":"9776d519-3376-4f51-aaa3-2da63911d7cc","system_id":"levelo_inurba_marseille","lat":43.2509,"lon":5.39516,"is_reserved":false,"is_disabled":false,"rental_uris":{"android":"levelo://app?vid=9776d519-3376-4f51-aaa3-2da63911d7cc","ios":"levelo://app?vid=9776d519-3376-4f51-aaa3-2da63911d7cc"},"vehicle_type_id":"4","last_reported":1741612758,"current_range_meters":18800,"station_id":"ce4bhm12rcd13ifvqgkg","pricing_plan_id":"cebpf4jnsgd1na2vs0mg"},{"bike_id":"2d93c67e-330c-4c7b-8517-c03567315b70","system_id":"levelo_inurba_marseille","lat":43.28154,"lon":5.42646,"is_reserved":false,"is_disabled":false,"rental_uris":{"android":"levelo://app?vid=2d93c67e-330c-4c7b-8517-c03567315b70","ios":"levelo://app?vid=2d93c67e-330c-4c7b-8517-c03567315b70"},"vehicle_type_id":"4","last_reported":1741612758,"current_range_meters":18800,"station_id":"ce4bhnh2rcd13ifvqgug","pricing_plan_id":"cebpf4jnsgd1na2vs0mg"},{"bike_id":"78549cf8-b0cc-41c9-ae90-189226d24ef8","system_id":"levelo_inurba_marseille","lat":43.29871,"lon":5.36279,"is_reserved":false,"is_disabled":false,"rental_uris":{"android":"levelo://app?vid=78549cf8-b0cc-41c9-ae90-189226d24ef8","ios":"levelo://app?vid=78549cf8-b0cc-41c9-ae90-189226d24ef8"},"vehicle_type_id":"4","last_reported":1741612758,"current_range_meters":18800,"station_id":"ce4bgpp2rcd13ifvqc3g","pricing_plan_id":"cebpf4jnsgd1na2vs0mg"},{"bike_id":"da5de818-c414-435c-8624-d7ff6a8a3d3d","system_id":"levelo_inurba_marseille","lat":43.2871,"lon":5.37935,"is_reserved":false,"is_disabled":false,"rental_uris":{"android":"levelo://app?vid=da5de818-c414-435c-8624-d7ff6a8a3d3d","ios":"levelo://app?vid=da5de818-c414-435c-8624-d7ff6a8a3d3d"},"vehicle_type_id":"4","last_reported":1741612758,"current_range_meters":18800,"station_id":"ce4bh9p2rcd13ifvqec0","pricing_plan_id":"cebpf4jnsgd1na2vs0mg"},{"bike_id":"f0b5f6b7-161e-4c72-8f30-8d8e8d5c374f","system_id":"levelo_inurba_marseille","lat":43.245803,"lon":5.40491,"is_reserved":false,"is_disabled":false,"rental_uris":{"android":"levelo://app?vid=f0b5f6b7-161e-4c72-8f30-8d8e8d5c374f","ios":"levelo://app?vid=f0b5f6b7-161e-4c72-8f30-8d8e8d5c374f"},"vehicle_type_id":"4","last_reported":1741612758,"current_range_meters":18800,"station_id":"","pricing_plan_id":"cebpf4jnsgd1na2vs0mg"},{"bike_id":"fca66b87-6710-45db-a94e-4d062d6e67d0","system_id":"levelo_inurba_marseille","lat":43.30121,"lon":5.37442,"is_reserved":false,"is_disabled":false,"rental_uris":{"android":"levelo://app?vid=fca66b87-6710-45db-a94e-4d062d6e67d0","ios":"levelo://app?vid=fca66b87-6710-45db-a94e-4d062d6e67d0"},"vehicle_type_id":"4","last_reported":1741612758,"current_range_meters":18800,"station_id":"ce4bgs92rcd13ifvqcc0","pricing_plan_id":"cebpf4jnsgd1na2vs0mg"},{"bike_id":"0c377b3d-9420-49ea-8e7a-f8945a93ca15","system_id":"levelo_inurba_marseille","lat":43.27994,"lon":5.40007,"is_reserved":false,"is_disabled":false,"rental_uris":{"android":"levelo://app?vid=0c377b3d-9420-49ea-8e7a-f8945a93ca15","ios":"levelo://app?vid=0c377b3d-9420-49ea-8e7a-f8945a93ca15"},"vehicle_type_id":"4","last_reported":1741612758,"current_range_meters":18800,"station_id":"ce4bho92rcd13ifvqh4g","pricing_plan_id":"cebpf4jnsgd1na2vs0mg"},{"bike_id":"210fdac4-a708-426e-b618-80e060bd1617","system_id":"levelo_inurba_marseille","lat":43.25115,"lon":5.40311,"is_reserved":false,"is_disabled":false,"rental_uris":{"android":"levelo://app?vid=210fdac4-a708-426e-b618-80e060bd1617","ios":"levelo://app?vid=210fdac4-a708-426e-b618-80e060bd1617"},"vehicle_type_id":"4","last_reported":1741612758,"current_range_meters":19200,"station_id":"ce4bhlh2rcd13ifvqgig","pricing_plan_id":"cebpf4jnsgd1na2vs0mg"},{"bike_id":"ccdadb5f-e876-4af5-ab71-fb496e0fb2fe","system_id":"levelo_inurba_marseille","lat":43.27671,"lon":5.38887,"is_reserved":false,"is_disabled":false,"rental_uris":{"android":"levelo://app?vid=ccdadb5f-e876-4af5-ab71-fb496e0fb2fe","ios":"levelo://app?vid=ccdadb5f-e876-4af5-ab71-fb496e0fb2fe"},"vehicle_type_id":"4","last_reported":1741612758,"current_range_meters":18800,"station_id":"ce4bhi12rcd13ifvqfo0","pricing_plan_id":"cebpf4jnsgd1na2vs0mg"},{"bike_id":"297d8986-05e1-4579-8358-569362d23246","system_id":"levelo_inurba_marseille","lat":43.30298,"lon":5.39196,"is_reserved":false,"is_disabled":false,"rental_uris":{"android":"levelo://app?vid=297d8986-05e1-4579-8358-569362d23246","ios":"levelo://app?vid=297d8986-05e1-4579-8358-569362d23246"},"vehicle_type_id":"4","last_reported":1741612758,"current_range_meters":19200,"station_id":"ce4bgkh2rcd13ifvqbk0","pricing_plan_id":"cebpf4jnsgd1na2vs0mg"},{"bike_id":"042e8d88-219b-4742-948b-b999b4fcd75e","system_id":"levelo_inurba_marseille","lat":43.29608,"lon":5.38106,"is_reserved":false,"is_disabled":false,"rental_uris":{"android":"levelo://app?vid=042e8d88-219b-4742-948b-b999b4fcd75e","ios":"levelo://app?vid=042e8d88-219b-4742-948b-b999b4fcd75e"},"vehicle_type_id":"4","last_reported":1741612758,"current_range_meters":19200,"station_id":"ce4bgl12rcd13ifvqbo0","pricing_plan_id":"cebpf4jnsgd1na2vs0mg"},{"bike_id":"2bbfc1dc-382a-426d-814d-d24a23157160","system_id":"levelo_inurba_marseille","lat":43.28462,"lon":5.35884,"is_reserved":false,"is_disabled":false,"rental_uris":{"android":"levelo://app?vid=2bbfc1dc-382a-426d-814d-d24a23157160","ios":"levelo://app?vid=2bbfc1dc-382a-426d-814d-d24a23157160"},"vehicle_type_id":"4","last_reported":1741612758,"current_range_meters":19600,"station_id":"ce4bhah2rcd13ifvqei0","pricing_plan_id":"cebpf4jnsgd1na2vs0mg"},{"bike_id":"96694443-1f4d-4593-92c8-bcd98602e62e","system_id":"levelo_inurba_marseille","lat":43.30523,"lon":5.36713,"is_reserved":false,"is_disabled":false,"rental_uris":{"android":"levelo://app?vid=96694443-1f4d-4593-92c8-bcd98602e62e","ios":"levelo://app?vid=96694443-1f4d-4593-92c8-bcd98602e62e"},"vehicle_type_id":"4","last_reported":1741612758,"current_range_meters":19600,"station_id":"ce4bgrp2rcd13ifvqc9g","pricing_plan_id":"cebpf4jnsgd1na2vs0mg"},{"bike_id":"17b872eb-086c-460e-bcad-782a4a781cf9","system_id":"levelo_inurba_marseille","lat":43.2517,"lon":5.42555,"is_reserved":false,"is_disabled":false,"rental_uris":{"android":"levelo://app?vid=17b872eb-086c-460e-bcad-782a4a781cf9","ios":"levelo://app?vid=17b872eb-086c-460e-bcad-782a4a781cf9"},