{"last_updated":1740420810,"ttl":60,"version":"2.2","data":{"bikes":[{"bike_id":"5b80b31e-0c9c-426c-91b6-610bb1dd7731","system_id":"levelo_inurba_marseille","lat":43.28344,"lon":5.38249,"is_reserved":false,"is_disabled":false,"rental_uris":{"android":"levelo://app?vid=5b80b31e-0c9c-426c-91b6-610bb1dd7731","ios":"levelo://app?vid=5b80b31e-0c9c-426c-91b6-610bb1dd7731"},"vehicle_type_id":"4","last_reported":1740420810,"current_range_meters":2800,"station_id":"","pricing_plan_id":"cebpf4jnsgd1na2vs0mg"},{"bike_id":"54b41cd5-254f-4eb4-a577-3760478e00e3","system_id":"levelo_inurba_marseille","lat":43.25,"lon":5.38925,"is_reserved":false,"is_disabled":false,"rental_uris":{"android":"levelo://app?vid=54b41cd5-254f-4eb4-a577-3760478e00e3","ios":"levelo://app?vid=54b41cd5-254f-4eb4-a577-3760478e00e3"},"vehicle_type_id":"4","last_reported":1740420810,"current_range_meters":2800,"station_id":"ce4bh312rcd13ifvqdk0","pricing_plan_id":"cebpf4jnsgd1na2vs0mg"},{"bike_id":"2841af96-eea4-48a3-ae7d-340043bf1816","system_id":"levelo_inurba_marseille","lat":43.29967,"lon":5.41327,"is_reserved":false,"is_disabled":false,"rental_uris":{"android":"levelo://app?vid=2841af96-eea4-48a3-ae7d-340043bf1816","ios":"levelo://app?vid=2841af96-eea4-48a3-ae7d-340043bf1816"},"vehicle_type_id":"4","last_reported":1740420810,"current_range_meters":2800,"station_id":"ce4bhp12rcd13ifvqh9g","pricing_plan_id":"cebpf4jnsgd1na2vs0mg"},{"bike_id":"487d457c-2bbd-444e-8cc4-c08bdfb63ac1","system_id":"levelo_inurba_marseille","lat":43.31332,"lon":5.39692,"is_reserved":false,"is_disabled":false,"rental_uris":{"android":"levelo://app?vid=487d457c-2bbd-444e-8cc4-c08bdfb63ac1","ios":"levelo://app?vid=487d457c-2bbd-444e-8cc4-c08bdfb63ac1"},"vehicle_type_id":"4","last_reported":1740420810,"current_range_meters":3200,"station_id":"ce4bgvp2rcd13ifvqcu0","pricing_plan_id":"cebpf4jnsgd1na2vs0mg"},{"bike_id":"ea54002b-76fa-4b55-a63a-0a534175f424","system_id":"levelo_inurba_marseille","lat":43.30887,"lon":5.39656,"is_reserved":false,"is_disabled":false,"rental_uris":{"android":"levelo://app?vid=ea54002b-76fa-4b55-a63a-0a534175f424","ios":"levelo://app?vid=ea54002b-76fa-4b55-a63a-0a534175f424"},"vehicle_type_id":"4","last_reported":1740420810,"current_range_meters":3200,"station_id":"ce4bh012rcd13ifvqcv0","pricing_plan_id":"cebpf4jnsgd1na2vs0mg"},{"bike_id":"b2d0dbf0-bed4-47fd-afc8-181116557831","system_id":"levelo_inurba_marseille","lat":43.30803,"lon":5.43529,"is_reserved":false,"is_disabled":false,"rental_uris":{"android":"levelo://app?vid=b2d0dbf0-bed4-47fd-afc8-181116557831","ios":"levelo://app?vid=b2d0dbf0-bed4-47fd-afc8-181116557831"},"vehicle_type_id":"4","last_reported":1740420810,"current_range_meters":1600,"station_id":"ce4bhph2rcd13ifvqheg","pricing_plan_id":"cebpf4jnsgd1na2vs0mg"},{"bike_id":"8825da9a-338a-43f1-904f-825e636e0a6d","system_id":"levelo_inurba_marseille","lat":43.28698,"lon":5.3793,"is_reserved":false,"is_disabled":false,"rental_uris":{"android":"levelo://app?vid=8825da9a-338a-43f1-904f-825e636e0a6d","ios":"levelo://app?vid=8825da9a-338a-43f1-904f-825e636e0a6d"},"vehicle_type_id":"4","last_reported":1740420810,"current_range_meters":3600,"station_id":"ce4bh9p2rcd13ifvqec0","pricing_plan_id":"cebpf4jnsgd1na2vs0mg"},{"bike_id":"b5f04e91-577c-422e-91f9-4c8b034d409d","system_id":"levelo_inurba_marseille","lat":43.28271,"lon":5.35064,"is_reserved":false,"is_disabled":false,"rental_uris":{"android":"levelo://app?vid=b5f04e91-577c-422e-91f9-4c8b034d409d","ios":"levelo://app?vid=b5f04e91-577c-422e-91f9-4c8b034d409d"},"vehicle_type_id":"4","last_reported":1740420810,"current_range_meters":3600,"station_id":"ce4bhbp2rcd13ifvqerg","pricing_plan_id":"cebpf4jnsgd1na2vs0mg"},{"bike_id":"c88f8582-6303-4c1c-8736-9dea940c8fcb","system_id":"levelo_inurba_marseille","lat":43.27615,"lon":5.36114,"is_reserved":false,"is_disabled":false,"rental_uris":{"android":"levelo://app?vid=c88f8582-6303-4c1c-8736-9dea940c8fcb","ios":"levelo://app?vid=c88f8582-6303-4c1c-8736-9dea940c8fcb"},"vehicle_type_id":"4","last_reported":1740420810,"current_range_meters":3600,"station_id":"ce4bgj92rcd13ifvqbe0","pricing_plan_id":"cebpf4jnsgd1na2vs0mg"},{"bike_id":"8642a186-436d-48e0-8783-21fd284a7461","system_id":"levelo_inurba_marseille","lat":43.30889,"lon":5.39658,"is_reserved":false,"is_disabled":false,"rental_uris":{"android":"levelo://app?vid=8642a186-436d-48e0-8783-21fd284a7461","ios":"levelo://app?vid=8642a186-436d-48e0-8783-21fd284a7461"},"vehicle_type_id":"4","last_reported":1740420810,"current_range_meters":3600,"station_id":"ce4bh012rcd13ifvqcv0","pricing_plan_id":"cebpf4jnsgd1na2vs0mg"},{"bike_id":"94c984cd-8190-4e8d-9899-ccd47124c851","system_id":"levelo_inurba_marseille","lat":43.29021,"lon":5.38647,"is_reserved":false,"is_disabled":false,"rental_uris":{"android":"levelo://app?vid=94c984cd-8190-4e8d-9899-ccd47124c851","ios":"levelo://app?vid=94c984cd-8190-4e8d-9899-ccd47124c851"},"vehicle_type_id":"4","last_reported":1740420810,"current_range_meters":3600,"station_id":"ce4bh4p2rcd13ifvqe0g","pricing_plan_id":"cebpf4jnsgd1na2vs0mg"},{"bike_id":"50a03b29-b76f-4fb2-91d7-00d2a75d785c","system_id":"levelo_inurba_marseille","lat":43.29281,"lon":5.37622,"is_reserved":false,"is_disabled":true,"rental_uris":{"android":"levelo://app?vid=50a03b29-b76f-4fb2-91d7-00d2a75d785c","ios":"levelo://app?vid=50a03b29-b76f-4fb2-91d7-00d2a75d785c"},"vehicle_type_id":"4","last_reported":1740420810,"current_range_meters":3600,"station_id":"ce4bgi12rcd13ifvqb80","pricing_plan_id":"cebpf4jnsgd1na2vs0mg"},{"bike_id":"413dc171-4546-4050-9354-c607ae4433bf","system_id":"levelo_inurba_marseille","lat":43.30183,"lon":5.39603,"is_reserved":false,"is_disabled":true,"rental_uris":{"android":"levelo://app?vid=413dc171-4546-4050-9354-c607ae4433bf","ios":"levelo://app?vid=413dc171-4546-4050-9354-c607ae4433bf"},"vehicle_type_id":"4","last_reported":1740420810,"current_range_meters":4400,"station_id":"","pricing_plan_id":"cebpf4jnsgd1na2vs0mg"},{"bike_id":"711e2df0-b095-41e4-b67d-cdf72bcb8bdb","system_id":"levelo_inurba_marseille","lat":43.28927,"lon":5.38396,"is_reserved":false,"is_disabled":false,"rental_uris":{"android":"levelo://app?vid=711e2df0-b095-41e4-b67d-cdf72bcb8bdb","ios":"levelo://app?vid=711e2df0-b095-41e4-b67d-cdf72bcb8bdb"},"vehicle_type_id":"4","last_reported":1740420810,"current_range_meters":3600,"station_id":"ce4bh612rcd13ifvqe6g","pricing_plan_id":"cebpf4jnsgd1na2vs0mg"},{"bike_id":"11ddcd97-934f-46ab-a61b-0ba9e628bf7c","system_id":"levelo_inurba_marseille","lat":43.3046,"lon":5.37909,"is_reserved":false,"is_disabled":false,"rental_uris":{"android":"levelo://app?vid=11ddcd97-934f-46ab-a61b-0ba9e628bf7c","ios":"levelo://app?vid=11ddcd97-934f-46ab-a61b-0ba9e628bf7c"},"vehicle_type_id":"4","last_reported":1740420810,"current_range_meters":4400,"station_id":"ce4bgup2rcd13ifvqcn0","pricing_plan_id":"cebpf4jnsgd1na2vs0mg"},{"bike_id":"dfa79404-9bfe-43c2-bbe5-2a45d8e788b1","system_id":"levelo_inurba_marseille","lat":43.29627,"lon":5.40594,"is_reserved":false,"is_disabled":false,"rental_uris":{"android":"levelo://app?vid=dfa79404-9bfe-43c2-bbe5-2a45d8e788b1","ios":"levelo://app?vid=dfa79404-9bfe-43c2-bbe5-2a45d8e788b1"},"vehicle_type_id":"4","last_reported":1740420810,"current_range_meters":4400,"station_id":"ce4bh2p2rcd13ifvqdi0","pricing_plan_id":"cebpf4jnsgd1na2vs0mg"},{"bike_id":"536b5b0c-818d-468c-bd39-1caf28c779c5","system_id":"levelo_inurba_marseille","lat":43.28427,"lon":5.34988,"is_reserved":false,"is_disabled":false,"rental_uris":{"android":"levelo://app?vid=536b5b0c-818d-468c-bd39-1caf28c779c5","ios":"levelo://app?vid=536b5b0c-818d-468c-bd39-1caf28c779c5"},"vehicle_type_id":"4","last_reported":1740420810,"current_range_meters":0,"station_id":"ce4bhbh2rcd13ifvqepg","pricing_plan_id":"cebpf4jnsgd1na2vs0mg"},{"bike_id":"c0820067-1e26-4caf-adf9-5b420d1383e7","system_id":"levelo_inurba_marseille","lat":43.28845,"lon":5.39312,"is_reserved":false,"is_disabled":false,"rental_uris":{"android":"levelo://app?vid=c0820067-1e26-4caf-adf9-5b420d1383e7","ios":"levelo://app?vid=c0820067-1e26-4caf-adf9-5b420d1383e7"},"vehicle_type_id":"4","last_reported":1740420810,"current_range_meters":5600,"station_id":"ce4bh2p2rcd13ifvqdi0","pricing_plan_id":"cebpf4jnsgd1na2vs0mg"},{"bike_id":"58850727-6510-41bb-8cd8-2a4fa60d2d15","system_id":"levelo_inurba_marseille","lat":43.28155,"lon":5.42642,"is_reserved":false,"is_disabled":false,"rental_uris":{"android":"levelo://app?vid=58850727-6510-41bb-8cd8-2a4fa60d2d15","ios":"levelo://app?vid=58850727-6510-41bb-8cd8-2a4fa60d2d15"},"vehicle_type_id":"4","last_reported":1740420810,"current_range_meters":5600,"station_id":"ce4bhnh2rcd13ifvqgug","pricing_plan_id":"cebpf4jnsgd1na2vs0mg"},{"bike_id":"ec313725-c446-4e69-8459-ab991a282c2d","system_id":"levelo_inurba_marseille","lat":43.28154,"lon":5.42643,"is_reserved":false,"is_disabled":false,"rental_uris":{"android":"levelo://app?vid=ec313725-c446-4e69-8459-ab991a282c2d","ios":"levelo://app?vid=ec313725-c446-4e69-8459-ab991a282c2d"},"vehicle_type_id":"4","last_reported":1740420810,"current_range_meters":5600,"station_id":"ce4bhnh2rcd13ifvqgug","pricing_plan_id":"cebpf4jnsgd1na2vs0mg"},{"bike_id":"3061fe86-7983-4a08-9e22-9792ae76a5df","system_id":"levelo_inurba_marseille","lat":43.29715,"lon":5.36608,"is_reserved":false,"is_disabled":false,"rental_uris":{"android":"levelo://app?vid=3061fe86-7983-4a08-9e22-9792ae76a5df","ios":"levelo://app?vid=3061fe86-7983-4a08-9e22-9792ae76a5df"},"vehicle_type_id":"4","last_reported":1740420810,"current_range_meters":5600,"station_id":"ce4bgn12rcd13ifvqbt0","pricing_plan_id":"cebpf4jnsgd1na2vs0mg"},{"bike_id":"9131f719-5fdd-4ab0-9dfb-257f2ccc13cb","system_id":"levelo_inurba_marseille","lat":43.28925,"lon":5.36615,"is_reserved":false,"is_disabled":false,"rental_uris":{"android":"levelo://app?vid=9131f719-5fdd-4ab0-9dfb-257f2ccc13cb","ios":"levelo://app?vid=9131f719-5fdd-4ab0-9dfb-257f2ccc13cb"},"vehicle_type_id":"4","last_reported":1740420810,"current_range_meters":5600,"station_id":"ce4bhap2rcd13ifvqek0","pricing_plan_id":"cebpf4jnsgd1na2vs0mg"},{"bike_id":"a14b3fb1-2d8d-465c-9be3-0d82b8699fa5","system_id":"levelo_inurba_marseille","lat":43.27998,"lon":5.40015,"is_reserved":false,"is_disabled":false,"rental_uris":{"android":"levelo://app?vid=a14b3fb1-2d8d-465c-9be3-0d82b8699fa5","ios":"levelo://app?vid=a14b3fb1-2d8d-465c-9be3-0d82b8699fa5"},"vehicle_type_id":"4","last_reported":1740420810,"current_range_meters":5600,"station_id":"ce4bho92rcd13ifvqh4g","pricing_plan_id":"cebpf4jnsgd1na2vs0mg"},{"bike_id":"8cf903a0-7a23-4ed1-83b3-c8e136aea693","system_id":"levelo_inurba_marseille","lat":43.30248,"lon":5.40056,"is_reserved":false,"is_disabled":false,"rental_uris":{"android":"levelo://app?vid=8cf903a0-7a23-4ed1-83b3-c8e136aea693","ios":"levelo://app?vid=8cf903a0-7a23-4ed1-83b3-c8e136aea693"},"vehicle_type_id":"4","last_reported":1740420810,"current_range_meters":5600,"station_id":"ce4bgvh2rcd13ifvqcs0","pricing_plan_id":"cebpf4jnsgd1na2vs0mg"},{"bike_id":"24eab74a-554c-4ca9-8d53-fb9ff42e8252","system_id":"levelo_inurba_marseille","lat":43.31118,"lon":5.37764,"is_reserved":false,"is_disabled":false,"rental_uris":{"android":"levelo://app?vid=24eab74a-554c-4ca9-8d53-fb9ff42e8252","ios":"levelo://app?vid=24eab74a-554c-4ca9-8d53-fb9ff42e8252"},"vehicle_type_id":"4","last_reported":1740420810,"current_range_meters":5600,"station_id":"ce4bgt92rcd13ifvqcg0","pricing_plan_id":"cebpf4jnsgd1na2vs0mg"},{"bike_id":"368957ca-8d18-407e-a70e-1d97299aaff6","system_id":"levelo_inurba_marseille","lat":43.23179,"lon":5.39987,"is_reserved":false,"is_disabled":false,"rental_uris":{"android":"levelo://app?vid=368957ca-8d18-407e-a70e-1d97299aaff6","ios":"levelo://app?vid=368957ca-8d18-407e-a70e-1d97299aaff6"},"vehicle_type_id":"4","last_reported":1740420810,"current_range_meters":6000,"station_id":"ce4bhn12rcd13ifvqgqg","pricing_plan_id":"cebpf4jnsgd1na2vs0mg"},{"bike_id":"d9568535-deea-4b2e-b21c-68057ec27ba8","system_id":"levelo_inurba_marseille","lat":43.30603,"lon":5.372385,"is_reserved":false,"is_disabled":false,"rental_uris":{"android":"levelo://app?vid=d9568535-deea-4b2e-b21c-68057ec27ba8","ios":"levelo://app?vid=d9568535-deea-4b2e-b21c-68057ec27ba8"},"vehicle_type_id":"4","last_reported":1740420810,"current_range_meters":6400,"station_id":"ce4bgqh2rcd13ifvqc4g","pricing_plan_id":"cebpf4jnsgd1na2vs0mg"},{"bike_id":"16a64962-c840-403e-8215-260ce50518b7","system_id":"levelo_inurba_marseille","lat":43.28155,"lon":5.42653,"is_reserved":false,"is_disabled":true,"rental_uris":{"android":"levelo://app?vid=16a64962-c840-403e-8215-260ce50518b7","ios":"levelo://app?vid=16a64962-c840-403e-8215-260ce50518b7"},"vehicle_type_id":"4","last_reported":1740420810,"current_range_meters":6800,"station_id":"ce4bhnh2rcd13ifvqgug","pricing_plan_id":"cebpf4jnsgd1na2vs0mg"},{"bike_id":"a25f4e6a-33fb-43e9-9be1-23ba5cbf550d","system_id":"levelo_inurba_marseille","lat":43.29535,"lon":5.39043,"is_reserved":false,"is_disabled":false,"rental_uris":{"android":"levelo://app?vid=a25f4e6a-33fb-43e9-9be1-23ba5cbf550d","ios":"levelo://app?vid=a25f4e6a-33fb-43e9-9be1-23ba5cbf550d"},"vehicle_type_id":"4","last_reported":1740420810,"current_range_meters":6800,"station_id":"ce4bh3p2rcd13ifvqdp0","pricing_plan_id":"cebpf4jnsgd1na2vs0mg"},{"bike_id":"7a527984-4cb1-4840-8a91-eb478285377b","system_id":"levelo_inurba_marseille","lat":43.28272,"lon":5.35073,"is_reserved":false,"is_disabled":false,"rental_uris":{"android":"levelo://app?vid=7a527984-4cb1-4840-8a91-eb478285377b","ios":"levelo://app?vid=7a527984-4cb1-4840-8a91-eb478285377b"},"vehicle_type_id":"4","last_reported":1740420810,"current_range_meters":6000,"station_id":"ce4bhbp2rcd13ifvqerg","pricing_plan_id":"cebpf4jnsgd1na2vs0mg"},{"bike_id":"3e7d99b0-ccb5-450f-944d-95e765ac866f","system_id":"levelo_inurba_marseille","lat":43.33035,"lon":5.3904,"is_reserved":false,"is_disabled":false,"rental_uris":{"android":"levelo://app?vid=3e7d99b0-ccb5-450f-944d-95e765ac866f","ios":"levelo://app?vid=3e7d99b0-ccb5-450f-944d-95e765ac866f"},"vehicle_type_id":"4","last_reported":1740420810,"current_range_meters":6800,"station_id":"ce4bhr92rcd13ifvqhrg","pricing_plan_id":"cebpf4jnsgd1na2vs0mg"},{"bike_id":"9906d319-71ba-41e2-b34b-e416cab953b8","system_id":"levelo_inurba_marseille","lat":43.26215,"lon":5.40477,"is_reserved":false,"is_disabled":false,"rental_uris":{"android":"levelo://app?vid=9906d319-71ba-41e2-b34b-e416cab953b8","ios":"levelo://app?vid=9906d319-71ba-41e2-b34b-e416cab953b8"},"vehicle_type_id":"4","last_reported":1740420810,"current_range_meters":6800,"station_id":"ce4bhmh2rcd13ifvqgmg","pricing_plan_id":"cebpf4jnsgd1na2vs0mg"},{"bike_id":"0423d920-4043-4652-b688-10bf2d3098cd","system_id":"levelo_inurba_marseille","lat":43.25586,"lon":5.38232,"is_reserved":false,"is_disabled":false,"rental_uris":{"android":"levelo://app?vid=0423d920-4043-4652-b688-10bf2d3098cd","ios":"levelo://app?vid=0423d920-4043-4652-b688-10bf2d3098cd"},"vehicle_type_id":"4","last_reported":1740420810,"current_range_meters":7200,"station_id":"ce4bhih2rcd13ifvqfs0","pricing_plan_id":"cebpf4jnsgd1na2vs0mg"},{"bike_id":"202757f8-d8fe-4c58-b2b6-cdba062d09fe","system_id":"levelo_inurba_marseille","lat":43.28479,"lon":5.38433,"is_reserved":false,"is_disabled":false,"rental_uris":{"android":"levelo://app?vid=202757f8-d8fe-4c58-b2b6-cdba062d09fe","ios":"levelo://app?vid=202757f8-d8fe-4c58-b2b6-cdba062d09fe"},"vehicle_type_id":"4","last_reported":1740420810,"current_range_meters":6800,"station_id":"ce4bh512rcd13ifvqe3g","pricing_plan_id":"cebpf4jnsgd1na2vs0mg"},{"bike_id":"9fdaee97-c359-42d1-b7b2-3c8ff503900c","system_id":"levelo_inurba_marseille","lat":43.28154,"lon":5.42641,"is_reserved":false,"is_disabled":false,"rental_uris":{"android":"levelo://app?vid=9fdaee97-c359-42d1-b7b2-3c8ff503900c","ios":"levelo://app?vid=9fdaee97-c359-42d1-b7b2-3c8ff503900c"},"vehicle_type_id":"4","last_reported":1740420810,"current_range_meters":0,"station_id":"ce4bhnh2rcd13ifvqgug","pricing_plan_id":"cebpf4jnsgd1na2vs0mg"},{"bike_id":"3e3bde6f-8dc0-41cf-8fe6-f850e893e1da","system_id":"levelo_inurba_marseille","lat":43.27953,"lon":5.41042,"is_reserved":false,"is_disabled":false,"rental_uris":{"android":"levelo://app?vid=3e3bde6f-8dc0-41cf-8fe6-f850e893e1da","ios":"levelo://app?vid=3e3bde6f-8dc0-41cf-8fe6-f850e893e1da"},"vehicle_type_id":"4","last_reported":1740420810,"current_range_meters":4000,"station_id":"ce4bhnp2rcd13ifvqh0g","pricing_plan_id":"cebpf4jnsgd1na2vs0mg"},{"bike_id":"63a4eeaa-78c7-4227-9361-6302898f6586","system_id":"levelo_inurba_marseille","lat":43.29848,"lon":5.36283,"is_reserved":false,"is_disabled":false,"rental_uris":{"android":"levelo://app?vid=63a4eeaa-78c7-4227-9361-6302898f6586","ios":"levelo://app?vid=63a4eeaa-78c7-4227-9361-6302898f6586"},"vehicle_type_id":"4","last_reported":1740420810,"current_range_meters":7200,"station_id":"ce4bgpp2rcd13ifvqc3g","pricing_plan_id":"cebpf4jnsgd1na2vs0mg"},{"bike_id":"1b466ab1-4a88-46b7-a933-e46596c5f952","system_id":"levelo_inurba_marseille","lat":43.29633,"lon":5.40607,"is_reserved":false,"is_disabled":false,"rental_uris":{"android":"levelo://app?vid=1b466ab1-4a88-46b7-a933-e46596c5f952","ios":"levelo://app?vid=1b466ab1-4a88-46b7-a933-e46596c5f952"},"vehicle_type_id":"4","last_reported":1740420810,"current_range_meters":7200,"station_id":"ce4bh0h2rcd13ifvqd60","pricing_plan_id":"cebpf4jnsgd1na2vs0mg"},{"bike_id":"0138c2d1-b24e-4b37-a0b5-8434c375e239","system_id":"levelo_inurba_marseille","lat":43.32352,"lon":5.38882,"is_reserved":false,"is_disabled":false,"rental_uris":{"android":"levelo://app?vid=0138c2d1-b24e-4b37-a0b5-8434c375e239","ios":"levelo://app?vid=0138c2d1-b24e-4b37-a0b5-8434c375e239"},"vehicle_type_id":"4","last_reported":1740420810,"current_range_meters":7200,"station_id":"ce4bhqp2rcd13ifvqhog","pricing_plan_id":"cebpf4jnsgd1na2vs0mg"},{"bike_id":"5c37f9f0-b756-49b0-a369-3a06f6471acb","system_id":"levelo_inurba_marseille","lat":43.26942,"lon":5.40242,"is_reserved":false,"is_disabled":false,"rental_uris":{"android":"levelo://app?vid=5c37f9f0-b756-49b0-a369-3a06f6471acb","ios":"levelo://app?vid=5c37f9f0-b756-49b0-a369-3a06f6471acb"},"vehicle_type_id":"4","last_reported":1740420810,"current_range_meters":8000,"station_id":"cjm6bp8fraef2m0cb0m0","pricing_plan_id":"cebpf4jnsgd1na2vs0mg"},{"bike_id":"9912bd3b-182f-467c-92db-65e052c11af3","system_id":"levelo_inurba_marseille","lat":43.24274,"lon":5.43831,"is_reserved":false,"is_disabled":false,"rental_uris":{"android":"levelo://app?vid=9912bd3b-182f-467c-92db-65e052c11af3","ios":"levelo://app?vid=9912bd3b-182f-467c-92db-65e052c11af3"},"vehicle_type_id":"4","last_reported":1740420810,"current_range_meters":8400,"station_id":"","pricing_plan_id":"cebpf4jnsgd1na2vs0mg"},{"bike_id":"37609229-c1ac-474e-b750-08116fefffc0","system_id":"levelo_inurba_marseille","lat":43.31696,"lon":5.40472,"is_reserved":false,"is_disabled":false,"rental_uris":{"android":"levelo://app?vid=37609229-c1ac-474e-b750-08116fefffc0","ios":"levelo://app?vid=37609229-c1ac-474e-b750-08116fefffc0"},"vehicle_type_id":"4","last_reported":1740420810,"current_range_meters":8000,"station_id":"ce4bh012rcd13ifvqd00","pricing_plan_id":"cebpf4jnsgd1na2vs0mg"},{"bike_id":"d76553d6-f1ff-4485-b7f7-883e82805d29","system_id":"levelo_inurba_marseille","lat":43.29037,"lon":5.35908,"is_reserved":false,"is_disabled":false,"rental_uris":{"android":"levelo://app?vid=d76553d6-f1ff-4485-b7f7-883e82805d29","ios":"levelo://app?vid=d76553d6-f1ff-4485-b7f7-883e82805d29"},"vehicle_type_id":"4","last_reported":1740420810,"current_range_meters":8000,"station_id":"ce4bha92rcd13ifvqeg0","pricing_plan_id":"cebpf4jnsgd1na2vs0mg"},{"bike_id":"b7076895-0513-4eb1-a73c-6c6cc3cc9707","system_id":"levelo_inurba_marseille","lat":43.2953,"lon":5.38543,"is_reserved":false,"is_disabled":false,"rental_uris":{"android":"levelo://app?vid=b7076895-0513-4eb1-a73c-6c6cc3cc9707","ios":"levelo://app?vid=b7076895-0513-4eb1-a73c-6c6cc3cc9707"},"vehicle_type_id":"4","last_reported":1740420810,"current_range_meters":7200,"station_id":"ce4bgih2rcd13ifvqba0","pricing_plan_id":"cebpf4jnsgd1na2vs0mg"},{"bike_id":"3c65124f-e262-42fd-ad84-5fd08e091e15","system_id":"levelo_inurba_marseille","lat":43.28702,"lon":5.39988,"is_reserved":false,"is_disabled":false,"rental_uris":{"android":"levelo://app?vid=3c65124f-e262-42fd-ad84-5fd08e091e15","ios":"levelo://app?vid=3c65124f-e262-42fd-ad84-5fd08e091e15"},"vehicle_type_id":"4","last_reported":1740420810,"current_range_meters":10000,"station_id":"ce4bho92rcd13ifvqh3g","pricing_plan_id":"cebpf4jnsgd1na2vs0mg"},{"bike_id":"7764cb33-5426-4b94-909c-ac480986db17","system_id":"levelo_inurba_marseille","lat":43.29326,"lon":5.37237,"is_reserved":false,"is_disabled":false,"rental_uris":{"android":"levelo://app?vid=7764cb33-5426-4b94-909c-ac480986db17","ios":"levelo://app?vid=7764cb33-5426-4b94-909c-ac480986db17"},"vehicle_type_id":"4","last_reported":1740420810,"current_range_meters":8000,"station_id":"","pricing_plan_id":"cebpf4jnsgd1na2vs0mg"},{"bike_id":"0bb16d31-e003-4668-b275-a4cfc52c0aba","system_id":"levelo_inurba_marseille","lat":43.25728,"lon":5.41108,"is_reserved":false,"is_disabled":false,"rental_uris":{"android":"levelo://app?vid=0bb16d31-e003-4668-b275-a4cfc52c0aba","ios":"levelo://app?vid=0bb16d31-e003-4668-b275-a4cfc52c0aba"},"vehicle_type_id":"4","last_reported":1740420810,"current_range_meters":7200,"station_id":"ce4bhkp2rcd13ifvqgd0","pricing_plan_id":"cebpf4jnsgd1na2vs0mg"},{"bike_id":"cf9b45d6-6c13-4b55-a19d-b608b7fd2b76","system_id":"levelo_inurba_marseille","lat":43.28078,"lon":5.39661,"is_reserved":false,"is_disabled":false,"rental_uris":{"android":"levelo://app?vid=cf9b45d6-6c13-4b55-a19d-b608b7fd2b76","ios":"levelo://app?vid=cf9b45d6-6c13-4b55-a19d-b608b7fd2b76"},"vehicle_type_id":"4","last_reported":1740420810,"current_range_meters":8400,"station_id":"ce4bho12rcd13ifvqh2g","pricing_plan_id":"cebpf4jnsgd1na2vs0mg"},{"bike_id":"25a06410-12c1-48ef-8ea9-e8885cadcbee","system_id":"levelo_inurba_marseille","lat":43.295199,"lon":5.390337,"is_reserved":false,"is_disabled":false,"rental_uris":{"android":"levelo://app?vid=25a06410-12c1-48ef-8ea9-e8885cadcbee","ios":"levelo://app?vid=25a06410-12c1-48ef-8ea9-e8885cadcbee"},"vehicle_type_id":"4","last_reported":1740420810,"current_range_meters":8400,"station_id":"ce4bhap2rcd13ifvqek0","pricing_plan_id":"cebpf4jnsgd1na2vs0mg"},{"bike_id":"b21c77a5-e540-4cda-8ea5-f87eb6cea310","system_id":"levelo_inurba_marseille","lat":43.293,"lon":5.37452,"is_reserved":false,"is_disabled":true,"rental_uris":{"android":"levelo://app?vid=b21c77a5-e540-4cda-8ea5-f87eb6cea310","ios":"levelo://app?vid=b21c77a5-e540-4cda-8ea5-f87eb6cea310"},"vehicle_type_id":"4","last_reported":1740420810,"current_range_meters":8400,"station_id":"ce4bgi12rcd13ifvqb70","pricing_plan_id":"cebpf4jnsgd1na2vs0mg"},{"bike_id":"257b8e93-23bd-42cd-9cf5-85143506508d","system_id":"levelo_inurba_marseille","lat":43.30326,"lon":5.40428,"is_reserved":false,"is_disabled":false,"rental_uris":{"android":"levelo://app?vid=257b8e93-23bd-42cd-9cf5-85143506508d","ios":"levelo://app?vid=257b8e93-23bd-42cd-9cf5-85143506508d"},"vehicle_type_id":"4","last_reported":1740420810,"current_range_meters":8800,"station_id":"ce4bh012rcd13ifvqd10","pricing_plan_id":"cebpf4jnsgd1na2vs0mg"},{"bike_id":"87bbda1f-0db0-4d79-a046-a87b5e94995a","system_id":"levelo_inurba_marseille","lat":43.24175,"lon":5.36393,"is_reserved":false,"is_disabled":false,"rental_uris":{"android":"levelo://app?vid=87bbda1f-0db0-4d79-a046-a87b5e94995a","ios":"levelo://app?vid=87bbda1f-0db0-4d79-a046-a87b5e94995a"},"vehicle_type_id":"4","last_reported":1740420810,"current_range_meters":8800,"station_id":"cpo36qri1sfpv3e86is0","pricing_plan_id":"cebpf4jnsgd1na2vs0mg"},{"bike_id":"5081e2b1-1c27-45ee-856b-8130bc3e14a3","system_id":"levelo_inurba_marseille","lat":43.28947,"lon":5.3639,"is_reserved":false,"is_disabled":false,"rental_uris":{"android":"levelo://app?vid=5081e2b1-1c27-45ee-856b-8130bc3e14a3","ios":"levelo://app?vid=5081e2b1-1c27-45ee-856b-8130bc3e14a3"},"vehicle_type_id":"4","last_reported":1740420810,"current_range_meters":8800,"station_id":"ce4bhc92rcd13ifvqetg","pricing_plan_id":"cebpf4jnsgd1na2vs0mg"},{"bike_id":"bd1c9204-109d-453d-a655-cc2878aad0c5","system_id":"levelo_inurba_marseille","lat":43.29905,"lon":5.43668,"is_reserved":false,"is_disabled":false,"rental_uris":{"android":"levelo://app?vid=bd1c9204-109d-453d-a655-cc2878aad0c5","ios":"levelo://app?vid=bd1c9204-109d-453d-a655-cc2878aad0c5"},"vehicle_type_id":"4","last_reported":1740420810,"current_range_meters":8800,"station_id":"ce4bhpp2rcd13ifvqhfg","pricing_plan_id":"cebpf4jnsgd1na2vs0mg"},{"bike_id":"f3e30e62-56b7-4bd0-8b4e-2aa90ccf661c","system_id":"levelo_inurba_marseille","lat":43.33037,"lon":5.39056,"is_reserved":false,"is_disabled":false,"rental_uris":{"android":"levelo://app?vid=f3e30e62-56b7-4bd0-8b4e-2aa90ccf661c","ios":"levelo://app?vid=f3e30e62-56b7-4bd0-8b4e-2aa90ccf661c"},"vehicle_type_id":"4","last_reported":1740420810,"current_range_meters":8800,"station_id":"ce4bhr92rcd13ifvqhrg","pricing_plan_id":"cebpf4jnsgd1na2vs0mg"},{"bike_id":"f80a79d6-1c74-4e76-8ed2-23203ade1d35","system_id":"levelo_inurba_marseille","lat":43.27814,"lon":5.40716,"is_reserved":false,"is_disabled":false,"rental_uris":{"android":"levelo://app?vid=f80a79d6-1c74-4e76-8ed2-23203ade1d35","ios":"levelo://app?vid=f80a79d6-1c74-4e76-8ed2-23203ade1d35"},"vehicle_type_id":"4","last_reported":1740420810,"current_range_meters":8800,"station_id":"ce4bhnh2rcd13ifvqgtg","pricing_plan_id":"cebpf4jnsgd1na2vs0mg"},{"bike_id":"111b7204-3573-4248-883a-90ce923745b5","system_id":"levelo_inurba_marseille","lat":43.26949,"lon":5.3863,"is_reserved":false,"is_disabled":false,"rental_uris":{"android":"levelo://app?vid=111b7204-3573-4248-883a-90ce923745b5","ios":"levelo://app?vid=111b7204-3573-4248-883a-90ce923745b5"},"vehicle_type_id":"4","last_reported":1740420810,"current_range_meters":8400,"station_id":"ce4bhh92rcd13ifvqfh0","pricing_plan_id":"cebpf4jnsgd1na2vs0mg"},{"bike_id":"2ce5a7a3-ebc5-4542-8581-83c42fa52a52","system_id":"levelo_inurba_marseille","lat":43.30953,"lon":5.39026,"is_reserved":false,"is_disabled":true,"rental_uris":{"android":"levelo://app?vid=2ce5a7a3-ebc5-4542-8581-83c42fa52a52","ios":"levelo://app?vid=2ce5a7a3-ebc5-4542-8581-83c42fa52a52"},"vehicle_type_id":"4","last_reported":1740420810,"current_range_meters":8400,"station_id":"ce4bgup2rcd13ifvqco0","pricing_plan_id":"cebpf4jnsgd1na2vs0mg"},{"bike_id":"d5a5b1cf-8def-4209-b638-317902f7a0c1","system_id":"levelo_inurba_marseille","lat":43.27996,"lon":5.4002,"is_reserved":false,"is_disabled":false,"rental_uris":{"android":"levelo://app?vid=d5a5b1cf-8def-4209-b638-317902f7a0c1","ios":"levelo://app?vid=d5a5b1cf-8def-4209-b638-317902f7a0c1"},"vehicle_type_id":"4","last_reported":1740420810,"current_range_meters":8800,"station_id":"ce4bho92rcd13ifvqh4g","pricing_plan_id":"cebpf4jnsgd1na2vs0mg"},{"bike_id":"948ac4f5-bc9d-4f69-be6e-3aa787e5fdcf","system_id":"levelo_inurba_marseille","lat":43.29845,"lon":5.36268,"is_reserved":false,"is_disabled":false,"rental_uris":{"android":"levelo://app?vid=948ac4f5-bc9d-4f69-be6e-3aa787e5fdcf","ios":"levelo://app?vid=948ac4f5-bc9d-4f69-be6e-3aa787e5fdcf"},"vehicle_type_id":"4","last_reported":1740420810,"current_range_meters":8800,"station_id":"ce4bgpp2rcd13ifvqc3g","pricing_plan_id":"cebpf4jnsgd1na2vs0mg"},{"bike_id":"4c676afd-aabb-48c7-9c62-f89205cd3f4a","system_id":"levelo_inurba_marseille","lat":43.27797,"lon":5.40753,"is_reserved":false,"is_disabled":false,"rental_uris":{"android":"levelo://app?vid=4c676afd-aabb-48c7-9c62-f89205cd3f4a","ios":"levelo://app?vid=4c676afd-aabb-48c7-9c62-f89205cd3f4a"},"vehicle_type_id":"4","last_reported":1740420810,"current_range_meters":8800,"station_id":"ce4bhnh2rcd13ifvqgtg","pricing_plan_id":"cebpf4jnsgd1na2vs0mg"},{"bike_id":"aea560eb-e2e4-430d-84c8-002c5eed00bb","system_id":"levelo_inurba_marseille","lat":43.27917,"lon":5.3958,"is_reserved":false,"is_disabled":false,"rental_uris":{"android":"levelo://app?vid=aea560eb-e2e4-430d-84c8-002c5eed00bb","ios":"levelo://app?vid=aea560eb-e2e4-430d-84c8-002c5eed00bb"},"vehicle_type_id":"4","last_reported":1740420810,"current_range_meters":8800,"station_id":"ce4bhf92rcd13ifvqf40","pricing_plan_id":"cebpf4jnsgd1na2vs0mg"},{"bike_id":"7e26a3e9-4c57-4918-aa17-698a0ce4ac78","system_id":"levelo_inurba_marseille","lat":43.30883,"lon":5.37458,"is_reserved":false,"is_disabled":false,"rental_uris":{"android":"levelo://app?vid=7e26a3e9-4c57-4918-aa17-698a0ce4ac78","ios":"levelo://app?vid=7e26a3e9-4c57-4918-aa17-698a0ce4ac78"},"vehicle_type_id":"4","last_reported":1740420810,"current_range_meters":8800,"station_id":"","pricing_plan_id":"cebpf4jnsgd1na2vs0mg"},{"bike_id":"17da1feb-9abe-4e1d-9544-5a842d8f1b8a","system_id":"levelo_inurba_marseille","lat":43.27819,"lon":5.40723,"is_reserved":false,"is_disabled":false,"rental_uris":{"android":"levelo://app?vid=17da1feb-9abe-4e1d-9544-5a842d8f1b8a","ios":"levelo://app?vid=17da1feb-9abe-4e1d-9544-5a842d8f1b8a"},"vehicle_type_id":"4","last_reported":1740420810,"current_range_meters":8800,"station_id":"ce4bhnh2rcd13ifvqgtg","pricing_plan_id":"cebpf4jnsgd1na2vs0mg"},{"bike_id":"00c90781-3209-4f41-b542-3b57b4828e67","system_id":"levelo_inurba_marseille","lat":43.29713,"lon":5.36614,"is_reserved":false,"is_disabled":false,"rental_uris":{"android":"levelo://app?vid=00c90781-3209-4f41-b542-3b57b4828e67","ios":"levelo://app?vid=00c90781-3209-4f41-b542-3b57b4828e67"},"vehicle_type_id":"4","last_reported":1740420810,"current_range_meters":5600,"station_id":"ce4bgn12rcd13ifvqbt0","pricing_plan_id":"cebpf4jnsgd1na2vs0mg"},{"bike_id":"5f618fd8-4c1d-4b98-9d96-80413e9c5e2b","system_id":"levelo_inurba_marseille","lat":43.3235,"lon":5.40622,"is_reserved":false,"is_disabled":true,"rental_uris":{"android":"levelo://app?vid=5f618fd8-4c1d-4b98-9d96-80413e9c5e2b","ios":"levelo://app?vid=5f618fd8-4c1d-4b98-9d96-80413e9c5e2b"},"vehicle_type_id":"4","last_reported":1740420810,"current_range_meters":9200,"station_id":"ce4bhq92rcd13ifvqhjg","pricing_plan_id":"cebpf4jnsgd1na2vs0mg"},{"bike_id":"216bb77f-c769-4011-8970-e66d63254aa2","system_id":"levelo_inurba_marseille","lat":43.29927,"lon":5.37859,"is_reserved":false,"is_disabled":false,"rental_uris":{"android":"levelo://app?vid=216bb77f-c769-4011-8970-e66d63254aa2","ios":"levelo://app?vid=216bb77f-c769-4011-8970-e66d63254aa2"},"vehicle_type_id":"4","last_reported":1740420810,"current_range_meters":9200,"station_id":"","pricing_plan_id":"cebpf4jnsgd1na2vs0mg"},{"bike_id":"85993808-16a3-466c-b64a-54ce83a8878c","system_id":"levelo_inurba_marseille","lat":43.28465,"lon":5.38424,"is_reserved":false,"is_disabled":false,"rental_uris":{"android":"levelo://app?vid=85993808-16a3-466c-b64a-54ce83a8878c","ios":"levelo://app?vid=85993808-16a3-466c-b64a-54ce83a8878c"},"vehicle_type_id":"4","last_reported":1740420810,"current_range_meters":9200,"station_id":"ce4bh512rcd13ifvqe3g","pricing_plan_id":"cebpf4jnsgd1na2vs0mg"},{"bike_id":"b8e5e040-c2ca-4b19-967b-ac32a06a2efc","system_id":"levelo_inurba_marseille","lat":43.30138,"lon":5.39869,"is_reserved":false,"is_disabled":false,"rental_uris":{"android":"levelo://app?vid=b8e5e040-c2ca-4b19-967b-ac32a06a2efc","ios":"levelo://app?vid=b8e5e040-c2ca-4b19-967b-ac32a06a2efc"},"vehicle_type_id":"4","last_reported":1740420810,"current_range_meters":9200,"station_id":"ce4bh0h2rcd13ifvqd40","pricing_plan_id":"cebpf4jnsgd1na2vs0mg"},{"bike_id":"73f98104-d216-4e82-b499-5ee1d7648ac2","system_id":"levelo_inurba_marseille","lat":43.30353,"lon":5.41874,"is_reserved":false,"is_disabled":false,"rental_uris":{"android":"levelo://app?vid=73f98104-d216-4e82-b499-5ee1d7648ac2","ios":"levelo://app?vid=73f98104-d216-4e82-b499-5ee1d7648ac2"},"vehicle_type_id":"4","last_reported":1740420810,"current_range_meters":9200,"station_id":"ce4bhop2rcd13ifvqh7g","pricing_plan_id":"cebpf4jnsgd1na2vs0mg"},{"bike_id":"409e90b9-0c26-43c6-98cf-2bf4aed2905d","system_id":"levelo_inurba_marseille","lat":43.29248,"lon":5.40907,"is_reserved":false,"is_disabled":false,"rental_uris":{"android":"levelo://app?vid=409e90b9-0c26-43c6-98cf-2bf4aed2905d","ios":"levelo://app?vid=409e90b9-0c26-43c6-98cf-2bf4aed2905d"},"vehicle_type_id":"4","last_reported":1740420810,"current_range_meters":9600,"station_id":"ce4bh192rcd13ifvqdc0","pricing_plan_id":"cebpf4jnsgd1na2vs0mg"},{"bike_id":"279efe1b-704e-4624-8d16-a2a244312dbf","system_id":"levelo_inurba_marseille","lat":43.30884,"lon":5.39649,"is_reserved":false,"is_disabled":false,"rental_uris":{"android":"levelo://app?vid=279efe1b-704e-4624-8d16-a2a244312dbf","ios":"levelo://app?vid=279efe1b-704e-4624-8d16-a2a244312dbf"},"vehicle_type_id":"4","last_reported":1740420810,"current_range_meters":9600,"station_id":"ce4bh012rcd13ifvqcv0","pricing_plan_id":"cebpf4jnsgd1na2vs0mg"},{"bike_id":"065fc6e9-bfff-4b25-8e78-a1e795b5daaa","system_id":"levelo_inurba_marseille","lat":43.29532,"lon":5.39405,"is_reserved":false,"is_disabled":false,"rental_uris":{"android":"levelo://app?vid=065fc6e9-bfff-4b25-8e78-a1e795b5daaa","ios":"levelo://app?vid=065fc6e9-bfff-4b25-8e78-a1e795b5daaa"},"vehicle_type_id":"4","last_reported":1740420810,"current_range_meters":11600,"station_id":"ce4bh292rcd13ifvqdf0","pricing_plan_id":"cebpf4jnsgd1na2vs0mg"},{"bike_id":"527feccc-a308-462f-8052-278f5d48a3c6","system_id":"levelo_inurba_marseille","lat":43.27956,"lon":5.41042,"is_reserved":false,"is_disabled":false,"rental_uris":{"android":"levelo://app?vid=527feccc-a308-462f-8052-278f5d48a3c6","ios":"levelo://app?vid=527feccc-a308-462f-8052-278f5d48a3c6"},"vehicle_type_id":"4","last_reported":1740420810,"current_range_meters":9600,"station_id":"ce4bhnp2rcd13ifvqh0g","pricing_plan_id":"cebpf4jnsgd1na2vs0mg"},{"bike_id":"11cd2877-68ae-41a2-a08a-17ff4cae18f6","system_id":"levelo_inurba_marseille","lat":43.25587,"lon":5.38224,"is_reserved":false,"is_disabled":false,"rental_uris":{"android":"levelo://app?vid=11cd2877-68ae-41a2-a08a-17ff4cae18f6","ios":"levelo://app?vid=11cd2877-68ae-41a2-a08a-17ff4cae18f6"},"vehicle_type_id":"4","last_reported":1740420810,"current_range_meters":9600,"station_id":"ce4bhih2rcd13ifvqfs0","pricing_plan_id":"cebpf4jnsgd1na2vs0mg"},{"bike_id":"8788e12a-f05c-45b2-9570-f7c7ac9b560c","system_id":"levelo_inurba_marseille","lat":43.27948,"lon":5.41041,"is_reserved":false,"is_disabled":false,"rental_uris":{"android":"levelo://app?vid=8788e12a-f05c-45b2-9570-f7c7ac9b560c","ios":"levelo://app?vid=8788e12a-f05c-45b2-9570-f7c7ac9b560c"},"vehicle_type_id":"4","last_reported":1740420810,"current_range_meters":9600,"station_id":"ce4bhnp2rcd13ifvqh0g","pricing_plan_id":"cebpf4jnsgd1na2vs0mg"},{"bike_id":"23a3e344-6ae2-4683-82af-1c1f9317e813","system_id":"levelo_inurba_marseille","lat":43.294612,"lon":5.397587,"is_reserved":false,"is_disabled":false,"rental_uris":{"android":"levelo://app?vid=23a3e344-6ae2-4683-82af-1c1f9317e813","ios":"levelo://app?vid=23a3e344-6ae2-4683-82af-1c1f9317e813"},"vehicle_type_id":"4","last_reported":1740420810,"current_range_meters":9600,"station_id":"ce4bh3h2rcd13ifvqdo0","pricing_plan_id":"cebpf4jnsgd1na2vs0mg"},{"bike_id":"9721256a-d547-4a71-9228-c6073abd619a","system_id":"levelo_inurba_marseille","lat":43.2991,"lon":5.38135,"is_reserved":false,"is_disabled":false,"rental_uris":{"android":"levelo://app?vid=9721256a-d547-4a71-9228-c6073abd619a","ios":"levelo://app?vid=9721256a-d547-4a71-9228-c6073abd619a"},"vehicle_type_id":"4","last_reported":1740420810,"current_range_meters":10000,"station_id":"ce4bgj12rcd13ifvqbc0","pricing_plan_id":"cebpf4jnsgd1na2vs0mg"},{"bike_id":"734f28fb-4a9a-40a3-9d66-f28f686ab40d","system_id":"levelo_inurba_marseille","lat":43.27943,"lon":5.41049,"is_reserved":false,"is_disabled":false,"rental_uris":{"android":"levelo://app?vid=734f28fb-4a9a-40a3-9d66-f28f686ab40d","ios":"levelo://app?vid=734f28fb-4a9a-40a3-9d66-f28f686ab40d"},"vehicle_type_id":"4","last_reported":1740420810,"current_range_meters":10000,"station_id":"ce4bhnp2rcd13ifvqh0g","pricing_plan_id":"cebpf4jnsgd1na2vs0mg"},{"bike_id":"2c79d0e9-b47c-4e9e-90d0-9d0bb000588f","system_id":"levelo_inurba_marseille","lat":43.29515,"lon":5.39413,"is_reserved":false,"is_disabled":false,"rental_uris":{"android":"levelo://app?vid=2c79d0e9-b47c-4e9e-90d0-9d0bb000588f","ios":"levelo://app?vid=2c79d0e9-b47c-4e9e-90d0-9d0bb000588f"},"vehicle_type_id":"4","last_reported":1740420810,"current_range_meters":10000,"station_id":"ce4bh292rcd13ifvqdf0","pricing_plan_id":"cebpf4jnsgd1na2vs0mg"},{"bike_id":"c901caf9-df01-4766-9c46-292cc1e0f71c","system_id":"levelo_inurba_marseille","lat":43.25822,"lon":5.39433,"is_reserved":false,"is_disabled":false,"rental_uris":{"android":"levelo://app?vid=c901caf9-df01-4766-9c46-292cc1e0f71c","ios":"levelo://app?vid=c901caf9-df01-4766-9c46-292cc1e0f71c"},"vehicle_type_id":"4","last_reported":1740420810,"current_range_meters":10000,"station_id":"ce4bhip2rcd13ifvqft0","pricing_plan_id":"cebpf4jnsgd1na2vs0mg"},{"bike_id":"c31330c5-97ae-498d-ae41-a0306e72b8d1","system_id":"levelo_inurba_marseille","lat":43.2842,"lon":5.37513,"is_reserved":false,"is_disabled":false,"rental_uris":{"android":"levelo://app?vid=c31330c5-97ae-498d-ae41-a0306e72b8d1","ios":"levelo://app?vid=c31330c5-97ae-498d-ae41-a0306e72b8d1"},"vehicle_type_id":"4","last_reported":1740420810,"current_range_meters":10800,"station_id":"ce4bh412rcd13ifvqds0","pricing_plan_id":"cebpf4jnsgd1na2vs0mg"},{"bike_id":"fafbf55f-8c8d-4d7d-8ad5-72ea0693ee68","system_id":"levelo_inurba_marseille","lat":43.31328,"lon":5.39693,"is_reserved":false,"is_disabled":false,"rental_uris":{"android":"levelo://app?vid=fafbf55f-8c8d-4d7d-8ad5-72ea0693ee68","ios":"levelo://app?vid=fafbf55f-8c8d-4d7d-8ad5-72ea0693ee68"},"vehicle_type_id":"4","last_reported":1740420810,"current_range_meters":10800,"station_id":"ce4bgvp2rcd13ifvqcu0","pricing_plan_id":"cebpf4jnsgd1na2vs0mg"},{"bike_id":"79d400e1-2408-4791-91ed-b92b16f32e6d","system_id":"levelo_inurba_marseille","lat":43.30886,"lon":5.37803,"is_reserved":false,"is_disabled":false,"rental_uris":{"android":"levelo://app?vid=79d400e1-2408-4791-91ed-b92b16f32e6d","ios":"levelo://app?vid=79d400e1-2408-4791-91ed-b92b16f32e6d"},"vehicle_type_id":"4","last_reported":1740420810,"current_range_meters":10800,"station_id":"","pricing_plan_id":"cebpf4jnsgd1na2vs0mg"},{"bike_id":"e49232ce-36e0-478c-a319-bb8d76abfc7f","system_id":"levelo_inurba_marseille","lat":43.29708,"lon":5.36614,"is_reserved":false,"is_disabled":false,"rental_uris":{"android":"levelo://app?vid=e49232ce-36e0-478c-a319-bb8d76abfc7f","ios":"levelo://app?vid=e49232ce-36e0-478c-a319-bb8d76abfc7f"},"vehicle_type_id":"4","last_reported":1740420810,"current_range_meters":8800,"station_id":"ce4bgn12rcd13ifvqbt0","pricing_plan_id":"cebpf4jnsgd1na2vs0mg"},{"bike_id":"0b44eadd-e770-489f-8334-883effbca25b","system_id":"levelo_inurba_marseille","lat":43.31367,"lon":5.3849,"is_reserved":false,"is_disabled":false,"rental_uris":{"android":"levelo://app?vid=0b44eadd-e770-489f-8334-883effbca25b","ios":"levelo://app?vid=0b44eadd-e770-489f-8334-883effbca25b"},"vehicle_type_id":"4","last_reported":1740420810,"current_range_meters":10800,"station_id":"ce4bgt92rcd13ifvqcf0","pricing_plan_id":"cebpf4jnsgd1na2vs0mg"},{"bike_id":"44a26479-5e14-41e7-8403-4cb654b4fceb","system_id":"levelo_inurba_marseille","lat":43.29713,"lon":5.36622,"is_reserved":false,"is_disabled":false,"rental_uris":{"android":"levelo://app?vid=44a26479-5e14-41e7-8403-4cb654b4fceb","ios":"levelo://app?vid=44a26479-5e14-41e7-8403-4cb654b4fceb"},"vehicle_type_id":"4","last_reported":1740420810,"current_range_meters":10800,"station_id":"ce4bgn12rcd13ifvqbt0","pricing_plan_id":"cebpf4jnsgd1na2vs0mg"},{"bike_id":"c5924743-db76-438f-907c-1904247bd536","system_id":"levelo_inurba_marseille","lat":43.31277,"lon":5.40168,"is_reserved":false,"is_disabled":false,"rental_uris":{"android":"levelo://app?vid=c5924743-db76-438f-907c-1904247bd536","ios":"levelo://app?vid=c5924743-db76-438f-907c-1904247bd536"},"vehicle_type_id":"4","last_reported":1740420810,"current_range_meters":10800,"station_id":"ce4bh092rcd13ifvqd30","pricing_plan_id":"cebpf4jnsgd1na2vs0mg"},{"bike_id":"92a2f0cb-50b2-47ab-8c8f-b383155e5245","system_id":"levelo_inurba_marseille","lat":43.29263,"lon":5.40908,"is_reserved":false,"is_disabled":false,"rental_uris":{"android":"levelo://app?vid=92a2f0cb-50b2-47ab-8c8f-b383155e5245","ios":"levelo://app?vid=92a2f0cb-50b2-47ab-8c8f-b383155e5245"},"vehicle_type_id":"4","last_reported":1740420810,"current_range_meters":10800,"station_id":"ce4bh192rcd13ifvqdc0","pricing_plan_id":"cebpf4jnsgd1na2vs0mg"},{"bike_id":"25bb617c-23e3-460d-8a6a-13de43dc25bf","system_id":"levelo_inurba_marseille","lat":43.29518,"lon":5.39398,"is_reserved":false,"is_disabled":false,"rental_uris":{"android":"levelo://app?vid=25bb617c-23e3-460d-8a6a-13de43dc25bf","ios":"levelo://app?vid=25bb617c-23e3-460d-8a6a-13de43dc25bf"},"vehicle_type_id":"4","last_reported":1740420810,"current_range_meters":10800,"station_id":"ce4bh292rcd13ifvqdf0","pricing_plan_id":"cebpf4jnsgd1na2vs0mg"},{"bike_id":"fb8dd6df-1aed-42e2-9db9-0239bdc0fb24","system_id":"levelo_inurba_marseille","lat":43.29799,"lon":5.38113,"is_reserved":false,"is_disabled":false,"rental_uris":{"android":"levelo://app?vid=fb8dd6df-1aed-42e2-9db9-0239bdc0fb24","ios":"levelo://app?vid=fb8dd6df-1aed-42e2-9db9-0239bdc0fb24"},"vehicle_type_id":"4","last_reported":1740420810,"current_range_meters":10000,"station_id":"ce4bgip2rcd13ifvqbb0","pricing_plan_id":"cebpf4jnsgd1na2vs0mg"},{"bike_id":"514ea582-04b0-4b72-88bd-73657068611f","system_id":"levelo_inurba_marseille","lat":43.29682,"lon":5.37286,"is_reserved":false,"is_disabled":false,"rental_uris":{"android":"levelo://app?vid=514ea582-04b0-4b72-88bd-73657068611f","ios":"levelo://app?vid=514ea582-04b0-4b72-88bd-73657068611f"},"vehicle_type_id":"4","last_reported":1740420810,"current_range_meters":10800,"station_id":"ce4bgk12rcd13ifvqbj0","pricing_plan_id":"cebpf4jnsgd1na2vs0mg"},{"bike_id":"b5deb77a-bc49-4b61-aa87-d7d7d9455e77","system_id":"levelo_inurba_marseille","lat":43.31532,"lon":5.38032,"is_reserved":false,"is_disabled":false,"rental_uris":{"android":"levelo://app?vid=b5deb77a-bc49-4b61-aa87-d7d7d9455e77","ios":"levelo://app?vid=b5deb77a-bc49-4b61-aa87-d7d7d9455e77"},"vehicle_type_id":"4","last_reported":1740420810,"current_range_meters":12000,"station_id":"ce4bhsp2rcd13ifvqi50","pricing_plan_id":"cebpf4jnsgd1na2vs0mg"},{"bike_id":"ae9b3dbc-3097-4009-8f5c-e3f39bbb950c","system_id":"levelo_inurba_marseille","lat":43.29557,"lon":5.42286,"is_reserved":false,"is_disabled":false,"rental_uris":{"android":"levelo://app?vid=ae9b3dbc-3097-4009-8f5c-e3f39bbb950c","ios":"levelo://app?vid=ae9b3dbc-3097-4009-8f5c-e3f39bbb950c"},"vehicle_type_id":"4","last_reported":1740420810,"current_range_meters":11200,"station_id":"ce4bhph2rcd13ifvqhdg","pricing_plan_id":"cebpf4jnsgd1na2vs0mg"},{"bike_id":"6dda3057-ba47-49d1-b881-403b46e1c8ec","system_id":"levelo_inurba_marseille","lat":43.2418,"lon":5.3973,"is_reserved":false,"is_disabled":false,"rental_uris":{"android":"levelo://app?vid=6dda3057-ba47-49d1-b881-403b46e1c8ec","ios":"levelo://app?vid=6dda3057-ba47-49d1-b881-403b46e1c8ec"},"vehicle_type_id":"4","last_reported":1740420810,"current_range_meters":11200,"station_id":"ce4bhn12rcd13ifvqgpg","pricing_plan_id":"cebpf4jnsgd1na2vs0mg"},{"bike_id":"d525ca76-caa8-4a03-90d9-340115dcba41","system_id":"levelo_inurba_marseille","lat":43.29873,"lon":5.38894,"is_reserved":false,"is_disabled":false,"rental_uris":{"android":"levelo://app?vid=d525ca76-caa8-4a03-90d9-340115dcba41","ios":"levelo://app?vid=d525ca76-caa8-4a03-90d9-340115dcba41"},"vehicle_type_id":"4","last_reported":1740420810,"current_range_meters":11200,"station_id":"ce4bh392rcd13ifvqdl0","pricing_plan_id":"cebpf4jnsgd1na2vs0mg"},{"bike_id":"5ffb1847-0851-4788-bd58-404c6a5e4af7","system_id":"levelo_inurba_marseille","lat":43.29263,"lon":5.40914,"is_reserved":false,"is_disabled":false,"rental_uris":{"android":"levelo://app?vid=5ffb1847-0851-4788-bd58-404c6a5e4af7","ios":"levelo://app?vid=5ffb1847-0851-4788-bd58-404c6a5e4af7"},"vehicle_type_id":"4","last_reported":1740420810,"current_range_meters":16000,"station_id":"ce4bh192rcd13ifvqdc0","pricing_plan_id":"cebpf4jnsgd1na2vs0mg"},{"bike_id":"f5853a05-ae6d-427f-8baf-bae28dc24039","system_id":"levelo_inurba_marseille","lat":43.29171,"lon":5.37155,"is_reserved":false,"is_disabled":false,"rental_uris":{"android":"levelo://app?vid=f5853a05-ae6d-427f-8baf-bae28dc24039","ios":"levelo://app?vid=f5853a05-ae6d-427f-8baf-bae28dc24039"},"vehicle_type_id":"4","last_reported":1740420810,"current_range_meters":10800,"station_id":"ce4bha92rcd13ifvqeh0","pricing_plan_id":"cebpf4jnsgd1na2vs0mg"},{"bike_id":"d6dca2d6-928e-4f6e-a66d-b69c45819522","system_id":"levelo_inurba_marseille","lat":43.24672,"lon":5.38149,"is_reserved":false,"is_disabled":false,"rental_uris":{"android":"levelo://app?vid=d6dca2d6-928e-4f6e-a66d-b69c45819522","ios":"levelo://app?vid=d6dca2d6-928e-4f6e-a66d-b69c45819522"},"vehicle_type_id":"4","last_reported":1740420810,"current_range_meters":11200,"station_id":"ce4bhih2rcd13ifvqfr0","pricing_plan_id":"cebpf4jnsgd1na2vs0mg"},{"bike_id":"474602bc-c50d-42bd-bb2a-f5c9602c8ee8","system_id":"levelo_inurba_marseille","lat":43.33024,"lon":5.39038,"is_reserved":false,"is_disabled":false,"rental_uris":{"android":"levelo://app?vid=474602bc-c50d-42bd-bb2a-f5c9602c8ee8","ios":"levelo://app?vid=474602bc-c50d-42bd-bb2a-f5c9602c8ee8"},"vehicle_type_id":"4","last_reported":1740420810,"current_range_meters":11200,"station_id":"ce4bhr92rcd13ifvqhrg","pricing_plan_id":"cebpf4jnsgd1na2vs0mg"},{"bike_id":"91916a85-235c-4d19-8e8a-bf16dccd82a1","system_id":"levelo_inurba_marseille","lat":43.27947,"lon":5.4104,"is_reserved":false,"is_disabled":false,"rental_uris":{"android":"levelo://app?vid=91916a85-235c-4d19-8e8a-bf16dccd82a1","ios":"levelo://app?vid=91916a85-235c-4d19-8e8a-bf16dccd82a1"},"vehicle_type_id":"4","last_reported":1740420810,"current_range_meters":11600,"station_id":"ce4bhnp2rcd13ifvqh0g","pricing_plan_id":"cebpf4jnsgd1na2vs0mg"},{"bike_id":"ce08e129-3210-4784-8e00-3661099c392d","system_id":"levelo_inurba_marseille","lat":43.29901,"lon":5.43659,"is_reserved":false,"is_disabled":false,"rental_uris":{"android":"levelo://app?vid=ce08e129-3210-4784-8e00-3661099c392d","ios":"levelo://app?vid=ce08e129-3210-4784-8e00-3661099c392d"},"vehicle_type_id":"4","last_reported":1740420810,"current_range_meters":11600,"station_id":"ce4bhpp2rcd13ifvqhfg","pricing_plan_id":"cebpf4jnsgd1na2vs0mg"},{"bike_id":"656d0d87-596a-4fb0-b6f4-f763f34326ef","system_id":"levelo_inurba_marseille","lat":43.33721,"lon":5.39192,"is_reserved":false,"is_disabled":false,"rental_uris":{"android":"levelo://app?vid=656d0d87-596a-4fb0-b6f4-f763f34326ef","ios":"levelo://app?vid=656d0d87-596a-4fb0-b6f4-f763f34326ef"},"vehicle_type_id":"4","last_reported":1740420810,"current_range_meters":11200,"station_id":"ce4bhr92rcd13ifvqhsg","pricing_plan_id":"cebpf4jnsgd1na2vs0mg"},{"bike_id":"860fbfeb-5bae-4548-8e91-5df9f4b250ab","system_id":"levelo_inurba_marseille","lat":43.28154,"lon":5.42644,"is_reserved":false,"is_disabled":false,"rental_uris":{"android":"levelo://app?vid=860fbfeb-5bae-4548-8e91-5df9f4b250ab","ios":"levelo://app?vid=860fbfeb-5bae-4548-8e91-5df9f4b250ab"},"vehicle_type_id":"4","last_reported":1740420810,"current_range_meters":14000,"station_id":"ce4bhnh2rcd13ifvqgug","pricing_plan_id":"cebpf4jnsgd1na2vs0mg"},{"bike_id":"446313c8-37fc-4f36-b9c3-a1d481dfb62b","system_id":"levelo_inurba_marseille","lat":43.26822,"lon":5.41112,"is_reserved":false,"is_disabled":false,"rental_uris":{"android":"levelo://app?vid=446313c8-37fc-4f36-b9c3-a1d481dfb62b","ios":"levelo://app?vid=446313c8-37fc-4f36-b9c3-a1d481dfb62b"},"vehicle_type_id":"4","last_reported":1740420810,"current_range_meters":11600,"station_id":"","pricing_plan_id":"cebpf4jnsgd1na2vs0mg"},{"bike_id":"1a0b050f-f33f-48d2-9894-613d93a341cc","system_id":"levelo_inurba_marseille","lat":43.23193,"lon":5.39984,"is_reserved":false,"is_disabled":false,"rental_uris":{"android":"levelo://app?vid=1a0b050f-f33f-48d2-9894-613d93a341cc","ios":"levelo://app?vid=1a0b050f-f33f-48d2-9894-613d93a341cc"},"vehicle_type_id":"4","last_reported":1740420810,"current_range_meters":11600,"station_id":"ce4bhn12rcd13ifvqgqg","pricing_plan_id":"cebpf4jnsgd1na2vs0mg"},{"bike_id":"df3adea1-fa08-4000-81b5-f936531f5b47","system_id":"levelo_inurba_marseille","lat":43.293458,"lon":5.386292,"is_reserved":false,"is_disabled":false,"rental_uris":{"android":"levelo://app?vid=df3adea1-fa08-4000-81b5-f936531f5b47","ios":"levelo://app?vid=df3adea1-fa08-4000-81b5-f936531f5b47"},"vehicle_type_id":"4","last_reported":1740420810,"current_range_meters":11200,"station_id":"ce4bh0p2rcd13ifvqd70","pricing_plan_id":"cebpf4jnsgd1na2vs0mg"},{"bike_id":"8f520086-345d-4f4c-9a19-4ea37aaa9d2d","system_id":"levelo_inurba_marseille","lat":43.29519,"lon":5.39018,"is_reserved":false,"is_disabled":false,"rental_uris":{"android":"levelo://app?vid=8f520086-345d-4f4c-9a19-4ea37aaa9d2d","ios":"levelo://app?vid=8f520086-345d-4f4c-9a19-4ea37aaa9d2d"},"vehicle_type_id":"4","last_reported":1740420810,"current_range_meters":11600,"station_id":"ce4bh3p2rcd13ifvqdp0","pricing_plan_id":"cebpf4jnsgd1na2vs0mg"},{"bike_id":"d6e9473b-dc2e-415e-a49b-32762a351f28","system_id":"levelo_inurba_marseille","lat":43.28843,"lon":5.35848,"is_reserved":false,"is_disabled":false,"rental_uris":{"android":"levelo://app?vid=d6e9473b-dc2e-415e-a49b-32762a351f28","ios":"levelo://app?vid=d6e9473b-dc2e-415e-a49b-32762a351f28"},"vehicle_type_id":"4","last_reported":1740420810,"current_range_meters":12000,"station_id":"ce4bhb12rcd13ifvqem0","pricing_plan_id":"cebpf4jnsgd1na2vs0mg"},{"bike_id":"2a190420-062a-4095-b179-a82187ed30e1","system_id":"levelo_inurba_marseille","lat":43.3067,"lon":5.40058,"is_reserved":false,"is_disabled":false,"rental_uris":{"android":"levelo://app?vid=2a190420-062a-4095-b179-a82187ed30e1","ios":"levelo://app?vid=2a190420-062a-4095-b179-a82187ed30e1"},"vehicle_type_id":"4","last_reported":1740420810,"current_range_meters":11600,"station_id":"ce4bh112rcd13ifvqda0","pricing_plan_id":"cebpf4jnsgd1na2vs0mg"},{"bike_id":"054a8c13-e003-4a19-8213-3d429c22f36e","system_id":"levelo_inurba_marseille","lat":43.24163,"lon":5.36393,"is_reserved":false,"is_disabled":false,"rental_uris":{"android":"levelo://app?vid=054a8c13-e003-4a19-8213-3d429c22f36e","ios":"levelo://app?vid=054a8c13-e003-4a19-8213-3d429c22f36e"},"vehicle_type_id":"4","last_reported":1740420810,"current_range_meters":12400,"station_id":"cpo36qri1sfpv3e86is0","pricing_plan_id":"cebpf4jnsgd1na2vs0mg"},{"bike_id":"049582c3-0956-4485-978b-bd286d9c1d7a","system_id":"levelo_inurba_marseille","lat":43.30554,"lon":5.36537,"is_reserved":false,"is_disabled":false,"rental_uris":{"android":"levelo://app?vid=049582c3-0956-4485-978b-bd286d9c1d7a","ios":"levelo://app?vid=049582c3-0956-4485-978b-bd286d9c1d7a"},"vehicle_type_id":"4","last_reported":1740420810,"current_range_meters":12000,"station_id":"ce4bgs12rcd13ifvqcag","pricing_plan_id":"cebpf4jnsgd1na2vs0mg"},{"bike_id":"b184ccde-d7b0-42f7-aef8-be5a4f2ba348","system_id":"levelo_inurba_marseille","lat":43.28464,"lon":5.35883,"is_reserved":false,"is_disabled":false,"rental_uris":{"android":"levelo://app?vid=b184ccde-d7b0-42f7-aef8-be5a4f2ba348","ios":"levelo://app?vid=b184ccde-d7b0-42f7-aef8-be5a4f2ba348"},"vehicle_type_id":"4","last_reported":1740420810,"current_range_meters":16800,"station_id":"ce4bhah2rcd13ifvqei0","pricing_plan_id":"cebpf4jnsgd1na2vs0mg"},{"bike_id":"e44c1c4c-d85b-4ac3-888a-2323021fb55a","system_id":"levelo_inurba_marseille","lat":43.28483,"lon":5.38416,"is_reserved":false,"is_disabled":false,"rental_uris":{"android":"levelo://app?vid=e44c1c4c-d85b-4ac3-888a-2323021fb55a","ios":"levelo://app?vid=e44c1c4c-d85b-4ac3-888a-2323021fb55a"},"vehicle_type_id":"4","last_reported":1740420810,"current_range_meters":12400,"station_id":"ce4bh512rcd13ifvqe3g","pricing_plan_id":"cebpf4jnsgd1na2vs0mg"},{"bike_id":"2a0727ba-3c42-4e2a-b51b-7ba3e48f76ef","system_id":"levelo_inurba_marseille","lat":43.26778,"lon":5.39419,"is_reserved":false,"is_disabled":false,"rental_uris":{"android":"levelo://app?vid=2a0727ba-3c42-4e2a-b51b-7ba3e48f76ef","ios":"levelo://app?vid=2a0727ba-3c42-4e2a-b51b-7ba3e48f76ef"},"vehicle_type_id":"4","last_reported":1740420810,"current_range_meters":12000,"station_id":"ce4bhh12rcd13ifvqfg0","pricing_plan_id":"cebpf4jnsgd1na2vs0mg"},{"bike_id":"d7a301bd-2a48-44bf-bc69-dddc1ff99095","system_id":"levelo_inurba_marseille","lat":43.31321,"lon":5.39707,"is_reserved":false,"is_disabled":false,"rental_uris":{"android":"levelo://app?vid=d7a301bd-2a48-44bf-bc69-dddc1ff99095","ios":"levelo://app?vid=d7a301bd-2a48-44bf-bc69-dddc1ff99095"},"vehicle_type_id":"4","last_reported":1740420810,"current_range_meters":12400,"station_id":"ce4bgvp2rcd13ifvqcu0","pricing_plan_id":"cebpf4jnsgd1na2vs0mg"},{"bike_id":"d90fc6d7-871e-4fc4-950b-c963063affa1","system_id":"levelo_inurba_marseille","lat":43.25083,"lon":5.39511,"is_reserved":false,"is_disabled":false,"rental_uris":{"android":"levelo://app?vid=d90fc6d7-871e-4fc4-950b-c963063affa1","ios":"levelo://app?vid=d90fc6d7-871e-4fc4-950b-c963063affa1"},"vehicle_type_id":"4","last_reported":1740420810,"current_range_meters":12400,"station_id":"ce4bhm12rcd13ifvqgkg","pricing_plan_id":"cebpf4jnsgd1na2vs0mg"},{"bike_id":"070c33eb-cd8d-42db-b74d-d15e2c3a0af9","system_id":"levelo_inurba_marseille","lat":43.29174,"lon":5.37157,"is_reserved":false,"is_disabled":false,"rental_uris":{"android":"levelo://app?vid=070c33eb-cd8d-42db-b74d-d15e2c3a0af9","ios":"levelo://app?vid=070c33eb-cd8d-42db-b74d-d15e2c3a0af9"},"vehicle_type_id":"4","last_reported":1740420810,"current_range_meters":10800,"station_id":"ce4bha92rcd13ifvqeh0","pricing_plan_id":"cebpf4jnsgd1na2vs0mg"},{"bike_id":"aae2cc24-d81d-40c8-b8bc-6d8c97b18fe8","system_id":"levelo_inurba_marseille","lat":43.30109,"lon":5.39072,"is_reserved":false,"is_disabled":false,"rental_uris":{"android":"levelo://app?vid=aae2cc24-d81d-40c8-b8bc-6d8c97b18fe8","ios":"levelo://app?vid=aae2cc24-d81d-40c8-b8bc-6d8c97b18fe8"},"vehicle_type_id":"4","last_reported":1740420810,"current_range_meters":12400,"station_id":"ce4bh192rcd13ifvqdb0","pricing_plan_id":"cebpf4jnsgd1na2vs0mg"},{"bike_id":"a2f9add9-9567-416c-bc26-270ee6578eeb","system_id":"levelo_inurba_marseille","lat":43.31268,"lon":5.3964,"is_reserved":false,"is_disabled":false,"rental_uris":{"android":"levelo://app?vid=a2f9add9-9567-416c-bc26-270ee6578eeb","ios":"levelo://app?vid=a2f9add9-9567-416c-bc26-270ee6578eeb"},"vehicle_type_id":"4","last_reported":1740420810,"current_range_meters":12400,"station_id":"","pricing_plan_id":"cebpf4jnsgd1na2vs0mg"},{"bike_id":"8157b900-11a7-48fc-bc9e-cf1e1480b85b","system_id":"levelo_inurba_marseille","lat":43.32287,"lon":5.38271,"is_reserved":false,"is_disabled":false,"rental_uris":{"android":"levelo://app?vid=8157b900-11a7-48fc-bc9e-cf1e1480b85b","ios":"levelo://app?vid=8157b900-11a7-48fc-bc9e-cf1e1480b85b"},"vehicle_type_id":"4","last_reported":1740420810,"current_range_meters":12400,"station_id":"ce4bhr12rcd13ifvqhqg","pricing_plan_id":"cebpf4jnsgd1na2vs0mg"},{"bike_id":"6b1795cd-5f7d-425e-a877-938e7267b66a","system_id":"levelo_inurba_marseille","lat":43.29195,"lon":5.39326,"is_reserved":false,"is_disabled":false,"rental_uris":{"android":"levelo://app?vid=6b1795cd-5f7d-425e-a877-938e7267b66a","ios":"levelo://app?vid=6b1795cd-5f7d-425e-a877-938e7267b66a"},"vehicle_type_id":"4","last_reported":1740420810,"current_range_meters":6000,"station_id":"ce4bh192rcd13ifvqdd0","pricing_plan_id":"cebpf4jnsgd1na2vs0mg"},{"bike_id":"a6ad5861-0ad0-4c2d-9ac9-17d9bbd5ca0f","system_id":"levelo_inurba_marseille","lat":43.29035,"lon":5.35902,"is_reserved":false,"is_disabled":false,"rental_uris":{"android":"levelo://app?vid=a6ad5861-0ad0-4c2d-9ac9-17d9bbd5ca0f","ios":"levelo://app?vid=a6ad5861-0ad0-4c2d-9ac9-17d9bbd5ca0f"},"vehicle_type_id":"4","last_reported":1740420810,"current_range_meters":12800,"station_id":"ce4bha92rcd13ifvqeg0","pricing_plan_id":"cebpf4jnsgd1na2vs0mg"},{"bike_id":"70b8446f-e570-485f-8a0e-17df6c30a3c3","system_id":"levelo_inurba_marseille","lat":43.29213,"lon":5.39334,"is_reserved":false,"is_disabled":false,"rental_uris":{"android":"levelo://app?vid=70b8446f-e570-485f-8a0e-17df6c30a3c3","ios":"levelo://app?vid=70b8446f-e570-485f-8a0e-17df6c30a3c3"},"vehicle_type_id":"4","last_reported":1740420810,"current_range_meters":14000,"station_id":"ce4bh192rcd13ifvqdd0","pricing_plan_id":"cebpf4jnsgd1na2vs0mg"},{"bike_id":"45757207-65c0-4c20-ba2a-7d06aa152a9d","system_id":"levelo_inurba_marseille","lat":43.33025,"lon":5.39043,"is_reserved":false,"is_disabled":false,"rental_uris":{"android":"levelo://app?vid=45757207-65c0-4c20-ba2a-7d06aa152a9d","ios":"levelo://app?vid=45757207-65c0-4c20-ba2a-7d06aa152a9d"},"vehicle_type_id":"4","last_reported":1740420810,"current_range_meters":12400,"station_id":"ce4bhr92rcd13ifvqhrg","pricing_plan_id":"cebpf4jnsgd1na2vs0mg"},{"bike_id":"5080142d-edcb-4209-b40b-255a02981818","system_id":"levelo_inurba_marseille","lat":43.29913,"lon":5.43629,"is_reserved":false,"is_disabled":false,"rental_uris":{"android":"levelo://app?vid=5080142d-edcb-4209-b40b-255a02981818","ios":"levelo://app?vid=5080142d-edcb-4209-b40b-255a02981818"},"vehicle_type_id":"4","last_reported":1740420810,"current_range_meters":12800,"station_id":"ce4bhpp2rcd13ifvqhfg","pricing_plan_id":"cebpf4jnsgd1na2vs0mg"},{"bike_id":"fea71757-ccba-429c-b0e3-21ea4c534055","system_id":"levelo_inurba_marseille","lat":43.298645,"lon":5.397351,"is_reserved":false,"is_disabled":false,"rental_uris":{"android":"levelo://app?vid=fea71757-ccba-429c-b0e3-21ea4c534055","ios":"levelo://app?vid=fea71757-ccba-429c-b0e3-21ea4c534055"},"vehicle_type_id":"4","last_reported":1740420810,"current_range_meters":2000,"station_id":"ce4bh0h2rcd13ifvqd50","pricing_plan_id":"cebpf4jnsgd1na2vs0mg"},{"bike_id":"3464ab88-549a-40e0-9028-0c7540669eff","system_id":"levelo_inurba_marseille","lat":43.28427,"lon":5.39185,"is_reserved":false,"is_disabled":false,"rental_uris":{"android":"levelo://app?vid=3464ab88-549a-40e0-9028-0c7540669eff","ios":"levelo://app?vid=3464ab88-549a-40e0-9028-0c7540669eff"},"vehicle_type_id":"4","last_reported":1740420810,"current_range_meters":12400,"station_id":"ce4bhoh2rcd13ifvqh5g","pricing_plan_id":"cebpf4jnsgd1na2vs0mg"},{"bike_id":"5cf60c01-8033-419b-8e8f-125398f50e21","system_id":"levelo_inurba_marseille","lat":43.279981,"lon":5.399893,"is_reserved":false,"is_disabled":false,"rental_uris":{"android":"levelo://app?vid=5cf60c01-8033-419b-8e8f-125398f50e21","ios":"levelo://app?vid=5cf60c01-8033-419b-8e8f-125398f50e21"},"vehicle_type_id":"4","last_reported":1740420810,"current_range_meters":12800,"station_id":"ce4bho92rcd13ifvqh4g","pricing_plan_id":"cebpf4jnsgd1na2vs0mg"},{"bike_id":"674cb057-5d42-4512-ae8c-448c1f63016b","system_id":"levelo_inurba_marseille","lat":43.30362,"lon":5.39443,"is_reserved":false,"is_disabled":false,"rental_uris":{"android":"levelo://app?vid=674cb057-5d42-4512-ae8c-448c1f63016b","ios":"levelo://app?vid=674cb057-5d42-4512-ae8c-448c1f63016b"},"vehicle_type_id":"4","last_reported":1740420810,"current_range_meters":13600,"station_id":"","pricing_plan_id":"cebpf4jnsgd1na2vs0mg"},{"bike_id":"130ab319-f673-4e36-9717-343d196c6cce","system_id":"levelo_inurba_marseille","lat":43.231873,"lon":5.399901,"is_reserved":false,"is_disabled":false,"rental_uris":{"android":"levelo://app?vid=130ab319-f673-4e36-9717-343d196c6cce","ios":"levelo://app?vid=130ab319-f673-4e36-9717-343d196c6cce"},"vehicle_type_id":"4","last_reported":1740420810,"current_range_meters":13600,"station_id":"ce4bhn12rcd13ifvqgqg","pricing_plan_id":"cebpf4jnsgd1na2vs0mg"},{"bike_id":"4536875f-604a-454e-9383-c4f436e97a01","system_id":"levelo_inurba_marseille","lat":43.28101,"lon":5.39609,"is_reserved":false,"is_disabled":false,"rental_uris":{"android":"levelo://app?vid=4536875f-604a-454e-9383-c4f436e97a01","ios":"levelo://app?vid=4536875f-604a-454e-9383-c4f436e97a01"},"vehicle_type_id":"4","last_reported":1740420810,"current_range_meters":13600,"station_id":"ce4bho12rcd13ifvqh2g","pricing_plan_id":"cebpf4jnsgd1na2vs0mg"},{"bike_id":"7333f5f0-71fa-4cf2-9e94-a5d02574b956","system_id":"levelo_inurba_marseille","lat":43.28364,"lon":5.38644,"is_reserved":false,"is_disabled":false,"rental_uris":{"android":"levelo://app?vid=7333f5f0-71fa-4cf2-9e94-a5d02574b956","ios":"levelo://app?vid=7333f5f0-71fa-4cf2-9e94-a5d02574b956"},"vehicle_type_id":"4","last_reported":1740420810,"current_range_meters":13600,"station_id":"ce4bh492rcd13ifvqdvg","pricing_plan_id":"cebpf4jnsgd1na2vs0mg"},{"bike_id":"0d6538be-0a98-408e-b743-f4610b7062ed","system_id":"levelo_inurba_marseille","lat":43.26939,"lon":5.40246,"is_reserved":false,"is_disabled":false,"rental_uris":{"android":"levelo://app?vid=0d6538be-0a98-408e-b743-f4610b7062ed","ios":"levelo://app?vid=0d6538be-0a98-408e-b743-f4610b7062ed"},"vehicle_type_id":"4","last_reported":1740420810,"current_range_meters":12800,"station_id":"cjm6bp8fraef2m0cb0m0","pricing_plan_id":"cebpf4jnsgd1na2vs0mg"},{"bike_id":"975523f8-6e4b-4ccb-8944-d35a0c3b9b59","system_id":"levelo_inurba_marseille","lat":43.29198,"lon":5.39311,"is_reserved":false,"is_disabled":false,"rental_uris":{"android":"levelo://app?vid=975523f8-6e4b-4ccb-8944-d35a0c3b9b59","ios":"levelo://app?vid=975523f8-6e4b-4ccb-8944-d35a0c3b9b59"},"vehicle_type_id":"4","last_reported":1740420810,"current_range_meters":13600,"station_id":"ce4bh192rcd13ifvqdd0","pricing_plan_id":"cebpf4jnsgd1na2vs0mg"},{"bike_id":"5f5ba0a9-a369-45b5-8819-e331d0af7407","system_id":"levelo_inurba_marseille","lat":43.29628,"lon":5.37152,"is_reserved":false,"is_disabled":false,"rental_uris":{"android":"levelo://app?vid=5f5ba0a9-a369-45b5-8819-e331d0af7407","ios":"levelo://app?vid=5f5ba0a9-a369-45b5-8819-e331d0af7407"},"vehicle_type_id":"4","last_reported":1740420810,"current_range_meters":14000,"station_id":"ce4bgnh2rcd13ifvqc0g","pricing_plan_id":"cebpf4jnsgd1na2vs0mg"},{"bike_id":"116e1eb5-613f-4526-a0b7-0cb9d94439fe","system_id":"levelo_inurba_marseille","lat":43.29568,"lon":5.37491,"is_reserved":false,"is_disabled":false,"rental_uris":{"android":"levelo://app?vid=116e1eb5-613f-4526-a0b7-0cb9d94439fe","ios":"levelo://app?vid=116e1eb5-613f-4526-a0b7-0cb9d94439fe"},"vehicle_type_id":"4","last_reported":1740420810,"current_range_meters":14000,"station_id":"ce4bgh92rcd13ifvqb50","pricing_plan_id":"cebpf4jnsgd1na2vs0mg"},{"bike_id":"3e9be196-2bd4-4301-9502-626d9edd366e","system_id":"levelo_inurba_marseille","lat":43.29555,"lon":5.42291,"is_reserved":false,"is_disabled":false,"rental_uris":{"android":"levelo://app?vid=3e9be196-2bd4-4301-9502-626d9edd366e","ios":"levelo://app?vid=3e9be196-2bd4-4301-9502-626d9edd366e"},"vehicle_type_id":"4","last_reported":1740420810,"current_range_meters":18000,"station_id":"ce4bhph2rcd13ifvqhdg","pricing_plan_id":"cebpf4jnsgd1na2vs0mg"},{"bike_id":"d9539a63-7677-4fd2-a172-046d356a2529","system_id":"levelo_inurba_marseille","lat":43.29983,"lon":5.37193,"is_reserved":false,"is_disabled":false,"rental_uris":{"android":"levelo://app?vid=d9539a63-7677-4fd2-a172-046d356a2529","ios":"levelo://app?vid=d9539a63-7677-4fd2-a172-046d356a2529"},"vehicle_type_id":"4","last_reported":1740420810,"current_range_meters":14800,"station_id":"ce4bgr92rcd13ifvqc7g","pricing_plan_id":"cebpf4jnsgd1na2vs0mg"},{"bike_id":"e5c275a2-a964-47d8-9489-ed1126cf4cef","system_id":"levelo_inurba_marseille","lat":43.29623,"lon":5.37913,"is_reserved":false,"is_disabled":false,"rental_uris":{"android":"levelo://app?vid=e5c275a2-a964-47d8-9489-ed1126cf4cef","ios":"levelo://app?vid=e5c275a2-a964-47d8-9489-ed1126cf4cef"},"vehicle_type_id":"4","last_reported":1740420810,"current_range_meters":14800,"station_id":"","pricing_plan_id":"cebpf4jnsgd1na2vs0mg"},{"bike_id":"c67b840d-4529-4214-b6bb-f8e61132a9b1","system_id":"levelo_inurba_marseille","lat":43.25723,"lon":5.41106,"is_reserved":false,"is_disabled":false,"rental_uris":{"android":"levelo://app?vid=c67b840d-4529-4214-b6bb-f8e61132a9b1","ios":"levelo://app?vid=c67b840d-4529-4214-b6bb-f8e61132a9b1"},"vehicle_type_id":"4","last_reported":1740420810,"current_range_meters":14400,"station_id":"ce4bhkp2rcd13ifvqgd0","pricing_plan_id":"cebpf4jnsgd1na2vs0mg"},{"bike_id":"c7101b37-3566-42a8-aa94-0e5e5ba72064","system_id":"levelo_inurba_marseille","lat":43.29269,"lon":5.36847,"is_reserved":false,"is_disabled":false,"rental_uris":{"android":"levelo://app?vid=c7101b37-3566-42a8-aa94-0e5e5ba72064","ios":"levelo://app?vid=c7101b37-3566-42a8-aa94-0e5e5ba72064"},"vehicle_type_id":"4","last_reported":1740420810,"current_range_meters":16800,"station_id":"ce4bhbp2rcd13ifvqesg","pricing_plan_id":"cebpf4jnsgd1na2vs0mg"},{"bike_id":"138b330c-6a36-43a9-9283-2c2e689a148a","system_id":"levelo_inurba_marseille","lat":43.24992,"lon":5.38923,"is_reserved":false,"is_disabled":false,"rental_uris":{"android":"levelo://app?vid=138b330c-6a36-43a9-9283-2c2e689a148a","ios":"levelo://app?vid=138b330c-6a36-43a9-9283-2c2e689a148a"},"vehicle_type_id":"4","last_reported":1740420810,"current_range_meters":16000,"station_id":"ce4bhgp2rcd13ifvqfd0","pricing_plan_id":"cebpf4jnsgd1na2vs0mg"},{"bike_id":"37988262-898f-4380-ae93-8e84dea51380","system_id":"levelo_inurba_marseille","lat":43.27838,"lon":5.39207,"is_reserved":false,"is_disabled":false,"rental_uris":{"android":"levelo://app?vid=37988262-898f-4380-ae93-8e84dea51380","ios":"levelo://app?vid=37988262-898f-4380-ae93-8e84dea51380"},"vehicle_type_id":"4","last_reported":1740420810,"current_range_meters":14400,"station_id":"ce4bhjp2rcd13ifvqga0","pricing_plan_id":"cebpf4jnsgd1na2vs0mg"},{"bike_id":"d13e810b-2d36-496c-b91d-ceb853d24474","system_id":"levelo_inurba_marseille","lat":43.29007,"lon":5.35604,"is_reserved":false,"is_disabled":false,"rental_uris":{"android":"levelo://app?vid=d13e810b-2d36-496c-b91d-ceb853d24474","ios":"levelo://app?vid=d13e810b-2d36-496c-b91d-ceb853d24474"},"vehicle_type_id":"4","last_reported":1740420810,"current_range_meters":14400,"station_id":"ce4bhb92rcd13ifvqen0","pricing_plan_id":"cebpf4jnsgd1na2vs0mg"},{"bike_id":"d2610799-3b25-4010-8a8a-a9ba4108f5fb","system_id":"levelo_inurba_marseille","lat":43.25006,"lon":5.38925,"is_reserved":false,"is_disabled":false,"rental_uris":{"android":"levelo://app?vid=d2610799-3b25-4010-8a8a-a9ba4108f5fb","ios":"levelo://app?vid=d2610799-3b25-4010-8a8a-a9ba4108f5fb"},"vehicle_type_id":"4","last_reported":1740420810,"current_range_meters":14800,"station_id":"ce4bhgp2rcd13ifvqfd0","pricing_plan_id":"cebpf4jnsgd1na2vs0mg"},{"bike_id":"a9f238df-8d0d-4ea2-9e32-72272684dc3f","system_id":"levelo_inurba_marseille","lat":43.32366,"lon":5.38908,"is_reserved":false,"is_disabled":false,"rental_uris":{"android":"levelo://app?vid=a9f238df-8d0d-4ea2-9e32-72272684dc3f","ios":"levelo://app?vid=a9f238df-8d0d-4ea2-9e32-72272684dc3f"},"vehicle_type_id":"4","last_reported":1740420810,"current_range_meters":14800,"station_id":"ce4bhqp2rcd13ifvqhog","pricing_plan_id":"cebpf4jnsgd1na2vs0mg"},{"bike_id":"79a84db2-6c90-46e6-b4ed-170540e92e6c","system_id":"levelo_inurba_marseille","lat":43.29849,"lon":5.36258,"is_reserved":false,"is_disabled":false,"rental_uris":{"android":"levelo://app?vid=79a84db2-6c90-46e6-b4ed-170540e92e6c","ios":"levelo://app?vid=79a84db2-6c90-46e6-b4ed-170540e92e6c"},"vehicle_type_id":"4","last_reported":1740420810,"current_range_meters":14800,"station_id":"ce4bgpp2rcd13ifvqc3g","pricing_plan_id":"cebpf4jnsgd1na2vs0mg"},{"bike_id":"d78f9967-aa8e-49d3-afd9-0633f3094f27","system_id":"levelo_inurba_marseille","lat":43.29264,"lon":5.38437,"is_reserved":false,"is_disabled":false,"rental_uris":{"android":"levelo://app?vid=d78f9967-aa8e-49d3-afd9-0633f3094f27","ios":"levelo://app?vid=d78f9967-aa8e-49d3-afd9-0633f3094f27"},"vehicle_type_id":"4","last_reported":1740420810,"current_range_meters":14800,"station_id":"ce4bh692rcd13ifvqea0","pricing_plan_id":"cebpf4jnsgd1na2vs0mg"},{"bike_id":"760eb658-016e-422a-925a-e97810424e09","system_id":"levelo_inurba_marseille","lat":43.27946,"lon":5.41042,"is_reserved":false,"is_disabled":false,"rental_uris":{"android":"levelo://app?vid=760eb658-016e-422a-925a-e97810424e09","ios":"levelo://app?vid=760eb658-016e-422a-925a-e97810424e09"},"vehicle_type_id":"4","last_reported":1740420810,"current_range_meters":15200,"station_id":"ce4bhnp2rcd13ifvqh0g","pricing_plan_id":"cebpf4jnsgd1na2vs0mg"},{"bike_id":"aff046d5-92b9-4d37-b388-3c6d0fc40bf3","system_id":"levelo_inurba_marseille","lat":43.29023,"lon":5.38643,"is_reserved":false,"is_disabled":false,"rental_uris":{"android":"levelo://app?vid=aff046d5-92b9-4d37-b388-3c6d0fc40bf3","ios":"levelo://app?vid=aff046d5-92b9-4d37-b388-3c6d0fc40bf3"},"vehicle_type_id":"4","last_reported":1740420810,"current_range_meters":15200,"station_id":"ce4bh4p2rcd13ifvqe0g","pricing_plan_id":"cebpf4jnsgd1na2vs0mg"},{"bike_id":"75d87ed4-0165-4b58-bbca-db245c6fa58f","system_id":"levelo_inurba_marseille","lat":43.2927,"lon":5.38439,"is_reserved":false,"is_disabled":false,"rental_uris":{"android":"levelo://app?vid=75d87ed4-0165-4b58-bbca-db245c6fa58f","ios":"levelo://app?vid=75d87ed4-0165-4b58-bbca-db245c6fa58f"},"vehicle_type_id":"4","last_reported":1740420810,"current_range_meters":15200,"station_id":"ce4bh692rcd13ifvqea0","pricing_plan_id":"cebpf4jnsgd1na2vs0mg"},{"bike_id":"c91cd32c-ac4f-447c-9b97-d04b1d944120","system_id":"levelo_inurba_marseille","lat":43.30461,"lon":5.37905,"is_reserved":false,"is_disabled":false,"rental_uris":{"android":"levelo://app?vid=c91cd32c-ac4f-447c-9b97-d04b1d944120","ios":"levelo://app?vid=c91cd32c-ac4f-447c-9b97-d04b1d944120"},"vehicle_type_id":"4","last_reported":1740420810,"current_range_meters":15200,"station_id":"ce4bgup2rcd13ifvqcn0","pricing_plan_id":"cebpf4jnsgd1na2vs0mg"},{"bike_id":"0b5fad15-95fd-4aa5-8e9b-4f2b72f7f569","system_id":"levelo_inurba_marseille","lat":43.2956,"lon":5.42291,"is_reserved":false,"is_disabled":false,"rental_uris":{"android":"levelo://app?vid=0b5fad15-95fd-4aa5-8e9b-4f2b72f7f569","ios":"levelo://app?vid=0b5fad15-95fd-4aa5-8e9b-4f2b72f7f569"},"vehicle_type_id":"4","last_reported":1740420810,"current_range_meters":15200,"station_id":"ce4bhph2rcd13ifvqhdg","pricing_plan_id":"cebpf4jnsgd1na2vs0mg"},{"bike_id":"763a38cd-b50b-4187-a9a7-e0318d9aae60","system_id":"levelo_inurba_marseille","lat":43.25002,"lon":5.38919,"is_reserved":false,"is_disabled":false,"rental_uris":{"android":"levelo://app?vid=763a38cd-b50b-4187-a9a7-e0318d9aae60","ios":"levelo://app?vid=763a38cd-b50b-4187-a9a7-e0318d9aae60"},"vehicle_type_id":"4","last_reported":1740420810,"current_range_meters":15200,"station_id":"ce4bhgp2rcd13ifvqfd0","pricing_plan_id":"cebpf4jnsgd1na2vs0mg"},{"bike_id":"b05b811e-fe46-4001-aa0f-8fc40e83857d","system_id":"levelo_inurba_marseille","lat":43.33722,"lon":5.39187,"is_reserved":false,"is_disabled":false,"rental_uris":{"android":"levelo://app?vid=b05b811e-fe46-4001-aa0f-8fc40e83857d","ios":"levelo://app?vid=b05b811e-fe46-4001-aa0f-8fc40e83857d"},"vehicle_type_id":"4","last_reported":1740420810,"current_range_meters":14800,"station_id":"ce4bhr92rcd13ifvqhsg","pricing_plan_id":"cebpf4jnsgd1na2vs0mg"},{"bike_id":"086086ee-0717-4f87-8651-7864614c53d4","system_id":"levelo_inurba_marseille","lat":43.25119,"lon":5.40315,"is_reserved":false,"is_disabled":false,"rental_uris":{"android":"levelo://app?vid=086086ee-0717-4f87-8651-7864614c53d4","ios":"levelo://app?vid=086086ee-0717-4f87-8651-7864614c53d4"},"vehicle_type_id":"4","last_reported":1740420810,"current_range_meters":16000,"station_id":"ce4bhlh2rcd13ifvqgig","pricing_plan_id":"cebpf4jnsgd1na2vs0mg"},{"bike_id":"6f9eb619-ce1a-440a-9085-673242f78425","system_id":"levelo_inurba_marseille","lat":43.29496,"lon":5.37529,"is_reserved":false,"is_disabled":true,"rental_uris":{"android":"levelo://app?vid=6f9eb619-ce1a-440a-9085-673242f78425","ios":"levelo://app?vid=6f9eb619-ce1a-440a-9085-673242f78425"},"vehicle_type_id":"4","last_reported":1740420810,"current_range_meters":16000,"station_id":"","pricing_plan_id":"cebpf4jnsgd1na2vs0mg"},{"bike_id":"aae4551f-9ab4-4a76-b7a4-ac7664eaae4b","system_id":"levelo_inurba_marseille","lat":43.29282,"lon":5.40132,"is_reserved":false,"is_disabled":false,"rental_uris":{"android":"levelo://app?vid=aae4551f-9ab4-4a76-b7a4-ac7664eaae4b","ios":"levelo://app?vid=aae4551f-9ab4-4a76-b7a4-ac7664eaae4b"},"vehicle_type_id":"4","last_reported":1740420810,"current_range_meters":16000,"station_id":"ce4bh312rcd13ifvqdk0","pricing_plan_id":"cebpf4jnsgd1na2vs0mg"},{"bike_id":"03c502df-c0d3-4ad7-b038-d3923b426e2e","system_id":"levelo_inurba_marseille","lat":43.29416,"lon":5.38611,"is_reserved":false,"is_disabled":true,"rental_uris":{"android":"levelo://app?vid=03c502df-c0d3-4ad7-b038-d3923b426e2e","ios":"levelo://app?vid=03c502df-c0d3-4ad7-b038-d3923b426e2e"},"vehicle_type_id":"4","last_reported":1740420810,"current_range_meters":16400,"station_id":"ce4bh2h2rcd13ifvqdh0","pricing_plan_id":"cebpf4jnsgd1na2vs0mg"},{"bike_id":"c04fb82e-df4d-437f-88f7-fac1448321f2","system_id":"levelo_inurba_marseille","lat":43.29194,"lon":5.39314,"is_reserved":false,"is_disabled":false,"rental_uris":{"android":"levelo://app?vid=c04fb82e-df4d-437f-88f7-fac1448321f2","ios":"levelo://app?vid=c04fb82e-df4d-437f-88f7-fac1448321f2"},"vehicle_type_id":"4","last_reported":1740420810,"current_range_meters":16000,"station_id":"ce4bh192rcd13ifvqdd0","pricing_plan_id":"cebpf4jnsgd1na2vs0mg"},{"bike_id":"64a53e9f-6407-4562-8b1c-499167f41346","system_id":"levelo_inurba_marseille","lat":43.30864,"lon":5.39651,"is_reserved":false,"is_disabled":false,"rental_uris":{"android":"levelo://app?vid=64a53e9f-6407-4562-8b1c-499167f41346","ios":"levelo://app?vid=64a53e9f-6407-4562-8b1c-499167f41346"},"vehicle_type_id":"4","last_reported":1740420810,"current_range_meters":15200,"station_id":"ce4bh012rcd13ifvqcv0","pricing_plan_id":"cebpf4jnsgd1na2vs0mg"},{"bike_id":"3f89e495-3275-4079-8dc4-5ae95b75f822","system_id":"levelo_inurba_marseille","lat":43.28107,"lon":5.37838,"is_reserved":false,"is_disabled":true,"rental_uris":{"android":"levelo://app?vid=3f89e495-3275-4079-8dc4-5ae95b75f822","ios":"levelo://app?vid=3f89e495-3275-4079-8dc4-5ae95b75f822"},"vehicle_type_id":"4","last_reported":1740420810,"current_range_meters":16400,"station_id":"ce4bha12rcd13ifvqee0","pricing_plan_id":"cebpf4jnsgd1na2vs0mg"},{"bike_id":"5435865c-3120-44b2-a6c3-b3611ddd99d3","system_id":"levelo_inurba_marseille","lat":43.32371,"lon":5.38882,"is_reserved":false,"is_disabled":false,"rental_uris":{"android":"levelo://app?vid=5435865c-3120-44b2-a6c3-b3611ddd99d3","ios":"levelo://app?vid=5435865c-3120-44b2-a6c3-b3611ddd99d3"},"vehicle_type_id":"4","last_reported":1740420810,"current_range_meters":16000,"station_id":"ce4bhqp2rcd13ifvqhog","pricing_plan_id":"cebpf4jnsgd1na2vs0mg"},{"bike_id":"a090b4ca-e4f9-44c8-9458-050ddd28baeb","system_id":"levelo_inurba_marseille","lat":43.29717,"lon":5.36604,"is_reserved":false,"is_disabled":false,"rental_uris":{"android":"levelo://app?vid=a090b4ca-e4f9-44c8-9458-050ddd28baeb","ios":"levelo://app?vid=a090b4ca-e4f9-44c8-9458-050ddd28baeb"},"vehicle_type_id":"4","last_reported":1740420810,"current_range_meters":16400,"station_id":"ce4bgn12rcd13ifvqbt0","pricing_plan_id":"cebpf4jnsgd1na2vs0mg"},{"bike_id":"d138a461-3692-438c-aa9e-f46d4dedee6d","system_id":"levelo_inurba_marseille","lat":43.25089,"lon":5.39522,"is_reserved":false,"is_disabled":false,"rental_uris":{"android":"levelo://app?vid=d138a461-3692-438c-aa9e-f46d4dedee6d","ios":"levelo://app?vid=d138a461-3692-438c-aa9e-f46d4dedee6d"},"vehicle_type_id":"4","last_reported":1740420810,"current_range_meters":16400,"station_id":"ce4bhm12rcd13ifvqgkg","pricing_plan_id":"cebpf4jnsgd1na2vs0mg"},{"bike_id":"1d89802a-0087-4bcf-8579-18492a4b68e7","system_id":"levelo_inurba_marseille","lat":43.28481,"lon":5.38427,"is_reserved":false,"is_disabled":false,"rental_uris":{"android":"levelo://app?vid=1d89802a-0087-4bcf-8579-18492a4b68e7","ios":"levelo://app?vid=1d89802a-0087-4bcf-8579-18492a4b68e7"},"vehicle_type_id":"4","last_reported":1740420810,"current_range_meters":16400,"station_id":"ce4bh512rcd13ifvqe3g","pricing_plan_id":"cebpf4jnsgd1na2vs0mg"},{"bike_id":"c089c19a-9e3a-4f5f-8b9c-a99d357a37fa","system_id":"levelo_inurba_marseille","lat":43.29511,"lon":5.39399,"is_reserved":false,"is_disabled":false,"rental_uris":{"android":"levelo://app?vid=c089c19a-9e3a-4f5f-8b9c-a99d357a37fa","ios":"levelo://app?vid=c089c19a-9e3a-4f5f-8b9c-a99d357a37fa"},"vehicle_type_id":"4","last_reported":1740420810,"current_range_meters":16400,"station_id":"ce4bh292rcd13ifvqdf0","pricing_plan_id":"cebpf4jnsgd1na2vs0mg"},{"bike_id":"f377ab29-b0e7-45c3-8273-993b3372e8f9","system_id":"levelo_inurba_marseille","lat":43.2621,"lon":5.3744,"is_reserved":false,"is_disabled":false,"rental_uris":{"android":"levelo://app?vid=f377ab29-b0e7-45c3-8273-993b3372e8f9","ios":"levelo://app?vid=f377ab29-b0e7-45c3-8273-993b3372e8f9"},"vehicle_type_id":"4","last_reported":1740420810,"current_range_meters":16400,"station_id":"ce4bhgp2rcd13ifvqfc0","pricing_plan_id":"cebpf4jnsgd1na2vs0mg"},{"bike_id":"de54b84e-d754-4cf9-97ed-7d6cd44576a6","system_id":"levelo_inurba_marseille","lat":43.27826,"lon":5.40755,"is_reserved":false,"is_disabled":false,"rental_uris":{"android":"levelo://app?vid=de54b84e-d754-4cf9-97ed-7d6cd44576a6","ios":"levelo://app?vid=de54b84e-d754-4cf9-97ed-7d6cd44576a6"},"vehicle_type_id":"4","last_reported":1740420810,"current_range_meters":16400,"station_id":"ce4bhnh2rcd13ifvqgtg","pricing_plan_id":"cebpf4jnsgd1na2vs0mg"},{"bike_id":"05f51bd6-bf8c-4b6c-ba2f-d7bf7cec3006","system_id":"levelo_inurba_marseille","lat":43.23202,"lon":5.35559,"is_reserved":false,"is_disabled":false,"rental_uris":{"android":"levelo://app?vid=05f51bd6-bf8c-4b6c-ba2f-d7bf7cec3006","ios":"levelo://app?vid=05f51bd6-bf8c-4b6c-ba2f-d7bf7cec3006"},"vehicle_type_id":"4","last_reported":1740420810,"current_range_meters":16400,"station_id":"ce4bhu92rcd13ifvqi70","pricing_plan_id":"cebpf4jnsgd1na2vs0mg"},{"bike_id":"aec3e955-2a81-4ab2-b166-e22ba9b1d37f","system_id":"levelo_inurba_marseille","lat":43.292014,"lon":5.357958,"is_reserved":false,"is_disabled":false,"rental_uris":{"android":"levelo://app?vid=aec3e955-2a81-4ab2-b166-e22ba9b1d37f","ios":"levelo://app?vid=aec3e955-2a81-4ab2-b166-e22ba9b1d37f"},"vehicle_type_id":"4","last_reported":1740420810,"current_range_meters":16400,"station_id":"ce4bgh92rcd13ifvqb50","pricing_plan_id":"cebpf4jnsgd1na2vs0mg"},{"bike_id":"81df559b-c205-45ac-88ad-5161007651ef","system_id":"levelo_inurba_marseille","lat":43.28409,"lon":5.37517,"is_reserved":false,"is_disabled":false,"rental_uris":{"android":"levelo://app?vid=81df559b-c205-45ac-88ad-5161007651ef","ios":"levelo://app?vid=81df559b-c205-45ac-88ad-5161007651ef"},"vehicle_type_id":"4","last_reported":1740420810,"current_range_meters":16400,"station_id":"ce4bh412rcd13ifvqds0","pricing_plan_id":"cebpf4jnsgd1na2vs0mg"},{"bike_id":"d3ef24d2-ff42-47b2-a4ec-98e31d44b916","system_id":"levelo_inurba_marseille","lat":43.28464,"lon":5.38421,"is_reserved":false,"is_disabled":false,"rental_uris":{"android":"levelo://app?vid=d3ef24d2-ff42-47b2-a4ec-98e31d44b916","ios":"levelo://app?vid=d3ef24d2-ff42-47b2-a4ec-98e31d44b916"},"vehicle_type_id":"4","last_reported":1740420810,"current_range_meters":16400,"station_id":"ce4bh512rcd13ifvqe3g","pricing_plan_id":"cebpf4jnsgd1na2vs0mg"},{"bike_id":"1c2f3bdc-68fa-40a8-b99e-fcf41f32f9e4","system_id":"levelo_inurba_marseille","lat":43.29208,"lon":5.40513,"is_reserved":false,"is_disabled":false,"rental_uris":{"android":"levelo://app?vid=1c2f3bdc-68fa-40a8-b99e-fcf41f32f9e4","ios":"levelo://app?vid=1c2f3bdc-68fa-40a8-b99e-fcf41f32f9e4"},"vehicle_type_id":"4","last_reported":1740420810,"current_range_meters":16800,"station_id":"","pricing_plan_id":"cebpf4jnsgd1na2vs0mg"},{"bike_id":"c9a1858d-786d-4197-a639-046d237805f3","system_id":"levelo_inurba_marseille","lat":43.28415,"lon":5.37523,"is_reserved":false,"is_disabled":false,"rental_uris":{"android":"levelo://app?vid=c9a1858d-786d-4197-a639-046d237805f3","ios":"levelo://app?vid=c9a1858d-786d-4197-a639-046d237805f3"},"vehicle_type_id":"4","last_reported":1740420810,"current_range_meters":16800,"station_id":"ce4bh412rcd13ifvqds0","pricing_plan_id":"cebpf4jnsgd1na2vs0mg"},{"bike_id":"ccf16bbc-9926-4e40-b67e-436748ae7844","system_id":"levelo_inurba_marseille","lat":43.29796,"lon":5.40391,"is_reserved":false,"is_disabled":false,"rental_uris":{"android":"levelo://app?vid=ccf16bbc-9926-4e40-b67e-436748ae7844","ios":"levelo://app?vid=ccf16bbc-9926-4e40-b67e-436748ae7844"},"vehicle_type_id":"4","last_reported":1740420810,"current_range_meters":16400,"station_id":"ce4bh112rcd13ifvqd90","pricing_plan_id":"cebpf4jnsgd1na2vs0mg"},{"bike_id":"8514fc45-931a-4d33-8ebd-119ca23a33dc","system_id":"levelo_inurba_marseille","lat":43.27811,"lon":5.40724,"is_reserved":false,"is_disabled":false,"rental_uris":{"android":"levelo://app?vid=8514fc45-931a-4d33-8ebd-119ca23a33dc","ios":"levelo://app?vid=8514fc45-931a-4d33-8ebd-119ca23a33dc"},"vehicle_type_id":"4","last_reported":1740420810,"current_range_meters":17200,"station_id":"ce4bhnh2rcd13ifvqgtg","pricing_plan_id":"cebpf4jnsgd1na2vs0mg"},{"bike_id":"0a1736ef-767f-4d04-aada-b1c3f8601044","system_id":"levelo_inurba_marseille","lat":43.2781,"lon":5.40709,"is_reserved":false,"is_disabled":false,"rental_uris":{"android":"levelo://app?vid=0a1736ef-767f-4d04-aada-b1c3f8601044","ios":"levelo://app?vid=0a1736ef-767f-4d04-aada-b1c3f8601044"},"vehicle_type_id":"4","last_reported":1740420810,"current_range_meters":16800,"station_id":"ce4bhnh2rcd13ifvqgtg","pricing_plan_id":"cebpf4jnsgd1na2vs0mg"},{"bike_id":"27df2c47-30b9-42a1-a17f-d05f9ce10835","system_id":"levelo_inurba_marseille","lat":43.28402,"lon":5.37515,"is_reserved":false,"is_disabled":false,"rental_uris":{"android":"levelo://app?vid=27df2c47-30b9-42a1-a17f-d05f9ce10835","ios":"levelo://app?vid=27df2c47-30b9-42a1-a17f-d05f9ce10835"},"vehicle_type_id":"4","last_reported":1740420810,"current_range_meters":17200,"station_id":"ce4bh412rcd13ifvqds0","pricing_plan_id":"cebpf4jnsgd1na2vs0mg"},{"bike_id":"ea96d41c-01a9-440f-9def-3e243141c897","system_id":"levelo_inurba_marseille","lat":43.29868,"lon":5.39738,"is_reserved":false,"is_disabled":false,"rental_uris":{"android":"levelo://app?vid=ea96d41c-01a9-440f-9def-3e243141c897","ios":"levelo://app?vid=ea96d41c-01a9-440f-9def-3e243141c897"},"vehicle_type_id":"4","last_reported":1740420810,"current_range_meters":15200,"station_id":"ce4bh0h2rcd13ifvqd50","pricing_plan_id":"cebpf4jnsgd1na2vs0mg"},{"bike_id":"5ae99531-7c3f-46f4-8792-b284a38d568c","system_id":"levelo_inurba_marseille","lat":43.284719,"lon":5.384138,"is_reserved":false,"is_disabled":false,"rental_uris":{"android":"levelo://app?vid=5ae99531-7c3f-46f4-8792-b284a38d568c","ios":"levelo://app?vid=5ae99531-7c3f-46f4-8792-b284a38d568c"},"vehicle_type_id":"4","last_reported":1740420810,"current_range_meters":17200,"station_id":"ce4bhn12rcd13ifvqgqg","pricing_plan_id":"cebpf4jnsgd1na2vs0mg"},{"bike_id":"e9450d61-7e12-49ac-9e64-6fdcd904c3ba","system_id":"levelo_inurba_marseille","lat":43.30339,"lon":5.36919,"is_reserved":false,"is_disabled":false,"rental_uris":{"android":"levelo://app?vid=e9450d61-7e12-49ac-9e64-6fdcd904c3ba","ios":"levelo://app?vid=e9450d61-7e12-49ac-9e64-6fdcd904c3ba"},"vehicle_type_id":"4","last_reported":1740420810,"current_range_meters":17200,"station_id":"ce4bgqh2rcd13ifvqc5g","pricing_plan_id":"cebpf4jnsgd1na2vs0mg"},{"bike_id":"9062f7b6-9c81-49b8-a1bd-5df58202afcd","system_id":"levelo_inurba_marseille","lat":43.31703,"lon":5.437,"is_reserved":false,"is_disabled":false,"rental_uris":{"android":"levelo://app?vid=9062f7b6-9c81-49b8-a1bd-5df58202afcd","ios":"levelo://app?vid=9062f7b6-9c81-49b8-a1bd-5df58202afcd"},"vehicle_type_id":"4","last_reported":1740420810,"current_range_meters":17200,"station_id":"ce4bhp92rcd13ifvqhcg","pricing_plan_id":"cebpf4jnsgd1na2vs0mg"},{"bike_id":"35850c9e-cb72-4193-9c34-0922f0c711fe","system_id":"levelo_inurba_marseille","lat":43.29028,"lon":5.38646,"is_reserved":false,"is_disabled":false,"rental_uris":{"android":"levelo://app?vid=35850c9e-cb72-4193-9c34-0922f0c711fe","ios":"levelo://app?vid=35850c9e-cb72-4193-9c34-0922f0c711fe"},"vehicle_type_id":"4","last_reported":1740420810,"current_range_meters":17200,"station_id":"ce4bh4p2rcd13ifvqe0g","pricing_plan_id":"cebpf4jnsgd1na2vs0mg"},{"bike_id":"fb352528-6dce-483c-a4f0-c367df3759b9","system_id":"levelo_inurba_marseille","lat":43.29042,"lon":5.37539,"is_reserved":false,"is_disabled":true,"rental_uris":{"android":"levelo://app?vid=fb352528-6dce-483c-a4f0-c367df3759b9","ios":"levelo://app?vid=fb352528-6dce-483c-a4f0-c367df3759b9"},"vehicle_type_id":"4","last_reported":1740420810,"current_range_meters":17200,"station_id":"ce4bh692rcd13ifvqe90","pricing_plan_id":"cebpf4jnsgd1na2vs0mg"},{"bike_id":"46814d2f-dec0-460c-883a-bfd2811fc0e2","system_id":"levelo_inurba_marseille","lat":43.29576,"lon":5.36748,"is_reserved":false,"is_disabled":false,"rental_uris":{"android":"levelo://app?vid=46814d2f-dec0-460c-883a-bfd2811fc0e2","ios":"levelo://app?vid=46814d2f-dec0-460c-883a-bfd2811fc0e2"},"vehicle_type_id":"4","last_reported":1740420810,"current_range_meters":17600,"station_id":"ce4bgph2rcd13ifvqc2g","pricing_plan_id":"cebpf4jnsgd1na2vs0mg"},{"bike_id":"10a166bf-b152-4b56-8741-e98891da07cf","system_id":"levelo_inurba_marseille","lat":43.29881,"lon":5.39732,"is_reserved":false,"is_disabled":false,"rental_uris":{"android":"levelo://app?vid=10a166bf-b152-4b56-8741-e98891da07cf","ios":"levelo://app?vid=10a166bf-b152-4b56-8741-e98891da07cf"},"vehicle_type_id":"4","last_reported":1740420810,"current_range_meters":18000,"station_id":"ce4bh0h2rcd13ifvqd50","pricing_plan_id":"cebpf4jnsgd1na2vs0mg"},{"bike_id":"6239f636-804f-46f9-bccd-f6be6568ba35","system_id":"levelo_inurba_marseille","lat":43.25081,"lon":5.39514,"is_reserved":false,"is_disabled":false,"rental_uris":{"android":"levelo://app?vid=6239f636-804f-46f9-bccd-f6be6568ba35","ios":"levelo://app?vid=6239f636-804f-46f9-bccd-f6be6568ba35"},"vehicle_type_id":"4","last_reported":1740420810,"current_range_meters":17600,"station_id":"ce4bhm12rcd13ifvqgkg","pricing_plan_id":"cebpf4jnsgd1na2vs0mg"},{"bike_id":"dee24f9a-df15-44d3-ac60-b1507019b18f","system_id":"levelo_inurba_marseille","lat":43.27821,"lon":5.40723,"is_reserved":false,"is_disabled":false,"rental_uris":{"android":"levelo://app?vid=dee24f9a-df15-44d3-ac60-b1507019b18f","ios":"levelo://app?vid=dee24f9a-df15-44d3-ac60-b1507019b18f"},"vehicle_type_id":"4","last_reported":1740420810,"current_range_meters":17600,"station_id":"ce4bhnh2rcd13ifvqgtg","pricing_plan_id":"cebpf4jnsgd1na2vs0mg"},{"bike_id":"02d5ce1a-922f-4ad2-95aa-9f96f248121d","system_id":"levelo_inurba_marseille","lat":43.24195,"lon":5.3971,"is_reserved":false,"is_disabled":false,"rental_uris":{"android":"levelo://app?vid=02d5ce1a-922f-4ad2-95aa-9f96f248121d","ios":"levelo://app?vid=02d5ce1a-922f-4ad2-95aa-9f96f248121d"},"vehicle_type_id":"4","last_reported":1740420810,"current_range_meters":17600,"station_id":"ce4bhn12rcd13ifvqgpg","pricing_plan_id":"cebpf4jnsgd1na2vs0mg"},{"bike_id":"0f510974-3ca1-446f-b0b3-bb60c6368875","system_id":"levelo_inurba_marseille","lat":43.27995,"lon":5.40008,"is_reserved":false,"is_disabled":false,"rental_uris":{"android":"levelo://app?vid=0f510974-3ca1-446f-b0b3-bb60c6368875","ios":"levelo://app?vid=0f510974-3ca1-446f-b0b3-bb60c6368875"},"vehicle_type_id":"4","last_reported":1740420810,"current_range_meters":17600,"station_id":"ce4bho92rcd13ifvqh4g","pricing_plan_id":"cebpf4jnsgd1na2vs0mg"},{"bike_id":"50e0b440-c8bc-463f-80f7-aa8c4c9f0d11","system_id":"levelo_inurba_marseille","lat":43.29223,"lon":5.36056,"is_reserved":false,"is_disabled":false,"rental_uris":{"android":"levelo://app?vid=50e0b440-c8bc-463f-80f7-aa8c4c9f0d11","ios":"levelo://app?vid=50e0b440-c8bc-463f-80f7-aa8c4c9f0d11"},"vehicle_type_id":"4","last_reported":1740420810,"current_range_meters":17600,"station_id":"ce4bhbh2rcd13ifvqeqg","pricing_plan_id":"cebpf4jnsgd1na2vs0mg"},{"bike_id":"c3d0fefa-5db4-49bd-a964-1a22da440d36","system_id":"levelo_inurba_marseille","lat":43.269559,"lon":5.386313,"is_reserved":false,"is_disabled":false,"rental_uris":{"android":"levelo://app?vid=c3d0fefa-5db4-49bd-a964-1a22da440d36","ios":"levelo://app?vid=c3d0fefa-5db4-49bd-a964-1a22da440d36"},"vehicle_type_id":"4","last_reported":1740420810,"current_range_meters":17600,"station_id":"","pricing_plan_id":"cebpf4jnsgd1na2vs0mg"},{"bike_id":"3880de27-a9a6-44e0-90ae-3bc724574f9b","system_id":"levelo_inurba_marseille","lat":43.29517,"lon":5.39403,"is_reserved":false,"is_disabled":false,"rental_uris":{"android":"levelo://app?vid=3880de27-a9a6-44e0-90ae-3bc724574f9b","ios":"levelo://app?vid=3880de27-a9a6-44e0-90ae-3bc724574f9b"},"vehicle_type_id":"4","last_reported":1740420810,"current_range_meters":18000,"station_id":"ce4bh292rcd13ifvqdf0","pricing_plan_id":"cebpf4jnsgd1na2vs0mg"},{"bike_id":"68179644-dac6-4b72-9ca4-5496e23945a6","system_id":"levelo_inurba_marseille","lat":43.29716,"lon":5.36609,"is_reserved":false,"is_disabled":false,"rental_uris":{"android":"levelo://app?vid=68179644-dac6-4b72-9ca4-5496e23945a6","ios":"levelo://app?vid=68179644-dac6-4b72-9ca4-5496e23945a6"},"vehicle_type_id":"4","last_reported":1740420810,"current_range_meters":18000,"station_id":"ce4bgn12rcd13ifvqbt0","pricing_plan_id":"cebpf4jnsgd1na2vs0mg"},{"bike_id":"88f08797-21c2-4e14-ada1-a4dcd12be94b","system_id":"levelo_inurba_marseille","lat":43.305907,"lon":5.372398,"is_reserved":false,"is_disabled":false,"rental_uris":{"android":"levelo://app?vid=88f08797-21c2-4e14-ada1-a4dcd12be94b","ios":"levelo://app?vid=88f08797-21c2-4e14-ada1-a4dcd12be94b"},"vehicle_type_id":"4","last_reported":1740420810,"current_range_meters":17600,"station_id":"ce4bgpp2rcd13ifvqc3g","pricing_plan_id":"cebpf4jnsgd1na2vs0mg"},{"bike_id":"d3a624d3-140c-4015-8254-af12ae2df535","system_id":"levelo_inurba_marseille","lat":43.29873,"lon":5.39732,"is_reserved":false,"is_disabled":false,"rental_uris":{"android":"levelo://app?vid=d3a624d3-140c-4015-8254-af12ae2df535","ios":"levelo://app?vid=d3a624d3-140c-4015-8254-af12ae2df535"},"vehicle_type_id":"4","last_reported":1740420810,"current_range_meters":18000,"station_id":"ce4bh0h2rcd13ifvqd50","pricing_plan_id":"cebpf4jnsgd1na2vs0mg"},{"bike_id":"7c45866a-bd99-4c12-9747-66203f12a96e","system_id":"levelo_inurba_marseille","lat":43.23145,"lon":5.35508,"is_reserved":false,"is_disabled":false,"rental_uris":{"android":"levelo://app?vid=7c45866a-bd99-4c12-9747-66203f12a96e","ios":"levelo://app?vid=7c45866a-bd99-4c12-9747-66203f12a96e"},"vehicle_type_id":"4","last_reported":1740420810,"current_range_meters":18000,"station_id":"","pricing_plan_id":"cebpf4jnsgd1na2vs0mg"},{"bike_id":"cbf0cb02-d377-43fd-aae2-d6bae9becbd0","system_id":"levelo_inurba_marseille","lat":43.26211,"lon":5.37439,"is_reserved":false,"is_disabled":false,"rental_uris":{"android":"levelo://app?vid=cbf0cb02-d377-43fd-aae2-d6bae9becbd0","ios":"levelo://app?vid=cbf0cb02-d377-43fd-aae2-d6bae9becbd0"},"vehicle_type_id":"4","last_reported":1740420810,"current_range_meters":18000,"station_id":"ce4bhgp2rcd13ifvqfc0","pricing_plan_id":"cebpf4jnsgd1na2vs0mg"},{"bike_id":"c6bad8b5-e842-43c7-8277-77c3905a44ea","system_id":"levelo_inurba_marseille","lat":43.23972,"lon":5.36639,"is_reserved":false,"is_disabled":false,"rental_uris":{"android":"levelo://app?vid=c6bad8b5-e842-43c7-8277-77c3905a44ea","ios":"levelo://app?vid=c6bad8b5-e842-43c7-8277-77c3905a44ea"},"vehicle_type_id":"4","last_reported":1740420810,"current_range_meters":18000,"station_id":"ce4bhi12rcd13ifvqfp0","pricing_plan_id":"cebpf4jnsgd1na2vs0mg"},{"bike_id":"c068dcb4-6111-4494-92b0-fe59cb336012","system_id":"levelo_inurba_marseille","lat":43.29883,"lon":5.38917,"is_reserved":false,"is_disabled":false,"rental_uris":{"android":"levelo://app?vid=c068dcb4-6111-4494-92b0-fe59cb336012","ios":"levelo://app?vid=c068dcb4-6111-4494-92b0-fe59cb336012"},"vehicle_type_id":"4","last_reported":1740420810,"current_range_meters":18800,"station_id":"ce4bh392rcd13ifvqdl0","pricing_plan_id":"cebpf4jnsgd1na2vs0mg"},{"bike_id":"99ecdafb-baa8-48ab-8743-dd4b9f485365","system_id":"levelo_inurba_marseille","lat":43.29251,"lon":5.40902,"is_reserved":false,"is_disabled":false,"rental_uris":{"android":"levelo://app?vid=99ecdafb-baa8-48ab-8743-dd4b9f485365","ios":"levelo://app?vid=99ecdafb-baa8-48ab-8743-dd4b9f485365"},"vehicle_type_id":"4","last_reported":1740420810,"current_range_meters":18800,"station_id":"ce4bh192rcd13ifvqdc0","pricing_plan_id":"cebpf4jnsgd1na2vs0mg"},{"bike_id":"82547d68-bf21-481f-b14c-217a4667ac17","system_id":"levelo_inurba_marseille","lat":43.26558,"lon":5.37283,"is_reserved":false,"is_disabled":false,"rental_uris":{"android":"levelo://app?vid=82547d68-bf21-481f-b14c-217a4667ac17","ios":"levelo://app?vid=82547d68-bf21-481f-b14c-217a4667ac17"},"vehicle_type_id":"4","last_reported":1740420810,"current_range_meters":18000,"station_id":"ce4bhg12rcd13ifvqf70","pricing_plan_id":"cebpf4jnsgd1na2vs0mg"},{"bike_id":"f2481c20-e0b0-4145-a77c-a368afcd9c63","system_id":"levelo_inurba_marseille","lat":43.29605,"lon":5.38091,"is_reserved":false,"is_disabled":false,"rental_uris":{"android":"levelo://app?vid=f2481c20-e0b0-4145-a77c-a368afcd9c63","ios":"levelo://app?vid=f2481c20-e0b0-4145-a77c-a368afcd9c63"},"vehicle_type_id":"4","last_reported":1740420810,"current_range_meters":18800,"station_id":"ce4bgl12rcd13ifvqbo0","pricing_plan_id":"cebpf4jnsgd1na2vs0mg"},{"bike_id":"29337d22-1a09-4901-a9a5-65a64cb4e2dc","system_id":"levelo_inurba_marseille","lat":43.28708,"lon":5.37404,"is_reserved":false,"is_disabled":false,"rental_uris":{"android":"levelo://app?vid=29337d22-1a09-4901-a9a5-65a64cb4e2dc","ios":"levelo://app?vid=29337d22-1a09-4901-a9a5-65a64cb4e2dc"},"vehicle_type_id":"4","last_reported":1740420810,"current_range_meters":17600,"station_id":"ce4bh3p2rcd13ifvqdq0","pricing_plan_id":"cebpf4jnsgd1na2vs0mg"},{"bike_id":"f2aee800-8f75-4006-a8db-8125718f6426","system_id":"levelo_inurba_marseille","lat":43.23966,"lon":5.3664,"is_reserved":false,"is_disabled":false,"rental_uris":{"android":"levelo://app?vid=f2aee800-8f75-4006-a8db-8125718f6426","ios":"levelo://app?vid=f2aee800-8f75-4006-a8db-8125718f6426"},"vehicle_type_id":"4","last_reported":1740420810,"current_range_meters":18800,"station_id":"ce4bhi12rcd13ifvqfp0","pricing_plan_id":"cebpf4jnsgd1na2vs0mg"},{"bike_id":"67462c7c-fcd4-47dc-94d8-9d7a33d5da2f","system_id":"levelo_inurba_marseille","lat":43.27953,"lon":5.41044,"is_reserved":false,"is_disabled":false,"rental_uris":{"android":"levelo://app?vid=67462c7c-fcd4-47dc-94d8-9d7a33d5da2f","ios":"levelo://app?vid=67462c7c-fcd4-47dc-94d8-9d7a33d5da2f"},"vehicle_type_id":"4","last_reported":1740420810,"current_range_meters":19200,"station_id":"ce4bhnp2rcd13ifvqh0g","pricing_plan_id":"cebpf4jnsgd1na2vs0mg"},{"bike_id":"7951ec82-c1c3-436f-b4bb-ea3dd1dc5ab6","system_id":"levelo_inurba_marseille","lat":43.2861,"lon":5.35106,"is_reserved":false,"is_disabled":false,"rental_uris":{"android":"levelo://app?vid=7951ec82-c1c3-436f-b4bb-ea3dd1dc5ab6","ios":"levelo://app?vid=7951ec82-c1c3-436f-b4bb-ea3dd1dc5ab6"},"vehicle_type_id":"4","last_reported":1740420810,"current_range_meters":19200,"station_id":"ce4bhch2rcd13ifvqeug","pricing_plan_id":"cebpf4jnsgd1na2vs0mg"},{"bike_id":"be85351f-f433-4123-a449-d91dbc845699","system_id":"levelo_inurba_marseille","lat":43.29541,"lon":5.39408,"is_reserved":false,"is_disabled":false,"rental_uris":{"android":"levelo://app?vid=be85351f-f433-4123-a449-d91dbc845699","ios":"levelo://app?vid=be85351f-f433-4123-a449-d91dbc845699"},"vehicle_type_id":"4","last_reported":1740420810,"current_range_meters":19200,"station_id":"ce4bh292rcd13ifvqdf0","pricing_plan_id":"cebpf4jnsgd1na2vs0mg"},{"bike_id":"4a0a2b90-7c7d-479d-882f-946cfbf60320","system_id":"levelo_inurba_marseille","lat":43.29705,"lon":5.36616,"is_reserved":false,"is_disabled":false,"rental_uris":{"android":"levelo://app?vid=4a0a2b90-7c7d-479d-882f-946cfbf60320","ios":"levelo://app?vid=4a0a2b90-7c7d-479d-882f-946cfbf60320"},"vehicle_type_id":"4","last_reported":1740420810,"current_range_meters":19200,"station_id":"ce4bgn12rcd13ifvqbt0","pricing_plan_id":"cebpf4jnsgd1na2vs0mg"},{"bike_id":"c68f3a0b-e764-4bf3-9b63-b72387fdffb5","system_id":"levelo_inurba_marseille","lat":43.28858,"lon":5.35857,"is_reserved":false,"is_disabled":false,"rental_uris":{"android":"levelo://app?vid=c68f3a0b-e764-4bf3-9b63-b72387fdffb5","ios":"levelo://app?vid=c68f3a0b-e764-4bf3-9b63-b72387fdffb5"},"vehicle_type_id":"4","last_reported":1740420810,"current_range_meters":19200,"station_id":"ce4bhb12rcd13ifvqem0","pricing_plan_id":"cebpf4jnsgd1na2vs0mg"},{"bike_id":"10827d72-aa0c-48f9-ae6a-3a2d78aaf05e","system_id":"levelo_inurba_marseille","lat":43.29783,"lon":5.39338,"is_reserved":false,"is_disabled":false,"rental_uris":{"android":"levelo://app?vid=10827d72-aa0c-48f9-ae6a-3a2d78aaf05e","ios":"levelo://app?vid=10827d72-aa0c-48f9-ae6a-3a2d78aaf05e"},"vehicle_type_id":"4","last_reported":1740420810,"current_range_meters":18800,"station_id":"chh1huq6cuj3fo74tm60","pricing_plan_id":"cebpf4jnsgd1na2vs0mg"},{"bike_id":"68696185-1374-4c43-a0f0-a5a17c7a6652","system_id":"levelo_inurba_marseille","lat":43.30884,"lon":5.39653,"is_reserved":false,"is_disabled":false,"rental_uris":{"android":"levelo://app?vid=68696185-1374-4c43-a0f0-a5a17c7a6652","ios":"levelo://app?vid=68696185-1374-4c43-a0f0-a5a17c7a6652"},"vehicle_type_id":"4","last_reported":1740420810,"current_range_meters":19200,"station_id":"ce4bh012rcd13ifvqcv0","pricing_plan_id":"cebpf4jnsgd1na2vs0mg"},{"bike_id":"98554d44-dc15-4e9c-b295-72c4b9f9b459","system_id":"levelo_inurba_marseille","lat":43.28495,"lon":5.38418,"is_reserved":false,"is_disabled":false,"rental_uris":{"android":"levelo://app?vid=98554d44-dc15-4e9c-b295-72c4b9f9b459","ios":"levelo://app?vid=98554d44-dc15-4e9c-b295-72c4b9f9b459"},"vehicle_type_id":"4","last_reported":1740420810,"current_range_meters":19200,"station_id":"ce4bh512rcd13ifvqe3g","pricing_plan_id":"cebpf4jnsgd1na2vs0mg"},{"bike_id":"e106e6db-405f-4dee-8880-c965ba1778ef","system_id":"levelo_inurba_marseille","lat":43.29104,"lon":5.38126,"is_reserved":false,"is_disabled":false,"rental_uris":{"android":"levelo://app?vid=e106e6db-405f-4dee-8880-c965ba1778ef","ios":"levelo://app?vid=e106e6db-405f-4dee-8880-c965ba1778ef"},"vehicle_type_id":"4","last_reported":1740420810,"current_range_meters":18800,"station_id":"ce4bh512rcd13ifvqe2g","pricing_plan_id":"cebpf4jnsgd1na2vs0mg"},{"bike_id":"eae38a93-dd09-49e3-895a-a41c8fd42355","system_id":"levelo_inurba_marseille","lat":43.30331,"lon":5.40438,"is_reserved":false,"is_disabled":false,"rental_uris":{"android":"levelo://app?vid=eae38a93-dd09-49e3-895a-a41c8fd42355","ios":"levelo://app?vid=eae38a93-dd09-49e3-895a-a41c8fd42355"},"vehicle_type_id":"4","last_reported":1740420810,"current_range_meters":27200,"station_id":"ce4bh012rcd13ifvqd10","pricing_plan_id":"cebpf4jnsgd1na2vs0mg"},{"bike_id":"2c5b41d8-2247-4fb1-8662-067a63dc29af","system_id":"levelo_inurba_marseille","lat":43.29932,"lon":5.36516,"is_reserved":false,"is_disabled":false,"rental_uris":{"android":"levelo://app?vid=2c5b41d8-2247-4fb1-8662-067a63dc29af","ios":"levelo://app?vid=2c5b41d8-2247-4fb1-8662-067a63dc29af"},"vehicle_type_id":"4","last_reported":1740420810,"current_range_meters":19600,"station_id":"ce4bgm92rcd13ifvqbr0","pricing_plan_id":"cebpf4jnsgd1na2vs0mg"},{"bike_id":"c6a36f08-ce5f-45a3-8813-39608040a9bb","system_id":"levelo_inurba_marseille","lat":43.27988,"lon":5.40028,"is_reserved":false,"is_disabled":false,"rental_uris":{"android":"levelo://app?vid=c6a36f08-ce5f-45a3-8813-39608040a9bb","ios":"levelo://app?vid=c6a36f08-ce5f-45a3-8813-39608040a9bb"},"vehicle_type_id":"4","last_reported":1740420810,"current_range_meters":19600,"station_id":"ce4bho92rcd13ifvqh4g","pricing_plan_id":"cebpf4jnsgd1na2vs0mg"},