{"last_updated":1748662539,"ttl":60,"version":"2.2","data":{"bikes":[{"bike_id":"697d924a-ea53-411b-88e3-ed7542c4178d","system_id":"levelo_inurba_marseille","lat":43.337758,"lon":5.374808,"is_reserved":false,"is_disabled":false,"rental_uris":{"android":"levelo://app?vid=697d924a-ea53-411b-88e3-ed7542c4178d","ios":"levelo://app?vid=697d924a-ea53-411b-88e3-ed7542c4178d"},"vehicle_type_id":"4","last_reported":1748662539,"current_range_meters":2800,"station_id":"","pricing_plan_id":"cebpf4jnsgd1na2vs0mg"},{"bike_id":"83f58932-5e4f-4759-9290-dfe976998719","system_id":"levelo_inurba_marseille","lat":43.231913,"lon":5.355524,"is_reserved":false,"is_disabled":true,"rental_uris":{"android":"levelo://app?vid=83f58932-5e4f-4759-9290-dfe976998719","ios":"levelo://app?vid=83f58932-5e4f-4759-9290-dfe976998719"},"vehicle_type_id":"4","last_reported":1748662539,"current_range_meters":2800,"station_id":"ce4bhr12rcd13ifvqhqg","pricing_plan_id":"cebpf4jnsgd1na2vs0mg"},{"bike_id":"d9f1f4d8-b422-476d-8100-627ece5eb5b8","system_id":"levelo_inurba_marseille","lat":43.289858,"lon":5.356046,"is_reserved":false,"is_disabled":true,"rental_uris":{"android":"levelo://app?vid=d9f1f4d8-b422-476d-8100-627ece5eb5b8","ios":"levelo://app?vid=d9f1f4d8-b422-476d-8100-627ece5eb5b8"},"vehicle_type_id":"4","last_reported":1748662539,"current_range_meters":3200,"station_id":"ce4bhb92rcd13ifvqen0","pricing_plan_id":"cebpf4jnsgd1na2vs0mg"},{"bike_id":"784a945d-80c2-45aa-b87c-e407e4d2ae86","system_id":"levelo_inurba_marseille","lat":43.270578,"lon":5.402731,"is_reserved":false,"is_disabled":true,"rental_uris":{"android":"levelo://app?vid=784a945d-80c2-45aa-b87c-e407e4d2ae86","ios":"levelo://app?vid=784a945d-80c2-45aa-b87c-e407e4d2ae86"},"vehicle_type_id":"4","last_reported":1748662539,"current_range_meters":3200,"station_id":"ce4bhk92rcd13ifvqgc0","pricing_plan_id":"cebpf4jnsgd1na2vs0mg"},{"bike_id":"9a3e8474-2e74-4a00-8ec2-4f67020a2256","system_id":"levelo_inurba_marseille","lat":43.27976,"lon":5.38729,"is_reserved":false,"is_disabled":true,"rental_uris":{"android":"levelo://app?vid=9a3e8474-2e74-4a00-8ec2-4f67020a2256","ios":"levelo://app?vid=9a3e8474-2e74-4a00-8ec2-4f67020a2256"},"vehicle_type_id":"4","last_reported":1748662539,"current_range_meters":3200,"station_id":"ce4bhg12rcd13ifvqf80","pricing_plan_id":"cebpf4jnsgd1na2vs0mg"},{"bike_id":"84c289c3-5a61-49df-ac38-0af140ddc578","system_id":"levelo_inurba_marseille","lat":43.309304,"lon":5.401559,"is_reserved":false,"is_disabled":false,"rental_uris":{"android":"levelo://app?vid=84c289c3-5a61-49df-ac38-0af140ddc578","ios":"levelo://app?vid=84c289c3-5a61-49df-ac38-0af140ddc578"},"vehicle_type_id":"4","last_reported":1748662539,"current_range_meters":3200,"station_id":"ce4bgvp2rcd13ifvqct0","pricing_plan_id":"cebpf4jnsgd1na2vs0mg"},{"bike_id":"8313d7f5-a537-4d42-9cb8-7e1b6c5597e9","system_id":"levelo_inurba_marseille","lat":43.309,"lon":5.39674,"is_reserved":false,"is_disabled":false,"rental_uris":{"android":"levelo://app?vid=8313d7f5-a537-4d42-9cb8-7e1b6c5597e9","ios":"levelo://app?vid=8313d7f5-a537-4d42-9cb8-7e1b6c5597e9"},"vehicle_type_id":"4","last_reported":1748662539,"current_range_meters":3600,"station_id":"ce4bh012rcd13ifvqcv0","pricing_plan_id":"cebpf4jnsgd1na2vs0mg"},{"bike_id":"1a5dc4a7-780c-46f7-b2c2-5a5f08311f81","system_id":"levelo_inurba_marseille","lat":43.287016,"lon":5.400048,"is_reserved":false,"is_disabled":false,"rental_uris":{"android":"levelo://app?vid=1a5dc4a7-780c-46f7-b2c2-5a5f08311f81","ios":"levelo://app?vid=1a5dc4a7-780c-46f7-b2c2-5a5f08311f81"},"vehicle_type_id":"4","last_reported":1748662539,"current_range_meters":3600,"station_id":"ce4bho92rcd13ifvqh3g","pricing_plan_id":"cebpf4jnsgd1na2vs0mg"},{"bike_id":"bfd3b341-01f6-4fef-bebe-7c1cb9bc6efa","system_id":"levelo_inurba_marseille","lat":43.27931,"lon":5.41043,"is_reserved":false,"is_disabled":false,"rental_uris":{"android":"levelo://app?vid=bfd3b341-01f6-4fef-bebe-7c1cb9bc6efa","ios":"levelo://app?vid=bfd3b341-01f6-4fef-bebe-7c1cb9bc6efa"},"vehicle_type_id":"4","last_reported":1748662539,"current_range_meters":3600,"station_id":"ce4bhnp2rcd13ifvqh0g","pricing_plan_id":"cebpf4jnsgd1na2vs0mg"},{"bike_id":"ad393117-4263-4eff-9e0c-b3e4944d7867","system_id":"levelo_inurba_marseille","lat":43.28401,"lon":5.37528,"is_reserved":false,"is_disabled":false,"rental_uris":{"android":"levelo://app?vid=ad393117-4263-4eff-9e0c-b3e4944d7867","ios":"levelo://app?vid=ad393117-4263-4eff-9e0c-b3e4944d7867"},"vehicle_type_id":"4","last_reported":1748662539,"current_range_meters":4000,"station_id":"ce4bh412rcd13ifvqds0","pricing_plan_id":"cebpf4jnsgd1na2vs0mg"},{"bike_id":"299bc464-0062-40b9-b8fd-94e53cb49a69","system_id":"levelo_inurba_marseille","lat":43.29641,"lon":5.36229,"is_reserved":false,"is_disabled":false,"rental_uris":{"android":"levelo://app?vid=299bc464-0062-40b9-b8fd-94e53cb49a69","ios":"levelo://app?vid=299bc464-0062-40b9-b8fd-94e53cb49a69"},"vehicle_type_id":"4","last_reported":1748662539,"current_range_meters":4000,"station_id":"","pricing_plan_id":"cebpf4jnsgd1na2vs0mg"},{"bike_id":"a24ed859-7ffe-447b-a280-957c836eb856","system_id":"levelo_inurba_marseille","lat":43.31335,"lon":5.37625,"is_reserved":false,"is_disabled":false,"rental_uris":{"android":"levelo://app?vid=a24ed859-7ffe-447b-a280-957c836eb856","ios":"levelo://app?vid=a24ed859-7ffe-447b-a280-957c836eb856"},"vehicle_type_id":"4","last_reported":1748662539,"current_range_meters":4400,"station_id":"","pricing_plan_id":"cebpf4jnsgd1na2vs0mg"},{"bike_id":"2981ae6d-848a-44c5-987d-c104168410fb","system_id":"levelo_inurba_marseille","lat":43.241722,"lon":5.363971,"is_reserved":false,"is_disabled":true,"rental_uris":{"android":"levelo://app?vid=2981ae6d-848a-44c5-987d-c104168410fb","ios":"levelo://app?vid=2981ae6d-848a-44c5-987d-c104168410fb"},"vehicle_type_id":"4","last_reported":1748662539,"current_range_meters":4800,"station_id":"cpo36qri1sfpv3e86is0","pricing_plan_id":"cebpf4jnsgd1na2vs0mg"},{"bike_id":"1c130dfb-748b-47fd-9074-22306a44f0fb","system_id":"levelo_inurba_marseille","lat":43.28645,"lon":5.36337,"is_reserved":false,"is_disabled":false,"rental_uris":{"android":"levelo://app?vid=1c130dfb-748b-47fd-9074-22306a44f0fb","ios":"levelo://app?vid=1c130dfb-748b-47fd-9074-22306a44f0fb"},"vehicle_type_id":"4","last_reported":1748662539,"current_range_meters":4800,"station_id":"ce4bhah2rcd13ifvqej0","pricing_plan_id":"cebpf4jnsgd1na2vs0mg"},{"bike_id":"36240f0a-66a2-43ec-8330-1f3a9d08cc7e","system_id":"levelo_inurba_marseille","lat":43.239054,"lon":5.362599,"is_reserved":false,"is_disabled":false,"rental_uris":{"android":"levelo://app?vid=36240f0a-66a2-43ec-8330-1f3a9d08cc7e","ios":"levelo://app?vid=36240f0a-66a2-43ec-8330-1f3a9d08cc7e"},"vehicle_type_id":"4","last_reported":1748662539,"current_range_meters":4800,"station_id":"","pricing_plan_id":"cebpf4jnsgd1na2vs0mg"},{"bike_id":"c40b5fb1-fb87-4a87-bbd6-c1f33aaedd7f","system_id":"levelo_inurba_marseille","lat":43.30373,"lon":5.42493,"is_reserved":false,"is_disabled":false,"rental_uris":{"android":"levelo://app?vid=c40b5fb1-fb87-4a87-bbd6-c1f33aaedd7f","ios":"levelo://app?vid=c40b5fb1-fb87-4a87-bbd6-c1f33aaedd7f"},"vehicle_type_id":"4","last_reported":1748662539,"current_range_meters":4800,"station_id":"ce4bhoh2rcd13ifvqh6g","pricing_plan_id":"cebpf4jnsgd1na2vs0mg"},{"bike_id":"55080048-1445-433c-8653-9f436d843131","system_id":"levelo_inurba_marseille","lat":43.285112,"lon":5.369104,"is_reserved":false,"is_disabled":false,"rental_uris":{"android":"levelo://app?vid=55080048-1445-433c-8653-9f436d843131","ios":"levelo://app?vid=55080048-1445-433c-8653-9f436d843131"},"vehicle_type_id":"4","last_reported":1748662539,"current_range_meters":5600,"station_id":"","pricing_plan_id":"cebpf4jnsgd1na2vs0mg"},{"bike_id":"a426f99b-d34a-41bf-bbda-59f7dfd6939b","system_id":"levelo_inurba_marseille","lat":43.255796,"lon":5.382262,"is_reserved":false,"is_disabled":false,"rental_uris":{"android":"levelo://app?vid=a426f99b-d34a-41bf-bbda-59f7dfd6939b","ios":"levelo://app?vid=a426f99b-d34a-41bf-bbda-59f7dfd6939b"},"vehicle_type_id":"4","last_reported":1748662539,"current_range_meters":6000,"station_id":"ce501612rcd8frsf0b60","pricing_plan_id":"cebpf4jnsgd1na2vs0mg"},{"bike_id":"67e46d2e-8189-4c2b-a145-15476257fed9","system_id":"levelo_inurba_marseille","lat":43.23144,"lon":5.43727,"is_reserved":false,"is_disabled":false,"rental_uris":{"android":"levelo://app?vid=67e46d2e-8189-4c2b-a145-15476257fed9","ios":"levelo://app?vid=67e46d2e-8189-4c2b-a145-15476257fed9"},"vehicle_type_id":"4","last_reported":1748662539,"current_range_meters":6000,"station_id":"ce4bhmp2rcd13ifvqgog","pricing_plan_id":"cebpf4jnsgd1na2vs0mg"},{"bike_id":"00f77637-c960-45d0-b516-a2f6a0285858","system_id":"levelo_inurba_marseille","lat":43.29737,"lon":5.38534,"is_reserved":false,"is_disabled":false,"rental_uris":{"android":"levelo://app?vid=00f77637-c960-45d0-b516-a2f6a0285858","ios":"levelo://app?vid=00f77637-c960-45d0-b516-a2f6a0285858"},"vehicle_type_id":"4","last_reported":1748662539,"current_range_meters":6000,"station_id":"","pricing_plan_id":"cebpf4jnsgd1na2vs0mg"},{"bike_id":"93d3d740-a5bb-4c5d-b1ab-b9e6808f04ed","system_id":"levelo_inurba_marseille","lat":43.262169,"lon":5.404516,"is_reserved":false,"is_disabled":false,"rental_uris":{"android":"levelo://app?vid=93d3d740-a5bb-4c5d-b1ab-b9e6808f04ed","ios":"levelo://app?vid=93d3d740-a5bb-4c5d-b1ab-b9e6808f04ed"},"vehicle_type_id":"4","last_reported":1748662539,"current_range_meters":6000,"station_id":"ce4bhmh2rcd13ifvqgmg","pricing_plan_id":"cebpf4jnsgd1na2vs0mg"},{"bike_id":"446b01ec-d117-49a4-928c-61869c6f563e","system_id":"levelo_inurba_marseille","lat":43.278943,"lon":5.380123,"is_reserved":false,"is_disabled":true,"rental_uris":{"android":"levelo://app?vid=446b01ec-d117-49a4-928c-61869c6f563e","ios":"levelo://app?vid=446b01ec-d117-49a4-928c-61869c6f563e"},"vehicle_type_id":"4","last_reported":1748662539,"current_range_meters":6400,"station_id":"ce4bhf92rcd13ifvqf50","pricing_plan_id":"cebpf4jnsgd1na2vs0mg"},{"bike_id":"e5d113e9-a907-4483-a607-193e3c6f0534","system_id":"levelo_inurba_marseille","lat":43.24171,"lon":5.36416,"is_reserved":false,"is_disabled":false,"rental_uris":{"android":"levelo://app?vid=e5d113e9-a907-4483-a607-193e3c6f0534","ios":"levelo://app?vid=e5d113e9-a907-4483-a607-193e3c6f0534"},"vehicle_type_id":"4","last_reported":1748662539,"current_range_meters":6400,"station_id":"cpo36qri1sfpv3e86is0","pricing_plan_id":"cebpf4jnsgd1na2vs0mg"},{"bike_id":"f5733814-9732-4748-bcc9-3b2fac8e1564","system_id":"levelo_inurba_marseille","lat":43.31256,"lon":5.37829,"is_reserved":false,"is_disabled":true,"rental_uris":{"android":"levelo://app?vid=f5733814-9732-4748-bcc9-3b2fac8e1564","ios":"levelo://app?vid=f5733814-9732-4748-bcc9-3b2fac8e1564"},"vehicle_type_id":"4","last_reported":1748662539,"current_range_meters":6400,"station_id":"","pricing_plan_id":"cebpf4jnsgd1na2vs0mg"},{"bike_id":"4a409268-ab2e-4de4-8d7b-4dc99d1f3c6d","system_id":"levelo_inurba_marseille","lat":43.308863,"lon":5.396231,"is_reserved":false,"is_disabled":false,"rental_uris":{"android":"levelo://app?vid=4a409268-ab2e-4de4-8d7b-4dc99d1f3c6d","ios":"levelo://app?vid=4a409268-ab2e-4de4-8d7b-4dc99d1f3c6d"},"vehicle_type_id":"4","last_reported":1748662539,"current_range_meters":6400,"station_id":"ce4bh012rcd13ifvqcv0","pricing_plan_id":"cebpf4jnsgd1na2vs0mg"},{"bike_id":"89ffc610-8c1d-49ab-a16f-8e7b4f049e54","system_id":"levelo_inurba_marseille","lat":43.23178,"lon":5.39967,"is_reserved":false,"is_disabled":false,"rental_uris":{"android":"levelo://app?vid=89ffc610-8c1d-49ab-a16f-8e7b4f049e54","ios":"levelo://app?vid=89ffc610-8c1d-49ab-a16f-8e7b4f049e54"},"vehicle_type_id":"4","last_reported":1748662539,"current_range_meters":6400,"station_id":"ce4bhn12rcd13ifvqgqg","pricing_plan_id":"cebpf4jnsgd1na2vs0mg"},{"bike_id":"4e072d55-941c-40ec-8614-c3a0528abcd9","system_id":"levelo_inurba_marseille","lat":43.30881,"lon":5.39635,"is_reserved":false,"is_disabled":false,"rental_uris":{"android":"levelo://app?vid=4e072d55-941c-40ec-8614-c3a0528abcd9","ios":"levelo://app?vid=4e072d55-941c-40ec-8614-c3a0528abcd9"},"vehicle_type_id":"4","last_reported":1748662539,"current_range_meters":6800,"station_id":"","pricing_plan_id":"cebpf4jnsgd1na2vs0mg"},{"bike_id":"da5921cd-e75b-4ce7-b109-06c28f720590","system_id":"levelo_inurba_marseille","lat":43.28741,"lon":5.3617,"is_reserved":false,"is_disabled":false,"rental_uris":{"android":"levelo://app?vid=da5921cd-e75b-4ce7-b109-06c28f720590","ios":"levelo://app?vid=da5921cd-e75b-4ce7-b109-06c28f720590"},"vehicle_type_id":"4","last_reported":1748662539,"current_range_meters":6800,"station_id":"","pricing_plan_id":"cebpf4jnsgd1na2vs0mg"},{"bike_id":"97c383a9-35fd-4379-9f90-721945a5c5e9","system_id":"levelo_inurba_marseille","lat":43.23069,"lon":5.35496,"is_reserved":false,"is_disabled":false,"rental_uris":{"android":"levelo://app?vid=97c383a9-35fd-4379-9f90-721945a5c5e9","ios":"levelo://app?vid=97c383a9-35fd-4379-9f90-721945a5c5e9"},"vehicle_type_id":"4","last_reported":1748662539,"current_range_meters":6800,"station_id":"cpo3342slgdg3j2ifvpg","pricing_plan_id":"cebpf4jnsgd1na2vs0mg"},{"bike_id":"21031023-e9bf-4bbd-8bdf-68435d59e07f","system_id":"levelo_inurba_marseille","lat":43.307915,"lon":5.38155,"is_reserved":false,"is_disabled":false,"rental_uris":{"android":"levelo://app?vid=21031023-e9bf-4bbd-8bdf-68435d59e07f","ios":"levelo://app?vid=21031023-e9bf-4bbd-8bdf-68435d59e07f"},"vehicle_type_id":"4","last_reported":1748662539,"current_range_meters":6800,"station_id":"ce4bgt12rcd13ifvqce0","pricing_plan_id":"cebpf4jnsgd1na2vs0mg"},{"bike_id":"8af5e327-fbf3-4fc0-8b8a-501df6d392b0","system_id":"levelo_inurba_marseille","lat":43.30936,"lon":5.4019,"is_reserved":false,"is_disabled":false,"rental_uris":{"android":"levelo://app?vid=8af5e327-fbf3-4fc0-8b8a-501df6d392b0","ios":"levelo://app?vid=8af5e327-fbf3-4fc0-8b8a-501df6d392b0"},"vehicle_type_id":"4","last_reported":1748662539,"current_range_meters":6800,"station_id":"ce4bgvp2rcd13ifvqct0","pricing_plan_id":"cebpf4jnsgd1na2vs0mg"},{"bike_id":"120bfe28-237d-4914-8468-444c42382b49","system_id":"levelo_inurba_marseille","lat":43.284122,"lon":5.37513,"is_reserved":false,"is_disabled":false,"rental_uris":{"android":"levelo://app?vid=120bfe28-237d-4914-8468-444c42382b49","ios":"levelo://app?vid=120bfe28-237d-4914-8468-444c42382b49"},"vehicle_type_id":"4","last_reported":1748662539,"current_range_meters":6800,"station_id":"ce4bh412rcd13ifvqds0","pricing_plan_id":"cebpf4jnsgd1na2vs0mg"},{"bike_id":"e9cda520-c6f4-465d-ad7f-8c059b3dc45a","system_id":"levelo_inurba_marseille","lat":43.313967,"lon":5.383993,"is_reserved":false,"is_disabled":true,"rental_uris":{"android":"levelo://app?vid=e9cda520-c6f4-465d-ad7f-8c059b3dc45a","ios":"levelo://app?vid=e9cda520-c6f4-465d-ad7f-8c059b3dc45a"},"vehicle_type_id":"4","last_reported":1748662539,"current_range_meters":6800,"station_id":"","pricing_plan_id":"cebpf4jnsgd1na2vs0mg"},{"bike_id":"a31656a4-5217-4c2d-91ea-e636b7cf9b1f","system_id":"levelo_inurba_marseille","lat":43.285511,"lon":5.384168,"is_reserved":false,"is_disabled":false,"rental_uris":{"android":"levelo://app?vid=a31656a4-5217-4c2d-91ea-e636b7cf9b1f","ios":"levelo://app?vid=a31656a4-5217-4c2d-91ea-e636b7cf9b1f"},"vehicle_type_id":"4","last_reported":1748662539,"current_range_meters":6800,"station_id":"","pricing_plan_id":"cebpf4jnsgd1na2vs0mg"},{"bike_id":"6e6b68c4-ef8d-4b16-8959-a4de03ea4574","system_id":"levelo_inurba_marseille","lat":43.310763,"lon":5.383574,"is_reserved":false,"is_disabled":false,"rental_uris":{"android":"levelo://app?vid=6e6b68c4-ef8d-4b16-8959-a4de03ea4574","ios":"levelo://app?vid=6e6b68c4-ef8d-4b16-8959-a4de03ea4574"},"vehicle_type_id":"4","last_reported":1748662539,"current_range_meters":6800,"station_id":"ce4bgv92rcd13ifvqcr0","pricing_plan_id":"cebpf4jnsgd1na2vs0mg"},{"bike_id":"76768afa-d077-4547-93ad-f046b61798ce","system_id":"levelo_inurba_marseille","lat":43.30135,"lon":5.38784,"is_reserved":false,"is_disabled":false,"rental_uris":{"android":"levelo://app?vid=76768afa-d077-4547-93ad-f046b61798ce","ios":"levelo://app?vid=76768afa-d077-4547-93ad-f046b61798ce"},"vehicle_type_id":"4","last_reported":1748662539,"current_range_meters":7200,"station_id":"ce4bghh2rcd13ifvqb60","pricing_plan_id":"cebpf4jnsgd1na2vs0mg"},{"bike_id":"bdd13e10-fa58-4da7-814e-c2ebe066e1e0","system_id":"levelo_inurba_marseille","lat":43.25114,"lon":5.40322,"is_reserved":false,"is_disabled":false,"rental_uris":{"android":"levelo://app?vid=bdd13e10-fa58-4da7-814e-c2ebe066e1e0","ios":"levelo://app?vid=bdd13e10-fa58-4da7-814e-c2ebe066e1e0"},"vehicle_type_id":"4","last_reported":1748662539,"current_range_meters":12000,"station_id":"ce4bhlh2rcd13ifvqgig","pricing_plan_id":"cebpf4jnsgd1na2vs0mg"},{"bike_id":"b2180ee4-aae6-4351-850e-916d6a62455d","system_id":"levelo_inurba_marseille","lat":43.24685,"lon":5.38146,"is_reserved":false,"is_disabled":false,"rental_uris":{"android":"levelo://app?vid=b2180ee4-aae6-4351-850e-916d6a62455d","ios":"levelo://app?vid=b2180ee4-aae6-4351-850e-916d6a62455d"},"vehicle_type_id":"4","last_reported":1748662539,"current_range_meters":7200,"station_id":"ce4bhih2rcd13ifvqfr0","pricing_plan_id":"cebpf4jnsgd1na2vs0mg"},{"bike_id":"b9d2b2ba-8d78-40c4-8208-96a2920c63a7","system_id":"levelo_inurba_marseille","lat":43.2781,"lon":5.39214,"is_reserved":false,"is_disabled":false,"rental_uris":{"android":"levelo://app?vid=b9d2b2ba-8d78-40c4-8208-96a2920c63a7","ios":"levelo://app?vid=b9d2b2ba-8d78-40c4-8208-96a2920c63a7"},"vehicle_type_id":"4","last_reported":1748662539,"current_range_meters":8000,"station_id":"ce4bhjp2rcd13ifvqga0","pricing_plan_id":"cebpf4jnsgd1na2vs0mg"},{"bike_id":"fc60c407-9ea3-470d-8473-757e26d9beaf","system_id":"levelo_inurba_marseille","lat":43.262171,"lon":5.404549,"is_reserved":false,"is_disabled":false,"rental_uris":{"android":"levelo://app?vid=fc60c407-9ea3-470d-8473-757e26d9beaf","ios":"levelo://app?vid=fc60c407-9ea3-470d-8473-757e26d9beaf"},"vehicle_type_id":"4","last_reported":1748662539,"current_range_meters":8000,"station_id":"ce4bhmh2rcd13ifvqgmg","pricing_plan_id":"cebpf4jnsgd1na2vs0mg"},{"bike_id":"87e0bf49-7ca0-4436-a1a9-9a6d33d485c5","system_id":"levelo_inurba_marseille","lat":43.25114,"lon":5.40334,"is_reserved":false,"is_disabled":false,"rental_uris":{"android":"levelo://app?vid=87e0bf49-7ca0-4436-a1a9-9a6d33d485c5","ios":"levelo://app?vid=87e0bf49-7ca0-4436-a1a9-9a6d33d485c5"},"vehicle_type_id":"4","last_reported":1748662539,"current_range_meters":8000,"station_id":"ce4bhlh2rcd13ifvqgig","pricing_plan_id":"cebpf4jnsgd1na2vs0mg"},{"bike_id":"5109d588-00b3-4931-bed6-4b061390889a","system_id":"levelo_inurba_marseille","lat":43.270722,"lon":5.422787,"is_reserved":false,"is_disabled":false,"rental_uris":{"android":"levelo://app?vid=5109d588-00b3-4931-bed6-4b061390889a","ios":"levelo://app?vid=5109d588-00b3-4931-bed6-4b061390889a"},"vehicle_type_id":"4","last_reported":1748662539,"current_range_meters":8000,"station_id":"ce4bhk92rcd13ifvqgb0","pricing_plan_id":"cebpf4jnsgd1na2vs0mg"},{"bike_id":"764b93a0-026f-4bda-8b3f-829144a02e78","system_id":"levelo_inurba_marseille","lat":43.288488,"lon":5.393084,"is_reserved":false,"is_disabled":false,"rental_uris":{"android":"levelo://app?vid=764b93a0-026f-4bda-8b3f-829144a02e78","ios":"levelo://app?vid=764b93a0-026f-4bda-8b3f-829144a02e78"},"vehicle_type_id":"4","last_reported":1748662539,"current_range_meters":8000,"station_id":"ce4bh2p2rcd13ifvqdi0","pricing_plan_id":"cebpf4jnsgd1na2vs0mg"},{"bike_id":"91194276-c829-42e5-a6ed-8393753c90e5","system_id":"levelo_inurba_marseille","lat":43.243983,"lon":5.370621,"is_reserved":false,"is_disabled":false,"rental_uris":{"android":"levelo://app?vid=91194276-c829-42e5-a6ed-8393753c90e5","ios":"levelo://app?vid=91194276-c829-42e5-a6ed-8393753c90e5"},"vehicle_type_id":"4","last_reported":1748662539,"current_range_meters":8000,"station_id":"ce4bhhh2rcd13ifvqfk0","pricing_plan_id":"cebpf4jnsgd1na2vs0mg"},{"bike_id":"cad99567-44b2-4a22-8fd6-658aac86f8e9","system_id":"levelo_inurba_marseille","lat":43.31123,"lon":5.37765,"is_reserved":false,"is_disabled":false,"rental_uris":{"android":"levelo://app?vid=cad99567-44b2-4a22-8fd6-658aac86f8e9","ios":"levelo://app?vid=cad99567-44b2-4a22-8fd6-658aac86f8e9"},"vehicle_type_id":"4","last_reported":1748662539,"current_range_meters":8000,"station_id":"ce4bgt92rcd13ifvqcg0","pricing_plan_id":"cebpf4jnsgd1na2vs0mg"},{"bike_id":"34f9a29b-e895-4ec3-b762-eb56b556a454","system_id":"levelo_inurba_marseille","lat":43.28415,"lon":5.37522,"is_reserved":false,"is_disabled":false,"rental_uris":{"android":"levelo://app?vid=34f9a29b-e895-4ec3-b762-eb56b556a454","ios":"levelo://app?vid=34f9a29b-e895-4ec3-b762-eb56b556a454"},"vehicle_type_id":"4","last_reported":1748662539,"current_range_meters":8400,"station_id":"ce4bh412rcd13ifvqds0","pricing_plan_id":"cebpf4jnsgd1na2vs0mg"},{"bike_id":"d451e630-8fd8-4701-9cd1-43ccfdcc67c9","system_id":"levelo_inurba_marseille","lat":43.315331,"lon":5.380245,"is_reserved":false,"is_disabled":false,"rental_uris":{"android":"levelo://app?vid=d451e630-8fd8-4701-9cd1-43ccfdcc67c9","ios":"levelo://app?vid=d451e630-8fd8-4701-9cd1-43ccfdcc67c9"},"vehicle_type_id":"4","last_reported":1748662539,"current_range_meters":8400,"station_id":"ce4bhsp2rcd13ifvqi50","pricing_plan_id":"cebpf4jnsgd1na2vs0mg"},{"bike_id":"7eef1f8f-5d95-4320-a013-277c66264c38","system_id":"levelo_inurba_marseille","lat":43.30932,"lon":5.40154,"is_reserved":false,"is_disabled":false,"rental_uris":{"android":"levelo://app?vid=7eef1f8f-5d95-4320-a013-277c66264c38","ios":"levelo://app?vid=7eef1f8f-5d95-4320-a013-277c66264c38"},"vehicle_type_id":"4","last_reported":1748662539,"current_range_meters":8400,"station_id":"ce4bgvp2rcd13ifvqct0","pricing_plan_id":"cebpf4jnsgd1na2vs0mg"},{"bike_id":"a882f5db-172f-4f11-bf66-7e2c36364bb7","system_id":"levelo_inurba_marseille","lat":43.29543,"lon":5.42292,"is_reserved":false,"is_disabled":false,"rental_uris":{"android":"levelo://app?vid=a882f5db-172f-4f11-bf66-7e2c36364bb7","ios":"levelo://app?vid=a882f5db-172f-4f11-bf66-7e2c36364bb7"},"vehicle_type_id":"4","last_reported":1748662539,"current_range_meters":8400,"station_id":"ce4bhph2rcd13ifvqhdg","pricing_plan_id":"cebpf4jnsgd1na2vs0mg"},{"bike_id":"0280afc4-d6c7-45d5-9976-1c2b5d2fedd2","system_id":"levelo_inurba_marseille","lat":43.251114,"lon":5.403393,"is_reserved":false,"is_disabled":false,"rental_uris":{"android":"levelo://app?vid=0280afc4-d6c7-45d5-9976-1c2b5d2fedd2","ios":"levelo://app?vid=0280afc4-d6c7-45d5-9976-1c2b5d2fedd2"},"vehicle_type_id":"4","last_reported":1748662539,"current_range_meters":8400,"station_id":"ce4bhlh2rcd13ifvqgig","pricing_plan_id":"cebpf4jnsgd1na2vs0mg"},{"bike_id":"e80c2554-a5fd-4f6a-80de-c3bb2b4cc78a","system_id":"levelo_inurba_marseille","lat":43.25118,"lon":5.40328,"is_reserved":false,"is_disabled":false,"rental_uris":{"android":"levelo://app?vid=e80c2554-a5fd-4f6a-80de-c3bb2b4cc78a","ios":"levelo://app?vid=e80c2554-a5fd-4f6a-80de-c3bb2b4cc78a"},"vehicle_type_id":"4","last_reported":1748662539,"current_range_meters":8400,"station_id":"ce4bhlh2rcd13ifvqgig","pricing_plan_id":"cebpf4jnsgd1na2vs0mg"},{"bike_id":"1b178ea1-044a-4bf5-83e5-c6b8ba930547","system_id":"levelo_inurba_marseille","lat":43.271734,"lon":5.409905,"is_reserved":false,"is_disabled":false,"rental_uris":{"android":"levelo://app?vid=1b178ea1-044a-4bf5-83e5-c6b8ba930547","ios":"levelo://app?vid=1b178ea1-044a-4bf5-83e5-c6b8ba930547"},"vehicle_type_id":"4","last_reported":1748662539,"current_range_meters":8400,"station_id":"ce4bhl12rcd13ifvqgf0","pricing_plan_id":"cebpf4jnsgd1na2vs0mg"},{"bike_id":"f7005840-3fcb-440d-a899-0476f19bf267","system_id":"levelo_inurba_marseille","lat":43.28158,"lon":5.42653,"is_reserved":false,"is_disabled":false,"rental_uris":{"android":"levelo://app?vid=f7005840-3fcb-440d-a899-0476f19bf267","ios":"levelo://app?vid=f7005840-3fcb-440d-a899-0476f19bf267"},"vehicle_type_id":"4","last_reported":1748662539,"current_range_meters":8400,"station_id":"ce4bhnh2rcd13ifvqgug","pricing_plan_id":"cebpf4jnsgd1na2vs0mg"},{"bike_id":"5ba59787-5856-4e00-b5a8-729295275329","system_id":"levelo_inurba_marseille","lat":43.301372,"lon":5.398615,"is_reserved":false,"is_disabled":false,"rental_uris":{"android":"levelo://app?vid=5ba59787-5856-4e00-b5a8-729295275329","ios":"levelo://app?vid=5ba59787-5856-4e00-b5a8-729295275329"},"vehicle_type_id":"4","last_reported":1748662539,"current_range_meters":8400,"station_id":"ce4bh0h2rcd13ifvqd40","pricing_plan_id":"cebpf4jnsgd1na2vs0mg"},{"bike_id":"c361e603-1ecb-4610-ad2f-3e9e0c199f5c","system_id":"levelo_inurba_marseille","lat":43.296305,"lon":5.406095,"is_reserved":false,"is_disabled":false,"rental_uris":{"android":"levelo://app?vid=c361e603-1ecb-4610-ad2f-3e9e0c199f5c","ios":"levelo://app?vid=c361e603-1ecb-4610-ad2f-3e9e0c199f5c"},"vehicle_type_id":"4","last_reported":1748662539,"current_range_meters":8800,"station_id":"ce4bh0h2rcd13ifvqd60","pricing_plan_id":"cebpf4jnsgd1na2vs0mg"},{"bike_id":"9620a207-22d7-433e-bf43-b808069c5c75","system_id":"levelo_inurba_marseille","lat":43.33605,"lon":5.41013,"is_reserved":false,"is_disabled":false,"rental_uris":{"android":"levelo://app?vid=9620a207-22d7-433e-bf43-b808069c5c75","ios":"levelo://app?vid=9620a207-22d7-433e-bf43-b808069c5c75"},"vehicle_type_id":"4","last_reported":1748662539,"current_range_meters":8800,"station_id":"ce4bhqh2rcd13ifvqhmg","pricing_plan_id":"cebpf4jnsgd1na2vs0mg"},{"bike_id":"8345fba8-f53d-4169-9265-3aeb7405da51","system_id":"levelo_inurba_marseille","lat":43.29787,"lon":5.37942,"is_reserved":false,"is_disabled":false,"rental_uris":{"android":"levelo://app?vid=8345fba8-f53d-4169-9265-3aeb7405da51","ios":"levelo://app?vid=8345fba8-f53d-4169-9265-3aeb7405da51"},"vehicle_type_id":"4","last_reported":1748662539,"current_range_meters":8800,"station_id":"","pricing_plan_id":"cebpf4jnsgd1na2vs0mg"},{"bike_id":"19290f31-a068-40ba-bbe8-ccf0933dee0a","system_id":"levelo_inurba_marseille","lat":43.279072,"lon":5.39581,"is_reserved":false,"is_disabled":false,"rental_uris":{"android":"levelo://app?vid=19290f31-a068-40ba-bbe8-ccf0933dee0a","ios":"levelo://app?vid=19290f31-a068-40ba-bbe8-ccf0933dee0a"},"vehicle_type_id":"4","last_reported":1748662539,"current_range_meters":8800,"station_id":"ce4bhf92rcd13ifvqf40","pricing_plan_id":"cebpf4jnsgd1na2vs0mg"},{"bike_id":"3d36103b-c043-47dc-a225-42e79dcf6cf6","system_id":"levelo_inurba_marseille","lat":43.32287,"lon":5.38262,"is_reserved":false,"is_disabled":false,"rental_uris":{"android":"levelo://app?vid=3d36103b-c043-47dc-a225-42e79dcf6cf6","ios":"levelo://app?vid=3d36103b-c043-47dc-a225-42e79dcf6cf6"},"vehicle_type_id":"4","last_reported":1748662539,"current_range_meters":8800,"station_id":"ce4bhr12rcd13ifvqhqg","pricing_plan_id":"cebpf4jnsgd1na2vs0mg"},{"bike_id":"4dc07d80-e63c-43e9-9b6b-30ab182521fd","system_id":"levelo_inurba_marseille","lat":43.273057,"lon":5.39132,"is_reserved":false,"is_disabled":false,"rental_uris":{"android":"levelo://app?vid=4dc07d80-e63c-43e9-9b6b-30ab182521fd","ios":"levelo://app?vid=4dc07d80-e63c-43e9-9b6b-30ab182521fd"},"vehicle_type_id":"4","last_reported":1748662539,"current_range_meters":8800,"station_id":"ce4bhgp2rcd13ifvqfe0","pricing_plan_id":"cebpf4jnsgd1na2vs0mg"},{"bike_id":"27c27f7c-cc94-4ae6-bd9c-006c9c12e356","system_id":"levelo_inurba_marseille","lat":43.286539,"lon":5.363656,"is_reserved":false,"is_disabled":false,"rental_uris":{"android":"levelo://app?vid=27c27f7c-cc94-4ae6-bd9c-006c9c12e356","ios":"levelo://app?vid=27c27f7c-cc94-4ae6-bd9c-006c9c12e356"},"vehicle_type_id":"4","last_reported":1748662539,"current_range_meters":9200,"station_id":"ce4bhah2rcd13ifvqej0","pricing_plan_id":"cebpf4jnsgd1na2vs0mg"},{"bike_id":"1f7ebc70-8e15-4aea-adb3-010beac9c8f2","system_id":"levelo_inurba_marseille","lat":43.2856,"lon":5.39493,"is_reserved":false,"is_disabled":false,"rental_uris":{"android":"levelo://app?vid=1f7ebc70-8e15-4aea-adb3-010beac9c8f2","ios":"levelo://app?vid=1f7ebc70-8e15-4aea-adb3-010beac9c8f2"},"vehicle_type_id":"4","last_reported":1748662539,"current_range_meters":9200,"station_id":"ce4bh292rcd13ifvqdg0","pricing_plan_id":"cebpf4jnsgd1na2vs0mg"},{"bike_id":"8b8c8dd0-9816-4427-8aad-5ac8945673c5","system_id":"levelo_inurba_marseille","lat":43.30199,"lon":5.39488,"is_reserved":false,"is_disabled":false,"rental_uris":{"android":"levelo://app?vid=8b8c8dd0-9816-4427-8aad-5ac8945673c5","ios":"levelo://app?vid=8b8c8dd0-9816-4427-8aad-5ac8945673c5"},"vehicle_type_id":"4","last_reported":1748662539,"current_range_meters":9200,"station_id":"ce4bh0p2rcd13ifvqd70","pricing_plan_id":"cebpf4jnsgd1na2vs0mg"},{"bike_id":"7243d7c8-02f5-4392-89cf-8c360e846d55","system_id":"levelo_inurba_marseille","lat":43.252781,"lon":5.378278,"is_reserved":false,"is_disabled":false,"rental_uris":{"android":"levelo://app?vid=7243d7c8-02f5-4392-89cf-8c360e846d55","ios":"levelo://app?vid=7243d7c8-02f5-4392-89cf-8c360e846d55"},"vehicle_type_id":"4","last_reported":1748662539,"current_range_meters":9200,"station_id":"","pricing_plan_id":"cebpf4jnsgd1na2vs0mg"},{"bike_id":"3e888504-26e1-40e9-ad34-9677d2701058","system_id":"levelo_inurba_marseille","lat":43.30128,"lon":5.387817,"is_reserved":false,"is_disabled":false,"rental_uris":{"android":"levelo://app?vid=3e888504-26e1-40e9-ad34-9677d2701058","ios":"levelo://app?vid=3e888504-26e1-40e9-ad34-9677d2701058"},"vehicle_type_id":"4","last_reported":1748662539,"current_range_meters":9200,"station_id":"ce4bghh2rcd13ifvqb60","pricing_plan_id":"cebpf4jnsgd1na2vs0mg"},{"bike_id":"b953c4ab-62d9-49e1-b582-366b8568892e","system_id":"levelo_inurba_marseille","lat":43.29233,"lon":5.40917,"is_reserved":false,"is_disabled":false,"rental_uris":{"android":"levelo://app?vid=b953c4ab-62d9-49e1-b582-366b8568892e","ios":"levelo://app?vid=b953c4ab-62d9-49e1-b582-366b8568892e"},"vehicle_type_id":"4","last_reported":1748662539,"current_range_meters":9200,"station_id":"ce4bh192rcd13ifvqdc0","pricing_plan_id":"cebpf4jnsgd1na2vs0mg"},{"bike_id":"11d5a3c3-b5c3-45ee-9c59-63e06770cf8b","system_id":"levelo_inurba_marseille","lat":43.25107,"lon":5.40356,"is_reserved":false,"is_disabled":false,"rental_uris":{"android":"levelo://app?vid=11d5a3c3-b5c3-45ee-9c59-63e06770cf8b","ios":"levelo://app?vid=11d5a3c3-b5c3-45ee-9c59-63e06770cf8b"},"vehicle_type_id":"4","last_reported":1748662539,"current_range_meters":9200,"station_id":"ce4bhlh2rcd13ifvqgig","pricing_plan_id":"cebpf4jnsgd1na2vs0mg"},{"bike_id":"8b2dc9c8-8ddb-4863-9def-a132a0a57f13","system_id":"levelo_inurba_marseille","lat":43.28703,"lon":5.3998,"is_reserved":false,"is_disabled":false,"rental_uris":{"android":"levelo://app?vid=8b2dc9c8-8ddb-4863-9def-a132a0a57f13","ios":"levelo://app?vid=8b2dc9c8-8ddb-4863-9def-a132a0a57f13"},"vehicle_type_id":"4","last_reported":1748662539,"current_range_meters":9200,"station_id":"ce4bho92rcd13ifvqh3g","pricing_plan_id":"cebpf4jnsgd1na2vs0mg"},{"bike_id":"adec08ad-7cab-4b8d-984d-1616c13b6452","system_id":"levelo_inurba_marseille","lat":43.269355,"lon":5.402484,"is_reserved":false,"is_disabled":false,"rental_uris":{"android":"levelo://app?vid=adec08ad-7cab-4b8d-984d-1616c13b6452","ios":"levelo://app?vid=adec08ad-7cab-4b8d-984d-1616c13b6452"},"vehicle_type_id":"4","last_reported":1748662539,"current_range_meters":9200,"station_id":"cjm6bp8fraef2m0cb0m0","pricing_plan_id":"cebpf4jnsgd1na2vs0mg"},{"bike_id":"18c1bc8d-773b-414a-b410-344762faee23","system_id":"levelo_inurba_marseille","lat":43.27187,"lon":5.40984,"is_reserved":false,"is_disabled":false,"rental_uris":{"android":"levelo://app?vid=18c1bc8d-773b-414a-b410-344762faee23","ios":"levelo://app?vid=18c1bc8d-773b-414a-b410-344762faee23"},"vehicle_type_id":"4","last_reported":1748662539,"current_range_meters":9200,"station_id":"ce4bhl12rcd13ifvqgf0","pricing_plan_id":"cebpf4jnsgd1na2vs0mg"},{"bike_id":"450281c4-dd8e-4cdb-8826-f984e4208c33","system_id":"levelo_inurba_marseille","lat":43.255125,"lon":5.37673,"is_reserved":false,"is_disabled":false,"rental_uris":{"android":"levelo://app?vid=450281c4-dd8e-4cdb-8826-f984e4208c33","ios":"levelo://app?vid=450281c4-dd8e-4cdb-8826-f984e4208c33"},"vehicle_type_id":"4","last_reported":1748662539,"current_range_meters":9200,"station_id":"ce4bhh12rcd13ifvqff0","pricing_plan_id":"cebpf4jnsgd1na2vs0mg"},{"bike_id":"ade80f1c-1963-4723-aaac-612c2803ccad","system_id":"levelo_inurba_marseille","lat":43.276787,"lon":5.389257,"is_reserved":false,"is_disabled":false,"rental_uris":{"android":"levelo://app?vid=ade80f1c-1963-4723-aaac-612c2803ccad","ios":"levelo://app?vid=ade80f1c-1963-4723-aaac-612c2803ccad"},"vehicle_type_id":"4","last_reported":1748662539,"current_range_meters":9200,"station_id":"ce4bhi12rcd13ifvqfo0","pricing_plan_id":"cebpf4jnsgd1na2vs0mg"},{"bike_id":"ce96d62b-f211-41db-a166-1ccaa0fede80","system_id":"levelo_inurba_marseille","lat":43.27812,"lon":5.39219,"is_reserved":false,"is_disabled":false,"rental_uris":{"android":"levelo://app?vid=ce96d62b-f211-41db-a166-1ccaa0fede80","ios":"levelo://app?vid=ce96d62b-f211-41db-a166-1ccaa0fede80"},"vehicle_type_id":"4","last_reported":1748662539,"current_range_meters":9200,"station_id":"ce4bhjp2rcd13ifvqga0","pricing_plan_id":"cebpf4jnsgd1na2vs0mg"},{"bike_id":"4e82788a-76ec-40e1-8d87-7dbcf56d978b","system_id":"levelo_inurba_marseille","lat":43.303261,"lon":5.404437,"is_reserved":false,"is_disabled":false,"rental_uris":{"android":"levelo://app?vid=4e82788a-76ec-40e1-8d87-7dbcf56d978b","ios":"levelo://app?vid=4e82788a-76ec-40e1-8d87-7dbcf56d978b"},"vehicle_type_id":"4","last_reported":1748662539,"current_range_meters":9600,"station_id":"ce4bh012rcd13ifvqd10","pricing_plan_id":"cebpf4jnsgd1na2vs0mg"},{"bike_id":"662af0d9-b4f1-4513-bbd2-fd65be6229e5","system_id":"levelo_inurba_marseille","lat":43.259309,"lon":5.408951,"is_reserved":false,"is_disabled":false,"rental_uris":{"android":"levelo://app?vid=662af0d9-b4f1-4513-bbd2-fd65be6229e5","ios":"levelo://app?vid=662af0d9-b4f1-4513-bbd2-fd65be6229e5"},"vehicle_type_id":"4","last_reported":1748662539,"current_range_meters":9600,"station_id":"ce4bhm92rcd13ifvqglg","pricing_plan_id":"cebpf4jnsgd1na2vs0mg"},{"bike_id":"ef4b8ede-1877-41db-b371-aa67fb983004","system_id":"levelo_inurba_marseille","lat":43.281011,"lon":5.378514,"is_reserved":false,"is_disabled":true,"rental_uris":{"android":"levelo://app?vid=ef4b8ede-1877-41db-b371-aa67fb983004","ios":"levelo://app?vid=ef4b8ede-1877-41db-b371-aa67fb983004"},"vehicle_type_id":"4","last_reported":1748662539,"current_range_meters":9600,"station_id":"ce4bha12rcd13ifvqee0","pricing_plan_id":"cebpf4jnsgd1na2vs0mg"},{"bike_id":"a807c8dd-75ce-4f49-b322-50ddd08ec8d0","system_id":"levelo_inurba_marseille","lat":43.34754,"lon":5.37327,"is_reserved":false,"is_disabled":false,"rental_uris":{"android":"levelo://app?vid=a807c8dd-75ce-4f49-b322-50ddd08ec8d0","ios":"levelo://app?vid=a807c8dd-75ce-4f49-b322-50ddd08ec8d0"},"vehicle_type_id":"4","last_reported":1748662539,"current_range_meters":9600,"station_id":"","pricing_plan_id":"cebpf4jnsgd1na2vs0mg"},{"bike_id":"6cab2d10-7f2c-4dac-ba3d-4f103803cc6a","system_id":"levelo_inurba_marseille","lat":43.2894,"lon":5.38407,"is_reserved":false,"is_disabled":false,"rental_uris":{"android":"levelo://app?vid=6cab2d10-7f2c-4dac-ba3d-4f103803cc6a","ios":"levelo://app?vid=6cab2d10-7f2c-4dac-ba3d-4f103803cc6a"},"vehicle_type_id":"4","last_reported":1748662539,"current_range_meters":10000,"station_id":"ce4bh612rcd13ifvqe6g","pricing_plan_id":"cebpf4jnsgd1na2vs0mg"},{"bike_id":"d42b65af-38ed-48b1-9f62-d79f47c848dd","system_id":"levelo_inurba_marseille","lat":43.240714,"lon":5.377546,"is_reserved":false,"is_disabled":false,"rental_uris":{"android":"levelo://app?vid=d42b65af-38ed-48b1-9f62-d79f47c848dd","ios":"levelo://app?vid=d42b65af-38ed-48b1-9f62-d79f47c848dd"},"vehicle_type_id":"4","last_reported":1748662539,"current_range_meters":9600,"station_id":"ce4bhnp2rcd13ifvqgvg","pricing_plan_id":"cebpf4jnsgd1na2vs0mg"},{"bike_id":"5a59c85a-af1a-46af-9f13-fc058b89bcbb","system_id":"levelo_inurba_marseille","lat":43.308821,"lon":5.396575,"is_reserved":false,"is_disabled":false,"rental_uris":{"android":"levelo://app?vid=5a59c85a-af1a-46af-9f13-fc058b89bcbb","ios":"levelo://app?vid=5a59c85a-af1a-46af-9f13-fc058b89bcbb"},"vehicle_type_id":"4","last_reported":1748662539,"current_range_meters":9600,"station_id":"ce4bh012rcd13ifvqcv0","pricing_plan_id":"cebpf4jnsgd1na2vs0mg"},{"bike_id":"b0a813a2-a736-4731-b710-9359c7d0beba","system_id":"levelo_inurba_marseille","lat":43.30928,"lon":5.401578,"is_reserved":false,"is_disabled":false,"rental_uris":{"android":"levelo://app?vid=b0a813a2-a736-4731-b710-9359c7d0beba","ios":"levelo://app?vid=b0a813a2-a736-4731-b710-9359c7d0beba"},"vehicle_type_id":"4","last_reported":1748662539,"current_range_meters":9600,"station_id":"ce4bgvp2rcd13ifvqct0","pricing_plan_id":"cebpf4jnsgd1na2vs0mg"},{"bike_id":"91ab330b-320a-43b3-b5b7-32d5244b09e5","system_id":"levelo_inurba_marseille","lat":43.292586,"lon":5.409088,"is_reserved":false,"is_disabled":false,"rental_uris":{"android":"levelo://app?vid=91ab330b-320a-43b3-b5b7-32d5244b09e5","ios":"levelo://app?vid=91ab330b-320a-43b3-b5b7-32d5244b09e5"},"vehicle_type_id":"4","last_reported":1748662539,"current_range_meters":10000,"station_id":"ce4bh192rcd13ifvqdc0","pricing_plan_id":"cebpf4jnsgd1na2vs0mg"},{"bike_id":"f9ffa8bb-749b-4a84-a9e7-1d1650741a58","system_id":"levelo_inurba_marseille","lat":43.30142,"lon":5.38799,"is_reserved":false,"is_disabled":false,"rental_uris":{"android":"levelo://app?vid=f9ffa8bb-749b-4a84-a9e7-1d1650741a58","ios":"levelo://app?vid=f9ffa8bb-749b-4a84-a9e7-1d1650741a58"},"vehicle_type_id":"4","last_reported":1748662539,"current_range_meters":10000,"station_id":"ce4bghh2rcd13ifvqb60","pricing_plan_id":"cebpf4jnsgd1na2vs0mg"},{"bike_id":"1a2e83ad-5e33-4701-8ffa-ba7229e7b981","system_id":"levelo_inurba_marseille","lat":43.33478,"lon":5.39819,"is_reserved":false,"is_disabled":false,"rental_uris":{"android":"levelo://app?vid=1a2e83ad-5e33-4701-8ffa-ba7229e7b981","ios":"levelo://app?vid=1a2e83ad-5e33-4701-8ffa-ba7229e7b981"},"vehicle_type_id":"4","last_reported":1748662539,"current_range_meters":10000,"station_id":"","pricing_plan_id":"cebpf4jnsgd1na2vs0mg"},{"bike_id":"0ec28940-f672-4e7b-8abc-5ea727cecc31","system_id":"levelo_inurba_marseille","lat":43.29745,"lon":5.37684,"is_reserved":false,"is_disabled":false,"rental_uris":{"android":"levelo://app?vid=0ec28940-f672-4e7b-8abc-5ea727cecc31","ios":"levelo://app?vid=0ec28940-f672-4e7b-8abc-5ea727cecc31"},"vehicle_type_id":"4","last_reported":1748662539,"current_range_meters":10000,"station_id":"ce4bgkh2rcd13ifvqbl0","pricing_plan_id":"cebpf4jnsgd1na2vs0mg"},{"bike_id":"ec695b5d-b960-464b-94b1-b383014fd058","system_id":"levelo_inurba_marseille","lat":43.295105,"lon":5.394133,"is_reserved":false,"is_disabled":false,"rental_uris":{"android":"levelo://app?vid=ec695b5d-b960-464b-94b1-b383014fd058","ios":"levelo://app?vid=ec695b5d-b960-464b-94b1-b383014fd058"},"vehicle_type_id":"4","last_reported":1748662539,"current_range_meters":10000,"station_id":"ce4bh292rcd13ifvqdf0","pricing_plan_id":"cebpf4jnsgd1na2vs0mg"},{"bike_id":"d16f5222-3d1e-4d65-a992-1bc93f719178","system_id":"levelo_inurba_marseille","lat":43.3035,"lon":5.36598,"is_reserved":false,"is_disabled":false,"rental_uris":{"android":"levelo://app?vid=d16f5222-3d1e-4d65-a992-1bc93f719178","ios":"levelo://app?vid=d16f5222-3d1e-4d65-a992-1bc93f719178"},"vehicle_type_id":"4","last_reported":1748662539,"current_range_meters":10000,"station_id":"","pricing_plan_id":"cebpf4jnsgd1na2vs0mg"},{"bike_id":"9ee87dbe-3990-4764-9a6b-2020fac42886","system_id":"levelo_inurba_marseille","lat":43.32114,"lon":5.36766,"is_reserved":false,"is_disabled":false,"rental_uris":{"android":"levelo://app?vid=9ee87dbe-3990-4764-9a6b-2020fac42886","ios":"levelo://app?vid=9ee87dbe-3990-4764-9a6b-2020fac42886"},"vehicle_type_id":"4","last_reported":1748662539,"current_range_meters":10000,"station_id":"ce4bhrh2rcd13ifvqhug","pricing_plan_id":"cebpf4jnsgd1na2vs0mg"},{"bike_id":"b0200c1b-b66d-4346-bb99-0fa7af9fc6f4","system_id":"levelo_inurba_marseille","lat":43.30805,"lon":5.38164,"is_reserved":false,"is_disabled":false,"rental_uris":{"android":"levelo://app?vid=b0200c1b-b66d-4346-bb99-0fa7af9fc6f4","ios":"levelo://app?vid=b0200c1b-b66d-4346-bb99-0fa7af9fc6f4"},"vehicle_type_id":"4","last_reported":1748662539,"current_range_meters":10000,"station_id":"ce4bgt12rcd13ifvqce0","pricing_plan_id":"cebpf4jnsgd1na2vs0mg"},{"bike_id":"76749e45-957b-40bb-9b95-4da7298a2cca","system_id":"levelo_inurba_marseille","lat":43.30441,"lon":5.38905,"is_reserved":false,"is_disabled":false,"rental_uris":{"android":"levelo://app?vid=76749e45-957b-40bb-9b95-4da7298a2cca","ios":"levelo://app?vid=76749e45-957b-40bb-9b95-4da7298a2cca"},"vehicle_type_id":"4","last_reported":1748662539,"current_range_meters":10000,"station_id":"ce4bgk12rcd13ifvqbi0","pricing_plan_id":"cebpf4jnsgd1na2vs0mg"},{"bike_id":"9483a7bd-846c-4c6e-a304-71a2f38946f5","system_id":"levelo_inurba_marseille","lat":43.279163,"lon":5.395778,"is_reserved":false,"is_disabled":false,"rental_uris":{"android":"levelo://app?vid=9483a7bd-846c-4c6e-a304-71a2f38946f5","ios":"levelo://app?vid=9483a7bd-846c-4c6e-a304-71a2f38946f5"},"vehicle_type_id":"4","last_reported":1748662539,"current_range_meters":10000,"station_id":"ce4bhf92rcd13ifvqf40","pricing_plan_id":"cebpf4jnsgd1na2vs0mg"},{"bike_id":"bac667cf-137e-4ea7-b037-7ebd6a2ad77c","system_id":"levelo_inurba_marseille","lat":43.282519,"lon":5.351042,"is_reserved":false,"is_disabled":false,"rental_uris":{"android":"levelo://app?vid=bac667cf-137e-4ea7-b037-7ebd6a2ad77c","ios":"levelo://app?vid=bac667cf-137e-4ea7-b037-7ebd6a2ad77c"},"vehicle_type_id":"4","last_reported":1748662539,"current_range_meters":10000,"station_id":"ce4bhbp2rcd13ifvqerg","pricing_plan_id":"cebpf4jnsgd1na2vs0mg"},{"bike_id":"008a8b5c-da32-426f-bdcf-6db4c9f404d8","system_id":"levelo_inurba_marseille","lat":43.229295,"lon":5.353799,"is_reserved":false,"is_disabled":false,"rental_uris":{"android":"levelo://app?vid=008a8b5c-da32-426f-bdcf-6db4c9f404d8","ios":"levelo://app?vid=008a8b5c-da32-426f-bdcf-6db4c9f404d8"},"vehicle_type_id":"4","last_reported":1748662539,"current_range_meters":10000,"station_id":"cpo3532slgdg3j2ikp40","pricing_plan_id":"cebpf4jnsgd1na2vs0mg"},{"bike_id":"64a3d9b3-30f8-4a8c-b831-0d99a9fae7a2","system_id":"levelo_inurba_marseille","lat":43.316879,"lon":5.404896,"is_reserved":false,"is_disabled":false,"rental_uris":{"android":"levelo://app?vid=64a3d9b3-30f8-4a8c-b831-0d99a9fae7a2","ios":"levelo://app?vid=64a3d9b3-30f8-4a8c-b831-0d99a9fae7a2"},"vehicle_type_id":"4","last_reported":1748662539,"current_range_meters":10000,"station_id":"ce4bh012rcd13ifvqd00","pricing_plan_id":"cebpf4jnsgd1na2vs0mg"},{"bike_id":"7fa0e9c2-571e-4491-9879-e641683c80c0","system_id":"levelo_inurba_marseille","lat":43.30252,"lon":5.39462,"is_reserved":false,"is_disabled":false,"rental_uris":{"android":"levelo://app?vid=7fa0e9c2-571e-4491-9879-e641683c80c0","ios":"levelo://app?vid=7fa0e9c2-571e-4491-9879-e641683c80c0"},"vehicle_type_id":"4","last_reported":1748662539,"current_range_meters":10000,"station_id":"ce4bh0p2rcd13ifvqd70","pricing_plan_id":"cebpf4jnsgd1na2vs0mg"},{"bike_id":"a672e2ce-ff65-491a-baf8-b5fcce4f4059","system_id":"levelo_inurba_marseille","lat":43.31708,"lon":5.390207,"is_reserved":false,"is_disabled":false,"rental_uris":{"android":"levelo://app?vid=a672e2ce-ff65-491a-baf8-b5fcce4f4059","ios":"levelo://app?vid=a672e2ce-ff65-491a-baf8-b5fcce4f4059"},"vehicle_type_id":"4","last_reported":1748662539,"current_range_meters":10800,"station_id":"","pricing_plan_id":"cebpf4jnsgd1na2vs0mg"},{"bike_id":"5e375311-a86a-4fca-8da4-265e57b8d810","system_id":"levelo_inurba_marseille","lat":43.287159,"lon":5.399855,"is_reserved":false,"is_disabled":false,"rental_uris":{"android":"levelo://app?vid=5e375311-a86a-4fca-8da4-265e57b8d810","ios":"levelo://app?vid=5e375311-a86a-4fca-8da4-265e57b8d810"},"vehicle_type_id":"4","last_reported":1748662539,"current_range_meters":10800,"station_id":"ce4bho92rcd13ifvqh3g","pricing_plan_id":"cebpf4jnsgd1na2vs0mg"},{"bike_id":"ee5ba2d6-4df2-47c2-b67d-c4459e448d78","system_id":"levelo_inurba_marseille","lat":43.286799,"lon":5.38672,"is_reserved":false,"is_disabled":false,"rental_uris":{"android":"levelo://app?vid=ee5ba2d6-4df2-47c2-b67d-c4459e448d78","ios":"levelo://app?vid=ee5ba2d6-4df2-47c2-b67d-c4459e448d78"},"vehicle_type_id":"4","last_reported":1748662539,"current_range_meters":10800,"station_id":"ce4bh492rcd13ifvqdug","pricing_plan_id":"cebpf4jnsgd1na2vs0mg"},{"bike_id":"096bcb8f-5782-4c84-b1f3-295e2d91fe8f","system_id":"levelo_inurba_marseille","lat":43.2926,"lon":5.409,"is_reserved":false,"is_disabled":false,"rental_uris":{"android":"levelo://app?vid=096bcb8f-5782-4c84-b1f3-295e2d91fe8f","ios":"levelo://app?vid=096bcb8f-5782-4c84-b1f3-295e2d91fe8f"},"vehicle_type_id":"4","last_reported":1748662539,"current_range_meters":10800,"station_id":"ce4bh192rcd13ifvqdc0","pricing_plan_id":"cebpf4jnsgd1na2vs0mg"},{"bike_id":"4d34136e-c054-46d5-b30d-67814032cd9e","system_id":"levelo_inurba_marseille","lat":43.24073,"lon":5.3776,"is_reserved":false,"is_disabled":false,"rental_uris":{"android":"levelo://app?vid=4d34136e-c054-46d5-b30d-67814032cd9e","ios":"levelo://app?vid=4d34136e-c054-46d5-b30d-67814032cd9e"},"vehicle_type_id":"4","last_reported":1748662539,"current_range_meters":10800,"station_id":"ce4bhnp2rcd13ifvqgvg","pricing_plan_id":"cebpf4jnsgd1na2vs0mg"},{"bike_id":"dd34afa2-f665-4263-85a8-7de7dbd3a196","system_id":"levelo_inurba_marseille","lat":43.276138,"lon":5.397184,"is_reserved":false,"is_disabled":false,"rental_uris":{"android":"levelo://app?vid=dd34afa2-f665-4263-85a8-7de7dbd3a196","ios":"levelo://app?vid=dd34afa2-f665-4263-85a8-7de7dbd3a196"},"vehicle_type_id":"4","last_reported":1748662539,"current_range_meters":10800,"station_id":"","pricing_plan_id":"cebpf4jnsgd1na2vs0mg"},{"bike_id":"72b23615-0b78-4a19-8c4c-ff25f55f5ef9","system_id":"levelo_inurba_marseille","lat":43.27486,"lon":5.42458,"is_reserved":false,"is_disabled":false,"rental_uris":{"android":"levelo://app?vid=72b23615-0b78-4a19-8c4c-ff25f55f5ef9","ios":"levelo://app?vid=72b23615-0b78-4a19-8c4c-ff25f55f5ef9"},"vehicle_type_id":"4","last_reported":1748662539,"current_range_meters":10800,"station_id":"ce4bhn92rcd13ifvqgrg","pricing_plan_id":"cebpf4jnsgd1na2vs0mg"},{"bike_id":"0f75b52a-5f09-4209-96f9-73d4dfcbc3c5","system_id":"levelo_inurba_marseille","lat":43.27378,"lon":5.36261,"is_reserved":false,"is_disabled":false,"rental_uris":{"android":"levelo://app?vid=0f75b52a-5f09-4209-96f9-73d4dfcbc3c5","ios":"levelo://app?vid=0f75b52a-5f09-4209-96f9-73d4dfcbc3c5"},"vehicle_type_id":"4","last_reported":1748662539,"current_range_meters":10800,"station_id":"ce4bhbh2rcd13ifvqeo0","pricing_plan_id":"cebpf4jnsgd1na2vs0mg"},{"bike_id":"dfa43c4c-7c06-4ef3-bc0f-2418c1a843e8","system_id":"levelo_inurba_marseille","lat":43.24189,"lon":5.39716,"is_reserved":false,"is_disabled":false,"rental_uris":{"android":"levelo://app?vid=dfa43c4c-7c06-4ef3-bc0f-2418c1a843e8","ios":"levelo://app?vid=dfa43c4c-7c06-4ef3-bc0f-2418c1a843e8"},"vehicle_type_id":"4","last_reported":1748662539,"current_range_meters":11200,"station_id":"ce4bhn12rcd13ifvqgpg","pricing_plan_id":"cebpf4jnsgd1na2vs0mg"},{"bike_id":"b601bd0b-d384-4fb2-9e4d-ad2cc6a1b992","system_id":"levelo_inurba_marseille","lat":43.23265,"lon":5.36082,"is_reserved":false,"is_disabled":false,"rental_uris":{"android":"levelo://app?vid=b601bd0b-d384-4fb2-9e4d-ad2cc6a1b992","ios":"levelo://app?vid=b601bd0b-d384-4fb2-9e4d-ad2cc6a1b992"},"vehicle_type_id":"4","last_reported":1748662539,"current_range_meters":11200,"station_id":"","pricing_plan_id":"cebpf4jnsgd1na2vs0mg"},{"bike_id":"611431ba-0dbb-4a95-a0e3-6a07119ff3ce","system_id":"levelo_inurba_marseille","lat":43.30597,"lon":5.39353,"is_reserved":false,"is_disabled":false,"rental_uris":{"android":"levelo://app?vid=611431ba-0dbb-4a95-a0e3-6a07119ff3ce","ios":"levelo://app?vid=611431ba-0dbb-4a95-a0e3-6a07119ff3ce"},"vehicle_type_id":"4","last_reported":1748662539,"current_range_meters":11200,"station_id":"ce4bh0p2rcd13ifvqd80","pricing_plan_id":"cebpf4jnsgd1na2vs0mg"},{"bike_id":"5f39c221-279e-4746-b1be-11c01e8bb14f","system_id":"levelo_inurba_marseille","lat":43.3207,"lon":5.41537,"is_reserved":false,"is_disabled":false,"rental_uris":{"android":"levelo://app?vid=5f39c221-279e-4746-b1be-11c01e8bb14f","ios":"levelo://app?vid=5f39c221-279e-4746-b1be-11c01e8bb14f"},"vehicle_type_id":"4","last_reported":1748662539,"current_range_meters":10800,"station_id":"ce4bhq92rcd13ifvqhkg","pricing_plan_id":"cebpf4jnsgd1na2vs0mg"},{"bike_id":"baa9ae91-cf2b-4902-bc78-4d8c41a40b35","system_id":"levelo_inurba_marseille","lat":43.265567,"lon":5.390089,"is_reserved":false,"is_disabled":false,"rental_uris":{"android":"levelo://app?vid=baa9ae91-cf2b-4902-bc78-4d8c41a40b35","ios":"levelo://app?vid=baa9ae91-cf2b-4902-bc78-4d8c41a40b35"},"vehicle_type_id":"4","last_reported":1748662539,"current_range_meters":11200,"station_id":"ce4bhe12rcd13ifvqf30","pricing_plan_id":"cebpf4jnsgd1na2vs0mg"},{"bike_id":"ab9f7d19-a535-4e63-92fa-4b8de3aebc0a","system_id":"levelo_inurba_marseille","lat":43.3076,"lon":5.37653,"is_reserved":false,"is_disabled":false,"rental_uris":{"android":"levelo://app?vid=ab9f7d19-a535-4e63-92fa-4b8de3aebc0a","ios":"levelo://app?vid=ab9f7d19-a535-4e63-92fa-4b8de3aebc0a"},"vehicle_type_id":"4","last_reported":1748662539,"current_range_meters":11600,"station_id":"ce4bgv92rcd13ifvqcq0","pricing_plan_id":"cebpf4jnsgd1na2vs0mg"},{"bike_id":"95cd80fa-c2e5-401c-95da-632e1df7bbde","system_id":"levelo_inurba_marseille","lat":43.23142,"lon":5.4376,"is_reserved":false,"is_disabled":false,"rental_uris":{"android":"levelo://app?vid=95cd80fa-c2e5-401c-95da-632e1df7bbde","ios":"levelo://app?vid=95cd80fa-c2e5-401c-95da-632e1df7bbde"},"vehicle_type_id":"4","last_reported":1748662539,"current_range_meters":11600,"station_id":"ce4bhmp2rcd13ifvqgog","pricing_plan_id":"cebpf4jnsgd1na2vs0mg"},{"bike_id":"2a4523fc-95e2-47a9-86d5-57561b8b5b1a","system_id":"levelo_inurba_marseille","lat":43.302473,"lon":5.40077,"is_reserved":false,"is_disabled":false,"rental_uris":{"android":"levelo://app?vid=2a4523fc-95e2-47a9-86d5-57561b8b5b1a","ios":"levelo://app?vid=2a4523fc-95e2-47a9-86d5-57561b8b5b1a"},"vehicle_type_id":"4","last_reported":1748662539,"current_range_meters":11600,"station_id":"ce4bgvh2rcd13ifvqcs0","pricing_plan_id":"cebpf4jnsgd1na2vs0mg"},{"bike_id":"8d48119e-760e-4c00-b401-59af0a322afa","system_id":"levelo_inurba_marseille","lat":43.256514,"lon":5.408588,"is_reserved":false,"is_disabled":false,"rental_uris":{"android":"levelo://app?vid=8d48119e-760e-4c00-b401-59af0a322afa","ios":"levelo://app?vid=8d48119e-760e-4c00-b401-59af0a322afa"},"vehicle_type_id":"4","last_reported":1748662539,"current_range_meters":11600,"station_id":"","pricing_plan_id":"cebpf4jnsgd1na2vs0mg"},{"bike_id":"6b5f4852-177e-4567-ae76-6705d14c17b3","system_id":"levelo_inurba_marseille","lat":43.27901,"lon":5.39595,"is_reserved":false,"is_disabled":false,"rental_uris":{"android":"levelo://app?vid=6b5f4852-177e-4567-ae76-6705d14c17b3","ios":"levelo://app?vid=6b5f4852-177e-4567-ae76-6705d14c17b3"},"vehicle_type_id":"4","last_reported":1748662539,"current_range_meters":11600,"station_id":"ce4bhf92rcd13ifvqf40","pricing_plan_id":"cebpf4jnsgd1na2vs0mg"},{"bike_id":"afd00684-2901-4ae3-82f8-1e79ae0a4d94","system_id":"levelo_inurba_marseille","lat":43.251061,"lon":5.403309,"is_reserved":false,"is_disabled":false,"rental_uris":{"android":"levelo://app?vid=afd00684-2901-4ae3-82f8-1e79ae0a4d94","ios":"levelo://app?vid=afd00684-2901-4ae3-82f8-1e79ae0a4d94"},"vehicle_type_id":"4","last_reported":1748662539,"current_range_meters":11600,"station_id":"ce4bhlh2rcd13ifvqgig","pricing_plan_id":"cebpf4jnsgd1na2vs0mg"},{"bike_id":"b18036e4-cdbb-441f-a4f1-99c9cdbece34","system_id":"levelo_inurba_marseille","lat":43.294954,"lon":5.390765,"is_reserved":false,"is_disabled":false,"rental_uris":{"android":"levelo://app?vid=b18036e4-cdbb-441f-a4f1-99c9cdbece34","ios":"levelo://app?vid=b18036e4-cdbb-441f-a4f1-99c9cdbece34"},"vehicle_type_id":"4","last_reported":1748662539,"current_range_meters":11600,"station_id":"ce4bh3p2rcd13ifvqdp0","pricing_plan_id":"cebpf4jnsgd1na2vs0mg"},{"bike_id":"55cb35ea-46ae-4d0e-9e17-49b11249cd0b","system_id":"levelo_inurba_marseille","lat":43.314994,"lon":5.373028,"is_reserved":false,"is_disabled":false,"rental_uris":{"android":"levelo://app?vid=55cb35ea-46ae-4d0e-9e17-49b11249cd0b","ios":"levelo://app?vid=55cb35ea-46ae-4d0e-9e17-49b11249cd0b"},"vehicle_type_id":"4","last_reported":1748662539,"current_range_meters":11600,"station_id":"ce4bgt12rcd13ifvqcd0","pricing_plan_id":"cebpf4jnsgd1na2vs0mg"},{"bike_id":"cc8d8bc8-f428-474a-99b2-8ca176d500fb","system_id":"levelo_inurba_marseille","lat":43.290323,"lon":5.386459,"is_reserved":false,"is_disabled":false,"rental_uris":{"android":"levelo://app?vid=cc8d8bc8-f428-474a-99b2-8ca176d500fb","ios":"levelo://app?vid=cc8d8bc8-f428-474a-99b2-8ca176d500fb"},"vehicle_type_id":"4","last_reported":1748662539,"current_range_meters":12000,"station_id":"ce4bh4p2rcd13ifvqe0g","pricing_plan_id":"cebpf4jnsgd1na2vs0mg"},{"bike_id":"690211e0-f783-451c-ae00-de6d4dcd55a3","system_id":"levelo_inurba_marseille","lat":43.28482,"lon":5.38447,"is_reserved":false,"is_disabled":true,"rental_uris":{"android":"levelo://app?vid=690211e0-f783-451c-ae00-de6d4dcd55a3","ios":"levelo://app?vid=690211e0-f783-451c-ae00-de6d4dcd55a3"},"vehicle_type_id":"4","last_reported":1748662539,"current_range_meters":12000,"station_id":"ce4bh512rcd13ifvqe3g","pricing_plan_id":"cebpf4jnsgd1na2vs0mg"},{"bike_id":"d6d1ada7-d095-4848-a9c7-71d520f6d868","system_id":"levelo_inurba_marseille","lat":43.299666,"lon":5.384894,"is_reserved":false,"is_disabled":false,"rental_uris":{"android":"levelo://app?vid=d6d1ada7-d095-4848-a9c7-71d520f6d868","ios":"levelo://app?vid=d6d1ada7-d095-4848-a9c7-71d520f6d868"},"vehicle_type_id":"4","last_reported":1748662539,"current_range_meters":12000,"station_id":"","pricing_plan_id":"cebpf4jnsgd1na2vs0mg"},{"bike_id":"ecc45c88-b0cd-460f-8a38-017c201f8231","system_id":"levelo_inurba_marseille","lat":43.27381,"lon":5.36254,"is_reserved":false,"is_disabled":true,"rental_uris":{"android":"levelo://app?vid=ecc45c88-b0cd-460f-8a38-017c201f8231","ios":"levelo://app?vid=ecc45c88-b0cd-460f-8a38-017c201f8231"},"vehicle_type_id":"4","last_reported":1748662539,"current_range_meters":12000,"station_id":"ce4bhbh2rcd13ifvqeo0","pricing_plan_id":"cebpf4jnsgd1na2vs0mg"},{"bike_id":"59e69c29-8b04-43ef-8a5c-dcd319d2ce6a","system_id":"levelo_inurba_marseille","lat":43.29778,"lon":5.39371,"is_reserved":false,"is_disabled":false,"rental_uris":{"android":"levelo://app?vid=59e69c29-8b04-43ef-8a5c-dcd319d2ce6a","ios":"levelo://app?vid=59e69c29-8b04-43ef-8a5c-dcd319d2ce6a"},"vehicle_type_id":"4","last_reported":1748662539,"current_range_meters":12000,"station_id":"chh1huq6cuj3fo74tm60","pricing_plan_id":"cebpf4jnsgd1na2vs0mg"},{"bike_id":"471c034b-5235-4a7f-9792-d208210affb2","system_id":"levelo_inurba_marseille","lat":43.30865,"lon":5.3966,"is_reserved":false,"is_disabled":true,"rental_uris":{"android":"levelo://app?vid=471c034b-5235-4a7f-9792-d208210affb2","ios":"levelo://app?vid=471c034b-5235-4a7f-9792-d208210affb2"},"vehicle_type_id":"4","last_reported":1748662539,"current_range_meters":12400,"station_id":"ce4bh012rcd13ifvqcv0","pricing_plan_id":"cebpf4jnsgd1na2vs0mg"},{"bike_id":"d49cf37e-ce0e-48e3-a0b3-1e16d6879b8a","system_id":"levelo_inurba_marseille","lat":43.29794,"lon":5.39347,"is_reserved":false,"is_disabled":false,"rental_uris":{"android":"levelo://app?vid=d49cf37e-ce0e-48e3-a0b3-1e16d6879b8a","ios":"levelo://app?vid=d49cf37e-ce0e-48e3-a0b3-1e16d6879b8a"},"vehicle_type_id":"4","last_reported":1748662539,"current_range_meters":12400,"station_id":"chh1huq6cuj3fo74tm60","pricing_plan_id":"cebpf4jnsgd1na2vs0mg"},{"bike_id":"71930e17-fe3c-443f-b621-4d725e50390f","system_id":"levelo_inurba_marseille","lat":43.33737,"lon":5.39182,"is_reserved":false,"is_disabled":false,"rental_uris":{"android":"levelo://app?vid=71930e17-fe3c-443f-b621-4d725e50390f","ios":"levelo://app?vid=71930e17-fe3c-443f-b621-4d725e50390f"},"vehicle_type_id":"4","last_reported":1748662539,"current_range_meters":12400,"station_id":"ce4bhr92rcd13ifvqhsg","pricing_plan_id":"cebpf4jnsgd1na2vs0mg"},{"bike_id":"d77062c8-4d79-4154-9602-9c669060f316","system_id":"levelo_inurba_marseille","lat":43.28928,"lon":5.383948,"is_reserved":false,"is_disabled":false,"rental_uris":{"android":"levelo://app?vid=d77062c8-4d79-4154-9602-9c669060f316","ios":"levelo://app?vid=d77062c8-4d79-4154-9602-9c669060f316"},"vehicle_type_id":"4","last_reported":1748662539,"current_range_meters":12400,"station_id":"ce4bh612rcd13ifvqe6g","pricing_plan_id":"cebpf4jnsgd1na2vs0mg"},{"bike_id":"1c97e8db-e304-4244-bb2d-5629af62c239","system_id":"levelo_inurba_marseille","lat":43.30659,"lon":5.40093,"is_reserved":false,"is_disabled":false,"rental_uris":{"android":"levelo://app?vid=1c97e8db-e304-4244-bb2d-5629af62c239","ios":"levelo://app?vid=1c97e8db-e304-4244-bb2d-5629af62c239"},"vehicle_type_id":"4","last_reported":1748662539,"current_range_meters":12800,"station_id":"ce4bh112rcd13ifvqda0","pricing_plan_id":"cebpf4jnsgd1na2vs0mg"},{"bike_id":"893cccc3-5573-41c4-a76f-851cbc7df082","system_id":"levelo_inurba_marseille","lat":43.309333,"lon":5.401509,"is_reserved":false,"is_disabled":false,"rental_uris":{"android":"levelo://app?vid=893cccc3-5573-41c4-a76f-851cbc7df082","ios":"levelo://app?vid=893cccc3-5573-41c4-a76f-851cbc7df082"},"vehicle_type_id":"4","last_reported":1748662539,"current_range_meters":12800,"station_id":"ce4bgvp2rcd13ifvqct0","pricing_plan_id":"cebpf4jnsgd1na2vs0mg"},{"bike_id":"6dbec55b-fee0-4a3a-9ed2-723f9ae1c783","system_id":"levelo_inurba_marseille","lat":43.29905,"lon":5.436635,"is_reserved":false,"is_disabled":true,"rental_uris":{"android":"levelo://app?vid=6dbec55b-fee0-4a3a-9ed2-723f9ae1c783","ios":"levelo://app?vid=6dbec55b-fee0-4a3a-9ed2-723f9ae1c783"},"vehicle_type_id":"4","last_reported":1748662539,"current_range_meters":12800,"station_id":"ce4bhpp2rcd13ifvqhfg","pricing_plan_id":"cebpf4jnsgd1na2vs0mg"},{"bike_id":"f86183e6-3897-41a1-97fc-4d508dda07c1","system_id":"levelo_inurba_marseille","lat":43.31328,"lon":5.3969,"is_reserved":false,"is_disabled":false,"rental_uris":{"android":"levelo://app?vid=f86183e6-3897-41a1-97fc-4d508dda07c1","ios":"levelo://app?vid=f86183e6-3897-41a1-97fc-4d508dda07c1"},"vehicle_type_id":"4","last_reported":1748662539,"current_range_meters":12800,"station_id":"ce4bgvp2rcd13ifvqcu0","pricing_plan_id":"cebpf4jnsgd1na2vs0mg"},{"bike_id":"b35fd950-24e0-465e-96d1-082254f22158","system_id":"levelo_inurba_marseille","lat":43.278256,"lon":5.392031,"is_reserved":false,"is_disabled":false,"rental_uris":{"android":"levelo://app?vid=b35fd950-24e0-465e-96d1-082254f22158","ios":"levelo://app?vid=b35fd950-24e0-465e-96d1-082254f22158"},"vehicle_type_id":"4","last_reported":1748662539,"current_range_meters":12800,"station_id":"ce4bhjp2rcd13ifvqga0","pricing_plan_id":"cebpf4jnsgd1na2vs0mg"},{"bike_id":"0d3bab2f-26cf-41f1-82dd-bb5db963b288","system_id":"levelo_inurba_marseille","lat":43.324746,"lon":5.365854,"is_reserved":false,"is_disabled":false,"rental_uris":{"android":"levelo://app?vid=0d3bab2f-26cf-41f1-82dd-bb5db963b288","ios":"levelo://app?vid=0d3bab2f-26cf-41f1-82dd-bb5db963b288"},"vehicle_type_id":"4","last_reported":1748662539,"current_range_meters":12800,"station_id":"ce4bhs12rcd13ifvqhvg","pricing_plan_id":"cebpf4jnsgd1na2vs0mg"},{"bike_id":"3d915d17-e2da-43e7-bf1d-42c0a7798ce1","system_id":"levelo_inurba_marseille","lat":43.2886,"lon":5.39334,"is_reserved":false,"is_disabled":false,"rental_uris":{"android":"levelo://app?vid=3d915d17-e2da-43e7-bf1d-42c0a7798ce1","ios":"levelo://app?vid=3d915d17-e2da-43e7-bf1d-42c0a7798ce1"},"vehicle_type_id":"4","last_reported":1748662539,"current_range_meters":12800,"station_id":"ce4bh2p2rcd13ifvqdi0","pricing_plan_id":"cebpf4jnsgd1na2vs0mg"},{"bike_id":"a016949d-1b83-4525-b8e5-eb28776c83ba","system_id":"levelo_inurba_marseille","lat":43.282066,"lon":5.390524,"is_reserved":false,"is_disabled":false,"rental_uris":{"android":"levelo://app?vid=a016949d-1b83-4525-b8e5-eb28776c83ba","ios":"levelo://app?vid=a016949d-1b83-4525-b8e5-eb28776c83ba"},"vehicle_type_id":"4","last_reported":1748662539,"current_range_meters":12800,"station_id":"","pricing_plan_id":"cebpf4jnsgd1na2vs0mg"},{"bike_id":"990df701-79a7-41ec-b963-3693dc590a87","system_id":"levelo_inurba_marseille","lat":43.30163,"lon":5.37917,"is_reserved":false,"is_disabled":false,"rental_uris":{"android":"levelo://app?vid=990df701-79a7-41ec-b963-3693dc590a87","ios":"levelo://app?vid=990df701-79a7-41ec-b963-3693dc590a87"},"vehicle_type_id":"4","last_reported":1748662539,"current_range_meters":12800,"station_id":"","pricing_plan_id":"cebpf4jnsgd1na2vs0mg"},{"bike_id":"4eb27fe7-2925-45a1-b43c-b8c44fea6a4a","system_id":"levelo_inurba_marseille","lat":43.310786,"lon":5.424362,"is_reserved":false,"is_disabled":false,"rental_uris":{"android":"levelo://app?vid=4eb27fe7-2925-45a1-b43c-b8c44fea6a4a","ios":"levelo://app?vid=4eb27fe7-2925-45a1-b43c-b8c44fea6a4a"},"vehicle_type_id":"4","last_reported":1748662539,"current_range_meters":13600,"station_id":"ce4bhp92rcd13ifvqhag","pricing_plan_id":"cebpf4jnsgd1na2vs0mg"},{"bike_id":"bbf25ded-718e-41f5-8ebc-a2000cac04a7","system_id":"levelo_inurba_marseille","lat":43.30761,"lon":5.381516,"is_reserved":false,"is_disabled":false,"rental_uris":{"android":"levelo://app?vid=bbf25ded-718e-41f5-8ebc-a2000cac04a7","ios":"levelo://app?vid=bbf25ded-718e-41f5-8ebc-a2000cac04a7"},"vehicle_type_id":"4","last_reported":1748662539,"current_range_meters":13600,"station_id":"ce4bgt12rcd13ifvqce0","pricing_plan_id":"cebpf4jnsgd1na2vs0mg"},{"bike_id":"5986ce22-08ff-4b34-9b83-a2440ce2767f","system_id":"levelo_inurba_marseille","lat":43.3112,"lon":5.37768,"is_reserved":false,"is_disabled":false,"rental_uris":{"android":"levelo://app?vid=5986ce22-08ff-4b34-9b83-a2440ce2767f","ios":"levelo://app?vid=5986ce22-08ff-4b34-9b83-a2440ce2767f"},"vehicle_type_id":"4","last_reported":1748662539,"current_range_meters":13600,"station_id":"ce4bgt92rcd13ifvqcg0","pricing_plan_id":"cebpf4jnsgd1na2vs0mg"},{"bike_id":"099ae7f8-da2f-4e1e-85e1-bd2cc4e2608a","system_id":"levelo_inurba_marseille","lat":43.29023,"lon":5.3866,"is_reserved":false,"is_disabled":false,"rental_uris":{"android":"levelo://app?vid=099ae7f8-da2f-4e1e-85e1-bd2cc4e2608a","ios":"levelo://app?vid=099ae7f8-da2f-4e1e-85e1-bd2cc4e2608a"},"vehicle_type_id":"4","last_reported":1748662539,"current_range_meters":13600,"station_id":"ce4bh4p2rcd13ifvqe0g","pricing_plan_id":"cebpf4jnsgd1na2vs0mg"},{"bike_id":"476c84a3-eb6f-4c98-9868-00bdf5a55c5c","system_id":"levelo_inurba_marseille","lat":43.25119,"lon":5.403231,"is_reserved":false,"is_disabled":false,"rental_uris":{"android":"levelo://app?vid=476c84a3-eb6f-4c98-9868-00bdf5a55c5c","ios":"levelo://app?vid=476c84a3-eb6f-4c98-9868-00bdf5a55c5c"},"vehicle_type_id":"4","last_reported":1748662539,"current_range_meters":13600,"station_id":"ce4bhlh2rcd13ifvqgig","pricing_plan_id":"cebpf4jnsgd1na2vs0mg"},{"bike_id":"2f7e9960-6496-4917-a3f4-dfaaae348181","system_id":"levelo_inurba_marseille","lat":43.284767,"lon":5.385587,"is_reserved":false,"is_disabled":false,"rental_uris":{"android":"levelo://app?vid=2f7e9960-6496-4917-a3f4-dfaaae348181","ios":"levelo://app?vid=2f7e9960-6496-4917-a3f4-dfaaae348181"},"vehicle_type_id":"4","last_reported":1748662539,"current_range_meters":13600,"station_id":"ce4bh8p2rcd13ifvqeb0","pricing_plan_id":"cebpf4jnsgd1na2vs0mg"},{"bike_id":"0a9ffdd7-c167-4d81-8c08-db4e255360a4","system_id":"levelo_inurba_marseille","lat":43.27999,"lon":5.40033,"is_reserved":false,"is_disabled":false,"rental_uris":{"android":"levelo://app?vid=0a9ffdd7-c167-4d81-8c08-db4e255360a4","ios":"levelo://app?vid=0a9ffdd7-c167-4d81-8c08-db4e255360a4"},"vehicle_type_id":"4","last_reported":1748662539,"current_range_meters":13600,"station_id":"ce4bho92rcd13ifvqh4g","pricing_plan_id":"cebpf4jnsgd1na2vs0mg"},{"bike_id":"40b3349c-8f46-4799-ae53-a026f8e2086a","system_id":"levelo_inurba_marseille","lat":43.279154,"lon":5.395859,"is_reserved":false,"is_disabled":false,"rental_uris":{"android":"levelo://app?vid=40b3349c-8f46-4799-ae53-a026f8e2086a","ios":"levelo://app?vid=40b3349c-8f46-4799-ae53-a026f8e2086a"},"vehicle_type_id":"4","last_reported":1748662539,"current_range_meters":13600,"station_id":"ce4bhf92rcd13ifvqf40","pricing_plan_id":"cebpf4jnsgd1na2vs0mg"},{"bike_id":"67614841-9f24-4f1f-81f7-acf09b9bb6b8","system_id":"levelo_inurba_marseille","lat":43.25751,"lon":5.41113,"is_reserved":false,"is_disabled":false,"rental_uris":{"android":"levelo://app?vid=67614841-9f24-4f1f-81f7-acf09b9bb6b8","ios":"levelo://app?vid=67614841-9f24-4f1f-81f7-acf09b9bb6b8"},"vehicle_type_id":"4","last_reported":1748662539,"current_range_meters":14000,"station_id":"ce4bhkp2rcd13ifvqgd0","pricing_plan_id":"cebpf4jnsgd1na2vs0mg"},{"bike_id":"ca45ae50-8fdf-43fd-8443-30c134198d86","system_id":"levelo_inurba_marseille","lat":43.265613,"lon":5.403267,"is_reserved":false,"is_disabled":false,"rental_uris":{"android":"levelo://app?vid=ca45ae50-8fdf-43fd-8443-30c134198d86","ios":"levelo://app?vid=ca45ae50-8fdf-43fd-8443-30c134198d86"},"vehicle_type_id":"4","last_reported":1748662539,"current_range_meters":14000,"station_id":"","pricing_plan_id":"cebpf4jnsgd1na2vs0mg"},{"bike_id":"b39b16dc-f183-4cb5-86c3-5371fdcfe54c","system_id":"levelo_inurba_marseille","lat":43.31074,"lon":5.38355,"is_reserved":false,"is_disabled":false,"rental_uris":{"android":"levelo://app?vid=b39b16dc-f183-4cb5-86c3-5371fdcfe54c","ios":"levelo://app?vid=b39b16dc-f183-4cb5-86c3-5371fdcfe54c"},"vehicle_type_id":"4","last_reported":1748662539,"current_range_meters":14400,"station_id":"ce4bgv92rcd13ifvqcr0","pricing_plan_id":"cebpf4jnsgd1na2vs0mg"},{"bike_id":"91d451cd-fd12-4c58-9642-67ff33efe050","system_id":"levelo_inurba_marseille","lat":43.29026,"lon":5.38657,"is_reserved":false,"is_disabled":false,"rental_uris":{"android":"levelo://app?vid=91d451cd-fd12-4c58-9642-67ff33efe050","ios":"levelo://app?vid=91d451cd-fd12-4c58-9642-67ff33efe050"},"vehicle_type_id":"4","last_reported":1748662539,"current_range_meters":14400,"station_id":"ce4bh4p2rcd13ifvqe0g","pricing_plan_id":"cebpf4jnsgd1na2vs0mg"},{"bike_id":"56118c5b-a7b2-448d-9e9f-37905a3f02ee","system_id":"levelo_inurba_marseille","lat":43.290189,"lon":5.386371,"is_reserved":false,"is_disabled":false,"rental_uris":{"android":"levelo://app?vid=56118c5b-a7b2-448d-9e9f-37905a3f02ee","ios":"levelo://app?vid=56118c5b-a7b2-448d-9e9f-37905a3f02ee"},"vehicle_type_id":"4","last_reported":1748662539,"current_range_meters":14400,"station_id":"ce4bh4p2rcd13ifvqe0g","pricing_plan_id":"cebpf4jnsgd1na2vs0mg"},{"bike_id":"0a2aa0a3-8994-4921-90a8-560f5e55f68b","system_id":"levelo_inurba_marseille","lat":43.31344,"lon":5.39716,"is_reserved":false,"is_disabled":false,"rental_uris":{"android":"levelo://app?vid=0a2aa0a3-8994-4921-90a8-560f5e55f68b","ios":"levelo://app?vid=0a2aa0a3-8994-4921-90a8-560f5e55f68b"},"vehicle_type_id":"4","last_reported":1748662539,"current_range_meters":14400,"station_id":"ce4bgvp2rcd13ifvqcu0","pricing_plan_id":"cebpf4jnsgd1na2vs0mg"},{"bike_id":"d8af0821-bc5d-459f-b24d-bbfca9521714","system_id":"levelo_inurba_marseille","lat":43.24194,"lon":5.39747,"is_reserved":false,"is_disabled":false,"rental_uris":{"android":"levelo://app?vid=d8af0821-bc5d-459f-b24d-bbfca9521714","ios":"levelo://app?vid=d8af0821-bc5d-459f-b24d-bbfca9521714"},"vehicle_type_id":"4","last_reported":1748662539,"current_range_meters":14400,"station_id":"ce4bhn12rcd13ifvqgpg","pricing_plan_id":"cebpf4jnsgd1na2vs0mg"},{"bike_id":"9ad84696-d7b3-4d68-9270-763d33222bf3","system_id":"levelo_inurba_marseille","lat":43.30142,"lon":5.39878,"is_reserved":false,"is_disabled":false,"rental_uris":{"android":"levelo://app?vid=9ad84696-d7b3-4d68-9270-763d33222bf3","ios":"levelo://app?vid=9ad84696-d7b3-4d68-9270-763d33222bf3"},"vehicle_type_id":"4","last_reported":1748662539,"current_range_meters":14400,"station_id":"ce4bh0h2rcd13ifvqd40","pricing_plan_id":"cebpf4jnsgd1na2vs0mg"},{"bike_id":"9809e54a-9fd1-44af-affd-006eb7e5455d","system_id":"levelo_inurba_marseille","lat":43.30223,"lon":5.39471,"is_reserved":false,"is_disabled":false,"rental_uris":{"android":"levelo://app?vid=9809e54a-9fd1-44af-affd-006eb7e5455d","ios":"levelo://app?vid=9809e54a-9fd1-44af-affd-006eb7e5455d"},"vehicle_type_id":"4","last_reported":1748662539,"current_range_meters":14400,"station_id":"ce4bh0p2rcd13ifvqd70","pricing_plan_id":"cebpf4jnsgd1na2vs0mg"},{"bike_id":"21501f3b-3adc-4044-ae75-db236a244cbf","system_id":"levelo_inurba_marseille","lat":43.2833,"lon":5.38111,"is_reserved":false,"is_disabled":false,"rental_uris":{"android":"levelo://app?vid=21501f3b-3adc-4044-ae75-db236a244cbf","ios":"levelo://app?vid=21501f3b-3adc-4044-ae75-db236a244cbf"},"vehicle_type_id":"4","last_reported":1748662539,"current_range_meters":14400,"station_id":"ce4bh412rcd13ifvqdr0","pricing_plan_id":"cebpf4jnsgd1na2vs0mg"},{"bike_id":"80276b70-d128-4510-a003-e57dd1d62c68","system_id":"levelo_inurba_marseille","lat":43.30937,"lon":5.40169,"is_reserved":false,"is_disabled":false,"rental_uris":{"android":"levelo://app?vid=80276b70-d128-4510-a003-e57dd1d62c68","ios":"levelo://app?vid=80276b70-d128-4510-a003-e57dd1d62c68"},"vehicle_type_id":"4","last_reported":1748662539,"current_range_meters":14800,"station_id":"ce4bgvp2rcd13ifvqct0","pricing_plan_id":"cebpf4jnsgd1na2vs0mg"},{"bike_id":"fd1024f5-e5d4-49ae-9b56-8d14f9e35402","system_id":"levelo_inurba_marseille","lat":43.30133,"lon":5.38776,"is_reserved":false,"is_disabled":false,"rental_uris":{"android":"levelo://app?vid=fd1024f5-e5d4-49ae-9b56-8d14f9e35402","ios":"levelo://app?vid=fd1024f5-e5d4-49ae-9b56-8d14f9e35402"},"vehicle_type_id":"4","last_reported":1748662539,"current_range_meters":14800,"station_id":"ce4bghh2rcd13ifvqb60","pricing_plan_id":"cebpf4jnsgd1na2vs0mg"},{"bike_id":"b3138513-1acc-4e68-94cd-ba12e52278b5","system_id":"levelo_inurba_marseille","lat":43.25725,"lon":5.4111,"is_reserved":false,"is_disabled":false,"rental_uris":{"android":"levelo://app?vid=b3138513-1acc-4e68-94cd-ba12e52278b5","ios":"levelo://app?vid=b3138513-1acc-4e68-94cd-ba12e52278b5"},"vehicle_type_id":"4","last_reported":1748662539,"current_range_meters":14800,"station_id":"ce4bhkp2rcd13ifvqgd0","pricing_plan_id":"cebpf4jnsgd1na2vs0mg"},{"bike_id":"643f3571-f606-41db-9f1f-cf8ceb872bd9","system_id":"levelo_inurba_marseille","lat":43.32109,"lon":5.36767,"is_reserved":false,"is_disabled":false,"rental_uris":{"android":"levelo://app?vid=643f3571-f606-41db-9f1f-cf8ceb872bd9","ios":"levelo://app?vid=643f3571-f606-41db-9f1f-cf8ceb872bd9"},"vehicle_type_id":"4","last_reported":1748662539,"current_range_meters":14800,"station_id":"ce4bhrh2rcd13ifvqhug","pricing_plan_id":"cebpf4jnsgd1na2vs0mg"},{"bike_id":"a1afee0d-636a-4145-8e38-9b2384426a66","system_id":"levelo_inurba_marseille","lat":43.322851,"lon":5.382771,"is_reserved":false,"is_disabled":false,"rental_uris":{"android":"levelo://app?vid=a1afee0d-636a-4145-8e38-9b2384426a66","ios":"levelo://app?vid=a1afee0d-636a-4145-8e38-9b2384426a66"},"vehicle_type_id":"4","last_reported":1748662539,"current_range_meters":14800,"station_id":"ce4bhr12rcd13ifvqhqg","pricing_plan_id":"cebpf4jnsgd1na2vs0mg"},{"bike_id":"2a1a2e56-d357-40e8-ad94-ab43003866fc","system_id":"levelo_inurba_marseille","lat":43.302459,"lon":5.400591,"is_reserved":false,"is_disabled":false,"rental_uris":{"android":"levelo://app?vid=2a1a2e56-d357-40e8-ad94-ab43003866fc","ios":"levelo://app?vid=2a1a2e56-d357-40e8-ad94-ab43003866fc"},"vehicle_type_id":"4","last_reported":1748662539,"current_range_meters":14800,"station_id":"ce4bgvh2rcd13ifvqcs0","pricing_plan_id":"cebpf4jnsgd1na2vs0mg"},{"bike_id":"e2ae118e-d72e-4689-8ce8-ded84aed50bd","system_id":"levelo_inurba_marseille","lat":43.27835,"lon":5.39211,"is_reserved":false,"is_disabled":false,"rental_uris":{"android":"levelo://app?vid=e2ae118e-d72e-4689-8ce8-ded84aed50bd","ios":"levelo://app?vid=e2ae118e-d72e-4689-8ce8-ded84aed50bd"},"vehicle_type_id":"4","last_reported":1748662539,"current_range_meters":14800,"station_id":"ce4bhjp2rcd13ifvqga0","pricing_plan_id":"cebpf4jnsgd1na2vs0mg"},{"bike_id":"d5d0bfbb-f2bc-4297-a453-115bac476736","system_id":"levelo_inurba_marseille","lat":43.293743,"lon":5.375028,"is_reserved":false,"is_disabled":false,"rental_uris":{"android":"levelo://app?vid=d5d0bfbb-f2bc-4297-a453-115bac476736","ios":"levelo://app?vid=d5d0bfbb-f2bc-4297-a453-115bac476736"},"vehicle_type_id":"4","last_reported":1748662539,"current_range_meters":14800,"station_id":"","pricing_plan_id":"cebpf4jnsgd1na2vs0mg"},{"bike_id":"f0792c51-be2b-4590-bb53-7f6c5964cdb8","system_id":"levelo_inurba_marseille","lat":43.289206,"lon":5.383993,"is_reserved":false,"is_disabled":false,"rental_uris":{"android":"levelo://app?vid=f0792c51-be2b-4590-bb53-7f6c5964cdb8","ios":"levelo://app?vid=f0792c51-be2b-4590-bb53-7f6c5964cdb8"},"vehicle_type_id":"4","last_reported":1748662539,"current_range_meters":14800,"station_id":"ce4bh612rcd13ifvqe6g","pricing_plan_id":"cebpf4jnsgd1na2vs0mg"},{"bike_id":"9b99a336-da6a-4651-be6c-fced9f3e387b","system_id":"levelo_inurba_marseille","lat":43.303065,"lon":5.392053,"is_reserved":false,"is_disabled":false,"rental_uris":{"android":"levelo://app?vid=9b99a336-da6a-4651-be6c-fced9f3e387b","ios":"levelo://app?vid=9b99a336-da6a-4651-be6c-fced9f3e387b"},"vehicle_type_id":"4","last_reported":1748662539,"current_range_meters":14800,"station_id":"ce4bgkh2rcd13ifvqbk0","pricing_plan_id":"cebpf4jnsgd1na2vs0mg"},{"bike_id":"cacdfd12-b7d0-4475-bcc3-4c155bd5f4f3","system_id":"levelo_inurba_marseille","lat":43.31484,"lon":5.37269,"is_reserved":false,"is_disabled":false,"rental_uris":{"android":"levelo://app?vid=cacdfd12-b7d0-4475-bcc3-4c155bd5f4f3","ios":"levelo://app?vid=cacdfd12-b7d0-4475-bcc3-4c155bd5f4f3"},"vehicle_type_id":"4","last_reported":1748662539,"current_range_meters":15200,"station_id":"ce4bgt12rcd13ifvqcd0","pricing_plan_id":"cebpf4jnsgd1na2vs0mg"},{"bike_id":"5b4dcac3-2414-4b03-841e-6020b2253a14","system_id":"levelo_inurba_marseille","lat":43.301426,"lon":5.398768,"is_reserved":false,"is_disabled":false,"rental_uris":{"android":"levelo://app?vid=5b4dcac3-2414-4b03-841e-6020b2253a14","ios":"levelo://app?vid=5b4dcac3-2414-4b03-841e-6020b2253a14"},"vehicle_type_id":"4","last_reported":1748662539,"current_range_meters":15200,"station_id":"ce4bh0h2rcd13ifvqd40","pricing_plan_id":"cebpf4jnsgd1na2vs0mg"},{"bike_id":"f912030c-95c8-4f38-a595-3352de537c22","system_id":"levelo_inurba_marseille","lat":43.29279,"lon":5.40125,"is_reserved":false,"is_disabled":false,"rental_uris":{"android":"levelo://app?vid=f912030c-95c8-4f38-a595-3352de537c22","ios":"levelo://app?vid=f912030c-95c8-4f38-a595-3352de537c22"},"vehicle_type_id":"4","last_reported":1748662539,"current_range_meters":15200,"station_id":"ce4bh312rcd13ifvqdk0","pricing_plan_id":"cebpf4jnsgd1na2vs0mg"},{"bike_id":"9394a981-6e1e-4fd6-9268-4e09882956e9","system_id":"levelo_inurba_marseille","lat":43.31268,"lon":5.44554,"is_reserved":false,"is_disabled":false,"rental_uris":{"android":"levelo://app?vid=9394a981-6e1e-4fd6-9268-4e09882956e9","ios":"levelo://app?vid=9394a981-6e1e-4fd6-9268-4e09882956e9"},"vehicle_type_id":"4","last_reported":1748662539,"current_range_meters":15200,"station_id":"","pricing_plan_id":"cebpf4jnsgd1na2vs0mg"},{"bike_id":"7c75b060-060f-4b1c-8ccf-f18bc7ff396a","system_id":"levelo_inurba_marseille","lat":43.28417,"lon":5.3753,"is_reserved":false,"is_disabled":false,"rental_uris":{"android":"levelo://app?vid=7c75b060-060f-4b1c-8ccf-f18bc7ff396a","ios":"levelo://app?vid=7c75b060-060f-4b1c-8ccf-f18bc7ff396a"},"vehicle_type_id":"4","last_reported":1748662539,"current_range_meters":15200,"station_id":"ce4bh412rcd13ifvqds0","pricing_plan_id":"cebpf4jnsgd1na2vs0mg"},{"bike_id":"5cdfe8ed-42fd-4ef6-a746-5425bf393c70","system_id":"levelo_inurba_marseille","lat":43.290353,"lon":5.386413,"is_reserved":false,"is_disabled":false,"rental_uris":{"android":"levelo://app?vid=5cdfe8ed-42fd-4ef6-a746-5425bf393c70","ios":"levelo://app?vid=5cdfe8ed-42fd-4ef6-a746-5425bf393c70"},"vehicle_type_id":"4","last_reported":1748662539,"current_range_meters":15200,"station_id":"ce4bh4p2rcd13ifvqe0g","pricing_plan_id":"cebpf4jnsgd1na2vs0mg"},{"bike_id":"5d526042-0aa9-49b7-9d54-e5d290aaaef1","system_id":"levelo_inurba_marseille","lat":43.30156,"lon":5.39913,"is_reserved":false,"is_disabled":false,"rental_uris":{"android":"levelo://app?vid=5d526042-0aa9-49b7-9d54-e5d290aaaef1","ios":"levelo://app?vid=5d526042-0aa9-49b7-9d54-e5d290aaaef1"},"vehicle_type_id":"4","last_reported":1748662539,"current_range_meters":15200,"station_id":"","pricing_plan_id":"cebpf4jnsgd1na2vs0mg"},{"bike_id":"b44afb05-6f80-4f4b-827a-e58b6394b4d9","system_id":"levelo_inurba_marseille","lat":43.2868,"lon":5.39988,"is_reserved":false,"is_disabled":false,"rental_uris":{"android":"levelo://app?vid=b44afb05-6f80-4f4b-827a-e58b6394b4d9","ios":"levelo://app?vid=b44afb05-6f80-4f4b-827a-e58b6394b4d9"},"vehicle_type_id":"4","last_reported":1748662539,"current_range_meters":15200,"station_id":"ce4bho92rcd13ifvqh3g","pricing_plan_id":"cebpf4jnsgd1na2vs0mg"},{"bike_id":"ddd39802-d9f1-4d05-8724-0cf238e6cad9","system_id":"levelo_inurba_marseille","lat":43.28704,"lon":5.39968,"is_reserved":false,"is_disabled":false,"rental_uris":{"android":"levelo://app?vid=ddd39802-d9f1-4d05-8724-0cf238e6cad9","ios":"levelo://app?vid=ddd39802-d9f1-4d05-8724-0cf238e6cad9"},"vehicle_type_id":"4","last_reported":1748662539,"current_range_meters":15200,"station_id":"ce4bho92rcd13ifvqh3g","pricing_plan_id":"cebpf4jnsgd1na2vs0mg"},{"bike_id":"99586cd6-a2a0-47d9-ab46-a364f046973a","system_id":"levelo_inurba_marseille","lat":43.251158,"lon":5.403404,"is_reserved":false,"is_disabled":false,"rental_uris":{"android":"levelo://app?vid=99586cd6-a2a0-47d9-ab46-a364f046973a","ios":"levelo://app?vid=99586cd6-a2a0-47d9-ab46-a364f046973a"},"vehicle_type_id":"4","last_reported":1748662539,"current_range_meters":15200,"station_id":"ce4bhlh2rcd13ifvqgig","pricing_plan_id":"cebpf4jnsgd1na2vs0mg"},{"bike_id":"03c1751e-ef60-4175-a52f-4759bb9df88b","system_id":"levelo_inurba_marseille","lat":43.28477,"lon":5.39163,"is_reserved":false,"is_disabled":false,"rental_uris":{"android":"levelo://app?vid=03c1751e-ef60-4175-a52f-4759bb9df88b","ios":"levelo://app?vid=03c1751e-ef60-4175-a52f-4759bb9df88b"},"vehicle_type_id":"4","last_reported":1748662539,"current_range_meters":15200,"station_id":"","pricing_plan_id":"cebpf4jnsgd1na2vs0mg"},{"bike_id":"b4a389d7-474d-4a9d-8dec-223a88612b5c","system_id":"levelo_inurba_marseille","lat":43.24956,"lon":5.38013,"is_reserved":false,"is_disabled":false,"rental_uris":{"android":"levelo://app?vid=b4a389d7-474d-4a9d-8dec-223a88612b5c","ios":"levelo://app?vid=b4a389d7-474d-4a9d-8dec-223a88612b5c"},"vehicle_type_id":"4","last_reported":1748662539,"current_range_meters":16000,"station_id":"","pricing_plan_id":"cebpf4jnsgd1na2vs0mg"},{"bike_id":"c8d1fb2e-5174-47df-b1b2-f63868607fc9","system_id":"levelo_inurba_marseille","lat":43.30133,"lon":5.38797,"is_reserved":false,"is_disabled":false,"rental_uris":{"android":"levelo://app?vid=c8d1fb2e-5174-47df-b1b2-f63868607fc9","ios":"levelo://app?vid=c8d1fb2e-5174-47df-b1b2-f63868607fc9"},"vehicle_type_id":"4","last_reported":1748662539,"current_range_meters":16000,"station_id":"ce4bghh2rcd13ifvqb60","pricing_plan_id":"cebpf4jnsgd1na2vs0mg"},{"bike_id":"79d5dd5f-2e4a-472a-8c9e-1db11d7a9fc0","system_id":"levelo_inurba_marseille","lat":43.28952,"lon":5.3841,"is_reserved":false,"is_disabled":false,"rental_uris":{"android":"levelo://app?vid=79d5dd5f-2e4a-472a-8c9e-1db11d7a9fc0","ios":"levelo://app?vid=79d5dd5f-2e4a-472a-8c9e-1db11d7a9fc0"},"vehicle_type_id":"4","last_reported":1748662539,"current_range_meters":16000,"station_id":"ce4bh612rcd13ifvqe6g","pricing_plan_id":"cebpf4jnsgd1na2vs0mg"},{"bike_id":"f5c92089-c385-41e8-bd22-786c20787e82","system_id":"levelo_inurba_marseille","lat":43.279439,"lon":5.410473,"is_reserved":false,"is_disabled":false,"rental_uris":{"android":"levelo://app?vid=f5c92089-c385-41e8-bd22-786c20787e82","ios":"levelo://app?vid=f5c92089-c385-41e8-bd22-786c20787e82"},"vehicle_type_id":"4","last_reported":1748662539,"current_range_meters":16000,"station_id":"ce4bhnp2rcd13ifvqh0g","pricing_plan_id":"cebpf4jnsgd1na2vs0mg"},{"bike_id":"348ddc31-f232-46b0-bbef-5931b86212cf","system_id":"levelo_inurba_marseille","lat":43.24167,"lon":5.39732,"is_reserved":false,"is_disabled":false,"rental_uris":{"android":"levelo://app?vid=348ddc31-f232-46b0-bbef-5931b86212cf","ios":"levelo://app?vid=348ddc31-f232-46b0-bbef-5931b86212cf"},"vehicle_type_id":"4","last_reported":1748662539,"current_range_meters":16000,"station_id":"ce4bhn12rcd13ifvqgpg","pricing_plan_id":"cebpf4jnsgd1na2vs0mg"},{"bike_id":"3684317d-8c7d-4406-83d3-99a336dbaba1","system_id":"levelo_inurba_marseille","lat":43.27952,"lon":5.41039,"is_reserved":false,"is_disabled":false,"rental_uris":{"android":"levelo://app?vid=3684317d-8c7d-4406-83d3-99a336dbaba1","ios":"levelo://app?vid=3684317d-8c7d-4406-83d3-99a336dbaba1"},"vehicle_type_id":"4","last_reported":1748662539,"current_range_meters":16000,"station_id":"ce4bhnp2rcd13ifvqh0g","pricing_plan_id":"cebpf4jnsgd1na2vs0mg"},{"bike_id":"a203cef1-97cb-47f9-9ab1-78869ad668ec","system_id":"levelo_inurba_marseille","lat":43.24396,"lon":5.37056,"is_reserved":false,"is_disabled":false,"rental_uris":{"android":"levelo://app?vid=a203cef1-97cb-47f9-9ab1-78869ad668ec","ios":"levelo://app?vid=a203cef1-97cb-47f9-9ab1-78869ad668ec"},"vehicle_type_id":"4","last_reported":1748662539,"current_range_meters":16000,"station_id":"ce4bhhh2rcd13ifvqfk0","pricing_plan_id":"cebpf4jnsgd1na2vs0mg"},{"bike_id":"14036455-f919-44f7-8d5e-0b2e84f48674","system_id":"levelo_inurba_marseille","lat":43.309227,"lon":5.403843,"is_reserved":false,"is_disabled":false,"rental_uris":{"android":"levelo://app?vid=14036455-f919-44f7-8d5e-0b2e84f48674","ios":"levelo://app?vid=14036455-f919-44f7-8d5e-0b2e84f48674"},"vehicle_type_id":"4","last_reported":1748662539,"current_range_meters":16000,"station_id":"","pricing_plan_id":"cebpf4jnsgd1na2vs0mg"},{"bike_id":"ee5c1c03-5de8-421f-8165-b1596434709b","system_id":"levelo_inurba_marseille","lat":43.301299,"lon":5.387781,"is_reserved":false,"is_disabled":false,"rental_uris":{"android":"levelo://app?vid=ee5c1c03-5de8-421f-8165-b1596434709b","ios":"levelo://app?vid=ee5c1c03-5de8-421f-8165-b1596434709b"},"vehicle_type_id":"4","last_reported":1748662539,"current_range_meters":16000,"station_id":"ce4bghh2rcd13ifvqb60","pricing_plan_id":"cebpf4jnsgd1na2vs0mg"},{"bike_id":"c2319c95-523a-4385-a540-a2f6322d592b","system_id":"levelo_inurba_marseille","lat":43.27826,"lon":5.39207,"is_reserved":false,"is_disabled":false,"rental_uris":{"android":"levelo://app?vid=c2319c95-523a-4385-a540-a2f6322d592b","ios":"levelo://app?vid=c2319c95-523a-4385-a540-a2f6322d592b"},"vehicle_type_id":"4","last_reported":1748662539,"current_range_meters":16000,"station_id":"ce4bhjp2rcd13ifvqga0","pricing_plan_id":"cebpf4jnsgd1na2vs0mg"},{"bike_id":"e878270b-d4b9-4a41-9720-9dfc581bead7","system_id":"levelo_inurba_marseille","lat":43.257314,"lon":5.410956,"is_reserved":false,"is_disabled":false,"rental_uris":{"android":"levelo://app?vid=e878270b-d4b9-4a41-9720-9dfc581bead7","ios":"levelo://app?vid=e878270b-d4b9-4a41-9720-9dfc581bead7"},"vehicle_type_id":"4","last_reported":1748662539,"current_range_meters":16400,"station_id":"ce4bhkp2rcd13ifvqgd0","pricing_plan_id":"cebpf4jnsgd1na2vs0mg"},{"bike_id":"480f043b-d440-4de0-ad40-c9601fac61aa","system_id":"levelo_inurba_marseille","lat":43.279226,"lon":5.395796,"is_reserved":false,"is_disabled":false,"rental_uris":{"android":"levelo://app?vid=480f043b-d440-4de0-ad40-c9601fac61aa","ios":"levelo://app?vid=480f043b-d440-4de0-ad40-c9601fac61aa"},"vehicle_type_id":"4","last_reported":1748662539,"current_range_meters":16400,"station_id":"ce4bhf92rcd13ifvqf40","pricing_plan_id":"cebpf4jnsgd1na2vs0mg"},{"bike_id":"a238590a-f587-414b-b5e9-1c3eb0a159b8","system_id":"levelo_inurba_marseille","lat":43.293008,"lon":5.374595,"is_reserved":false,"is_disabled":false,"rental_uris":{"android":"levelo://app?vid=a238590a-f587-414b-b5e9-1c3eb0a159b8","ios":"levelo://app?vid=a238590a-f587-414b-b5e9-1c3eb0a159b8"},"vehicle_type_id":"4","last_reported":1748662539,"current_range_meters":16400,"station_id":"","pricing_plan_id":"cebpf4jnsgd1na2vs0mg"},{"bike_id":"1f72df3b-3eb6-4e22-98b3-16e8c40786d5","system_id":"levelo_inurba_marseille","lat":43.240731,"lon":5.37753,"is_reserved":false,"is_disabled":false,"rental_uris":{"android":"levelo://app?vid=1f72df3b-3eb6-4e22-98b3-16e8c40786d5","ios":"levelo://app?vid=1f72df3b-3eb6-4e22-98b3-16e8c40786d5"},"vehicle_type_id":"4","last_reported":1748662539,"current_range_meters":16400,"station_id":"ce4bhnp2rcd13ifvqgvg","pricing_plan_id":"cebpf4jnsgd1na2vs0mg"},{"bike_id":"220285fc-1fd5-4ef2-b6ef-8c6b4c759d7b","system_id":"levelo_inurba_marseille","lat":43.29272,"lon":5.38441,"is_reserved":false,"is_disabled":false,"rental_uris":{"android":"levelo://app?vid=220285fc-1fd5-4ef2-b6ef-8c6b4c759d7b","ios":"levelo://app?vid=220285fc-1fd5-4ef2-b6ef-8c6b4c759d7b"},"vehicle_type_id":"4","last_reported":1748662539,"current_range_meters":16400,"station_id":"ce4bh692rcd13ifvqea0","pricing_plan_id":"cebpf4jnsgd1na2vs0mg"},{"bike_id":"54a6e89f-ade8-4e13-89a6-7d78485bfd6f","system_id":"levelo_inurba_marseille","lat":43.25726,"lon":5.41119,"is_reserved":false,"is_disabled":false,"rental_uris":{"android":"levelo://app?vid=54a6e89f-ade8-4e13-89a6-7d78485bfd6f","ios":"levelo://app?vid=54a6e89f-ade8-4e13-89a6-7d78485bfd6f"},"vehicle_type_id":"4","last_reported":1748662539,"current_range_meters":16400,"station_id":"ce4bhkp2rcd13ifvqgd0","pricing_plan_id":"cebpf4jnsgd1na2vs0mg"},{"bike_id":"3de55df9-7d7b-4304-b06e-95e8f06b7b5d","system_id":"levelo_inurba_marseille","lat":43.297958,"lon":5.381092,"is_reserved":false,"is_disabled":false,"rental_uris":{"android":"levelo://app?vid=3de55df9-7d7b-4304-b06e-95e8f06b7b5d","ios":"levelo://app?vid=3de55df9-7d7b-4304-b06e-95e8f06b7b5d"},"vehicle_type_id":"4","last_reported":1748662539,"current_range_meters":16800,"station_id":"ce4bgip2rcd13ifvqbb0","pricing_plan_id":"cebpf4jnsgd1na2vs0mg"},{"bike_id":"bbb06921-e716-4ace-a092-eccc1bcc3204","system_id":"levelo_inurba_marseille","lat":43.312931,"lon":5.382769,"is_reserved":false,"is_disabled":false,"rental_uris":{"android":"levelo://app?vid=bbb06921-e716-4ace-a092-eccc1bcc3204","ios":"levelo://app?vid=bbb06921-e716-4ace-a092-eccc1bcc3204"},"vehicle_type_id":"4","last_reported":1748662539,"current_range_meters":16800,"station_id":"","pricing_plan_id":"cebpf4jnsgd1na2vs0mg"},{"bike_id":"12e5b650-6721-47fc-bca9-139993e2375f","system_id":"levelo_inurba_marseille","lat":43.278355,"lon":5.392028,"is_reserved":false,"is_disabled":false,"rental_uris":{"android":"levelo://app?vid=12e5b650-6721-47fc-bca9-139993e2375f","ios":"levelo://app?vid=12e5b650-6721-47fc-bca9-139993e2375f"},"vehicle_type_id":"4","last_reported":1748662539,"current_range_meters":16800,"station_id":"ce4bhjp2rcd13ifvqga0","pricing_plan_id":"cebpf4jnsgd1na2vs0mg"},{"bike_id":"c6eba481-8ee4-49b0-a228-bff3efbb83b0","system_id":"levelo_inurba_marseille","lat":43.27949,"lon":5.41049,"is_reserved":false,"is_disabled":false,"rental_uris":{"android":"levelo://app?vid=c6eba481-8ee4-49b0-a228-bff3efbb83b0","ios":"levelo://app?vid=c6eba481-8ee4-49b0-a228-bff3efbb83b0"},"vehicle_type_id":"4","last_reported":1748662539,"current_range_meters":16800,"station_id":"ce4bhnp2rcd13ifvqh0g","pricing_plan_id":"cebpf4jnsgd1na2vs0mg"},{"bike_id":"21784205-f144-4b4d-921a-765ac0dfbf97","system_id":"levelo_inurba_marseille","lat":43.34813,"lon":5.34846,"is_reserved":false,"is_disabled":false,"rental_uris":{"android":"levelo://app?vid=21784205-f144-4b4d-921a-765ac0dfbf97","ios":"levelo://app?vid=21784205-f144-4b4d-921a-765ac0dfbf97"},"vehicle_type_id":"4","last_reported":1748662539,"current_range_meters":16800,"station_id":"","pricing_plan_id":"cebpf4jnsgd1na2vs0mg"},{"bike_id":"093bbd9a-3376-4f5e-8a41-7cc8b8b4e4b7","system_id":"levelo_inurba_marseille","lat":43.251193,"lon":5.403315,"is_reserved":false,"is_disabled":false,"rental_uris":{"android":"levelo://app?vid=093bbd9a-3376-4f5e-8a41-7cc8b8b4e4b7","ios":"levelo://app?vid=093bbd9a-3376-4f5e-8a41-7cc8b8b4e4b7"},"vehicle_type_id":"4","last_reported":1748662539,"current_range_meters":16800,"station_id":"ce4bhlh2rcd13ifvqgig","pricing_plan_id":"cebpf4jnsgd1na2vs0mg"},{"bike_id":"acf16947-b203-4b81-91fe-aabb86c76086","system_id":"levelo_inurba_marseille","lat":43.25727,"lon":5.41109,"is_reserved":false,"is_disabled":false,"rental_uris":{"android":"levelo://app?vid=acf16947-b203-4b81-91fe-aabb86c76086","ios":"levelo://app?vid=acf16947-b203-4b81-91fe-aabb86c76086"},"vehicle_type_id":"4","last_reported":1748662539,"current_range_meters":16800,"station_id":"ce4bhkp2rcd13ifvqgd0","pricing_plan_id":"cebpf4jnsgd1na2vs0mg"},{"bike_id":"f4f1fd10-7f02-4ec2-8cb0-c8c5fa3e09c2","system_id":"levelo_inurba_marseille","lat":43.2796,"lon":5.41029,"is_reserved":false,"is_disabled":false,"rental_uris":{"android":"levelo://app?vid=f4f1fd10-7f02-4ec2-8cb0-c8c5fa3e09c2","ios":"levelo://app?vid=f4f1fd10-7f02-4ec2-8cb0-c8c5fa3e09c2"},"vehicle_type_id":"4","last_reported":1748662539,"current_range_meters":16800,"station_id":"ce4bhnp2rcd13ifvqh0g","pricing_plan_id":"cebpf4jnsgd1na2vs0mg"},{"bike_id":"678a6d00-bc52-4caa-bcf1-e5c1e33f1a3e","system_id":"levelo_inurba_marseille","lat":43.29651,"lon":5.37702,"is_reserved":false,"is_disabled":false,"rental_uris":{"android":"levelo://app?vid=678a6d00-bc52-4caa-bcf1-e5c1e33f1a3e","ios":"levelo://app?vid=678a6d00-bc52-4caa-bcf1-e5c1e33f1a3e"},"vehicle_type_id":"4","last_reported":1748662539,"current_range_meters":17200,"station_id":"ce4bgi92rcd13ifvqb90","pricing_plan_id":"cebpf4jnsgd1na2vs0mg"},{"bike_id":"846ce5e3-e1a2-4bdb-8c82-077f78d256e2","system_id":"levelo_inurba_marseille","lat":43.30783,"lon":5.38134,"is_reserved":false,"is_disabled":false,"rental_uris":{"android":"levelo://app?vid=846ce5e3-e1a2-4bdb-8c82-077f78d256e2","ios":"levelo://app?vid=846ce5e3-e1a2-4bdb-8c82-077f78d256e2"},"vehicle_type_id":"4","last_reported":1748662539,"current_range_meters":17200,"station_id":"ce4bgt12rcd13ifvqce0","pricing_plan_id":"cebpf4jnsgd1na2vs0mg"},{"bike_id":"98ec307e-7ec1-4c12-8327-791809e3259d","system_id":"levelo_inurba_marseille","lat":43.27829,"lon":5.39212,"is_reserved":false,"is_disabled":false,"rental_uris":{"android":"levelo://app?vid=98ec307e-7ec1-4c12-8327-791809e3259d","ios":"levelo://app?vid=98ec307e-7ec1-4c12-8327-791809e3259d"},"vehicle_type_id":"4","last_reported":1748662539,"current_range_meters":17200,"station_id":"ce4bhjp2rcd13ifvqga0","pricing_plan_id":"cebpf4jnsgd1na2vs0mg"},{"bike_id":"f5eb51ff-08f3-458c-8e99-1dbc609fde4b","system_id":"levelo_inurba_marseille","lat":43.22927,"lon":5.35377,"is_reserved":false,"is_disabled":false,"rental_uris":{"android":"levelo://app?vid=f5eb51ff-08f3-458c-8e99-1dbc609fde4b","ios":"levelo://app?vid=f5eb51ff-08f3-458c-8e99-1dbc609fde4b"},"vehicle_type_id":"4","last_reported":1748662539,"current_range_meters":17200,"station_id":"cpo3532slgdg3j2ikp40","pricing_plan_id":"cebpf4jnsgd1na2vs0mg"},{"bike_id":"e9f46a18-9ee4-4c72-a365-6ab7fa7fad21","system_id":"levelo_inurba_marseille","lat":43.291899,"lon":5.393125,"is_reserved":false,"is_disabled":false,"rental_uris":{"android":"levelo://app?vid=e9f46a18-9ee4-4c72-a365-6ab7fa7fad21","ios":"levelo://app?vid=e9f46a18-9ee4-4c72-a365-6ab7fa7fad21"},"vehicle_type_id":"4","last_reported":1748662539,"current_range_meters":17200,"station_id":"ce4bh192rcd13ifvqdd0","pricing_plan_id":"cebpf4jnsgd1na2vs0mg"},{"bike_id":"b9bbe4c2-d2f5-4e26-94af-b194681e10e5","system_id":"levelo_inurba_marseille","lat":43.310786,"lon":5.424354,"is_reserved":false,"is_disabled":false,"rental_uris":{"android":"levelo://app?vid=b9bbe4c2-d2f5-4e26-94af-b194681e10e5","ios":"levelo://app?vid=b9bbe4c2-d2f5-4e26-94af-b194681e10e5"},"vehicle_type_id":"4","last_reported":1748662539,"current_range_meters":17200,"station_id":"ce4bhp92rcd13ifvqhag","pricing_plan_id":"cebpf4jnsgd1na2vs0mg"},{"bike_id":"4438ed49-9224-4546-aa41-1e074a905093","system_id":"levelo_inurba_marseille","lat":43.30932,"lon":5.40148,"is_reserved":false,"is_disabled":false,"rental_uris":{"android":"levelo://app?vid=4438ed49-9224-4546-aa41-1e074a905093","ios":"levelo://app?vid=4438ed49-9224-4546-aa41-1e074a905093"},"vehicle_type_id":"4","last_reported":1748662539,"current_range_meters":16800,"station_id":"ce4bgvp2rcd13ifvqct0","pricing_plan_id":"cebpf4jnsgd1na2vs0mg"},{"bike_id":"9a189ee8-27ed-444b-b171-f705371af28f","system_id":"levelo_inurba_marseille","lat":43.282581,"lon":5.349088,"is_reserved":false,"is_disabled":false,"rental_uris":{"android":"levelo://app?vid=9a189ee8-27ed-444b-b171-f705371af28f","ios":"levelo://app?vid=9a189ee8-27ed-444b-b171-f705371af28f"},"vehicle_type_id":"4","last_reported":1748662539,"current_range_meters":17600,"station_id":"","pricing_plan_id":"cebpf4jnsgd1na2vs0mg"},{"bike_id":"61b86620-def2-4760-9d0a-205ac26592db","system_id":"levelo_inurba_marseille","lat":43.28276,"lon":5.35076,"is_reserved":false,"is_disabled":true,"rental_uris":{"android":"levelo://app?vid=61b86620-def2-4760-9d0a-205ac26592db","ios":"levelo://app?vid=61b86620-def2-4760-9d0a-205ac26592db"},"vehicle_type_id":"4","last_reported":1748662539,"current_range_meters":17600,"station_id":"ce4bhbp2rcd13ifvqerg","pricing_plan_id":"cebpf4jnsgd1na2vs0mg"},{"bike_id":"3fc89b50-d92f-44f7-b5d9-a53147ec50ff","system_id":"levelo_inurba_marseille","lat":43.2871,"lon":5.37391,"is_reserved":false,"is_disabled":false,"rental_uris":{"android":"levelo://app?vid=3fc89b50-d92f-44f7-b5d9-a53147ec50ff","ios":"levelo://app?vid=3fc89b50-d92f-44f7-b5d9-a53147ec50ff"},"vehicle_type_id":"4","last_reported":1748662539,"current_range_meters":17600,"station_id":"ce4bh3p2rcd13ifvqdq0","pricing_plan_id":"cebpf4jnsgd1na2vs0mg"},{"bike_id":"2f727641-8372-4e37-b639-88cbef7c9941","system_id":"levelo_inurba_marseille","lat":43.270586,"lon":5.402609,"is_reserved":false,"is_disabled":true,"rental_uris":{"android":"levelo://app?vid=2f727641-8372-4e37-b639-88cbef7c9941","ios":"levelo://app?vid=2f727641-8372-4e37-b639-88cbef7c9941"},"vehicle_type_id":"4","last_reported":1748662539,"current_range_meters":17600,"station_id":"ce4bhk92rcd13ifvqgc0","pricing_plan_id":"cebpf4jnsgd1na2vs0mg"},{"bike_id":"59cc9f64-369b-40a4-aef4-571b231df862","system_id":"levelo_inurba_marseille","lat":43.28102,"lon":5.35203,"is_reserved":false,"is_disabled":false,"rental_uris":{"android":"levelo://app?vid=59cc9f64-369b-40a4-aef4-571b231df862","ios":"levelo://app?vid=59cc9f64-369b-40a4-aef4-571b231df862"},"vehicle_type_id":"4","last_reported":1748662539,"current_range_meters":17600,"station_id":"","pricing_plan_id":"cebpf4jnsgd1na2vs0mg"},{"bike_id":"622f2786-ec7a-42e5-a8fa-63ee4bf3ae10","system_id":"levelo_inurba_marseille","lat":43.284417,"lon":5.391968,"is_reserved":false,"is_disabled":false,"rental_uris":{"android":"levelo://app?vid=622f2786-ec7a-42e5-a8fa-63ee4bf3ae10","ios":"levelo://app?vid=622f2786-ec7a-42e5-a8fa-63ee4bf3ae10"},"vehicle_type_id":"4","last_reported":1748662539,"current_range_meters":17600,"station_id":"ce4bhoh2rcd13ifvqh5g","pricing_plan_id":"cebpf4jnsgd1na2vs0mg"},{"bike_id":"e210be7e-07b8-44d3-ae09-6702f28e2ae8","system_id":"levelo_inurba_marseille","lat":43.25121,"lon":5.3936,"is_reserved":false,"is_disabled":false,"rental_uris":{"android":"levelo://app?vid=e210be7e-07b8-44d3-ae09-6702f28e2ae8","ios":"levelo://app?vid=e210be7e-07b8-44d3-ae09-6702f28e2ae8"},"vehicle_type_id":"4","last_reported":1748662539,"current_range_meters":17600,"station_id":"","pricing_plan_id":"cebpf4jnsgd1na2vs0mg"},{"bike_id":"716a2310-8de8-4c37-83e1-85fc28389444","system_id":"levelo_inurba_marseille","lat":43.279131,"lon":5.395788,"is_reserved":false,"is_disabled":false,"rental_uris":{"android":"levelo://app?vid=716a2310-8de8-4c37-83e1-85fc28389444","ios":"levelo://app?vid=716a2310-8de8-4c37-83e1-85fc28389444"},"vehicle_type_id":"4","last_reported":1748662539,"current_range_meters":17600,"station_id":"ce4bhf92rcd13ifvqf40","pricing_plan_id":"cebpf4jnsgd1na2vs0mg"},{"bike_id":"d08043a3-1509-42c0-b312-c58c26f0b5ec","system_id":"levelo_inurba_marseille","lat":43.31338,"lon":5.39689,"is_reserved":false,"is_disabled":false,"rental_uris":{"android":"levelo://app?vid=d08043a3-1509-42c0-b312-c58c26f0b5ec","ios":"levelo://app?vid=d08043a3-1509-42c0-b312-c58c26f0b5ec"},"vehicle_type_id":"4","last_reported":1748662539,"current_range_meters":17600,"station_id":"ce4bgvp2rcd13ifvqcu0","pricing_plan_id":"cebpf4jnsgd1na2vs0mg"},{"bike_id":"10cccf0e-5e24-4b75-8e4f-e089b2d3e656","system_id":"levelo_inurba_marseille","lat":43.231858,"lon":5.399852,"is_reserved":false,"is_disabled":false,"rental_uris":{"android":"levelo://app?vid=10cccf0e-5e24-4b75-8e4f-e089b2d3e656","ios":"levelo://app?vid=10cccf0e-5e24-4b75-8e4f-e089b2d3e656"},"vehicle_type_id":"4","last_reported":1748662539,"current_range_meters":17600,"station_id":"ce4bhn12rcd13ifvqgqg","pricing_plan_id":"cebpf4jnsgd1na2vs0mg"},{"bike_id":"aa732485-43cf-4818-b780-95241493f162","system_id":"levelo_inurba_marseille","lat":43.31481,"lon":5.37289,"is_reserved":false,"is_disabled":false,"rental_uris":{"android":"levelo://app?vid=aa732485-43cf-4818-b780-95241493f162","ios":"levelo://app?vid=aa732485-43cf-4818-b780-95241493f162"},"vehicle_type_id":"4","last_reported":1748662539,"current_range_meters":17600,"station_id":"ce4bgt12rcd13ifvqcd0","pricing_plan_id":"cebpf4jnsgd1na2vs0mg"},{"bike_id":"e943eb65-5385-4e18-8168-21b674560739","system_id":"levelo_inurba_marseille","lat":43.27184,"lon":5.40986,"is_reserved":false,"is_disabled":false,"rental_uris":{"android":"levelo://app?vid=e943eb65-5385-4e18-8168-21b674560739","ios":"levelo://app?vid=e943eb65-5385-4e18-8168-21b674560739"},"vehicle_type_id":"4","last_reported":1748662539,"current_range_meters":17600,"station_id":"ce4bhl12rcd13ifvqgf0","pricing_plan_id":"cebpf4jnsgd1na2vs0mg"},{"bike_id":"966a1344-64d3-4294-a857-41dc23b0fb92","system_id":"levelo_inurba_marseille","lat":43.30428,"lon":5.38897,"is_reserved":false,"is_disabled":false,"rental_uris":{"android":"levelo://app?vid=966a1344-64d3-4294-a857-41dc23b0fb92","ios":"levelo://app?vid=966a1344-64d3-4294-a857-41dc23b0fb92"},"vehicle_type_id":"4","last_reported":1748662539,"current_range_meters":18000,"station_id":"ce4bgk12rcd13ifvqbi0","pricing_plan_id":"cebpf4jnsgd1na2vs0mg"},{"bike_id":"11b79d64-3454-4a1a-aee0-363b46bc3876","system_id":"levelo_inurba_marseille","lat":43.279222,"lon":5.395836,"is_reserved":false,"is_disabled":false,"rental_uris":{"android":"levelo://app?vid=11b79d64-3454-4a1a-aee0-363b46bc3876","ios":"levelo://app?vid=11b79d64-3454-4a1a-aee0-363b46bc3876"},"vehicle_type_id":"4","last_reported":1748662539,"current_range_meters":18000,"station_id":"ce4bhf92rcd13ifvqf40","pricing_plan_id":"cebpf4jnsgd1na2vs0mg"},{"bike_id":"4429ad77-ffb7-4248-9186-d69f7bd9bbb4","system_id":"levelo_inurba_marseille","lat":43.301271,"lon":5.398851,"is_reserved":false,"is_disabled":false,"rental_uris":{"android":"levelo://app?vid=4429ad77-ffb7-4248-9186-d69f7bd9bbb4","ios":"levelo://app?vid=4429ad77-ffb7-4248-9186-d69f7bd9bbb4"},"vehicle_type_id":"4","last_reported":1748662539,"current_range_meters":18000,"station_id":"ce4bh0h2rcd13ifvqd40","pricing_plan_id":"cebpf4jnsgd1na2vs0mg"},{"bike_id":"f5a90625-b7e8-48a8-90c6-777efe255a32","system_id":"levelo_inurba_marseille","lat":43.25112,"lon":5.40967,"is_reserved":false,"is_disabled":false,"rental_uris":{"android":"levelo://app?vid=f5a90625-b7e8-48a8-90c6-777efe255a32","ios":"levelo://app?vid=f5a90625-b7e8-48a8-90c6-777efe255a32"},"vehicle_type_id":"4","last_reported":1748662539,"current_range_meters":18000,"station_id":"","pricing_plan_id":"cebpf4jnsgd1na2vs0mg"},