{"last_updated":1740617257,"ttl":60,"version":"2.2","data":{"bikes":[{"bike_id":"2762f6a9-d1ca-40e0-835c-6af6419e40c1","system_id":"levelo_inurba_marseille","lat":43.27375,"lon":5.36245,"is_reserved":false,"is_disabled":false,"rental_uris":{"android":"levelo://app?vid=2762f6a9-d1ca-40e0-835c-6af6419e40c1","ios":"levelo://app?vid=2762f6a9-d1ca-40e0-835c-6af6419e40c1"},"vehicle_type_id":"4","last_reported":1740617257,"current_range_meters":3200,"station_id":"ce4bhbh2rcd13ifvqeo0","pricing_plan_id":"cebpf4jnsgd1na2vs0mg"},{"bike_id":"d4e59501-2eb8-40c2-90fe-a8c88ef2f0a0","system_id":"levelo_inurba_marseille","lat":43.24651,"lon":5.3891,"is_reserved":false,"is_disabled":false,"rental_uris":{"android":"levelo://app?vid=d4e59501-2eb8-40c2-90fe-a8c88ef2f0a0","ios":"levelo://app?vid=d4e59501-2eb8-40c2-90fe-a8c88ef2f0a0"},"vehicle_type_id":"4","last_reported":1740617257,"current_range_meters":3200,"station_id":"ce4bhg12rcd13ifvqf60","pricing_plan_id":"cebpf4jnsgd1na2vs0mg"},{"bike_id":"349e0b42-9005-4524-ae81-70f682769f76","system_id":"levelo_inurba_marseille","lat":43.23967,"lon":5.3663,"is_reserved":false,"is_disabled":false,"rental_uris":{"android":"levelo://app?vid=349e0b42-9005-4524-ae81-70f682769f76","ios":"levelo://app?vid=349e0b42-9005-4524-ae81-70f682769f76"},"vehicle_type_id":"4","last_reported":1740617257,"current_range_meters":3600,"station_id":"ce4bhi12rcd13ifvqfp0","pricing_plan_id":"cebpf4jnsgd1na2vs0mg"},{"bike_id":"0d58bdd4-45b5-40db-9ced-11725c0c62bd","system_id":"levelo_inurba_marseille","lat":43.32351,"lon":5.40659,"is_reserved":false,"is_disabled":true,"rental_uris":{"android":"levelo://app?vid=0d58bdd4-45b5-40db-9ced-11725c0c62bd","ios":"levelo://app?vid=0d58bdd4-45b5-40db-9ced-11725c0c62bd"},"vehicle_type_id":"4","last_reported":1740617257,"current_range_meters":4000,"station_id":"ce4bhq92rcd13ifvqhjg","pricing_plan_id":"cebpf4jnsgd1na2vs0mg"},{"bike_id":"1f0dcaf3-20ff-45bc-b4ef-8f34cf36e226","system_id":"levelo_inurba_marseille","lat":43.27814,"lon":5.40715,"is_reserved":false,"is_disabled":true,"rental_uris":{"android":"levelo://app?vid=1f0dcaf3-20ff-45bc-b4ef-8f34cf36e226","ios":"levelo://app?vid=1f0dcaf3-20ff-45bc-b4ef-8f34cf36e226"},"vehicle_type_id":"4","last_reported":1740617257,"current_range_meters":3600,"station_id":"ce4bhnh2rcd13ifvqgtg","pricing_plan_id":"cebpf4jnsgd1na2vs0mg"},{"bike_id":"87d69302-a6cb-4094-b9f6-16564c85e522","system_id":"levelo_inurba_marseille","lat":43.25732,"lon":5.41157,"is_reserved":false,"is_disabled":false,"rental_uris":{"android":"levelo://app?vid=87d69302-a6cb-4094-b9f6-16564c85e522","ios":"levelo://app?vid=87d69302-a6cb-4094-b9f6-16564c85e522"},"vehicle_type_id":"4","last_reported":1740617257,"current_range_meters":3600,"station_id":"ce4bhkp2rcd13ifvqgd0","pricing_plan_id":"cebpf4jnsgd1na2vs0mg"},{"bike_id":"8672a90a-3d31-4889-8b34-7f9ccaebc950","system_id":"levelo_inurba_marseille","lat":43.27834,"lon":5.39198,"is_reserved":false,"is_disabled":false,"rental_uris":{"android":"levelo://app?vid=8672a90a-3d31-4889-8b34-7f9ccaebc950","ios":"levelo://app?vid=8672a90a-3d31-4889-8b34-7f9ccaebc950"},"vehicle_type_id":"4","last_reported":1740617257,"current_range_meters":4000,"station_id":"ce4bhjp2rcd13ifvqga0","pricing_plan_id":"cebpf4jnsgd1na2vs0mg"},{"bike_id":"d994a548-52da-4679-a79d-ad393eb206c1","system_id":"levelo_inurba_marseille","lat":43.30899,"lon":5.37193,"is_reserved":false,"is_disabled":false,"rental_uris":{"android":"levelo://app?vid=d994a548-52da-4679-a79d-ad393eb206c1","ios":"levelo://app?vid=d994a548-52da-4679-a79d-ad393eb206c1"},"vehicle_type_id":"4","last_reported":1740617257,"current_range_meters":4400,"station_id":"ce4bguh2rcd13ifvqckg","pricing_plan_id":"cebpf4jnsgd1na2vs0mg"},{"bike_id":"a1879da5-9e75-4549-8cce-fa10e10e4d66","system_id":"levelo_inurba_marseille","lat":43.32347,"lon":5.40734,"is_reserved":false,"is_disabled":false,"rental_uris":{"android":"levelo://app?vid=a1879da5-9e75-4549-8cce-fa10e10e4d66","ios":"levelo://app?vid=a1879da5-9e75-4549-8cce-fa10e10e4d66"},"vehicle_type_id":"4","last_reported":1740617257,"current_range_meters":4800,"station_id":"","pricing_plan_id":"cebpf4jnsgd1na2vs0mg"},{"bike_id":"77d72656-ec37-44f1-ab2b-c05ee9e3e3e9","system_id":"levelo_inurba_marseille","lat":43.29259,"lon":5.37592,"is_reserved":false,"is_disabled":false,"rental_uris":{"android":"levelo://app?vid=77d72656-ec37-44f1-ab2b-c05ee9e3e3e9","ios":"levelo://app?vid=77d72656-ec37-44f1-ab2b-c05ee9e3e3e9"},"vehicle_type_id":"4","last_reported":1740617257,"current_range_meters":4800,"station_id":"ce4bgi12rcd13ifvqb80","pricing_plan_id":"cebpf4jnsgd1na2vs0mg"},{"bike_id":"411b5315-e03f-43f4-b5cd-9f0caf8d3081","system_id":"levelo_inurba_marseille","lat":43.23202,"lon":5.39987,"is_reserved":false,"is_disabled":false,"rental_uris":{"android":"levelo://app?vid=411b5315-e03f-43f4-b5cd-9f0caf8d3081","ios":"levelo://app?vid=411b5315-e03f-43f4-b5cd-9f0caf8d3081"},"vehicle_type_id":"4","last_reported":1740617257,"current_range_meters":4800,"station_id":"ce4bhn12rcd13ifvqgqg","pricing_plan_id":"cebpf4jnsgd1na2vs0mg"},{"bike_id":"7c95904b-ee6c-442a-a902-49c0c9d387e4","system_id":"levelo_inurba_marseille","lat":43.24393,"lon":5.37065,"is_reserved":false,"is_disabled":false,"rental_uris":{"android":"levelo://app?vid=7c95904b-ee6c-442a-a902-49c0c9d387e4","ios":"levelo://app?vid=7c95904b-ee6c-442a-a902-49c0c9d387e4"},"vehicle_type_id":"4","last_reported":1740617257,"current_range_meters":6000,"station_id":"ce4bhhh2rcd13ifvqfk0","pricing_plan_id":"cebpf4jnsgd1na2vs0mg"},{"bike_id":"39c490fa-7a92-47db-bc32-fe7f8b3890e2","system_id":"levelo_inurba_marseille","lat":43.29268,"lon":5.36927,"is_reserved":false,"is_disabled":true,"rental_uris":{"android":"levelo://app?vid=39c490fa-7a92-47db-bc32-fe7f8b3890e2","ios":"levelo://app?vid=39c490fa-7a92-47db-bc32-fe7f8b3890e2"},"vehicle_type_id":"4","last_reported":1740617257,"current_range_meters":5600,"station_id":"ce4bhbp2rcd13ifvqesg","pricing_plan_id":"cebpf4jnsgd1na2vs0mg"},{"bike_id":"0152939c-64b9-4559-94de-037f473d521e","system_id":"levelo_inurba_marseille","lat":43.28486,"lon":5.38416,"is_reserved":false,"is_disabled":false,"rental_uris":{"android":"levelo://app?vid=0152939c-64b9-4559-94de-037f473d521e","ios":"levelo://app?vid=0152939c-64b9-4559-94de-037f473d521e"},"vehicle_type_id":"4","last_reported":1740617257,"current_range_meters":6400,"station_id":"ce4bh512rcd13ifvqe3g","pricing_plan_id":"cebpf4jnsgd1na2vs0mg"},{"bike_id":"70fa00c4-be33-4417-aecc-15176e05bec9","system_id":"levelo_inurba_marseille","lat":43.28423,"lon":5.3593,"is_reserved":false,"is_disabled":false,"rental_uris":{"android":"levelo://app?vid=70fa00c4-be33-4417-aecc-15176e05bec9","ios":"levelo://app?vid=70fa00c4-be33-4417-aecc-15176e05bec9"},"vehicle_type_id":"4","last_reported":1740617257,"current_range_meters":6400,"station_id":"","pricing_plan_id":"cebpf4jnsgd1na2vs0mg"},{"bike_id":"c0b6554e-7220-4db1-a1f7-c2dad5fee0c7","system_id":"levelo_inurba_marseille","lat":43.27985,"lon":5.42879,"is_reserved":false,"is_disabled":false,"rental_uris":{"android":"levelo://app?vid=c0b6554e-7220-4db1-a1f7-c2dad5fee0c7","ios":"levelo://app?vid=c0b6554e-7220-4db1-a1f7-c2dad5fee0c7"},"vehicle_type_id":"4","last_reported":1740617257,"current_range_meters":6800,"station_id":"","pricing_plan_id":"cebpf4jnsgd1na2vs0mg"},{"bike_id":"68db716c-6572-40ea-b079-987ee4623b4d","system_id":"levelo_inurba_marseille","lat":43.26857,"lon":5.4095,"is_reserved":false,"is_disabled":false,"rental_uris":{"android":"levelo://app?vid=68db716c-6572-40ea-b079-987ee4623b4d","ios":"levelo://app?vid=68db716c-6572-40ea-b079-987ee4623b4d"},"vehicle_type_id":"4","last_reported":1740617257,"current_range_meters":6800,"station_id":"","pricing_plan_id":"cebpf4jnsgd1na2vs0mg"},{"bike_id":"e80aada6-8a51-4d84-89a9-f7834d4683b3","system_id":"levelo_inurba_marseille","lat":43.28176,"lon":5.42676,"is_reserved":false,"is_disabled":false,"rental_uris":{"android":"levelo://app?vid=e80aada6-8a51-4d84-89a9-f7834d4683b3","ios":"levelo://app?vid=e80aada6-8a51-4d84-89a9-f7834d4683b3"},"vehicle_type_id":"4","last_reported":1740617257,"current_range_meters":6800,"station_id":"ce4bhnh2rcd13ifvqgug","pricing_plan_id":"cebpf4jnsgd1na2vs0mg"},{"bike_id":"8fd60274-18f6-4cca-a69d-72c895a225ba","system_id":"levelo_inurba_marseille","lat":43.30306,"lon":5.3688,"is_reserved":false,"is_disabled":false,"rental_uris":{"android":"levelo://app?vid=8fd60274-18f6-4cca-a69d-72c895a225ba","ios":"levelo://app?vid=8fd60274-18f6-4cca-a69d-72c895a225ba"},"vehicle_type_id":"4","last_reported":1740617257,"current_range_meters":7200,"station_id":"ce4bgqh2rcd13ifvqc5g","pricing_plan_id":"cebpf4jnsgd1na2vs0mg"},{"bike_id":"64d1dcdb-2974-4aea-a074-f7aa761c6db6","system_id":"levelo_inurba_marseille","lat":43.250923,"lon":5.410648,"is_reserved":false,"is_disabled":false,"rental_uris":{"android":"levelo://app?vid=64d1dcdb-2974-4aea-a074-f7aa761c6db6","ios":"levelo://app?vid=64d1dcdb-2974-4aea-a074-f7aa761c6db6"},"vehicle_type_id":"4","last_reported":1740617257,"current_range_meters":7200,"station_id":"","pricing_plan_id":"cebpf4jnsgd1na2vs0mg"},{"bike_id":"43999b17-82a3-4776-9265-eb44ae135068","system_id":"levelo_inurba_marseille","lat":43.30873,"lon":5.39657,"is_reserved":false,"is_disabled":false,"rental_uris":{"android":"levelo://app?vid=43999b17-82a3-4776-9265-eb44ae135068","ios":"levelo://app?vid=43999b17-82a3-4776-9265-eb44ae135068"},"vehicle_type_id":"4","last_reported":1740617257,"current_range_meters":7200,"station_id":"ce4bh012rcd13ifvqcv0","pricing_plan_id":"cebpf4jnsgd1na2vs0mg"},{"bike_id":"8a62c3a8-af16-4093-898f-393ba99441e2","system_id":"levelo_inurba_marseille","lat":43.32338,"lon":5.40625,"is_reserved":false,"is_disabled":false,"rental_uris":{"android":"levelo://app?vid=8a62c3a8-af16-4093-898f-393ba99441e2","ios":"levelo://app?vid=8a62c3a8-af16-4093-898f-393ba99441e2"},"vehicle_type_id":"4","last_reported":1740617257,"current_range_meters":7200,"station_id":"ce4bhq92rcd13ifvqhjg","pricing_plan_id":"cebpf4jnsgd1na2vs0mg"},{"bike_id":"5c47d4c3-83ff-4b25-91fb-a87385c61f6a","system_id":"levelo_inurba_marseille","lat":43.3171,"lon":5.43711,"is_reserved":false,"is_disabled":false,"rental_uris":{"android":"levelo://app?vid=5c47d4c3-83ff-4b25-91fb-a87385c61f6a","ios":"levelo://app?vid=5c47d4c3-83ff-4b25-91fb-a87385c61f6a"},"vehicle_type_id":"4","last_reported":1740617257,"current_range_meters":7200,"station_id":"ce4bhp92rcd13ifvqhcg","pricing_plan_id":"cebpf4jnsgd1na2vs0mg"},{"bike_id":"f6813c06-f9b0-4ea0-8933-3b79fafc0f60","system_id":"levelo_inurba_marseille","lat":43.28407,"lon":5.37506,"is_reserved":false,"is_disabled":false,"rental_uris":{"android":"levelo://app?vid=f6813c06-f9b0-4ea0-8933-3b79fafc0f60","ios":"levelo://app?vid=f6813c06-f9b0-4ea0-8933-3b79fafc0f60"},"vehicle_type_id":"4","last_reported":1740617257,"current_range_meters":7200,"station_id":"ce4bh412rcd13ifvqds0","pricing_plan_id":"cebpf4jnsgd1na2vs0mg"},{"bike_id":"a1acd469-ea0b-4bc3-84a0-e0764b2b9b3f","system_id":"levelo_inurba_marseille","lat":43.31685,"lon":5.40476,"is_reserved":false,"is_disabled":false,"rental_uris":{"android":"levelo://app?vid=a1acd469-ea0b-4bc3-84a0-e0764b2b9b3f","ios":"levelo://app?vid=a1acd469-ea0b-4bc3-84a0-e0764b2b9b3f"},"vehicle_type_id":"4","last_reported":1740617257,"current_range_meters":7200,"station_id":"ce4bh012rcd13ifvqd00","pricing_plan_id":"cebpf4jnsgd1na2vs0mg"},{"bike_id":"80d17f27-9cb7-4958-bc84-6012f4c67bf9","system_id":"levelo_inurba_marseille","lat":43.30882,"lon":5.39627,"is_reserved":false,"is_disabled":false,"rental_uris":{"android":"levelo://app?vid=80d17f27-9cb7-4958-bc84-6012f4c67bf9","ios":"levelo://app?vid=80d17f27-9cb7-4958-bc84-6012f4c67bf9"},"vehicle_type_id":"4","last_reported":1740617257,"current_range_meters":7200,"station_id":"ce4bh012rcd13ifvqcv0","pricing_plan_id":"cebpf4jnsgd1na2vs0mg"},{"bike_id":"7fb662b6-672f-4516-98b2-7764b86a3ad5","system_id":"levelo_inurba_marseille","lat":43.30927,"lon":5.40143,"is_reserved":false,"is_disabled":false,"rental_uris":{"android":"levelo://app?vid=7fb662b6-672f-4516-98b2-7764b86a3ad5","ios":"levelo://app?vid=7fb662b6-672f-4516-98b2-7764b86a3ad5"},"vehicle_type_id":"4","last_reported":1740617257,"current_range_meters":7200,"station_id":"ce4bgvp2rcd13ifvqct0","pricing_plan_id":"cebpf4jnsgd1na2vs0mg"},{"bike_id":"cfda1dd5-ba16-49f4-89bf-360c24b2268a","system_id":"levelo_inurba_marseille","lat":43.27815,"lon":5.40697,"is_reserved":false,"is_disabled":false,"rental_uris":{"android":"levelo://app?vid=cfda1dd5-ba16-49f4-89bf-360c24b2268a","ios":"levelo://app?vid=cfda1dd5-ba16-49f4-89bf-360c24b2268a"},"vehicle_type_id":"4","last_reported":1740617257,"current_range_meters":7200,"station_id":"ce4bhnh2rcd13ifvqgtg","pricing_plan_id":"cebpf4jnsgd1na2vs0mg"},{"bike_id":"8f4f5c61-91cc-4fd5-85ad-d5b23eff483d","system_id":"levelo_inurba_marseille","lat":43.2976,"lon":5.36276,"is_reserved":false,"is_disabled":false,"rental_uris":{"android":"levelo://app?vid=8f4f5c61-91cc-4fd5-85ad-d5b23eff483d","ios":"levelo://app?vid=8f4f5c61-91cc-4fd5-85ad-d5b23eff483d"},"vehicle_type_id":"4","last_reported":1740617257,"current_range_meters":7200,"station_id":"","pricing_plan_id":"cebpf4jnsgd1na2vs0mg"},{"bike_id":"37e99989-7bc5-4327-b075-6f578166a871","system_id":"levelo_inurba_marseille","lat":43.31321,"lon":5.39701,"is_reserved":false,"is_disabled":false,"rental_uris":{"android":"levelo://app?vid=37e99989-7bc5-4327-b075-6f578166a871","ios":"levelo://app?vid=37e99989-7bc5-4327-b075-6f578166a871"},"vehicle_type_id":"4","last_reported":1740617257,"current_range_meters":7200,"station_id":"ce4bgvp2rcd13ifvqcu0","pricing_plan_id":"cebpf4jnsgd1na2vs0mg"},{"bike_id":"1198830a-4bc0-41b7-a198-738969d14d31","system_id":"levelo_inurba_marseille","lat":43.28346,"lon":5.38104,"is_reserved":false,"is_disabled":false,"rental_uris":{"android":"levelo://app?vid=1198830a-4bc0-41b7-a198-738969d14d31","ios":"levelo://app?vid=1198830a-4bc0-41b7-a198-738969d14d31"},"vehicle_type_id":"4","last_reported":1740617257,"current_range_meters":7200,"station_id":"ce4bh412rcd13ifvqdr0","pricing_plan_id":"cebpf4jnsgd1na2vs0mg"},{"bike_id":"fd749d3e-13c0-4845-9576-ccfbc237ffe0","system_id":"levelo_inurba_marseille","lat":43.28252,"lon":5.35069,"is_reserved":false,"is_disabled":false,"rental_uris":{"android":"levelo://app?vid=fd749d3e-13c0-4845-9576-ccfbc237ffe0","ios":"levelo://app?vid=fd749d3e-13c0-4845-9576-ccfbc237ffe0"},"vehicle_type_id":"4","last_reported":1740617257,"current_range_meters":8000,"station_id":"ce4bhbp2rcd13ifvqerg","pricing_plan_id":"cebpf4jnsgd1na2vs0mg"},{"bike_id":"939c031e-684f-4a3f-8b91-979871392d85","system_id":"levelo_inurba_marseille","lat":43.30876,"lon":5.39652,"is_reserved":false,"is_disabled":false,"rental_uris":{"android":"levelo://app?vid=939c031e-684f-4a3f-8b91-979871392d85","ios":"levelo://app?vid=939c031e-684f-4a3f-8b91-979871392d85"},"vehicle_type_id":"4","last_reported":1740617257,"current_range_meters":8000,"station_id":"ce4bh012rcd13ifvqcv0","pricing_plan_id":"cebpf4jnsgd1na2vs0mg"},{"bike_id":"53914ffc-6b08-4729-98b4-45f38748e67e","system_id":"levelo_inurba_marseille","lat":43.29028,"lon":5.35925,"is_reserved":false,"is_disabled":false,"rental_uris":{"android":"levelo://app?vid=53914ffc-6b08-4729-98b4-45f38748e67e","ios":"levelo://app?vid=53914ffc-6b08-4729-98b4-45f38748e67e"},"vehicle_type_id":"4","last_reported":1740617257,"current_range_meters":8000,"station_id":"ce4bha92rcd13ifvqeg0","pricing_plan_id":"cebpf4jnsgd1na2vs0mg"},{"bike_id":"c0a6bbb1-9712-4c47-a251-04375f994fff","system_id":"levelo_inurba_marseille","lat":43.24379,"lon":5.37066,"is_reserved":false,"is_disabled":false,"rental_uris":{"android":"levelo://app?vid=c0a6bbb1-9712-4c47-a251-04375f994fff","ios":"levelo://app?vid=c0a6bbb1-9712-4c47-a251-04375f994fff"},"vehicle_type_id":"4","last_reported":1740617257,"current_range_meters":8000,"station_id":"ce4bhhh2rcd13ifvqfk0","pricing_plan_id":"cebpf4jnsgd1na2vs0mg"},{"bike_id":"a18d2462-6430-4fa5-8ce7-637ac348b4cd","system_id":"levelo_inurba_marseille","lat":43.27956,"lon":5.41037,"is_reserved":false,"is_disabled":false,"rental_uris":{"android":"levelo://app?vid=a18d2462-6430-4fa5-8ce7-637ac348b4cd","ios":"levelo://app?vid=a18d2462-6430-4fa5-8ce7-637ac348b4cd"},"vehicle_type_id":"4","last_reported":1740617257,"current_range_meters":8000,"station_id":"ce4bhnp2rcd13ifvqh0g","pricing_plan_id":"cebpf4jnsgd1na2vs0mg"},{"bike_id":"749b8865-8421-4153-8fd1-9d77ec509272","system_id":"levelo_inurba_marseille","lat":43.28805,"lon":5.36339,"is_reserved":false,"is_disabled":false,"rental_uris":{"android":"levelo://app?vid=749b8865-8421-4153-8fd1-9d77ec509272","ios":"levelo://app?vid=749b8865-8421-4153-8fd1-9d77ec509272"},"vehicle_type_id":"4","last_reported":1740617257,"current_range_meters":8000,"station_id":"","pricing_plan_id":"cebpf4jnsgd1na2vs0mg"},{"bike_id":"26d1edd1-2a52-428c-b2a6-7dd75e71037c","system_id":"levelo_inurba_marseille","lat":43.28619,"lon":5.35113,"is_reserved":false,"is_disabled":false,"rental_uris":{"android":"levelo://app?vid=26d1edd1-2a52-428c-b2a6-7dd75e71037c","ios":"levelo://app?vid=26d1edd1-2a52-428c-b2a6-7dd75e71037c"},"vehicle_type_id":"4","last_reported":1740617257,"current_range_meters":8400,"station_id":"ce4bhch2rcd13ifvqeug","pricing_plan_id":"cebpf4jnsgd1na2vs0mg"},{"bike_id":"86a4855b-877a-422a-9b6c-2eb9bbcb6b80","system_id":"levelo_inurba_marseille","lat":43.28217,"lon":5.39075,"is_reserved":false,"is_disabled":false,"rental_uris":{"android":"levelo://app?vid=86a4855b-877a-422a-9b6c-2eb9bbcb6b80","ios":"levelo://app?vid=86a4855b-877a-422a-9b6c-2eb9bbcb6b80"},"vehicle_type_id":"4","last_reported":1740617257,"current_range_meters":8400,"station_id":"","pricing_plan_id":"cebpf4jnsgd1na2vs0mg"},{"bike_id":"1b6bae6d-00eb-4e15-87b1-b0be3094e338","system_id":"levelo_inurba_marseille","lat":43.30883,"lon":5.39644,"is_reserved":false,"is_disabled":false,"rental_uris":{"android":"levelo://app?vid=1b6bae6d-00eb-4e15-87b1-b0be3094e338","ios":"levelo://app?vid=1b6bae6d-00eb-4e15-87b1-b0be3094e338"},"vehicle_type_id":"4","last_reported":1740617257,"current_range_meters":8400,"station_id":"ce4bh012rcd13ifvqcv0","pricing_plan_id":"cebpf4jnsgd1na2vs0mg"},{"bike_id":"6b286004-f086-4023-9675-02a95f8e917b","system_id":"levelo_inurba_marseille","lat":43.30951,"lon":5.39035,"is_reserved":false,"is_disabled":true,"rental_uris":{"android":"levelo://app?vid=6b286004-f086-4023-9675-02a95f8e917b","ios":"levelo://app?vid=6b286004-f086-4023-9675-02a95f8e917b"},"vehicle_type_id":"4","last_reported":1740617257,"current_range_meters":8400,"station_id":"ce4bgup2rcd13ifvqco0","pricing_plan_id":"cebpf4jnsgd1na2vs0mg"},{"bike_id":"cc5b8803-1413-4f2d-912e-42c063433ae4","system_id":"levelo_inurba_marseille","lat":43.321063,"lon":5.367705,"is_reserved":false,"is_disabled":false,"rental_uris":{"android":"levelo://app?vid=cc5b8803-1413-4f2d-912e-42c063433ae4","ios":"levelo://app?vid=cc5b8803-1413-4f2d-912e-42c063433ae4"},"vehicle_type_id":"4","last_reported":1740617257,"current_range_meters":8800,"station_id":"ce4bhrh2rcd13ifvqhug","pricing_plan_id":"cebpf4jnsgd1na2vs0mg"},{"bike_id":"aee583d7-55ec-44bc-9acf-d8d4998772b4","system_id":"levelo_inurba_marseille","lat":43.30648,"lon":5.400863,"is_reserved":false,"is_disabled":false,"rental_uris":{"android":"levelo://app?vid=aee583d7-55ec-44bc-9acf-d8d4998772b4","ios":"levelo://app?vid=aee583d7-55ec-44bc-9acf-d8d4998772b4"},"vehicle_type_id":"4","last_reported":1740617257,"current_range_meters":8400,"station_id":"ce4bh112rcd13ifvqda0","pricing_plan_id":"cebpf4jnsgd1na2vs0mg"},{"bike_id":"719baaea-c293-42a3-a0f8-1e9953de7b58","system_id":"levelo_inurba_marseille","lat":43.26535,"lon":5.39014,"is_reserved":false,"is_disabled":true,"rental_uris":{"android":"levelo://app?vid=719baaea-c293-42a3-a0f8-1e9953de7b58","ios":"levelo://app?vid=719baaea-c293-42a3-a0f8-1e9953de7b58"},"vehicle_type_id":"4","last_reported":1740617257,"current_range_meters":8800,"station_id":"ce4bhe12rcd13ifvqf30","pricing_plan_id":"cebpf4jnsgd1na2vs0mg"},{"bike_id":"e7e7027c-2ea3-4f62-b0fe-1687b5820395","system_id":"levelo_inurba_marseille","lat":43.28463,"lon":5.35896,"is_reserved":false,"is_disabled":false,"rental_uris":{"android":"levelo://app?vid=e7e7027c-2ea3-4f62-b0fe-1687b5820395","ios":"levelo://app?vid=e7e7027c-2ea3-4f62-b0fe-1687b5820395"},"vehicle_type_id":"4","last_reported":1740617257,"current_range_meters":8400,"station_id":"ce4bhah2rcd13ifvqei0","pricing_plan_id":"cebpf4jnsgd1na2vs0mg"},{"bike_id":"954ce63b-1d42-4ba1-9eb0-83c6377ed1bd","system_id":"levelo_inurba_marseille","lat":43.30637,"lon":5.40113,"is_reserved":false,"is_disabled":false,"rental_uris":{"android":"levelo://app?vid=954ce63b-1d42-4ba1-9eb0-83c6377ed1bd","ios":"levelo://app?vid=954ce63b-1d42-4ba1-9eb0-83c6377ed1bd"},"vehicle_type_id":"4","last_reported":1740617257,"current_range_meters":9200,"station_id":"ce4bh112rcd13ifvqda0","pricing_plan_id":"cebpf4jnsgd1na2vs0mg"},{"bike_id":"2936fc2e-f08a-4467-a6fa-e5f80105c9ff","system_id":"levelo_inurba_marseille","lat":43.30936,"lon":5.4014,"is_reserved":false,"is_disabled":false,"rental_uris":{"android":"levelo://app?vid=2936fc2e-f08a-4467-a6fa-e5f80105c9ff","ios":"levelo://app?vid=2936fc2e-f08a-4467-a6fa-e5f80105c9ff"},"vehicle_type_id":"4","last_reported":1740617257,"current_range_meters":8800,"station_id":"ce4bgvp2rcd13ifvqct0","pricing_plan_id":"cebpf4jnsgd1na2vs0mg"},{"bike_id":"b007f058-4163-4bbe-ba13-50835769bd43","system_id":"levelo_inurba_marseille","lat":43.31709,"lon":5.43727,"is_reserved":false,"is_disabled":false,"rental_uris":{"android":"levelo://app?vid=b007f058-4163-4bbe-ba13-50835769bd43","ios":"levelo://app?vid=b007f058-4163-4bbe-ba13-50835769bd43"},"vehicle_type_id":"4","last_reported":1740617257,"current_range_meters":8800,"station_id":"ce4bhp92rcd13ifvqhcg","pricing_plan_id":"cebpf4jnsgd1na2vs0mg"},{"bike_id":"cc0f0a33-8776-49b0-b177-6d3fba0c78fd","system_id":"levelo_inurba_marseille","lat":43.31322,"lon":5.39695,"is_reserved":false,"is_disabled":false,"rental_uris":{"android":"levelo://app?vid=cc0f0a33-8776-49b0-b177-6d3fba0c78fd","ios":"levelo://app?vid=cc0f0a33-8776-49b0-b177-6d3fba0c78fd"},"vehicle_type_id":"4","last_reported":1740617257,"current_range_meters":9200,"station_id":"ce4bgvp2rcd13ifvqcu0","pricing_plan_id":"cebpf4jnsgd1na2vs0mg"},{"bike_id":"dcd80a22-e800-4451-a189-91c6cd4acc2b","system_id":"levelo_inurba_marseille","lat":43.29538,"lon":5.392279,"is_reserved":false,"is_disabled":false,"rental_uris":{"android":"levelo://app?vid=dcd80a22-e800-4451-a189-91c6cd4acc2b","ios":"levelo://app?vid=dcd80a22-e800-4451-a189-91c6cd4acc2b"},"vehicle_type_id":"4","last_reported":1740617257,"current_range_meters":9200,"station_id":"ce4bh612rcd13ifvqe6g","pricing_plan_id":"cebpf4jnsgd1na2vs0mg"},{"bike_id":"87a40b99-5031-41bd-96e7-028ffd824781","system_id":"levelo_inurba_marseille","lat":43.31082,"lon":5.42428,"is_reserved":false,"is_disabled":false,"rental_uris":{"android":"levelo://app?vid=87a40b99-5031-41bd-96e7-028ffd824781","ios":"levelo://app?vid=87a40b99-5031-41bd-96e7-028ffd824781"},"vehicle_type_id":"4","last_reported":1740617257,"current_range_meters":9200,"station_id":"ce4bhp92rcd13ifvqhag","pricing_plan_id":"cebpf4jnsgd1na2vs0mg"},{"bike_id":"1e37517c-7c13-497e-93a6-2c0209fd3d04","system_id":"levelo_inurba_marseille","lat":43.28611,"lon":5.35097,"is_reserved":false,"is_disabled":false,"rental_uris":{"android":"levelo://app?vid=1e37517c-7c13-497e-93a6-2c0209fd3d04","ios":"levelo://app?vid=1e37517c-7c13-497e-93a6-2c0209fd3d04"},"vehicle_type_id":"4","last_reported":1740617257,"current_range_meters":9200,"station_id":"ce4bhch2rcd13ifvqeug","pricing_plan_id":"cebpf4jnsgd1na2vs0mg"},{"bike_id":"1d70c622-10e8-4a33-8612-a7dc67991c51","system_id":"levelo_inurba_marseille","lat":43.31724,"lon":5.37735,"is_reserved":false,"is_disabled":false,"rental_uris":{"android":"levelo://app?vid=1d70c622-10e8-4a33-8612-a7dc67991c51","ios":"levelo://app?vid=1d70c622-10e8-4a33-8612-a7dc67991c51"},"vehicle_type_id":"4","last_reported":1740617257,"current_range_meters":9200,"station_id":"ce4bgth2rcd13ifvqch0","pricing_plan_id":"cebpf4jnsgd1na2vs0mg"},{"bike_id":"52a02ec7-8e0c-4781-ae9b-a63b7edaabaf","system_id":"levelo_inurba_marseille","lat":43.28268,"lon":5.35069,"is_reserved":false,"is_disabled":false,"rental_uris":{"android":"levelo://app?vid=52a02ec7-8e0c-4781-ae9b-a63b7edaabaf","ios":"levelo://app?vid=52a02ec7-8e0c-4781-ae9b-a63b7edaabaf"},"vehicle_type_id":"4","last_reported":1740617257,"current_range_meters":9200,"station_id":"ce4bhbp2rcd13ifvqerg","pricing_plan_id":"cebpf4jnsgd1na2vs0mg"},{"bike_id":"284a0e7b-046c-4a6a-972f-6192daeb9a55","system_id":"levelo_inurba_marseille","lat":43.29511,"lon":5.39412,"is_reserved":false,"is_disabled":true,"rental_uris":{"android":"levelo://app?vid=284a0e7b-046c-4a6a-972f-6192daeb9a55","ios":"levelo://app?vid=284a0e7b-046c-4a6a-972f-6192daeb9a55"},"vehicle_type_id":"4","last_reported":1740617257,"current_range_meters":9200,"station_id":"ce4bh292rcd13ifvqdf0","pricing_plan_id":"cebpf4jnsgd1na2vs0mg"},{"bike_id":"6abc9bbb-7858-4f53-b665-ac4af517c97a","system_id":"levelo_inurba_marseille","lat":43.29255,"lon":5.40896,"is_reserved":false,"is_disabled":false,"rental_uris":{"android":"levelo://app?vid=6abc9bbb-7858-4f53-b665-ac4af517c97a","ios":"levelo://app?vid=6abc9bbb-7858-4f53-b665-ac4af517c97a"},"vehicle_type_id":"4","last_reported":1740617257,"current_range_meters":9600,"station_id":"ce4bh192rcd13ifvqdc0","pricing_plan_id":"cebpf4jnsgd1na2vs0mg"},{"bike_id":"128d9f19-560e-4907-b2b5-99db2fe70c71","system_id":"levelo_inurba_marseille","lat":43.306466,"lon":5.400758,"is_reserved":false,"is_disabled":false,"rental_uris":{"android":"levelo://app?vid=128d9f19-560e-4907-b2b5-99db2fe70c71","ios":"levelo://app?vid=128d9f19-560e-4907-b2b5-99db2fe70c71"},"vehicle_type_id":"4","last_reported":1740617257,"current_range_meters":9600,"station_id":"ce4bh112rcd13ifvqda0","pricing_plan_id":"cebpf4jnsgd1na2vs0mg"},{"bike_id":"4f3f907a-df9a-43a9-8fc2-8fe60a8fbdb0","system_id":"levelo_inurba_marseille","lat":43.2901,"lon":5.40111,"is_reserved":false,"is_disabled":false,"rental_uris":{"android":"levelo://app?vid=4f3f907a-df9a-43a9-8fc2-8fe60a8fbdb0","ios":"levelo://app?vid=4f3f907a-df9a-43a9-8fc2-8fe60a8fbdb0"},"vehicle_type_id":"4","last_reported":1740617257,"current_range_meters":9600,"station_id":"ce4bh392rcd13ifvqdm0","pricing_plan_id":"cebpf4jnsgd1na2vs0mg"},{"bike_id":"22cc966a-4114-4778-9335-cdca6ce2c02e","system_id":"levelo_inurba_marseille","lat":43.32435,"lon":5.38918,"is_reserved":false,"is_disabled":false,"rental_uris":{"android":"levelo://app?vid=22cc966a-4114-4778-9335-cdca6ce2c02e","ios":"levelo://app?vid=22cc966a-4114-4778-9335-cdca6ce2c02e"},"vehicle_type_id":"4","last_reported":1740617257,"current_range_meters":9600,"station_id":"ce4bhqp2rcd13ifvqhog","pricing_plan_id":"cebpf4jnsgd1na2vs0mg"},{"bike_id":"e90f9a9d-da84-4c53-93a5-0a079a276e05","system_id":"levelo_inurba_marseille","lat":43.29791,"lon":5.39333,"is_reserved":false,"is_disabled":false,"rental_uris":{"android":"levelo://app?vid=e90f9a9d-da84-4c53-93a5-0a079a276e05","ios":"levelo://app?vid=e90f9a9d-da84-4c53-93a5-0a079a276e05"},"vehicle_type_id":"4","last_reported":1740617257,"current_range_meters":9200,"station_id":"chh1huq6cuj3fo74tm60","pricing_plan_id":"cebpf4jnsgd1na2vs0mg"},{"bike_id":"1690cf1f-489e-42fe-b2b4-7448c418d56d","system_id":"levelo_inurba_marseille","lat":43.32002,"lon":5.38148,"is_reserved":false,"is_disabled":false,"rental_uris":{"android":"levelo://app?vid=1690cf1f-489e-42fe-b2b4-7448c418d56d","ios":"levelo://app?vid=1690cf1f-489e-42fe-b2b4-7448c418d56d"},"vehicle_type_id":"4","last_reported":1740617257,"current_range_meters":9600,"station_id":"ce4bhr12rcd13ifvqhpg","pricing_plan_id":"cebpf4jnsgd1na2vs0mg"},{"bike_id":"53f6206c-2750-42e7-a8f3-9533b6f35c4a","system_id":"levelo_inurba_marseille","lat":43.28608,"lon":5.35102,"is_reserved":false,"is_disabled":false,"rental_uris":{"android":"levelo://app?vid=53f6206c-2750-42e7-a8f3-9533b6f35c4a","ios":"levelo://app?vid=53f6206c-2750-42e7-a8f3-9533b6f35c4a"},"vehicle_type_id":"4","last_reported":1740617257,"current_range_meters":9600,"station_id":"ce4bhch2rcd13ifvqeug","pricing_plan_id":"cebpf4jnsgd1na2vs0mg"},{"bike_id":"9f4ebea0-1844-4cd6-b15a-4bdeb3ff54e9","system_id":"levelo_inurba_marseille","lat":43.29862,"lon":5.38914,"is_reserved":false,"is_disabled":true,"rental_uris":{"android":"levelo://app?vid=9f4ebea0-1844-4cd6-b15a-4bdeb3ff54e9","ios":"levelo://app?vid=9f4ebea0-1844-4cd6-b15a-4bdeb3ff54e9"},"vehicle_type_id":"4","last_reported":1740617257,"current_range_meters":10000,"station_id":"ce4bh392rcd13ifvqdl0","pricing_plan_id":"cebpf4jnsgd1na2vs0mg"},{"bike_id":"2da828eb-ceb1-490f-ba6e-6557a2f25d6b","system_id":"levelo_inurba_marseille","lat":43.25585,"lon":5.38231,"is_reserved":false,"is_disabled":false,"rental_uris":{"android":"levelo://app?vid=2da828eb-ceb1-490f-ba6e-6557a2f25d6b","ios":"levelo://app?vid=2da828eb-ceb1-490f-ba6e-6557a2f25d6b"},"vehicle_type_id":"4","last_reported":1740617257,"current_range_meters":10000,"station_id":"ce4bhih2rcd13ifvqfs0","pricing_plan_id":"cebpf4jnsgd1na2vs0mg"},{"bike_id":"5c69ca05-7670-443c-8ece-5e8b903a3514","system_id":"levelo_inurba_marseille","lat":43.30797,"lon":5.3765,"is_reserved":false,"is_disabled":false,"rental_uris":{"android":"levelo://app?vid=5c69ca05-7670-443c-8ece-5e8b903a3514","ios":"levelo://app?vid=5c69ca05-7670-443c-8ece-5e8b903a3514"},"vehicle_type_id":"4","last_reported":1740617257,"current_range_meters":10000,"station_id":"ce4bgv92rcd13ifvqcq0","pricing_plan_id":"cebpf4jnsgd1na2vs0mg"},{"bike_id":"9721a8d2-5ed5-4c5c-8f41-41104e93930e","system_id":"levelo_inurba_marseille","lat":43.27958,"lon":5.3872,"is_reserved":false,"is_disabled":false,"rental_uris":{"android":"levelo://app?vid=9721a8d2-5ed5-4c5c-8f41-41104e93930e","ios":"levelo://app?vid=9721a8d2-5ed5-4c5c-8f41-41104e93930e"},"vehicle_type_id":"4","last_reported":1740617257,"current_range_meters":10000,"station_id":"ce4bhg12rcd13ifvqf80","pricing_plan_id":"cebpf4jnsgd1na2vs0mg"},{"bike_id":"8499335b-1f69-46ce-b2b8-b33648ef3191","system_id":"levelo_inurba_marseille","lat":43.30873,"lon":5.39628,"is_reserved":false,"is_disabled":false,"rental_uris":{"android":"levelo://app?vid=8499335b-1f69-46ce-b2b8-b33648ef3191","ios":"levelo://app?vid=8499335b-1f69-46ce-b2b8-b33648ef3191"},"vehicle_type_id":"4","last_reported":1740617257,"current_range_meters":11200,"station_id":"ce4bh012rcd13ifvqcv0","pricing_plan_id":"cebpf4jnsgd1na2vs0mg"},{"bike_id":"240631fb-e1ef-49c9-bf78-176ba3465e14","system_id":"levelo_inurba_marseille","lat":43.28847,"lon":5.35858,"is_reserved":false,"is_disabled":false,"rental_uris":{"android":"levelo://app?vid=240631fb-e1ef-49c9-bf78-176ba3465e14","ios":"levelo://app?vid=240631fb-e1ef-49c9-bf78-176ba3465e14"},"vehicle_type_id":"4","last_reported":1740617257,"current_range_meters":10800,"station_id":"ce4bhb12rcd13ifvqem0","pricing_plan_id":"cebpf4jnsgd1na2vs0mg"},{"bike_id":"dd88527c-397a-4ed6-9011-4f72ef02a408","system_id":"levelo_inurba_marseille","lat":43.30696,"lon":5.40657,"is_reserved":false,"is_disabled":false,"rental_uris":{"android":"levelo://app?vid=dd88527c-397a-4ed6-9011-4f72ef02a408","ios":"levelo://app?vid=dd88527c-397a-4ed6-9011-4f72ef02a408"},"vehicle_type_id":"4","last_reported":1740617257,"current_range_meters":10800,"station_id":"","pricing_plan_id":"cebpf4jnsgd1na2vs0mg"},{"bike_id":"07231509-f031-44bd-a024-8b5dd56e800b","system_id":"levelo_inurba_marseille","lat":43.316685,"lon":5.396125,"is_reserved":false,"is_disabled":false,"rental_uris":{"android":"levelo://app?vid=07231509-f031-44bd-a024-8b5dd56e800b","ios":"levelo://app?vid=07231509-f031-44bd-a024-8b5dd56e800b"},"vehicle_type_id":"4","last_reported":1740617257,"current_range_meters":10800,"station_id":"","pricing_plan_id":"cebpf4jnsgd1na2vs0mg"},{"bike_id":"297e0534-dfe8-437f-a8cf-46f8f61d5eef","system_id":"levelo_inurba_marseille","lat":43.27945,"lon":5.41052,"is_reserved":false,"is_disabled":false,"rental_uris":{"android":"levelo://app?vid=297e0534-dfe8-437f-a8cf-46f8f61d5eef","ios":"levelo://app?vid=297e0534-dfe8-437f-a8cf-46f8f61d5eef"},"vehicle_type_id":"4","last_reported":1740617257,"current_range_meters":10800,"station_id":"ce4bhnp2rcd13ifvqh0g","pricing_plan_id":"cebpf4jnsgd1na2vs0mg"},{"bike_id":"1d603e55-5939-499f-95ae-55d30c9c2364","system_id":"levelo_inurba_marseille","lat":43.28148,"lon":5.42639,"is_reserved":false,"is_disabled":false,"rental_uris":{"android":"levelo://app?vid=1d603e55-5939-499f-95ae-55d30c9c2364","ios":"levelo://app?vid=1d603e55-5939-499f-95ae-55d30c9c2364"},"vehicle_type_id":"4","last_reported":1740617257,"current_range_meters":10800,"station_id":"ce4bhnh2rcd13ifvqgug","pricing_plan_id":"cebpf4jnsgd1na2vs0mg"},{"bike_id":"ad9571bc-5194-4f71-90ef-f1cb0835f36e","system_id":"levelo_inurba_marseille","lat":43.25495,"lon":5.37658,"is_reserved":false,"is_disabled":false,"rental_uris":{"android":"levelo://app?vid=ad9571bc-5194-4f71-90ef-f1cb0835f36e","ios":"levelo://app?vid=ad9571bc-5194-4f71-90ef-f1cb0835f36e"},"vehicle_type_id":"4","last_reported":1740617257,"current_range_meters":10800,"station_id":"ce4bhh12rcd13ifvqff0","pricing_plan_id":"cebpf4jnsgd1na2vs0mg"},{"bike_id":"a425e775-b361-4ab4-93f9-fa2ea28a8286","system_id":"levelo_inurba_marseille","lat":43.32476,"lon":5.36565,"is_reserved":false,"is_disabled":false,"rental_uris":{"android":"levelo://app?vid=a425e775-b361-4ab4-93f9-fa2ea28a8286","ios":"levelo://app?vid=a425e775-b361-4ab4-93f9-fa2ea28a8286"},"vehicle_type_id":"4","last_reported":1740617257,"current_range_meters":10800,"station_id":"ce4bhs12rcd13ifvqhvg","pricing_plan_id":"cebpf4jnsgd1na2vs0mg"},{"bike_id":"7b33f413-8f08-43ef-9261-24eef4ff1549","system_id":"levelo_inurba_marseille","lat":43.2396,"lon":5.3664,"is_reserved":false,"is_disabled":false,"rental_uris":{"android":"levelo://app?vid=7b33f413-8f08-43ef-9261-24eef4ff1549","ios":"levelo://app?vid=7b33f413-8f08-43ef-9261-24eef4ff1549"},"vehicle_type_id":"4","last_reported":1740617257,"current_range_meters":10800,"station_id":"ce4bhi12rcd13ifvqfp0","pricing_plan_id":"cebpf4jnsgd1na2vs0mg"},{"bike_id":"f8f1be42-5e6b-4e88-9eda-4294491ed5a7","system_id":"levelo_inurba_marseille","lat":43.28459,"lon":5.35899,"is_reserved":false,"is_disabled":false,"rental_uris":{"android":"levelo://app?vid=f8f1be42-5e6b-4e88-9eda-4294491ed5a7","ios":"levelo://app?vid=f8f1be42-5e6b-4e88-9eda-4294491ed5a7"},"vehicle_type_id":"4","last_reported":1740617257,"current_range_meters":10800,"station_id":"ce4bhah2rcd13ifvqei0","pricing_plan_id":"cebpf4jnsgd1na2vs0mg"},{"bike_id":"741f2886-00db-4229-8ef7-9571d6d6537d","system_id":"levelo_inurba_marseille","lat":43.280765,"lon":5.396505,"is_reserved":false,"is_disabled":false,"rental_uris":{"android":"levelo://app?vid=741f2886-00db-4229-8ef7-9571d6d6537d","ios":"levelo://app?vid=741f2886-00db-4229-8ef7-9571d6d6537d"},"vehicle_type_id":"4","last_reported":1740617257,"current_range_meters":10800,"station_id":"ce4bho12rcd13ifvqh2g","pricing_plan_id":"cebpf4jnsgd1na2vs0mg"},{"bike_id":"f66913d8-adc8-4497-b81a-8613461ae8a9","system_id":"levelo_inurba_marseille","lat":43.28434,"lon":5.35004,"is_reserved":false,"is_disabled":false,"rental_uris":{"android":"levelo://app?vid=f66913d8-adc8-4497-b81a-8613461ae8a9","ios":"levelo://app?vid=f66913d8-adc8-4497-b81a-8613461ae8a9"},"vehicle_type_id":"4","last_reported":1740617257,"current_range_meters":11200,"station_id":"ce4bhbh2rcd13ifvqepg","pricing_plan_id":"cebpf4jnsgd1na2vs0mg"},{"bike_id":"3b5eb973-61df-4c9f-b3f4-58839f85ef14","system_id":"levelo_inurba_marseille","lat":43.25122,"lon":5.40329,"is_reserved":false,"is_disabled":false,"rental_uris":{"android":"levelo://app?vid=3b5eb973-61df-4c9f-b3f4-58839f85ef14","ios":"levelo://app?vid=3b5eb973-61df-4c9f-b3f4-58839f85ef14"},"vehicle_type_id":"4","last_reported":1740617257,"current_range_meters":11600,"station_id":"ce4bhlh2rcd13ifvqgig","pricing_plan_id":"cebpf4jnsgd1na2vs0mg"},{"bike_id":"620faf8f-9860-4e84-b6cd-4559a0b9a89c","system_id":"levelo_inurba_marseille","lat":43.32466,"lon":5.3653,"is_reserved":false,"is_disabled":false,"rental_uris":{"android":"levelo://app?vid=620faf8f-9860-4e84-b6cd-4559a0b9a89c","ios":"levelo://app?vid=620faf8f-9860-4e84-b6cd-4559a0b9a89c"},"vehicle_type_id":"4","last_reported":1740617257,"current_range_meters":11600,"station_id":"ce4bhs12rcd13ifvqhvg","pricing_plan_id":"cebpf4jnsgd1na2vs0mg"},{"bike_id":"669c2581-a097-40fe-bcaa-8917d2cf5180","system_id":"levelo_inurba_marseille","lat":43.29184,"lon":5.39342,"is_reserved":false,"is_disabled":false,"rental_uris":{"android":"levelo://app?vid=669c2581-a097-40fe-bcaa-8917d2cf5180","ios":"levelo://app?vid=669c2581-a097-40fe-bcaa-8917d2cf5180"},"vehicle_type_id":"4","last_reported":1740617257,"current_range_meters":11600,"station_id":"ce4bh192rcd13ifvqdd0","pricing_plan_id":"cebpf4jnsgd1na2vs0mg"},{"bike_id":"19e4983d-b74d-4524-9c14-80fb6905f947","system_id":"levelo_inurba_marseille","lat":43.32103,"lon":5.36784,"is_reserved":false,"is_disabled":false,"rental_uris":{"android":"levelo://app?vid=19e4983d-b74d-4524-9c14-80fb6905f947","ios":"levelo://app?vid=19e4983d-b74d-4524-9c14-80fb6905f947"},"vehicle_type_id":"4","last_reported":1740617257,"current_range_meters":11600,"station_id":"ce4bhrh2rcd13ifvqhug","pricing_plan_id":"cebpf4jnsgd1na2vs0mg"},{"bike_id":"538c571f-bd4a-4045-ac59-31a81e83e594","system_id":"levelo_inurba_marseille","lat":43.28949,"lon":5.36403,"is_reserved":false,"is_disabled":false,"rental_uris":{"android":"levelo://app?vid=538c571f-bd4a-4045-ac59-31a81e83e594","ios":"levelo://app?vid=538c571f-bd4a-4045-ac59-31a81e83e594"},"vehicle_type_id":"4","last_reported":1740617257,"current_range_meters":11600,"station_id":"ce4bhc92rcd13ifvqetg","pricing_plan_id":"cebpf4jnsgd1na2vs0mg"},{"bike_id":"afd98e29-9e65-49b1-96e9-da6c0e62de76","system_id":"levelo_inurba_marseille","lat":43.29266,"lon":5.38239,"is_reserved":false,"is_disabled":false,"rental_uris":{"android":"levelo://app?vid=afd98e29-9e65-49b1-96e9-da6c0e62de76","ios":"levelo://app?vid=afd98e29-9e65-49b1-96e9-da6c0e62de76"},"vehicle_type_id":"4","last_reported":1740617257,"current_range_meters":12000,"station_id":"","pricing_plan_id":"cebpf4jnsgd1na2vs0mg"},{"bike_id":"32c78026-eae4-4cf3-91d4-dc2fc0b3e466","system_id":"levelo_inurba_marseille","lat":43.31498,"lon":5.37292,"is_reserved":false,"is_disabled":false,"rental_uris":{"android":"levelo://app?vid=32c78026-eae4-4cf3-91d4-dc2fc0b3e466","ios":"levelo://app?vid=32c78026-eae4-4cf3-91d4-dc2fc0b3e466"},"vehicle_type_id":"4","last_reported":1740617257,"current_range_meters":12000,"station_id":"ce4bgt12rcd13ifvqcd0","pricing_plan_id":"cebpf4jnsgd1na2vs0mg"},{"bike_id":"e2231c40-4e68-4e65-8d31-9d3b67df341a","system_id":"levelo_inurba_marseille","lat":43.25508,"lon":5.37652,"is_reserved":false,"is_disabled":false,"rental_uris":{"android":"levelo://app?vid=e2231c40-4e68-4e65-8d31-9d3b67df341a","ios":"levelo://app?vid=e2231c40-4e68-4e65-8d31-9d3b67df341a"},"vehicle_type_id":"4","last_reported":1740617257,"current_range_meters":12000,"station_id":"ce4bhh12rcd13ifvqff0","pricing_plan_id":"cebpf4jnsgd1na2vs0mg"},{"bike_id":"0fe73288-2a9e-45dd-a7fd-796e3cdd5bff","system_id":"levelo_inurba_marseille","lat":43.284405,"lon":5.391934,"is_reserved":false,"is_disabled":false,"rental_uris":{"android":"levelo://app?vid=0fe73288-2a9e-45dd-a7fd-796e3cdd5bff","ios":"levelo://app?vid=0fe73288-2a9e-45dd-a7fd-796e3cdd5bff"},"vehicle_type_id":"4","last_reported":1740617257,"current_range_meters":12000,"station_id":"ce4bhoh2rcd13ifvqh5g","pricing_plan_id":"cebpf4jnsgd1na2vs0mg"},{"bike_id":"d905ca0c-c944-4730-94c6-4871cc7ae277","system_id":"levelo_inurba_marseille","lat":43.28397,"lon":5.37527,"is_reserved":false,"is_disabled":false,"rental_uris":{"android":"levelo://app?vid=d905ca0c-c944-4730-94c6-4871cc7ae277","ios":"levelo://app?vid=d905ca0c-c944-4730-94c6-4871cc7ae277"},"vehicle_type_id":"4","last_reported":1740617257,"current_range_meters":12000,"station_id":"ce4bh412rcd13ifvqds0","pricing_plan_id":"cebpf4jnsgd1na2vs0mg"},{"bike_id":"3f7ee1e3-d518-49d8-b2cf-8d55bf28bc5a","system_id":"levelo_inurba_marseille","lat":43.27979,"lon":5.41656,"is_reserved":false,"is_disabled":false,"rental_uris":{"android":"levelo://app?vid=3f7ee1e3-d518-49d8-b2cf-8d55bf28bc5a","ios":"levelo://app?vid=3f7ee1e3-d518-49d8-b2cf-8d55bf28bc5a"},"vehicle_type_id":"4","last_reported":1740617257,"current_range_meters":12400,"station_id":"ce4bho12rcd13ifvqh1g","pricing_plan_id":"cebpf4jnsgd1na2vs0mg"},{"bike_id":"dcecfe15-a9ee-48e0-a5c0-690b69a472e3","system_id":"levelo_inurba_marseille","lat":43.30639,"lon":5.40075,"is_reserved":false,"is_disabled":false,"rental_uris":{"android":"levelo://app?vid=dcecfe15-a9ee-48e0-a5c0-690b69a472e3","ios":"levelo://app?vid=dcecfe15-a9ee-48e0-a5c0-690b69a472e3"},"vehicle_type_id":"4","last_reported":1740617257,"current_range_meters":14400,"station_id":"ce4bh112rcd13ifvqda0","pricing_plan_id":"cebpf4jnsgd1na2vs0mg"},{"bike_id":"17973595-0627-4cbe-be09-6d52168568c1","system_id":"levelo_inurba_marseille","lat":43.27829,"lon":5.40706,"is_reserved":false,"is_disabled":false,"rental_uris":{"android":"levelo://app?vid=17973595-0627-4cbe-be09-6d52168568c1","ios":"levelo://app?vid=17973595-0627-4cbe-be09-6d52168568c1"},"vehicle_type_id":"4","last_reported":1740617257,"current_range_meters":12000,"station_id":"ce4bhnh2rcd13ifvqgtg","pricing_plan_id":"cebpf4jnsgd1na2vs0mg"},{"bike_id":"f2efebfb-a79e-412e-890d-11ae26b9b9c7","system_id":"levelo_inurba_marseille","lat":43.2827,"lon":5.35072,"is_reserved":false,"is_disabled":false,"rental_uris":{"android":"levelo://app?vid=f2efebfb-a79e-412e-890d-11ae26b9b9c7","ios":"levelo://app?vid=f2efebfb-a79e-412e-890d-11ae26b9b9c7"},"vehicle_type_id":"4","last_reported":1740617257,"current_range_meters":12000,"station_id":"ce4bhbp2rcd13ifvqerg","pricing_plan_id":"cebpf4jnsgd1na2vs0mg"},{"bike_id":"7266af47-e9f0-4e43-bba1-095ebf3818bf","system_id":"levelo_inurba_marseille","lat":43.25063,"lon":5.39516,"is_reserved":false,"is_disabled":false,"rental_uris":{"android":"levelo://app?vid=7266af47-e9f0-4e43-bba1-095ebf3818bf","ios":"levelo://app?vid=7266af47-e9f0-4e43-bba1-095ebf3818bf"},"vehicle_type_id":"4","last_reported":1740617257,"current_range_meters":12000,"station_id":"ce4bhm12rcd13ifvqgkg","pricing_plan_id":"cebpf4jnsgd1na2vs0mg"},{"bike_id":"aa1c1254-8b09-4cc6-908c-bacac335dd0d","system_id":"levelo_inurba_marseille","lat":43.24079,"lon":5.37759,"is_reserved":false,"is_disabled":false,"rental_uris":{"android":"levelo://app?vid=aa1c1254-8b09-4cc6-908c-bacac335dd0d","ios":"levelo://app?vid=aa1c1254-8b09-4cc6-908c-bacac335dd0d"},"vehicle_type_id":"4","last_reported":1740617257,"current_range_meters":12400,"station_id":"ce4bhnp2rcd13ifvqgvg","pricing_plan_id":"cebpf4jnsgd1na2vs0mg"},{"bike_id":"ee07e172-028f-4d96-9f9c-0e283dc141d5","system_id":"levelo_inurba_marseille","lat":43.32354,"lon":5.38895,"is_reserved":false,"is_disabled":false,"rental_uris":{"android":"levelo://app?vid=ee07e172-028f-4d96-9f9c-0e283dc141d5","ios":"levelo://app?vid=ee07e172-028f-4d96-9f9c-0e283dc141d5"},"vehicle_type_id":"4","last_reported":1740617257,"current_range_meters":12400,"station_id":"ce4bhqp2rcd13ifvqhog","pricing_plan_id":"cebpf4jnsgd1na2vs0mg"},{"bike_id":"9ea15ae9-9c11-486a-bb35-d4dcef991c05","system_id":"levelo_inurba_marseille","lat":43.2862,"lon":5.35115,"is_reserved":false,"is_disabled":false,"rental_uris":{"android":"levelo://app?vid=9ea15ae9-9c11-486a-bb35-d4dcef991c05","ios":"levelo://app?vid=9ea15ae9-9c11-486a-bb35-d4dcef991c05"},"vehicle_type_id":"4","last_reported":1740617257,"current_range_meters":12400,"station_id":"ce4bhch2rcd13ifvqeug","pricing_plan_id":"cebpf4jnsgd1na2vs0mg"},{"bike_id":"9be055ef-7a21-41a1-8395-663e1df1e4ae","system_id":"levelo_inurba_marseille","lat":43.3091,"lon":5.39632,"is_reserved":false,"is_disabled":false,"rental_uris":{"android":"levelo://app?vid=9be055ef-7a21-41a1-8395-663e1df1e4ae","ios":"levelo://app?vid=9be055ef-7a21-41a1-8395-663e1df1e4ae"},"vehicle_type_id":"4","last_reported":1740617257,"current_range_meters":3600,"station_id":"ce4bh012rcd13ifvqcv0","pricing_plan_id":"cebpf4jnsgd1na2vs0mg"},{"bike_id":"dbbfe273-fe78-4ee1-abd4-c84186b9f85c","system_id":"levelo_inurba_marseille","lat":43.24071,"lon":5.37742,"is_reserved":false,"is_disabled":false,"rental_uris":{"android":"levelo://app?vid=dbbfe273-fe78-4ee1-abd4-c84186b9f85c","ios":"levelo://app?vid=dbbfe273-fe78-4ee1-abd4-c84186b9f85c"},"vehicle_type_id":"4","last_reported":1740617257,"current_range_meters":12400,"station_id":"ce4bhnp2rcd13ifvqgvg","pricing_plan_id":"cebpf4jnsgd1na2vs0mg"},{"bike_id":"e53cb2a8-562b-4bde-a5af-5769bafad603","system_id":"levelo_inurba_marseille","lat":43.29255,"lon":5.40918,"is_reserved":false,"is_disabled":false,"rental_uris":{"android":"levelo://app?vid=e53cb2a8-562b-4bde-a5af-5769bafad603","ios":"levelo://app?vid=e53cb2a8-562b-4bde-a5af-5769bafad603"},"vehicle_type_id":"4","last_reported":1740617257,"current_range_meters":12400,"station_id":"ce4bh192rcd13ifvqdc0","pricing_plan_id":"cebpf4jnsgd1na2vs0mg"},{"bike_id":"158abc11-19b0-40a6-a9c6-e141a52796ae","system_id":"levelo_inurba_marseille","lat":43.31278,"lon":5.40163,"is_reserved":false,"is_disabled":false,"rental_uris":{"android":"levelo://app?vid=158abc11-19b0-40a6-a9c6-e141a52796ae","ios":"levelo://app?vid=158abc11-19b0-40a6-a9c6-e141a52796ae"},"vehicle_type_id":"4","last_reported":1740617257,"current_range_meters":12400,"station_id":"ce4bh092rcd13ifvqd30","pricing_plan_id":"cebpf4jnsgd1na2vs0mg"},{"bike_id":"3bce9b48-29e1-47b2-aa67-e2d05cb1e15d","system_id":"levelo_inurba_marseille","lat":43.26063,"lon":5.39396,"is_reserved":false,"is_disabled":false,"rental_uris":{"android":"levelo://app?vid=3bce9b48-29e1-47b2-aa67-e2d05cb1e15d","ios":"levelo://app?vid=3bce9b48-29e1-47b2-aa67-e2d05cb1e15d"},"vehicle_type_id":"4","last_reported":1740617257,"current_range_meters":12400,"station_id":"ce4bhh92rcd13ifvqfj0","pricing_plan_id":"cebpf4jnsgd1na2vs0mg"},{"bike_id":"4841ad10-ebe8-484d-80b2-25279a3a26d1","system_id":"levelo_inurba_marseille","lat":43.27904,"lon":5.39585,"is_reserved":false,"is_disabled":false,"rental_uris":{"android":"levelo://app?vid=4841ad10-ebe8-484d-80b2-25279a3a26d1","ios":"levelo://app?vid=4841ad10-ebe8-484d-80b2-25279a3a26d1"},"vehicle_type_id":"4","last_reported":1740617257,"current_range_meters":12800,"station_id":"ce4bhf92rcd13ifvqf40","pricing_plan_id":"cebpf4jnsgd1na2vs0mg"},{"bike_id":"555da0d3-9aa3-498c-81f8-f4ef96e72283","system_id":"levelo_inurba_marseille","lat":43.30877,"lon":5.39639,"is_reserved":false,"is_disabled":false,"rental_uris":{"android":"levelo://app?vid=555da0d3-9aa3-498c-81f8-f4ef96e72283","ios":"levelo://app?vid=555da0d3-9aa3-498c-81f8-f4ef96e72283"},"vehicle_type_id":"4","last_reported":1740617257,"current_range_meters":12800,"station_id":"ce4bh012rcd13ifvqcv0","pricing_plan_id":"cebpf4jnsgd1na2vs0mg"},{"bike_id":"b1f10de4-4a39-4feb-9655-51978f0274ef","system_id":"levelo_inurba_marseille","lat":43.30645,"lon":5.40081,"is_reserved":false,"is_disabled":false,"rental_uris":{"android":"levelo://app?vid=b1f10de4-4a39-4feb-9655-51978f0274ef","ios":"levelo://app?vid=b1f10de4-4a39-4feb-9655-51978f0274ef"},"vehicle_type_id":"4","last_reported":1740617257,"current_range_meters":12800,"station_id":"ce4bh112rcd13ifvqda0","pricing_plan_id":"cebpf4jnsgd1na2vs0mg"},{"bike_id":"62cbb18c-2f31-4f5c-9351-9e9b31dd9036","system_id":"levelo_inurba_marseille","lat":43.29849,"lon":5.38689,"is_reserved":false,"is_disabled":false,"rental_uris":{"android":"levelo://app?vid=62cbb18c-2f31-4f5c-9351-9e9b31dd9036","ios":"levelo://app?vid=62cbb18c-2f31-4f5c-9351-9e9b31dd9036"},"vehicle_type_id":"4","last_reported":1740617257,"current_range_meters":12800,"station_id":"","pricing_plan_id":"cebpf4jnsgd1na2vs0mg"},{"bike_id":"ff25c959-3f15-4cc6-a27c-34344c42ffa5","system_id":"levelo_inurba_marseille","lat":43.25087,"lon":5.39508,"is_reserved":false,"is_disabled":false,"rental_uris":{"android":"levelo://app?vid=ff25c959-3f15-4cc6-a27c-34344c42ffa5","ios":"levelo://app?vid=ff25c959-3f15-4cc6-a27c-34344c42ffa5"},"vehicle_type_id":"4","last_reported":1740617257,"current_range_meters":12800,"station_id":"ce4bhm12rcd13ifvqgkg","pricing_plan_id":"cebpf4jnsgd1na2vs0mg"},{"bike_id":"12233c19-4786-43c7-b87e-c054ec841669","system_id":"levelo_inurba_marseille","lat":43.28421,"lon":5.37506,"is_reserved":false,"is_disabled":false,"rental_uris":{"android":"levelo://app?vid=12233c19-4786-43c7-b87e-c054ec841669","ios":"levelo://app?vid=12233c19-4786-43c7-b87e-c054ec841669"},"vehicle_type_id":"4","last_reported":1740617257,"current_range_meters":12800,"station_id":"ce4bh412rcd13ifvqds0","pricing_plan_id":"cebpf4jnsgd1na2vs0mg"},{"bike_id":"5bf0e3ba-f837-43c2-bde3-d2afcf4595b9","system_id":"levelo_inurba_marseille","lat":43.2866,"lon":5.36353,"is_reserved":false,"is_disabled":false,"rental_uris":{"android":"levelo://app?vid=5bf0e3ba-f837-43c2-bde3-d2afcf4595b9","ios":"levelo://app?vid=5bf0e3ba-f837-43c2-bde3-d2afcf4595b9"},"vehicle_type_id":"4","last_reported":1740617257,"current_range_meters":13600,"station_id":"ce4bhah2rcd13ifvqej0","pricing_plan_id":"cebpf4jnsgd1na2vs0mg"},{"bike_id":"91f909e9-358e-43ed-a45f-822af931a978","system_id":"levelo_inurba_marseille","lat":43.232167,"lon":5.403692,"is_reserved":false,"is_disabled":false,"rental_uris":{"android":"levelo://app?vid=91f909e9-358e-43ed-a45f-822af931a978","ios":"levelo://app?vid=91f909e9-358e-43ed-a45f-822af931a978"},"vehicle_type_id":"4","last_reported":1740617257,"current_range_meters":12800,"station_id":"","pricing_plan_id":"cebpf4jnsgd1na2vs0mg"},{"bike_id":"bc6ef5b5-466c-4f14-b43a-a23b7fb12a30","system_id":"levelo_inurba_marseille","lat":43.28461,"lon":5.35893,"is_reserved":false,"is_disabled":false,"rental_uris":{"android":"levelo://app?vid=bc6ef5b5-466c-4f14-b43a-a23b7fb12a30","ios":"levelo://app?vid=bc6ef5b5-466c-4f14-b43a-a23b7fb12a30"},"vehicle_type_id":"4","last_reported":1740617257,"current_range_meters":13600,"station_id":"ce4bhah2rcd13ifvqei0","pricing_plan_id":"cebpf4jnsgd1na2vs0mg"},{"bike_id":"2215d5e4-8798-4621-81ec-24430288d53b","system_id":"levelo_inurba_marseille","lat":43.31992,"lon":5.38167,"is_reserved":false,"is_disabled":false,"rental_uris":{"android":"levelo://app?vid=2215d5e4-8798-4621-81ec-24430288d53b","ios":"levelo://app?vid=2215d5e4-8798-4621-81ec-24430288d53b"},"vehicle_type_id":"4","last_reported":1740617257,"current_range_meters":13600,"station_id":"ce4bhr12rcd13ifvqhpg","pricing_plan_id":"cebpf4jnsgd1na2vs0mg"},{"bike_id":"7eebcedb-18f4-4398-b9bd-d7d8a33415a2","system_id":"levelo_inurba_marseille","lat":43.29187,"lon":5.36058,"is_reserved":false,"is_disabled":false,"rental_uris":{"android":"levelo://app?vid=7eebcedb-18f4-4398-b9bd-d7d8a33415a2","ios":"levelo://app?vid=7eebcedb-18f4-4398-b9bd-d7d8a33415a2"},"vehicle_type_id":"4","last_reported":1740617257,"current_range_meters":13600,"station_id":"ce4bhbh2rcd13ifvqeqg","pricing_plan_id":"cebpf4jnsgd1na2vs0mg"},{"bike_id":"b8d8e0e5-e929-41c9-9bd0-33936ba10d3f","system_id":"levelo_inurba_marseille","lat":43.31524,"lon":5.3803,"is_reserved":false,"is_disabled":false,"rental_uris":{"android":"levelo://app?vid=b8d8e0e5-e929-41c9-9bd0-33936ba10d3f","ios":"levelo://app?vid=b8d8e0e5-e929-41c9-9bd0-33936ba10d3f"},"vehicle_type_id":"4","last_reported":1740617257,"current_range_meters":13600,"station_id":"ce4bhsp2rcd13ifvqi50","pricing_plan_id":"cebpf4jnsgd1na2vs0mg"},{"bike_id":"98713af8-0bcb-49aa-8f94-80b87751ee40","system_id":"levelo_inurba_marseille","lat":43.30651,"lon":5.40044,"is_reserved":false,"is_disabled":false,"rental_uris":{"android":"levelo://app?vid=98713af8-0bcb-49aa-8f94-80b87751ee40","ios":"levelo://app?vid=98713af8-0bcb-49aa-8f94-80b87751ee40"},"vehicle_type_id":"4","last_reported":1740617257,"current_range_meters":14000,"station_id":"ce4bh112rcd13ifvqda0","pricing_plan_id":"cebpf4jnsgd1na2vs0mg"},{"bike_id":"342e968d-d4db-4448-9b3b-859697777187","system_id":"levelo_inurba_marseille","lat":43.30883,"lon":5.39645,"is_reserved":false,"is_disabled":false,"rental_uris":{"android":"levelo://app?vid=342e968d-d4db-4448-9b3b-859697777187","ios":"levelo://app?vid=342e968d-d4db-4448-9b3b-859697777187"},"vehicle_type_id":"4","last_reported":1740617257,"current_range_meters":14400,"station_id":"ce4bh012rcd13ifvqcv0","pricing_plan_id":"cebpf4jnsgd1na2vs0mg"},{"bike_id":"79a585c5-cf42-4150-9df4-5cf43862e690","system_id":"levelo_inurba_marseille","lat":43.24667,"lon":5.38868,"is_reserved":false,"is_disabled":false,"rental_uris":{"android":"levelo://app?vid=79a585c5-cf42-4150-9df4-5cf43862e690","ios":"levelo://app?vid=79a585c5-cf42-4150-9df4-5cf43862e690"},"vehicle_type_id":"4","last_reported":1740617257,"current_range_meters":14000,"station_id":"ce4bhg12rcd13ifvqf60","pricing_plan_id":"cebpf4jnsgd1na2vs0mg"},{"bike_id":"dc1deb5f-be60-47dd-a397-2458bf714b12","system_id":"levelo_inurba_marseille","lat":43.23057,"lon":5.3549,"is_reserved":false,"is_disabled":false,"rental_uris":{"android":"levelo://app?vid=dc1deb5f-be60-47dd-a397-2458bf714b12","ios":"levelo://app?vid=dc1deb5f-be60-47dd-a397-2458bf714b12"},"vehicle_type_id":"4","last_reported":1740617257,"current_range_meters":14000,"station_id":"cpo3342slgdg3j2ifvpg","pricing_plan_id":"cebpf4jnsgd1na2vs0mg"},{"bike_id":"6b62f5fe-76f7-4cf3-9d84-0a37a25c18ef","system_id":"levelo_inurba_marseille","lat":43.28935,"lon":5.36627,"is_reserved":false,"is_disabled":false,"rental_uris":{"android":"levelo://app?vid=6b62f5fe-76f7-4cf3-9d84-0a37a25c18ef","ios":"levelo://app?vid=6b62f5fe-76f7-4cf3-9d84-0a37a25c18ef"},"vehicle_type_id":"4","last_reported":1740617257,"current_range_meters":14000,"station_id":"ce4bhap2rcd13ifvqek0","pricing_plan_id":"cebpf4jnsgd1na2vs0mg"},{"bike_id":"666da614-c634-45ed-868c-1cf0aae15027","system_id":"levelo_inurba_marseille","lat":43.30879,"lon":5.3963,"is_reserved":false,"is_disabled":false,"rental_uris":{"android":"levelo://app?vid=666da614-c634-45ed-868c-1cf0aae15027","ios":"levelo://app?vid=666da614-c634-45ed-868c-1cf0aae15027"},"vehicle_type_id":"4","last_reported":1740617257,"current_range_meters":14400,"station_id":"ce4bh012rcd13ifvqcv0","pricing_plan_id":"cebpf4jnsgd1na2vs0mg"},{"bike_id":"9ee05a79-6ed0-471b-8dcb-b288b1c46214","system_id":"levelo_inurba_marseille","lat":43.29186,"lon":5.39335,"is_reserved":false,"is_disabled":false,"rental_uris":{"android":"levelo://app?vid=9ee05a79-6ed0-471b-8dcb-b288b1c46214","ios":"levelo://app?vid=9ee05a79-6ed0-471b-8dcb-b288b1c46214"},"vehicle_type_id":"4","last_reported":1740617257,"current_range_meters":14000,"station_id":"ce4bh192rcd13ifvqdd0","pricing_plan_id":"cebpf4jnsgd1na2vs0mg"},{"bike_id":"d52f0219-7e16-4dc5-bdd6-5f76ea649f0a","system_id":"levelo_inurba_marseille","lat":43.30884,"lon":5.3719,"is_reserved":false,"is_disabled":false,"rental_uris":{"android":"levelo://app?vid=d52f0219-7e16-4dc5-bdd6-5f76ea649f0a","ios":"levelo://app?vid=d52f0219-7e16-4dc5-bdd6-5f76ea649f0a"},"vehicle_type_id":"4","last_reported":1740617257,"current_range_meters":14000,"station_id":"ce4bguh2rcd13ifvqckg","pricing_plan_id":"cebpf4jnsgd1na2vs0mg"},{"bike_id":"9d301360-426b-4103-9783-18a245c174ea","system_id":"levelo_inurba_marseille","lat":43.25718,"lon":5.41105,"is_reserved":false,"is_disabled":false,"rental_uris":{"android":"levelo://app?vid=9d301360-426b-4103-9783-18a245c174ea","ios":"levelo://app?vid=9d301360-426b-4103-9783-18a245c174ea"},"vehicle_type_id":"4","last_reported":1740617257,"current_range_meters":14400,"station_id":"ce4bhkp2rcd13ifvqgd0","pricing_plan_id":"cebpf4jnsgd1na2vs0mg"},{"bike_id":"5ab74027-0266-42e6-903d-055b2632fc94","system_id":"levelo_inurba_marseille","lat":43.27619,"lon":5.36129,"is_reserved":false,"is_disabled":false,"rental_uris":{"android":"levelo://app?vid=5ab74027-0266-42e6-903d-055b2632fc94","ios":"levelo://app?vid=5ab74027-0266-42e6-903d-055b2632fc94"},"vehicle_type_id":"4","last_reported":1740617257,"current_range_meters":14800,"station_id":"ce4bgj92rcd13ifvqbe0","pricing_plan_id":"cebpf4jnsgd1na2vs0mg"},{"bike_id":"7c4729ad-3ac2-4e30-8e54-e5474b687920","system_id":"levelo_inurba_marseille","lat":43.30313,"lon":5.4045,"is_reserved":false,"is_disabled":false,"rental_uris":{"android":"levelo://app?vid=7c4729ad-3ac2-4e30-8e54-e5474b687920","ios":"levelo://app?vid=7c4729ad-3ac2-4e30-8e54-e5474b687920"},"vehicle_type_id":"4","last_reported":1740617257,"current_range_meters":15200,"station_id":"ce4bh012rcd13ifvqd10","pricing_plan_id":"cebpf4jnsgd1na2vs0mg"},{"bike_id":"d66c4c2f-8a7c-42b3-8adc-6056e6aa3202","system_id":"levelo_inurba_marseille","lat":43.30877,"lon":5.39642,"is_reserved":false,"is_disabled":false,"rental_uris":{"android":"levelo://app?vid=d66c4c2f-8a7c-42b3-8adc-6056e6aa3202","ios":"levelo://app?vid=d66c4c2f-8a7c-42b3-8adc-6056e6aa3202"},"vehicle_type_id":"4","last_reported":1740617257,"current_range_meters":14800,"station_id":"ce4bh012rcd13ifvqcv0","pricing_plan_id":"cebpf4jnsgd1na2vs0mg"},{"bike_id":"d9edb359-99e6-43de-99dd-b9b1164fad3d","system_id":"levelo_inurba_marseille","lat":43.28469,"lon":5.38437,"is_reserved":false,"is_disabled":true,"rental_uris":{"android":"levelo://app?vid=d9edb359-99e6-43de-99dd-b9b1164fad3d","ios":"levelo://app?vid=d9edb359-99e6-43de-99dd-b9b1164fad3d"},"vehicle_type_id":"4","last_reported":1740617257,"current_range_meters":14800,"station_id":"ce4bh512rcd13ifvqe3g","pricing_plan_id":"cebpf4jnsgd1na2vs0mg"},{"bike_id":"f3dcfc0c-6d5d-4263-b40e-6208dab2037f","system_id":"levelo_inurba_marseille","lat":43.28734,"lon":5.3607,"is_reserved":false,"is_disabled":false,"rental_uris":{"android":"levelo://app?vid=f3dcfc0c-6d5d-4263-b40e-6208dab2037f","ios":"levelo://app?vid=f3dcfc0c-6d5d-4263-b40e-6208dab2037f"},"vehicle_type_id":"4","last_reported":1740617257,"current_range_meters":16000,"station_id":"cki0cbj6b192h4jlfktg","pricing_plan_id":"cebpf4jnsgd1na2vs0mg"},{"bike_id":"bc679af8-b2d8-495d-8f01-39de79e9748b","system_id":"levelo_inurba_marseille","lat":43.29588,"lon":5.36735,"is_reserved":false,"is_disabled":false,"rental_uris":{"android":"levelo://app?vid=bc679af8-b2d8-495d-8f01-39de79e9748b","ios":"levelo://app?vid=bc679af8-b2d8-495d-8f01-39de79e9748b"},"vehicle_type_id":"4","last_reported":1740617257,"current_range_meters":15200,"station_id":"ce4bgph2rcd13ifvqc2g","pricing_plan_id":"cebpf4jnsgd1na2vs0mg"},{"bike_id":"3ef4a283-1278-481d-a678-2032504e228a","system_id":"levelo_inurba_marseille","lat":43.29006,"lon":5.35633,"is_reserved":false,"is_disabled":true,"rental_uris":{"android":"levelo://app?vid=3ef4a283-1278-481d-a678-2032504e228a","ios":"levelo://app?vid=3ef4a283-1278-481d-a678-2032504e228a"},"vehicle_type_id":"4","last_reported":1740617257,"current_range_meters":15200,"station_id":"ce4bhb92rcd13ifvqen0","pricing_plan_id":"cebpf4jnsgd1na2vs0mg"},{"bike_id":"5fdbaa49-16e6-43d7-bb68-6ad87f72c301","system_id":"levelo_inurba_marseille","lat":43.33084,"lon":5.40818,"is_reserved":false,"is_disabled":false,"rental_uris":{"android":"levelo://app?vid=5fdbaa49-16e6-43d7-bb68-6ad87f72c301","ios":"levelo://app?vid=5fdbaa49-16e6-43d7-bb68-6ad87f72c301"},"vehicle_type_id":"4","last_reported":1740617257,"current_range_meters":15200,"station_id":"","pricing_plan_id":"cebpf4jnsgd1na2vs0mg"},{"bike_id":"c8cf8366-0c44-45bd-9143-3b5fae02e2ac","system_id":"levelo_inurba_marseille","lat":43.2815,"lon":5.426453,"is_reserved":false,"is_disabled":false,"rental_uris":{"android":"levelo://app?vid=c8cf8366-0c44-45bd-9143-3b5fae02e2ac","ios":"levelo://app?vid=c8cf8366-0c44-45bd-9143-3b5fae02e2ac"},"vehicle_type_id":"4","last_reported":1740617257,"current_range_meters":16000,"station_id":"ce4bhnh2rcd13ifvqgug","pricing_plan_id":"cebpf4jnsgd1na2vs0mg"},{"bike_id":"63569115-3240-4df6-ada0-ada3d9c2e5bc","system_id":"levelo_inurba_marseille","lat":43.239711,"lon":5.366305,"is_reserved":false,"is_disabled":false,"rental_uris":{"android":"levelo://app?vid=63569115-3240-4df6-ada0-ada3d9c2e5bc","ios":"levelo://app?vid=63569115-3240-4df6-ada0-ada3d9c2e5bc"},"vehicle_type_id":"4","last_reported":1740617257,"current_range_meters":15200,"station_id":"ce4bhi12rcd13ifvqfp0","pricing_plan_id":"cebpf4jnsgd1na2vs0mg"},{"bike_id":"68070861-9d2d-44f3-a538-bf2996732e9c","system_id":"levelo_inurba_marseille","lat":43.28411,"lon":5.37496,"is_reserved":false,"is_disabled":false,"rental_uris":{"android":"levelo://app?vid=68070861-9d2d-44f3-a538-bf2996732e9c","ios":"levelo://app?vid=68070861-9d2d-44f3-a538-bf2996732e9c"},"vehicle_type_id":"4","last_reported":1740617257,"current_range_meters":16000,"station_id":"ce4bh412rcd13ifvqds0","pricing_plan_id":"cebpf4jnsgd1na2vs0mg"},{"bike_id":"e556532c-e357-4953-95b9-d4a4bdbdafc9","system_id":"levelo_inurba_marseille","lat":43.2873,"lon":5.36096,"is_reserved":false,"is_disabled":false,"rental_uris":{"android":"levelo://app?vid=e556532c-e357-4953-95b9-d4a4bdbdafc9","ios":"levelo://app?vid=e556532c-e357-4953-95b9-d4a4bdbdafc9"},"vehicle_type_id":"4","last_reported":1740617257,"current_range_meters":16000,"station_id":"cki0cbj6b192h4jlfktg","pricing_plan_id":"cebpf4jnsgd1na2vs0mg"},{"bike_id":"6f5e6b2b-b94b-4eea-910a-3764064b3c05","system_id":"levelo_inurba_marseille","lat":43.27996,"lon":5.40018,"is_reserved":false,"is_disabled":false,"rental_uris":{"android":"levelo://app?vid=6f5e6b2b-b94b-4eea-910a-3764064b3c05","ios":"levelo://app?vid=6f5e6b2b-b94b-4eea-910a-3764064b3c05"},"vehicle_type_id":"4","last_reported":1740617257,"current_range_meters":16000,"station_id":"ce4bho92rcd13ifvqh4g","pricing_plan_id":"cebpf4jnsgd1na2vs0mg"},{"bike_id":"8a339686-9723-415b-8f3c-02f3810e4035","system_id":"levelo_inurba_marseille","lat":43.29921,"lon":5.39739,"is_reserved":false,"is_disabled":false,"rental_uris":{"android":"levelo://app?vid=8a339686-9723-415b-8f3c-02f3810e4035","ios":"levelo://app?vid=8a339686-9723-415b-8f3c-02f3810e4035"},"vehicle_type_id":"4","last_reported":1740617257,"current_range_meters":16000,"station_id":"ce4bh0h2rcd13ifvqd50","pricing_plan_id":"cebpf4jnsgd1na2vs0mg"},{"bike_id":"3648d549-1aa7-44d1-bde4-30bac4ece65c","system_id":"levelo_inurba_marseille","lat":43.25574,"lon":5.38221,"is_reserved":false,"is_disabled":false,"rental_uris":{"android":"levelo://app?vid=3648d549-1aa7-44d1-bde4-30bac4ece65c","ios":"levelo://app?vid=3648d549-1aa7-44d1-bde4-30bac4ece65c"},"vehicle_type_id":"4","last_reported":1740617257,"current_range_meters":16000,"station_id":"ce4bhih2rcd13ifvqfs0","pricing_plan_id":"cebpf4jnsgd1na2vs0mg"},{"bike_id":"1de86b69-54c0-4bac-b321-f4d8d8bfd779","system_id":"levelo_inurba_marseille","lat":43.28717,"lon":5.3609,"is_reserved":false,"is_disabled":false,"rental_uris":{"android":"levelo://app?vid=1de86b69-54c0-4bac-b321-f4d8d8bfd779","ios":"levelo://app?vid=1de86b69-54c0-4bac-b321-f4d8d8bfd779"},"vehicle_type_id":"4","last_reported":1740617257,"current_range_meters":16000,"station_id":"cki0cbj6b192h4jlfktg","pricing_plan_id":"cebpf4jnsgd1na2vs0mg"},{"bike_id":"a6832e75-8e45-48db-b564-ea05f030f386","system_id":"levelo_inurba_marseille","lat":43.28462,"lon":5.35887,"is_reserved":false,"is_disabled":false,"rental_uris":{"android":"levelo://app?vid=a6832e75-8e45-48db-b564-ea05f030f386","ios":"levelo://app?vid=a6832e75-8e45-48db-b564-ea05f030f386"},"vehicle_type_id":"4","last_reported":1740617257,"current_range_meters":16400,"station_id":"ce4bhah2rcd13ifvqei0","pricing_plan_id":"cebpf4jnsgd1na2vs0mg"},{"bike_id":"93180074-894b-4258-b14f-95b739552fa3","system_id":"levelo_inurba_marseille","lat":43.30561,"lon":5.39333,"is_reserved":false,"is_disabled":false,"rental_uris":{"android":"levelo://app?vid=93180074-894b-4258-b14f-95b739552fa3","ios":"levelo://app?vid=93180074-894b-4258-b14f-95b739552fa3"},"vehicle_type_id":"4","last_reported":1740617257,"current_range_meters":16400,"station_id":"","pricing_plan_id":"cebpf4jnsgd1na2vs0mg"},{"bike_id":"d45afff2-f731-4e32-b8d7-0a685c1f968a","system_id":"levelo_inurba_marseille","lat":43.29201,"lon":5.39305,"is_reserved":false,"is_disabled":false,"rental_uris":{"android":"levelo://app?vid=d45afff2-f731-4e32-b8d7-0a685c1f968a","ios":"levelo://app?vid=d45afff2-f731-4e32-b8d7-0a685c1f968a"},"vehicle_type_id":"4","last_reported":1740617257,"current_range_meters":16400,"station_id":"ce4bh192rcd13ifvqdd0","pricing_plan_id":"cebpf4jnsgd1na2vs0mg"},{"bike_id":"8e7ca1de-f2e1-45da-a0a6-c0442942ed30","system_id":"levelo_inurba_marseille","lat":43.25508,"lon":5.37667,"is_reserved":false,"is_disabled":false,"rental_uris":{"android":"levelo://app?vid=8e7ca1de-f2e1-45da-a0a6-c0442942ed30","ios":"levelo://app?vid=8e7ca1de-f2e1-45da-a0a6-c0442942ed30"},"vehicle_type_id":"4","last_reported":1740617257,"current_range_meters":16400,"station_id":"ce4bhh12rcd13ifvqff0","pricing_plan_id":"cebpf4jnsgd1na2vs0mg"},{"bike_id":"3a71ac56-502b-4f5a-a8dd-c1d6a1f0b62a","system_id":"levelo_inurba_marseille","lat":43.31169,"lon":5.38715,"is_reserved":false,"is_disabled":false,"rental_uris":{"android":"levelo://app?vid=3a71ac56-502b-4f5a-a8dd-c1d6a1f0b62a","ios":"levelo://app?vid=3a71ac56-502b-4f5a-a8dd-c1d6a1f0b62a"},"vehicle_type_id":"4","last_reported":1740617257,"current_range_meters":16400,"station_id":"ce4bgv12rcd13ifvqcp0","pricing_plan_id":"cebpf4jnsgd1na2vs0mg"},{"bike_id":"1afe79f3-229c-4252-a0d3-309f3064fa33","system_id":"levelo_inurba_marseille","lat":43.24068,"lon":5.3776,"is_reserved":false,"is_disabled":false,"rental_uris":{"android":"levelo://app?vid=1afe79f3-229c-4252-a0d3-309f3064fa33","ios":"levelo://app?vid=1afe79f3-229c-4252-a0d3-309f3064fa33"},"vehicle_type_id":"4","last_reported":1740617257,"current_range_meters":16400,"station_id":"ce4bhnp2rcd13ifvqgvg","pricing_plan_id":"cebpf4jnsgd1na2vs0mg"},{"bike_id":"aa41ce44-23f4-4860-9813-4d22ddbb744b","system_id":"levelo_inurba_marseille","lat":43.30631,"lon":5.39317,"is_reserved":false,"is_disabled":false,"rental_uris":{"android":"levelo://app?vid=aa41ce44-23f4-4860-9813-4d22ddbb744b","ios":"levelo://app?vid=aa41ce44-23f4-4860-9813-4d22ddbb744b"},"vehicle_type_id":"4","last_reported":1740617257,"current_range_meters":16400,"station_id":"","pricing_plan_id":"cebpf4jnsgd1na2vs0mg"},{"bike_id":"1a112124-f138-4737-80fe-996684a8fd7d","system_id":"levelo_inurba_marseille","lat":43.28449,"lon":5.35893,"is_reserved":false,"is_disabled":false,"rental_uris":{"android":"levelo://app?vid=1a112124-f138-4737-80fe-996684a8fd7d","ios":"levelo://app?vid=1a112124-f138-4737-80fe-996684a8fd7d"},"vehicle_type_id":"4","last_reported":1740617257,"current_range_meters":16400,"station_id":"ce4bhah2rcd13ifvqei0","pricing_plan_id":"cebpf4jnsgd1na2vs0mg"},{"bike_id":"3de9aeda-1f9a-4bbc-8b90-e02a49e56ca9","system_id":"levelo_inurba_marseille","lat":43.23168,"lon":5.35548,"is_reserved":false,"is_disabled":false,"rental_uris":{"android":"levelo://app?vid=3de9aeda-1f9a-4bbc-8b90-e02a49e56ca9","ios":"levelo://app?vid=3de9aeda-1f9a-4bbc-8b90-e02a49e56ca9"},"vehicle_type_id":"4","last_reported":1740617257,"current_range_meters":16400,"station_id":"ce4bhu92rcd13ifvqi70","pricing_plan_id":"cebpf4jnsgd1na2vs0mg"},{"bike_id":"e4a67661-b022-4b76-9760-dd4a51e9da1d","system_id":"levelo_inurba_marseille","lat":43.29924,"lon":5.38109,"is_reserved":false,"is_disabled":false,"rental_uris":{"android":"levelo://app?vid=e4a67661-b022-4b76-9760-dd4a51e9da1d","ios":"levelo://app?vid=e4a67661-b022-4b76-9760-dd4a51e9da1d"},"vehicle_type_id":"4","last_reported":1740617257,"current_range_meters":16400,"station_id":"ce4bgj12rcd13ifvqbc0","pricing_plan_id":"cebpf4jnsgd1na2vs0mg"},{"bike_id":"7c6f2e19-e14e-482e-81a7-645fe762ee86","system_id":"levelo_inurba_marseille","lat":43.29622,"lon":5.36716,"is_reserved":false,"is_disabled":false,"rental_uris":{"android":"levelo://app?vid=7c6f2e19-e14e-482e-81a7-645fe762ee86","ios":"levelo://app?vid=7c6f2e19-e14e-482e-81a7-645fe762ee86"},"vehicle_type_id":"4","last_reported":1740617257,"current_range_meters":16800,"station_id":"","pricing_plan_id":"cebpf4jnsgd1na2vs0mg"},{"bike_id":"0e875642-847b-4eb4-8b93-6d1e557f1084","system_id":"levelo_inurba_marseille","lat":43.28564,"lon":5.39496,"is_reserved":false,"is_disabled":false,"rental_uris":{"android":"levelo://app?vid=0e875642-847b-4eb4-8b93-6d1e557f1084","ios":"levelo://app?vid=0e875642-847b-4eb4-8b93-6d1e557f1084"},"vehicle_type_id":"4","last_reported":1740617257,"current_range_meters":16800,"station_id":"ce4bh292rcd13ifvqdg0","pricing_plan_id":"cebpf4jnsgd1na2vs0mg"},{"bike_id":"56b97ce9-cec6-4c78-aaa7-b910aae8b368","system_id":"levelo_inurba_marseille","lat":43.311731,"lon":5.387267,"is_reserved":false,"is_disabled":false,"rental_uris":{"android":"levelo://app?vid=56b97ce9-cec6-4c78-aaa7-b910aae8b368","ios":"levelo://app?vid=56b97ce9-cec6-4c78-aaa7-b910aae8b368"},"vehicle_type_id":"4","last_reported":1740617257,"current_range_meters":16800,"station_id":"ce4bgv12rcd13ifvqcp0","pricing_plan_id":"cebpf4jnsgd1na2vs0mg"},{"bike_id":"eb71c3b9-353b-4f9a-83b6-abece59acd47","system_id":"levelo_inurba_marseille","lat":43.31716,"lon":5.43705,"is_reserved":false,"is_disabled":false,"rental_uris":{"android":"levelo://app?vid=eb71c3b9-353b-4f9a-83b6-abece59acd47","ios":"levelo://app?vid=eb71c3b9-353b-4f9a-83b6-abece59acd47"},"vehicle_type_id":"4","last_reported":1740617257,"current_range_meters":16800,"station_id":"ce4bhp92rcd13ifvqhcg","pricing_plan_id":"cebpf4jnsgd1na2vs0mg"},{"bike_id":"4c56b05b-d311-4d1d-b526-605a805d1bd4","system_id":"levelo_inurba_marseille","lat":43.28091,"lon":5.40579,"is_reserved":false,"is_disabled":false,"rental_uris":{"android":"levelo://app?vid=4c56b05b-d311-4d1d-b526-605a805d1bd4","ios":"levelo://app?vid=4c56b05b-d311-4d1d-b526-605a805d1bd4"},"vehicle_type_id":"4","last_reported":1740617257,"current_range_meters":16800,"station_id":"","pricing_plan_id":"cebpf4jnsgd1na2vs0mg"},{"bike_id":"a05f0b98-a92c-4bff-8a2e-dc25e96a6b19","system_id":"levelo_inurba_marseille","lat":43.28622,"lon":5.351,"is_reserved":false,"is_disabled":false,"rental_uris":{"android":"levelo://app?vid=a05f0b98-a92c-4bff-8a2e-dc25e96a6b19","ios":"levelo://app?vid=a05f0b98-a92c-4bff-8a2e-dc25e96a6b19"},"vehicle_type_id":"4","last_reported":1740617257,"current_range_meters":16800,"station_id":"ce4bhch2rcd13ifvqeug","pricing_plan_id":"cebpf4jnsgd1na2vs0mg"},{"bike_id":"0bac474b-3e53-4ae8-8589-ca7ba7e00c57","system_id":"levelo_inurba_marseille","lat":43.30801,"lon":5.37641,"is_reserved":false,"is_disabled":false,"rental_uris":{"android":"levelo://app?vid=0bac474b-3e53-4ae8-8589-ca7ba7e00c57","ios":"levelo://app?vid=0bac474b-3e53-4ae8-8589-ca7ba7e00c57"},"vehicle_type_id":"4","last_reported":1740617257,"current_range_meters":16800,"station_id":"ce4bgv92rcd13ifvqcq0","pricing_plan_id":"cebpf4jnsgd1na2vs0mg"},{"bike_id":"a0f4d1f3-ac6e-4559-9d8c-12200114cfdc","system_id":"levelo_inurba_marseille","lat":43.29895,"lon":5.39752,"is_reserved":false,"is_disabled":false,"rental_uris":{"android":"levelo://app?vid=a0f4d1f3-ac6e-4559-9d8c-12200114cfdc","ios":"levelo://app?vid=a0f4d1f3-ac6e-4559-9d8c-12200114cfdc"},"vehicle_type_id":"4","last_reported":1740617257,"current_range_meters":16800,"station_id":"ce4bh0h2rcd13ifvqd50","pricing_plan_id":"cebpf4jnsgd1na2vs0mg"},{"bike_id":"6b4f55f7-04de-49c0-bd50-a3ecceed8b7d","system_id":"levelo_inurba_marseille","lat":43.292031,"lon":5.393221,"is_reserved":false,"is_disabled":false,"rental_uris":{"android":"levelo://app?vid=6b4f55f7-04de-49c0-bd50-a3ecceed8b7d","ios":"levelo://app?vid=6b4f55f7-04de-49c0-bd50-a3ecceed8b7d"},"vehicle_type_id":"4","last_reported":1740617257,"current_range_meters":16800,"station_id":"ce4bh192rcd13ifvqdd0","pricing_plan_id":"cebpf4jnsgd1na2vs0mg"},{"bike_id":"e582f131-4506-41d1-bbb3-154638223117","system_id":"levelo_inurba_marseille","lat":43.29944,"lon":5.36539,"is_reserved":false,"is_disabled":false,"rental_uris":{"android":"levelo://app?vid=e582f131-4506-41d1-bbb3-154638223117","ios":"levelo://app?vid=e582f131-4506-41d1-bbb3-154638223117"},"vehicle_type_id":"4","last_reported":1740617257,"current_range_meters":16800,"station_id":"ce4bgm92rcd13ifvqbr0","pricing_plan_id":"cebpf4jnsgd1na2vs0mg"},{"bike_id":"31cd2bc8-f809-4f03-8e49-86b5d3a51e7a","system_id":"levelo_inurba_marseille","lat":43.28701,"lon":5.37394,"is_reserved":false,"is_disabled":false,"rental_uris":{"android":"levelo://app?vid=31cd2bc8-f809-4f03-8e49-86b5d3a51e7a","ios":"levelo://app?vid=31cd2bc8-f809-4f03-8e49-86b5d3a51e7a"},"vehicle_type_id":"4","last_reported":1740617257,"current_range_meters":16800,"station_id":"ce4bh3p2rcd13ifvqdq0","pricing_plan_id":"cebpf4jnsgd1na2vs0mg"},{"bike_id":"f2652af0-7f89-4f32-835a-da4ab8b102ce","system_id":"levelo_inurba_marseille","lat":43.284198,"lon":5.349864,"is_reserved":false,"is_disabled":false,"rental_uris":{"android":"levelo://app?vid=f2652af0-7f89-4f32-835a-da4ab8b102ce","ios":"levelo://app?vid=f2652af0-7f89-4f32-835a-da4ab8b102ce"},"vehicle_type_id":"4","last_reported":1740617257,"current_range_meters":17200,"station_id":"ce4bhbh2rcd13ifvqepg","pricing_plan_id":"cebpf4jnsgd1na2vs0mg"},{"bike_id":"40e25f70-02b5-4811-add6-6e8dbc26a035","system_id":"levelo_inurba_marseille","lat":43.28417,"lon":5.34988,"is_reserved":false,"is_disabled":false,"rental_uris":{"android":"levelo://app?vid=40e25f70-02b5-4811-add6-6e8dbc26a035","ios":"levelo://app?vid=40e25f70-02b5-4811-add6-6e8dbc26a035"},"vehicle_type_id":"4","last_reported":1740617257,"current_range_meters":17200,"station_id":"ce4bhbh2rcd13ifvqepg","pricing_plan_id":"cebpf4jnsgd1na2vs0mg"},{"bike_id":"d353aafc-5cc1-4732-9b75-faadcba26647","system_id":"levelo_inurba_marseille","lat":43.24161,"lon":5.3969,"is_reserved":false,"is_disabled":false,"rental_uris":{"android":"levelo://app?vid=d353aafc-5cc1-4732-9b75-faadcba26647","ios":"levelo://app?vid=d353aafc-5cc1-4732-9b75-faadcba26647"},"vehicle_type_id":"4","last_reported":1740617257,"current_range_meters":17200,"station_id":"ce4bhn12rcd13ifvqgpg","pricing_plan_id":"cebpf4jnsgd1na2vs0mg"},{"bike_id":"201b43e1-9166-4b93-9ecb-211bb1985890","system_id":"levelo_inurba_marseille","lat":43.3236,"lon":5.36763,"is_reserved":false,"is_disabled":false,"rental_uris":{"android":"levelo://app?vid=201b43e1-9166-4b93-9ecb-211bb1985890","ios":"levelo://app?vid=201b43e1-9166-4b93-9ecb-211bb1985890"},"vehicle_type_id":"4","last_reported":1740617257,"current_range_meters":17200,"station_id":"ce4bhsh2rcd13ifvqi2g","pricing_plan_id":"cebpf4jnsgd1na2vs0mg"},{"bike_id":"d337cc62-b29d-4e4a-bd4f-e767bd643d41","system_id":"levelo_inurba_marseille","lat":43.320939,"lon":5.367763,"is_reserved":false,"is_disabled":false,"rental_uris":{"android":"levelo://app?vid=d337cc62-b29d-4e4a-bd4f-e767bd643d41","ios":"levelo://app?vid=d337cc62-b29d-4e4a-bd4f-e767bd643d41"},"vehicle_type_id":"4","last_reported":1740617257,"current_range_meters":17200,"station_id":"ce4bhrh2rcd13ifvqhug","pricing_plan_id":"cebpf4jnsgd1na2vs0mg"},{"bike_id":"6bf62df5-9f2c-4676-be2e-3425368f3119","system_id":"levelo_inurba_marseille","lat":43.29333,"lon":5.38238,"is_reserved":false,"is_disabled":false,"rental_uris":{"android":"levelo://app?vid=6bf62df5-9f2c-4676-be2e-3425368f3119","ios":"levelo://app?vid=6bf62df5-9f2c-4676-be2e-3425368f3119"},"vehicle_type_id":"4","last_reported":1740617257,"current_range_meters":17200,"station_id":"","pricing_plan_id":"cebpf4jnsgd1na2vs0mg"},{"bike_id":"eecdd693-6027-4f53-b1fe-18cfac5b70e8","system_id":"levelo_inurba_marseille","lat":43.28999,"lon":5.3561,"is_reserved":false,"is_disabled":false,"rental_uris":{"android":"levelo://app?vid=eecdd693-6027-4f53-b1fe-18cfac5b70e8","ios":"levelo://app?vid=eecdd693-6027-4f53-b1fe-18cfac5b70e8"},"vehicle_type_id":"4","last_reported":1740617257,"current_range_meters":17600,"station_id":"ce4bhb92rcd13ifvqen0","pricing_plan_id":"cebpf4jnsgd1na2vs0mg"},{"bike_id":"8d8d43e1-7cd2-49f9-ba2a-c5dad8cae27e","system_id":"levelo_inurba_marseille","lat":43.27941,"lon":5.410417,"is_reserved":false,"is_disabled":false,"rental_uris":{"android":"levelo://app?vid=8d8d43e1-7cd2-49f9-ba2a-c5dad8cae27e","ios":"levelo://app?vid=8d8d43e1-7cd2-49f9-ba2a-c5dad8cae27e"},"vehicle_type_id":"4","last_reported":1740617257,"current_range_meters":17600,"station_id":"ce4bhnp2rcd13ifvqh0g","pricing_plan_id":"cebpf4jnsgd1na2vs0mg"},{"bike_id":"3b83b3c5-b6e8-435d-9a22-81ce2f20a37c","system_id":"levelo_inurba_marseille","lat":43.29027,"lon":5.3999,"is_reserved":false,"is_disabled":false,"rental_uris":{"android":"levelo://app?vid=3b83b3c5-b6e8-435d-9a22-81ce2f20a37c","ios":"levelo://app?vid=3b83b3c5-b6e8-435d-9a22-81ce2f20a37c"},"vehicle_type_id":"4","last_reported":1740617257,"current_range_meters":17600,"station_id":"ce4bh392rcd13ifvqdm0","pricing_plan_id":"cebpf4jnsgd1na2vs0mg"},{"bike_id":"78faf8ab-fdd7-412f-902d-0fa7f6a56bc9","system_id":"levelo_inurba_marseille","lat":43.28728,"lon":5.36076,"is_reserved":false,"is_disabled":false,"rental_uris":{"android":"levelo://app?vid=78faf8ab-fdd7-412f-902d-0fa7f6a56bc9","ios":"levelo://app?vid=78faf8ab-fdd7-412f-902d-0fa7f6a56bc9"},"vehicle_type_id":"4","last_reported":1740617257,"current_range_meters":17600,"station_id":"cki0cbj6b192h4jlfktg","pricing_plan_id":"cebpf4jnsgd1na2vs0mg"},{"bike_id":"f9cb66d8-5341-4f58-ade7-74e9dc87f85d","system_id":"levelo_inurba_marseille","lat":43.31166,"lon":5.38716,"is_reserved":false,"is_disabled":false,"rental_uris":{"android":"levelo://app?vid=f9cb66d8-5341-4f58-ade7-74e9dc87f85d","ios":"levelo://app?vid=f9cb66d8-5341-4f58-ade7-74e9dc87f85d"},"vehicle_type_id":"4","last_reported":1740617257,"current_range_meters":17600,"station_id":"ce4bgv12rcd13ifvqcp0","pricing_plan_id":"cebpf4jnsgd1na2vs0mg"},{"bike_id":"8e5970ad-dc10-42e4-955e-ae8f9c3e18b8","system_id":"levelo_inurba_marseille","lat":43.27928,"lon":5.41062,"is_reserved":false,"is_disabled":false,"rental_uris":{"android":"levelo://app?vid=8e5970ad-dc10-42e4-955e-ae8f9c3e18b8","ios":"levelo://app?vid=8e5970ad-dc10-42e4-955e-ae8f9c3e18b8"},"vehicle_type_id":"4","last_reported":1740617257,"current_range_meters":17600,"station_id":"ce4bhnp2rcd13ifvqh0g","pricing_plan_id":"cebpf4jnsgd1na2vs0mg"},{"bike_id":"ef77bf7f-5b88-41c9-8d3b-c8c9c0447dd9","system_id":"levelo_inurba_marseille","lat":43.28051,"lon":5.35063,"is_reserved":false,"is_disabled":false,"rental_uris":{"android":"levelo://app?vid=ef77bf7f-5b88-41c9-8d3b-c8c9c0447dd9","ios":"levelo://app?vid=ef77bf7f-5b88-41c9-8d3b-c8c9c0447dd9"},"vehicle_type_id":"4","last_reported":1740617257,"current_range_meters":17600,"station_id":"","pricing_plan_id":"cebpf4jnsgd1na2vs0mg"},{"bike_id":"0ffceea9-ca7f-496b-b9ee-c18123072cf4","system_id":"levelo_inurba_marseille","lat":43.30123,"lon":5.3987,"is_reserved":false,"is_disabled":false,"rental_uris":{"android":"levelo://app?vid=0ffceea9-ca7f-496b-b9ee-c18123072cf4","ios":"levelo://app?vid=0ffceea9-ca7f-496b-b9ee-c18123072cf4"},"vehicle_type_id":"4","last_reported":1740617257,"current_range_meters":17600,"station_id":"ce4bh0h2rcd13ifvqd40","pricing_plan_id":"cebpf4jnsgd1na2vs0mg"},{"bike_id":"8e6795ef-5cc7-4703-bc55-898144eada56","system_id":"levelo_inurba_marseille","lat":43.28418,"lon":5.34984,"is_reserved":false,"is_disabled":false,"rental_uris":{"android":"levelo://app?vid=8e6795ef-5cc7-4703-bc55-898144eada56","ios":"levelo://app?vid=8e6795ef-5cc7-4703-bc55-898144eada56"},"vehicle_type_id":"4","last_reported":1740617257,"current_range_meters":17600,"station_id":"ce4bhbh2rcd13ifvqepg","pricing_plan_id":"cebpf4jnsgd1na2vs0mg"},{"bike_id":"31c58e5d-9342-432b-b32a-4dfcdf1667fa","system_id":"levelo_inurba_marseille","lat":43.24401,"lon":5.37084,"is_reserved":false,"is_disabled":false,"rental_uris":{"android":"levelo://app?vid=31c58e5d-9342-432b-b32a-4dfcdf1667fa","ios":"levelo://app?vid=31c58e5d-9342-432b-b32a-4dfcdf1667fa"},"vehicle_type_id":"4","last_reported":1740617257,"current_range_meters":17600,"station_id":"ce4bhhh2rcd13ifvqfk0","pricing_plan_id":"cebpf4jnsgd1na2vs0mg"},{"bike_id":"07e71897-7b0a-4f02-b034-4876af832b3a","system_id":"levelo_inurba_marseille","lat":43.28265,"lon":5.35079,"is_reserved":false,"is_disabled":false,"rental_uris":{"android":"levelo://app?vid=07e71897-7b0a-4f02-b034-4876af832b3a","ios":"levelo://app?vid=07e71897-7b0a-4f02-b034-4876af832b3a"},"vehicle_type_id":"4","last_reported":1740617257,"current_range_meters":18000,"station_id":"ce4bhbp2rcd13ifvqerg","pricing_plan_id":"cebpf4jnsgd1na2vs0mg"},{"bike_id":"c45131f9-12d6-49cd-bb97-ba5378f1f25d","system_id":"levelo_inurba_marseille","lat":43.28696,"lon":5.3741,"is_reserved":false,"is_disabled":false,"rental_uris":{"android":"levelo://app?vid=c45131f9-12d6-49cd-bb97-ba5378f1f25d","ios":"levelo://app?vid=c45131f9-12d6-49cd-bb97-ba5378f1f25d"},"vehicle_type_id":"4","last_reported":1740617257,"current_range_meters":18000,"station_id":"ce4bh3p2rcd13ifvqdq0","pricing_plan_id":"cebpf4jnsgd1na2vs0mg"},{"bike_id":"6755398d-5629-4336-b10b-5678360bad01","system_id":"levelo_inurba_marseille","lat":43.28045,"lon":5.36953,"is_reserved":false,"is_disabled":false,"rental_uris":{"android":"levelo://app?vid=6755398d-5629-4336-b10b-5678360bad01","ios":"levelo://app?vid=6755398d-5629-4336-b10b-5678360bad01"},"vehicle_type_id":"4","last_reported":1740617257,"current_range_meters":18000,"station_id":"ce4bha12rcd13ifvqef0","pricing_plan_id":"cebpf4jnsgd1na2vs0mg"},{"bike_id":"b709cef7-b67b-4fcb-a160-dcf377c9f671","system_id":"levelo_inurba_marseille","lat":43.336,"lon":5.41004,"is_reserved":false,"is_disabled":false,"rental_uris":{"android":"levelo://app?vid=b709cef7-b67b-4fcb-a160-dcf377c9f671","ios":"levelo://app?vid=b709cef7-b67b-4fcb-a160-dcf377c9f671"},"vehicle_type_id":"4","last_reported":1740617257,"current_range_meters":18000,"station_id":"ce4bhqh2rcd13ifvqhmg","pricing_plan_id":"cebpf4jnsgd1na2vs0mg"},{"bike_id":"0c77ca74-e220-4b5f-830c-7720e7dac141","system_id":"levelo_inurba_marseille","lat":43.27935,"lon":5.41041,"is_reserved":false,"is_disabled":false,"rental_uris":{"android":"levelo://app?vid=0c77ca74-e220-4b5f-830c-7720e7dac141","ios":"levelo://app?vid=0c77ca74-e220-4b5f-830c-7720e7dac141"},"vehicle_type_id":"4","last_reported":1740617257,"current_range_meters":18000,"station_id":"ce4bhnp2rcd13ifvqh0g","pricing_plan_id":"cebpf4jnsgd1na2vs0mg"},{"bike_id":"4a6e4dab-77e7-4727-9943-ddb1faa90067","system_id":"levelo_inurba_marseille","lat":43.29897,"lon":5.43676,"is_reserved":false,"is_disabled":false,"rental_uris":{"android":"levelo://app?vid=4a6e4dab-77e7-4727-9943-ddb1faa90067","ios":"levelo://app?vid=4a6e4dab-77e7-4727-9943-ddb1faa90067"},"vehicle_type_id":"4","last_reported":1740617257,"current_range_meters":18000,"station_id":"ce4bhpp2rcd13ifvqhfg","pricing_plan_id":"cebpf4jnsgd1na2vs0mg"},{"bike_id":"2500d8f6-0a3a-4b62-87a5-3637dd8635ff","system_id":"levelo_inurba_marseille","lat":43.30111,"lon":5.39865,"is_reserved":false,"is_disabled":false,"rental_uris":{"android":"levelo://app?vid=2500d8f6-0a3a-4b62-87a5-3637dd8635ff","ios":"levelo://app?vid=2500d8f6-0a3a-4b62-87a5-3637dd8635ff"},"vehicle_type_id":"4","last_reported":1740617257,"current_range_meters":18000,"station_id":"ce4bh0h2rcd13ifvqd40","pricing_plan_id":"cebpf4jnsgd1na2vs0mg"},{"bike_id":"f1ac3114-0d4b-4a9b-9960-f283796fe758","system_id":"levelo_inurba_marseille","lat":43.28294,"lon":5.35106,"is_reserved":false,"is_disabled":false,"rental_uris":{"android":"levelo://app?vid=f1ac3114-0d4b-4a9b-9960-f283796fe758","ios":"levelo://app?vid=f1ac3114-0d4b-4a9b-9960-f283796fe758"},"vehicle_type_id":"4","last_reported":1740617257,"current_range_meters":18000,"station_id":"ce4bhbp2rcd13ifvqerg","pricing_plan_id":"cebpf4jnsgd1na2vs0mg"},{"bike_id":"0e538aff-cab5-4886-979e-a6d3d6135864","system_id":"levelo_inurba_marseille","lat":43.27815,"lon":5.40703,"is_reserved":false,"is_disabled":false,"rental_uris":{"android":"levelo://app?vid=0e538aff-cab5-4886-979e-a6d3d6135864","ios":"levelo://app?vid=0e538aff-cab5-4886-979e-a6d3d6135864"},"vehicle_type_id":"4","last_reported":1740617257,"current_range_meters":18000,"station_id":"ce4bhnh2rcd13ifvqgtg","pricing_plan_id":"cebpf4jnsgd1na2vs0mg"},{"bike_id":"a424d550-c6cc-41aa-a556-0658fe8b69da","system_id":"levelo_inurba_marseille","lat":43.2856,"lon":5.39517,"is_reserved":false,"is_disabled":false,"rental_uris":{"android":"levelo://app?vid=a424d550-c6cc-41aa-a556-0658fe8b69da","ios":"levelo://app?vid=a424d550-c6cc-41aa-a556-0658fe8b69da"},"vehicle_type_id":"4","last_reported":1740617257,"current_range_meters":18000,"station_id":"ce4bh292rcd13ifvqdg0","pricing_plan_id":"cebpf4jnsgd1na2vs0mg"},{"bike_id":"8b4a504d-5def-451e-a1be-23e8b0228190","system_id":"levelo_inurba_marseille","lat":43.30936,"lon":5.40135,"is_reserved":false,"is_disabled":false,"rental_uris":{"android":"levelo://app?vid=8b4a504d-5def-451e-a1be-23e8b0228190","ios":"levelo://app?vid=8b4a504d-5def-451e-a1be-23e8b0228190"},"vehicle_type_id":"4","last_reported":1740617257,"current_range_meters":18000,"station_id":"ce4bgvp2rcd13ifvqct0","pricing_plan_id":"cebpf4jnsgd1na2vs0mg"},{"bike_id":"8ca15d20-697a-4175-a0bf-719021840d4f","system_id":"levelo_inurba_marseille","lat":43.290283,"lon":5.386527,"is_reserved":false,"is_disabled":false,"rental_uris":{"android":"levelo://app?vid=8ca15d20-697a-4175-a0bf-719021840d4f","ios":"levelo://app?vid=8ca15d20-697a-4175-a0bf-719021840d4f"},"vehicle_type_id":"4","last_reported":1740617257,"current_range_meters":18000,"station_id":"ce4bhb12rcd13ifvqem0","pricing_plan_id":"cebpf4jnsgd1na2vs0mg"},{"bike_id":"d93602e4-ef44-42f5-bb82-9da7a7cd890a","system_id":"levelo_inurba_marseille","lat":43.28001,"lon":5.40036,"is_reserved":false,"is_disabled":false,"rental_uris":{"android":"levelo://app?vid=d93602e4-ef44-42f5-bb82-9da7a7cd890a","ios":"levelo://app?vid=d93602e4-ef44-42f5-bb82-9da7a7cd890a"},"vehicle_type_id":"4","last_reported":1740617257,"current_range_meters":18800,"station_id":"ce4bho92rcd13ifvqh4g","pricing_plan_id":"cebpf4jnsgd1na2vs0mg"},{"bike_id":"055e4e05-bc00-47a1-ba3f-c80362c5907e","system_id":"levelo_inurba_marseille","lat":43.31167,"lon":5.38708,"is_reserved":false,"is_disabled":false,"rental_uris":{"android":"levelo://app?vid=055e4e05-bc00-47a1-ba3f-c80362c5907e","ios":"levelo://app?vid=055e4e05-bc00-47a1-ba3f-c80362c5907e"},"vehicle_type_id":"4","last_reported":1740617257,"current_range_meters":18000,"station_id":"ce4bgv12rcd13ifvqcp0","pricing_plan_id":"cebpf4jnsgd1na2vs0mg"},{"bike_id":"201ea875-dcfb-46bc-8b15-e3348accddfb","system_id":"levelo_inurba_marseille","lat":43.28416,"lon":5.34993,"is_reserved":false,"is_disabled":false,"rental_uris":{"android":"levelo://app?vid=201ea875-dcfb-46bc-8b15-e3348accddfb","ios":"levelo://app?vid=201ea875-dcfb-46bc-8b15-e3348accddfb"},"vehicle_type_id":"4","last_reported":1740617257,"current_range_meters":18000,"station_id":"ce4bhbh2rcd13ifvqepg","pricing_plan_id":"cebpf4jnsgd1na2vs0mg"},{"bike_id":"a15d7fa4-2269-42f0-a671-9145475a30a1","system_id":"levelo_inurba_marseille","lat":43.30408,"lon":5.38877,"is_reserved":false,"is_disabled":false,"rental_uris":{"android":"levelo://app?vid=a15d7fa4-2269-42f0-a671-9145475a30a1","ios":"levelo://app?vid=a15d7fa4-2269-42f0-a671-9145475a30a1"},"vehicle_type_id":"4","last_reported":1740617257,"current_range_meters":18800,"station_id":"ce4bgk12rcd13ifvqbi0","pricing_plan_id":"cebpf4jnsgd1na2vs0mg"},{"bike_id":"55c7edab-00a1-472f-8b7d-0fc541440b53","system_id":"levelo_inurba_marseille","lat":43.279747,"lon":5.387322,"is_reserved":false,"is_disabled":false,"rental_uris":{"android":"levelo://app?vid=55c7edab-00a1-472f-8b7d-0fc541440b53","ios":"levelo://app?vid=55c7edab-00a1-472f-8b7d-0fc541440b53"},"vehicle_type_id":"4","last_reported":1740617257,"current_range_meters":18800,"station_id":"ce4bhg12rcd13ifvqf80","pricing_plan_id":"cebpf4jnsgd1na2vs0mg"},{"bike_id":"26323dc2-e8b2-43f9-80bb-1c7b85e1a16d","system_id":"levelo_inurba_marseille","lat":43.28417,"lon":5.34993,"is_reserved":false,"is_disabled":false,"rental_uris":{"android":"levelo://app?vid=26323dc2-e8b2-43f9-80bb-1c7b85e1a16d","ios":"levelo://app?vid=26323dc2-e8b2-43f9-80bb-1c7b85e1a16d"},"vehicle_type_id":"4","last_reported":1740617257,"current_range_meters":19200,"station_id":"ce4bhbh2rcd13ifvqepg","pricing_plan_id":"cebpf4jnsgd1na2vs0mg"},{"bike_id":"dffe210d-8811-4170-abf1-acd51308a0d0","system_id":"levelo_inurba_marseille","lat":43.27915,"lon":5.39589,"is_reserved":false,"is_disabled":false,"rental_uris":{"android":"levelo://app?vid=dffe210d-8811-4170-abf1-acd51308a0d0","ios":"levelo://app?vid=dffe210d-8811-4170-abf1-acd51308a0d0"},"vehicle_type_id":"4","last_reported":1740617257,"current_range_meters":18800,"station_id":"ce4bhf92rcd13ifvqf40","pricing_plan_id":"cebpf4jnsgd1na2vs0mg"},{"bike_id":"786ebbca-c760-4823-bfcd-65363bf4c0fe","system_id":"levelo_inurba_marseille","lat":43.31717,"lon":5.43715,"is_reserved":false,"is_disabled":false,"rental_uris":{"android":"levelo://app?vid=786ebbca-c760-4823-bfcd-65363bf4c0fe","ios":"levelo://app?vid=786ebbca-c760-4823-bfcd-65363bf4c0fe"},"vehicle_type_id":"4","last_reported":1740617257,"current_range_meters":19200,"station_id":"ce4bhp92rcd13ifvqhcg","pricing_plan_id":"cebpf4jnsgd1na2vs0mg"},{"bike_id":"304df838-b133-4174-bfb6-4755460cc02a","system_id":"levelo_inurba_marseille","lat":43.28615,"lon":5.35104,"is_reserved":false,"is_disabled":false,"rental_uris":{"android":"levelo://app?vid=304df838-b133-4174-bfb6-4755460cc02a","ios":"levelo://app?vid=304df838-b133-4174-bfb6-4755460cc02a"},"vehicle_type_id":"4","last_reported":1740617257,"current_range_meters":19200,"station_id":"ce4bhch2rcd13ifvqeug","pricing_plan_id":"cebpf4jnsgd1na2vs0mg"},{"bike_id":"3f5e4c77-943b-4a46-b257-614bf13afec4","system_id":"levelo_inurba_marseille","lat":43.24166,"lon":5.36386,"is_reserved":false,"is_disabled":false,"rental_uris":{"android":"levelo://app?vid=3f5e4c77-943b-4a46-b257-614bf13afec4","ios":"levelo://app?vid=3f5e4c77-943b-4a46-b257-614bf13afec4"},"vehicle_type_id":"4","last_reported":1740617257,"current_range_meters":18800,"station_id":"cpo36qri1sfpv3e86is0","pricing_plan_id":"cebpf4jnsgd1na2vs0mg"},{"bike_id":"10194aa5-b5c0-44a6-8a7e-78c3d138ed8b","system_id":"levelo_inurba_marseille","lat":43.28618,"lon":5.37039,"is_reserved":false,"is_disabled":false,"rental_uris":{"android":"levelo://app?vid=10194aa5-b5c0-44a6-8a7e-78c3d138ed8b","ios":"levelo://app?vid=10194aa5-b5c0-44a6-8a7e-78c3d138ed8b"},"vehicle_type_id":"4","last_reported":1740617257,"current_range_meters":18800,"station_id":"ce4bht12rcd13ifvqi60","pricing_plan_id":"cebpf4jnsgd1na2vs0mg"},{"bike_id":"e4d0b515-254a-4741-b117-890a48c4b3ac","system_id":"levelo_inurba_marseille","lat":43.283645,"lon":5.38649,"is_reserved":false,"is_disabled":false,"rental_uris":{"android":"levelo://app?vid=e4d0b515-254a-4741-b117-890a48c4b3ac","ios":"levelo://app?vid=e4d0b515-254a-4741-b117-890a48c4b3ac"},"vehicle_type_id":"4","last_reported":1740617257,"current_range_meters":18800,"station_id":"ce4bh492rcd13ifvqdvg","pricing_plan_id":"cebpf4jnsgd1na2vs0mg"},{"bike_id":"a2ba5894-1914-4bfa-a2a9-f2c441f38868","system_id":"levelo_inurba_marseille","lat":43.309,"lon":5.3964,"is_reserved":false,"is_disabled":false,"rental_uris":{"android":"levelo://app?vid=a2ba5894-1914-4bfa-a2a9-f2c441f38868","ios":"levelo://app?vid=a2ba5894-1914-4bfa-a2a9-f2c441f38868"},"vehicle_type_id":"4","last_reported":1740617257,"current_range_meters":18800,"station_id":"ce4bh012rcd13ifvqcv0","pricing_plan_id":"cebpf4jnsgd1na2vs0mg"},{"bike_id":"775e9e38-491f-409c-82ec-7fd29008b634","system_id":"levelo_inurba_marseille","lat":43.29278,"lon":5.40116,"is_reserved":false,"is_disabled":false,"rental_uris":{"android":"levelo://app?vid=775e9e38-491f-409c-82ec-7fd29008b634","ios":"levelo://app?vid=775e9e38-491f-409c-82ec-7fd29008b634"},"vehicle_type_id":"4","last_reported":1740617257,"current_range_meters":18800,"station_id":"ce4bh312rcd13ifvqdk0","pricing_plan_id":"cebpf4jnsgd1na2vs0mg"},{"bike_id":"7268860e-861c-4424-8644-d9e0d96b920c","system_id":"levelo_inurba_marseille","lat":43.317552,"lon":5.390145,"is_reserved":false,"is_disabled":false,"rental_uris":{"android":"levelo://app?vid=7268860e-861c-4424-8644-d9e0d96b920c","ios":"levelo://app?vid=7268860e-861c-4424-8644-d9e0d96b920c"},"vehicle_type_id":"4","last_reported":1740617257,"current_range_meters":18800,"station_id":"ce4bhqp2rcd13ifvqhng","pricing_plan_id":"cebpf4jnsgd1na2vs0mg"},{"bike_id":"627f9d50-99ab-4386-b5d3-b08940f1d52a","system_id":"levelo_inurba_marseille","lat":43.25571,"lon":5.38231,"is_reserved":false,"is_disabled":false,"rental_uris":{"android":"levelo://app?vid=627f9d50-99ab-4386-b5d3-b08940f1d52a","ios":"levelo://app?vid=627f9d50-99ab-4386-b5d3-b08940f1d52a"},"vehicle_type_id":"4","last_reported":1740617257,"current_range_meters":18800,"station_id":"ce4bhih2rcd13ifvqfs0","pricing_plan_id":"cebpf4jnsgd1na2vs0mg"},{"bike_id":"9e55b257-0901-4099-94e8-0be5d2d6fac4","system_id":"levelo_inurba_marseille","lat":43.304275,"lon":5.388887,"is_reserved":false,"is_disabled":false,"rental_uris":{"android":"levelo://app?vid=9e55b257-0901-4099-94e8-0be5d2d6fac4","ios":"levelo://app?vid=9e55b257-0901-4099-94e8-0be5d2d6fac4"},"vehicle_type_id":"4","last_reported":1740617257,"current_range_meters":18800,"station_id":"ce4bgk12rcd13ifvqbi0","pricing_plan_id":"cebpf4jnsgd1na2vs0mg"},{"bike_id":"c44bdca3-46ab-4cc5-9135-ceeaec0964d2","system_id":"levelo_inurba_marseille","lat":43.28103,"lon":5.37856,"is_reserved":false,"is_disabled":false,"rental_uris":{"android":"levelo://app?vid=c44bdca3-46ab-4cc5-9135-ceeaec0964d2","ios":"levelo://app?vid=c44bdca3-46ab-4cc5-9135-ceeaec0964d2"},"vehicle_type_id":"4","last_reported":1740617257,"current_range_meters":19200,"station_id":"ce4bha12rcd13ifvqee0","pricing_plan_id":"cebpf4jnsgd1na2vs0mg"},{"bike_id":"17e4668b-899f-4f8f-b815-cde5399e95c4","system_id":"levelo_inurba_marseille","lat":43.28355,"lon":5.38622,"is_reserved":false,"is_disabled":false,"rental_uris":{"android":"levelo://app?vid=17e4668b-899f-4f8f-b815-cde5399e95c4","ios":"levelo://app?vid=17e4668b-899f-4f8f-b815-cde5399e95c4"},"vehicle_type_id":"4","last_reported":1740617257,"current_range_meters":19200,"station_id":"ce4bh492rcd13ifvqdvg","pricing_plan_id":"cebpf4jnsgd1na2vs0mg"},{"bike_id":"5549677b-db73-4766-a92b-a2b88ca82c0e","system_id":"levelo_inurba_marseille","lat":43.29316,"lon":5.37185,"is_reserved":false,"is_disabled":false,"rental_uris":{"android":"levelo://app?vid=5549677b-db73-4766-a92b-a2b88ca82c0e","ios":"levelo://app?vid=5549677b-db73-4766-a92b-a2b88ca82c0e"},"vehicle_type_id":"4","last_reported":1740617257,"current_range_meters":19200,"station_id":"ce4bgh92rcd13ifvqb40","pricing_plan_id":"cebpf4jnsgd1na2vs0mg"},{"bike_id":"6886e6de-a711-42bb-a0f8-d5b3300e6945","system_id":"levelo_inurba_marseille","lat":43.30137,"lon":5.39869,"is_reserved":false,"is_disabled":false,"rental_uris":{"android":"levelo://app?vid=6886e6de-a711-42bb-a0f8-d5b3300e6945","ios":"levelo://app?vid=6886e6de-a711-42bb-a0f8-d5b3300e6945"},"vehicle_type_id":"4","last_reported":1740617257,"current_range_meters":19200,"station_id":"ce4bh0h2rcd13ifvqd40","pricing_plan_id":"cebpf4jnsgd1na2vs0mg"},{"bike_id":"7380bee6-bff9-4bda-a88c-88e826549124","system_id":"levelo_inurba_marseille","lat":43.28975,"lon":5.37835,"is_reserved":false,"is_disabled":true,"rental_uris":{"android":"levelo://app?vid=7380bee6-bff9-4bda-a88c-88e826549124","ios":"levelo://app?vid=7380bee6-bff9-4bda-a88c-88e826549124"},"vehicle_type_id":"4","last_reported":1740617257,"current_range_meters":19200,"station_id":"ce4bh9p2rcd13ifvqed0","pricing_plan_id":"cebpf4jnsgd1na2vs0mg"},{"bike_id":"43d6aa6f-20c7-4a1b-bcb8-31b660876567","system_id":"levelo_inurba_marseille","lat":43.265534,"lon":5.372905,"is_reserved":false,"is_disabled":false,"rental_uris":{"android":"levelo://app?vid=43d6aa6f-20c7-4a1b-bcb8-31b660876567","ios":"levelo://app?vid=43d6aa6f-20c7-4a1b-bcb8-31b660876567"},"vehicle_type_id":"4","last_reported":1740617257,"current_range_meters":19200,"station_id":"ce4bhg12rcd13ifvqf70","pricing_plan_id":"cebpf4jnsgd1na2vs0mg"},{"bike_id":"8e100345-e773-4b5f-aa04-a4e55e7b32d1","system_id":"levelo_inurba_marseille","lat":43.31485,"lon":5.37287,"is_reserved":false,"is_disabled":false,"rental_uris":{"android":"levelo://app?vid=8e100345-e773-4b5f-aa04-a4e55e7b32d1","ios":"levelo://app?vid=8e100345-e773-4b5f-aa04-a4e55e7b32d1"},"vehicle_type_id":"4","last_reported":1740617257,"current_range_meters":19200,"station_id":"ce4bgt12rcd13ifvqcd0","pricing_plan_id":"cebpf4jnsgd1na2vs0mg"},{"bike_id":"d95ed205-f847-4a1b-ba58-fbca887b6d62","system_id":"levelo_inurba_marseille","lat":43.32444,"lon":5.36581,"is_reserved":false,"is_disabled":false,"rental_uris":{"android":"levelo://app?vid=d95ed205-f847-4a1b-ba58-fbca887b6d62","ios":"levelo://app?vid=d95ed205-f847-4a1b-ba58-fbca887b6d62"},"vehicle_type_id":"4","last_reported":1740617257,"current_range_meters":19200,"station_id":"ce4bhs12rcd13ifvqhvg","pricing_plan_id":"cebpf4jnsgd1na2vs0mg"},{"bike_id":"d371b168-a51a-4cf3-ae2f-a4619c1de866","system_id":"levelo_inurba_marseille","lat":43.3089,"lon":5.3963,"is_reserved":false,"is_disabled":false,"rental_uris":{"android":"levelo://app?vid=d371b168-a51a-4cf3-ae2f-a4619c1de866","ios":"levelo://app?vid=d371b168-a51a-4cf3-ae2f-a4619c1de866"},"vehicle_type_id":"4","last_reported":1740617257,"current_range_meters":19600,"station_id":"ce4bh012rcd13ifvqcv0","pricing_plan_id":"cebpf4jnsgd1na2vs0mg"},{"bike_id":"286c92e4-d47b-4dae-80c2-d16093fd9f3b","system_id":"levelo_inurba_marseille","lat":43.28355,"lon":5.38122,"is_reserved":false,"is_disabled":false,"rental_uris":{"android":"levelo://app?vid=286c92e4-d47b-4dae-80c2-d16093fd9f3b","ios":"levelo://app?vid=286c92e4-d47b-4dae-80c2-d16093fd9f3b"},"vehicle_type_id":"4","last_reported":1740617257,"current_range_meters":19200,"station_id":"ce4bh412rcd13ifvqdr0","pricing_plan_id":"cebpf4jnsgd1na2vs0mg"},{"bike_id":"3585a39b-c51b-4692-bc5c-3a4560977b1f","system_id":"levelo_inurba_marseille","lat":43.30655,"lon":5.40054,"is_reserved":false,"is_disabled":false,"rental_uris":{"android":"levelo://app?vid=3585a39b-c51b-4692-bc5c-3a4560977b1f","ios":"levelo://app?vid=3585a39b-c51b-4692-bc5c-3a4560977b1f"},"vehicle_type_id":"4","last_reported":1740617257,"current_range_meters":19200,"station_id":"ce4bh112rcd13ifvqda0","pricing_plan_id":"cebpf4jnsgd1na2vs0mg"},{"bike_id":"5366013f-331a-43c2-9df2-b998859ed1e0","system_id":"levelo_inurba_marseille","lat":43.22935,"lon":5.35377,"is_reserved":false,"is_disabled":false,"rental_uris":{"android":"levelo://app?vid=5366013f-331a-43c2-9df2-b998859ed1e0","ios":"levelo://app?vid=5366013f-331a-43c2-9df2-b998859ed1e0"},"vehicle_type_id":"4","last_reported":1740617257,"current_range_meters":19200,"station_id":"cpo3532slgdg3j2ikp40","pricing_plan_id":"cebpf4jnsgd1na2vs0mg"},{"bike_id":"30e6a8b7-d81e-43c4-a0e8-e8a57a43deec","system_id":"levelo_inurba_marseille","lat":43.28268,"lon":5.35065,"is_reserved":false,"is_disabled":false,"rental_uris":{"android":"levelo://app?vid=30e6a8b7-d81e-43c4-a0e8-e8a57a43deec","ios":"levelo://app?vid=30e6a8b7-d81e-43c4-a0e8-e8a57a43deec"},"vehicle_type_id":"4","last_reported":1740617257,"current_range_meters":19200,"station_id":"ce4bhbp2rcd13ifvqerg","pricing_plan_id":"cebpf4jnsgd1na2vs0mg"},{"bike_id":"65ab45ca-9145-495f-9f3c-2efdfd066737","system_id":"levelo_inurba_marseille","lat":43.29199,"lon":5.39319,"is_reserved":false,"is_disabled":false,"rental_uris":{"android":"levelo://app?vid=65ab45ca-9145-495f-9f3c-2efdfd066737","ios":"levelo://app?vid=65ab45ca-9145-495f-9f3c-2efdfd066737"},"vehicle_type_id":"4","last_reported":1740617257,"current_range_meters":19600,"station_id":"ce4bh192rcd13ifvqdd0","pricing_plan_id":"cebpf4jnsgd1na2vs0mg"},{"bike_id":"efbcf9c0-cb60-4de7-a1a6-ec650e3775d2","system_id":"levelo_inurba_marseille","lat":43.28281,"lon":5.35056,"is_reserved":false,"is_disabled":false,"rental_uris":{"android":"levelo://app?vid=efbcf9c0-cb60-4de7-a1a6-ec650e3775d2","ios":"levelo://app?vid=efbcf9c0-cb60-4de7-a1a6-ec650e3775d2"},"vehicle_type_id":"4","last_reported":1740617257,"current_range_meters":19600,"station_id":"ce4bhbp2rcd13ifvqerg","pricing_plan_id":"cebpf4jnsgd1na2vs0mg"},{"bike_id":"4380a28f-e631-41db-9523-e3bc2367fcc4","system_id":"levelo_inurba_marseille","lat":43.24072,"lon":5.3775,"is_reserved":false,"is_disabled":false,"rental_uris":{"android":"levelo://app?vid=4380a28f-e631-41db-9523-e3bc2367fcc4","ios":"levelo://app?vid=4380a28f-e631-41db-9523-e3bc2367fcc4"},