{"last_updated":1774035000,"ttl":60,"version":"2.2","data":{"bikes":[{"bike_id":"0ee4ce16-829f-49ee-9a2a-4b4670dfbc6f","system_id":"levelo_inurba_marseille","lat":43.2848,"lon":5.48394,"is_reserved":false,"is_disabled":false,"rental_uris":{"android":"levelo://app?vid=0ee4ce16-829f-49ee-9a2a-4b4670dfbc6f","ios":"levelo://app?vid=0ee4ce16-829f-49ee-9a2a-4b4670dfbc6f"},"vehicle_type_id":"4","last_reported":1774035001,"current_range_meters":800,"station_id":"st_d3svhcjqgbts73a3dn0g","pricing_plan_id":"cebpf4jnsgd1na2vs0mg"},{"bike_id":"4ce3bc6a-ea26-4295-a40f-8eb1e889be8f","system_id":"levelo_inurba_marseille","lat":43.28866,"lon":5.39319,"is_reserved":false,"is_disabled":false,"rental_uris":{"android":"levelo://app?vid=4ce3bc6a-ea26-4295-a40f-8eb1e889be8f","ios":"levelo://app?vid=4ce3bc6a-ea26-4295-a40f-8eb1e889be8f"},"vehicle_type_id":"4","last_reported":1774035001,"current_range_meters":800,"station_id":"ce4bh2p2rcd13ifvqdi0","pricing_plan_id":"cebpf4jnsgd1na2vs0mg"},{"bike_id":"62fa02ed-9bb1-4b5a-a746-dee15728b6aa","system_id":"levelo_inurba_marseille","lat":43.26572,"lon":5.39042,"is_reserved":false,"is_disabled":false,"rental_uris":{"android":"levelo://app?vid=62fa02ed-9bb1-4b5a-a746-dee15728b6aa","ios":"levelo://app?vid=62fa02ed-9bb1-4b5a-a746-dee15728b6aa"},"vehicle_type_id":"4","last_reported":1774035001,"current_range_meters":1200,"station_id":"ce4bhe12rcd13ifvqf30","pricing_plan_id":"cebpf4jnsgd1na2vs0mg"},{"bike_id":"163513a9-cf44-4a3f-b8cb-792a9f3aa129","system_id":"levelo_inurba_marseille","lat":43.26558,"lon":5.37302,"is_reserved":false,"is_disabled":false,"rental_uris":{"android":"levelo://app?vid=163513a9-cf44-4a3f-b8cb-792a9f3aa129","ios":"levelo://app?vid=163513a9-cf44-4a3f-b8cb-792a9f3aa129"},"vehicle_type_id":"4","last_reported":1774035001,"current_range_meters":2800,"station_id":"ce4bhg12rcd13ifvqf70","pricing_plan_id":"cebpf4jnsgd1na2vs0mg"},{"bike_id":"d7f1d325-9176-43b7-b2c0-125e729d2963","system_id":"levelo_inurba_marseille","lat":43.29166,"lon":5.37156,"is_reserved":false,"is_disabled":false,"rental_uris":{"android":"levelo://app?vid=d7f1d325-9176-43b7-b2c0-125e729d2963","ios":"levelo://app?vid=d7f1d325-9176-43b7-b2c0-125e729d2963"},"vehicle_type_id":"4","last_reported":1774035001,"current_range_meters":2800,"station_id":"ce4bha92rcd13ifvqeh0","pricing_plan_id":"cebpf4jnsgd1na2vs0mg"},{"bike_id":"8a854e0a-3b9f-471d-80f2-bfadb0595e6b","system_id":"levelo_inurba_marseille","lat":43.31397,"lon":5.37639,"is_reserved":false,"is_disabled":false,"rental_uris":{"android":"levelo://app?vid=8a854e0a-3b9f-471d-80f2-bfadb0595e6b","ios":"levelo://app?vid=8a854e0a-3b9f-471d-80f2-bfadb0595e6b"},"vehicle_type_id":"4","last_reported":1774035001,"current_range_meters":2800,"station_id":"","pricing_plan_id":"cebpf4jnsgd1na2vs0mg"},{"bike_id":"0ee81e76-5042-4095-b48f-98cf602a2550","system_id":"levelo_inurba_marseille","lat":43.30659,"lon":5.40067,"is_reserved":false,"is_disabled":false,"rental_uris":{"android":"levelo://app?vid=0ee81e76-5042-4095-b48f-98cf602a2550","ios":"levelo://app?vid=0ee81e76-5042-4095-b48f-98cf602a2550"},"vehicle_type_id":"4","last_reported":1774035001,"current_range_meters":2800,"station_id":"ce4bh112rcd13ifvqda0","pricing_plan_id":"cebpf4jnsgd1na2vs0mg"},{"bike_id":"71bb0af2-b7f4-4f28-8c38-df27cce5ce10","system_id":"levelo_inurba_marseille","lat":43.29534,"lon":5.38553,"is_reserved":false,"is_disabled":false,"rental_uris":{"android":"levelo://app?vid=71bb0af2-b7f4-4f28-8c38-df27cce5ce10","ios":"levelo://app?vid=71bb0af2-b7f4-4f28-8c38-df27cce5ce10"},"vehicle_type_id":"4","last_reported":1774035001,"current_range_meters":2800,"station_id":"ce4bgih2rcd13ifvqba0","pricing_plan_id":"cebpf4jnsgd1na2vs0mg"},{"bike_id":"1aadb80c-b30f-4587-82dd-6863a5d63171","system_id":"levelo_inurba_marseille","lat":43.31168,"lon":5.38725,"is_reserved":false,"is_disabled":false,"rental_uris":{"android":"levelo://app?vid=1aadb80c-b30f-4587-82dd-6863a5d63171","ios":"levelo://app?vid=1aadb80c-b30f-4587-82dd-6863a5d63171"},"vehicle_type_id":"4","last_reported":1774035001,"current_range_meters":2800,"station_id":"ce4bgv12rcd13ifvqcp0","pricing_plan_id":"cebpf4jnsgd1na2vs0mg"},{"bike_id":"dd10efc5-28b9-436a-be78-8011941e89fc","system_id":"levelo_inurba_marseille","lat":43.28479,"lon":5.48382,"is_reserved":false,"is_disabled":false,"rental_uris":{"android":"levelo://app?vid=dd10efc5-28b9-436a-be78-8011941e89fc","ios":"levelo://app?vid=dd10efc5-28b9-436a-be78-8011941e89fc"},"vehicle_type_id":"4","last_reported":1774035001,"current_range_meters":2800,"station_id":"st_d3svhcjqgbts73a3dn0g","pricing_plan_id":"cebpf4jnsgd1na2vs0mg"},{"bike_id":"020d0344-ead6-49a2-a5fc-50a9a434d748","system_id":"levelo_inurba_marseille","lat":43.23774,"lon":5.3664,"is_reserved":false,"is_disabled":false,"rental_uris":{"android":"levelo://app?vid=020d0344-ead6-49a2-a5fc-50a9a434d748","ios":"levelo://app?vid=020d0344-ead6-49a2-a5fc-50a9a434d748"},"vehicle_type_id":"4","last_reported":1774035001,"current_range_meters":2800,"station_id":"st_d3nk18o9ro0c73en2l3g","pricing_plan_id":"cebpf4jnsgd1na2vs0mg"},{"bike_id":"21eada7e-0829-4995-9b0d-14ed8d853bdf","system_id":"levelo_inurba_marseille","lat":43.29968,"lon":5.38499,"is_reserved":false,"is_disabled":false,"rental_uris":{"android":"levelo://app?vid=21eada7e-0829-4995-9b0d-14ed8d853bdf","ios":"levelo://app?vid=21eada7e-0829-4995-9b0d-14ed8d853bdf"},"vehicle_type_id":"4","last_reported":1774035001,"current_range_meters":2800,"station_id":"ce4bgj92rcd13ifvqbd0","pricing_plan_id":"cebpf4jnsgd1na2vs0mg"},{"bike_id":"a123ca8b-3d5f-4b79-99cf-b83e89168174","system_id":"levelo_inurba_marseille","lat":43.309495,"lon":5.390251,"is_reserved":false,"is_disabled":false,"rental_uris":{"android":"levelo://app?vid=a123ca8b-3d5f-4b79-99cf-b83e89168174","ios":"levelo://app?vid=a123ca8b-3d5f-4b79-99cf-b83e89168174"},"vehicle_type_id":"4","last_reported":1774035001,"current_range_meters":2800,"station_id":"ce4bgup2rcd13ifvqco0","pricing_plan_id":"cebpf4jnsgd1na2vs0mg"},{"bike_id":"299e519b-3b2c-4aa3-9af1-362f343fe8f8","system_id":"levelo_inurba_marseille","lat":43.23803,"lon":5.36624,"is_reserved":false,"is_disabled":false,"rental_uris":{"android":"levelo://app?vid=299e519b-3b2c-4aa3-9af1-362f343fe8f8","ios":"levelo://app?vid=299e519b-3b2c-4aa3-9af1-362f343fe8f8"},"vehicle_type_id":"4","last_reported":1774035001,"current_range_meters":2800,"station_id":"st_d3nk18o9ro0c73en2l3g","pricing_plan_id":"cebpf4jnsgd1na2vs0mg"},{"bike_id":"3bc839e1-753d-4f13-80bd-f89f055f78bf","system_id":"levelo_inurba_marseille","lat":43.30296,"lon":5.39219,"is_reserved":false,"is_disabled":false,"rental_uris":{"android":"levelo://app?vid=3bc839e1-753d-4f13-80bd-f89f055f78bf","ios":"levelo://app?vid=3bc839e1-753d-4f13-80bd-f89f055f78bf"},"vehicle_type_id":"4","last_reported":1774035001,"current_range_meters":2800,"station_id":"ce4bgkh2rcd13ifvqbk0","pricing_plan_id":"cebpf4jnsgd1na2vs0mg"},{"bike_id":"915ed3bf-437c-48a8-9c74-a2aee1c707eb","system_id":"levelo_inurba_marseille","lat":43.31173,"lon":5.40624,"is_reserved":false,"is_disabled":false,"rental_uris":{"android":"levelo://app?vid=915ed3bf-437c-48a8-9c74-a2aee1c707eb","ios":"levelo://app?vid=915ed3bf-437c-48a8-9c74-a2aee1c707eb"},"vehicle_type_id":"4","last_reported":1774035001,"current_range_meters":2800,"station_id":"","pricing_plan_id":"cebpf4jnsgd1na2vs0mg"},{"bike_id":"368c9922-f0a4-48aa-a8e4-ec9798de1f1b","system_id":"levelo_inurba_marseille","lat":43.28677,"lon":5.38653,"is_reserved":false,"is_disabled":true,"rental_uris":{"android":"levelo://app?vid=368c9922-f0a4-48aa-a8e4-ec9798de1f1b","ios":"levelo://app?vid=368c9922-f0a4-48aa-a8e4-ec9798de1f1b"},"vehicle_type_id":"4","last_reported":1774035001,"current_range_meters":2800,"station_id":"ce4bh492rcd13ifvqdug","pricing_plan_id":"cebpf4jnsgd1na2vs0mg"},{"bike_id":"638e7b64-9b6b-4711-b32b-50ebc88afca6","system_id":"levelo_inurba_marseille","lat":43.29968,"lon":5.38499,"is_reserved":false,"is_disabled":false,"rental_uris":{"android":"levelo://app?vid=638e7b64-9b6b-4711-b32b-50ebc88afca6","ios":"levelo://app?vid=638e7b64-9b6b-4711-b32b-50ebc88afca6"},"vehicle_type_id":"4","last_reported":1774035001,"current_range_meters":2800,"station_id":"ce4bgj92rcd13ifvqbd0","pricing_plan_id":"cebpf4jnsgd1na2vs0mg"},{"bike_id":"39421cf9-7a72-4fc3-a879-2901ca5d5846","system_id":"levelo_inurba_marseille","lat":43.2377,"lon":5.36632,"is_reserved":false,"is_disabled":false,"rental_uris":{"android":"levelo://app?vid=39421cf9-7a72-4fc3-a879-2901ca5d5846","ios":"levelo://app?vid=39421cf9-7a72-4fc3-a879-2901ca5d5846"},"vehicle_type_id":"4","last_reported":1774035001,"current_range_meters":2800,"station_id":"st_d3nk18o9ro0c73en2l3g","pricing_plan_id":"cebpf4jnsgd1na2vs0mg"},{"bike_id":"4c6a4d6a-2427-4c2c-bc2d-a0973ca4e7b9","system_id":"levelo_inurba_marseille","lat":43.28001,"lon":5.41665,"is_reserved":false,"is_disabled":false,"rental_uris":{"android":"levelo://app?vid=4c6a4d6a-2427-4c2c-bc2d-a0973ca4e7b9","ios":"levelo://app?vid=4c6a4d6a-2427-4c2c-bc2d-a0973ca4e7b9"},"vehicle_type_id":"4","last_reported":1774035001,"current_range_meters":2800,"station_id":"ce4bho12rcd13ifvqh1g","pricing_plan_id":"cebpf4jnsgd1na2vs0mg"},{"bike_id":"2b236a84-6974-4508-ae37-dec2d5efeee9","system_id":"levelo_inurba_marseille","lat":43.28399,"lon":5.37516,"is_reserved":false,"is_disabled":false,"rental_uris":{"android":"levelo://app?vid=2b236a84-6974-4508-ae37-dec2d5efeee9","ios":"levelo://app?vid=2b236a84-6974-4508-ae37-dec2d5efeee9"},"vehicle_type_id":"4","last_reported":1774035001,"current_range_meters":2800,"station_id":"ce4bh412rcd13ifvqds0","pricing_plan_id":"cebpf4jnsgd1na2vs0mg"},{"bike_id":"692930df-6ce1-42eb-baeb-4f1bf2f648b0","system_id":"levelo_inurba_marseille","lat":43.28037,"lon":5.36958,"is_reserved":false,"is_disabled":false,"rental_uris":{"android":"levelo://app?vid=692930df-6ce1-42eb-baeb-4f1bf2f648b0","ios":"levelo://app?vid=692930df-6ce1-42eb-baeb-4f1bf2f648b0"},"vehicle_type_id":"4","last_reported":1774035001,"current_range_meters":2800,"station_id":"ce4bha12rcd13ifvqef0","pricing_plan_id":"cebpf4jnsgd1na2vs0mg"},{"bike_id":"11db26d7-8ee0-46eb-abd5-821363842081","system_id":"levelo_inurba_marseille","lat":43.30306,"lon":5.39226,"is_reserved":false,"is_disabled":false,"rental_uris":{"android":"levelo://app?vid=11db26d7-8ee0-46eb-abd5-821363842081","ios":"levelo://app?vid=11db26d7-8ee0-46eb-abd5-821363842081"},"vehicle_type_id":"4","last_reported":1774035001,"current_range_meters":2800,"station_id":"ce4bgkh2rcd13ifvqbk0","pricing_plan_id":"cebpf4jnsgd1na2vs0mg"},{"bike_id":"33eb42bc-48d5-41d9-b570-aa7ee969cd7f","system_id":"levelo_inurba_marseille","lat":43.29873,"lon":5.38925,"is_reserved":false,"is_disabled":false,"rental_uris":{"android":"levelo://app?vid=33eb42bc-48d5-41d9-b570-aa7ee969cd7f","ios":"levelo://app?vid=33eb42bc-48d5-41d9-b570-aa7ee969cd7f"},"vehicle_type_id":"4","last_reported":1774035001,"current_range_meters":3200,"station_id":"ce4bh392rcd13ifvqdl0","pricing_plan_id":"cebpf4jnsgd1na2vs0mg"},{"bike_id":"34fff6b9-99ea-488b-8a97-ef0b80dd2053","system_id":"levelo_inurba_marseille","lat":43.2926,"lon":5.38442,"is_reserved":false,"is_disabled":false,"rental_uris":{"android":"levelo://app?vid=34fff6b9-99ea-488b-8a97-ef0b80dd2053","ios":"levelo://app?vid=34fff6b9-99ea-488b-8a97-ef0b80dd2053"},"vehicle_type_id":"4","last_reported":1774035001,"current_range_meters":3200,"station_id":"ce4bh692rcd13ifvqea0","pricing_plan_id":"cebpf4jnsgd1na2vs0mg"},{"bike_id":"334f36df-a5e0-484e-9122-68f9b370528c","system_id":"levelo_inurba_marseille","lat":43.29054,"lon":5.35937,"is_reserved":false,"is_disabled":false,"rental_uris":{"android":"levelo://app?vid=334f36df-a5e0-484e-9122-68f9b370528c","ios":"levelo://app?vid=334f36df-a5e0-484e-9122-68f9b370528c"},"vehicle_type_id":"4","last_reported":1774035001,"current_range_meters":3200,"station_id":"ce4bha92rcd13ifvqeg0","pricing_plan_id":"cebpf4jnsgd1na2vs0mg"},{"bike_id":"dc9c1a65-4e5f-47af-9ae5-d6e68ee20742","system_id":"levelo_inurba_marseille","lat":43.291,"lon":5.38166,"is_reserved":false,"is_disabled":false,"rental_uris":{"android":"levelo://app?vid=dc9c1a65-4e5f-47af-9ae5-d6e68ee20742","ios":"levelo://app?vid=dc9c1a65-4e5f-47af-9ae5-d6e68ee20742"},"vehicle_type_id":"4","last_reported":1774035001,"current_range_meters":3200,"station_id":"ce4bh512rcd13ifvqe2g","pricing_plan_id":"cebpf4jnsgd1na2vs0mg"},{"bike_id":"e5442f07-fb15-4276-9252-55d9dab8a584","system_id":"levelo_inurba_marseille","lat":43.29039,"lon":5.38659,"is_reserved":false,"is_disabled":false,"rental_uris":{"android":"levelo://app?vid=e5442f07-fb15-4276-9252-55d9dab8a584","ios":"levelo://app?vid=e5442f07-fb15-4276-9252-55d9dab8a584"},"vehicle_type_id":"4","last_reported":1774035001,"current_range_meters":3200,"station_id":"ce4bh4p2rcd13ifvqe0g","pricing_plan_id":"cebpf4jnsgd1na2vs0mg"},{"bike_id":"7bd8d017-c910-446f-a89a-6ed676250d74","system_id":"levelo_inurba_marseille","lat":43.30676,"lon":5.40078,"is_reserved":false,"is_disabled":false,"rental_uris":{"android":"levelo://app?vid=7bd8d017-c910-446f-a89a-6ed676250d74","ios":"levelo://app?vid=7bd8d017-c910-446f-a89a-6ed676250d74"},"vehicle_type_id":"4","last_reported":1774035001,"current_range_meters":3200,"station_id":"ce4bh112rcd13ifvqda0","pricing_plan_id":"cebpf4jnsgd1na2vs0mg"},{"bike_id":"ef9496c7-12d3-4835-b316-30e7646ddff1","system_id":"levelo_inurba_marseille","lat":43.30799,"lon":5.38171,"is_reserved":false,"is_disabled":false,"rental_uris":{"android":"levelo://app?vid=ef9496c7-12d3-4835-b316-30e7646ddff1","ios":"levelo://app?vid=ef9496c7-12d3-4835-b316-30e7646ddff1"},"vehicle_type_id":"4","last_reported":1774035001,"current_range_meters":3200,"station_id":"ce4bgt12rcd13ifvqce0","pricing_plan_id":"cebpf4jnsgd1na2vs0mg"},{"bike_id":"c177e476-d3df-4b94-9377-dd03b30729b0","system_id":"levelo_inurba_marseille","lat":43.23901,"lon":5.37459,"is_reserved":false,"is_disabled":false,"rental_uris":{"android":"levelo://app?vid=c177e476-d3df-4b94-9377-dd03b30729b0","ios":"levelo://app?vid=c177e476-d3df-4b94-9377-dd03b30729b0"},"vehicle_type_id":"4","last_reported":1774035001,"current_range_meters":3200,"station_id":"st_d6sm7csbq4hs73f8fpjg","pricing_plan_id":"cebpf4jnsgd1na2vs0mg"},{"bike_id":"761118ee-02f3-49c7-b816-ce77eb032c9a","system_id":"levelo_inurba_marseille","lat":43.28662,"lon":5.36365,"is_reserved":false,"is_disabled":false,"rental_uris":{"android":"levelo://app?vid=761118ee-02f3-49c7-b816-ce77eb032c9a","ios":"levelo://app?vid=761118ee-02f3-49c7-b816-ce77eb032c9a"},"vehicle_type_id":"4","last_reported":1774035001,"current_range_meters":3200,"station_id":"ce4bhah2rcd13ifvqej0","pricing_plan_id":"cebpf4jnsgd1na2vs0mg"},{"bike_id":"00456695-d732-4f33-93c8-e39b4d4bf96b","system_id":"levelo_inurba_marseille","lat":43.29801,"lon":5.38121,"is_reserved":false,"is_disabled":true,"rental_uris":{"android":"levelo://app?vid=00456695-d732-4f33-93c8-e39b4d4bf96b","ios":"levelo://app?vid=00456695-d732-4f33-93c8-e39b4d4bf96b"},"vehicle_type_id":"4","last_reported":1774035001,"current_range_meters":3200,"station_id":"ce4bgip2rcd13ifvqbb0","pricing_plan_id":"cebpf4jnsgd1na2vs0mg"},{"bike_id":"b4bf3547-fc1c-4225-b7e7-6f854ca44ac1","system_id":"levelo_inurba_marseille","lat":43.25867,"lon":5.399,"is_reserved":false,"is_disabled":false,"rental_uris":{"android":"levelo://app?vid=b4bf3547-fc1c-4225-b7e7-6f854ca44ac1","ios":"levelo://app?vid=b4bf3547-fc1c-4225-b7e7-6f854ca44ac1"},"vehicle_type_id":"4","last_reported":1774035001,"current_range_meters":3200,"station_id":"ce4bhl92rcd13ifvqghg","pricing_plan_id":"cebpf4jnsgd1na2vs0mg"},{"bike_id":"7071ecc9-e0b1-4f02-af28-487700ea32ac","system_id":"levelo_inurba_marseille","lat":43.28104,"lon":5.3785,"is_reserved":false,"is_disabled":false,"rental_uris":{"android":"levelo://app?vid=7071ecc9-e0b1-4f02-af28-487700ea32ac","ios":"levelo://app?vid=7071ecc9-e0b1-4f02-af28-487700ea32ac"},"vehicle_type_id":"4","last_reported":1774035001,"current_range_meters":3200,"station_id":"ce4bha12rcd13ifvqee0","pricing_plan_id":"cebpf4jnsgd1na2vs0mg"},{"bike_id":"06ce4f90-d2c1-4cdf-8e92-af4e6c83cb49","system_id":"levelo_inurba_marseille","lat":43.28991,"lon":5.35606,"is_reserved":false,"is_disabled":true,"rental_uris":{"android":"levelo://app?vid=06ce4f90-d2c1-4cdf-8e92-af4e6c83cb49","ios":"levelo://app?vid=06ce4f90-d2c1-4cdf-8e92-af4e6c83cb49"},"vehicle_type_id":"4","last_reported":1774035001,"current_range_meters":3200,"station_id":"ce4bhb92rcd13ifvqen0","pricing_plan_id":"cebpf4jnsgd1na2vs0mg"},{"bike_id":"b24efd61-5957-4034-9985-644c1e3ae6d7","system_id":"levelo_inurba_marseille","lat":43.29788,"lon":5.37918,"is_reserved":false,"is_disabled":false,"rental_uris":{"android":"levelo://app?vid=b24efd61-5957-4034-9985-644c1e3ae6d7","ios":"levelo://app?vid=b24efd61-5957-4034-9985-644c1e3ae6d7"},"vehicle_type_id":"4","last_reported":1774035001,"current_range_meters":3200,"station_id":"","pricing_plan_id":"cebpf4jnsgd1na2vs0mg"},{"bike_id":"6d685847-ceb0-4f79-99f2-cc8153818f13","system_id":"levelo_inurba_marseille","lat":43.27372,"lon":5.36255,"is_reserved":false,"is_disabled":true,"rental_uris":{"android":"levelo://app?vid=6d685847-ceb0-4f79-99f2-cc8153818f13","ios":"levelo://app?vid=6d685847-ceb0-4f79-99f2-cc8153818f13"},"vehicle_type_id":"4","last_reported":1774035001,"current_range_meters":3200,"station_id":"ce4bhbh2rcd13ifvqeo0","pricing_plan_id":"cebpf4jnsgd1na2vs0mg"},{"bike_id":"3ed4bc13-b22d-44b4-aa6f-19f196c483da","system_id":"levelo_inurba_marseille","lat":43.24176,"lon":5.36402,"is_reserved":false,"is_disabled":false,"rental_uris":{"android":"levelo://app?vid=3ed4bc13-b22d-44b4-aa6f-19f196c483da","ios":"levelo://app?vid=3ed4bc13-b22d-44b4-aa6f-19f196c483da"},"vehicle_type_id":"4","last_reported":1774035001,"current_range_meters":3200,"station_id":"cpo36qri1sfpv3e86is0","pricing_plan_id":"cebpf4jnsgd1na2vs0mg"},{"bike_id":"1138b2dc-1b72-477a-ae78-dd51fe16b929","system_id":"levelo_inurba_marseille","lat":43.29407,"lon":5.37831,"is_reserved":false,"is_disabled":false,"rental_uris":{"android":"levelo://app?vid=1138b2dc-1b72-477a-ae78-dd51fe16b929","ios":"levelo://app?vid=1138b2dc-1b72-477a-ae78-dd51fe16b929"},"vehicle_type_id":"4","last_reported":1774035001,"current_range_meters":3200,"station_id":"ce4bgjh2rcd13ifvqbf0","pricing_plan_id":"cebpf4jnsgd1na2vs0mg"},{"bike_id":"b022b9bc-b363-440b-af19-cb6f1734cb1c","system_id":"levelo_inurba_marseille","lat":43.29262,"lon":5.38443,"is_reserved":false,"is_disabled":false,"rental_uris":{"android":"levelo://app?vid=b022b9bc-b363-440b-af19-cb6f1734cb1c","ios":"levelo://app?vid=b022b9bc-b363-440b-af19-cb6f1734cb1c"},"vehicle_type_id":"4","last_reported":1774035001,"current_range_meters":3200,"station_id":"ce4bh692rcd13ifvqea0","pricing_plan_id":"cebpf4jnsgd1na2vs0mg"},{"bike_id":"c010e990-0583-47d0-8ada-72cc3026e0f5","system_id":"levelo_inurba_marseille","lat":43.29364,"lon":5.3783,"is_reserved":false,"is_disabled":false,"rental_uris":{"android":"levelo://app?vid=c010e990-0583-47d0-8ada-72cc3026e0f5","ios":"levelo://app?vid=c010e990-0583-47d0-8ada-72cc3026e0f5"},"vehicle_type_id":"4","last_reported":1774035001,"current_range_meters":3200,"station_id":"ce4bgjh2rcd13ifvqbf0","pricing_plan_id":"cebpf4jnsgd1na2vs0mg"},{"bike_id":"d53a7ea2-3d45-4e6e-bbbd-842bcb380e45","system_id":"levelo_inurba_marseille","lat":43.29261,"lon":5.38434,"is_reserved":false,"is_disabled":false,"rental_uris":{"android":"levelo://app?vid=d53a7ea2-3d45-4e6e-bbbd-842bcb380e45","ios":"levelo://app?vid=d53a7ea2-3d45-4e6e-bbbd-842bcb380e45"},"vehicle_type_id":"4","last_reported":1774035001,"current_range_meters":3200,"station_id":"ce4bh692rcd13ifvqea0","pricing_plan_id":"cebpf4jnsgd1na2vs0mg"},{"bike_id":"ec327ac2-9680-48a1-8584-22f43bc41c50","system_id":"levelo_inurba_marseille","lat":43.29268,"lon":5.3763,"is_reserved":false,"is_disabled":true,"rental_uris":{"android":"levelo://app?vid=ec327ac2-9680-48a1-8584-22f43bc41c50","ios":"levelo://app?vid=ec327ac2-9680-48a1-8584-22f43bc41c50"},"vehicle_type_id":"4","last_reported":1774035001,"current_range_meters":3200,"station_id":"ce4bgi12rcd13ifvqb80","pricing_plan_id":"cebpf4jnsgd1na2vs0mg"},{"bike_id":"66be2595-d8a5-40d3-b0b9-334f8fbba844","system_id":"levelo_inurba_marseille","lat":43.24644,"lon":5.43153,"is_reserved":false,"is_disabled":false,"rental_uris":{"android":"levelo://app?vid=66be2595-d8a5-40d3-b0b9-334f8fbba844","ios":"levelo://app?vid=66be2595-d8a5-40d3-b0b9-334f8fbba844"},"vehicle_type_id":"4","last_reported":1774035001,"current_range_meters":3600,"station_id":"","pricing_plan_id":"cebpf4jnsgd1na2vs0mg"},{"bike_id":"27cfd7f2-48c6-4fe4-9d82-e5b76120df75","system_id":"levelo_inurba_marseille","lat":43.29832,"lon":5.44044,"is_reserved":false,"is_disabled":false,"rental_uris":{"android":"levelo://app?vid=27cfd7f2-48c6-4fe4-9d82-e5b76120df75","ios":"levelo://app?vid=27cfd7f2-48c6-4fe4-9d82-e5b76120df75"},"vehicle_type_id":"4","last_reported":1774035001,"current_range_meters":3600,"station_id":"st_d3jp68qikq2c7381ktn0","pricing_plan_id":"cebpf4jnsgd1na2vs0mg"},{"bike_id":"0e407d3d-5373-4463-bfd7-ba381d27e0d3","system_id":"levelo_inurba_marseille","lat":43.29536,"lon":5.39399,"is_reserved":false,"is_disabled":false,"rental_uris":{"android":"levelo://app?vid=0e407d3d-5373-4463-bfd7-ba381d27e0d3","ios":"levelo://app?vid=0e407d3d-5373-4463-bfd7-ba381d27e0d3"},"vehicle_type_id":"4","last_reported":1774035001,"current_range_meters":3600,"station_id":"ce4bh292rcd13ifvqdf0","pricing_plan_id":"cebpf4jnsgd1na2vs0mg"},{"bike_id":"2ade7e00-4564-437f-ad0a-5e2e7cba565c","system_id":"levelo_inurba_marseille","lat":43.28712,"lon":5.37377,"is_reserved":false,"is_disabled":false,"rental_uris":{"android":"levelo://app?vid=2ade7e00-4564-437f-ad0a-5e2e7cba565c","ios":"levelo://app?vid=2ade7e00-4564-437f-ad0a-5e2e7cba565c"},"vehicle_type_id":"4","last_reported":1774035001,"current_range_meters":3600,"station_id":"ce4bh3p2rcd13ifvqdq0","pricing_plan_id":"cebpf4jnsgd1na2vs0mg"},{"bike_id":"e5e18d51-d281-4feb-b73c-20d80ef4d3b8","system_id":"levelo_inurba_marseille","lat":43.28159,"lon":5.42629,"is_reserved":false,"is_disabled":false,"rental_uris":{"android":"levelo://app?vid=e5e18d51-d281-4feb-b73c-20d80ef4d3b8","ios":"levelo://app?vid=e5e18d51-d281-4feb-b73c-20d80ef4d3b8"},"vehicle_type_id":"4","last_reported":1774035001,"current_range_meters":3600,"station_id":"ce4bhnh2rcd13ifvqgug","pricing_plan_id":"cebpf4jnsgd1na2vs0mg"},{"bike_id":"5ef274df-9d9d-45f8-bed6-5c9c7d607c8e","system_id":"levelo_inurba_marseille","lat":43.29975,"lon":5.38503,"is_reserved":false,"is_disabled":false,"rental_uris":{"android":"levelo://app?vid=5ef274df-9d9d-45f8-bed6-5c9c7d607c8e","ios":"levelo://app?vid=5ef274df-9d9d-45f8-bed6-5c9c7d607c8e"},"vehicle_type_id":"4","last_reported":1774035001,"current_range_meters":3600,"station_id":"ce4bgj92rcd13ifvqbd0","pricing_plan_id":"cebpf4jnsgd1na2vs0mg"},{"bike_id":"acc1d9ad-de67-4bcb-8101-b4d4cbb70a2f","system_id":"levelo_inurba_marseille","lat":43.29281,"lon":5.38434,"is_reserved":false,"is_disabled":false,"rental_uris":{"android":"levelo://app?vid=acc1d9ad-de67-4bcb-8101-b4d4cbb70a2f","ios":"levelo://app?vid=acc1d9ad-de67-4bcb-8101-b4d4cbb70a2f"},"vehicle_type_id":"4","last_reported":1774035001,"current_range_meters":3600,"station_id":"ce4bh692rcd13ifvqea0","pricing_plan_id":"cebpf4jnsgd1na2vs0mg"},{"bike_id":"9fbfdc7a-8398-40b5-b97f-ba1104c7c96f","system_id":"levelo_inurba_marseille","lat":43.23183,"lon":5.35559,"is_reserved":false,"is_disabled":false,"rental_uris":{"android":"levelo://app?vid=9fbfdc7a-8398-40b5-b97f-ba1104c7c96f","ios":"levelo://app?vid=9fbfdc7a-8398-40b5-b97f-ba1104c7c96f"},"vehicle_type_id":"4","last_reported":1774035001,"current_range_meters":3600,"station_id":"ce4bhu92rcd13ifvqi70","pricing_plan_id":"cebpf4jnsgd1na2vs0mg"},{"bike_id":"0b9fc2e6-59fd-4728-a551-98452242bab5","system_id":"levelo_inurba_marseille","lat":43.28935,"lon":5.38387,"is_reserved":false,"is_disabled":false,"rental_uris":{"android":"levelo://app?vid=0b9fc2e6-59fd-4728-a551-98452242bab5","ios":"levelo://app?vid=0b9fc2e6-59fd-4728-a551-98452242bab5"},"vehicle_type_id":"4","last_reported":1774035001,"current_range_meters":3600,"station_id":"ce4bh612rcd13ifvqe6g","pricing_plan_id":"cebpf4jnsgd1na2vs0mg"},{"bike_id":"c1ddb56e-5872-4146-9097-f7e9b2184454","system_id":"levelo_inurba_marseille","lat":43.29325,"lon":5.37148,"is_reserved":false,"is_disabled":false,"rental_uris":{"android":"levelo://app?vid=c1ddb56e-5872-4146-9097-f7e9b2184454","ios":"levelo://app?vid=c1ddb56e-5872-4146-9097-f7e9b2184454"},"vehicle_type_id":"4","last_reported":1774035001,"current_range_meters":3600,"station_id":"ce4bgh92rcd13ifvqb40","pricing_plan_id":"cebpf4jnsgd1na2vs0mg"},{"bike_id":"eb79f9fd-da8d-4903-a6d2-9935fe5417b4","system_id":"levelo_inurba_marseille","lat":43.2858,"lon":5.39495,"is_reserved":false,"is_disabled":false,"rental_uris":{"android":"levelo://app?vid=eb79f9fd-da8d-4903-a6d2-9935fe5417b4","ios":"levelo://app?vid=eb79f9fd-da8d-4903-a6d2-9935fe5417b4"},"vehicle_type_id":"4","last_reported":1774035001,"current_range_meters":3600,"station_id":"ce4bh292rcd13ifvqdg0","pricing_plan_id":"cebpf4jnsgd1na2vs0mg"},{"bike_id":"b0965f0c-e1e6-408b-8844-d1ee3cf899ee","system_id":"levelo_inurba_marseille","lat":43.2835,"lon":5.38111,"is_reserved":false,"is_disabled":false,"rental_uris":{"android":"levelo://app?vid=b0965f0c-e1e6-408b-8844-d1ee3cf899ee","ios":"levelo://app?vid=b0965f0c-e1e6-408b-8844-d1ee3cf899ee"},"vehicle_type_id":"4","last_reported":1774035001,"current_range_meters":3600,"station_id":"ce4bh412rcd13ifvqdr0","pricing_plan_id":"cebpf4jnsgd1na2vs0mg"},{"bike_id":"1da3f1dc-b8f0-4c6d-83d4-79e71e0bc8d6","system_id":"levelo_inurba_marseille","lat":43.29297,"lon":5.37466,"is_reserved":false,"is_disabled":false,"rental_uris":{"android":"levelo://app?vid=1da3f1dc-b8f0-4c6d-83d4-79e71e0bc8d6","ios":"levelo://app?vid=1da3f1dc-b8f0-4c6d-83d4-79e71e0bc8d6"},"vehicle_type_id":"4","last_reported":1774035001,"current_range_meters":3600,"station_id":"ce4bgi12rcd13ifvqb70","pricing_plan_id":"cebpf4jnsgd1na2vs0mg"},{"bike_id":"66647519-1219-47f1-89a8-091ed338ce7f","system_id":"levelo_inurba_marseille","lat":43.29804,"lon":5.38093,"is_reserved":false,"is_disabled":false,"rental_uris":{"android":"levelo://app?vid=66647519-1219-47f1-89a8-091ed338ce7f","ios":"levelo://app?vid=66647519-1219-47f1-89a8-091ed338ce7f"},"vehicle_type_id":"4","last_reported":1774035001,"current_range_meters":3600,"station_id":"ce4bgip2rcd13ifvqbb0","pricing_plan_id":"cebpf4jnsgd1na2vs0mg"},{"bike_id":"e193d30c-bc14-428c-aa8b-69aacbc22c20","system_id":"levelo_inurba_marseille","lat":43.32123,"lon":5.36774,"is_reserved":false,"is_disabled":false,"rental_uris":{"android":"levelo://app?vid=e193d30c-bc14-428c-aa8b-69aacbc22c20","ios":"levelo://app?vid=e193d30c-bc14-428c-aa8b-69aacbc22c20"},"vehicle_type_id":"4","last_reported":1774035001,"current_range_meters":3600,"station_id":"ce4bhrh2rcd13ifvqhug","pricing_plan_id":"cebpf4jnsgd1na2vs0mg"},{"bike_id":"840dbc86-789f-49ed-9739-cd6cbbd40b11","system_id":"levelo_inurba_marseille","lat":43.30609,"lon":5.39369,"is_reserved":false,"is_disabled":false,"rental_uris":{"android":"levelo://app?vid=840dbc86-789f-49ed-9739-cd6cbbd40b11","ios":"levelo://app?vid=840dbc86-789f-49ed-9739-cd6cbbd40b11"},"vehicle_type_id":"4","last_reported":1774035001,"current_range_meters":3600,"station_id":"ce4bh0p2rcd13ifvqd80","pricing_plan_id":"cebpf4jnsgd1na2vs0mg"},{"bike_id":"744826ba-753a-4ecc-8e5c-e31c07526efd","system_id":"levelo_inurba_marseille","lat":43.28005,"lon":5.41661,"is_reserved":false,"is_disabled":false,"rental_uris":{"android":"levelo://app?vid=744826ba-753a-4ecc-8e5c-e31c07526efd","ios":"levelo://app?vid=744826ba-753a-4ecc-8e5c-e31c07526efd"},"vehicle_type_id":"4","last_reported":1774035001,"current_range_meters":3600,"station_id":"ce4bho12rcd13ifvqh1g","pricing_plan_id":"cebpf4jnsgd1na2vs0mg"},{"bike_id":"3b32856a-cc0b-423d-8d50-76fdf9d6974a","system_id":"levelo_inurba_marseille","lat":43.29527,"lon":5.38536,"is_reserved":false,"is_disabled":false,"rental_uris":{"android":"levelo://app?vid=3b32856a-cc0b-423d-8d50-76fdf9d6974a","ios":"levelo://app?vid=3b32856a-cc0b-423d-8d50-76fdf9d6974a"},"vehicle_type_id":"4","last_reported":1774035001,"current_range_meters":3600,"station_id":"ce4bgih2rcd13ifvqba0","pricing_plan_id":"cebpf4jnsgd1na2vs0mg"},{"bike_id":"3d522332-be19-4618-ba6b-b8a330b48870","system_id":"levelo_inurba_marseille","lat":43.28408,"lon":5.3752,"is_reserved":false,"is_disabled":false,"rental_uris":{"android":"levelo://app?vid=3d522332-be19-4618-ba6b-b8a330b48870","ios":"levelo://app?vid=3d522332-be19-4618-ba6b-b8a330b48870"},"vehicle_type_id":"4","last_reported":1774035001,"current_range_meters":3600,"station_id":"ce4bh412rcd13ifvqds0","pricing_plan_id":"cebpf4jnsgd1na2vs0mg"},{"bike_id":"47a8436c-9b2f-44b6-92e2-20a5fab160f3","system_id":"levelo_inurba_marseille","lat":43.2481,"lon":5.37452,"is_reserved":false,"is_disabled":true,"rental_uris":{"android":"levelo://app?vid=47a8436c-9b2f-44b6-92e2-20a5fab160f3","ios":"levelo://app?vid=47a8436c-9b2f-44b6-92e2-20a5fab160f3"},"vehicle_type_id":"4","last_reported":1774035001,"current_range_meters":3600,"station_id":"ce4bhgh2rcd13ifvqfb0","pricing_plan_id":"cebpf4jnsgd1na2vs0mg"},{"bike_id":"eb1add3e-0fa8-4a8d-8324-ba62c1fc132c","system_id":"levelo_inurba_marseille","lat":43.29102,"lon":5.38143,"is_reserved":false,"is_disabled":false,"rental_uris":{"android":"levelo://app?vid=eb1add3e-0fa8-4a8d-8324-ba62c1fc132c","ios":"levelo://app?vid=eb1add3e-0fa8-4a8d-8324-ba62c1fc132c"},"vehicle_type_id":"4","last_reported":1774035001,"current_range_meters":3600,"station_id":"ce4bh512rcd13ifvqe2g","pricing_plan_id":"cebpf4jnsgd1na2vs0mg"},{"bike_id":"21afb19c-42c0-43f3-8492-a7d7208bc4fa","system_id":"levelo_inurba_marseille","lat":43.28623,"lon":5.37093,"is_reserved":false,"is_disabled":false,"rental_uris":{"android":"levelo://app?vid=21afb19c-42c0-43f3-8492-a7d7208bc4fa","ios":"levelo://app?vid=21afb19c-42c0-43f3-8492-a7d7208bc4fa"},"vehicle_type_id":"4","last_reported":1774035001,"current_range_meters":3600,"station_id":"ce4bht12rcd13ifvqi60","pricing_plan_id":"cebpf4jnsgd1na2vs0mg"},{"bike_id":"bebae7b0-c2c6-4b1d-8855-8b06d4443a00","system_id":"levelo_inurba_marseille","lat":43.28481,"lon":5.484,"is_reserved":false,"is_disabled":false,"rental_uris":{"android":"levelo://app?vid=bebae7b0-c2c6-4b1d-8855-8b06d4443a00","ios":"levelo://app?vid=bebae7b0-c2c6-4b1d-8855-8b06d4443a00"},"vehicle_type_id":"4","last_reported":1774035001,"current_range_meters":3600,"station_id":"st_d3svhcjqgbts73a3dn0g","pricing_plan_id":"cebpf4jnsgd1na2vs0mg"},{"bike_id":"67a8ef71-e5fd-4fcc-b8f5-bed68843cd70","system_id":"levelo_inurba_marseille","lat":43.26551,"lon":5.39484,"is_reserved":false,"is_disabled":false,"rental_uris":{"android":"levelo://app?vid=67a8ef71-e5fd-4fcc-b8f5-bed68843cd70","ios":"levelo://app?vid=67a8ef71-e5fd-4fcc-b8f5-bed68843cd70"},"vehicle_type_id":"4","last_reported":1774035001,"current_range_meters":3600,"station_id":"","pricing_plan_id":"cebpf4jnsgd1na2vs0mg"},{"bike_id":"c18309bc-1386-40bc-8c4e-56b045c0d4ca","system_id":"levelo_inurba_marseille","lat":43.24073,"lon":5.37739,"is_reserved":false,"is_disabled":false,"rental_uris":{"android":"levelo://app?vid=c18309bc-1386-40bc-8c4e-56b045c0d4ca","ios":"levelo://app?vid=c18309bc-1386-40bc-8c4e-56b045c0d4ca"},"vehicle_type_id":"4","last_reported":1774035001,"current_range_meters":4000,"station_id":"ce4bhnp2rcd13ifvqgvg","pricing_plan_id":"cebpf4jnsgd1na2vs0mg"},{"bike_id":"c3f43612-d297-4310-92b9-ae7f8041bc4e","system_id":"levelo_inurba_marseille","lat":43.28442,"lon":5.39197,"is_reserved":false,"is_disabled":false,"rental_uris":{"android":"levelo://app?vid=c3f43612-d297-4310-92b9-ae7f8041bc4e","ios":"levelo://app?vid=c3f43612-d297-4310-92b9-ae7f8041bc4e"},"vehicle_type_id":"4","last_reported":1774035001,"current_range_meters":4000,"station_id":"ce4bhoh2rcd13ifvqh5g","pricing_plan_id":"cebpf4jnsgd1na2vs0mg"},{"bike_id":"addd9e53-bfde-4c2f-8c89-4a891b6a7add","system_id":"levelo_inurba_marseille","lat":43.31342,"lon":5.3792,"is_reserved":false,"is_disabled":false,"rental_uris":{"android":"levelo://app?vid=addd9e53-bfde-4c2f-8c89-4a891b6a7add","ios":"levelo://app?vid=addd9e53-bfde-4c2f-8c89-4a891b6a7add"},"vehicle_type_id":"4","last_reported":1774035001,"current_range_meters":4000,"station_id":"","pricing_plan_id":"cebpf4jnsgd1na2vs0mg"},{"bike_id":"52f6a6b9-7af9-4956-b458-baf5061e66bf","system_id":"levelo_inurba_marseille","lat":43.23344,"lon":5.44494,"is_reserved":false,"is_disabled":false,"rental_uris":{"android":"levelo://app?vid=52f6a6b9-7af9-4956-b458-baf5061e66bf","ios":"levelo://app?vid=52f6a6b9-7af9-4956-b458-baf5061e66bf"},"vehicle_type_id":"4","last_reported":1774035001,"current_range_meters":4000,"station_id":"","pricing_plan_id":"cebpf4jnsgd1na2vs0mg"},{"bike_id":"ae8594e7-b6c0-438d-a254-3ca636cf4147","system_id":"levelo_inurba_marseille","lat":43.303,"lon":5.39208,"is_reserved":false,"is_disabled":false,"rental_uris":{"android":"levelo://app?vid=ae8594e7-b6c0-438d-a254-3ca636cf4147","ios":"levelo://app?vid=ae8594e7-b6c0-438d-a254-3ca636cf4147"},"vehicle_type_id":"4","last_reported":1774035001,"current_range_meters":4000,"station_id":"ce4bgkh2rcd13ifvqbk0","pricing_plan_id":"cebpf4jnsgd1na2vs0mg"},{"bike_id":"347a0133-45d3-4213-ae48-606f4453bbf3","system_id":"levelo_inurba_marseille","lat":43.2306,"lon":5.35491,"is_reserved":false,"is_disabled":false,"rental_uris":{"android":"levelo://app?vid=347a0133-45d3-4213-ae48-606f4453bbf3","ios":"levelo://app?vid=347a0133-45d3-4213-ae48-606f4453bbf3"},"vehicle_type_id":"4","last_reported":1774035001,"current_range_meters":4000,"station_id":"cpo3342slgdg3j2ifvpg","pricing_plan_id":"cebpf4jnsgd1na2vs0mg"},{"bike_id":"4a501649-1ae3-4f13-916a-d9d0102c5c57","system_id":"levelo_inurba_marseille","lat":43.22937,"lon":5.35371,"is_reserved":false,"is_disabled":false,"rental_uris":{"android":"levelo://app?vid=4a501649-1ae3-4f13-916a-d9d0102c5c57","ios":"levelo://app?vid=4a501649-1ae3-4f13-916a-d9d0102c5c57"},"vehicle_type_id":"4","last_reported":1774035001,"current_range_meters":4000,"station_id":"cpo3532slgdg3j2ikp40","pricing_plan_id":"cebpf4jnsgd1na2vs0mg"},{"bike_id":"c2f01f22-14c1-45c1-a8d8-f0d4bb6c09f2","system_id":"levelo_inurba_marseille","lat":43.28487,"lon":5.38432,"is_reserved":false,"is_disabled":true,"rental_uris":{"android":"levelo://app?vid=c2f01f22-14c1-45c1-a8d8-f0d4bb6c09f2","ios":"levelo://app?vid=c2f01f22-14c1-45c1-a8d8-f0d4bb6c09f2"},"vehicle_type_id":"4","last_reported":1774035001,"current_range_meters":4000,"station_id":"ce4bh512rcd13ifvqe3g","pricing_plan_id":"cebpf4jnsgd1na2vs0mg"},{"bike_id":"d5579f72-2db4-408d-b3a2-d1bf412775bf","system_id":"levelo_inurba_marseille","lat":43.29531,"lon":5.38542,"is_reserved":false,"is_disabled":false,"rental_uris":{"android":"levelo://app?vid=d5579f72-2db4-408d-b3a2-d1bf412775bf","ios":"levelo://app?vid=d5579f72-2db4-408d-b3a2-d1bf412775bf"},"vehicle_type_id":"4","last_reported":1774035001,"current_range_meters":4000,"station_id":"ce4bgih2rcd13ifvqba0","pricing_plan_id":"cebpf4jnsgd1na2vs0mg"},{"bike_id":"8ce5ca5f-0527-4b23-8806-e00755e2ad0c","system_id":"levelo_inurba_marseille","lat":43.28717,"lon":5.37947,"is_reserved":false,"is_disabled":false,"rental_uris":{"android":"levelo://app?vid=8ce5ca5f-0527-4b23-8806-e00755e2ad0c","ios":"levelo://app?vid=8ce5ca5f-0527-4b23-8806-e00755e2ad0c"},"vehicle_type_id":"4","last_reported":1774035001,"current_range_meters":4000,"station_id":"ce4bh9p2rcd13ifvqec0","pricing_plan_id":"cebpf4jnsgd1na2vs0mg"},{"bike_id":"23e75e77-55ef-48d0-840b-15ce2a83d39c","system_id":"levelo_inurba_marseille","lat":43.28975,"lon":5.3783,"is_reserved":false,"is_disabled":false,"rental_uris":{"android":"levelo://app?vid=23e75e77-55ef-48d0-840b-15ce2a83d39c","ios":"levelo://app?vid=23e75e77-55ef-48d0-840b-15ce2a83d39c"},"vehicle_type_id":"4","last_reported":1774035001,"current_range_meters":4000,"station_id":"ce4bh9p2rcd13ifvqed0","pricing_plan_id":"cebpf4jnsgd1na2vs0mg"},{"bike_id":"62ff937e-689f-4def-8b0f-f0f7271c7beb","system_id":"levelo_inurba_marseille","lat":43.33548,"lon":5.37456,"is_reserved":false,"is_disabled":false,"rental_uris":{"android":"levelo://app?vid=62ff937e-689f-4def-8b0f-f0f7271c7beb","ios":"levelo://app?vid=62ff937e-689f-4def-8b0f-f0f7271c7beb"},"vehicle_type_id":"4","last_reported":1774035001,"current_range_meters":4000,"station_id":"st_d46tts09ee8s73dlu43g","pricing_plan_id":"cebpf4jnsgd1na2vs0mg"},{"bike_id":"2b118386-2888-47b9-ac65-7f3034723870","system_id":"levelo_inurba_marseille","lat":43.29243,"lon":5.38436,"is_reserved":false,"is_disabled":false,"rental_uris":{"android":"levelo://app?vid=2b118386-2888-47b9-ac65-7f3034723870","ios":"levelo://app?vid=2b118386-2888-47b9-ac65-7f3034723870"},"vehicle_type_id":"4","last_reported":1774035001,"current_range_meters":4000,"station_id":"ce4bh692rcd13ifvqea0","pricing_plan_id":"cebpf4jnsgd1na2vs0mg"},{"bike_id":"6e50a54a-c657-4ef5-9339-4c225154dc0d","system_id":"levelo_inurba_marseille","lat":43.27945,"lon":5.42183,"is_reserved":false,"is_disabled":false,"rental_uris":{"android":"levelo://app?vid=6e50a54a-c657-4ef5-9339-4c225154dc0d","ios":"levelo://app?vid=6e50a54a-c657-4ef5-9339-4c225154dc0d"},"vehicle_type_id":"4","last_reported":1774035001,"current_range_meters":4000,"station_id":"","pricing_plan_id":"cebpf4jnsgd1na2vs0mg"},{"bike_id":"14e04f51-6012-47f2-a15a-594508b26271","system_id":"levelo_inurba_marseille","lat":43.27496,"lon":5.43639,"is_reserved":false,"is_disabled":false,"rental_uris":{"android":"levelo://app?vid=14e04f51-6012-47f2-a15a-594508b26271","ios":"levelo://app?vid=14e04f51-6012-47f2-a15a-594508b26271"},"vehicle_type_id":"4","last_reported":1774035001,"current_range_meters":4000,"station_id":"ce4bhk92rcd13ifvqgb0","pricing_plan_id":"cebpf4jnsgd1na2vs0mg"},{"bike_id":"ea98c126-ecbf-4f2c-9bc3-d44b4729d199","system_id":"levelo_inurba_marseille","lat":43.31256,"lon":5.41329,"is_reserved":false,"is_disabled":false,"rental_uris":{"android":"levelo://app?vid=ea98c126-ecbf-4f2c-9bc3-d44b4729d199","ios":"levelo://app?vid=ea98c126-ecbf-4f2c-9bc3-d44b4729d199"},"vehicle_type_id":"4","last_reported":1774035001,"current_range_meters":4000,"station_id":"","pricing_plan_id":"cebpf4jnsgd1na2vs0mg"},{"bike_id":"3dd115cf-9577-4889-afa0-0aeda5ca4fae","system_id":"levelo_inurba_marseille","lat":43.29005,"lon":5.35619,"is_reserved":false,"is_disabled":true,"rental_uris":{"android":"levelo://app?vid=3dd115cf-9577-4889-afa0-0aeda5ca4fae","ios":"levelo://app?vid=3dd115cf-9577-4889-afa0-0aeda5ca4fae"},"vehicle_type_id":"4","last_reported":1774035001,"current_range_meters":4000,"station_id":"ce4bhb92rcd13ifvqen0","pricing_plan_id":"cebpf4jnsgd1na2vs0mg"},{"bike_id":"10fce5d1-283c-4f50-8018-af6d3b46621e","system_id":"levelo_inurba_marseille","lat":43.2872,"lon":5.36087,"is_reserved":false,"is_disabled":false,"rental_uris":{"android":"levelo://app?vid=10fce5d1-283c-4f50-8018-af6d3b46621e","ios":"levelo://app?vid=10fce5d1-283c-4f50-8018-af6d3b46621e"},"vehicle_type_id":"4","last_reported":1774035001,"current_range_meters":4000,"station_id":"cki0cbj6b192h4jlfktg","pricing_plan_id":"cebpf4jnsgd1na2vs0mg"},{"bike_id":"a41de53c-a6b7-4218-a883-add34022c124","system_id":"levelo_inurba_marseille","lat":43.24813,"lon":5.37465,"is_reserved":false,"is_disabled":false,"rental_uris":{"android":"levelo://app?vid=a41de53c-a6b7-4218-a883-add34022c124","ios":"levelo://app?vid=a41de53c-a6b7-4218-a883-add34022c124"},"vehicle_type_id":"4","last_reported":1774035001,"current_range_meters":4000,"station_id":"ce4bhgh2rcd13ifvqfb0","pricing_plan_id":"cebpf4jnsgd1na2vs0mg"},{"bike_id":"b28ce7d6-5488-43bd-9f94-a5bd88cd52e6","system_id":"levelo_inurba_marseille","lat":43.23383,"lon":5.41235,"is_reserved":false,"is_disabled":false,"rental_uris":{"android":"levelo://app?vid=b28ce7d6-5488-43bd-9f94-a5bd88cd52e6","ios":"levelo://app?vid=b28ce7d6-5488-43bd-9f94-a5bd88cd52e6"},"vehicle_type_id":"4","last_reported":1774035001,"current_range_meters":4000,"station_id":"","pricing_plan_id":"cebpf4jnsgd1na2vs0mg"},{"bike_id":"b3c6ee7e-839e-47ca-8bd1-12618e78dd87","system_id":"levelo_inurba_marseille","lat":43.23966,"lon":5.36623,"is_reserved":false,"is_disabled":false,"rental_uris":{"android":"levelo://app?vid=b3c6ee7e-839e-47ca-8bd1-12618e78dd87","ios":"levelo://app?vid=b3c6ee7e-839e-47ca-8bd1-12618e78dd87"},"vehicle_type_id":"4","last_reported":1774035001,"current_range_meters":4000,"station_id":"ce4bhi12rcd13ifvqfp0","pricing_plan_id":"cebpf4jnsgd1na2vs0mg"},{"bike_id":"2bd745ae-e5cc-4a43-b45a-48ffa15e94af","system_id":"levelo_inurba_marseille","lat":43.23893,"lon":5.37458,"is_reserved":false,"is_disabled":false,"rental_uris":{"android":"levelo://app?vid=2bd745ae-e5cc-4a43-b45a-48ffa15e94af","ios":"levelo://app?vid=2bd745ae-e5cc-4a43-b45a-48ffa15e94af"},"vehicle_type_id":"4","last_reported":1774035001,"current_range_meters":4000,"station_id":"st_d6sm7csbq4hs73f8fpjg","pricing_plan_id":"cebpf4jnsgd1na2vs0mg"},{"bike_id":"10964380-842c-47fb-8636-5b8a318713b6","system_id":"levelo_inurba_marseille","lat":43.29264,"lon":5.38431,"is_reserved":false,"is_disabled":false,"rental_uris":{"android":"levelo://app?vid=10964380-842c-47fb-8636-5b8a318713b6","ios":"levelo://app?vid=10964380-842c-47fb-8636-5b8a318713b6"},"vehicle_type_id":"4","last_reported":1774035001,"current_range_meters":4000,"station_id":"ce4bh692rcd13ifvqea0","pricing_plan_id":"cebpf4jnsgd1na2vs0mg"},{"bike_id":"da74a54a-152f-4a65-8f33-94819e7d8e65","system_id":"levelo_inurba_marseille","lat":43.28843,"lon":5.39306,"is_reserved":false,"is_disabled":false,"rental_uris":{"android":"levelo://app?vid=da74a54a-152f-4a65-8f33-94819e7d8e65","ios":"levelo://app?vid=da74a54a-152f-4a65-8f33-94819e7d8e65"},"vehicle_type_id":"4","last_reported":1774035001,"current_range_meters":4000,"station_id":"ce4bh2p2rcd13ifvqdi0","pricing_plan_id":"cebpf4jnsgd1na2vs0mg"},{"bike_id":"cc2b2e8b-fb1d-4616-8447-851c70af165a","system_id":"levelo_inurba_marseille","lat":43.29446,"lon":5.3976,"is_reserved":false,"is_disabled":true,"rental_uris":{"android":"levelo://app?vid=cc2b2e8b-fb1d-4616-8447-851c70af165a","ios":"levelo://app?vid=cc2b2e8b-fb1d-4616-8447-851c70af165a"},"vehicle_type_id":"4","last_reported":1774035001,"current_range_meters":4400,"station_id":"ce4bh3h2rcd13ifvqdo0","pricing_plan_id":"cebpf4jnsgd1na2vs0mg"},{"bike_id":"e559f6d6-3f1f-4dd0-9be1-ec0f9672e3c2","system_id":"levelo_inurba_marseille","lat":43.28474,"lon":5.38419,"is_reserved":false,"is_disabled":false,"rental_uris":{"android":"levelo://app?vid=e559f6d6-3f1f-4dd0-9be1-ec0f9672e3c2","ios":"levelo://app?vid=e559f6d6-3f1f-4dd0-9be1-ec0f9672e3c2"},"vehicle_type_id":"4","last_reported":1774035001,"current_range_meters":4400,"station_id":"ce4bh512rcd13ifvqe3g","pricing_plan_id":"cebpf4jnsgd1na2vs0mg"},{"bike_id":"d4776486-3084-421f-968a-3d6e49dfba03","system_id":"levelo_inurba_marseille","lat":43.28534,"lon":5.44097,"is_reserved":false,"is_disabled":false,"rental_uris":{"android":"levelo://app?vid=d4776486-3084-421f-968a-3d6e49dfba03","ios":"levelo://app?vid=d4776486-3084-421f-968a-3d6e49dfba03"},"vehicle_type_id":"4","last_reported":1774035001,"current_range_meters":4400,"station_id":"st_d3j3df2ikq2c7380ej80","pricing_plan_id":"cebpf4jnsgd1na2vs0mg"},{"bike_id":"a0468db3-a6ee-4c27-b4cc-b8425f8ccbb9","system_id":"levelo_inurba_marseille","lat":43.29259,"lon":5.38446,"is_reserved":false,"is_disabled":false,"rental_uris":{"android":"levelo://app?vid=a0468db3-a6ee-4c27-b4cc-b8425f8ccbb9","ios":"levelo://app?vid=a0468db3-a6ee-4c27-b4cc-b8425f8ccbb9"},"vehicle_type_id":"4","last_reported":1774035001,"current_range_meters":4400,"station_id":"ce4bh692rcd13ifvqea0","pricing_plan_id":"cebpf4jnsgd1na2vs0mg"},{"bike_id":"efbb1913-0d13-4873-8457-f99a9191d525","system_id":"levelo_inurba_marseille","lat":43.27562,"lon":5.38434,"is_reserved":false,"is_disabled":false,"rental_uris":{"android":"levelo://app?vid=efbb1913-0d13-4873-8457-f99a9191d525","ios":"levelo://app?vid=efbb1913-0d13-4873-8457-f99a9191d525"},"vehicle_type_id":"4","last_reported":1774035001,"current_range_meters":4400,"station_id":"ce4bhh92rcd13ifvqfi0","pricing_plan_id":"cebpf4jnsgd1na2vs0mg"},{"bike_id":"e0535356-a1d5-4a80-93d4-af77d4b6bb9a","system_id":"levelo_inurba_marseille","lat":43.23905,"lon":5.37455,"is_reserved":false,"is_disabled":false,"rental_uris":{"android":"levelo://app?vid=e0535356-a1d5-4a80-93d4-af77d4b6bb9a","ios":"levelo://app?vid=e0535356-a1d5-4a80-93d4-af77d4b6bb9a"},"vehicle_type_id":"4","last_reported":1774035001,"current_range_meters":4400,"station_id":"st_d6sm7csbq4hs73f8fpjg","pricing_plan_id":"cebpf4jnsgd1na2vs0mg"},{"bike_id":"3a65cd49-7b08-45c7-a622-b4849fc8260c","system_id":"levelo_inurba_marseille","lat":43.29608,"lon":5.37724,"is_reserved":false,"is_disabled":false,"rental_uris":{"android":"levelo://app?vid=3a65cd49-7b08-45c7-a622-b4849fc8260c","ios":"levelo://app?vid=3a65cd49-7b08-45c7-a622-b4849fc8260c"},"vehicle_type_id":"4","last_reported":1774035001,"current_range_meters":4400,"station_id":"ce4bgi92rcd13ifvqb90","pricing_plan_id":"cebpf4jnsgd1na2vs0mg"},{"bike_id":"c8a8235a-3b64-4202-a433-789344106552","system_id":"levelo_inurba_marseille","lat":43.29537,"lon":5.38539,"is_reserved":false,"is_disabled":false,"rental_uris":{"android":"levelo://app?vid=c8a8235a-3b64-4202-a433-789344106552","ios":"levelo://app?vid=c8a8235a-3b64-4202-a433-789344106552"},"vehicle_type_id":"4","last_reported":1774035001,"current_range_meters":4400,"station_id":"ce4bgih2rcd13ifvqba0","pricing_plan_id":"cebpf4jnsgd1na2vs0mg"},{"bike_id":"daeb92e0-f43a-4c25-8e62-63943a438256","system_id":"levelo_inurba_marseille","lat":43.30325,"lon":5.40434,"is_reserved":false,"is_disabled":false,"rental_uris":{"android":"levelo://app?vid=daeb92e0-f43a-4c25-8e62-63943a438256","ios":"levelo://app?vid=daeb92e0-f43a-4c25-8e62-63943a438256"},"vehicle_type_id":"4","last_reported":1774035001,"current_range_meters":4400,"station_id":"ce4bh012rcd13ifvqd10","pricing_plan_id":"cebpf4jnsgd1na2vs0mg"},{"bike_id":"ae96b572-43ac-41b2-a193-3d97fc7d8bed","system_id":"levelo_inurba_marseille","lat":43.29532,"lon":5.3854,"is_reserved":false,"is_disabled":false,"rental_uris":{"android":"levelo://app?vid=ae96b572-43ac-41b2-a193-3d97fc7d8bed","ios":"levelo://app?vid=ae96b572-43ac-41b2-a193-3d97fc7d8bed"},"vehicle_type_id":"4","last_reported":1774035001,"current_range_meters":4400,"station_id":"ce4bgih2rcd13ifvqba0","pricing_plan_id":"cebpf4jnsgd1na2vs0mg"},{"bike_id":"3ff905df-9cfc-4198-a321-86ecfaa87b21","system_id":"levelo_inurba_marseille","lat":43.2953,"lon":5.39007,"is_reserved":false,"is_disabled":false,"rental_uris":{"android":"levelo://app?vid=3ff905df-9cfc-4198-a321-86ecfaa87b21","ios":"levelo://app?vid=3ff905df-9cfc-4198-a321-86ecfaa87b21"},"vehicle_type_id":"4","last_reported":1774035001,"current_range_meters":4400,"station_id":"ce4bh3p2rcd13ifvqdp0","pricing_plan_id":"cebpf4jnsgd1na2vs0mg"},{"bike_id":"3c1327e4-2307-4d6d-935d-34cbd075fa36","system_id":"levelo_inurba_marseille","lat":43.29807,"lon":5.38078,"is_reserved":false,"is_disabled":false,"rental_uris":{"android":"levelo://app?vid=3c1327e4-2307-4d6d-935d-34cbd075fa36","ios":"levelo://app?vid=3c1327e4-2307-4d6d-935d-34cbd075fa36"},"vehicle_type_id":"4","last_reported":1774035001,"current_range_meters":4400,"station_id":"ce4bgip2rcd13ifvqbb0","pricing_plan_id":"cebpf4jnsgd1na2vs0mg"},{"bike_id":"8357b812-9da0-48dc-862b-17e26ab51a9a","system_id":"levelo_inurba_marseille","lat":43.31755,"lon":5.40497,"is_reserved":false,"is_disabled":false,"rental_uris":{"android":"levelo://app?vid=8357b812-9da0-48dc-862b-17e26ab51a9a","ios":"levelo://app?vid=8357b812-9da0-48dc-862b-17e26ab51a9a"},"vehicle_type_id":"4","last_reported":1774035001,"current_range_meters":4400,"station_id":"ce4bh012rcd13ifvqd00","pricing_plan_id":"cebpf4jnsgd1na2vs0mg"},{"bike_id":"b994f926-eefe-4850-aca7-b314d1c25e0c","system_id":"levelo_inurba_marseille","lat":43.258237,"lon":5.394373,"is_reserved":false,"is_disabled":false,"rental_uris":{"android":"levelo://app?vid=b994f926-eefe-4850-aca7-b314d1c25e0c","ios":"levelo://app?vid=b994f926-eefe-4850-aca7-b314d1c25e0c"},"vehicle_type_id":"4","last_reported":1774035001,"current_range_meters":4400,"station_id":"ce4bhip2rcd13ifvqft0","pricing_plan_id":"cebpf4jnsgd1na2vs0mg"},{"bike_id":"0ed38292-ab19-4024-944a-2b648c0fb4df","system_id":"levelo_inurba_marseille","lat":43.29267,"lon":5.38435,"is_reserved":false,"is_disabled":false,"rental_uris":{"android":"levelo://app?vid=0ed38292-ab19-4024-944a-2b648c0fb4df","ios":"levelo://app?vid=0ed38292-ab19-4024-944a-2b648c0fb4df"},"vehicle_type_id":"4","last_reported":1774035001,"current_range_meters":4400,"station_id":"ce4bh692rcd13ifvqea0","pricing_plan_id":"cebpf4jnsgd1na2vs0mg"},{"bike_id":"5e7b9a09-3ac1-4f98-9aa4-2019151fbf1a","system_id":"levelo_inurba_marseille","lat":43.31997,"lon":5.3815,"is_reserved":false,"is_disabled":false,"rental_uris":{"android":"levelo://app?vid=5e7b9a09-3ac1-4f98-9aa4-2019151fbf1a","ios":"levelo://app?vid=5e7b9a09-3ac1-4f98-9aa4-2019151fbf1a"},"vehicle_type_id":"4","last_reported":1774035001,"current_range_meters":4400,"station_id":"ce4bhr12rcd13ifvqhpg","pricing_plan_id":"cebpf4jnsgd1na2vs0mg"},{"bike_id":"3c777eec-dd74-43c9-8e38-b323bd6e36bc","system_id":"levelo_inurba_marseille","lat":43.29308,"lon":5.37465,"is_reserved":false,"is_disabled":false,"rental_uris":{"android":"levelo://app?vid=3c777eec-dd74-43c9-8e38-b323bd6e36bc","ios":"levelo://app?vid=3c777eec-dd74-43c9-8e38-b323bd6e36bc"},"vehicle_type_id":"4","last_reported":1774035001,"current_range_meters":4800,"station_id":"ce4bgi12rcd13ifvqb70","pricing_plan_id":"cebpf4jnsgd1na2vs0mg"},{"bike_id":"5e3d4641-b460-417b-aef6-c110d4f4f6c0","system_id":"levelo_inurba_marseille","lat":43.29524,"lon":5.39398,"is_reserved":false,"is_disabled":false,"rental_uris":{"android":"levelo://app?vid=5e3d4641-b460-417b-aef6-c110d4f4f6c0","ios":"levelo://app?vid=5e3d4641-b460-417b-aef6-c110d4f4f6c0"},"vehicle_type_id":"4","last_reported":1774035001,"current_range_meters":4800,"station_id":"ce4bh292rcd13ifvqdf0","pricing_plan_id":"cebpf4jnsgd1na2vs0mg"},{"bike_id":"384adf8d-e4b9-484e-90c8-9ffde0b1cce8","system_id":"levelo_inurba_marseille","lat":43.29525,"lon":5.38535,"is_reserved":false,"is_disabled":false,"rental_uris":{"android":"levelo://app?vid=384adf8d-e4b9-484e-90c8-9ffde0b1cce8","ios":"levelo://app?vid=384adf8d-e4b9-484e-90c8-9ffde0b1cce8"},"vehicle_type_id":"4","last_reported":1774035001,"current_range_meters":4800,"station_id":"ce4bgih2rcd13ifvqba0","pricing_plan_id":"cebpf4jnsgd1na2vs0mg"},{"bike_id":"6b596f47-5f2b-41a1-ba8e-cc3c7bac807e","system_id":"levelo_inurba_marseille","lat":43.22947,"lon":5.35367,"is_reserved":false,"is_disabled":false,"rental_uris":{"android":"levelo://app?vid=6b596f47-5f2b-41a1-ba8e-cc3c7bac807e","ios":"levelo://app?vid=6b596f47-5f2b-41a1-ba8e-cc3c7bac807e"},"vehicle_type_id":"4","last_reported":1774035001,"current_range_meters":4800,"station_id":"cpo3532slgdg3j2ikp40","pricing_plan_id":"cebpf4jnsgd1na2vs0mg"},{"bike_id":"f7f9f07f-4a08-4162-961d-be225ba2a4ea","system_id":"levelo_inurba_marseille","lat":43.24803,"lon":5.37467,"is_reserved":false,"is_disabled":false,"rental_uris":{"android":"levelo://app?vid=f7f9f07f-4a08-4162-961d-be225ba2a4ea","ios":"levelo://app?vid=f7f9f07f-4a08-4162-961d-be225ba2a4ea"},"vehicle_type_id":"4","last_reported":1774035001,"current_range_meters":4800,"station_id":"","pricing_plan_id":"cebpf4jnsgd1na2vs0mg"},{"bike_id":"0229787f-3585-41fd-a359-a19c5bd305b9","system_id":"levelo_inurba_marseille","lat":43.28977,"lon":5.37839,"is_reserved":false,"is_disabled":false,"rental_uris":{"android":"levelo://app?vid=0229787f-3585-41fd-a359-a19c5bd305b9","ios":"levelo://app?vid=0229787f-3585-41fd-a359-a19c5bd305b9"},"vehicle_type_id":"4","last_reported":1774035001,"current_range_meters":4800,"station_id":"ce4bh9p2rcd13ifvqed0","pricing_plan_id":"cebpf4jnsgd1na2vs0mg"},{"bike_id":"d725c900-b9f2-4885-bb5e-2c21a6be4955","system_id":"levelo_inurba_marseille","lat":43.29261,"lon":5.38438,"is_reserved":false,"is_disabled":false,"rental_uris":{"android":"levelo://app?vid=d725c900-b9f2-4885-bb5e-2c21a6be4955","ios":"levelo://app?vid=d725c900-b9f2-4885-bb5e-2c21a6be4955"},"vehicle_type_id":"4","last_reported":1774035001,"current_range_meters":4800,"station_id":"ce4bh692rcd13ifvqea0","pricing_plan_id":"cebpf4jnsgd1na2vs0mg"},{"bike_id":"e08d225b-8f4a-4ce0-895d-d9f7f842408c","system_id":"levelo_inurba_marseille","lat":43.24176,"lon":5.36395,"is_reserved":false,"is_disabled":false,"rental_uris":{"android":"levelo://app?vid=e08d225b-8f4a-4ce0-895d-d9f7f842408c","ios":"levelo://app?vid=e08d225b-8f4a-4ce0-895d-d9f7f842408c"},"vehicle_type_id":"4","last_reported":1774035001,"current_range_meters":4800,"station_id":"cpo36qri1sfpv3e86is0","pricing_plan_id":"cebpf4jnsgd1na2vs0mg"},{"bike_id":"938f5b2b-699a-47ff-8381-c70adbd93b65","system_id":"levelo_inurba_marseille","lat":43.29794,"lon":5.37078,"is_reserved":false,"is_disabled":true,"rental_uris":{"android":"levelo://app?vid=938f5b2b-699a-47ff-8381-c70adbd93b65","ios":"levelo://app?vid=938f5b2b-699a-47ff-8381-c70adbd93b65"},"vehicle_type_id":"4","last_reported":1774035001,"current_range_meters":4800,"station_id":"ce4bgop2rcd13ifvqc1g","pricing_plan_id":"cebpf4jnsgd1na2vs0mg"},{"bike_id":"67657709-82e3-447f-8898-8fcfa070bde8","system_id":"levelo_inurba_marseille","lat":43.28713,"lon":5.37925,"is_reserved":false,"is_disabled":false,"rental_uris":{"android":"levelo://app?vid=67657709-82e3-447f-8898-8fcfa070bde8","ios":"levelo://app?vid=67657709-82e3-447f-8898-8fcfa070bde8"},"vehicle_type_id":"4","last_reported":1774035001,"current_range_meters":4800,"station_id":"ce4bh9p2rcd13ifvqec0","pricing_plan_id":"cebpf4jnsgd1na2vs0mg"},{"bike_id":"d16b4f5e-9b9d-4635-b7ab-14fa4ff08f4b","system_id":"levelo_inurba_marseille","lat":43.24639,"lon":5.43185,"is_reserved":false,"is_disabled":false,"rental_uris":{"android":"levelo://app?vid=d16b4f5e-9b9d-4635-b7ab-14fa4ff08f4b","ios":"levelo://app?vid=d16b4f5e-9b9d-4635-b7ab-14fa4ff08f4b"},"vehicle_type_id":"4","last_reported":1774035001,"current_range_meters":4800,"station_id":"","pricing_plan_id":"cebpf4jnsgd1na2vs0mg"},{"bike_id":"c5a0699e-e4f4-432a-914f-9fc6e16bfcbe","system_id":"levelo_inurba_marseille","lat":43.29303,"lon":5.3746,"is_reserved":false,"is_disabled":false,"rental_uris":{"android":"levelo://app?vid=c5a0699e-e4f4-432a-914f-9fc6e16bfcbe","ios":"levelo://app?vid=c5a0699e-e4f4-432a-914f-9fc6e16bfcbe"},"vehicle_type_id":"4","last_reported":1774035001,"current_range_meters":4800,"station_id":"ce4bgi12rcd13ifvqb70","pricing_plan_id":"cebpf4jnsgd1na2vs0mg"},{"bike_id":"f510aab5-c125-407f-aeb0-e610c0cdfef8","system_id":"levelo_inurba_marseille","lat":43.23796,"lon":5.36551,"is_reserved":false,"is_disabled":false,"rental_uris":{"android":"levelo://app?vid=f510aab5-c125-407f-aeb0-e610c0cdfef8","ios":"levelo://app?vid=f510aab5-c125-407f-aeb0-e610c0cdfef8"},"vehicle_type_id":"4","last_reported":1774035001,"current_range_meters":4800,"station_id":"","pricing_plan_id":"cebpf4jnsgd1na2vs0mg"},{"bike_id":"48474656-ec50-49b9-86bf-ac66fe1127f2","system_id":"levelo_inurba_marseille","lat":43.25105,"lon":5.40326,"is_reserved":false,"is_disabled":false,"rental_uris":{"android":"levelo://app?vid=48474656-ec50-49b9-86bf-ac66fe1127f2","ios":"levelo://app?vid=48474656-ec50-49b9-86bf-ac66fe1127f2"},"vehicle_type_id":"4","last_reported":1774035001,"current_range_meters":4800,"station_id":"ce4bhlh2rcd13ifvqgig","pricing_plan_id":"cebpf4jnsgd1na2vs0mg"},{"bike_id":"6528eebf-5319-49e7-ac0e-054aadd64ddf","system_id":"levelo_inurba_marseille","lat":43.27286,"lon":5.39125,"is_reserved":false,"is_disabled":true,"rental_uris":{"android":"levelo://app?vid=6528eebf-5319-49e7-ac0e-054aadd64ddf","ios":"levelo://app?vid=6528eebf-5319-49e7-ac0e-054aadd64ddf"},"vehicle_type_id":"4","last_reported":1774035001,"current_range_meters":4800,"station_id":"","pricing_plan_id":"cebpf4jnsgd1na2vs0mg"},{"bike_id":"546ded52-92e0-45c7-b562-01f335c64fb4","system_id":"levelo_inurba_marseille","lat":43.293,"lon":5.37472,"is_reserved":false,"is_disabled":false,"rental_uris":{"android":"levelo://app?vid=546ded52-92e0-45c7-b562-01f335c64fb4","ios":"levelo://app?vid=546ded52-92e0-45c7-b562-01f335c64fb4"},"vehicle_type_id":"4","last_reported":1774035001,"current_range_meters":4800,"station_id":"ce4bgi12rcd13ifvqb70","pricing_plan_id":"cebpf4jnsgd1na2vs0mg"},{"bike_id":"3bcd3f37-7909-4e8a-be03-a9562a2c0e45","system_id":"levelo_inurba_marseille","lat":43.28486,"lon":5.48401,"is_reserved":false,"is_disabled":false,"rental_uris":{"android":"levelo://app?vid=3bcd3f37-7909-4e8a-be03-a9562a2c0e45","ios":"levelo://app?vid=3bcd3f37-7909-4e8a-be03-a9562a2c0e45"},"vehicle_type_id":"4","last_reported":1774035001,"current_range_meters":5600,"station_id":"","pricing_plan_id":"cebpf4jnsgd1na2vs0mg"},{"bike_id":"c403789f-54d1-498d-8a6f-0afb1901503e","system_id":"levelo_inurba_marseille","lat":43.29538,"lon":5.38541,"is_reserved":false,"is_disabled":false,"rental_uris":{"android":"levelo://app?vid=c403789f-54d1-498d-8a6f-0afb1901503e","ios":"levelo://app?vid=c403789f-54d1-498d-8a6f-0afb1901503e"},"vehicle_type_id":"4","last_reported":1774035001,"current_range_meters":5600,"station_id":"ce4bgih2rcd13ifvqba0","pricing_plan_id":"cebpf4jnsgd1na2vs0mg"},{"bike_id":"33d11d58-a915-44ae-b0a0-3b817f0fd71a","system_id":"levelo_inurba_marseille","lat":43.2894,"lon":5.3639,"is_reserved":false,"is_disabled":false,"rental_uris":{"android":"levelo://app?vid=33d11d58-a915-44ae-b0a0-3b817f0fd71a","ios":"levelo://app?vid=33d11d58-a915-44ae-b0a0-3b817f0fd71a"},"vehicle_type_id":"4","last_reported":1774035001,"current_range_meters":5600,"station_id":"ce4bhc92rcd13ifvqetg","pricing_plan_id":"cebpf4jnsgd1na2vs0mg"},{"bike_id":"cccf1620-e371-4e8e-8257-a8335a583d55","system_id":"levelo_inurba_marseille","lat":43.30934,"lon":5.40144,"is_reserved":false,"is_disabled":false,"rental_uris":{"android":"levelo://app?vid=cccf1620-e371-4e8e-8257-a8335a583d55","ios":"levelo://app?vid=cccf1620-e371-4e8e-8257-a8335a583d55"},"vehicle_type_id":"4","last_reported":1774035001,"current_range_meters":5600,"station_id":"ce4bgvp2rcd13ifvqct0","pricing_plan_id":"cebpf4jnsgd1na2vs0mg"},{"bike_id":"0b039b01-7cd3-4c03-9276-8d2c4ca7b6e2","system_id":"levelo_inurba_marseille","lat":43.29036,"lon":5.38633,"is_reserved":false,"is_disabled":false,"rental_uris":{"android":"levelo://app?vid=0b039b01-7cd3-4c03-9276-8d2c4ca7b6e2","ios":"levelo://app?vid=0b039b01-7cd3-4c03-9276-8d2c4ca7b6e2"},"vehicle_type_id":"4","last_reported":1774035001,"current_range_meters":5600,"station_id":"ce4bh4p2rcd13ifvqe0g","pricing_plan_id":"cebpf4jnsgd1na2vs0mg"},{"bike_id":"cb0934fb-8fd0-455f-84d3-75806701fed4","system_id":"levelo_inurba_marseille","lat":43.29364,"lon":5.37834,"is_reserved":false,"is_disabled":false,"rental_uris":{"android":"levelo://app?vid=cb0934fb-8fd0-455f-84d3-75806701fed4","ios":"levelo://app?vid=cb0934fb-8fd0-455f-84d3-75806701fed4"},"vehicle_type_id":"4","last_reported":1774035001,"current_range_meters":5600,"station_id":"ce4bgjh2rcd13ifvqbf0","pricing_plan_id":"cebpf4jnsgd1na2vs0mg"},{"bike_id":"02343a3e-fe92-4d01-b956-c12470dca32d","system_id":"levelo_inurba_marseille","lat":43.29013,"lon":5.38127,"is_reserved":false,"is_disabled":false,"rental_uris":{"android":"levelo://app?vid=02343a3e-fe92-4d01-b956-c12470dca32d","ios":"levelo://app?vid=02343a3e-fe92-4d01-b956-c12470dca32d"},"vehicle_type_id":"4","last_reported":1774035001,"current_range_meters":5600,"station_id":"ce4bh4p2rcd13ifvqe1g","pricing_plan_id":"cebpf4jnsgd1na2vs0mg"},{"bike_id":"be86110a-d138-452f-9dd8-f251ea868da5","system_id":"levelo_inurba_marseille","lat":43.27923,"lon":5.39575,"is_reserved":false,"is_disabled":false,"rental_uris":{"android":"levelo://app?vid=be86110a-d138-452f-9dd8-f251ea868da5","ios":"levelo://app?vid=be86110a-d138-452f-9dd8-f251ea868da5"},"vehicle_type_id":"4","last_reported":1774035001,"current_range_meters":5600,"station_id":"ce4bhf92rcd13ifvqf40","pricing_plan_id":"cebpf4jnsgd1na2vs0mg"},{"bike_id":"391889f4-887b-48da-bc6a-3168fa269c6e","system_id":"levelo_inurba_marseille","lat":43.2997,"lon":5.38502,"is_reserved":false,"is_disabled":false,"rental_uris":{"android":"levelo://app?vid=391889f4-887b-48da-bc6a-3168fa269c6e","ios":"levelo://app?vid=391889f4-887b-48da-bc6a-3168fa269c6e"},"vehicle_type_id":"4","last_reported":1774035001,"current_range_meters":5600,"station_id":"ce4bgj92rcd13ifvqbd0","pricing_plan_id":"cebpf4jnsgd1na2vs0mg"},{"bike_id":"9f596673-4d81-45b6-856d-7f45e9dcd63b","system_id":"levelo_inurba_marseille","lat":43.258277,"lon":5.394492,"is_reserved":false,"is_disabled":false,"rental_uris":{"android":"levelo://app?vid=9f596673-4d81-45b6-856d-7f45e9dcd63b","ios":"levelo://app?vid=9f596673-4d81-45b6-856d-7f45e9dcd63b"},"vehicle_type_id":"4","last_reported":1774035001,"current_range_meters":5600,"station_id":"ce4bhip2rcd13ifvqft0","pricing_plan_id":"cebpf4jnsgd1na2vs0mg"},{"bike_id":"64632ede-f49d-4588-ae3f-130b14a444d6","system_id":"levelo_inurba_marseille","lat":43.29576,"lon":5.37528,"is_reserved":false,"is_disabled":false,"rental_uris":{"android":"levelo://app?vid=64632ede-f49d-4588-ae3f-130b14a444d6","ios":"levelo://app?vid=64632ede-f49d-4588-ae3f-130b14a444d6"},"vehicle_type_id":"4","last_reported":1774035001,"current_range_meters":5600,"station_id":"ce4bgh92rcd13ifvqb50","pricing_plan_id":"cebpf4jnsgd1na2vs0mg"},{"bike_id":"1b36af96-35a0-4a23-840d-c3e49422fa3e","system_id":"levelo_inurba_marseille","lat":43.26387,"lon":5.4104,"is_reserved":false,"is_disabled":false,"rental_uris":{"android":"levelo://app?vid=1b36af96-35a0-4a23-840d-c3e49422fa3e","ios":"levelo://app?vid=1b36af96-35a0-4a23-840d-c3e49422fa3e"},"vehicle_type_id":"4","last_reported":1774035001,"current_range_meters":5600,"station_id":"st_d4e5ca6na9uc73bfl5fg","pricing_plan_id":"cebpf4jnsgd1na2vs0mg"},{"bike_id":"53d0c921-86c3-429d-ba81-396b77cd3d3e","system_id":"levelo_inurba_marseille","lat":43.29796,"lon":5.38088,"is_reserved":false,"is_disabled":false,"rental_uris":{"android":"levelo://app?vid=53d0c921-86c3-429d-ba81-396b77cd3d3e","ios":"levelo://app?vid=53d0c921-86c3-429d-ba81-396b77cd3d3e"},"vehicle_type_id":"4","last_reported":1774035001,"current_range_meters":5600,"station_id":"ce4bgip2rcd13ifvqbb0","pricing_plan_id":"cebpf4jnsgd1na2vs0mg"},{"bike_id":"7a9daeb8-a8b8-4355-b504-7ebd20a306fc","system_id":"levelo_inurba_marseille","lat":43.27213,"lon":5.39181,"is_reserved":false,"is_disabled":false,"rental_uris":{"android":"levelo://app?vid=7a9daeb8-a8b8-4355-b504-7ebd20a306fc","ios":"levelo://app?vid=7a9daeb8-a8b8-4355-b504-7ebd20a306fc"},"vehicle_type_id":"4","last_reported":1774035001,"current_range_meters":5600,"station_id":"ce4bhhp2rcd13ifvqfm0","pricing_plan_id":"cebpf4jnsgd1na2vs0mg"},{"bike_id":"e33df3ac-05e4-4622-ae66-8e081a8e5e87","system_id":"levelo_inurba_marseille","lat":43.28674,"lon":5.38678,"is_reserved":false,"is_disabled":false,"rental_uris":{"android":"levelo://app?vid=e33df3ac-05e4-4622-ae66-8e081a8e5e87","ios":"levelo://app?vid=e33df3ac-05e4-4622-ae66-8e081a8e5e87"},"vehicle_type_id":"4","last_reported":1774035001,"current_range_meters":5600,"station_id":"ce4bh492rcd13ifvqdug","pricing_plan_id":"cebpf4jnsgd1na2vs0mg"},{"bike_id":"12118d88-8157-4d76-ad00-12ce3bc20921","system_id":"levelo_inurba_marseille","lat":43.30848,"lon":5.37139,"is_reserved":false,"is_disabled":false,"rental_uris":{"android":"levelo://app?vid=12118d88-8157-4d76-ad00-12ce3bc20921","ios":"levelo://app?vid=12118d88-8157-4d76-ad00-12ce3bc20921"},"vehicle_type_id":"4","last_reported":1774035001,"current_range_meters":6000,"station_id":"","pricing_plan_id":"cebpf4jnsgd1na2vs0mg"},{"bike_id":"ac4ca0f2-f5c2-4c9c-81db-9f7b20e89d0c","system_id":"levelo_inurba_marseille","lat":43.28522,"lon":5.44108,"is_reserved":false,"is_disabled":true,"rental_uris":{"android":"levelo://app?vid=ac4ca0f2-f5c2-4c9c-81db-9f7b20e89d0c","ios":"levelo://app?vid=ac4ca0f2-f5c2-4c9c-81db-9f7b20e89d0c"},"vehicle_type_id":"4","last_reported":1774035001,"current_range_meters":6000,"station_id":"st_d3j3df2ikq2c7380ej80","pricing_plan_id":"cebpf4jnsgd1na2vs0mg"},{"bike_id":"c6b20400-3641-48f3-b609-b110a5527d07","system_id":"levelo_inurba_marseille","lat":43.22556,"lon":5.4163,"is_reserved":false,"is_disabled":false,"rental_uris":{"android":"levelo://app?vid=c6b20400-3641-48f3-b609-b110a5527d07","ios":"levelo://app?vid=c6b20400-3641-48f3-b609-b110a5527d07"},"vehicle_type_id":"4","last_reported":1774035001,"current_range_meters":6000,"station_id":"st_d2o4gvlbi1j2169b742g","pricing_plan_id":"cebpf4jnsgd1na2vs0mg"},{"bike_id":"cb398b3c-1d60-4377-8f9b-23cc81605407","system_id":"levelo_inurba_marseille","lat":43.30129,"lon":5.37425,"is_reserved":false,"is_disabled":false,"rental_uris":{"android":"levelo://app?vid=cb398b3c-1d60-4377-8f9b-23cc81605407","ios":"levelo://app?vid=cb398b3c-1d60-4377-8f9b-23cc81605407"},"vehicle_type_id":"4","last_reported":1774035001,"current_range_meters":6000,"station_id":"ce4bgs92rcd13ifvqcc0","pricing_plan_id":"cebpf4jnsgd1na2vs0mg"},{"bike_id":"f35291ea-a517-45e6-bccf-54011aa5a0ff","system_id":"levelo_inurba_marseille","lat":43.28032,"lon":5.36952,"is_reserved":false,"is_disabled":false,"rental_uris":{"android":"levelo://app?vid=f35291ea-a517-45e6-bccf-54011aa5a0ff","ios":"levelo://app?vid=f35291ea-a517-45e6-bccf-54011aa5a0ff"},"vehicle_type_id":"4","last_reported":1774035001,"current_range_meters":6000,"station_id":"ce4bha12rcd13ifvqef0","pricing_plan_id":"cebpf4jnsgd1na2vs0mg"},{"bike_id":"2ad27211-6520-4ed5-ac65-4a5c3b309fec","system_id":"levelo_inurba_marseille","lat":43.29722,"lon":5.37699,"is_reserved":false,"is_disabled":false,"rental_uris":{"android":"levelo://app?vid=2ad27211-6520-4ed5-ac65-4a5c3b309fec","ios":"levelo://app?vid=2ad27211-6520-4ed5-ac65-4a5c3b309fec"},"vehicle_type_id":"4","last_reported":1774035001,"current_range_meters":6000,"station_id":"ce4bgkh2rcd13ifvqbl0","pricing_plan_id":"cebpf4jnsgd1na2vs0mg"},{"bike_id":"119d24bc-e3dd-4e47-a0b9-64bbbcc5b1ee","system_id":"levelo_inurba_marseille","lat":43.21747,"lon":5.34637,"is_reserved":false,"is_disabled":true,"rental_uris":{"android":"levelo://app?vid=119d24bc-e3dd-4e47-a0b9-64bbbcc5b1ee","ios":"levelo://app?vid=119d24bc-e3dd-4e47-a0b9-64bbbcc5b1ee"},"vehicle_type_id":"4","last_reported":1774035001,"current_range_meters":6000,"station_id":"st_cvj6r9ubvosntc0bgbag","pricing_plan_id":"cebpf4jnsgd1na2vs0mg"},{"bike_id":"e7d52348-570a-4440-8818-e57d451e3dc2","system_id":"levelo_inurba_marseille","lat":43.292612,"lon":5.384293,"is_reserved":false,"is_disabled":false,"rental_uris":{"android":"levelo://app?vid=e7d52348-570a-4440-8818-e57d451e3dc2","ios":"levelo://app?vid=e7d52348-570a-4440-8818-e57d451e3dc2"},"vehicle_type_id":"4","last_reported":1774035001,"current_range_meters":6000,"station_id":"ce4bh692rcd13ifvqea0","pricing_plan_id":"cebpf4jnsgd1na2vs0mg"},{"bike_id":"3c76fb79-92b3-4803-a35d-7a9a81d21794","system_id":"levelo_inurba_marseille","lat":43.22941,"lon":5.35389,"is_reserved":false,"is_disabled":false,"rental_uris":{"android":"levelo://app?vid=3c76fb79-92b3-4803-a35d-7a9a81d21794","ios":"levelo://app?vid=3c76fb79-92b3-4803-a35d-7a9a81d21794"},"vehicle_type_id":"4","last_reported":1774035001,"current_range_meters":6000,"station_id":"cpo3532slgdg3j2ikp40","pricing_plan_id":"cebpf4jnsgd1na2vs0mg"},{"bike_id":"fd458fd1-fc86-4d32-9025-ca75faff2203","system_id":"levelo_inurba_marseille","lat":43.29967,"lon":5.38498,"is_reserved":false,"is_disabled":false,"rental_uris":{"android":"levelo://app?vid=fd458fd1-fc86-4d32-9025-ca75faff2203","ios":"levelo://app?vid=fd458fd1-fc86-4d32-9025-ca75faff2203"},"vehicle_type_id":"4","last_reported":1774035001,"current_range_meters":6000,"station_id":"ce4bgj92rcd13ifvqbd0","pricing_plan_id":"cebpf4jnsgd1na2vs0mg"},{"bike_id":"74ebb480-171b-43e5-b0fc-ba46b71dee8d","system_id":"levelo_inurba_marseille","lat":43.25336,"lon":5.42183,"is_reserved":false,"is_disabled":true,"rental_uris":{"android":"levelo://app?vid=74ebb480-171b-43e5-b0fc-ba46b71dee8d","ios":"levelo://app?vid=74ebb480-171b-43e5-b0fc-ba46b71dee8d"},"vehicle_type_id":"4","last_reported":1774035001,"current_range_meters":6000,"station_id":"st_d2m65c5bi1j21697t3ng","pricing_plan_id":"cebpf4jnsgd1na2vs0mg"},{"bike_id":"c48440d7-f4d5-4be3-a842-7dc1a317748e","system_id":"levelo_inurba_marseille","lat":43.33951,"lon":5.35711,"is_reserved":false,"is_disabled":false,"rental_uris":{"android":"levelo://app?vid=c48440d7-f4d5-4be3-a842-7dc1a317748e","ios":"levelo://app?vid=c48440d7-f4d5-4be3-a842-7dc1a317748e"},"vehicle_type_id":"4","last_reported":1774035001,"current_range_meters":6000,"station_id":"","pricing_plan_id":"cebpf4jnsgd1na2vs0mg"},{"bike_id":"2214abf3-3d00-4dcd-b291-ef9833916889","system_id":"levelo_inurba_marseille","lat":43.28939,"lon":5.36391,"is_reserved":false,"is_disabled":false,"rental_uris":{"android":"levelo://app?vid=2214abf3-3d00-4dcd-b291-ef9833916889","ios":"levelo://app?vid=2214abf3-3d00-4dcd-b291-ef9833916889"},"vehicle_type_id":"4","last_reported":1774035001,"current_range_meters":6000,"station_id":"ce4bhc92rcd13ifvqetg","pricing_plan_id":"cebpf4jnsgd1na2vs0mg"},{"bike_id":"c0af0d2d-ef19-456a-8a0f-587d767ce3c1","system_id":"levelo_inurba_marseille","lat":43.28935,"lon":5.36631,"is_reserved":false,"is_disabled":false,"rental_uris":{"android":"levelo://app?vid=c0af0d2d-ef19-456a-8a0f-587d767ce3c1","ios":"levelo://app?vid=c0af0d2d-ef19-456a-8a0f-587d767ce3c1"},"vehicle_type_id":"4","last_reported":1774035001,"current_range_meters":6400,"station_id":"ce4bhap2rcd13ifvqek0","pricing_plan_id":"cebpf4jnsgd1na2vs0mg"},{"bike_id":"903fac39-6530-4adb-a670-2e120e407c6f","system_id":"levelo_inurba_marseille","lat":43.28355,"lon":5.38108,"is_reserved":false,"is_disabled":false,"rental_uris":{"android":"levelo://app?vid=903fac39-6530-4adb-a670-2e120e407c6f","ios":"levelo://app?vid=903fac39-6530-4adb-a670-2e120e407c6f"},"vehicle_type_id":"4","last_reported":1774035001,"current_range_meters":6400,"station_id":"ce4bh412rcd13ifvqdr0","pricing_plan_id":"cebpf4jnsgd1na2vs0mg"},{"bike_id":"0264288d-82fa-4432-8751-6c08c0e54bb7","system_id":"levelo_inurba_marseille","lat":43.30299,"lon":5.42463,"is_reserved":false,"is_disabled":false,"rental_uris":{"android":"levelo://app?vid=0264288d-82fa-4432-8751-6c08c0e54bb7","ios":"levelo://app?vid=0264288d-82fa-4432-8751-6c08c0e54bb7"},"vehicle_type_id":"4","last_reported":1774035001,"current_range_meters":6400,"station_id":"","pricing_plan_id":"cebpf4jnsgd1na2vs0mg"},{"bike_id":"b0a9af68-3b98-47d6-87a2-5c907d8e87f9","system_id":"levelo_inurba_marseille","lat":43.29276,"lon":5.38449,"is_reserved":false,"is_disabled":false,"rental_uris":{"android":"levelo://app?vid=b0a9af68-3b98-47d6-87a2-5c907d8e87f9","ios":"levelo://app?vid=b0a9af68-3b98-47d6-87a2-5c907d8e87f9"},"vehicle_type_id":"4","last_reported":1774035001,"current_range_meters":6400,"station_id":"ce4bh692rcd13ifvqea0","pricing_plan_id":"cebpf4jnsgd1na2vs0mg"},{"bike_id":"5e4b5793-2c1e-41e8-a298-3408d7bdab5a","system_id":"levelo_inurba_marseille","lat":43.29969,"lon":5.38502,"is_reserved":false,"is_disabled":false,"rental_uris":{"android":"levelo://app?vid=5e4b5793-2c1e-41e8-a298-3408d7bdab5a","ios":"levelo://app?vid=5e4b5793-2c1e-41e8-a298-3408d7bdab5a"},"vehicle_type_id":"4","last_reported":1774035001,"current_range_meters":6400,"station_id":"ce4bgj92rcd13ifvqbd0","pricing_plan_id":"cebpf4jnsgd1na2vs0mg"},{"bike_id":"72b31647-4630-41c7-85ab-b9e59c416c2c","system_id":"levelo_inurba_marseille","lat":43.278371,"lon":5.392043,"is_reserved":false,"is_disabled":false,"rental_uris":{"android":"levelo://app?vid=72b31647-4630-41c7-85ab-b9e59c416c2c","ios":"levelo://app?vid=72b31647-4630-41c7-85ab-b9e59c416c2c"},"vehicle_type_id":"4","last_reported":1774035001,"current_range_meters":6400,"station_id":"ce4bhjp2rcd13ifvqga0","pricing_plan_id":"cebpf4jnsgd1na2vs0mg"},{"bike_id":"53ffd145-e808-4874-b669-0ac8a6361161","system_id":"levelo_inurba_marseille","lat":43.24822,"lon":5.37462,"is_reserved":false,"is_disabled":false,"rental_uris":{"android":"levelo://app?vid=53ffd145-e808-4874-b669-0ac8a6361161","ios":"levelo://app?vid=53ffd145-e808-4874-b669-0ac8a6361161"},"vehicle_type_id":"4","last_reported":1774035001,"current_range_meters":6400,"station_id":"ce4bhgh2rcd13ifvqfb0","pricing_plan_id":"cebpf4jnsgd1na2vs0mg"},{"bike_id":"3e5c7bdb-60ee-4795-a793-9681791a8e87","system_id":"levelo_inurba_marseille","lat":43.29761,"lon":5.42785,"is_reserved":false,"is_disabled":false,"rental_uris":{"android":"levelo://app?vid=3e5c7bdb-60ee-4795-a793-9681791a8e87","ios":"levelo://app?vid=3e5c7bdb-60ee-4795-a793-9681791a8e87"},"vehicle_type_id":"4","last_reported":1774035001,"current_range_meters":6400,"station_id":"st_d3md5207bmas73dh9klg","pricing_plan_id":"cebpf4jnsgd1na2vs0mg"},{"bike_id":"dd74091b-705a-4531-bc39-afff2195d9a1","system_id":"levelo_inurba_marseille","lat":43.24811,"lon":5.37431,"is_reserved":false,"is_disabled":false,"rental_uris":{"android":"levelo://app?vid=dd74091b-705a-4531-bc39-afff2195d9a1","ios":"levelo://app?vid=dd74091b-705a-4531-bc39-afff2195d9a1"},"vehicle_type_id":"4","last_reported":1774035001,"current_range_meters":6400,"station_id":"ce4bhgh2rcd13ifvqfb0","pricing_plan_id":"cebpf4jnsgd1na2vs0mg"},{"bike_id":"7e738946-562d-4916-a4ca-62d7e05df227","system_id":"levelo_inurba_marseille","lat":43.29045,"lon":5.38643,"is_reserved":false,"is_disabled":false,"rental_uris":{"android":"levelo://app?vid=7e738946-562d-4916-a4ca-62d7e05df227","ios":"levelo://app?vid=7e738946-562d-4916-a4ca-62d7e05df227"},"vehicle_type_id":"4","last_reported":1774035001,"current_range_meters":6400,"station_id":"ce4bh4p2rcd13ifvqe0g","pricing_plan_id":"cebpf4jnsgd1na2vs0mg"},{"bike_id":"1af7d1b7-945b-40d6-bf8c-c3e0388024a6","system_id":"levelo_inurba_marseille","lat":43.30521,"lon":5.36557,"is_reserved":false,"is_disabled":false,"rental_uris":{"android":"levelo://app?vid=1af7d1b7-945b-40d6-bf8c-c3e0388024a6","ios":"levelo://app?vid=1af7d1b7-945b-40d6-bf8c-c3e0388024a6"},"vehicle_type_id":"4","last_reported":1774035001,"current_range_meters":6400,"station_id":"ce4bgs12rcd13ifvqcag","pricing_plan_id":"cebpf4jnsgd1na2vs0mg"},{"bike_id":"f2a1264e-1a0f-4232-99d7-3ea69f966741","system_id":"levelo_inurba_marseille","lat":43.29977,"lon":5.38488,"is_reserved":false,"is_disabled":false,"rental_uris":{"android":"levelo://app?vid=f2a1264e-1a0f-4232-99d7-3ea69f966741","ios":"levelo://app?vid=f2a1264e-1a0f-4232-99d7-3ea69f966741"},"vehicle_type_id":"4","last_reported":1774035001,"current_range_meters":6400,"station_id":"ce4bgj92rcd13ifvqbd0","pricing_plan_id":"cebpf4jnsgd1na2vs0mg"},{"bike_id":"31caa62d-cb2c-42fd-aa8e-1e9ca230fd55","system_id":"levelo_inurba_marseille","lat":43.28008,"lon":5.3695,"is_reserved":false,"is_disabled":false,"rental_uris":{"android":"levelo://app?vid=31caa62d-cb2c-42fd-aa8e-1e9ca230fd55","ios":"levelo://app?vid=31caa62d-cb2c-42fd-aa8e-1e9ca230fd55"},"vehicle_type_id":"4","last_reported":1774035001,"current_range_meters":6400,"station_id":"ce4bha12rcd13ifvqef0","pricing_plan_id":"cebpf4jnsgd1na2vs0mg"},{"bike_id":"b9e25c75-de41-4837-9126-78f99e4dab34","system_id":"levelo_inurba_marseille","lat":43.28717,"lon":5.37953,"is_reserved":false,"is_disabled":false,"rental_uris":{"android":"levelo://app?vid=b9e25c75-de41-4837-9126-78f99e4dab34","ios":"levelo://app?vid=b9e25c75-de41-4837-9126-78f99e4dab34"},"vehicle_type_id":"4","last_reported":1774035001,"current_range_meters":6400,"station_id":"ce4bh9p2rcd13ifvqec0","pricing_plan_id":"cebpf4jnsgd1na2vs0mg"},{"bike_id":"51cee39c-bcfa-4eae-8467-838065c31f61","system_id":"levelo_inurba_marseille","lat":43.29533,"lon":5.38528,"is_reserved":false,"is_disabled":false,"rental_uris":{"android":"levelo://app?vid=51cee39c-bcfa-4eae-8467-838065c31f61","ios":"levelo://app?vid=51cee39c-bcfa-4eae-8467-838065c31f61"},"vehicle_type_id":"4","last_reported":1774035001,"current_range_meters":6400,"station_id":"ce4bgih2rcd13ifvqba0","pricing_plan_id":"cebpf4jnsgd1na2vs0mg"},{"bike_id":"ed335414-7832-4882-bfdf-c7482a7acbc1","system_id":"levelo_inurba_marseille","lat":43.3151,"lon":5.37282,"is_reserved":false,"is_disabled":false,"rental_uris":{"android":"levelo://app?vid=ed335414-7832-4882-bfdf-c7482a7acbc1","ios":"levelo://app?vid=ed335414-7832-4882-bfdf-c7482a7acbc1"},"vehicle_type_id":"4","last_reported":1774035001,"current_range_meters":6400,"station_id":"ce4bgt12rcd13ifvqcd0","pricing_plan_id":"cebpf4jnsgd1na2vs0mg"},{"bike_id":"29ceb06a-4df8-4e2a-9dd9-b070e185b37f","system_id":"levelo_inurba_marseille","lat":43.28482,"lon":5.48437,"is_reserved":false,"is_disabled":false,"rental_uris":{"android":"levelo://app?vid=29ceb06a-4df8-4e2a-9dd9-b070e185b37f","ios":"levelo://app?vid=29ceb06a-4df8-4e2a-9dd9-b070e185b37f"},"vehicle_type_id":"4","last_reported":1774035001,"current_range_meters":6400,"station_id":"st_d3svhcjqgbts73a3dn0g","pricing_plan_id":"cebpf4jnsgd1na2vs0mg"},{"bike_id":"c142af26-b83c-4aa3-ab8b-699576493d34","system_id":"levelo_inurba_marseille","lat":43.21207,"lon":5.3508,"is_reserved":false,"is_disabled":true,"rental_uris":{"android":"levelo://app?vid=c142af26-b83c-4aa3-ab8b-699576493d34","ios":"levelo://app?vid=c142af26-b83c-4aa3-ab8b-699576493d34"},"vehicle_type_id":"4","last_reported":1774035001,"current_range_meters":6400,"station_id":"st_cvj6sg6p6f1abm77japg","pricing_plan_id":"cebpf4jnsgd1na2vs0mg"},{"bike_id":"29705345-7a8e-4bdd-8b65-5ba8856c877f","system_id":"levelo_inurba_marseille","lat":43.30305,"lon":5.44933,"is_reserved":false,"is_disabled":false,"rental_uris":{"android":"levelo://app?vid=29705345-7a8e-4bdd-8b65-5ba8856c877f","ios":"levelo://app?vid=29705345-7a8e-4bdd-8b65-5ba8856c877f"},"vehicle_type_id":"4","last_reported":1774035001,"current_range_meters":6400,"station_id":"","pricing_plan_id":"cebpf4jnsgd1na2vs0mg"},{"bike_id":"875607e1-48e0-49ba-bc6f-523ce9d70d76","system_id":"levelo_inurba_marseille","lat":43.31119,"lon":5.37759,"is_reserved":false,"is_disabled":false,"rental_uris":{"android":"levelo://app?vid=875607e1-48e0-49ba-bc6f-523ce9d70d76","ios":"levelo://app?vid=875607e1-48e0-49ba-bc6f-523ce9d70d76"},"vehicle_type_id":"4","last_reported":1774035001,"current_range_meters":6400,"station_id":"ce4bgt92rcd13ifvqcg0","pricing_plan_id":"cebpf4jnsgd1na2vs0mg"},{"bike_id":"23c209c6-7d3c-4387-b04a-03a2b9a72d01","system_id":"levelo_inurba_marseille","lat":43.28365,"lon":5.4325,"is_reserved":false,"is_disabled":false,"rental_uris":{"android":"levelo://app?vid=23c209c6-7d3c-4387-b04a-03a2b9a72d01","ios":"levelo://app?vid=23c209c6-7d3c-4387-b04a-03a2b9a72d01"},"vehicle_type_id":"4","last_reported":1774035001,"current_range_meters":6400,"station_id":"","pricing_plan_id":"cebpf4jnsgd1na2vs0mg"},{"bike_id":"a8676dec-714d-4196-8ee5-c630f314ac31","system_id":"levelo_inurba_marseille","lat":43.29293,"lon":5.38432,"is_reserved":false,"is_disabled":false,"rental_uris":{"android":"levelo://app?vid=a8676dec-714d-4196-8ee5-c630f314ac31","ios":"levelo://app?vid=a8676dec-714d-4196-8ee5-c630f314ac31"},"vehicle_type_id":"4","last_reported":1774035001,"current_range_meters":6400,"station_id":"ce4bh692rcd13ifvqea0","pricing_plan_id":"cebpf4jnsgd1na2vs0mg"},{"bike_id":"26f2f2e0-a362-4cb9-bbd9-484ffbb8865b","system_id":"levelo_inurba_marseille","lat":43.29884,"lon":5.38898,"is_reserved":false,"is_disabled":false,"rental_uris":{"android":"levelo://app?vid=26f2f2e0-a362-4cb9-bbd9-484ffbb8865b","ios":"levelo://app?vid=26f2f2e0-a362-4cb9-bbd9-484ffbb8865b"},"vehicle_type_id":"4","last_reported":1774035001,"current_range_meters":6400,"station_id":"ce4bh392rcd13ifvqdl0","pricing_plan_id":"cebpf4jnsgd1na2vs0mg"},{"bike_id":"653ae3fb-78ac-4048-bd57-8c8c22447edc","system_id":"levelo_inurba_marseille","lat":43.31888,"lon":5.40738,"is_reserved":false,"is_disabled":false,"rental_uris":{"android":"levelo://app?vid=653ae3fb-78ac-4048-bd57-8c8c22447edc","ios":"levelo://app?vid=653ae3fb-78ac-4048-bd57-8c8c22447edc"},"vehicle_type_id":"4","last_reported":1774035001,"current_range_meters":6400,"station_id":"ce4bhq12rcd13ifvqhig","pricing_plan_id":"cebpf4jnsgd1na2vs0mg"},{"bike_id":"2f25180c-d604-427d-a094-e0c4d1040987","system_id":"levelo_inurba_marseille","lat":43.29256,"lon":5.38434,"is_reserved":false,"is_disabled":false,"rental_uris":{"android":"levelo://app?vid=2f25180c-d604-427d-a094-e0c4d1040987","ios":"levelo://app?vid=2f25180c-d604-427d-a094-e0c4d1040987"},"vehicle_type_id":"4","last_reported":1774035001,"current_range_meters":6400,"station_id":"ce4bh692rcd13ifvqea0","pricing_plan_id":"cebpf4jnsgd1na2vs0mg"},{"bike_id":"3d8b9441-846b-4bc6-a99f-7538b53156c2","system_id":"levelo_inurba_marseille","lat":43.29776,"lon":5.38104,"is_reserved":false,"is_disabled":true,"rental_uris":{"android":"levelo://app?vid=3d8b9441-846b-4bc6-a99f-7538b53156c2","ios":"levelo://app?vid=3d8b9441-846b-4bc6-a99f-7538b53156c2"},"vehicle_type_id":"4","last_reported":1774035001,"current_range_meters":6800,"station_id":"ce4bgip2rcd13ifvqbb0","pricing_plan_id":"cebpf4jnsgd1na2vs0mg"},{"bike_id":"69764ffb-a2a8-40c2-b881-193bb8aef64e","system_id":"levelo_inurba_marseille","lat":43.29171,"lon":5.37164,"is_reserved":false,"is_disabled":false,"rental_uris":{"android":"levelo://app?vid=69764ffb-a2a8-40c2-b881-193bb8aef64e","ios":"levelo://app?vid=69764ffb-a2a8-40c2-b881-193bb8aef64e"},"vehicle_type_id":"4","last_reported":1774035001,"current_range_meters":6800,"station_id":"ce4bha92rcd13ifvqeh0","pricing_plan_id":"cebpf4jnsgd1na2vs0mg"},{"bike_id":"a775511c-9985-4a58-8c4c-775aad7f3e36","system_id":"levelo_inurba_marseille","lat":43.29916,"lon":5.43636,"is_reserved":false,"is_disabled":false,"rental_uris":{"android":"levelo://app?vid=a775511c-9985-4a58-8c4c-775aad7f3e36","ios":"levelo://app?vid=a775511c-9985-4a58-8c4c-775aad7f3e36"},"vehicle_type_id":"4","last_reported":1774035001,"current_range_meters":6800,"station_id":"ce4bhpp2rcd13ifvqhfg","pricing_plan_id":"cebpf4jnsgd1na2vs0mg"},{"bike_id":"5c37a49c-ab60-4c11-8a61-6592ff444186","system_id":"levelo_inurba_marseille","lat":43.27908,"lon":5.39175,"is_reserved":false,"is_disabled":false,"rental_uris":{"android":"levelo://app?vid=5c37a49c-ab60-4c11-8a61-6592ff444186","ios":"levelo://app?vid=5c37a49c-ab60-4c11-8a61-6592ff444186"},"vehicle_type_id":"4","last_reported":1774035001,"current_range_meters":6800,"station_id":"","pricing_plan_id":"cebpf4jnsgd1na2vs0mg"},{"bike_id":"d99c0162-f6d1-4d2c-acef-490ddcd63ab1","system_id":"levelo_inurba_marseille","lat":43.28983,"lon":5.3784,"is_reserved":false,"is_disabled":false,"rental_uris":{"android":"levelo://app?vid=d99c0162-f6d1-4d2c-acef-490ddcd63ab1","ios":"levelo://app?vid=d99c0162-f6d1-4d2c-acef-490ddcd63ab1"},"vehicle_type_id":"4","last_reported":1774035001,"current_range_meters":6800,"station_id":"ce4bh9p2rcd13ifvqed0","pricing_plan_id":"cebpf4jnsgd1na2vs0mg"},{"bike_id":"d9442bbf-fbeb-4892-a3e2-03d9057b05b9","system_id":"levelo_inurba_marseille","lat":43.24806,"lon":5.37455,"is_reserved":false,"is_disabled":false,"rental_uris":{"android":"levelo://app?vid=d9442bbf-fbeb-4892-a3e2-03d9057b05b9","ios":"levelo://app?vid=d9442bbf-fbeb-4892-a3e2-03d9057b05b9"},"vehicle_type_id":"4","last_reported":1774035001,"current_range_meters":6800,"station_id":"ce4bhgh2rcd13ifvqfb0","pricing_plan_id":"cebpf4jnsgd1na2vs0mg"},{"bike_id":"36e90825-0a4c-4783-80db-abf887e1012e","system_id":"levelo_inurba_marseille","lat":43.24823,"lon":5.37461,"is_reserved":false,"is_disabled":false,"rental_uris":{"android":"levelo://app?vid=36e90825-0a4c-4783-80db-abf887e1012e","ios":"levelo://app?vid=36e90825-0a4c-4783-80db-abf887e1012e"},"vehicle_type_id":"4","last_reported":1774035001,"current_range_meters":6800,"station_id":"ce4bhgh2rcd13ifvqfb0","pricing_plan_id":"cebpf4jnsgd1na2vs0mg"},{"bike_id":"5ea68d44-1982-470b-b617-05246700513c","system_id":"levelo_inurba_marseille","lat":43.313457,"lon":5.367051,"is_reserved":false,"is_disabled":false,"rental_uris":{"android":"levelo://app?vid=5ea68d44-1982-470b-b617-05246700513c","ios":"levelo://app?vid=5ea68d44-1982-470b-b617-05246700513c"},"vehicle_type_id":"4","last_reported":1774035001,"current_range_meters":6800,"station_id":"ce4bgr92rcd13ifvqc6g","pricing_plan_id":"cebpf4jnsgd1na2vs0mg"},{"bike_id":"f88beddb-d7c4-4148-9f8c-56ddec396a56","system_id":"levelo_inurba_marseille","lat":43.24813,"lon":5.37449,"is_reserved":false,"is_disabled":false,"rental_uris":{"android":"levelo://app?vid=f88beddb-d7c4-4148-9f8c-56ddec396a56","ios":"levelo://app?vid=f88beddb-d7c4-4148-9f8c-56ddec396a56"},"vehicle_type_id":"4","last_reported":1774035001,"current_range_meters":6800,"station_id":"ce4bhgh2rcd13ifvqfb0","pricing_plan_id":"cebpf4jnsgd1na2vs0mg"},{"bike_id":"e9be6116-2645-4776-a78e-3d3e2680459d","system_id":"levelo_inurba_marseille","lat":43.24809,"lon":5.37479,"is_reserved":false,"is_disabled":false,"rental_uris":{"android":"levelo://app?vid=e9be6116-2645-4776-a78e-3d3e2680459d","ios":"levelo://app?vid=e9be6116-2645-4776-a78e-3d3e2680459d"},"vehicle_type_id":"4","last_reported":1774035001,"current_range_meters":6800,"station_id":"ce4bhgh2rcd13ifvqfb0","pricing_plan_id":"cebpf4jnsgd1na2vs0mg"},{"bike_id":"e5eba928-e3a4-441b-9540-937747ee47b9","system_id":"levelo_inurba_marseille","lat":43.22577,"lon":5.41637,"is_reserved":false,"is_disabled":false,"rental_uris":{"android":"levelo://app?vid=e5eba928-e3a4-441b-9540-937747ee47b9","ios":"levelo://app?vid=e5eba928-e3a4-441b-9540-937747ee47b9"},"vehicle_type_id":"4","last_reported":1774035001,"current_range_meters":6800,"station_id":"st_d2o4gvlbi1j2169b742g","pricing_plan_id":"cebpf4jnsgd1na2vs0mg"},{"bike_id":"a1ce7f88-8f8c-48ff-bc8b-8021c61764ea","system_id":"levelo_inurba_marseille","lat":43.33542,"lon":5.37467,"is_reserved":false,"is_disabled":false,"rental_uris":{"android":"levelo://app?vid=a1ce7f88-8f8c-48ff-bc8b-8021c61764ea","ios":"levelo://app?vid=a1ce7f88-8f8c-48ff-bc8b-8021c61764ea"},"vehicle_type_id":"4","last_reported":1774035001,"current_range_meters":6800,"station_id":"st_d46tts09ee8s73dlu43g","pricing_plan_id":"cebpf4jnsgd1na2vs0mg"},{"bike_id":"d4bdd173-78c7-4a96-b0a8-c9b4c4e56d68","system_id":"levelo_inurba_marseille","lat":43.28417,"lon":5.37519,"is_reserved":false,"is_disabled":true,"rental_uris":{"android":"levelo://app?vid=d4bdd173-78c7-4a96-b0a8-c9b4c4e56d68","ios":"levelo://app?vid=d4bdd173-78c7-4a96-b0a8-c9b4c4e56d68"},"vehicle_type_id":"4","last_reported":1774035001,"current_range_meters":7200,"station_id":"ce4bh412rcd13ifvqds0","pricing_plan_id":"cebpf4jnsgd1na2vs0mg"},{"bike_id":"f328e3b6-a38c-49fe-80e0-c552630893a5","system_id":"levelo_inurba_marseille","lat":43.22935,"lon":5.3539,"is_reserved":false,"is_disabled":false,"rental_uris":{"android":"levelo://app?vid=f328e3b6-a38c-49fe-80e0-c552630893a5","ios":"levelo://app?vid=f328e3b6-a38c-49fe-80e0-c552630893a5"},"vehicle_type_id":"4","last_reported":1774035001,"current_range_meters":7200,"station_id":"cpo3532slgdg3j2ikp40","pricing_plan_id":"cebpf4jnsgd1na2vs0mg"},{"bike_id":"53f48266-4564-420b-96ab-d243233055dc","system_id":"levelo_inurba_marseille","lat":43.28473,"lon":5.484,"is_reserved":false,"is_disabled":false,"rental_uris":{"android":"levelo://app?vid=53f48266-4564-420b-96ab-d243233055dc","ios":"levelo://app?vid=53f48266-4564-420b-96ab-d243233055dc"},"vehicle_type_id":"4","last_reported":1774035001,"current_range_meters":7200,"station_id":"","pricing_plan_id":"cebpf4jnsgd1na2vs0mg"},{"bike_id":"18ab0e01-ffb4-4e11-91dc-106f41e47104","system_id":"levelo_inurba_marseille","lat":43.28941,"lon":5.36638,"is_reserved":false,"is_disabled":false,"rental_uris":{"android":"levelo://app?vid=18ab0e01-ffb4-4e11-91dc-106f41e47104","ios":"levelo://app?vid=18ab0e01-ffb4-4e11-91dc-106f41e47104"},"vehicle_type_id":"4","last_reported":1774035001,"current_range_meters":7200,"station_id":"ce4bhap2rcd13ifvqek0","pricing_plan_id":"cebpf4jnsgd1na2vs0mg"},{"bike_id":"32212ebc-1458-4580-bfef-d2d2515be371","system_id":"levelo_inurba_marseille","lat":43.3043,"lon":5.39735,"is_reserved":false,"is_disabled":false,"rental_uris":{"android":"levelo://app?vid=32212ebc-1458-4580-bfef-d2d2515be371","ios":"levelo://app?vid=32212ebc-1458-4580-bfef-d2d2515be371"},"vehicle_type_id":"4","last_reported":1774035001,"current_range_meters":7200,"station_id":"ce4bh092rcd13ifvqd20","pricing_plan_id":"cebpf4jnsgd1na2vs0mg"},{"bike_id":"c55f3fc5-5edf-4ef9-9d84-f8899b074dbb","system_id":"levelo_inurba_marseille","lat":43.28846,"lon":5.42512,"is_reserved":false,"is_disabled":false,"rental_uris":{"android":"levelo://app?vid=c55f3fc5-5edf-4ef9-9d84-f8899b074dbb","ios":"levelo://app?vid=c55f3fc5-5edf-4ef9-9d84-f8899b074dbb"},"vehicle_type_id":"4","last_reported":1774035001,"current_range_meters":7200,"station_id":"","pricing_plan_id":"cebpf4jnsgd1na2vs0mg"},{"bike_id":"2313a9d8-3b71-4503-ab72-a0954847e36b","system_id":"levelo_inurba_marseille","lat":43.30277,"lon":5.37728,"is_reserved":false,"is_disabled":false,"rental_uris":{"android":"levelo://app?vid=2313a9d8-3b71-4503-ab72-a0954847e36b","ios":"levelo://app?vid=2313a9d8-3b71-4503-ab72-a0954847e36b"},"vehicle_type_id":"4","last_reported":1774035001,"current_range_meters":7200,"station_id":"ce4bguh2rcd13ifvqcj0","pricing_plan_id":"cebpf4jnsgd1na2vs0mg"},{"bike_id":"fceb005b-3c2d-4951-8503-d488430e93cd","system_id":"levelo_inurba_marseille","lat":43.24551,"lon":5.39517,"is_reserved":false,"is_disabled":false,"rental_uris":{"android":"levelo://app?vid=fceb005b-3c2d-4951-8503-d488430e93cd","ios":"levelo://app?vid=fceb005b-3c2d-4951-8503-d488430e93cd"},"vehicle_type_id":"4","last_reported":1774035001,"current_range_meters":7200,"station_id":"ce4bhlp2rcd13ifvqgjg","pricing_plan_id":"cebpf4jnsgd1na2vs0mg"},{"bike_id":"921887ba-0d78-45f7-bad3-8683dbe78cf8","system_id":"levelo_inurba_marseille","lat":43.28846,"lon":5.39303,"is_reserved":false,"is_disabled":false,"rental_uris":{"android":"levelo://app?vid=921887ba-0d78-45f7-bad3-8683dbe78cf8","ios":"levelo://app?vid=921887ba-0d78-45f7-bad3-8683dbe78cf8"},"vehicle_type_id":"4","last_reported":1774035001,"current_range_meters":7200,"station_id":"ce4bh2p2rcd13ifvqdi0","pricing_plan_id":"cebpf4jnsgd1na2vs0mg"},{"bike_id":"11d1b124-3b4e-48aa-bd6f-642c5b433a33","system_id":"levelo_inurba_marseille","lat":43.29049,"lon":5.38635,"is_reserved":false,"is_disabled":false,"rental_uris":{"android":"levelo://app?vid=11d1b124-3b4e-48aa-bd6f-642c5b433a33","ios":"levelo://app?vid=11d1b124-3b4e-48aa-bd6f-642c5b433a33"},"vehicle_type_id":"4","last_reported":1774035001,"current_range_meters":7200,"station_id":"ce4bh4p2rcd13ifvqe0g","pricing_plan_id":"cebpf4jnsgd1na2vs0mg"},{"bike_id":"b3a07388-2c0a-4b1b-9a20-54a69bd7f835","system_id":"levelo_inurba_marseille","lat":43.26554,"lon":5.37288,"is_reserved":false,"is_disabled":false,"rental_uris":{"android":"levelo://app?vid=b3a07388-2c0a-4b1b-9a20-54a69bd7f835","ios":"levelo://app?vid=b3a07388-2c0a-4b1b-9a20-54a69bd7f835"},"vehicle_type_id":"4","last_reported":1774035001,"current_range_meters":7200,"station_id":"ce4bhg12rcd13ifvqf70","pricing_plan_id":"cebpf4jnsgd1na2vs0mg"},{"bike_id":"89ad46cf-ad84-4e5e-be57-87ac2cebe69c","system_id":"levelo_inurba_marseille","lat":43.28471,"lon":5.48396,"is_reserved":false,"is_disabled":false,"rental_uris":{"android":"levelo://app?vid=89ad46cf-ad84-4e5e-be57-87ac2cebe69c","ios":"levelo://app?vid=89ad46cf-ad84-4e5e-be57-87ac2cebe69c"},"vehicle_type_id":"4","last_reported":1774035001,"current_range_meters":7200,"station_id":"st_d3svhcjqgbts73a3dn0g","pricing_plan_id":"cebpf4jnsgd1na2vs0mg"},{"bike_id":"72bc887f-09fa-4910-916a-ced2a3ade466","system_id":"levelo_inurba_marseille","lat":43.24682,"lon":5.38152,"is_reserved":false,"is_disabled":false,"rental_uris":{"android":"levelo://app?vid=72bc887f-09fa-4910-916a-ced2a3ade466","ios":"levelo://app?vid=72bc887f-09fa-4910-916a-ced2a3ade466"},"vehicle_type_id":"4","last_reported":1774035001,"current_range_meters":7200,"station_id":"ce4bhih2rcd13ifvqfr0","pricing_plan_id":"cebpf4jnsgd1na2vs0mg"},{"bike_id":"7bb297ff-de9a-4cfa-b962-0e3dd8880df3","system_id":"levelo_inurba_marseille","lat":43.30543,"lon":5.36708,"is_reserved":false,"is_disabled":false,"rental_uris":{"android":"levelo://app?vid=7bb297ff-de9a-4cfa-b962-0e3dd8880df3","ios":"levelo://app?vid=7bb297ff-de9a-4cfa-b962-0e3dd8880df3"},"vehicle_type_id":"4","last_reported":1774035001,"current_range_meters":7200,"station_id":"ce4bgrp2rcd13ifvqc9g","pricing_plan_id":"cebpf4jnsgd1na2vs0mg"},{"bike_id":"1bd4d7b7-d326-4d4a-bd8b-6c5cfb947fd4","system_id":"levelo_inurba_marseille","lat":43.295283,"lon":5.385419,"is_reserved":false,"is_disabled":false,"rental_uris":{"android":"levelo://app?vid=1bd4d7b7-d326-4d4a-bd8b-6c5cfb947fd4","ios":"levelo://app?vid=1bd4d7b7-d326-4d4a-bd8b-6c5cfb947fd4"},"vehicle_type_id":"4","last_reported":1774035001,"current_range_meters":7200,"station_id":"ce4bgih2rcd13ifvqba0","pricing_plan_id":"cebpf4jnsgd1na2vs0mg"},{"bike_id":"5274ae22-0324-4ce9-a5f2-9d851ed0d682","system_id":"levelo_inurba_marseille","lat":43.28978,"lon":5.37842,"is_reserved":false,"is_disabled":false,"rental_uris":{"android":"levelo://app?vid=5274ae22-0324-4ce9-a5f2-9d851ed0d682","ios":"levelo://app?vid=5274ae22-0324-4ce9-a5f2-9d851ed0d682"},"vehicle_type_id":"4","last_reported":1774035001,"current_range_meters":7200,"station_id":"ce4bh9p2rcd13ifvqed0","pricing_plan_id":"cebpf4jnsgd1na2vs0mg"},{"bike_id":"01f505bc-744d-4813-9c8c-b1d84c8cd23d","system_id":"levelo_inurba_marseille","lat":43.30278,"lon":5.37707,"is_reserved":false,"is_disabled":false,"rental_uris":{"android":"levelo://app?vid=01f505bc-744d-4813-9c8c-b1d84c8cd23d","ios":"levelo://app?vid=01f505bc-744d-4813-9c8c-b1d84c8cd23d"},"vehicle_type_id":"4","last_reported":1774035001,"current_range_meters":7200,"station_id":"ce4bguh2rcd13ifvqcj0","pricing_plan_id":"cebpf4jnsgd1na2vs0mg"},{"bike_id":"8c1bb141-7c55-4313-98be-7d6dc39780bc","system_id":"levelo_inurba_marseille","lat":43.27889,"lon":5.3802,"is_reserved":false,"is_disabled":false,"rental_uris":{"android":"levelo://app?vid=8c1bb141-7c55-4313-98be-7d6dc39780bc","ios":"levelo://app?vid=8c1bb141-7c55-4313-98be-7d6dc39780bc"},"vehicle_type_id":"4","last_reported":1774035001,"current_range_meters":7200,"station_id":"ce4bhf92rcd13ifvqf50","pricing_plan_id":"cebpf4jnsgd1na2vs0mg"},{"bike_id":"83675f3e-fe90-4bf0-8b69-f095eac9e73c","system_id":"levelo_inurba_marseille","lat":43.27065,"lon":5.42294,"is_reserved":false,"is_disabled":false,"rental_uris":{"android":"levelo://app?vid=83675f3e-fe90-4bf0-8b69-f095eac9e73c","ios":"levelo://app?vid=83675f3e-fe90-4bf0-8b69-f095eac9e73c"},"vehicle_type_id":"4","last_reported":1774035001,"current_range_meters":7200,"station_id":"ce4bhk92rcd13ifvqgb0","pricing_plan_id":"cebpf4jnsgd1na2vs0mg"},{"bike_id":"df39463a-2c4e-4d84-b833-2dafcf0a7834","system_id":"levelo_inurba_marseille","lat":43.31367,"lon":5.38495,"is_reserved":false,"is_disabled":false,"rental_uris":{"android":"levelo://app?vid=df39463a-2c4e-4d84-b833-2dafcf0a7834","ios":"levelo://app?vid=df39463a-2c4e-4d84-b833-2dafcf0a7834"},"vehicle_type_id":"4","last_reported":1774035001,"current_range_meters":8000,"station_id":"ce4bgt92rcd13ifvqcf0","pricing_plan_id":"cebpf4jnsgd1na2vs0mg"},{"bike_id":"0f699794-8202-4161-a052-1d39a341c5fa","system_id":"levelo_inurba_marseille","lat":43.31206,"lon":5.3871,"is_reserved":false,"is_disabled":true,"rental_uris":{"android":"levelo://app?vid=0f699794-8202-4161-a052-1d39a341c5fa","ios":"levelo://app?vid=0f699794-8202-4161-a052-1d39a341c5fa"},"vehicle_type_id":"4","last_reported":1774035001,"current_range_meters":8000,"station_id":"ce4bgv12rcd13ifvqcp0","pricing_plan_id":"cebpf4jnsgd1na2vs0mg"},{"bike_id":"ade318fc-e2b5-4032-a3f7-c76956942abe","system_id":"levelo_inurba_marseille","lat":43.26679,"lon":5.38266,"is_reserved":false,"is_disabled":false,"rental_uris":{"android":"levelo://app?vid=ade318fc-e2b5-4032-a3f7-c76956942abe","ios":"levelo://app?vid=ade318fc-e2b5-4032-a3f7-c76956942abe"},"vehicle_type_id":"4","last_reported":1774035001,"current_range_meters":8000,"station_id":"ce4bhg92rcd13ifvqf90","pricing_plan_id":"cebpf4jnsgd1na2vs0mg"},{"bike_id":"060a17fc-c9dc-4a7f-9c4a-c3774a52d50f","system_id":"levelo_inurba_marseille","lat":43.29519,"lon":5.37505,"is_reserved":false,"is_disabled":false,"rental_uris":{"android":"levelo://app?vid=060a17fc-c9dc-4a7f-9c4a-c3774a52d50f","ios":"levelo://app?vid=060a17fc-c9dc-4a7f-9c4a-c3774a52d50f"},"vehicle_type_id":"4","last_reported":1774035001,"current_range_meters":8000,"station_id":"ce4bgkp2rcd13ifvqbmg","pricing_plan_id":"cebpf4jnsgd1na2vs0mg"},{"bike_id":"f12ce399-1654-48f8-a320-211fcab6582c","system_id":"levelo_inurba_marseille","lat":43.23792,"lon":5.36631,"is_reserved":false,"is_disabled":false,"rental_uris":{"android":"levelo://app?vid=f12ce399-1654-48f8-a320-211fcab6582c","ios":"levelo://app?vid=f12ce399-1654-48f8-a320-211fcab6582c"},"vehicle_type_id":"4","last_reported":1774035001,"current_range_meters":8000,"station_id":"st_d3nk18o9ro0c73en2l3g","pricing_plan_id":"cebpf4jnsgd1na2vs0mg"},{"bike_id":"2d9e4754-9b17-40b5-bbeb-5b1c9c5bbe64","system_id":"levelo_inurba_marseille","lat":43.30148,"lon":5.38779,"is_reserved":false,"is_disabled":true,"rental_uris":{"android":"levelo://app?vid=2d9e4754-9b17-40b5-bbeb-5b1c9c5bbe64","ios":"levelo://app?vid=2d9e4754-9b17-40b5-bbeb-5b1c9c5bbe64"},"vehicle_type_id":"4","last_reported":1774035001,"current_range_meters":8000,"station_id":"ce4bghh2rcd13ifvqb60","pricing_plan_id":"cebpf4jnsgd1na2vs0mg"},{"bike_id":"7fa64d84-cd92-4f02-a79d-c348b129b15f","system_id":"levelo_inurba_marseille","lat":43.24166,"lon":5.36407,"is_reserved":false,"is_disabled":false,"rental_uris":{"android":"levelo://app?vid=7fa64d84-cd92-4f02-a79d-c348b129b15f","ios":"levelo://app?vid=7fa64d84-cd92-4f02-a79d-c348b129b15f"},"vehicle_type_id":"4","last_reported":1774035001,"current_range_meters":8000,"station_id":"cpo36qri1sfpv3e86is0","pricing_plan_id":"cebpf4jnsgd1na2vs0mg"},{"bike_id":"c7f480a9-546d-4327-92f1-068dda385e32","system_id":"levelo_inurba_marseille","lat":43.30622,"lon":5.39342,"is_reserved":false,"is_disabled":false,"rental_uris":{"android":"levelo://app?vid=c7f480a9-546d-4327-92f1-068dda385e32","ios":"levelo://app?vid=c7f480a9-546d-4327-92f1-068dda385e32"},"vehicle_type_id":"4","last_reported":1774035001,"current_range_meters":8000,"station_id":"ce4bh0p2rcd13ifvqd80","pricing_plan_id":"cebpf4jnsgd1na2vs0mg"},{"bike_id":"af393058-9f4c-4155-a44b-2deedd6ff524","system_id":"levelo_inurba_marseille","lat":43.292551,"lon":5.409045,"is_reserved":false,"is_disabled":false,"rental_uris":{"android":"levelo://app?vid=af393058-9f4c-4155-a44b-2deedd6ff524","ios":"levelo://app?vid=af393058-9f4c-4155-a44b-2deedd6ff524"},"vehicle_type_id":"4","last_reported":1774035001,"current_range_meters":8000,"station_id":"ce4bh192rcd13ifvqdc0","pricing_plan_id":"cebpf4jnsgd1na2vs0mg"},{"bike_id":"0c744d67-74b3-4bed-8fa1-274d8c3afbea","system_id":"levelo_inurba_marseille","lat":43.23774,"lon":5.3662,"is_reserved":false,"is_disabled":false,"rental_uris":{"android":"levelo://app?vid=0c744d67-74b3-4bed-8fa1-274d8c3afbea","ios":"levelo://app?vid=0c744d67-74b3-4bed-8fa1-274d8c3afbea"},"vehicle_type_id":"4","last_reported":1774035001,"current_range_meters":8000,"station_id":"st_d3nk18o9ro0c73en2l3g","pricing_plan_id":"cebpf4jnsgd1na2vs0mg"},{"bike_id":"912e5f30-2e0b-48a9-85db-a984611241c9","system_id":"levelo_inurba_marseille","lat":43.2981,"lon":5.44094,"is_reserved":false,"is_disabled":false,"rental_uris":{"android":"levelo://app?vid=912e5f30-2e0b-48a9-85db-a984611241c9","ios":"levelo://app?vid=912e5f30-2e0b-48a9-85db-a984611241c9"},"vehicle_type_id":"4","last_reported":1774035001,"current_range_meters":8400,"station_id":"st_d3jp68qikq2c7381ktn0","pricing_plan_id":"cebpf4jnsgd1na2vs0mg"},{"bike_id":"f9f33945-b06b-4b00-9573-303cffdfc83a","system_id":"levelo_inurba_marseille","lat":43.26957,"lon":5.38627,"is_reserved":false,"is_disabled":false,"rental_uris":{"android":"levelo://app?vid=f9f33945-b06b-4b00-9573-303cffdfc83a","ios":"levelo://app?vid=f9f33945-b06b-4b00-9573-303cffdfc83a"},"vehicle_type_id":"4","last_reported":1774035001,"current_range_meters":8400,"station_id":"ce4bhh92rcd13ifvqfh0","pricing_plan_id":"cebpf4jnsgd1na2vs0mg"},