{"last_updated":1706475966,"ttl":30,"version":"2.2","data":{"bikes":[{"bike_id":"26eb7c4c-d820-4609-a57f-4739d1caec33","system_id":"levelo_inurba_marseille","lat":43.31341,"lon":5.367098,"is_reserved":false,"is_disabled":false,"rental_uris":{"android":"levelo://app?vid=26eb7c4c-d820-4609-a57f-4739d1caec33","ios":"levelo://app?vid=26eb7c4c-d820-4609-a57f-4739d1caec33"},"vehicle_type_id":"4","last_reported":1706475966,"current_range_meters":28800,"station_id":"ce4bgr92rcd13ifvqc6g","pricing_plan_id":"free"},{"bike_id":"daa01044-f165-43b4-8906-2b74c00bbad2","system_id":"levelo_inurba_marseille","lat":43.312239,"lon":5.368562,"is_reserved":false,"is_disabled":false,"rental_uris":{"android":"levelo://app?vid=daa01044-f165-43b4-8906-2b74c00bbad2","ios":"levelo://app?vid=daa01044-f165-43b4-8906-2b74c00bbad2"},"vehicle_type_id":"4","last_reported":1706475966,"current_range_meters":9600,"station_id":"ce4bgl92rcd13ifvqbq0","pricing_plan_id":"free"},{"bike_id":"7dd3ff27-4e87-4cff-859a-d94a428d0541","system_id":"levelo_inurba_marseille","lat":43.312226,"lon":5.368527,"is_reserved":false,"is_disabled":false,"rental_uris":{"android":"levelo://app?vid=7dd3ff27-4e87-4cff-859a-d94a428d0541","ios":"levelo://app?vid=7dd3ff27-4e87-4cff-859a-d94a428d0541"},"vehicle_type_id":"4","last_reported":1706475966,"current_range_meters":18800,"station_id":"ce4bgl92rcd13ifvqbq0","pricing_plan_id":"free"},{"bike_id":"b5c87cb0-8b67-483c-b86a-6297eb440102","system_id":"levelo_inurba_marseille","lat":43.312239,"lon":5.368562,"is_reserved":false,"is_disabled":false,"rental_uris":{"android":"levelo://app?vid=b5c87cb0-8b67-483c-b86a-6297eb440102","ios":"levelo://app?vid=b5c87cb0-8b67-483c-b86a-6297eb440102"},"vehicle_type_id":"4","last_reported":1706475966,"current_range_meters":17600,"station_id":"ce4bgl92rcd13ifvqbq0","pricing_plan_id":"free"},{"bike_id":"081c2fb5-5e92-46c4-87a6-7cc61c39d9df","system_id":"levelo_inurba_marseille","lat":43.314811,"lon":5.373103,"is_reserved":false,"is_disabled":false,"rental_uris":{"android":"levelo://app?vid=081c2fb5-5e92-46c4-87a6-7cc61c39d9df","ios":"levelo://app?vid=081c2fb5-5e92-46c4-87a6-7cc61c39d9df"},"vehicle_type_id":"4","last_reported":1706475966,"current_range_meters":3200,"station_id":"ce4bgt12rcd13ifvqcd0","pricing_plan_id":"free"},{"bike_id":"695348df-c731-4eb7-8c42-84ee0d448631","system_id":"levelo_inurba_marseille","lat":43.314811,"lon":5.373103,"is_reserved":false,"is_disabled":false,"rental_uris":{"android":"levelo://app?vid=695348df-c731-4eb7-8c42-84ee0d448631","ios":"levelo://app?vid=695348df-c731-4eb7-8c42-84ee0d448631"},"vehicle_type_id":"4","last_reported":1706475966,"current_range_meters":14000,"station_id":"ce4bgt12rcd13ifvqcd0","pricing_plan_id":"free"},{"bike_id":"5b20eaef-9fcf-4fbe-a728-5aa0b1295400","system_id":"levelo_inurba_marseille","lat":43.314811,"lon":5.373103,"is_reserved":false,"is_disabled":false,"rental_uris":{"android":"levelo://app?vid=5b20eaef-9fcf-4fbe-a728-5aa0b1295400","ios":"levelo://app?vid=5b20eaef-9fcf-4fbe-a728-5aa0b1295400"},"vehicle_type_id":"4","last_reported":1706475966,"current_range_meters":24000,"station_id":"ce4bgt12rcd13ifvqcd0","pricing_plan_id":"free"},{"bike_id":"09ce6c46-5a2e-4c26-b510-24b928bb19d2","system_id":"levelo_inurba_marseille","lat":43.305989,"lon":5.37225,"is_reserved":false,"is_disabled":false,"rental_uris":{"android":"levelo://app?vid=09ce6c46-5a2e-4c26-b510-24b928bb19d2","ios":"levelo://app?vid=09ce6c46-5a2e-4c26-b510-24b928bb19d2"},"vehicle_type_id":"4","last_reported":1706475966,"current_range_meters":14400,"station_id":"ce4bgqh2rcd13ifvqc4g","pricing_plan_id":"free"},{"bike_id":"5dc3fa9f-0685-4b48-95b9-9310fdd04f86","system_id":"levelo_inurba_marseille","lat":43.305989,"lon":5.37225,"is_reserved":false,"is_disabled":false,"rental_uris":{"android":"levelo://app?vid=5dc3fa9f-0685-4b48-95b9-9310fdd04f86","ios":"levelo://app?vid=5dc3fa9f-0685-4b48-95b9-9310fdd04f86"},"vehicle_type_id":"4","last_reported":1706475966,"current_range_meters":20400,"station_id":"ce4bgqh2rcd13ifvqc4g","pricing_plan_id":"free"},{"bike_id":"1f2fd27f-f0fe-486c-9c82-4d84389ae04c","system_id":"levelo_inurba_marseille","lat":43.311131,"lon":5.377651,"is_reserved":false,"is_disabled":false,"rental_uris":{"android":"levelo://app?vid=1f2fd27f-f0fe-486c-9c82-4d84389ae04c","ios":"levelo://app?vid=1f2fd27f-f0fe-486c-9c82-4d84389ae04c"},"vehicle_type_id":"4","last_reported":1706475966,"current_range_meters":8400,"station_id":"ce4bgt92rcd13ifvqcg0","pricing_plan_id":"free"},{"bike_id":"a0d6639c-85cf-460a-b137-67548300336e","system_id":"levelo_inurba_marseille","lat":43.307945,"lon":5.376487,"is_reserved":false,"is_disabled":false,"rental_uris":{"android":"levelo://app?vid=a0d6639c-85cf-460a-b137-67548300336e","ios":"levelo://app?vid=a0d6639c-85cf-460a-b137-67548300336e"},"vehicle_type_id":"4","last_reported":1706475966,"current_range_meters":8000,"station_id":"ce4bgv92rcd13ifvqcq0","pricing_plan_id":"free"},{"bike_id":"6a10b697-e100-4a64-b37c-397b802ef46b","system_id":"levelo_inurba_marseille","lat":43.307945,"lon":5.376487,"is_reserved":false,"is_disabled":false,"rental_uris":{"android":"levelo://app?vid=6a10b697-e100-4a64-b37c-397b802ef46b","ios":"levelo://app?vid=6a10b697-e100-4a64-b37c-397b802ef46b"},"vehicle_type_id":"4","last_reported":1706475966,"current_range_meters":7200,"station_id":"ce4bgv92rcd13ifvqcq0","pricing_plan_id":"free"},{"bike_id":"efe6323a-a422-45a9-a0d3-237bd7ae51ef","system_id":"levelo_inurba_marseille","lat":43.307838,"lon":5.376466,"is_reserved":false,"is_disabled":false,"rental_uris":{"android":"levelo://app?vid=efe6323a-a422-45a9-a0d3-237bd7ae51ef","ios":"levelo://app?vid=efe6323a-a422-45a9-a0d3-237bd7ae51ef"},"vehicle_type_id":"4","last_reported":1706475966,"current_range_meters":4400,"station_id":"ce4bgv92rcd13ifvqcq0","pricing_plan_id":"free"},{"bike_id":"dd76c2e5-a3fa-4485-925d-b52a2f624e9a","system_id":"levelo_inurba_marseille","lat":43.317026,"lon":5.377498,"is_reserved":false,"is_disabled":false,"rental_uris":{"android":"levelo://app?vid=dd76c2e5-a3fa-4485-925d-b52a2f624e9a","ios":"levelo://app?vid=dd76c2e5-a3fa-4485-925d-b52a2f624e9a"},"vehicle_type_id":"4","last_reported":1706475966,"current_range_meters":0,"station_id":"ce4bgth2rcd13ifvqch0","pricing_plan_id":"free"},{"bike_id":"b83daeb9-a39c-4884-86e2-16a37c651f7f","system_id":"levelo_inurba_marseille","lat":43.31999,"lon":5.37626,"is_reserved":false,"is_disabled":false,"rental_uris":{"android":"levelo://app?vid=b83daeb9-a39c-4884-86e2-16a37c651f7f","ios":"levelo://app?vid=b83daeb9-a39c-4884-86e2-16a37c651f7f"},"vehicle_type_id":"4","last_reported":1706475966,"current_range_meters":4400,"station_id":"","pricing_plan_id":"free"},{"bike_id":"703e8351-374f-403b-801f-b6416a61c61b","system_id":"levelo_inurba_marseille","lat":43.30284,"lon":5.36888,"is_reserved":false,"is_disabled":false,"rental_uris":{"android":"levelo://app?vid=703e8351-374f-403b-801f-b6416a61c61b","ios":"levelo://app?vid=703e8351-374f-403b-801f-b6416a61c61b"},"vehicle_type_id":"4","last_reported":1706475966,"current_range_meters":6800,"station_id":"ce4bgqh2rcd13ifvqc5g","pricing_plan_id":"free"},{"bike_id":"8d33dfa5-b21c-4793-abd9-67d093c9b10e","system_id":"levelo_inurba_marseille","lat":43.31535,"lon":5.38027,"is_reserved":false,"is_disabled":false,"rental_uris":{"android":"levelo://app?vid=8d33dfa5-b21c-4793-abd9-67d093c9b10e","ios":"levelo://app?vid=8d33dfa5-b21c-4793-abd9-67d093c9b10e"},"vehicle_type_id":"4","last_reported":1706475966,"current_range_meters":12000,"station_id":"ce4bhsp2rcd13ifvqi50","pricing_plan_id":"free"},{"bike_id":"dbbe92d2-890e-477b-b56f-772147ba4556","system_id":"levelo_inurba_marseille","lat":43.315382,"lon":5.380284,"is_reserved":false,"is_disabled":false,"rental_uris":{"android":"levelo://app?vid=dbbe92d2-890e-477b-b56f-772147ba4556","ios":"levelo://app?vid=dbbe92d2-890e-477b-b56f-772147ba4556"},"vehicle_type_id":"4","last_reported":1706475966,"current_range_meters":12000,"station_id":"ce4bhsp2rcd13ifvqi50","pricing_plan_id":"free"},{"bike_id":"756cff0e-6121-4b00-a2dd-c5e2ac9055a8","system_id":"levelo_inurba_marseille","lat":43.31532,"lon":5.38041,"is_reserved":false,"is_disabled":false,"rental_uris":{"android":"levelo://app?vid=756cff0e-6121-4b00-a2dd-c5e2ac9055a8","ios":"levelo://app?vid=756cff0e-6121-4b00-a2dd-c5e2ac9055a8"},"vehicle_type_id":"4","last_reported":1706475966,"current_range_meters":800,"station_id":"ce4bhsp2rcd13ifvqi50","pricing_plan_id":"free"},{"bike_id":"10ce2313-fc00-413c-952f-6ccb2bb90295","system_id":"levelo_inurba_marseille","lat":43.301939,"lon":5.366286,"is_reserved":false,"is_disabled":false,"rental_uris":{"android":"levelo://app?vid=10ce2313-fc00-413c-952f-6ccb2bb90295","ios":"levelo://app?vid=10ce2313-fc00-413c-952f-6ccb2bb90295"},"vehicle_type_id":"4","last_reported":1706475966,"current_range_meters":20800,"station_id":"ce4bgrh2rcd13ifvqc8g","pricing_plan_id":"free"},{"bike_id":"d85babe2-28c3-41e2-a94a-c5e9e1250138","system_id":"levelo_inurba_marseille","lat":43.304606,"lon":5.379026,"is_reserved":false,"is_disabled":false,"rental_uris":{"android":"levelo://app?vid=d85babe2-28c3-41e2-a94a-c5e9e1250138","ios":"levelo://app?vid=d85babe2-28c3-41e2-a94a-c5e9e1250138"},"vehicle_type_id":"4","last_reported":1706475966,"current_range_meters":13600,"station_id":"ce4bgup2rcd13ifvqcn0","pricing_plan_id":"free"},{"bike_id":"6d0ba78e-71d0-4664-bf2b-846fb74a6476","system_id":"levelo_inurba_marseille","lat":43.324771,"lon":5.36557,"is_reserved":false,"is_disabled":false,"rental_uris":{"android":"levelo://app?vid=6d0ba78e-71d0-4664-bf2b-846fb74a6476","ios":"levelo://app?vid=6d0ba78e-71d0-4664-bf2b-846fb74a6476"},"vehicle_type_id":"4","last_reported":1706475966,"current_range_meters":4000,"station_id":"ce4bhs12rcd13ifvqhvg","pricing_plan_id":"free"},{"bike_id":"4c4b8ab9-5ef1-420c-9390-c3e236e87d90","system_id":"levelo_inurba_marseille","lat":43.324771,"lon":5.36557,"is_reserved":false,"is_disabled":false,"rental_uris":{"android":"levelo://app?vid=4c4b8ab9-5ef1-420c-9390-c3e236e87d90","ios":"levelo://app?vid=4c4b8ab9-5ef1-420c-9390-c3e236e87d90"},"vehicle_type_id":"4","last_reported":1706475966,"current_range_meters":4800,"station_id":"ce4bhs12rcd13ifvqhvg","pricing_plan_id":"free"},{"bike_id":"86ecd19a-d2fe-4c9f-8918-32b062eb150e","system_id":"levelo_inurba_marseille","lat":43.32479,"lon":5.36566,"is_reserved":false,"is_disabled":false,"rental_uris":{"android":"levelo://app?vid=86ecd19a-d2fe-4c9f-8918-32b062eb150e","ios":"levelo://app?vid=86ecd19a-d2fe-4c9f-8918-32b062eb150e"},"vehicle_type_id":"4","last_reported":1706475966,"current_range_meters":0,"station_id":"ce4bhs12rcd13ifvqhvg","pricing_plan_id":"free"},{"bike_id":"1dd95eb2-cc52-4a61-bd2b-a11ff28fec96","system_id":"levelo_inurba_marseille","lat":43.324771,"lon":5.36557,"is_reserved":false,"is_disabled":false,"rental_uris":{"android":"levelo://app?vid=1dd95eb2-cc52-4a61-bd2b-a11ff28fec96","ios":"levelo://app?vid=1dd95eb2-cc52-4a61-bd2b-a11ff28fec96"},"vehicle_type_id":"4","last_reported":1706475966,"current_range_meters":0,"station_id":"ce4bhs12rcd13ifvqhvg","pricing_plan_id":"free"},{"bike_id":"dc00bdf8-dc57-4b02-8d44-8ea4906debe3","system_id":"levelo_inurba_marseille","lat":43.324771,"lon":5.36557,"is_reserved":false,"is_disabled":false,"rental_uris":{"android":"levelo://app?vid=dc00bdf8-dc57-4b02-8d44-8ea4906debe3","ios":"levelo://app?vid=dc00bdf8-dc57-4b02-8d44-8ea4906debe3"},"vehicle_type_id":"4","last_reported":1706475966,"current_range_meters":16400,"station_id":"ce4bhs12rcd13ifvqhvg","pricing_plan_id":"free"},{"bike_id":"d124cb0b-ff1b-4b7a-9bb3-37d18329142b","system_id":"levelo_inurba_marseille","lat":43.302784,"lon":5.377158,"is_reserved":false,"is_disabled":false,"rental_uris":{"android":"levelo://app?vid=d124cb0b-ff1b-4b7a-9bb3-37d18329142b","ios":"levelo://app?vid=d124cb0b-ff1b-4b7a-9bb3-37d18329142b"},"vehicle_type_id":"4","last_reported":1706475966,"current_range_meters":2800,"station_id":"ce4bguh2rcd13ifvqcj0","pricing_plan_id":"free"},{"bike_id":"4e8e7e9f-0e12-415e-9f8a-232c8717aa9d","system_id":"levelo_inurba_marseille","lat":43.319935,"lon":5.381699,"is_reserved":false,"is_disabled":false,"rental_uris":{"android":"levelo://app?vid=4e8e7e9f-0e12-415e-9f8a-232c8717aa9d","ios":"levelo://app?vid=4e8e7e9f-0e12-415e-9f8a-232c8717aa9d"},"vehicle_type_id":"4","last_reported":1706475966,"current_range_meters":20800,"station_id":"ce4bhr12rcd13ifvqhpg","pricing_plan_id":"free"},{"bike_id":"11471d48-14f9-4828-a86e-9895d354d186","system_id":"levelo_inurba_marseille","lat":43.313571,"lon":5.384829,"is_reserved":false,"is_disabled":false,"rental_uris":{"android":"levelo://app?vid=11471d48-14f9-4828-a86e-9895d354d186","ios":"levelo://app?vid=11471d48-14f9-4828-a86e-9895d354d186"},"vehicle_type_id":"4","last_reported":1706475966,"current_range_meters":25600,"station_id":"ce4bgt92rcd13ifvqcf0","pricing_plan_id":"free"},{"bike_id":"a281e1a5-5d82-4073-b40a-c01a79b602d0","system_id":"levelo_inurba_marseille","lat":43.313571,"lon":5.384829,"is_reserved":false,"is_disabled":false,"rental_uris":{"android":"levelo://app?vid=a281e1a5-5d82-4073-b40a-c01a79b602d0","ios":"levelo://app?vid=a281e1a5-5d82-4073-b40a-c01a79b602d0"},"vehicle_type_id":"4","last_reported":1706475966,"current_range_meters":21200,"station_id":"ce4bgt92rcd13ifvqcf0","pricing_plan_id":"free"},{"bike_id":"5fbcfd35-47c8-4b8a-8a5a-fcb38d1e3a21","system_id":"levelo_inurba_marseille","lat":43.313571,"lon":5.384829,"is_reserved":false,"is_disabled":false,"rental_uris":{"android":"levelo://app?vid=5fbcfd35-47c8-4b8a-8a5a-fcb38d1e3a21","ios":"levelo://app?vid=5fbcfd35-47c8-4b8a-8a5a-fcb38d1e3a21"},"vehicle_type_id":"4","last_reported":1706475966,"current_range_meters":23600,"station_id":"ce4bgt92rcd13ifvqcf0","pricing_plan_id":"free"},{"bike_id":"aeb569eb-9003-46ad-b80d-259362cf5d33","system_id":"levelo_inurba_marseille","lat":43.313571,"lon":5.384829,"is_reserved":false,"is_disabled":false,"rental_uris":{"android":"levelo://app?vid=aeb569eb-9003-46ad-b80d-259362cf5d33","ios":"levelo://app?vid=aeb569eb-9003-46ad-b80d-259362cf5d33"},"vehicle_type_id":"4","last_reported":1706475966,"current_range_meters":800,"station_id":"ce4bgt92rcd13ifvqcf0","pricing_plan_id":"free"},{"bike_id":"ba1723d7-4acf-4f6c-9da3-91b2335146d3","system_id":"levelo_inurba_marseille","lat":43.299222,"lon":5.365554,"is_reserved":false,"is_disabled":false,"rental_uris":{"android":"levelo://app?vid=ba1723d7-4acf-4f6c-9da3-91b2335146d3","ios":"levelo://app?vid=ba1723d7-4acf-4f6c-9da3-91b2335146d3"},"vehicle_type_id":"4","last_reported":1706475966,"current_range_meters":0,"station_id":"ce4bgm92rcd13ifvqbr0","pricing_plan_id":"free"},{"bike_id":"d24e151a-5142-4f41-83c9-4071fa49bb55","system_id":"levelo_inurba_marseille","lat":43.298433,"lon":5.362774,"is_reserved":false,"is_disabled":false,"rental_uris":{"android":"levelo://app?vid=d24e151a-5142-4f41-83c9-4071fa49bb55","ios":"levelo://app?vid=d24e151a-5142-4f41-83c9-4071fa49bb55"},"vehicle_type_id":"4","last_reported":1706475966,"current_range_meters":16000,"station_id":"ce4bgpp2rcd13ifvqc3g","pricing_plan_id":"free"},{"bike_id":"7a685996-0fb2-4743-b916-ae33f373f4ca","system_id":"levelo_inurba_marseille","lat":43.299243,"lon":5.374807,"is_reserved":false,"is_disabled":false,"rental_uris":{"android":"levelo://app?vid=7a685996-0fb2-4743-b916-ae33f373f4ca","ios":"levelo://app?vid=7a685996-0fb2-4743-b916-ae33f373f4ca"},"vehicle_type_id":"4","last_reported":1706475966,"current_range_meters":27600,"station_id":"ce4bgjh2rcd13ifvqbg0","pricing_plan_id":"free"},{"bike_id":"1084ccbc-2210-4f7a-b316-851673e50647","system_id":"levelo_inurba_marseille","lat":43.299243,"lon":5.374807,"is_reserved":false,"is_disabled":false,"rental_uris":{"android":"levelo://app?vid=1084ccbc-2210-4f7a-b316-851673e50647","ios":"levelo://app?vid=1084ccbc-2210-4f7a-b316-851673e50647"},"vehicle_type_id":"4","last_reported":1706475966,"current_range_meters":8000,"station_id":"ce4bgjh2rcd13ifvqbg0","pricing_plan_id":"free"},{"bike_id":"579639e1-85bb-470a-9d5f-c64a2ef896af","system_id":"levelo_inurba_marseille","lat":43.299093,"lon":5.37473,"is_reserved":false,"is_disabled":false,"rental_uris":{"android":"levelo://app?vid=579639e1-85bb-470a-9d5f-c64a2ef896af","ios":"levelo://app?vid=579639e1-85bb-470a-9d5f-c64a2ef896af"},"vehicle_type_id":"4","last_reported":1706475966,"current_range_meters":0,"station_id":"ce4bgjh2rcd13ifvqbg0","pricing_plan_id":"free"},{"bike_id":"aaee45e4-19c3-4660-9cb1-0e24fdfb73c5","system_id":"levelo_inurba_marseille","lat":43.311722,"lon":5.387247,"is_reserved":false,"is_disabled":false,"rental_uris":{"android":"levelo://app?vid=aaee45e4-19c3-4660-9cb1-0e24fdfb73c5","ios":"levelo://app?vid=aaee45e4-19c3-4660-9cb1-0e24fdfb73c5"},"vehicle_type_id":"4","last_reported":1706475966,"current_range_meters":18800,"station_id":"ce4bgv12rcd13ifvqcp0","pricing_plan_id":"free"},{"bike_id":"ef052ffe-e968-4eb8-b923-680910b4c6c0","system_id":"levelo_inurba_marseille","lat":43.322872,"lon":5.382756,"is_reserved":false,"is_disabled":false,"rental_uris":{"android":"levelo://app?vid=ef052ffe-e968-4eb8-b923-680910b4c6c0","ios":"levelo://app?vid=ef052ffe-e968-4eb8-b923-680910b4c6c0"},"vehicle_type_id":"4","last_reported":1706475966,"current_range_meters":24000,"station_id":"ce4bhr12rcd13ifvqhqg","pricing_plan_id":"free"},{"bike_id":"e1539f0d-02e3-46ca-8fd2-b115fd55a782","system_id":"levelo_inurba_marseille","lat":43.322872,"lon":5.382756,"is_reserved":false,"is_disabled":false,"rental_uris":{"android":"levelo://app?vid=e1539f0d-02e3-46ca-8fd2-b115fd55a782","ios":"levelo://app?vid=e1539f0d-02e3-46ca-8fd2-b115fd55a782"},"vehicle_type_id":"4","last_reported":1706475966,"current_range_meters":23200,"station_id":"ce4bhr12rcd13ifvqhqg","pricing_plan_id":"free"},{"bike_id":"61470963-2612-4ace-b4e6-9867758c7df1","system_id":"levelo_inurba_marseille","lat":43.32818,"lon":5.36681,"is_reserved":false,"is_disabled":false,"rental_uris":{"android":"levelo://app?vid=61470963-2612-4ace-b4e6-9867758c7df1","ios":"levelo://app?vid=61470963-2612-4ace-b4e6-9867758c7df1"},"vehicle_type_id":"4","last_reported":1706475966,"current_range_meters":400,"station_id":"ce4bhs92rcd13ifvqi0g","pricing_plan_id":"free"},{"bike_id":"bc53ba99-b807-415f-909d-56f38a2b6d95","system_id":"levelo_inurba_marseille","lat":43.328209,"lon":5.36681,"is_reserved":false,"is_disabled":false,"rental_uris":{"android":"levelo://app?vid=bc53ba99-b807-415f-909d-56f38a2b6d95","ios":"levelo://app?vid=bc53ba99-b807-415f-909d-56f38a2b6d95"},"vehicle_type_id":"4","last_reported":1706475966,"current_range_meters":400,"station_id":"ce4bhs92rcd13ifvqi0g","pricing_plan_id":"free"},{"bike_id":"af1c8fc0-8183-4d68-848c-9159b1d2bf45","system_id":"levelo_inurba_marseille","lat":43.328371,"lon":5.366909,"is_reserved":false,"is_disabled":false,"rental_uris":{"android":"levelo://app?vid=af1c8fc0-8183-4d68-848c-9159b1d2bf45","ios":"levelo://app?vid=af1c8fc0-8183-4d68-848c-9159b1d2bf45"},"vehicle_type_id":"4","last_reported":1706475966,"current_range_meters":8400,"station_id":"ce4bhs92rcd13ifvqi0g","pricing_plan_id":"free"},{"bike_id":"12edd8fe-ac42-424b-86a0-ddbc64b4f114","system_id":"levelo_inurba_marseille","lat":43.328371,"lon":5.366909,"is_reserved":false,"is_disabled":false,"rental_uris":{"android":"levelo://app?vid=12edd8fe-ac42-424b-86a0-ddbc64b4f114","ios":"levelo://app?vid=12edd8fe-ac42-424b-86a0-ddbc64b4f114"},"vehicle_type_id":"4","last_reported":1706475966,"current_range_meters":12000,"station_id":"ce4bhs92rcd13ifvqi0g","pricing_plan_id":"free"},{"bike_id":"860bf078-794c-4fd0-bafc-d86945940265","system_id":"levelo_inurba_marseille","lat":43.296129,"lon":5.370777,"is_reserved":false,"is_disabled":false,"rental_uris":{"android":"levelo://app?vid=860bf078-794c-4fd0-bafc-d86945940265","ios":"levelo://app?vid=860bf078-794c-4fd0-bafc-d86945940265"},"vehicle_type_id":"4","last_reported":1706475966,"current_range_meters":20400,"station_id":"ce4bgnh2rcd13ifvqc0g","pricing_plan_id":"free"},{"bike_id":"288dd211-d406-4d38-9c9c-dc59bc104a47","system_id":"levelo_inurba_marseille","lat":43.29573,"lon":5.367355,"is_reserved":false,"is_disabled":false,"rental_uris":{"android":"levelo://app?vid=288dd211-d406-4d38-9c9c-dc59bc104a47","ios":"levelo://app?vid=288dd211-d406-4d38-9c9c-dc59bc104a47"},"vehicle_type_id":"4","last_reported":1706475966,"current_range_meters":28400,"station_id":"ce4bgph2rcd13ifvqc2g","pricing_plan_id":"free"},{"bike_id":"fec6285e-728b-490f-a9de-092306543875","system_id":"levelo_inurba_marseille","lat":43.309589,"lon":5.390258,"is_reserved":false,"is_disabled":false,"rental_uris":{"android":"levelo://app?vid=fec6285e-728b-490f-a9de-092306543875","ios":"levelo://app?vid=fec6285e-728b-490f-a9de-092306543875"},"vehicle_type_id":"4","last_reported":1706475966,"current_range_meters":24800,"station_id":"ce4bgup2rcd13ifvqco0","pricing_plan_id":"free"},{"bike_id":"be0f657a-6853-4dbc-b54e-d929f325467d","system_id":"levelo_inurba_marseille","lat":43.299028,"lon":5.381509,"is_reserved":false,"is_disabled":false,"rental_uris":{"android":"levelo://app?vid=be0f657a-6853-4dbc-b54e-d929f325467d","ios":"levelo://app?vid=be0f657a-6853-4dbc-b54e-d929f325467d"},"vehicle_type_id":"4","last_reported":1706475966,"current_range_meters":17200,"station_id":"ce4bgj12rcd13ifvqbc0","pricing_plan_id":"free"},{"bike_id":"cdec058d-f548-49b4-85cd-d147ee073dde","system_id":"levelo_inurba_marseille","lat":43.317557,"lon":5.390173,"is_reserved":false,"is_disabled":false,"rental_uris":{"android":"levelo://app?vid=cdec058d-f548-49b4-85cd-d147ee073dde","ios":"levelo://app?vid=cdec058d-f548-49b4-85cd-d147ee073dde"},"vehicle_type_id":"4","last_reported":1706475966,"current_range_meters":18400,"station_id":"ce4bhqp2rcd13ifvqhng","pricing_plan_id":"free"},{"bike_id":"3327c0a9-31b2-428a-9917-c7eac8ec328c","system_id":"levelo_inurba_marseille","lat":43.304274,"lon":5.388873,"is_reserved":false,"is_disabled":false,"rental_uris":{"android":"levelo://app?vid=3327c0a9-31b2-428a-9917-c7eac8ec328c","ios":"levelo://app?vid=3327c0a9-31b2-428a-9917-c7eac8ec328c"},"vehicle_type_id":"4","last_reported":1706475966,"current_range_meters":12800,"station_id":"ce4bgk12rcd13ifvqbi0","pricing_plan_id":"free"},{"bike_id":"e76fb37d-0edb-4391-9bc7-f6013b5b4122","system_id":"levelo_inurba_marseille","lat":43.29574,"lon":5.37498,"is_reserved":false,"is_disabled":false,"rental_uris":{"android":"levelo://app?vid=e76fb37d-0edb-4391-9bc7-f6013b5b4122","ios":"levelo://app?vid=e76fb37d-0edb-4391-9bc7-f6013b5b4122"},"vehicle_type_id":"4","last_reported":1706475966,"current_range_meters":0,"station_id":"ce4bgh92rcd13ifvqb50","pricing_plan_id":"free"},{"bike_id":"cd21c7b3-d379-47a3-9b9e-e2e841772d43","system_id":"levelo_inurba_marseille","lat":43.295279,"lon":5.375048,"is_reserved":false,"is_disabled":false,"rental_uris":{"android":"levelo://app?vid=cd21c7b3-d379-47a3-9b9e-e2e841772d43","ios":"levelo://app?vid=cd21c7b3-d379-47a3-9b9e-e2e841772d43"},"vehicle_type_id":"4","last_reported":1706475966,"current_range_meters":22400,"station_id":"ce4bgkp2rcd13ifvqbmg","pricing_plan_id":"free"},{"bike_id":"18afcea0-3e1d-413a-a3b4-d1357bdb1ff9","system_id":"levelo_inurba_marseille","lat":43.299707,"lon":5.384859,"is_reserved":false,"is_disabled":false,"rental_uris":{"android":"levelo://app?vid=18afcea0-3e1d-413a-a3b4-d1357bdb1ff9","ios":"levelo://app?vid=18afcea0-3e1d-413a-a3b4-d1357bdb1ff9"},"vehicle_type_id":"4","last_reported":1706475966,"current_range_meters":10000,"station_id":"ce4bgj92rcd13ifvqbd0","pricing_plan_id":"free"},{"bike_id":"6120899f-9037-4417-adf7-352166610e7f","system_id":"levelo_inurba_marseille","lat":43.29966,"lon":5.38498,"is_reserved":false,"is_disabled":false,"rental_uris":{"android":"levelo://app?vid=6120899f-9037-4417-adf7-352166610e7f","ios":"levelo://app?vid=6120899f-9037-4417-adf7-352166610e7f"},"vehicle_type_id":"4","last_reported":1706475966,"current_range_meters":17600,"station_id":"ce4bgj92rcd13ifvqbd0","pricing_plan_id":"free"},{"bike_id":"9370bb7d-69be-46d6-9c9b-9187ea42ab18","system_id":"levelo_inurba_marseille","lat":43.299724,"lon":5.384848,"is_reserved":false,"is_disabled":false,"rental_uris":{"android":"levelo://app?vid=9370bb7d-69be-46d6-9c9b-9187ea42ab18","ios":"levelo://app?vid=9370bb7d-69be-46d6-9c9b-9187ea42ab18"},"vehicle_type_id":"4","last_reported":1706475966,"current_range_meters":0,"station_id":"ce4bgj92rcd13ifvqbd0","pricing_plan_id":"free"},{"bike_id":"d68e21e0-f101-4fe4-adad-3edc99116a12","system_id":"levelo_inurba_marseille","lat":43.32367,"lon":5.388836,"is_reserved":false,"is_disabled":false,"rental_uris":{"android":"levelo://app?vid=d68e21e0-f101-4fe4-adad-3edc99116a12","ios":"levelo://app?vid=d68e21e0-f101-4fe4-adad-3edc99116a12"},"vehicle_type_id":"4","last_reported":1706475966,"current_range_meters":17600,"station_id":"ce4bhqp2rcd13ifvqhog","pricing_plan_id":"free"},{"bike_id":"521513b5-ce9a-48ab-8990-ed8ed7a741d0","system_id":"levelo_inurba_marseille","lat":43.32367,"lon":5.388836,"is_reserved":false,"is_disabled":false,"rental_uris":{"android":"levelo://app?vid=521513b5-ce9a-48ab-8990-ed8ed7a741d0","ios":"levelo://app?vid=521513b5-ce9a-48ab-8990-ed8ed7a741d0"},"vehicle_type_id":"4","last_reported":1706475966,"current_range_meters":23600,"station_id":"ce4bhqp2rcd13ifvqhog","pricing_plan_id":"free"},{"bike_id":"e9964529-f62b-4205-81bc-f0aedadb96d5","system_id":"levelo_inurba_marseille","lat":43.293259,"lon":5.371586,"is_reserved":false,"is_disabled":false,"rental_uris":{"android":"levelo://app?vid=e9964529-f62b-4205-81bc-f0aedadb96d5","ios":"levelo://app?vid=e9964529-f62b-4205-81bc-f0aedadb96d5"},"vehicle_type_id":"4","last_reported":1706475966,"current_range_meters":25600,"station_id":"ce4bgh92rcd13ifvqb40","pricing_plan_id":"free"},{"bike_id":"96c97a9f-74fa-495f-87d2-a34b29706f6b","system_id":"levelo_inurba_marseille","lat":43.293018,"lon":5.371832,"is_reserved":false,"is_disabled":false,"rental_uris":{"android":"levelo://app?vid=96c97a9f-74fa-495f-87d2-a34b29706f6b","ios":"levelo://app?vid=96c97a9f-74fa-495f-87d2-a34b29706f6b"},"vehicle_type_id":"4","last_reported":1706475966,"current_range_meters":0,"station_id":"ce4bgh92rcd13ifvqb40","pricing_plan_id":"free"},{"bike_id":"64310429-5ccb-4003-b3e4-08adbdbb29de","system_id":"levelo_inurba_marseille","lat":43.305994,"lon":5.393687,"is_reserved":false,"is_disabled":false,"rental_uris":{"android":"levelo://app?vid=64310429-5ccb-4003-b3e4-08adbdbb29de","ios":"levelo://app?vid=64310429-5ccb-4003-b3e4-08adbdbb29de"},"vehicle_type_id":"4","last_reported":1706475966,"current_range_meters":7600,"station_id":"ce4bh0p2rcd13ifvqd80","pricing_plan_id":"free"},{"bike_id":"25ba45b1-f3d1-4901-bdc6-b4c7c3ad3c1f","system_id":"levelo_inurba_marseille","lat":43.292968,"lon":5.374426,"is_reserved":false,"is_disabled":false,"rental_uris":{"android":"levelo://app?vid=25ba45b1-f3d1-4901-bdc6-b4c7c3ad3c1f","ios":"levelo://app?vid=25ba45b1-f3d1-4901-bdc6-b4c7c3ad3c1f"},"vehicle_type_id":"4","last_reported":1706475966,"current_range_meters":0,"station_id":"ce4bgi12rcd13ifvqb70","pricing_plan_id":"free"},{"bike_id":"a6f4f2f7-027d-4f8f-a117-705c1f3a55a1","system_id":"levelo_inurba_marseille","lat":43.303002,"lon":5.392142,"is_reserved":false,"is_disabled":false,"rental_uris":{"android":"levelo://app?vid=a6f4f2f7-027d-4f8f-a117-705c1f3a55a1","ios":"levelo://app?vid=a6f4f2f7-027d-4f8f-a117-705c1f3a55a1"},"vehicle_type_id":"4","last_reported":1706475966,"current_range_meters":6000,"station_id":"ce4bgkh2rcd13ifvqbk0","pricing_plan_id":"free"},{"bike_id":"b42c37f3-1faa-4e66-a798-9953853eeb1d","system_id":"levelo_inurba_marseille","lat":43.303002,"lon":5.392142,"is_reserved":false,"is_disabled":false,"rental_uris":{"android":"levelo://app?vid=b42c37f3-1faa-4e66-a798-9953853eeb1d","ios":"levelo://app?vid=b42c37f3-1faa-4e66-a798-9953853eeb1d"},"vehicle_type_id":"4","last_reported":1706475966,"current_range_meters":0,"station_id":"ce4bgkh2rcd13ifvqbk0","pricing_plan_id":"free"},{"bike_id":"07b8f92b-9a25-493a-9ebe-bbf41a2e2d43","system_id":"levelo_inurba_marseille","lat":43.302992,"lon":5.392136,"is_reserved":false,"is_disabled":false,"rental_uris":{"android":"levelo://app?vid=07b8f92b-9a25-493a-9ebe-bbf41a2e2d43","ios":"levelo://app?vid=07b8f92b-9a25-493a-9ebe-bbf41a2e2d43"},"vehicle_type_id":"4","last_reported":1706475966,"current_range_meters":3200,"station_id":"ce4bgkh2rcd13ifvqbk0","pricing_plan_id":"free"},{"bike_id":"5e889d2f-e1d3-4118-96f2-ccf0e39137a2","system_id":"levelo_inurba_marseille","lat":43.302992,"lon":5.392136,"is_reserved":false,"is_disabled":false,"rental_uris":{"android":"levelo://app?vid=5e889d2f-e1d3-4118-96f2-ccf0e39137a2","ios":"levelo://app?vid=5e889d2f-e1d3-4118-96f2-ccf0e39137a2"},"vehicle_type_id":"4","last_reported":1706475966,"current_range_meters":21600,"station_id":"ce4bgkh2rcd13ifvqbk0","pricing_plan_id":"free"},{"bike_id":"a8a23b16-6123-48f0-b642-94a5b13ff8f2","system_id":"levelo_inurba_marseille","lat":43.302992,"lon":5.392136,"is_reserved":false,"is_disabled":false,"rental_uris":{"android":"levelo://app?vid=a8a23b16-6123-48f0-b642-94a5b13ff8f2","ios":"levelo://app?vid=a8a23b16-6123-48f0-b642-94a5b13ff8f2"},"vehicle_type_id":"4","last_reported":1706475966,"current_range_meters":17600,"station_id":"ce4bgkh2rcd13ifvqbk0","pricing_plan_id":"free"},{"bike_id":"a764beb5-7f1e-498b-985f-83c49cce25d7","system_id":"levelo_inurba_marseille","lat":43.300852,"lon":5.390859,"is_reserved":false,"is_disabled":false,"rental_uris":{"android":"levelo://app?vid=a764beb5-7f1e-498b-985f-83c49cce25d7","ios":"levelo://app?vid=a764beb5-7f1e-498b-985f-83c49cce25d7"},"vehicle_type_id":"4","last_reported":1706475966,"current_range_meters":15200,"station_id":"ce4bh192rcd13ifvqdb0","pricing_plan_id":"free"},{"bike_id":"132b0cb1-c2fa-4b68-afa2-941219582eda","system_id":"levelo_inurba_marseille","lat":43.30085,"lon":5.390856,"is_reserved":false,"is_disabled":false,"rental_uris":{"android":"levelo://app?vid=132b0cb1-c2fa-4b68-afa2-941219582eda","ios":"levelo://app?vid=132b0cb1-c2fa-4b68-afa2-941219582eda"},"vehicle_type_id":"4","last_reported":1706475966,"current_range_meters":24000,"station_id":"ce4bh192rcd13ifvqdb0","pricing_plan_id":"free"},{"bike_id":"e0e086dc-6a1a-4908-8175-199ec081b2d8","system_id":"levelo_inurba_marseille","lat":43.313291,"lon":5.396838,"is_reserved":false,"is_disabled":false,"rental_uris":{"android":"levelo://app?vid=e0e086dc-6a1a-4908-8175-199ec081b2d8","ios":"levelo://app?vid=e0e086dc-6a1a-4908-8175-199ec081b2d8"},"vehicle_type_id":"4","last_reported":1706475966,"current_range_meters":27600,"station_id":"ce4bgvp2rcd13ifvqcu0","pricing_plan_id":"free"},{"bike_id":"c92e175a-b675-4fb0-b759-9a902a34b15d","system_id":"levelo_inurba_marseille","lat":43.298764,"lon":5.388973,"is_reserved":false,"is_disabled":false,"rental_uris":{"android":"levelo://app?vid=c92e175a-b675-4fb0-b759-9a902a34b15d","ios":"levelo://app?vid=c92e175a-b675-4fb0-b759-9a902a34b15d"},"vehicle_type_id":"4","last_reported":1706475966,"current_range_meters":8400,"station_id":"ce4bh392rcd13ifvqdl0","pricing_plan_id":"free"},{"bike_id":"d7493dc3-5c46-41fe-862a-f26b5b529ed0","system_id":"levelo_inurba_marseille","lat":43.298764,"lon":5.388973,"is_reserved":false,"is_disabled":false,"rental_uris":{"android":"levelo://app?vid=d7493dc3-5c46-41fe-862a-f26b5b529ed0","ios":"levelo://app?vid=d7493dc3-5c46-41fe-862a-f26b5b529ed0"},"vehicle_type_id":"4","last_reported":1706475966,"current_range_meters":19200,"station_id":"ce4bh392rcd13ifvqdl0","pricing_plan_id":"free"},{"bike_id":"c3ba4d23-65de-4c70-8b36-0f031909a9c7","system_id":"levelo_inurba_marseille","lat":43.298764,"lon":5.388973,"is_reserved":false,"is_disabled":false,"rental_uris":{"android":"levelo://app?vid=c3ba4d23-65de-4c70-8b36-0f031909a9c7","ios":"levelo://app?vid=c3ba4d23-65de-4c70-8b36-0f031909a9c7"},"vehicle_type_id":"4","last_reported":1706475966,"current_range_meters":11600,"station_id":"ce4bh392rcd13ifvqdl0","pricing_plan_id":"free"},{"bike_id":"12812b28-8cb7-4428-9812-75112eac624e","system_id":"levelo_inurba_marseille","lat":43.298764,"lon":5.388973,"is_reserved":false,"is_disabled":false,"rental_uris":{"android":"levelo://app?vid=12812b28-8cb7-4428-9812-75112eac624e","ios":"levelo://app?vid=12812b28-8cb7-4428-9812-75112eac624e"},"vehicle_type_id":"4","last_reported":1706475966,"current_range_meters":5200,"station_id":"ce4bh392rcd13ifvqdl0","pricing_plan_id":"free"},{"bike_id":"525ed666-d955-4063-a4bc-07c0ef53adaa","system_id":"levelo_inurba_marseille","lat":43.298764,"lon":5.388973,"is_reserved":false,"is_disabled":false,"rental_uris":{"android":"levelo://app?vid=525ed666-d955-4063-a4bc-07c0ef53adaa","ios":"levelo://app?vid=525ed666-d955-4063-a4bc-07c0ef53adaa"},"vehicle_type_id":"4","last_reported":1706475966,"current_range_meters":0,"station_id":"ce4bh392rcd13ifvqdl0","pricing_plan_id":"free"},{"bike_id":"19a98a3e-6f28-4940-921f-3bd049ca887f","system_id":"levelo_inurba_marseille","lat":43.298764,"lon":5.388973,"is_reserved":false,"is_disabled":false,"rental_uris":{"android":"levelo://app?vid=19a98a3e-6f28-4940-921f-3bd049ca887f","ios":"levelo://app?vid=19a98a3e-6f28-4940-921f-3bd049ca887f"},"vehicle_type_id":"4","last_reported":1706475966,"current_range_meters":0,"station_id":"ce4bh392rcd13ifvqdl0","pricing_plan_id":"free"},{"bike_id":"a7cbbdfe-9e93-4dc3-9267-0aff76a4a8c6","system_id":"levelo_inurba_marseille","lat":43.309038,"lon":5.396546,"is_reserved":false,"is_disabled":false,"rental_uris":{"android":"levelo://app?vid=a7cbbdfe-9e93-4dc3-9267-0aff76a4a8c6","ios":"levelo://app?vid=a7cbbdfe-9e93-4dc3-9267-0aff76a4a8c6"},"vehicle_type_id":"4","last_reported":1706475966,"current_range_meters":18800,"station_id":"ce4bh012rcd13ifvqcv0","pricing_plan_id":"free"},{"bike_id":"7f3ecc81-79cb-4d9e-908c-7ece63af5067","system_id":"levelo_inurba_marseille","lat":43.313291,"lon":5.396838,"is_reserved":false,"is_disabled":false,"rental_uris":{"android":"levelo://app?vid=7f3ecc81-79cb-4d9e-908c-7ece63af5067","ios":"levelo://app?vid=7f3ecc81-79cb-4d9e-908c-7ece63af5067"},"vehicle_type_id":"4","last_reported":1706475966,"current_range_meters":26400,"station_id":"ce4bgvp2rcd13ifvqcu0","pricing_plan_id":"free"},{"bike_id":"360ae2f7-8bcb-471b-929d-3d8eedbf87b7","system_id":"levelo_inurba_marseille","lat":43.313291,"lon":5.396838,"is_reserved":false,"is_disabled":false,"rental_uris":{"android":"levelo://app?vid=360ae2f7-8bcb-471b-929d-3d8eedbf87b7","ios":"levelo://app?vid=360ae2f7-8bcb-471b-929d-3d8eedbf87b7"},"vehicle_type_id":"4","last_reported":1706475966,"current_range_meters":11200,"station_id":"ce4bgvp2rcd13ifvqcu0","pricing_plan_id":"free"},{"bike_id":"b0eb63ea-230a-4e68-b9d4-0e64e4c23107","system_id":"levelo_inurba_marseille","lat":43.290807,"lon":5.371628,"is_reserved":false,"is_disabled":false,"rental_uris":{"android":"levelo://app?vid=b0eb63ea-230a-4e68-b9d4-0e64e4c23107","ios":"levelo://app?vid=b0eb63ea-230a-4e68-b9d4-0e64e4c23107"},"vehicle_type_id":"4","last_reported":1706475966,"current_range_meters":400,"station_id":"ce4bh5p2rcd13ifvqe4g","pricing_plan_id":"free"},{"bike_id":"923496d8-a092-43e6-9fca-d2003681fcb1","system_id":"levelo_inurba_marseille","lat":43.290779,"lon":5.371482,"is_reserved":false,"is_disabled":false,"rental_uris":{"android":"levelo://app?vid=923496d8-a092-43e6-9fca-d2003681fcb1","ios":"levelo://app?vid=923496d8-a092-43e6-9fca-d2003681fcb1"},"vehicle_type_id":"4","last_reported":1706475966,"current_range_meters":22000,"station_id":"ce4bh5p2rcd13ifvqe4g","pricing_plan_id":"free"},{"bike_id":"b9d6ee85-2e6b-4e06-90dd-616edebd68b6","system_id":"levelo_inurba_marseille","lat":43.290607,"lon":5.371503,"is_reserved":false,"is_disabled":false,"rental_uris":{"android":"levelo://app?vid=b9d6ee85-2e6b-4e06-90dd-616edebd68b6","ios":"levelo://app?vid=b9d6ee85-2e6b-4e06-90dd-616edebd68b6"},"vehicle_type_id":"4","last_reported":1706475966,"current_range_meters":0,"station_id":"ce4bh5p2rcd13ifvqe4g","pricing_plan_id":"free"},{"bike_id":"f11fb805-017d-4a11-a051-6eaf4f93cf52","system_id":"levelo_inurba_marseille","lat":43.290624,"lon":5.359245,"is_reserved":false,"is_disabled":false,"rental_uris":{"android":"levelo://app?vid=f11fb805-017d-4a11-a051-6eaf4f93cf52","ios":"levelo://app?vid=f11fb805-017d-4a11-a051-6eaf4f93cf52"},"vehicle_type_id":"4","last_reported":1706475966,"current_range_meters":14800,"station_id":"ce4bha92rcd13ifvqeg0","pricing_plan_id":"free"},{"bike_id":"d4615b65-a6ac-4078-868a-0fdd4465f3fc","system_id":"levelo_inurba_marseille","lat":43.294162,"lon":5.386292,"is_reserved":false,"is_disabled":false,"rental_uris":{"android":"levelo://app?vid=d4615b65-a6ac-4078-868a-0fdd4465f3fc","ios":"levelo://app?vid=d4615b65-a6ac-4078-868a-0fdd4465f3fc"},"vehicle_type_id":"4","last_reported":1706475966,"current_range_meters":16800,"station_id":"ce4bh2h2rcd13ifvqdh0","pricing_plan_id":"free"},{"bike_id":"ec66efd6-d632-45fa-9344-bd23239e1195","system_id":"levelo_inurba_marseille","lat":43.294153,"lon":5.386305,"is_reserved":false,"is_disabled":false,"rental_uris":{"android":"levelo://app?vid=ec66efd6-d632-45fa-9344-bd23239e1195","ios":"levelo://app?vid=ec66efd6-d632-45fa-9344-bd23239e1195"},"vehicle_type_id":"4","last_reported":1706475966,"current_range_meters":0,"station_id":"ce4bh2h2rcd13ifvqdh0","pricing_plan_id":"free"},{"bike_id":"35d92463-4f10-4d44-8c23-0ad7833a2aa0","system_id":"levelo_inurba_marseille","lat":43.290327,"lon":5.375711,"is_reserved":false,"is_disabled":false,"rental_uris":{"android":"levelo://app?vid=35d92463-4f10-4d44-8c23-0ad7833a2aa0","ios":"levelo://app?vid=35d92463-4f10-4d44-8c23-0ad7833a2aa0"},"vehicle_type_id":"4","last_reported":1706475966,"current_range_meters":24400,"station_id":"ce4bh692rcd13ifvqe90","pricing_plan_id":"free"},{"bike_id":"5d4ff776-356c-45bd-b11f-f98ab5a0b580","system_id":"levelo_inurba_marseille","lat":43.294153,"lon":5.386305,"is_reserved":false,"is_disabled":false,"rental_uris":{"android":"levelo://app?vid=5d4ff776-356c-45bd-b11f-f98ab5a0b580","ios":"levelo://app?vid=5d4ff776-356c-45bd-b11f-f98ab5a0b580"},"vehicle_type_id":"4","last_reported":1706475966,"current_range_meters":0,"station_id":"ce4bh2h2rcd13ifvqdh0","pricing_plan_id":"free"},{"bike_id":"99652a86-1a6b-4f4a-b8f0-34efd26065e0","system_id":"levelo_inurba_marseille","lat":43.289468,"lon":5.363719,"is_reserved":false,"is_disabled":false,"rental_uris":{"android":"levelo://app?vid=99652a86-1a6b-4f4a-b8f0-34efd26065e0","ios":"levelo://app?vid=99652a86-1a6b-4f4a-b8f0-34efd26065e0"},"vehicle_type_id":"4","last_reported":1706475966,"current_range_meters":25200,"station_id":"ce4bhc92rcd13ifvqetg","pricing_plan_id":"free"},{"bike_id":"5ed88d61-bb66-49d3-9f3b-790a727d7721","system_id":"levelo_inurba_marseille","lat":43.290995,"lon":5.381361,"is_reserved":false,"is_disabled":false,"rental_uris":{"android":"levelo://app?vid=5ed88d61-bb66-49d3-9f3b-790a727d7721","ios":"levelo://app?vid=5ed88d61-bb66-49d3-9f3b-790a727d7721"},"vehicle_type_id":"4","last_reported":1706475966,"current_range_meters":29200,"station_id":"ce4bh512rcd13ifvqe2g","pricing_plan_id":"free"},{"bike_id":"2ebaf0d1-5423-46cc-9e9c-aedd6fe97d14","system_id":"levelo_inurba_marseille","lat":43.29794,"lon":5.39333,"is_reserved":false,"is_disabled":false,"rental_uris":{"android":"levelo://app?vid=2ebaf0d1-5423-46cc-9e9c-aedd6fe97d14","ios":"levelo://app?vid=2ebaf0d1-5423-46cc-9e9c-aedd6fe97d14"},"vehicle_type_id":"4","last_reported":1706475966,"current_range_meters":4400,"station_id":"chh1huq6cuj3fo74tm60","pricing_plan_id":"free"},{"bike_id":"200116e3-b0c2-4f94-a2c4-841663d569a7","system_id":"levelo_inurba_marseille","lat":43.29781,"lon":5.39329,"is_reserved":false,"is_disabled":false,"rental_uris":{"android":"levelo://app?vid=200116e3-b0c2-4f94-a2c4-841663d569a7","ios":"levelo://app?vid=200116e3-b0c2-4f94-a2c4-841663d569a7"},"vehicle_type_id":"4","last_reported":1706475966,"current_range_meters":14800,"station_id":"chh1huq6cuj3fo74tm60","pricing_plan_id":"free"},{"bike_id":"4d64b4b1-158d-4a82-9fff-bad52e8040f8","system_id":"levelo_inurba_marseille","lat":43.29791,"lon":5.393446,"is_reserved":false,"is_disabled":false,"rental_uris":{"android":"levelo://app?vid=4d64b4b1-158d-4a82-9fff-bad52e8040f8","ios":"levelo://app?vid=4d64b4b1-158d-4a82-9fff-bad52e8040f8"},"vehicle_type_id":"4","last_reported":1706475966,"current_range_meters":7200,"station_id":"chh1huq6cuj3fo74tm60","pricing_plan_id":"free"},{"bike_id":"b7706dd7-3786-4087-8965-0886b169ac4e","system_id":"levelo_inurba_marseille","lat":43.297815,"lon":5.393548,"is_reserved":false,"is_disabled":false,"rental_uris":{"android":"levelo://app?vid=b7706dd7-3786-4087-8965-0886b169ac4e","ios":"levelo://app?vid=b7706dd7-3786-4087-8965-0886b169ac4e"},"vehicle_type_id":"4","last_reported":1706475966,"current_range_meters":17600,"station_id":"chh1huq6cuj3fo74tm60","pricing_plan_id":"free"},{"bike_id":"01f06ee5-a213-4acb-9ad3-070bbdb6c6f5","system_id":"levelo_inurba_marseille","lat":43.295169,"lon":5.390426,"is_reserved":false,"is_disabled":false,"rental_uris":{"android":"levelo://app?vid=01f06ee5-a213-4acb-9ad3-070bbdb6c6f5","ios":"levelo://app?vid=01f06ee5-a213-4acb-9ad3-070bbdb6c6f5"},"vehicle_type_id":"4","last_reported":1706475966,"current_range_meters":4400,"station_id":"ce4bh3p2rcd13ifvqdp0","pricing_plan_id":"free"},{"bike_id":"bcd4e723-d274-4028-a523-ee8643ed9f06","system_id":"levelo_inurba_marseille","lat":43.297815,"lon":5.393548,"is_reserved":false,"is_disabled":false,"rental_uris":{"android":"levelo://app?vid=bcd4e723-d274-4028-a523-ee8643ed9f06","ios":"levelo://app?vid=bcd4e723-d274-4028-a523-ee8643ed9f06"},"vehicle_type_id":"4","last_reported":1706475966,"current_range_meters":16000,"station_id":"chh1huq6cuj3fo74tm60","pricing_plan_id":"free"},{"bike_id":"8c01f223-829f-4d41-a107-8db41a76a15f","system_id":"levelo_inurba_marseille","lat":43.295169,"lon":5.390426,"is_reserved":false,"is_disabled":false,"rental_uris":{"android":"levelo://app?vid=8c01f223-829f-4d41-a107-8db41a76a15f","ios":"levelo://app?vid=8c01f223-829f-4d41-a107-8db41a76a15f"},"vehicle_type_id":"4","last_reported":1706475966,"current_range_meters":16400,"station_id":"ce4bh3p2rcd13ifvqdp0","pricing_plan_id":"free"},{"bike_id":"c3bf1cbd-fa56-4133-ad88-853fc6f0eea3","system_id":"levelo_inurba_marseille","lat":43.330442,"lon":5.389148,"is_reserved":false,"is_disabled":false,"rental_uris":{"android":"levelo://app?vid=c3bf1cbd-fa56-4133-ad88-853fc6f0eea3","ios":"levelo://app?vid=c3bf1cbd-fa56-4133-ad88-853fc6f0eea3"},"vehicle_type_id":"4","last_reported":1706475966,"current_range_meters":0,"station_id":"ce4bhr92rcd13ifvqhrg","pricing_plan_id":"free"},{"bike_id":"b7397a09-ad1e-4f4b-bd87-9cd57aa4c0e9","system_id":"levelo_inurba_marseille","lat":43.330442,"lon":5.389148,"is_reserved":false,"is_disabled":false,"rental_uris":{"android":"levelo://app?vid=b7397a09-ad1e-4f4b-bd87-9cd57aa4c0e9","ios":"levelo://app?vid=b7397a09-ad1e-4f4b-bd87-9cd57aa4c0e9"},"vehicle_type_id":"4","last_reported":1706475966,"current_range_meters":11200,"station_id":"ce4bhr92rcd13ifvqhrg","pricing_plan_id":"free"},{"bike_id":"95034234-b183-46e6-9ee9-ee407df2fa5c","system_id":"levelo_inurba_marseille","lat":43.295169,"lon":5.390426,"is_reserved":false,"is_disabled":false,"rental_uris":{"android":"levelo://app?vid=95034234-b183-46e6-9ee9-ee407df2fa5c","ios":"levelo://app?vid=95034234-b183-46e6-9ee9-ee407df2fa5c"},"vehicle_type_id":"4","last_reported":1706475966,"current_range_meters":14800,"station_id":"ce4bh3p2rcd13ifvqdp0","pricing_plan_id":"free"},{"bike_id":"a4554455-5690-420a-a65a-39139174de5d","system_id":"levelo_inurba_marseille","lat":43.2901,"lon":5.381269,"is_reserved":false,"is_disabled":false,"rental_uris":{"android":"levelo://app?vid=a4554455-5690-420a-a65a-39139174de5d","ios":"levelo://app?vid=a4554455-5690-420a-a65a-39139174de5d"},"vehicle_type_id":"4","last_reported":1706475966,"current_range_meters":11200,"station_id":"ce4bh4p2rcd13ifvqe1g","pricing_plan_id":"free"},{"bike_id":"c2837a28-f9ff-4f57-848a-d9292b73d93d","system_id":"levelo_inurba_marseille","lat":43.28856,"lon":5.358371,"is_reserved":false,"is_disabled":false,"rental_uris":{"android":"levelo://app?vid=c2837a28-f9ff-4f57-848a-d9292b73d93d","ios":"levelo://app?vid=c2837a28-f9ff-4f57-848a-d9292b73d93d"},"vehicle_type_id":"4","last_reported":1706475966,"current_range_meters":0,"station_id":"ce4bhb12rcd13ifvqem0","pricing_plan_id":"free"},{"bike_id":"2cfab821-4471-4549-a223-09dd3c60e34f","system_id":"levelo_inurba_marseille","lat":43.28856,"lon":5.358371,"is_reserved":false,"is_disabled":false,"rental_uris":{"android":"levelo://app?vid=2cfab821-4471-4549-a223-09dd3c60e34f","ios":"levelo://app?vid=2cfab821-4471-4549-a223-09dd3c60e34f"},"vehicle_type_id":"4","last_reported":1706475966,"current_range_meters":15600,"station_id":"ce4bhb12rcd13ifvqem0","pricing_plan_id":"free"},{"bike_id":"0f2c1b5b-2255-427d-8e1c-a2e4920df7dd","system_id":"levelo_inurba_marseille","lat":43.337408,"lon":5.374451,"is_reserved":false,"is_disabled":false,"rental_uris":{"android":"levelo://app?vid=0f2c1b5b-2255-427d-8e1c-a2e4920df7dd","ios":"levelo://app?vid=0f2c1b5b-2255-427d-8e1c-a2e4920df7dd"},"vehicle_type_id":"4","last_reported":1706475966,"current_range_meters":25600,"station_id":"","pricing_plan_id":"free"},{"bike_id":"b44add22-381f-4738-b3df-83b5d32e6cca","system_id":"levelo_inurba_marseille","lat":43.309371,"lon":5.401449,"is_reserved":false,"is_disabled":false,"rental_uris":{"android":"levelo://app?vid=b44add22-381f-4738-b3df-83b5d32e6cca","ios":"levelo://app?vid=b44add22-381f-4738-b3df-83b5d32e6cca"},"vehicle_type_id":"4","last_reported":1706475966,"current_range_meters":0,"station_id":"ce4bgvp2rcd13ifvqct0","pricing_plan_id":"free"},{"bike_id":"fcfa15fe-6695-474b-8f30-dc941c73b131","system_id":"levelo_inurba_marseille","lat":43.30936,"lon":5.40145,"is_reserved":false,"is_disabled":false,"rental_uris":{"android":"levelo://app?vid=fcfa15fe-6695-474b-8f30-dc941c73b131","ios":"levelo://app?vid=fcfa15fe-6695-474b-8f30-dc941c73b131"},"vehicle_type_id":"4","last_reported":1706475966,"current_range_meters":3600,"station_id":"ce4bgvp2rcd13ifvqct0","pricing_plan_id":"free"},{"bike_id":"cf5f845d-29c6-4edb-b231-80f45feea0a3","system_id":"levelo_inurba_marseille","lat":43.309371,"lon":5.401449,"is_reserved":false,"is_disabled":false,"rental_uris":{"android":"levelo://app?vid=cf5f845d-29c6-4edb-b231-80f45feea0a3","ios":"levelo://app?vid=cf5f845d-29c6-4edb-b231-80f45feea0a3"},"vehicle_type_id":"4","last_reported":1706475966,"current_range_meters":19200,"station_id":"ce4bgvp2rcd13ifvqct0","pricing_plan_id":"free"},{"bike_id":"89a8815a-667b-4a7e-ad67-76d2795951b6","system_id":"levelo_inurba_marseille","lat":43.309371,"lon":5.401449,"is_reserved":false,"is_disabled":false,"rental_uris":{"android":"levelo://app?vid=89a8815a-667b-4a7e-ad67-76d2795951b6","ios":"levelo://app?vid=89a8815a-667b-4a7e-ad67-76d2795951b6"},"vehicle_type_id":"4","last_reported":1706475966,"current_range_meters":2400,"station_id":"ce4bgvp2rcd13ifvqct0","pricing_plan_id":"free"},{"bike_id":"a563cdbf-78b8-441c-8dce-8da1c3325b92","system_id":"levelo_inurba_marseille","lat":43.337513,"lon":5.374554,"is_reserved":false,"is_disabled":false,"rental_uris":{"android":"levelo://app?vid=a563cdbf-78b8-441c-8dce-8da1c3325b92","ios":"levelo://app?vid=a563cdbf-78b8-441c-8dce-8da1c3325b92"},"vehicle_type_id":"4","last_reported":1706475966,"current_range_meters":18800,"station_id":"","pricing_plan_id":"free"},{"bike_id":"27cf1655-be1b-479b-a672-19a45348db31","system_id":"levelo_inurba_marseille","lat":43.30957,"lon":5.40155,"is_reserved":false,"is_disabled":false,"rental_uris":{"android":"levelo://app?vid=27cf1655-be1b-479b-a672-19a45348db31","ios":"levelo://app?vid=27cf1655-be1b-479b-a672-19a45348db31"},"vehicle_type_id":"4","last_reported":1706475966,"current_range_meters":11600,"station_id":"","pricing_plan_id":"free"},{"bike_id":"b7f12eab-e0a6-499e-87ec-2b4381c4602a","system_id":"levelo_inurba_marseille","lat":43.337541,"lon":5.374555,"is_reserved":false,"is_disabled":false,"rental_uris":{"android":"levelo://app?vid=b7f12eab-e0a6-499e-87ec-2b4381c4602a","ios":"levelo://app?vid=b7f12eab-e0a6-499e-87ec-2b4381c4602a"},"vehicle_type_id":"4","last_reported":1706475966,"current_range_meters":23600,"station_id":"","pricing_plan_id":"free"},{"bike_id":"1facbbf3-baac-42f8-85eb-cb1e36f3e4b9","system_id":"levelo_inurba_marseille","lat":43.337546,"lon":5.374948,"is_reserved":false,"is_disabled":false,"rental_uris":{"android":"levelo://app?vid=1facbbf3-baac-42f8-85eb-cb1e36f3e4b9","ios":"levelo://app?vid=1facbbf3-baac-42f8-85eb-cb1e36f3e4b9"},"vehicle_type_id":"4","last_reported":1706475966,"current_range_meters":12800,"station_id":"","pricing_plan_id":"free"},{"bike_id":"713283fe-e82c-441a-8a6e-1c67b3985fbf","system_id":"levelo_inurba_marseille","lat":43.326605,"lon":5.409903,"is_reserved":false,"is_disabled":false,"rental_uris":{"android":"levelo://app?vid=713283fe-e82c-441a-8a6e-1c67b3985fbf","ios":"levelo://app?vid=713283fe-e82c-441a-8a6e-1c67b3985fbf"},"vehicle_type_id":"4","last_reported":1706475966,"current_range_meters":24800,"station_id":"ce4bhpp2rcd13ifvqhgg","pricing_plan_id":"free"},{"bike_id":"2fe24097-b1c2-4583-ba1f-cf8501171a4c","system_id":"levelo_inurba_marseille","lat":43.33758,"lon":5.37489,"is_reserved":false,"is_disabled":false,"rental_uris":{"android":"levelo://app?vid=2fe24097-b1c2-4583-ba1f-cf8501171a4c","ios":"levelo://app?vid=2fe24097-b1c2-4583-ba1f-cf8501171a4c"},"vehicle_type_id":"4","last_reported":1706475966,"current_range_meters":10000,"station_id":"","pricing_plan_id":"free"},{"bike_id":"b7d3b81d-d85a-44b5-a0c7-8f9c9f74639e","system_id":"levelo_inurba_marseille","lat":43.33765,"lon":5.374672,"is_reserved":false,"is_disabled":false,"rental_uris":{"android":"levelo://app?vid=b7d3b81d-d85a-44b5-a0c7-8f9c9f74639e","ios":"levelo://app?vid=b7d3b81d-d85a-44b5-a0c7-8f9c9f74639e"},"vehicle_type_id":"4","last_reported":1706475966,"current_range_meters":25600,"station_id":"","pricing_plan_id":"free"},{"bike_id":"eba6ef58-29d1-4196-9a1a-4f81035ff91b","system_id":"levelo_inurba_marseille","lat":43.30602,"lon":5.40099,"is_reserved":false,"is_disabled":false,"rental_uris":{"android":"levelo://app?vid=eba6ef58-29d1-4196-9a1a-4f81035ff91b","ios":"levelo://app?vid=eba6ef58-29d1-4196-9a1a-4f81035ff91b"},"vehicle_type_id":"4","last_reported":1706475966,"current_range_meters":23600,"station_id":"ce4bh112rcd13ifvqda0","pricing_plan_id":"free"},{"bike_id":"7a5e519d-41a6-414b-b6ed-0a86694e3771","system_id":"levelo_inurba_marseille","lat":43.28727,"lon":5.36078,"is_reserved":false,"is_disabled":false,"rental_uris":{"android":"levelo://app?vid=7a5e519d-41a6-414b-b6ed-0a86694e3771","ios":"levelo://app?vid=7a5e519d-41a6-414b-b6ed-0a86694e3771"},"vehicle_type_id":"4","last_reported":1706475966,"current_range_meters":29600,"station_id":"cki0cbj6b192h4jlfktg","pricing_plan_id":"free"},{"bike_id":"522d42eb-9b29-48d8-bd56-5615cefbb5c8","system_id":"levelo_inurba_marseille","lat":43.304643,"lon":5.40063,"is_reserved":false,"is_disabled":false,"rental_uris":{"android":"levelo://app?vid=522d42eb-9b29-48d8-bd56-5615cefbb5c8","ios":"levelo://app?vid=522d42eb-9b29-48d8-bd56-5615cefbb5c8"},"vehicle_type_id":"4","last_reported":1706475966,"current_range_meters":17200,"station_id":"","pricing_plan_id":"free"},{"bike_id":"4526c5a3-58e3-4b33-bef7-119d0c9b1850","system_id":"levelo_inurba_marseille","lat":43.28727,"lon":5.36078,"is_reserved":false,"is_disabled":false,"rental_uris":{"android":"levelo://app?vid=4526c5a3-58e3-4b33-bef7-119d0c9b1850","ios":"levelo://app?vid=4526c5a3-58e3-4b33-bef7-119d0c9b1850"},"vehicle_type_id":"4","last_reported":1706475966,"current_range_meters":24000,"station_id":"cki0cbj6b192h4jlfktg","pricing_plan_id":"free"},{"bike_id":"40fa4522-1e63-4109-b1ab-9778342875a3","system_id":"levelo_inurba_marseille","lat":43.298681,"lon":5.397225,"is_reserved":false,"is_disabled":false,"rental_uris":{"android":"levelo://app?vid=40fa4522-1e63-4109-b1ab-9778342875a3","ios":"levelo://app?vid=40fa4522-1e63-4109-b1ab-9778342875a3"},"vehicle_type_id":"4","last_reported":1706475966,"current_range_meters":30800,"station_id":"ce4bh0h2rcd13ifvqd50","pricing_plan_id":"free"},{"bike_id":"7aa9401c-6e36-496d-8225-08fb8d49610b","system_id":"levelo_inurba_marseille","lat":43.298681,"lon":5.397225,"is_reserved":false,"is_disabled":false,"rental_uris":{"android":"levelo://app?vid=7aa9401c-6e36-496d-8225-08fb8d49610b","ios":"levelo://app?vid=7aa9401c-6e36-496d-8225-08fb8d49610b"},"vehicle_type_id":"4","last_reported":1706475966,"current_range_meters":28400,"station_id":"ce4bh0h2rcd13ifvqd50","pricing_plan_id":"free"},{"bike_id":"111e9c3b-9d64-40ba-a838-427b7e448896","system_id":"levelo_inurba_marseille","lat":43.298681,"lon":5.397225,"is_reserved":false,"is_disabled":false,"rental_uris":{"android":"levelo://app?vid=111e9c3b-9d64-40ba-a838-427b7e448896","ios":"levelo://app?vid=111e9c3b-9d64-40ba-a838-427b7e448896"},"vehicle_type_id":"4","last_reported":1706475966,"current_range_meters":1200,"station_id":"ce4bh0h2rcd13ifvqd50","pricing_plan_id":"free"},{"bike_id":"037051ab-425e-412f-b404-f5773260f298","system_id":"levelo_inurba_marseille","lat":43.286591,"lon":5.363346,"is_reserved":false,"is_disabled":false,"rental_uris":{"android":"levelo://app?vid=037051ab-425e-412f-b404-f5773260f298","ios":"levelo://app?vid=037051ab-425e-412f-b404-f5773260f298"},"vehicle_type_id":"4","last_reported":1706475966,"current_range_meters":25600,"station_id":"ce4bhah2rcd13ifvqej0","pricing_plan_id":"free"},{"bike_id":"f7d0a52c-5f99-4a0a-966d-b6ecb2f9473f","system_id":"levelo_inurba_marseille","lat":43.286591,"lon":5.363346,"is_reserved":false,"is_disabled":false,"rental_uris":{"android":"levelo://app?vid=f7d0a52c-5f99-4a0a-966d-b6ecb2f9473f","ios":"levelo://app?vid=f7d0a52c-5f99-4a0a-966d-b6ecb2f9473f"},"vehicle_type_id":"4","last_reported":1706475966,"current_range_meters":18400,"station_id":"ce4bhah2rcd13ifvqej0","pricing_plan_id":"free"},{"bike_id":"b16167e3-1052-43da-9c08-d441a37aa492","system_id":"levelo_inurba_marseille","lat":43.298681,"lon":5.397225,"is_reserved":false,"is_disabled":false,"rental_uris":{"android":"levelo://app?vid=b16167e3-1052-43da-9c08-d441a37aa492","ios":"levelo://app?vid=b16167e3-1052-43da-9c08-d441a37aa492"},"vehicle_type_id":"4","last_reported":1706475966,"current_range_meters":23200,"station_id":"ce4bh0h2rcd13ifvqd50","pricing_plan_id":"free"},{"bike_id":"94e643cb-8463-4417-a2ec-d66404e804cc","system_id":"levelo_inurba_marseille","lat":43.286593,"lon":5.363346,"is_reserved":false,"is_disabled":false,"rental_uris":{"android":"levelo://app?vid=94e643cb-8463-4417-a2ec-d66404e804cc","ios":"levelo://app?vid=94e643cb-8463-4417-a2ec-d66404e804cc"},"vehicle_type_id":"4","last_reported":1706475966,"current_range_meters":16800,"station_id":"ce4bhah2rcd13ifvqej0","pricing_plan_id":"free"},{"bike_id":"94c712f0-2471-4cbf-b779-4b1642f80194","system_id":"levelo_inurba_marseille","lat":43.286961,"lon":5.373785,"is_reserved":false,"is_disabled":false,"rental_uris":{"android":"levelo://app?vid=94c712f0-2471-4cbf-b779-4b1642f80194","ios":"levelo://app?vid=94c712f0-2471-4cbf-b779-4b1642f80194"},"vehicle_type_id":"4","last_reported":1706475966,"current_range_meters":18000,"station_id":"ce4bh3p2rcd13ifvqdq0","pricing_plan_id":"free"},{"bike_id":"42192148-c7f5-4104-aac2-f3ee65f32171","system_id":"levelo_inurba_marseille","lat":43.295196,"lon":5.39397,"is_reserved":false,"is_disabled":false,"rental_uris":{"android":"levelo://app?vid=42192148-c7f5-4104-aac2-f3ee65f32171","ios":"levelo://app?vid=42192148-c7f5-4104-aac2-f3ee65f32171"},"vehicle_type_id":"4","last_reported":1706475966,"current_range_meters":7600,"station_id":"ce4bh292rcd13ifvqdf0","pricing_plan_id":"free"},{"bike_id":"2fd6249d-582f-4c1a-80e9-eed91193e373","system_id":"levelo_inurba_marseille","lat":43.298681,"lon":5.397225,"is_reserved":false,"is_disabled":false,"rental_uris":{"android":"levelo://app?vid=2fd6249d-582f-4c1a-80e9-eed91193e373","ios":"levelo://app?vid=2fd6249d-582f-4c1a-80e9-eed91193e373"},"vehicle_type_id":"4","last_reported":1706475966,"current_range_meters":30400,"station_id":"ce4bh0h2rcd13ifvqd50","pricing_plan_id":"free"},{"bike_id":"44383bee-c4d1-4698-b237-49da6c63e49e","system_id":"levelo_inurba_marseille","lat":43.286593,"lon":5.363346,"is_reserved":false,"is_disabled":false,"rental_uris":{"android":"levelo://app?vid=44383bee-c4d1-4698-b237-49da6c63e49e","ios":"levelo://app?vid=44383bee-c4d1-4698-b237-49da6c63e49e"},"vehicle_type_id":"4","last_reported":1706475966,"current_range_meters":26800,"station_id":"ce4bhah2rcd13ifvqej0","pricing_plan_id":"free"},{"bike_id":"cc644acb-1160-442c-b5b0-55a4344a662a","system_id":"levelo_inurba_marseille","lat":43.295196,"lon":5.39397,"is_reserved":false,"is_disabled":false,"rental_uris":{"android":"levelo://app?vid=cc644acb-1160-442c-b5b0-55a4344a662a","ios":"levelo://app?vid=cc644acb-1160-442c-b5b0-55a4344a662a"},"vehicle_type_id":"4","last_reported":1706475966,"current_range_meters":7200,"station_id":"ce4bh292rcd13ifvqdf0","pricing_plan_id":"free"},{"bike_id":"ce168945-edaa-4e78-9084-bfcb24fe8d86","system_id":"levelo_inurba_marseille","lat":43.289307,"lon":5.38406,"is_reserved":false,"is_disabled":false,"rental_uris":{"android":"levelo://app?vid=ce168945-edaa-4e78-9084-bfcb24fe8d86","ios":"levelo://app?vid=ce168945-edaa-4e78-9084-bfcb24fe8d86"},"vehicle_type_id":"4","last_reported":1706475966,"current_range_meters":20800,"station_id":"ce4bh612rcd13ifvqe6g","pricing_plan_id":"free"},{"bike_id":"2f67a247-adad-40aa-8815-0d67d3e221c8","system_id":"levelo_inurba_marseille","lat":43.30237,"lon":5.40055,"is_reserved":false,"is_disabled":false,"rental_uris":{"android":"levelo://app?vid=2f67a247-adad-40aa-8815-0d67d3e221c8","ios":"levelo://app?vid=2f67a247-adad-40aa-8815-0d67d3e221c8"},"vehicle_type_id":"4","last_reported":1706475966,"current_range_meters":9200,"station_id":"ce4bgvh2rcd13ifvqcs0","pricing_plan_id":"free"},{"bike_id":"183bb1c1-398f-466c-b05d-327ac4efc436","system_id":"levelo_inurba_marseille","lat":43.302511,"lon":5.400653,"is_reserved":false,"is_disabled":false,"rental_uris":{"android":"levelo://app?vid=183bb1c1-398f-466c-b05d-327ac4efc436","ios":"levelo://app?vid=183bb1c1-398f-466c-b05d-327ac4efc436"},"vehicle_type_id":"4","last_reported":1706475966,"current_range_meters":9600,"station_id":"ce4bgth2rcd13ifvqch0","pricing_plan_id":"free"},{"bike_id":"796e3645-072b-4128-a2e8-c0bc9f787332","system_id":"levelo_inurba_marseille","lat":43.289307,"lon":5.38406,"is_reserved":false,"is_disabled":false,"rental_uris":{"android":"levelo://app?vid=796e3645-072b-4128-a2e8-c0bc9f787332","ios":"levelo://app?vid=796e3645-072b-4128-a2e8-c0bc9f787332"},"vehicle_type_id":"4","last_reported":1706475966,"current_range_meters":4400,"station_id":"ce4bh612rcd13ifvqe6g","pricing_plan_id":"free"},{"bike_id":"44d8e80c-2d07-42ee-86db-a4e0a9f454c2","system_id":"levelo_inurba_marseille","lat":43.290336,"lon":5.386425,"is_reserved":false,"is_disabled":false,"rental_uris":{"android":"levelo://app?vid=44d8e80c-2d07-42ee-86db-a4e0a9f454c2","ios":"levelo://app?vid=44d8e80c-2d07-42ee-86db-a4e0a9f454c2"},"vehicle_type_id":"4","last_reported":1706475966,"current_range_meters":17200,"station_id":"ce4bh4p2rcd13ifvqe0g","pricing_plan_id":"free"},{"bike_id":"15b856b4-61a5-4915-b2f1-c85675ff53c9","system_id":"levelo_inurba_marseille","lat":43.289307,"lon":5.38406,"is_reserved":false,"is_disabled":false,"rental_uris":{"android":"levelo://app?vid=15b856b4-61a5-4915-b2f1-c85675ff53c9","ios":"levelo://app?vid=15b856b4-61a5-4915-b2f1-c85675ff53c9"},"vehicle_type_id":"4","last_reported":1706475966,"current_range_meters":0,"station_id":"ce4bh612rcd13ifvqe6g","pricing_plan_id":"free"},{"bike_id":"72eb59db-e754-498a-b351-8699447ab814","system_id":"levelo_inurba_marseille","lat":43.289307,"lon":5.38406,"is_reserved":false,"is_disabled":false,"rental_uris":{"android":"levelo://app?vid=72eb59db-e754-498a-b351-8699447ab814","ios":"levelo://app?vid=72eb59db-e754-498a-b351-8699447ab814"},"vehicle_type_id":"4","last_reported":1706475966,"current_range_meters":0,"station_id":"ce4bh612rcd13ifvqe6g","pricing_plan_id":"free"},{"bike_id":"9a78d1ea-59fc-477e-a3bf-0a3340d9601b","system_id":"levelo_inurba_marseille","lat":43.302483,"lon":5.40069,"is_reserved":false,"is_disabled":false,"rental_uris":{"android":"levelo://app?vid=9a78d1ea-59fc-477e-a3bf-0a3340d9601b","ios":"levelo://app?vid=9a78d1ea-59fc-477e-a3bf-0a3340d9601b"},"vehicle_type_id":"4","last_reported":1706475966,"current_range_meters":9600,"station_id":"ce4bgvh2rcd13ifvqcs0","pricing_plan_id":"free"},{"bike_id":"72f41edd-5600-4861-a916-d5c0556e23ef","system_id":"levelo_inurba_marseille","lat":43.30253,"lon":5.40074,"is_reserved":false,"is_disabled":false,"rental_uris":{"android":"levelo://app?vid=72f41edd-5600-4861-a916-d5c0556e23ef","ios":"levelo://app?vid=72f41edd-5600-4861-a916-d5c0556e23ef"},"vehicle_type_id":"4","last_reported":1706475966,"current_range_meters":15600,"station_id":"ce4bgvh2rcd13ifvqcs0","pricing_plan_id":"free"},{"bike_id":"8ce4cd94-d241-416b-98b5-1fad40afc22f","system_id":"levelo_inurba_marseille","lat":43.302584,"lon":5.400775,"is_reserved":false,"is_disabled":false,"rental_uris":{"android":"levelo://app?vid=8ce4cd94-d241-416b-98b5-1fad40afc22f","ios":"levelo://app?vid=8ce4cd94-d241-416b-98b5-1fad40afc22f"},"vehicle_type_id":"4","last_reported":1706475966,"current_range_meters":24000,"station_id":"ce4bgvh2rcd13ifvqcs0","pricing_plan_id":"free"},{"bike_id":"ed4e0ca7-2642-4e67-8709-28268c6806bc","system_id":"levelo_inurba_marseille","lat":43.30258,"lon":5.40079,"is_reserved":false,"is_disabled":false,"rental_uris":{"android":"levelo://app?vid=ed4e0ca7-2642-4e67-8709-28268c6806bc","ios":"levelo://app?vid=ed4e0ca7-2642-4e67-8709-28268c6806bc"},"vehicle_type_id":"4","last_reported":1706475966,"current_range_meters":6000,"station_id":"ce4bgvh2rcd13ifvqcs0","pricing_plan_id":"free"},{"bike_id":"1886a643-2713-45f3-b0de-290a1e9d1624","system_id":"levelo_inurba_marseille","lat":43.30262,"lon":5.40082,"is_reserved":false,"is_disabled":false,"rental_uris":{"android":"levelo://app?vid=1886a643-2713-45f3-b0de-290a1e9d1624","ios":"levelo://app?vid=1886a643-2713-45f3-b0de-290a1e9d1624"},"vehicle_type_id":"4","last_reported":1706475966,"current_range_meters":14400,"station_id":"ce4bgvh2rcd13ifvqcs0","pricing_plan_id":"free"},{"bike_id":"c186c9c7-dfbe-4eda-9b9d-956d82fe1b01","system_id":"levelo_inurba_marseille","lat":43.30251,"lon":5.40081,"is_reserved":false,"is_disabled":false,"rental_uris":{"android":"levelo://app?vid=c186c9c7-dfbe-4eda-9b9d-956d82fe1b01","ios":"levelo://app?vid=c186c9c7-dfbe-4eda-9b9d-956d82fe1b01"},"vehicle_type_id":"4","last_reported":1706475966,"current_range_meters":7200,"station_id":"ce4bgvh2rcd13ifvqcs0","pricing_plan_id":"free"},{"bike_id":"16c44f57-a586-411e-b85b-4c7755c62483","system_id":"levelo_inurba_marseille","lat":43.302563,"lon":5.400843,"is_reserved":false,"is_disabled":false,"rental_uris":{"android":"levelo://app?vid=16c44f57-a586-411e-b85b-4c7755c62483","ios":"levelo://app?vid=16c44f57-a586-411e-b85b-4c7755c62483"},"vehicle_type_id":"4","last_reported":1706475966,"current_range_meters":23200,"station_id":"ce4bgvh2rcd13ifvqcs0","pricing_plan_id":"free"},{"bike_id":"ab8c78d8-9395-4afe-b308-2e591173c381","system_id":"levelo_inurba_marseille","lat":43.286039,"lon":5.370679,"is_reserved":false,"is_disabled":false,"rental_uris":{"android":"levelo://app?vid=ab8c78d8-9395-4afe-b308-2e591173c381","ios":"levelo://app?vid=ab8c78d8-9395-4afe-b308-2e591173c381"},"vehicle_type_id":"4","last_reported":1706475966,"current_range_meters":25600,"station_id":"ce4bht12rcd13ifvqi60","pricing_plan_id":"free"},{"bike_id":"1cf8a160-5233-4b11-b3e1-27fda568a5e9","system_id":"levelo_inurba_marseille","lat":43.287185,"lon":5.379373,"is_reserved":false,"is_disabled":false,"rental_uris":{"android":"levelo://app?vid=1cf8a160-5233-4b11-b3e1-27fda568a5e9","ios":"levelo://app?vid=1cf8a160-5233-4b11-b3e1-27fda568a5e9"},"vehicle_type_id":"4","last_reported":1706475966,"current_range_meters":14000,"station_id":"ce4bh9p2rcd13ifvqec0","pricing_plan_id":"free"},{"bike_id":"68d146a5-db17-4603-83b9-70b26e40a7b6","system_id":"levelo_inurba_marseille","lat":43.287184,"lon":5.37937,"is_reserved":false,"is_disabled":false,"rental_uris":{"android":"levelo://app?vid=68d146a5-db17-4603-83b9-70b26e40a7b6","ios":"levelo://app?vid=68d146a5-db17-4603-83b9-70b26e40a7b6"},"vehicle_type_id":"4","last_reported":1706475966,"current_range_meters":25200,"station_id":"ce4bh9p2rcd13ifvqec0","pricing_plan_id":"free"},{"bike_id":"a57b6e86-c39a-492f-9de0-2450e11239f2","system_id":"levelo_inurba_marseille","lat":43.291994,"lon":5.392907,"is_reserved":false,"is_disabled":false,"rental_uris":{"android":"levelo://app?vid=a57b6e86-c39a-492f-9de0-2450e11239f2","ios":"levelo://app?vid=a57b6e86-c39a-492f-9de0-2450e11239f2"},"vehicle_type_id":"4","last_reported":1706475966,"current_range_meters":22000,"station_id":"ce4bh192rcd13ifvqdd0","pricing_plan_id":"free"},{"bike_id":"33226beb-0913-4a8d-92d7-dbf952bd2dac","system_id":"levelo_inurba_marseille","lat":43.284538,"lon":5.358657,"is_reserved":false,"is_disabled":false,"rental_uris":{"android":"levelo://app?vid=33226beb-0913-4a8d-92d7-dbf952bd2dac","ios":"levelo://app?vid=33226beb-0913-4a8d-92d7-dbf952bd2dac"},"vehicle_type_id":"4","last_reported":1706475966,"current_range_meters":12000,"station_id":"ce4bhah2rcd13ifvqei0","pricing_plan_id":"free"},{"bike_id":"c4f853f8-612e-4d8c-a862-ee54ae74bfd2","system_id":"levelo_inurba_marseille","lat":43.284538,"lon":5.358657,"is_reserved":false,"is_disabled":false,"rental_uris":{"android":"levelo://app?vid=c4f853f8-612e-4d8c-a862-ee54ae74bfd2","ios":"levelo://app?vid=c4f853f8-612e-4d8c-a862-ee54ae74bfd2"},"vehicle_type_id":"4","last_reported":1706475966,"current_range_meters":15600,"station_id":"ce4bhah2rcd13ifvqei0","pricing_plan_id":"free"},{"bike_id":"f29266fc-0acf-4248-a99e-69e2ac19b4ca","system_id":"levelo_inurba_marseille","lat":43.284534,"lon":5.358662,"is_reserved":false,"is_disabled":false,"rental_uris":{"android":"levelo://app?vid=f29266fc-0acf-4248-a99e-69e2ac19b4ca","ios":"levelo://app?vid=f29266fc-0acf-4248-a99e-69e2ac19b4ca"},"vehicle_type_id":"4","last_reported":1706475966,"current_range_meters":23200,"station_id":"ce4bhah2rcd13ifvqei0","pricing_plan_id":"free"},{"bike_id":"29dea693-6583-4cf6-b7fd-120e8590f8f7","system_id":"levelo_inurba_marseille","lat":43.294314,"lon":5.397498,"is_reserved":false,"is_disabled":false,"rental_uris":{"android":"levelo://app?vid=29dea693-6583-4cf6-b7fd-120e8590f8f7","ios":"levelo://app?vid=29dea693-6583-4cf6-b7fd-120e8590f8f7"},"vehicle_type_id":"4","last_reported":1706475966,"current_range_meters":1200,"station_id":"ce4bh3h2rcd13ifvqdo0","pricing_plan_id":"free"},{"bike_id":"5db557c6-5d46-4cd7-98e4-50affa5db239","system_id":"levelo_inurba_marseille","lat":43.285856,"lon":5.350771,"is_reserved":false,"is_disabled":false,"rental_uris":{"android":"levelo://app?vid=5db557c6-5d46-4cd7-98e4-50affa5db239","ios":"levelo://app?vid=5db557c6-5d46-4cd7-98e4-50affa5db239"},"vehicle_type_id":"4","last_reported":1706475966,"current_range_meters":13600,"station_id":"ce4bhch2rcd13ifvqeug","pricing_plan_id":"free"},{"bike_id":"13c2de7b-78cc-467c-ac0b-7bc779d9cb45","system_id":"levelo_inurba_marseille","lat":43.285856,"lon":5.350771,"is_reserved":false,"is_disabled":false,"rental_uris":{"android":"levelo://app?vid=13c2de7b-78cc-467c-ac0b-7bc779d9cb45","ios":"levelo://app?vid=13c2de7b-78cc-467c-ac0b-7bc779d9cb45"},"vehicle_type_id":"4","last_reported":1706475966,"current_range_meters":17600,"station_id":"ce4bhch2rcd13ifvqeug","pricing_plan_id":"free"},{"bike_id":"5dfd4493-cfb8-4129-8628-9955aa7c8e72","system_id":"levelo_inurba_marseille","lat":43.283998,"lon":5.375062,"is_reserved":false,"is_disabled":false,"rental_uris":{"android":"levelo://app?vid=5dfd4493-cfb8-4129-8628-9955aa7c8e72","ios":"levelo://app?vid=5dfd4493-cfb8-4129-8628-9955aa7c8e72"},"vehicle_type_id":"4","last_reported":1706475966,"current_range_meters":25600,"station_id":"ce4bh412rcd13ifvqds0","pricing_plan_id":"free"},{"bike_id":"4485876e-fc6d-480c-9259-b3472e5dd766","system_id":"levelo_inurba_marseille","lat":43.295713,"lon":5.399639,"is_reserved":false,"is_disabled":false,"rental_uris":{"android":"levelo://app?vid=4485876e-fc6d-480c-9259-b3472e5dd766","ios":"levelo://app?vid=4485876e-fc6d-480c-9259-b3472e5dd766"},"vehicle_type_id":"4","last_reported":1706475966,"current_range_meters":26000,"station_id":"ce4bh312rcd13ifvqdj0","pricing_plan_id":"free"},{"bike_id":"b8443c1f-def6-4a63-8779-32f403003481","system_id":"levelo_inurba_marseille","lat":43.295713,"lon":5.399639,"is_reserved":false,"is_disabled":false,"rental_uris":{"android":"levelo://app?vid=b8443c1f-def6-4a63-8779-32f403003481","ios":"levelo://app?vid=b8443c1f-def6-4a63-8779-32f403003481"},"vehicle_type_id":"4","last_reported":1706475966,"current_range_meters":22400,"station_id":"ce4bh312rcd13ifvqdj0","pricing_plan_id":"free"},{"bike_id":"e175d93a-d1a8-43be-8ad7-0c9de711e552","system_id":"levelo_inurba_marseille","lat":43.295713,"lon":5.399639,"is_reserved":false,"is_disabled":false,"rental_uris":{"android":"levelo://app?vid=e175d93a-d1a8-43be-8ad7-0c9de711e552","ios":"levelo://app?vid=e175d93a-d1a8-43be-8ad7-0c9de711e552"},"vehicle_type_id":"4","last_reported":1706475966,"current_range_meters":7200,"station_id":"ce4bh312rcd13ifvqdj0","pricing_plan_id":"free"},{"bike_id":"6493c0c8-a154-4aa1-b5e5-3e78be95af6f","system_id":"levelo_inurba_marseille","lat":43.284039,"lon":5.375261,"is_reserved":false,"is_disabled":false,"rental_uris":{"android":"levelo://app?vid=6493c0c8-a154-4aa1-b5e5-3e78be95af6f","ios":"levelo://app?vid=6493c0c8-a154-4aa1-b5e5-3e78be95af6f"},"vehicle_type_id":"4","last_reported":1706475966,"current_range_meters":0,"station_id":"ce4bh412rcd13ifvqds0","pricing_plan_id":"free"},{"bike_id":"f17024b9-d4d3-4663-9f7c-d87f35531402","system_id":"levelo_inurba_marseille","lat":43.295713,"lon":5.399639,"is_reserved":false,"is_disabled":false,"rental_uris":{"android":"levelo://app?vid=f17024b9-d4d3-4663-9f7c-d87f35531402","ios":"levelo://app?vid=f17024b9-d4d3-4663-9f7c-d87f35531402"},"vehicle_type_id":"4","last_reported":1706475966,"current_range_meters":30800,"station_id":"ce4bh312rcd13ifvqdj0","pricing_plan_id":"free"},{"bike_id":"aa685f7d-224a-426e-9d15-27133e02e39e","system_id":"levelo_inurba_marseille","lat":43.295713,"lon":5.399639,"is_reserved":false,"is_disabled":false,"rental_uris":{"android":"levelo://app?vid=aa685f7d-224a-426e-9d15-27133e02e39e","ios":"levelo://app?vid=aa685f7d-224a-426e-9d15-27133e02e39e"},"vehicle_type_id":"4","last_reported":1706475966,"current_range_meters":27600,"station_id":"ce4bh312rcd13ifvqdj0","pricing_plan_id":"free"},{"bike_id":"0e95303f-7274-43b5-bc8c-768655c24d44","system_id":"levelo_inurba_marseille","lat":43.295713,"lon":5.399639,"is_reserved":false,"is_disabled":false,"rental_uris":{"android":"levelo://app?vid=0e95303f-7274-43b5-bc8c-768655c24d44","ios":"levelo://app?vid=0e95303f-7274-43b5-bc8c-768655c24d44"},"vehicle_type_id":"4","last_reported":1706475966,"current_range_meters":21600,"station_id":"ce4bh312rcd13ifvqdj0","pricing_plan_id":"free"},{"bike_id":"50b1af7f-697c-456a-b2c0-aaf507c51a13","system_id":"levelo_inurba_marseille","lat":43.33717,"lon":5.391857,"is_reserved":false,"is_disabled":false,"rental_uris":{"android":"levelo://app?vid=50b1af7f-697c-456a-b2c0-aaf507c51a13","ios":"levelo://app?vid=50b1af7f-697c-456a-b2c0-aaf507c51a13"},"vehicle_type_id":"4","last_reported":1706475966,"current_range_meters":27200,"station_id":"ce4bhr92rcd13ifvqhsg","pricing_plan_id":"free"},{"bike_id":"966dc777-e017-4bae-b924-de46490d2c46","system_id":"levelo_inurba_marseille","lat":43.337168,"lon":5.391825,"is_reserved":false,"is_disabled":false,"rental_uris":{"android":"levelo://app?vid=966dc777-e017-4bae-b924-de46490d2c46","ios":"levelo://app?vid=966dc777-e017-4bae-b924-de46490d2c46"},"vehicle_type_id":"4","last_reported":1706475966,"current_range_meters":27600,"station_id":"ce4bhr92rcd13ifvqhsg","pricing_plan_id":"free"},{"bike_id":"e55b9a05-46d9-46c3-8c81-5de0ae3ad1d6","system_id":"levelo_inurba_marseille","lat":43.297946,"lon":5.404063,"is_reserved":false,"is_disabled":false,"rental_uris":{"android":"levelo://app?vid=e55b9a05-46d9-46c3-8c81-5de0ae3ad1d6","ios":"levelo://app?vid=e55b9a05-46d9-46c3-8c81-5de0ae3ad1d6"},"vehicle_type_id":"4","last_reported":1706475966,"current_range_meters":18800,"station_id":"ce4bh112rcd13ifvqd90","pricing_plan_id":"free"},{"bike_id":"105c5cb9-9b27-498c-b745-9d0bea142788","system_id":"levelo_inurba_marseille","lat":43.297946,"lon":5.404063,"is_reserved":false,"is_disabled":false,"rental_uris":{"android":"levelo://app?vid=105c5cb9-9b27-498c-b745-9d0bea142788","ios":"levelo://app?vid=105c5cb9-9b27-498c-b745-9d0bea142788"},"vehicle_type_id":"4","last_reported":1706475966,"current_range_meters":25600,"station_id":"ce4bh112rcd13ifvqd90","pricing_plan_id":"free"},{"bike_id":"bfb48fa8-e6f6-4cfd-b26c-85ffc56c4c7b","system_id":"levelo_inurba_marseille","lat":43.288497,"lon":5.393089,"is_reserved":false,"is_disabled":false,"rental_uris":{"android":"levelo://app?vid=bfb48fa8-e6f6-4cfd-b26c-85ffc56c4c7b","ios":"levelo://app?vid=bfb48fa8-e6f6-4cfd-b26c-85ffc56c4c7b"},"vehicle_type_id":"4","last_reported":1706475966,"current_range_meters":8400,"station_id":"ce4bh2p2rcd13ifvqdi0","pricing_plan_id":"free"},{"bike_id":"7524291a-e968-4206-a6dd-bce9b000716a","system_id":"levelo_inurba_marseille","lat":43.288497,"lon":5.393089,"is_reserved":false,"is_disabled":false,"rental_uris":{"android":"levelo://app?vid=7524291a-e968-4206-a6dd-bce9b000716a","ios":"levelo://app?vid=7524291a-e968-4206-a6dd-bce9b000716a"},"vehicle_type_id":"4","last_reported":1706475966,"current_range_meters":9600,"station_id":"ce4bh2p2rcd13ifvqdi0","pricing_plan_id":"free"},{"bike_id":"8fddf237-c5e7-4137-85fa-8f8f67d53fc9","system_id":"levelo_inurba_marseille","lat":43.288497,"lon":5.393089,"is_reserved":false,"is_disabled":false,"rental_uris":{"android":"levelo://app?vid=8fddf237-c5e7-4137-85fa-8f8f67d53fc9","ios":"levelo://app?vid=8fddf237-c5e7-4137-85fa-8f8f67d53fc9"},"vehicle_type_id":"4","last_reported":1706475966,"current_range_meters":15600,"station_id":"ce4bh2p2rcd13ifvqdi0","pricing_plan_id":"free"},{"bike_id":"21c5a5da-f12f-4e86-ad8a-e9abdab4cc93","system_id":"levelo_inurba_marseille","lat":43.288497,"lon":5.393089,"is_reserved":false,"is_disabled":false,"rental_uris":{"android":"levelo://app?vid=21c5a5da-f12f-4e86-ad8a-e9abdab4cc93","ios":"levelo://app?vid=21c5a5da-f12f-4e86-ad8a-e9abdab4cc93"},"vehicle_type_id":"4","last_reported":1706475966,"current_range_meters":2400,"station_id":"ce4bh2p2rcd13ifvqdi0","pricing_plan_id":"free"},{"bike_id":"025768fc-953e-4e1f-bc47-2e76895221ff","system_id":"levelo_inurba_marseille","lat":43.283494,"lon":5.380945,"is_reserved":false,"is_disabled":false,"rental_uris":{"android":"levelo://app?vid=025768fc-953e-4e1f-bc47-2e76895221ff","ios":"levelo://app?vid=025768fc-953e-4e1f-bc47-2e76895221ff"},"vehicle_type_id":"4","last_reported":1706475966,"current_range_meters":22800,"station_id":"ce4bh412rcd13ifvqdr0","pricing_plan_id":"free"},{"bike_id":"d020c4c0-5a74-48cf-8002-4648c21e4b40","system_id":"levelo_inurba_marseille","lat":43.28348,"lon":5.38104,"is_reserved":false,"is_disabled":false,"rental_uris":{"android":"levelo://app?vid=d020c4c0-5a74-48cf-8002-4648c21e4b40","ios":"levelo://app?vid=d020c4c0-5a74-48cf-8002-4648c21e4b40"},"vehicle_type_id":"4","last_reported":1706475966,"current_range_meters":0,"station_id":"ce4bh412rcd13ifvqdr0","pricing_plan_id":"free"},{"bike_id":"d4f5b869-08af-45f4-9ad6-25daf312d4eb","system_id":"levelo_inurba_marseille","lat":43.288497,"lon":5.393089,"is_reserved":false,"is_disabled":false,"rental_uris":{"android":"levelo://app?vid=d4f5b869-08af-45f4-9ad6-25daf312d4eb","ios":"levelo://app?vid=d4f5b869-08af-45f4-9ad6-25daf312d4eb"},"vehicle_type_id":"4","last_reported":1706475966,"current_range_meters":15600,"station_id":"ce4bh2p2rcd13ifvqdi0","pricing_plan_id":"free"},{"bike_id":"7e5f4e6b-6242-43bf-ad05-a8c1ee5b086d","system_id":"levelo_inurba_marseille","lat":43.289363,"lon":5.396322,"is_reserved":false,"is_disabled":false,"rental_uris":{"android":"levelo://app?vid=7e5f4e6b-6242-43bf-ad05-a8c1ee5b086d","ios":"levelo://app?vid=7e5f4e6b-6242-43bf-ad05-a8c1ee5b086d"},"vehicle_type_id":"4","last_reported":1706475966,"current_range_meters":18800,"station_id":"ce4bh3h2rcd13ifvqdn0","pricing_plan_id":"free"},{"bike_id":"b41bcd76-cb12-4b33-95cd-9444d1e23578","system_id":"levelo_inurba_marseille","lat":43.293556,"lon":5.401561,"is_reserved":false,"is_disabled":false,"rental_uris":{"android":"levelo://app?vid=b41bcd76-cb12-4b33-95cd-9444d1e23578","ios":"levelo://app?vid=b41bcd76-cb12-4b33-95cd-9444d1e23578"},"vehicle_type_id":"4","last_reported":1706475966,"current_range_meters":4800,"station_id":"","pricing_plan_id":"free"},{"bike_id":"73cd8cf0-bed9-43b6-a70f-c3f2d03c695c","system_id":"levelo_inurba_marseille","lat":43.289363,"lon":5.396322,"is_reserved":false,"is_disabled":false,"rental_uris":{"android":"levelo://app?vid=73cd8cf0-bed9-43b6-a70f-c3f2d03c695c","ios":"levelo://app?vid=73cd8cf0-bed9-43b6-a70f-c3f2d03c695c"},"vehicle_type_id":"4","last_reported":1706475966,"current_range_meters":29600,"station_id":"ce4bh3h2rcd13ifvqdn0","pricing_plan_id":"free"},{"bike_id":"6b194da0-0c3f-4d4b-ba95-b65a0f15a69d","system_id":"levelo_inurba_marseille","lat":43.289363,"lon":5.396322,"is_reserved":false,"is_disabled":false,"rental_uris":{"android":"levelo://app?vid=6b194da0-0c3f-4d4b-ba95-b65a0f15a69d","ios":"levelo://app?vid=6b194da0-0c3f-4d4b-ba95-b65a0f15a69d"},"vehicle_type_id":"4","last_reported":1706475966,"current_range_meters":7600,"station_id":"ce4bh3h2rcd13ifvqdn0","pricing_plan_id":"free"},{"bike_id":"e0a59373-33c4-4efe-a037-853241066e76","system_id":"levelo_inurba_marseille","lat":43.289363,"lon":5.396322,"is_reserved":false,"is_disabled":false,"rental_uris":{"android":"levelo://app?vid=e0a59373-33c4-4efe-a037-853241066e76","ios":"levelo://app?vid=e0a59373-33c4-4efe-a037-853241066e76"},"vehicle_type_id":"4","last_reported":1706475966,"current_range_meters":17200,"station_id":"ce4bh3h2rcd13ifvqdn0","pricing_plan_id":"free"},{"bike_id":"6328d1cd-055f-4372-939a-d0684703c4a3","system_id":"levelo_inurba_marseille","lat":43.282203,"lon":5.378932,"is_reserved":false,"is_disabled":false,"rental_uris":{"android":"levelo://app?vid=6328d1cd-055f-4372-939a-d0684703c4a3","ios":"levelo://app?vid=6328d1cd-055f-4372-939a-d0684703c4a3"},"vehicle_type_id":"4","last_reported":1706475966,"current_range_meters":5200,"station_id":"","pricing_plan_id":"free"},{"bike_id":"6d191f29-0d73-4ff1-8c43-c6f61b09ce5e","system_id":"levelo_inurba_marseille","lat":43.33717,"lon":5.391857,"is_reserved":false,"is_disabled":false,"rental_uris":{"android":"levelo://app?vid=6d191f29-0d73-4ff1-8c43-c6f61b09ce5e","ios":"levelo://app?vid=6d191f29-0d73-4ff1-8c43-c6f61b09ce5e"},"vehicle_type_id":"4","last_reported":1706475966,"current_range_meters":24400,"station_id":"ce4bhr92rcd13ifvqhsg","pricing_plan_id":"free"},{"bike_id":"78495cb0-0f15-49dc-9fd3-d8685a3a16e3","system_id":"levelo_inurba_marseille","lat":43.28275,"lon":5.35082,"is_reserved":false,"is_disabled":false,"rental_uris":{"android":"levelo://app?vid=78495cb0-0f15-49dc-9fd3-d8685a3a16e3","ios":"levelo://app?vid=78495cb0-0f15-49dc-9fd3-d8685a3a16e3"},"vehicle_type_id":"4","last_reported":1706475966,"current_range_meters":0,"station_id":"ce4bhbp2rcd13ifvqerg","pricing_plan_id":"free"},{"bike_id":"ebc081b3-d9eb-43e8-9994-accb1a1dd961","system_id":"levelo_inurba_marseille","lat":43.28282,"lon":5.350459,"is_reserved":false,"is_disabled":false,"rental_uris":{"android":"levelo://app?vid=ebc081b3-d9eb-43e8-9994-accb1a1dd961","ios":"levelo://app?vid=ebc081b3-d9eb-43e8-9994-accb1a1dd961"},"vehicle_type_id":"4","last_reported":1706475966,"current_range_meters":16800,"station_id":"ce4bhbp2rcd13ifvqerg","pricing_plan_id":"free"},{"bike_id":"f73ac950-d456-4b2f-9ee5-9f4c6f074981","system_id":"levelo_inurba_marseille","lat":43.282744,"lon":5.350533,"is_reserved":false,"is_disabled":false,"rental_uris":{"android":"levelo://app?vid=f73ac950-d456-4b2f-9ee5-9f4c6f074981","ios":"levelo://app?vid=f73ac950-d456-4b2f-9ee5-9f4c6f074981"},"vehicle_type_id":"4","last_reported":1706475966,"current_range_meters":10000,"station_id":"ce4bhbp2rcd13ifvqerg","pricing_plan_id":"free"},{"bike_id":"691c7b8a-189c-4630-9d44-c5bbbb1e84e9","system_id":"levelo_inurba_marseille","lat":43.28039,"lon":5.369297,"is_reserved":false,"is_disabled":false,"rental_uris":{"android":"levelo://app?vid=691c7b8a-189c-4630-9d44-c5bbbb1e84e9","ios":"levelo://app?vid=691c7b8a-189c-4630-9d44-c5bbbb1e84e9"},"vehicle_type_id":"4","last_reported":1706475966,"current_range_meters":5200,"station_id":"ce4bha12rcd13ifvqef0","pricing_plan_id":"free"},{"bike_id":"a7963451-5119-43fa-bc11-3be522aa835c","system_id":"levelo_inurba_marseille","lat":43.28039,"lon":5.36942,"is_reserved":false,"is_disabled":false,"rental_uris":{"android":"levelo://app?vid=a7963451-5119-43fa-bc11-3be522aa835c","ios":"levelo://app?vid=a7963451-5119-43fa-bc11-3be522aa835c"},"vehicle_type_id":"4","last_reported":1706475966,"current_range_meters":0,"station_id":"ce4bha12rcd13ifvqef0","pricing_plan_id":"free"},{"bike_id":"4daef16f-a81e-4042-ac05-8ea3d1dc7d72","system_id":"levelo_inurba_marseille","lat":43.28039,"lon":5.369297,"is_reserved":false,"is_disabled":false,"rental_uris":{"android":"levelo://app?vid=4daef16f-a81e-4042-ac05-8ea3d1dc7d72","ios":"levelo://app?vid=4daef16f-a81e-4042-ac05-8ea3d1dc7d72"},"vehicle_type_id":"4","last_reported":1706475966,"current_range_meters":19600,"station_id":"ce4bha12rcd13ifvqef0","pricing_plan_id":"free"},{"bike_id":"bf9ed574-e30d-4a10-8da6-63d6e69cd454","system_id":"levelo_inurba_marseille","lat":43.28039,"lon":5.369297,"is_reserved":false,"is_disabled":false,"rental_uris":{"android":"levelo://app?vid=bf9ed574-e30d-4a10-8da6-63d6e69cd454","ios":"levelo://app?vid=bf9ed574-e30d-4a10-8da6-63d6e69cd454"},"vehicle_type_id":"4","last_reported":1706475966,"current_range_meters":27200,"station_id":"ce4bha12rcd13ifvqef0","pricing_plan_id":"free"},{"bike_id":"2d863ebb-b666-44e7-9155-d60af5b5d4c7","system_id":"levelo_inurba_marseille","lat":43.280382,"lon":5.369291,"is_reserved":false,"is_disabled":false,"rental_uris":{"android":"levelo://app?vid=2d863ebb-b666-44e7-9155-d60af5b5d4c7","ios":"levelo://app?vid=2d863ebb-b666-44e7-9155-d60af5b5d4c7"},"vehicle_type_id":"4","last_reported":1706475966,"current_range_meters":17600,"station_id":"ce4bha12rcd13ifvqef0","pricing_plan_id":"free"},{"bike_id":"3b89860e-cf5c-4873-9117-bc1aba8268e7","system_id":"levelo_inurba_marseille","lat":43.290412,"lon":5.399633,"is_reserved":false,"is_disabled":false,"rental_uris":{"android":"levelo://app?vid=3b89860e-cf5c-4873-9117-bc1aba8268e7","ios":"levelo://app?vid=3b89860e-cf5c-4873-9117-bc1aba8268e7"},"vehicle_type_id":"4","last_reported":1706475966,"current_range_meters":6000,"station_id":"ce4bh392rcd13ifvqdm0","pricing_plan_id":"free"},{"bike_id":"47da7d5f-e7a7-4ed1-8223-d7834f37234f","system_id":"levelo_inurba_marseille","lat":43.290412,"lon":5.399633,"is_reserved":false,"is_disabled":false,"rental_uris":{"android":"levelo://app?vid=47da7d5f-e7a7-4ed1-8223-d7834f37234f","ios":"levelo://app?vid=47da7d5f-e7a7-4ed1-8223-d7834f37234f"},"vehicle_type_id":"4","last_reported":1706475966,"current_range_meters":14400,"station_id":"ce4bh392rcd13ifvqdm0","pricing_plan_id":"free"},{"bike_id":"3deb0238-d67a-4e2a-9fc0-e02c13638bb3","system_id":"levelo_inurba_marseille","lat":43.281044,"lon":5.378308,"is_reserved":false,"is_disabled":false,"rental_uris":{"android":"levelo://app?vid=3deb0238-d67a-4e2a-9fc0-e02c13638bb3","ios":"levelo://app?vid=3deb0238-d67a-4e2a-9fc0-e02c13638bb3"},"vehicle_type_id":"4","last_reported":1706475966,"current_range_meters":21600,"station_id":"ce4bha12rcd13ifvqee0","pricing_plan_id":"free"},{"bike_id":"77f0aa6d-f207-4729-8406-f2e8603a9e36","system_id":"levelo_inurba_marseille","lat":43.281044,"lon":5.378308,"is_reserved":false,"is_disabled":false,"rental_uris":{"android":"levelo://app?vid=77f0aa6d-f207-4729-8406-f2e8603a9e36","ios":"levelo://app?vid=77f0aa6d-f207-4729-8406-f2e8603a9e36"},"vehicle_type_id":"4","last_reported":1706475966,"current_range_meters":11600,"station_id":"ce4bha12rcd13ifvqee0","pricing_plan_id":"free"},{"bike_id":"15e1bd66-ab98-423e-9c25-75b4378a8677","system_id":"levelo_inurba_marseille","lat":43.281044,"lon":5.378308,"is_reserved":false,"is_disabled":false,"rental_uris":{"android":"levelo://app?vid=15e1bd66-ab98-423e-9c25-75b4378a8677","ios":"levelo://app?vid=15e1bd66-ab98-423e-9c25-75b4378a8677"},"vehicle_type_id":"4","last_reported":1706475966,"current_range_meters":20800,"station_id":"ce4bha12rcd13ifvqee0","pricing_plan_id":"free"},{"bike_id":"ab3db00c-e8f9-47b9-a334-9ae608f7ecb5","system_id":"levelo_inurba_marseille","lat":43.284462,"lon":5.392121,"is_reserved":false,"is_disabled":false,"rental_uris":{"android":"levelo://app?vid=ab3db00c-e8f9-47b9-a334-9ae608f7ecb5","ios":"levelo://app?vid=ab3db00c-e8f9-47b9-a334-9ae608f7ecb5"},"vehicle_type_id":"4","last_reported":1706475966,"current_range_meters":31200,"station_id":"ce4bhoh2rcd13ifvqh5g","pricing_plan_id":"free"},{"bike_id":"13e8d3dc-27c8-4c6a-b6e9-ce88c6250eac","system_id":"levelo_inurba_marseille","lat":43.284462,"lon":5.392121,"is_reserved":false,"is_disabled":false,"rental_uris":{"android":"levelo://app?vid=13e8d3dc-27c8-4c6a-b6e9-ce88c6250eac","ios":"levelo://app?vid=13e8d3dc-27c8-4c6a-b6e9-ce88c6250eac"},"vehicle_type_id":"4","last_reported":1706475966,"current_range_meters":24400,"station_id":"ce4bhoh2rcd13ifvqh5g","pricing_plan_id":"free"},{"bike_id":"e7746dc2-aa23-4e9f-a773-c6b300fb73a4","system_id":"levelo_inurba_marseille","lat":43.284462,"lon":5.392121,"is_reserved":false,"is_disabled":false,"rental_uris":{"android":"levelo://app?vid=e7746dc2-aa23-4e9f-a773-c6b300fb73a4","ios":"levelo://app?vid=e7746dc2-aa23-4e9f-a773-c6b300fb73a4"},"vehicle_type_id":"4","last_reported":1706475966,"current_range_meters":0,"station_id":"ce4bhoh2rcd13ifvqh5g","pricing_plan_id":"free"},{"bike_id":"58795cb8-9f55-4c41-8cbf-c945205fb07f","system_id":"levelo_inurba_marseille","lat":43.285742,"lon":5.395004,"is_reserved":false,"is_disabled":false,"rental_uris":{"android":"levelo://app?vid=58795cb8-9f55-4c41-8cbf-c945205fb07f","ios":"levelo://app?vid=58795cb8-9f55-4c41-8cbf-c945205fb07f"},"vehicle_type_id":"4","last_reported":1706475966,"current_range_meters":26400,"station_id":"ce4bh292rcd13ifvqdg0","pricing_plan_id":"free"},{"bike_id":"86840ee3-57bd-4a50-a219-2eb64479c971","system_id":"levelo_inurba_marseille","lat":43.28573,"lon":5.394992,"is_reserved":false,"is_disabled":false,"rental_uris":{"android":"levelo://app?vid=86840ee3-57bd-4a50-a219-2eb64479c971","ios":"levelo://app?vid=86840ee3-57bd-4a50-a219-2eb64479c971"},"vehicle_type_id":"4","last_reported":1706475966,"current_range_meters":16800,"station_id":"ce4bh292rcd13ifvqdg0","pricing_plan_id":"free"},{"bike_id":"80966bfb-0318-4e4b-899c-2c9acb98d16b","system_id":"levelo_inurba_marseille","lat":43.28573,"lon":5.394992,"is_reserved":false,"is_disabled":false,"rental_uris":{"android":"levelo://app?vid=80966bfb-0318-4e4b-899c-2c9acb98d16b","ios":"levelo://app?vid=80966bfb-0318-4e4b-899c-2c9acb98d16b"},"vehicle_type_id":"4","last_reported":1706475966,"current_range_meters":29600,"station_id":"ce4bh292rcd13ifvqdg0","pricing_plan_id":"free"},{"bike_id":"ce359fb6-e3d5-45fc-9e26-757bf9375f27","system_id":"levelo_inurba_marseille","lat":43.326605,"lon":5.409903,"is_reserved":false,"is_disabled":false,"rental_uris":{"android":"levelo://app?vid=ce359fb6-e3d5-45fc-9e26-757bf9375f27","ios":"levelo://app?vid=ce359fb6-e3d5-45fc-9e26-757bf9375f27"},"vehicle_type_id":"4","last_reported":1706475966,"current_range_meters":19200,"station_id":"ce4bhpp2rcd13ifvqhgg","pricing_plan_id":"free"},{"bike_id":"490774a6-4917-468e-ac2f-aabcb381f604","system_id":"levelo_inurba_marseille","lat":43.326605,"lon":5.409903,"is_reserved":false,"is_disabled":false,"rental_uris":{"android":"levelo://app?vid=490774a6-4917-468e-ac2f-aabcb381f604","ios":"levelo://app?vid=490774a6-4917-468e-ac2f-aabcb381f604"},"vehicle_type_id":"4","last_reported":1706475966,"current_range_meters":27600,"station_id":"ce4bhpp2rcd13ifvqhgg","pricing_plan_id":"free"},{"bike_id":"1ef7e5cd-4a9d-40ba-94a2-53d89c749181","system_id":"levelo_inurba_marseille","lat":43.326605,"lon":5.409903,"is_reserved":false,"is_disabled":false,"rental_uris":{"android":"levelo://app?vid=1ef7e5cd-4a9d-40ba-94a2-53d89c749181","ios":"levelo://app?vid=1ef7e5cd-4a9d-40ba-94a2-53d89c749181"},"vehicle_type_id":"4","last_reported":1706475966,"current_range_meters":21600,"station_id":"ce4bhpp2rcd13ifvqhgg","pricing_plan_id":"free"},{"bike_id":"722b08f5-682e-4430-9ee2-394f0a9fd64d","system_id":"levelo_inurba_marseille","lat":43.304188,"lon":5.412904,"is_reserved":false,"is_disabled":false,"rental_uris":{"android":"levelo://app?vid=722b08f5-682e-4430-9ee2-394f0a9fd64d","ios":"levelo://app?vid=722b08f5-682e-4430-9ee2-394f0a9fd64d"},"vehicle_type_id":"4","last_reported":1706475966,"current_range_meters":17600,"station_id":"ce4bhop2rcd13ifvqh8g","pricing_plan_id":"free"},{"bike_id":"8e8b0f7d-eaca-4049-b816-4922b13e6b9b","system_id":"levelo_inurba_marseille","lat":43.304188,"lon":5.412904,"is_reserved":false,"is_disabled":false,"rental_uris":{"android":"levelo://app?vid=8e8b0f7d-eaca-4049-b816-4922b13e6b9b","ios":"levelo://app?vid=8e8b0f7d-eaca-4049-b816-4922b13e6b9b"},"vehicle_type_id":"4","last_reported":1706475966,"current_range_meters":6400,"station_id":"ce4bhop2rcd13ifvqh8g","pricing_plan_id":"free"},{"bike_id":"0f971977-9655-49b4-8fff-90052b735471","system_id":"levelo_inurba_marseille","lat":43.279087,"lon":5.380114,"is_reserved":false,"is_disabled":false,"rental_uris":{"android":"levelo://app?vid=0f971977-9655-49b4-8fff-90052b735471","ios":"levelo://app?vid=0f971977-9655-49b4-8fff-90052b735471"},"vehicle_type_id":"4","last_reported":1706475966,"current_range_meters":20400,"station_id":"ce4bhf92rcd13ifvqf50","pricing_plan_id":"free"},{"bike_id":"95bc093d-037b-418c-8ca9-49bf21875fc5","system_id":"levelo_inurba_marseille","lat":43.287154,"lon":5.399979,"is_reserved":false,"is_disabled":false,"rental_uris":{"android":"levelo://app?vid=95bc093d-037b-418c-8ca9-49bf21875fc5","ios":"levelo://app?vid=95bc093d-037b-418c-8ca9-49bf21875fc5"},"vehicle_type_id":"4","last_reported":1706475966,"current_range_meters":5600,"station_id":"ce4bho92rcd13ifvqh3g","pricing_plan_id":"free"},{"bike_id":"239b9a30-29a8-4c5a-8a84-bab33037e6d7","system_id":"levelo_inurba_marseille","lat":43.287154,"lon":5.399979,"is_reserved":false,"is_disabled":false,"rental_uris":{"android":"levelo://app?vid=239b9a30-29a8-4c5a-8a84-bab33037e6d7","ios":"levelo://app?vid=239b9a30-29a8-4c5a-8a84-bab33037e6d7"},"vehicle_type_id":"4","last_reported":1706475966,"current_range_meters":400,"station_id":"ce4bho92rcd13ifvqh3g","pricing_plan_id":"free"},{"bike_id":"79601a51-4f7f-483e-a5f6-fd56cd700e18","system_id":"levelo_inurba_marseille","lat":43.287154,"lon":5.399979,"is_reserved":false,"is_disabled":false,"rental_uris":{"android":"levelo://app?vid=79601a51-4f7f-483e-a5f6-fd56cd700e18","ios":"levelo://app?vid=79601a51-4f7f-483e-a5f6-fd56cd700e18"},"vehicle_type_id":"4","last_reported":1706475966,"current_range_meters":4800,"station_id":"ce4bho92rcd13ifvqh3g","pricing_plan_id":"free"},{"bike_id":"dfb06ae3-4249-465d-948c-d880f180fa89","system_id":"levelo_inurba_marseille","lat":43.287154,"lon":5.399979,"is_reserved":false,"is_disabled":false,"rental_uris":{"android":"levelo://app?vid=dfb06ae3-4249-465d-948c-d880f180fa89","ios":"levelo://app?vid=dfb06ae3-4249-465d-948c-d880f180fa89"},"vehicle_type_id":"4","last_reported":1706475966,"current_range_meters":4800,"station_id":"ce4bho92rcd13ifvqh3g","pricing_plan_id":"free"},{"bike_id":"a539d426-9e55-4e9c-b7bf-13cd28eecf36","system_id":"levelo_inurba_marseille","lat":43.27819,"lon":5.35483,"is_reserved":false,"is_disabled":false,"rental_uris":{"android":"levelo://app?vid=a539d426-9e55-4e9c-b7bf-13cd28eecf36","ios":"levelo://app?vid=a539d426-9e55-4e9c-b7bf-13cd28eecf36"},"vehicle_type_id":"4","last_reported":1706475966,"current_range_meters":7200,"station_id":"","pricing_plan_id":"free"},{"bike_id":"98988e41-8dd4-4155-b789-4213ebda2cf3","system_id":"levelo_inurba_marseille","lat":43.320045,"lon":5.415048,"is_reserved":false,"is_disabled":false,"rental_uris":{"android":"levelo://app?vid=98988e41-8dd4-4155-b789-4213ebda2cf3","ios":"levelo://app?vid=98988e41-8dd4-4155-b789-4213ebda2cf3"},"vehicle_type_id":"4","last_reported":1706475966,"current_range_meters":12800,"station_id":"ce4bhq92rcd13ifvqhkg","pricing_plan_id":"free"},{"bike_id":"7017e366-b0c9-45b7-a223-efe704a7ec82","system_id":"levelo_inurba_marseille","lat":43.27962,"lon":5.38703,"is_reserved":false,"is_disabled":false,"rental_uris":{"android":"levelo://app?vid=7017e366-b0c9-45b7-a223-efe704a7ec82","ios":"levelo://app?vid=7017e366-b0c9-45b7-a223-efe704a7ec82"},"vehicle_type_id":"4","last_reported":1706475966,"current_range_meters":14000,"station_id":"ce4bhg12rcd13ifvqf80","pricing_plan_id":"free"},{"bike_id":"2d65d888-1718-45bd-acd9-e594471f8e29","system_id":"levelo_inurba_marseille","lat":43.279742,"lon":5.38744,"is_reserved":false,"is_disabled":false,"rental_uris":{"android":"levelo://app?vid=2d65d888-1718-45bd-acd9-e594471f8e29","ios":"levelo://app?vid=2d65d888-1718-45bd-acd9-e594471f8e29"},"vehicle_type_id":"4","last_reported":1706475966,"current_range_meters":14000,"station_id":"ce4bhg12rcd13ifvqf80","pricing_plan_id":"free"},{"bike_id":"ceeeca69-91c9-4a0b-a5e2-b2ad06427d0c","system_id":"levelo_inurba_marseille","lat":43.279742,"lon":5.38744,"is_reserved":false,"is_disabled":false,"rental_uris":{"android":"levelo://app?vid=ceeeca69-91c9-4a0b-a5e2-b2ad06427d0c","ios":"levelo://app?vid=ceeeca69-91c9-4a0b-a5e2-b2ad06427d0c"},"vehicle_type_id":"4","last_reported":1706475966,"current_range_meters":19200,"station_id":"ce4bhg12rcd13ifvqf80","pricing_plan_id":"free"},{"bike_id":"0abc37af-af73-40f3-b304-9fc02323df0a","system_id":"levelo_inurba_marseille","lat":43.27953,"lon":5.38712,"is_reserved":false,"is_disabled":false,"rental_uris":{"android":"levelo://app?vid=0abc37af-af73-40f3-b304-9fc02323df0a","ios":"levelo://app?vid=0abc37af-af73-40f3-b304-9fc02323df0a"},"vehicle_type_id":"4","last_reported":1706475966,"current_range_meters":2800,"station_id":"ce4bhg12rcd13ifvqf80","pricing_plan_id":"free"},{"bike_id":"80fcbb00-f8e9-4fbe-9014-8413c7de3626","system_id":"levelo_inurba_marseille","lat":43.27951,"lon":5.38707,"is_reserved":false,"is_disabled":false,"rental_uris":{"android":"levelo://app?vid=80fcbb00-f8e9-4fbe-9014-8413c7de3626","ios":"levelo://app?vid=80fcbb00-f8e9-4fbe-9014-8413c7de3626"},"vehicle_type_id":"4","last_reported":1706475966,"current_range_meters":1600,"station_id":"ce4bhg12rcd13ifvqf80","pricing_plan_id":"free"},{"bike_id":"a0bd25c2-322c-4a84-b75b-cd0de32a6a68","system_id":"levelo_inurba_marseille","lat":43.292569,"lon":5.409107,"is_reserved":false,"is_disabled":false,"rental_uris":{"android":"levelo://app?vid=a0bd25c2-322c-4a84-b75b-cd0de32a6a68","ios":"levelo://app?vid=a0bd25c2-322c-4a84-b75b-cd0de32a6a68"},"vehicle_type_id":"4","last_reported":1706475966,"current_range_meters":13600,"station_id":"ce4bh192rcd13ifvqdc0","pricing_plan_id":"free"},{"bike_id":"2dbeabfb-1a62-4ec5-9de2-64d668fb16ba","system_id":"levelo_inurba_marseille","lat":43.292569,"lon":5.409107,"is_reserved":false,"is_disabled":false,"rental_uris":{"android":"levelo://app?vid=2dbeabfb-1a62-4ec5-9de2-64d668fb16ba","ios":"levelo://app?vid=2dbeabfb-1a62-4ec5-9de2-64d668fb16ba"},"vehicle_type_id":"4","last_reported":1706475966,"current_range_meters":9200,"station_id":"ce4bh192rcd13ifvqdc0","pricing_plan_id":"free"},{"bike_id":"e60bfe4e-5838-4ce7-8471-26b3c4c9df5d","system_id":"levelo_inurba_marseille","lat":43.292569,"lon":5.409107,"is_reserved":false,"is_disabled":false,"rental_uris":{"android":"levelo://app?vid=e60bfe4e-5838-4ce7-8471-26b3c4c9df5d","ios":"levelo://app?vid=e60bfe4e-5838-4ce7-8471-26b3c4c9df5d"},"vehicle_type_id":"4","last_reported":1706475966,"current_range_meters":28800,"station_id":"ce4bh192rcd13ifvqdc0","pricing_plan_id":"free"},{"bike_id":"c7ff393f-b210-44aa-b6a8-8df578cda838","system_id":"levelo_inurba_marseille","lat":43.325233,"lon":5.414318,"is_reserved":false,"is_disabled":false,"rental_uris":{"android":"levelo://app?vid=c7ff393f-b210-44aa-b6a8-8df578cda838","ios":"levelo://app?vid=c7ff393f-b210-44aa-b6a8-8df578cda838"},"vehicle_type_id":"4","last_reported":1706475966,"current_range_meters":17600,"station_id":"ce4bhq12rcd13ifvqhhg","pricing_plan_id":"free"},{"bike_id":"a41ae808-4eee-4985-bc8a-d09a9154c012","system_id":"levelo_inurba_marseille","lat":43.325233,"lon":5.414318,"is_reserved":false,"is_disabled":false,"rental_uris":{"android":"levelo://app?vid=a41ae808-4eee-4985-bc8a-d09a9154c012","ios":"levelo://app?vid=a41ae808-4eee-4985-bc8a-d09a9154c012"},"vehicle_type_id":"4","last_reported":1706475966,"current_range_meters":22000,"station_id":"ce4bhq12rcd13ifvqhhg","pricing_plan_id":"free"},{"bike_id":"e7218d62-7ac0-49da-8e89-131756f5795c","system_id":"levelo_inurba_marseille","lat":43.303837,"lon":5.418724,"is_reserved":false,"is_disabled":false,"rental_uris":{"android":"levelo://app?vid=e7218d62-7ac0-49da-8e89-131756f5795c","ios":"levelo://app?vid=e7218d62-7ac0-49da-8e89-131756f5795c"},"vehicle_type_id":"4","last_reported":1706475966,"current_range_meters":26400,"station_id":"ce4bhop2rcd13ifvqh7g","pricing_plan_id":"free"},{"bike_id":"7dd58b13-e97f-49f5-b40f-29d7542e0ff8","system_id":"levelo_inurba_marseille","lat":43.303837,"lon":5.418724,"is_reserved":false,"is_disabled":false,"rental_uris":{"android":"levelo://app?vid=7dd58b13-e97f-49f5-b40f-29d7542e0ff8","ios":"levelo://app?vid=7dd58b13-e97f-49f5-b40f-29d7542e0ff8"},"vehicle_type_id":"4","last_reported":1706475966,"current_range_meters":26800,"station_id":"ce4bhop2rcd13ifvqh7g","pricing_plan_id":"free"},{"bike_id":"a9576881-b7e4-4e81-a428-0c5373c19611","system_id":"levelo_inurba_marseille","lat":43.278401,"lon":5.392152,"is_reserved":false,"is_disabled":false,"rental_uris":{"android":"levelo://app?vid=a9576881-b7e4-4e81-a428-0c5373c19611","ios":"levelo://app?vid=a9576881-b7e4-4e81-a428-0c5373c19611"},"vehicle_type_id":"4","last_reported":1706475966,"current_range_meters":12400,"station_id":"ce4bhjp2rcd13ifvqga0","pricing_plan_id":"free"},{"bike_id":"a89f83d3-c110-405c-9112-d0bb3f460d18","system_id":"levelo_inurba_marseille","lat":43.278401,"lon":5.392152,"is_reserved":false,"is_disabled":false,"rental_uris":{"android":"levelo://app?vid=a89f83d3-c110-405c-9112-d0bb3f460d18","ios":"levelo://app?vid=a89f83d3-c110-405c-9112-d0bb3f460d18"},"vehicle_type_id":"4","last_reported":1706475966,"current_range_meters":31200,"station_id":"ce4bhjp2rcd13ifvqga0","pricing_plan_id":"free"},{"bike_id":"143aac9d-d5e8-4d21-bc2a-0a3a63c765c0","system_id":"levelo_inurba_marseille","lat":43.27825,"lon":5.39206,"is_reserved":false,"is_disabled":false,"rental_uris":{"android":"levelo://app?vid=143aac9d-d5e8-4d21-bc2a-0a3a63c765c0","ios":"levelo://app?vid=143aac9d-d5e8-4d21-bc2a-0a3a63c765c0"},"vehicle_type_id":"4","last_reported":1706475966,"current_range_meters":3600,"station_id":"ce4bhjp2rcd13ifvqga0","pricing_plan_id":"free"},{"bike_id":"79f8c5da-85bb-4676-a3dd-562af7ae639c","system_id":"levelo_inurba_marseille","lat":43.278401,"lon":5.392152,"is_reserved":false,"is_disabled":false,"rental_uris":{"android":"levelo://app?vid=79f8c5da-85bb-4676-a3dd-562af7ae639c","ios":"levelo://app?vid=79f8c5da-85bb-4676-a3dd-562af7ae639c"},"vehicle_type_id":"4","last_reported":1706475966,"current_range_meters":15200,"station_id":"ce4bhjp2rcd13ifvqga0","pricing_plan_id":"free"},{"bike_id":"e18ffe0e-2b9b-43f8-8865-cc49ffbed68c","system_id":"levelo_inurba_marseille","lat":43.275695,"lon":5.384169,"is_reserved":false,"is_disabled":false,"rental_uris":{"android":"levelo://app?vid=e18ffe0e-2b9b-43f8-8865-cc49ffbed68c","ios":"levelo://app?vid=e18ffe0e-2b9b-43f8-8865-cc49ffbed68c"},