{"last_updated":1775086002,"ttl":60,"version":"2.2","data":{"bikes":[{"bike_id":"e5a7a53a-b267-4440-9c9f-66f6b2ca226b","system_id":"levelo_inurba_marseille","lat":43.29602,"lon":5.37193,"is_reserved":false,"is_disabled":false,"rental_uris":{"android":"levelo://app?vid=e5a7a53a-b267-4440-9c9f-66f6b2ca226b","ios":"levelo://app?vid=e5a7a53a-b267-4440-9c9f-66f6b2ca226b"},"vehicle_type_id":"4","last_reported":1775086002,"current_range_meters":2800,"station_id":"ce4bgnh2rcd13ifvqc0g","pricing_plan_id":"cebpf4jnsgd1na2vs0mg"},{"bike_id":"5dba4bdd-93b6-4491-b949-a13f9d1b54cf","system_id":"levelo_inurba_marseille","lat":43.26214,"lon":5.37432,"is_reserved":false,"is_disabled":false,"rental_uris":{"android":"levelo://app?vid=5dba4bdd-93b6-4491-b949-a13f9d1b54cf","ios":"levelo://app?vid=5dba4bdd-93b6-4491-b949-a13f9d1b54cf"},"vehicle_type_id":"4","last_reported":1775086002,"current_range_meters":2800,"station_id":"ce4bhgp2rcd13ifvqfc0","pricing_plan_id":"cebpf4jnsgd1na2vs0mg"},{"bike_id":"ebd562eb-3b59-4adc-b0ae-a382caf22005","system_id":"levelo_inurba_marseille","lat":43.28214,"lon":5.39041,"is_reserved":false,"is_disabled":false,"rental_uris":{"android":"levelo://app?vid=ebd562eb-3b59-4adc-b0ae-a382caf22005","ios":"levelo://app?vid=ebd562eb-3b59-4adc-b0ae-a382caf22005"},"vehicle_type_id":"4","last_reported":1775086002,"current_range_meters":2800,"station_id":"ce4bhn92rcd13ifvqgsg","pricing_plan_id":"cebpf4jnsgd1na2vs0mg"},{"bike_id":"15e159ca-4e0f-43f8-982d-c16dab56bef0","system_id":"levelo_inurba_marseille","lat":43.23971,"lon":5.36613,"is_reserved":false,"is_disabled":false,"rental_uris":{"android":"levelo://app?vid=15e159ca-4e0f-43f8-982d-c16dab56bef0","ios":"levelo://app?vid=15e159ca-4e0f-43f8-982d-c16dab56bef0"},"vehicle_type_id":"4","last_reported":1775086002,"current_range_meters":2800,"station_id":"ce4bhi12rcd13ifvqfp0","pricing_plan_id":"cebpf4jnsgd1na2vs0mg"},{"bike_id":"35d4612e-9efd-4395-b953-2854436e852f","system_id":"levelo_inurba_marseille","lat":43.28614,"lon":5.37759,"is_reserved":false,"is_disabled":true,"rental_uris":{"android":"levelo://app?vid=35d4612e-9efd-4395-b953-2854436e852f","ios":"levelo://app?vid=35d4612e-9efd-4395-b953-2854436e852f"},"vehicle_type_id":"4","last_reported":1775086002,"current_range_meters":2800,"station_id":"","pricing_plan_id":"cebpf4jnsgd1na2vs0mg"},{"bike_id":"43ecb730-4f2d-42f6-b4b6-05ed9bc91d2f","system_id":"levelo_inurba_marseille","lat":43.2439,"lon":5.37051,"is_reserved":false,"is_disabled":false,"rental_uris":{"android":"levelo://app?vid=43ecb730-4f2d-42f6-b4b6-05ed9bc91d2f","ios":"levelo://app?vid=43ecb730-4f2d-42f6-b4b6-05ed9bc91d2f"},"vehicle_type_id":"4","last_reported":1775086002,"current_range_meters":2800,"station_id":"ce4bhhh2rcd13ifvqfk0","pricing_plan_id":"cebpf4jnsgd1na2vs0mg"},{"bike_id":"8f91e520-04da-4378-b78f-cc59291ee14a","system_id":"levelo_inurba_marseille","lat":43.25,"lon":5.38934,"is_reserved":false,"is_disabled":false,"rental_uris":{"android":"levelo://app?vid=8f91e520-04da-4378-b78f-cc59291ee14a","ios":"levelo://app?vid=8f91e520-04da-4378-b78f-cc59291ee14a"},"vehicle_type_id":"4","last_reported":1775086002,"current_range_meters":2800,"station_id":"ce4bhgp2rcd13ifvqfd0","pricing_plan_id":"cebpf4jnsgd1na2vs0mg"},{"bike_id":"ce9a52bc-d8e1-4113-ac35-374bf198b5b6","system_id":"levelo_inurba_marseille","lat":43.28157,"lon":5.42642,"is_reserved":false,"is_disabled":false,"rental_uris":{"android":"levelo://app?vid=ce9a52bc-d8e1-4113-ac35-374bf198b5b6","ios":"levelo://app?vid=ce9a52bc-d8e1-4113-ac35-374bf198b5b6"},"vehicle_type_id":"4","last_reported":1775086002,"current_range_meters":2800,"station_id":"ce4bhnh2rcd13ifvqgug","pricing_plan_id":"cebpf4jnsgd1na2vs0mg"},{"bike_id":"bb0d11db-19ae-4f1c-8146-45d8cf0530f7","system_id":"levelo_inurba_marseille","lat":43.337444,"lon":5.374475,"is_reserved":false,"is_disabled":true,"rental_uris":{"android":"levelo://app?vid=bb0d11db-19ae-4f1c-8146-45d8cf0530f7","ios":"levelo://app?vid=bb0d11db-19ae-4f1c-8146-45d8cf0530f7"},"vehicle_type_id":"4","last_reported":1775086002,"current_range_meters":2800,"station_id":"","pricing_plan_id":"cebpf4jnsgd1na2vs0mg"},{"bike_id":"4018d5cf-dc47-46a5-b9ec-0f570c406b91","system_id":"levelo_inurba_marseille","lat":43.33542,"lon":5.35783,"is_reserved":false,"is_disabled":false,"rental_uris":{"android":"levelo://app?vid=4018d5cf-dc47-46a5-b9ec-0f570c406b91","ios":"levelo://app?vid=4018d5cf-dc47-46a5-b9ec-0f570c406b91"},"vehicle_type_id":"4","last_reported":1775086002,"current_range_meters":3200,"station_id":"","pricing_plan_id":"cebpf4jnsgd1na2vs0mg"},{"bike_id":"a7eb8419-c9e3-4eea-bba3-30f7b0c4513a","system_id":"levelo_inurba_marseille","lat":43.28935,"lon":5.36416,"is_reserved":false,"is_disabled":false,"rental_uris":{"android":"levelo://app?vid=a7eb8419-c9e3-4eea-bba3-30f7b0c4513a","ios":"levelo://app?vid=a7eb8419-c9e3-4eea-bba3-30f7b0c4513a"},"vehicle_type_id":"4","last_reported":1775086002,"current_range_meters":3200,"station_id":"ce4bhc92rcd13ifvqetg","pricing_plan_id":"cebpf4jnsgd1na2vs0mg"},{"bike_id":"6e024bea-ccb7-4307-aa62-132c9ee30351","system_id":"levelo_inurba_marseille","lat":43.25482,"lon":5.3765,"is_reserved":false,"is_disabled":false,"rental_uris":{"android":"levelo://app?vid=6e024bea-ccb7-4307-aa62-132c9ee30351","ios":"levelo://app?vid=6e024bea-ccb7-4307-aa62-132c9ee30351"},"vehicle_type_id":"4","last_reported":1775086002,"current_range_meters":3200,"station_id":"ce4bhh12rcd13ifvqff0","pricing_plan_id":"cebpf4jnsgd1na2vs0mg"},{"bike_id":"435393ff-9e8e-4fa2-82a4-6ce12bbccbed","system_id":"levelo_inurba_marseille","lat":43.28473,"lon":5.48396,"is_reserved":false,"is_disabled":false,"rental_uris":{"android":"levelo://app?vid=435393ff-9e8e-4fa2-82a4-6ce12bbccbed","ios":"levelo://app?vid=435393ff-9e8e-4fa2-82a4-6ce12bbccbed"},"vehicle_type_id":"4","last_reported":1775086002,"current_range_meters":3200,"station_id":"st_d3svhcjqgbts73a3dn0g","pricing_plan_id":"cebpf4jnsgd1na2vs0mg"},{"bike_id":"9c1440ce-c955-43db-9800-7794805da744","system_id":"levelo_inurba_marseille","lat":43.23957,"lon":5.36602,"is_reserved":false,"is_disabled":false,"rental_uris":{"android":"levelo://app?vid=9c1440ce-c955-43db-9800-7794805da744","ios":"levelo://app?vid=9c1440ce-c955-43db-9800-7794805da744"},"vehicle_type_id":"4","last_reported":1775086002,"current_range_meters":3200,"station_id":"ce4bhi12rcd13ifvqfp0","pricing_plan_id":"cebpf4jnsgd1na2vs0mg"},{"bike_id":"b1e9f130-d8ae-4858-bc10-b368a2ad0d85","system_id":"levelo_inurba_marseille","lat":43.28484,"lon":5.48385,"is_reserved":false,"is_disabled":false,"rental_uris":{"android":"levelo://app?vid=b1e9f130-d8ae-4858-bc10-b368a2ad0d85","ios":"levelo://app?vid=b1e9f130-d8ae-4858-bc10-b368a2ad0d85"},"vehicle_type_id":"4","last_reported":1775086002,"current_range_meters":3200,"station_id":"st_d3svhcjqgbts73a3dn0g","pricing_plan_id":"cebpf4jnsgd1na2vs0mg"},{"bike_id":"b53f224e-5c2b-47b3-a19b-0c6884245c31","system_id":"levelo_inurba_marseille","lat":43.23965,"lon":5.36628,"is_reserved":false,"is_disabled":false,"rental_uris":{"android":"levelo://app?vid=b53f224e-5c2b-47b3-a19b-0c6884245c31","ios":"levelo://app?vid=b53f224e-5c2b-47b3-a19b-0c6884245c31"},"vehicle_type_id":"4","last_reported":1775086002,"current_range_meters":3200,"station_id":"ce4bhi12rcd13ifvqfp0","pricing_plan_id":"cebpf4jnsgd1na2vs0mg"},{"bike_id":"a5b21948-fcb5-4ade-bce3-37cd3c403d4c","system_id":"levelo_inurba_marseille","lat":43.23084,"lon":5.3546,"is_reserved":false,"is_disabled":false,"rental_uris":{"android":"levelo://app?vid=a5b21948-fcb5-4ade-bce3-37cd3c403d4c","ios":"levelo://app?vid=a5b21948-fcb5-4ade-bce3-37cd3c403d4c"},"vehicle_type_id":"4","last_reported":1775086002,"current_range_meters":3200,"station_id":"cpo3342slgdg3j2ifvpg","pricing_plan_id":"cebpf4jnsgd1na2vs0mg"},{"bike_id":"ae252984-33f9-4582-8e8a-f420930221a8","system_id":"levelo_inurba_marseille","lat":43.29533,"lon":5.38656,"is_reserved":false,"is_disabled":false,"rental_uris":{"android":"levelo://app?vid=ae252984-33f9-4582-8e8a-f420930221a8","ios":"levelo://app?vid=ae252984-33f9-4582-8e8a-f420930221a8"},"vehicle_type_id":"4","last_reported":1775086002,"current_range_meters":3200,"station_id":"","pricing_plan_id":"cebpf4jnsgd1na2vs0mg"},{"bike_id":"074ae574-3509-4520-a46c-d5657381ee39","system_id":"levelo_inurba_marseille","lat":43.28711,"lon":5.39982,"is_reserved":false,"is_disabled":false,"rental_uris":{"android":"levelo://app?vid=074ae574-3509-4520-a46c-d5657381ee39","ios":"levelo://app?vid=074ae574-3509-4520-a46c-d5657381ee39"},"vehicle_type_id":"4","last_reported":1775086002,"current_range_meters":3200,"station_id":"ce4bho92rcd13ifvqh3g","pricing_plan_id":"cebpf4jnsgd1na2vs0mg"},{"bike_id":"44f9d2b5-878b-45f7-83f0-9fe3de8ddc6b","system_id":"levelo_inurba_marseille","lat":43.30677,"lon":5.36574,"is_reserved":false,"is_disabled":false,"rental_uris":{"android":"levelo://app?vid=44f9d2b5-878b-45f7-83f0-9fe3de8ddc6b","ios":"levelo://app?vid=44f9d2b5-878b-45f7-83f0-9fe3de8ddc6b"},"vehicle_type_id":"4","last_reported":1775086002,"current_range_meters":3200,"station_id":"","pricing_plan_id":"cebpf4jnsgd1na2vs0mg"},{"bike_id":"34c731cd-d382-4ac8-97c6-223d57fd2015","system_id":"levelo_inurba_marseille","lat":43.23963,"lon":5.36623,"is_reserved":false,"is_disabled":false,"rental_uris":{"android":"levelo://app?vid=34c731cd-d382-4ac8-97c6-223d57fd2015","ios":"levelo://app?vid=34c731cd-d382-4ac8-97c6-223d57fd2015"},"vehicle_type_id":"4","last_reported":1775086002,"current_range_meters":3200,"station_id":"ce4bhi12rcd13ifvqfp0","pricing_plan_id":"cebpf4jnsgd1na2vs0mg"},{"bike_id":"b1d02504-2c4f-47d1-9d0a-aa3599012e9a","system_id":"levelo_inurba_marseille","lat":43.26817,"lon":5.40241,"is_reserved":false,"is_disabled":false,"rental_uris":{"android":"levelo://app?vid=b1d02504-2c4f-47d1-9d0a-aa3599012e9a","ios":"levelo://app?vid=b1d02504-2c4f-47d1-9d0a-aa3599012e9a"},"vehicle_type_id":"4","last_reported":1775086002,"current_range_meters":3200,"station_id":"ce501612rcd8frsf0b60","pricing_plan_id":"cebpf4jnsgd1na2vs0mg"},{"bike_id":"b30474c6-10d5-47a6-9acc-a4af281f9552","system_id":"levelo_inurba_marseille","lat":43.24375,"lon":5.37067,"is_reserved":false,"is_disabled":false,"rental_uris":{"android":"levelo://app?vid=b30474c6-10d5-47a6-9acc-a4af281f9552","ios":"levelo://app?vid=b30474c6-10d5-47a6-9acc-a4af281f9552"},"vehicle_type_id":"4","last_reported":1775086002,"current_range_meters":3200,"station_id":"ce4bhhh2rcd13ifvqfk0","pricing_plan_id":"cebpf4jnsgd1na2vs0mg"},{"bike_id":"43e4bb96-0cd3-4e42-baf5-dd0ee842f69a","system_id":"levelo_inurba_marseille","lat":43.2379,"lon":5.36631,"is_reserved":false,"is_disabled":false,"rental_uris":{"android":"levelo://app?vid=43e4bb96-0cd3-4e42-baf5-dd0ee842f69a","ios":"levelo://app?vid=43e4bb96-0cd3-4e42-baf5-dd0ee842f69a"},"vehicle_type_id":"4","last_reported":1775086002,"current_range_meters":3200,"station_id":"st_d3nk18o9ro0c73en2l3g","pricing_plan_id":"cebpf4jnsgd1na2vs0mg"},{"bike_id":"35840bb7-0c07-4b18-a489-20d10fb97fb3","system_id":"levelo_inurba_marseille","lat":43.29378,"lon":5.36301,"is_reserved":false,"is_disabled":false,"rental_uris":{"android":"levelo://app?vid=35840bb7-0c07-4b18-a489-20d10fb97fb3","ios":"levelo://app?vid=35840bb7-0c07-4b18-a489-20d10fb97fb3"},"vehicle_type_id":"4","last_reported":1775086002,"current_range_meters":3200,"station_id":"","pricing_plan_id":"cebpf4jnsgd1na2vs0mg"},{"bike_id":"f56d7445-00a0-462a-9cac-ec053ad4a04e","system_id":"levelo_inurba_marseille","lat":43.31519,"lon":5.3806,"is_reserved":false,"is_disabled":true,"rental_uris":{"android":"levelo://app?vid=f56d7445-00a0-462a-9cac-ec053ad4a04e","ios":"levelo://app?vid=f56d7445-00a0-462a-9cac-ec053ad4a04e"},"vehicle_type_id":"4","last_reported":1775086002,"current_range_meters":3600,"station_id":"ce4bhsp2rcd13ifvqi50","pricing_plan_id":"cebpf4jnsgd1na2vs0mg"},{"bike_id":"dfb946ce-fedb-4e12-8519-cb8fb15a5c14","system_id":"levelo_inurba_marseille","lat":43.24127,"lon":5.36395,"is_reserved":false,"is_disabled":false,"rental_uris":{"android":"levelo://app?vid=dfb946ce-fedb-4e12-8519-cb8fb15a5c14","ios":"levelo://app?vid=dfb946ce-fedb-4e12-8519-cb8fb15a5c14"},"vehicle_type_id":"4","last_reported":1775086002,"current_range_meters":3600,"station_id":"cpo36qri1sfpv3e86is0","pricing_plan_id":"cebpf4jnsgd1na2vs0mg"},{"bike_id":"a20f850c-d4ca-4157-bd3f-18fda064d36f","system_id":"levelo_inurba_marseille","lat":43.29529,"lon":5.38657,"is_reserved":false,"is_disabled":false,"rental_uris":{"android":"levelo://app?vid=a20f850c-d4ca-4157-bd3f-18fda064d36f","ios":"levelo://app?vid=a20f850c-d4ca-4157-bd3f-18fda064d36f"},"vehicle_type_id":"4","last_reported":1775086002,"current_range_meters":3600,"station_id":"","pricing_plan_id":"cebpf4jnsgd1na2vs0mg"},{"bike_id":"54b32ec7-ddfd-41e6-ae23-087da91e8924","system_id":"levelo_inurba_marseille","lat":43.298979,"lon":5.436833,"is_reserved":false,"is_disabled":false,"rental_uris":{"android":"levelo://app?vid=54b32ec7-ddfd-41e6-ae23-087da91e8924","ios":"levelo://app?vid=54b32ec7-ddfd-41e6-ae23-087da91e8924"},"vehicle_type_id":"4","last_reported":1775086002,"current_range_meters":3600,"station_id":"ce4bhpp2rcd13ifvqhfg","pricing_plan_id":"cebpf4jnsgd1na2vs0mg"},{"bike_id":"302044d9-efd3-42f5-afd0-0d732bae4969","system_id":"levelo_inurba_marseille","lat":43.29438,"lon":5.37671,"is_reserved":false,"is_disabled":false,"rental_uris":{"android":"levelo://app?vid=302044d9-efd3-42f5-afd0-0d732bae4969","ios":"levelo://app?vid=302044d9-efd3-42f5-afd0-0d732bae4969"},"vehicle_type_id":"4","last_reported":1775086002,"current_range_meters":3600,"station_id":"","pricing_plan_id":"cebpf4jnsgd1na2vs0mg"},{"bike_id":"579d41f0-9902-4877-b26f-92aba00f93ef","system_id":"levelo_inurba_marseille","lat":43.30819,"lon":5.38133,"is_reserved":false,"is_disabled":false,"rental_uris":{"android":"levelo://app?vid=579d41f0-9902-4877-b26f-92aba00f93ef","ios":"levelo://app?vid=579d41f0-9902-4877-b26f-92aba00f93ef"},"vehicle_type_id":"4","last_reported":1775086002,"current_range_meters":3600,"station_id":"ce4bgt12rcd13ifvqce0","pricing_plan_id":"cebpf4jnsgd1na2vs0mg"},{"bike_id":"1130d409-34d2-42ba-a5d5-ed99d6325005","system_id":"levelo_inurba_marseille","lat":43.21755,"lon":5.34592,"is_reserved":false,"is_disabled":false,"rental_uris":{"android":"levelo://app?vid=1130d409-34d2-42ba-a5d5-ed99d6325005","ios":"levelo://app?vid=1130d409-34d2-42ba-a5d5-ed99d6325005"},"vehicle_type_id":"4","last_reported":1775086002,"current_range_meters":3600,"station_id":"st_cvj6r9ubvosntc0bgbag","pricing_plan_id":"cebpf4jnsgd1na2vs0mg"},{"bike_id":"b558b70f-264f-434c-bd78-58660b356cb8","system_id":"levelo_inurba_marseille","lat":43.31396,"lon":5.38497,"is_reserved":false,"is_disabled":false,"rental_uris":{"android":"levelo://app?vid=b558b70f-264f-434c-bd78-58660b356cb8","ios":"levelo://app?vid=b558b70f-264f-434c-bd78-58660b356cb8"},"vehicle_type_id":"4","last_reported":1775086002,"current_range_meters":3600,"station_id":"ce4bgt92rcd13ifvqcf0","pricing_plan_id":"cebpf4jnsgd1na2vs0mg"},{"bike_id":"8832c9e7-9979-4115-bf31-880525955591","system_id":"levelo_inurba_marseille","lat":43.31357,"lon":5.36686,"is_reserved":false,"is_disabled":false,"rental_uris":{"android":"levelo://app?vid=8832c9e7-9979-4115-bf31-880525955591","ios":"levelo://app?vid=8832c9e7-9979-4115-bf31-880525955591"},"vehicle_type_id":"4","last_reported":1775086002,"current_range_meters":3600,"station_id":"ce4bgr92rcd13ifvqc6g","pricing_plan_id":"cebpf4jnsgd1na2vs0mg"},{"bike_id":"cf450e1b-8aa1-4d78-ac0a-8df926f4f821","system_id":"levelo_inurba_marseille","lat":43.24398,"lon":5.37042,"is_reserved":false,"is_disabled":false,"rental_uris":{"android":"levelo://app?vid=cf450e1b-8aa1-4d78-ac0a-8df926f4f821","ios":"levelo://app?vid=cf450e1b-8aa1-4d78-ac0a-8df926f4f821"},"vehicle_type_id":"4","last_reported":1775086002,"current_range_meters":3600,"station_id":"ce4bhhh2rcd13ifvqfk0","pricing_plan_id":"cebpf4jnsgd1na2vs0mg"},{"bike_id":"12d8a4c8-d769-4065-ac37-ef3fa504bbed","system_id":"levelo_inurba_marseille","lat":43.31357,"lon":5.38503,"is_reserved":false,"is_disabled":true,"rental_uris":{"android":"levelo://app?vid=12d8a4c8-d769-4065-ac37-ef3fa504bbed","ios":"levelo://app?vid=12d8a4c8-d769-4065-ac37-ef3fa504bbed"},"vehicle_type_id":"4","last_reported":1775086002,"current_range_meters":3600,"station_id":"ce4bgt92rcd13ifvqcf0","pricing_plan_id":"cebpf4jnsgd1na2vs0mg"},{"bike_id":"39162f32-f8af-4da2-8946-925b07a1acd1","system_id":"levelo_inurba_marseille","lat":43.23847,"lon":5.41329,"is_reserved":false,"is_disabled":false,"rental_uris":{"android":"levelo://app?vid=39162f32-f8af-4da2-8946-925b07a1acd1","ios":"levelo://app?vid=39162f32-f8af-4da2-8946-925b07a1acd1"},"vehicle_type_id":"4","last_reported":1775086002,"current_range_meters":3600,"station_id":"","pricing_plan_id":"cebpf4jnsgd1na2vs0mg"},{"bike_id":"82ef25fe-ced1-4b2f-9f5f-f3e9366b70f0","system_id":"levelo_inurba_marseille","lat":43.28478,"lon":5.48393,"is_reserved":false,"is_disabled":false,"rental_uris":{"android":"levelo://app?vid=82ef25fe-ced1-4b2f-9f5f-f3e9366b70f0","ios":"levelo://app?vid=82ef25fe-ced1-4b2f-9f5f-f3e9366b70f0"},"vehicle_type_id":"4","last_reported":1775086002,"current_range_meters":3600,"station_id":"st_d3svhcjqgbts73a3dn0g","pricing_plan_id":"cebpf4jnsgd1na2vs0mg"},{"bike_id":"14556f59-bf8f-4e46-a11b-7f843b297cb4","system_id":"levelo_inurba_marseille","lat":43.22547,"lon":5.34832,"is_reserved":false,"is_disabled":false,"rental_uris":{"android":"levelo://app?vid=14556f59-bf8f-4e46-a11b-7f843b297cb4","ios":"levelo://app?vid=14556f59-bf8f-4e46-a11b-7f843b297cb4"},"vehicle_type_id":"4","last_reported":1775086002,"current_range_meters":3600,"station_id":"st_cvj5dfep6f1abm77gieg","pricing_plan_id":"cebpf4jnsgd1na2vs0mg"},{"bike_id":"fbb75834-f22e-4b0c-a13f-b3782403aa38","system_id":"levelo_inurba_marseille","lat":43.23959,"lon":5.36616,"is_reserved":false,"is_disabled":false,"rental_uris":{"android":"levelo://app?vid=fbb75834-f22e-4b0c-a13f-b3782403aa38","ios":"levelo://app?vid=fbb75834-f22e-4b0c-a13f-b3782403aa38"},"vehicle_type_id":"4","last_reported":1775086002,"current_range_meters":3600,"station_id":"ce4bhi12rcd13ifvqfp0","pricing_plan_id":"cebpf4jnsgd1na2vs0mg"},{"bike_id":"1c4a02c1-4a22-4a5a-a048-e3a4458151e2","system_id":"levelo_inurba_marseille","lat":43.24999,"lon":5.38903,"is_reserved":false,"is_disabled":false,"rental_uris":{"android":"levelo://app?vid=1c4a02c1-4a22-4a5a-a048-e3a4458151e2","ios":"levelo://app?vid=1c4a02c1-4a22-4a5a-a048-e3a4458151e2"},"vehicle_type_id":"4","last_reported":1775086002,"current_range_meters":3600,"station_id":"ce4bhgp2rcd13ifvqfd0","pricing_plan_id":"cebpf4jnsgd1na2vs0mg"},{"bike_id":"437e69ca-aec6-4e88-bbcd-4cfa901819a2","system_id":"levelo_inurba_marseille","lat":43.25018,"lon":5.38925,"is_reserved":false,"is_disabled":false,"rental_uris":{"android":"levelo://app?vid=437e69ca-aec6-4e88-bbcd-4cfa901819a2","ios":"levelo://app?vid=437e69ca-aec6-4e88-bbcd-4cfa901819a2"},"vehicle_type_id":"4","last_reported":1775086002,"current_range_meters":3600,"station_id":"ce4bhgp2rcd13ifvqfd0","pricing_plan_id":"cebpf4jnsgd1na2vs0mg"},{"bike_id":"f16b5cd3-bbc5-4be5-8171-95842c0cc8e5","system_id":"levelo_inurba_marseille","lat":43.26682,"lon":5.3828,"is_reserved":false,"is_disabled":false,"rental_uris":{"android":"levelo://app?vid=f16b5cd3-bbc5-4be5-8171-95842c0cc8e5","ios":"levelo://app?vid=f16b5cd3-bbc5-4be5-8171-95842c0cc8e5"},"vehicle_type_id":"4","last_reported":1775086002,"current_range_meters":3600,"station_id":"ce4bhg92rcd13ifvqf90","pricing_plan_id":"cebpf4jnsgd1na2vs0mg"},{"bike_id":"4968c8d6-d27c-43b3-a427-f9283df91015","system_id":"levelo_inurba_marseille","lat":43.28734,"lon":5.36071,"is_reserved":false,"is_disabled":false,"rental_uris":{"android":"levelo://app?vid=4968c8d6-d27c-43b3-a427-f9283df91015","ios":"levelo://app?vid=4968c8d6-d27c-43b3-a427-f9283df91015"},"vehicle_type_id":"4","last_reported":1775086002,"current_range_meters":3600,"station_id":"cki0cbj6b192h4jlfktg","pricing_plan_id":"cebpf4jnsgd1na2vs0mg"},{"bike_id":"340125c2-893d-4d88-93a4-2e06229bf594","system_id":"levelo_inurba_marseille","lat":43.21748,"lon":5.34601,"is_reserved":false,"is_disabled":false,"rental_uris":{"android":"levelo://app?vid=340125c2-893d-4d88-93a4-2e06229bf594","ios":"levelo://app?vid=340125c2-893d-4d88-93a4-2e06229bf594"},"vehicle_type_id":"4","last_reported":1775086002,"current_range_meters":3600,"station_id":"st_cvj6r9ubvosntc0bgbag","pricing_plan_id":"cebpf4jnsgd1na2vs0mg"},{"bike_id":"dade577c-f111-4297-9cc9-58c29c3da4e2","system_id":"levelo_inurba_marseille","lat":43.24814,"lon":5.37454,"is_reserved":false,"is_disabled":false,"rental_uris":{"android":"levelo://app?vid=dade577c-f111-4297-9cc9-58c29c3da4e2","ios":"levelo://app?vid=dade577c-f111-4297-9cc9-58c29c3da4e2"},"vehicle_type_id":"4","last_reported":1775086002,"current_range_meters":4000,"station_id":"ce4bhgh2rcd13ifvqfb0","pricing_plan_id":"cebpf4jnsgd1na2vs0mg"},{"bike_id":"97911566-b39d-4772-9786-37508c49e45f","system_id":"levelo_inurba_marseille","lat":43.22562,"lon":5.41629,"is_reserved":false,"is_disabled":false,"rental_uris":{"android":"levelo://app?vid=97911566-b39d-4772-9786-37508c49e45f","ios":"levelo://app?vid=97911566-b39d-4772-9786-37508c49e45f"},"vehicle_type_id":"4","last_reported":1775086002,"current_range_meters":4000,"station_id":"st_d2o4gvlbi1j2169b742g","pricing_plan_id":"cebpf4jnsgd1na2vs0mg"},{"bike_id":"40db0509-e951-4b86-b039-6d8f093e3352","system_id":"levelo_inurba_marseille","lat":43.2381,"lon":5.36609,"is_reserved":false,"is_disabled":false,"rental_uris":{"android":"levelo://app?vid=40db0509-e951-4b86-b039-6d8f093e3352","ios":"levelo://app?vid=40db0509-e951-4b86-b039-6d8f093e3352"},"vehicle_type_id":"4","last_reported":1775086002,"current_range_meters":4000,"station_id":"st_d3nk18o9ro0c73en2l3g","pricing_plan_id":"cebpf4jnsgd1na2vs0mg"},{"bike_id":"1fd14647-60cf-49f0-a971-843beb62395e","system_id":"levelo_inurba_marseille","lat":43.28539,"lon":5.44097,"is_reserved":false,"is_disabled":false,"rental_uris":{"android":"levelo://app?vid=1fd14647-60cf-49f0-a971-843beb62395e","ios":"levelo://app?vid=1fd14647-60cf-49f0-a971-843beb62395e"},"vehicle_type_id":"4","last_reported":1775086002,"current_range_meters":4000,"station_id":"st_d3j3df2ikq2c7380ej80","pricing_plan_id":"cebpf4jnsgd1na2vs0mg"},{"bike_id":"028261e5-b01c-40b3-aac6-0d82cb6906fe","system_id":"levelo_inurba_marseille","lat":43.21751,"lon":5.3461,"is_reserved":false,"is_disabled":false,"rental_uris":{"android":"levelo://app?vid=028261e5-b01c-40b3-aac6-0d82cb6906fe","ios":"levelo://app?vid=028261e5-b01c-40b3-aac6-0d82cb6906fe"},"vehicle_type_id":"4","last_reported":1775086002,"current_range_meters":4000,"station_id":"st_cvj6r9ubvosntc0bgbag","pricing_plan_id":"cebpf4jnsgd1na2vs0mg"},{"bike_id":"ab4c3f3f-0924-4ae7-a183-6301ac6e54c7","system_id":"levelo_inurba_marseille","lat":43.25109,"lon":5.39496,"is_reserved":false,"is_disabled":false,"rental_uris":{"android":"levelo://app?vid=ab4c3f3f-0924-4ae7-a183-6301ac6e54c7","ios":"levelo://app?vid=ab4c3f3f-0924-4ae7-a183-6301ac6e54c7"},"vehicle_type_id":"4","last_reported":1775086002,"current_range_meters":4000,"station_id":"ce4bhm12rcd13ifvqgkg","pricing_plan_id":"cebpf4jnsgd1na2vs0mg"},{"bike_id":"920edf2e-1b58-4176-9c0f-fc609deb1ed3","system_id":"levelo_inurba_marseille","lat":43.24167,"lon":5.36396,"is_reserved":false,"is_disabled":false,"rental_uris":{"android":"levelo://app?vid=920edf2e-1b58-4176-9c0f-fc609deb1ed3","ios":"levelo://app?vid=920edf2e-1b58-4176-9c0f-fc609deb1ed3"},"vehicle_type_id":"4","last_reported":1775086002,"current_range_meters":4000,"station_id":"cpo36qri1sfpv3e86is0","pricing_plan_id":"cebpf4jnsgd1na2vs0mg"},{"bike_id":"72509681-52aa-4782-9de0-820bb878387d","system_id":"levelo_inurba_marseille","lat":43.22559,"lon":5.41627,"is_reserved":false,"is_disabled":false,"rental_uris":{"android":"levelo://app?vid=72509681-52aa-4782-9de0-820bb878387d","ios":"levelo://app?vid=72509681-52aa-4782-9de0-820bb878387d"},"vehicle_type_id":"4","last_reported":1775086002,"current_range_meters":4000,"station_id":"st_d2o4gvlbi1j2169b742g","pricing_plan_id":"cebpf4jnsgd1na2vs0mg"},{"bike_id":"2e501741-9929-4ddd-905c-c53c23abb93c","system_id":"levelo_inurba_marseille","lat":43.29532,"lon":5.39026,"is_reserved":false,"is_disabled":true,"rental_uris":{"android":"levelo://app?vid=2e501741-9929-4ddd-905c-c53c23abb93c","ios":"levelo://app?vid=2e501741-9929-4ddd-905c-c53c23abb93c"},"vehicle_type_id":"4","last_reported":1775086002,"current_range_meters":4000,"station_id":"ce4bh3p2rcd13ifvqdp0","pricing_plan_id":"cebpf4jnsgd1na2vs0mg"},{"bike_id":"4f461c12-a839-4112-843e-a559d023da9c","system_id":"levelo_inurba_marseille","lat":43.21187,"lon":5.35068,"is_reserved":false,"is_disabled":false,"rental_uris":{"android":"levelo://app?vid=4f461c12-a839-4112-843e-a559d023da9c","ios":"levelo://app?vid=4f461c12-a839-4112-843e-a559d023da9c"},"vehicle_type_id":"4","last_reported":1775086002,"current_range_meters":4000,"station_id":"st_cvj6sg6p6f1abm77japg","pricing_plan_id":"cebpf4jnsgd1na2vs0mg"},{"bike_id":"7ddea560-5928-4366-b118-9b15ebc08656","system_id":"levelo_inurba_marseille","lat":43.29428,"lon":5.39784,"is_reserved":false,"is_disabled":false,"rental_uris":{"android":"levelo://app?vid=7ddea560-5928-4366-b118-9b15ebc08656","ios":"levelo://app?vid=7ddea560-5928-4366-b118-9b15ebc08656"},"vehicle_type_id":"4","last_reported":1775086002,"current_range_meters":4000,"station_id":"","pricing_plan_id":"cebpf4jnsgd1na2vs0mg"},{"bike_id":"6ec1889d-c43d-42d7-9ebb-6d09626d1897","system_id":"levelo_inurba_marseille","lat":43.24652,"lon":5.38898,"is_reserved":false,"is_disabled":false,"rental_uris":{"android":"levelo://app?vid=6ec1889d-c43d-42d7-9ebb-6d09626d1897","ios":"levelo://app?vid=6ec1889d-c43d-42d7-9ebb-6d09626d1897"},"vehicle_type_id":"4","last_reported":1775086002,"current_range_meters":4400,"station_id":"ce4bhg12rcd13ifvqf60","pricing_plan_id":"cebpf4jnsgd1na2vs0mg"},{"bike_id":"8553374e-2630-4eb7-b40b-cde4aaf21694","system_id":"levelo_inurba_marseille","lat":43.23935,"lon":5.37434,"is_reserved":false,"is_disabled":false,"rental_uris":{"android":"levelo://app?vid=8553374e-2630-4eb7-b40b-cde4aaf21694","ios":"levelo://app?vid=8553374e-2630-4eb7-b40b-cde4aaf21694"},"vehicle_type_id":"4","last_reported":1775086002,"current_range_meters":4400,"station_id":"","pricing_plan_id":"cebpf4jnsgd1na2vs0mg"},{"bike_id":"8b62fcfb-e47a-40b4-8ebd-d333aa43177e","system_id":"levelo_inurba_marseille","lat":43.308,"lon":5.37646,"is_reserved":false,"is_disabled":false,"rental_uris":{"android":"levelo://app?vid=8b62fcfb-e47a-40b4-8ebd-d333aa43177e","ios":"levelo://app?vid=8b62fcfb-e47a-40b4-8ebd-d333aa43177e"},"vehicle_type_id":"4","last_reported":1775086002,"current_range_meters":4400,"station_id":"ce4bgv92rcd13ifvqcq0","pricing_plan_id":"cebpf4jnsgd1na2vs0mg"},{"bike_id":"cd727012-638f-49f9-bbd5-5a3b95fe3f18","system_id":"levelo_inurba_marseille","lat":43.24463,"lon":5.42532,"is_reserved":false,"is_disabled":false,"rental_uris":{"android":"levelo://app?vid=cd727012-638f-49f9-bbd5-5a3b95fe3f18","ios":"levelo://app?vid=cd727012-638f-49f9-bbd5-5a3b95fe3f18"},"vehicle_type_id":"4","last_reported":1775086002,"current_range_meters":4400,"station_id":"st_d4a3vfp97mjs738cd8kg","pricing_plan_id":"cebpf4jnsgd1na2vs0mg"},{"bike_id":"1b719c32-5038-4bc1-a7ba-e551cb70500d","system_id":"levelo_inurba_marseille","lat":43.32096,"lon":5.36767,"is_reserved":false,"is_disabled":false,"rental_uris":{"android":"levelo://app?vid=1b719c32-5038-4bc1-a7ba-e551cb70500d","ios":"levelo://app?vid=1b719c32-5038-4bc1-a7ba-e551cb70500d"},"vehicle_type_id":"4","last_reported":1775086002,"current_range_meters":4400,"station_id":"ce4bhrh2rcd13ifvqhug","pricing_plan_id":"cebpf4jnsgd1na2vs0mg"},{"bike_id":"e77bea82-8c60-4a9c-a61f-5fb95fe24285","system_id":"levelo_inurba_marseille","lat":43.28424,"lon":5.35004,"is_reserved":false,"is_disabled":false,"rental_uris":{"android":"levelo://app?vid=e77bea82-8c60-4a9c-a61f-5fb95fe24285","ios":"levelo://app?vid=e77bea82-8c60-4a9c-a61f-5fb95fe24285"},"vehicle_type_id":"4","last_reported":1775086002,"current_range_meters":4400,"station_id":"ce4bhbh2rcd13ifvqepg","pricing_plan_id":"cebpf4jnsgd1na2vs0mg"},{"bike_id":"d32af7df-7c74-4ca6-a424-2f1299e09845","system_id":"levelo_inurba_marseille","lat":43.28153,"lon":5.42623,"is_reserved":false,"is_disabled":false,"rental_uris":{"android":"levelo://app?vid=d32af7df-7c74-4ca6-a424-2f1299e09845","ios":"levelo://app?vid=d32af7df-7c74-4ca6-a424-2f1299e09845"},"vehicle_type_id":"4","last_reported":1775086002,"current_range_meters":4400,"station_id":"ce4bhnh2rcd13ifvqgug","pricing_plan_id":"cebpf4jnsgd1na2vs0mg"},{"bike_id":"c29dfdd7-93c9-4a0e-8e4b-cf48dcdaa3d5","system_id":"levelo_inurba_marseille","lat":43.30261,"lon":5.40067,"is_reserved":false,"is_disabled":false,"rental_uris":{"android":"levelo://app?vid=c29dfdd7-93c9-4a0e-8e4b-cf48dcdaa3d5","ios":"levelo://app?vid=c29dfdd7-93c9-4a0e-8e4b-cf48dcdaa3d5"},"vehicle_type_id":"4","last_reported":1775086002,"current_range_meters":4400,"station_id":"ce4bgvh2rcd13ifvqcs0","pricing_plan_id":"cebpf4jnsgd1na2vs0mg"},{"bike_id":"4dc5e590-cebf-4591-86fa-2533cf011660","system_id":"levelo_inurba_marseille","lat":43.23967,"lon":5.36631,"is_reserved":false,"is_disabled":false,"rental_uris":{"android":"levelo://app?vid=4dc5e590-cebf-4591-86fa-2533cf011660","ios":"levelo://app?vid=4dc5e590-cebf-4591-86fa-2533cf011660"},"vehicle_type_id":"4","last_reported":1775086002,"current_range_meters":4400,"station_id":"ce4bhi12rcd13ifvqfp0","pricing_plan_id":"cebpf4jnsgd1na2vs0mg"},{"bike_id":"599274e6-5922-44eb-9531-05e370a85b3e","system_id":"levelo_inurba_marseille","lat":43.24807,"lon":5.37453,"is_reserved":false,"is_disabled":false,"rental_uris":{"android":"levelo://app?vid=599274e6-5922-44eb-9531-05e370a85b3e","ios":"levelo://app?vid=599274e6-5922-44eb-9531-05e370a85b3e"},"vehicle_type_id":"4","last_reported":1775086002,"current_range_meters":4400,"station_id":"ce4bhgh2rcd13ifvqfb0","pricing_plan_id":"cebpf4jnsgd1na2vs0mg"},{"bike_id":"e39075e1-ea5f-489b-92f7-81d5eb2a83fd","system_id":"levelo_inurba_marseille","lat":43.21754,"lon":5.34609,"is_reserved":false,"is_disabled":false,"rental_uris":{"android":"levelo://app?vid=e39075e1-ea5f-489b-92f7-81d5eb2a83fd","ios":"levelo://app?vid=e39075e1-ea5f-489b-92f7-81d5eb2a83fd"},"vehicle_type_id":"4","last_reported":1775086002,"current_range_meters":4400,"station_id":"st_cvj6r9ubvosntc0bgbag","pricing_plan_id":"cebpf4jnsgd1na2vs0mg"},{"bike_id":"29cdac5f-ab24-4680-bdbb-b9f9e11d744e","system_id":"levelo_inurba_marseille","lat":43.33161,"lon":5.37707,"is_reserved":false,"is_disabled":false,"rental_uris":{"android":"levelo://app?vid=29cdac5f-ab24-4680-bdbb-b9f9e11d744e","ios":"levelo://app?vid=29cdac5f-ab24-4680-bdbb-b9f9e11d744e"},"vehicle_type_id":"4","last_reported":1775086002,"current_range_meters":4400,"station_id":"st_d46cu089ee8s73dldbu0","pricing_plan_id":"cebpf4jnsgd1na2vs0mg"},{"bike_id":"d722c73f-338d-41cd-a345-041e3d3b7dff","system_id":"levelo_inurba_marseille","lat":43.28227,"lon":5.39048,"is_reserved":false,"is_disabled":false,"rental_uris":{"android":"levelo://app?vid=d722c73f-338d-41cd-a345-041e3d3b7dff","ios":"levelo://app?vid=d722c73f-338d-41cd-a345-041e3d3b7dff"},"vehicle_type_id":"4","last_reported":1775086002,"current_range_meters":4400,"station_id":"ce4bhn92rcd13ifvqgsg","pricing_plan_id":"cebpf4jnsgd1na2vs0mg"},{"bike_id":"42607d80-d0d1-4a7b-a86c-3704e70c666b","system_id":"levelo_inurba_marseille","lat":43.25333,"lon":5.4217,"is_reserved":false,"is_disabled":false,"rental_uris":{"android":"levelo://app?vid=42607d80-d0d1-4a7b-a86c-3704e70c666b","ios":"levelo://app?vid=42607d80-d0d1-4a7b-a86c-3704e70c666b"},"vehicle_type_id":"4","last_reported":1775086002,"current_range_meters":4400,"station_id":"st_d2m65c5bi1j21697t3ng","pricing_plan_id":"cebpf4jnsgd1na2vs0mg"},{"bike_id":"dbafccf7-0909-44bd-86f0-abe7aa0ed694","system_id":"levelo_inurba_marseille","lat":43.29092,"lon":5.4373,"is_reserved":false,"is_disabled":false,"rental_uris":{"android":"levelo://app?vid=dbafccf7-0909-44bd-86f0-abe7aa0ed694","ios":"levelo://app?vid=dbafccf7-0909-44bd-86f0-abe7aa0ed694"},"vehicle_type_id":"4","last_reported":1775086002,"current_range_meters":4800,"station_id":"","pricing_plan_id":"cebpf4jnsgd1na2vs0mg"},{"bike_id":"e48449c9-7d13-4803-b2aa-7fb857c0a68c","system_id":"levelo_inurba_marseille","lat":43.24431,"lon":5.41587,"is_reserved":false,"is_disabled":false,"rental_uris":{"android":"levelo://app?vid=e48449c9-7d13-4803-b2aa-7fb857c0a68c","ios":"levelo://app?vid=e48449c9-7d13-4803-b2aa-7fb857c0a68c"},"vehicle_type_id":"4","last_reported":1775086002,"current_range_meters":4800,"station_id":"","pricing_plan_id":"cebpf4jnsgd1na2vs0mg"},{"bike_id":"826ce38e-a717-4d2f-af19-d23bbc872ca3","system_id":"levelo_inurba_marseille","lat":43.2956,"lon":5.39963,"is_reserved":false,"is_disabled":false,"rental_uris":{"android":"levelo://app?vid=826ce38e-a717-4d2f-af19-d23bbc872ca3","ios":"levelo://app?vid=826ce38e-a717-4d2f-af19-d23bbc872ca3"},"vehicle_type_id":"4","last_reported":1775086002,"current_range_meters":4800,"station_id":"ce4bh312rcd13ifvqdj0","pricing_plan_id":"cebpf4jnsgd1na2vs0mg"},{"bike_id":"9eedb78a-15bb-4b66-9958-ae5bad30c780","system_id":"levelo_inurba_marseille","lat":43.2873,"lon":5.36104,"is_reserved":false,"is_disabled":false,"rental_uris":{"android":"levelo://app?vid=9eedb78a-15bb-4b66-9958-ae5bad30c780","ios":"levelo://app?vid=9eedb78a-15bb-4b66-9958-ae5bad30c780"},"vehicle_type_id":"4","last_reported":1775086002,"current_range_meters":4800,"station_id":"cki0cbj6b192h4jlfktg","pricing_plan_id":"cebpf4jnsgd1na2vs0mg"},{"bike_id":"a9616136-f3db-4e2d-951b-e20c22b73feb","system_id":"levelo_inurba_marseille","lat":43.24803,"lon":5.37452,"is_reserved":false,"is_disabled":false,"rental_uris":{"android":"levelo://app?vid=a9616136-f3db-4e2d-951b-e20c22b73feb","ios":"levelo://app?vid=a9616136-f3db-4e2d-951b-e20c22b73feb"},"vehicle_type_id":"4","last_reported":1775086002,"current_range_meters":4800,"station_id":"ce4bhgh2rcd13ifvqfb0","pricing_plan_id":"cebpf4jnsgd1na2vs0mg"},{"bike_id":"133a76d9-f9c5-4d39-a637-a1f68d69f072","system_id":"levelo_inurba_marseille","lat":43.2848,"lon":5.39178,"is_reserved":false,"is_disabled":false,"rental_uris":{"android":"levelo://app?vid=133a76d9-f9c5-4d39-a637-a1f68d69f072","ios":"levelo://app?vid=133a76d9-f9c5-4d39-a637-a1f68d69f072"},"vehicle_type_id":"4","last_reported":1775086002,"current_range_meters":4800,"station_id":"ce4bhoh2rcd13ifvqh5g","pricing_plan_id":"cebpf4jnsgd1na2vs0mg"},{"bike_id":"4489e38d-b693-43ca-966f-464eb546dc84","system_id":"levelo_inurba_marseille","lat":43.24176,"lon":5.36398,"is_reserved":false,"is_disabled":false,"rental_uris":{"android":"levelo://app?vid=4489e38d-b693-43ca-966f-464eb546dc84","ios":"levelo://app?vid=4489e38d-b693-43ca-966f-464eb546dc84"},"vehicle_type_id":"4","last_reported":1775086002,"current_range_meters":4800,"station_id":"cpo36qri1sfpv3e86is0","pricing_plan_id":"cebpf4jnsgd1na2vs0mg"},{"bike_id":"437e4f3a-fe91-4ac4-a609-0c5a83e9fa75","system_id":"levelo_inurba_marseille","lat":43.31023,"lon":5.37212,"is_reserved":false,"is_disabled":false,"rental_uris":{"android":"levelo://app?vid=437e4f3a-fe91-4ac4-a609-0c5a83e9fa75","ios":"levelo://app?vid=437e4f3a-fe91-4ac4-a609-0c5a83e9fa75"},"vehicle_type_id":"4","last_reported":1775086002,"current_range_meters":4800,"station_id":"st_d4kl2rp97mjs73e7tdfg","pricing_plan_id":"cebpf4jnsgd1na2vs0mg"},{"bike_id":"bf2c42ee-9952-4d50-a40a-94fc5a4258da","system_id":"levelo_inurba_marseille","lat":43.23391,"lon":5.4124,"is_reserved":false,"is_disabled":false,"rental_uris":{"android":"levelo://app?vid=bf2c42ee-9952-4d50-a40a-94fc5a4258da","ios":"levelo://app?vid=bf2c42ee-9952-4d50-a40a-94fc5a4258da"},"vehicle_type_id":"4","last_reported":1775086002,"current_range_meters":4800,"station_id":"st_d75pvndhf9lc73cqq3eg","pricing_plan_id":"cebpf4jnsgd1na2vs0mg"},{"bike_id":"676b8462-bf1f-4be7-9c24-e09f29329fe3","system_id":"levelo_inurba_marseille","lat":43.23973,"lon":5.36631,"is_reserved":false,"is_disabled":false,"rental_uris":{"android":"levelo://app?vid=676b8462-bf1f-4be7-9c24-e09f29329fe3","ios":"levelo://app?vid=676b8462-bf1f-4be7-9c24-e09f29329fe3"},"vehicle_type_id":"4","last_reported":1775086002,"current_range_meters":4800,"station_id":"ce4bhi12rcd13ifvqfp0","pricing_plan_id":"cebpf4jnsgd1na2vs0mg"},{"bike_id":"8fc970ee-a484-45a1-8680-8f7f28a23ddf","system_id":"levelo_inurba_marseille","lat":43.21748,"lon":5.34603,"is_reserved":false,"is_disabled":false,"rental_uris":{"android":"levelo://app?vid=8fc970ee-a484-45a1-8680-8f7f28a23ddf","ios":"levelo://app?vid=8fc970ee-a484-45a1-8680-8f7f28a23ddf"},"vehicle_type_id":"4","last_reported":1775086002,"current_range_meters":4800,"station_id":"st_cvj6r9ubvosntc0bgbag","pricing_plan_id":"cebpf4jnsgd1na2vs0mg"},{"bike_id":"521fdd5c-22f2-444b-870e-16f0ca92be9e","system_id":"levelo_inurba_marseille","lat":43.29525,"lon":5.38653,"is_reserved":false,"is_disabled":false,"rental_uris":{"android":"levelo://app?vid=521fdd5c-22f2-444b-870e-16f0ca92be9e","ios":"levelo://app?vid=521fdd5c-22f2-444b-870e-16f0ca92be9e"},"vehicle_type_id":"4","last_reported":1775086002,"current_range_meters":5600,"station_id":"","pricing_plan_id":"cebpf4jnsgd1na2vs0mg"},{"bike_id":"9b2ffac1-a059-4dfb-b6a4-e4238fd2fdf6","system_id":"levelo_inurba_marseille","lat":43.28903,"lon":5.3841,"is_reserved":false,"is_disabled":false,"rental_uris":{"android":"levelo://app?vid=9b2ffac1-a059-4dfb-b6a4-e4238fd2fdf6","ios":"levelo://app?vid=9b2ffac1-a059-4dfb-b6a4-e4238fd2fdf6"},"vehicle_type_id":"4","last_reported":1775086002,"current_range_meters":5600,"station_id":"ce4bh612rcd13ifvqe6g","pricing_plan_id":"cebpf4jnsgd1na2vs0mg"},{"bike_id":"df4d744e-e748-4bf1-84fe-b1f55e9690bc","system_id":"levelo_inurba_marseille","lat":43.29042,"lon":5.39993,"is_reserved":false,"is_disabled":false,"rental_uris":{"android":"levelo://app?vid=df4d744e-e748-4bf1-84fe-b1f55e9690bc","ios":"levelo://app?vid=df4d744e-e748-4bf1-84fe-b1f55e9690bc"},"vehicle_type_id":"4","last_reported":1775086002,"current_range_meters":5600,"station_id":"ce4bh392rcd13ifvqdm0","pricing_plan_id":"cebpf4jnsgd1na2vs0mg"},{"bike_id":"a12ced21-9765-4fca-9fbf-5660d7509d0d","system_id":"levelo_inurba_marseille","lat":43.28428,"lon":5.34988,"is_reserved":false,"is_disabled":false,"rental_uris":{"android":"levelo://app?vid=a12ced21-9765-4fca-9fbf-5660d7509d0d","ios":"levelo://app?vid=a12ced21-9765-4fca-9fbf-5660d7509d0d"},"vehicle_type_id":"4","last_reported":1775086002,"current_range_meters":5600,"station_id":"ce4bhbh2rcd13ifvqepg","pricing_plan_id":"cebpf4jnsgd1na2vs0mg"},{"bike_id":"84beb6ad-7674-4f5a-8f8c-157ae553011c","system_id":"levelo_inurba_marseille","lat":43.29034,"lon":5.39941,"is_reserved":false,"is_disabled":false,"rental_uris":{"android":"levelo://app?vid=84beb6ad-7674-4f5a-8f8c-157ae553011c","ios":"levelo://app?vid=84beb6ad-7674-4f5a-8f8c-157ae553011c"},"vehicle_type_id":"4","last_reported":1775086002,"current_range_meters":5600,"station_id":"ce4bh392rcd13ifvqdm0","pricing_plan_id":"cebpf4jnsgd1na2vs0mg"},{"bike_id":"15627b94-0339-4aab-b936-c98235ca103a","system_id":"levelo_inurba_marseille","lat":43.23193,"lon":5.39967,"is_reserved":false,"is_disabled":true,"rental_uris":{"android":"levelo://app?vid=15627b94-0339-4aab-b936-c98235ca103a","ios":"levelo://app?vid=15627b94-0339-4aab-b936-c98235ca103a"},"vehicle_type_id":"4","last_reported":1775086002,"current_range_meters":5600,"station_id":"ce4bhn12rcd13ifvqgqg","pricing_plan_id":"cebpf4jnsgd1na2vs0mg"},{"bike_id":"ffde6a95-5dec-426a-943f-3ce4b714e7dc","system_id":"levelo_inurba_marseille","lat":43.21716,"lon":5.34615,"is_reserved":false,"is_disabled":false,"rental_uris":{"android":"levelo://app?vid=ffde6a95-5dec-426a-943f-3ce4b714e7dc","ios":"levelo://app?vid=ffde6a95-5dec-426a-943f-3ce4b714e7dc"},"vehicle_type_id":"4","last_reported":1775086002,"current_range_meters":5600,"station_id":"st_cvj6r9ubvosntc0bgbag","pricing_plan_id":"cebpf4jnsgd1na2vs0mg"},{"bike_id":"5ff8da46-d50f-41b2-8eee-8fa1fd7c4ed1","system_id":"levelo_inurba_marseille","lat":43.25004,"lon":5.38938,"is_reserved":false,"is_disabled":false,"rental_uris":{"android":"levelo://app?vid=5ff8da46-d50f-41b2-8eee-8fa1fd7c4ed1","ios":"levelo://app?vid=5ff8da46-d50f-41b2-8eee-8fa1fd7c4ed1"},"vehicle_type_id":"4","last_reported":1775086002,"current_range_meters":5600,"station_id":"ce4bhgp2rcd13ifvqfd0","pricing_plan_id":"cebpf4jnsgd1na2vs0mg"},{"bike_id":"23a1f004-01c9-4416-9d3b-31e26d56c169","system_id":"levelo_inurba_marseille","lat":43.24096,"lon":5.37731,"is_reserved":false,"is_disabled":false,"rental_uris":{"android":"levelo://app?vid=23a1f004-01c9-4416-9d3b-31e26d56c169","ios":"levelo://app?vid=23a1f004-01c9-4416-9d3b-31e26d56c169"},"vehicle_type_id":"4","last_reported":1775086002,"current_range_meters":5600,"station_id":"ce4bhnp2rcd13ifvqgvg","pricing_plan_id":"cebpf4jnsgd1na2vs0mg"},{"bike_id":"ddacb53e-55a3-4a67-a531-5d71504540ee","system_id":"levelo_inurba_marseille","lat":43.2256,"lon":5.41634,"is_reserved":false,"is_disabled":false,"rental_uris":{"android":"levelo://app?vid=ddacb53e-55a3-4a67-a531-5d71504540ee","ios":"levelo://app?vid=ddacb53e-55a3-4a67-a531-5d71504540ee"},"vehicle_type_id":"4","last_reported":1775086002,"current_range_meters":5600,"station_id":"st_d2o4gvlbi1j2169b742g","pricing_plan_id":"cebpf4jnsgd1na2vs0mg"},{"bike_id":"50236813-bf88-46a5-ace1-dd5e5784f3e0","system_id":"levelo_inurba_marseille","lat":43.33172,"lon":5.37729,"is_reserved":false,"is_disabled":false,"rental_uris":{"android":"levelo://app?vid=50236813-bf88-46a5-ace1-dd5e5784f3e0","ios":"levelo://app?vid=50236813-bf88-46a5-ace1-dd5e5784f3e0"},"vehicle_type_id":"4","last_reported":1775086002,"current_range_meters":5600,"station_id":"st_d46cu089ee8s73dldbu0","pricing_plan_id":"cebpf4jnsgd1na2vs0mg"},{"bike_id":"843ccc67-c31c-41dd-9c12-11a688eb1aa7","system_id":"levelo_inurba_marseille","lat":43.29146,"lon":5.37131,"is_reserved":false,"is_disabled":true,"rental_uris":{"android":"levelo://app?vid=843ccc67-c31c-41dd-9c12-11a688eb1aa7","ios":"levelo://app?vid=843ccc67-c31c-41dd-9c12-11a688eb1aa7"},"vehicle_type_id":"4","last_reported":1775086002,"current_range_meters":5600,"station_id":"ce4bha92rcd13ifvqeh0","pricing_plan_id":"cebpf4jnsgd1na2vs0mg"},{"bike_id":"781c42fe-e8a7-46eb-8aaa-3cb47afdf549","system_id":"levelo_inurba_marseille","lat":43.31478,"lon":5.37286,"is_reserved":false,"is_disabled":false,"rental_uris":{"android":"levelo://app?vid=781c42fe-e8a7-46eb-8aaa-3cb47afdf549","ios":"levelo://app?vid=781c42fe-e8a7-46eb-8aaa-3cb47afdf549"},"vehicle_type_id":"4","last_reported":1775086002,"current_range_meters":5600,"station_id":"ce4bgt12rcd13ifvqcd0","pricing_plan_id":"cebpf4jnsgd1na2vs0mg"},{"bike_id":"44219d6a-6b89-4fc6-83f7-a50a39eba5cb","system_id":"levelo_inurba_marseille","lat":43.30932,"lon":5.40151,"is_reserved":false,"is_disabled":false,"rental_uris":{"android":"levelo://app?vid=44219d6a-6b89-4fc6-83f7-a50a39eba5cb","ios":"levelo://app?vid=44219d6a-6b89-4fc6-83f7-a50a39eba5cb"},"vehicle_type_id":"4","last_reported":1775086002,"current_range_meters":5600,"station_id":"ce4bgvp2rcd13ifvqct0","pricing_plan_id":"cebpf4jnsgd1na2vs0mg"},{"bike_id":"7d221536-c309-4cb7-98fe-5bdf54751499","system_id":"levelo_inurba_marseille","lat":43.28476,"lon":5.48406,"is_reserved":false,"is_disabled":false,"rental_uris":{"android":"levelo://app?vid=7d221536-c309-4cb7-98fe-5bdf54751499","ios":"levelo://app?vid=7d221536-c309-4cb7-98fe-5bdf54751499"},"vehicle_type_id":"4","last_reported":1775086002,"current_range_meters":5600,"station_id":"","pricing_plan_id":"cebpf4jnsgd1na2vs0mg"},{"bike_id":"45c050e8-a329-47f8-a86f-69826197952f","system_id":"levelo_inurba_marseille","lat":43.24165,"lon":5.36401,"is_reserved":false,"is_disabled":false,"rental_uris":{"android":"levelo://app?vid=45c050e8-a329-47f8-a86f-69826197952f","ios":"levelo://app?vid=45c050e8-a329-47f8-a86f-69826197952f"},"vehicle_type_id":"4","last_reported":1775086002,"current_range_meters":5600,"station_id":"cpo36qri1sfpv3e86is0","pricing_plan_id":"cebpf4jnsgd1na2vs0mg"},{"bike_id":"bbcf8215-1f06-4464-8fdb-b58c0ff617af","system_id":"levelo_inurba_marseille","lat":43.29715,"lon":5.36598,"is_reserved":false,"is_disabled":false,"rental_uris":{"android":"levelo://app?vid=bbcf8215-1f06-4464-8fdb-b58c0ff617af","ios":"levelo://app?vid=bbcf8215-1f06-4464-8fdb-b58c0ff617af"},"vehicle_type_id":"4","last_reported":1775086002,"current_range_meters":5600,"station_id":"ce4bgn12rcd13ifvqbt0","pricing_plan_id":"cebpf4jnsgd1na2vs0mg"},{"bike_id":"93dafdec-c92d-40be-83a0-6d8b83814426","system_id":"levelo_inurba_marseille","lat":43.29382,"lon":5.40193,"is_reserved":false,"is_disabled":false,"rental_uris":{"android":"levelo://app?vid=93dafdec-c92d-40be-83a0-6d8b83814426","ios":"levelo://app?vid=93dafdec-c92d-40be-83a0-6d8b83814426"},"vehicle_type_id":"4","last_reported":1775086002,"current_range_meters":6000,"station_id":"","pricing_plan_id":"cebpf4jnsgd1na2vs0mg"},{"bike_id":"982951ba-d1eb-42d4-bb65-5d98050aa6ef","system_id":"levelo_inurba_marseille","lat":43.2849,"lon":5.48388,"is_reserved":false,"is_disabled":false,"rental_uris":{"android":"levelo://app?vid=982951ba-d1eb-42d4-bb65-5d98050aa6ef","ios":"levelo://app?vid=982951ba-d1eb-42d4-bb65-5d98050aa6ef"},"vehicle_type_id":"4","last_reported":1775086002,"current_range_meters":6000,"station_id":"","pricing_plan_id":"cebpf4jnsgd1na2vs0mg"},{"bike_id":"ace8d92c-665e-46a4-858d-e12872c8b9f0","system_id":"levelo_inurba_marseille","lat":43.28475,"lon":5.48395,"is_reserved":false,"is_disabled":false,"rental_uris":{"android":"levelo://app?vid=ace8d92c-665e-46a4-858d-e12872c8b9f0","ios":"levelo://app?vid=ace8d92c-665e-46a4-858d-e12872c8b9f0"},"vehicle_type_id":"4","last_reported":1775086002,"current_range_meters":6000,"station_id":"","pricing_plan_id":"cebpf4jnsgd1na2vs0mg"},{"bike_id":"0d0c8f03-48a7-4e97-9825-e79885ed278e","system_id":"levelo_inurba_marseille","lat":43.23027,"lon":5.35516,"is_reserved":false,"is_disabled":false,"rental_uris":{"android":"levelo://app?vid=0d0c8f03-48a7-4e97-9825-e79885ed278e","ios":"levelo://app?vid=0d0c8f03-48a7-4e97-9825-e79885ed278e"},"vehicle_type_id":"4","last_reported":1775086002,"current_range_meters":6000,"station_id":"cpo3342slgdg3j2ifvpg","pricing_plan_id":"cebpf4jnsgd1na2vs0mg"},{"bike_id":"d41d5ff3-651c-4e70-8a12-e8a105b53c64","system_id":"levelo_inurba_marseille","lat":43.31582,"lon":5.44537,"is_reserved":false,"is_disabled":false,"rental_uris":{"android":"levelo://app?vid=d41d5ff3-651c-4e70-8a12-e8a105b53c64","ios":"levelo://app?vid=d41d5ff3-651c-4e70-8a12-e8a105b53c64"},"vehicle_type_id":"4","last_reported":1775086002,"current_range_meters":6000,"station_id":"","pricing_plan_id":"cebpf4jnsgd1na2vs0mg"},{"bike_id":"c46b9691-8495-4ec3-9b9e-c04c1003a346","system_id":"levelo_inurba_marseille","lat":43.28545,"lon":5.44088,"is_reserved":false,"is_disabled":false,"rental_uris":{"android":"levelo://app?vid=c46b9691-8495-4ec3-9b9e-c04c1003a346","ios":"levelo://app?vid=c46b9691-8495-4ec3-9b9e-c04c1003a346"},"vehicle_type_id":"4","last_reported":1775086002,"current_range_meters":6000,"station_id":"st_d3j3df2ikq2c7380ej80","pricing_plan_id":"cebpf4jnsgd1na2vs0mg"},{"bike_id":"ac750519-69a1-4eac-846f-31128d535c20","system_id":"levelo_inurba_marseille","lat":43.24395,"lon":5.3706,"is_reserved":false,"is_disabled":false,"rental_uris":{"android":"levelo://app?vid=ac750519-69a1-4eac-846f-31128d535c20","ios":"levelo://app?vid=ac750519-69a1-4eac-846f-31128d535c20"},"vehicle_type_id":"4","last_reported":1775086002,"current_range_meters":6000,"station_id":"ce4bhhh2rcd13ifvqfk0","pricing_plan_id":"cebpf4jnsgd1na2vs0mg"},{"bike_id":"5d427ef3-0192-49a7-a7bb-223c801929d2","system_id":"levelo_inurba_marseille","lat":43.30772,"lon":5.37645,"is_reserved":false,"is_disabled":false,"rental_uris":{"android":"levelo://app?vid=5d427ef3-0192-49a7-a7bb-223c801929d2","ios":"levelo://app?vid=5d427ef3-0192-49a7-a7bb-223c801929d2"},"vehicle_type_id":"4","last_reported":1775086002,"current_range_meters":6000,"station_id":"ce4bgv92rcd13ifvqcq0","pricing_plan_id":"cebpf4jnsgd1na2vs0mg"},{"bike_id":"f7dfca44-ea36-40d3-8e30-8f5b555cf8e3","system_id":"levelo_inurba_marseille","lat":43.30143,"lon":5.39864,"is_reserved":false,"is_disabled":false,"rental_uris":{"android":"levelo://app?vid=f7dfca44-ea36-40d3-8e30-8f5b555cf8e3","ios":"levelo://app?vid=f7dfca44-ea36-40d3-8e30-8f5b555cf8e3"},"vehicle_type_id":"4","last_reported":1775086002,"current_range_meters":6000,"station_id":"ce4bh0h2rcd13ifvqd40","pricing_plan_id":"cebpf4jnsgd1na2vs0mg"},{"bike_id":"61347705-ad09-4da0-88fd-36ae93b6cbe6","system_id":"levelo_inurba_marseille","lat":43.32338,"lon":5.36706,"is_reserved":false,"is_disabled":false,"rental_uris":{"android":"levelo://app?vid=61347705-ad09-4da0-88fd-36ae93b6cbe6","ios":"levelo://app?vid=61347705-ad09-4da0-88fd-36ae93b6cbe6"},"vehicle_type_id":"4","last_reported":1775086002,"current_range_meters":6000,"station_id":"ce4bhsh2rcd13ifvqi2g","pricing_plan_id":"cebpf4jnsgd1na2vs0mg"},{"bike_id":"cb5b1ee0-fb07-4fe9-8d2d-7bd39e547d09","system_id":"levelo_inurba_marseille","lat":43.33579,"lon":5.41001,"is_reserved":false,"is_disabled":true,"rental_uris":{"android":"levelo://app?vid=cb5b1ee0-fb07-4fe9-8d2d-7bd39e547d09","ios":"levelo://app?vid=cb5b1ee0-fb07-4fe9-8d2d-7bd39e547d09"},"vehicle_type_id":"4","last_reported":1775086002,"current_range_meters":6000,"station_id":"ce4bhqh2rcd13ifvqhmg","pricing_plan_id":"cebpf4jnsgd1na2vs0mg"},{"bike_id":"4b468e67-5df8-40e9-a14b-f7dd9a354424","system_id":"levelo_inurba_marseille","lat":43.31013,"lon":5.37182,"is_reserved":false,"is_disabled":false,"rental_uris":{"android":"levelo://app?vid=4b468e67-5df8-40e9-a14b-f7dd9a354424","ios":"levelo://app?vid=4b468e67-5df8-40e9-a14b-f7dd9a354424"},"vehicle_type_id":"4","last_reported":1775086002,"current_range_meters":6000,"station_id":"st_d4kl2rp97mjs73e7tdfg","pricing_plan_id":"cebpf4jnsgd1na2vs0mg"},{"bike_id":"d2c8973c-558b-4acd-a28b-3d0ba692da4d","system_id":"levelo_inurba_marseille","lat":43.2804,"lon":5.36951,"is_reserved":false,"is_disabled":false,"rental_uris":{"android":"levelo://app?vid=d2c8973c-558b-4acd-a28b-3d0ba692da4d","ios":"levelo://app?vid=d2c8973c-558b-4acd-a28b-3d0ba692da4d"},"vehicle_type_id":"4","last_reported":1775086002,"current_range_meters":6000,"station_id":"ce4bha12rcd13ifvqef0","pricing_plan_id":"cebpf4jnsgd1na2vs0mg"},{"bike_id":"2c9509d6-f1b0-4ffd-af39-63c8b84e0fa1","system_id":"levelo_inurba_marseille","lat":43.2838,"lon":5.38129,"is_reserved":false,"is_disabled":false,"rental_uris":{"android":"levelo://app?vid=2c9509d6-f1b0-4ffd-af39-63c8b84e0fa1","ios":"levelo://app?vid=2c9509d6-f1b0-4ffd-af39-63c8b84e0fa1"},"vehicle_type_id":"4","last_reported":1775086002,"current_range_meters":6000,"station_id":"ce4bh412rcd13ifvqdr0","pricing_plan_id":"cebpf4jnsgd1na2vs0mg"},{"bike_id":"0be0f331-343d-4e35-84d1-0c2a496d1cfe","system_id":"levelo_inurba_marseille","lat":43.3191,"lon":5.36799,"is_reserved":false,"is_disabled":false,"rental_uris":{"android":"levelo://app?vid=0be0f331-343d-4e35-84d1-0c2a496d1cfe","ios":"levelo://app?vid=0be0f331-343d-4e35-84d1-0c2a496d1cfe"},"vehicle_type_id":"4","last_reported":1775086002,"current_range_meters":6000,"station_id":"st_d6o2h0d0559c73evc1b0","pricing_plan_id":"cebpf4jnsgd1na2vs0mg"},{"bike_id":"1bfa51ce-78f3-4c67-be01-387854e4298a","system_id":"levelo_inurba_marseille","lat":43.29319,"lon":5.37187,"is_reserved":false,"is_disabled":true,"rental_uris":{"android":"levelo://app?vid=1bfa51ce-78f3-4c67-be01-387854e4298a","ios":"levelo://app?vid=1bfa51ce-78f3-4c67-be01-387854e4298a"},"vehicle_type_id":"4","last_reported":1775086002,"current_range_meters":6000,"station_id":"ce4bgh92rcd13ifvqb40","pricing_plan_id":"cebpf4jnsgd1na2vs0mg"},{"bike_id":"52e3bae0-b247-4977-97ac-8d2074f1c062","system_id":"levelo_inurba_marseille","lat":43.24393,"lon":5.37064,"is_reserved":false,"is_disabled":false,"rental_uris":{"android":"levelo://app?vid=52e3bae0-b247-4977-97ac-8d2074f1c062","ios":"levelo://app?vid=52e3bae0-b247-4977-97ac-8d2074f1c062"},"vehicle_type_id":"4","last_reported":1775086002,"current_range_meters":6000,"station_id":"ce4bhhh2rcd13ifvqfk0","pricing_plan_id":"cebpf4jnsgd1na2vs0mg"},{"bike_id":"a2eaa8fe-9ee3-4783-9910-a0708dc6938b","system_id":"levelo_inurba_marseille","lat":43.23079,"lon":5.3547,"is_reserved":false,"is_disabled":false,"rental_uris":{"android":"levelo://app?vid=a2eaa8fe-9ee3-4783-9910-a0708dc6938b","ios":"levelo://app?vid=a2eaa8fe-9ee3-4783-9910-a0708dc6938b"},"vehicle_type_id":"4","last_reported":1775086002,"current_range_meters":6400,"station_id":"cpo3342slgdg3j2ifvpg","pricing_plan_id":"cebpf4jnsgd1na2vs0mg"},{"bike_id":"f6ced8d1-bf4c-433b-9ac4-01f185b043e1","system_id":"levelo_inurba_marseille","lat":43.24161,"lon":5.3639,"is_reserved":false,"is_disabled":false,"rental_uris":{"android":"levelo://app?vid=f6ced8d1-bf4c-433b-9ac4-01f185b043e1","ios":"levelo://app?vid=f6ced8d1-bf4c-433b-9ac4-01f185b043e1"},"vehicle_type_id":"4","last_reported":1775086002,"current_range_meters":6400,"station_id":"cpo36qri1sfpv3e86is0","pricing_plan_id":"cebpf4jnsgd1na2vs0mg"},{"bike_id":"27d42570-0fa7-41ba-848c-a0082bf91246","system_id":"levelo_inurba_marseille","lat":43.28697,"lon":5.3635,"is_reserved":false,"is_disabled":false,"rental_uris":{"android":"levelo://app?vid=27d42570-0fa7-41ba-848c-a0082bf91246","ios":"levelo://app?vid=27d42570-0fa7-41ba-848c-a0082bf91246"},"vehicle_type_id":"4","last_reported":1775086002,"current_range_meters":6400,"station_id":"ce4bhah2rcd13ifvqej0","pricing_plan_id":"cebpf4jnsgd1na2vs0mg"},{"bike_id":"d5d3c35b-4420-4569-83eb-e2eef5fa6559","system_id":"levelo_inurba_marseille","lat":43.22563,"lon":5.41623,"is_reserved":false,"is_disabled":false,"rental_uris":{"android":"levelo://app?vid=d5d3c35b-4420-4569-83eb-e2eef5fa6559","ios":"levelo://app?vid=d5d3c35b-4420-4569-83eb-e2eef5fa6559"},"vehicle_type_id":"4","last_reported":1775086002,"current_range_meters":6400,"station_id":"st_d2o4gvlbi1j2169b742g","pricing_plan_id":"cebpf4jnsgd1na2vs0mg"},{"bike_id":"6c3b2188-ad26-44f1-97bc-4de5c5fe5d74","system_id":"levelo_inurba_marseille","lat":43.28478,"lon":5.48397,"is_reserved":false,"is_disabled":false,"rental_uris":{"android":"levelo://app?vid=6c3b2188-ad26-44f1-97bc-4de5c5fe5d74","ios":"levelo://app?vid=6c3b2188-ad26-44f1-97bc-4de5c5fe5d74"},"vehicle_type_id":"4","last_reported":1775086002,"current_range_meters":6400,"station_id":"","pricing_plan_id":"cebpf4jnsgd1na2vs0mg"},{"bike_id":"0206ffc5-0182-40fd-8d99-4000e06086be","system_id":"levelo_inurba_marseille","lat":43.29524,"lon":5.38649,"is_reserved":false,"is_disabled":true,"rental_uris":{"android":"levelo://app?vid=0206ffc5-0182-40fd-8d99-4000e06086be","ios":"levelo://app?vid=0206ffc5-0182-40fd-8d99-4000e06086be"},"vehicle_type_id":"4","last_reported":1775086002,"current_range_meters":6400,"station_id":"","pricing_plan_id":"cebpf4jnsgd1na2vs0mg"},{"bike_id":"febd890f-8091-48ad-815e-abf0b801ed37","system_id":"levelo_inurba_marseille","lat":43.24401,"lon":5.37063,"is_reserved":false,"is_disabled":false,"rental_uris":{"android":"levelo://app?vid=febd890f-8091-48ad-815e-abf0b801ed37","ios":"levelo://app?vid=febd890f-8091-48ad-815e-abf0b801ed37"},"vehicle_type_id":"4","last_reported":1775086002,"current_range_meters":6400,"station_id":"ce4bhhh2rcd13ifvqfk0","pricing_plan_id":"cebpf4jnsgd1na2vs0mg"},{"bike_id":"414e0a70-6dfc-4ae8-82b3-ec8ad75a8436","system_id":"levelo_inurba_marseille","lat":43.25576,"lon":5.38241,"is_reserved":false,"is_disabled":false,"rental_uris":{"android":"levelo://app?vid=414e0a70-6dfc-4ae8-82b3-ec8ad75a8436","ios":"levelo://app?vid=414e0a70-6dfc-4ae8-82b3-ec8ad75a8436"},"vehicle_type_id":"4","last_reported":1775086002,"current_range_meters":6400,"station_id":"ce4bhih2rcd13ifvqfs0","pricing_plan_id":"cebpf4jnsgd1na2vs0mg"},{"bike_id":"fecffeca-410e-4070-8359-8825e6db9490","system_id":"levelo_inurba_marseille","lat":43.30093,"lon":5.3906,"is_reserved":false,"is_disabled":false,"rental_uris":{"android":"levelo://app?vid=fecffeca-410e-4070-8359-8825e6db9490","ios":"levelo://app?vid=fecffeca-410e-4070-8359-8825e6db9490"},"vehicle_type_id":"4","last_reported":1775086002,"current_range_meters":6400,"station_id":"ce4bh192rcd13ifvqdb0","pricing_plan_id":"cebpf4jnsgd1na2vs0mg"},{"bike_id":"af98af6b-30a9-4b51-b2d8-abcff94d6a5a","system_id":"levelo_inurba_marseille","lat":43.2894,"lon":5.36409,"is_reserved":false,"is_disabled":false,"rental_uris":{"android":"levelo://app?vid=af98af6b-30a9-4b51-b2d8-abcff94d6a5a","ios":"levelo://app?vid=af98af6b-30a9-4b51-b2d8-abcff94d6a5a"},"vehicle_type_id":"4","last_reported":1775086002,"current_range_meters":6400,"station_id":"ce4bhc92rcd13ifvqetg","pricing_plan_id":"cebpf4jnsgd1na2vs0mg"},{"bike_id":"34202a4d-30c4-4b01-92b6-12f62e5395d5","system_id":"levelo_inurba_marseille","lat":43.24953,"lon":5.4048,"is_reserved":false,"is_disabled":false,"rental_uris":{"android":"levelo://app?vid=34202a4d-30c4-4b01-92b6-12f62e5395d5","ios":"levelo://app?vid=34202a4d-30c4-4b01-92b6-12f62e5395d5"},"vehicle_type_id":"4","last_reported":1775086002,"current_range_meters":6400,"station_id":"st_d2ngiaodas8pm72gd1h0","pricing_plan_id":"cebpf4jnsgd1na2vs0mg"},{"bike_id":"bed085cd-e643-4cf8-a83c-4e3f37218df7","system_id":"levelo_inurba_marseille","lat":43.23133,"lon":5.40191,"is_reserved":false,"is_disabled":false,"rental_uris":{"android":"levelo://app?vid=bed085cd-e643-4cf8-a83c-4e3f37218df7","ios":"levelo://app?vid=bed085cd-e643-4cf8-a83c-4e3f37218df7"},"vehicle_type_id":"4","last_reported":1775086002,"current_range_meters":6400,"station_id":"","pricing_plan_id":"cebpf4jnsgd1na2vs0mg"},{"bike_id":"751823b1-fecf-476f-a14d-b22ea92d3e4c","system_id":"levelo_inurba_marseille","lat":43.29278,"lon":5.42764,"is_reserved":false,"is_disabled":false,"rental_uris":{"android":"levelo://app?vid=751823b1-fecf-476f-a14d-b22ea92d3e4c","ios":"levelo://app?vid=751823b1-fecf-476f-a14d-b22ea92d3e4c"},"vehicle_type_id":"4","last_reported":1775086002,"current_range_meters":6400,"station_id":"","pricing_plan_id":"cebpf4jnsgd1na2vs0mg"},{"bike_id":"6b30b689-0e8e-4a7c-bff0-3186003a6265","system_id":"levelo_inurba_marseille","lat":43.25036,"lon":5.3891,"is_reserved":false,"is_disabled":false,"rental_uris":{"android":"levelo://app?vid=6b30b689-0e8e-4a7c-bff0-3186003a6265","ios":"levelo://app?vid=6b30b689-0e8e-4a7c-bff0-3186003a6265"},"vehicle_type_id":"4","last_reported":1775086002,"current_range_meters":6400,"station_id":"ce4bhgp2rcd13ifvqfd0","pricing_plan_id":"cebpf4jnsgd1na2vs0mg"},{"bike_id":"2c78b9d7-6797-4c09-ad87-2e1c14443b34","system_id":"levelo_inurba_marseille","lat":43.28569,"lon":5.4292,"is_reserved":false,"is_disabled":false,"rental_uris":{"android":"levelo://app?vid=2c78b9d7-6797-4c09-ad87-2e1c14443b34","ios":"levelo://app?vid=2c78b9d7-6797-4c09-ad87-2e1c14443b34"},"vehicle_type_id":"4","last_reported":1775086002,"current_range_meters":6400,"station_id":"","pricing_plan_id":"cebpf4jnsgd1na2vs0mg"},{"bike_id":"2f0480ee-473a-41d0-8675-243fbb55b4a3","system_id":"levelo_inurba_marseille","lat":43.29793,"lon":5.38076,"is_reserved":false,"is_disabled":true,"rental_uris":{"android":"levelo://app?vid=2f0480ee-473a-41d0-8675-243fbb55b4a3","ios":"levelo://app?vid=2f0480ee-473a-41d0-8675-243fbb55b4a3"},"vehicle_type_id":"4","last_reported":1775086002,"current_range_meters":6800,"station_id":"ce4bgip2rcd13ifvqbb0","pricing_plan_id":"cebpf4jnsgd1na2vs0mg"},{"bike_id":"52dc2264-cce2-4d05-81cc-597b892a962a","system_id":"levelo_inurba_marseille","lat":43.28424,"lon":5.34986,"is_reserved":false,"is_disabled":false,"rental_uris":{"android":"levelo://app?vid=52dc2264-cce2-4d05-81cc-597b892a962a","ios":"levelo://app?vid=52dc2264-cce2-4d05-81cc-597b892a962a"},"vehicle_type_id":"4","last_reported":1775086002,"current_range_meters":6800,"station_id":"ce4bhbh2rcd13ifvqepg","pricing_plan_id":"cebpf4jnsgd1na2vs0mg"},{"bike_id":"5ad8943b-6c48-4127-8ba1-c7f647a9f547","system_id":"levelo_inurba_marseille","lat":43.31056,"lon":5.37156,"is_reserved":false,"is_disabled":false,"rental_uris":{"android":"levelo://app?vid=5ad8943b-6c48-4127-8ba1-c7f647a9f547","ios":"levelo://app?vid=5ad8943b-6c48-4127-8ba1-c7f647a9f547"},"vehicle_type_id":"4","last_reported":1775086002,"current_range_meters":6800,"station_id":"st_d4kl2rp97mjs73e7tdfg","pricing_plan_id":"cebpf4jnsgd1na2vs0mg"},{"bike_id":"5691a38e-f695-4e08-b0d1-db8ed4e6e581","system_id":"levelo_inurba_marseille","lat":43.24392,"lon":5.37063,"is_reserved":false,"is_disabled":false,"rental_uris":{"android":"levelo://app?vid=5691a38e-f695-4e08-b0d1-db8ed4e6e581","ios":"levelo://app?vid=5691a38e-f695-4e08-b0d1-db8ed4e6e581"},"vehicle_type_id":"4","last_reported":1775086002,"current_range_meters":6800,"station_id":"ce4bhhh2rcd13ifvqfk0","pricing_plan_id":"cebpf4jnsgd1na2vs0mg"},{"bike_id":"b9a2dc0a-a78c-4ec1-b214-1ebc47ea2ab0","system_id":"levelo_inurba_marseille","lat":43.22548,"lon":5.41646,"is_reserved":false,"is_disabled":false,"rental_uris":{"android":"levelo://app?vid=b9a2dc0a-a78c-4ec1-b214-1ebc47ea2ab0","ios":"levelo://app?vid=b9a2dc0a-a78c-4ec1-b214-1ebc47ea2ab0"},"vehicle_type_id":"4","last_reported":1775086002,"current_range_meters":6800,"station_id":"st_d2o4gvlbi1j2169b742g","pricing_plan_id":"cebpf4jnsgd1na2vs0mg"},{"bike_id":"ce8c76c9-8d46-40c8-b510-58f72cf4c10f","system_id":"levelo_inurba_marseille","lat":43.28429,"lon":5.34986,"is_reserved":false,"is_disabled":false,"rental_uris":{"android":"levelo://app?vid=ce8c76c9-8d46-40c8-b510-58f72cf4c10f","ios":"levelo://app?vid=ce8c76c9-8d46-40c8-b510-58f72cf4c10f"},"vehicle_type_id":"4","last_reported":1775086002,"current_range_meters":6800,"station_id":"ce4bhbh2rcd13ifvqepg","pricing_plan_id":"cebpf4jnsgd1na2vs0mg"},{"bike_id":"321f710a-6ce5-4d89-9a99-5e86776bad12","system_id":"levelo_inurba_marseille","lat":43.29891,"lon":5.37468,"is_reserved":false,"is_disabled":false,"rental_uris":{"android":"levelo://app?vid=321f710a-6ce5-4d89-9a99-5e86776bad12","ios":"levelo://app?vid=321f710a-6ce5-4d89-9a99-5e86776bad12"},"vehicle_type_id":"4","last_reported":1775086002,"current_range_meters":6800,"station_id":"ce4bgjh2rcd13ifvqbg0","pricing_plan_id":"cebpf4jnsgd1na2vs0mg"},{"bike_id":"9f379acd-775f-40aa-a2ad-0898810cd24c","system_id":"levelo_inurba_marseille","lat":43.24411,"lon":5.37059,"is_reserved":false,"is_disabled":false,"rental_uris":{"android":"levelo://app?vid=9f379acd-775f-40aa-a2ad-0898810cd24c","ios":"levelo://app?vid=9f379acd-775f-40aa-a2ad-0898810cd24c"},"vehicle_type_id":"4","last_reported":1775086002,"current_range_meters":6800,"station_id":"ce4bhhh2rcd13ifvqfk0","pricing_plan_id":"cebpf4jnsgd1na2vs0mg"},{"bike_id":"1c4fc01e-92f7-4653-970d-e3c3f4dc69ac","system_id":"levelo_inurba_marseille","lat":43.30772,"lon":5.37656,"is_reserved":false,"is_disabled":false,"rental_uris":{"android":"levelo://app?vid=1c4fc01e-92f7-4653-970d-e3c3f4dc69ac","ios":"levelo://app?vid=1c4fc01e-92f7-4653-970d-e3c3f4dc69ac"},"vehicle_type_id":"4","last_reported":1775086002,"current_range_meters":6800,"station_id":"ce4bgv92rcd13ifvqcq0","pricing_plan_id":"cebpf4jnsgd1na2vs0mg"},{"bike_id":"ac9cfb47-6491-4537-bdd0-177ab07e5667","system_id":"levelo_inurba_marseille","lat":43.31365,"lon":5.36738,"is_reserved":false,"is_disabled":false,"rental_uris":{"android":"levelo://app?vid=ac9cfb47-6491-4537-bdd0-177ab07e5667","ios":"levelo://app?vid=ac9cfb47-6491-4537-bdd0-177ab07e5667"},"vehicle_type_id":"4","last_reported":1775086002,"current_range_meters":6800,"station_id":"ce4bgr92rcd13ifvqc6g","pricing_plan_id":"cebpf4jnsgd1na2vs0mg"},{"bike_id":"68945dd7-fcc7-4d4c-a459-6c84a8a17358","system_id":"levelo_inurba_marseille","lat":43.23935,"lon":5.36659,"is_reserved":false,"is_disabled":false,"rental_uris":{"android":"levelo://app?vid=68945dd7-fcc7-4d4c-a459-6c84a8a17358","ios":"levelo://app?vid=68945dd7-fcc7-4d4c-a459-6c84a8a17358"},"vehicle_type_id":"4","last_reported":1775086002,"current_range_meters":6800,"station_id":"ce4bhi12rcd13ifvqfp0","pricing_plan_id":"cebpf4jnsgd1na2vs0mg"},{"bike_id":"19d804f8-e022-4728-979b-c94761dfb083","system_id":"levelo_inurba_marseille","lat":43.23778,"lon":5.36628,"is_reserved":false,"is_disabled":false,"rental_uris":{"android":"levelo://app?vid=19d804f8-e022-4728-979b-c94761dfb083","ios":"levelo://app?vid=19d804f8-e022-4728-979b-c94761dfb083"},"vehicle_type_id":"4","last_reported":1775086002,"current_range_meters":6800,"station_id":"st_d3nk18o9ro0c73en2l3g","pricing_plan_id":"cebpf4jnsgd1na2vs0mg"},{"bike_id":"10c7e1df-3e25-4af5-9566-4c7777472b9e","system_id":"levelo_inurba_marseille","lat":43.28407,"lon":5.37524,"is_reserved":false,"is_disabled":false,"rental_uris":{"android":"levelo://app?vid=10c7e1df-3e25-4af5-9566-4c7777472b9e","ios":"levelo://app?vid=10c7e1df-3e25-4af5-9566-4c7777472b9e"},"vehicle_type_id":"4","last_reported":1775086002,"current_range_meters":6800,"station_id":"ce4bh412rcd13ifvqds0","pricing_plan_id":"cebpf4jnsgd1na2vs0mg"},{"bike_id":"6ee576b8-0d43-4935-b534-dcb1d51f05f8","system_id":"levelo_inurba_marseille","lat":43.26548,"lon":5.37287,"is_reserved":false,"is_disabled":false,"rental_uris":{"android":"levelo://app?vid=6ee576b8-0d43-4935-b534-dcb1d51f05f8","ios":"levelo://app?vid=6ee576b8-0d43-4935-b534-dcb1d51f05f8"},"vehicle_type_id":"4","last_reported":1775086002,"current_range_meters":6800,"station_id":"ce4bhg12rcd13ifvqf70","pricing_plan_id":"cebpf4jnsgd1na2vs0mg"},{"bike_id":"35aa1e33-b167-4ee5-a0db-f2b1af0733ab","system_id":"levelo_inurba_marseille","lat":43.2721,"lon":5.41023,"is_reserved":false,"is_disabled":false,"rental_uris":{"android":"levelo://app?vid=35aa1e33-b167-4ee5-a0db-f2b1af0733ab","ios":"levelo://app?vid=35aa1e33-b167-4ee5-a0db-f2b1af0733ab"},"vehicle_type_id":"4","last_reported":1775086002,"current_range_meters":6800,"station_id":"ce4bhl12rcd13ifvqgf0","pricing_plan_id":"cebpf4jnsgd1na2vs0mg"},{"bike_id":"60d5c009-3e26-4b62-82fd-68a6ccd0e04a","system_id":"levelo_inurba_marseille","lat":43.29535,"lon":5.37512,"is_reserved":false,"is_disabled":false,"rental_uris":{"android":"levelo://app?vid=60d5c009-3e26-4b62-82fd-68a6ccd0e04a","ios":"levelo://app?vid=60d5c009-3e26-4b62-82fd-68a6ccd0e04a"},"vehicle_type_id":"4","last_reported":1775086002,"current_range_meters":6800,"station_id":"ce4bgkp2rcd13ifvqbmg","pricing_plan_id":"cebpf4jnsgd1na2vs0mg"},{"bike_id":"da46a4c6-14ff-4547-851e-67aeaa7cd5b0","system_id":"levelo_inurba_marseille","lat":43.24803,"lon":5.37443,"is_reserved":false,"is_disabled":false,"rental_uris":{"android":"levelo://app?vid=da46a4c6-14ff-4547-851e-67aeaa7cd5b0","ios":"levelo://app?vid=da46a4c6-14ff-4547-851e-67aeaa7cd5b0"},"vehicle_type_id":"4","last_reported":1775086002,"current_range_meters":6800,"station_id":"ce4bhgh2rcd13ifvqfb0","pricing_plan_id":"cebpf4jnsgd1na2vs0mg"},{"bike_id":"b63c5372-2e13-47e6-b787-b4f49a0c6508","system_id":"levelo_inurba_marseille","lat":43.26791,"lon":5.39411,"is_reserved":false,"is_disabled":false,"rental_uris":{"android":"levelo://app?vid=b63c5372-2e13-47e6-b787-b4f49a0c6508","ios":"levelo://app?vid=b63c5372-2e13-47e6-b787-b4f49a0c6508"},"vehicle_type_id":"4","last_reported":1775086002,"current_range_meters":6800,"station_id":"ce4bhh12rcd13ifvqfg0","pricing_plan_id":"cebpf4jnsgd1na2vs0mg"},{"bike_id":"a17dbbf9-2919-4aa7-a6bc-4d101b9dc30c","system_id":"levelo_inurba_marseille","lat":43.27521,"lon":5.40972,"is_reserved":false,"is_disabled":false,"rental_uris":{"android":"levelo://app?vid=a17dbbf9-2919-4aa7-a6bc-4d101b9dc30c","ios":"levelo://app?vid=a17dbbf9-2919-4aa7-a6bc-4d101b9dc30c"},"vehicle_type_id":"4","last_reported":1775086002,"current_range_meters":6800,"station_id":"","pricing_plan_id":"cebpf4jnsgd1na2vs0mg"},{"bike_id":"32bbc785-7878-457c-9b63-c753cac045af","system_id":"levelo_inurba_marseille","lat":43.21755,"lon":5.34609,"is_reserved":false,"is_disabled":false,"rental_uris":{"android":"levelo://app?vid=32bbc785-7878-457c-9b63-c753cac045af","ios":"levelo://app?vid=32bbc785-7878-457c-9b63-c753cac045af"},"vehicle_type_id":"4","last_reported":1775086002,"current_range_meters":6800,"station_id":"st_cvj6r9ubvosntc0bgbag","pricing_plan_id":"cebpf4jnsgd1na2vs0mg"},{"bike_id":"663f083f-00a2-4b8f-950e-3aa403228b3d","system_id":"levelo_inurba_marseille","lat":43.22583,"lon":5.4168,"is_reserved":false,"is_disabled":false,"rental_uris":{"android":"levelo://app?vid=663f083f-00a2-4b8f-950e-3aa403228b3d","ios":"levelo://app?vid=663f083f-00a2-4b8f-950e-3aa403228b3d"},"vehicle_type_id":"4","last_reported":1775086002,"current_range_meters":6800,"station_id":"st_d2o4gvlbi1j2169b742g","pricing_plan_id":"cebpf4jnsgd1na2vs0mg"},{"bike_id":"c01d9e49-fff9-456c-8c86-45ce90e055c7","system_id":"levelo_inurba_marseille","lat":43.31193,"lon":5.36911,"is_reserved":false,"is_disabled":false,"rental_uris":{"android":"levelo://app?vid=c01d9e49-fff9-456c-8c86-45ce90e055c7","ios":"levelo://app?vid=c01d9e49-fff9-456c-8c86-45ce90e055c7"},"vehicle_type_id":"4","last_reported":1775086002,"current_range_meters":6800,"station_id":"","pricing_plan_id":"cebpf4jnsgd1na2vs0mg"},{"bike_id":"4de7b28a-2ee1-4dd8-880c-371c7c96997d","system_id":"levelo_inurba_marseille","lat":43.22941,"lon":5.35371,"is_reserved":false,"is_disabled":false,"rental_uris":{"android":"levelo://app?vid=4de7b28a-2ee1-4dd8-880c-371c7c96997d","ios":"levelo://app?vid=4de7b28a-2ee1-4dd8-880c-371c7c96997d"},"vehicle_type_id":"4","last_reported":1775086002,"current_range_meters":6800,"station_id":"cpo3532slgdg3j2ikp40","pricing_plan_id":"cebpf4jnsgd1na2vs0mg"},{"bike_id":"c267eaf3-200a-4a1c-8074-fa1f1a8154c6","system_id":"levelo_inurba_marseille","lat":43.21749,"lon":5.34615,"is_reserved":false,"is_disabled":false,"rental_uris":{"android":"levelo://app?vid=c267eaf3-200a-4a1c-8074-fa1f1a8154c6","ios":"levelo://app?vid=c267eaf3-200a-4a1c-8074-fa1f1a8154c6"},"vehicle_type_id":"4","last_reported":1775086002,"current_range_meters":6800,"station_id":"st_cvj6r9ubvosntc0bgbag","pricing_plan_id":"cebpf4jnsgd1na2vs0mg"},{"bike_id":"465c3b97-fa3b-4987-a0da-c02fe6cfecbd","system_id":"levelo_inurba_marseille","lat":43.31054,"lon":5.37169,"is_reserved":false,"is_disabled":false,"rental_uris":{"android":"levelo://app?vid=465c3b97-fa3b-4987-a0da-c02fe6cfecbd","ios":"levelo://app?vid=465c3b97-fa3b-4987-a0da-c02fe6cfecbd"},"vehicle_type_id":"4","last_reported":1775086002,"current_range_meters":7200,"station_id":"st_d4kl2rp97mjs73e7tdfg","pricing_plan_id":"cebpf4jnsgd1na2vs0mg"},{"bike_id":"fa52ce35-6ea9-4f46-bfd2-c8715437ce36","system_id":"levelo_inurba_marseille","lat":43.31036,"lon":5.37184,"is_reserved":false,"is_disabled":false,"rental_uris":{"android":"levelo://app?vid=fa52ce35-6ea9-4f46-bfd2-c8715437ce36","ios":"levelo://app?vid=fa52ce35-6ea9-4f46-bfd2-c8715437ce36"},"vehicle_type_id":"4","last_reported":1775086002,"current_range_meters":7200,"station_id":"st_d4kl2rp97mjs73e7tdfg","pricing_plan_id":"cebpf4jnsgd1na2vs0mg"},{"bike_id":"044d0e04-4a13-414f-aa0d-6345aea274e6","system_id":"levelo_inurba_marseille","lat":43.29591,"lon":5.37494,"is_reserved":false,"is_disabled":true,"rental_uris":{"android":"levelo://app?vid=044d0e04-4a13-414f-aa0d-6345aea274e6","ios":"levelo://app?vid=044d0e04-4a13-414f-aa0d-6345aea274e6"},"vehicle_type_id":"4","last_reported":1775086002,"current_range_meters":7200,"station_id":"ce4bgh92rcd13ifvqb50","pricing_plan_id":"cebpf4jnsgd1na2vs0mg"},{"bike_id":"b97544d4-fc20-4746-a137-2d69f3584b87","system_id":"levelo_inurba_marseille","lat":43.22534,"lon":5.34827,"is_reserved":false,"is_disabled":false,"rental_uris":{"android":"levelo://app?vid=b97544d4-fc20-4746-a137-2d69f3584b87","ios":"levelo://app?vid=b97544d4-fc20-4746-a137-2d69f3584b87"},"vehicle_type_id":"4","last_reported":1775086002,"current_range_meters":7200,"station_id":"st_cvj5dfep6f1abm77gieg","pricing_plan_id":"cebpf4jnsgd1na2vs0mg"},{"bike_id":"62bf82c9-a7d6-485f-b660-bbbb2d4f54e9","system_id":"levelo_inurba_marseille","lat":43.24388,"lon":5.37041,"is_reserved":false,"is_disabled":false,"rental_uris":{"android":"levelo://app?vid=62bf82c9-a7d6-485f-b660-bbbb2d4f54e9","ios":"levelo://app?vid=62bf82c9-a7d6-485f-b660-bbbb2d4f54e9"},"vehicle_type_id":"4","last_reported":1775086002,"current_range_meters":7200,"station_id":"ce4bhhh2rcd13ifvqfk0","pricing_plan_id":"cebpf4jnsgd1na2vs0mg"},{"bike_id":"de3bdf23-33b1-4bf8-b651-d6927f99d5de","system_id":"levelo_inurba_marseille","lat":43.28412,"lon":5.34984,"is_reserved":false,"is_disabled":true,"rental_uris":{"android":"levelo://app?vid=de3bdf23-33b1-4bf8-b651-d6927f99d5de","ios":"levelo://app?vid=de3bdf23-33b1-4bf8-b651-d6927f99d5de"},"vehicle_type_id":"4","last_reported":1775086002,"current_range_meters":7200,"station_id":"ce4bhbh2rcd13ifvqepg","pricing_plan_id":"cebpf4jnsgd1na2vs0mg"},{"bike_id":"a08ca64a-2abc-4872-bcd9-336ced89a23d","system_id":"levelo_inurba_marseille","lat":43.24466,"lon":5.42549,"is_reserved":false,"is_disabled":false,"rental_uris":{"android":"levelo://app?vid=a08ca64a-2abc-4872-bcd9-336ced89a23d","ios":"levelo://app?vid=a08ca64a-2abc-4872-bcd9-336ced89a23d"},"vehicle_type_id":"4","last_reported":1775086002,"current_range_meters":7200,"station_id":"st_d4a3vfp97mjs738cd8kg","pricing_plan_id":"cebpf4jnsgd1na2vs0mg"},{"bike_id":"11d19dab-7798-472d-a3cd-c1ff1cf623a6","system_id":"levelo_inurba_marseille","lat":43.25011,"lon":5.3892,"is_reserved":false,"is_disabled":false,"rental_uris":{"android":"levelo://app?vid=11d19dab-7798-472d-a3cd-c1ff1cf623a6","ios":"levelo://app?vid=11d19dab-7798-472d-a3cd-c1ff1cf623a6"},"vehicle_type_id":"4","last_reported":1775086002,"current_range_meters":7200,"station_id":"ce4bhgp2rcd13ifvqfd0","pricing_plan_id":"cebpf4jnsgd1na2vs0mg"},{"bike_id":"abea10b1-774b-4f82-8aa2-d0aa188ebf1c","system_id":"levelo_inurba_marseille","lat":43.24823,"lon":5.37469,"is_reserved":false,"is_disabled":false,"rental_uris":{"android":"levelo://app?vid=abea10b1-774b-4f82-8aa2-d0aa188ebf1c","ios":"levelo://app?vid=abea10b1-774b-4f82-8aa2-d0aa188ebf1c"},"vehicle_type_id":"4","last_reported":1775086002,"current_range_meters":7200,"station_id":"ce4bhgh2rcd13ifvqfb0","pricing_plan_id":"cebpf4jnsgd1na2vs0mg"},{"bike_id":"ccb194b2-892a-4b87-b626-9cc5f83a997e","system_id":"levelo_inurba_marseille","lat":43.28694,"lon":5.3864,"is_reserved":false,"is_disabled":false,"rental_uris":{"android":"levelo://app?vid=ccb194b2-892a-4b87-b626-9cc5f83a997e","ios":"levelo://app?vid=ccb194b2-892a-4b87-b626-9cc5f83a997e"},"vehicle_type_id":"4","last_reported":1775086002,"current_range_meters":7200,"station_id":"","pricing_plan_id":"cebpf4jnsgd1na2vs0mg"},{"bike_id":"65624917-ced0-4e7e-8d7c-2f66f17f8433","system_id":"levelo_inurba_marseille","lat":43.25111,"lon":5.40326,"is_reserved":false,"is_disabled":false,"rental_uris":{"android":"levelo://app?vid=65624917-ced0-4e7e-8d7c-2f66f17f8433","ios":"levelo://app?vid=65624917-ced0-4e7e-8d7c-2f66f17f8433"},"vehicle_type_id":"4","last_reported":1775086002,"current_range_meters":7200,"station_id":"ce4bhlh2rcd13ifvqgig","pricing_plan_id":"cebpf4jnsgd1na2vs0mg"},{"bike_id":"c308772a-7484-446f-8f13-5d6eb681589f","system_id":"levelo_inurba_marseille","lat":43.30174,"lon":5.39883,"is_reserved":false,"is_disabled":false,"rental_uris":{"android":"levelo://app?vid=c308772a-7484-446f-8f13-5d6eb681589f","ios":"levelo://app?vid=c308772a-7484-446f-8f13-5d6eb681589f"},"vehicle_type_id":"4","last_reported":1775086002,"current_range_meters":7200,"station_id":"","pricing_plan_id":"cebpf4jnsgd1na2vs0mg"},{"bike_id":"aa89b054-42f9-402c-a702-d3e9c8b31bba","system_id":"levelo_inurba_marseille","lat":43.28713,"lon":5.37383,"is_reserved":false,"is_disabled":false,"rental_uris":{"android":"levelo://app?vid=aa89b054-42f9-402c-a702-d3e9c8b31bba","ios":"levelo://app?vid=aa89b054-42f9-402c-a702-d3e9c8b31bba"},"vehicle_type_id":"4","last_reported":1775086002,"current_range_meters":7200,"station_id":"ce4bh3p2rcd13ifvqdq0","pricing_plan_id":"cebpf4jnsgd1na2vs0mg"},{"bike_id":"37e620bb-6775-4c46-a673-1c637b88c2a0","system_id":"levelo_inurba_marseille","lat":43.24396,"lon":5.37057,"is_reserved":false,"is_disabled":false,"rental_uris":{"android":"levelo://app?vid=37e620bb-6775-4c46-a673-1c637b88c2a0","ios":"levelo://app?vid=37e620bb-6775-4c46-a673-1c637b88c2a0"},"vehicle_type_id":"4","last_reported":1775086002,"current_range_meters":7200,"station_id":"ce4bhhh2rcd13ifvqfk0","pricing_plan_id":"cebpf4jnsgd1na2vs0mg"},{"bike_id":"28902c85-2ce9-4ec9-adfe-51cf4064fa09","system_id":"levelo_inurba_marseille","lat":43.28497,"lon":5.39199,"is_reserved":false,"is_disabled":true,"rental_uris":{"android":"levelo://app?vid=28902c85-2ce9-4ec9-adfe-51cf4064fa09","ios":"levelo://app?vid=28902c85-2ce9-4ec9-adfe-51cf4064fa09"},"vehicle_type_id":"4","last_reported":1775086002,"current_range_meters":7200,"station_id":"ce4bhoh2rcd13ifvqh5g","pricing_plan_id":"cebpf4jnsgd1na2vs0mg"},{"bike_id":"e41e3697-59e4-4346-81a5-c14ee6c184fd","system_id":"levelo_inurba_marseille","lat":43.225359,"lon":5.348282,"is_reserved":false,"is_disabled":false,"rental_uris":{"android":"levelo://app?vid=e41e3697-59e4-4346-81a5-c14ee6c184fd","ios":"levelo://app?vid=e41e3697-59e4-4346-81a5-c14ee6c184fd"},"vehicle_type_id":"4","last_reported":1775086002,"current_range_meters":7200,"station_id":"","pricing_plan_id":"cebpf4jnsgd1na2vs0mg"},{"bike_id":"17b8fc26-3ba8-4cf9-a457-0b2cc0ec871e","system_id":"levelo_inurba_marseille","lat":43.27507,"lon":5.41653,"is_reserved":false,"is_disabled":false,"rental_uris":{"android":"levelo://app?vid=17b8fc26-3ba8-4cf9-a457-0b2cc0ec871e","ios":"levelo://app?vid=17b8fc26-3ba8-4cf9-a457-0b2cc0ec871e"},"vehicle_type_id":"4","last_reported":1775086002,"current_range_meters":7200,"station_id":"","pricing_plan_id":"cebpf4jnsgd1na2vs0mg"},{"bike_id":"f46616a9-3a20-4934-ad51-3a5a7b5308f4","system_id":"levelo_inurba_marseille","lat":43.28446,"lon":5.35005,"is_reserved":false,"is_disabled":false,"rental_uris":{"android":"levelo://app?vid=f46616a9-3a20-4934-ad51-3a5a7b5308f4","ios":"levelo://app?vid=f46616a9-3a20-4934-ad51-3a5a7b5308f4"},"vehicle_type_id":"4","last_reported":1775086002,"current_range_meters":7200,"station_id":"ce4bhbh2rcd13ifvqepg","pricing_plan_id":"cebpf4jnsgd1na2vs0mg"},{"bike_id":"900f6954-667b-42a8-86aa-d50ceeeb00a4","system_id":"levelo_inurba_marseille","lat":43.24073,"lon":5.37759,"is_reserved":false,"is_disabled":false,"rental_uris":{"android":"levelo://app?vid=900f6954-667b-42a8-86aa-d50ceeeb00a4","ios":"levelo://app?vid=900f6954-667b-42a8-86aa-d50ceeeb00a4"},"vehicle_type_id":"4","last_reported":1775086002,"current_range_meters":7200,"station_id":"ce4bhnp2rcd13ifvqgvg","pricing_plan_id":"cebpf4jnsgd1na2vs0mg"},{"bike_id":"08b1c43c-3000-48b8-be9c-eca1f7e6722c","system_id":"levelo_inurba_marseille","lat":43.27848,"lon":5.39189,"is_reserved":false,"is_disabled":false,"rental_uris":{"android":"levelo://app?vid=08b1c43c-3000-48b8-be9c-eca1f7e6722c","ios":"levelo://app?vid=08b1c43c-3000-48b8-be9c-eca1f7e6722c"},"vehicle_type_id":"4","last_reported":1775086002,"current_range_meters":7200,"station_id":"ce4bhjp2rcd13ifvqga0","pricing_plan_id":"cebpf4jnsgd1na2vs0mg"},{"bike_id":"adc36f79-18bb-4f77-bfeb-a2b57ca88aa7","system_id":"levelo_inurba_marseille","lat":43.30257,"lon":5.40064,"is_reserved":false,"is_disabled":false,"rental_uris":{"android":"levelo://app?vid=adc36f79-18bb-4f77-bfeb-a2b57ca88aa7","ios":"levelo://app?vid=adc36f79-18bb-4f77-bfeb-a2b57ca88aa7"},"vehicle_type_id":"4","last_reported":1775086002,"current_range_meters":7200,"station_id":"ce4bgvh2rcd13ifvqcs0","pricing_plan_id":"cebpf4jnsgd1na2vs0mg"},{"bike_id":"e2abc2c2-c213-452c-95d2-5f712fd68a27","system_id":"levelo_inurba_marseille","lat":43.31538,"lon":5.38021,"is_reserved":false,"is_disabled":false,"rental_uris":{"android":"levelo://app?vid=e2abc2c2-c213-452c-95d2-5f712fd68a27","ios":"levelo://app?vid=e2abc2c2-c213-452c-95d2-5f712fd68a27"},"vehicle_type_id":"4","last_reported":1775086002,"current_range_meters":7200,"station_id":"ce4bhsp2rcd13ifvqi50","pricing_plan_id":"cebpf4jnsgd1na2vs0mg"},{"bike_id":"052f68eb-b3d2-4c29-a99d-37f9d3e34be6","system_id":"levelo_inurba_marseille","lat":43.2487,"lon":5.42701,"is_reserved":false,"is_disabled":false,"rental_uris":{"android":"levelo://app?vid=052f68eb-b3d2-4c29-a99d-37f9d3e34be6","ios":"levelo://app?vid=052f68eb-b3d2-4c29-a99d-37f9d3e34be6"},"vehicle_type_id":"4","last_reported":1775086002,"current_range_meters":7200,"station_id":"","pricing_plan_id":"cebpf4jnsgd1na2vs0mg"},{"bike_id":"0e69b0e4-e969-4e49-83cc-5242656e04eb","system_id":"levelo_inurba_marseille","lat":43.24335,"lon":5.38488,"is_reserved":false,"is_disabled":false,"rental_uris":{"android":"levelo://app?vid=0e69b0e4-e969-4e49-83cc-5242656e04eb","ios":"levelo://app?vid=0e69b0e4-e969-4e49-83cc-5242656e04eb"},"vehicle_type_id":"4","last_reported":1775086002,"current_range_meters":7200,"station_id":"","pricing_plan_id":"cebpf4jnsgd1na2vs0mg"},{"bike_id":"cce71867-af00-4efb-acca-1ad994ce58c1","system_id":"levelo_inurba_marseille","lat":43.33161,"lon":5.37689,"is_reserved":false,"is_disabled":false,"rental_uris":{"android":"levelo://app?vid=cce71867-af00-4efb-acca-1ad994ce58c1","ios":"levelo://app?vid=cce71867-af00-4efb-acca-1ad994ce58c1"},"vehicle_type_id":"4","last_reported":1775086002,"current_range_meters":7200,"station_id":"st_d46cu089ee8s73dldbu0","pricing_plan_id":"cebpf4jnsgd1na2vs0mg"},{"bike_id":"bf757e89-2e50-49fa-8008-6ef862d3fc5e","system_id":"levelo_inurba_marseille","lat":43.32359,"lon":5.36722,"is_reserved":false,"is_disabled":false,"rental_uris":{"android":"levelo://app?vid=bf757e89-2e50-49fa-8008-6ef862d3fc5e","ios":"levelo://app?vid=bf757e89-2e50-49fa-8008-6ef862d3fc5e"},"vehicle_type_id":"4","last_reported":1775086002,"current_range_meters":7200,"station_id":"ce4bhsh2rcd13ifvqi2g","pricing_plan_id":"cebpf4jnsgd1na2vs0mg"},{"bike_id":"78151f0b-d096-4bc8-9d04-f28fec21246f","system_id":"levelo_inurba_marseille","lat":43.23186,"lon":5.39985,"is_reserved":false,"is_disabled":false,"rental_uris":{"android":"levelo://app?vid=78151f0b-d096-4bc8-9d04-f28fec21246f","ios":"levelo://app?vid=78151f0b-d096-4bc8-9d04-f28fec21246f"},"vehicle_type_id":"4","last_reported":1775086002,"current_range_meters":8000,"station_id":"ce4bhn12rcd13ifvqgqg","pricing_plan_id":"cebpf4jnsgd1na2vs0mg"},{"bike_id":"36dc4fd3-aaa2-4611-9b94-204704f06d4b","system_id":"levelo_inurba_marseille","lat":43.29315,"lon":5.37169,"is_reserved":false,"is_disabled":true,"rental_uris":{"android":"levelo://app?vid=36dc4fd3-aaa2-4611-9b94-204704f06d4b","ios":"levelo://app?vid=36dc4fd3-aaa2-4611-9b94-204704f06d4b"},"vehicle_type_id":"4","last_reported":1775086002,"current_range_meters":8000,"station_id":"ce4bgh92rcd13ifvqb40","pricing_plan_id":"cebpf4jnsgd1na2vs0mg"},{"bike_id":"8429f855-c4a0-4803-9ce7-0d1fb93dbfe8","system_id":"levelo_inurba_marseille","lat":43.28544,"lon":5.4835,"is_reserved":false,"is_disabled":false,"rental_uris":{"android":"levelo://app?vid=8429f855-c4a0-4803-9ce7-0d1fb93dbfe8","ios":"levelo://app?vid=8429f855-c4a0-4803-9ce7-0d1fb93dbfe8"},"vehicle_type_id":"4","last_reported":1775086002,"current_range_meters":8000,"station_id":"","pricing_plan_id":"cebpf4jnsgd1na2vs0mg"},{"bike_id":"1b89f2e1-0726-4a0a-ba7f-f4397fe41860","system_id":"levelo_inurba_marseille","lat":43.28604,"lon":5.38381,"is_reserved":false,"is_disabled":false,"rental_uris":{"android":"levelo://app?vid=1b89f2e1-0726-4a0a-ba7f-f4397fe41860","ios":"levelo://app?vid=1b89f2e1-0726-4a0a-ba7f-f4397fe41860"},"vehicle_type_id":"4","last_reported":1775086002,"current_range_meters":8000,"station_id":"","pricing_plan_id":"cebpf4jnsgd1na2vs0mg"},{"bike_id":"977fc7c3-1ec4-4662-b6a1-5d26f21089e8","system_id":"levelo_inurba_marseille","lat":43.24171,"lon":5.36401,"is_reserved":false,"is_disabled":false,"rental_uris":{"android":"levelo://app?vid=977fc7c3-1ec4-4662-b6a1-5d26f21089e8","ios":"levelo://app?vid=977fc7c3-1ec4-4662-b6a1-5d26f21089e8"},"vehicle_type_id":"4","last_reported":1775086002,"current_range_meters":8000,"station_id":"cpo36qri1sfpv3e86is0","pricing_plan_id":"cebpf4jnsgd1na2vs0mg"},{"bike_id":"2e6d6eb1-b9c4-442b-a422-3ee8e5570dac","system_id":"levelo_inurba_marseille","lat":43.23387,"lon":5.41238,"is_reserved":false,"is_disabled":false,"rental_uris":{"android":"levelo://app?vid=2e6d6eb1-b9c4-442b-a422-3ee8e5570dac","ios":"levelo://app?vid=2e6d6eb1-b9c4-442b-a422-3ee8e5570dac"},"vehicle_type_id":"4","last_reported":1775086002,"current_range_meters":8000,"station_id":"st_d75pvndhf9lc73cqq3eg","pricing_plan_id":"cebpf4jnsgd1na2vs0mg"},{"bike_id":"f8330ab7-3598-4d76-9724-087848b5c7ea","system_id":"levelo_inurba_marseille","lat":43.28213,"lon":5.39038,"is_reserved":false,"is_disabled":false,"rental_uris":{"android":"levelo://app?vid=f8330ab7-3598-4d76-9724-087848b5c7ea","ios":"levelo://app?vid=f8330ab7-3598-4d76-9724-087848b5c7ea"},"vehicle_type_id":"4","last_reported":1775086002,"current_range_meters":8000,"station_id":"ce4bhn92rcd13ifvqgsg","pricing_plan_id":"cebpf4jnsgd1na2vs0mg"},{"bike_id":"7b9afc77-0e17-48ba-b360-a407675726ad","system_id":"levelo_inurba_marseille","lat":43.2885,"lon":5.42512,"is_reserved":false,"is_disabled":false,"rental_uris":{"android":"levelo://app?vid=7b9afc77-0e17-48ba-b360-a407675726ad","ios":"levelo://app?vid=7b9afc77-0e17-48ba-b360-a407675726ad"},"vehicle_type_id":"4","last_reported":1775086002,"current_range_meters":8000,"station_id":"st_d3b462108ojc7389ooeg","pricing_plan_id":"cebpf4jnsgd1na2vs0mg"},{"bike_id":"d68f9baf-1c9a-43c9-9f17-e195ba928ede","system_id":"levelo_inurba_marseille","lat":43.28675,"lon":5.38653,"is_reserved":false,"is_disabled":false,"rental_uris":{"android":"levelo://app?vid=d68f9baf-1c9a-43c9-9f17-e195ba928ede","ios":"levelo://app?vid=d68f9baf-1c9a-43c9-9f17-e195ba928ede"},"vehicle_type_id":"4","last_reported":1775086002,"current_range_meters":8000,"station_id":"ce4bh492rcd13ifvqdug","pricing_plan_id":"cebpf4jnsgd1na2vs0mg"},{"bike_id":"53b8970d-aebb-44e3-9a37-db4295acf8ca","system_id":"levelo_inurba_marseille","lat":43.26224,"lon":5.40449,"is_reserved":false,"is_disabled":false,"rental_uris":{"android":"levelo://app?vid=53b8970d-aebb-44e3-9a37-db4295acf8ca","ios":"levelo://app?vid=53b8970d-aebb-44e3-9a37-db4295acf8ca"},"vehicle_type_id":"4","last_reported":1775086002,"current_range_meters":8000,"station_id":"ce4bhmh2rcd13ifvqgmg","pricing_plan_id":"cebpf4jnsgd1na2vs0mg"},{"bike_id":"b149b05d-17dc-4174-91fd-6a2d9bb13c8f","system_id":"levelo_inurba_marseille","lat":43.31673,"lon":5.38142,"is_reserved":false,"is_disabled":false,"rental_uris":{"android":"levelo://app?vid=b149b05d-17dc-4174-91fd-6a2d9bb13c8f","ios":"levelo://app?vid=b149b05d-17dc-4174-91fd-6a2d9bb13c8f"},"vehicle_type_id":"4","last_reported":1775086002,"current_range_meters":8000,"station_id":"","pricing_plan_id":"cebpf4jnsgd1na2vs0mg"},{"bike_id":"4f771167-3cde-401c-a9f7-e9554ff85c26","system_id":"levelo_inurba_marseille","lat":43.29085,"lon":5.37087,"is_reserved":false,"is_disabled":false,"rental_uris":{"android":"levelo://app?vid=4f771167-3cde-401c-a9f7-e9554ff85c26","ios":"levelo://app?vid=4f771167-3cde-401c-a9f7-e9554ff85c26"},"vehicle_type_id":"4","last_reported":1775086002,"current_range_meters":8000,"station_id":"ce4bh5p2rcd13ifvqe4g","pricing_plan_id":"cebpf4jnsgd1na2vs0mg"},{"bike_id":"0bccd438-ccc6-4db5-a746-92db398465e4","system_id":"levelo_inurba_marseille","lat":43.31342,"lon":5.3969,"is_reserved":false,"is_disabled":false,"rental_uris":{"android":"levelo://app?vid=0bccd438-ccc6-4db5-a746-92db398465e4","ios":"levelo://app?vid=0bccd438-ccc6-4db5-a746-92db398465e4"},"vehicle_type_id":"4","last_reported":1775086002,"current_range_meters":8000,"station_id":"ce4bgvp2rcd13ifvqcu0","pricing_plan_id":"cebpf4jnsgd1na2vs0mg"},{"bike_id":"4d5384d3-8484-4fd4-ab3e-42cf8d8ddb2b","system_id":"levelo_inurba_marseille","lat":43.28854,"lon":5.42504,"is_reserved":false,"is_disabled":false,"rental_uris":{"android":"levelo://app?vid=4d5384d3-8484-4fd4-ab3e-42cf8d8ddb2b","ios":"levelo://app?vid=4d5384d3-8484-4fd4-ab3e-42cf8d8ddb2b"},"vehicle_type_id":"4","last_reported":1775086002,"current_range_meters":8000,"station_id":"st_d3b462108ojc7389ooeg","pricing_plan_id":"cebpf4jnsgd1na2vs0mg"},{"bike_id":"e9b3f906-3c96-41d2-bde3-70019147dd95","system_id":"levelo_inurba_marseille","lat":43.22547,"lon":5.4159,"is_reserved":false,"is_disabled":false,"rental_uris":{"android":"levelo://app?vid=e9b3f906-3c96-41d2-bde3-70019147dd95","ios":"levelo://app?vid=e9b3f906-3c96-41d2-bde3-70019147dd95"},"vehicle_type_id":"4","last_reported":1775086002,"current_range_meters":8000,"station_id":"st_d2o4gvlbi1j2169b742g","pricing_plan_id":"cebpf4jnsgd1na2vs0mg"},{"bike_id":"e8197674-fbc2-4124-a196-4530cf1aab60","system_id":"levelo_inurba_marseille","lat":43.24392,"lon":5.37029,"is_reserved":false,"is_disabled":false,"rental_uris":{"android":"levelo://app?vid=e8197674-fbc2-4124-a196-4530cf1aab60","ios":"levelo://app?vid=e8197674-fbc2-4124-a196-4530cf1aab60"},"vehicle_type_id":"4","last_reported":1775086002,"current_range_meters":8000,"station_id":"ce4bhhh2rcd13ifvqfk0","pricing_plan_id":"cebpf4jnsgd1na2vs0mg"},{"bike_id":"2be64f19-432b-4d07-98a7-6e9bfd23e981","system_id":"levelo_inurba_marseille","lat":43.29764,"lon":5.42773,"is_reserved":false,"is_disabled":false,"rental_uris":{"android":"levelo://app?vid=2be64f19-432b-4d07-98a7-6e9bfd23e981","ios":"levelo://app?vid=2be64f19-432b-4d07-98a7-6e9bfd23e981"},"vehicle_type_id":"4","last_reported":1775086002,"current_range_meters":8000,"station_id":"st_d3md5207bmas73dh9klg","pricing_plan_id":"cebpf4jnsgd1na2vs0mg"},{"bike_id":"5a2153aa-dfb4-49a1-8faf-9a3fbfb1ae5b","system_id":"levelo_inurba_marseille","lat":43.31994,"lon":5.38143,"is_reserved":false,"is_disabled":false,"rental_uris":{"android":"levelo://app?vid=5a2153aa-dfb4-49a1-8faf-9a3fbfb1ae5b","ios":"levelo://app?vid=5a2153aa-dfb4-49a1-8faf-9a3fbfb1ae5b"},"vehicle_type_id":"4","last_reported":1775086002,"current_range_meters":8000,"station_id":"ce4bhr12rcd13ifvqhpg","pricing_plan_id":"cebpf4jnsgd1na2vs0mg"},{"bike_id":"1bdbf982-d656-4173-91b1-d3055e78d6cd","system_id":"levelo_inurba_marseille","lat":43.22557,"lon":5.41631,"is_reserved":false,"is_disabled":false,"rental_uris":{"android":"levelo://app?vid=1bdbf982-d656-4173-91b1-d3055e78d6cd","ios":"levelo://app?vid=1bdbf982-d656-4173-91b1-d3055e78d6cd"},"vehicle_type_id":"4","last_reported":1775086002,"current_range_meters":8000,"station_id":"st_d2o4gvlbi1j2169b742g","pricing_plan_id":"cebpf4jnsgd1na2vs0mg"},{"bike_id":"8d3b6e32-069c-43bf-8193-e4b854d92e72","system_id":"levelo_inurba_marseille","lat":43.30332,"lon":5.40422,"is_reserved":false,"is_disabled":false,"rental_uris":{"android":"levelo://app?vid=8d3b6e32-069c-43bf-8193-e4b854d92e72","ios":"levelo://app?vid=8d3b6e32-069c-43bf-8193-e4b854d92e72"},"vehicle_type_id":"4","last_reported":1775086002,"current_range_meters":8000,"station_id":"ce4bh012rcd13ifvqd10","pricing_plan_id":"cebpf4jnsgd1na2vs0mg"},{"bike_id":"b5ae8863-5ae1-4704-a012-be1cae3de045","system_id":"levelo_inurba_marseille","lat":43.301,"lon":5.39082,"is_reserved":false,"is_disabled":false,"rental_uris":{"android":"levelo://app?vid=b5ae8863-5ae1-4704-a012-be1cae3de045","ios":"levelo://app?vid=b5ae8863-5ae1-4704-a012-be1cae3de045"},"vehicle_type_id":"4","last_reported":1775086002,"current_range_meters":8000,"station_id":"ce4bh192rcd13ifvqdb0","pricing_plan_id":"cebpf4jnsgd1na2vs0mg"},{"bike_id":"98d81847-9093-41b3-b2d5-63d16f3181bd","system_id":"levelo_inurba_marseille","lat":43.25006,"lon":5.38931,"is_reserved":false,"is_disabled":false,"rental_uris":{"android":"levelo://app?vid=98d81847-9093-41b3-b2d5-63d16f3181bd","ios":"levelo://app?vid=98d81847-9093-41b3-b2d5-63d16f3181bd"},"vehicle_type_id":"4","last_reported":1775086002,"current_range_meters":8000,"station_id":"ce4bhgp2rcd13ifvqfd0","pricing_plan_id":"cebpf4jnsgd1na2vs0mg"},{"bike_id":"69e9e7f1-5ac2-4ede-830b-7ba19c4666f2","system_id":"levelo_inurba_marseille","lat":43.29535,"lon":5.39389,"is_reserved":false,"is_disabled":false,"rental_uris":{"android":"levelo://app?vid=69e9e7f1-5ac2-4ede-830b-7ba19c4666f2","ios":"levelo://app?vid=69e9e7f1-5ac2-4ede-830b-7ba19c4666f2"},"vehicle_type_id":"4","last_reported":1775086002,"current_range_meters":8000,"station_id":"ce4bh292rcd13ifvqdf0","pricing_plan_id":"cebpf4jnsgd1na2vs0mg"},{"bike_id":"d0111825-3017-4e03-aba5-c350420e66fe","system_id":"levelo_inurba_marseille","lat":43.21187,"lon":5.35072,"is_reserved":false,"is_disabled":false,"rental_uris":{"android":"levelo://app?vid=d0111825-3017-4e03-aba5-c350420e66fe","ios":"levelo://app?vid=d0111825-3017-4e03-aba5-c350420e66fe"},"vehicle_type_id":"4","last_reported":1775086002,"current_range_meters":8400,"station_id":"st_cvj6sg6p6f1abm77japg","pricing_plan_id":"cebpf4jnsgd1na2vs0mg"},{"bike_id":"4e48773f-30f8-41cd-9be2-e8fe81c25162","system_id":"levelo_inurba_marseille","lat":43.21192,"lon":5.35065,"is_reserved":false,"is_disabled":false,"rental_uris":{"android":"levelo://app?vid=4e48773f-30f8-41cd-9be2-e8fe81c25162","ios":"levelo://app?vid=4e48773f-30f8-41cd-9be2-e8fe81c25162"},"vehicle_type_id":"4","last_reported":1775086002,"current_range_meters":8400,"station_id":"st_cvj6sg6p6f1abm77japg","pricing_plan_id":"cebpf4jnsgd1na2vs0mg"},{"bike_id":"9a5ba824-9d74-45ae-93d5-769e3312a4bf","system_id":"levelo_inurba_marseille","lat":43.28999,"lon":5.39213,"is_reserved":false,"is_disabled":false,"rental_uris":{"android":"levelo://app?vid=9a5ba824-9d74-45ae-93d5-769e3312a4bf","ios":"levelo://app?vid=9a5ba824-9d74-45ae-93d5-769e3312a4bf"},"vehicle_type_id":"4","last_reported":1775086002,"current_range_meters":8400,"station_id":"","pricing_plan_id":"cebpf4jnsgd1na2vs0mg"},{"bike_id":"461575d5-77b5-4937-a293-ace2db38b787","system_id":"levelo_inurba_marseille","lat":43.28426,"lon":5.34989,"is_reserved":false,"is_disabled":false,"rental_uris":{"android":"levelo://app?vid=461575d5-77b5-4937-a293-ace2db38b787","ios":"levelo://app?vid=461575d5-77b5-4937-a293-ace2db38b787"},"vehicle_type_id":"4","last_reported":1775086002,"current_range_meters":8400,"station_id":"ce4bhbh2rcd13ifvqepg","pricing_plan_id":"cebpf4jnsgd1na2vs0mg"},{"bike_id":"58d91ae1-8063-4e7d-870c-f6392dad8fd9","system_id":"levelo_inurba_marseille","lat":43.28477,"lon":5.48394,"is_reserved":false,"is_disabled":false,"rental_uris":{"android":"levelo://app?vid=58d91ae1-8063-4e7d-870c-f6392dad8fd9","ios":"levelo://app?vid=58d91ae1-8063-4e7d-870c-f6392dad8fd9"},"vehicle_type_id":"4","last_reported":1775086002,"current_range_meters":8400,"station_id":"","pricing_plan_id":"cebpf4jnsgd1na2vs0mg"},{"bike_id":"c35e6cd7-8ebb-4bdd-90bc-0a56e9ccd80a","system_id":"levelo_inurba_marseille","lat":43.28446,"lon":5.3497,"is_reserved":false,"is_disabled":false,"rental_uris":{"android":"levelo://app?vid=c35e6cd7-8ebb-4bdd-90bc-0a56e9ccd80a","ios":"levelo://app?vid=c35e6cd7-8ebb-4bdd-90bc-0a56e9ccd80a"},"vehicle_type_id":"4","last_reported":1775086002,"current_range_meters":8400,"station_id":"ce4bhbh2rcd13ifvqepg","pricing_plan_id":"cebpf4jnsgd1na2vs0mg"},{"bike_id":"3b00fc1e-e36b-481b-a2bc-3dac3c178dbc","system_id":"levelo_inurba_marseille","lat":43.27857,"lon":5.40682,"is_reserved":false,"is_disabled":true,"rental_uris":{"android":"levelo://app?vid=3b00fc1e-e36b-481b-a2bc-3dac3c178dbc","ios":"levelo://app?vid=3b00fc1e-e36b-481b-a2bc-3dac3c178dbc"},"vehicle_type_id":"4","last_reported":1775086002,"current_range_meters":8400,"station_id":"ce4bhnh2rcd13ifvqgtg","pricing_plan_id":"cebpf4jnsgd1na2vs0mg"},{"bike_id":"b002afa7-1e8e-4f39-8a63-ca9f3ec37fb5","system_id":"levelo_inurba_marseille","lat":43.24388,"lon":5.37029,"is_reserved":false,"is_disabled":false,"rental_uris":{"android":"levelo://app?vid=b002afa7-1e8e-4f39-8a63-ca9f3ec37fb5","ios":"levelo://app?vid=b002afa7-1e8e-4f39-8a63-ca9f3ec37fb5"},"vehicle_type_id":"4","last_reported":1775086002,"current_range_meters":8400,"station_id":"ce4bhhh2rcd13ifvqfk0","pricing_plan_id":"cebpf4jnsgd1na2vs0mg"},{"bike_id":"8d67b323-4095-4405-9704-9e7776fd3be7","system_id":"levelo_inurba_marseille","lat":43.21228,"lon":5.35056,"is_reserved":false,"is_disabled":false,"rental_uris":{"android":"levelo://app?vid=8d67b323-4095-4405-9704-9e7776fd3be7","ios":"levelo://app?vid=8d67b323-4095-4405-9704-9e7776fd3be7"},"vehicle_type_id":"4","last_reported":1775086002,"current_range_meters":8400,"station_id":"","pricing_plan_id":"cebpf4jnsgd1na2vs0mg"},{"bike_id":"4b3c825a-c5e6-42c6-af30-700063fa913d","system_id":"levelo_inurba_marseille","lat":43.25981,"lon":5.37596,"is_reserved":false,"is_disabled":true,"rental_uris":{"android":"levelo://app?vid=4b3c825a-c5e6-42c6-af30-700063fa913d","ios":"levelo://app?vid=4b3c825a-c5e6-42c6-af30-700063fa913d"},"vehicle_type_id":"4","last_reported":1775086002,"current_range_meters":8400,"station_id":"","pricing_plan_id":"cebpf4jnsgd1na2vs0mg"},{"bike_id":"72070c1f-2ab9-47db-b745-fcf48b4b3a78","system_id":"levelo_inurba_marseille","lat":43.28618,"lon":5.35114,"is_reserved":false,"is_disabled":false,"rental_uris":{"android":"levelo://app?vid=72070c1f-2ab9-47db-b745-fcf48b4b3a78","ios":"levelo://app?vid=72070c1f-2ab9-47db-b745-fcf48b4b3a78"},"vehicle_type_id":"4","last_reported":1775086002,"current_range_meters":8400,"station_id":"ce4bhch2rcd13ifvqeug","pricing_plan_id":"cebpf4jnsgd1na2vs0mg"},{"bike_id":"62210ce0-a99a-4686-acce-34a5c68d8cfd","system_id":"levelo_inurba_marseille","lat":43.23898,"lon":5.37456,"is_reserved":false,"is_disabled":false,"rental_uris":{"android":"levelo://app?vid=62210ce0-a99a-4686-acce-34a5c68d8cfd","ios":"levelo://app?vid=62210ce0-a99a-4686-acce-34a5c68d8cfd"},"vehicle_type_id":"4","last_reported":1775086002,"current_range_meters":8400,"station_id":"st_d6sm7csbq4hs73f8fpjg","pricing_plan_id":"cebpf4jnsgd1na2vs0mg"},{"bike_id":"05960a17-b70c-46e5-8745-045fee7c4424","system_id":"levelo_inurba_marseille","lat":43.23948,"lon":5.36634,"is_reserved":false,"is_disabled":false,"rental_uris":{"android":"levelo://app?vid=05960a17-b70c-46e5-8745-045fee7c4424","ios":"levelo://app?vid=05960a17-b70c-46e5-8745-045fee7c4424"},"vehicle_type_id":"4","last_reported":1775086002,"current_range_meters":8400,"station_id":"ce4bhi12rcd13ifvqfp0","pricing_plan_id":"cebpf4jnsgd1na2vs0mg"},{"bike_id":"d79043de-c8e5-4bdb-aecd-cc4044485d69","system_id":"levelo_inurba_marseille","lat":43.33188,"lon":5.37669,"is_reserved":false,"is_disabled":false,"rental_uris":{"android":"levelo://app?vid=d79043de-c8e5-4bdb-aecd-cc4044485d69","ios":"levelo://app?vid=d79043de-c8e5-4bdb-aecd-cc4044485d69"},"vehicle_type_id":"4","last_reported":1775086002,"current_range_meters":8400,"station_id":"st_d46cu089ee8s73dldbu0","pricing_plan_id":"cebpf4jnsgd1na2vs0mg"},{"bike_id":"c214abca-ccf5-445e-b9da-87aa6f2db1a9","system_id":"levelo_inurba_marseille","lat":43.2904,"lon":5.39945,"is_reserved":false,"is_disabled":false,"rental_uris":{"android":"levelo://app?vid=c214abca-ccf5-445e-b9da-87aa6f2db1a9","ios":"levelo://app?vid=c214abca-ccf5-445e-b9da-87aa6f2db1a9"},"vehicle_type_id":"4","last_reported":1775086002,"current_range_meters":8400,"station_id":"ce4bh392rcd13ifvqdm0","pricing_plan_id":"cebpf4jnsgd1na2vs0mg"},{"bike_id":"a53040f5-f9f1-4d32-a66c-d1d17b18870e","system_id":"levelo_inurba_marseille","lat":43.26573,"lon":5.39044,"is_reserved":false,"is_disabled":false,"rental_uris":{"android":"levelo://app?vid=a53040f5-f9f1-4d32-a66c-d1d17b18870e","ios":"levelo://app?vid=a53040f5-f9f1-4d32-a66c-d1d17b18870e"},"vehicle_type_id":"4","last_reported":1775086002,"current_range_meters":8400,"station_id":"ce4bhe12rcd13ifvqf30","pricing_plan_id":"cebpf4jnsgd1na2vs0mg"},{"bike_id":"289e5139-6a81-43f5-882c-a0d2a8b654c5","system_id":"levelo_inurba_marseille","lat":43.28708,"lon":5.38529,"is_reserved":false,"is_disabled":false,"rental_uris":{"android":"levelo://app?vid=289e5139-6a81-43f5-882c-a0d2a8b654c5","ios":"levelo://app?vid=289e5139-6a81-43f5-882c-a0d2a8b654c5"},"vehicle_type_id":"4","last_reported":1775086002,"current_range_meters":8400,"station_id":"ce4bgj12rcd13ifvqbc0","pricing_plan_id":"cebpf4jnsgd1na2vs0mg"},{"bike_id":"93b54f12-6027-40ee-aaaf-52c4a5342eb2","system_id":"levelo_inurba_marseille","lat":43.21193,"lon":5.35079,"is_reserved":false,"is_disabled":false,"rental_uris":{"android":"levelo://app?vid=93b54f12-6027-40ee-aaaf-52c4a5342eb2","ios":"levelo://app?vid=93b54f12-6027-40ee-aaaf-52c4a5342eb2"},