{"last_updated":1679231535,"ttl":30,"version":"2.2","data":{"bikes":[{"bike_id":"8be47f71-b099-4b36-ad9e-fbb897dcb7cb","system_id":"levelo_inurba_marseille","lat":43.309076,"lon":5.368465,"is_reserved":false,"is_disabled":false,"rental_uris":{"android":"levelo://app?vid=8be47f71-b099-4b36-ad9e-fbb897dcb7cb","ios":"levelo://app?vid=8be47f71-b099-4b36-ad9e-fbb897dcb7cb"},"vehicle_type_id":"4","last_reported":1679231537,"current_range_meters":23200,"station_id":"ce4bgn92rcd13ifvqbvg","pricing_plan_id":"free"},{"bike_id":"5a41c74b-ee03-4130-9768-e0aecfede775","system_id":"levelo_inurba_marseille","lat":43.309076,"lon":5.368465,"is_reserved":false,"is_disabled":false,"rental_uris":{"android":"levelo://app?vid=5a41c74b-ee03-4130-9768-e0aecfede775","ios":"levelo://app?vid=5a41c74b-ee03-4130-9768-e0aecfede775"},"vehicle_type_id":"4","last_reported":1679231537,"current_range_meters":10400,"station_id":"ce4bgn92rcd13ifvqbvg","pricing_plan_id":"free"},{"bike_id":"d74b4ecf-0826-453f-8319-4350d3784c9c","system_id":"levelo_inurba_marseille","lat":43.30897,"lon":5.368415,"is_reserved":false,"is_disabled":false,"rental_uris":{"android":"levelo://app?vid=d74b4ecf-0826-453f-8319-4350d3784c9c","ios":"levelo://app?vid=d74b4ecf-0826-453f-8319-4350d3784c9c"},"vehicle_type_id":"4","last_reported":1679231537,"current_range_meters":31600,"station_id":"ce4bgn92rcd13ifvqbvg","pricing_plan_id":"free"},{"bike_id":"c5ed7c03-994c-4b65-a612-2f74a272495b","system_id":"levelo_inurba_marseille","lat":43.3091,"lon":5.37178,"is_reserved":false,"is_disabled":false,"rental_uris":{"android":"levelo://app?vid=c5ed7c03-994c-4b65-a612-2f74a272495b","ios":"levelo://app?vid=c5ed7c03-994c-4b65-a612-2f74a272495b"},"vehicle_type_id":"4","last_reported":1679231537,"current_range_meters":31600,"station_id":"","pricing_plan_id":"free"},{"bike_id":"e1509daf-3370-41be-a3a8-7c97dab67bf8","system_id":"levelo_inurba_marseille","lat":43.30888,"lon":5.37191,"is_reserved":false,"is_disabled":false,"rental_uris":{"android":"levelo://app?vid=e1509daf-3370-41be-a3a8-7c97dab67bf8","ios":"levelo://app?vid=e1509daf-3370-41be-a3a8-7c97dab67bf8"},"vehicle_type_id":"4","last_reported":1679231537,"current_range_meters":16800,"station_id":"ce4bguh2rcd13ifvqckg","pricing_plan_id":"free"},{"bike_id":"e8c6e592-c7b2-472b-94dd-b6c2dc58e09e","system_id":"levelo_inurba_marseille","lat":43.30888,"lon":5.37197,"is_reserved":false,"is_disabled":false,"rental_uris":{"android":"levelo://app?vid=e8c6e592-c7b2-472b-94dd-b6c2dc58e09e","ios":"levelo://app?vid=e8c6e592-c7b2-472b-94dd-b6c2dc58e09e"},"vehicle_type_id":"4","last_reported":1679231537,"current_range_meters":31600,"station_id":"","pricing_plan_id":"free"},{"bike_id":"a6bec0e0-f008-4152-8ac0-6f23abb0fb70","system_id":"levelo_inurba_marseille","lat":43.306129,"lon":5.368868,"is_reserved":false,"is_disabled":false,"rental_uris":{"android":"levelo://app?vid=a6bec0e0-f008-4152-8ac0-6f23abb0fb70","ios":"levelo://app?vid=a6bec0e0-f008-4152-8ac0-6f23abb0fb70"},"vehicle_type_id":"4","last_reported":1679231537,"current_range_meters":0,"station_id":"","pricing_plan_id":"free"},{"bike_id":"d043d581-d8cd-4562-980a-4b52c9a2b460","system_id":"levelo_inurba_marseille","lat":43.305371,"lon":5.365562,"is_reserved":false,"is_disabled":false,"rental_uris":{"android":"levelo://app?vid=d043d581-d8cd-4562-980a-4b52c9a2b460","ios":"levelo://app?vid=d043d581-d8cd-4562-980a-4b52c9a2b460"},"vehicle_type_id":"4","last_reported":1679231537,"current_range_meters":800,"station_id":"ce4bgg92rcd13ifvqb30","pricing_plan_id":"free"},{"bike_id":"e153b06d-b19d-44ab-9c1f-305e4c33485e","system_id":"levelo_inurba_marseille","lat":43.305989,"lon":5.37225,"is_reserved":false,"is_disabled":false,"rental_uris":{"android":"levelo://app?vid=e153b06d-b19d-44ab-9c1f-305e4c33485e","ios":"levelo://app?vid=e153b06d-b19d-44ab-9c1f-305e4c33485e"},"vehicle_type_id":"4","last_reported":1679231537,"current_range_meters":14000,"station_id":"ce4bgqh2rcd13ifvqc4g","pricing_plan_id":"free"},{"bike_id":"ddac916b-7915-473f-b68a-608e0a03abe8","system_id":"levelo_inurba_marseille","lat":43.317075,"lon":5.377367,"is_reserved":false,"is_disabled":false,"rental_uris":{"android":"levelo://app?vid=ddac916b-7915-473f-b68a-608e0a03abe8","ios":"levelo://app?vid=ddac916b-7915-473f-b68a-608e0a03abe8"},"vehicle_type_id":"4","last_reported":1679231537,"current_range_meters":800,"station_id":"ce4bgth2rcd13ifvqch0","pricing_plan_id":"free"},{"bike_id":"68e6a0da-6711-4588-ae49-d2eadeb1061a","system_id":"levelo_inurba_marseille","lat":43.301939,"lon":5.366286,"is_reserved":false,"is_disabled":false,"rental_uris":{"android":"levelo://app?vid=68e6a0da-6711-4588-ae49-d2eadeb1061a","ios":"levelo://app?vid=68e6a0da-6711-4588-ae49-d2eadeb1061a"},"vehicle_type_id":"4","last_reported":1679231537,"current_range_meters":26400,"station_id":"ce4bgrh2rcd13ifvqc8g","pricing_plan_id":"free"},{"bike_id":"3859a3ac-2dfe-4ef1-a8ba-28cd7731bba7","system_id":"levelo_inurba_marseille","lat":43.301407,"lon":5.374203,"is_reserved":false,"is_disabled":false,"rental_uris":{"android":"levelo://app?vid=3859a3ac-2dfe-4ef1-a8ba-28cd7731bba7","ios":"levelo://app?vid=3859a3ac-2dfe-4ef1-a8ba-28cd7731bba7"},"vehicle_type_id":"4","last_reported":1679231537,"current_range_meters":18400,"station_id":"","pricing_plan_id":"free"},{"bike_id":"e3afe314-e269-49a9-b010-6adfa9077bd9","system_id":"levelo_inurba_marseille","lat":43.30141,"lon":5.37422,"is_reserved":false,"is_disabled":false,"rental_uris":{"android":"levelo://app?vid=e3afe314-e269-49a9-b010-6adfa9077bd9","ios":"levelo://app?vid=e3afe314-e269-49a9-b010-6adfa9077bd9"},"vehicle_type_id":"4","last_reported":1679231537,"current_range_meters":15600,"station_id":"ce4bgs92rcd13ifvqcc0","pricing_plan_id":"free"},{"bike_id":"038ffcf7-0c48-492c-be15-c26c57df3e22","system_id":"levelo_inurba_marseille","lat":43.30143,"lon":5.37413,"is_reserved":false,"is_disabled":false,"rental_uris":{"android":"levelo://app?vid=038ffcf7-0c48-492c-be15-c26c57df3e22","ios":"levelo://app?vid=038ffcf7-0c48-492c-be15-c26c57df3e22"},"vehicle_type_id":"4","last_reported":1679231537,"current_range_meters":20800,"station_id":"ce4bgs92rcd13ifvqcc0","pricing_plan_id":"free"},{"bike_id":"da607404-61c4-4036-8264-f8eb4773f352","system_id":"levelo_inurba_marseille","lat":43.29852,"lon":5.36287,"is_reserved":false,"is_disabled":false,"rental_uris":{"android":"levelo://app?vid=da607404-61c4-4036-8264-f8eb4773f352","ios":"levelo://app?vid=da607404-61c4-4036-8264-f8eb4773f352"},"vehicle_type_id":"4","last_reported":1679231537,"current_range_meters":0,"station_id":"ce4bgpp2rcd13ifvqc3g","pricing_plan_id":"free"},{"bike_id":"99c29ac3-86db-4d44-8423-0160a78239aa","system_id":"levelo_inurba_marseille","lat":43.299243,"lon":5.374807,"is_reserved":false,"is_disabled":false,"rental_uris":{"android":"levelo://app?vid=99c29ac3-86db-4d44-8423-0160a78239aa","ios":"levelo://app?vid=99c29ac3-86db-4d44-8423-0160a78239aa"},"vehicle_type_id":"4","last_reported":1679231537,"current_range_meters":28400,"station_id":"ce4bgjh2rcd13ifvqbg0","pricing_plan_id":"free"},{"bike_id":"88849f80-25a6-4d2d-a9db-a353b98bf65c","system_id":"levelo_inurba_marseille","lat":43.328371,"lon":5.366909,"is_reserved":false,"is_disabled":false,"rental_uris":{"android":"levelo://app?vid=88849f80-25a6-4d2d-a9db-a353b98bf65c","ios":"levelo://app?vid=88849f80-25a6-4d2d-a9db-a353b98bf65c"},"vehicle_type_id":"4","last_reported":1679231537,"current_range_meters":5600,"station_id":"ce4bhs92rcd13ifvqi0g","pricing_plan_id":"free"},{"bike_id":"2863b4c3-a58c-4a0c-adf6-1d2cde55f0cb","system_id":"levelo_inurba_marseille","lat":43.29745,"lon":5.374124,"is_reserved":false,"is_disabled":false,"rental_uris":{"android":"levelo://app?vid=2863b4c3-a58c-4a0c-adf6-1d2cde55f0cb","ios":"levelo://app?vid=2863b4c3-a58c-4a0c-adf6-1d2cde55f0cb"},"vehicle_type_id":"4","last_reported":1679231537,"current_range_meters":28400,"station_id":"","pricing_plan_id":"free"},{"bike_id":"06edb848-d9e7-43b1-8e00-b44876fbbbec","system_id":"levelo_inurba_marseille","lat":43.29584,"lon":5.36751,"is_reserved":false,"is_disabled":false,"rental_uris":{"android":"levelo://app?vid=06edb848-d9e7-43b1-8e00-b44876fbbbec","ios":"levelo://app?vid=06edb848-d9e7-43b1-8e00-b44876fbbbec"},"vehicle_type_id":"4","last_reported":1679231537,"current_range_meters":29200,"station_id":"","pricing_plan_id":"free"},{"bike_id":"d02c2859-ba9b-4d2a-8e82-72aacdcb1024","system_id":"levelo_inurba_marseille","lat":43.296921,"lon":5.376579,"is_reserved":false,"is_disabled":false,"rental_uris":{"android":"levelo://app?vid=d02c2859-ba9b-4d2a-8e82-72aacdcb1024","ios":"levelo://app?vid=d02c2859-ba9b-4d2a-8e82-72aacdcb1024"},"vehicle_type_id":"4","last_reported":1679231537,"current_range_meters":17600,"station_id":"ce4bgkh2rcd13ifvqbl0","pricing_plan_id":"free"},{"bike_id":"f9a4030a-c7c8-473d-a824-42c3c1fd10c6","system_id":"levelo_inurba_marseille","lat":43.29573,"lon":5.367355,"is_reserved":false,"is_disabled":false,"rental_uris":{"android":"levelo://app?vid=f9a4030a-c7c8-473d-a824-42c3c1fd10c6","ios":"levelo://app?vid=f9a4030a-c7c8-473d-a824-42c3c1fd10c6"},"vehicle_type_id":"4","last_reported":1679231537,"current_range_meters":29600,"station_id":"ce4bgph2rcd13ifvqc2g","pricing_plan_id":"free"},{"bike_id":"b5dd3b9c-c7a6-4a09-a426-124c12307129","system_id":"levelo_inurba_marseille","lat":43.299164,"lon":5.381432,"is_reserved":false,"is_disabled":false,"rental_uris":{"android":"levelo://app?vid=b5dd3b9c-c7a6-4a09-a426-124c12307129","ios":"levelo://app?vid=b5dd3b9c-c7a6-4a09-a426-124c12307129"},"vehicle_type_id":"4","last_reported":1679231537,"current_range_meters":16800,"station_id":"ce4bgj12rcd13ifvqbc0","pricing_plan_id":"free"},{"bike_id":"a10784dc-f667-4b8f-a261-80cfee244893","system_id":"levelo_inurba_marseille","lat":43.299028,"lon":5.381509,"is_reserved":false,"is_disabled":false,"rental_uris":{"android":"levelo://app?vid=a10784dc-f667-4b8f-a261-80cfee244893","ios":"levelo://app?vid=a10784dc-f667-4b8f-a261-80cfee244893"},"vehicle_type_id":"4","last_reported":1679231537,"current_range_meters":8400,"station_id":"ce4bgj12rcd13ifvqbc0","pricing_plan_id":"free"},{"bike_id":"14f3ce18-304a-4e3b-8d12-468171a04473","system_id":"levelo_inurba_marseille","lat":43.3095,"lon":5.39043,"is_reserved":false,"is_disabled":false,"rental_uris":{"android":"levelo://app?vid=14f3ce18-304a-4e3b-8d12-468171a04473","ios":"levelo://app?vid=14f3ce18-304a-4e3b-8d12-468171a04473"},"vehicle_type_id":"4","last_reported":1679231537,"current_range_meters":0,"station_id":"","pricing_plan_id":"free"},{"bike_id":"7acf979e-3c86-4160-b8d9-bf7af2b894b1","system_id":"levelo_inurba_marseille","lat":43.317571,"lon":5.390167,"is_reserved":false,"is_disabled":false,"rental_uris":{"android":"levelo://app?vid=7acf979e-3c86-4160-b8d9-bf7af2b894b1","ios":"levelo://app?vid=7acf979e-3c86-4160-b8d9-bf7af2b894b1"},"vehicle_type_id":"4","last_reported":1679231537,"current_range_meters":0,"station_id":"","pricing_plan_id":"free"},{"bike_id":"8f0253d3-dd17-42cf-841b-2d4082d06618","system_id":"levelo_inurba_marseille","lat":43.298074,"lon":5.380916,"is_reserved":false,"is_disabled":false,"rental_uris":{"android":"levelo://app?vid=8f0253d3-dd17-42cf-841b-2d4082d06618","ios":"levelo://app?vid=8f0253d3-dd17-42cf-841b-2d4082d06618"},"vehicle_type_id":"4","last_reported":1679231537,"current_range_meters":0,"station_id":"ce4bgip2rcd13ifvqbb0","pricing_plan_id":"free"},{"bike_id":"5d5a95fa-7de0-4c5f-a505-6349f5081711","system_id":"levelo_inurba_marseille","lat":43.29784,"lon":5.38108,"is_reserved":false,"is_disabled":false,"rental_uris":{"android":"levelo://app?vid=5d5a95fa-7de0-4c5f-a505-6349f5081711","ios":"levelo://app?vid=5d5a95fa-7de0-4c5f-a505-6349f5081711"},"vehicle_type_id":"4","last_reported":1679231537,"current_range_meters":28400,"station_id":"ce4bgip2rcd13ifvqbb0","pricing_plan_id":"free"},{"bike_id":"27da8701-cda3-4a84-8a54-b6cddd2364b5","system_id":"levelo_inurba_marseille","lat":43.296263,"lon":5.377094,"is_reserved":false,"is_disabled":false,"rental_uris":{"android":"levelo://app?vid=27da8701-cda3-4a84-8a54-b6cddd2364b5","ios":"levelo://app?vid=27da8701-cda3-4a84-8a54-b6cddd2364b5"},"vehicle_type_id":"4","last_reported":1679231537,"current_range_meters":31200,"station_id":"ce4bgi92rcd13ifvqb90","pricing_plan_id":"free"},{"bike_id":"938ea017-8af0-4e8a-9c20-707869cf8ec8","system_id":"levelo_inurba_marseille","lat":43.32362,"lon":5.38881,"is_reserved":false,"is_disabled":false,"rental_uris":{"android":"levelo://app?vid=938ea017-8af0-4e8a-9c20-707869cf8ec8","ios":"levelo://app?vid=938ea017-8af0-4e8a-9c20-707869cf8ec8"},"vehicle_type_id":"4","last_reported":1679231537,"current_range_meters":16000,"station_id":"","pricing_plan_id":"free"},{"bike_id":"cdc0a776-615d-4920-b13c-7e4f24cdd3bc","system_id":"levelo_inurba_marseille","lat":43.305994,"lon":5.393687,"is_reserved":false,"is_disabled":false,"rental_uris":{"android":"levelo://app?vid=cdc0a776-615d-4920-b13c-7e4f24cdd3bc","ios":"levelo://app?vid=cdc0a776-615d-4920-b13c-7e4f24cdd3bc"},"vehicle_type_id":"4","last_reported":1679231537,"current_range_meters":20000,"station_id":"ce4bh0p2rcd13ifvqd80","pricing_plan_id":"free"},{"bike_id":"4604e98c-c384-44d6-b40e-bccb2ab1832e","system_id":"levelo_inurba_marseille","lat":43.29235,"lon":5.37189,"is_reserved":false,"is_disabled":false,"rental_uris":{"android":"levelo://app?vid=4604e98c-c384-44d6-b40e-bccb2ab1832e","ios":"levelo://app?vid=4604e98c-c384-44d6-b40e-bccb2ab1832e"},"vehicle_type_id":"4","last_reported":1679231537,"current_range_meters":0,"station_id":"","pricing_plan_id":"free"},{"bike_id":"0f27e842-dff0-44e6-b2a0-f82f2d4cf9d0","system_id":"levelo_inurba_marseille","lat":43.2936,"lon":5.37835,"is_reserved":false,"is_disabled":false,"rental_uris":{"android":"levelo://app?vid=0f27e842-dff0-44e6-b2a0-f82f2d4cf9d0","ios":"levelo://app?vid=0f27e842-dff0-44e6-b2a0-f82f2d4cf9d0"},"vehicle_type_id":"4","last_reported":1679231537,"current_range_meters":17200,"station_id":"ce4bgjh2rcd13ifvqbf0","pricing_plan_id":"free"},{"bike_id":"40c1a37d-cb59-48ed-9818-7a4ae00b4083","system_id":"levelo_inurba_marseille","lat":43.29529,"lon":5.385581,"is_reserved":false,"is_disabled":false,"rental_uris":{"android":"levelo://app?vid=40c1a37d-cb59-48ed-9818-7a4ae00b4083","ios":"levelo://app?vid=40c1a37d-cb59-48ed-9818-7a4ae00b4083"},"vehicle_type_id":"4","last_reported":1679231537,"current_range_meters":11600,"station_id":"ce4bgih2rcd13ifvqba0","pricing_plan_id":"free"},{"bike_id":"2dc0d476-6498-41ca-af5c-99757294e711","system_id":"levelo_inurba_marseille","lat":43.29529,"lon":5.385581,"is_reserved":false,"is_disabled":false,"rental_uris":{"android":"levelo://app?vid=2dc0d476-6498-41ca-af5c-99757294e711","ios":"levelo://app?vid=2dc0d476-6498-41ca-af5c-99757294e711"},"vehicle_type_id":"4","last_reported":1679231537,"current_range_meters":6400,"station_id":"ce4bgih2rcd13ifvqba0","pricing_plan_id":"free"},{"bike_id":"20e02d85-b554-4e12-8ac2-5471f2c5a881","system_id":"levelo_inurba_marseille","lat":43.29529,"lon":5.385581,"is_reserved":false,"is_disabled":false,"rental_uris":{"android":"levelo://app?vid=20e02d85-b554-4e12-8ac2-5471f2c5a881","ios":"levelo://app?vid=20e02d85-b554-4e12-8ac2-5471f2c5a881"},"vehicle_type_id":"4","last_reported":1679231537,"current_range_meters":24000,"station_id":"ce4bgih2rcd13ifvqba0","pricing_plan_id":"free"},{"bike_id":"d43dd3e0-e3d9-47f4-ae87-82f39101930a","system_id":"levelo_inurba_marseille","lat":43.294162,"lon":5.386292,"is_reserved":false,"is_disabled":false,"rental_uris":{"android":"levelo://app?vid=d43dd3e0-e3d9-47f4-ae87-82f39101930a","ios":"levelo://app?vid=d43dd3e0-e3d9-47f4-ae87-82f39101930a"},"vehicle_type_id":"4","last_reported":1679231537,"current_range_meters":1200,"station_id":"ce4bh2h2rcd13ifvqdh0","pricing_plan_id":"free"},{"bike_id":"0bcdee28-657f-4741-93c5-eee861291c10","system_id":"levelo_inurba_marseille","lat":43.289468,"lon":5.363719,"is_reserved":false,"is_disabled":false,"rental_uris":{"android":"levelo://app?vid=0bcdee28-657f-4741-93c5-eee861291c10","ios":"levelo://app?vid=0bcdee28-657f-4741-93c5-eee861291c10"},"vehicle_type_id":"4","last_reported":1679231537,"current_range_meters":28400,"station_id":"ce4bhc92rcd13ifvqetg","pricing_plan_id":"free"},{"bike_id":"c3c44bd3-7cc3-4a4d-848e-ccc125063d91","system_id":"levelo_inurba_marseille","lat":43.304248,"lon":5.397258,"is_reserved":false,"is_disabled":false,"rental_uris":{"android":"levelo://app?vid=c3c44bd3-7cc3-4a4d-848e-ccc125063d91","ios":"levelo://app?vid=c3c44bd3-7cc3-4a4d-848e-ccc125063d91"},"vehicle_type_id":"4","last_reported":1679231537,"current_range_meters":14000,"station_id":"ce4bh092rcd13ifvqd20","pricing_plan_id":"free"},{"bike_id":"c3ff741f-71c6-49c4-a127-1a38a8b450b6","system_id":"levelo_inurba_marseille","lat":43.290327,"lon":5.356005,"is_reserved":false,"is_disabled":false,"rental_uris":{"android":"levelo://app?vid=c3ff741f-71c6-49c4-a127-1a38a8b450b6","ios":"levelo://app?vid=c3ff741f-71c6-49c4-a127-1a38a8b450b6"},"vehicle_type_id":"4","last_reported":1679231537,"current_range_meters":0,"station_id":"","pricing_plan_id":"free"},{"bike_id":"466d2940-9eb8-4072-8810-963a0cce2024","system_id":"levelo_inurba_marseille","lat":43.29262,"lon":5.38439,"is_reserved":false,"is_disabled":false,"rental_uris":{"android":"levelo://app?vid=466d2940-9eb8-4072-8810-963a0cce2024","ios":"levelo://app?vid=466d2940-9eb8-4072-8810-963a0cce2024"},"vehicle_type_id":"4","last_reported":1679231537,"current_range_meters":17200,"station_id":"","pricing_plan_id":"free"},{"bike_id":"f9c09211-3e03-4357-9f89-79c8380877b1","system_id":"levelo_inurba_marseille","lat":43.2926,"lon":5.38442,"is_reserved":false,"is_disabled":false,"rental_uris":{"android":"levelo://app?vid=f9c09211-3e03-4357-9f89-79c8380877b1","ios":"levelo://app?vid=f9c09211-3e03-4357-9f89-79c8380877b1"},"vehicle_type_id":"4","last_reported":1679231537,"current_range_meters":20000,"station_id":"","pricing_plan_id":"free"},{"bike_id":"2bc7b0e3-ceb1-4399-927b-e7d2f52f373b","system_id":"levelo_inurba_marseille","lat":43.29042,"lon":5.37955,"is_reserved":false,"is_disabled":false,"rental_uris":{"android":"levelo://app?vid=2bc7b0e3-ceb1-4399-927b-e7d2f52f373b","ios":"levelo://app?vid=2bc7b0e3-ceb1-4399-927b-e7d2f52f373b"},"vehicle_type_id":"4","last_reported":1679231537,"current_range_meters":6000,"station_id":"","pricing_plan_id":"free"},{"bike_id":"d0d7df32-c37a-428a-9862-70b0480dd19b","system_id":"levelo_inurba_marseille","lat":43.337455,"lon":5.374605,"is_reserved":false,"is_disabled":false,"rental_uris":{"android":"levelo://app?vid=d0d7df32-c37a-428a-9862-70b0480dd19b","ios":"levelo://app?vid=d0d7df32-c37a-428a-9862-70b0480dd19b"},"vehicle_type_id":"4","last_reported":1679231537,"current_range_meters":6000,"station_id":"","pricing_plan_id":"free"},{"bike_id":"3691d997-1cad-46ed-b7e6-586680d35f2f","system_id":"levelo_inurba_marseille","lat":43.337478,"lon":5.374594,"is_reserved":false,"is_disabled":false,"rental_uris":{"android":"levelo://app?vid=3691d997-1cad-46ed-b7e6-586680d35f2f","ios":"levelo://app?vid=3691d997-1cad-46ed-b7e6-586680d35f2f"},"vehicle_type_id":"4","last_reported":1679231537,"current_range_meters":18800,"station_id":"","pricing_plan_id":"free"},{"bike_id":"f3e60a9c-2b74-43cb-ac11-5dfafdbb73c0","system_id":"levelo_inurba_marseille","lat":43.337611,"lon":5.374662,"is_reserved":false,"is_disabled":false,"rental_uris":{"android":"levelo://app?vid=f3e60a9c-2b74-43cb-ac11-5dfafdbb73c0","ios":"levelo://app?vid=f3e60a9c-2b74-43cb-ac11-5dfafdbb73c0"},"vehicle_type_id":"4","last_reported":1679231537,"current_range_meters":22000,"station_id":"","pricing_plan_id":"free"},{"bike_id":"d8be99b2-badd-4fdb-9726-ea4635905897","system_id":"levelo_inurba_marseille","lat":43.28664,"lon":5.36347,"is_reserved":false,"is_disabled":false,"rental_uris":{"android":"levelo://app?vid=d8be99b2-badd-4fdb-9726-ea4635905897","ios":"levelo://app?vid=d8be99b2-badd-4fdb-9726-ea4635905897"},"vehicle_type_id":"4","last_reported":1679231537,"current_range_meters":18000,"station_id":"ce4bhah2rcd13ifvqej0","pricing_plan_id":"free"},{"bike_id":"ac0da304-21b1-4828-81ab-2b9a35bd828b","system_id":"levelo_inurba_marseille","lat":43.286619,"lon":5.36359,"is_reserved":false,"is_disabled":false,"rental_uris":{"android":"levelo://app?vid=ac0da304-21b1-4828-81ab-2b9a35bd828b","ios":"levelo://app?vid=ac0da304-21b1-4828-81ab-2b9a35bd828b"},"vehicle_type_id":"4","last_reported":1679231537,"current_range_meters":0,"station_id":"ce4bhah2rcd13ifvqej0","pricing_plan_id":"free"},{"bike_id":"12d5f9f1-21d0-4fac-b702-75e8232c1cd6","system_id":"levelo_inurba_marseille","lat":43.29864,"lon":5.39733,"is_reserved":false,"is_disabled":false,"rental_uris":{"android":"levelo://app?vid=12d5f9f1-21d0-4fac-b702-75e8232c1cd6","ios":"levelo://app?vid=12d5f9f1-21d0-4fac-b702-75e8232c1cd6"},"vehicle_type_id":"4","last_reported":1679231537,"current_range_meters":29200,"station_id":"ce4bh0h2rcd13ifvqd50","pricing_plan_id":"free"},{"bike_id":"cc2e4531-b24e-41b3-86e4-6e68ad9b5ecf","system_id":"levelo_inurba_marseille","lat":43.29521,"lon":5.39396,"is_reserved":false,"is_disabled":false,"rental_uris":{"android":"levelo://app?vid=cc2e4531-b24e-41b3-86e4-6e68ad9b5ecf","ios":"levelo://app?vid=cc2e4531-b24e-41b3-86e4-6e68ad9b5ecf"},"vehicle_type_id":"4","last_reported":1679231537,"current_range_meters":5600,"station_id":"ce4bh212rcd13ifvqde0","pricing_plan_id":"free"},{"bike_id":"4b2da912-5562-4ca1-a7ff-3411b8fc950a","system_id":"levelo_inurba_marseille","lat":43.33717,"lon":5.391857,"is_reserved":false,"is_disabled":false,"rental_uris":{"android":"levelo://app?vid=4b2da912-5562-4ca1-a7ff-3411b8fc950a","ios":"levelo://app?vid=4b2da912-5562-4ca1-a7ff-3411b8fc950a"},"vehicle_type_id":"4","last_reported":1679231537,"current_range_meters":18800,"station_id":"ce4bhr92rcd13ifvqhsg","pricing_plan_id":"free"},{"bike_id":"2a26f1c0-75e4-4b63-9964-4e42af2ae2ac","system_id":"levelo_inurba_marseille","lat":43.3233,"lon":5.40628,"is_reserved":false,"is_disabled":false,"rental_uris":{"android":"levelo://app?vid=2a26f1c0-75e4-4b63-9964-4e42af2ae2ac","ios":"levelo://app?vid=2a26f1c0-75e4-4b63-9964-4e42af2ae2ac"},"vehicle_type_id":"4","last_reported":1679231537,"current_range_meters":5200,"station_id":"","pricing_plan_id":"free"},{"bike_id":"8dc50e78-8999-44e5-b910-2a0a3d1a5721","system_id":"levelo_inurba_marseille","lat":43.28482,"lon":5.38415,"is_reserved":false,"is_disabled":false,"rental_uris":{"android":"levelo://app?vid=8dc50e78-8999-44e5-b910-2a0a3d1a5721","ios":"levelo://app?vid=8dc50e78-8999-44e5-b910-2a0a3d1a5721"},"vehicle_type_id":"4","last_reported":1679231537,"current_range_meters":24400,"station_id":"","pricing_plan_id":"free"},{"bike_id":"6c2c8b04-b7d2-429b-815b-c596f0089339","system_id":"levelo_inurba_marseille","lat":43.284793,"lon":5.384113,"is_reserved":false,"is_disabled":false,"rental_uris":{"android":"levelo://app?vid=6c2c8b04-b7d2-429b-815b-c596f0089339","ios":"levelo://app?vid=6c2c8b04-b7d2-429b-815b-c596f0089339"},"vehicle_type_id":"4","last_reported":1679231537,"current_range_meters":26400,"station_id":"ce4bh512rcd13ifvqe3g","pricing_plan_id":"free"},{"bike_id":"38ca5771-038c-471d-a35f-8a486d93880a","system_id":"levelo_inurba_marseille","lat":43.284793,"lon":5.384119,"is_reserved":false,"is_disabled":false,"rental_uris":{"android":"levelo://app?vid=38ca5771-038c-471d-a35f-8a486d93880a","ios":"levelo://app?vid=38ca5771-038c-471d-a35f-8a486d93880a"},"vehicle_type_id":"4","last_reported":1679231537,"current_range_meters":6400,"station_id":"ce4bh512rcd13ifvqe3g","pricing_plan_id":"free"},{"bike_id":"40212c14-e213-4788-8017-a82bdbf0594b","system_id":"levelo_inurba_marseille","lat":43.282754,"lon":5.350519,"is_reserved":false,"is_disabled":false,"rental_uris":{"android":"levelo://app?vid=40212c14-e213-4788-8017-a82bdbf0594b","ios":"levelo://app?vid=40212c14-e213-4788-8017-a82bdbf0594b"},"vehicle_type_id":"4","last_reported":1679231537,"current_range_meters":31600,"station_id":"ce4bhbp2rcd13ifvqerg","pricing_plan_id":"free"},{"bike_id":"187bd96d-503a-4b76-a715-79fd12980b9b","system_id":"levelo_inurba_marseille","lat":43.282744,"lon":5.350533,"is_reserved":false,"is_disabled":false,"rental_uris":{"android":"levelo://app?vid=187bd96d-503a-4b76-a715-79fd12980b9b","ios":"levelo://app?vid=187bd96d-503a-4b76-a715-79fd12980b9b"},"vehicle_type_id":"4","last_reported":1679231537,"current_range_meters":18800,"station_id":"ce4bhbp2rcd13ifvqerg","pricing_plan_id":"free"},{"bike_id":"007df22c-ed22-405f-b3a0-a3dbfa31e197","system_id":"levelo_inurba_marseille","lat":43.282744,"lon":5.350533,"is_reserved":false,"is_disabled":false,"rental_uris":{"android":"levelo://app?vid=007df22c-ed22-405f-b3a0-a3dbfa31e197","ios":"levelo://app?vid=007df22c-ed22-405f-b3a0-a3dbfa31e197"},"vehicle_type_id":"4","last_reported":1679231537,"current_range_meters":31600,"station_id":"ce4bhbp2rcd13ifvqerg","pricing_plan_id":"free"},{"bike_id":"0e873b07-af81-4ed0-9551-a578d895efcf","system_id":"levelo_inurba_marseille","lat":43.282754,"lon":5.350519,"is_reserved":false,"is_disabled":false,"rental_uris":{"android":"levelo://app?vid=0e873b07-af81-4ed0-9551-a578d895efcf","ios":"levelo://app?vid=0e873b07-af81-4ed0-9551-a578d895efcf"},"vehicle_type_id":"4","last_reported":1679231537,"current_range_meters":26000,"station_id":"ce4bhbp2rcd13ifvqerg","pricing_plan_id":"free"},{"bike_id":"52aee9f3-25a4-4952-bced-0148d05a256a","system_id":"levelo_inurba_marseille","lat":43.282744,"lon":5.350533,"is_reserved":false,"is_disabled":false,"rental_uris":{"android":"levelo://app?vid=52aee9f3-25a4-4952-bced-0148d05a256a","ios":"levelo://app?vid=52aee9f3-25a4-4952-bced-0148d05a256a"},"vehicle_type_id":"4","last_reported":1679231537,"current_range_meters":8800,"station_id":"ce4bhbp2rcd13ifvqerg","pricing_plan_id":"free"},{"bike_id":"8aaa4b86-544d-4702-8e11-fc1410f68106","system_id":"levelo_inurba_marseille","lat":43.282744,"lon":5.350533,"is_reserved":false,"is_disabled":false,"rental_uris":{"android":"levelo://app?vid=8aaa4b86-544d-4702-8e11-fc1410f68106","ios":"levelo://app?vid=8aaa4b86-544d-4702-8e11-fc1410f68106"},"vehicle_type_id":"4","last_reported":1679231537,"current_range_meters":29600,"station_id":"ce4bhbp2rcd13ifvqerg","pricing_plan_id":"free"},{"bike_id":"030d7414-95ea-45cc-ad6d-abb0f76b1e9c","system_id":"levelo_inurba_marseille","lat":43.282754,"lon":5.350519,"is_reserved":false,"is_disabled":false,"rental_uris":{"android":"levelo://app?vid=030d7414-95ea-45cc-ad6d-abb0f76b1e9c","ios":"levelo://app?vid=030d7414-95ea-45cc-ad6d-abb0f76b1e9c"},"vehicle_type_id":"4","last_reported":1679231537,"current_range_meters":29200,"station_id":"ce4bhbp2rcd13ifvqerg","pricing_plan_id":"free"},{"bike_id":"276bbfb8-069e-4955-8d4c-4bd069684b19","system_id":"levelo_inurba_marseille","lat":43.282754,"lon":5.350519,"is_reserved":false,"is_disabled":false,"rental_uris":{"android":"levelo://app?vid=276bbfb8-069e-4955-8d4c-4bd069684b19","ios":"levelo://app?vid=276bbfb8-069e-4955-8d4c-4bd069684b19"},"vehicle_type_id":"4","last_reported":1679231537,"current_range_meters":23600,"station_id":"ce4bhbp2rcd13ifvqerg","pricing_plan_id":"free"},{"bike_id":"1cd58670-03af-41f7-9656-915a4ee34160","system_id":"levelo_inurba_marseille","lat":43.282744,"lon":5.350533,"is_reserved":false,"is_disabled":false,"rental_uris":{"android":"levelo://app?vid=1cd58670-03af-41f7-9656-915a4ee34160","ios":"levelo://app?vid=1cd58670-03af-41f7-9656-915a4ee34160"},"vehicle_type_id":"4","last_reported":1679231537,"current_range_meters":17600,"station_id":"ce4bhbp2rcd13ifvqerg","pricing_plan_id":"free"},{"bike_id":"387051b1-bc21-47bf-85b5-b9a495529754","system_id":"levelo_inurba_marseille","lat":43.282754,"lon":5.350519,"is_reserved":false,"is_disabled":false,"rental_uris":{"android":"levelo://app?vid=387051b1-bc21-47bf-85b5-b9a495529754","ios":"levelo://app?vid=387051b1-bc21-47bf-85b5-b9a495529754"},"vehicle_type_id":"4","last_reported":1679231537,"current_range_meters":31600,"station_id":"ce4bhbp2rcd13ifvqerg","pricing_plan_id":"free"},{"bike_id":"b7897238-7b42-4799-8978-c3c04967e575","system_id":"levelo_inurba_marseille","lat":43.29041,"lon":5.399634,"is_reserved":false,"is_disabled":false,"rental_uris":{"android":"levelo://app?vid=b7897238-7b42-4799-8978-c3c04967e575","ios":"levelo://app?vid=b7897238-7b42-4799-8978-c3c04967e575"},"vehicle_type_id":"4","last_reported":1679231537,"current_range_meters":13200,"station_id":"ce4bh392rcd13ifvqdm0","pricing_plan_id":"free"},{"bike_id":"9832ccc3-221e-4920-ae63-732df493ba7a","system_id":"levelo_inurba_marseille","lat":43.299577,"lon":5.413277,"is_reserved":false,"is_disabled":false,"rental_uris":{"android":"levelo://app?vid=9832ccc3-221e-4920-ae63-732df493ba7a","ios":"levelo://app?vid=9832ccc3-221e-4920-ae63-732df493ba7a"},"vehicle_type_id":"4","last_reported":1679231537,"current_range_meters":21600,"station_id":"ce4bhp12rcd13ifvqh9g","pricing_plan_id":"free"},{"bike_id":"17e7348d-4968-4235-9c25-05a809285114","system_id":"levelo_inurba_marseille","lat":43.299579,"lon":5.413255,"is_reserved":false,"is_disabled":false,"rental_uris":{"android":"levelo://app?vid=17e7348d-4968-4235-9c25-05a809285114","ios":"levelo://app?vid=17e7348d-4968-4235-9c25-05a809285114"},"vehicle_type_id":"4","last_reported":1679231537,"current_range_meters":29200,"station_id":"ce4bhp12rcd13ifvqh9g","pricing_plan_id":"free"},{"bike_id":"e448e5b1-16e4-44b4-ac54-6bb86ff1398c","system_id":"levelo_inurba_marseille","lat":43.29959,"lon":5.41324,"is_reserved":false,"is_disabled":false,"rental_uris":{"android":"levelo://app?vid=e448e5b1-16e4-44b4-ac54-6bb86ff1398c","ios":"levelo://app?vid=e448e5b1-16e4-44b4-ac54-6bb86ff1398c"},"vehicle_type_id":"4","last_reported":1679231537,"current_range_meters":20000,"station_id":"ce4bhp12rcd13ifvqh9g","pricing_plan_id":"free"},{"bike_id":"5a4d08be-e0ea-4a04-aae8-cb27d1b8f60b","system_id":"levelo_inurba_marseille","lat":43.324737,"lon":5.414299,"is_reserved":false,"is_disabled":false,"rental_uris":{"android":"levelo://app?vid=5a4d08be-e0ea-4a04-aae8-cb27d1b8f60b","ios":"levelo://app?vid=5a4d08be-e0ea-4a04-aae8-cb27d1b8f60b"},"vehicle_type_id":"4","last_reported":1679231537,"current_range_meters":5600,"station_id":"","pricing_plan_id":"free"},{"bike_id":"dbf580d0-fc09-4faa-ad5d-12f749e3a199","system_id":"levelo_inurba_marseille","lat":43.27618,"lon":5.361009,"is_reserved":false,"is_disabled":false,"rental_uris":{"android":"levelo://app?vid=dbf580d0-fc09-4faa-ad5d-12f749e3a199","ios":"levelo://app?vid=dbf580d0-fc09-4faa-ad5d-12f749e3a199"},"vehicle_type_id":"4","last_reported":1679231537,"current_range_meters":2800,"station_id":"ce4bgj92rcd13ifvqbe0","pricing_plan_id":"free"},{"bike_id":"e0187f67-233e-4f4d-b6ec-2a4eee1ee314","system_id":"levelo_inurba_marseille","lat":43.28075,"lon":5.39644,"is_reserved":false,"is_disabled":false,"rental_uris":{"android":"levelo://app?vid=e0187f67-233e-4f4d-b6ec-2a4eee1ee314","ios":"levelo://app?vid=e0187f67-233e-4f4d-b6ec-2a4eee1ee314"},"vehicle_type_id":"4","last_reported":1679231537,"current_range_meters":16800,"station_id":"ce4bho12rcd13ifvqh2g","pricing_plan_id":"free"},{"bike_id":"404f48c5-2449-4e5e-9149-ba569baf4cc4","system_id":"levelo_inurba_marseille","lat":43.27706,"lon":5.38852,"is_reserved":false,"is_disabled":false,"rental_uris":{"android":"levelo://app?vid=404f48c5-2449-4e5e-9149-ba569baf4cc4","ios":"levelo://app?vid=404f48c5-2449-4e5e-9149-ba569baf4cc4"},"vehicle_type_id":"4","last_reported":1679231537,"current_range_meters":5600,"station_id":"","pricing_plan_id":"free"},{"bike_id":"eb462c0b-2666-46c8-b365-bcbf64fc0073","system_id":"levelo_inurba_marseille","lat":43.273733,"lon":5.362473,"is_reserved":false,"is_disabled":false,"rental_uris":{"android":"levelo://app?vid=eb462c0b-2666-46c8-b365-bcbf64fc0073","ios":"levelo://app?vid=eb462c0b-2666-46c8-b365-bcbf64fc0073"},"vehicle_type_id":"4","last_reported":1679231537,"current_range_meters":5200,"station_id":"","pricing_plan_id":"free"},{"bike_id":"3bfaa977-a7c7-497b-91d8-e4f47995bf45","system_id":"levelo_inurba_marseille","lat":43.273613,"lon":5.362705,"is_reserved":false,"is_disabled":false,"rental_uris":{"android":"levelo://app?vid=3bfaa977-a7c7-497b-91d8-e4f47995bf45","ios":"levelo://app?vid=3bfaa977-a7c7-497b-91d8-e4f47995bf45"},"vehicle_type_id":"4","last_reported":1679231537,"current_range_meters":17600,"station_id":"ce4bhbh2rcd13ifvqeo0","pricing_plan_id":"free"},{"bike_id":"ed08bf29-52c3-49a1-a42a-032cac2bcb59","system_id":"levelo_inurba_marseille","lat":43.273613,"lon":5.362705,"is_reserved":false,"is_disabled":false,"rental_uris":{"android":"levelo://app?vid=ed08bf29-52c3-49a1-a42a-032cac2bcb59","ios":"levelo://app?vid=ed08bf29-52c3-49a1-a42a-032cac2bcb59"},"vehicle_type_id":"4","last_reported":1679231537,"current_range_meters":27600,"station_id":"ce4bhbh2rcd13ifvqeo0","pricing_plan_id":"free"},{"bike_id":"5229e1ff-7654-41a1-aa02-be472939a83e","system_id":"levelo_inurba_marseille","lat":43.273613,"lon":5.362705,"is_reserved":false,"is_disabled":false,"rental_uris":{"android":"levelo://app?vid=5229e1ff-7654-41a1-aa02-be472939a83e","ios":"levelo://app?vid=5229e1ff-7654-41a1-aa02-be472939a83e"},"vehicle_type_id":"4","last_reported":1679231537,"current_range_meters":17600,"station_id":"ce4bhbh2rcd13ifvqeo0","pricing_plan_id":"free"},{"bike_id":"0a9f75ee-d189-41f8-ae92-07a1da76ecfa","system_id":"levelo_inurba_marseille","lat":43.273613,"lon":5.362705,"is_reserved":false,"is_disabled":false,"rental_uris":{"android":"levelo://app?vid=0a9f75ee-d189-41f8-ae92-07a1da76ecfa","ios":"levelo://app?vid=0a9f75ee-d189-41f8-ae92-07a1da76ecfa"},"vehicle_type_id":"4","last_reported":1679231537,"current_range_meters":22000,"station_id":"ce4bhbh2rcd13ifvqeo0","pricing_plan_id":"free"},{"bike_id":"6a6e372c-63e6-422f-a9ad-886a957a18be","system_id":"levelo_inurba_marseille","lat":43.273613,"lon":5.362705,"is_reserved":false,"is_disabled":false,"rental_uris":{"android":"levelo://app?vid=6a6e372c-63e6-422f-a9ad-886a957a18be","ios":"levelo://app?vid=6a6e372c-63e6-422f-a9ad-886a957a18be"},"vehicle_type_id":"4","last_reported":1679231537,"current_range_meters":24000,"station_id":"ce4bhbh2rcd13ifvqeo0","pricing_plan_id":"free"},{"bike_id":"c5342d07-d2fa-4c43-99f6-8f189eb0d038","system_id":"levelo_inurba_marseille","lat":43.273613,"lon":5.362705,"is_reserved":false,"is_disabled":false,"rental_uris":{"android":"levelo://app?vid=c5342d07-d2fa-4c43-99f6-8f189eb0d038","ios":"levelo://app?vid=c5342d07-d2fa-4c43-99f6-8f189eb0d038"},"vehicle_type_id":"4","last_reported":1679231537,"current_range_meters":23200,"station_id":"ce4bhbh2rcd13ifvqeo0","pricing_plan_id":"free"},{"bike_id":"bd1153f4-dccb-424c-8fe5-789537b06761","system_id":"levelo_inurba_marseille","lat":43.336134,"lon":5.410341,"is_reserved":false,"is_disabled":false,"rental_uris":{"android":"levelo://app?vid=bd1153f4-dccb-424c-8fe5-789537b06761","ios":"levelo://app?vid=bd1153f4-dccb-424c-8fe5-789537b06761"},"vehicle_type_id":"4","last_reported":1679231537,"current_range_meters":4000,"station_id":"ce4bhqh2rcd13ifvqhmg","pricing_plan_id":"free"},{"bike_id":"645ab53e-f387-4d67-b9f5-82a9e9867af6","system_id":"levelo_inurba_marseille","lat":43.31726,"lon":5.42391,"is_reserved":false,"is_disabled":false,"rental_uris":{"android":"levelo://app?vid=645ab53e-f387-4d67-b9f5-82a9e9867af6","ios":"levelo://app?vid=645ab53e-f387-4d67-b9f5-82a9e9867af6"},"vehicle_type_id":"4","last_reported":1679231537,"current_range_meters":10400,"station_id":"ce4bhp92rcd13ifvqhbg","pricing_plan_id":"free"},{"bike_id":"ab36292c-8f11-4e24-b214-cb80b401bf2d","system_id":"levelo_inurba_marseille","lat":43.273125,"lon":5.390731,"is_reserved":false,"is_disabled":false,"rental_uris":{"android":"levelo://app?vid=ab36292c-8f11-4e24-b214-cb80b401bf2d","ios":"levelo://app?vid=ab36292c-8f11-4e24-b214-cb80b401bf2d"},"vehicle_type_id":"4","last_reported":1679231537,"current_range_meters":8800,"station_id":"ce4bhgp2rcd13ifvqfe0","pricing_plan_id":"free"},{"bike_id":"d6e318f2-ae29-4f9f-a351-9bb85fdd0fab","system_id":"levelo_inurba_marseille","lat":43.273125,"lon":5.390731,"is_reserved":false,"is_disabled":false,"rental_uris":{"android":"levelo://app?vid=d6e318f2-ae29-4f9f-a351-9bb85fdd0fab","ios":"levelo://app?vid=d6e318f2-ae29-4f9f-a351-9bb85fdd0fab"},"vehicle_type_id":"4","last_reported":1679231537,"current_range_meters":14400,"station_id":"ce4bhgp2rcd13ifvqfe0","pricing_plan_id":"free"},{"bike_id":"dce7804d-108a-47da-9005-6217f69d0b9e","system_id":"levelo_inurba_marseille","lat":43.273125,"lon":5.390731,"is_reserved":false,"is_disabled":false,"rental_uris":{"android":"levelo://app?vid=dce7804d-108a-47da-9005-6217f69d0b9e","ios":"levelo://app?vid=dce7804d-108a-47da-9005-6217f69d0b9e"},"vehicle_type_id":"4","last_reported":1679231537,"current_range_meters":29200,"station_id":"ce4bhgp2rcd13ifvqfe0","pricing_plan_id":"free"},{"bike_id":"b1b3bb18-7ac8-4758-a4c6-94cb994e104f","system_id":"levelo_inurba_marseille","lat":43.304096,"lon":5.425385,"is_reserved":false,"is_disabled":false,"rental_uris":{"android":"levelo://app?vid=b1b3bb18-7ac8-4758-a4c6-94cb994e104f","ios":"levelo://app?vid=b1b3bb18-7ac8-4758-a4c6-94cb994e104f"},"vehicle_type_id":"4","last_reported":1679231537,"current_range_meters":9200,"station_id":"ce4bhoh2rcd13ifvqh6g","pricing_plan_id":"free"},{"bike_id":"9cbc50e1-888a-485e-9f7c-29ff3b34907c","system_id":"levelo_inurba_marseille","lat":43.295511,"lon":5.422926,"is_reserved":false,"is_disabled":false,"rental_uris":{"android":"levelo://app?vid=9cbc50e1-888a-485e-9f7c-29ff3b34907c","ios":"levelo://app?vid=9cbc50e1-888a-485e-9f7c-29ff3b34907c"},"vehicle_type_id":"4","last_reported":1679231537,"current_range_meters":800,"station_id":"ce4bhph2rcd13ifvqhdg","pricing_plan_id":"free"},{"bike_id":"62ba032c-034e-4b62-b540-690365da683c","system_id":"levelo_inurba_marseille","lat":43.27206,"lon":5.39184,"is_reserved":false,"is_disabled":false,"rental_uris":{"android":"levelo://app?vid=62ba032c-034e-4b62-b540-690365da683c","ios":"levelo://app?vid=62ba032c-034e-4b62-b540-690365da683c"},"vehicle_type_id":"4","last_reported":1679231537,"current_range_meters":16400,"station_id":"","pricing_plan_id":"free"},{"bike_id":"a85d3f71-9b67-403a-8b4b-24d345bc65e2","system_id":"levelo_inurba_marseille","lat":43.272118,"lon":5.391758,"is_reserved":false,"is_disabled":false,"rental_uris":{"android":"levelo://app?vid=a85d3f71-9b67-403a-8b4b-24d345bc65e2","ios":"levelo://app?vid=a85d3f71-9b67-403a-8b4b-24d345bc65e2"},"vehicle_type_id":"4","last_reported":1679231537,"current_range_meters":8000,"station_id":"ce4bhhp2rcd13ifvqfm0","pricing_plan_id":"free"},{"bike_id":"2ae1bdf4-0433-418b-8f60-46ea51553a32","system_id":"levelo_inurba_marseille","lat":43.26681,"lon":5.382694,"is_reserved":false,"is_disabled":false,"rental_uris":{"android":"levelo://app?vid=2ae1bdf4-0433-418b-8f60-46ea51553a32","ios":"levelo://app?vid=2ae1bdf4-0433-418b-8f60-46ea51553a32"},"vehicle_type_id":"4","last_reported":1679231537,"current_range_meters":31600,"station_id":"ce4bhg92rcd13ifvqf90","pricing_plan_id":"free"},{"bike_id":"939a00c7-af6f-4ae3-9e1c-f909a041c128","system_id":"levelo_inurba_marseille","lat":43.265714,"lon":5.372891,"is_reserved":false,"is_disabled":false,"rental_uris":{"android":"levelo://app?vid=939a00c7-af6f-4ae3-9e1c-f909a041c128","ios":"levelo://app?vid=939a00c7-af6f-4ae3-9e1c-f909a041c128"},"vehicle_type_id":"4","last_reported":1679231537,"current_range_meters":26400,"station_id":"ce4bhg12rcd13ifvqf70","pricing_plan_id":"free"},{"bike_id":"6833c321-abff-447a-bb39-962428fb19a5","system_id":"levelo_inurba_marseille","lat":43.265714,"lon":5.372891,"is_reserved":false,"is_disabled":false,"rental_uris":{"android":"levelo://app?vid=6833c321-abff-447a-bb39-962428fb19a5","ios":"levelo://app?vid=6833c321-abff-447a-bb39-962428fb19a5"},"vehicle_type_id":"4","last_reported":1679231537,"current_range_meters":26400,"station_id":"ce4bhg12rcd13ifvqf70","pricing_plan_id":"free"},{"bike_id":"953b15e6-b7d8-40f6-be83-a2a1a195c42e","system_id":"levelo_inurba_marseille","lat":43.265714,"lon":5.372891,"is_reserved":false,"is_disabled":false,"rental_uris":{"android":"levelo://app?vid=953b15e6-b7d8-40f6-be83-a2a1a195c42e","ios":"levelo://app?vid=953b15e6-b7d8-40f6-be83-a2a1a195c42e"},"vehicle_type_id":"4","last_reported":1679231537,"current_range_meters":3200,"station_id":"ce4bhg12rcd13ifvqf70","pricing_plan_id":"free"},{"bike_id":"b37150fc-47d9-48d6-84c3-5ac297a72725","system_id":"levelo_inurba_marseille","lat":43.265714,"lon":5.372891,"is_reserved":false,"is_disabled":false,"rental_uris":{"android":"levelo://app?vid=b37150fc-47d9-48d6-84c3-5ac297a72725","ios":"levelo://app?vid=b37150fc-47d9-48d6-84c3-5ac297a72725"},"vehicle_type_id":"4","last_reported":1679231537,"current_range_meters":28800,"station_id":"ce4bhg12rcd13ifvqf70","pricing_plan_id":"free"},{"bike_id":"7c3e4dc0-a7e8-4178-b3c7-70ceb02652cc","system_id":"levelo_inurba_marseille","lat":43.30806,"lon":5.43519,"is_reserved":false,"is_disabled":false,"rental_uris":{"android":"levelo://app?vid=7c3e4dc0-a7e8-4178-b3c7-70ceb02652cc","ios":"levelo://app?vid=7c3e4dc0-a7e8-4178-b3c7-70ceb02652cc"},"vehicle_type_id":"4","last_reported":1679231537,"current_range_meters":6400,"station_id":"","pricing_plan_id":"free"},{"bike_id":"8bbbcc37-39f2-481d-9c0f-90371390543a","system_id":"levelo_inurba_marseille","lat":43.307994,"lon":5.435191,"is_reserved":false,"is_disabled":false,"rental_uris":{"android":"levelo://app?vid=8bbbcc37-39f2-481d-9c0f-90371390543a","ios":"levelo://app?vid=8bbbcc37-39f2-481d-9c0f-90371390543a"},"vehicle_type_id":"4","last_reported":1679231537,"current_range_meters":2800,"station_id":"","pricing_plan_id":"free"},{"bike_id":"e64489c4-592d-410b-ab06-d7f4db460c24","system_id":"levelo_inurba_marseille","lat":43.308051,"lon":5.43527,"is_reserved":false,"is_disabled":false,"rental_uris":{"android":"levelo://app?vid=e64489c4-592d-410b-ab06-d7f4db460c24","ios":"levelo://app?vid=e64489c4-592d-410b-ab06-d7f4db460c24"},"vehicle_type_id":"4","last_reported":1679231537,"current_range_meters":2000,"station_id":"ce4bhph2rcd13ifvqheg","pricing_plan_id":"free"},{"bike_id":"5f6679d7-4f4d-4ce4-bd2c-2992d4a7cbbd","system_id":"levelo_inurba_marseille","lat":43.307956,"lon":5.435264,"is_reserved":false,"is_disabled":false,"rental_uris":{"android":"levelo://app?vid=5f6679d7-4f4d-4ce4-bd2c-2992d4a7cbbd","ios":"levelo://app?vid=5f6679d7-4f4d-4ce4-bd2c-2992d4a7cbbd"},"vehicle_type_id":"4","last_reported":1679231537,"current_range_meters":5200,"station_id":"ce4bhph2rcd13ifvqheg","pricing_plan_id":"free"},{"bike_id":"179c8d1e-f602-4983-932d-256ccc3e8f05","system_id":"levelo_inurba_marseille","lat":43.265569,"lon":5.390047,"is_reserved":false,"is_disabled":false,"rental_uris":{"android":"levelo://app?vid=179c8d1e-f602-4983-932d-256ccc3e8f05","ios":"levelo://app?vid=179c8d1e-f602-4983-932d-256ccc3e8f05"},"vehicle_type_id":"4","last_reported":1679231537,"current_range_meters":24400,"station_id":"ce4bhe12rcd13ifvqf30","pricing_plan_id":"free"},{"bike_id":"2d408ff2-5343-44e4-aff6-4f33446fcd02","system_id":"levelo_inurba_marseille","lat":43.261782,"lon":5.374515,"is_reserved":false,"is_disabled":false,"rental_uris":{"android":"levelo://app?vid=2d408ff2-5343-44e4-aff6-4f33446fcd02","ios":"levelo://app?vid=2d408ff2-5343-44e4-aff6-4f33446fcd02"},"vehicle_type_id":"4","last_reported":1679231537,"current_range_meters":11600,"station_id":"ce4bhgp2rcd13ifvqfc0","pricing_plan_id":"free"},{"bike_id":"44bcf897-f4a3-44ae-b18e-f05d94e51f6c","system_id":"levelo_inurba_marseille","lat":43.261782,"lon":5.374515,"is_reserved":false,"is_disabled":false,"rental_uris":{"android":"levelo://app?vid=44bcf897-f4a3-44ae-b18e-f05d94e51f6c","ios":"levelo://app?vid=44bcf897-f4a3-44ae-b18e-f05d94e51f6c"},"vehicle_type_id":"4","last_reported":1679231537,"current_range_meters":27600,"station_id":"ce4bhgp2rcd13ifvqfc0","pricing_plan_id":"free"},{"bike_id":"e5221415-750d-4d20-9245-56d03a852d98","system_id":"levelo_inurba_marseille","lat":43.26208,"lon":5.37928,"is_reserved":false,"is_disabled":false,"rental_uris":{"android":"levelo://app?vid=e5221415-750d-4d20-9245-56d03a852d98","ios":"levelo://app?vid=e5221415-750d-4d20-9245-56d03a852d98"},"vehicle_type_id":"4","last_reported":1679231537,"current_range_meters":16000,"station_id":"ce4bhjp2rcd13ifvqg90","pricing_plan_id":"free"},{"bike_id":"604f087f-54c1-4da7-91ae-d5e310e30188","system_id":"levelo_inurba_marseille","lat":43.262075,"lon":5.37926,"is_reserved":false,"is_disabled":false,"rental_uris":{"android":"levelo://app?vid=604f087f-54c1-4da7-91ae-d5e310e30188","ios":"levelo://app?vid=604f087f-54c1-4da7-91ae-d5e310e30188"},"vehicle_type_id":"4","last_reported":1679231537,"current_range_meters":11600,"station_id":"","pricing_plan_id":"free"},{"bike_id":"1852ecf8-c765-4389-a3ac-6127f3be009c","system_id":"levelo_inurba_marseille","lat":43.26201,"lon":5.37923,"is_reserved":false,"is_disabled":false,"rental_uris":{"android":"levelo://app?vid=1852ecf8-c765-4389-a3ac-6127f3be009c","ios":"levelo://app?vid=1852ecf8-c765-4389-a3ac-6127f3be009c"},"vehicle_type_id":"4","last_reported":1679231537,"current_range_meters":20800,"station_id":"","pricing_plan_id":"free"},{"bike_id":"11505de7-6de8-4590-a4e6-53726b2fa985","system_id":"levelo_inurba_marseille","lat":43.26202,"lon":5.379299,"is_reserved":false,"is_disabled":false,"rental_uris":{"android":"levelo://app?vid=11505de7-6de8-4590-a4e6-53726b2fa985","ios":"levelo://app?vid=11505de7-6de8-4590-a4e6-53726b2fa985"},"vehicle_type_id":"4","last_reported":1679231537,"current_range_meters":17600,"station_id":"ce4bhjp2rcd13ifvqg90","pricing_plan_id":"free"},{"bike_id":"20dd7c45-8830-414e-b0d7-1c3b6d82d2ab","system_id":"levelo_inurba_marseille","lat":43.267959,"lon":5.402685,"is_reserved":false,"is_disabled":false,"rental_uris":{"android":"levelo://app?vid=20dd7c45-8830-414e-b0d7-1c3b6d82d2ab","ios":"levelo://app?vid=20dd7c45-8830-414e-b0d7-1c3b6d82d2ab"},"vehicle_type_id":"4","last_reported":1679231537,"current_range_meters":23200,"station_id":"ce501612rcd8frsf0b60","pricing_plan_id":"free"},{"bike_id":"42c1dfb6-2991-4178-983d-843f58464b49","system_id":"levelo_inurba_marseille","lat":43.267959,"lon":5.402685,"is_reserved":false,"is_disabled":false,"rental_uris":{"android":"levelo://app?vid=42c1dfb6-2991-4178-983d-843f58464b49","ios":"levelo://app?vid=42c1dfb6-2991-4178-983d-843f58464b49"},"vehicle_type_id":"4","last_reported":1679231537,"current_range_meters":28000,"station_id":"ce501612rcd8frsf0b60","pricing_plan_id":"free"},{"bike_id":"4c30002f-16a9-4e84-8565-fe997127d52a","system_id":"levelo_inurba_marseille","lat":43.268025,"lon":5.40263,"is_reserved":false,"is_disabled":false,"rental_uris":{"android":"levelo://app?vid=4c30002f-16a9-4e84-8565-fe997127d52a","ios":"levelo://app?vid=4c30002f-16a9-4e84-8565-fe997127d52a"},"vehicle_type_id":"4","last_reported":1679231537,"current_range_meters":18000,"station_id":"","pricing_plan_id":"free"},{"bike_id":"d8a9e492-d4a6-44a3-8a9b-0097b7d44057","system_id":"levelo_inurba_marseille","lat":43.268021,"lon":5.402641,"is_reserved":false,"is_disabled":false,"rental_uris":{"android":"levelo://app?vid=d8a9e492-d4a6-44a3-8a9b-0097b7d44057","ios":"levelo://app?vid=d8a9e492-d4a6-44a3-8a9b-0097b7d44057"},"vehicle_type_id":"4","last_reported":1679231537,"current_range_meters":0,"station_id":"","pricing_plan_id":"free"},{"bike_id":"5902fad6-9dd8-4315-af42-e8a48bf0755f","system_id":"levelo_inurba_marseille","lat":43.26799,"lon":5.40259,"is_reserved":false,"is_disabled":false,"rental_uris":{"android":"levelo://app?vid=5902fad6-9dd8-4315-af42-e8a48bf0755f","ios":"levelo://app?vid=5902fad6-9dd8-4315-af42-e8a48bf0755f"},"vehicle_type_id":"4","last_reported":1679231537,"current_range_meters":22000,"station_id":"","pricing_plan_id":"free"},{"bike_id":"bf57d473-62d8-4736-8f84-93599de084a6","system_id":"levelo_inurba_marseille","lat":43.260219,"lon":5.37546,"is_reserved":false,"is_disabled":false,"rental_uris":{"android":"levelo://app?vid=bf57d473-62d8-4736-8f84-93599de084a6","ios":"levelo://app?vid=bf57d473-62d8-4736-8f84-93599de084a6"},"vehicle_type_id":"4","last_reported":1679231537,"current_range_meters":7600,"station_id":"ce4bhgh2rcd13ifvqfa0","pricing_plan_id":"free"},{"bike_id":"8efbc5f2-2999-4a83-acca-1fabed511c41","system_id":"levelo_inurba_marseille","lat":43.260668,"lon":5.393923,"is_reserved":false,"is_disabled":false,"rental_uris":{"android":"levelo://app?vid=8efbc5f2-2999-4a83-acca-1fabed511c41","ios":"levelo://app?vid=8efbc5f2-2999-4a83-acca-1fabed511c41"},"vehicle_type_id":"4","last_reported":1679231537,"current_range_meters":0,"station_id":"ce4bhh92rcd13ifvqfj0","pricing_plan_id":"free"},{"bike_id":"b33163a4-2dfe-4593-81b6-290e23e35033","system_id":"levelo_inurba_marseille","lat":43.260909,"lon":5.397591,"is_reserved":false,"is_disabled":false,"rental_uris":{"android":"levelo://app?vid=b33163a4-2dfe-4593-81b6-290e23e35033","ios":"levelo://app?vid=b33163a4-2dfe-4593-81b6-290e23e35033"},"vehicle_type_id":"4","last_reported":1679231537,"current_range_meters":23200,"station_id":"ce4bhi12rcd13ifvqfq0","pricing_plan_id":"free"},{"bike_id":"180bbe87-f6f7-4a34-951c-7750af786517","system_id":"levelo_inurba_marseille","lat":43.260909,"lon":5.397591,"is_reserved":false,"is_disabled":false,"rental_uris":{"android":"levelo://app?vid=180bbe87-f6f7-4a34-951c-7750af786517","ios":"levelo://app?vid=180bbe87-f6f7-4a34-951c-7750af786517"},"vehicle_type_id":"4","last_reported":1679231537,"current_range_meters":18800,"station_id":"ce4bhi12rcd13ifvqfq0","pricing_plan_id":"free"},{"bike_id":"299efdf4-0610-4a53-8839-7d842aecae6f","system_id":"levelo_inurba_marseille","lat":43.26089,"lon":5.39767,"is_reserved":false,"is_disabled":false,"rental_uris":{"android":"levelo://app?vid=299efdf4-0610-4a53-8839-7d842aecae6f","ios":"levelo://app?vid=299efdf4-0610-4a53-8839-7d842aecae6f"},"vehicle_type_id":"4","last_reported":1679231537,"current_range_meters":18400,"station_id":"","pricing_plan_id":"free"},{"bike_id":"c62abf6f-644f-490b-ae74-9b0cf51109f8","system_id":"levelo_inurba_marseille","lat":43.260909,"lon":5.397591,"is_reserved":false,"is_disabled":false,"rental_uris":{"android":"levelo://app?vid=c62abf6f-644f-490b-ae74-9b0cf51109f8","ios":"levelo://app?vid=c62abf6f-644f-490b-ae74-9b0cf51109f8"},"vehicle_type_id":"4","last_reported":1679231537,"current_range_meters":24000,"station_id":"ce4bhi12rcd13ifvqfq0","pricing_plan_id":"free"},{"bike_id":"b3567da6-6e95-44e8-8f06-873f0bb7ee23","system_id":"levelo_inurba_marseille","lat":43.260848,"lon":5.397609,"is_reserved":false,"is_disabled":false,"rental_uris":{"android":"levelo://app?vid=b3567da6-6e95-44e8-8f06-873f0bb7ee23","ios":"levelo://app?vid=b3567da6-6e95-44e8-8f06-873f0bb7ee23"},"vehicle_type_id":"4","last_reported":1679231537,"current_range_meters":16000,"station_id":"","pricing_plan_id":"free"},{"bike_id":"5c0e266e-5d31-4c32-b970-2b7712121665","system_id":"levelo_inurba_marseille","lat":43.29248,"lon":5.44137,"is_reserved":false,"is_disabled":false,"rental_uris":{"android":"levelo://app?vid=5c0e266e-5d31-4c32-b970-2b7712121665","ios":"levelo://app?vid=5c0e266e-5d31-4c32-b970-2b7712121665"},"vehicle_type_id":"4","last_reported":1679231537,"current_range_meters":19600,"station_id":"","pricing_plan_id":"free"},{"bike_id":"a0f36483-3d1c-433c-b55f-7cc2ce0cb462","system_id":"levelo_inurba_marseille","lat":43.254947,"lon":5.376454,"is_reserved":false,"is_disabled":false,"rental_uris":{"android":"levelo://app?vid=a0f36483-3d1c-433c-b55f-7cc2ce0cb462","ios":"levelo://app?vid=a0f36483-3d1c-433c-b55f-7cc2ce0cb462"},"vehicle_type_id":"4","last_reported":1679231537,"current_range_meters":23200,"station_id":"ce4bhh12rcd13ifvqff0","pricing_plan_id":"free"},{"bike_id":"e4860d0c-3404-4299-b288-56f6fde6c61f","system_id":"levelo_inurba_marseille","lat":43.254947,"lon":5.376454,"is_reserved":false,"is_disabled":false,"rental_uris":{"android":"levelo://app?vid=e4860d0c-3404-4299-b288-56f6fde6c61f","ios":"levelo://app?vid=e4860d0c-3404-4299-b288-56f6fde6c61f"},"vehicle_type_id":"4","last_reported":1679231537,"current_range_meters":21200,"station_id":"ce4bhh12rcd13ifvqff0","pricing_plan_id":"free"},{"bike_id":"d95a92b3-818c-4a6d-8fa5-47703260a0b7","system_id":"levelo_inurba_marseille","lat":43.254947,"lon":5.376454,"is_reserved":false,"is_disabled":false,"rental_uris":{"android":"levelo://app?vid=d95a92b3-818c-4a6d-8fa5-47703260a0b7","ios":"levelo://app?vid=d95a92b3-818c-4a6d-8fa5-47703260a0b7"},"vehicle_type_id":"4","last_reported":1679231537,"current_range_meters":31600,"station_id":"ce4bhh12rcd13ifvqff0","pricing_plan_id":"free"},{"bike_id":"df094c5a-a492-446c-90f7-cd57858e1755","system_id":"levelo_inurba_marseille","lat":43.254947,"lon":5.376454,"is_reserved":false,"is_disabled":false,"rental_uris":{"android":"levelo://app?vid=df094c5a-a492-446c-90f7-cd57858e1755","ios":"levelo://app?vid=df094c5a-a492-446c-90f7-cd57858e1755"},"vehicle_type_id":"4","last_reported":1679231537,"current_range_meters":17600,"station_id":"ce4bhh12rcd13ifvqff0","pricing_plan_id":"free"},{"bike_id":"cd49efe2-7357-4012-b3cf-213813fce06a","system_id":"levelo_inurba_marseille","lat":43.254947,"lon":5.376454,"is_reserved":false,"is_disabled":false,"rental_uris":{"android":"levelo://app?vid=cd49efe2-7357-4012-b3cf-213813fce06a","ios":"levelo://app?vid=cd49efe2-7357-4012-b3cf-213813fce06a"},"vehicle_type_id":"4","last_reported":1679231537,"current_range_meters":20400,"station_id":"ce4bhh12rcd13ifvqff0","pricing_plan_id":"free"},{"bike_id":"503ff26e-d472-45a8-9de9-09f5dd2d81ba","system_id":"levelo_inurba_marseille","lat":43.254947,"lon":5.376454,"is_reserved":false,"is_disabled":false,"rental_uris":{"android":"levelo://app?vid=503ff26e-d472-45a8-9de9-09f5dd2d81ba","ios":"levelo://app?vid=503ff26e-d472-45a8-9de9-09f5dd2d81ba"},"vehicle_type_id":"4","last_reported":1679231537,"current_range_meters":22000,"station_id":"ce4bhh12rcd13ifvqff0","pricing_plan_id":"free"},{"bike_id":"1bd2c645-101d-4214-9b59-fa48d7475d4d","system_id":"levelo_inurba_marseille","lat":43.254947,"lon":5.376454,"is_reserved":false,"is_disabled":false,"rental_uris":{"android":"levelo://app?vid=1bd2c645-101d-4214-9b59-fa48d7475d4d","ios":"levelo://app?vid=1bd2c645-101d-4214-9b59-fa48d7475d4d"},"vehicle_type_id":"4","last_reported":1679231537,"current_range_meters":30000,"station_id":"ce4bhh12rcd13ifvqff0","pricing_plan_id":"free"},{"bike_id":"a01705d3-e360-4b4a-a9a2-fefa6889ad5a","system_id":"levelo_inurba_marseille","lat":43.254947,"lon":5.376454,"is_reserved":false,"is_disabled":false,"rental_uris":{"android":"levelo://app?vid=a01705d3-e360-4b4a-a9a2-fefa6889ad5a","ios":"levelo://app?vid=a01705d3-e360-4b4a-a9a2-fefa6889ad5a"},"vehicle_type_id":"4","last_reported":1679231537,"current_range_meters":15600,"station_id":"ce4bhh12rcd13ifvqff0","pricing_plan_id":"free"},{"bike_id":"6d571d73-0ecb-4d24-80e2-443f59dd856e","system_id":"levelo_inurba_marseille","lat":43.25494,"lon":5.37649,"is_reserved":false,"is_disabled":false,"rental_uris":{"android":"levelo://app?vid=6d571d73-0ecb-4d24-80e2-443f59dd856e","ios":"levelo://app?vid=6d571d73-0ecb-4d24-80e2-443f59dd856e"},"vehicle_type_id":"4","last_reported":1679231537,"current_range_meters":16400,"station_id":"ce4bhh12rcd13ifvqff0","pricing_plan_id":"free"},{"bike_id":"fd5774d8-3295-41f5-9892-62e37ba6eb7f","system_id":"levelo_inurba_marseille","lat":43.270721,"lon":5.422764,"is_reserved":false,"is_disabled":false,"rental_uris":{"android":"levelo://app?vid=fd5774d8-3295-41f5-9892-62e37ba6eb7f","ios":"levelo://app?vid=fd5774d8-3295-41f5-9892-62e37ba6eb7f"},"vehicle_type_id":"4","last_reported":1679231537,"current_range_meters":32000,"station_id":"ce4bhk92rcd13ifvqgb0","pricing_plan_id":"free"},{"bike_id":"f0ebe68a-dec1-4a05-82d2-4eaa949d2be9","system_id":"levelo_inurba_marseille","lat":43.258658,"lon":5.398935,"is_reserved":false,"is_disabled":false,"rental_uris":{"android":"levelo://app?vid=f0ebe68a-dec1-4a05-82d2-4eaa949d2be9","ios":"levelo://app?vid=f0ebe68a-dec1-4a05-82d2-4eaa949d2be9"},"vehicle_type_id":"4","last_reported":1679231537,"current_range_meters":27600,"station_id":"ce4bhl92rcd13ifvqghg","pricing_plan_id":"free"},{"bike_id":"f3c7fb6d-6cb2-4410-9d62-88890b18538d","system_id":"levelo_inurba_marseille","lat":43.258658,"lon":5.398935,"is_reserved":false,"is_disabled":false,"rental_uris":{"android":"levelo://app?vid=f3c7fb6d-6cb2-4410-9d62-88890b18538d","ios":"levelo://app?vid=f3c7fb6d-6cb2-4410-9d62-88890b18538d"},"vehicle_type_id":"4","last_reported":1679231537,"current_range_meters":29200,"station_id":"ce4bhl92rcd13ifvqghg","pricing_plan_id":"free"},{"bike_id":"b48db9eb-c8cc-427d-82b0-0102e57a21c8","system_id":"levelo_inurba_marseille","lat":43.258658,"lon":5.398935,"is_reserved":false,"is_disabled":false,"rental_uris":{"android":"levelo://app?vid=b48db9eb-c8cc-427d-82b0-0102e57a21c8","ios":"levelo://app?vid=b48db9eb-c8cc-427d-82b0-0102e57a21c8"},"vehicle_type_id":"4","last_reported":1679231537,"current_range_meters":29600,"station_id":"ce4bhl92rcd13ifvqghg","pricing_plan_id":"free"},{"bike_id":"7f645556-e104-4353-a8b9-c466e4d10f51","system_id":"levelo_inurba_marseille","lat":43.250023,"lon":5.38919,"is_reserved":false,"is_disabled":false,"rental_uris":{"android":"levelo://app?vid=7f645556-e104-4353-a8b9-c466e4d10f51","ios":"levelo://app?vid=7f645556-e104-4353-a8b9-c466e4d10f51"},"vehicle_type_id":"4","last_reported":1679231537,"current_range_meters":18000,"station_id":"ce4bhgp2rcd13ifvqfd0","pricing_plan_id":"free"},{"bike_id":"906d38dc-1d6e-4321-a5db-99f3c5afe72c","system_id":"levelo_inurba_marseille","lat":43.250023,"lon":5.38919,"is_reserved":false,"is_disabled":false,"rental_uris":{"android":"levelo://app?vid=906d38dc-1d6e-4321-a5db-99f3c5afe72c","ios":"levelo://app?vid=906d38dc-1d6e-4321-a5db-99f3c5afe72c"},"vehicle_type_id":"4","last_reported":1679231537,"current_range_meters":11600,"station_id":"ce4bhgp2rcd13ifvqfd0","pricing_plan_id":"free"},{"bike_id":"99582da4-f123-4eac-8b11-a509e4c01d74","system_id":"levelo_inurba_marseille","lat":43.2479,"lon":5.374457,"is_reserved":false,"is_disabled":false,"rental_uris":{"android":"levelo://app?vid=99582da4-f123-4eac-8b11-a509e4c01d74","ios":"levelo://app?vid=99582da4-f123-4eac-8b11-a509e4c01d74"},"vehicle_type_id":"4","last_reported":1679231537,"current_range_meters":1600,"station_id":"ce4bhgh2rcd13ifvqfb0","pricing_plan_id":"free"},{"bike_id":"4df466a5-28b8-454b-8cd1-69962577b07a","system_id":"levelo_inurba_marseille","lat":43.2479,"lon":5.374457,"is_reserved":false,"is_disabled":false,"rental_uris":{"android":"levelo://app?vid=4df466a5-28b8-454b-8cd1-69962577b07a","ios":"levelo://app?vid=4df466a5-28b8-454b-8cd1-69962577b07a"},"vehicle_type_id":"4","last_reported":1679231537,"current_range_meters":28400,"station_id":"ce4bhgh2rcd13ifvqfb0","pricing_plan_id":"free"},{"bike_id":"98c92968-218c-4a17-b568-98420de689cf","system_id":"levelo_inurba_marseille","lat":43.2479,"lon":5.374457,"is_reserved":false,"is_disabled":false,"rental_uris":{"android":"levelo://app?vid=98c92968-218c-4a17-b568-98420de689cf","ios":"levelo://app?vid=98c92968-218c-4a17-b568-98420de689cf"},"vehicle_type_id":"4","last_reported":1679231537,"current_range_meters":22400,"station_id":"ce4bhgh2rcd13ifvqfb0","pricing_plan_id":"free"},{"bike_id":"931bddc5-a26c-49d8-9edf-8d0dea0cdfbb","system_id":"levelo_inurba_marseille","lat":43.2479,"lon":5.374457,"is_reserved":false,"is_disabled":false,"rental_uris":{"android":"levelo://app?vid=931bddc5-a26c-49d8-9edf-8d0dea0cdfbb","ios":"levelo://app?vid=931bddc5-a26c-49d8-9edf-8d0dea0cdfbb"},"vehicle_type_id":"4","last_reported":1679231537,"current_range_meters":28000,"station_id":"ce4bhgh2rcd13ifvqfb0","pricing_plan_id":"free"},{"bike_id":"5829d9e8-299f-4dc0-a125-c87fe8a85076","system_id":"levelo_inurba_marseille","lat":43.2479,"lon":5.374457,"is_reserved":false,"is_disabled":false,"rental_uris":{"android":"levelo://app?vid=5829d9e8-299f-4dc0-a125-c87fe8a85076","ios":"levelo://app?vid=5829d9e8-299f-4dc0-a125-c87fe8a85076"},"vehicle_type_id":"4","last_reported":1679231537,"current_range_meters":26400,"station_id":"ce4bhgh2rcd13ifvqfb0","pricing_plan_id":"free"},{"bike_id":"db16c9ff-daed-49ef-937b-6c76ee9d723b","system_id":"levelo_inurba_marseille","lat":43.2479,"lon":5.374457,"is_reserved":false,"is_disabled":false,"rental_uris":{"android":"levelo://app?vid=db16c9ff-daed-49ef-937b-6c76ee9d723b","ios":"levelo://app?vid=db16c9ff-daed-49ef-937b-6c76ee9d723b"},"vehicle_type_id":"4","last_reported":1679231537,"current_range_meters":24800,"station_id":"ce4bhgh2rcd13ifvqfb0","pricing_plan_id":"free"},{"bike_id":"063966c5-4431-4d11-9b74-dd41dad694b0","system_id":"levelo_inurba_marseille","lat":43.25102,"lon":5.403214,"is_reserved":false,"is_disabled":false,"rental_uris":{"android":"levelo://app?vid=063966c5-4431-4d11-9b74-dd41dad694b0","ios":"levelo://app?vid=063966c5-4431-4d11-9b74-dd41dad694b0"},"vehicle_type_id":"4","last_reported":1679231537,"current_range_meters":30000,"station_id":"ce4bhlh2rcd13ifvqgig","pricing_plan_id":"free"},{"bike_id":"c9a4512d-074c-48c6-91c8-c54682611675","system_id":"levelo_inurba_marseille","lat":43.24693,"lon":5.382096,"is_reserved":false,"is_disabled":false,"rental_uris":{"android":"levelo://app?vid=c9a4512d-074c-48c6-91c8-c54682611675","ios":"levelo://app?vid=c9a4512d-074c-48c6-91c8-c54682611675"},"vehicle_type_id":"4","last_reported":1679231537,"current_range_meters":30400,"station_id":"ce4bhih2rcd13ifvqfr0","pricing_plan_id":"free"},{"bike_id":"1783f375-0c8d-4d6b-8add-773bb26e8b12","system_id":"levelo_inurba_marseille","lat":43.25102,"lon":5.403214,"is_reserved":false,"is_disabled":false,"rental_uris":{"android":"levelo://app?vid=1783f375-0c8d-4d6b-8add-773bb26e8b12","ios":"levelo://app?vid=1783f375-0c8d-4d6b-8add-773bb26e8b12"},"vehicle_type_id":"4","last_reported":1679231537,"current_range_meters":14400,"station_id":"ce4bhlh2rcd13ifvqgig","pricing_plan_id":"free"},{"bike_id":"43a9a5e4-cdb0-4e21-921a-3adaa89d9267","system_id":"levelo_inurba_marseille","lat":43.25102,"lon":5.403214,"is_reserved":false,"is_disabled":false,"rental_uris":{"android":"levelo://app?vid=43a9a5e4-cdb0-4e21-921a-3adaa89d9267","ios":"levelo://app?vid=43a9a5e4-cdb0-4e21-921a-3adaa89d9267"},"vehicle_type_id":"4","last_reported":1679231537,"current_range_meters":16000,"station_id":"ce4bhlh2rcd13ifvqgig","pricing_plan_id":"free"},{"bike_id":"6eed076f-1bb1-4896-821e-35f263bf2421","system_id":"levelo_inurba_marseille","lat":43.251129,"lon":5.40316,"is_reserved":false,"is_disabled":false,"rental_uris":{"android":"levelo://app?vid=6eed076f-1bb1-4896-821e-35f263bf2421","ios":"levelo://app?vid=6eed076f-1bb1-4896-821e-35f263bf2421"},"vehicle_type_id":"4","last_reported":1679231537,"current_range_meters":22000,"station_id":"ce4bhlh2rcd13ifvqgig","pricing_plan_id":"free"},{"bike_id":"bd447acb-c946-47f9-b4b2-7677fc5d2a07","system_id":"levelo_inurba_marseille","lat":43.25102,"lon":5.403214,"is_reserved":false,"is_disabled":false,"rental_uris":{"android":"levelo://app?vid=bd447acb-c946-47f9-b4b2-7677fc5d2a07","ios":"levelo://app?vid=bd447acb-c946-47f9-b4b2-7677fc5d2a07"},"vehicle_type_id":"4","last_reported":1679231537,"current_range_meters":26000,"station_id":"ce4bhlh2rcd13ifvqgig","pricing_plan_id":"free"},{"bike_id":"22d11032-2806-4438-9544-571fecc5aba1","system_id":"levelo_inurba_marseille","lat":43.25108,"lon":5.40322,"is_reserved":false,"is_disabled":false,"rental_uris":{"android":"levelo://app?vid=22d11032-2806-4438-9544-571fecc5aba1","ios":"levelo://app?vid=22d11032-2806-4438-9544-571fecc5aba1"},"vehicle_type_id":"4","last_reported":1679231537,"current_range_meters":22000,"station_id":"ce4bhlh2rcd13ifvqgig","pricing_plan_id":"free"},{"bike_id":"d252650f-6ac1-4988-9e75-0fdd2fd5ce2f","system_id":"levelo_inurba_marseille","lat":43.25102,"lon":5.403214,"is_reserved":false,"is_disabled":false,"rental_uris":{"android":"levelo://app?vid=d252650f-6ac1-4988-9e75-0fdd2fd5ce2f","ios":"levelo://app?vid=d252650f-6ac1-4988-9e75-0fdd2fd5ce2f"},"vehicle_type_id":"4","last_reported":1679231537,"current_range_meters":26800,"station_id":"ce4bhlh2rcd13ifvqgig","pricing_plan_id":"free"},{"bike_id":"159e568d-b336-4696-b9c6-ea6d53e3dcf2","system_id":"levelo_inurba_marseille","lat":43.25102,"lon":5.403214,"is_reserved":false,"is_disabled":false,"rental_uris":{"android":"levelo://app?vid=159e568d-b336-4696-b9c6-ea6d53e3dcf2","ios":"levelo://app?vid=159e568d-b336-4696-b9c6-ea6d53e3dcf2"},"vehicle_type_id":"4","last_reported":1679231537,"current_range_meters":31600,"station_id":"ce4bhlh2rcd13ifvqgig","pricing_plan_id":"free"},{"bike_id":"9d83df63-6cac-4dc1-be25-56b26bc78f94","system_id":"levelo_inurba_marseille","lat":43.250952,"lon":5.40323,"is_reserved":false,"is_disabled":false,"rental_uris":{"android":"levelo://app?vid=9d83df63-6cac-4dc1-be25-56b26bc78f94","ios":"levelo://app?vid=9d83df63-6cac-4dc1-be25-56b26bc78f94"},"vehicle_type_id":"4","last_reported":1679231537,"current_range_meters":25600,"station_id":"ce4bhlh2rcd13ifvqgig","pricing_plan_id":"free"},{"bike_id":"9b6851ef-1fbf-46f9-a21a-4f72b31079a7","system_id":"levelo_inurba_marseille","lat":43.243884,"lon":5.370736,"is_reserved":false,"is_disabled":false,"rental_uris":{"android":"levelo://app?vid=9b6851ef-1fbf-46f9-a21a-4f72b31079a7","ios":"levelo://app?vid=9b6851ef-1fbf-46f9-a21a-4f72b31079a7"},"vehicle_type_id":"4","last_reported":1679231537,"current_range_meters":29200,"station_id":"ce4bhhh2rcd13ifvqfk0","pricing_plan_id":"free"},{"bike_id":"dec9f3cd-1429-41e5-927b-cf70515517f6","system_id":"levelo_inurba_marseille","lat":43.243884,"lon":5.370736,"is_reserved":false,"is_disabled":false,"rental_uris":{"android":"levelo://app?vid=dec9f3cd-1429-41e5-927b-cf70515517f6","ios":"levelo://app?vid=dec9f3cd-1429-41e5-927b-cf70515517f6"},"vehicle_type_id":"4","last_reported":1679231537,"current_range_meters":23600,"station_id":"ce4bhhh2rcd13ifvqfk0","pricing_plan_id":"free"},{"bike_id":"e0260ed6-a7e1-4dad-8544-e6f7ee7ccf03","system_id":"levelo_inurba_marseille","lat":43.243884,"lon":5.370736,"is_reserved":false,"is_disabled":false,"rental_uris":{"android":"levelo://app?vid=e0260ed6-a7e1-4dad-8544-e6f7ee7ccf03","ios":"levelo://app?vid=e0260ed6-a7e1-4dad-8544-e6f7ee7ccf03"},"vehicle_type_id":"4","last_reported":1679231537,"current_range_meters":16400,"station_id":"ce4bhhh2rcd13ifvqfk0","pricing_plan_id":"free"},{"bike_id":"6ea350ca-b9e2-4cf4-a986-ecfed5561e7a","system_id":"levelo_inurba_marseille","lat":43.245581,"lon":5.395069,"is_reserved":false,"is_disabled":false,"rental_uris":{"android":"levelo://app?vid=6ea350ca-b9e2-4cf4-a986-ecfed5561e7a","ios":"levelo://app?vid=6ea350ca-b9e2-4cf4-a986-ecfed5561e7a"},"vehicle_type_id":"4","last_reported":1679231537,"current_range_meters":22000,"station_id":"ce4bhlp2rcd13ifvqgjg","pricing_plan_id":"free"},{"bike_id":"afd9d1df-a4ec-4e3a-b1c7-2d2faa43b8f9","system_id":"levelo_inurba_marseille","lat":43.239588,"lon":5.366238,"is_reserved":false,"is_disabled":false,"rental_uris":{"android":"levelo://app?vid=afd9d1df-a4ec-4e3a-b1c7-2d2faa43b8f9","ios":"levelo://app?vid=afd9d1df-a4ec-4e3a-b1c7-2d2faa43b8f9"},"vehicle_type_id":"4","last_reported":1679231537,"current_range_meters":30800,"station_id":"ce4bhi12rcd13ifvqfp0","pricing_plan_id":"free"},{"bike_id":"84d1834a-f1ad-4a72-8b4a-feed56e98980","system_id":"levelo_inurba_marseille","lat":43.239701,"lon":5.366216,"is_reserved":false,"is_disabled":false,"rental_uris":{"android":"levelo://app?vid=84d1834a-f1ad-4a72-8b4a-feed56e98980","ios":"levelo://app?vid=84d1834a-f1ad-4a72-8b4a-feed56e98980"},"vehicle_type_id":"4","last_reported":1679231537,"current_range_meters":2000,"station_id":"","pricing_plan_id":"free"},{"bike_id":"7a34bfab-228a-4f6f-adf8-a3199b9a46f3","system_id":"levelo_inurba_marseille","lat":43.239588,"lon":5.366238,"is_reserved":false,"is_disabled":false,"rental_uris":{"android":"levelo://app?vid=7a34bfab-228a-4f6f-adf8-a3199b9a46f3","ios":"levelo://app?vid=7a34bfab-228a-4f6f-adf8-a3199b9a46f3"},"vehicle_type_id":"4","last_reported":1679231537,"current_range_meters":20400,"station_id":"ce4bhi12rcd13ifvqfp0","pricing_plan_id":"free"},{"bike_id":"b9eb7df5-4549-486d-acf3-adcd910c731d","system_id":"levelo_inurba_marseille","lat":43.239588,"lon":5.366238,"is_reserved":false,"is_disabled":false,"rental_uris":{"android":"levelo://app?vid=b9eb7df5-4549-486d-acf3-adcd910c731d","ios":"levelo://app?vid=b9eb7df5-4549-486d-acf3-adcd910c731d"},"vehicle_type_id":"4","last_reported":1679231537,"current_range_meters":31600,"station_id":"ce4bhi12rcd13ifvqfp0","pricing_plan_id":"free"},{"bike_id":"8a4cc360-fd5f-44ae-8201-d07a94410377","system_id":"levelo_inurba_marseille","lat":43.239588,"lon":5.366238,"is_reserved":false,"is_disabled":false,"rental_uris":{"android":"levelo://app?vid=8a4cc360-fd5f-44ae-8201-d07a94410377","ios":"levelo://app?vid=8a4cc360-fd5f-44ae-8201-d07a94410377"},"vehicle_type_id":"4","last_reported":1679231537,"current_range_meters":0,"station_id":"ce4bhi12rcd13ifvqfp0","pricing_plan_id":"free"},{"bike_id":"dcfbe225-2601-4561-81df-92cf185c56f6","system_id":"levelo_inurba_marseille","lat":43.239588,"lon":5.366238,"is_reserved":false,"is_disabled":false,"rental_uris":{"android":"levelo://app?vid=dcfbe225-2601-4561-81df-92cf185c56f6","ios":"levelo://app?vid=dcfbe225-2601-4561-81df-92cf185c56f6"},"vehicle_type_id":"4","last_reported":1679231537,"current_range_meters":31600,"station_id":"ce4bhi12rcd13ifvqfp0","pricing_plan_id":"free"},{"bike_id":"1699a451-a92c-4c7e-98e5-9fcbddaedfa4","system_id":"levelo_inurba_marseille","lat":43.239588,"lon":5.366238,"is_reserved":false,"is_disabled":false,"rental_uris":{"android":"levelo://app?vid=1699a451-a92c-4c7e-98e5-9fcbddaedfa4","ios":"levelo://app?vid=1699a451-a92c-4c7e-98e5-9fcbddaedfa4"},"vehicle_type_id":"4","last_reported":1679231537,"current_range_meters":31200,"station_id":"ce4bhi12rcd13ifvqfp0","pricing_plan_id":"free"},{"bike_id":"92eedf8a-2179-47d6-9329-a0f5745c1a33","system_id":"levelo_inurba_marseille","lat":43.239588,"lon":5.366238,"is_reserved":false,"is_disabled":false,"rental_uris":{"android":"levelo://app?vid=92eedf8a-2179-47d6-9329-a0f5745c1a33","ios":"levelo://app?vid=92eedf8a-2179-47d6-9329-a0f5745c1a33"},"vehicle_type_id":"4","last_reported":1679231537,"current_range_meters":16000,"station_id":"ce4bhi12rcd13ifvqfp0","pricing_plan_id":"free"},{"bike_id":"2b8ba360-48d5-48a7-be12-844a9a870f0e","system_id":"levelo_inurba_marseille","lat":43.241886,"lon":5.397489,"is_reserved":false,"is_disabled":false,"rental_uris":{"android":"levelo://app?vid=2b8ba360-48d5-48a7-be12-844a9a870f0e","ios":"levelo://app?vid=2b8ba360-48d5-48a7-be12-844a9a870f0e"},"vehicle_type_id":"4","last_reported":1679231537,"current_range_meters":21200,"station_id":"ce4bhn12rcd13ifvqgpg","pricing_plan_id":"free"},{"bike_id":"b9f6f4f0-f36b-4f70-8715-1fede5862196","system_id":"levelo_inurba_marseille","lat":43.23201,"lon":5.35558,"is_reserved":false,"is_disabled":false,"rental_uris":{"android":"levelo://app?vid=b9f6f4f0-f36b-4f70-8715-1fede5862196","ios":"levelo://app?vid=b9f6f4f0-f36b-4f70-8715-1fede5862196"},"vehicle_type_id":"4","last_reported":1679231537,"current_range_meters":26400,"station_id":"ce4bhu92rcd13ifvqi70","pricing_plan_id":"free"},{"bike_id":"2f1e89bb-26de-4f28-9f9c-8145daa23f89","system_id":"levelo_inurba_marseille","lat":43.23201,"lon":5.35556,"is_reserved":false,"is_disabled":false,"rental_uris":{"android":"levelo://app?vid=2f1e89bb-26de-4f28-9f9c-8145daa23f89","ios":"levelo://app?vid=2f1e89bb-26de-4f28-9f9c-8145daa23f89"},"vehicle_type_id":"4","last_reported":1679231537,"current_range_meters":29200,"station_id":"ce4bhu92rcd13ifvqi70","pricing_plan_id":"free"},{"bike_id":"e8fea5b7-48a9-48c9-b449-fe6211bd9de6","system_id":"levelo_inurba_marseille","lat":43.231923,"lon":5.355545,"is_reserved":false,"is_disabled":false,"rental_uris":{"android":"levelo://app?vid=e8fea5b7-48a9-48c9-b449-fe6211bd9de6","ios":"levelo://app?vid=e8fea5b7-48a9-48c9-b449-fe6211bd9de6"},"vehicle_type_id":"4","last_reported":1679231537,"current_range_meters":31600,"station_id":"ce4bhu92rcd13ifvqi70","pricing_plan_id":"free"},{"bike_id":"9396a642-8421-4ca9-b20d-a2492104caf9","system_id":"levelo_inurba_marseille","lat":43.23199,"lon":5.35555,"is_reserved":false,"is_disabled":false,"rental_uris":{"android":"levelo://app?vid=9396a642-8421-4ca9-b20d-a2492104caf9","ios":"levelo://app?vid=9396a642-8421-4ca9-b20d-a2492104caf9"},"vehicle_type_id":"4","last_reported":1679231537,"current_range_meters":27600,"station_id":"ce4bhu92rcd13ifvqi70","pricing_plan_id":"free"},{"bike_id":"c4a765e8-1981-4501-b559-fd423b924ef4","system_id":"levelo_inurba_marseille","lat":43.231923,"lon":5.355545,"is_reserved":false,"is_disabled":false,"rental_uris":{"android":"levelo://app?vid=c4a765e8-1981-4501-b559-fd423b924ef4","ios":"levelo://app?vid=c4a765e8-1981-4501-b559-fd423b924ef4"},"vehicle_type_id":"4","last_reported":1679231537,"current_range_meters":30000,"station_id":"ce4bhu92rcd13ifvqi70","pricing_plan_id":"free"},{"bike_id":"ff98316f-748f-4069-a942-b27635abd352","system_id":"levelo_inurba_marseille","lat":43.231923,"lon":5.355545,"is_reserved":false,"is_disabled":false,"rental_uris":{"android":"levelo://app?vid=ff98316f-748f-4069-a942-b27635abd352","ios":"levelo://app?vid=ff98316f-748f-4069-a942-b27635abd352"},"vehicle_type_id":"4","last_reported":1679231537,"current_range_meters":32000,"station_id":"ce4bhu92rcd13ifvqi70","pricing_plan_id":"free"},{"bike_id":"a8782c83-46c7-475c-afa5-57b17a9b2597","system_id":"levelo_inurba_marseille","lat":43.23196,"lon":5.35547,"is_reserved":false,"is_disabled":false,"rental_uris":{"android":"levelo://app?vid=a8782c83-46c7-475c-afa5-57b17a9b2597","ios":"levelo://app?vid=a8782c83-46c7-475c-afa5-57b17a9b2597"},"vehicle_type_id":"4","last_reported":1679231537,"current_range_meters":17600,"station_id":"ce4bhu92rcd13ifvqi70","pricing_plan_id":"free"},{"bike_id":"fc60cf01-ffec-47d9-a010-09f7c60298a4","system_id":"levelo_inurba_marseille","lat":43.231923,"lon":5.355545,"is_reserved":false,"is_disabled":false,"rental_uris":{"android":"levelo://app?vid=fc60cf01-ffec-47d9-a010-09f7c60298a4","ios":"levelo://app?vid=fc60cf01-ffec-47d9-a010-09f7c60298a4"},"vehicle_type_id":"4","last_reported":1679231537,"current_range_meters":26400,"station_id":"ce4bhu92rcd13ifvqi70","pricing_plan_id":"free"},{"bike_id":"2e490e53-54a0-41f3-a8d7-fafbe308fed1","system_id":"levelo_inurba_marseille","lat":43.23195,"lon":5.35551,"is_reserved":false,"is_disabled":false,"rental_uris":{"android":"levelo://app?vid=2e490e53-54a0-41f3-a8d7-fafbe308fed1","ios":"levelo://app?vid=2e490e53-54a0-41f3-a8d7-fafbe308fed1"},"vehicle_type_id":"4","last_reported":1679231537,"current_range_meters":24000,"station_id":"ce4bhu92rcd13ifvqi70","pricing_plan_id":"free"},{"bike_id":"beaf722f-8cce-48cc-9f08-62b9af3ed634","system_id":"levelo_inurba_marseille","lat":43.23193,"lon":5.35553,"is_reserved":false,"is_disabled":false,"rental_uris":{"android":"levelo://app?vid=beaf722f-8cce-48cc-9f08-62b9af3ed634","ios":"levelo://app?vid=beaf722f-8cce-48cc-9f08-62b9af3ed634"},"vehicle_type_id":"4","last_reported":1679231537,"current_range_meters":21200,"station_id":"ce4bhu92rcd13ifvqi70","pricing_plan_id":"free"},{"bike_id":"956fe110-a343-4414-91a1-6e3d50bfa094","system_id":"levelo_inurba_marseille","lat":43.231923,"lon":5.355545,"is_reserved":false,"is_disabled":false,"rental_uris":{"android":"levelo://app?vid=956fe110-a343-4414-91a1-6e3d50bfa094","ios":"levelo://app?vid=956fe110-a343-4414-91a1-6e3d50bfa094"},"vehicle_type_id":"4","last_reported":1679231537,"current_range_meters":31600,"station_id":"ce4bhu92rcd13ifvqi70","pricing_plan_id":"free"},{"bike_id":"a3fadb5e-9fdc-40fb-bc20-adc563525449","system_id":"levelo_inurba_marseille","lat":43.231923,"lon":5.355545,"is_reserved":false,"is_disabled":false,"rental_uris":{"android":"levelo://app?vid=a3fadb5e-9fdc-40fb-bc20-adc563525449","ios":"levelo://app?vid=a3fadb5e-9fdc-40fb-bc20-adc563525449"},"vehicle_type_id":"4","last_reported":1679231537,"current_range_meters":24400,"station_id":"ce4bhu92rcd13ifvqi70","pricing_plan_id":"free"},{"bike_id":"21f66719-0b61-420d-a061-9c078ce26364","system_id":"levelo_inurba_marseille","lat":43.231923,"lon":5.355497,"is_reserved":false,"is_disabled":false,"rental_uris":{"android":"levelo://app?vid=21f66719-0b61-420d-a061-9c078ce26364","ios":"levelo://app?vid=21f66719-0b61-420d-a061-9c078ce26364"},"vehicle_type_id":"4","last_reported":1679231537,"current_range_meters":19600,"station_id":"","pricing_plan_id":"free"}]}}