{"last_updated":1701850179,"ttl":30,"version":"2.2","data":{"bikes":[{"bike_id":"df8fd197-c6df-443f-a1d6-adf4381720b9","system_id":"levelo_inurba_marseille","lat":43.313391,"lon":5.36706,"is_reserved":false,"is_disabled":false,"rental_uris":{"android":"levelo://app?vid=df8fd197-c6df-443f-a1d6-adf4381720b9","ios":"levelo://app?vid=df8fd197-c6df-443f-a1d6-adf4381720b9"},"vehicle_type_id":"4","last_reported":1701850179,"current_range_meters":10800,"station_id":"ce4bgr92rcd13ifvqc6g","pricing_plan_id":"free"},{"bike_id":"8d9c6c5e-c69e-4837-96a5-0fb3ab2ab36b","system_id":"levelo_inurba_marseille","lat":43.313391,"lon":5.36706,"is_reserved":false,"is_disabled":false,"rental_uris":{"android":"levelo://app?vid=8d9c6c5e-c69e-4837-96a5-0fb3ab2ab36b","ios":"levelo://app?vid=8d9c6c5e-c69e-4837-96a5-0fb3ab2ab36b"},"vehicle_type_id":"4","last_reported":1701850179,"current_range_meters":12800,"station_id":"ce4bgr92rcd13ifvqc6g","pricing_plan_id":"free"},{"bike_id":"e00719ba-086a-47b3-8f4f-3f2634239513","system_id":"levelo_inurba_marseille","lat":43.313391,"lon":5.36706,"is_reserved":false,"is_disabled":false,"rental_uris":{"android":"levelo://app?vid=e00719ba-086a-47b3-8f4f-3f2634239513","ios":"levelo://app?vid=e00719ba-086a-47b3-8f4f-3f2634239513"},"vehicle_type_id":"4","last_reported":1701850179,"current_range_meters":30400,"station_id":"ce4bgr92rcd13ifvqc6g","pricing_plan_id":"free"},{"bike_id":"5a7f0402-4af0-419c-97b5-cececd569c10","system_id":"levelo_inurba_marseille","lat":43.31341,"lon":5.367098,"is_reserved":false,"is_disabled":false,"rental_uris":{"android":"levelo://app?vid=5a7f0402-4af0-419c-97b5-cececd569c10","ios":"levelo://app?vid=5a7f0402-4af0-419c-97b5-cececd569c10"},"vehicle_type_id":"4","last_reported":1701850179,"current_range_meters":9200,"station_id":"ce4bgr92rcd13ifvqc6g","pricing_plan_id":"free"},{"bike_id":"35ad42e1-213f-4ee4-b23f-a16e2be7ee4b","system_id":"levelo_inurba_marseille","lat":43.313391,"lon":5.36706,"is_reserved":false,"is_disabled":false,"rental_uris":{"android":"levelo://app?vid=35ad42e1-213f-4ee4-b23f-a16e2be7ee4b","ios":"levelo://app?vid=35ad42e1-213f-4ee4-b23f-a16e2be7ee4b"},"vehicle_type_id":"4","last_reported":1701850179,"current_range_meters":23600,"station_id":"ce4bgr92rcd13ifvqc6g","pricing_plan_id":"free"},{"bike_id":"4823973d-d09b-4cd0-9bae-f0a538770670","system_id":"levelo_inurba_marseille","lat":43.31341,"lon":5.367098,"is_reserved":false,"is_disabled":false,"rental_uris":{"android":"levelo://app?vid=4823973d-d09b-4cd0-9bae-f0a538770670","ios":"levelo://app?vid=4823973d-d09b-4cd0-9bae-f0a538770670"},"vehicle_type_id":"4","last_reported":1701850179,"current_range_meters":26000,"station_id":"ce4bgr92rcd13ifvqc6g","pricing_plan_id":"free"},{"bike_id":"84528a0d-f016-4811-b886-e345342a30b9","system_id":"levelo_inurba_marseille","lat":43.31341,"lon":5.367098,"is_reserved":false,"is_disabled":false,"rental_uris":{"android":"levelo://app?vid=84528a0d-f016-4811-b886-e345342a30b9","ios":"levelo://app?vid=84528a0d-f016-4811-b886-e345342a30b9"},"vehicle_type_id":"4","last_reported":1701850179,"current_range_meters":2800,"station_id":"ce4bgr92rcd13ifvqc6g","pricing_plan_id":"free"},{"bike_id":"1fe4fdc4-f7f1-4c06-91a9-6542164f2139","system_id":"levelo_inurba_marseille","lat":43.313391,"lon":5.36706,"is_reserved":false,"is_disabled":false,"rental_uris":{"android":"levelo://app?vid=1fe4fdc4-f7f1-4c06-91a9-6542164f2139","ios":"levelo://app?vid=1fe4fdc4-f7f1-4c06-91a9-6542164f2139"},"vehicle_type_id":"4","last_reported":1701850179,"current_range_meters":18800,"station_id":"ce4bgr92rcd13ifvqc6g","pricing_plan_id":"free"},{"bike_id":"b8580366-d44c-41ac-9767-49cc6e378212","system_id":"levelo_inurba_marseille","lat":43.31341,"lon":5.367098,"is_reserved":false,"is_disabled":false,"rental_uris":{"android":"levelo://app?vid=b8580366-d44c-41ac-9767-49cc6e378212","ios":"levelo://app?vid=b8580366-d44c-41ac-9767-49cc6e378212"},"vehicle_type_id":"4","last_reported":1701850179,"current_range_meters":30400,"station_id":"ce4bgr92rcd13ifvqc6g","pricing_plan_id":"free"},{"bike_id":"32bd8da0-35c8-4f08-aa9c-5422c3c21892","system_id":"levelo_inurba_marseille","lat":43.313391,"lon":5.36706,"is_reserved":false,"is_disabled":false,"rental_uris":{"android":"levelo://app?vid=32bd8da0-35c8-4f08-aa9c-5422c3c21892","ios":"levelo://app?vid=32bd8da0-35c8-4f08-aa9c-5422c3c21892"},"vehicle_type_id":"4","last_reported":1701850179,"current_range_meters":18000,"station_id":"ce4bgr92rcd13ifvqc6g","pricing_plan_id":"free"},{"bike_id":"84ced6d8-33c7-4961-b96d-38a3fbc914ee","system_id":"levelo_inurba_marseille","lat":43.313391,"lon":5.36706,"is_reserved":false,"is_disabled":false,"rental_uris":{"android":"levelo://app?vid=84ced6d8-33c7-4961-b96d-38a3fbc914ee","ios":"levelo://app?vid=84ced6d8-33c7-4961-b96d-38a3fbc914ee"},"vehicle_type_id":"4","last_reported":1701850179,"current_range_meters":14400,"station_id":"ce4bgr92rcd13ifvqc6g","pricing_plan_id":"free"},{"bike_id":"d718462b-5e12-419c-b8c1-529aa5605080","system_id":"levelo_inurba_marseille","lat":43.313391,"lon":5.36706,"is_reserved":false,"is_disabled":false,"rental_uris":{"android":"levelo://app?vid=d718462b-5e12-419c-b8c1-529aa5605080","ios":"levelo://app?vid=d718462b-5e12-419c-b8c1-529aa5605080"},"vehicle_type_id":"4","last_reported":1701850179,"current_range_meters":20800,"station_id":"ce4bgr92rcd13ifvqc6g","pricing_plan_id":"free"},{"bike_id":"a4a3a6f5-6956-4dc3-818a-cfb5b5452cbe","system_id":"levelo_inurba_marseille","lat":43.312239,"lon":5.368562,"is_reserved":false,"is_disabled":false,"rental_uris":{"android":"levelo://app?vid=a4a3a6f5-6956-4dc3-818a-cfb5b5452cbe","ios":"levelo://app?vid=a4a3a6f5-6956-4dc3-818a-cfb5b5452cbe"},"vehicle_type_id":"4","last_reported":1701850179,"current_range_meters":28000,"station_id":"ce4bgl92rcd13ifvqbq0","pricing_plan_id":"free"},{"bike_id":"a2ceb80e-ba42-4dc7-9557-713e309e5566","system_id":"levelo_inurba_marseille","lat":43.312239,"lon":5.368562,"is_reserved":false,"is_disabled":false,"rental_uris":{"android":"levelo://app?vid=a2ceb80e-ba42-4dc7-9557-713e309e5566","ios":"levelo://app?vid=a2ceb80e-ba42-4dc7-9557-713e309e5566"},"vehicle_type_id":"4","last_reported":1701850179,"current_range_meters":3200,"station_id":"ce4bgl92rcd13ifvqbq0","pricing_plan_id":"free"},{"bike_id":"7dccf675-fcfe-41f3-bc47-a27d577f3498","system_id":"levelo_inurba_marseille","lat":43.309076,"lon":5.368465,"is_reserved":false,"is_disabled":false,"rental_uris":{"android":"levelo://app?vid=7dccf675-fcfe-41f3-bc47-a27d577f3498","ios":"levelo://app?vid=7dccf675-fcfe-41f3-bc47-a27d577f3498"},"vehicle_type_id":"4","last_reported":1701850179,"current_range_meters":10400,"station_id":"ce4bgn92rcd13ifvqbvg","pricing_plan_id":"free"},{"bike_id":"6ea1c1a4-88bd-4889-ab9c-3ecd70080133","system_id":"levelo_inurba_marseille","lat":43.309076,"lon":5.368465,"is_reserved":false,"is_disabled":false,"rental_uris":{"android":"levelo://app?vid=6ea1c1a4-88bd-4889-ab9c-3ecd70080133","ios":"levelo://app?vid=6ea1c1a4-88bd-4889-ab9c-3ecd70080133"},"vehicle_type_id":"4","last_reported":1701850179,"current_range_meters":24000,"station_id":"ce4bgn92rcd13ifvqbvg","pricing_plan_id":"free"},{"bike_id":"932e5f5c-b1dd-4e72-960b-ea060cd7e9c8","system_id":"levelo_inurba_marseille","lat":43.309,"lon":5.36834,"is_reserved":false,"is_disabled":false,"rental_uris":{"android":"levelo://app?vid=932e5f5c-b1dd-4e72-960b-ea060cd7e9c8","ios":"levelo://app?vid=932e5f5c-b1dd-4e72-960b-ea060cd7e9c8"},"vehicle_type_id":"4","last_reported":1701850179,"current_range_meters":7200,"station_id":"ce4bgn92rcd13ifvqbvg","pricing_plan_id":"free"},{"bike_id":"95957aac-e5d7-4a69-bdfa-3e4eaf4da7a6","system_id":"levelo_inurba_marseille","lat":43.306318,"lon":5.368272,"is_reserved":false,"is_disabled":false,"rental_uris":{"android":"levelo://app?vid=95957aac-e5d7-4a69-bdfa-3e4eaf4da7a6","ios":"levelo://app?vid=95957aac-e5d7-4a69-bdfa-3e4eaf4da7a6"},"vehicle_type_id":"4","last_reported":1701850179,"current_range_meters":22400,"station_id":"","pricing_plan_id":"free"},{"bike_id":"cfbfd12b-7d66-41c9-aaa4-af928ef383cf","system_id":"levelo_inurba_marseille","lat":43.305462,"lon":5.365402,"is_reserved":false,"is_disabled":false,"rental_uris":{"android":"levelo://app?vid=cfbfd12b-7d66-41c9-aaa4-af928ef383cf","ios":"levelo://app?vid=cfbfd12b-7d66-41c9-aaa4-af928ef383cf"},"vehicle_type_id":"4","last_reported":1701850179,"current_range_meters":25600,"station_id":"ce4bgs12rcd13ifvqcag","pricing_plan_id":"free"},{"bike_id":"e436c7f4-7169-4843-a1fd-0c9df76ef2b9","system_id":"levelo_inurba_marseille","lat":43.305368,"lon":5.367343,"is_reserved":false,"is_disabled":false,"rental_uris":{"android":"levelo://app?vid=e436c7f4-7169-4843-a1fd-0c9df76ef2b9","ios":"levelo://app?vid=e436c7f4-7169-4843-a1fd-0c9df76ef2b9"},"vehicle_type_id":"4","last_reported":1701850179,"current_range_meters":12800,"station_id":"ce4bgrp2rcd13ifvqc9g","pricing_plan_id":"free"},{"bike_id":"5a8617e8-501e-4084-877f-089e666e47f1","system_id":"levelo_inurba_marseille","lat":43.305368,"lon":5.367343,"is_reserved":false,"is_disabled":false,"rental_uris":{"android":"levelo://app?vid=5a8617e8-501e-4084-877f-089e666e47f1","ios":"levelo://app?vid=5a8617e8-501e-4084-877f-089e666e47f1"},"vehicle_type_id":"4","last_reported":1701850179,"current_range_meters":12800,"station_id":"ce4bgrp2rcd13ifvqc9g","pricing_plan_id":"free"},{"bike_id":"3974da88-46ef-4d3e-91c6-bd279e95e60a","system_id":"levelo_inurba_marseille","lat":43.305714,"lon":5.365633,"is_reserved":false,"is_disabled":false,"rental_uris":{"android":"levelo://app?vid=3974da88-46ef-4d3e-91c6-bd279e95e60a","ios":"levelo://app?vid=3974da88-46ef-4d3e-91c6-bd279e95e60a"},"vehicle_type_id":"4","last_reported":1701850179,"current_range_meters":0,"station_id":"ce4bgs12rcd13ifvqcag","pricing_plan_id":"free"},{"bike_id":"b39948aa-52ac-4c8b-9614-aa5f47e98a95","system_id":"levelo_inurba_marseille","lat":43.3053,"lon":5.36702,"is_reserved":false,"is_disabled":false,"rental_uris":{"android":"levelo://app?vid=b39948aa-52ac-4c8b-9614-aa5f47e98a95","ios":"levelo://app?vid=b39948aa-52ac-4c8b-9614-aa5f47e98a95"},"vehicle_type_id":"4","last_reported":1701850179,"current_range_meters":28800,"station_id":"ce4bgrp2rcd13ifvqc9g","pricing_plan_id":"free"},{"bike_id":"589044cc-14b8-47d8-9662-a176237eec6a","system_id":"levelo_inurba_marseille","lat":43.305706,"lon":5.365654,"is_reserved":false,"is_disabled":false,"rental_uris":{"android":"levelo://app?vid=589044cc-14b8-47d8-9662-a176237eec6a","ios":"levelo://app?vid=589044cc-14b8-47d8-9662-a176237eec6a"},"vehicle_type_id":"4","last_reported":1701850179,"current_range_meters":7600,"station_id":"ce4bgs12rcd13ifvqcag","pricing_plan_id":"free"},{"bike_id":"73fe3bbf-872f-442c-80b9-839515ede687","system_id":"levelo_inurba_marseille","lat":43.305989,"lon":5.37225,"is_reserved":false,"is_disabled":false,"rental_uris":{"android":"levelo://app?vid=73fe3bbf-872f-442c-80b9-839515ede687","ios":"levelo://app?vid=73fe3bbf-872f-442c-80b9-839515ede687"},"vehicle_type_id":"4","last_reported":1701850179,"current_range_meters":18400,"station_id":"ce4bgqh2rcd13ifvqc4g","pricing_plan_id":"free"},{"bike_id":"b065b12a-ef87-47d8-8ac6-a38844050d40","system_id":"levelo_inurba_marseille","lat":43.319237,"lon":5.37299,"is_reserved":false,"is_disabled":false,"rental_uris":{"android":"levelo://app?vid=b065b12a-ef87-47d8-8ac6-a38844050d40","ios":"levelo://app?vid=b065b12a-ef87-47d8-8ac6-a38844050d40"},"vehicle_type_id":"4","last_reported":1701850179,"current_range_meters":0,"station_id":"","pricing_plan_id":"free"},{"bike_id":"7312adf2-9203-4851-85d3-fb32380030f3","system_id":"levelo_inurba_marseille","lat":43.309076,"lon":5.368465,"is_reserved":false,"is_disabled":false,"rental_uris":{"android":"levelo://app?vid=7312adf2-9203-4851-85d3-fb32380030f3","ios":"levelo://app?vid=7312adf2-9203-4851-85d3-fb32380030f3"},"vehicle_type_id":"4","last_reported":1701850179,"current_range_meters":20400,"station_id":"ce4bgn92rcd13ifvqbvg","pricing_plan_id":"free"},{"bike_id":"fb6fd937-527b-4585-9058-0dfdc6436ac8","system_id":"levelo_inurba_marseille","lat":43.31351,"lon":5.37909,"is_reserved":false,"is_disabled":false,"rental_uris":{"android":"levelo://app?vid=fb6fd937-527b-4585-9058-0dfdc6436ac8","ios":"levelo://app?vid=fb6fd937-527b-4585-9058-0dfdc6436ac8"},"vehicle_type_id":"4","last_reported":1701850179,"current_range_meters":7200,"station_id":"","pricing_plan_id":"free"},{"bike_id":"1d2723a7-5a06-4483-9758-eb8bf36e0f9c","system_id":"levelo_inurba_marseille","lat":43.303046,"lon":5.368981,"is_reserved":false,"is_disabled":false,"rental_uris":{"android":"levelo://app?vid=1d2723a7-5a06-4483-9758-eb8bf36e0f9c","ios":"levelo://app?vid=1d2723a7-5a06-4483-9758-eb8bf36e0f9c"},"vehicle_type_id":"4","last_reported":1701850179,"current_range_meters":4000,"station_id":"ce4bgqh2rcd13ifvqc5g","pricing_plan_id":"free"},{"bike_id":"71d575e8-eed2-4bcd-bb66-8939863b10da","system_id":"levelo_inurba_marseille","lat":43.30284,"lon":5.37342,"is_reserved":false,"is_disabled":false,"rental_uris":{"android":"levelo://app?vid=71d575e8-eed2-4bcd-bb66-8939863b10da","ios":"levelo://app?vid=71d575e8-eed2-4bcd-bb66-8939863b10da"},"vehicle_type_id":"4","last_reported":1701850179,"current_range_meters":11200,"station_id":"","pricing_plan_id":"free"},{"bike_id":"1f909cac-9b20-4a99-8da0-0a1573c9bc81","system_id":"levelo_inurba_marseille","lat":43.304606,"lon":5.379026,"is_reserved":false,"is_disabled":false,"rental_uris":{"android":"levelo://app?vid=1f909cac-9b20-4a99-8da0-0a1573c9bc81","ios":"levelo://app?vid=1f909cac-9b20-4a99-8da0-0a1573c9bc81"},"vehicle_type_id":"4","last_reported":1701850179,"current_range_meters":18800,"station_id":"ce4bgup2rcd13ifvqcn0","pricing_plan_id":"free"},{"bike_id":"84a5587e-59b2-4d96-95e5-5f1e1957a43d","system_id":"levelo_inurba_marseille","lat":43.304606,"lon":5.379026,"is_reserved":false,"is_disabled":false,"rental_uris":{"android":"levelo://app?vid=84a5587e-59b2-4d96-95e5-5f1e1957a43d","ios":"levelo://app?vid=84a5587e-59b2-4d96-95e5-5f1e1957a43d"},"vehicle_type_id":"4","last_reported":1701850179,"current_range_meters":22800,"station_id":"ce4bgup2rcd13ifvqcn0","pricing_plan_id":"free"},{"bike_id":"ce5b8738-5c2c-4fe6-8928-a17c53bfab8a","system_id":"levelo_inurba_marseille","lat":43.304606,"lon":5.379026,"is_reserved":false,"is_disabled":false,"rental_uris":{"android":"levelo://app?vid=ce5b8738-5c2c-4fe6-8928-a17c53bfab8a","ios":"levelo://app?vid=ce5b8738-5c2c-4fe6-8928-a17c53bfab8a"},"vehicle_type_id":"4","last_reported":1701850179,"current_range_meters":8800,"station_id":"ce4bgup2rcd13ifvqcn0","pricing_plan_id":"free"},{"bike_id":"ab542b0a-b258-4b62-baed-c4ff4b3a7961","system_id":"levelo_inurba_marseille","lat":43.324771,"lon":5.36557,"is_reserved":false,"is_disabled":false,"rental_uris":{"android":"levelo://app?vid=ab542b0a-b258-4b62-baed-c4ff4b3a7961","ios":"levelo://app?vid=ab542b0a-b258-4b62-baed-c4ff4b3a7961"},"vehicle_type_id":"4","last_reported":1701850179,"current_range_meters":30000,"station_id":"ce4bhs12rcd13ifvqhvg","pricing_plan_id":"free"},{"bike_id":"a7503af2-3416-42b0-89b3-360ea5b90ea2","system_id":"levelo_inurba_marseille","lat":43.31994,"lon":5.38141,"is_reserved":false,"is_disabled":false,"rental_uris":{"android":"levelo://app?vid=a7503af2-3416-42b0-89b3-360ea5b90ea2","ios":"levelo://app?vid=a7503af2-3416-42b0-89b3-360ea5b90ea2"},"vehicle_type_id":"4","last_reported":1701850179,"current_range_meters":25600,"station_id":"ce4bhr12rcd13ifvqhpg","pricing_plan_id":"free"},{"bike_id":"65f8fa65-6ae7-4e94-86fb-6a8a6a019c04","system_id":"levelo_inurba_marseille","lat":43.319935,"lon":5.381699,"is_reserved":false,"is_disabled":false,"rental_uris":{"android":"levelo://app?vid=65f8fa65-6ae7-4e94-86fb-6a8a6a019c04","ios":"levelo://app?vid=65f8fa65-6ae7-4e94-86fb-6a8a6a019c04"},"vehicle_type_id":"4","last_reported":1701850179,"current_range_meters":10400,"station_id":"ce4bhr12rcd13ifvqhpg","pricing_plan_id":"free"},{"bike_id":"1e44eb00-5254-457d-b804-b536ef4db324","system_id":"levelo_inurba_marseille","lat":43.31998,"lon":5.38146,"is_reserved":false,"is_disabled":false,"rental_uris":{"android":"levelo://app?vid=1e44eb00-5254-457d-b804-b536ef4db324","ios":"levelo://app?vid=1e44eb00-5254-457d-b804-b536ef4db324"},"vehicle_type_id":"4","last_reported":1701850179,"current_range_meters":12400,"station_id":"ce4bhr12rcd13ifvqhpg","pricing_plan_id":"free"},{"bike_id":"8f0e376d-d370-406a-9c0a-dac0b1463e7e","system_id":"levelo_inurba_marseille","lat":43.319997,"lon":5.381594,"is_reserved":false,"is_disabled":false,"rental_uris":{"android":"levelo://app?vid=8f0e376d-d370-406a-9c0a-dac0b1463e7e","ios":"levelo://app?vid=8f0e376d-d370-406a-9c0a-dac0b1463e7e"},"vehicle_type_id":"4","last_reported":1701850179,"current_range_meters":800,"station_id":"ce4bhr12rcd13ifvqhpg","pricing_plan_id":"free"},{"bike_id":"30a56e40-85f3-4e15-b42c-e3cceced0144","system_id":"levelo_inurba_marseille","lat":43.31995,"lon":5.3817,"is_reserved":false,"is_disabled":false,"rental_uris":{"android":"levelo://app?vid=30a56e40-85f3-4e15-b42c-e3cceced0144","ios":"levelo://app?vid=30a56e40-85f3-4e15-b42c-e3cceced0144"},"vehicle_type_id":"4","last_reported":1701850179,"current_range_meters":20000,"station_id":"ce4bhr12rcd13ifvqhpg","pricing_plan_id":"free"},{"bike_id":"bd082ecf-686f-49c5-a30a-7ea43132642a","system_id":"levelo_inurba_marseille","lat":43.31366,"lon":5.38498,"is_reserved":false,"is_disabled":false,"rental_uris":{"android":"levelo://app?vid=bd082ecf-686f-49c5-a30a-7ea43132642a","ios":"levelo://app?vid=bd082ecf-686f-49c5-a30a-7ea43132642a"},"vehicle_type_id":"4","last_reported":1701850179,"current_range_meters":0,"station_id":"ce4bgt92rcd13ifvqcf0","pricing_plan_id":"free"},{"bike_id":"ca3e5546-2551-44f8-9c7c-99b1eb809848","system_id":"levelo_inurba_marseille","lat":43.299724,"lon":5.371829,"is_reserved":false,"is_disabled":false,"rental_uris":{"android":"levelo://app?vid=ca3e5546-2551-44f8-9c7c-99b1eb809848","ios":"levelo://app?vid=ca3e5546-2551-44f8-9c7c-99b1eb809848"},"vehicle_type_id":"4","last_reported":1701850179,"current_range_meters":13600,"station_id":"ce4bgr92rcd13ifvqc7g","pricing_plan_id":"free"},{"bike_id":"7255d65a-e437-4f1d-b351-bff22dd088f0","system_id":"levelo_inurba_marseille","lat":43.298433,"lon":5.362774,"is_reserved":false,"is_disabled":false,"rental_uris":{"android":"levelo://app?vid=7255d65a-e437-4f1d-b351-bff22dd088f0","ios":"levelo://app?vid=7255d65a-e437-4f1d-b351-bff22dd088f0"},"vehicle_type_id":"4","last_reported":1701850179,"current_range_meters":26000,"station_id":"ce4bgpp2rcd13ifvqc3g","pricing_plan_id":"free"},{"bike_id":"2e20179d-577c-4689-8b04-7c7d96d1033e","system_id":"levelo_inurba_marseille","lat":43.298433,"lon":5.362774,"is_reserved":false,"is_disabled":false,"rental_uris":{"android":"levelo://app?vid=2e20179d-577c-4689-8b04-7c7d96d1033e","ios":"levelo://app?vid=2e20179d-577c-4689-8b04-7c7d96d1033e"},"vehicle_type_id":"4","last_reported":1701850179,"current_range_meters":16800,"station_id":"ce4bgpp2rcd13ifvqc3g","pricing_plan_id":"free"},{"bike_id":"7320abf4-f7a2-4d4d-842d-c46b8d123e5d","system_id":"levelo_inurba_marseille","lat":43.299243,"lon":5.374807,"is_reserved":false,"is_disabled":false,"rental_uris":{"android":"levelo://app?vid=7320abf4-f7a2-4d4d-842d-c46b8d123e5d","ios":"levelo://app?vid=7320abf4-f7a2-4d4d-842d-c46b8d123e5d"},"vehicle_type_id":"4","last_reported":1701850179,"current_range_meters":16800,"station_id":"ce4bgjh2rcd13ifvqbg0","pricing_plan_id":"free"},{"bike_id":"dd118a84-c570-4ff3-b5d3-c1516b98acfe","system_id":"levelo_inurba_marseille","lat":43.299243,"lon":5.37481,"is_reserved":false,"is_disabled":false,"rental_uris":{"android":"levelo://app?vid=dd118a84-c570-4ff3-b5d3-c1516b98acfe","ios":"levelo://app?vid=dd118a84-c570-4ff3-b5d3-c1516b98acfe"},"vehicle_type_id":"4","last_reported":1701850179,"current_range_meters":21600,"station_id":"ce4bgjh2rcd13ifvqbg0","pricing_plan_id":"free"},{"bike_id":"b4879a0b-f87c-476b-ba9f-57011b8686d8","system_id":"levelo_inurba_marseille","lat":43.298218,"lon":5.374416,"is_reserved":false,"is_disabled":false,"rental_uris":{"android":"levelo://app?vid=b4879a0b-f87c-476b-ba9f-57011b8686d8","ios":"levelo://app?vid=b4879a0b-f87c-476b-ba9f-57011b8686d8"},"vehicle_type_id":"4","last_reported":1701850179,"current_range_meters":14400,"station_id":"","pricing_plan_id":"free"},{"bike_id":"73c23a8d-2837-446e-83fd-663e18a9fad1","system_id":"levelo_inurba_marseille","lat":43.3283,"lon":5.36665,"is_reserved":false,"is_disabled":false,"rental_uris":{"android":"levelo://app?vid=73c23a8d-2837-446e-83fd-663e18a9fad1","ios":"levelo://app?vid=73c23a8d-2837-446e-83fd-663e18a9fad1"},"vehicle_type_id":"4","last_reported":1701850179,"current_range_meters":30800,"station_id":"ce4bhs92rcd13ifvqi0g","pricing_plan_id":"free"},{"bike_id":"ecea1b8b-fd9b-4853-98ad-20ceb4f35948","system_id":"levelo_inurba_marseille","lat":43.32833,"lon":5.3667,"is_reserved":false,"is_disabled":false,"rental_uris":{"android":"levelo://app?vid=ecea1b8b-fd9b-4853-98ad-20ceb4f35948","ios":"levelo://app?vid=ecea1b8b-fd9b-4853-98ad-20ceb4f35948"},"vehicle_type_id":"4","last_reported":1701850179,"current_range_meters":23600,"station_id":"ce4bhs92rcd13ifvqi0g","pricing_plan_id":"free"},{"bike_id":"3a2dda2e-3aab-4d0e-a954-793f1706ec09","system_id":"levelo_inurba_marseille","lat":43.298894,"lon":5.378277,"is_reserved":false,"is_disabled":false,"rental_uris":{"android":"levelo://app?vid=3a2dda2e-3aab-4d0e-a954-793f1706ec09","ios":"levelo://app?vid=3a2dda2e-3aab-4d0e-a954-793f1706ec09"},"vehicle_type_id":"4","last_reported":1701850179,"current_range_meters":22400,"station_id":"","pricing_plan_id":"free"},{"bike_id":"fad051df-9150-4866-a68e-71dc1b88d26f","system_id":"levelo_inurba_marseille","lat":43.316538,"lon":5.38954,"is_reserved":false,"is_disabled":false,"rental_uris":{"android":"levelo://app?vid=fad051df-9150-4866-a68e-71dc1b88d26f","ios":"levelo://app?vid=fad051df-9150-4866-a68e-71dc1b88d26f"},"vehicle_type_id":"4","last_reported":1701850179,"current_range_meters":10000,"station_id":"","pricing_plan_id":"free"},{"bike_id":"011e65da-29c5-4f1c-a353-40e159eb9ded","system_id":"levelo_inurba_marseille","lat":43.309589,"lon":5.390258,"is_reserved":false,"is_disabled":false,"rental_uris":{"android":"levelo://app?vid=011e65da-29c5-4f1c-a353-40e159eb9ded","ios":"levelo://app?vid=011e65da-29c5-4f1c-a353-40e159eb9ded"},"vehicle_type_id":"4","last_reported":1701850179,"current_range_meters":25200,"station_id":"ce4bgup2rcd13ifvqco0","pricing_plan_id":"free"},{"bike_id":"2db3d1ff-11e1-4fcc-b561-5934b32ec1e2","system_id":"levelo_inurba_marseille","lat":43.299028,"lon":5.381509,"is_reserved":false,"is_disabled":false,"rental_uris":{"android":"levelo://app?vid=2db3d1ff-11e1-4fcc-b561-5934b32ec1e2","ios":"levelo://app?vid=2db3d1ff-11e1-4fcc-b561-5934b32ec1e2"},"vehicle_type_id":"4","last_reported":1701850179,"current_range_meters":25200,"station_id":"ce4bgj12rcd13ifvqbc0","pricing_plan_id":"free"},{"bike_id":"dccaea2a-066e-4f03-bcd1-404c73f404f4","system_id":"levelo_inurba_marseille","lat":43.317557,"lon":5.390173,"is_reserved":false,"is_disabled":false,"rental_uris":{"android":"levelo://app?vid=dccaea2a-066e-4f03-bcd1-404c73f404f4","ios":"levelo://app?vid=dccaea2a-066e-4f03-bcd1-404c73f404f4"},"vehicle_type_id":"4","last_reported":1701850179,"current_range_meters":14800,"station_id":"ce4bhqp2rcd13ifvqhng","pricing_plan_id":"free"},{"bike_id":"0823a441-bd11-4d4c-a0ad-93235b1c1f57","system_id":"levelo_inurba_marseille","lat":43.317557,"lon":5.390173,"is_reserved":false,"is_disabled":false,"rental_uris":{"android":"levelo://app?vid=0823a441-bd11-4d4c-a0ad-93235b1c1f57","ios":"levelo://app?vid=0823a441-bd11-4d4c-a0ad-93235b1c1f57"},"vehicle_type_id":"4","last_reported":1701850179,"current_range_meters":24000,"station_id":"ce4bhqp2rcd13ifvqhng","pricing_plan_id":"free"},{"bike_id":"289a46cc-4fc9-4dda-aa67-0b9eee7e2182","system_id":"levelo_inurba_marseille","lat":43.304278,"lon":5.388868,"is_reserved":false,"is_disabled":false,"rental_uris":{"android":"levelo://app?vid=289a46cc-4fc9-4dda-aa67-0b9eee7e2182","ios":"levelo://app?vid=289a46cc-4fc9-4dda-aa67-0b9eee7e2182"},"vehicle_type_id":"4","last_reported":1701850179,"current_range_meters":12800,"station_id":"ce4bgk12rcd13ifvqbi0","pricing_plan_id":"free"},{"bike_id":"9fe3ceeb-0a08-45b7-bedc-698838953353","system_id":"levelo_inurba_marseille","lat":43.295279,"lon":5.375048,"is_reserved":false,"is_disabled":false,"rental_uris":{"android":"levelo://app?vid=9fe3ceeb-0a08-45b7-bedc-698838953353","ios":"levelo://app?vid=9fe3ceeb-0a08-45b7-bedc-698838953353"},"vehicle_type_id":"4","last_reported":1701850179,"current_range_meters":10400,"station_id":"ce4bgkp2rcd13ifvqbmg","pricing_plan_id":"free"},{"bike_id":"330ce0d9-0237-401a-a747-115c01dd5c01","system_id":"levelo_inurba_marseille","lat":43.295279,"lon":5.375048,"is_reserved":false,"is_disabled":false,"rental_uris":{"android":"levelo://app?vid=330ce0d9-0237-401a-a747-115c01dd5c01","ios":"levelo://app?vid=330ce0d9-0237-401a-a747-115c01dd5c01"},"vehicle_type_id":"4","last_reported":1701850179,"current_range_meters":13200,"station_id":"ce4bgkp2rcd13ifvqbmg","pricing_plan_id":"free"},{"bike_id":"abe84497-fb17-455f-b511-71d1ec1fd3ce","system_id":"levelo_inurba_marseille","lat":43.323648,"lon":5.388798,"is_reserved":false,"is_disabled":false,"rental_uris":{"android":"levelo://app?vid=abe84497-fb17-455f-b511-71d1ec1fd3ce","ios":"levelo://app?vid=abe84497-fb17-455f-b511-71d1ec1fd3ce"},"vehicle_type_id":"4","last_reported":1701850179,"current_range_meters":6000,"station_id":"ce4bhqp2rcd13ifvqhog","pricing_plan_id":"free"},{"bike_id":"07967f1e-00b3-4d63-8ab5-24c06e141a86","system_id":"levelo_inurba_marseille","lat":43.32367,"lon":5.38881,"is_reserved":false,"is_disabled":false,"rental_uris":{"android":"levelo://app?vid=07967f1e-00b3-4d63-8ab5-24c06e141a86","ios":"levelo://app?vid=07967f1e-00b3-4d63-8ab5-24c06e141a86"},"vehicle_type_id":"4","last_reported":1701850179,"current_range_meters":13600,"station_id":"ce4bhqp2rcd13ifvqhog","pricing_plan_id":"free"},{"bike_id":"c3643ac2-cdd1-4bd1-99e6-62e33012d634","system_id":"levelo_inurba_marseille","lat":43.32368,"lon":5.38881,"is_reserved":false,"is_disabled":false,"rental_uris":{"android":"levelo://app?vid=c3643ac2-cdd1-4bd1-99e6-62e33012d634","ios":"levelo://app?vid=c3643ac2-cdd1-4bd1-99e6-62e33012d634"},"vehicle_type_id":"4","last_reported":1701850179,"current_range_meters":8400,"station_id":"ce4bhqp2rcd13ifvqhog","pricing_plan_id":"free"},{"bike_id":"b9a2bbcc-3bb0-4cfd-8dbc-aac4814870e2","system_id":"levelo_inurba_marseille","lat":43.29601,"lon":5.381084,"is_reserved":false,"is_disabled":false,"rental_uris":{"android":"levelo://app?vid=b9a2bbcc-3bb0-4cfd-8dbc-aac4814870e2","ios":"levelo://app?vid=b9a2bbcc-3bb0-4cfd-8dbc-aac4814870e2"},"vehicle_type_id":"4","last_reported":1701850179,"current_range_meters":2800,"station_id":"ce4bgl12rcd13ifvqbo0","pricing_plan_id":"free"},{"bike_id":"edcca8ce-3d3d-4a29-a2c8-38afc62c26b1","system_id":"levelo_inurba_marseille","lat":43.293009,"lon":5.374584,"is_reserved":false,"is_disabled":false,"rental_uris":{"android":"levelo://app?vid=edcca8ce-3d3d-4a29-a2c8-38afc62c26b1","ios":"levelo://app?vid=edcca8ce-3d3d-4a29-a2c8-38afc62c26b1"},"vehicle_type_id":"4","last_reported":1701850179,"current_range_meters":8400,"station_id":"ce4bgi12rcd13ifvqb70","pricing_plan_id":"free"},{"bike_id":"4c495f2a-e92f-4388-8284-6ecf93487a87","system_id":"levelo_inurba_marseille","lat":43.292311,"lon":5.360731,"is_reserved":false,"is_disabled":false,"rental_uris":{"android":"levelo://app?vid=4c495f2a-e92f-4388-8284-6ecf93487a87","ios":"levelo://app?vid=4c495f2a-e92f-4388-8284-6ecf93487a87"},"vehicle_type_id":"4","last_reported":1701850179,"current_range_meters":2800,"station_id":"ce4bhbh2rcd13ifvqeqg","pricing_plan_id":"free"},{"bike_id":"3441dc00-2278-4454-8ec8-d955840feec0","system_id":"levelo_inurba_marseille","lat":43.291675,"lon":5.371583,"is_reserved":false,"is_disabled":false,"rental_uris":{"android":"levelo://app?vid=3441dc00-2278-4454-8ec8-d955840feec0","ios":"levelo://app?vid=3441dc00-2278-4454-8ec8-d955840feec0"},"vehicle_type_id":"4","last_reported":1701850179,"current_range_meters":24000,"station_id":"ce4bha92rcd13ifvqeh0","pricing_plan_id":"free"},{"bike_id":"1fa01839-192d-4947-94b9-7a4cf7fe8f4c","system_id":"levelo_inurba_marseille","lat":43.291671,"lon":5.371575,"is_reserved":false,"is_disabled":false,"rental_uris":{"android":"levelo://app?vid=1fa01839-192d-4947-94b9-7a4cf7fe8f4c","ios":"levelo://app?vid=1fa01839-192d-4947-94b9-7a4cf7fe8f4c"},"vehicle_type_id":"4","last_reported":1701850179,"current_range_meters":21200,"station_id":"ce4bha92rcd13ifvqeh0","pricing_plan_id":"free"},{"bike_id":"9e62badb-4433-499b-9a05-4e6c9c1f4993","system_id":"levelo_inurba_marseille","lat":43.302008,"lon":5.394694,"is_reserved":false,"is_disabled":false,"rental_uris":{"android":"levelo://app?vid=9e62badb-4433-499b-9a05-4e6c9c1f4993","ios":"levelo://app?vid=9e62badb-4433-499b-9a05-4e6c9c1f4993"},"vehicle_type_id":"4","last_reported":1701850179,"current_range_meters":24000,"station_id":"ce4bh0p2rcd13ifvqd70","pricing_plan_id":"free"},{"bike_id":"601adfac-6b3a-47fd-9446-2813bc4fa329","system_id":"levelo_inurba_marseille","lat":43.336148,"lon":5.410349,"is_reserved":false,"is_disabled":false,"rental_uris":{"android":"levelo://app?vid=601adfac-6b3a-47fd-9446-2813bc4fa329","ios":"levelo://app?vid=601adfac-6b3a-47fd-9446-2813bc4fa329"},"vehicle_type_id":"4","last_reported":1701850179,"current_range_meters":13600,"station_id":"ce4bhqh2rcd13ifvqhmg","pricing_plan_id":"free"},{"bike_id":"89b49e37-cd0e-4622-83b1-4fcddb4f606a","system_id":"levelo_inurba_marseille","lat":43.290327,"lon":5.375711,"is_reserved":false,"is_disabled":false,"rental_uris":{"android":"levelo://app?vid=89b49e37-cd0e-4622-83b1-4fcddb4f606a","ios":"levelo://app?vid=89b49e37-cd0e-4622-83b1-4fcddb4f606a"},"vehicle_type_id":"4","last_reported":1701850179,"current_range_meters":26800,"station_id":"ce4bh692rcd13ifvqe90","pricing_plan_id":"free"},{"bike_id":"d0aae59a-a1d5-4f76-b64e-754dec7d734b","system_id":"levelo_inurba_marseille","lat":43.29037,"lon":5.3757,"is_reserved":false,"is_disabled":false,"rental_uris":{"android":"levelo://app?vid=d0aae59a-a1d5-4f76-b64e-754dec7d734b","ios":"levelo://app?vid=d0aae59a-a1d5-4f76-b64e-754dec7d734b"},"vehicle_type_id":"4","last_reported":1701850179,"current_range_meters":18800,"station_id":"ce4bh692rcd13ifvqe90","pricing_plan_id":"free"},{"bike_id":"8c15e47c-5ced-4603-a742-313bb42fbbd6","system_id":"levelo_inurba_marseille","lat":43.28942,"lon":5.36381,"is_reserved":false,"is_disabled":false,"rental_uris":{"android":"levelo://app?vid=8c15e47c-5ced-4603-a742-313bb42fbbd6","ios":"levelo://app?vid=8c15e47c-5ced-4603-a742-313bb42fbbd6"},"vehicle_type_id":"4","last_reported":1701850179,"current_range_meters":21600,"station_id":"ce4bhc92rcd13ifvqetg","pricing_plan_id":"free"},{"bike_id":"78d3f41a-7b0e-4b13-a93b-c89abccfb7f4","system_id":"levelo_inurba_marseille","lat":43.289259,"lon":5.366364,"is_reserved":false,"is_disabled":false,"rental_uris":{"android":"levelo://app?vid=78d3f41a-7b0e-4b13-a93b-c89abccfb7f4","ios":"levelo://app?vid=78d3f41a-7b0e-4b13-a93b-c89abccfb7f4"},"vehicle_type_id":"4","last_reported":1701850179,"current_range_meters":24400,"station_id":"","pricing_plan_id":"free"},{"bike_id":"f68e2c8b-de08-4ad7-b342-74483183b5be","system_id":"levelo_inurba_marseille","lat":43.330413,"lon":5.389293,"is_reserved":false,"is_disabled":false,"rental_uris":{"android":"levelo://app?vid=f68e2c8b-de08-4ad7-b342-74483183b5be","ios":"levelo://app?vid=f68e2c8b-de08-4ad7-b342-74483183b5be"},"vehicle_type_id":"4","last_reported":1701850179,"current_range_meters":28400,"station_id":"ce4bhr92rcd13ifvqhrg","pricing_plan_id":"free"},{"bike_id":"3bce710b-6ffc-4366-a164-935458924814","system_id":"levelo_inurba_marseille","lat":43.29525,"lon":5.39041,"is_reserved":false,"is_disabled":false,"rental_uris":{"android":"levelo://app?vid=3bce710b-6ffc-4366-a164-935458924814","ios":"levelo://app?vid=3bce710b-6ffc-4366-a164-935458924814"},"vehicle_type_id":"4","last_reported":1701850179,"current_range_meters":30800,"station_id":"ce4bh3p2rcd13ifvqdp0","pricing_plan_id":"free"},{"bike_id":"a01a8d62-3f82-430f-8cbf-bf5e5048b82c","system_id":"levelo_inurba_marseille","lat":43.337449,"lon":5.374571,"is_reserved":false,"is_disabled":false,"rental_uris":{"android":"levelo://app?vid=a01a8d62-3f82-430f-8cbf-bf5e5048b82c","ios":"levelo://app?vid=a01a8d62-3f82-430f-8cbf-bf5e5048b82c"},"vehicle_type_id":"4","last_reported":1701850179,"current_range_meters":23200,"station_id":"","pricing_plan_id":"free"},{"bike_id":"61e94894-252e-4e6e-9735-b09eceabfad5","system_id":"levelo_inurba_marseille","lat":43.337464,"lon":5.374801,"is_reserved":false,"is_disabled":false,"rental_uris":{"android":"levelo://app?vid=61e94894-252e-4e6e-9735-b09eceabfad5","ios":"levelo://app?vid=61e94894-252e-4e6e-9735-b09eceabfad5"},"vehicle_type_id":"4","last_reported":1701850179,"current_range_meters":31200,"station_id":"","pricing_plan_id":"free"},{"bike_id":"b1da507f-59bc-4bfa-9de7-dd18b0d37739","system_id":"levelo_inurba_marseille","lat":43.337515,"lon":5.374499,"is_reserved":false,"is_disabled":false,"rental_uris":{"android":"levelo://app?vid=b1da507f-59bc-4bfa-9de7-dd18b0d37739","ios":"levelo://app?vid=b1da507f-59bc-4bfa-9de7-dd18b0d37739"},"vehicle_type_id":"4","last_reported":1701850179,"current_range_meters":30400,"station_id":"","pricing_plan_id":"free"},{"bike_id":"82aceeed-6a3f-4dcf-9611-c927556a3952","system_id":"levelo_inurba_marseille","lat":43.337525,"lon":5.374495,"is_reserved":false,"is_disabled":false,"rental_uris":{"android":"levelo://app?vid=82aceeed-6a3f-4dcf-9611-c927556a3952","ios":"levelo://app?vid=82aceeed-6a3f-4dcf-9611-c927556a3952"},"vehicle_type_id":"4","last_reported":1701850179,"current_range_meters":29200,"station_id":"","pricing_plan_id":"free"},{"bike_id":"2fbea006-0d22-445c-bfc1-d379dcddc1c1","system_id":"levelo_inurba_marseille","lat":43.337531,"lon":5.374708,"is_reserved":false,"is_disabled":false,"rental_uris":{"android":"levelo://app?vid=2fbea006-0d22-445c-bfc1-d379dcddc1c1","ios":"levelo://app?vid=2fbea006-0d22-445c-bfc1-d379dcddc1c1"},"vehicle_type_id":"4","last_reported":1701850179,"current_range_meters":25200,"station_id":"","pricing_plan_id":"free"},{"bike_id":"94559e2c-f22c-4ac5-af24-05076ed30144","system_id":"levelo_inurba_marseille","lat":43.337609,"lon":5.374469,"is_reserved":false,"is_disabled":false,"rental_uris":{"android":"levelo://app?vid=94559e2c-f22c-4ac5-af24-05076ed30144","ios":"levelo://app?vid=94559e2c-f22c-4ac5-af24-05076ed30144"},"vehicle_type_id":"4","last_reported":1701850179,"current_range_meters":28000,"station_id":"","pricing_plan_id":"free"},{"bike_id":"f0464f50-e84c-41e8-8839-9b31e220379c","system_id":"levelo_inurba_marseille","lat":43.33759,"lon":5.37484,"is_reserved":false,"is_disabled":false,"rental_uris":{"android":"levelo://app?vid=f0464f50-e84c-41e8-8839-9b31e220379c","ios":"levelo://app?vid=f0464f50-e84c-41e8-8839-9b31e220379c"},"vehicle_type_id":"4","last_reported":1701850179,"current_range_meters":30400,"station_id":"","pricing_plan_id":"free"},{"bike_id":"2e7ee21a-3625-436f-819f-c2fa7c4f6359","system_id":"levelo_inurba_marseille","lat":43.295196,"lon":5.39397,"is_reserved":false,"is_disabled":false,"rental_uris":{"android":"levelo://app?vid=2e7ee21a-3625-436f-819f-c2fa7c4f6359","ios":"levelo://app?vid=2e7ee21a-3625-436f-819f-c2fa7c4f6359"},"vehicle_type_id":"4","last_reported":1701850179,"current_range_meters":25600,"station_id":"ce4bh292rcd13ifvqdf0","pricing_plan_id":"free"},{"bike_id":"775e5997-4cf5-45fb-8585-9637e700f1dd","system_id":"levelo_inurba_marseille","lat":43.29024,"lon":5.38633,"is_reserved":false,"is_disabled":false,"rental_uris":{"android":"levelo://app?vid=775e5997-4cf5-45fb-8585-9637e700f1dd","ios":"levelo://app?vid=775e5997-4cf5-45fb-8585-9637e700f1dd"},"vehicle_type_id":"4","last_reported":1701850179,"current_range_meters":0,"station_id":"ce4bh4p2rcd13ifvqe0g","pricing_plan_id":"free"},{"bike_id":"7d728a5e-fb41-417e-94be-ae4957718d34","system_id":"levelo_inurba_marseille","lat":43.302759,"lon":5.400793,"is_reserved":false,"is_disabled":false,"rental_uris":{"android":"levelo://app?vid=7d728a5e-fb41-417e-94be-ae4957718d34","ios":"levelo://app?vid=7d728a5e-fb41-417e-94be-ae4957718d34"},"vehicle_type_id":"4","last_reported":1701850179,"current_range_meters":29200,"station_id":"ce4bgvh2rcd13ifvqcs0","pricing_plan_id":"free"},{"bike_id":"f3722882-866b-4eb5-9ca1-b20a218d370a","system_id":"levelo_inurba_marseille","lat":43.286039,"lon":5.370679,"is_reserved":false,"is_disabled":false,"rental_uris":{"android":"levelo://app?vid=f3722882-866b-4eb5-9ca1-b20a218d370a","ios":"levelo://app?vid=f3722882-866b-4eb5-9ca1-b20a218d370a"},"vehicle_type_id":"4","last_reported":1701850179,"current_range_meters":3600,"station_id":"ce4bht12rcd13ifvqi60","pricing_plan_id":"free"},{"bike_id":"95bad6d1-4931-438e-a97e-8c746fe816e4","system_id":"levelo_inurba_marseille","lat":43.286039,"lon":5.370681,"is_reserved":false,"is_disabled":false,"rental_uris":{"android":"levelo://app?vid=95bad6d1-4931-438e-a97e-8c746fe816e4","ios":"levelo://app?vid=95bad6d1-4931-438e-a97e-8c746fe816e4"},"vehicle_type_id":"4","last_reported":1701850179,"current_range_meters":19600,"station_id":"ce4bht12rcd13ifvqi60","pricing_plan_id":"free"},{"bike_id":"ebc75a78-210f-45b1-9a80-60bfc963014d","system_id":"levelo_inurba_marseille","lat":43.287184,"lon":5.37937,"is_reserved":false,"is_disabled":false,"rental_uris":{"android":"levelo://app?vid=ebc75a78-210f-45b1-9a80-60bfc963014d","ios":"levelo://app?vid=ebc75a78-210f-45b1-9a80-60bfc963014d"},"vehicle_type_id":"4","last_reported":1701850179,"current_range_meters":400,"station_id":"ce4bh9p2rcd13ifvqec0","pricing_plan_id":"free"},{"bike_id":"a1e93e08-e1f6-4196-9796-e3eaf833b349","system_id":"levelo_inurba_marseille","lat":43.316517,"lon":5.404375,"is_reserved":false,"is_disabled":false,"rental_uris":{"android":"levelo://app?vid=a1e93e08-e1f6-4196-9796-e3eaf833b349","ios":"levelo://app?vid=a1e93e08-e1f6-4196-9796-e3eaf833b349"},"vehicle_type_id":"4","last_reported":1701850179,"current_range_meters":19200,"station_id":"ce4bh012rcd13ifvqd00","pricing_plan_id":"free"},{"bike_id":"4db3561d-739e-4e74-b002-7896eecd2bb2","system_id":"levelo_inurba_marseille","lat":43.28615,"lon":5.35111,"is_reserved":false,"is_disabled":false,"rental_uris":{"android":"levelo://app?vid=4db3561d-739e-4e74-b002-7896eecd2bb2","ios":"levelo://app?vid=4db3561d-739e-4e74-b002-7896eecd2bb2"},"vehicle_type_id":"4","last_reported":1701850179,"current_range_meters":0,"station_id":"ce4bhch2rcd13ifvqeug","pricing_plan_id":"free"},{"bike_id":"c9e97fba-de30-4b7a-bb19-b5e9b62e9d87","system_id":"levelo_inurba_marseille","lat":43.283998,"lon":5.375062,"is_reserved":false,"is_disabled":false,"rental_uris":{"android":"levelo://app?vid=c9e97fba-de30-4b7a-bb19-b5e9b62e9d87","ios":"levelo://app?vid=c9e97fba-de30-4b7a-bb19-b5e9b62e9d87"},"vehicle_type_id":"4","last_reported":1701850179,"current_range_meters":24400,"station_id":"ce4bh412rcd13ifvqds0","pricing_plan_id":"free"},{"bike_id":"ea581269-cd77-469f-944e-d240f2597389","system_id":"levelo_inurba_marseille","lat":43.283998,"lon":5.375062,"is_reserved":false,"is_disabled":false,"rental_uris":{"android":"levelo://app?vid=ea581269-cd77-469f-944e-d240f2597389","ios":"levelo://app?vid=ea581269-cd77-469f-944e-d240f2597389"},"vehicle_type_id":"4","last_reported":1701850179,"current_range_meters":20000,"station_id":"ce4bh412rcd13ifvqds0","pricing_plan_id":"free"},{"bike_id":"1fd965b8-8363-472a-aff5-1c4bbc7b2c55","system_id":"levelo_inurba_marseille","lat":43.284793,"lon":5.384119,"is_reserved":false,"is_disabled":false,"rental_uris":{"android":"levelo://app?vid=1fd965b8-8363-472a-aff5-1c4bbc7b2c55","ios":"levelo://app?vid=1fd965b8-8363-472a-aff5-1c4bbc7b2c55"},"vehicle_type_id":"4","last_reported":1701850179,"current_range_meters":24800,"station_id":"ce4bh512rcd13ifvqe3g","pricing_plan_id":"free"},{"bike_id":"de15d3db-09ff-49ed-bc5c-73881ce878c0","system_id":"levelo_inurba_marseille","lat":43.284793,"lon":5.384113,"is_reserved":false,"is_disabled":false,"rental_uris":{"android":"levelo://app?vid=de15d3db-09ff-49ed-bc5c-73881ce878c0","ios":"levelo://app?vid=de15d3db-09ff-49ed-bc5c-73881ce878c0"},"vehicle_type_id":"4","last_reported":1701850179,"current_range_meters":14000,"station_id":"ce4bh512rcd13ifvqe3g","pricing_plan_id":"free"},{"bike_id":"86685abf-d0ab-40ea-8830-5b6d9d5d102e","system_id":"levelo_inurba_marseille","lat":43.283494,"lon":5.380945,"is_reserved":false,"is_disabled":false,"rental_uris":{"android":"levelo://app?vid=86685abf-d0ab-40ea-8830-5b6d9d5d102e","ios":"levelo://app?vid=86685abf-d0ab-40ea-8830-5b6d9d5d102e"},"vehicle_type_id":"4","last_reported":1701850179,"current_range_meters":12400,"station_id":"ce4bh412rcd13ifvqdr0","pricing_plan_id":"free"},{"bike_id":"59bbb630-b9b5-40a2-be7a-9960104c3558","system_id":"levelo_inurba_marseille","lat":43.282754,"lon":5.350519,"is_reserved":false,"is_disabled":false,"rental_uris":{"android":"levelo://app?vid=59bbb630-b9b5-40a2-be7a-9960104c3558","ios":"levelo://app?vid=59bbb630-b9b5-40a2-be7a-9960104c3558"},"vehicle_type_id":"4","last_reported":1701850179,"current_range_meters":31200,"station_id":"ce4bhbp2rcd13ifvqerg","pricing_plan_id":"free"},{"bike_id":"a17446bc-3b9d-4f22-ba83-b7eb6cd1154d","system_id":"levelo_inurba_marseille","lat":43.290412,"lon":5.399633,"is_reserved":false,"is_disabled":false,"rental_uris":{"android":"levelo://app?vid=a17446bc-3b9d-4f22-ba83-b7eb6cd1154d","ios":"levelo://app?vid=a17446bc-3b9d-4f22-ba83-b7eb6cd1154d"},"vehicle_type_id":"4","last_reported":1701850179,"current_range_meters":12000,"station_id":"ce4bh392rcd13ifvqdm0","pricing_plan_id":"free"},{"bike_id":"62173370-439b-40f1-8387-00025f95529f","system_id":"levelo_inurba_marseille","lat":43.29041,"lon":5.399634,"is_reserved":false,"is_disabled":false,"rental_uris":{"android":"levelo://app?vid=62173370-439b-40f1-8387-00025f95529f","ios":"levelo://app?vid=62173370-439b-40f1-8387-00025f95529f"},"vehicle_type_id":"4","last_reported":1701850179,"current_range_meters":15600,"station_id":"ce4bh392rcd13ifvqdm0","pricing_plan_id":"free"},{"bike_id":"2f358605-7075-4702-9af4-a2055448aa5a","system_id":"levelo_inurba_marseille","lat":43.281044,"lon":5.378308,"is_reserved":false,"is_disabled":false,"rental_uris":{"android":"levelo://app?vid=2f358605-7075-4702-9af4-a2055448aa5a","ios":"levelo://app?vid=2f358605-7075-4702-9af4-a2055448aa5a"},"vehicle_type_id":"4","last_reported":1701850179,"current_range_meters":17600,"station_id":"ce4bha12rcd13ifvqee0","pricing_plan_id":"free"},{"bike_id":"1152e83d-485b-4388-be2d-bb5c979f332c","system_id":"levelo_inurba_marseille","lat":43.281044,"lon":5.378308,"is_reserved":false,"is_disabled":false,"rental_uris":{"android":"levelo://app?vid=1152e83d-485b-4388-be2d-bb5c979f332c","ios":"levelo://app?vid=1152e83d-485b-4388-be2d-bb5c979f332c"},"vehicle_type_id":"4","last_reported":1701850179,"current_range_meters":1200,"station_id":"ce4bha12rcd13ifvqee0","pricing_plan_id":"free"},{"bike_id":"8d33ad8c-1edd-4d01-bf51-b7d1d6a84f58","system_id":"levelo_inurba_marseille","lat":43.279742,"lon":5.38744,"is_reserved":false,"is_disabled":false,"rental_uris":{"android":"levelo://app?vid=8d33ad8c-1edd-4d01-bf51-b7d1d6a84f58","ios":"levelo://app?vid=8d33ad8c-1edd-4d01-bf51-b7d1d6a84f58"},"vehicle_type_id":"4","last_reported":1701850179,"current_range_meters":9200,"station_id":"ce4bhg12rcd13ifvqf80","pricing_plan_id":"free"},{"bike_id":"3f0703b2-fd36-4c0f-aa24-e5be5e2ea28b","system_id":"levelo_inurba_marseille","lat":43.279742,"lon":5.38744,"is_reserved":false,"is_disabled":false,"rental_uris":{"android":"levelo://app?vid=3f0703b2-fd36-4c0f-aa24-e5be5e2ea28b","ios":"levelo://app?vid=3f0703b2-fd36-4c0f-aa24-e5be5e2ea28b"},"vehicle_type_id":"4","last_reported":1701850179,"current_range_meters":18800,"station_id":"ce4bhg12rcd13ifvqf80","pricing_plan_id":"free"},{"bike_id":"9e0bee4c-b45d-4238-9dc5-5d14f71c193f","system_id":"levelo_inurba_marseille","lat":43.292571,"lon":5.409107,"is_reserved":false,"is_disabled":false,"rental_uris":{"android":"levelo://app?vid=9e0bee4c-b45d-4238-9dc5-5d14f71c193f","ios":"levelo://app?vid=9e0bee4c-b45d-4238-9dc5-5d14f71c193f"},"vehicle_type_id":"4","last_reported":1701850179,"current_range_meters":24400,"station_id":"ce4bh192rcd13ifvqdc0","pricing_plan_id":"free"},{"bike_id":"3d87c5f0-b93d-494a-92a8-ca4747021f49","system_id":"levelo_inurba_marseille","lat":43.325233,"lon":5.414318,"is_reserved":false,"is_disabled":false,"rental_uris":{"android":"levelo://app?vid=3d87c5f0-b93d-494a-92a8-ca4747021f49","ios":"levelo://app?vid=3d87c5f0-b93d-494a-92a8-ca4747021f49"},"vehicle_type_id":"4","last_reported":1701850179,"current_range_meters":0,"station_id":"ce4bhq12rcd13ifvqhhg","pricing_plan_id":"free"},{"bike_id":"b48fc1d6-c7da-451a-8c70-234dcc4c8cfe","system_id":"levelo_inurba_marseille","lat":43.325243,"lon":5.414326,"is_reserved":false,"is_disabled":false,"rental_uris":{"android":"levelo://app?vid=b48fc1d6-c7da-451a-8c70-234dcc4c8cfe","ios":"levelo://app?vid=b48fc1d6-c7da-451a-8c70-234dcc4c8cfe"},"vehicle_type_id":"4","last_reported":1701850179,"current_range_meters":30800,"station_id":"ce4bhq12rcd13ifvqhhg","pricing_plan_id":"free"},{"bike_id":"d648cd2e-546b-4e78-8ec2-e4e3837d9411","system_id":"levelo_inurba_marseille","lat":43.325243,"lon":5.414326,"is_reserved":false,"is_disabled":false,"rental_uris":{"android":"levelo://app?vid=d648cd2e-546b-4e78-8ec2-e4e3837d9411","ios":"levelo://app?vid=d648cd2e-546b-4e78-8ec2-e4e3837d9411"},"vehicle_type_id":"4","last_reported":1701850179,"current_range_meters":27200,"station_id":"ce4bhq12rcd13ifvqhhg","pricing_plan_id":"free"},{"bike_id":"f875c7c6-4aca-4be8-9481-f8750532292f","system_id":"levelo_inurba_marseille","lat":43.325233,"lon":5.414318,"is_reserved":false,"is_disabled":false,"rental_uris":{"android":"levelo://app?vid=f875c7c6-4aca-4be8-9481-f8750532292f","ios":"levelo://app?vid=f875c7c6-4aca-4be8-9481-f8750532292f"},"vehicle_type_id":"4","last_reported":1701850179,"current_range_meters":31600,"station_id":"ce4bhq12rcd13ifvqhhg","pricing_plan_id":"free"},{"bike_id":"603f50d4-baaa-4b77-b27b-1b2fd8696384","system_id":"levelo_inurba_marseille","lat":43.303837,"lon":5.418724,"is_reserved":false,"is_disabled":false,"rental_uris":{"android":"levelo://app?vid=603f50d4-baaa-4b77-b27b-1b2fd8696384","ios":"levelo://app?vid=603f50d4-baaa-4b77-b27b-1b2fd8696384"},"vehicle_type_id":"4","last_reported":1701850179,"current_range_meters":24000,"station_id":"ce4bhop2rcd13ifvqh7g","pricing_plan_id":"free"},{"bike_id":"aa6ce2fc-ad88-4844-a4c0-c13bf514035e","system_id":"levelo_inurba_marseille","lat":43.33612,"lon":5.410321,"is_reserved":false,"is_disabled":false,"rental_uris":{"android":"levelo://app?vid=aa6ce2fc-ad88-4844-a4c0-c13bf514035e","ios":"levelo://app?vid=aa6ce2fc-ad88-4844-a4c0-c13bf514035e"},"vehicle_type_id":"4","last_reported":1701850179,"current_range_meters":30400,"station_id":"ce4bhqh2rcd13ifvqhmg","pricing_plan_id":"free"},{"bike_id":"c1c73284-745f-401b-b04b-689c24909521","system_id":"levelo_inurba_marseille","lat":43.336134,"lon":5.410341,"is_reserved":false,"is_disabled":false,"rental_uris":{"android":"levelo://app?vid=c1c73284-745f-401b-b04b-689c24909521","ios":"levelo://app?vid=c1c73284-745f-401b-b04b-689c24909521"},"vehicle_type_id":"4","last_reported":1701850179,"current_range_meters":20000,"station_id":"ce4bhqh2rcd13ifvqhmg","pricing_plan_id":"free"},{"bike_id":"a62cfaa8-cad6-4f26-a15b-264719d48fde","system_id":"levelo_inurba_marseille","lat":43.275625,"lon":5.384392,"is_reserved":false,"is_disabled":false,"rental_uris":{"android":"levelo://app?vid=a62cfaa8-cad6-4f26-a15b-264719d48fde","ios":"levelo://app?vid=a62cfaa8-cad6-4f26-a15b-264719d48fde"},"vehicle_type_id":"4","last_reported":1701850179,"current_range_meters":28000,"station_id":"ce4bhh92rcd13ifvqfi0","pricing_plan_id":"free"},{"bike_id":"70e32bc1-50e4-456e-afc1-6e546d17a05d","system_id":"levelo_inurba_marseille","lat":43.336134,"lon":5.410341,"is_reserved":false,"is_disabled":false,"rental_uris":{"android":"levelo://app?vid=70e32bc1-50e4-456e-afc1-6e546d17a05d","ios":"levelo://app?vid=70e32bc1-50e4-456e-afc1-6e546d17a05d"},"vehicle_type_id":"4","last_reported":1701850179,"current_range_meters":12000,"station_id":"ce4bhqh2rcd13ifvqhmg","pricing_plan_id":"free"},{"bike_id":"0d6360d2-75d9-4d43-9449-6f2f60f16a7f","system_id":"levelo_inurba_marseille","lat":43.336134,"lon":5.410341,"is_reserved":false,"is_disabled":false,"rental_uris":{"android":"levelo://app?vid=0d6360d2-75d9-4d43-9449-6f2f60f16a7f","ios":"levelo://app?vid=0d6360d2-75d9-4d43-9449-6f2f60f16a7f"},"vehicle_type_id":"4","last_reported":1701850179,"current_range_meters":23200,"station_id":"ce4bhqh2rcd13ifvqhmg","pricing_plan_id":"free"},{"bike_id":"076554a3-e24b-4502-a802-66fb57b131f3","system_id":"levelo_inurba_marseille","lat":43.33612,"lon":5.410321,"is_reserved":false,"is_disabled":false,"rental_uris":{"android":"levelo://app?vid=076554a3-e24b-4502-a802-66fb57b131f3","ios":"levelo://app?vid=076554a3-e24b-4502-a802-66fb57b131f3"},"vehicle_type_id":"4","last_reported":1701850179,"current_range_meters":4000,"station_id":"ce4bhqh2rcd13ifvqhmg","pricing_plan_id":"free"},{"bike_id":"d5218c97-44ed-49a6-a6d6-2bd9c8181144","system_id":"levelo_inurba_marseille","lat":43.336134,"lon":5.410341,"is_reserved":false,"is_disabled":false,"rental_uris":{"android":"levelo://app?vid=d5218c97-44ed-49a6-a6d6-2bd9c8181144","ios":"levelo://app?vid=d5218c97-44ed-49a6-a6d6-2bd9c8181144"},"vehicle_type_id":"4","last_reported":1701850179,"current_range_meters":31600,"station_id":"ce4bhqh2rcd13ifvqhmg","pricing_plan_id":"free"},{"bike_id":"989a01d2-f2a9-4c11-8a79-9792d64b5413","system_id":"levelo_inurba_marseille","lat":43.27622,"lon":5.39483,"is_reserved":false,"is_disabled":false,"rental_uris":{"android":"levelo://app?vid=989a01d2-f2a9-4c11-8a79-9792d64b5413","ios":"levelo://app?vid=989a01d2-f2a9-4c11-8a79-9792d64b5413"},"vehicle_type_id":"4","last_reported":1701850179,"current_range_meters":9600,"station_id":"","pricing_plan_id":"free"},{"bike_id":"d274b1da-77c0-4e29-9dc2-a2e765f95340","system_id":"levelo_inurba_marseille","lat":43.310785,"lon":5.424305,"is_reserved":false,"is_disabled":false,"rental_uris":{"android":"levelo://app?vid=d274b1da-77c0-4e29-9dc2-a2e765f95340","ios":"levelo://app?vid=d274b1da-77c0-4e29-9dc2-a2e765f95340"},"vehicle_type_id":"4","last_reported":1701850179,"current_range_meters":28400,"station_id":"ce4bhp92rcd13ifvqhag","pricing_plan_id":"free"},{"bike_id":"d0571c33-db23-43da-855a-5cb77ea128b8","system_id":"levelo_inurba_marseille","lat":43.310785,"lon":5.424305,"is_reserved":false,"is_disabled":false,"rental_uris":{"android":"levelo://app?vid=d0571c33-db23-43da-855a-5cb77ea128b8","ios":"levelo://app?vid=d0571c33-db23-43da-855a-5cb77ea128b8"},"vehicle_type_id":"4","last_reported":1701850179,"current_range_meters":14000,"station_id":"ce4bhp92rcd13ifvqhag","pricing_plan_id":"free"},{"bike_id":"35583fe3-d19c-4d33-bdaf-ce96ce3f04aa","system_id":"levelo_inurba_marseille","lat":43.340804,"lon":5.410219,"is_reserved":false,"is_disabled":false,"rental_uris":{"android":"levelo://app?vid=35583fe3-d19c-4d33-bdaf-ce96ce3f04aa","ios":"levelo://app?vid=35583fe3-d19c-4d33-bdaf-ce96ce3f04aa"},"vehicle_type_id":"4","last_reported":1701850179,"current_range_meters":28800,"station_id":"ce4bhqh2rcd13ifvqhlg","pricing_plan_id":"free"},{"bike_id":"03835873-5d6e-49cc-8bf7-4974064c28c9","system_id":"levelo_inurba_marseille","lat":43.340804,"lon":5.410219,"is_reserved":false,"is_disabled":false,"rental_uris":{"android":"levelo://app?vid=03835873-5d6e-49cc-8bf7-4974064c28c9","ios":"levelo://app?vid=03835873-5d6e-49cc-8bf7-4974064c28c9"},"vehicle_type_id":"4","last_reported":1701850179,"current_range_meters":18000,"station_id":"ce4bhqh2rcd13ifvqhlg","pricing_plan_id":"free"},{"bike_id":"56eb65f8-924e-4b99-81bb-9590af7efed3","system_id":"levelo_inurba_marseille","lat":43.340804,"lon":5.410219,"is_reserved":false,"is_disabled":false,"rental_uris":{"android":"levelo://app?vid=56eb65f8-924e-4b99-81bb-9590af7efed3","ios":"levelo://app?vid=56eb65f8-924e-4b99-81bb-9590af7efed3"},"vehicle_type_id":"4","last_reported":1701850179,"current_range_meters":18000,"station_id":"ce4bhqh2rcd13ifvqhlg","pricing_plan_id":"free"},{"bike_id":"910fd3aa-d2e0-4553-894a-6161d41c7fcd","system_id":"levelo_inurba_marseille","lat":43.2757,"lon":5.395327,"is_reserved":false,"is_disabled":false,"rental_uris":{"android":"levelo://app?vid=910fd3aa-d2e0-4553-894a-6161d41c7fcd","ios":"levelo://app?vid=910fd3aa-d2e0-4553-894a-6161d41c7fcd"},"vehicle_type_id":"4","last_reported":1701850179,"current_range_meters":3600,"station_id":"","pricing_plan_id":"free"},{"bike_id":"85a05c56-6d8a-433d-b0c1-925fe133325c","system_id":"levelo_inurba_marseille","lat":43.295523,"lon":5.422926,"is_reserved":false,"is_disabled":false,"rental_uris":{"android":"levelo://app?vid=85a05c56-6d8a-433d-b0c1-925fe133325c","ios":"levelo://app?vid=85a05c56-6d8a-433d-b0c1-925fe133325c"},"vehicle_type_id":"4","last_reported":1701850179,"current_range_meters":24400,"station_id":"ce4bhph2rcd13ifvqhdg","pricing_plan_id":"free"},{"bike_id":"e5ea545a-52b1-4ab2-8ff2-e9099d2397af","system_id":"levelo_inurba_marseille","lat":43.295511,"lon":5.422926,"is_reserved":false,"is_disabled":false,"rental_uris":{"android":"levelo://app?vid=e5ea545a-52b1-4ab2-8ff2-e9099d2397af","ios":"levelo://app?vid=e5ea545a-52b1-4ab2-8ff2-e9099d2397af"},"vehicle_type_id":"4","last_reported":1701850179,"current_range_meters":25600,"station_id":"ce4bhph2rcd13ifvqhdg","pricing_plan_id":"free"},{"bike_id":"85c4c6c8-60da-47d5-9ad3-a4fdfeecbf22","system_id":"levelo_inurba_marseille","lat":43.272124,"lon":5.391768,"is_reserved":false,"is_disabled":false,"rental_uris":{"android":"levelo://app?vid=85c4c6c8-60da-47d5-9ad3-a4fdfeecbf22","ios":"levelo://app?vid=85c4c6c8-60da-47d5-9ad3-a4fdfeecbf22"},"vehicle_type_id":"4","last_reported":1701850179,"current_range_meters":18400,"station_id":"ce4bhhp2rcd13ifvqfm0","pricing_plan_id":"free"},{"bike_id":"4aaafaa4-5992-4d41-aca4-45ea537c3e9e","system_id":"levelo_inurba_marseille","lat":43.27214,"lon":5.3925,"is_reserved":false,"is_disabled":false,"rental_uris":{"android":"levelo://app?vid=4aaafaa4-5992-4d41-aca4-45ea537c3e9e","ios":"levelo://app?vid=4aaafaa4-5992-4d41-aca4-45ea537c3e9e"},"vehicle_type_id":"4","last_reported":1701850179,"current_range_meters":14000,"station_id":"","pricing_plan_id":"free"},{"bike_id":"d6b140e4-b651-423f-8dfd-b6822964d244","system_id":"levelo_inurba_marseille","lat":43.278128,"lon":5.407195,"is_reserved":false,"is_disabled":false,"rental_uris":{"android":"levelo://app?vid=d6b140e4-b651-423f-8dfd-b6822964d244","ios":"levelo://app?vid=d6b140e4-b651-423f-8dfd-b6822964d244"},"vehicle_type_id":"4","last_reported":1701850179,"current_range_meters":21600,"station_id":"ce4bhnh2rcd13ifvqgtg","pricing_plan_id":"free"},{"bike_id":"41c2b40c-1d1e-4e89-9031-180343f19e92","system_id":"levelo_inurba_marseille","lat":43.269467,"lon":5.386439,"is_reserved":false,"is_disabled":false,"rental_uris":{"android":"levelo://app?vid=41c2b40c-1d1e-4e89-9031-180343f19e92","ios":"levelo://app?vid=41c2b40c-1d1e-4e89-9031-180343f19e92"},"vehicle_type_id":"4","last_reported":1701850179,"current_range_meters":25600,"station_id":"ce4bhh92rcd13ifvqfh0","pricing_plan_id":"free"},{"bike_id":"8b2f8567-6a40-43bb-b61c-53d2cfdebbe3","system_id":"levelo_inurba_marseille","lat":43.269467,"lon":5.386439,"is_reserved":false,"is_disabled":false,"rental_uris":{"android":"levelo://app?vid=8b2f8567-6a40-43bb-b61c-53d2cfdebbe3","ios":"levelo://app?vid=8b2f8567-6a40-43bb-b61c-53d2cfdebbe3"},"vehicle_type_id":"4","last_reported":1701850179,"current_range_meters":30400,"station_id":"ce4bhh92rcd13ifvqfh0","pricing_plan_id":"free"},{"bike_id":"b596cd1c-f09c-4ebf-91f1-c624d863bd57","system_id":"levelo_inurba_marseille","lat":43.2695,"lon":5.38627,"is_reserved":false,"is_disabled":false,"rental_uris":{"android":"levelo://app?vid=b596cd1c-f09c-4ebf-91f1-c624d863bd57","ios":"levelo://app?vid=b596cd1c-f09c-4ebf-91f1-c624d863bd57"},"vehicle_type_id":"4","last_reported":1701850179,"current_range_meters":0,"station_id":"ce4bhh92rcd13ifvqfh0","pricing_plan_id":"free"},{"bike_id":"6379bef0-4421-4fb6-b9da-489282352ddb","system_id":"levelo_inurba_marseille","lat":43.269467,"lon":5.386439,"is_reserved":false,"is_disabled":false,"rental_uris":{"android":"levelo://app?vid=6379bef0-4421-4fb6-b9da-489282352ddb","ios":"levelo://app?vid=6379bef0-4421-4fb6-b9da-489282352ddb"},"vehicle_type_id":"4","last_reported":1701850179,"current_range_meters":26400,"station_id":"ce4bhh92rcd13ifvqfh0","pricing_plan_id":"free"},{"bike_id":"b6a8da46-fc34-488d-ac34-19743b95b19a","system_id":"levelo_inurba_marseille","lat":43.269319,"lon":5.389397,"is_reserved":false,"is_disabled":false,"rental_uris":{"android":"levelo://app?vid=b6a8da46-fc34-488d-ac34-19743b95b19a","ios":"levelo://app?vid=b6a8da46-fc34-488d-ac34-19743b95b19a"},"vehicle_type_id":"4","last_reported":1701850179,"current_range_meters":14800,"station_id":"ce4bhhh2rcd13ifvqfl0","pricing_plan_id":"free"},{"bike_id":"e7ea1f24-7569-42f4-b427-84309ccb1af3","system_id":"levelo_inurba_marseille","lat":43.269319,"lon":5.389397,"is_reserved":false,"is_disabled":false,"rental_uris":{"android":"levelo://app?vid=e7ea1f24-7569-42f4-b427-84309ccb1af3","ios":"levelo://app?vid=e7ea1f24-7569-42f4-b427-84309ccb1af3"},"vehicle_type_id":"4","last_reported":1701850179,"current_range_meters":29600,"station_id":"ce4bhhh2rcd13ifvqfl0","pricing_plan_id":"free"},{"bike_id":"28ac9d16-cbd0-4255-bede-2beae0bd3065","system_id":"levelo_inurba_marseille","lat":43.26681,"lon":5.382694,"is_reserved":false,"is_disabled":false,"rental_uris":{"android":"levelo://app?vid=28ac9d16-cbd0-4255-bede-2beae0bd3065","ios":"levelo://app?vid=28ac9d16-cbd0-4255-bede-2beae0bd3065"},"vehicle_type_id":"4","last_reported":1701850179,"current_range_meters":22400,"station_id":"ce4bhg92rcd13ifvqf90","pricing_plan_id":"free"},{"bike_id":"1ccdf379-a16a-4b4d-aac2-f0555b1e4d46","system_id":"levelo_inurba_marseille","lat":43.26681,"lon":5.382694,"is_reserved":false,"is_disabled":false,"rental_uris":{"android":"levelo://app?vid=1ccdf379-a16a-4b4d-aac2-f0555b1e4d46","ios":"levelo://app?vid=1ccdf379-a16a-4b4d-aac2-f0555b1e4d46"},"vehicle_type_id":"4","last_reported":1701850179,"current_range_meters":25600,"station_id":"ce4bhg92rcd13ifvqf90","pricing_plan_id":"free"},{"bike_id":"02f0a525-429c-4ed1-926f-67a3aab34c66","system_id":"levelo_inurba_marseille","lat":43.26681,"lon":5.382694,"is_reserved":false,"is_disabled":false,"rental_uris":{"android":"levelo://app?vid=02f0a525-429c-4ed1-926f-67a3aab34c66","ios":"levelo://app?vid=02f0a525-429c-4ed1-926f-67a3aab34c66"},"vehicle_type_id":"4","last_reported":1701850179,"current_range_meters":16800,"station_id":"ce4bhg92rcd13ifvqf90","pricing_plan_id":"free"},{"bike_id":"60779752-fa0f-4b0e-b951-5c93f6bbef30","system_id":"levelo_inurba_marseille","lat":43.26681,"lon":5.382694,"is_reserved":false,"is_disabled":false,"rental_uris":{"android":"levelo://app?vid=60779752-fa0f-4b0e-b951-5c93f6bbef30","ios":"levelo://app?vid=60779752-fa0f-4b0e-b951-5c93f6bbef30"},"vehicle_type_id":"4","last_reported":1701850179,"current_range_meters":16800,"station_id":"ce4bhg92rcd13ifvqf90","pricing_plan_id":"free"},{"bike_id":"942dcccb-3225-4d80-81de-aceb9c555f20","system_id":"levelo_inurba_marseille","lat":43.26681,"lon":5.382694,"is_reserved":false,"is_disabled":false,"rental_uris":{"android":"levelo://app?vid=942dcccb-3225-4d80-81de-aceb9c555f20","ios":"levelo://app?vid=942dcccb-3225-4d80-81de-aceb9c555f20"},"vehicle_type_id":"4","last_reported":1701850179,"current_range_meters":12400,"station_id":"ce4bhg92rcd13ifvqf90","pricing_plan_id":"free"},{"bike_id":"aaa72f0b-a232-4d9f-8f50-6dc475acc1e3","system_id":"levelo_inurba_marseille","lat":43.26681,"lon":5.382694,"is_reserved":false,"is_disabled":false,"rental_uris":{"android":"levelo://app?vid=aaa72f0b-a232-4d9f-8f50-6dc475acc1e3","ios":"levelo://app?vid=aaa72f0b-a232-4d9f-8f50-6dc475acc1e3"},"vehicle_type_id":"4","last_reported":1701850179,"current_range_meters":20400,"station_id":"ce4bhg92rcd13ifvqf90","pricing_plan_id":"free"},{"bike_id":"0f109780-7938-456a-be51-abd1bd555d74","system_id":"levelo_inurba_marseille","lat":43.26681,"lon":5.382694,"is_reserved":false,"is_disabled":false,"rental_uris":{"android":"levelo://app?vid=0f109780-7938-456a-be51-abd1bd555d74","ios":"levelo://app?vid=0f109780-7938-456a-be51-abd1bd555d74"},"vehicle_type_id":"4","last_reported":1701850179,"current_range_meters":15600,"station_id":"ce4bhg92rcd13ifvqf90","pricing_plan_id":"free"},{"bike_id":"dda2260c-8f53-4498-829e-3450b8f940eb","system_id":"levelo_inurba_marseille","lat":43.26681,"lon":5.382694,"is_reserved":false,"is_disabled":false,"rental_uris":{"android":"levelo://app?vid=dda2260c-8f53-4498-829e-3450b8f940eb","ios":"levelo://app?vid=dda2260c-8f53-4498-829e-3450b8f940eb"},"vehicle_type_id":"4","last_reported":1701850179,"current_range_meters":14800,"station_id":"ce4bhg92rcd13ifvqf90","pricing_plan_id":"free"},{"bike_id":"9c896023-88f7-446c-98fc-47b6b062b0f2","system_id":"levelo_inurba_marseille","lat":43.26681,"lon":5.382694,"is_reserved":false,"is_disabled":false,"rental_uris":{"android":"levelo://app?vid=9c896023-88f7-446c-98fc-47b6b062b0f2","ios":"levelo://app?vid=9c896023-88f7-446c-98fc-47b6b062b0f2"},"vehicle_type_id":"4","last_reported":1701850179,"current_range_meters":21200,"station_id":"ce4bhg92rcd13ifvqf90","pricing_plan_id":"free"},{"bike_id":"a4170f54-00ac-456c-b9a7-c78894468c22","system_id":"levelo_inurba_marseille","lat":43.26681,"lon":5.382694,"is_reserved":false,"is_disabled":false,"rental_uris":{"android":"levelo://app?vid=a4170f54-00ac-456c-b9a7-c78894468c22","ios":"levelo://app?vid=a4170f54-00ac-456c-b9a7-c78894468c22"},"vehicle_type_id":"4","last_reported":1701850179,"current_range_meters":31200,"station_id":"ce4bhg92rcd13ifvqf90","pricing_plan_id":"free"},{"bike_id":"5b9838d5-8b29-4e13-aa83-38f835d509de","system_id":"levelo_inurba_marseille","lat":43.26681,"lon":5.382694,"is_reserved":false,"is_disabled":false,"rental_uris":{"android":"levelo://app?vid=5b9838d5-8b29-4e13-aa83-38f835d509de","ios":"levelo://app?vid=5b9838d5-8b29-4e13-aa83-38f835d509de"},"vehicle_type_id":"4","last_reported":1701850179,"current_range_meters":27600,"station_id":"ce4bhg92rcd13ifvqf90","pricing_plan_id":"free"},{"bike_id":"a096c7b6-0324-45c5-aebe-20feced15eca","system_id":"levelo_inurba_marseille","lat":43.26681,"lon":5.382694,"is_reserved":false,"is_disabled":false,"rental_uris":{"android":"levelo://app?vid=a096c7b6-0324-45c5-aebe-20feced15eca","ios":"levelo://app?vid=a096c7b6-0324-45c5-aebe-20feced15eca"},"vehicle_type_id":"4","last_reported":1701850179,"current_range_meters":30000,"station_id":"ce4bhg92rcd13ifvqf90","pricing_plan_id":"free"},{"bike_id":"aadb81f1-cf02-460d-a8e1-9f156db3daf6","system_id":"levelo_inurba_marseille","lat":43.27996,"lon":5.416624,"is_reserved":false,"is_disabled":false,"rental_uris":{"android":"levelo://app?vid=aadb81f1-cf02-460d-a8e1-9f156db3daf6","ios":"levelo://app?vid=aadb81f1-cf02-460d-a8e1-9f156db3daf6"},"vehicle_type_id":"4","last_reported":1701850179,"current_range_meters":30000,"station_id":"ce4bho12rcd13ifvqh1g","pricing_plan_id":"free"},{"bike_id":"205c4b59-f0e2-4861-8826-775cfa745a0c","system_id":"levelo_inurba_marseille","lat":43.265714,"lon":5.372891,"is_reserved":false,"is_disabled":false,"rental_uris":{"android":"levelo://app?vid=205c4b59-f0e2-4861-8826-775cfa745a0c","ios":"levelo://app?vid=205c4b59-f0e2-4861-8826-775cfa745a0c"},"vehicle_type_id":"4","last_reported":1701850179,"current_range_meters":2400,"station_id":"ce4bhg12rcd13ifvqf70","pricing_plan_id":"free"},{"bike_id":"1fd2300f-a7a6-440c-ac21-6fb4852b598e","system_id":"levelo_inurba_marseille","lat":43.267966,"lon":5.393976,"is_reserved":false,"is_disabled":false,"rental_uris":{"android":"levelo://app?vid=1fd2300f-a7a6-440c-ac21-6fb4852b598e","ios":"levelo://app?vid=1fd2300f-a7a6-440c-ac21-6fb4852b598e"},"vehicle_type_id":"4","last_reported":1701850179,"current_range_meters":30000,"station_id":"ce4bhh12rcd13ifvqfg0","pricing_plan_id":"free"},{"bike_id":"e3b38ee4-eaa0-4a98-a2cc-1dfbdbf6ce43","system_id":"levelo_inurba_marseille","lat":43.31715,"lon":5.437078,"is_reserved":false,"is_disabled":false,"rental_uris":{"android":"levelo://app?vid=e3b38ee4-eaa0-4a98-a2cc-1dfbdbf6ce43","ios":"levelo://app?vid=e3b38ee4-eaa0-4a98-a2cc-1dfbdbf6ce43"},"vehicle_type_id":"4","last_reported":1701850179,"current_range_meters":14400,"station_id":"ce4bhp92rcd13ifvqhcg","pricing_plan_id":"free"},{"bike_id":"37038aca-97ca-4cb2-81d0-9a4826818ca5","system_id":"levelo_inurba_marseille","lat":43.26202,"lon":5.379299,"is_reserved":false,"is_disabled":false,"rental_uris":{"android":"levelo://app?vid=37038aca-97ca-4cb2-81d0-9a4826818ca5","ios":"levelo://app?vid=37038aca-97ca-4cb2-81d0-9a4826818ca5"},"vehicle_type_id":"4","last_reported":1701850179,"current_range_meters":28000,"station_id":"ce4bhjp2rcd13ifvqg90","pricing_plan_id":"free"},{"bike_id":"2a89dfa1-1f36-48a5-a769-07c69f06d411","system_id":"levelo_inurba_marseille","lat":43.275028,"lon":5.424534,"is_reserved":false,"is_disabled":false,"rental_uris":{"android":"levelo://app?vid=2a89dfa1-1f36-48a5-a769-07c69f06d411","ios":"levelo://app?vid=2a89dfa1-1f36-48a5-a769-07c69f06d411"},"vehicle_type_id":"4","last_reported":1701850179,"current_range_meters":14000,"station_id":"ce4bhn92rcd13ifvqgrg","pricing_plan_id":"free"},{"bike_id":"01c90934-54ec-44d8-a00d-50b8324b2c76","system_id":"levelo_inurba_marseille","lat":43.25581,"lon":5.3823,"is_reserved":false,"is_disabled":false,"rental_uris":{"android":"levelo://app?vid=01c90934-54ec-44d8-a00d-50b8324b2c76","ios":"levelo://app?vid=01c90934-54ec-44d8-a00d-50b8324b2c76"},"vehicle_type_id":"4","last_reported":1701850179,"current_range_meters":25600,"station_id":"ce4bhih2rcd13ifvqfs0","pricing_plan_id":"free"},{"bike_id":"f6225bef-2316-4fa7-a461-2a35560205b5","system_id":"levelo_inurba_marseille","lat":43.25509,"lon":5.37648,"is_reserved":false,"is_disabled":false,"rental_uris":{"android":"levelo://app?vid=f6225bef-2316-4fa7-a461-2a35560205b5","ios":"levelo://app?vid=f6225bef-2316-4fa7-a461-2a35560205b5"},"vehicle_type_id":"4","last_reported":1701850179,"current_range_meters":25600,"station_id":"ce4bhh12rcd13ifvqff0","pricing_plan_id":"free"},{"bike_id":"834b24ad-3642-49d9-a5aa-ff3788b8795d","system_id":"levelo_inurba_marseille","lat":43.258224,"lon":5.394369,"is_reserved":false,"is_disabled":false,"rental_uris":{"android":"levelo://app?vid=834b24ad-3642-49d9-a5aa-ff3788b8795d","ios":"levelo://app?vid=834b24ad-3642-49d9-a5aa-ff3788b8795d"},"vehicle_type_id":"4","last_reported":1701850179,"current_range_meters":17600,"station_id":"ce4bhip2rcd13ifvqft0","pricing_plan_id":"free"},{"bike_id":"379e0731-7f57-4502-8a2a-0fb434ea06dd","system_id":"levelo_inurba_marseille","lat":43.25576,"lon":5.382362,"is_reserved":false,"is_disabled":false,"rental_uris":{"android":"levelo://app?vid=379e0731-7f57-4502-8a2a-0fb434ea06dd","ios":"levelo://app?vid=379e0731-7f57-4502-8a2a-0fb434ea06dd"},"vehicle_type_id":"4","last_reported":1701850179,"current_range_meters":25600,"station_id":"ce4bhih2rcd13ifvqfs0","pricing_plan_id":"free"},{"bike_id":"5e5e7574-4f45-48e4-936b-03f30d961b04","system_id":"levelo_inurba_marseille","lat":43.25507,"lon":5.37649,"is_reserved":false,"is_disabled":false,"rental_uris":{"android":"levelo://app?vid=5e5e7574-4f45-48e4-936b-03f30d961b04","ios":"levelo://app?vid=5e5e7574-4f45-48e4-936b-03f30d961b04"},"vehicle_type_id":"4","last_reported":1701850179,"current_range_meters":18000,"station_id":"ce4bhh12rcd13ifvqff0","pricing_plan_id":"free"},{"bike_id":"8a8484bd-d0c6-450f-ad78-cb30da4451e4","system_id":"levelo_inurba_marseille","lat":43.258224,"lon":5.394369,"is_reserved":false,"is_disabled":false,"rental_uris":{"android":"levelo://app?vid=8a8484bd-d0c6-450f-ad78-cb30da4451e4","ios":"levelo://app?vid=8a8484bd-d0c6-450f-ad78-cb30da4451e4"},"vehicle_type_id":"4","last_reported":1701850179,"current_range_meters":17600,"station_id":"ce4bhip2rcd13ifvqft0","pricing_plan_id":"free"},{"bike_id":"20e9d879-7ab6-4d31-9ea0-b43d6766c982","system_id":"levelo_inurba_marseille","lat":43.25503,"lon":5.37647,"is_reserved":false,"is_disabled":false,"rental_uris":{"android":"levelo://app?vid=20e9d879-7ab6-4d31-9ea0-b43d6766c982","ios":"levelo://app?vid=20e9d879-7ab6-4d31-9ea0-b43d6766c982"},"vehicle_type_id":"4","last_reported":1701850179,"current_range_meters":28400,"station_id":"ce4bhh12rcd13ifvqff0","pricing_plan_id":"free"},{"bike_id":"67088fd8-2327-4e19-8b16-3f81bbb776eb","system_id":"levelo_inurba_marseille","lat":43.25502,"lon":5.37651,"is_reserved":false,"is_disabled":false,"rental_uris":{"android":"levelo://app?vid=67088fd8-2327-4e19-8b16-3f81bbb776eb","ios":"levelo://app?vid=67088fd8-2327-4e19-8b16-3f81bbb776eb"},"vehicle_type_id":"4","last_reported":1701850179,"current_range_meters":0,"station_id":"ce4bhh12rcd13ifvqff0","pricing_plan_id":"free"},{"bike_id":"ca9332e9-cbef-43ed-9c45-0222a0848c83","system_id":"levelo_inurba_marseille","lat":43.255,"lon":5.37651,"is_reserved":false,"is_disabled":false,"rental_uris":{"android":"levelo://app?vid=ca9332e9-cbef-43ed-9c45-0222a0848c83","ios":"levelo://app?vid=ca9332e9-cbef-43ed-9c45-0222a0848c83"},"vehicle_type_id":"4","last_reported":1701850179,"current_range_meters":29600,"station_id":"ce4bhh12rcd13ifvqff0","pricing_plan_id":"free"},{"bike_id":"e0f2affa-09b0-4bf8-96bb-ed8a1d4d1221","system_id":"levelo_inurba_marseille","lat":43.25496,"lon":5.37651,"is_reserved":false,"is_disabled":false,"rental_uris":{"android":"levelo://app?vid=e0f2affa-09b0-4bf8-96bb-ed8a1d4d1221","ios":"levelo://app?vid=e0f2affa-09b0-4bf8-96bb-ed8a1d4d1221"},"vehicle_type_id":"4","last_reported":1701850179,"current_range_meters":26000,"station_id":"ce4bhh12rcd13ifvqff0","pricing_plan_id":"free"},{"bike_id":"581ff977-8b96-48ef-a65c-f0e2f8aca371","system_id":"levelo_inurba_marseille","lat":43.258658,"lon":5.398935,"is_reserved":false,"is_disabled":false,"rental_uris":{"android":"levelo://app?vid=581ff977-8b96-48ef-a65c-f0e2f8aca371","ios":"levelo://app?vid=581ff977-8b96-48ef-a65c-f0e2f8aca371"},"vehicle_type_id":"4","last_reported":1701850179,"current_range_meters":13200,"station_id":"ce4bhl92rcd13ifvqghg","pricing_plan_id":"free"},{"bike_id":"50d78045-fcc5-47a3-89c4-74dbb7805bbd","system_id":"levelo_inurba_marseille","lat":43.25939,"lon":5.4091,"is_reserved":false,"is_disabled":false,"rental_uris":{"android":"levelo://app?vid=50d78045-fcc5-47a3-89c4-74dbb7805bbd","ios":"levelo://app?vid=50d78045-fcc5-47a3-89c4-74dbb7805bbd"},"vehicle_type_id":"4","last_reported":1701850179,"current_range_meters":20400,"station_id":"ce4bhm92rcd13ifvqglg","pricing_plan_id":"free"},{"bike_id":"548c7f17-0194-4147-882d-b89d8371937f","system_id":"levelo_inurba_marseille","lat":43.259013,"lon":5.409301,"is_reserved":false,"is_disabled":false,"rental_uris":{"android":"levelo://app?vid=548c7f17-0194-4147-882d-b89d8371937f","ios":"levelo://app?vid=548c7f17-0194-4147-882d-b89d8371937f"},"vehicle_type_id":"4","last_reported":1701850179,"current_range_meters":5200,"station_id":"ce4bhm92rcd13ifvqglg","pricing_plan_id":"free"},{"bike_id":"b2a211c2-601f-4a2e-82b4-5e5b1d16fc19","system_id":"levelo_inurba_marseille","lat":43.25929,"lon":5.40919,"is_reserved":false,"is_disabled":false,"rental_uris":{"android":"levelo://app?vid=b2a211c2-601f-4a2e-82b4-5e5b1d16fc19","ios":"levelo://app?vid=b2a211c2-601f-4a2e-82b4-5e5b1d16fc19"},"vehicle_type_id":"4","last_reported":1701850179,"current_range_meters":25200,"station_id":"ce4bhm92rcd13ifvqglg","pricing_plan_id":"free"},{"bike_id":"85461d52-108f-4674-9751-e4e6d032a0f3","system_id":"levelo_inurba_marseille","lat":43.2573,"lon":5.41115,"is_reserved":false,"is_disabled":false,"rental_uris":{"android":"levelo://app?vid=85461d52-108f-4674-9751-e4e6d032a0f3","ios":"levelo://app?vid=85461d52-108f-4674-9751-e4e6d032a0f3"},"vehicle_type_id":"4","last_reported":1701850179,"current_range_meters":11200,"station_id":"ce4bhkp2rcd13ifvqgd0","pricing_plan_id":"free"},{"bike_id":"5e03874a-61c5-470c-8350-111f23e224ac","system_id":"levelo_inurba_marseille","lat":43.257079,"lon":5.411051,"is_reserved":false,"is_disabled":false,"rental_uris":{"android":"levelo://app?vid=5e03874a-61c5-470c-8350-111f23e224ac","ios":"levelo://app?vid=5e03874a-61c5-470c-8350-111f23e224ac"},"vehicle_type_id":"4","last_reported":1701850179,"current_range_meters":30800,"station_id":"ce4bhkp2rcd13ifvqgd0","pricing_plan_id":"free"},{"bike_id":"98ae6ade-cde2-4cc3-9583-2ca365e53791","system_id":"levelo_inurba_marseille","lat":43.250023,"lon":5.38919,"is_reserved":false,"is_disabled":false,"rental_uris":{"android":"levelo://app?vid=98ae6ade-cde2-4cc3-9583-2ca365e53791","ios":"levelo://app?vid=98ae6ade-cde2-4cc3-9583-2ca365e53791"},"vehicle_type_id":"4","last_reported":1701850179,"current_range_meters":5600,"station_id":"ce4bhgp2rcd13ifvqfd0","pricing_plan_id":"free"},{"bike_id":"0316dc90-b13c-4c01-a365-56c58e7e52a5","system_id":"levelo_inurba_marseille","lat":43.2479,"lon":5.374457,"is_reserved":false,"is_disabled":false,"rental_uris":{"android":"levelo://app?vid=0316dc90-b13c-4c01-a365-56c58e7e52a5","ios":"levelo://app?vid=0316dc90-b13c-4c01-a365-56c58e7e52a5"},"vehicle_type_id":"4","last_reported":1701850179,"current_range_meters":26800,"station_id":"ce4bhgh2rcd13ifvqfb0","pricing_plan_id":"free"},{"bike_id":"b38329e1-0d1f-408e-96d4-ca7219fe7b00","system_id":"levelo_inurba_marseille","lat":43.245581,"lon":5.395069,"is_reserved":false,"is_disabled":false,"rental_uris":{"android":"levelo://app?vid=b38329e1-0d1f-408e-96d4-ca7219fe7b00","ios":"levelo://app?vid=b38329e1-0d1f-408e-96d4-ca7219fe7b00"},"vehicle_type_id":"4","last_reported":1701850179,"current_range_meters":20400,"station_id":"ce4bhlp2rcd13ifvqgjg","pricing_plan_id":"free"},{"bike_id":"d4e9fdaf-eb17-4d86-a8de-b16e85c04236","system_id":"levelo_inurba_marseille","lat":43.24077,"lon":5.37762,"is_reserved":false,"is_disabled":false,"rental_uris":{"android":"levelo://app?vid=d4e9fdaf-eb17-4d86-a8de-b16e85c04236","ios":"levelo://app?vid=d4e9fdaf-eb17-4d86-a8de-b16e85c04236"},"vehicle_type_id":"4","last_reported":1701850179,"current_range_meters":19200,"station_id":"ce4bhnp2rcd13ifvqgvg","pricing_plan_id":"free"},{"bike_id":"b3ce5390-f9cb-4b00-96b4-4e84bab13b3e","system_id":"levelo_inurba_marseille","lat":43.240623,"lon":5.377642,"is_reserved":false,"is_disabled":false,"rental_uris":{"android":"levelo://app?vid=b3ce5390-f9cb-4b00-96b4-4e84bab13b3e","ios":"levelo://app?vid=b3ce5390-f9cb-4b00-96b4-4e84bab13b3e"},"vehicle_type_id":"4","last_reported":1701850179,"current_range_meters":25200,"station_id":"ce4bhnp2rcd13ifvqgvg","pricing_plan_id":"free"},{"bike_id":"5d80738c-ba9d-43e1-ad03-808dbd3b16a9","system_id":"levelo_inurba_marseille","lat":43.240623,"lon":5.377642,"is_reserved":false,"is_disabled":false,"rental_uris":{"android":"levelo://app?vid=5d80738c-ba9d-43e1-ad03-808dbd3b16a9","ios":"levelo://app?vid=5d80738c-ba9d-43e1-ad03-808dbd3b16a9"},"vehicle_type_id":"4","last_reported":1701850179,"current_range_meters":15200,"station_id":"ce4bhnp2rcd13ifvqgvg","pricing_plan_id":"free"},{"bike_id":"55c4f7f2-9a95-42eb-a55b-87d34b930930","system_id":"levelo_inurba_marseille","lat":43.240623,"lon":5.377642,"is_reserved":false,"is_disabled":false,"rental_uris":{"android":"levelo://app?vid=55c4f7f2-9a95-42eb-a55b-87d34b930930","ios":"levelo://app?vid=55c4f7f2-9a95-42eb-a55b-87d34b930930"},"vehicle_type_id":"4","last_reported":1701850179,"current_range_meters":18800,"station_id":"ce4bhnp2rcd13ifvqgvg","pricing_plan_id":"free"},{"bike_id":"f2b91f46-6dd1-4f8e-b011-fa0d86fddb82","system_id":"levelo_inurba_marseille","lat":43.240623,"lon":5.377642,"is_reserved":false,"is_disabled":false,"rental_uris":{"android":"levelo://app?vid=f2b91f46-6dd1-4f8e-b011-fa0d86fddb82","ios":"levelo://app?vid=f2b91f46-6dd1-4f8e-b011-fa0d86fddb82"},"vehicle_type_id":"4","last_reported":1701850179,"current_range_meters":13600,"station_id":"ce4bhnp2rcd13ifvqgvg","pricing_plan_id":"free"},{"bike_id":"06c341e8-f875-490b-baeb-17717328f7c7","system_id":"levelo_inurba_marseille","lat":43.240623,"lon":5.377642,"is_reserved":false,"is_disabled":false,"rental_uris":{"android":"levelo://app?vid=06c341e8-f875-490b-baeb-17717328f7c7","ios":"levelo://app?vid=06c341e8-f875-490b-baeb-17717328f7c7"},"vehicle_type_id":"4","last_reported":1701850179,"current_range_meters":23600,"station_id":"ce4bhnp2rcd13ifvqgvg","pricing_plan_id":"free"},{"bike_id":"8306754c-9b29-4149-8ee6-9f3fdb1e2404","system_id":"levelo_inurba_marseille","lat":43.24071,"lon":5.3776,"is_reserved":false,"is_disabled":false,"rental_uris":{"android":"levelo://app?vid=8306754c-9b29-4149-8ee6-9f3fdb1e2404","ios":"levelo://app?vid=8306754c-9b29-4149-8ee6-9f3fdb1e2404"},"vehicle_type_id":"4","last_reported":1701850179,"current_range_meters":12000,"station_id":"ce4bhnp2rcd13ifvqgvg","pricing_plan_id":"free"},{"bike_id":"0f9b083f-7bb6-4276-8de6-7999f602b4c1","system_id":"levelo_inurba_marseille","lat":43.240623,"lon":5.377642,"is_reserved":false,"is_disabled":false,"rental_uris":{"android":"levelo://app?vid=0f9b083f-7bb6-4276-8de6-7999f602b4c1","ios":"levelo://app?vid=0f9b083f-7bb6-4276-8de6-7999f602b4c1"},"vehicle_type_id":"4","last_reported":1701850179,"current_range_meters":25200,"station_id":"ce4bhnp2rcd13ifvqgvg","pricing_plan_id":"free"},{"bike_id":"74bc4804-1965-4d25-8199-cd34a282c6b4","system_id":"levelo_inurba_marseille","lat":43.240623,"lon":5.377642,"is_reserved":false,"is_disabled":false,"rental_uris":{"android":"levelo://app?vid=74bc4804-1965-4d25-8199-cd34a282c6b4","ios":"levelo://app?vid=74bc4804-1965-4d25-8199-cd34a282c6b4"},"vehicle_type_id":"4","last_reported":1701850179,"current_range_meters":20800,"station_id":"ce4bhnp2rcd13ifvqgvg","pricing_plan_id":"free"},{"bike_id":"0931915a-97e2-46cc-97be-1970d3747868","system_id":"levelo_inurba_marseille","lat":43.240623,"lon":5.377642,"is_reserved":false,"is_disabled":false,"rental_uris":{"android":"levelo://app?vid=0931915a-97e2-46cc-97be-1970d3747868","ios":"levelo://app?vid=0931915a-97e2-46cc-97be-1970d3747868"},"vehicle_type_id":"4","last_reported":1701850179,"current_range_meters":23600,"station_id":"ce4bhnp2rcd13ifvqgvg","pricing_plan_id":"free"},{"bike_id":"997fd2e8-a739-42e8-907b-cbaffd16bd36","system_id":"levelo_inurba_marseille","lat":43.240623,"lon":5.377642,"is_reserved":false,"is_disabled":false,"rental_uris":{"android":"levelo://app?vid=997fd2e8-a739-42e8-907b-cbaffd16bd36","ios":"levelo://app?vid=997fd2e8-a739-42e8-907b-cbaffd16bd36"},"vehicle_type_id":"4","last_reported":1701850179,"current_range_meters":31200,"station_id":"ce4bhnp2rcd13ifvqgvg","pricing_plan_id":"free"},{"bike_id":"4739a368-3333-42f2-af96-f3d310d3b65f","system_id":"levelo_inurba_marseille","lat":43.240623,"lon":5.377642,"is_reserved":false,"is_disabled":false,"rental_uris":{"android":"levelo://app?vid=4739a368-3333-42f2-af96-f3d310d3b65f","ios":"levelo://app?vid=4739a368-3333-42f2-af96-f3d310d3b65f"},"vehicle_type_id":"4","last_reported":1701850179,"current_range_meters":20800,"station_id":"ce4bhnp2rcd13ifvqgvg","pricing_plan_id":"free"},{"bike_id":"b7889d62-43b9-4540-91fc-9f1fa3cd91a3","system_id":"levelo_inurba_marseille","lat":43.240623,"lon":5.377642,"is_reserved":false,"is_disabled":false,"rental_uris":{"android":"levelo://app?vid=b7889d62-43b9-4540-91fc-9f1fa3cd91a3","ios":"levelo://app?vid=b7889d62-43b9-4540-91fc-9f1fa3cd91a3"},"vehicle_type_id":"4","last_reported":1701850179,"current_range_meters":22800,"station_id":"ce4bhnp2rcd13ifvqgvg","pricing_plan_id":"free"},{"bike_id":"42f8059c-0c8c-4b88-b8c4-4995fc37151e","system_id":"levelo_inurba_marseille","lat":43.240623,"lon":5.377642,"is_reserved":false,"is_disabled":false,"rental_uris":{"android":"levelo://app?vid=42f8059c-0c8c-4b88-b8c4-4995fc37151e","ios":"levelo://app?vid=42f8059c-0c8c-4b88-b8c4-4995fc37151e"},"vehicle_type_id":"4","last_reported":1701850179,"current_range_meters":20400,"station_id":"ce4bhnp2rcd13ifvqgvg","pricing_plan_id":"free"},{"bike_id":"04b00323-44dc-4556-add8-5a131157a4f0","system_id":"levelo_inurba_marseille","lat":43.244019,"lon":5.401764,"is_reserved":false,"is_disabled":false,"rental_uris":{"android":"levelo://app?vid=04b00323-44dc-4556-add8-5a131157a4f0","ios":"levelo://app?vid=04b00323-44dc-4556-add8-5a131157a4f0"},"vehicle_type_id":"4","last_reported":1701850179,"current_range_meters":0,"station_id":"","pricing_plan_id":"free"},{"bike_id":"cf3102c4-88e0-4a41-86b7-69a76932d3e6","system_id":"levelo_inurba_marseille","lat":43.231923,"lon":5.355545,"is_reserved":false,"is_disabled":false,"rental_uris":{"android":"levelo://app?vid=cf3102c4-88e0-4a41-86b7-69a76932d3e6","ios":"levelo://app?vid=cf3102c4-88e0-4a41-86b7-69a76932d3e6"},"vehicle_type_id":"4","last_reported":1701850179,"current_range_meters":31200,"station_id":"ce4bhu92rcd13ifvqi70","pricing_plan_id":"free"},{"bike_id":"488fea8d-5d5d-4e63-bb22-0d336c47de9f","system_id":"levelo_inurba_marseille","lat":43.231923,"lon":5.355545,"is_reserved":false,"is_disabled":false,"rental_uris":{"android":"levelo://app?vid=488fea8d-5d5d-4e63-bb22-0d336c47de9f","ios":"levelo://app?vid=488fea8d-5d5d-4e63-bb22-0d336c47de9f"},"vehicle_type_id":"4","last_reported":1701850179,"current_range_meters":30800,"station_id":"ce4bhu92rcd13ifvqi70","pricing_plan_id":"free"},{"bike_id":"6c736aaf-3d47-4fdd-bdfa-8a0c66d47e7c","system_id":"levelo_inurba_marseille","lat":43.231919,"lon":5.355532,"is_reserved":false,"is_disabled":false,"rental_uris":{"android":"levelo://app?vid=6c736aaf-3d47-4fdd-bdfa-8a0c66d47e7c","ios":"levelo://app?vid=6c736aaf-3d47-4fdd-bdfa-8a0c66d47e7c"},"vehicle_type_id":"4","last_reported":1701850179,"current_range_meters":9200,"station_id":"ce4bhu92rcd13ifvqi70","pricing_plan_id":"free"},{"bike_id":"31764ff6-d6c0-4767-bea3-3fa0c41ee1a1","system_id":"levelo_inurba_marseille","lat":43.231919,"lon":5.355532,"is_reserved":false,"is_disabled":false,"rental_uris":{"android":"levelo://app?vid=31764ff6-d6c0-4767-bea3-3fa0c41ee1a1","ios":"levelo://app?vid=31764ff6-d6c0-4767-bea3-3fa0c41ee1a1"},"vehicle_type_id":"4","last_reported":1701850179,"current_range_meters":22800,"station_id":"ce4bhu92rcd13ifvqi70","pricing_plan_id":"free"},{"bike_id":"d868c0b5-242c-4b9f-b108-cbde91aaec79","system_id":"levelo_inurba_marseille","lat":43.23192,"lon":5.35547,"is_reserved":false,"is_disabled":false,"rental_uris":{"android":"levelo://app?vid=d868c0b5-242c-4b9f-b108-cbde91aaec79","ios":"levelo://app?vid=d868c0b5-242c-4b9f-b108-cbde91aaec79"},"vehicle_type_id":"4","last_reported":1701850179,"current_range_meters":21600,"station_id":"ce4bhu92rcd13ifvqi70","pricing_plan_id":"free"},{"bike_id":"e2fb0602-0025-4bc2-a80e-ca4c6079bddc","system_id":"levelo_inurba_marseille","lat":43.2319,"lon":5.35544,"is_reserved":false,"is_disabled":false,"rental_uris":{"android":"levelo://app?vid=e2fb0602-0025-4bc2-a80e-ca4c6079bddc","ios":"levelo://app?vid=e2fb0602-0025-4bc2-a80e-ca4c6079bddc"},"vehicle_type_id":"4","last_reported":1701850179,"current_range_meters":26400,"station_id":"ce4bhu92rcd13ifvqi70","pricing_plan_id":"free"},{"bike_id":"c39d5760-ad13-44c1-8d63-f3f67c5aa639","system_id":"levelo_inurba_marseille","lat":43.231562,"lon":5.436933,"is_reserved":false,"is_disabled":false,"rental_uris":{"android":"levelo://app?vid=c39d5760-ad13-44c1-8d63-f3f67c5aa639","ios":"levelo://app?vid=c39d5760-ad13-44c1-8d63-f3f67c5aa639"},"vehicle_type_id":"4","last_reported":1701850179,"current_range_meters":24800,"station_id":"ce4bhmp2rcd13ifvqgog","pricing_plan_id":"free"},{"bike_id":"a4e897ab-35a6-4755-8081-21a5f57f03b0","system_id":"levelo_inurba_marseille","lat":43.231562,"lon":5.436933,"is_reserved":false,"is_disabled":false,"rental_uris":{"android":"levelo://app?vid=a4e897ab-35a6-4755-8081-21a5f57f03b0","ios":"levelo://app?vid=a4e897ab-35a6-4755-8081-21a5f57f03b0"},"vehicle_type_id":"4","last_reported":1701850179,"current_range_meters":8000,"station_id":"ce4bhmp2rcd13ifvqgog","pricing_plan_id":"free"},{"bike_id":"085c2a3e-ea2f-435a-bdf8-b726cd0072cb","system_id":"levelo_inurba_marseille","lat":43.231562,"lon":5.436933,"is_reserved":false,"is_disabled":false,"rental_uris":{"android":"levelo://app?vid=085c2a3e-ea2f-435a-bdf8-b726cd0072cb","ios":"levelo://app?vid=085c2a3e-ea2f-435a-bdf8-b726cd0072cb"},"vehicle_type_id":"4","last_reported":1701850179,"current_range_meters":18800,"station_id":"ce4bhmp2rcd13ifvqgog","pricing_plan_id":"free"},{"bike_id":"38245e9a-47dc-4456-9bf1-c0e93f657d16","system_id":"levelo_inurba_marseille","lat":43.231562,"lon":5.436933,"is_reserved":false,"is_disabled":false,"rental_uris":{"android":"levelo://app?vid=38245e9a-47dc-4456-9bf1-c0e93f657d16","ios":"levelo://app?vid=38245e9a-47dc-4456-9bf1-c0e93f657d16"},"vehicle_type_id":"4","last_reported":1701850179,"current_range_meters":29200,"station_id":"ce4bhmp2rcd13ifvqgog","pricing_plan_id":"free"},{"bike_id":"3df0d0fd-f28c-4e89-a057-d30bf91bcde5","system_id":"levelo_inurba_marseille","lat":43.231562,"lon":5.436933,"is_reserved":false,"is_disabled":false,"rental_uris":{"android":"levelo://app?vid=3df0d0fd-f28c-4e89-a057-d30bf91bcde5","ios":"levelo://app?vid=3df0d0fd-f28c-4e89-a057-d30bf91bcde5"},"vehicle_type_id":"4","last_reported":1701850179,"current_range_meters":2000,"station_id":"ce4bhmp2rcd13ifvqgog","pricing_plan_id":"free"},{"bike_id":"b59e5cf7-1b98-4d79-a891-34f1e715ede2","system_id":"levelo_inurba_marseille","lat":43.231562,"lon":5.436933,"is_reserved":false,"is_disabled":false,"rental_uris":{"android":"levelo://app?vid=b59e5cf7-1b98-4d79-a891-34f1e715ede2","ios":"levelo://app?vid=b59e5cf7-1b98-4d79-a891-34f1e715ede2"},"vehicle_type_id":"4","last_reported":1701850179,"current_range_meters":15200,"station_id":"ce4bhmp2rcd13ifvqgog","pricing_plan_id":"free"},{"bike_id":"87db913b-09e5-4a1a-94bb-e62a8837ca3d","system_id":"levelo_inurba_marseille","lat":43.231562,"lon":5.436933,"is_reserved":false,"is_disabled":false,"rental_uris":{"android":"levelo://app?vid=87db913b-09e5-4a1a-94bb-e62a8837ca3d","ios":"levelo://app?vid=87db913b-09e5-4a1a-94bb-e62a8837ca3d"},"vehicle_type_id":"4","last_reported":1701850179,"current_range_meters":1200,"station_id":"ce4bhmp2rcd13ifvqgog","pricing_plan_id":"free"},{"bike_id":"58108381-81d0-4a6b-8c31-91ea22ee9cd6","system_id":"levelo_inurba_marseille","lat":43.231562,"lon":5.436933,"is_reserved":false,"is_disabled":false,"rental_uris":{"android":"levelo://app?vid=58108381-81d0-4a6b-8c31-91ea22ee9cd6","ios":"levelo://app?vid=58108381-81d0-4a6b-8c31-91ea22ee9cd6"},"vehicle_type_id":"4","last_reported":1701850179,"current_range_meters":26400,"station_id":"ce4bhmp2rcd13ifvqgog","pricing_plan_id":"free"}]}}