{"last_updated":1728310119,"ttl":60,"version":"2.2","data":{"bikes":[{"bike_id":"d159ab3d-d31e-4b64-8f63-2316df3b29da","system_id":"levelo_inurba_marseille","lat":43.302887,"lon":5.400567,"is_reserved":false,"is_disabled":false,"rental_uris":{"android":"levelo://app?vid=d159ab3d-d31e-4b64-8f63-2316df3b29da","ios":"levelo://app?vid=d159ab3d-d31e-4b64-8f63-2316df3b29da"},"vehicle_type_id":"4","last_reported":1728310119,"current_range_meters":7200,"station_id":"ce4bgvh2rcd13ifvqcs0","pricing_plan_id":"cebpf4jnsgd1na2vs0mg"},{"bike_id":"5cc8d285-4fd4-4862-98ec-a3ae40dbae5b","system_id":"levelo_inurba_marseille","lat":43.309259,"lon":5.401463,"is_reserved":false,"is_disabled":false,"rental_uris":{"android":"levelo://app?vid=5cc8d285-4fd4-4862-98ec-a3ae40dbae5b","ios":"levelo://app?vid=5cc8d285-4fd4-4862-98ec-a3ae40dbae5b"},"vehicle_type_id":"4","last_reported":1728310119,"current_range_meters":25600,"station_id":"ce4bgvp2rcd13ifvqct0","pricing_plan_id":"cebpf4jnsgd1na2vs0mg"},{"bike_id":"4a54c7ac-8cbf-487c-a629-2fa393032eb4","system_id":"levelo_inurba_marseille","lat":43.27177,"lon":5.40995,"is_reserved":false,"is_disabled":false,"rental_uris":{"android":"levelo://app?vid=4a54c7ac-8cbf-487c-a629-2fa393032eb4","ios":"levelo://app?vid=4a54c7ac-8cbf-487c-a629-2fa393032eb4"},"vehicle_type_id":"4","last_reported":1728310119,"current_range_meters":20000,"station_id":"ce4bhl12rcd13ifvqgf0","pricing_plan_id":"cebpf4jnsgd1na2vs0mg"},{"bike_id":"5d7d21fd-8801-4341-87fb-c738f32e90a0","system_id":"levelo_inurba_marseille","lat":43.32539,"lon":5.41432,"is_reserved":false,"is_disabled":false,"rental_uris":{"android":"levelo://app?vid=5d7d21fd-8801-4341-87fb-c738f32e90a0","ios":"levelo://app?vid=5d7d21fd-8801-4341-87fb-c738f32e90a0"},"vehicle_type_id":"4","last_reported":1728310119,"current_range_meters":32400,"station_id":"ce4bhq12rcd13ifvqhhg","pricing_plan_id":"cebpf4jnsgd1na2vs0mg"},{"bike_id":"8a874caf-3db6-4bc3-b3d8-4f7a2a032123","system_id":"levelo_inurba_marseille","lat":43.229336,"lon":5.353751,"is_reserved":false,"is_disabled":false,"rental_uris":{"android":"levelo://app?vid=8a874caf-3db6-4bc3-b3d8-4f7a2a032123","ios":"levelo://app?vid=8a874caf-3db6-4bc3-b3d8-4f7a2a032123"},"vehicle_type_id":"4","last_reported":1728310119,"current_range_meters":25200,"station_id":"cpo3532slgdg3j2ikp40","pricing_plan_id":"cebpf4jnsgd1na2vs0mg"},{"bike_id":"b4d4e858-8ce1-41d2-9462-5261a5e1fc54","system_id":"levelo_inurba_marseille","lat":43.28953,"lon":5.36638,"is_reserved":false,"is_disabled":false,"rental_uris":{"android":"levelo://app?vid=b4d4e858-8ce1-41d2-9462-5261a5e1fc54","ios":"levelo://app?vid=b4d4e858-8ce1-41d2-9462-5261a5e1fc54"},"vehicle_type_id":"4","last_reported":1728310119,"current_range_meters":36000,"station_id":"ce4bhap2rcd13ifvqek0","pricing_plan_id":"cebpf4jnsgd1na2vs0mg"},{"bike_id":"3edccbad-c604-40df-acb2-6e9d91b67298","system_id":"levelo_inurba_marseille","lat":43.23058,"lon":5.35492,"is_reserved":false,"is_disabled":false,"rental_uris":{"android":"levelo://app?vid=3edccbad-c604-40df-acb2-6e9d91b67298","ios":"levelo://app?vid=3edccbad-c604-40df-acb2-6e9d91b67298"},"vehicle_type_id":"4","last_reported":1728310119,"current_range_meters":20400,"station_id":"cpo3342slgdg3j2ifvpg","pricing_plan_id":"cebpf4jnsgd1na2vs0mg"},{"bike_id":"8b83894c-65d9-4d8f-8a1c-2ce1f1348f96","system_id":"levelo_inurba_marseille","lat":43.29598,"lon":5.38103,"is_reserved":false,"is_disabled":false,"rental_uris":{"android":"levelo://app?vid=8b83894c-65d9-4d8f-8a1c-2ce1f1348f96","ios":"levelo://app?vid=8b83894c-65d9-4d8f-8a1c-2ce1f1348f96"},"vehicle_type_id":"4","last_reported":1728310119,"current_range_meters":20400,"station_id":"ce4bgl12rcd13ifvqbo0","pricing_plan_id":"cebpf4jnsgd1na2vs0mg"},{"bike_id":"96f6f576-3d6e-4214-a74a-892b32c0de60","system_id":"levelo_inurba_marseille","lat":43.29005,"lon":5.35614,"is_reserved":false,"is_disabled":false,"rental_uris":{"android":"levelo://app?vid=96f6f576-3d6e-4214-a74a-892b32c0de60","ios":"levelo://app?vid=96f6f576-3d6e-4214-a74a-892b32c0de60"},"vehicle_type_id":"4","last_reported":1728310119,"current_range_meters":2800,"station_id":"ce4bhb92rcd13ifvqen0","pricing_plan_id":"cebpf4jnsgd1na2vs0mg"},{"bike_id":"d18187fd-e6fe-4fce-ba73-287aef21ff02","system_id":"levelo_inurba_marseille","lat":43.33018,"lon":5.39035,"is_reserved":false,"is_disabled":false,"rental_uris":{"android":"levelo://app?vid=d18187fd-e6fe-4fce-ba73-287aef21ff02","ios":"levelo://app?vid=d18187fd-e6fe-4fce-ba73-287aef21ff02"},"vehicle_type_id":"4","last_reported":1728310119,"current_range_meters":6800,"station_id":"ce4bhr92rcd13ifvqhrg","pricing_plan_id":"cebpf4jnsgd1na2vs0mg"},{"bike_id":"36046fb3-2ac2-4b39-8b54-9fabbd6a6524","system_id":"levelo_inurba_marseille","lat":43.3112,"lon":5.37764,"is_reserved":false,"is_disabled":false,"rental_uris":{"android":"levelo://app?vid=36046fb3-2ac2-4b39-8b54-9fabbd6a6524","ios":"levelo://app?vid=36046fb3-2ac2-4b39-8b54-9fabbd6a6524"},"vehicle_type_id":"4","last_reported":1728310119,"current_range_meters":38800,"station_id":"ce4bgt92rcd13ifvqcg0","pricing_plan_id":"cebpf4jnsgd1na2vs0mg"},{"bike_id":"182c9312-1c0f-460c-8f28-44e0e2bc6c77","system_id":"levelo_inurba_marseille","lat":43.26059,"lon":5.39398,"is_reserved":false,"is_disabled":false,"rental_uris":{"android":"levelo://app?vid=182c9312-1c0f-460c-8f28-44e0e2bc6c77","ios":"levelo://app?vid=182c9312-1c0f-460c-8f28-44e0e2bc6c77"},"vehicle_type_id":"4","last_reported":1728310119,"current_range_meters":30400,"station_id":"ce4bhh92rcd13ifvqfj0","pricing_plan_id":"cebpf4jnsgd1na2vs0mg"},{"bike_id":"5ee7c659-a96f-40cd-a29d-b0d94909ec23","system_id":"levelo_inurba_marseille","lat":43.28617,"lon":5.35108,"is_reserved":false,"is_disabled":false,"rental_uris":{"android":"levelo://app?vid=5ee7c659-a96f-40cd-a29d-b0d94909ec23","ios":"levelo://app?vid=5ee7c659-a96f-40cd-a29d-b0d94909ec23"},"vehicle_type_id":"4","last_reported":1728310119,"current_range_meters":28400,"station_id":"ce4bhch2rcd13ifvqeug","pricing_plan_id":"cebpf4jnsgd1na2vs0mg"},{"bike_id":"6f7b3a87-41ce-483d-a7ea-51a3979ba39a","system_id":"levelo_inurba_marseille","lat":43.29775,"lon":5.37089,"is_reserved":false,"is_disabled":false,"rental_uris":{"android":"levelo://app?vid=6f7b3a87-41ce-483d-a7ea-51a3979ba39a","ios":"levelo://app?vid=6f7b3a87-41ce-483d-a7ea-51a3979ba39a"},"vehicle_type_id":"4","last_reported":1728310119,"current_range_meters":37600,"station_id":"ce4bgop2rcd13ifvqc1g","pricing_plan_id":"cebpf4jnsgd1na2vs0mg"},{"bike_id":"81b07a05-4c57-4e76-99d6-5f6e3acbb201","system_id":"levelo_inurba_marseille","lat":43.23059,"lon":5.35491,"is_reserved":false,"is_disabled":false,"rental_uris":{"android":"levelo://app?vid=81b07a05-4c57-4e76-99d6-5f6e3acbb201","ios":"levelo://app?vid=81b07a05-4c57-4e76-99d6-5f6e3acbb201"},"vehicle_type_id":"4","last_reported":1728310119,"current_range_meters":12000,"station_id":"cpo3342slgdg3j2ifvpg","pricing_plan_id":"cebpf4jnsgd1na2vs0mg"},{"bike_id":"e60bbbd0-387d-4477-9954-d38aa9bd46bf","system_id":"levelo_inurba_marseille","lat":43.2668,"lon":5.38271,"is_reserved":false,"is_disabled":false,"rental_uris":{"android":"levelo://app?vid=e60bbbd0-387d-4477-9954-d38aa9bd46bf","ios":"levelo://app?vid=e60bbbd0-387d-4477-9954-d38aa9bd46bf"},"vehicle_type_id":"4","last_reported":1728310119,"current_range_meters":31200,"station_id":"ce4bhg92rcd13ifvqf90","pricing_plan_id":"cebpf4jnsgd1na2vs0mg"},{"bike_id":"2de177f7-8604-4a9a-a458-12822dd27798","system_id":"levelo_inurba_marseille","lat":43.2836,"lon":5.350233,"is_reserved":false,"is_disabled":false,"rental_uris":{"android":"levelo://app?vid=2de177f7-8604-4a9a-a458-12822dd27798","ios":"levelo://app?vid=2de177f7-8604-4a9a-a458-12822dd27798"},"vehicle_type_id":"4","last_reported":1728310119,"current_range_meters":26800,"station_id":"ce4bhbh2rcd13ifvqepg","pricing_plan_id":"cebpf4jnsgd1na2vs0mg"},{"bike_id":"23c5a382-240b-479e-9cea-e5f248736ea2","system_id":"levelo_inurba_marseille","lat":43.26675,"lon":5.38264,"is_reserved":false,"is_disabled":false,"rental_uris":{"android":"levelo://app?vid=23c5a382-240b-479e-9cea-e5f248736ea2","ios":"levelo://app?vid=23c5a382-240b-479e-9cea-e5f248736ea2"},"vehicle_type_id":"4","last_reported":1728310119,"current_range_meters":11200,"station_id":"ce4bhg92rcd13ifvqf90","pricing_plan_id":"cebpf4jnsgd1na2vs0mg"},{"bike_id":"7b5acb30-7728-4d2f-b8de-cc88114cf385","system_id":"levelo_inurba_marseille","lat":43.23149,"lon":5.43728,"is_reserved":false,"is_disabled":false,"rental_uris":{"android":"levelo://app?vid=7b5acb30-7728-4d2f-b8de-cc88114cf385","ios":"levelo://app?vid=7b5acb30-7728-4d2f-b8de-cc88114cf385"},"vehicle_type_id":"4","last_reported":1728310119,"current_range_meters":39200,"station_id":"ce4bhmp2rcd13ifvqgog","pricing_plan_id":"cebpf4jnsgd1na2vs0mg"},{"bike_id":"55e0fec4-89c4-403b-a5f1-f9effe3110c1","system_id":"levelo_inurba_marseille","lat":43.29932,"lon":5.36542,"is_reserved":false,"is_disabled":false,"rental_uris":{"android":"levelo://app?vid=55e0fec4-89c4-403b-a5f1-f9effe3110c1","ios":"levelo://app?vid=55e0fec4-89c4-403b-a5f1-f9effe3110c1"},"vehicle_type_id":"4","last_reported":1728310119,"current_range_meters":24800,"station_id":"ce4bgm92rcd13ifvqbr0","pricing_plan_id":"cebpf4jnsgd1na2vs0mg"},{"bike_id":"b0e13951-974c-44e5-b17f-75c491d79231","system_id":"levelo_inurba_marseille","lat":43.3091,"lon":5.3685,"is_reserved":false,"is_disabled":false,"rental_uris":{"android":"levelo://app?vid=b0e13951-974c-44e5-b17f-75c491d79231","ios":"levelo://app?vid=b0e13951-974c-44e5-b17f-75c491d79231"},"vehicle_type_id":"4","last_reported":1728310119,"current_range_meters":38800,"station_id":"ce4bgn92rcd13ifvqbvg","pricing_plan_id":"cebpf4jnsgd1na2vs0mg"},{"bike_id":"48a43036-d79d-45c7-808a-09eeaeb71c88","system_id":"levelo_inurba_marseille","lat":43.30911,"lon":5.36864,"is_reserved":false,"is_disabled":false,"rental_uris":{"android":"levelo://app?vid=48a43036-d79d-45c7-808a-09eeaeb71c88","ios":"levelo://app?vid=48a43036-d79d-45c7-808a-09eeaeb71c88"},"vehicle_type_id":"4","last_reported":1728310119,"current_range_meters":38800,"station_id":"ce4bgn92rcd13ifvqbvg","pricing_plan_id":"cebpf4jnsgd1na2vs0mg"},{"bike_id":"075545f4-1c70-477e-afec-6aa194cb35dc","system_id":"levelo_inurba_marseille","lat":43.30096,"lon":5.39084,"is_reserved":false,"is_disabled":false,"rental_uris":{"android":"levelo://app?vid=075545f4-1c70-477e-afec-6aa194cb35dc","ios":"levelo://app?vid=075545f4-1c70-477e-afec-6aa194cb35dc"},"vehicle_type_id":"4","last_reported":1728310119,"current_range_meters":35200,"station_id":"ce4bh192rcd13ifvqdb0","pricing_plan_id":"cebpf4jnsgd1na2vs0mg"},{"bike_id":"7ee8d5da-c383-4088-a91c-f2bbe7375a06","system_id":"levelo_inurba_marseille","lat":43.27941,"lon":5.41045,"is_reserved":false,"is_disabled":false,"rental_uris":{"android":"levelo://app?vid=7ee8d5da-c383-4088-a91c-f2bbe7375a06","ios":"levelo://app?vid=7ee8d5da-c383-4088-a91c-f2bbe7375a06"},"vehicle_type_id":"4","last_reported":1728310119,"current_range_meters":25600,"station_id":"ce4bhnp2rcd13ifvqh0g","pricing_plan_id":"cebpf4jnsgd1na2vs0mg"},{"bike_id":"13166546-4d80-4b6d-88f0-f3a1c6e9d07f","system_id":"levelo_inurba_marseille","lat":43.30329,"lon":5.40439,"is_reserved":false,"is_disabled":false,"rental_uris":{"android":"levelo://app?vid=13166546-4d80-4b6d-88f0-f3a1c6e9d07f","ios":"levelo://app?vid=13166546-4d80-4b6d-88f0-f3a1c6e9d07f"},"vehicle_type_id":"4","last_reported":1728310119,"current_range_meters":30000,"station_id":"ce4bh012rcd13ifvqd10","pricing_plan_id":"cebpf4jnsgd1na2vs0mg"},{"bike_id":"3784ae08-11ac-4f54-a900-9132a89b1413","system_id":"levelo_inurba_marseille","lat":43.25501,"lon":5.37633,"is_reserved":false,"is_disabled":false,"rental_uris":{"android":"levelo://app?vid=3784ae08-11ac-4f54-a900-9132a89b1413","ios":"levelo://app?vid=3784ae08-11ac-4f54-a900-9132a89b1413"},"vehicle_type_id":"4","last_reported":1728310119,"current_range_meters":11200,"station_id":"ce4bhh12rcd13ifvqff0","pricing_plan_id":"cebpf4jnsgd1na2vs0mg"},{"bike_id":"05fdda5f-3b64-4645-bb49-84486b8380df","system_id":"levelo_inurba_marseille","lat":43.27321,"lon":5.39073,"is_reserved":false,"is_disabled":false,"rental_uris":{"android":"levelo://app?vid=05fdda5f-3b64-4645-bb49-84486b8380df","ios":"levelo://app?vid=05fdda5f-3b64-4645-bb49-84486b8380df"},"vehicle_type_id":"4","last_reported":1728310119,"current_range_meters":17600,"station_id":"ce4bhgp2rcd13ifvqfe0","pricing_plan_id":"cebpf4jnsgd1na2vs0mg"},{"bike_id":"3d6b3b10-d868-4c1f-8181-2f1f42bd1f54","system_id":"levelo_inurba_marseille","lat":43.3372,"lon":5.37472,"is_reserved":false,"is_disabled":false,"rental_uris":{"android":"levelo://app?vid=3d6b3b10-d868-4c1f-8181-2f1f42bd1f54","ios":"levelo://app?vid=3d6b3b10-d868-4c1f-8181-2f1f42bd1f54"},"vehicle_type_id":"4","last_reported":1728310119,"current_range_meters":4000,"station_id":"","pricing_plan_id":"cebpf4jnsgd1na2vs0mg"},{"bike_id":"00da2976-3493-4bc8-94d2-f051823aec2a","system_id":"levelo_inurba_marseille","lat":43.29531,"lon":5.38533,"is_reserved":false,"is_disabled":false,"rental_uris":{"android":"levelo://app?vid=00da2976-3493-4bc8-94d2-f051823aec2a","ios":"levelo://app?vid=00da2976-3493-4bc8-94d2-f051823aec2a"},"vehicle_type_id":"4","last_reported":1728310119,"current_range_meters":27600,"station_id":"ce4bgih2rcd13ifvqba0","pricing_plan_id":"cebpf4jnsgd1na2vs0mg"},{"bike_id":"35db5aab-a536-4286-87d7-90ec43783f24","system_id":"levelo_inurba_marseille","lat":43.23193,"lon":5.35557,"is_reserved":false,"is_disabled":false,"rental_uris":{"android":"levelo://app?vid=35db5aab-a536-4286-87d7-90ec43783f24","ios":"levelo://app?vid=35db5aab-a536-4286-87d7-90ec43783f24"},"vehicle_type_id":"4","last_reported":1728310119,"current_range_meters":36000,"station_id":"ce4bhu92rcd13ifvqi70","pricing_plan_id":"cebpf4jnsgd1na2vs0mg"},{"bike_id":"c221901d-b0cd-4d76-9cc1-6afb6888a5fe","system_id":"levelo_inurba_marseille","lat":43.29198,"lon":5.39318,"is_reserved":false,"is_disabled":false,"rental_uris":{"android":"levelo://app?vid=c221901d-b0cd-4d76-9cc1-6afb6888a5fe","ios":"levelo://app?vid=c221901d-b0cd-4d76-9cc1-6afb6888a5fe"},"vehicle_type_id":"4","last_reported":1728310119,"current_range_meters":8000,"station_id":"ce4bh192rcd13ifvqdd0","pricing_plan_id":"cebpf4jnsgd1na2vs0mg"},{"bike_id":"62dfd99c-f976-4937-b2d0-5b50f5ae699f","system_id":"levelo_inurba_marseille","lat":43.24175,"lon":5.364,"is_reserved":false,"is_disabled":false,"rental_uris":{"android":"levelo://app?vid=62dfd99c-f976-4937-b2d0-5b50f5ae699f","ios":"levelo://app?vid=62dfd99c-f976-4937-b2d0-5b50f5ae699f"},"vehicle_type_id":"4","last_reported":1728310119,"current_range_meters":9600,"station_id":"cpo36qri1sfpv3e86is0","pricing_plan_id":"cebpf4jnsgd1na2vs0mg"},{"bike_id":"f4de0f32-0f1c-4dd3-b4ad-e20a85dcabf5","system_id":"levelo_inurba_marseille","lat":43.306366,"lon":5.393131,"is_reserved":false,"is_disabled":false,"rental_uris":{"android":"levelo://app?vid=f4de0f32-0f1c-4dd3-b4ad-e20a85dcabf5","ios":"levelo://app?vid=f4de0f32-0f1c-4dd3-b4ad-e20a85dcabf5"},"vehicle_type_id":"4","last_reported":1728310119,"current_range_meters":37600,"station_id":"","pricing_plan_id":"cebpf4jnsgd1na2vs0mg"},{"bike_id":"ae0724eb-480e-4542-9152-368a7f6c026c","system_id":"levelo_inurba_marseille","lat":43.29533,"lon":5.37512,"is_reserved":false,"is_disabled":false,"rental_uris":{"android":"levelo://app?vid=ae0724eb-480e-4542-9152-368a7f6c026c","ios":"levelo://app?vid=ae0724eb-480e-4542-9152-368a7f6c026c"},"vehicle_type_id":"4","last_reported":1728310119,"current_range_meters":12000,"station_id":"ce4bgkp2rcd13ifvqbmg","pricing_plan_id":"cebpf4jnsgd1na2vs0mg"},{"bike_id":"7d8e2075-dfbf-45ea-a039-461732e9d7a3","system_id":"levelo_inurba_marseille","lat":43.26063,"lon":5.39395,"is_reserved":false,"is_disabled":false,"rental_uris":{"android":"levelo://app?vid=7d8e2075-dfbf-45ea-a039-461732e9d7a3","ios":"levelo://app?vid=7d8e2075-dfbf-45ea-a039-461732e9d7a3"},"vehicle_type_id":"4","last_reported":1728310119,"current_range_meters":12400,"station_id":"ce4bhh92rcd13ifvqfj0","pricing_plan_id":"cebpf4jnsgd1na2vs0mg"},{"bike_id":"e9676a39-f8ee-4e8c-9c08-4997084dfed5","system_id":"levelo_inurba_marseille","lat":43.29953,"lon":5.37155,"is_reserved":false,"is_disabled":false,"rental_uris":{"android":"levelo://app?vid=e9676a39-f8ee-4e8c-9c08-4997084dfed5","ios":"levelo://app?vid=e9676a39-f8ee-4e8c-9c08-4997084dfed5"},"vehicle_type_id":"4","last_reported":1728310119,"current_range_meters":36800,"station_id":"ce4bgn12rcd13ifvqbt0","pricing_plan_id":"cebpf4jnsgd1na2vs0mg"},{"bike_id":"3f65d051-415d-4df6-907e-0a0ebd20370d","system_id":"levelo_inurba_marseille","lat":43.28179,"lon":5.38874,"is_reserved":false,"is_disabled":false,"rental_uris":{"android":"levelo://app?vid=3f65d051-415d-4df6-907e-0a0ebd20370d","ios":"levelo://app?vid=3f65d051-415d-4df6-907e-0a0ebd20370d"},"vehicle_type_id":"4","last_reported":1728310119,"current_range_meters":26800,"station_id":"ce4bhjp2rcd13ifvqga0","pricing_plan_id":"cebpf4jnsgd1na2vs0mg"},{"bike_id":"e2ccd035-e2f6-4b13-8c3b-407f63e2c6d1","system_id":"levelo_inurba_marseille","lat":43.33027,"lon":5.39041,"is_reserved":false,"is_disabled":false,"rental_uris":{"android":"levelo://app?vid=e2ccd035-e2f6-4b13-8c3b-407f63e2c6d1","ios":"levelo://app?vid=e2ccd035-e2f6-4b13-8c3b-407f63e2c6d1"},"vehicle_type_id":"4","last_reported":1728310119,"current_range_meters":24800,"station_id":"ce4bhr92rcd13ifvqhrg","pricing_plan_id":"cebpf4jnsgd1na2vs0mg"},{"bike_id":"60e68867-e057-41f5-88f9-0e432123859e","system_id":"levelo_inurba_marseille","lat":43.312683,"lon":5.401734,"is_reserved":false,"is_disabled":false,"rental_uris":{"android":"levelo://app?vid=60e68867-e057-41f5-88f9-0e432123859e","ios":"levelo://app?vid=60e68867-e057-41f5-88f9-0e432123859e"},"vehicle_type_id":"4","last_reported":1728310119,"current_range_meters":16000,"station_id":"ce4bh0h2rcd13ifvqd60","pricing_plan_id":"cebpf4jnsgd1na2vs0mg"},{"bike_id":"e76d9b61-a3ae-48e9-b4de-763b2d6575f2","system_id":"levelo_inurba_marseille","lat":43.29789,"lon":5.38078,"is_reserved":false,"is_disabled":false,"rental_uris":{"android":"levelo://app?vid=e76d9b61-a3ae-48e9-b4de-763b2d6575f2","ios":"levelo://app?vid=e76d9b61-a3ae-48e9-b4de-763b2d6575f2"},"vehicle_type_id":"4","last_reported":1728310119,"current_range_meters":38800,"station_id":"ce4bgip2rcd13ifvqbb0","pricing_plan_id":"cebpf4jnsgd1na2vs0mg"},{"bike_id":"b1a42782-3ee6-4e5c-aa06-ed242166d1ed","system_id":"levelo_inurba_marseille","lat":43.3211,"lon":5.3677,"is_reserved":false,"is_disabled":false,"rental_uris":{"android":"levelo://app?vid=b1a42782-3ee6-4e5c-aa06-ed242166d1ed","ios":"levelo://app?vid=b1a42782-3ee6-4e5c-aa06-ed242166d1ed"},"vehicle_type_id":"4","last_reported":1728310119,"current_range_meters":32000,"station_id":"ce4bhrh2rcd13ifvqhug","pricing_plan_id":"cebpf4jnsgd1na2vs0mg"},{"bike_id":"11d714b7-1569-4f07-831f-05b1fcaf7f1e","system_id":"levelo_inurba_marseille","lat":43.30924,"lon":5.4014,"is_reserved":false,"is_disabled":false,"rental_uris":{"android":"levelo://app?vid=11d714b7-1569-4f07-831f-05b1fcaf7f1e","ios":"levelo://app?vid=11d714b7-1569-4f07-831f-05b1fcaf7f1e"},"vehicle_type_id":"4","last_reported":1728310119,"current_range_meters":39200,"station_id":"ce4bgvp2rcd13ifvqct0","pricing_plan_id":"cebpf4jnsgd1na2vs0mg"},{"bike_id":"7f45da4e-edb9-49f2-9a2f-baee2fab9167","system_id":"levelo_inurba_marseille","lat":43.2572,"lon":5.41111,"is_reserved":false,"is_disabled":false,"rental_uris":{"android":"levelo://app?vid=7f45da4e-edb9-49f2-9a2f-baee2fab9167","ios":"levelo://app?vid=7f45da4e-edb9-49f2-9a2f-baee2fab9167"},"vehicle_type_id":"4","last_reported":1728310119,"current_range_meters":24400,"station_id":"ce4bhkp2rcd13ifvqgd0","pricing_plan_id":"cebpf4jnsgd1na2vs0mg"},{"bike_id":"88bdfab9-d6f2-44c9-bdc1-33cbf1edfa6a","system_id":"levelo_inurba_marseille","lat":43.29197,"lon":5.35812,"is_reserved":false,"is_disabled":false,"rental_uris":{"android":"levelo://app?vid=88bdfab9-d6f2-44c9-bdc1-33cbf1edfa6a","ios":"levelo://app?vid=88bdfab9-d6f2-44c9-bdc1-33cbf1edfa6a"},"vehicle_type_id":"4","last_reported":1728310119,"current_range_meters":17200,"station_id":"ce4bhb12rcd13ifvqel0","pricing_plan_id":"cebpf4jnsgd1na2vs0mg"},{"bike_id":"c93b1da1-edd2-49e3-a11b-9a2f82bab027","system_id":"levelo_inurba_marseille","lat":43.27811,"lon":5.40713,"is_reserved":false,"is_disabled":false,"rental_uris":{"android":"levelo://app?vid=c93b1da1-edd2-49e3-a11b-9a2f82bab027","ios":"levelo://app?vid=c93b1da1-edd2-49e3-a11b-9a2f82bab027"},"vehicle_type_id":"4","last_reported":1728310119,"current_range_meters":27200,"station_id":"ce4bhnh2rcd13ifvqgtg","pricing_plan_id":"cebpf4jnsgd1na2vs0mg"},{"bike_id":"f5167f1a-170f-4042-be7e-2065ae51ae94","system_id":"levelo_inurba_marseille","lat":43.29575,"lon":5.37517,"is_reserved":false,"is_disabled":false,"rental_uris":{"android":"levelo://app?vid=f5167f1a-170f-4042-be7e-2065ae51ae94","ios":"levelo://app?vid=f5167f1a-170f-4042-be7e-2065ae51ae94"},"vehicle_type_id":"4","last_reported":1728310119,"current_range_meters":36400,"station_id":"ce4bgh92rcd13ifvqb50","pricing_plan_id":"cebpf4jnsgd1na2vs0mg"},{"bike_id":"836bd6f3-de69-4a2b-8759-1db8ff4cd2d4","system_id":"levelo_inurba_marseille","lat":43.29775,"lon":5.37091,"is_reserved":false,"is_disabled":false,"rental_uris":{"android":"levelo://app?vid=836bd6f3-de69-4a2b-8759-1db8ff4cd2d4","ios":"levelo://app?vid=836bd6f3-de69-4a2b-8759-1db8ff4cd2d4"},"vehicle_type_id":"4","last_reported":1728310119,"current_range_meters":28800,"station_id":"ce4bgop2rcd13ifvqc1g","pricing_plan_id":"cebpf4jnsgd1na2vs0mg"},{"bike_id":"4af55307-045f-4c66-a045-a91d88bb4c16","system_id":"levelo_inurba_marseille","lat":43.22926,"lon":5.35372,"is_reserved":false,"is_disabled":false,"rental_uris":{"android":"levelo://app?vid=4af55307-045f-4c66-a045-a91d88bb4c16","ios":"levelo://app?vid=4af55307-045f-4c66-a045-a91d88bb4c16"},"vehicle_type_id":"4","last_reported":1728310119,"current_range_meters":26800,"station_id":"cpo3532slgdg3j2ikp40","pricing_plan_id":"cebpf4jnsgd1na2vs0mg"},{"bike_id":"aa598db1-3c3a-48c0-acd0-1929a2b13407","system_id":"levelo_inurba_marseille","lat":43.31716,"lon":5.43709,"is_reserved":false,"is_disabled":false,"rental_uris":{"android":"levelo://app?vid=aa598db1-3c3a-48c0-acd0-1929a2b13407","ios":"levelo://app?vid=aa598db1-3c3a-48c0-acd0-1929a2b13407"},"vehicle_type_id":"4","last_reported":1728310119,"current_range_meters":27600,"station_id":"ce4bhp92rcd13ifvqhcg","pricing_plan_id":"cebpf4jnsgd1na2vs0mg"},{"bike_id":"47efe985-66e3-4fb1-a00d-60851f779f19","system_id":"levelo_inurba_marseille","lat":43.32538,"lon":5.41422,"is_reserved":false,"is_disabled":false,"rental_uris":{"android":"levelo://app?vid=47efe985-66e3-4fb1-a00d-60851f779f19","ios":"levelo://app?vid=47efe985-66e3-4fb1-a00d-60851f779f19"},"vehicle_type_id":"4","last_reported":1728310119,"current_range_meters":29600,"station_id":"ce4bhq12rcd13ifvqhhg","pricing_plan_id":"cebpf4jnsgd1na2vs0mg"},{"bike_id":"6482b1fb-67cb-4384-a7c9-6c0a7b56e3b4","system_id":"levelo_inurba_marseille","lat":43.28846,"lon":5.43323,"is_reserved":false,"is_disabled":false,"rental_uris":{"android":"levelo://app?vid=6482b1fb-67cb-4384-a7c9-6c0a7b56e3b4","ios":"levelo://app?vid=6482b1fb-67cb-4384-a7c9-6c0a7b56e3b4"},"vehicle_type_id":"4","last_reported":1728310119,"current_range_meters":5600,"station_id":"","pricing_plan_id":"cebpf4jnsgd1na2vs0mg"},{"bike_id":"cbc4f34b-849b-4157-b7fd-f9a2c32ae847","system_id":"levelo_inurba_marseille","lat":43.30936,"lon":5.40149,"is_reserved":false,"is_disabled":false,"rental_uris":{"android":"levelo://app?vid=cbc4f34b-849b-4157-b7fd-f9a2c32ae847","ios":"levelo://app?vid=cbc4f34b-849b-4157-b7fd-f9a2c32ae847"},"vehicle_type_id":"4","last_reported":1728310119,"current_range_meters":10800,"station_id":"ce4bgvp2rcd13ifvqct0","pricing_plan_id":"cebpf4jnsgd1na2vs0mg"},{"bike_id":"1e592842-3390-46e6-95ec-f120a36922c9","system_id":"levelo_inurba_marseille","lat":43.23151,"lon":5.43704,"is_reserved":false,"is_disabled":false,"rental_uris":{"android":"levelo://app?vid=1e592842-3390-46e6-95ec-f120a36922c9","ios":"levelo://app?vid=1e592842-3390-46e6-95ec-f120a36922c9"},"vehicle_type_id":"4","last_reported":1728310119,"current_range_meters":16800,"station_id":"ce4bhmp2rcd13ifvqgog","pricing_plan_id":"cebpf4jnsgd1na2vs0mg"},{"bike_id":"97ef281f-c717-429c-a078-d6a368902950","system_id":"levelo_inurba_marseille","lat":43.24167,"lon":5.36394,"is_reserved":false,"is_disabled":false,"rental_uris":{"android":"levelo://app?vid=97ef281f-c717-429c-a078-d6a368902950","ios":"levelo://app?vid=97ef281f-c717-429c-a078-d6a368902950"},"vehicle_type_id":"4","last_reported":1728310119,"current_range_meters":19200,"station_id":"cpo36qri1sfpv3e86is0","pricing_plan_id":"cebpf4jnsgd1na2vs0mg"},{"bike_id":"8c7a88ce-3ed4-4212-a65a-9f6d49446c03","system_id":"levelo_inurba_marseille","lat":43.3237,"lon":5.38884,"is_reserved":false,"is_disabled":false,"rental_uris":{"android":"levelo://app?vid=8c7a88ce-3ed4-4212-a65a-9f6d49446c03","ios":"levelo://app?vid=8c7a88ce-3ed4-4212-a65a-9f6d49446c03"},"vehicle_type_id":"4","last_reported":1728310119,"current_range_meters":16000,"station_id":"ce4bhqp2rcd13ifvqhog","pricing_plan_id":"cebpf4jnsgd1na2vs0mg"},{"bike_id":"c12c46a4-bd86-493d-803e-5d507cd7924b","system_id":"levelo_inurba_marseille","lat":43.23192,"lon":5.35544,"is_reserved":false,"is_disabled":false,"rental_uris":{"android":"levelo://app?vid=c12c46a4-bd86-493d-803e-5d507cd7924b","ios":"levelo://app?vid=c12c46a4-bd86-493d-803e-5d507cd7924b"},"vehicle_type_id":"4","last_reported":1728310119,"current_range_meters":30800,"station_id":"ce4bhu92rcd13ifvqi70","pricing_plan_id":"cebpf4jnsgd1na2vs0mg"},{"bike_id":"8d5796b8-a6ed-48cb-b542-23a0f07d9178","system_id":"levelo_inurba_marseille","lat":43.31114,"lon":5.3777,"is_reserved":false,"is_disabled":false,"rental_uris":{"android":"levelo://app?vid=8d5796b8-a6ed-48cb-b542-23a0f07d9178","ios":"levelo://app?vid=8d5796b8-a6ed-48cb-b542-23a0f07d9178"},"vehicle_type_id":"4","last_reported":1728310119,"current_range_meters":28400,"station_id":"ce4bgt92rcd13ifvqcg0","pricing_plan_id":"cebpf4jnsgd1na2vs0mg"},{"bike_id":"e0e6b6e8-a26e-4255-b71a-75c0752c9d62","system_id":"levelo_inurba_marseille","lat":43.24653,"lon":5.389,"is_reserved":false,"is_disabled":false,"rental_uris":{"android":"levelo://app?vid=e0e6b6e8-a26e-4255-b71a-75c0752c9d62","ios":"levelo://app?vid=e0e6b6e8-a26e-4255-b71a-75c0752c9d62"},"vehicle_type_id":"4","last_reported":1728310119,"current_range_meters":37600,"station_id":"ce4bhg12rcd13ifvqf60","pricing_plan_id":"cebpf4jnsgd1na2vs0mg"},{"bike_id":"0d8c132e-6028-490d-b78f-9ee244fd1c97","system_id":"levelo_inurba_marseille","lat":43.25501,"lon":5.37648,"is_reserved":false,"is_disabled":false,"rental_uris":{"android":"levelo://app?vid=0d8c132e-6028-490d-b78f-9ee244fd1c97","ios":"levelo://app?vid=0d8c132e-6028-490d-b78f-9ee244fd1c97"},"vehicle_type_id":"4","last_reported":1728310119,"current_range_meters":38800,"station_id":"ce4bhh12rcd13ifvqff0","pricing_plan_id":"cebpf4jnsgd1na2vs0mg"},{"bike_id":"dfefcc9f-5cf4-4c45-9ae6-d5a76d78a77b","system_id":"levelo_inurba_marseille","lat":43.31358,"lon":5.38489,"is_reserved":false,"is_disabled":false,"rental_uris":{"android":"levelo://app?vid=dfefcc9f-5cf4-4c45-9ae6-d5a76d78a77b","ios":"levelo://app?vid=dfefcc9f-5cf4-4c45-9ae6-d5a76d78a77b"},"vehicle_type_id":"4","last_reported":1728310119,"current_range_meters":5600,"station_id":"ce4bgt92rcd13ifvqcf0","pricing_plan_id":"cebpf4jnsgd1na2vs0mg"},{"bike_id":"85a8b07e-682b-4725-800e-b0749654fba5","system_id":"levelo_inurba_marseille","lat":43.24168,"lon":5.36393,"is_reserved":false,"is_disabled":false,"rental_uris":{"android":"levelo://app?vid=85a8b07e-682b-4725-800e-b0749654fba5","ios":"levelo://app?vid=85a8b07e-682b-4725-800e-b0749654fba5"},"vehicle_type_id":"4","last_reported":1728310119,"current_range_meters":24000,"station_id":"cpo36qri1sfpv3e86is0","pricing_plan_id":"cebpf4jnsgd1na2vs0mg"},{"bike_id":"742b0a39-2ee6-4a7f-970b-979e89ae43ed","system_id":"levelo_inurba_marseille","lat":43.30901,"lon":5.37431,"is_reserved":false,"is_disabled":false,"rental_uris":{"android":"levelo://app?vid=742b0a39-2ee6-4a7f-970b-979e89ae43ed","ios":"levelo://app?vid=742b0a39-2ee6-4a7f-970b-979e89ae43ed"},"vehicle_type_id":"4","last_reported":1728310119,"current_range_meters":16400,"station_id":"","pricing_plan_id":"cebpf4jnsgd1na2vs0mg"},{"bike_id":"cc953a87-4c1a-42e9-80ce-ea7adc04a24f","system_id":"levelo_inurba_marseille","lat":43.28412,"lon":5.37511,"is_reserved":false,"is_disabled":false,"rental_uris":{"android":"levelo://app?vid=cc953a87-4c1a-42e9-80ce-ea7adc04a24f","ios":"levelo://app?vid=cc953a87-4c1a-42e9-80ce-ea7adc04a24f"},"vehicle_type_id":"4","last_reported":1728310119,"current_range_meters":27600,"station_id":"ce4bh412rcd13ifvqds0","pricing_plan_id":"cebpf4jnsgd1na2vs0mg"},{"bike_id":"a96a4eb8-17a7-4208-83a3-e282fcb317a7","system_id":"levelo_inurba_marseille","lat":43.31119,"lon":5.37767,"is_reserved":false,"is_disabled":false,"rental_uris":{"android":"levelo://app?vid=a96a4eb8-17a7-4208-83a3-e282fcb317a7","ios":"levelo://app?vid=a96a4eb8-17a7-4208-83a3-e282fcb317a7"},"vehicle_type_id":"4","last_reported":1728310119,"current_range_meters":6000,"station_id":"ce4bgt92rcd13ifvqcg0","pricing_plan_id":"cebpf4jnsgd1na2vs0mg"},{"bike_id":"97d1ff1b-9cff-4616-92a2-b0e4a1a4f167","system_id":"levelo_inurba_marseille","lat":43.29981,"lon":5.38488,"is_reserved":false,"is_disabled":false,"rental_uris":{"android":"levelo://app?vid=97d1ff1b-9cff-4616-92a2-b0e4a1a4f167","ios":"levelo://app?vid=97d1ff1b-9cff-4616-92a2-b0e4a1a4f167"},"vehicle_type_id":"4","last_reported":1728310119,"current_range_meters":24000,"station_id":"ce4bgj92rcd13ifvqbd0","pricing_plan_id":"cebpf4jnsgd1na2vs0mg"},{"bike_id":"3636387c-cdb0-4e03-9a42-81bfcae805dc","system_id":"levelo_inurba_marseille","lat":43.29045,"lon":5.35907,"is_reserved":false,"is_disabled":false,"rental_uris":{"android":"levelo://app?vid=3636387c-cdb0-4e03-9a42-81bfcae805dc","ios":"levelo://app?vid=3636387c-cdb0-4e03-9a42-81bfcae805dc"},"vehicle_type_id":"4","last_reported":1728310119,"current_range_meters":29600,"station_id":"ce4bha92rcd13ifvqeg0","pricing_plan_id":"cebpf4jnsgd1na2vs0mg"},{"bike_id":"51432522-2b1f-486b-a19c-4c1e8573425f","system_id":"levelo_inurba_marseille","lat":43.31617,"lon":5.37854,"is_reserved":false,"is_disabled":false,"rental_uris":{"android":"levelo://app?vid=51432522-2b1f-486b-a19c-4c1e8573425f","ios":"levelo://app?vid=51432522-2b1f-486b-a19c-4c1e8573425f"},"vehicle_type_id":"4","last_reported":1728310119,"current_range_meters":26800,"station_id":"ce4bgth2rcd13ifvqch0","pricing_plan_id":"cebpf4jnsgd1na2vs0mg"},{"bike_id":"8d125674-77e3-45bd-a159-dda65fb39d20","system_id":"levelo_inurba_marseille","lat":43.29984,"lon":5.38484,"is_reserved":false,"is_disabled":false,"rental_uris":{"android":"levelo://app?vid=8d125674-77e3-45bd-a159-dda65fb39d20","ios":"levelo://app?vid=8d125674-77e3-45bd-a159-dda65fb39d20"},"vehicle_type_id":"4","last_reported":1728310119,"current_range_meters":38800,"station_id":"ce4bgj92rcd13ifvqbd0","pricing_plan_id":"cebpf4jnsgd1na2vs0mg"},{"bike_id":"05ddab4b-2219-453e-b9f6-9211ae63c830","system_id":"levelo_inurba_marseille","lat":43.24165,"lon":5.36396,"is_reserved":false,"is_disabled":false,"rental_uris":{"android":"levelo://app?vid=05ddab4b-2219-453e-b9f6-9211ae63c830","ios":"levelo://app?vid=05ddab4b-2219-453e-b9f6-9211ae63c830"},"vehicle_type_id":"4","last_reported":1728310119,"current_range_meters":27600,"station_id":"cpo36qri1sfpv3e86is0","pricing_plan_id":"cebpf4jnsgd1na2vs0mg"},{"bike_id":"ed0f1ea2-c470-469b-aeae-9a8b7a3c4567","system_id":"levelo_inurba_marseille","lat":43.27619,"lon":5.3611,"is_reserved":false,"is_disabled":false,"rental_uris":{"android":"levelo://app?vid=ed0f1ea2-c470-469b-aeae-9a8b7a3c4567","ios":"levelo://app?vid=ed0f1ea2-c470-469b-aeae-9a8b7a3c4567"},"vehicle_type_id":"4","last_reported":1728310119,"current_range_meters":28800,"station_id":"ce4bgj92rcd13ifvqbe0","pricing_plan_id":"cebpf4jnsgd1na2vs0mg"},{"bike_id":"4952c02e-8d82-4548-8bfe-50ef65efb825","system_id":"levelo_inurba_marseille","lat":43.27969,"lon":5.38731,"is_reserved":false,"is_disabled":false,"rental_uris":{"android":"levelo://app?vid=4952c02e-8d82-4548-8bfe-50ef65efb825","ios":"levelo://app?vid=4952c02e-8d82-4548-8bfe-50ef65efb825"},"vehicle_type_id":"4","last_reported":1728310119,"current_range_meters":3600,"station_id":"ce4bhg12rcd13ifvqf80","pricing_plan_id":"cebpf4jnsgd1na2vs0mg"},{"bike_id":"aa6a835e-7c99-4f80-9677-a9bc58c08d09","system_id":"levelo_inurba_marseille","lat":43.26195,"lon":5.37926,"is_reserved":false,"is_disabled":false,"rental_uris":{"android":"levelo://app?vid=aa6a835e-7c99-4f80-9677-a9bc58c08d09","ios":"levelo://app?vid=aa6a835e-7c99-4f80-9677-a9bc58c08d09"},"vehicle_type_id":"4","last_reported":1728310119,"current_range_meters":38800,"station_id":"ce4bhjp2rcd13ifvqg90","pricing_plan_id":"cebpf4jnsgd1na2vs0mg"},{"bike_id":"94c2943d-7899-48fa-9d2a-7595a8956fae","system_id":"levelo_inurba_marseille","lat":43.26033,"lon":5.37552,"is_reserved":false,"is_disabled":false,"rental_uris":{"android":"levelo://app?vid=94c2943d-7899-48fa-9d2a-7595a8956fae","ios":"levelo://app?vid=94c2943d-7899-48fa-9d2a-7595a8956fae"},"vehicle_type_id":"4","last_reported":1728310119,"current_range_meters":15200,"station_id":"ce4bhgh2rcd13ifvqfa0","pricing_plan_id":"cebpf4jnsgd1na2vs0mg"},{"bike_id":"cd35eee6-03f0-48eb-87d3-b95e88b2c311","system_id":"levelo_inurba_marseille","lat":43.23154,"lon":5.43706,"is_reserved":false,"is_disabled":false,"rental_uris":{"android":"levelo://app?vid=cd35eee6-03f0-48eb-87d3-b95e88b2c311","ios":"levelo://app?vid=cd35eee6-03f0-48eb-87d3-b95e88b2c311"},"vehicle_type_id":"4","last_reported":1728310119,"current_range_meters":38800,"station_id":"ce4bhmp2rcd13ifvqgog","pricing_plan_id":"cebpf4jnsgd1na2vs0mg"},{"bike_id":"d0ca1193-12e8-4ac2-9a60-4ae6e0040151","system_id":"levelo_inurba_marseille","lat":43.22935,"lon":5.35379,"is_reserved":false,"is_disabled":false,"rental_uris":{"android":"levelo://app?vid=d0ca1193-12e8-4ac2-9a60-4ae6e0040151","ios":"levelo://app?vid=d0ca1193-12e8-4ac2-9a60-4ae6e0040151"},"vehicle_type_id":"4","last_reported":1728310119,"current_range_meters":23200,"station_id":"cpo3532slgdg3j2ikp40","pricing_plan_id":"cebpf4jnsgd1na2vs0mg"},{"bike_id":"3dafb8e5-84bd-4b49-8ab3-75020a961a71","system_id":"levelo_inurba_marseille","lat":43.27987,"lon":5.41661,"is_reserved":false,"is_disabled":false,"rental_uris":{"android":"levelo://app?vid=3dafb8e5-84bd-4b49-8ab3-75020a961a71","ios":"levelo://app?vid=3dafb8e5-84bd-4b49-8ab3-75020a961a71"},"vehicle_type_id":"4","last_reported":1728310119,"current_range_meters":9200,"station_id":"ce4bho12rcd13ifvqh1g","pricing_plan_id":"cebpf4jnsgd1na2vs0mg"},{"bike_id":"15f06aa7-db1c-4474-893c-261c7244c363","system_id":"levelo_inurba_marseille","lat":43.3016,"lon":5.38087,"is_reserved":false,"is_disabled":false,"rental_uris":{"android":"levelo://app?vid=15f06aa7-db1c-4474-893c-261c7244c363","ios":"levelo://app?vid=15f06aa7-db1c-4474-893c-261c7244c363"},"vehicle_type_id":"4","last_reported":1728310119,"current_range_meters":8400,"station_id":"ce4bgjp2rcd13ifvqbh0","pricing_plan_id":"cebpf4jnsgd1na2vs0mg"},{"bike_id":"5426ecb5-4d2e-4c65-a5e5-6fa42a39b860","system_id":"levelo_inurba_marseille","lat":43.23056,"lon":5.35492,"is_reserved":false,"is_disabled":false,"rental_uris":{"android":"levelo://app?vid=5426ecb5-4d2e-4c65-a5e5-6fa42a39b860","ios":"levelo://app?vid=5426ecb5-4d2e-4c65-a5e5-6fa42a39b860"},"vehicle_type_id":"4","last_reported":1728310119,"current_range_meters":9200,"station_id":"cpo3342slgdg3j2ifvpg","pricing_plan_id":"cebpf4jnsgd1na2vs0mg"},{"bike_id":"a655dc2b-6515-45d2-82e7-220988e86f2f","system_id":"levelo_inurba_marseille","lat":43.29534,"lon":5.38556,"is_reserved":false,"is_disabled":false,"rental_uris":{"android":"levelo://app?vid=a655dc2b-6515-45d2-82e7-220988e86f2f","ios":"levelo://app?vid=a655dc2b-6515-45d2-82e7-220988e86f2f"},"vehicle_type_id":"4","last_reported":1728310119,"current_range_meters":12400,"station_id":"ce4bgih2rcd13ifvqba0","pricing_plan_id":"cebpf4jnsgd1na2vs0mg"},{"bike_id":"6ca4254e-943e-4f7a-a5c3-3ca9623542c9","system_id":"levelo_inurba_marseille","lat":43.287,"lon":5.39986,"is_reserved":false,"is_disabled":false,"rental_uris":{"android":"levelo://app?vid=6ca4254e-943e-4f7a-a5c3-3ca9623542c9","ios":"levelo://app?vid=6ca4254e-943e-4f7a-a5c3-3ca9623542c9"},"vehicle_type_id":"4","last_reported":1728310119,"current_range_meters":11200,"station_id":"ce4bho92rcd13ifvqh3g","pricing_plan_id":"cebpf4jnsgd1na2vs0mg"},{"bike_id":"5fd97b48-8eeb-44e8-bc7a-e8fa9d0cf5b6","system_id":"levelo_inurba_marseille","lat":43.307263,"lon":5.397026,"is_reserved":false,"is_disabled":false,"rental_uris":{"android":"levelo://app?vid=5fd97b48-8eeb-44e8-bc7a-e8fa9d0cf5b6","ios":"levelo://app?vid=5fd97b48-8eeb-44e8-bc7a-e8fa9d0cf5b6"},"vehicle_type_id":"4","last_reported":1728310119,"current_range_meters":9200,"station_id":"","pricing_plan_id":"cebpf4jnsgd1na2vs0mg"},{"bike_id":"383e6238-5106-499a-8e26-d16b81b00a77","system_id":"levelo_inurba_marseille","lat":43.299626,"lon":5.413329,"is_reserved":false,"is_disabled":false,"rental_uris":{"android":"levelo://app?vid=383e6238-5106-499a-8e26-d16b81b00a77","ios":"levelo://app?vid=383e6238-5106-499a-8e26-d16b81b00a77"},"vehicle_type_id":"4","last_reported":1728310119,"current_range_meters":21600,"station_id":"ce4bhp12rcd13ifvqh9g","pricing_plan_id":"cebpf4jnsgd1na2vs0mg"},{"bike_id":"e8f38f77-6572-42be-9296-0cbe6e7cb972","system_id":"levelo_inurba_marseille","lat":43.23054,"lon":5.35492,"is_reserved":false,"is_disabled":false,"rental_uris":{"android":"levelo://app?vid=e8f38f77-6572-42be-9296-0cbe6e7cb972","ios":"levelo://app?vid=e8f38f77-6572-42be-9296-0cbe6e7cb972"},"vehicle_type_id":"4","last_reported":1728310119,"current_range_meters":36400,"station_id":"cpo3342slgdg3j2ifvpg","pricing_plan_id":"cebpf4jnsgd1na2vs0mg"},{"bike_id":"f9fc3a60-9bb8-4827-b7cf-9f551b69b853","system_id":"levelo_inurba_marseille","lat":43.27566,"lon":5.3842,"is_reserved":false,"is_disabled":false,"rental_uris":{"android":"levelo://app?vid=f9fc3a60-9bb8-4827-b7cf-9f551b69b853","ios":"levelo://app?vid=f9fc3a60-9bb8-4827-b7cf-9f551b69b853"},"vehicle_type_id":"4","last_reported":1728310119,"current_range_meters":38000,"station_id":"ce4bhh92rcd13ifvqfi0","pricing_plan_id":"cebpf4jnsgd1na2vs0mg"},{"bike_id":"6383107e-a90b-48e5-ad67-a00f3da06e6b","system_id":"levelo_inurba_marseille","lat":43.28092,"lon":5.39659,"is_reserved":false,"is_disabled":false,"rental_uris":{"android":"levelo://app?vid=6383107e-a90b-48e5-ad67-a00f3da06e6b","ios":"levelo://app?vid=6383107e-a90b-48e5-ad67-a00f3da06e6b"},"vehicle_type_id":"4","last_reported":1728310119,"current_range_meters":17600,"station_id":"ce4bho12rcd13ifvqh2g","pricing_plan_id":"cebpf4jnsgd1na2vs0mg"},{"bike_id":"6d3fd9b7-e1d0-47f0-9254-1a5b016f8b83","system_id":"levelo_inurba_marseille","lat":43.28524,"lon":5.38402,"is_reserved":false,"is_disabled":false,"rental_uris":{"android":"levelo://app?vid=6d3fd9b7-e1d0-47f0-9254-1a5b016f8b83","ios":"levelo://app?vid=6d3fd9b7-e1d0-47f0-9254-1a5b016f8b83"},"vehicle_type_id":"4","last_reported":1728310119,"current_range_meters":18800,"station_id":"ce4bh392rcd13ifvqdm0","pricing_plan_id":"cebpf4jnsgd1na2vs0mg"},{"bike_id":"40ecc7ac-a60a-4cf7-9da6-0929e1e88753","system_id":"levelo_inurba_marseille","lat":43.27179,"lon":5.40998,"is_reserved":false,"is_disabled":false,"rental_uris":{"android":"levelo://app?vid=40ecc7ac-a60a-4cf7-9da6-0929e1e88753","ios":"levelo://app?vid=40ecc7ac-a60a-4cf7-9da6-0929e1e88753"},"vehicle_type_id":"4","last_reported":1728310119,"current_range_meters":3200,"station_id":"ce4bhl12rcd13ifvqgf0","pricing_plan_id":"cebpf4jnsgd1na2vs0mg"},{"bike_id":"b3576681-ace2-4183-b12d-e87c0c5a344d","system_id":"levelo_inurba_marseille","lat":43.25507,"lon":5.37649,"is_reserved":false,"is_disabled":false,"rental_uris":{"android":"levelo://app?vid=b3576681-ace2-4183-b12d-e87c0c5a344d","ios":"levelo://app?vid=b3576681-ace2-4183-b12d-e87c0c5a344d"},"vehicle_type_id":"4","last_reported":1728310119,"current_range_meters":36000,"station_id":"ce4bhh12rcd13ifvqff0","pricing_plan_id":"cebpf4jnsgd1na2vs0mg"},{"bike_id":"1dad735d-481e-47ff-8bf7-942577eed167","system_id":"levelo_inurba_marseille","lat":43.23151,"lon":5.43706,"is_reserved":false,"is_disabled":false,"rental_uris":{"android":"levelo://app?vid=1dad735d-481e-47ff-8bf7-942577eed167","ios":"levelo://app?vid=1dad735d-481e-47ff-8bf7-942577eed167"},"vehicle_type_id":"4","last_reported":1728310119,"current_range_meters":19200,"station_id":"ce4bhmp2rcd13ifvqgog","pricing_plan_id":"cebpf4jnsgd1na2vs0mg"},{"bike_id":"b102376b-d162-4f40-bc77-7d93ca52fc36","system_id":"levelo_inurba_marseille","lat":43.27061,"lon":5.40264,"is_reserved":false,"is_disabled":false,"rental_uris":{"android":"levelo://app?vid=b102376b-d162-4f40-bc77-7d93ca52fc36","ios":"levelo://app?vid=b102376b-d162-4f40-bc77-7d93ca52fc36"},"vehicle_type_id":"4","last_reported":1728310119,"current_range_meters":36800,"station_id":"ce4bhk92rcd13ifvqgc0","pricing_plan_id":"cebpf4jnsgd1na2vs0mg"},{"bike_id":"10315fd6-48d5-4b6b-b7d4-62499876786f","system_id":"levelo_inurba_marseille","lat":43.28155,"lon":5.42642,"is_reserved":false,"is_disabled":false,"rental_uris":{"android":"levelo://app?vid=10315fd6-48d5-4b6b-b7d4-62499876786f","ios":"levelo://app?vid=10315fd6-48d5-4b6b-b7d4-62499876786f"},"vehicle_type_id":"4","last_reported":1728310119,"current_range_meters":9200,"station_id":"ce4bhnh2rcd13ifvqgug","pricing_plan_id":"cebpf4jnsgd1na2vs0mg"},{"bike_id":"105b4818-40ed-42d5-a5a4-6b83519264dd","system_id":"levelo_inurba_marseille","lat":43.302734,"lon":5.40134,"is_reserved":false,"is_disabled":false,"rental_uris":{"android":"levelo://app?vid=105b4818-40ed-42d5-a5a4-6b83519264dd","ios":"levelo://app?vid=105b4818-40ed-42d5-a5a4-6b83519264dd"},"vehicle_type_id":"4","last_reported":1728310119,"current_range_meters":22800,"station_id":"ce4bgvh2rcd13ifvqcs0","pricing_plan_id":"cebpf4jnsgd1na2vs0mg"},{"bike_id":"4378a0dd-7ddd-4246-9294-1e2af02e0700","system_id":"levelo_inurba_marseille","lat":43.23192,"lon":5.35545,"is_reserved":false,"is_disabled":false,"rental_uris":{"android":"levelo://app?vid=4378a0dd-7ddd-4246-9294-1e2af02e0700","ios":"levelo://app?vid=4378a0dd-7ddd-4246-9294-1e2af02e0700"},"vehicle_type_id":"4","last_reported":1728310119,"current_range_meters":4400,"station_id":"ce4bhu92rcd13ifvqi70","pricing_plan_id":"cebpf4jnsgd1na2vs0mg"},{"bike_id":"6d0cf9f2-f671-4460-9ab5-3159a3e17d33","system_id":"levelo_inurba_marseille","lat":43.30154,"lon":5.38086,"is_reserved":false,"is_disabled":false,"rental_uris":{"android":"levelo://app?vid=6d0cf9f2-f671-4460-9ab5-3159a3e17d33","ios":"levelo://app?vid=6d0cf9f2-f671-4460-9ab5-3159a3e17d33"},"vehicle_type_id":"4","last_reported":1728310119,"current_range_meters":28800,"station_id":"ce4bgjp2rcd13ifvqbh0","pricing_plan_id":"cebpf4jnsgd1na2vs0mg"},{"bike_id":"57807387-8669-49ed-b8a0-365e3cf46b12","system_id":"levelo_inurba_marseille","lat":43.28935,"lon":5.3963,"is_reserved":false,"is_disabled":false,"rental_uris":{"android":"levelo://app?vid=57807387-8669-49ed-b8a0-365e3cf46b12","ios":"levelo://app?vid=57807387-8669-49ed-b8a0-365e3cf46b12"},"vehicle_type_id":"4","last_reported":1728310119,"current_range_meters":30000,"station_id":"ce4bh3h2rcd13ifvqdn0","pricing_plan_id":"cebpf4jnsgd1na2vs0mg"},{"bike_id":"6c9119f6-a1ac-4755-9824-edcb969c8040","system_id":"levelo_inurba_marseille","lat":43.31269,"lon":5.40165,"is_reserved":false,"is_disabled":false,"rental_uris":{"android":"levelo://app?vid=6c9119f6-a1ac-4755-9824-edcb969c8040","ios":"levelo://app?vid=6c9119f6-a1ac-4755-9824-edcb969c8040"},"vehicle_type_id":"4","last_reported":1728310119,"current_range_meters":24400,"station_id":"ce4bh092rcd13ifvqd30","pricing_plan_id":"cebpf4jnsgd1na2vs0mg"},{"bike_id":"11a60370-6f5b-45b9-bb60-1be47b791b26","system_id":"levelo_inurba_marseille","lat":43.29511,"lon":5.38878,"is_reserved":false,"is_disabled":false,"rental_uris":{"android":"levelo://app?vid=11a60370-6f5b-45b9-bb60-1be47b791b26","ios":"levelo://app?vid=11a60370-6f5b-45b9-bb60-1be47b791b26"},"vehicle_type_id":"4","last_reported":1728310119,"current_range_meters":30400,"station_id":"","pricing_plan_id":"cebpf4jnsgd1na2vs0mg"},{"bike_id":"8c9d3733-168f-4426-863c-f6c97950eb9a","system_id":"levelo_inurba_marseille","lat":43.31111,"lon":5.37759,"is_reserved":false,"is_disabled":false,"rental_uris":{"android":"levelo://app?vid=8c9d3733-168f-4426-863c-f6c97950eb9a","ios":"levelo://app?vid=8c9d3733-168f-4426-863c-f6c97950eb9a"},"vehicle_type_id":"4","last_reported":1728310119,"current_range_meters":8000,"station_id":"ce4bgt92rcd13ifvqcg0","pricing_plan_id":"cebpf4jnsgd1na2vs0mg"},{"bike_id":"93d45870-2e1c-4ed1-9664-7b219a4ed443","system_id":"levelo_inurba_marseille","lat":43.22931,"lon":5.35382,"is_reserved":false,"is_disabled":false,"rental_uris":{"android":"levelo://app?vid=93d45870-2e1c-4ed1-9664-7b219a4ed443","ios":"levelo://app?vid=93d45870-2e1c-4ed1-9664-7b219a4ed443"},"vehicle_type_id":"4","last_reported":1728310119,"current_range_meters":36400,"station_id":"cpo3532slgdg3j2ikp40","pricing_plan_id":"cebpf4jnsgd1na2vs0mg"},{"bike_id":"00ffc7e2-07de-4f44-8921-2febd39c02fd","system_id":"levelo_inurba_marseille","lat":43.30145,"lon":5.37428,"is_reserved":false,"is_disabled":false,"rental_uris":{"android":"levelo://app?vid=00ffc7e2-07de-4f44-8921-2febd39c02fd","ios":"levelo://app?vid=00ffc7e2-07de-4f44-8921-2febd39c02fd"},"vehicle_type_id":"4","last_reported":1728310119,"current_range_meters":38800,"station_id":"ce4bgs92rcd13ifvqcc0","pricing_plan_id":"cebpf4jnsgd1na2vs0mg"},{"bike_id":"319b9ac7-cd83-40a9-8070-33d01f4f79a1","system_id":"levelo_inurba_marseille","lat":43.30913,"lon":5.36852,"is_reserved":false,"is_disabled":false,"rental_uris":{"android":"levelo://app?vid=319b9ac7-cd83-40a9-8070-33d01f4f79a1","ios":"levelo://app?vid=319b9ac7-cd83-40a9-8070-33d01f4f79a1"},"vehicle_type_id":"4","last_reported":1728310119,"current_range_meters":25600,"station_id":"ce4bgn92rcd13ifvqbvg","pricing_plan_id":"cebpf4jnsgd1na2vs0mg"},{"bike_id":"6e512044-ef12-457b-bcca-26bd86c5618a","system_id":"levelo_inurba_marseille","lat":43.23061,"lon":5.3549,"is_reserved":false,"is_disabled":false,"rental_uris":{"android":"levelo://app?vid=6e512044-ef12-457b-bcca-26bd86c5618a","ios":"levelo://app?vid=6e512044-ef12-457b-bcca-26bd86c5618a"},"vehicle_type_id":"4","last_reported":1728310119,"current_range_meters":36800,"station_id":"cpo3342slgdg3j2ifvpg","pricing_plan_id":"cebpf4jnsgd1na2vs0mg"},{"bike_id":"00734453-2434-4d69-851c-905735af3a95","system_id":"levelo_inurba_marseille","lat":43.271969,"lon":5.410304,"is_reserved":false,"is_disabled":false,"rental_uris":{"android":"levelo://app?vid=00734453-2434-4d69-851c-905735af3a95","ios":"levelo://app?vid=00734453-2434-4d69-851c-905735af3a95"},"vehicle_type_id":"4","last_reported":1728310119,"current_range_meters":6800,"station_id":"ce4bhl12rcd13ifvqgf0","pricing_plan_id":"cebpf4jnsgd1na2vs0mg"},{"bike_id":"4bd40a69-9e04-4d70-ab7c-5497500be0f9","system_id":"levelo_inurba_marseille","lat":43.28441,"lon":5.39195,"is_reserved":false,"is_disabled":false,"rental_uris":{"android":"levelo://app?vid=4bd40a69-9e04-4d70-ab7c-5497500be0f9","ios":"levelo://app?vid=4bd40a69-9e04-4d70-ab7c-5497500be0f9"},"vehicle_type_id":"4","last_reported":1728310119,"current_range_meters":23200,"station_id":"ce4bhoh2rcd13ifvqh5g","pricing_plan_id":"cebpf4jnsgd1na2vs0mg"},{"bike_id":"385b1e92-0cd5-4282-905d-2e075ac555ed","system_id":"levelo_inurba_marseille","lat":43.29779,"lon":5.3709,"is_reserved":false,"is_disabled":false,"rental_uris":{"android":"levelo://app?vid=385b1e92-0cd5-4282-905d-2e075ac555ed","ios":"levelo://app?vid=385b1e92-0cd5-4282-905d-2e075ac555ed"},"vehicle_type_id":"4","last_reported":1728310119,"current_range_meters":36000,"station_id":"ce4bgop2rcd13ifvqc1g","pricing_plan_id":"cebpf4jnsgd1na2vs0mg"},{"bike_id":"3d6b8934-cb3d-465f-9a36-cbfa3b1b82b7","system_id":"levelo_inurba_marseille","lat":43.30808,"lon":5.38149,"is_reserved":false,"is_disabled":false,"rental_uris":{"android":"levelo://app?vid=3d6b8934-cb3d-465f-9a36-cbfa3b1b82b7","ios":"levelo://app?vid=3d6b8934-cb3d-465f-9a36-cbfa3b1b82b7"},"vehicle_type_id":"4","last_reported":1728310119,"current_range_meters":36000,"station_id":"ce4bgt12rcd13ifvqce0","pricing_plan_id":"cebpf4jnsgd1na2vs0mg"},{"bike_id":"270b90ca-7521-4165-af49-e1c727e5fa34","system_id":"levelo_inurba_marseille","lat":43.24165,"lon":5.36395,"is_reserved":false,"is_disabled":false,"rental_uris":{"android":"levelo://app?vid=270b90ca-7521-4165-af49-e1c727e5fa34","ios":"levelo://app?vid=270b90ca-7521-4165-af49-e1c727e5fa34"},"vehicle_type_id":"4","last_reported":1728310119,"current_range_meters":28400,"station_id":"cpo36qri1sfpv3e86is0","pricing_plan_id":"cebpf4jnsgd1na2vs0mg"},{"bike_id":"23a1dae1-976d-4ee8-8c32-88a276424c43","system_id":"levelo_inurba_marseille","lat":43.30088,"lon":5.39075,"is_reserved":false,"is_disabled":false,"rental_uris":{"android":"levelo://app?vid=23a1dae1-976d-4ee8-8c32-88a276424c43","ios":"levelo://app?vid=23a1dae1-976d-4ee8-8c32-88a276424c43"},"vehicle_type_id":"4","last_reported":1728310119,"current_range_meters":22800,"station_id":"ce4bh192rcd13ifvqdb0","pricing_plan_id":"cebpf4jnsgd1na2vs0mg"},{"bike_id":"1c6c58c3-e803-47d0-aae9-62fa2a62056c","system_id":"levelo_inurba_marseille","lat":43.23069,"lon":5.35492,"is_reserved":false,"is_disabled":false,"rental_uris":{"android":"levelo://app?vid=1c6c58c3-e803-47d0-aae9-62fa2a62056c","ios":"levelo://app?vid=1c6c58c3-e803-47d0-aae9-62fa2a62056c"},"vehicle_type_id":"4","last_reported":1728310119,"current_range_meters":30400,"station_id":"cpo3342slgdg3j2ifvpg","pricing_plan_id":"cebpf4jnsgd1na2vs0mg"},{"bike_id":"c15016c7-fe00-41de-929a-fe7e8ad38350","system_id":"levelo_inurba_marseille","lat":43.2953,"lon":5.38535,"is_reserved":false,"is_disabled":false,"rental_uris":{"android":"levelo://app?vid=c15016c7-fe00-41de-929a-fe7e8ad38350","ios":"levelo://app?vid=c15016c7-fe00-41de-929a-fe7e8ad38350"},"vehicle_type_id":"4","last_reported":1728310119,"current_range_meters":32800,"station_id":"ce4bgih2rcd13ifvqba0","pricing_plan_id":"cebpf4jnsgd1na2vs0mg"},{"bike_id":"70eab547-b7bb-47a8-8c49-54a0c8864881","system_id":"levelo_inurba_marseille","lat":43.26489,"lon":5.39553,"is_reserved":false,"is_disabled":false,"rental_uris":{"android":"levelo://app?vid=70eab547-b7bb-47a8-8c49-54a0c8864881","ios":"levelo://app?vid=70eab547-b7bb-47a8-8c49-54a0c8864881"},"vehicle_type_id":"4","last_reported":1728310119,"current_range_meters":24000,"station_id":"ce4bhi12rcd13ifvqfq0","pricing_plan_id":"cebpf4jnsgd1na2vs0mg"},{"bike_id":"36ce7bd9-8557-4fa1-b635-55b5a0b1fac8","system_id":"levelo_inurba_marseille","lat":43.31085,"lon":5.42429,"is_reserved":false,"is_disabled":false,"rental_uris":{"android":"levelo://app?vid=36ce7bd9-8557-4fa1-b635-55b5a0b1fac8","ios":"levelo://app?vid=36ce7bd9-8557-4fa1-b635-55b5a0b1fac8"},"vehicle_type_id":"4","last_reported":1728310119,"current_range_meters":34800,"station_id":"ce4bhp92rcd13ifvqhag","pricing_plan_id":"cebpf4jnsgd1na2vs0mg"},{"bike_id":"7f6742f8-1f89-4a3b-830a-71cdb5514de4","system_id":"levelo_inurba_marseille","lat":43.31121,"lon":5.37771,"is_reserved":false,"is_disabled":false,"rental_uris":{"android":"levelo://app?vid=7f6742f8-1f89-4a3b-830a-71cdb5514de4","ios":"levelo://app?vid=7f6742f8-1f89-4a3b-830a-71cdb5514de4"},"vehicle_type_id":"4","last_reported":1728310119,"current_range_meters":34000,"station_id":"ce4bgt92rcd13ifvqcg0","pricing_plan_id":"cebpf4jnsgd1na2vs0mg"},{"bike_id":"29a90281-87dd-40ac-b422-c27177110a18","system_id":"levelo_inurba_marseille","lat":43.26678,"lon":5.38268,"is_reserved":false,"is_disabled":false,"rental_uris":{"android":"levelo://app?vid=29a90281-87dd-40ac-b422-c27177110a18","ios":"levelo://app?vid=29a90281-87dd-40ac-b422-c27177110a18"},"vehicle_type_id":"4","last_reported":1728310119,"current_range_meters":28000,"station_id":"ce4bhg92rcd13ifvqf90","pricing_plan_id":"cebpf4jnsgd1na2vs0mg"},{"bike_id":"f3ef38e7-52dd-42b1-839a-1c47f8e84059","system_id":"levelo_inurba_marseille","lat":43.30435,"lon":5.38874,"is_reserved":false,"is_disabled":false,"rental_uris":{"android":"levelo://app?vid=f3ef38e7-52dd-42b1-839a-1c47f8e84059","ios":"levelo://app?vid=f3ef38e7-52dd-42b1-839a-1c47f8e84059"},"vehicle_type_id":"4","last_reported":1728310119,"current_range_meters":32000,"station_id":"ce4bgk12rcd13ifvqbi0","pricing_plan_id":"cebpf4jnsgd1na2vs0mg"},{"bike_id":"e77a5168-df9e-4cba-8a47-066649b8c49b","system_id":"levelo_inurba_marseille","lat":43.26556,"lon":5.37277,"is_reserved":false,"is_disabled":false,"rental_uris":{"android":"levelo://app?vid=e77a5168-df9e-4cba-8a47-066649b8c49b","ios":"levelo://app?vid=e77a5168-df9e-4cba-8a47-066649b8c49b"},"vehicle_type_id":"4","last_reported":1728310119,"current_range_meters":3200,"station_id":"ce4bhg12rcd13ifvqf70","pricing_plan_id":"cebpf4jnsgd1na2vs0mg"},{"bike_id":"a8ab2192-066c-4207-a0dc-66dfe9c16b43","system_id":"levelo_inurba_marseille","lat":43.264861,"lon":5.395489,"is_reserved":false,"is_disabled":false,"rental_uris":{"android":"levelo://app?vid=a8ab2192-066c-4207-a0dc-66dfe9c16b43","ios":"levelo://app?vid=a8ab2192-066c-4207-a0dc-66dfe9c16b43"},"vehicle_type_id":"4","last_reported":1728310119,"current_range_meters":34000,"station_id":"ce4bhi12rcd13ifvqfq0","pricing_plan_id":"cebpf4jnsgd1na2vs0mg"},{"bike_id":"ca150432-5632-417f-a220-d6e10e3598a2","system_id":"levelo_inurba_marseille","lat":43.29893,"lon":5.43668,"is_reserved":false,"is_disabled":false,"rental_uris":{"android":"levelo://app?vid=ca150432-5632-417f-a220-d6e10e3598a2","ios":"levelo://app?vid=ca150432-5632-417f-a220-d6e10e3598a2"},"vehicle_type_id":"4","last_reported":1728310119,"current_range_meters":38800,"station_id":"ce4bhpp2rcd13ifvqhfg","pricing_plan_id":"cebpf4jnsgd1na2vs0mg"},{"bike_id":"2c839d58-447f-447c-9941-e94f613832a8","system_id":"levelo_inurba_marseille","lat":43.29092,"lon":5.38148,"is_reserved":false,"is_disabled":false,"rental_uris":{"android":"levelo://app?vid=2c839d58-447f-447c-9941-e94f613832a8","ios":"levelo://app?vid=2c839d58-447f-447c-9941-e94f613832a8"},"vehicle_type_id":"4","last_reported":1728310119,"current_range_meters":38400,"station_id":"ce4bh512rcd13ifvqe2g","pricing_plan_id":"cebpf4jnsgd1na2vs0mg"},{"bike_id":"6fea6536-76dc-430b-b546-c9439597e325","system_id":"levelo_inurba_marseille","lat":43.27175,"lon":5.40998,"is_reserved":false,"is_disabled":false,"rental_uris":{"android":"levelo://app?vid=6fea6536-76dc-430b-b546-c9439597e325","ios":"levelo://app?vid=6fea6536-76dc-430b-b546-c9439597e325"},"vehicle_type_id":"4","last_reported":1728310119,"current_range_meters":35200,"station_id":"ce4bhl12rcd13ifvqgf0","pricing_plan_id":"cebpf4jnsgd1na2vs0mg"},{"bike_id":"2d5b20f8-7a5a-4d9d-87c8-96e5169df8aa","system_id":"levelo_inurba_marseille","lat":43.30273,"lon":5.37697,"is_reserved":false,"is_disabled":false,"rental_uris":{"android":"levelo://app?vid=2d5b20f8-7a5a-4d9d-87c8-96e5169df8aa","ios":"levelo://app?vid=2d5b20f8-7a5a-4d9d-87c8-96e5169df8aa"},"vehicle_type_id":"4","last_reported":1728310119,"current_range_meters":37600,"station_id":"ce4bguh2rcd13ifvqcj0","pricing_plan_id":"cebpf4jnsgd1na2vs0mg"},{"bike_id":"ab0ef8f6-2d64-477f-ab35-7e54daa51f0f","system_id":"levelo_inurba_marseille","lat":43.31712,"lon":5.4371,"is_reserved":false,"is_disabled":false,"rental_uris":{"android":"levelo://app?vid=ab0ef8f6-2d64-477f-ab35-7e54daa51f0f","ios":"levelo://app?vid=ab0ef8f6-2d64-477f-ab35-7e54daa51f0f"},"vehicle_type_id":"4","last_reported":1728310119,"current_range_meters":25600,"station_id":"ce4bhp92rcd13ifvqhcg","pricing_plan_id":"cebpf4jnsgd1na2vs0mg"},{"bike_id":"6280fe20-3e07-4b35-8782-6bfd72307566","system_id":"levelo_inurba_marseille","lat":43.30427,"lon":5.38879,"is_reserved":false,"is_disabled":false,"rental_uris":{"android":"levelo://app?vid=6280fe20-3e07-4b35-8782-6bfd72307566","ios":"levelo://app?vid=6280fe20-3e07-4b35-8782-6bfd72307566"},"vehicle_type_id":"4","last_reported":1728310119,"current_range_meters":15200,"station_id":"ce4bgk12rcd13ifvqbi0","pricing_plan_id":"cebpf4jnsgd1na2vs0mg"},{"bike_id":"6f537568-a908-44a0-a764-f225eb9a1beb","system_id":"levelo_inurba_marseille","lat":43.284393,"lon":5.39212,"is_reserved":false,"is_disabled":false,"rental_uris":{"android":"levelo://app?vid=6f537568-a908-44a0-a764-f225eb9a1beb","ios":"levelo://app?vid=6f537568-a908-44a0-a764-f225eb9a1beb"},"vehicle_type_id":"4","last_reported":1728310119,"current_range_meters":32800,"station_id":"ce4bhoh2rcd13ifvqh5g","pricing_plan_id":"cebpf4jnsgd1na2vs0mg"},{"bike_id":"f7612392-4f4b-453b-a64c-499de3c2600f","system_id":"levelo_inurba_marseille","lat":43.24172,"lon":5.36388,"is_reserved":false,"is_disabled":false,"rental_uris":{"android":"levelo://app?vid=f7612392-4f4b-453b-a64c-499de3c2600f","ios":"levelo://app?vid=f7612392-4f4b-453b-a64c-499de3c2600f"},"vehicle_type_id":"4","last_reported":1728310119,"current_range_meters":36400,"station_id":"cpo36qri1sfpv3e86is0","pricing_plan_id":"cebpf4jnsgd1na2vs0mg"},{"bike_id":"f29b4d92-1036-4fc6-aac6-aac989e385e7","system_id":"levelo_inurba_marseille","lat":43.29917,"lon":5.37494,"is_reserved":false,"is_disabled":false,"rental_uris":{"android":"levelo://app?vid=f29b4d92-1036-4fc6-aac6-aac989e385e7","ios":"levelo://app?vid=f29b4d92-1036-4fc6-aac6-aac989e385e7"},"vehicle_type_id":"4","last_reported":1728310119,"current_range_meters":30000,"station_id":"ce4bgjh2rcd13ifvqbg0","pricing_plan_id":"cebpf4jnsgd1na2vs0mg"},{"bike_id":"b49d3aee-23cd-474f-83fb-21577687d057","system_id":"levelo_inurba_marseille","lat":43.24389,"lon":5.37055,"is_reserved":false,"is_disabled":false,"rental_uris":{"android":"levelo://app?vid=b49d3aee-23cd-474f-83fb-21577687d057","ios":"levelo://app?vid=b49d3aee-23cd-474f-83fb-21577687d057"},"vehicle_type_id":"4","last_reported":1728310119,"current_range_meters":7200,"station_id":"ce4bhhh2rcd13ifvqfk0","pricing_plan_id":"cebpf4jnsgd1na2vs0mg"},{"bike_id":"1b821fc4-fa26-4b3d-a701-5b7cfeab6f02","system_id":"levelo_inurba_marseille","lat":43.27677,"lon":5.38869,"is_reserved":false,"is_disabled":false,"rental_uris":{"android":"levelo://app?vid=1b821fc4-fa26-4b3d-a701-5b7cfeab6f02","ios":"levelo://app?vid=1b821fc4-fa26-4b3d-a701-5b7cfeab6f02"},"vehicle_type_id":"4","last_reported":1728310119,"current_range_meters":25600,"station_id":"ce4bhi12rcd13ifvqfo0","pricing_plan_id":"cebpf4jnsgd1na2vs0mg"},{"bike_id":"0fae0579-21a9-437c-87f5-9c07357a6f20","system_id":"levelo_inurba_marseille","lat":43.25926,"lon":5.40905,"is_reserved":false,"is_disabled":false,"rental_uris":{"android":"levelo://app?vid=0fae0579-21a9-437c-87f5-9c07357a6f20","ios":"levelo://app?vid=0fae0579-21a9-437c-87f5-9c07357a6f20"},"vehicle_type_id":"4","last_reported":1728310119,"current_range_meters":21600,"station_id":"ce4bhm92rcd13ifvqglg","pricing_plan_id":"cebpf4jnsgd1na2vs0mg"},{"bike_id":"2d424544-332f-45a8-8d54-6ae9533d8e3d","system_id":"levelo_inurba_marseille","lat":43.31221,"lon":5.36875,"is_reserved":false,"is_disabled":false,"rental_uris":{"android":"levelo://app?vid=2d424544-332f-45a8-8d54-6ae9533d8e3d","ios":"levelo://app?vid=2d424544-332f-45a8-8d54-6ae9533d8e3d"},"vehicle_type_id":"4","last_reported":1728310119,"current_range_meters":34000,"station_id":"ce4bgl92rcd13ifvqbq0","pricing_plan_id":"cebpf4jnsgd1na2vs0mg"},{"bike_id":"66a81085-1a96-4f65-934a-3195a2059afa","system_id":"levelo_inurba_marseille","lat":43.24645,"lon":5.38898,"is_reserved":false,"is_disabled":false,"rental_uris":{"android":"levelo://app?vid=66a81085-1a96-4f65-934a-3195a2059afa","ios":"levelo://app?vid=66a81085-1a96-4f65-934a-3195a2059afa"},"vehicle_type_id":"4","last_reported":1728310119,"current_range_meters":38800,"station_id":"ce4bhg12rcd13ifvqf60","pricing_plan_id":"cebpf4jnsgd1na2vs0mg"},{"bike_id":"f94ea202-1203-4ca7-92e4-176d89d7ae9a","system_id":"levelo_inurba_marseille","lat":43.29785,"lon":5.38112,"is_reserved":false,"is_disabled":false,"rental_uris":{"android":"levelo://app?vid=f94ea202-1203-4ca7-92e4-176d89d7ae9a","ios":"levelo://app?vid=f94ea202-1203-4ca7-92e4-176d89d7ae9a"},"vehicle_type_id":"4","last_reported":1728310119,"current_range_meters":37600,"station_id":"ce4bgip2rcd13ifvqbb0","pricing_plan_id":"cebpf4jnsgd1na2vs0mg"},{"bike_id":"ac628847-21d5-434d-9db9-532fbbed3684","system_id":"levelo_inurba_marseille","lat":43.27558,"lon":5.38415,"is_reserved":false,"is_disabled":false,"rental_uris":{"android":"levelo://app?vid=ac628847-21d5-434d-9db9-532fbbed3684","ios":"levelo://app?vid=ac628847-21d5-434d-9db9-532fbbed3684"},"vehicle_type_id":"4","last_reported":1728310119,"current_range_meters":25200,"station_id":"ce4bhh92rcd13ifvqfi0","pricing_plan_id":"cebpf4jnsgd1na2vs0mg"},{"bike_id":"d9923050-0032-412d-bccf-5f408ca8a467","system_id":"levelo_inurba_marseille","lat":43.25111,"lon":5.40321,"is_reserved":false,"is_disabled":false,"rental_uris":{"android":"levelo://app?vid=d9923050-0032-412d-bccf-5f408ca8a467","ios":"levelo://app?vid=d9923050-0032-412d-bccf-5f408ca8a467"},"vehicle_type_id":"4","last_reported":1728310119,"current_range_meters":5600,"station_id":"ce4bhlh2rcd13ifvqgig","pricing_plan_id":"cebpf4jnsgd1na2vs0mg"},{"bike_id":"36dd35f1-d8ac-498a-b43d-6f37c7326614","system_id":"levelo_inurba_marseille","lat":43.24667,"lon":5.38164,"is_reserved":false,"is_disabled":false,"rental_uris":{"android":"levelo://app?vid=36dd35f1-d8ac-498a-b43d-6f37c7326614","ios":"levelo://app?vid=36dd35f1-d8ac-498a-b43d-6f37c7326614"},"vehicle_type_id":"4","last_reported":1728310119,"current_range_meters":2000,"station_id":"ce4bhih2rcd13ifvqfr0","pricing_plan_id":"cebpf4jnsgd1na2vs0mg"},{"bike_id":"025b2914-5a55-4831-9515-ed51afbb3e15","system_id":"levelo_inurba_marseille","lat":43.23149,"lon":5.43704,"is_reserved":false,"is_disabled":false,"rental_uris":{"android":"levelo://app?vid=025b2914-5a55-4831-9515-ed51afbb3e15","ios":"levelo://app?vid=025b2914-5a55-4831-9515-ed51afbb3e15"},"vehicle_type_id":"4","last_reported":1728310119,"current_range_meters":17200,"station_id":"ce4bhmp2rcd13ifvqgog","pricing_plan_id":"cebpf4jnsgd1na2vs0mg"},{"bike_id":"f5abf5f7-e4fc-462f-895f-7e4b09120aaf","system_id":"levelo_inurba_marseille","lat":43.323363,"lon":5.406212,"is_reserved":false,"is_disabled":false,"rental_uris":{"android":"levelo://app?vid=f5abf5f7-e4fc-462f-895f-7e4b09120aaf","ios":"levelo://app?vid=f5abf5f7-e4fc-462f-895f-7e4b09120aaf"},"vehicle_type_id":"4","last_reported":1728310119,"current_range_meters":3600,"station_id":"ce4bhq92rcd13ifvqhjg","pricing_plan_id":"cebpf4jnsgd1na2vs0mg"},{"bike_id":"99620788-164c-4d4d-9da8-8745055ec57c","system_id":"levelo_inurba_marseille","lat":43.30547,"lon":5.36708,"is_reserved":false,"is_disabled":false,"rental_uris":{"android":"levelo://app?vid=99620788-164c-4d4d-9da8-8745055ec57c","ios":"levelo://app?vid=99620788-164c-4d4d-9da8-8745055ec57c"},"vehicle_type_id":"4","last_reported":1728310119,"current_range_meters":8400,"station_id":"ce4bgrp2rcd13ifvqc9g","pricing_plan_id":"cebpf4jnsgd1na2vs0mg"},{"bike_id":"82c66a3d-e045-473c-b7ac-05bb5b17bbc7","system_id":"levelo_inurba_marseille","lat":43.29973,"lon":5.3717,"is_reserved":false,"is_disabled":false,"rental_uris":{"android":"levelo://app?vid=82c66a3d-e045-473c-b7ac-05bb5b17bbc7","ios":"levelo://app?vid=82c66a3d-e045-473c-b7ac-05bb5b17bbc7"},"vehicle_type_id":"4","last_reported":1728310119,"current_range_meters":35600,"station_id":"ce4bgr92rcd13ifvqc7g","pricing_plan_id":"cebpf4jnsgd1na2vs0mg"},{"bike_id":"3ef5318c-eade-444d-9f69-6ca34e3246cd","system_id":"levelo_inurba_marseille","lat":43.29174,"lon":5.37179,"is_reserved":false,"is_disabled":false,"rental_uris":{"android":"levelo://app?vid=3ef5318c-eade-444d-9f69-6ca34e3246cd","ios":"levelo://app?vid=3ef5318c-eade-444d-9f69-6ca34e3246cd"},"vehicle_type_id":"4","last_reported":1728310119,"current_range_meters":38400,"station_id":"ce4bha92rcd13ifvqeh0","pricing_plan_id":"cebpf4jnsgd1na2vs0mg"},{"bike_id":"346f0f7f-071f-4c9c-9497-f91f11372ee5","system_id":"levelo_inurba_marseille","lat":43.29436,"lon":5.39745,"is_reserved":false,"is_disabled":false,"rental_uris":{"android":"levelo://app?vid=346f0f7f-071f-4c9c-9497-f91f11372ee5","ios":"levelo://app?vid=346f0f7f-071f-4c9c-9497-f91f11372ee5"},"vehicle_type_id":"4","last_reported":1728310119,"current_range_meters":24000,"station_id":"ce4bh3h2rcd13ifvqdo0","pricing_plan_id":"cebpf4jnsgd1na2vs0mg"},{"bike_id":"0616df7b-ed5d-4574-aa64-a9fce054b495","system_id":"levelo_inurba_marseille","lat":43.26207,"lon":5.37933,"is_reserved":false,"is_disabled":false,"rental_uris":{"android":"levelo://app?vid=0616df7b-ed5d-4574-aa64-a9fce054b495","ios":"levelo://app?vid=0616df7b-ed5d-4574-aa64-a9fce054b495"},"vehicle_type_id":"4","last_reported":1728310119,"current_range_meters":37600,"station_id":"ce4bhjp2rcd13ifvqg90","pricing_plan_id":"cebpf4jnsgd1na2vs0mg"},{"bike_id":"9e04c459-c37a-46ce-892f-89e88e8d36cf","system_id":"levelo_inurba_marseille","lat":43.26202,"lon":5.37936,"is_reserved":false,"is_disabled":false,"rental_uris":{"android":"levelo://app?vid=9e04c459-c37a-46ce-892f-89e88e8d36cf","ios":"levelo://app?vid=9e04c459-c37a-46ce-892f-89e88e8d36cf"},"vehicle_type_id":"4","last_reported":1728310119,"current_range_meters":22400,"station_id":"ce4bhjp2rcd13ifvqg90","pricing_plan_id":"cebpf4jnsgd1na2vs0mg"},{"bike_id":"02918d95-b819-4c37-babb-dd52b6c6980f","system_id":"levelo_inurba_marseille","lat":43.30886,"lon":5.37182,"is_reserved":false,"is_disabled":false,"rental_uris":{"android":"levelo://app?vid=02918d95-b819-4c37-babb-dd52b6c6980f","ios":"levelo://app?vid=02918d95-b819-4c37-babb-dd52b6c6980f"},"vehicle_type_id":"4","last_reported":1728310119,"current_range_meters":8400,"station_id":"ce4bguh2rcd13ifvqckg","pricing_plan_id":"cebpf4jnsgd1na2vs0mg"},{"bike_id":"ed35f743-4198-471f-8318-ea74f553b73d","system_id":"levelo_inurba_marseille","lat":43.29544,"lon":5.42285,"is_reserved":false,"is_disabled":false,"rental_uris":{"android":"levelo://app?vid=ed35f743-4198-471f-8318-ea74f553b73d","ios":"levelo://app?vid=ed35f743-4198-471f-8318-ea74f553b73d"},"vehicle_type_id":"4","last_reported":1728310119,"current_range_meters":38800,"station_id":"ce4bhph2rcd13ifvqhdg","pricing_plan_id":"cebpf4jnsgd1na2vs0mg"},{"bike_id":"f0765aa2-e6f8-49d1-86c7-7f7bcef417c0","system_id":"levelo_inurba_marseille","lat":43.30146,"lon":5.38084,"is_reserved":false,"is_disabled":false,"rental_uris":{"android":"levelo://app?vid=f0765aa2-e6f8-49d1-86c7-7f7bcef417c0","ios":"levelo://app?vid=f0765aa2-e6f8-49d1-86c7-7f7bcef417c0"},"vehicle_type_id":"4","last_reported":1728310119,"current_range_meters":21600,"station_id":"ce4bgjp2rcd13ifvqbh0","pricing_plan_id":"cebpf4jnsgd1na2vs0mg"},{"bike_id":"035169f9-3688-40e7-b630-6e0665ca7977","system_id":"levelo_inurba_marseille","lat":43.27811,"lon":5.40715,"is_reserved":false,"is_disabled":false,"rental_uris":{"android":"levelo://app?vid=035169f9-3688-40e7-b630-6e0665ca7977","ios":"levelo://app?vid=035169f9-3688-40e7-b630-6e0665ca7977"},"vehicle_type_id":"4","last_reported":1728310119,"current_range_meters":29600,"station_id":"ce4bhnh2rcd13ifvqgtg","pricing_plan_id":"cebpf4jnsgd1na2vs0mg"},{"bike_id":"7015adda-36ba-490e-9041-0df976d3621d","system_id":"levelo_inurba_marseille","lat":43.29616,"lon":5.37154,"is_reserved":false,"is_disabled":false,"rental_uris":{"android":"levelo://app?vid=7015adda-36ba-490e-9041-0df976d3621d","ios":"levelo://app?vid=7015adda-36ba-490e-9041-0df976d3621d"},"vehicle_type_id":"4","last_reported":1728310119,"current_range_meters":35200,"station_id":"ce4bgnh2rcd13ifvqc0g","pricing_plan_id":"cebpf4jnsgd1na2vs0mg"},{"bike_id":"8aff9c66-e091-44a4-8267-b3d8e0230a34","system_id":"levelo_inurba_marseille","lat":43.29901,"lon":5.38133,"is_reserved":false,"is_disabled":false,"rental_uris":{"android":"levelo://app?vid=8aff9c66-e091-44a4-8267-b3d8e0230a34","ios":"levelo://app?vid=8aff9c66-e091-44a4-8267-b3d8e0230a34"},"vehicle_type_id":"4","last_reported":1728310119,"current_range_meters":19200,"station_id":"ce4bgj12rcd13ifvqbc0","pricing_plan_id":"cebpf4jnsgd1na2vs0mg"},{"bike_id":"9e20f0ea-14bd-4e81-95c9-756e6e255d0c","system_id":"levelo_inurba_marseille","lat":43.25087,"lon":5.39522,"is_reserved":false,"is_disabled":false,"rental_uris":{"android":"levelo://app?vid=9e20f0ea-14bd-4e81-95c9-756e6e255d0c","ios":"levelo://app?vid=9e20f0ea-14bd-4e81-95c9-756e6e255d0c"},"vehicle_type_id":"4","last_reported":1728310119,"current_range_meters":35200,"station_id":"ce4bhm12rcd13ifvqgkg","pricing_plan_id":"cebpf4jnsgd1na2vs0mg"},{"bike_id":"09f5e835-e735-4fb5-9785-3e8a138bf169","system_id":"levelo_inurba_marseille","lat":43.31121,"lon":5.37762,"is_reserved":false,"is_disabled":false,"rental_uris":{"android":"levelo://app?vid=09f5e835-e735-4fb5-9785-3e8a138bf169","ios":"levelo://app?vid=09f5e835-e735-4fb5-9785-3e8a138bf169"},"vehicle_type_id":"4","last_reported":1728310119,"current_range_meters":33600,"station_id":"ce4bgt92rcd13ifvqcg0","pricing_plan_id":"cebpf4jnsgd1na2vs0mg"},{"bike_id":"1b824c96-89b8-48c4-a572-d79e2764a014","system_id":"levelo_inurba_marseille","lat":43.29975,"lon":5.38487,"is_reserved":false,"is_disabled":false,"rental_uris":{"android":"levelo://app?vid=1b824c96-89b8-48c4-a572-d79e2764a014","ios":"levelo://app?vid=1b824c96-89b8-48c4-a572-d79e2764a014"},"vehicle_type_id":"4","last_reported":1728310119,"current_range_meters":29600,"station_id":"ce4bgj92rcd13ifvqbd0","pricing_plan_id":"cebpf4jnsgd1na2vs0mg"},{"bike_id":"7308e86e-518c-4741-8f8b-ac43dc3abfb7","system_id":"levelo_inurba_marseille","lat":43.26065,"lon":5.39396,"is_reserved":false,"is_disabled":false,"rental_uris":{"android":"levelo://app?vid=7308e86e-518c-4741-8f8b-ac43dc3abfb7","ios":"levelo://app?vid=7308e86e-518c-4741-8f8b-ac43dc3abfb7"},"vehicle_type_id":"4","last_reported":1728310119,"current_range_meters":1600,"station_id":"ce4bhh92rcd13ifvqfj0","pricing_plan_id":"cebpf4jnsgd1na2vs0mg"},{"bike_id":"e6dc0577-dae8-49e4-8815-1c039d90a07b","system_id":"levelo_inurba_marseille","lat":43.28932,"lon":5.36636,"is_reserved":false,"is_disabled":false,"rental_uris":{"android":"levelo://app?vid=e6dc0577-dae8-49e4-8815-1c039d90a07b","ios":"levelo://app?vid=e6dc0577-dae8-49e4-8815-1c039d90a07b"},"vehicle_type_id":"4","last_reported":1728310119,"current_range_meters":36000,"station_id":"ce4bhap2rcd13ifvqek0","pricing_plan_id":"cebpf4jnsgd1na2vs0mg"},{"bike_id":"d194773e-fe06-4f06-8a17-4f237c3f1f3a","system_id":"levelo_inurba_marseille","lat":43.2603,"lon":5.37555,"is_reserved":false,"is_disabled":false,"rental_uris":{"android":"levelo://app?vid=d194773e-fe06-4f06-8a17-4f237c3f1f3a","ios":"levelo://app?vid=d194773e-fe06-4f06-8a17-4f237c3f1f3a"},"vehicle_type_id":"4","last_reported":1728310119,"current_range_meters":3200,"station_id":"ce4bhgh2rcd13ifvqfa0","pricing_plan_id":"cebpf4jnsgd1na2vs0mg"},{"bike_id":"ebbed3dd-0ca8-4bf1-92fc-a5ef8c955629","system_id":"levelo_inurba_marseille","lat":43.29896,"lon":5.38139,"is_reserved":false,"is_disabled":false,"rental_uris":{"android":"levelo://app?vid=ebbed3dd-0ca8-4bf1-92fc-a5ef8c955629","ios":"levelo://app?vid=ebbed3dd-0ca8-4bf1-92fc-a5ef8c955629"},"vehicle_type_id":"4","last_reported":1728310119,"current_range_meters":17200,"station_id":"ce4bgj12rcd13ifvqbc0","pricing_plan_id":"cebpf4jnsgd1na2vs0mg"},{"bike_id":"5a8cbdce-9581-45ed-804d-f5eb0186049d","system_id":"levelo_inurba_marseille","lat":43.26943,"lon":5.40253,"is_reserved":false,"is_disabled":false,"rental_uris":{"android":"levelo://app?vid=5a8cbdce-9581-45ed-804d-f5eb0186049d","ios":"levelo://app?vid=5a8cbdce-9581-45ed-804d-f5eb0186049d"},"vehicle_type_id":"4","last_reported":1728310119,"current_range_meters":36800,"station_id":"cjm6bp8fraef2m0cb0m0","pricing_plan_id":"cebpf4jnsgd1na2vs0mg"},{"bike_id":"5a790196-eb66-477f-871f-410c6648ae5b","system_id":"levelo_inurba_marseille","lat":43.28858,"lon":5.39317,"is_reserved":false,"is_disabled":false,"rental_uris":{"android":"levelo://app?vid=5a790196-eb66-477f-871f-410c6648ae5b","ios":"levelo://app?vid=5a790196-eb66-477f-871f-410c6648ae5b"},"vehicle_type_id":"4","last_reported":1728310119,"current_range_meters":38800,"station_id":"ce4bh2p2rcd13ifvqdi0","pricing_plan_id":"cebpf4jnsgd1na2vs0mg"},{"bike_id":"c7c933ea-453c-4444-a304-2fa069327739","system_id":"levelo_inurba_marseille","lat":43.23066,"lon":5.3549,"is_reserved":false,"is_disabled":false,"rental_uris":{"android":"levelo://app?vid=c7c933ea-453c-4444-a304-2fa069327739","ios":"levelo://app?vid=c7c933ea-453c-4444-a304-2fa069327739"},"vehicle_type_id":"4","last_reported":1728310119,"current_range_meters":26800,"station_id":"cpo3342slgdg3j2ifvpg","pricing_plan_id":"cebpf4jnsgd1na2vs0mg"},{"bike_id":"3e012f98-0e25-4c3a-b9ab-b72447ca59f0","system_id":"levelo_inurba_marseille","lat":43.31112,"lon":5.38323,"is_reserved":false,"is_disabled":false,"rental_uris":{"android":"levelo://app?vid=3e012f98-0e25-4c3a-b9ab-b72447ca59f0","ios":"levelo://app?vid=3e012f98-0e25-4c3a-b9ab-b72447ca59f0"},"vehicle_type_id":"4","last_reported":1728310119,"current_range_meters":2000,"station_id":"ce4bgv92rcd13ifvqcr0","pricing_plan_id":"cebpf4jnsgd1na2vs0mg"},{"bike_id":"222e06f0-3e82-4089-82af-6bf55f76bc4f","system_id":"levelo_inurba_marseille","lat":43.30541,"lon":5.36556,"is_reserved":false,"is_disabled":false,"rental_uris":{"android":"levelo://app?vid=222e06f0-3e82-4089-82af-6bf55f76bc4f","ios":"levelo://app?vid=222e06f0-3e82-4089-82af-6bf55f76bc4f"},"vehicle_type_id":"4","last_reported":1728310119,"current_range_meters":8400,"station_id":"ce4bgs12rcd13ifvqcag","pricing_plan_id":"cebpf4jnsgd1na2vs0mg"},{"bike_id":"fdac782a-0119-4cf9-99ab-f2255afda003","system_id":"levelo_inurba_marseille","lat":43.31484,"lon":5.37308,"is_reserved":false,"is_disabled":false,"rental_uris":{"android":"levelo://app?vid=fdac782a-0119-4cf9-99ab-f2255afda003","ios":"levelo://app?vid=fdac782a-0119-4cf9-99ab-f2255afda003"},"vehicle_type_id":"4","last_reported":1728310119,"current_range_meters":21600,"station_id":"ce4bgt12rcd13ifvqcd0","pricing_plan_id":"cebpf4jnsgd1na2vs0mg"},{"bike_id":"3cc956f2-64fb-404c-ab98-241823c518f6","system_id":"levelo_inurba_marseille","lat":43.29958,"lon":5.41328,"is_reserved":false,"is_disabled":false,"rental_uris":{"android":"levelo://app?vid=3cc956f2-64fb-404c-ab98-241823c518f6","ios":"levelo://app?vid=3cc956f2-64fb-404c-ab98-241823c518f6"},"vehicle_type_id":"4","last_reported":1728310119,"current_range_meters":20000,"station_id":"ce4bhp12rcd13ifvqh9g","pricing_plan_id":"cebpf4jnsgd1na2vs0mg"},{"bike_id":"63905476-2890-443e-983a-17cf520e6a49","system_id":"levelo_inurba_marseille","lat":43.28267,"lon":5.35056,"is_reserved":false,"is_disabled":false,"rental_uris":{"android":"levelo://app?vid=63905476-2890-443e-983a-17cf520e6a49","ios":"levelo://app?vid=63905476-2890-443e-983a-17cf520e6a49"},"vehicle_type_id":"4","last_reported":1728310119,"current_range_meters":11600,"station_id":"ce4bhbp2rcd13ifvqerg","pricing_plan_id":"cebpf4jnsgd1na2vs0mg"},{"bike_id":"a6404e0f-1413-47fa-bb0d-8e5e1c339564","system_id":"levelo_inurba_marseille","lat":43.26679,"lon":5.38269,"is_reserved":false,"is_disabled":false,"rental_uris":{"android":"levelo://app?vid=a6404e0f-1413-47fa-bb0d-8e5e1c339564","ios":"levelo://app?vid=a6404e0f-1413-47fa-bb0d-8e5e1c339564"},"vehicle_type_id":"4","last_reported":1728310119,"current_range_meters":36800,"station_id":"ce4bhg92rcd13ifvqf90","pricing_plan_id":"cebpf4jnsgd1na2vs0mg"},{"bike_id":"4a1cdcbd-189e-449e-b4e4-2f395c9afcd4","system_id":"levelo_inurba_marseille","lat":43.33022,"lon":5.39038,"is_reserved":false,"is_disabled":false,"rental_uris":{"android":"levelo://app?vid=4a1cdcbd-189e-449e-b4e4-2f395c9afcd4","ios":"levelo://app?vid=4a1cdcbd-189e-449e-b4e4-2f395c9afcd4"},"vehicle_type_id":"4","last_reported":1728310119,"current_range_meters":28000,"station_id":"ce4bhr92rcd13ifvqhrg","pricing_plan_id":"cebpf4jnsgd1na2vs0mg"},{"bike_id":"c190b4a1-ea1d-47e2-b2e8-eefa3099f9cc","system_id":"levelo_inurba_marseille","lat":43.23191,"lon":5.35556,"is_reserved":false,"is_disabled":false,"rental_uris":{"android":"levelo://app?vid=c190b4a1-ea1d-47e2-b2e8-eefa3099f9cc","ios":"levelo://app?vid=c190b4a1-ea1d-47e2-b2e8-eefa3099f9cc"},"vehicle_type_id":"4","last_reported":1728310119,"current_range_meters":38800,"station_id":"ce4bhu92rcd13ifvqi70","pricing_plan_id":"cebpf4jnsgd1na2vs0mg"},{"bike_id":"920dc27e-bf5b-4417-99ec-8732ae0408ac","system_id":"levelo_inurba_marseille","lat":43.29597,"lon":5.38101,"is_reserved":false,"is_disabled":false,"rental_uris":{"android":"levelo://app?vid=920dc27e-bf5b-4417-99ec-8732ae0408ac","ios":"levelo://app?vid=920dc27e-bf5b-4417-99ec-8732ae0408ac"},"vehicle_type_id":"4","last_reported":1728310119,"current_range_meters":20400,"station_id":"ce4bgl12rcd13ifvqbo0","pricing_plan_id":"cebpf4jnsgd1na2vs0mg"},{"bike_id":"2a214ee3-d8f7-4505-9648-52bff47285eb","system_id":"levelo_inurba_marseille","lat":43.30929,"lon":5.40145,"is_reserved":false,"is_disabled":false,"rental_uris":{"android":"levelo://app?vid=2a214ee3-d8f7-4505-9648-52bff47285eb","ios":"levelo://app?vid=2a214ee3-d8f7-4505-9648-52bff47285eb"},"vehicle_type_id":"4","last_reported":1728310119,"current_range_meters":6800,"station_id":"ce4bgvp2rcd13ifvqct0","pricing_plan_id":"cebpf4jnsgd1na2vs0mg"},{"bike_id":"9cb02a91-73a5-4b50-81eb-3e03bba33a7e","system_id":"levelo_inurba_marseille","lat":43.26494,"lon":5.39546,"is_reserved":false,"is_disabled":false,"rental_uris":{"android":"levelo://app?vid=9cb02a91-73a5-4b50-81eb-3e03bba33a7e","ios":"levelo://app?vid=9cb02a91-73a5-4b50-81eb-3e03bba33a7e"},"vehicle_type_id":"4","last_reported":1728310119,"current_range_meters":8400,"station_id":"ce4bhi12rcd13ifvqfq0","pricing_plan_id":"cebpf4jnsgd1na2vs0mg"},{"bike_id":"2a00e36e-7940-4ebb-a8a4-0b760fe6576a","system_id":"levelo_inurba_marseille","lat":43.24806,"lon":5.37459,"is_reserved":false,"is_disabled":false,"rental_uris":{"android":"levelo://app?vid=2a00e36e-7940-4ebb-a8a4-0b760fe6576a","ios":"levelo://app?vid=2a00e36e-7940-4ebb-a8a4-0b760fe6576a"},"vehicle_type_id":"4","last_reported":1728310119,"current_range_meters":8400,"station_id":"ce4bhgh2rcd13ifvqfb0","pricing_plan_id":"cebpf4jnsgd1na2vs0mg"},{"bike_id":"f1a587de-a4d9-42a8-8fe6-d4518f6dd1b0","system_id":"levelo_inurba_marseille","lat":43.23063,"lon":5.35493,"is_reserved":false,"is_disabled":false,"rental_uris":{"android":"levelo://app?vid=f1a587de-a4d9-42a8-8fe6-d4518f6dd1b0","ios":"levelo://app?vid=f1a587de-a4d9-42a8-8fe6-d4518f6dd1b0"},"vehicle_type_id":"4","last_reported":1728310119,"current_range_meters":11600,"station_id":"cpo3342slgdg3j2ifvpg","pricing_plan_id":"cebpf4jnsgd1na2vs0mg"},{"bike_id":"6b4618ac-bf15-42bd-b8ce-f62f3e28352b","system_id":"levelo_inurba_marseille","lat":43.23193,"lon":5.35554,"is_reserved":false,"is_disabled":false,"rental_uris":{"android":"levelo://app?vid=6b4618ac-bf15-42bd-b8ce-f62f3e28352b","ios":"levelo://app?vid=6b4618ac-bf15-42bd-b8ce-f62f3e28352b"},"vehicle_type_id":"4","last_reported":1728310119,"current_range_meters":33200,"station_id":"ce4bhu92rcd13ifvqi70","pricing_plan_id":"cebpf4jnsgd1na2vs0mg"},{"bike_id":"c5cc1804-4911-44c5-b981-8cd2650cc231","system_id":"levelo_inurba_marseille","lat":43.30155,"lon":5.38088,"is_reserved":false,"is_disabled":false,"rental_uris":{"android":"levelo://app?vid=c5cc1804-4911-44c5-b981-8cd2650cc231","ios":"levelo://app?vid=c5cc1804-4911-44c5-b981-8cd2650cc231"},"vehicle_type_id":"4","last_reported":1728310119,"current_range_meters":36400,"station_id":"ce4bgjp2rcd13ifvqbh0","pricing_plan_id":"cebpf4jnsgd1na2vs0mg"},{"bike_id":"a69fd01b-3806-4b2c-a0dc-9fb7dfe4ac36","system_id":"levelo_inurba_marseille","lat":43.33025,"lon":5.39041,"is_reserved":false,"is_disabled":false,"rental_uris":{"android":"levelo://app?vid=a69fd01b-3806-4b2c-a0dc-9fb7dfe4ac36","ios":"levelo://app?vid=a69fd01b-3806-4b2c-a0dc-9fb7dfe4ac36"},"vehicle_type_id":"4","last_reported":1728310119,"current_range_meters":26000,"station_id":"ce4bhr92rcd13ifvqhrg","pricing_plan_id":"cebpf4jnsgd1na2vs0mg"},{"bike_id":"5a609caa-1bea-451b-9551-4835d1dfa968","system_id":"levelo_inurba_marseille","lat":43.31349,"lon":5.36717,"is_reserved":false,"is_disabled":false,"rental_uris":{"android":"levelo://app?vid=5a609caa-1bea-451b-9551-4835d1dfa968","ios":"levelo://app?vid=5a609caa-1bea-451b-9551-4835d1dfa968"},"vehicle_type_id":"4","last_reported":1728310119,"current_range_meters":30400,"station_id":"ce4bgr92rcd13ifvqc6g","pricing_plan_id":"cebpf4jnsgd1na2vs0mg"},{"bike_id":"65cf87a0-f755-4c25-bc3f-c7bc1093ce46","system_id":"levelo_inurba_marseille","lat":43.33023,"lon":5.39045,"is_reserved":false,"is_disabled":false,"rental_uris":{"android":"levelo://app?vid=65cf87a0-f755-4c25-bc3f-c7bc1093ce46","ios":"levelo://app?vid=65cf87a0-f755-4c25-bc3f-c7bc1093ce46"},"vehicle_type_id":"4","last_reported":1728310119,"current_range_meters":22400,"station_id":"ce4bhr92rcd13ifvqhrg","pricing_plan_id":"cebpf4jnsgd1na2vs0mg"},{"bike_id":"6f046703-cdc1-4740-bc2c-42035880a3eb","system_id":"levelo_inurba_marseille","lat":43.28001,"lon":5.40012,"is_reserved":false,"is_disabled":false,"rental_uris":{"android":"levelo://app?vid=6f046703-cdc1-4740-bc2c-42035880a3eb","ios":"levelo://app?vid=6f046703-cdc1-4740-bc2c-42035880a3eb"},"vehicle_type_id":"4","last_reported":1728310119,"current_range_meters":31200,"station_id":"ce4bho92rcd13ifvqh4g","pricing_plan_id":"cebpf4jnsgd1na2vs0mg"},{"bike_id":"71a1efee-51f9-4dd9-be1f-92690dbfa1a0","system_id":"levelo_inurba_marseille","lat":43.32654,"lon":5.40993,"is_reserved":false,"is_disabled":false,"rental_uris":{"android":"levelo://app?vid=71a1efee-51f9-4dd9-be1f-92690dbfa1a0","ios":"levelo://app?vid=71a1efee-51f9-4dd9-be1f-92690dbfa1a0"},"vehicle_type_id":"4","last_reported":1728310119,"current_range_meters":38800,"station_id":"ce4bhpp2rcd13ifvqhgg","pricing_plan_id":"cebpf4jnsgd1na2vs0mg"},{"bike_id":"481b7fa0-9287-46f7-aafe-0ea9386bd9be","system_id":"levelo_inurba_marseille","lat":43.27432,"lon":5.39409,"is_reserved":false,"is_disabled":false,"rental_uris":{"android":"levelo://app?vid=481b7fa0-9287-46f7-aafe-0ea9386bd9be","ios":"levelo://app?vid=481b7fa0-9287-46f7-aafe-0ea9386bd9be"},"vehicle_type_id":"4","last_reported":1728310119,"current_range_meters":32400,"station_id":"ce4bhdp2rcd13ifvqf20","pricing_plan_id":"cebpf4jnsgd1na2vs0mg"},{"bike_id":"25fca34d-d1d1-4912-9ad1-ead795e3fa9a","system_id":"levelo_inurba_marseille","lat":43.3089,"lon":5.37303,"is_reserved":false,"is_disabled":false,"rental_uris":{"android":"levelo://app?vid=25fca34d-d1d1-4912-9ad1-ead795e3fa9a","ios":"levelo://app?vid=25fca34d-d1d1-4912-9ad1-ead795e3fa9a"},"vehicle_type_id":"4","last_reported":1728310119,"current_range_meters":36000,"station_id":"","pricing_plan_id":"cebpf4jnsgd1na2vs0mg"},{"bike_id":"14640a97-4b98-4f68-b77c-f78d03d06873","system_id":"levelo_inurba_marseille","lat":43.314587,"lon":5.383977,"is_reserved":false,"is_disabled":false,"rental_uris":{"android":"levelo://app?vid=14640a97-4b98-4f68-b77c-f78d03d06873","ios":"levelo://app?vid=14640a97-4b98-4f68-b77c-f78d03d06873"},"vehicle_type_id":"4","last_reported":1728310119,"current_range_meters":28000,"station_id":"ce4bgt92rcd13ifvqcf0","pricing_plan_id":"cebpf4jnsgd1na2vs0mg"},{"bike_id":"23be5d4b-a160-4df5-8f45-6a04bc1ea92b","system_id":"levelo_inurba_marseille","lat":43.29787,"lon":5.37105,"is_reserved":false,"is_disabled":false,"rental_uris":{"android":"levelo://app?vid=23be5d4b-a160-4df5-8f45-6a04bc1ea92b","ios":"levelo://app?vid=23be5d4b-a160-4df5-8f45-6a04bc1ea92b"},"vehicle_type_id":"4","last_reported":1728310119,"current_range_meters":16000,"station_id":"ce4bgop2rcd13ifvqc1g","pricing_plan_id":"cebpf4jnsgd1na2vs0mg"},{"bike_id":"430aa45d-86c9-4eae-b114-50f8b5798210","system_id":"levelo_inurba_marseille","lat":43.28673,"lon":5.386666,"is_reserved":false,"is_disabled":false,"rental_uris":{"android":"levelo://app?vid=430aa45d-86c9-4eae-b114-50f8b5798210","ios":"levelo://app?vid=430aa45d-86c9-4eae-b114-50f8b5798210"},"vehicle_type_id":"4","last_reported":1728310119,"current_range_meters":30400,"station_id":"ce4bh492rcd13ifvqdug","pricing_plan_id":"cebpf4jnsgd1na2vs0mg"},{"bike_id":"8311540e-06e6-4f8c-9f75-d28d3b3022ed","system_id":"levelo_inurba_marseille","lat":43.28034,"lon":5.36943,"is_reserved":false,"is_disabled":false,"rental_uris":{"android":"levelo://app?vid=8311540e-06e6-4f8c-9f75-d28d3b3022ed","ios":"levelo://app?vid=8311540e-06e6-4f8c-9f75-d28d3b3022ed"},"vehicle_type_id":"4","last_reported":1728310119,"current_range_meters":28800,"station_id":"ce4bha12rcd13ifvqef0","pricing_plan_id":"cebpf4jnsgd1na2vs0mg"},{"bike_id":"926380f0-4ec2-45d5-8c58-de39b75f601e","system_id":"levelo_inurba_marseille","lat":43.23064,"lon":5.3549,"is_reserved":false,"is_disabled":false,"rental_uris":{"android":"levelo://app?vid=926380f0-4ec2-45d5-8c58-de39b75f601e","ios":"levelo://app?vid=926380f0-4ec2-45d5-8c58-de39b75f601e"},"vehicle_type_id":"4","last_reported":1728310119,"current_range_meters":16400,"station_id":"cpo3342slgdg3j2ifvpg","pricing_plan_id":"cebpf4jnsgd1na2vs0mg"},{"bike_id":"f6e4e970-5306-4145-9423-2196716cdeb6","system_id":"levelo_inurba_marseille","lat":43.29583,"lon":5.36733,"is_reserved":false,"is_disabled":false,"rental_uris":{"android":"levelo://app?vid=f6e4e970-5306-4145-9423-2196716cdeb6","ios":"levelo://app?vid=f6e4e970-5306-4145-9423-2196716cdeb6"},"vehicle_type_id":"4","last_reported":1728310119,"current_range_meters":24800,"station_id":"ce4bgph2rcd13ifvqc2g","pricing_plan_id":"cebpf4jnsgd1na2vs0mg"},{"bike_id":"97edeecb-1b06-4ab3-a034-4abbe74d88a1","system_id":"levelo_inurba_marseille","lat":43.30887,"lon":5.37203,"is_reserved":false,"is_disabled":false,"rental_uris":{"android":"levelo://app?vid=97edeecb-1b06-4ab3-a034-4abbe74d88a1","ios":"levelo://app?vid=97edeecb-1b06-4ab3-a034-4abbe74d88a1"},"vehicle_type_id":"4","last_reported":1728310119,"current_range_meters":38800,"station_id":"ce4bguh2rcd13ifvqckg","pricing_plan_id":"cebpf4jnsgd1na2vs0mg"},{"bike_id":"ca672831-f132-4f57-8c1a-dd1729e7af1d","system_id":"levelo_inurba_marseille","lat":43.28078,"lon":5.39659,"is_reserved":false,"is_disabled":false,"rental_uris":{"android":"levelo://app?vid=ca672831-f132-4f57-8c1a-dd1729e7af1d","ios":"levelo://app?vid=ca672831-f132-4f57-8c1a-dd1729e7af1d"},"vehicle_type_id":"4","last_reported":1728310119,"current_range_meters":19200,"station_id":"ce4bho12rcd13ifvqh2g","pricing_plan_id":"cebpf4jnsgd1na2vs0mg"},{"bike_id":"c33b8e22-7381-4842-b97a-b8cff2797062","system_id":"levelo_inurba_marseille","lat":43.30654,"lon":5.40103,"is_reserved":false,"is_disabled":false,"rental_uris":{"android":"levelo://app?vid=c33b8e22-7381-4842-b97a-b8cff2797062","ios":"levelo://app?vid=c33b8e22-7381-4842-b97a-b8cff2797062"},"vehicle_type_id":"4","last_reported":1728310119,"current_range_meters":30800,"station_id":"ce4bh112rcd13ifvqda0","pricing_plan_id":"cebpf4jnsgd1na2vs0mg"},{"bike_id":"e7fb5936-ea5d-4369-85a4-85843247cdd0","system_id":"levelo_inurba_marseille","lat":43.31323,"lon":5.37033,"is_reserved":false,"is_disabled":false,"rental_uris":{"android":"levelo://app?vid=e7fb5936-ea5d-4369-85a4-85843247cdd0","ios":"levelo://app?vid=e7fb5936-ea5d-4369-85a4-85843247cdd0"},"vehicle_type_id":"4","last_reported":1728310119,"current_range_meters":32400,"station_id":"","pricing_plan_id":"cebpf4jnsgd1na2vs0mg"},{"bike_id":"ab6e6edb-0739-4561-acb1-ffa3c039975c","system_id":"levelo_inurba_marseille","lat":43.26034,"lon":5.37548,"is_reserved":false,"is_disabled":false,"rental_uris":{"android":"levelo://app?vid=ab6e6edb-0739-4561-acb1-ffa3c039975c","ios":"levelo://app?vid=ab6e6edb-0739-4561-acb1-ffa3c039975c"},"vehicle_type_id":"4","last_reported":1728310119,"current_range_meters":25600,"station_id":"ce4bhgh2rcd13ifvqfa0","pricing_plan_id":"cebpf4jnsgd1na2vs0mg"},{"bike_id":"55f60291-0c24-40ec-bd13-614d92df54b6","system_id":"levelo_inurba_marseille","lat":43.30933,"lon":5.40146,"is_reserved":false,"is_disabled":false,"rental_uris":{"android":"levelo://app?vid=55f60291-0c24-40ec-bd13-614d92df54b6","ios":"levelo://app?vid=55f60291-0c24-40ec-bd13-614d92df54b6"},"vehicle_type_id":"4","last_reported":1728310119,"current_range_meters":36000,"station_id":"ce4bgvp2rcd13ifvqct0","pricing_plan_id":"cebpf4jnsgd1na2vs0mg"},{"bike_id":"cf103bc3-846c-4937-9f52-3983e21f817e","system_id":"levelo_inurba_marseille","lat":43.27953,"lon":5.41051,"is_reserved":false,"is_disabled":false,"rental_uris":{"android":"levelo://app?vid=cf103bc3-846c-4937-9f52-3983e21f817e","ios":"levelo://app?vid=cf103bc3-846c-4937-9f52-3983e21f817e"},"vehicle_type_id":"4","last_reported":1728310119,"current_range_meters":30800,"station_id":"ce4bhnp2rcd13ifvqh0g","pricing_plan_id":"cebpf4jnsgd1na2vs0mg"},{"bike_id":"110fa5eb-a685-46d3-b14f-bd0b0ea7d353","system_id":"levelo_inurba_marseille","lat":43.29869,"lon":5.39741,"is_reserved":false,"is_disabled":false,"rental_uris":{"android":"levelo://app?vid=110fa5eb-a685-46d3-b14f-bd0b0ea7d353","ios":"levelo://app?vid=110fa5eb-a685-46d3-b14f-bd0b0ea7d353"},"vehicle_type_id":"4","last_reported":1728310119,"current_range_meters":19200,"station_id":"ce4bh0h2rcd13ifvqd50","pricing_plan_id":"cebpf4jnsgd1na2vs0mg"},{"bike_id":"9aac7612-b9b7-4180-ae0e-3326a7e2dbbd","system_id":"levelo_inurba_marseille","lat":43.2971,"lon":5.36621,"is_reserved":false,"is_disabled":false,"rental_uris":{"android":"levelo://app?vid=9aac7612-b9b7-4180-ae0e-3326a7e2dbbd","ios":"levelo://app?vid=9aac7612-b9b7-4180-ae0e-3326a7e2dbbd"},"vehicle_type_id":"4","last_reported":1728310119,"current_range_meters":8400,"station_id":"ce4bgn12rcd13ifvqbt0","pricing_plan_id":"cebpf4jnsgd1na2vs0mg"},{"bike_id":"8f58d749-1d36-43b5-980e-62a7c88a971e","system_id":"levelo_inurba_marseille","lat":43.31124,"lon":5.36944,"is_reserved":false,"is_disabled":false,"rental_uris":{"android":"levelo://app?vid=8f58d749-1d36-43b5-980e-62a7c88a971e","ios":"levelo://app?vid=8f58d749-1d36-43b5-980e-62a7c88a971e"},"vehicle_type_id":"4","last_reported":1728310119,"current_range_meters":30000,"station_id":"","pricing_plan_id":"cebpf4jnsgd1na2vs0mg"},{"bike_id":"79aef44b-1f2b-4a57-8e78-afda19a3af62","system_id":"levelo_inurba_marseille","lat":43.30136,"lon":5.3878,"is_reserved":false,"is_disabled":false,"rental_uris":{"android":"levelo://app?vid=79aef44b-1f2b-4a57-8e78-afda19a3af62","ios":"levelo://app?vid=79aef44b-1f2b-4a57-8e78-afda19a3af62"},"vehicle_type_id":"4","last_reported":1728310119,"current_range_meters":33600,"station_id":"ce4bghh2rcd13ifvqb60","pricing_plan_id":"cebpf4jnsgd1na2vs0mg"},{"bike_id":"17ec6850-4fe5-4a9f-8672-ad0b08af2b6b","system_id":"levelo_inurba_marseille","lat":43.29263,"lon":5.3844,"is_reserved":false,"is_disabled":false,"rental_uris":{"android":"levelo://app?vid=17ec6850-4fe5-4a9f-8672-ad0b08af2b6b","ios":"levelo://app?vid=17ec6850-4fe5-4a9f-8672-ad0b08af2b6b"},"vehicle_type_id":"4","last_reported":1728310119,"current_range_meters":13600,"station_id":"ce4bh692rcd13ifvqea0","pricing_plan_id":"cebpf4jnsgd1na2vs0mg"},{"bike_id":"5470a415-1840-43b1-b3ff-d642b0682683","system_id":"levelo_inurba_marseille","lat":43.27055,"lon":5.40263,"is_reserved":false,"is_disabled":false,"rental_uris":{"android":"levelo://app?vid=5470a415-1840-43b1-b3ff-d642b0682683","ios":"levelo://app?vid=5470a415-1840-43b1-b3ff-d642b0682683"},"vehicle_type_id":"4","last_reported":1728310119,"current_range_meters":4000,"station_id":"ce4bhk92rcd13ifvqgc0","pricing_plan_id":"cebpf4jnsgd1na2vs0mg"},{"bike_id":"475e0eb9-a4d5-4b17-a1bf-e8dd8e446492","system_id":"levelo_inurba_marseille","lat":43.29789,"lon":5.38109,"is_reserved":false,"is_disabled":false,"rental_uris":{"android":"levelo://app?vid=475e0eb9-a4d5-4b17-a1bf-e8dd8e446492","ios":"levelo://app?vid=475e0eb9-a4d5-4b17-a1bf-e8dd8e446492"},"vehicle_type_id":"4","last_reported":1728310119,"current_range_meters":38800,"station_id":"ce4bgip2rcd13ifvqbb0","pricing_plan_id":"cebpf4jnsgd1na2vs0mg"},{"bike_id":"d2b130b0-8341-4d91-86a6-dab3c63d8bd5","system_id":"levelo_inurba_marseille","lat":43.24181,"lon":5.39723,"is_reserved":false,"is_disabled":false,"rental_uris":{"android":"levelo://app?vid=d2b130b0-8341-4d91-86a6-dab3c63d8bd5","ios":"levelo://app?vid=d2b130b0-8341-4d91-86a6-dab3c63d8bd5"},"vehicle_type_id":"4","last_reported":1728310119,"current_range_meters":27600,"station_id":"ce4bhn12rcd13ifvqgpg","pricing_plan_id":"cebpf4jnsgd1na2vs0mg"},{"bike_id":"062c735b-9e2e-4d95-8ba0-c53c606015a8","system_id":"levelo_inurba_marseille","lat":43.28155,"lon":5.42653,"is_reserved":false,"is_disabled":false,"rental_uris":{"android":"levelo://app?vid=062c735b-9e2e-4d95-8ba0-c53c606015a8","ios":"levelo://app?vid=062c735b-9e2e-4d95-8ba0-c53c606015a8"},"vehicle_type_id":"4","last_reported":1728310119,"current_range_meters":37600,"station_id":"ce4bhnh2rcd13ifvqgug","pricing_plan_id":"cebpf4jnsgd1na2vs0mg"},{"bike_id":"72a07472-f9ee-43d4-aa35-f56aae216be9","system_id":"levelo_inurba_marseille","lat":43.30144,"lon":5.38778,"is_reserved":false,"is_disabled":false,"rental_uris":{"android":"levelo://app?vid=72a07472-f9ee-43d4-aa35-f56aae216be9","ios":"levelo://app?vid=72a07472-f9ee-43d4-aa35-f56aae216be9"},"vehicle_type_id":"4","last_reported":1728310119,"current_range_meters":14000,"station_id":"ce4bghh2rcd13ifvqb60","pricing_plan_id":"cebpf4jnsgd1na2vs0mg"},{"bike_id":"2f8cc667-ebbd-4189-ab70-c4497a9aba9b","system_id":"levelo_inurba_marseille","lat":43.30643,"lon":5.40071,"is_reserved":false,"is_disabled":false,"rental_uris":{"android":"levelo://app?vid=2f8cc667-ebbd-4189-ab70-c4497a9aba9b","ios":"levelo://app?vid=2f8cc667-ebbd-4189-ab70-c4497a9aba9b"},"vehicle_type_id":"4","last_reported":1728310119,"current_range_meters":11600,"station_id":"ce4bh112rcd13ifvqda0","pricing_plan_id":"cebpf4jnsgd1na2vs0mg"},{"bike_id":"421f977d-c4d7-49e1-b2e2-9e3583f25fa2","system_id":"levelo_inurba_marseille","lat":43.29037,"lon":5.37566,"is_reserved":false,"is_disabled":false,"rental_uris":{"android":"levelo://app?vid=421f977d-c4d7-49e1-b2e2-9e3583f25fa2","ios":"levelo://app?vid=421f977d-c4d7-49e1-b2e2-9e3583f25fa2"},"vehicle_type_id":"4","last_reported":1728310119,"current_range_meters":6400,"station_id":"ce4bh692rcd13ifvqe90","pricing_plan_id":"cebpf4jnsgd1na2vs0mg"},{"bike_id":"af101257-97d8-427d-926c-bfd575a5c827","system_id":"levelo_inurba_marseille","lat":43.23067,"lon":5.35486,"is_reserved":false,"is_disabled":false,"rental_uris":{"android":"levelo://app?vid=af101257-97d8-427d-926c-bfd575a5c827","ios":"levelo://app?vid=af101257-97d8-427d-926c-bfd575a5c827"},"vehicle_type_id":"4","last_reported":1728310119,"current_range_meters":9600,"station_id":"cpo3342slgdg3j2ifvpg","pricing_plan_id":"cebpf4jnsgd1na2vs0mg"},{"bike_id":"79d4ce44-dde0-4856-adfb-9d048612b764","system_id":"levelo_inurba_marseille","lat":43.24173,"lon":5.36397,"is_reserved":false,"is_disabled":false,"rental_uris":{"android":"levelo://app?vid=79d4ce44-dde0-4856-adfb-9d048612b764","ios":"levelo://app?vid=79d4ce44-dde0-4856-adfb-9d048612b764"},"vehicle_type_id":"4","last_reported":1728310119,"current_range_meters":28400,"station_id":"cpo36qri1sfpv3e86is0","pricing_plan_id":"cebpf4jnsgd1na2vs0mg"},{"bike_id":"a3d5cfb4-d35b-4563-a9ae-e4550614fa56","system_id":"levelo_inurba_marseille","lat":43.28262,"lon":5.35058,"is_reserved":false,"is_disabled":false,"rental_uris":{"android":"levelo://app?vid=a3d5cfb4-d35b-4563-a9ae-e4550614fa56","ios":"levelo://app?vid=a3d5cfb4-d35b-4563-a9ae-e4550614fa56"},"vehicle_type_id":"4","last_reported":1728310119,"current_range_meters":38800,"station_id":"ce4bhbp2rcd13ifvqerg","pricing_plan_id":"cebpf4jnsgd1na2vs0mg"},{"bike_id":"6362dd7e-711b-4b82-af8e-291ea8f6ea1e","system_id":"levelo_inurba_marseille","lat":43.23068,"lon":5.35493,"is_reserved":false,"is_disabled":false,"rental_uris":{"android":"levelo://app?vid=6362dd7e-711b-4b82-af8e-291ea8f6ea1e","ios":"levelo://app?vid=6362dd7e-711b-4b82-af8e-291ea8f6ea1e"},"vehicle_type_id":"4","last_reported":1728310119,"current_range_meters":26000,"station_id":"cpo3342slgdg3j2ifvpg","pricing_plan_id":"cebpf4jnsgd1na2vs0mg"},{"bike_id":"5786a073-7039-49f5-afe1-361d229ae250","system_id":"levelo_inurba_marseille","lat":43.29852,"lon":5.36284,"is_reserved":false,"is_disabled":false,"rental_uris":{"android":"levelo://app?vid=5786a073-7039-49f5-afe1-361d229ae250","ios":"levelo://app?vid=5786a073-7039-49f5-afe1-361d229ae250"},"vehicle_type_id":"4","last_reported":1728310119,"current_range_meters":38800,"station_id":"ce4bgpp2rcd13ifvqc3g","pricing_plan_id":"cebpf4jnsgd1na2vs0mg"},{"bike_id":"a8b8d57f-d6ba-4426-ab67-df5ad9dd9584","system_id":"levelo_inurba_marseille","lat":43.31269,"lon":5.40163,"is_reserved":false,"is_disabled":false,"rental_uris":{"android":"levelo://app?vid=a8b8d57f-d6ba-4426-ab67-df5ad9dd9584","ios":"levelo://app?vid=a8b8d57f-d6ba-4426-ab67-df5ad9dd9584"},"vehicle_type_id":"4","last_reported":1728310119,"current_range_meters":29600,"station_id":"ce4bh092rcd13ifvqd30","pricing_plan_id":"cebpf4jnsgd1na2vs0mg"},{"bike_id":"d8d94e1f-c6be-46b5-b1ab-2210c0576c49","system_id":"levelo_inurba_marseille","lat":43.26552,"lon":5.37287,"is_reserved":false,"is_disabled":false,"rental_uris":{"android":"levelo://app?vid=d8d94e1f-c6be-46b5-b1ab-2210c0576c49","ios":"levelo://app?vid=d8d94e1f-c6be-46b5-b1ab-2210c0576c49"},"vehicle_type_id":"4","last_reported":1728310119,"current_range_meters":6800,"station_id":"ce4bhg12rcd13ifvqf70","pricing_plan_id":"cebpf4jnsgd1na2vs0mg"},{"bike_id":"a6eb02c9-05b8-44b0-90b0-1198a1aead23","system_id":"levelo_inurba_marseille","lat":43.26058,"lon":5.3939,"is_reserved":false,"is_disabled":false,"rental_uris":{"android":"levelo://app?vid=a6eb02c9-05b8-44b0-90b0-1198a1aead23","ios":"levelo://app?vid=a6eb02c9-05b8-44b0-90b0-1198a1aead23"},"vehicle_type_id":"4","last_reported":1728310119,"current_range_meters":39200,"station_id":"ce4bhh92rcd13ifvqfj0","pricing_plan_id":"cebpf4jnsgd1na2vs0mg"},{"bike_id":"b8c88982-2e7d-4d3b-80be-19f873e3632e","system_id":"levelo_inurba_marseille","lat":43.30541,"lon":5.3655,"is_reserved":false,"is_disabled":false,"rental_uris":{"android":"levelo://app?vid=b8c88982-2e7d-4d3b-80be-19f873e3632e","ios":"levelo://app?vid=b8c88982-2e7d-4d3b-80be-19f873e3632e"},"vehicle_type_id":"4","last_reported":1728310119,"current_range_meters":22000,"station_id":"ce4bgs12rcd13ifvqcag","pricing_plan_id":"cebpf4jnsgd1na2vs0mg"},{"bike_id":"6e91b42d-0d9b-48d4-951f-0b3644d6ae66","system_id":"levelo_inurba_marseille","lat":43.28932,"lon":5.39623,"is_reserved":false,"is_disabled":false,"rental_uris":{"android":"levelo://app?vid=6e91b42d-0d9b-48d4-951f-0b3644d6ae66","ios":"levelo://app?vid=6e91b42d-0d9b-48d4-951f-0b3644d6ae66"},"vehicle_type_id":"4","last_reported":1728310119,"current_range_meters":38400,"station_id":"ce4bh3h2rcd13ifvqdn0","pricing_plan_id":"cebpf4jnsgd1na2vs0mg"},{"bike_id":"2ff64e05-9a18-43cc-a44e-9ffbec44777b","system_id":"levelo_inurba_marseille","lat":43.31359,"lon":5.36736,"is_reserved":false,"is_disabled":false,"rental_uris":{"android":"levelo://app?vid=2ff64e05-9a18-43cc-a44e-9ffbec44777b","ios":"levelo://app?vid=2ff64e05-9a18-43cc-a44e-9ffbec44777b"},"vehicle_type_id":"4","last_reported":1728310119,"current_range_meters":20000,"station_id":"ce4bgr92rcd13ifvqc6g","pricing_plan_id":"cebpf4jnsgd1na2vs0mg"},{"bike_id":"fbab334e-6568-46ac-88f7-b856d9d2d598","system_id":"levelo_inurba_marseille","lat":43.23196,"lon":5.35557,"is_reserved":false,"is_disabled":false,"rental_uris":{"android":"levelo://app?vid=fbab334e-6568-46ac-88f7-b856d9d2d598","ios":"levelo://app?vid=fbab334e-6568-46ac-88f7-b856d9d2d598"},"vehicle_type_id":"4","last_reported":1728310119,"current_range_meters":38800,"station_id":"ce4bhu92rcd13ifvqi70","pricing_plan_id":"cebpf4jnsgd1na2vs0mg"},{"bike_id":"a840b835-21ad-4d8e-9881-6c2d523cfa27","system_id":"levelo_inurba_marseille","lat":43.33721,"lon":5.39185,"is_reserved":false,"is_disabled":false,"rental_uris":{"android":"levelo://app?vid=a840b835-21ad-4d8e-9881-6c2d523cfa27","ios":"levelo://app?vid=a840b835-21ad-4d8e-9881-6c2d523cfa27"},"vehicle_type_id":"4","last_reported":1728310119,"current_range_meters":4800,"station_id":"ce4bhr92rcd13ifvqhsg","pricing_plan_id":"cebpf4jnsgd1na2vs0mg"},