{"last_updated":1723756100,"ttl":30,"version":"2.2","data":{"bikes":[{"bike_id":"42a78529-4601-4739-b2af-e4b9f11cb40e","system_id":"levelo_inurba_marseille","lat":43.313391,"lon":5.36706,"is_reserved":false,"is_disabled":false,"rental_uris":{"android":"levelo://app?vid=42a78529-4601-4739-b2af-e4b9f11cb40e","ios":"levelo://app?vid=42a78529-4601-4739-b2af-e4b9f11cb40e"},"vehicle_type_id":"4","last_reported":1723756100,"current_range_meters":20800,"station_id":"ce4bgr92rcd13ifvqc6g","pricing_plan_id":"cebpf4jnsgd1na2vs0mg"},{"bike_id":"809e59df-9283-479d-af67-cbd34ed97cef","system_id":"levelo_inurba_marseille","lat":43.312239,"lon":5.368562,"is_reserved":false,"is_disabled":false,"rental_uris":{"android":"levelo://app?vid=809e59df-9283-479d-af67-cbd34ed97cef","ios":"levelo://app?vid=809e59df-9283-479d-af67-cbd34ed97cef"},"vehicle_type_id":"4","last_reported":1723756100,"current_range_meters":31200,"station_id":"ce4bgl92rcd13ifvqbq0","pricing_plan_id":"cebpf4jnsgd1na2vs0mg"},{"bike_id":"c69235ca-711c-4846-8944-d3427b930929","system_id":"levelo_inurba_marseille","lat":43.312239,"lon":5.368562,"is_reserved":false,"is_disabled":false,"rental_uris":{"android":"levelo://app?vid=c69235ca-711c-4846-8944-d3427b930929","ios":"levelo://app?vid=c69235ca-711c-4846-8944-d3427b930929"},"vehicle_type_id":"4","last_reported":1723756100,"current_range_meters":8800,"station_id":"ce4bgl92rcd13ifvqbq0","pricing_plan_id":"cebpf4jnsgd1na2vs0mg"},{"bike_id":"d112b498-833e-4023-bf93-6ac7cddb2868","system_id":"levelo_inurba_marseille","lat":43.312239,"lon":5.368562,"is_reserved":false,"is_disabled":false,"rental_uris":{"android":"levelo://app?vid=d112b498-833e-4023-bf93-6ac7cddb2868","ios":"levelo://app?vid=d112b498-833e-4023-bf93-6ac7cddb2868"},"vehicle_type_id":"4","last_reported":1723756100,"current_range_meters":21600,"station_id":"ce4bgl92rcd13ifvqbq0","pricing_plan_id":"cebpf4jnsgd1na2vs0mg"},{"bike_id":"34764fa4-10ec-437b-81aa-03f4531cf40d","system_id":"levelo_inurba_marseille","lat":43.312239,"lon":5.368562,"is_reserved":false,"is_disabled":false,"rental_uris":{"android":"levelo://app?vid=34764fa4-10ec-437b-81aa-03f4531cf40d","ios":"levelo://app?vid=34764fa4-10ec-437b-81aa-03f4531cf40d"},"vehicle_type_id":"4","last_reported":1723756100,"current_range_meters":11600,"station_id":"ce4bgl92rcd13ifvqbq0","pricing_plan_id":"cebpf4jnsgd1na2vs0mg"},{"bike_id":"8e0fc8b9-759d-42dc-b9df-005de7e8ccf4","system_id":"levelo_inurba_marseille","lat":43.312239,"lon":5.368562,"is_reserved":false,"is_disabled":false,"rental_uris":{"android":"levelo://app?vid=8e0fc8b9-759d-42dc-b9df-005de7e8ccf4","ios":"levelo://app?vid=8e0fc8b9-759d-42dc-b9df-005de7e8ccf4"},"vehicle_type_id":"4","last_reported":1723756100,"current_range_meters":30800,"station_id":"ce4bgl92rcd13ifvqbq0","pricing_plan_id":"cebpf4jnsgd1na2vs0mg"},{"bike_id":"bc00a9ad-0f74-4d97-981b-dc991b0e219c","system_id":"levelo_inurba_marseille","lat":43.312239,"lon":5.368562,"is_reserved":false,"is_disabled":false,"rental_uris":{"android":"levelo://app?vid=bc00a9ad-0f74-4d97-981b-dc991b0e219c","ios":"levelo://app?vid=bc00a9ad-0f74-4d97-981b-dc991b0e219c"},"vehicle_type_id":"4","last_reported":1723756100,"current_range_meters":22400,"station_id":"ce4bgl92rcd13ifvqbq0","pricing_plan_id":"cebpf4jnsgd1na2vs0mg"},{"bike_id":"ffe059e1-7a3e-415e-a686-5e4ed2a0a6cb","system_id":"levelo_inurba_marseille","lat":43.312374,"lon":5.369162,"is_reserved":false,"is_disabled":false,"rental_uris":{"android":"levelo://app?vid=ffe059e1-7a3e-415e-a686-5e4ed2a0a6cb","ios":"levelo://app?vid=ffe059e1-7a3e-415e-a686-5e4ed2a0a6cb"},"vehicle_type_id":"4","last_reported":1723756100,"current_range_meters":19600,"station_id":"","pricing_plan_id":"cebpf4jnsgd1na2vs0mg"},{"bike_id":"3c6c8a4f-84f1-47ef-a7ea-07ebf627e822","system_id":"levelo_inurba_marseille","lat":43.314811,"lon":5.373103,"is_reserved":false,"is_disabled":false,"rental_uris":{"android":"levelo://app?vid=3c6c8a4f-84f1-47ef-a7ea-07ebf627e822","ios":"levelo://app?vid=3c6c8a4f-84f1-47ef-a7ea-07ebf627e822"},"vehicle_type_id":"4","last_reported":1723756100,"current_range_meters":24400,"station_id":"ce4bgt12rcd13ifvqcd0","pricing_plan_id":"cebpf4jnsgd1na2vs0mg"},{"bike_id":"db25ab03-0793-4422-a0cd-5b8a604f6bd8","system_id":"levelo_inurba_marseille","lat":43.30543,"lon":5.3672,"is_reserved":false,"is_disabled":false,"rental_uris":{"android":"levelo://app?vid=db25ab03-0793-4422-a0cd-5b8a604f6bd8","ios":"levelo://app?vid=db25ab03-0793-4422-a0cd-5b8a604f6bd8"},"vehicle_type_id":"4","last_reported":1723756100,"current_range_meters":23600,"station_id":"ce4bgrp2rcd13ifvqc9g","pricing_plan_id":"cebpf4jnsgd1na2vs0mg"},{"bike_id":"241e0920-763f-487c-b0b7-65942d0a660c","system_id":"levelo_inurba_marseille","lat":43.30537,"lon":5.36709,"is_reserved":false,"is_disabled":false,"rental_uris":{"android":"levelo://app?vid=241e0920-763f-487c-b0b7-65942d0a660c","ios":"levelo://app?vid=241e0920-763f-487c-b0b7-65942d0a660c"},"vehicle_type_id":"4","last_reported":1723756100,"current_range_meters":24400,"station_id":"ce4bgrp2rcd13ifvqc9g","pricing_plan_id":"cebpf4jnsgd1na2vs0mg"},{"bike_id":"9003cadb-02fa-4fca-83d8-1de1a9b00b02","system_id":"levelo_inurba_marseille","lat":43.30537,"lon":5.367345,"is_reserved":false,"is_disabled":false,"rental_uris":{"android":"levelo://app?vid=9003cadb-02fa-4fca-83d8-1de1a9b00b02","ios":"levelo://app?vid=9003cadb-02fa-4fca-83d8-1de1a9b00b02"},"vehicle_type_id":"4","last_reported":1723756100,"current_range_meters":22800,"station_id":"ce4bgrp2rcd13ifvqc9g","pricing_plan_id":"cebpf4jnsgd1na2vs0mg"},{"bike_id":"f18fec8e-4251-4eef-8f67-0ef89eac4341","system_id":"levelo_inurba_marseille","lat":43.31113,"lon":5.37769,"is_reserved":false,"is_disabled":false,"rental_uris":{"android":"levelo://app?vid=f18fec8e-4251-4eef-8f67-0ef89eac4341","ios":"levelo://app?vid=f18fec8e-4251-4eef-8f67-0ef89eac4341"},"vehicle_type_id":"4","last_reported":1723756100,"current_range_meters":14800,"station_id":"ce4bgt92rcd13ifvqcg0","pricing_plan_id":"cebpf4jnsgd1na2vs0mg"},{"bike_id":"c0170b3e-1c96-45f5-8caf-1fd92ce51544","system_id":"levelo_inurba_marseille","lat":43.311131,"lon":5.377651,"is_reserved":false,"is_disabled":false,"rental_uris":{"android":"levelo://app?vid=c0170b3e-1c96-45f5-8caf-1fd92ce51544","ios":"levelo://app?vid=c0170b3e-1c96-45f5-8caf-1fd92ce51544"},"vehicle_type_id":"4","last_reported":1723756100,"current_range_meters":16400,"station_id":"ce4bgt92rcd13ifvqcg0","pricing_plan_id":"cebpf4jnsgd1na2vs0mg"},{"bike_id":"7be836fa-f2e4-4475-885e-e28e2674ada4","system_id":"levelo_inurba_marseille","lat":43.311125,"lon":5.377624,"is_reserved":false,"is_disabled":false,"rental_uris":{"android":"levelo://app?vid=7be836fa-f2e4-4475-885e-e28e2674ada4","ios":"levelo://app?vid=7be836fa-f2e4-4475-885e-e28e2674ada4"},"vehicle_type_id":"4","last_reported":1723756100,"current_range_meters":14000,"station_id":"ce4bgt92rcd13ifvqcg0","pricing_plan_id":"cebpf4jnsgd1na2vs0mg"},{"bike_id":"d0804f19-9e42-4178-bce6-b9cd61543870","system_id":"levelo_inurba_marseille","lat":43.311104,"lon":5.377779,"is_reserved":false,"is_disabled":false,"rental_uris":{"android":"levelo://app?vid=d0804f19-9e42-4178-bce6-b9cd61543870","ios":"levelo://app?vid=d0804f19-9e42-4178-bce6-b9cd61543870"},"vehicle_type_id":"4","last_reported":1723756100,"current_range_meters":3600,"station_id":"ce4bgt92rcd13ifvqcg0","pricing_plan_id":"cebpf4jnsgd1na2vs0mg"},{"bike_id":"48da0b43-4432-46f3-8a00-72f42478a7e1","system_id":"levelo_inurba_marseille","lat":43.307945,"lon":5.376487,"is_reserved":false,"is_disabled":false,"rental_uris":{"android":"levelo://app?vid=48da0b43-4432-46f3-8a00-72f42478a7e1","ios":"levelo://app?vid=48da0b43-4432-46f3-8a00-72f42478a7e1"},"vehicle_type_id":"4","last_reported":1723756100,"current_range_meters":8000,"station_id":"ce4bgv92rcd13ifvqcq0","pricing_plan_id":"cebpf4jnsgd1na2vs0mg"},{"bike_id":"3c2053fc-8648-42ed-9607-0e99a3834bd7","system_id":"levelo_inurba_marseille","lat":43.317075,"lon":5.377367,"is_reserved":false,"is_disabled":false,"rental_uris":{"android":"levelo://app?vid=3c2053fc-8648-42ed-9607-0e99a3834bd7","ios":"levelo://app?vid=3c2053fc-8648-42ed-9607-0e99a3834bd7"},"vehicle_type_id":"4","last_reported":1723756100,"current_range_meters":31600,"station_id":"ce4bgth2rcd13ifvqch0","pricing_plan_id":"cebpf4jnsgd1na2vs0mg"},{"bike_id":"dea379b6-2f6d-4ecf-8103-26bd603cdc2b","system_id":"levelo_inurba_marseille","lat":43.30304,"lon":5.368987,"is_reserved":false,"is_disabled":false,"rental_uris":{"android":"levelo://app?vid=dea379b6-2f6d-4ecf-8103-26bd603cdc2b","ios":"levelo://app?vid=dea379b6-2f6d-4ecf-8103-26bd603cdc2b"},"vehicle_type_id":"4","last_reported":1723756100,"current_range_meters":10000,"station_id":"ce4bgqh2rcd13ifvqc5g","pricing_plan_id":"cebpf4jnsgd1na2vs0mg"},{"bike_id":"1805568c-9aec-44c8-9ca9-f1536fe89dae","system_id":"levelo_inurba_marseille","lat":43.30304,"lon":5.368987,"is_reserved":false,"is_disabled":false,"rental_uris":{"android":"levelo://app?vid=1805568c-9aec-44c8-9ca9-f1536fe89dae","ios":"levelo://app?vid=1805568c-9aec-44c8-9ca9-f1536fe89dae"},"vehicle_type_id":"4","last_reported":1723756100,"current_range_meters":19200,"station_id":"ce4bgqh2rcd13ifvqc5g","pricing_plan_id":"cebpf4jnsgd1na2vs0mg"},{"bike_id":"03e53526-afe4-40b4-8ffa-eb96f994a777","system_id":"levelo_inurba_marseille","lat":43.301939,"lon":5.366286,"is_reserved":false,"is_disabled":false,"rental_uris":{"android":"levelo://app?vid=03e53526-afe4-40b4-8ffa-eb96f994a777","ios":"levelo://app?vid=03e53526-afe4-40b4-8ffa-eb96f994a777"},"vehicle_type_id":"4","last_reported":1723756100,"current_range_meters":28800,"station_id":"ce4bgrh2rcd13ifvqc8g","pricing_plan_id":"cebpf4jnsgd1na2vs0mg"},{"bike_id":"5797a3cb-2806-4df3-a0ab-805c340c8ff4","system_id":"levelo_inurba_marseille","lat":43.303046,"lon":5.368981,"is_reserved":false,"is_disabled":false,"rental_uris":{"android":"levelo://app?vid=5797a3cb-2806-4df3-a0ab-805c340c8ff4","ios":"levelo://app?vid=5797a3cb-2806-4df3-a0ab-805c340c8ff4"},"vehicle_type_id":"4","last_reported":1723756100,"current_range_meters":7600,"station_id":"ce4bgqh2rcd13ifvqc5g","pricing_plan_id":"cebpf4jnsgd1na2vs0mg"},{"bike_id":"464b933f-b4c3-4ae1-b98e-53c9d3444ee3","system_id":"levelo_inurba_marseille","lat":43.303046,"lon":5.368981,"is_reserved":false,"is_disabled":false,"rental_uris":{"android":"levelo://app?vid=464b933f-b4c3-4ae1-b98e-53c9d3444ee3","ios":"levelo://app?vid=464b933f-b4c3-4ae1-b98e-53c9d3444ee3"},"vehicle_type_id":"4","last_reported":1723756100,"current_range_meters":30000,"station_id":"ce4bgqh2rcd13ifvqc5g","pricing_plan_id":"cebpf4jnsgd1na2vs0mg"},{"bike_id":"7682af56-6477-4d7d-a538-10955ad2807f","system_id":"levelo_inurba_marseille","lat":43.303046,"lon":5.368981,"is_reserved":false,"is_disabled":false,"rental_uris":{"android":"levelo://app?vid=7682af56-6477-4d7d-a538-10955ad2807f","ios":"levelo://app?vid=7682af56-6477-4d7d-a538-10955ad2807f"},"vehicle_type_id":"4","last_reported":1723756100,"current_range_meters":24800,"station_id":"ce4bgqh2rcd13ifvqc5g","pricing_plan_id":"cebpf4jnsgd1na2vs0mg"},{"bike_id":"e9e07284-6284-475c-83ae-768d8c4ed41d","system_id":"levelo_inurba_marseille","lat":43.303046,"lon":5.368981,"is_reserved":false,"is_disabled":false,"rental_uris":{"android":"levelo://app?vid=e9e07284-6284-475c-83ae-768d8c4ed41d","ios":"levelo://app?vid=e9e07284-6284-475c-83ae-768d8c4ed41d"},"vehicle_type_id":"4","last_reported":1723756100,"current_range_meters":27200,"station_id":"ce4bgqh2rcd13ifvqc5g","pricing_plan_id":"cebpf4jnsgd1na2vs0mg"},{"bike_id":"92182bdb-363f-4e50-aafe-85e4b32ec026","system_id":"levelo_inurba_marseille","lat":43.303046,"lon":5.368981,"is_reserved":false,"is_disabled":false,"rental_uris":{"android":"levelo://app?vid=92182bdb-363f-4e50-aafe-85e4b32ec026","ios":"levelo://app?vid=92182bdb-363f-4e50-aafe-85e4b32ec026"},"vehicle_type_id":"4","last_reported":1723756100,"current_range_meters":31200,"station_id":"ce4bgqh2rcd13ifvqc5g","pricing_plan_id":"cebpf4jnsgd1na2vs0mg"},{"bike_id":"dedbc7d0-c96a-4d48-a165-08965dc6667d","system_id":"levelo_inurba_marseille","lat":43.303046,"lon":5.368981,"is_reserved":false,"is_disabled":false,"rental_uris":{"android":"levelo://app?vid=dedbc7d0-c96a-4d48-a165-08965dc6667d","ios":"levelo://app?vid=dedbc7d0-c96a-4d48-a165-08965dc6667d"},"vehicle_type_id":"4","last_reported":1723756100,"current_range_meters":29600,"station_id":"ce4bgqh2rcd13ifvqc5g","pricing_plan_id":"cebpf4jnsgd1na2vs0mg"},{"bike_id":"507eada9-be27-4ef8-9a8e-825854a9dc4e","system_id":"levelo_inurba_marseille","lat":43.30309,"lon":5.36905,"is_reserved":false,"is_disabled":false,"rental_uris":{"android":"levelo://app?vid=507eada9-be27-4ef8-9a8e-825854a9dc4e","ios":"levelo://app?vid=507eada9-be27-4ef8-9a8e-825854a9dc4e"},"vehicle_type_id":"4","last_reported":1723756100,"current_range_meters":29600,"station_id":"ce4bgqh2rcd13ifvqc5g","pricing_plan_id":"cebpf4jnsgd1na2vs0mg"},{"bike_id":"9c7655d5-a2ac-4bd2-975d-f5c037f7c8ad","system_id":"levelo_inurba_marseille","lat":43.30304,"lon":5.368987,"is_reserved":false,"is_disabled":false,"rental_uris":{"android":"levelo://app?vid=9c7655d5-a2ac-4bd2-975d-f5c037f7c8ad","ios":"levelo://app?vid=9c7655d5-a2ac-4bd2-975d-f5c037f7c8ad"},"vehicle_type_id":"4","last_reported":1723756100,"current_range_meters":20000,"station_id":"ce4bgqh2rcd13ifvqc5g","pricing_plan_id":"cebpf4jnsgd1na2vs0mg"},{"bike_id":"f119f568-d0a7-44ba-9c86-b5b2dc1fbe46","system_id":"levelo_inurba_marseille","lat":43.30304,"lon":5.368987,"is_reserved":false,"is_disabled":false,"rental_uris":{"android":"levelo://app?vid=f119f568-d0a7-44ba-9c86-b5b2dc1fbe46","ios":"levelo://app?vid=f119f568-d0a7-44ba-9c86-b5b2dc1fbe46"},"vehicle_type_id":"4","last_reported":1723756100,"current_range_meters":12800,"station_id":"ce4bgqh2rcd13ifvqc5g","pricing_plan_id":"cebpf4jnsgd1na2vs0mg"},{"bike_id":"0b746f62-033f-497f-a352-186953579f9a","system_id":"levelo_inurba_marseille","lat":43.301939,"lon":5.366286,"is_reserved":false,"is_disabled":false,"rental_uris":{"android":"levelo://app?vid=0b746f62-033f-497f-a352-186953579f9a","ios":"levelo://app?vid=0b746f62-033f-497f-a352-186953579f9a"},"vehicle_type_id":"4","last_reported":1723756100,"current_range_meters":14000,"station_id":"ce4bgrh2rcd13ifvqc8g","pricing_plan_id":"cebpf4jnsgd1na2vs0mg"},{"bike_id":"fda07da7-46d3-4a37-9421-70f2ba83c6c2","system_id":"levelo_inurba_marseille","lat":43.301939,"lon":5.366286,"is_reserved":false,"is_disabled":false,"rental_uris":{"android":"levelo://app?vid=fda07da7-46d3-4a37-9421-70f2ba83c6c2","ios":"levelo://app?vid=fda07da7-46d3-4a37-9421-70f2ba83c6c2"},"vehicle_type_id":"4","last_reported":1723756100,"current_range_meters":2000,"station_id":"ce4bgrh2rcd13ifvqc8g","pricing_plan_id":"cebpf4jnsgd1na2vs0mg"},{"bike_id":"36645872-4a1c-40ae-8a5e-322c115ae647","system_id":"levelo_inurba_marseille","lat":43.301939,"lon":5.366286,"is_reserved":false,"is_disabled":false,"rental_uris":{"android":"levelo://app?vid=36645872-4a1c-40ae-8a5e-322c115ae647","ios":"levelo://app?vid=36645872-4a1c-40ae-8a5e-322c115ae647"},"vehicle_type_id":"4","last_reported":1723756100,"current_range_meters":24800,"station_id":"ce4bgrh2rcd13ifvqc8g","pricing_plan_id":"cebpf4jnsgd1na2vs0mg"},{"bike_id":"6a54957e-f623-42ea-be60-a34f348ee003","system_id":"levelo_inurba_marseille","lat":43.301939,"lon":5.366286,"is_reserved":false,"is_disabled":false,"rental_uris":{"android":"levelo://app?vid=6a54957e-f623-42ea-be60-a34f348ee003","ios":"levelo://app?vid=6a54957e-f623-42ea-be60-a34f348ee003"},"vehicle_type_id":"4","last_reported":1723756100,"current_range_meters":6800,"station_id":"ce4bgrh2rcd13ifvqc8g","pricing_plan_id":"cebpf4jnsgd1na2vs0mg"},{"bike_id":"ccaa83ec-b559-4241-a6fc-7530d19e4d72","system_id":"levelo_inurba_marseille","lat":43.301939,"lon":5.366286,"is_reserved":false,"is_disabled":false,"rental_uris":{"android":"levelo://app?vid=ccaa83ec-b559-4241-a6fc-7530d19e4d72","ios":"levelo://app?vid=ccaa83ec-b559-4241-a6fc-7530d19e4d72"},"vehicle_type_id":"4","last_reported":1723756100,"current_range_meters":30000,"station_id":"ce4bgrh2rcd13ifvqc8g","pricing_plan_id":"cebpf4jnsgd1na2vs0mg"},{"bike_id":"51319782-1af8-493e-be9e-de050a1b139a","system_id":"levelo_inurba_marseille","lat":43.301939,"lon":5.366286,"is_reserved":false,"is_disabled":false,"rental_uris":{"android":"levelo://app?vid=51319782-1af8-493e-be9e-de050a1b139a","ios":"levelo://app?vid=51319782-1af8-493e-be9e-de050a1b139a"},"vehicle_type_id":"4","last_reported":1723756100,"current_range_meters":31200,"station_id":"ce4bgrh2rcd13ifvqc8g","pricing_plan_id":"cebpf4jnsgd1na2vs0mg"},{"bike_id":"8475362c-a30a-41ba-b47f-fc1a6f22455c","system_id":"levelo_inurba_marseille","lat":43.301939,"lon":5.366286,"is_reserved":false,"is_disabled":false,"rental_uris":{"android":"levelo://app?vid=8475362c-a30a-41ba-b47f-fc1a6f22455c","ios":"levelo://app?vid=8475362c-a30a-41ba-b47f-fc1a6f22455c"},"vehicle_type_id":"4","last_reported":1723756100,"current_range_meters":31200,"station_id":"ce4bgrh2rcd13ifvqc8g","pricing_plan_id":"cebpf4jnsgd1na2vs0mg"},{"bike_id":"c963dfc5-e880-4196-a1cb-ac22f6737334","system_id":"levelo_inurba_marseille","lat":43.301939,"lon":5.366286,"is_reserved":false,"is_disabled":false,"rental_uris":{"android":"levelo://app?vid=c963dfc5-e880-4196-a1cb-ac22f6737334","ios":"levelo://app?vid=c963dfc5-e880-4196-a1cb-ac22f6737334"},"vehicle_type_id":"4","last_reported":1723756100,"current_range_meters":20800,"station_id":"ce4bgrh2rcd13ifvqc8g","pricing_plan_id":"cebpf4jnsgd1na2vs0mg"},{"bike_id":"50c8c3dc-3a97-4188-8ebd-1a1ddbef9cf9","system_id":"levelo_inurba_marseille","lat":43.301221,"lon":5.365609,"is_reserved":false,"is_disabled":false,"rental_uris":{"android":"levelo://app?vid=50c8c3dc-3a97-4188-8ebd-1a1ddbef9cf9","ios":"levelo://app?vid=50c8c3dc-3a97-4188-8ebd-1a1ddbef9cf9"},"vehicle_type_id":"4","last_reported":1723756100,"current_range_meters":0,"station_id":"","pricing_plan_id":"cebpf4jnsgd1na2vs0mg"},{"bike_id":"2988d394-d2c1-4eeb-833e-665d056eec1f","system_id":"levelo_inurba_marseille","lat":43.308012,"lon":5.381511,"is_reserved":false,"is_disabled":false,"rental_uris":{"android":"levelo://app?vid=2988d394-d2c1-4eeb-833e-665d056eec1f","ios":"levelo://app?vid=2988d394-d2c1-4eeb-833e-665d056eec1f"},"vehicle_type_id":"4","last_reported":1723756100,"current_range_meters":23600,"station_id":"ce4bgt12rcd13ifvqce0","pricing_plan_id":"cebpf4jnsgd1na2vs0mg"},{"bike_id":"9916a15a-2397-4a36-9dfb-6009315d1729","system_id":"levelo_inurba_marseille","lat":43.324771,"lon":5.36557,"is_reserved":false,"is_disabled":false,"rental_uris":{"android":"levelo://app?vid=9916a15a-2397-4a36-9dfb-6009315d1729","ios":"levelo://app?vid=9916a15a-2397-4a36-9dfb-6009315d1729"},"vehicle_type_id":"4","last_reported":1723756100,"current_range_meters":27200,"station_id":"ce4bhs12rcd13ifvqhvg","pricing_plan_id":"cebpf4jnsgd1na2vs0mg"},{"bike_id":"b0d45d71-3896-45da-b905-ac24e6bafff7","system_id":"levelo_inurba_marseille","lat":43.324771,"lon":5.36557,"is_reserved":false,"is_disabled":false,"rental_uris":{"android":"levelo://app?vid=b0d45d71-3896-45da-b905-ac24e6bafff7","ios":"levelo://app?vid=b0d45d71-3896-45da-b905-ac24e6bafff7"},"vehicle_type_id":"4","last_reported":1723756100,"current_range_meters":31600,"station_id":"ce4bhs12rcd13ifvqhvg","pricing_plan_id":"cebpf4jnsgd1na2vs0mg"},{"bike_id":"61f55f51-92f6-4dc4-b07a-e0779c29b7b2","system_id":"levelo_inurba_marseille","lat":43.324771,"lon":5.36557,"is_reserved":false,"is_disabled":false,"rental_uris":{"android":"levelo://app?vid=61f55f51-92f6-4dc4-b07a-e0779c29b7b2","ios":"levelo://app?vid=61f55f51-92f6-4dc4-b07a-e0779c29b7b2"},"vehicle_type_id":"4","last_reported":1723756100,"current_range_meters":32000,"station_id":"ce4bhs12rcd13ifvqhvg","pricing_plan_id":"cebpf4jnsgd1na2vs0mg"},{"bike_id":"f9ad0309-7f53-4d9b-9ddf-f24ce78ffb0d","system_id":"levelo_inurba_marseille","lat":43.324771,"lon":5.36557,"is_reserved":false,"is_disabled":false,"rental_uris":{"android":"levelo://app?vid=f9ad0309-7f53-4d9b-9ddf-f24ce78ffb0d","ios":"levelo://app?vid=f9ad0309-7f53-4d9b-9ddf-f24ce78ffb0d"},"vehicle_type_id":"4","last_reported":1723756100,"current_range_meters":5600,"station_id":"ce4bhs12rcd13ifvqhvg","pricing_plan_id":"cebpf4jnsgd1na2vs0mg"},{"bike_id":"0e679c1e-47f4-4765-b451-b0426c054405","system_id":"levelo_inurba_marseille","lat":43.324771,"lon":5.36557,"is_reserved":false,"is_disabled":false,"rental_uris":{"android":"levelo://app?vid=0e679c1e-47f4-4765-b451-b0426c054405","ios":"levelo://app?vid=0e679c1e-47f4-4765-b451-b0426c054405"},"vehicle_type_id":"4","last_reported":1723756100,"current_range_meters":6400,"station_id":"ce4bhs12rcd13ifvqhvg","pricing_plan_id":"cebpf4jnsgd1na2vs0mg"},{"bike_id":"b83bb2e9-52aa-4fdb-a21f-a0c2d28522b3","system_id":"levelo_inurba_marseille","lat":43.324771,"lon":5.36557,"is_reserved":false,"is_disabled":false,"rental_uris":{"android":"levelo://app?vid=b83bb2e9-52aa-4fdb-a21f-a0c2d28522b3","ios":"levelo://app?vid=b83bb2e9-52aa-4fdb-a21f-a0c2d28522b3"},"vehicle_type_id":"4","last_reported":1723756100,"current_range_meters":6400,"station_id":"ce4bhs12rcd13ifvqhvg","pricing_plan_id":"cebpf4jnsgd1na2vs0mg"},{"bike_id":"994ba6f9-8732-4564-8903-245ebfcbcb0a","system_id":"levelo_inurba_marseille","lat":43.324771,"lon":5.36557,"is_reserved":false,"is_disabled":false,"rental_uris":{"android":"levelo://app?vid=994ba6f9-8732-4564-8903-245ebfcbcb0a","ios":"levelo://app?vid=994ba6f9-8732-4564-8903-245ebfcbcb0a"},"vehicle_type_id":"4","last_reported":1723756100,"current_range_meters":3200,"station_id":"ce4bhs12rcd13ifvqhvg","pricing_plan_id":"cebpf4jnsgd1na2vs0mg"},{"bike_id":"e0db9e20-c00b-4152-9cc3-ec9856a09a94","system_id":"levelo_inurba_marseille","lat":43.324771,"lon":5.36557,"is_reserved":false,"is_disabled":false,"rental_uris":{"android":"levelo://app?vid=e0db9e20-c00b-4152-9cc3-ec9856a09a94","ios":"levelo://app?vid=e0db9e20-c00b-4152-9cc3-ec9856a09a94"},"vehicle_type_id":"4","last_reported":1723756100,"current_range_meters":16000,"station_id":"ce4bhs12rcd13ifvqhvg","pricing_plan_id":"cebpf4jnsgd1na2vs0mg"},{"bike_id":"787b3dbc-ce7e-46d2-b2a1-e0d84d29d9df","system_id":"levelo_inurba_marseille","lat":43.324771,"lon":5.36557,"is_reserved":false,"is_disabled":false,"rental_uris":{"android":"levelo://app?vid=787b3dbc-ce7e-46d2-b2a1-e0d84d29d9df","ios":"levelo://app?vid=787b3dbc-ce7e-46d2-b2a1-e0d84d29d9df"},"vehicle_type_id":"4","last_reported":1723756100,"current_range_meters":13600,"station_id":"ce4bhs12rcd13ifvqhvg","pricing_plan_id":"cebpf4jnsgd1na2vs0mg"},{"bike_id":"301b8677-78ae-4fa0-8bff-f61e6fe4843a","system_id":"levelo_inurba_marseille","lat":43.324771,"lon":5.36557,"is_reserved":false,"is_disabled":false,"rental_uris":{"android":"levelo://app?vid=301b8677-78ae-4fa0-8bff-f61e6fe4843a","ios":"levelo://app?vid=301b8677-78ae-4fa0-8bff-f61e6fe4843a"},"vehicle_type_id":"4","last_reported":1723756100,"current_range_meters":14800,"station_id":"ce4bhs12rcd13ifvqhvg","pricing_plan_id":"cebpf4jnsgd1na2vs0mg"},{"bike_id":"48e49614-b03f-48b3-9ae6-ccb190d5dac8","system_id":"levelo_inurba_marseille","lat":43.324771,"lon":5.36557,"is_reserved":false,"is_disabled":false,"rental_uris":{"android":"levelo://app?vid=48e49614-b03f-48b3-9ae6-ccb190d5dac8","ios":"levelo://app?vid=48e49614-b03f-48b3-9ae6-ccb190d5dac8"},"vehicle_type_id":"4","last_reported":1723756100,"current_range_meters":4800,"station_id":"ce4bhs12rcd13ifvqhvg","pricing_plan_id":"cebpf4jnsgd1na2vs0mg"},{"bike_id":"f5216d6e-26db-4d3a-94a4-36be5da01dd0","system_id":"levelo_inurba_marseille","lat":43.324771,"lon":5.36557,"is_reserved":false,"is_disabled":false,"rental_uris":{"android":"levelo://app?vid=f5216d6e-26db-4d3a-94a4-36be5da01dd0","ios":"levelo://app?vid=f5216d6e-26db-4d3a-94a4-36be5da01dd0"},"vehicle_type_id":"4","last_reported":1723756100,"current_range_meters":5200,"station_id":"ce4bhs12rcd13ifvqhvg","pricing_plan_id":"cebpf4jnsgd1na2vs0mg"},{"bike_id":"44680a61-b1de-4b9c-b689-2ab765a147aa","system_id":"levelo_inurba_marseille","lat":43.324771,"lon":5.36557,"is_reserved":false,"is_disabled":false,"rental_uris":{"android":"levelo://app?vid=44680a61-b1de-4b9c-b689-2ab765a147aa","ios":"levelo://app?vid=44680a61-b1de-4b9c-b689-2ab765a147aa"},"vehicle_type_id":"4","last_reported":1723756100,"current_range_meters":31200,"station_id":"ce4bhs12rcd13ifvqhvg","pricing_plan_id":"cebpf4jnsgd1na2vs0mg"},{"bike_id":"bdf61be6-6755-4df3-ae77-6b81cc7b98f5","system_id":"levelo_inurba_marseille","lat":43.324771,"lon":5.36557,"is_reserved":false,"is_disabled":false,"rental_uris":{"android":"levelo://app?vid=bdf61be6-6755-4df3-ae77-6b81cc7b98f5","ios":"levelo://app?vid=bdf61be6-6755-4df3-ae77-6b81cc7b98f5"},"vehicle_type_id":"4","last_reported":1723756100,"current_range_meters":31600,"station_id":"ce4bhs12rcd13ifvqhvg","pricing_plan_id":"cebpf4jnsgd1na2vs0mg"},{"bike_id":"6b82c31c-f5fa-4b1e-b716-f121cf7fc12b","system_id":"levelo_inurba_marseille","lat":43.310804,"lon":5.38359,"is_reserved":false,"is_disabled":false,"rental_uris":{"android":"levelo://app?vid=6b82c31c-f5fa-4b1e-b716-f121cf7fc12b","ios":"levelo://app?vid=6b82c31c-f5fa-4b1e-b716-f121cf7fc12b"},"vehicle_type_id":"4","last_reported":1723756100,"current_range_meters":0,"station_id":"ce4bgv92rcd13ifvqcr0","pricing_plan_id":"cebpf4jnsgd1na2vs0mg"},{"bike_id":"2a0481dc-9b2b-4b3c-a770-3ed234f995a1","system_id":"levelo_inurba_marseille","lat":43.319935,"lon":5.381699,"is_reserved":false,"is_disabled":false,"rental_uris":{"android":"levelo://app?vid=2a0481dc-9b2b-4b3c-a770-3ed234f995a1","ios":"levelo://app?vid=2a0481dc-9b2b-4b3c-a770-3ed234f995a1"},"vehicle_type_id":"4","last_reported":1723756100,"current_range_meters":23200,"station_id":"ce4bhr12rcd13ifvqhpg","pricing_plan_id":"cebpf4jnsgd1na2vs0mg"},{"bike_id":"16b776c1-3cf0-4181-ad1c-c4fc23c3edea","system_id":"levelo_inurba_marseille","lat":43.310804,"lon":5.38359,"is_reserved":false,"is_disabled":false,"rental_uris":{"android":"levelo://app?vid=16b776c1-3cf0-4181-ad1c-c4fc23c3edea","ios":"levelo://app?vid=16b776c1-3cf0-4181-ad1c-c4fc23c3edea"},"vehicle_type_id":"4","last_reported":1723756100,"current_range_meters":12400,"station_id":"ce4bgv92rcd13ifvqcr0","pricing_plan_id":"cebpf4jnsgd1na2vs0mg"},{"bike_id":"62e4b5bf-f60d-4a00-a4cf-52b889a083b0","system_id":"levelo_inurba_marseille","lat":43.310804,"lon":5.38359,"is_reserved":false,"is_disabled":false,"rental_uris":{"android":"levelo://app?vid=62e4b5bf-f60d-4a00-a4cf-52b889a083b0","ios":"levelo://app?vid=62e4b5bf-f60d-4a00-a4cf-52b889a083b0"},"vehicle_type_id":"4","last_reported":1723756100,"current_range_meters":0,"station_id":"ce4bgv92rcd13ifvqcr0","pricing_plan_id":"cebpf4jnsgd1na2vs0mg"},{"bike_id":"5b7511a3-e350-49eb-b303-6a6517490594","system_id":"levelo_inurba_marseille","lat":43.310804,"lon":5.38359,"is_reserved":false,"is_disabled":false,"rental_uris":{"android":"levelo://app?vid=5b7511a3-e350-49eb-b303-6a6517490594","ios":"levelo://app?vid=5b7511a3-e350-49eb-b303-6a6517490594"},"vehicle_type_id":"4","last_reported":1723756100,"current_range_meters":4800,"station_id":"ce4bgv92rcd13ifvqcr0","pricing_plan_id":"cebpf4jnsgd1na2vs0mg"},{"bike_id":"17c06962-f8fd-41ae-8f74-b29b8a85bff2","system_id":"levelo_inurba_marseille","lat":43.310804,"lon":5.38359,"is_reserved":false,"is_disabled":false,"rental_uris":{"android":"levelo://app?vid=17c06962-f8fd-41ae-8f74-b29b8a85bff2","ios":"levelo://app?vid=17c06962-f8fd-41ae-8f74-b29b8a85bff2"},"vehicle_type_id":"4","last_reported":1723756100,"current_range_meters":0,"station_id":"ce4bgv92rcd13ifvqcr0","pricing_plan_id":"cebpf4jnsgd1na2vs0mg"},{"bike_id":"992ac6a6-0ae4-43ba-8101-fe5e973e7426","system_id":"levelo_inurba_marseille","lat":43.310804,"lon":5.38359,"is_reserved":false,"is_disabled":false,"rental_uris":{"android":"levelo://app?vid=992ac6a6-0ae4-43ba-8101-fe5e973e7426","ios":"levelo://app?vid=992ac6a6-0ae4-43ba-8101-fe5e973e7426"},"vehicle_type_id":"4","last_reported":1723756100,"current_range_meters":4000,"station_id":"ce4bgv92rcd13ifvqcr0","pricing_plan_id":"cebpf4jnsgd1na2vs0mg"},{"bike_id":"bdcd1bbb-a7ca-49d9-b904-5586917b4ca7","system_id":"levelo_inurba_marseille","lat":43.302784,"lon":5.377158,"is_reserved":false,"is_disabled":false,"rental_uris":{"android":"levelo://app?vid=bdcd1bbb-a7ca-49d9-b904-5586917b4ca7","ios":"levelo://app?vid=bdcd1bbb-a7ca-49d9-b904-5586917b4ca7"},"vehicle_type_id":"4","last_reported":1723756100,"current_range_meters":30000,"station_id":"ce4bguh2rcd13ifvqcj0","pricing_plan_id":"cebpf4jnsgd1na2vs0mg"},{"bike_id":"e5a3ed2e-a89a-4d03-a6e7-72a986f38d2a","system_id":"levelo_inurba_marseille","lat":43.302784,"lon":5.377158,"is_reserved":false,"is_disabled":false,"rental_uris":{"android":"levelo://app?vid=e5a3ed2e-a89a-4d03-a6e7-72a986f38d2a","ios":"levelo://app?vid=e5a3ed2e-a89a-4d03-a6e7-72a986f38d2a"},"vehicle_type_id":"4","last_reported":1723756100,"current_range_meters":28000,"station_id":"ce4bguh2rcd13ifvqcj0","pricing_plan_id":"cebpf4jnsgd1na2vs0mg"},{"bike_id":"5ae64708-68df-44cf-834e-28b83b5e7480","system_id":"levelo_inurba_marseille","lat":43.30143,"lon":5.37413,"is_reserved":false,"is_disabled":false,"rental_uris":{"android":"levelo://app?vid=5ae64708-68df-44cf-834e-28b83b5e7480","ios":"levelo://app?vid=5ae64708-68df-44cf-834e-28b83b5e7480"},"vehicle_type_id":"4","last_reported":1723756100,"current_range_meters":31200,"station_id":"ce4bgs92rcd13ifvqcc0","pricing_plan_id":"cebpf4jnsgd1na2vs0mg"},{"bike_id":"05a06412-04c5-4ce3-a2cd-976c65aa5b06","system_id":"levelo_inurba_marseille","lat":43.319935,"lon":5.381699,"is_reserved":false,"is_disabled":false,"rental_uris":{"android":"levelo://app?vid=05a06412-04c5-4ce3-a2cd-976c65aa5b06","ios":"levelo://app?vid=05a06412-04c5-4ce3-a2cd-976c65aa5b06"},"vehicle_type_id":"4","last_reported":1723756100,"current_range_meters":23600,"station_id":"ce4bhr12rcd13ifvqhpg","pricing_plan_id":"cebpf4jnsgd1na2vs0mg"},{"bike_id":"f2cfe0a4-0fe6-46da-a82f-d03c9b38b9fd","system_id":"levelo_inurba_marseille","lat":43.319935,"lon":5.381699,"is_reserved":false,"is_disabled":false,"rental_uris":{"android":"levelo://app?vid=f2cfe0a4-0fe6-46da-a82f-d03c9b38b9fd","ios":"levelo://app?vid=f2cfe0a4-0fe6-46da-a82f-d03c9b38b9fd"},"vehicle_type_id":"4","last_reported":1723756100,"current_range_meters":32000,"station_id":"ce4bhr12rcd13ifvqhpg","pricing_plan_id":"cebpf4jnsgd1na2vs0mg"},{"bike_id":"0552c5bf-52b1-4aa0-8f79-9c0ffcf0f7cf","system_id":"levelo_inurba_marseille","lat":43.319935,"lon":5.381699,"is_reserved":false,"is_disabled":false,"rental_uris":{"android":"levelo://app?vid=0552c5bf-52b1-4aa0-8f79-9c0ffcf0f7cf","ios":"levelo://app?vid=0552c5bf-52b1-4aa0-8f79-9c0ffcf0f7cf"},"vehicle_type_id":"4","last_reported":1723756100,"current_range_meters":24000,"station_id":"ce4bhr12rcd13ifvqhpg","pricing_plan_id":"cebpf4jnsgd1na2vs0mg"},{"bike_id":"b46b1b62-4cf9-40c6-8920-ce4555f4ccf3","system_id":"levelo_inurba_marseille","lat":43.30591,"lon":5.38211,"is_reserved":false,"is_disabled":false,"rental_uris":{"android":"levelo://app?vid=b46b1b62-4cf9-40c6-8920-ce4555f4ccf3","ios":"levelo://app?vid=b46b1b62-4cf9-40c6-8920-ce4555f4ccf3"},"vehicle_type_id":"4","last_reported":1723756100,"current_range_meters":24000,"station_id":"","pricing_plan_id":"cebpf4jnsgd1na2vs0mg"},{"bike_id":"3ace914d-2fc0-4781-809e-bb1a9a725f4f","system_id":"levelo_inurba_marseille","lat":43.313571,"lon":5.384829,"is_reserved":false,"is_disabled":false,"rental_uris":{"android":"levelo://app?vid=3ace914d-2fc0-4781-809e-bb1a9a725f4f","ios":"levelo://app?vid=3ace914d-2fc0-4781-809e-bb1a9a725f4f"},"vehicle_type_id":"4","last_reported":1723756100,"current_range_meters":8000,"station_id":"ce4bgt92rcd13ifvqcf0","pricing_plan_id":"cebpf4jnsgd1na2vs0mg"},{"bike_id":"27c06e81-b5bf-45f5-bcfe-69d020bd6dda","system_id":"levelo_inurba_marseille","lat":43.313571,"lon":5.384829,"is_reserved":false,"is_disabled":false,"rental_uris":{"android":"levelo://app?vid=27c06e81-b5bf-45f5-bcfe-69d020bd6dda","ios":"levelo://app?vid=27c06e81-b5bf-45f5-bcfe-69d020bd6dda"},"vehicle_type_id":"4","last_reported":1723756100,"current_range_meters":7200,"station_id":"ce4bgt92rcd13ifvqcf0","pricing_plan_id":"cebpf4jnsgd1na2vs0mg"},{"bike_id":"d9914c9a-4acf-4bf7-95c4-c6f57fbb7a67","system_id":"levelo_inurba_marseille","lat":43.313571,"lon":5.384829,"is_reserved":false,"is_disabled":false,"rental_uris":{"android":"levelo://app?vid=d9914c9a-4acf-4bf7-95c4-c6f57fbb7a67","ios":"levelo://app?vid=d9914c9a-4acf-4bf7-95c4-c6f57fbb7a67"},"vehicle_type_id":"4","last_reported":1723756100,"current_range_meters":31200,"station_id":"ce4bgt92rcd13ifvqcf0","pricing_plan_id":"cebpf4jnsgd1na2vs0mg"},{"bike_id":"d980176f-762f-4f98-b598-b00b530e2b66","system_id":"levelo_inurba_marseille","lat":43.313571,"lon":5.384829,"is_reserved":false,"is_disabled":false,"rental_uris":{"android":"levelo://app?vid=d980176f-762f-4f98-b598-b00b530e2b66","ios":"levelo://app?vid=d980176f-762f-4f98-b598-b00b530e2b66"},"vehicle_type_id":"4","last_reported":1723756100,"current_range_meters":24400,"station_id":"ce4bgt92rcd13ifvqcf0","pricing_plan_id":"cebpf4jnsgd1na2vs0mg"},{"bike_id":"28089b55-0699-4d96-97ab-7ff01bbb57c7","system_id":"levelo_inurba_marseille","lat":43.299222,"lon":5.365554,"is_reserved":false,"is_disabled":false,"rental_uris":{"android":"levelo://app?vid=28089b55-0699-4d96-97ab-7ff01bbb57c7","ios":"levelo://app?vid=28089b55-0699-4d96-97ab-7ff01bbb57c7"},"vehicle_type_id":"4","last_reported":1723756100,"current_range_meters":30400,"station_id":"ce4bgm92rcd13ifvqbr0","pricing_plan_id":"cebpf4jnsgd1na2vs0mg"},{"bike_id":"f4296479-4a2d-4574-a54a-42468672f994","system_id":"levelo_inurba_marseille","lat":43.299222,"lon":5.365554,"is_reserved":false,"is_disabled":false,"rental_uris":{"android":"levelo://app?vid=f4296479-4a2d-4574-a54a-42468672f994","ios":"levelo://app?vid=f4296479-4a2d-4574-a54a-42468672f994"},"vehicle_type_id":"4","last_reported":1723756100,"current_range_meters":22800,"station_id":"ce4bgm92rcd13ifvqbr0","pricing_plan_id":"cebpf4jnsgd1na2vs0mg"},{"bike_id":"202e26fc-9c88-4edf-8285-2f18ed3f163e","system_id":"levelo_inurba_marseille","lat":43.299222,"lon":5.365554,"is_reserved":false,"is_disabled":false,"rental_uris":{"android":"levelo://app?vid=202e26fc-9c88-4edf-8285-2f18ed3f163e","ios":"levelo://app?vid=202e26fc-9c88-4edf-8285-2f18ed3f163e"},"vehicle_type_id":"4","last_reported":1723756100,"current_range_meters":14400,"station_id":"ce4bgm92rcd13ifvqbr0","pricing_plan_id":"cebpf4jnsgd1na2vs0mg"},{"bike_id":"5771e521-e9cd-48fd-b6a0-26007a24b14b","system_id":"levelo_inurba_marseille","lat":43.299222,"lon":5.365554,"is_reserved":false,"is_disabled":false,"rental_uris":{"android":"levelo://app?vid=5771e521-e9cd-48fd-b6a0-26007a24b14b","ios":"levelo://app?vid=5771e521-e9cd-48fd-b6a0-26007a24b14b"},"vehicle_type_id":"4","last_reported":1723756100,"current_range_meters":31200,"station_id":"ce4bgm92rcd13ifvqbr0","pricing_plan_id":"cebpf4jnsgd1na2vs0mg"},{"bike_id":"67dbdda0-5113-4fa6-9495-43583e6c1497","system_id":"levelo_inurba_marseille","lat":43.313162,"lon":5.386192,"is_reserved":false,"is_disabled":false,"rental_uris":{"android":"levelo://app?vid=67dbdda0-5113-4fa6-9495-43583e6c1497","ios":"levelo://app?vid=67dbdda0-5113-4fa6-9495-43583e6c1497"},"vehicle_type_id":"4","last_reported":1723756100,"current_range_meters":21600,"station_id":"","pricing_plan_id":"cebpf4jnsgd1na2vs0mg"},{"bike_id":"44c05b40-979b-493e-9bf4-293ce4b5f9d1","system_id":"levelo_inurba_marseille","lat":43.298433,"lon":5.362774,"is_reserved":false,"is_disabled":false,"rental_uris":{"android":"levelo://app?vid=44c05b40-979b-493e-9bf4-293ce4b5f9d1","ios":"levelo://app?vid=44c05b40-979b-493e-9bf4-293ce4b5f9d1"},"vehicle_type_id":"4","last_reported":1723756100,"current_range_meters":26000,"station_id":"ce4bgpp2rcd13ifvqc3g","pricing_plan_id":"cebpf4jnsgd1na2vs0mg"},{"bike_id":"0920e540-4e10-420c-9215-76241b8fc089","system_id":"levelo_inurba_marseille","lat":43.298433,"lon":5.362774,"is_reserved":false,"is_disabled":false,"rental_uris":{"android":"levelo://app?vid=0920e540-4e10-420c-9215-76241b8fc089","ios":"levelo://app?vid=0920e540-4e10-420c-9215-76241b8fc089"},"vehicle_type_id":"4","last_reported":1723756100,"current_range_meters":31600,"station_id":"ce4bgpp2rcd13ifvqc3g","pricing_plan_id":"cebpf4jnsgd1na2vs0mg"},{"bike_id":"650855ef-bd2e-429b-8a75-93d10938b51b","system_id":"levelo_inurba_marseille","lat":43.298433,"lon":5.362774,"is_reserved":false,"is_disabled":false,"rental_uris":{"android":"levelo://app?vid=650855ef-bd2e-429b-8a75-93d10938b51b","ios":"levelo://app?vid=650855ef-bd2e-429b-8a75-93d10938b51b"},"vehicle_type_id":"4","last_reported":1723756100,"current_range_meters":20000,"station_id":"ce4bgpp2rcd13ifvqc3g","pricing_plan_id":"cebpf4jnsgd1na2vs0mg"},{"bike_id":"a3fe6ff3-53f9-41ae-a557-86a7b0e1a29e","system_id":"levelo_inurba_marseille","lat":43.29927,"lon":5.37459,"is_reserved":false,"is_disabled":false,"rental_uris":{"android":"levelo://app?vid=a3fe6ff3-53f9-41ae-a557-86a7b0e1a29e","ios":"levelo://app?vid=a3fe6ff3-53f9-41ae-a557-86a7b0e1a29e"},"vehicle_type_id":"4","last_reported":1723756100,"current_range_meters":29200,"station_id":"ce4bgjh2rcd13ifvqbg0","pricing_plan_id":"cebpf4jnsgd1na2vs0mg"},{"bike_id":"07f1acaa-c712-4057-a07d-ab97cfe1524a","system_id":"levelo_inurba_marseille","lat":43.299243,"lon":5.374807,"is_reserved":false,"is_disabled":false,"rental_uris":{"android":"levelo://app?vid=07f1acaa-c712-4057-a07d-ab97cfe1524a","ios":"levelo://app?vid=07f1acaa-c712-4057-a07d-ab97cfe1524a"},"vehicle_type_id":"4","last_reported":1723756100,"current_range_meters":14800,"station_id":"ce4bgjh2rcd13ifvqbg0","pricing_plan_id":"cebpf4jnsgd1na2vs0mg"},{"bike_id":"c08dc808-5d4e-43e4-bc37-aee579e0ac73","system_id":"levelo_inurba_marseille","lat":43.29925,"lon":5.37497,"is_reserved":false,"is_disabled":false,"rental_uris":{"android":"levelo://app?vid=c08dc808-5d4e-43e4-bc37-aee579e0ac73","ios":"levelo://app?vid=c08dc808-5d4e-43e4-bc37-aee579e0ac73"},"vehicle_type_id":"4","last_reported":1723756100,"current_range_meters":20000,"station_id":"ce4bgjh2rcd13ifvqbg0","pricing_plan_id":"cebpf4jnsgd1na2vs0mg"},{"bike_id":"ed37e321-0fbd-4c16-8062-6dd6ad59d9f3","system_id":"levelo_inurba_marseille","lat":43.29915,"lon":5.37467,"is_reserved":false,"is_disabled":false,"rental_uris":{"android":"levelo://app?vid=ed37e321-0fbd-4c16-8062-6dd6ad59d9f3","ios":"levelo://app?vid=ed37e321-0fbd-4c16-8062-6dd6ad59d9f3"},"vehicle_type_id":"4","last_reported":1723756100,"current_range_meters":18000,"station_id":"ce4bgjh2rcd13ifvqbg0","pricing_plan_id":"cebpf4jnsgd1na2vs0mg"},{"bike_id":"3782859f-627a-4378-941a-fd82badcb252","system_id":"levelo_inurba_marseille","lat":43.299243,"lon":5.37481,"is_reserved":false,"is_disabled":false,"rental_uris":{"android":"levelo://app?vid=3782859f-627a-4378-941a-fd82badcb252","ios":"levelo://app?vid=3782859f-627a-4378-941a-fd82badcb252"},"vehicle_type_id":"4","last_reported":1723756100,"current_range_meters":22800,"station_id":"ce4bgjh2rcd13ifvqbg0","pricing_plan_id":"cebpf4jnsgd1na2vs0mg"},{"bike_id":"d29c5f42-1dde-4981-9be2-90d730ced0e7","system_id":"levelo_inurba_marseille","lat":43.311722,"lon":5.387247,"is_reserved":false,"is_disabled":false,"rental_uris":{"android":"levelo://app?vid=d29c5f42-1dde-4981-9be2-90d730ced0e7","ios":"levelo://app?vid=d29c5f42-1dde-4981-9be2-90d730ced0e7"},"vehicle_type_id":"4","last_reported":1723756100,"current_range_meters":18400,"station_id":"ce4bgv12rcd13ifvqcp0","pricing_plan_id":"cebpf4jnsgd1na2vs0mg"},{"bike_id":"7747e136-3eaf-4898-bd2d-9083b21e1c1f","system_id":"levelo_inurba_marseille","lat":43.311722,"lon":5.387247,"is_reserved":false,"is_disabled":false,"rental_uris":{"android":"levelo://app?vid=7747e136-3eaf-4898-bd2d-9083b21e1c1f","ios":"levelo://app?vid=7747e136-3eaf-4898-bd2d-9083b21e1c1f"},"vehicle_type_id":"4","last_reported":1723756100,"current_range_meters":18000,"station_id":"ce4bgv12rcd13ifvqcp0","pricing_plan_id":"cebpf4jnsgd1na2vs0mg"},{"bike_id":"62b01dbf-e6d4-4f73-a2c3-77766665aa91","system_id":"levelo_inurba_marseille","lat":43.311722,"lon":5.387247,"is_reserved":false,"is_disabled":false,"rental_uris":{"android":"levelo://app?vid=62b01dbf-e6d4-4f73-a2c3-77766665aa91","ios":"levelo://app?vid=62b01dbf-e6d4-4f73-a2c3-77766665aa91"},"vehicle_type_id":"4","last_reported":1723756100,"current_range_meters":24800,"station_id":"ce4bgv12rcd13ifvqcp0","pricing_plan_id":"cebpf4jnsgd1na2vs0mg"},{"bike_id":"e7329234-b8df-4474-99db-1633b3dc0ac0","system_id":"levelo_inurba_marseille","lat":43.311722,"lon":5.387247,"is_reserved":false,"is_disabled":false,"rental_uris":{"android":"levelo://app?vid=e7329234-b8df-4474-99db-1633b3dc0ac0","ios":"levelo://app?vid=e7329234-b8df-4474-99db-1633b3dc0ac0"},"vehicle_type_id":"4","last_reported":1723756100,"current_range_meters":12800,"station_id":"ce4bgv12rcd13ifvqcp0","pricing_plan_id":"cebpf4jnsgd1na2vs0mg"},{"bike_id":"665b9e29-2c75-4e34-9b21-209f90310085","system_id":"levelo_inurba_marseille","lat":43.311722,"lon":5.387247,"is_reserved":false,"is_disabled":false,"rental_uris":{"android":"levelo://app?vid=665b9e29-2c75-4e34-9b21-209f90310085","ios":"levelo://app?vid=665b9e29-2c75-4e34-9b21-209f90310085"},"vehicle_type_id":"4","last_reported":1723756100,"current_range_meters":19600,"station_id":"ce4bgv12rcd13ifvqcp0","pricing_plan_id":"cebpf4jnsgd1na2vs0mg"},{"bike_id":"f517cda3-9a9d-4386-b486-203a29a77fab","system_id":"levelo_inurba_marseille","lat":43.311722,"lon":5.387247,"is_reserved":false,"is_disabled":false,"rental_uris":{"android":"levelo://app?vid=f517cda3-9a9d-4386-b486-203a29a77fab","ios":"levelo://app?vid=f517cda3-9a9d-4386-b486-203a29a77fab"},"vehicle_type_id":"4","last_reported":1723756100,"current_range_meters":9200,"station_id":"ce4bgv12rcd13ifvqcp0","pricing_plan_id":"cebpf4jnsgd1na2vs0mg"},{"bike_id":"beefba96-f731-4841-9eb9-8145093e0a38","system_id":"levelo_inurba_marseille","lat":43.311722,"lon":5.387247,"is_reserved":false,"is_disabled":false,"rental_uris":{"android":"levelo://app?vid=beefba96-f731-4841-9eb9-8145093e0a38","ios":"levelo://app?vid=beefba96-f731-4841-9eb9-8145093e0a38"},"vehicle_type_id":"4","last_reported":1723756100,"current_range_meters":21200,"station_id":"ce4bgv12rcd13ifvqcp0","pricing_plan_id":"cebpf4jnsgd1na2vs0mg"},{"bike_id":"5e04cc06-00a5-4db2-a215-7a366fb31071","system_id":"levelo_inurba_marseille","lat":43.311722,"lon":5.387247,"is_reserved":false,"is_disabled":false,"rental_uris":{"android":"levelo://app?vid=5e04cc06-00a5-4db2-a215-7a366fb31071","ios":"levelo://app?vid=5e04cc06-00a5-4db2-a215-7a366fb31071"},"vehicle_type_id":"4","last_reported":1723756100,"current_range_meters":29600,"station_id":"ce4bgv12rcd13ifvqcp0","pricing_plan_id":"cebpf4jnsgd1na2vs0mg"},{"bike_id":"7a9bc744-6bb8-4720-bed4-416a5491ecfd","system_id":"levelo_inurba_marseille","lat":43.311722,"lon":5.387247,"is_reserved":false,"is_disabled":false,"rental_uris":{"android":"levelo://app?vid=7a9bc744-6bb8-4720-bed4-416a5491ecfd","ios":"levelo://app?vid=7a9bc744-6bb8-4720-bed4-416a5491ecfd"},"vehicle_type_id":"4","last_reported":1723756100,"current_range_meters":29600,"station_id":"ce4bgv12rcd13ifvqcp0","pricing_plan_id":"cebpf4jnsgd1na2vs0mg"},{"bike_id":"a8327544-4028-4b83-8a77-4fbdf7c3d810","system_id":"levelo_inurba_marseille","lat":43.301556,"lon":5.380782,"is_reserved":false,"is_disabled":false,"rental_uris":{"android":"levelo://app?vid=a8327544-4028-4b83-8a77-4fbdf7c3d810","ios":"levelo://app?vid=a8327544-4028-4b83-8a77-4fbdf7c3d810"},"vehicle_type_id":"4","last_reported":1723756100,"current_range_meters":12400,"station_id":"","pricing_plan_id":"cebpf4jnsgd1na2vs0mg"},{"bike_id":"19bb504b-ca3e-473a-8611-439d16af6f5c","system_id":"levelo_inurba_marseille","lat":43.297774,"lon":5.370875,"is_reserved":false,"is_disabled":false,"rental_uris":{"android":"levelo://app?vid=19bb504b-ca3e-473a-8611-439d16af6f5c","ios":"levelo://app?vid=19bb504b-ca3e-473a-8611-439d16af6f5c"},"vehicle_type_id":"4","last_reported":1723756100,"current_range_meters":24000,"station_id":"ce4bgop2rcd13ifvqc1g","pricing_plan_id":"cebpf4jnsgd1na2vs0mg"},{"bike_id":"1899b9a9-2917-4623-ad8d-ac9c1179a318","system_id":"levelo_inurba_marseille","lat":43.322937,"lon":5.382563,"is_reserved":false,"is_disabled":false,"rental_uris":{"android":"levelo://app?vid=1899b9a9-2917-4623-ad8d-ac9c1179a318","ios":"levelo://app?vid=1899b9a9-2917-4623-ad8d-ac9c1179a318"},"vehicle_type_id":"4","last_reported":1723756100,"current_range_meters":27200,"station_id":"ce4bhr12rcd13ifvqhqg","pricing_plan_id":"cebpf4jnsgd1na2vs0mg"},{"bike_id":"4ab4103b-5fed-4b98-889d-ac4873d5b547","system_id":"levelo_inurba_marseille","lat":43.29752,"lon":5.371,"is_reserved":false,"is_disabled":false,"rental_uris":{"android":"levelo://app?vid=4ab4103b-5fed-4b98-889d-ac4873d5b547","ios":"levelo://app?vid=4ab4103b-5fed-4b98-889d-ac4873d5b547"},"vehicle_type_id":"4","last_reported":1723756100,"current_range_meters":18000,"station_id":"ce4bgop2rcd13ifvqc1g","pricing_plan_id":"cebpf4jnsgd1na2vs0mg"},{"bike_id":"74c0cb5a-9951-4661-8039-5cf861ae0704","system_id":"levelo_inurba_marseille","lat":43.297261,"lon":5.368774,"is_reserved":false,"is_disabled":false,"rental_uris":{"android":"levelo://app?vid=74c0cb5a-9951-4661-8039-5cf861ae0704","ios":"levelo://app?vid=74c0cb5a-9951-4661-8039-5cf861ae0704"},"vehicle_type_id":"4","last_reported":1723756100,"current_range_meters":30400,"station_id":"","pricing_plan_id":"cebpf4jnsgd1na2vs0mg"},{"bike_id":"ba534199-60e8-4041-844e-9fd4d30b3eb3","system_id":"levelo_inurba_marseille","lat":43.297159,"lon":5.368784,"is_reserved":false,"is_disabled":false,"rental_uris":{"android":"levelo://app?vid=ba534199-60e8-4041-844e-9fd4d30b3eb3","ios":"levelo://app?vid=ba534199-60e8-4041-844e-9fd4d30b3eb3"},"vehicle_type_id":"4","last_reported":1723756100,"current_range_meters":23200,"station_id":"","pricing_plan_id":"cebpf4jnsgd1na2vs0mg"},{"bike_id":"bce1603c-e53d-4c49-b696-31d64fc31f18","system_id":"levelo_inurba_marseille","lat":43.297438,"lon":5.374057,"is_reserved":false,"is_disabled":false,"rental_uris":{"android":"levelo://app?vid=bce1603c-e53d-4c49-b696-31d64fc31f18","ios":"levelo://app?vid=bce1603c-e53d-4c49-b696-31d64fc31f18"},"vehicle_type_id":"4","last_reported":1723756100,"current_range_meters":17200,"station_id":"ce4bgl92rcd13ifvqbq0","pricing_plan_id":"cebpf4jnsgd1na2vs0mg"},{"bike_id":"139c9e10-a84e-433f-af90-b93af4c617f7","system_id":"levelo_inurba_marseille","lat":43.2968,"lon":5.37291,"is_reserved":false,"is_disabled":false,"rental_uris":{"android":"levelo://app?vid=139c9e10-a84e-433f-af90-b93af4c617f7","ios":"levelo://app?vid=139c9e10-a84e-433f-af90-b93af4c617f7"},"vehicle_type_id":"4","last_reported":1723756100,"current_range_meters":27600,"station_id":"ce4bgk12rcd13ifvqbj0","pricing_plan_id":"cebpf4jnsgd1na2vs0mg"},{"bike_id":"468d4b90-2058-48bb-a931-04827b3cb8f3","system_id":"levelo_inurba_marseille","lat":43.322112,"lon":5.385614,"is_reserved":false,"is_disabled":false,"rental_uris":{"android":"levelo://app?vid=468d4b90-2058-48bb-a931-04827b3cb8f3","ios":"levelo://app?vid=468d4b90-2058-48bb-a931-04827b3cb8f3"},"vehicle_type_id":"4","last_reported":1723756100,"current_range_meters":28800,"station_id":"","pricing_plan_id":"cebpf4jnsgd1na2vs0mg"},{"bike_id":"4861d65a-6b84-4f10-a1ae-a4e2c24323fb","system_id":"levelo_inurba_marseille","lat":43.32369,"lon":5.38425,"is_reserved":false,"is_disabled":false,"rental_uris":{"android":"levelo://app?vid=4861d65a-6b84-4f10-a1ae-a4e2c24323fb","ios":"levelo://app?vid=4861d65a-6b84-4f10-a1ae-a4e2c24323fb"},"vehicle_type_id":"4","last_reported":1723756100,"current_range_meters":23600,"station_id":"","pricing_plan_id":"cebpf4jnsgd1na2vs0mg"},{"bike_id":"be545641-b371-4225-bae0-da910b40656a","system_id":"levelo_inurba_marseille","lat":43.2988,"lon":5.37966,"is_reserved":false,"is_disabled":false,"rental_uris":{"android":"levelo://app?vid=be545641-b371-4225-bae0-da910b40656a","ios":"levelo://app?vid=be545641-b371-4225-bae0-da910b40656a"},"vehicle_type_id":"4","last_reported":1723756100,"current_range_meters":30400,"station_id":"","pricing_plan_id":"cebpf4jnsgd1na2vs0mg"},{"bike_id":"436c005b-6b03-4a6e-bc5d-e874b7113a02","system_id":"levelo_inurba_marseille","lat":43.293009,"lon":5.374584,"is_reserved":false,"is_disabled":false,"rental_uris":{"android":"levelo://app?vid=436c005b-6b03-4a6e-bc5d-e874b7113a02","ios":"levelo://app?vid=436c005b-6b03-4a6e-bc5d-e874b7113a02"},"vehicle_type_id":"4","last_reported":1723756100,"current_range_meters":15600,"station_id":"ce4bgi12rcd13ifvqb70","pricing_plan_id":"cebpf4jnsgd1na2vs0mg"},{"bike_id":"659fa651-a295-4ad1-bb8b-062ad6465557","system_id":"levelo_inurba_marseille","lat":43.29573,"lon":5.367355,"is_reserved":false,"is_disabled":false,"rental_uris":{"android":"levelo://app?vid=659fa651-a295-4ad1-bb8b-062ad6465557","ios":"levelo://app?vid=659fa651-a295-4ad1-bb8b-062ad6465557"},"vehicle_type_id":"4","last_reported":1723756100,"current_range_meters":3200,"station_id":"ce4bgph2rcd13ifvqc2g","pricing_plan_id":"cebpf4jnsgd1na2vs0mg"},{"bike_id":"59ab37c8-695d-432e-ba58-45d9bdec2200","system_id":"levelo_inurba_marseille","lat":43.29573,"lon":5.367355,"is_reserved":false,"is_disabled":false,"rental_uris":{"android":"levelo://app?vid=59ab37c8-695d-432e-ba58-45d9bdec2200","ios":"levelo://app?vid=59ab37c8-695d-432e-ba58-45d9bdec2200"},"vehicle_type_id":"4","last_reported":1723756100,"current_range_meters":30800,"station_id":"ce4bgph2rcd13ifvqc2g","pricing_plan_id":"cebpf4jnsgd1na2vs0mg"},{"bike_id":"c0604c18-a45e-4392-a9cc-cf0707d73627","system_id":"levelo_inurba_marseille","lat":43.296921,"lon":5.376579,"is_reserved":false,"is_disabled":false,"rental_uris":{"android":"levelo://app?vid=c0604c18-a45e-4392-a9cc-cf0707d73627","ios":"levelo://app?vid=c0604c18-a45e-4392-a9cc-cf0707d73627"},"vehicle_type_id":"4","last_reported":1723756100,"current_range_meters":31200,"station_id":"ce4bgkh2rcd13ifvqbl0","pricing_plan_id":"cebpf4jnsgd1na2vs0mg"},{"bike_id":"ede50aee-f63e-41a7-9d7f-99c5952ffd07","system_id":"levelo_inurba_marseille","lat":43.296921,"lon":5.376579,"is_reserved":false,"is_disabled":false,"rental_uris":{"android":"levelo://app?vid=ede50aee-f63e-41a7-9d7f-99c5952ffd07","ios":"levelo://app?vid=ede50aee-f63e-41a7-9d7f-99c5952ffd07"},"vehicle_type_id":"4","last_reported":1723756100,"current_range_meters":12000,"station_id":"ce4bgkh2rcd13ifvqbl0","pricing_plan_id":"cebpf4jnsgd1na2vs0mg"},{"bike_id":"549fcdb5-444a-4bc9-aeca-be6da404b280","system_id":"levelo_inurba_marseille","lat":43.296921,"lon":5.376579,"is_reserved":false,"is_disabled":false,"rental_uris":{"android":"levelo://app?vid=549fcdb5-444a-4bc9-aeca-be6da404b280","ios":"levelo://app?vid=549fcdb5-444a-4bc9-aeca-be6da404b280"},"vehicle_type_id":"4","last_reported":1723756100,"current_range_meters":31200,"station_id":"ce4bgkh2rcd13ifvqbl0","pricing_plan_id":"cebpf4jnsgd1na2vs0mg"},{"bike_id":"4cb24487-7340-4695-8a58-bab9c12f1a75","system_id":"levelo_inurba_marseille","lat":43.296921,"lon":5.376579,"is_reserved":false,"is_disabled":false,"rental_uris":{"android":"levelo://app?vid=4cb24487-7340-4695-8a58-bab9c12f1a75","ios":"levelo://app?vid=4cb24487-7340-4695-8a58-bab9c12f1a75"},"vehicle_type_id":"4","last_reported":1723756100,"current_range_meters":18000,"station_id":"ce4bgkh2rcd13ifvqbl0","pricing_plan_id":"cebpf4jnsgd1na2vs0mg"},{"bike_id":"c9c7aebd-9c3c-4a90-9586-d7d0c610a372","system_id":"levelo_inurba_marseille","lat":43.296935,"lon":5.376544,"is_reserved":false,"is_disabled":false,"rental_uris":{"android":"levelo://app?vid=c9c7aebd-9c3c-4a90-9586-d7d0c610a372","ios":"levelo://app?vid=c9c7aebd-9c3c-4a90-9586-d7d0c610a372"},"vehicle_type_id":"4","last_reported":1723756100,"current_range_meters":29600,"station_id":"ce4bgkh2rcd13ifvqbl0","pricing_plan_id":"cebpf4jnsgd1na2vs0mg"},{"bike_id":"9115c9a7-e6cb-4f98-bd67-56a287ffa961","system_id":"levelo_inurba_marseille","lat":43.299028,"lon":5.381509,"is_reserved":false,"is_disabled":false,"rental_uris":{"android":"levelo://app?vid=9115c9a7-e6cb-4f98-bd67-56a287ffa961","ios":"levelo://app?vid=9115c9a7-e6cb-4f98-bd67-56a287ffa961"},"vehicle_type_id":"4","last_reported":1723756100,"current_range_meters":26000,"station_id":"ce4bgj12rcd13ifvqbc0","pricing_plan_id":"cebpf4jnsgd1na2vs0mg"},{"bike_id":"9fccf30e-435a-44fb-9d6b-c2f825eaa3d3","system_id":"levelo_inurba_marseille","lat":43.309589,"lon":5.390258,"is_reserved":false,"is_disabled":false,"rental_uris":{"android":"levelo://app?vid=9fccf30e-435a-44fb-9d6b-c2f825eaa3d3","ios":"levelo://app?vid=9fccf30e-435a-44fb-9d6b-c2f825eaa3d3"},"vehicle_type_id":"4","last_reported":1723756100,"current_range_meters":30400,"station_id":"ce4bgup2rcd13ifvqco0","pricing_plan_id":"cebpf4jnsgd1na2vs0mg"},{"bike_id":"7d1b9192-3766-4840-b4e3-7a25724b012c","system_id":"levelo_inurba_marseille","lat":43.309589,"lon":5.390258,"is_reserved":false,"is_disabled":false,"rental_uris":{"android":"levelo://app?vid=7d1b9192-3766-4840-b4e3-7a25724b012c","ios":"levelo://app?vid=7d1b9192-3766-4840-b4e3-7a25724b012c"},"vehicle_type_id":"4","last_reported":1723756100,"current_range_meters":21600,"station_id":"ce4bgup2rcd13ifvqco0","pricing_plan_id":"cebpf4jnsgd1na2vs0mg"},{"bike_id":"fbff74c0-0ecd-401b-8d1f-a4ff124e44d0","system_id":"levelo_inurba_marseille","lat":43.309589,"lon":5.390258,"is_reserved":false,"is_disabled":false,"rental_uris":{"android":"levelo://app?vid=fbff74c0-0ecd-401b-8d1f-a4ff124e44d0","ios":"levelo://app?vid=fbff74c0-0ecd-401b-8d1f-a4ff124e44d0"},"vehicle_type_id":"4","last_reported":1723756100,"current_range_meters":22400,"station_id":"ce4bgup2rcd13ifvqco0","pricing_plan_id":"cebpf4jnsgd1na2vs0mg"},{"bike_id":"f77bfa04-377f-4ea4-bb44-4f67c8a228cf","system_id":"levelo_inurba_marseille","lat":43.3095,"lon":5.3904,"is_reserved":false,"is_disabled":false,"rental_uris":{"android":"levelo://app?vid=f77bfa04-377f-4ea4-bb44-4f67c8a228cf","ios":"levelo://app?vid=f77bfa04-377f-4ea4-bb44-4f67c8a228cf"},"vehicle_type_id":"4","last_reported":1723756100,"current_range_meters":29600,"station_id":"ce4bgup2rcd13ifvqco0","pricing_plan_id":"cebpf4jnsgd1na2vs0mg"},{"bike_id":"650a81e9-ea9e-425b-bc88-f974b48bff91","system_id":"levelo_inurba_marseille","lat":43.30947,"lon":5.3904,"is_reserved":false,"is_disabled":false,"rental_uris":{"android":"levelo://app?vid=650a81e9-ea9e-425b-bc88-f974b48bff91","ios":"levelo://app?vid=650a81e9-ea9e-425b-bc88-f974b48bff91"},"vehicle_type_id":"4","last_reported":1723756100,"current_range_meters":3200,"station_id":"ce4bgup2rcd13ifvqco0","pricing_plan_id":"cebpf4jnsgd1na2vs0mg"},{"bike_id":"8deb223b-0888-4e76-809d-b630cc62d3bb","system_id":"levelo_inurba_marseille","lat":43.309589,"lon":5.390258,"is_reserved":false,"is_disabled":false,"rental_uris":{"android":"levelo://app?vid=8deb223b-0888-4e76-809d-b630cc62d3bb","ios":"levelo://app?vid=8deb223b-0888-4e76-809d-b630cc62d3bb"},"vehicle_type_id":"4","last_reported":1723756100,"current_range_meters":15200,"station_id":"ce4bgup2rcd13ifvqco0","pricing_plan_id":"cebpf4jnsgd1na2vs0mg"},{"bike_id":"a2df2ae7-57be-46e5-aed6-4f5f173e86d0","system_id":"levelo_inurba_marseille","lat":43.30954,"lon":5.39045,"is_reserved":false,"is_disabled":false,"rental_uris":{"android":"levelo://app?vid=a2df2ae7-57be-46e5-aed6-4f5f173e86d0","ios":"levelo://app?vid=a2df2ae7-57be-46e5-aed6-4f5f173e86d0"},"vehicle_type_id":"4","last_reported":1723756100,"current_range_meters":9200,"station_id":"ce4bgup2rcd13ifvqco0","pricing_plan_id":"cebpf4jnsgd1na2vs0mg"},{"bike_id":"496f8df3-a86d-4b9b-846f-f13204935786","system_id":"levelo_inurba_marseille","lat":43.30945,"lon":5.3905,"is_reserved":false,"is_disabled":false,"rental_uris":{"android":"levelo://app?vid=496f8df3-a86d-4b9b-846f-f13204935786","ios":"levelo://app?vid=496f8df3-a86d-4b9b-846f-f13204935786"},"vehicle_type_id":"4","last_reported":1723756100,"current_range_meters":6400,"station_id":"ce4bgup2rcd13ifvqco0","pricing_plan_id":"cebpf4jnsgd1na2vs0mg"},{"bike_id":"5b1e5fce-8550-409c-bdee-ebab382e3428","system_id":"levelo_inurba_marseille","lat":43.30961,"lon":5.39055,"is_reserved":false,"is_disabled":false,"rental_uris":{"android":"levelo://app?vid=5b1e5fce-8550-409c-bdee-ebab382e3428","ios":"levelo://app?vid=5b1e5fce-8550-409c-bdee-ebab382e3428"},"vehicle_type_id":"4","last_reported":1723756100,"current_range_meters":23200,"station_id":"ce4bgup2rcd13ifvqco0","pricing_plan_id":"cebpf4jnsgd1na2vs0mg"},{"bike_id":"3fd75c90-c39c-4ac2-96b2-d62369bbc6dd","system_id":"levelo_inurba_marseille","lat":43.31754,"lon":5.39014,"is_reserved":false,"is_disabled":false,"rental_uris":{"android":"levelo://app?vid=3fd75c90-c39c-4ac2-96b2-d62369bbc6dd","ios":"levelo://app?vid=3fd75c90-c39c-4ac2-96b2-d62369bbc6dd"},"vehicle_type_id":"4","last_reported":1723756100,"current_range_meters":22000,"station_id":"ce4bhqp2rcd13ifvqhng","pricing_plan_id":"cebpf4jnsgd1na2vs0mg"},{"bike_id":"17051b0d-e844-42ce-8d09-91aa8b916288","system_id":"levelo_inurba_marseille","lat":43.317557,"lon":5.390173,"is_reserved":false,"is_disabled":false,"rental_uris":{"android":"levelo://app?vid=17051b0d-e844-42ce-8d09-91aa8b916288","ios":"levelo://app?vid=17051b0d-e844-42ce-8d09-91aa8b916288"},"vehicle_type_id":"4","last_reported":1723756100,"current_range_meters":31600,"station_id":"ce4bhqp2rcd13ifvqhng","pricing_plan_id":"cebpf4jnsgd1na2vs0mg"},{"bike_id":"a2b6b1f7-2e79-4b0b-b728-70232a4c5656","system_id":"levelo_inurba_marseille","lat":43.31751,"lon":5.39019,"is_reserved":false,"is_disabled":false,"rental_uris":{"android":"levelo://app?vid=a2b6b1f7-2e79-4b0b-b728-70232a4c5656","ios":"levelo://app?vid=a2b6b1f7-2e79-4b0b-b728-70232a4c5656"},"vehicle_type_id":"4","last_reported":1723756100,"current_range_meters":0,"station_id":"ce4bhqp2rcd13ifvqhng","pricing_plan_id":"cebpf4jnsgd1na2vs0mg"},{"bike_id":"4ab5d0b2-c8a0-4186-874f-be740f17dddd","system_id":"levelo_inurba_marseille","lat":43.317557,"lon":5.390173,"is_reserved":false,"is_disabled":false,"rental_uris":{"android":"levelo://app?vid=4ab5d0b2-c8a0-4186-874f-be740f17dddd","ios":"levelo://app?vid=4ab5d0b2-c8a0-4186-874f-be740f17dddd"},"vehicle_type_id":"4","last_reported":1723756100,"current_range_meters":30000,"station_id":"ce4bhqp2rcd13ifvqhng","pricing_plan_id":"cebpf4jnsgd1na2vs0mg"},{"bike_id":"789b9e91-112d-46e6-a948-6e66a619928e","system_id":"levelo_inurba_marseille","lat":43.31755,"lon":5.3902,"is_reserved":false,"is_disabled":false,"rental_uris":{"android":"levelo://app?vid=789b9e91-112d-46e6-a948-6e66a619928e","ios":"levelo://app?vid=789b9e91-112d-46e6-a948-6e66a619928e"},"vehicle_type_id":"4","last_reported":1723756100,"current_range_meters":23600,"station_id":"ce4bhqp2rcd13ifvqhng","pricing_plan_id":"cebpf4jnsgd1na2vs0mg"},{"bike_id":"3eadd705-ee72-4764-b78a-dbf0c491cb26","system_id":"levelo_inurba_marseille","lat":43.31755,"lon":5.39021,"is_reserved":false,"is_disabled":false,"rental_uris":{"android":"levelo://app?vid=3eadd705-ee72-4764-b78a-dbf0c491cb26","ios":"levelo://app?vid=3eadd705-ee72-4764-b78a-dbf0c491cb26"},"vehicle_type_id":"4","last_reported":1723756100,"current_range_meters":20000,"station_id":"ce4bhqp2rcd13ifvqhng","pricing_plan_id":"cebpf4jnsgd1na2vs0mg"},{"bike_id":"db019ba9-1d63-40a3-8077-d61cef282848","system_id":"levelo_inurba_marseille","lat":43.317557,"lon":5.390173,"is_reserved":false,"is_disabled":false,"rental_uris":{"android":"levelo://app?vid=db019ba9-1d63-40a3-8077-d61cef282848","ios":"levelo://app?vid=db019ba9-1d63-40a3-8077-d61cef282848"},"vehicle_type_id":"4","last_reported":1723756100,"current_range_meters":17200,"station_id":"ce4bhqp2rcd13ifvqhng","pricing_plan_id":"cebpf4jnsgd1na2vs0mg"},{"bike_id":"864dbf84-46a8-4a39-9e14-a484ee7bed9e","system_id":"levelo_inurba_marseille","lat":43.29747,"lon":5.37937,"is_reserved":false,"is_disabled":false,"rental_uris":{"android":"levelo://app?vid=864dbf84-46a8-4a39-9e14-a484ee7bed9e","ios":"levelo://app?vid=864dbf84-46a8-4a39-9e14-a484ee7bed9e"},"vehicle_type_id":"4","last_reported":1723756100,"current_range_meters":23200,"station_id":"","pricing_plan_id":"cebpf4jnsgd1na2vs0mg"},{"bike_id":"55dff365-3f4c-43d6-837f-5425e1781911","system_id":"levelo_inurba_marseille","lat":43.295748,"lon":5.37522,"is_reserved":false,"is_disabled":false,"rental_uris":{"android":"levelo://app?vid=55dff365-3f4c-43d6-837f-5425e1781911","ios":"levelo://app?vid=55dff365-3f4c-43d6-837f-5425e1781911"},"vehicle_type_id":"4","last_reported":1723756100,"current_range_meters":16400,"station_id":"ce4bgh92rcd13ifvqb50","pricing_plan_id":"cebpf4jnsgd1na2vs0mg"},{"bike_id":"7b5d093c-eb2e-4108-a094-3f0e320a84c8","system_id":"levelo_inurba_marseille","lat":43.295748,"lon":5.37522,"is_reserved":false,"is_disabled":false,"rental_uris":{"android":"levelo://app?vid=7b5d093c-eb2e-4108-a094-3f0e320a84c8","ios":"levelo://app?vid=7b5d093c-eb2e-4108-a094-3f0e320a84c8"},"vehicle_type_id":"4","last_reported":1723756100,"current_range_meters":4800,"station_id":"ce4bgh92rcd13ifvqb50","pricing_plan_id":"cebpf4jnsgd1na2vs0mg"},{"bike_id":"953220b6-f904-431e-aab3-01284947f075","system_id":"levelo_inurba_marseille","lat":43.29582,"lon":5.37523,"is_reserved":false,"is_disabled":false,"rental_uris":{"android":"levelo://app?vid=953220b6-f904-431e-aab3-01284947f075","ios":"levelo://app?vid=953220b6-f904-431e-aab3-01284947f075"},"vehicle_type_id":"4","last_reported":1723756100,"current_range_meters":10800,"station_id":"ce4bgh92rcd13ifvqb50","pricing_plan_id":"cebpf4jnsgd1na2vs0mg"},{"bike_id":"0a295625-3a14-42cc-94e7-47cfe33e051e","system_id":"levelo_inurba_marseille","lat":43.298037,"lon":5.381066,"is_reserved":false,"is_disabled":false,"rental_uris":{"android":"levelo://app?vid=0a295625-3a14-42cc-94e7-47cfe33e051e","ios":"levelo://app?vid=0a295625-3a14-42cc-94e7-47cfe33e051e"},"vehicle_type_id":"4","last_reported":1723756100,"current_range_meters":7600,"station_id":"ce4bgip2rcd13ifvqbb0","pricing_plan_id":"cebpf4jnsgd1na2vs0mg"},{"bike_id":"692671dc-130a-41d5-adbc-98d047662deb","system_id":"levelo_inurba_marseille","lat":43.304274,"lon":5.388873,"is_reserved":false,"is_disabled":false,"rental_uris":{"android":"levelo://app?vid=692671dc-130a-41d5-adbc-98d047662deb","ios":"levelo://app?vid=692671dc-130a-41d5-adbc-98d047662deb"},"vehicle_type_id":"4","last_reported":1723756100,"current_range_meters":13600,"station_id":"ce4bgk12rcd13ifvqbi0","pricing_plan_id":"cebpf4jnsgd1na2vs0mg"},{"bike_id":"cc54e791-e2a5-4b6e-b0a6-deff0bf3f123","system_id":"levelo_inurba_marseille","lat":43.298037,"lon":5.381066,"is_reserved":false,"is_disabled":false,"rental_uris":{"android":"levelo://app?vid=cc54e791-e2a5-4b6e-b0a6-deff0bf3f123","ios":"levelo://app?vid=cc54e791-e2a5-4b6e-b0a6-deff0bf3f123"},"vehicle_type_id":"4","last_reported":1723756100,"current_range_meters":8800,"station_id":"ce4bgip2rcd13ifvqbb0","pricing_plan_id":"cebpf4jnsgd1na2vs0mg"},{"bike_id":"65e07f50-df5e-4c2b-8d1c-8f374c4d53f3","system_id":"levelo_inurba_marseille","lat":43.304274,"lon":5.388873,"is_reserved":false,"is_disabled":false,"rental_uris":{"android":"levelo://app?vid=65e07f50-df5e-4c2b-8d1c-8f374c4d53f3","ios":"levelo://app?vid=65e07f50-df5e-4c2b-8d1c-8f374c4d53f3"},"vehicle_type_id":"4","last_reported":1723756100,"current_range_meters":25600,"station_id":"ce4bgk12rcd13ifvqbi0","pricing_plan_id":"cebpf4jnsgd1na2vs0mg"},{"bike_id":"bad7d291-b5b6-48e8-8afe-a29a4081680b","system_id":"levelo_inurba_marseille","lat":43.298037,"lon":5.381066,"is_reserved":false,"is_disabled":false,"rental_uris":{"android":"levelo://app?vid=bad7d291-b5b6-48e8-8afe-a29a4081680b","ios":"levelo://app?vid=bad7d291-b5b6-48e8-8afe-a29a4081680b"},"vehicle_type_id":"4","last_reported":1723756100,"current_range_meters":29600,"station_id":"ce4bgip2rcd13ifvqbb0","pricing_plan_id":"cebpf4jnsgd1na2vs0mg"},{"bike_id":"ba01a37f-86fb-4ad0-8b8a-750d04176f9a","system_id":"levelo_inurba_marseille","lat":43.304278,"lon":5.388868,"is_reserved":false,"is_disabled":false,"rental_uris":{"android":"levelo://app?vid=ba01a37f-86fb-4ad0-8b8a-750d04176f9a","ios":"levelo://app?vid=ba01a37f-86fb-4ad0-8b8a-750d04176f9a"},"vehicle_type_id":"4","last_reported":1723756100,"current_range_meters":31200,"station_id":"ce4bgk12rcd13ifvqbi0","pricing_plan_id":"cebpf4jnsgd1na2vs0mg"},{"bike_id":"dd051486-195b-4966-96d8-9f6d3663368c","system_id":"levelo_inurba_marseille","lat":43.298037,"lon":5.381066,"is_reserved":false,"is_disabled":false,"rental_uris":{"android":"levelo://app?vid=dd051486-195b-4966-96d8-9f6d3663368c","ios":"levelo://app?vid=dd051486-195b-4966-96d8-9f6d3663368c"},"vehicle_type_id":"4","last_reported":1723756100,"current_range_meters":7600,"station_id":"ce4bgip2rcd13ifvqbb0","pricing_plan_id":"cebpf4jnsgd1na2vs0mg"},{"bike_id":"1d4eebcb-dc38-475a-ace9-6bb6e4bef7af","system_id":"levelo_inurba_marseille","lat":43.304278,"lon":5.388868,"is_reserved":false,"is_disabled":false,"rental_uris":{"android":"levelo://app?vid=1d4eebcb-dc38-475a-ace9-6bb6e4bef7af","ios":"levelo://app?vid=1d4eebcb-dc38-475a-ace9-6bb6e4bef7af"},"vehicle_type_id":"4","last_reported":1723756100,"current_range_meters":23600,"station_id":"ce4bgk12rcd13ifvqbi0","pricing_plan_id":"cebpf4jnsgd1na2vs0mg"},{"bike_id":"592c5160-ef55-4e4d-9391-739c5d9dbdc2","system_id":"levelo_inurba_marseille","lat":43.29628,"lon":5.37722,"is_reserved":false,"is_disabled":false,"rental_uris":{"android":"levelo://app?vid=592c5160-ef55-4e4d-9391-739c5d9dbdc2","ios":"levelo://app?vid=592c5160-ef55-4e4d-9391-739c5d9dbdc2"},"vehicle_type_id":"4","last_reported":1723756100,"current_range_meters":11600,"station_id":"ce4bgi92rcd13ifvqb90","pricing_plan_id":"cebpf4jnsgd1na2vs0mg"},{"bike_id":"a3bed14a-a27b-410e-b6da-2728e5f6979f","system_id":"levelo_inurba_marseille","lat":43.304274,"lon":5.388873,"is_reserved":false,"is_disabled":false,"rental_uris":{"android":"levelo://app?vid=a3bed14a-a27b-410e-b6da-2728e5f6979f","ios":"levelo://app?vid=a3bed14a-a27b-410e-b6da-2728e5f6979f"},"vehicle_type_id":"4","last_reported":1723756100,"current_range_meters":32000,"station_id":"ce4bgk12rcd13ifvqbi0","pricing_plan_id":"cebpf4jnsgd1na2vs0mg"},{"bike_id":"d5539008-09c7-4313-b0fc-a8d2f150587f","system_id":"levelo_inurba_marseille","lat":43.296277,"lon":5.377108,"is_reserved":false,"is_disabled":false,"rental_uris":{"android":"levelo://app?vid=d5539008-09c7-4313-b0fc-a8d2f150587f","ios":"levelo://app?vid=d5539008-09c7-4313-b0fc-a8d2f150587f"},"vehicle_type_id":"4","last_reported":1723756100,"current_range_meters":31600,"station_id":"ce4bgi92rcd13ifvqb90","pricing_plan_id":"cebpf4jnsgd1na2vs0mg"},{"bike_id":"6e1de53a-1a3e-4106-8a8d-e1f9394d1d45","system_id":"levelo_inurba_marseille","lat":43.296277,"lon":5.377108,"is_reserved":false,"is_disabled":false,"rental_uris":{"android":"levelo://app?vid=6e1de53a-1a3e-4106-8a8d-e1f9394d1d45","ios":"levelo://app?vid=6e1de53a-1a3e-4106-8a8d-e1f9394d1d45"},"vehicle_type_id":"4","last_reported":1723756100,"current_range_meters":10800,"station_id":"ce4bgi92rcd13ifvqb90","pricing_plan_id":"cebpf4jnsgd1na2vs0mg"},{"bike_id":"0c354b45-266c-4cb0-9335-fed742e8cb00","system_id":"levelo_inurba_marseille","lat":43.304274,"lon":5.388873,"is_reserved":false,"is_disabled":false,"rental_uris":{"android":"levelo://app?vid=0c354b45-266c-4cb0-9335-fed742e8cb00","ios":"levelo://app?vid=0c354b45-266c-4cb0-9335-fed742e8cb00"},"vehicle_type_id":"4","last_reported":1723756100,"current_range_meters":27600,"station_id":"ce4bgk12rcd13ifvqbi0","pricing_plan_id":"cebpf4jnsgd1na2vs0mg"},{"bike_id":"8875135f-ab58-4145-8858-6374db1d4e76","system_id":"levelo_inurba_marseille","lat":43.29609,"lon":5.37714,"is_reserved":false,"is_disabled":false,"rental_uris":{"android":"levelo://app?vid=8875135f-ab58-4145-8858-6374db1d4e76","ios":"levelo://app?vid=8875135f-ab58-4145-8858-6374db1d4e76"},"vehicle_type_id":"4","last_reported":1723756100,"current_range_meters":17600,"station_id":"ce4bgi92rcd13ifvqb90","pricing_plan_id":"cebpf4jnsgd1na2vs0mg"},{"bike_id":"2df6893c-9fc5-4cc8-97ee-36a68a7d5997","system_id":"levelo_inurba_marseille","lat":43.304274,"lon":5.388873,"is_reserved":false,"is_disabled":false,"rental_uris":{"android":"levelo://app?vid=2df6893c-9fc5-4cc8-97ee-36a68a7d5997","ios":"levelo://app?vid=2df6893c-9fc5-4cc8-97ee-36a68a7d5997"},"vehicle_type_id":"4","last_reported":1723756100,"current_range_meters":14400,"station_id":"ce4bgk12rcd13ifvqbi0","pricing_plan_id":"cebpf4jnsgd1na2vs0mg"},{"bike_id":"038f2c50-46a6-43b0-b668-1faec322a8d1","system_id":"levelo_inurba_marseille","lat":43.29979,"lon":5.38486,"is_reserved":false,"is_disabled":false,"rental_uris":{"android":"levelo://app?vid=038f2c50-46a6-43b0-b668-1faec322a8d1","ios":"levelo://app?vid=038f2c50-46a6-43b0-b668-1faec322a8d1"},"vehicle_type_id":"4","last_reported":1723756100,"current_range_meters":9600,"station_id":"ce4bgj92rcd13ifvqbd0","pricing_plan_id":"cebpf4jnsgd1na2vs0mg"},{"bike_id":"f13aff0c-7eeb-4c09-9267-bf72315253cc","system_id":"levelo_inurba_marseille","lat":43.299717,"lon":5.384845,"is_reserved":false,"is_disabled":false,"rental_uris":{"android":"levelo://app?vid=f13aff0c-7eeb-4c09-9267-bf72315253cc","ios":"levelo://app?vid=f13aff0c-7eeb-4c09-9267-bf72315253cc"},"vehicle_type_id":"4","last_reported":1723756100,"current_range_meters":31200,"station_id":"ce4bgj92rcd13ifvqbd0","pricing_plan_id":"cebpf4jnsgd1na2vs0mg"},{"bike_id":"5d8a0386-412f-4fc4-9b46-3dafead10027","system_id":"levelo_inurba_marseille","lat":43.299762,"lon":5.384933,"is_reserved":false,"is_disabled":false,"rental_uris":{"android":"levelo://app?vid=5d8a0386-412f-4fc4-9b46-3dafead10027","ios":"levelo://app?vid=5d8a0386-412f-4fc4-9b46-3dafead10027"},"vehicle_type_id":"4","last_reported":1723756100,"current_range_meters":15200,"station_id":"ce4bgj92rcd13ifvqbd0","pricing_plan_id":"cebpf4jnsgd1na2vs0mg"},{"bike_id":"43fea45d-cf29-4471-a37c-35d0f5e0c6e7","system_id":"levelo_inurba_marseille","lat":43.299707,"lon":5.384859,"is_reserved":false,"is_disabled":false,"rental_uris":{"android":"levelo://app?vid=43fea45d-cf29-4471-a37c-35d0f5e0c6e7","ios":"levelo://app?vid=43fea45d-cf29-4471-a37c-35d0f5e0c6e7"},"vehicle_type_id":"4","last_reported":1723756100,"current_range_meters":31200,"station_id":"ce4bgj92rcd13ifvqbd0","pricing_plan_id":"cebpf4jnsgd1na2vs0mg"},{"bike_id":"990b3da0-74ae-4b58-a4aa-934911c97ac4","system_id":"levelo_inurba_marseille","lat":43.295279,"lon":5.375048,"is_reserved":false,"is_disabled":false,"rental_uris":{"android":"levelo://app?vid=990b3da0-74ae-4b58-a4aa-934911c97ac4","ios":"levelo://app?vid=990b3da0-74ae-4b58-a4aa-934911c97ac4"},"vehicle_type_id":"4","last_reported":1723756100,"current_range_meters":31200,"station_id":"ce4bgkp2rcd13ifvqbmg","pricing_plan_id":"cebpf4jnsgd1na2vs0mg"},{"bike_id":"2d583bf6-f12c-43d1-99e0-e933380ee72c","system_id":"levelo_inurba_marseille","lat":43.299707,"lon":5.384859,"is_reserved":false,"is_disabled":false,"rental_uris":{"android":"levelo://app?vid=2d583bf6-f12c-43d1-99e0-e933380ee72c","ios":"levelo://app?vid=2d583bf6-f12c-43d1-99e0-e933380ee72c"},"vehicle_type_id":"4","last_reported":1723756100,"current_range_meters":31600,"station_id":"ce4bgj92rcd13ifvqbd0","pricing_plan_id":"cebpf4jnsgd1na2vs0mg"},{"bike_id":"516cae56-515b-4a12-917c-1073545f600a","system_id":"levelo_inurba_marseille","lat":43.299717,"lon":5.384845,"is_reserved":false,"is_disabled":false,"rental_uris":{"android":"levelo://app?vid=516cae56-515b-4a12-917c-1073545f600a","ios":"levelo://app?vid=516cae56-515b-4a12-917c-1073545f600a"},"vehicle_type_id":"4","last_reported":1723756100,"current_range_meters":20800,"station_id":"ce4bgj92rcd13ifvqbd0","pricing_plan_id":"cebpf4jnsgd1na2vs0mg"},{"bike_id":"83f49b58-cd33-4829-aa7b-ce0d14a586da","system_id":"levelo_inurba_marseille","lat":43.299724,"lon":5.384848,"is_reserved":false,"is_disabled":false,"rental_uris":{"android":"levelo://app?vid=83f49b58-cd33-4829-aa7b-ce0d14a586da","ios":"levelo://app?vid=83f49b58-cd33-4829-aa7b-ce0d14a586da"},"vehicle_type_id":"4","last_reported":1723756100,"current_range_meters":31200,"station_id":"ce4bgj92rcd13ifvqbd0","pricing_plan_id":"cebpf4jnsgd1na2vs0mg"},{"bike_id":"97c7d097-bbe2-44c8-a0ca-d9e7a4b0ef0f","system_id":"levelo_inurba_marseille","lat":43.295279,"lon":5.375048,"is_reserved":false,"is_disabled":false,"rental_uris":{"android":"levelo://app?vid=97c7d097-bbe2-44c8-a0ca-d9e7a4b0ef0f","ios":"levelo://app?vid=97c7d097-bbe2-44c8-a0ca-d9e7a4b0ef0f"},"vehicle_type_id":"4","last_reported":1723756100,"current_range_meters":30800,"station_id":"ce4bgkp2rcd13ifvqbmg","pricing_plan_id":"cebpf4jnsgd1na2vs0mg"},{"bike_id":"432d5746-0e2c-4a7b-ba0a-4360e39c106a","system_id":"levelo_inurba_marseille","lat":43.299724,"lon":5.384848,"is_reserved":false,"is_disabled":false,"rental_uris":{"android":"levelo://app?vid=432d5746-0e2c-4a7b-ba0a-4360e39c106a","ios":"levelo://app?vid=432d5746-0e2c-4a7b-ba0a-4360e39c106a"},"vehicle_type_id":"4","last_reported":1723756100,"current_range_meters":28800,"station_id":"ce4bgj92rcd13ifvqbd0","pricing_plan_id":"cebpf4jnsgd1na2vs0mg"},{"bike_id":"6a20b0ad-0c02-45ad-b01b-193e53c4d628","system_id":"levelo_inurba_marseille","lat":43.299724,"lon":5.384848,"is_reserved":false,"is_disabled":false,"rental_uris":{"android":"levelo://app?vid=6a20b0ad-0c02-45ad-b01b-193e53c4d628","ios":"levelo://app?vid=6a20b0ad-0c02-45ad-b01b-193e53c4d628"},"vehicle_type_id":"4","last_reported":1723756100,"current_range_meters":18000,"station_id":"ce4bgj92rcd13ifvqbd0","pricing_plan_id":"cebpf4jnsgd1na2vs0mg"},{"bike_id":"43cbd206-f888-4af4-8d60-316bb76f52a5","system_id":"levelo_inurba_marseille","lat":43.29965,"lon":5.38507,"is_reserved":false,"is_disabled":false,"rental_uris":{"android":"levelo://app?vid=43cbd206-f888-4af4-8d60-316bb76f52a5","ios":"levelo://app?vid=43cbd206-f888-4af4-8d60-316bb76f52a5"},"vehicle_type_id":"4","last_reported":1723756100,"current_range_meters":17200,"station_id":"ce4bgj92rcd13ifvqbd0","pricing_plan_id":"cebpf4jnsgd1na2vs0mg"},{"bike_id":"041eedcc-61e8-4a94-a965-8697a73c81a4","system_id":"levelo_inurba_marseille","lat":43.299724,"lon":5.384848,"is_reserved":false,"is_disabled":false,"rental_uris":{"android":"levelo://app?vid=041eedcc-61e8-4a94-a965-8697a73c81a4","ios":"levelo://app?vid=041eedcc-61e8-4a94-a965-8697a73c81a4"},"vehicle_type_id":"4","last_reported":1723756100,"current_range_meters":19600,"station_id":"ce4bgj92rcd13ifvqbd0","pricing_plan_id":"cebpf4jnsgd1na2vs0mg"},{"bike_id":"619489e1-8e76-4322-8c16-889256fef880","system_id":"levelo_inurba_marseille","lat":43.299724,"lon":5.384848,"is_reserved":false,"is_disabled":false,"rental_uris":{"android":"levelo://app?vid=619489e1-8e76-4322-8c16-889256fef880","ios":"levelo://app?vid=619489e1-8e76-4322-8c16-889256fef880"},"vehicle_type_id":"4","last_reported":1723756100,"current_range_meters":0,"station_id":"ce4bgj92rcd13ifvqbd0","pricing_plan_id":"cebpf4jnsgd1na2vs0mg"},{"bike_id":"c91139bd-d537-43dd-b8a2-bb96b76ec282","system_id":"levelo_inurba_marseille","lat":43.295279,"lon":5.375048,"is_reserved":false,"is_disabled":false,"rental_uris":{"android":"levelo://app?vid=c91139bd-d537-43dd-b8a2-bb96b76ec282","ios":"levelo://app?vid=c91139bd-d537-43dd-b8a2-bb96b76ec282"},"vehicle_type_id":"4","last_reported":1723756100,"current_range_meters":15600,"station_id":"ce4bgkp2rcd13ifvqbmg","pricing_plan_id":"cebpf4jnsgd1na2vs0mg"},{"bike_id":"9424e3a5-541c-4537-98ea-6a2f5af7daf5","system_id":"levelo_inurba_marseille","lat":43.296482,"lon":5.379766,"is_reserved":false,"is_disabled":false,"rental_uris":{"android":"levelo://app?vid=9424e3a5-541c-4537-98ea-6a2f5af7daf5","ios":"levelo://app?vid=9424e3a5-541c-4537-98ea-6a2f5af7daf5"},"vehicle_type_id":"4","last_reported":1723756100,"current_range_meters":15200,"station_id":"","pricing_plan_id":"cebpf4jnsgd1na2vs0mg"},{"bike_id":"9c781eb3-142e-4642-b06a-8dde1c26ac3d","system_id":"levelo_inurba_marseille","lat":43.3236,"lon":5.38874,"is_reserved":false,"is_disabled":false,"rental_uris":{"android":"levelo://app?vid=9c781eb3-142e-4642-b06a-8dde1c26ac3d","ios":"levelo://app?vid=9c781eb3-142e-4642-b06a-8dde1c26ac3d"},"vehicle_type_id":"4","last_reported":1723756100,"current_range_meters":4800,"station_id":"ce4bhqp2rcd13ifvqhog","pricing_plan_id":"cebpf4jnsgd1na2vs0mg"},{"bike_id":"80d03ceb-5aaa-42c4-89fa-e7704230b5bc","system_id":"levelo_inurba_marseille","lat":43.32368,"lon":5.38877,"is_reserved":false,"is_disabled":false,"rental_uris":{"android":"levelo://app?vid=80d03ceb-5aaa-42c4-89fa-e7704230b5bc","ios":"levelo://app?vid=80d03ceb-5aaa-42c4-89fa-e7704230b5bc"},"vehicle_type_id":"4","last_reported":1723756100,"current_range_meters":3200,"station_id":"ce4bhqp2rcd13ifvqhog","pricing_plan_id":"cebpf4jnsgd1na2vs0mg"},{"bike_id":"c7e98b77-f8d1-429f-acb9-d200f22a3475","system_id":"levelo_inurba_marseille","lat":43.304274,"lon":5.388873,"is_reserved":false,"is_disabled":false,"rental_uris":{"android":"levelo://app?vid=c7e98b77-f8d1-429f-acb9-d200f22a3475","ios":"levelo://app?vid=c7e98b77-f8d1-429f-acb9-d200f22a3475"},"vehicle_type_id":"4","last_reported":1723756100,"current_range_meters":31600,"station_id":"ce4bgk12rcd13ifvqbi0","pricing_plan_id":"cebpf4jnsgd1na2vs0mg"},{"bike_id":"8f401e04-4a4d-4a89-89e8-753119c4158e","system_id":"levelo_inurba_marseille","lat":43.32358,"lon":5.38888,"is_reserved":false,"is_disabled":false,"rental_uris":{"android":"levelo://app?vid=8f401e04-4a4d-4a89-89e8-753119c4158e","ios":"levelo://app?vid=8f401e04-4a4d-4a89-89e8-753119c4158e"},"vehicle_type_id":"4","last_reported":1723756100,"current_range_meters":0,"station_id":"ce4bhqp2rcd13ifvqhog","pricing_plan_id":"cebpf4jnsgd1na2vs0mg"},{"bike_id":"0d595970-cc1d-441f-85df-eab93e02d00d","system_id":"levelo_inurba_marseille","lat":43.32363,"lon":5.38885,"is_reserved":false,"is_disabled":false,"rental_uris":{"android":"levelo://app?vid=0d595970-cc1d-441f-85df-eab93e02d00d","ios":"levelo://app?vid=0d595970-cc1d-441f-85df-eab93e02d00d"},"vehicle_type_id":"4","last_reported":1723756100,"current_range_meters":22400,"station_id":"ce4bhqp2rcd13ifvqhog","pricing_plan_id":"cebpf4jnsgd1na2vs0mg"},{"bike_id":"35c39432-0974-4acf-8cb7-2ec13f6061e0","system_id":"levelo_inurba_marseille","lat":43.32363,"lon":5.38886,"is_reserved":false,"is_disabled":false,"rental_uris":{"android":"levelo://app?vid=35c39432-0974-4acf-8cb7-2ec13f6061e0","ios":"levelo://app?vid=35c39432-0974-4acf-8cb7-2ec13f6061e0"},"vehicle_type_id":"4","last_reported":1723756100,"current_range_meters":24400,"station_id":"ce4bhqp2rcd13ifvqhog","pricing_plan_id":"cebpf4jnsgd1na2vs0mg"},{"bike_id":"854ef2f0-9791-48e4-8fe7-1c6517cc4760","system_id":"levelo_inurba_marseille","lat":43.29602,"lon":5.381084,"is_reserved":false,"is_disabled":false,"rental_uris":{"android":"levelo://app?vid=854ef2f0-9791-48e4-8fe7-1c6517cc4760","ios":"levelo://app?vid=854ef2f0-9791-48e4-8fe7-1c6517cc4760"},"vehicle_type_id":"4","last_reported":1723756100,"current_range_meters":27200,"station_id":"ce4bgl12rcd13ifvqbo0","pricing_plan_id":"cebpf4jnsgd1na2vs0mg"},{"bike_id":"1d54f072-b260-4e89-8344-ef5b4b156968","system_id":"levelo_inurba_marseille","lat":43.29602,"lon":5.381084,"is_reserved":false,"is_disabled":false,"rental_uris":{"android":"levelo://app?vid=1d54f072-b260-4e89-8344-ef5b4b156968","ios":"levelo://app?vid=1d54f072-b260-4e89-8344-ef5b4b156968"},"vehicle_type_id":"4","last_reported":1723756100,"current_range_meters":0,"station_id":"ce4bgl12rcd13ifvqbo0","pricing_plan_id":"cebpf4jnsgd1na2vs0mg"},{"bike_id":"2b45e821-c65c-4863-859d-1a584a79fec2","system_id":"levelo_inurba_marseille","lat":43.29602,"lon":5.381084,"is_reserved":false,"is_disabled":false,"rental_uris":{"android":"levelo://app?vid=2b45e821-c65c-4863-859d-1a584a79fec2","ios":"levelo://app?vid=2b45e821-c65c-4863-859d-1a584a79fec2"},"vehicle_type_id":"4","last_reported":1723756100,"current_range_meters":9200,"station_id":"ce4bgl12rcd13ifvqbo0","pricing_plan_id":"cebpf4jnsgd1na2vs0mg"},{"bike_id":"ec9e3f05-5230-46ac-9286-c5669014c011","system_id":"levelo_inurba_marseille","lat":43.29602,"lon":5.381084,"is_reserved":false,"is_disabled":false,"rental_uris":{"android":"levelo://app?vid=ec9e3f05-5230-46ac-9286-c5669014c011","ios":"levelo://app?vid=ec9e3f05-5230-46ac-9286-c5669014c011"},"vehicle_type_id":"4","last_reported":1723756100,"current_range_meters":10000,"station_id":"ce4bgl12rcd13ifvqbo0","pricing_plan_id":"cebpf4jnsgd1na2vs0mg"},{"bike_id":"91194db9-be2b-414f-b355-ba8ed74f883a","system_id":"levelo_inurba_marseille","lat":43.293298,"lon":5.370964,"is_reserved":false,"is_disabled":false,"rental_uris":{"android":"levelo://app?vid=91194db9-be2b-414f-b355-ba8ed74f883a","ios":"levelo://app?vid=91194db9-be2b-414f-b355-ba8ed74f883a"},"vehicle_type_id":"4","last_reported":1723756100,"current_range_meters":6000,"station_id":"","pricing_plan_id":"cebpf4jnsgd1na2vs0mg"},{"bike_id":"bda8b20d-c1c8-423b-9415-b6025768a8dd","system_id":"levelo_inurba_marseille","lat":43.29595,"lon":5.38099,"is_reserved":false,"is_disabled":false,"rental_uris":{"android":"levelo://app?vid=bda8b20d-c1c8-423b-9415-b6025768a8dd","ios":"levelo://app?vid=bda8b20d-c1c8-423b-9415-b6025768a8dd"},"vehicle_type_id":"4","last_reported":1723756100,"current_range_meters":20400,"station_id":"ce4bgl12rcd13ifvqbo0","pricing_plan_id":"cebpf4jnsgd1na2vs0mg"},{"bike_id":"f789d103-e2d3-4af9-9180-2b5311428292","system_id":"levelo_inurba_marseille","lat":43.29602,"lon":5.381084,"is_reserved":false,"is_disabled":false,"rental_uris":{"android":"levelo://app?vid=f789d103-e2d3-4af9-9180-2b5311428292","ios":"levelo://app?vid=f789d103-e2d3-4af9-9180-2b5311428292"},"vehicle_type_id":"4","last_reported":1723756100,"current_range_meters":22000,"station_id":"ce4bgl12rcd13ifvqbo0","pricing_plan_id":"cebpf4jnsgd1na2vs0mg"},{"bike_id":"40f03708-0ce1-4bee-8bbd-e8799006a366","system_id":"levelo_inurba_marseille","lat":43.29602,"lon":5.381084,"is_reserved":false,"is_disabled":false,"rental_uris":{"android":"levelo://app?vid=40f03708-0ce1-4bee-8bbd-e8799006a366","ios":"levelo://app?vid=40f03708-0ce1-4bee-8bbd-e8799006a366"},"vehicle_type_id":"4","last_reported":1723756100,"current_range_meters":19600,"station_id":"ce4bgl12rcd13ifvqbo0","pricing_plan_id":"cebpf4jnsgd1na2vs0mg"},{"bike_id":"f848aad3-9c44-401f-ac62-6124bb1bb93a","system_id":"levelo_inurba_marseille","lat":43.29602,"lon":5.381084,"is_reserved":false,"is_disabled":false,"rental_uris":{"android":"levelo://app?vid=f848aad3-9c44-401f-ac62-6124bb1bb93a","ios":"levelo://app?vid=f848aad3-9c44-401f-ac62-6124bb1bb93a"},"vehicle_type_id":"4","last_reported":1723756100,"current_range_meters":16000,"station_id":"ce4bgl12rcd13ifvqbo0","pricing_plan_id":"cebpf4jnsgd1na2vs0mg"},{"bike_id":"f235984b-822a-4dc1-b14d-6523dc64d6e8","system_id":"levelo_inurba_marseille","lat":43.29304,"lon":5.37174,"is_reserved":false,"is_disabled":false,"rental_uris":{"android":"levelo://app?vid=f235984b-822a-4dc1-b14d-6523dc64d6e8","ios":"levelo://app?vid=f235984b-822a-4dc1-b14d-6523dc64d6e8"},"vehicle_type_id":"4","last_reported":1723756100,"current_range_meters":31200,"station_id":"ce4bgh92rcd13ifvqb40","pricing_plan_id":"cebpf4jnsgd1na2vs0mg"},{"bike_id":"4140d889-aaf9-4b15-8a11-a581354b1510","system_id":"levelo_inurba_marseille","lat":43.293259,"lon":5.371586,"is_reserved":false,"is_disabled":false,"rental_uris":{"android":"levelo://app?vid=4140d889-aaf9-4b15-8a11-a581354b1510","ios":"levelo://app?vid=4140d889-aaf9-4b15-8a11-a581354b1510"},"vehicle_type_id":"4","last_reported":1723756100,"current_range_meters":14400,"station_id":"ce4bgh92rcd13ifvqb40","pricing_plan_id":"cebpf4jnsgd1na2vs0mg"},{"bike_id":"1f06946e-5115-4899-b4c0-5815c6116cf4","system_id":"levelo_inurba_marseille","lat":43.292749,"lon":5.368402,"is_reserved":false,"is_disabled":false,"rental_uris":{"android":"levelo://app?vid=1f06946e-5115-4899-b4c0-5815c6116cf4","ios":"levelo://app?vid=1f06946e-5115-4899-b4c0-5815c6116cf4"},"vehicle_type_id":"4","last_reported":1723756100,"current_range_meters":26000,"station_id":"ce4bhbp2rcd13ifvqesg","pricing_plan_id":"cebpf4jnsgd1na2vs0mg"},{"bike_id":"6a836cee-c2d7-47ad-848b-09313926110e","system_id":"levelo_inurba_marseille","lat":43.29272,"lon":5.36839,"is_reserved":false,"is_disabled":false,"rental_uris":{"android":"levelo://app?vid=6a836cee-c2d7-47ad-848b-09313926110e","ios":"levelo://app?vid=6a836cee-c2d7-47ad-848b-09313926110e"},"vehicle_type_id":"4","last_reported":1723756100,"current_range_meters":31200,"station_id":"ce4bhbp2rcd13ifvqesg","pricing_plan_id":"cebpf4jnsgd1na2vs0mg"},{"bike_id":"11119d7c-b0b3-4186-b288-179cfbb71a5d","system_id":"levelo_inurba_marseille","lat":43.29272,"lon":5.36841,"is_reserved":false,"is_disabled":false,"rental_uris":{"android":"levelo://app?vid=11119d7c-b0b3-4186-b288-179cfbb71a5d","ios":"levelo://app?vid=11119d7c-b0b3-4186-b288-179cfbb71a5d"},"vehicle_type_id":"4","last_reported":1723756100,"current_range_meters":21200,"station_id":"ce4bhbp2rcd13ifvqesg","pricing_plan_id":"cebpf4jnsgd1na2vs0mg"},{"bike_id":"6918f3c4-82eb-47c9-bea6-52c455e9bc0a","system_id":"levelo_inurba_marseille","lat":43.29394,"lon":5.37663,"is_reserved":false,"is_disabled":false,"rental_uris":{"android":"levelo://app?vid=6918f3c4-82eb-47c9-bea6-52c455e9bc0a","ios":"levelo://app?vid=6918f3c4-82eb-47c9-bea6-52c455e9bc0a"},"vehicle_type_id":"4","last_reported":1723756100,"current_range_meters":12000,"station_id":"","pricing_plan_id":"cebpf4jnsgd1na2vs0mg"},{"bike_id":"fa14b66d-662d-4f0e-a5c1-86db4158f114","system_id":"levelo_inurba_marseille","lat":43.292749,"lon":5.368402,"is_reserved":false,"is_disabled":false,"rental_uris":{"android":"levelo://app?vid=fa14b66d-662d-4f0e-a5c1-86db4158f114","ios":"levelo://app?vid=fa14b66d-662d-4f0e-a5c1-86db4158f114"},"vehicle_type_id":"4","last_reported":1723756100,"current_range_meters":31200,"station_id":"ce4bhbp2rcd13ifvqesg","pricing_plan_id":"cebpf4jnsgd1na2vs0mg"},{"bike_id":"986b68ee-6c01-4b04-bf82-f0322008c958","system_id":"levelo_inurba_marseille","lat":43.29268,"lon":5.36858,"is_reserved":false,"is_disabled":false,"rental_uris":{"android":"levelo://app?vid=986b68ee-6c01-4b04-bf82-f0322008c958","ios":"levelo://app?vid=986b68ee-6c01-4b04-bf82-f0322008c958"},"vehicle_type_id":"4","last_reported":1723756100,"current_range_meters":31200,"station_id":"ce4bhbp2rcd13ifvqesg","pricing_plan_id":"cebpf4jnsgd1na2vs0mg"},{"bike_id":"a82ef319-6c6b-4e81-b003-c5fcf80f0f34","system_id":"levelo_inurba_marseille","lat":43.293009,"lon":5.374584,"is_reserved":false,"is_disabled":false,"rental_uris":{"android":"levelo://app?vid=a82ef319-6c6b-4e81-b003-c5fcf80f0f34","ios":"levelo://app?vid=a82ef319-6c6b-4e81-b003-c5fcf80f0f34"},"vehicle_type_id":"4","last_reported":1723756100,"current_range_meters":11200,"station_id":"ce4bgi12rcd13ifvqb70","pricing_plan_id":"cebpf4jnsgd1na2vs0mg"},{"bike_id":"1ac82a3d-99f2-4264-b6fb-58374aea13b5","system_id":"levelo_inurba_marseille","lat":43.293009,"lon":5.374584,"is_reserved":false,"is_disabled":false,"rental_uris":{"android":"levelo://app?vid=1ac82a3d-99f2-4264-b6fb-58374aea13b5","ios":"levelo://app?vid=1ac82a3d-99f2-4264-b6fb-58374aea13b5"},"vehicle_type_id":"4","last_reported":1723756100,"current_range_meters":32000,"station_id":"ce4bgi12rcd13ifvqb70","pricing_plan_id":"cebpf4jnsgd1na2vs0mg"},{"bike_id":"029675b8-f181-4ca1-8c7d-4545284e5756","system_id":"levelo_inurba_marseille","lat":43.305994,"lon":5.393687,"is_reserved":false,"is_disabled":false,"rental_uris":{"android":"levelo://app?vid=029675b8-f181-4ca1-8c7d-4545284e5756","ios":"levelo://app?vid=029675b8-f181-4ca1-8c7d-4545284e5756"},"vehicle_type_id":"4","last_reported":1723756100,"current_range_meters":19600,"station_id":"ce4bh0p2rcd13ifvqd80","pricing_plan_id":"cebpf4jnsgd1na2vs0mg"},{"bike_id":"f9701169-f9d9-4251-93c7-4222eeb2ee26","system_id":"levelo_inurba_marseille","lat":43.293009,"lon":5.374584,"is_reserved":false,"is_disabled":false,"rental_uris":{"android":"levelo://app?vid=f9701169-f9d9-4251-93c7-4222eeb2ee26","ios":"levelo://app?vid=f9701169-f9d9-4251-93c7-4222eeb2ee26"},"vehicle_type_id":"4","last_reported":1723756100,"current_range_meters":27600,"station_id":"ce4bgi12rcd13ifvqb70","pricing_plan_id":"cebpf4jnsgd1na2vs0mg"},{"bike_id":"00a05ffb-0800-4ba9-ac4c-3bd3ee30d6d0","system_id":"levelo_inurba_marseille","lat":43.293009,"lon":5.374584,"is_reserved":false,"is_disabled":false,"rental_uris":{"android":"levelo://app?vid=00a05ffb-0800-4ba9-ac4c-3bd3ee30d6d0","ios":"levelo://app?vid=00a05ffb-0800-4ba9-ac4c-3bd3ee30d6d0"},"vehicle_type_id":"4","last_reported":1723756100,"current_range_meters":12800,"station_id":"ce4bgi12rcd13ifvqb70","pricing_plan_id":"cebpf4jnsgd1na2vs0mg"},{"bike_id":"493fa902-c766-4a5c-a113-3993765604be","system_id":"levelo_inurba_marseille","lat":43.29293,"lon":5.37452,"is_reserved":false,"is_disabled":false,"rental_uris":{"android":"levelo://app?vid=493fa902-c766-4a5c-a113-3993765604be","ios":"levelo://app?vid=493fa902-c766-4a5c-a113-3993765604be"},"vehicle_type_id":"4","last_reported":1723756100,"current_range_meters":20800,"station_id":"ce4bgi12rcd13ifvqb70","pricing_plan_id":"cebpf4jnsgd1na2vs0mg"},{"bike_id":"338bdf19-f45e-4f25-8222-c78a47e67bd4","system_id":"levelo_inurba_marseille","lat":43.305994,"lon":5.393687,"is_reserved":false,"is_disabled":false,"rental_uris":{"android":"levelo://app?vid=338bdf19-f45e-4f25-8222-c78a47e67bd4","ios":"levelo://app?vid=338bdf19-f45e-4f25-8222-c78a47e67bd4"},"vehicle_type_id":"4","last_reported":1723756100,"current_range_meters":7200,"station_id":"ce4bh0p2rcd13ifvqd80","pricing_plan_id":"cebpf4jnsgd1na2vs0mg"},{"bike_id":"6391d3b8-5a3f-4351-9ed6-1d15e69bb6db","system_id":"levelo_inurba_marseille","lat":43.305994,"lon":5.393687,"is_reserved":false,"is_disabled":false,"rental_uris":{"android":"levelo://app?vid=6391d3b8-5a3f-4351-9ed6-1d15e69bb6db","ios":"levelo://app?vid=6391d3b8-5a3f-4351-9ed6-1d15e69bb6db"},"vehicle_type_id":"4","last_reported":1723756100,"current_range_meters":7200,"station_id":"ce4bh0p2rcd13ifvqd80","pricing_plan_id":"cebpf4jnsgd1na2vs0mg"},{"bike_id":"de43b8ab-3a9c-47a4-9e34-00b26df73082","system_id":"levelo_inurba_marseille","lat":43.305994,"lon":5.393687,"is_reserved":false,"is_disabled":false,"rental_uris":{"android":"levelo://app?vid=de43b8ab-3a9c-47a4-9e34-00b26df73082","ios":"levelo://app?vid=de43b8ab-3a9c-47a4-9e34-00b26df73082"},"vehicle_type_id":"4","last_reported":1723756100,"current_range_meters":23200,"station_id":"ce4bh0p2rcd13ifvqd80","pricing_plan_id":"cebpf4jnsgd1na2vs0mg"},{"bike_id":"e76737e5-1433-478e-9ce6-c2c08c6f9df9","system_id":"levelo_inurba_marseille","lat":43.305994,"lon":5.393687,"is_reserved":false,"is_disabled":false,"rental_uris":{"android":"levelo://app?vid=e76737e5-1433-478e-9ce6-c2c08c6f9df9","ios":"levelo://app?vid=e76737e5-1433-478e-9ce6-c2c08c6f9df9"},"vehicle_type_id":"4","last_reported":1723756100,"current_range_meters":20400,"station_id":"ce4bh0p2rcd13ifvqd80","pricing_plan_id":"cebpf4jnsgd1na2vs0mg"},{"bike_id":"4d781b09-9010-4f4e-bd79-74a43a115ad3","system_id":"levelo_inurba_marseille","lat":43.303002,"lon":5.392142,"is_reserved":false,"is_disabled":false,"rental_uris":{"android":"levelo://app?vid=4d781b09-9010-4f4e-bd79-74a43a115ad3","ios":"levelo://app?vid=4d781b09-9010-4f4e-bd79-74a43a115ad3"},"vehicle_type_id":"4","last_reported":1723756100,"current_range_meters":0,"station_id":"ce4bgkh2rcd13ifvqbk0","pricing_plan_id":"cebpf4jnsgd1na2vs0mg"},{"bike_id":"5a630f57-3854-474e-8dd9-69b867179203","system_id":"levelo_inurba_marseille","lat":43.305994,"lon":5.393687,"is_reserved":false,"is_disabled":false,"rental_uris":{"android":"levelo://app?vid=5a630f57-3854-474e-8dd9-69b867179203","ios":"levelo://app?vid=5a630f57-3854-474e-8dd9-69b867179203"},"vehicle_type_id":"4","last_reported":1723756100,"current_range_meters":31600,"station_id":"ce4bh0p2rcd13ifvqd80","pricing_plan_id":"cebpf4jnsgd1na2vs0mg"},{"bike_id":"6c31d5ae-b073-4581-acae-ba9368a91a75","system_id":"levelo_inurba_marseille","lat":43.305994,"lon":5.393687,"is_reserved":false,"is_disabled":false,"rental_uris":{"android":"levelo://app?vid=6c31d5ae-b073-4581-acae-ba9368a91a75","ios":"levelo://app?vid=6c31d5ae-b073-4581-acae-ba9368a91a75"},"vehicle_type_id":"4","last_reported":1723756100,"current_range_meters":25600,"station_id":"ce4bh0p2rcd13ifvqd80","pricing_plan_id":"cebpf4jnsgd1na2vs0mg"},{"bike_id":"fe561d69-a326-4ec9-bcdb-3c4971bda38b","system_id":"levelo_inurba_marseille","lat":43.2936,"lon":5.37835,"is_reserved":false,"is_disabled":false,"rental_uris":{"android":"levelo://app?vid=fe561d69-a326-4ec9-bcdb-3c4971bda38b","ios":"levelo://app?vid=fe561d69-a326-4ec9-bcdb-3c4971bda38b"},"vehicle_type_id":"4","last_reported":1723756100,"current_range_meters":23200,"station_id":"ce4bgjh2rcd13ifvqbf0","pricing_plan_id":"cebpf4jnsgd1na2vs0mg"},{"bike_id":"3b50b3ff-6ee3-4957-9fc2-02fb16cf37a6","system_id":"levelo_inurba_marseille","lat":43.2936,"lon":5.37835,"is_reserved":false,"is_disabled":false,"rental_uris":{"android":"levelo://app?vid=3b50b3ff-6ee3-4957-9fc2-02fb16cf37a6","ios":"levelo://app?vid=3b50b3ff-6ee3-4957-9fc2-02fb16cf37a6"},"vehicle_type_id":"4","last_reported":1723756100,"current_range_meters":20800,"station_id":"ce4bgjh2rcd13ifvqbf0","pricing_plan_id":"cebpf4jnsgd1na2vs0mg"},{"bike_id":"12a69f2c-6c9a-4413-92d5-0a20722dd10d","system_id":"levelo_inurba_marseille","lat":43.30101,"lon":5.39058,"is_reserved":false,"is_disabled":false,"rental_uris":{"android":"levelo://app?vid=12a69f2c-6c9a-4413-92d5-0a20722dd10d","ios":"levelo://app?vid=12a69f2c-6c9a-4413-92d5-0a20722dd10d"},"vehicle_type_id":"4","last_reported":1723756100,"current_range_meters":11600,"station_id":"ce4bh192rcd13ifvqdb0","pricing_plan_id":"cebpf4jnsgd1na2vs0mg"},{"bike_id":"9487e66a-6b08-483a-a9fb-adcb467d714c","system_id":"levelo_inurba_marseille","lat":43.2936,"lon":5.37835,"is_reserved":false,"is_disabled":false,"rental_uris":{"android":"levelo://app?vid=9487e66a-6b08-483a-a9fb-adcb467d714c","ios":"levelo://app?vid=9487e66a-6b08-483a-a9fb-adcb467d714c"},"vehicle_type_id":"4","last_reported":1723756100,"current_range_meters":14400,"station_id":"ce4bgjh2rcd13ifvqbf0","pricing_plan_id":"cebpf4jnsgd1na2vs0mg"},{"bike_id":"083a9f75-55f8-4a9f-9ea1-50bef0f82c89","system_id":"levelo_inurba_marseille","lat":43.30096,"lon":5.39069,"is_reserved":false,"is_disabled":false,"rental_uris":{"android":"levelo://app?vid=083a9f75-55f8-4a9f-9ea1-50bef0f82c89","ios":"levelo://app?vid=083a9f75-55f8-4a9f-9ea1-50bef0f82c89"},"vehicle_type_id":"4","last_reported":1723756100,"current_range_meters":8000,"station_id":"ce4bh192rcd13ifvqdb0","pricing_plan_id":"cebpf4jnsgd1na2vs0mg"},{"bike_id":"6b00fa46-fdcf-46c2-8ce7-86397f1544cb","system_id":"levelo_inurba_marseille","lat":43.291671,"lon":5.371575,"is_reserved":false,"is_disabled":false,"rental_uris":{"android":"levelo://app?vid=6b00fa46-fdcf-46c2-8ce7-86397f1544cb","ios":"levelo://app?vid=6b00fa46-fdcf-46c2-8ce7-86397f1544cb"},"vehicle_type_id":"4","last_reported":1723756100,"current_range_meters":27600,"station_id":"ce4bha92rcd13ifvqeh0","pricing_plan_id":"cebpf4jnsgd1na2vs0mg"},{"bike_id":"ab6fe463-c9ee-4166-a68d-1a0de9eed5b9","system_id":"levelo_inurba_marseille","lat":43.30085,"lon":5.390856,"is_reserved":false,"is_disabled":false,"rental_uris":{"android":"levelo://app?vid=ab6fe463-c9ee-4166-a68d-1a0de9eed5b9","ios":"levelo://app?vid=ab6fe463-c9ee-4166-a68d-1a0de9eed5b9"},"vehicle_type_id":"4","last_reported":1723756100,"current_range_meters":10800,"station_id":"ce4bh192rcd13ifvqdb0","pricing_plan_id":"cebpf4jnsgd1na2vs0mg"},{"bike_id":"94bd4e74-ffbf-4a64-a2c0-fa4a07cc510a","system_id":"levelo_inurba_marseille","lat":43.30085,"lon":5.390856,"is_reserved":false,"is_disabled":false,"rental_uris":{"android":"levelo://app?vid=94bd4e74-ffbf-4a64-a2c0-fa4a07cc510a","ios":"levelo://app?vid=94bd4e74-ffbf-4a64-a2c0-fa4a07cc510a"},"vehicle_type_id":"4","last_reported":1723756100,"current_range_meters":28000,"station_id":"ce4bh192rcd13ifvqdb0","pricing_plan_id":"cebpf4jnsgd1na2vs0mg"},{"bike_id":"0727d9d4-ff29-4a8b-a965-5889e34a0fc0","system_id":"levelo_inurba_marseille","lat":43.301026,"lon":5.390871,"is_reserved":false,"is_disabled":false,"rental_uris":{"android":"levelo://app?vid=0727d9d4-ff29-4a8b-a965-5889e34a0fc0","ios":"levelo://app?vid=0727d9d4-ff29-4a8b-a965-5889e34a0fc0"},"vehicle_type_id":"4","last_reported":1723756100,"current_range_meters":31200,"station_id":"ce4bh192rcd13ifvqdb0","pricing_plan_id":"cebpf4jnsgd1na2vs0mg"},{"bike_id":"a62c5437-a7da-4737-a3a5-4e1e6e472a5c","system_id":"levelo_inurba_marseille","lat":43.30085,"lon":5.390856,"is_reserved":false,"is_disabled":false,"rental_uris":{"android":"levelo://app?vid=a62c5437-a7da-4737-a3a5-4e1e6e472a5c","ios":"levelo://app?vid=a62c5437-a7da-4737-a3a5-4e1e6e472a5c"},"vehicle_type_id":"4","last_reported":1723756100,"current_range_meters":29200,"station_id":"ce4bh192rcd13ifvqdb0","pricing_plan_id":"cebpf4jnsgd1na2vs0mg"},{"bike_id":"9d365529-cace-477c-819e-3ef20569a6f9","system_id":"levelo_inurba_marseille","lat":43.291675,"lon":5.371583,"is_reserved":false,"is_disabled":false,"rental_uris":{"android":"levelo://app?vid=9d365529-cace-477c-819e-3ef20569a6f9","ios":"levelo://app?vid=9d365529-cace-477c-819e-3ef20569a6f9"},"vehicle_type_id":"4","last_reported":1723756100,"current_range_meters":17200,"station_id":"ce4bha92rcd13ifvqeh0","pricing_plan_id":"cebpf4jnsgd1na2vs0mg"},{"bike_id":"40f84a10-0f98-4330-a750-57a85a1bcef0","system_id":"levelo_inurba_marseille","lat":43.291675,"lon":5.371583,"is_reserved":false,"is_disabled":false,"rental_uris":{"android":"levelo://app?vid=40f84a10-0f98-4330-a750-57a85a1bcef0","ios":"levelo://app?vid=40f84a10-0f98-4330-a750-57a85a1bcef0"},"vehicle_type_id":"4","last_reported":1723756100,"current_range_meters":7600,"station_id":"ce4bha92rcd13ifvqeh0","pricing_plan_id":"cebpf4jnsgd1na2vs0mg"},{"bike_id":"7de458b7-28b7-403b-8678-a7d5a172a59f","system_id":"levelo_inurba_marseille","lat":43.29879,"lon":5.38912,"is_reserved":false,"is_disabled":false,"rental_uris":{"android":"levelo://app?vid=7de458b7-28b7-403b-8678-a7d5a172a59f","ios":"levelo://app?vid=7de458b7-28b7-403b-8678-a7d5a172a59f"},"vehicle_type_id":"4","last_reported":1723756100,"current_range_meters":8000,"station_id":"ce4bh392rcd13ifvqdl0","pricing_plan_id":"cebpf4jnsgd1na2vs0mg"},{"bike_id":"15dea8aa-76fe-4993-be29-942f99356f73","system_id":"levelo_inurba_marseille","lat":43.298775,"lon":5.389123,"is_reserved":false,"is_disabled":false,"rental_uris":{"android":"levelo://app?vid=15dea8aa-76fe-4993-be29-942f99356f73","ios":"levelo://app?vid=15dea8aa-76fe-4993-be29-942f99356f73"},"vehicle_type_id":"4","last_reported":1723756100,"current_range_meters":16000,"station_id":"ce4bh392rcd13ifvqdl0","pricing_plan_id":"cebpf4jnsgd1na2vs0mg"},{"bike_id":"83bcc77d-bf9f-4671-bbc3-fcf835756104","system_id":"levelo_inurba_marseille","lat":43.298733,"lon":5.3891,"is_reserved":false,"is_disabled":false,"rental_uris":{"android":"levelo://app?vid=83bcc77d-bf9f-4671-bbc3-fcf835756104","ios":"levelo://app?vid=83bcc77d-bf9f-4671-bbc3-fcf835756104"},"vehicle_type_id":"4","last_reported":1723756100,"current_range_meters":13600,"station_id":"ce4bh392rcd13ifvqdl0","pricing_plan_id":"cebpf4jnsgd1na2vs0mg"},{"bike_id":"ad892382-82a0-47dd-9998-238ba91ff35e","system_id":"levelo_inurba_marseille","lat":43.298746,"lon":5.389119,"is_reserved":false,"is_disabled":false,"rental_uris":{"android":"levelo://app?vid=ad892382-82a0-47dd-9998-238ba91ff35e","ios":"levelo://app?vid=ad892382-82a0-47dd-9998-238ba91ff35e"},"vehicle_type_id":"4","last_reported":1723756100,"current_range_meters":6400,"station_id":"ce4bh392rcd13ifvqdl0","pricing_plan_id":"cebpf4jnsgd1na2vs0mg"},{"bike_id":"15165b84-215b-4566-b5ca-4fdabe0248f6","system_id":"levelo_inurba_marseille","lat":43.298734,"lon":5.389114,"is_reserved":false,"is_disabled":false,"rental_uris":{"android":"levelo://app?vid=15165b84-215b-4566-b5ca-4fdabe0248f6","ios":"levelo://app?vid=15165b84-215b-4566-b5ca-4fdabe0248f6"},"vehicle_type_id":"4","last_reported":1723756100,"current_range_meters":19600,"station_id":"ce4bh392rcd13ifvqdl0","pricing_plan_id":"cebpf4jnsgd1na2vs0mg"},{"bike_id":"23e6314b-66c5-4c4d-bd39-a0ccbf6cf792","system_id":"levelo_inurba_marseille","lat":43.29875,"lon":5.38916,"is_reserved":false,"is_disabled":false,"rental_uris":{"android":"levelo://app?vid=23e6314b-66c5-4c4d-bd39-a0ccbf6cf792","ios":"levelo://app?vid=23e6314b-66c5-4c4d-bd39-a0ccbf6cf792"},