{"last_updated":1732392571,"ttl":60,"version":"2.2","data":{"bikes":[{"bike_id":"daaf9d74-d398-4648-b669-1b899abe8b01","system_id":"levelo_inurba_marseille","lat":43.29267,"lon":5.38442,"is_reserved":false,"is_disabled":false,"rental_uris":{"android":"levelo://app?vid=daaf9d74-d398-4648-b669-1b899abe8b01","ios":"levelo://app?vid=daaf9d74-d398-4648-b669-1b899abe8b01"},"vehicle_type_id":"4","last_reported":1732392571,"current_range_meters":38000,"station_id":"ce4bh692rcd13ifvqea0","pricing_plan_id":"cebpf4jnsgd1na2vs0mg"},{"bike_id":"9a592002-11fb-4de6-a5a9-2040f17876bf","system_id":"levelo_inurba_marseille","lat":43.32544,"lon":5.41445,"is_reserved":false,"is_disabled":false,"rental_uris":{"android":"levelo://app?vid=9a592002-11fb-4de6-a5a9-2040f17876bf","ios":"levelo://app?vid=9a592002-11fb-4de6-a5a9-2040f17876bf"},"vehicle_type_id":"4","last_reported":1732392571,"current_range_meters":16800,"station_id":"ce4bhq12rcd13ifvqhhg","pricing_plan_id":"cebpf4jnsgd1na2vs0mg"},{"bike_id":"cdd1d12a-849c-43bf-95f8-967c42189997","system_id":"levelo_inurba_marseille","lat":43.2903,"lon":5.39959,"is_reserved":false,"is_disabled":false,"rental_uris":{"android":"levelo://app?vid=cdd1d12a-849c-43bf-95f8-967c42189997","ios":"levelo://app?vid=cdd1d12a-849c-43bf-95f8-967c42189997"},"vehicle_type_id":"4","last_reported":1732392571,"current_range_meters":6400,"station_id":"ce4bh392rcd13ifvqdm0","pricing_plan_id":"cebpf4jnsgd1na2vs0mg"},{"bike_id":"7fdd3474-9bf6-4148-979e-5c8270968ce3","system_id":"levelo_inurba_marseille","lat":43.24071,"lon":5.37765,"is_reserved":false,"is_disabled":false,"rental_uris":{"android":"levelo://app?vid=7fdd3474-9bf6-4148-979e-5c8270968ce3","ios":"levelo://app?vid=7fdd3474-9bf6-4148-979e-5c8270968ce3"},"vehicle_type_id":"4","last_reported":1732392571,"current_range_meters":35200,"station_id":"ce4bhnp2rcd13ifvqgvg","pricing_plan_id":"cebpf4jnsgd1na2vs0mg"},{"bike_id":"57754270-81e6-4b54-a725-3439a25b1353","system_id":"levelo_inurba_marseille","lat":43.29299,"lon":5.37459,"is_reserved":false,"is_disabled":false,"rental_uris":{"android":"levelo://app?vid=57754270-81e6-4b54-a725-3439a25b1353","ios":"levelo://app?vid=57754270-81e6-4b54-a725-3439a25b1353"},"vehicle_type_id":"4","last_reported":1732392571,"current_range_meters":13600,"station_id":"ce4bgi12rcd13ifvqb70","pricing_plan_id":"cebpf4jnsgd1na2vs0mg"},{"bike_id":"a59b68fa-bc0b-444e-91b2-595ba8915745","system_id":"levelo_inurba_marseille","lat":43.26937,"lon":5.40251,"is_reserved":false,"is_disabled":false,"rental_uris":{"android":"levelo://app?vid=a59b68fa-bc0b-444e-91b2-595ba8915745","ios":"levelo://app?vid=a59b68fa-bc0b-444e-91b2-595ba8915745"},"vehicle_type_id":"4","last_reported":1732392571,"current_range_meters":20800,"station_id":"cjm6bp8fraef2m0cb0m0","pricing_plan_id":"cebpf4jnsgd1na2vs0mg"},{"bike_id":"fe7dea4e-d632-4642-aee0-92c00a764691","system_id":"levelo_inurba_marseille","lat":43.30134,"lon":5.38774,"is_reserved":false,"is_disabled":true,"rental_uris":{"android":"levelo://app?vid=fe7dea4e-d632-4642-aee0-92c00a764691","ios":"levelo://app?vid=fe7dea4e-d632-4642-aee0-92c00a764691"},"vehicle_type_id":"4","last_reported":1732392571,"current_range_meters":38000,"station_id":"ce4bghh2rcd13ifvqb60","pricing_plan_id":"cebpf4jnsgd1na2vs0mg"},{"bike_id":"665c76b9-31c3-4a91-bff7-a38d582abeb6","system_id":"levelo_inurba_marseille","lat":43.292648,"lon":5.38446,"is_reserved":false,"is_disabled":false,"rental_uris":{"android":"levelo://app?vid=665c76b9-31c3-4a91-bff7-a38d582abeb6","ios":"levelo://app?vid=665c76b9-31c3-4a91-bff7-a38d582abeb6"},"vehicle_type_id":"4","last_reported":1732392571,"current_range_meters":38800,"station_id":"ce4bh692rcd13ifvqea0","pricing_plan_id":"cebpf4jnsgd1na2vs0mg"},{"bike_id":"c3c77c20-4039-49ac-bd8c-55eab4b62a91","system_id":"levelo_inurba_marseille","lat":43.29709,"lon":5.36617,"is_reserved":false,"is_disabled":false,"rental_uris":{"android":"levelo://app?vid=c3c77c20-4039-49ac-bd8c-55eab4b62a91","ios":"levelo://app?vid=c3c77c20-4039-49ac-bd8c-55eab4b62a91"},"vehicle_type_id":"4","last_reported":1732392571,"current_range_meters":19600,"station_id":"ce4bgn12rcd13ifvqbt0","pricing_plan_id":"cebpf4jnsgd1na2vs0mg"},{"bike_id":"819705ac-445c-490e-b0a2-e8b996a35892","system_id":"levelo_inurba_marseille","lat":43.26687,"lon":5.38273,"is_reserved":false,"is_disabled":false,"rental_uris":{"android":"levelo://app?vid=819705ac-445c-490e-b0a2-e8b996a35892","ios":"levelo://app?vid=819705ac-445c-490e-b0a2-e8b996a35892"},"vehicle_type_id":"4","last_reported":1732392571,"current_range_meters":3200,"station_id":"ce4bhg92rcd13ifvqf90","pricing_plan_id":"cebpf4jnsgd1na2vs0mg"},{"bike_id":"d7298dcf-45ad-4a95-8b86-1bc15c7ec2a0","system_id":"levelo_inurba_marseille","lat":43.2927,"lon":5.38442,"is_reserved":false,"is_disabled":false,"rental_uris":{"android":"levelo://app?vid=d7298dcf-45ad-4a95-8b86-1bc15c7ec2a0","ios":"levelo://app?vid=d7298dcf-45ad-4a95-8b86-1bc15c7ec2a0"},"vehicle_type_id":"4","last_reported":1732392571,"current_range_meters":18800,"station_id":"ce4bh692rcd13ifvqea0","pricing_plan_id":"cebpf4jnsgd1na2vs0mg"},{"bike_id":"501fd5c7-aefe-4668-a292-112a2dc6dacb","system_id":"levelo_inurba_marseille","lat":43.24183,"lon":5.39719,"is_reserved":false,"is_disabled":false,"rental_uris":{"android":"levelo://app?vid=501fd5c7-aefe-4668-a292-112a2dc6dacb","ios":"levelo://app?vid=501fd5c7-aefe-4668-a292-112a2dc6dacb"},"vehicle_type_id":"4","last_reported":1732392571,"current_range_meters":35200,"station_id":"ce4bhn12rcd13ifvqgpg","pricing_plan_id":"cebpf4jnsgd1na2vs0mg"},{"bike_id":"55f34ee4-0cc6-44f2-b713-73977539b5e9","system_id":"levelo_inurba_marseille","lat":43.31499,"lon":5.37306,"is_reserved":false,"is_disabled":false,"rental_uris":{"android":"levelo://app?vid=55f34ee4-0cc6-44f2-b713-73977539b5e9","ios":"levelo://app?vid=55f34ee4-0cc6-44f2-b713-73977539b5e9"},"vehicle_type_id":"4","last_reported":1732392571,"current_range_meters":17600,"station_id":"ce4bgt12rcd13ifvqcd0","pricing_plan_id":"cebpf4jnsgd1na2vs0mg"},{"bike_id":"15baa10c-94da-4025-b0e4-4e5ada3bfa66","system_id":"levelo_inurba_marseille","lat":43.2678,"lon":5.39447,"is_reserved":false,"is_disabled":false,"rental_uris":{"android":"levelo://app?vid=15baa10c-94da-4025-b0e4-4e5ada3bfa66","ios":"levelo://app?vid=15baa10c-94da-4025-b0e4-4e5ada3bfa66"},"vehicle_type_id":"4","last_reported":1732392571,"current_range_meters":39200,"station_id":"ce4bhh12rcd13ifvqfg0","pricing_plan_id":"cebpf4jnsgd1na2vs0mg"},{"bike_id":"1d480d76-bb73-4781-930a-16c68fdce680","system_id":"levelo_inurba_marseille","lat":43.25579,"lon":5.38227,"is_reserved":false,"is_disabled":false,"rental_uris":{"android":"levelo://app?vid=1d480d76-bb73-4781-930a-16c68fdce680","ios":"levelo://app?vid=1d480d76-bb73-4781-930a-16c68fdce680"},"vehicle_type_id":"4","last_reported":1732392571,"current_range_meters":38800,"station_id":"ce4bhih2rcd13ifvqfs0","pricing_plan_id":"cebpf4jnsgd1na2vs0mg"},{"bike_id":"a721a59b-c6c0-46b8-84e5-19ba74a48bdb","system_id":"levelo_inurba_marseille","lat":43.2803,"lon":5.3694,"is_reserved":false,"is_disabled":false,"rental_uris":{"android":"levelo://app?vid=a721a59b-c6c0-46b8-84e5-19ba74a48bdb","ios":"levelo://app?vid=a721a59b-c6c0-46b8-84e5-19ba74a48bdb"},"vehicle_type_id":"4","last_reported":1732392571,"current_range_meters":18800,"station_id":"ce4bha12rcd13ifvqef0","pricing_plan_id":"cebpf4jnsgd1na2vs0mg"},{"bike_id":"cd0449d6-3182-4587-b3c5-d39ff97bfee2","system_id":"levelo_inurba_marseille","lat":43.29552,"lon":5.42292,"is_reserved":false,"is_disabled":false,"rental_uris":{"android":"levelo://app?vid=cd0449d6-3182-4587-b3c5-d39ff97bfee2","ios":"levelo://app?vid=cd0449d6-3182-4587-b3c5-d39ff97bfee2"},"vehicle_type_id":"4","last_reported":1732392571,"current_range_meters":24400,"station_id":"ce4bhph2rcd13ifvqhdg","pricing_plan_id":"cebpf4jnsgd1na2vs0mg"},{"bike_id":"06a5db9f-ccee-423a-a12d-8b6d1c3c04e5","system_id":"levelo_inurba_marseille","lat":43.25109,"lon":5.40323,"is_reserved":false,"is_disabled":false,"rental_uris":{"android":"levelo://app?vid=06a5db9f-ccee-423a-a12d-8b6d1c3c04e5","ios":"levelo://app?vid=06a5db9f-ccee-423a-a12d-8b6d1c3c04e5"},"vehicle_type_id":"4","last_reported":1732392571,"current_range_meters":38800,"station_id":"ce4bhlh2rcd13ifvqgig","pricing_plan_id":"cebpf4jnsgd1na2vs0mg"},{"bike_id":"fc3b3e5f-32f9-429e-89a7-20caccb9e603","system_id":"levelo_inurba_marseille","lat":43.30169,"lon":5.38084,"is_reserved":false,"is_disabled":false,"rental_uris":{"android":"levelo://app?vid=fc3b3e5f-32f9-429e-89a7-20caccb9e603","ios":"levelo://app?vid=fc3b3e5f-32f9-429e-89a7-20caccb9e603"},"vehicle_type_id":"4","last_reported":1732392571,"current_range_meters":16000,"station_id":"ce4bgjp2rcd13ifvqbh0","pricing_plan_id":"cebpf4jnsgd1na2vs0mg"},{"bike_id":"30585094-ecfe-43ac-ae36-000c4a5ab426","system_id":"levelo_inurba_marseille","lat":43.30948,"lon":5.39017,"is_reserved":false,"is_disabled":true,"rental_uris":{"android":"levelo://app?vid=30585094-ecfe-43ac-ae36-000c4a5ab426","ios":"levelo://app?vid=30585094-ecfe-43ac-ae36-000c4a5ab426"},"vehicle_type_id":"4","last_reported":1732392571,"current_range_meters":25200,"station_id":"ce4bgup2rcd13ifvqco0","pricing_plan_id":"cebpf4jnsgd1na2vs0mg"},{"bike_id":"1f313d4a-9266-4099-998a-6deb33e3bf69","system_id":"levelo_inurba_marseille","lat":43.25119,"lon":5.40318,"is_reserved":false,"is_disabled":false,"rental_uris":{"android":"levelo://app?vid=1f313d4a-9266-4099-998a-6deb33e3bf69","ios":"levelo://app?vid=1f313d4a-9266-4099-998a-6deb33e3bf69"},"vehicle_type_id":"4","last_reported":1732392571,"current_range_meters":25600,"station_id":"ce4bhlh2rcd13ifvqgig","pricing_plan_id":"cebpf4jnsgd1na2vs0mg"},{"bike_id":"06222d69-c6a3-47fe-9912-0fe63b34371e","system_id":"levelo_inurba_marseille","lat":43.29894,"lon":5.4367,"is_reserved":false,"is_disabled":false,"rental_uris":{"android":"levelo://app?vid=06222d69-c6a3-47fe-9912-0fe63b34371e","ios":"levelo://app?vid=06222d69-c6a3-47fe-9912-0fe63b34371e"},"vehicle_type_id":"4","last_reported":1732392571,"current_range_meters":24800,"station_id":"ce4bhpp2rcd13ifvqhfg","pricing_plan_id":"cebpf4jnsgd1na2vs0mg"},{"bike_id":"7ed373fa-e29c-4ceb-b4cf-b4727f191d71","system_id":"levelo_inurba_marseille","lat":43.30851,"lon":5.37752,"is_reserved":false,"is_disabled":false,"rental_uris":{"android":"levelo://app?vid=7ed373fa-e29c-4ceb-b4cf-b4727f191d71","ios":"levelo://app?vid=7ed373fa-e29c-4ceb-b4cf-b4727f191d71"},"vehicle_type_id":"4","last_reported":1732392571,"current_range_meters":27600,"station_id":"","pricing_plan_id":"cebpf4jnsgd1na2vs0mg"},{"bike_id":"db101b78-6ffb-4919-8b14-ec9dca35135b","system_id":"levelo_inurba_marseille","lat":43.33718,"lon":5.39182,"is_reserved":false,"is_disabled":false,"rental_uris":{"android":"levelo://app?vid=db101b78-6ffb-4919-8b14-ec9dca35135b","ios":"levelo://app?vid=db101b78-6ffb-4919-8b14-ec9dca35135b"},"vehicle_type_id":"4","last_reported":1732392571,"current_range_meters":16400,"station_id":"ce4bhr92rcd13ifvqhsg","pricing_plan_id":"cebpf4jnsgd1na2vs0mg"},{"bike_id":"fb933b5b-d658-45d3-8fec-dc4cfde02de6","system_id":"levelo_inurba_marseille","lat":43.28152,"lon":5.42647,"is_reserved":false,"is_disabled":false,"rental_uris":{"android":"levelo://app?vid=fb933b5b-d658-45d3-8fec-dc4cfde02de6","ios":"levelo://app?vid=fb933b5b-d658-45d3-8fec-dc4cfde02de6"},"vehicle_type_id":"4","last_reported":1732392571,"current_range_meters":38800,"station_id":"ce4bhnh2rcd13ifvqgug","pricing_plan_id":"cebpf4jnsgd1na2vs0mg"},{"bike_id":"4d3cd0a0-41f3-43f4-9696-6778df24c932","system_id":"levelo_inurba_marseille","lat":43.29587,"lon":5.36735,"is_reserved":false,"is_disabled":false,"rental_uris":{"android":"levelo://app?vid=4d3cd0a0-41f3-43f4-9696-6778df24c932","ios":"levelo://app?vid=4d3cd0a0-41f3-43f4-9696-6778df24c932"},"vehicle_type_id":"4","last_reported":1732392571,"current_range_meters":38800,"station_id":"ce4bgph2rcd13ifvqc2g","pricing_plan_id":"cebpf4jnsgd1na2vs0mg"},{"bike_id":"4b0fd201-7343-4a01-b644-bddb9dd38457","system_id":"levelo_inurba_marseille","lat":43.29418,"lon":5.38617,"is_reserved":false,"is_disabled":false,"rental_uris":{"android":"levelo://app?vid=4b0fd201-7343-4a01-b644-bddb9dd38457","ios":"levelo://app?vid=4b0fd201-7343-4a01-b644-bddb9dd38457"},"vehicle_type_id":"4","last_reported":1732392571,"current_range_meters":30400,"station_id":"ce4bh2h2rcd13ifvqdh0","pricing_plan_id":"cebpf4jnsgd1na2vs0mg"},{"bike_id":"eb5632c0-1901-4194-991b-6c2e68a7eb08","system_id":"levelo_inurba_marseille","lat":43.31714,"lon":5.37758,"is_reserved":false,"is_disabled":false,"rental_uris":{"android":"levelo://app?vid=eb5632c0-1901-4194-991b-6c2e68a7eb08","ios":"levelo://app?vid=eb5632c0-1901-4194-991b-6c2e68a7eb08"},"vehicle_type_id":"4","last_reported":1732392571,"current_range_meters":30400,"station_id":"ce4bgth2rcd13ifvqch0","pricing_plan_id":"cebpf4jnsgd1na2vs0mg"},{"bike_id":"646d89f5-9c2a-4a1c-b2fd-c7d6c07fd5c5","system_id":"levelo_inurba_marseille","lat":43.29193,"lon":5.3932,"is_reserved":false,"is_disabled":false,"rental_uris":{"android":"levelo://app?vid=646d89f5-9c2a-4a1c-b2fd-c7d6c07fd5c5","ios":"levelo://app?vid=646d89f5-9c2a-4a1c-b2fd-c7d6c07fd5c5"},"vehicle_type_id":"4","last_reported":1732392571,"current_range_meters":22800,"station_id":"ce4bh192rcd13ifvqdd0","pricing_plan_id":"cebpf4jnsgd1na2vs0mg"},{"bike_id":"01acb60a-0c50-4cb6-8db2-e7d9bdfa87a0","system_id":"levelo_inurba_marseille","lat":43.29509,"lon":5.39392,"is_reserved":false,"is_disabled":false,"rental_uris":{"android":"levelo://app?vid=01acb60a-0c50-4cb6-8db2-e7d9bdfa87a0","ios":"levelo://app?vid=01acb60a-0c50-4cb6-8db2-e7d9bdfa87a0"},"vehicle_type_id":"4","last_reported":1732392571,"current_range_meters":18000,"station_id":"ce4bh292rcd13ifvqdf0","pricing_plan_id":"cebpf4jnsgd1na2vs0mg"},{"bike_id":"3223a477-abc2-4c5a-b88e-7081391997c8","system_id":"levelo_inurba_marseille","lat":43.29538,"lon":5.38551,"is_reserved":false,"is_disabled":false,"rental_uris":{"android":"levelo://app?vid=3223a477-abc2-4c5a-b88e-7081391997c8","ios":"levelo://app?vid=3223a477-abc2-4c5a-b88e-7081391997c8"},"vehicle_type_id":"4","last_reported":1732392571,"current_range_meters":38800,"station_id":"ce4bgih2rcd13ifvqba0","pricing_plan_id":"cebpf4jnsgd1na2vs0mg"},{"bike_id":"c44e4f8f-e3b1-4cfe-8969-4d57649f8e91","system_id":"levelo_inurba_marseille","lat":43.27567,"lon":5.38417,"is_reserved":false,"is_disabled":false,"rental_uris":{"android":"levelo://app?vid=c44e4f8f-e3b1-4cfe-8969-4d57649f8e91","ios":"levelo://app?vid=c44e4f8f-e3b1-4cfe-8969-4d57649f8e91"},"vehicle_type_id":"4","last_reported":1732392571,"current_range_meters":39200,"station_id":"ce4bhh92rcd13ifvqfi0","pricing_plan_id":"cebpf4jnsgd1na2vs0mg"},{"bike_id":"caeeb28a-2337-46ff-8cc1-38286fc7227b","system_id":"levelo_inurba_marseille","lat":43.25579,"lon":5.38234,"is_reserved":false,"is_disabled":false,"rental_uris":{"android":"levelo://app?vid=caeeb28a-2337-46ff-8cc1-38286fc7227b","ios":"levelo://app?vid=caeeb28a-2337-46ff-8cc1-38286fc7227b"},"vehicle_type_id":"4","last_reported":1732392571,"current_range_meters":16000,"station_id":"ce4bhih2rcd13ifvqfs0","pricing_plan_id":"cebpf4jnsgd1na2vs0mg"},{"bike_id":"6a2df70c-4e94-45ba-b67d-45bd465ca49d","system_id":"levelo_inurba_marseille","lat":43.29191,"lon":5.39306,"is_reserved":false,"is_disabled":true,"rental_uris":{"android":"levelo://app?vid=6a2df70c-4e94-45ba-b67d-45bd465ca49d","ios":"levelo://app?vid=6a2df70c-4e94-45ba-b67d-45bd465ca49d"},"vehicle_type_id":"4","last_reported":1732392571,"current_range_meters":34000,"station_id":"ce4bh192rcd13ifvqdd0","pricing_plan_id":"cebpf4jnsgd1na2vs0mg"},{"bike_id":"f0c9b009-6e7d-4316-96af-3036572d9258","system_id":"levelo_inurba_marseille","lat":43.295198,"lon":5.374936,"is_reserved":false,"is_disabled":true,"rental_uris":{"android":"levelo://app?vid=f0c9b009-6e7d-4316-96af-3036572d9258","ios":"levelo://app?vid=f0c9b009-6e7d-4316-96af-3036572d9258"},"vehicle_type_id":"4","last_reported":1732392571,"current_range_meters":33600,"station_id":"ce4bgkp2rcd13ifvqbmg","pricing_plan_id":"cebpf4jnsgd1na2vs0mg"},{"bike_id":"a33fd1d9-8998-41b0-9a29-7b1fde6c577a","system_id":"levelo_inurba_marseille","lat":43.26031,"lon":5.37544,"is_reserved":false,"is_disabled":false,"rental_uris":{"android":"levelo://app?vid=a33fd1d9-8998-41b0-9a29-7b1fde6c577a","ios":"levelo://app?vid=a33fd1d9-8998-41b0-9a29-7b1fde6c577a"},"vehicle_type_id":"4","last_reported":1732392571,"current_range_meters":11600,"station_id":"ce4bhgh2rcd13ifvqfa0","pricing_plan_id":"cebpf4jnsgd1na2vs0mg"},{"bike_id":"b2b158d0-8028-4675-9f9a-048f08fcfa95","system_id":"levelo_inurba_marseille","lat":43.27887,"lon":5.3801,"is_reserved":false,"is_disabled":false,"rental_uris":{"android":"levelo://app?vid=b2b158d0-8028-4675-9f9a-048f08fcfa95","ios":"levelo://app?vid=b2b158d0-8028-4675-9f9a-048f08fcfa95"},"vehicle_type_id":"4","last_reported":1732392571,"current_range_meters":38800,"station_id":"ce4bhf92rcd13ifvqf50","pricing_plan_id":"cebpf4jnsgd1na2vs0mg"},{"bike_id":"ff3594ee-f948-4832-9680-599cfdacc368","system_id":"levelo_inurba_marseille","lat":43.27185,"lon":5.40999,"is_reserved":false,"is_disabled":false,"rental_uris":{"android":"levelo://app?vid=ff3594ee-f948-4832-9680-599cfdacc368","ios":"levelo://app?vid=ff3594ee-f948-4832-9680-599cfdacc368"},"vehicle_type_id":"4","last_reported":1732392571,"current_range_meters":36800,"station_id":"ce4bhl12rcd13ifvqgf0","pricing_plan_id":"cebpf4jnsgd1na2vs0mg"},{"bike_id":"99b29f0a-fef9-49fe-8166-69785bf88e94","system_id":"levelo_inurba_marseille","lat":43.28993,"lon":5.35613,"is_reserved":false,"is_disabled":false,"rental_uris":{"android":"levelo://app?vid=99b29f0a-fef9-49fe-8166-69785bf88e94","ios":"levelo://app?vid=99b29f0a-fef9-49fe-8166-69785bf88e94"},"vehicle_type_id":"4","last_reported":1732392571,"current_range_meters":36800,"station_id":"ce4bhb92rcd13ifvqen0","pricing_plan_id":"cebpf4jnsgd1na2vs0mg"},{"bike_id":"b1837f61-5796-4dde-bb22-4d0e3427d3e7","system_id":"levelo_inurba_marseille","lat":43.29816,"lon":5.36467,"is_reserved":false,"is_disabled":false,"rental_uris":{"android":"levelo://app?vid=b1837f61-5796-4dde-bb22-4d0e3427d3e7","ios":"levelo://app?vid=b1837f61-5796-4dde-bb22-4d0e3427d3e7"},"vehicle_type_id":"4","last_reported":1732392571,"current_range_meters":23200,"station_id":"","pricing_plan_id":"cebpf4jnsgd1na2vs0mg"},{"bike_id":"856c5296-7fea-42cc-be09-a6b9a37c0b30","system_id":"levelo_inurba_marseille","lat":43.27363,"lon":5.36225,"is_reserved":false,"is_disabled":true,"rental_uris":{"android":"levelo://app?vid=856c5296-7fea-42cc-be09-a6b9a37c0b30","ios":"levelo://app?vid=856c5296-7fea-42cc-be09-a6b9a37c0b30"},"vehicle_type_id":"4","last_reported":1732392571,"current_range_meters":0,"station_id":"ce4bhbh2rcd13ifvqeo0","pricing_plan_id":"cebpf4jnsgd1na2vs0mg"},{"bike_id":"3dec0806-146a-4421-a0be-9985484aadf6","system_id":"levelo_inurba_marseille","lat":43.28458,"lon":5.35897,"is_reserved":false,"is_disabled":false,"rental_uris":{"android":"levelo://app?vid=3dec0806-146a-4421-a0be-9985484aadf6","ios":"levelo://app?vid=3dec0806-146a-4421-a0be-9985484aadf6"},"vehicle_type_id":"4","last_reported":1732392571,"current_range_meters":32800,"station_id":"ce4bhah2rcd13ifvqei0","pricing_plan_id":"cebpf4jnsgd1na2vs0mg"},{"bike_id":"5bc0f97a-98f6-4fe9-8151-adba4f938e50","system_id":"levelo_inurba_marseille","lat":43.25867,"lon":5.39901,"is_reserved":false,"is_disabled":false,"rental_uris":{"android":"levelo://app?vid=5bc0f97a-98f6-4fe9-8151-adba4f938e50","ios":"levelo://app?vid=5bc0f97a-98f6-4fe9-8151-adba4f938e50"},"vehicle_type_id":"4","last_reported":1732392571,"current_range_meters":24800,"station_id":"ce4bhl92rcd13ifvqghg","pricing_plan_id":"cebpf4jnsgd1na2vs0mg"},{"bike_id":"587e4294-6da9-4a26-bb54-180d36baab73","system_id":"levelo_inurba_marseille","lat":43.25108,"lon":5.40322,"is_reserved":false,"is_disabled":false,"rental_uris":{"android":"levelo://app?vid=587e4294-6da9-4a26-bb54-180d36baab73","ios":"levelo://app?vid=587e4294-6da9-4a26-bb54-180d36baab73"},"vehicle_type_id":"4","last_reported":1732392571,"current_range_meters":9600,"station_id":"ce4bhlh2rcd13ifvqgig","pricing_plan_id":"cebpf4jnsgd1na2vs0mg"},{"bike_id":"d314178e-6331-4ec1-9c2c-488e031e9b13","system_id":"levelo_inurba_marseille","lat":43.30271,"lon":5.377,"is_reserved":false,"is_disabled":false,"rental_uris":{"android":"levelo://app?vid=d314178e-6331-4ec1-9c2c-488e031e9b13","ios":"levelo://app?vid=d314178e-6331-4ec1-9c2c-488e031e9b13"},"vehicle_type_id":"4","last_reported":1732392571,"current_range_meters":32000,"station_id":"ce4bguh2rcd13ifvqcj0","pricing_plan_id":"cebpf4jnsgd1na2vs0mg"},{"bike_id":"9a122f92-8d1b-4a84-9637-aeed9243668f","system_id":"levelo_inurba_marseille","lat":43.28934,"lon":5.3663,"is_reserved":false,"is_disabled":true,"rental_uris":{"android":"levelo://app?vid=9a122f92-8d1b-4a84-9637-aeed9243668f","ios":"levelo://app?vid=9a122f92-8d1b-4a84-9637-aeed9243668f"},"vehicle_type_id":"4","last_reported":1732392571,"current_range_meters":0,"station_id":"ce4bhap2rcd13ifvqek0","pricing_plan_id":"cebpf4jnsgd1na2vs0mg"},{"bike_id":"f39709af-fe1a-4d3d-8cbf-7f326b190378","system_id":"levelo_inurba_marseille","lat":43.29156,"lon":5.3581,"is_reserved":false,"is_disabled":false,"rental_uris":{"android":"levelo://app?vid=f39709af-fe1a-4d3d-8cbf-7f326b190378","ios":"levelo://app?vid=f39709af-fe1a-4d3d-8cbf-7f326b190378"},"vehicle_type_id":"4","last_reported":1732392571,"current_range_meters":28000,"station_id":"ce4bhb12rcd13ifvqel0","pricing_plan_id":"cebpf4jnsgd1na2vs0mg"},{"bike_id":"96aac422-b7f9-486b-abcb-e851d16c06ef","system_id":"levelo_inurba_marseille","lat":43.26931,"lon":5.40234,"is_reserved":false,"is_disabled":false,"rental_uris":{"android":"levelo://app?vid=96aac422-b7f9-486b-abcb-e851d16c06ef","ios":"levelo://app?vid=96aac422-b7f9-486b-abcb-e851d16c06ef"},"vehicle_type_id":"4","last_reported":1732392571,"current_range_meters":38400,"station_id":"cjm6bp8fraef2m0cb0m0","pricing_plan_id":"cebpf4jnsgd1na2vs0mg"},{"bike_id":"a8428ee9-e3b0-4516-af9b-26a28c15dbeb","system_id":"levelo_inurba_marseille","lat":43.287247,"lon":5.36084,"is_reserved":false,"is_disabled":false,"rental_uris":{"android":"levelo://app?vid=a8428ee9-e3b0-4516-af9b-26a28c15dbeb","ios":"levelo://app?vid=a8428ee9-e3b0-4516-af9b-26a28c15dbeb"},"vehicle_type_id":"4","last_reported":1732392571,"current_range_meters":6400,"station_id":"cki0cbj6b192h4jlfktg","pricing_plan_id":"cebpf4jnsgd1na2vs0mg"},{"bike_id":"99d3fe64-392c-4ecc-8d6b-e7dab923c9a4","system_id":"levelo_inurba_marseille","lat":43.33015,"lon":5.39031,"is_reserved":false,"is_disabled":false,"rental_uris":{"android":"levelo://app?vid=99d3fe64-392c-4ecc-8d6b-e7dab923c9a4","ios":"levelo://app?vid=99d3fe64-392c-4ecc-8d6b-e7dab923c9a4"},"vehicle_type_id":"4","last_reported":1732392571,"current_range_meters":38000,"station_id":"ce4bhr92rcd13ifvqhrg","pricing_plan_id":"cebpf4jnsgd1na2vs0mg"},{"bike_id":"26b10d51-0cea-4a62-ac3e-6bdb027cffd7","system_id":"levelo_inurba_marseille","lat":43.29532,"lon":5.38534,"is_reserved":false,"is_disabled":false,"rental_uris":{"android":"levelo://app?vid=26b10d51-0cea-4a62-ac3e-6bdb027cffd7","ios":"levelo://app?vid=26b10d51-0cea-4a62-ac3e-6bdb027cffd7"},"vehicle_type_id":"4","last_reported":1732392571,"current_range_meters":14000,"station_id":"ce4bgih2rcd13ifvqba0","pricing_plan_id":"cebpf4jnsgd1na2vs0mg"},{"bike_id":"34ef12ab-1105-4dcd-a5ac-023c1dd6dd18","system_id":"levelo_inurba_marseille","lat":43.29032,"lon":5.35923,"is_reserved":false,"is_disabled":false,"rental_uris":{"android":"levelo://app?vid=34ef12ab-1105-4dcd-a5ac-023c1dd6dd18","ios":"levelo://app?vid=34ef12ab-1105-4dcd-a5ac-023c1dd6dd18"},"vehicle_type_id":"4","last_reported":1732392571,"current_range_meters":18800,"station_id":"ce4bha92rcd13ifvqeg0","pricing_plan_id":"cebpf4jnsgd1na2vs0mg"},{"bike_id":"90fc630b-f2c0-49d7-976b-1f9772053a4b","system_id":"levelo_inurba_marseille","lat":43.29417,"lon":5.38627,"is_reserved":false,"is_disabled":false,"rental_uris":{"android":"levelo://app?vid=90fc630b-f2c0-49d7-976b-1f9772053a4b","ios":"levelo://app?vid=90fc630b-f2c0-49d7-976b-1f9772053a4b"},"vehicle_type_id":"4","last_reported":1732392571,"current_range_meters":8400,"station_id":"ce4bh2h2rcd13ifvqdh0","pricing_plan_id":"cebpf4jnsgd1na2vs0mg"},{"bike_id":"5b9253f4-22f2-4008-a355-c59c3dc30e3d","system_id":"levelo_inurba_marseille","lat":43.27206,"lon":5.39186,"is_reserved":false,"is_disabled":true,"rental_uris":{"android":"levelo://app?vid=5b9253f4-22f2-4008-a355-c59c3dc30e3d","ios":"levelo://app?vid=5b9253f4-22f2-4008-a355-c59c3dc30e3d"},"vehicle_type_id":"4","last_reported":1732392571,"current_range_meters":0,"station_id":"ce4bhhp2rcd13ifvqfm0","pricing_plan_id":"cebpf4jnsgd1na2vs0mg"},{"bike_id":"0551ee56-2776-4129-89b2-39213477ba2f","system_id":"levelo_inurba_marseille","lat":43.29524,"lon":5.38537,"is_reserved":false,"is_disabled":false,"rental_uris":{"android":"levelo://app?vid=0551ee56-2776-4129-89b2-39213477ba2f","ios":"levelo://app?vid=0551ee56-2776-4129-89b2-39213477ba2f"},"vehicle_type_id":"4","last_reported":1732392571,"current_range_meters":12000,"station_id":"ce4bgih2rcd13ifvqba0","pricing_plan_id":"cebpf4jnsgd1na2vs0mg"},{"bike_id":"a7450246-88e7-4ceb-a8e0-201a8091db2b","system_id":"levelo_inurba_marseille","lat":43.27968,"lon":5.38714,"is_reserved":false,"is_disabled":false,"rental_uris":{"android":"levelo://app?vid=a7450246-88e7-4ceb-a8e0-201a8091db2b","ios":"levelo://app?vid=a7450246-88e7-4ceb-a8e0-201a8091db2b"},"vehicle_type_id":"4","last_reported":1732392571,"current_range_meters":27600,"station_id":"ce4bhg12rcd13ifvqf80","pricing_plan_id":"cebpf4jnsgd1na2vs0mg"},{"bike_id":"8580a071-8e20-4744-81b1-4fffea9cce23","system_id":"levelo_inurba_marseille","lat":43.30219,"lon":5.39482,"is_reserved":false,"is_disabled":false,"rental_uris":{"android":"levelo://app?vid=8580a071-8e20-4744-81b1-4fffea9cce23","ios":"levelo://app?vid=8580a071-8e20-4744-81b1-4fffea9cce23"},"vehicle_type_id":"4","last_reported":1732392571,"current_range_meters":30800,"station_id":"ce4bh0p2rcd13ifvqd70","pricing_plan_id":"cebpf4jnsgd1na2vs0mg"},{"bike_id":"4614c3ce-fa32-4b49-800d-cf02516d6ab9","system_id":"levelo_inurba_marseille","lat":43.32381,"lon":5.3897,"is_reserved":false,"is_disabled":false,"rental_uris":{"android":"levelo://app?vid=4614c3ce-fa32-4b49-800d-cf02516d6ab9","ios":"levelo://app?vid=4614c3ce-fa32-4b49-800d-cf02516d6ab9"},"vehicle_type_id":"4","last_reported":1732392571,"current_range_meters":22800,"station_id":"","pricing_plan_id":"cebpf4jnsgd1na2vs0mg"},{"bike_id":"72488d89-84d6-4d48-85a6-5400e601b1cd","system_id":"levelo_inurba_marseille","lat":43.24658,"lon":5.3816,"is_reserved":false,"is_disabled":false,"rental_uris":{"android":"levelo://app?vid=72488d89-84d6-4d48-85a6-5400e601b1cd","ios":"levelo://app?vid=72488d89-84d6-4d48-85a6-5400e601b1cd"},"vehicle_type_id":"4","last_reported":1732392571,"current_range_meters":25200,"station_id":"ce4bhih2rcd13ifvqfr0","pricing_plan_id":"cebpf4jnsgd1na2vs0mg"},{"bike_id":"a1af460e-1d70-4d46-b6e3-14eeeee88e7d","system_id":"levelo_inurba_marseille","lat":43.27969,"lon":5.38718,"is_reserved":false,"is_disabled":true,"rental_uris":{"android":"levelo://app?vid=a1af460e-1d70-4d46-b6e3-14eeeee88e7d","ios":"levelo://app?vid=a1af460e-1d70-4d46-b6e3-14eeeee88e7d"},"vehicle_type_id":"4","last_reported":1732392571,"current_range_meters":20400,"station_id":"ce4bhg12rcd13ifvqf80","pricing_plan_id":"cebpf4jnsgd1na2vs0mg"},{"bike_id":"476d5223-f58b-4e3b-acbf-b1838e999b41","system_id":"levelo_inurba_marseille","lat":43.25822,"lon":5.39429,"is_reserved":false,"is_disabled":false,"rental_uris":{"android":"levelo://app?vid=476d5223-f58b-4e3b-acbf-b1838e999b41","ios":"levelo://app?vid=476d5223-f58b-4e3b-acbf-b1838e999b41"},"vehicle_type_id":"4","last_reported":1732392571,"current_range_meters":38800,"station_id":"ce4bhip2rcd13ifvqft0","pricing_plan_id":"cebpf4jnsgd1na2vs0mg"},{"bike_id":"813ad871-aaa2-4f0e-9c7c-0646d72db5d3","system_id":"levelo_inurba_marseille","lat":43.27496,"lon":5.42455,"is_reserved":false,"is_disabled":false,"rental_uris":{"android":"levelo://app?vid=813ad871-aaa2-4f0e-9c7c-0646d72db5d3","ios":"levelo://app?vid=813ad871-aaa2-4f0e-9c7c-0646d72db5d3"},"vehicle_type_id":"4","last_reported":1732392571,"current_range_meters":39200,"station_id":"ce4bhn92rcd13ifvqgrg","pricing_plan_id":"cebpf4jnsgd1na2vs0mg"},{"bike_id":"f9cd4623-e4e5-4767-a8a0-fde2c0263f84","system_id":"levelo_inurba_marseille","lat":43.30356,"lon":5.41878,"is_reserved":false,"is_disabled":false,"rental_uris":{"android":"levelo://app?vid=f9cd4623-e4e5-4767-a8a0-fde2c0263f84","ios":"levelo://app?vid=f9cd4623-e4e5-4767-a8a0-fde2c0263f84"},"vehicle_type_id":"4","last_reported":1732392571,"current_range_meters":34800,"station_id":"ce4bhop2rcd13ifvqh7g","pricing_plan_id":"cebpf4jnsgd1na2vs0mg"},{"bike_id":"1f6bdb64-1ad9-43dc-9317-33a84f3d58d9","system_id":"levelo_inurba_marseille","lat":43.28854,"lon":5.39324,"is_reserved":false,"is_disabled":true,"rental_uris":{"android":"levelo://app?vid=1f6bdb64-1ad9-43dc-9317-33a84f3d58d9","ios":"levelo://app?vid=1f6bdb64-1ad9-43dc-9317-33a84f3d58d9"},"vehicle_type_id":"4","last_reported":1732392571,"current_range_meters":12800,"station_id":"ce4bh2p2rcd13ifvqdi0","pricing_plan_id":"cebpf4jnsgd1na2vs0mg"},{"bike_id":"600b3470-1dde-43ce-962b-7a6284b20990","system_id":"levelo_inurba_marseille","lat":43.23191,"lon":5.35553,"is_reserved":false,"is_disabled":true,"rental_uris":{"android":"levelo://app?vid=600b3470-1dde-43ce-962b-7a6284b20990","ios":"levelo://app?vid=600b3470-1dde-43ce-962b-7a6284b20990"},"vehicle_type_id":"4","last_reported":1732392571,"current_range_meters":30000,"station_id":"ce4bhu92rcd13ifvqi70","pricing_plan_id":"cebpf4jnsgd1na2vs0mg"},{"bike_id":"11909398-45e2-4e14-893f-c5c2a7918232","system_id":"levelo_inurba_marseille","lat":43.30603,"lon":5.37208,"is_reserved":false,"is_disabled":false,"rental_uris":{"android":"levelo://app?vid=11909398-45e2-4e14-893f-c5c2a7918232","ios":"levelo://app?vid=11909398-45e2-4e14-893f-c5c2a7918232"},"vehicle_type_id":"4","last_reported":1732392571,"current_range_meters":29600,"station_id":"ce4bgqh2rcd13ifvqc4g","pricing_plan_id":"cebpf4jnsgd1na2vs0mg"},{"bike_id":"22922abd-434f-4699-9133-e73f984554bd","system_id":"levelo_inurba_marseille","lat":43.27362,"lon":5.36249,"is_reserved":false,"is_disabled":true,"rental_uris":{"android":"levelo://app?vid=22922abd-434f-4699-9133-e73f984554bd","ios":"levelo://app?vid=22922abd-434f-4699-9133-e73f984554bd"},"vehicle_type_id":"4","last_reported":1732392571,"current_range_meters":1200,"station_id":"ce4bhbh2rcd13ifvqeo0","pricing_plan_id":"cebpf4jnsgd1na2vs0mg"},{"bike_id":"0244cb59-630d-4371-8248-7c742c6e975e","system_id":"levelo_inurba_marseille","lat":43.30925,"lon":5.40145,"is_reserved":false,"is_disabled":false,"rental_uris":{"android":"levelo://app?vid=0244cb59-630d-4371-8248-7c742c6e975e","ios":"levelo://app?vid=0244cb59-630d-4371-8248-7c742c6e975e"},"vehicle_type_id":"4","last_reported":1732392571,"current_range_meters":26800,"station_id":"ce4bgvp2rcd13ifvqct0","pricing_plan_id":"cebpf4jnsgd1na2vs0mg"},{"bike_id":"6f148f96-5001-4751-9146-64d27a6f5f1c","system_id":"levelo_inurba_marseille","lat":43.30796,"lon":5.43527,"is_reserved":false,"is_disabled":false,"rental_uris":{"android":"levelo://app?vid=6f148f96-5001-4751-9146-64d27a6f5f1c","ios":"levelo://app?vid=6f148f96-5001-4751-9146-64d27a6f5f1c"},"vehicle_type_id":"4","last_reported":1732392571,"current_range_meters":28400,"station_id":"ce4bhph2rcd13ifvqheg","pricing_plan_id":"cebpf4jnsgd1na2vs0mg"},{"bike_id":"6a1acbf6-031e-4a4d-abb5-26be15498067","system_id":"levelo_inurba_marseille","lat":43.2942,"lon":5.38611,"is_reserved":false,"is_disabled":false,"rental_uris":{"android":"levelo://app?vid=6a1acbf6-031e-4a4d-abb5-26be15498067","ios":"levelo://app?vid=6a1acbf6-031e-4a4d-abb5-26be15498067"},"vehicle_type_id":"4","last_reported":1732392571,"current_range_meters":35600,"station_id":"ce4bh2h2rcd13ifvqdh0","pricing_plan_id":"cebpf4jnsgd1na2vs0mg"},{"bike_id":"0cf250a0-3513-4555-9dc5-19514840aedb","system_id":"levelo_inurba_marseille","lat":43.31327,"lon":5.39685,"is_reserved":false,"is_disabled":true,"rental_uris":{"android":"levelo://app?vid=0cf250a0-3513-4555-9dc5-19514840aedb","ios":"levelo://app?vid=0cf250a0-3513-4555-9dc5-19514840aedb"},"vehicle_type_id":"4","last_reported":1732392571,"current_range_meters":800,"station_id":"ce4bgvp2rcd13ifvqcu0","pricing_plan_id":"cebpf4jnsgd1na2vs0mg"},{"bike_id":"89cea671-fffe-4134-baec-6d40afea1fcb","system_id":"levelo_inurba_marseille","lat":43.24079,"lon":5.37748,"is_reserved":false,"is_disabled":false,"rental_uris":{"android":"levelo://app?vid=89cea671-fffe-4134-baec-6d40afea1fcb","ios":"levelo://app?vid=89cea671-fffe-4134-baec-6d40afea1fcb"},"vehicle_type_id":"4","last_reported":1732392571,"current_range_meters":34800,"station_id":"ce4bhnp2rcd13ifvqgvg","pricing_plan_id":"cebpf4jnsgd1na2vs0mg"},{"bike_id":"719fde67-a6d5-4b2e-b40e-23e686adce26","system_id":"levelo_inurba_marseille","lat":43.276248,"lon":5.361043,"is_reserved":false,"is_disabled":true,"rental_uris":{"android":"levelo://app?vid=719fde67-a6d5-4b2e-b40e-23e686adce26","ios":"levelo://app?vid=719fde67-a6d5-4b2e-b40e-23e686adce26"},"vehicle_type_id":"4","last_reported":1732392571,"current_range_meters":0,"station_id":"ce4bgj92rcd13ifvqbe0","pricing_plan_id":"cebpf4jnsgd1na2vs0mg"},{"bike_id":"7b58964c-b399-429d-a118-117cdccaf393","system_id":"levelo_inurba_marseille","lat":43.27939,"lon":5.41044,"is_reserved":false,"is_disabled":false,"rental_uris":{"android":"levelo://app?vid=7b58964c-b399-429d-a118-117cdccaf393","ios":"levelo://app?vid=7b58964c-b399-429d-a118-117cdccaf393"},"vehicle_type_id":"4","last_reported":1732392571,"current_range_meters":19600,"station_id":"ce4bhnp2rcd13ifvqh0g","pricing_plan_id":"cebpf4jnsgd1na2vs0mg"},{"bike_id":"2ecac775-2361-4e0f-a979-53d0b2dcf7f8","system_id":"levelo_inurba_marseille","lat":43.31363,"lon":5.36705,"is_reserved":false,"is_disabled":false,"rental_uris":{"android":"levelo://app?vid=2ecac775-2361-4e0f-a979-53d0b2dcf7f8","ios":"levelo://app?vid=2ecac775-2361-4e0f-a979-53d0b2dcf7f8"},"vehicle_type_id":"4","last_reported":1732392571,"current_range_meters":38000,"station_id":"ce4bgr92rcd13ifvqc6g","pricing_plan_id":"cebpf4jnsgd1na2vs0mg"},{"bike_id":"dc50cb9a-2707-4ca4-9034-a4aea34261b6","system_id":"levelo_inurba_marseille","lat":43.26939,"lon":5.40258,"is_reserved":false,"is_disabled":false,"rental_uris":{"android":"levelo://app?vid=dc50cb9a-2707-4ca4-9034-a4aea34261b6","ios":"levelo://app?vid=dc50cb9a-2707-4ca4-9034-a4aea34261b6"},"vehicle_type_id":"4","last_reported":1732392571,"current_range_meters":6000,"station_id":"cjm6bp8fraef2m0cb0m0","pricing_plan_id":"cebpf4jnsgd1na2vs0mg"},{"bike_id":"734ff0c4-f245-4197-8036-be5e222d76fd","system_id":"levelo_inurba_marseille","lat":43.29001,"lon":5.4259,"is_reserved":false,"is_disabled":true,"rental_uris":{"android":"levelo://app?vid=734ff0c4-f245-4197-8036-be5e222d76fd","ios":"levelo://app?vid=734ff0c4-f245-4197-8036-be5e222d76fd"},"vehicle_type_id":"4","last_reported":1732392571,"current_range_meters":0,"station_id":"","pricing_plan_id":"cebpf4jnsgd1na2vs0mg"},{"bike_id":"76f0a014-6928-4c30-a43b-275b7760ceed","system_id":"levelo_inurba_marseille","lat":43.29971,"lon":5.38484,"is_reserved":false,"is_disabled":false,"rental_uris":{"android":"levelo://app?vid=76f0a014-6928-4c30-a43b-275b7760ceed","ios":"levelo://app?vid=76f0a014-6928-4c30-a43b-275b7760ceed"},"vehicle_type_id":"4","last_reported":1732392571,"current_range_meters":32400,"station_id":"ce4bgj92rcd13ifvqbd0","pricing_plan_id":"cebpf4jnsgd1na2vs0mg"},{"bike_id":"6ac7e056-91eb-4652-8376-2a2bc9bfc434","system_id":"levelo_inurba_marseille","lat":43.28035,"lon":5.36934,"is_reserved":false,"is_disabled":false,"rental_uris":{"android":"levelo://app?vid=6ac7e056-91eb-4652-8376-2a2bc9bfc434","ios":"levelo://app?vid=6ac7e056-91eb-4652-8376-2a2bc9bfc434"},"vehicle_type_id":"4","last_reported":1732392571,"current_range_meters":17200,"station_id":"ce4bha12rcd13ifvqef0","pricing_plan_id":"cebpf4jnsgd1na2vs0mg"},{"bike_id":"850cdec5-28ab-44ef-bf8f-b8f336a8504e","system_id":"levelo_inurba_marseille","lat":43.29596,"lon":5.38103,"is_reserved":false,"is_disabled":false,"rental_uris":{"android":"levelo://app?vid=850cdec5-28ab-44ef-bf8f-b8f336a8504e","ios":"levelo://app?vid=850cdec5-28ab-44ef-bf8f-b8f336a8504e"},"vehicle_type_id":"4","last_reported":1732392571,"current_range_meters":32400,"station_id":"ce4bgl12rcd13ifvqbo0","pricing_plan_id":"cebpf4jnsgd1na2vs0mg"},{"bike_id":"11980602-9466-4247-a5b8-e3e79fa3bf33","system_id":"levelo_inurba_marseille","lat":43.26033,"lon":5.37553,"is_reserved":false,"is_disabled":false,"rental_uris":{"android":"levelo://app?vid=11980602-9466-4247-a5b8-e3e79fa3bf33","ios":"levelo://app?vid=11980602-9466-4247-a5b8-e3e79fa3bf33"},"vehicle_type_id":"4","last_reported":1732392571,"current_range_meters":8400,"station_id":"ce4bhgh2rcd13ifvqfa0","pricing_plan_id":"cebpf4jnsgd1na2vs0mg"},{"bike_id":"61973ddc-8543-44b5-8936-cb9835322756","system_id":"levelo_inurba_marseille","lat":43.29253,"lon":5.38442,"is_reserved":false,"is_disabled":false,"rental_uris":{"android":"levelo://app?vid=61973ddc-8543-44b5-8936-cb9835322756","ios":"levelo://app?vid=61973ddc-8543-44b5-8936-cb9835322756"},"vehicle_type_id":"4","last_reported":1732392571,"current_range_meters":24800,"station_id":"ce4bh692rcd13ifvqea0","pricing_plan_id":"cebpf4jnsgd1na2vs0mg"},{"bike_id":"0004d012-a8e7-4693-9f4b-dd852ebd6fff","system_id":"levelo_inurba_marseille","lat":43.28121,"lon":5.3986,"is_reserved":false,"is_disabled":false,"rental_uris":{"android":"levelo://app?vid=0004d012-a8e7-4693-9f4b-dd852ebd6fff","ios":"levelo://app?vid=0004d012-a8e7-4693-9f4b-dd852ebd6fff"},"vehicle_type_id":"4","last_reported":1732392571,"current_range_meters":27600,"station_id":"","pricing_plan_id":"cebpf4jnsgd1na2vs0mg"},{"bike_id":"b5fd64d4-e945-4ab0-86b7-b18f9defb52b","system_id":"levelo_inurba_marseille","lat":43.29035,"lon":5.38635,"is_reserved":false,"is_disabled":false,"rental_uris":{"android":"levelo://app?vid=b5fd64d4-e945-4ab0-86b7-b18f9defb52b","ios":"levelo://app?vid=b5fd64d4-e945-4ab0-86b7-b18f9defb52b"},"vehicle_type_id":"4","last_reported":1732392571,"current_range_meters":36800,"station_id":"ce4bh4p2rcd13ifvqe0g","pricing_plan_id":"cebpf4jnsgd1na2vs0mg"},{"bike_id":"294eeb79-af1b-495a-909f-216801ae6b41","system_id":"levelo_inurba_marseille","lat":43.337444,"lon":5.374475,"is_reserved":false,"is_disabled":true,"rental_uris":{"android":"levelo://app?vid=294eeb79-af1b-495a-909f-216801ae6b41","ios":"levelo://app?vid=294eeb79-af1b-495a-909f-216801ae6b41"},"vehicle_type_id":"4","last_reported":1732392571,"current_range_meters":0,"station_id":"","pricing_plan_id":"cebpf4jnsgd1na2vs0mg"},{"bike_id":"c6a65d7e-5f4e-472b-b8aa-741e5af48c77","system_id":"levelo_inurba_marseille","lat":43.27055,"lon":5.40265,"is_reserved":false,"is_disabled":false,"rental_uris":{"android":"levelo://app?vid=c6a65d7e-5f4e-472b-b8aa-741e5af48c77","ios":"levelo://app?vid=c6a65d7e-5f4e-472b-b8aa-741e5af48c77"},"vehicle_type_id":"4","last_reported":1732392571,"current_range_meters":38800,"station_id":"ce4bhk92rcd13ifvqgc0","pricing_plan_id":"cebpf4jnsgd1na2vs0mg"},{"bike_id":"e5d63661-ea2d-4e9d-bdce-dbbf19d65c3c","system_id":"levelo_inurba_marseille","lat":43.32362,"lon":5.36749,"is_reserved":false,"is_disabled":false,"rental_uris":{"android":"levelo://app?vid=e5d63661-ea2d-4e9d-bdce-dbbf19d65c3c","ios":"levelo://app?vid=e5d63661-ea2d-4e9d-bdce-dbbf19d65c3c"},"vehicle_type_id":"4","last_reported":1732392571,"current_range_meters":38000,"station_id":"ce4bhsh2rcd13ifvqi2g","pricing_plan_id":"cebpf4jnsgd1na2vs0mg"},{"bike_id":"85c835c3-8578-4aaa-9ea3-c17603d2afdb","system_id":"levelo_inurba_marseille","lat":43.29543,"lon":5.42274,"is_reserved":false,"is_disabled":false,"rental_uris":{"android":"levelo://app?vid=85c835c3-8578-4aaa-9ea3-c17603d2afdb","ios":"levelo://app?vid=85c835c3-8578-4aaa-9ea3-c17603d2afdb"},"vehicle_type_id":"4","last_reported":1732392571,"current_range_meters":39200,"station_id":"ce4bhph2rcd13ifvqhdg","pricing_plan_id":"cebpf4jnsgd1na2vs0mg"},{"bike_id":"677c7322-f017-41b4-b2b4-6107ebd39bbc","system_id":"levelo_inurba_marseille","lat":43.326579,"lon":5.409871,"is_reserved":false,"is_disabled":false,"rental_uris":{"android":"levelo://app?vid=677c7322-f017-41b4-b2b4-6107ebd39bbc","ios":"levelo://app?vid=677c7322-f017-41b4-b2b4-6107ebd39bbc"},"vehicle_type_id":"4","last_reported":1732392571,"current_range_meters":28800,"station_id":"ce4bhpp2rcd13ifvqhgg","pricing_plan_id":"cebpf4jnsgd1na2vs0mg"},{"bike_id":"3dec6d96-dd33-4729-9a95-5cab96092156","system_id":"levelo_inurba_marseille","lat":43.29267,"lon":5.38443,"is_reserved":false,"is_disabled":false,"rental_uris":{"android":"levelo://app?vid=3dec6d96-dd33-4729-9a95-5cab96092156","ios":"levelo://app?vid=3dec6d96-dd33-4729-9a95-5cab96092156"},"vehicle_type_id":"4","last_reported":1732392571,"current_range_meters":38800,"station_id":"ce4bh692rcd13ifvqea0","pricing_plan_id":"cebpf4jnsgd1na2vs0mg"},{"bike_id":"98a1dbe4-70e4-4876-99e1-ad1e6496d7ad","system_id":"levelo_inurba_marseille","lat":43.29038,"lon":5.39968,"is_reserved":false,"is_disabled":false,"rental_uris":{"android":"levelo://app?vid=98a1dbe4-70e4-4876-99e1-ad1e6496d7ad","ios":"levelo://app?vid=98a1dbe4-70e4-4876-99e1-ad1e6496d7ad"},"vehicle_type_id":"4","last_reported":1732392571,"current_range_meters":38800,"station_id":"ce4bh392rcd13ifvqdm0","pricing_plan_id":"cebpf4jnsgd1na2vs0mg"},{"bike_id":"18f6979e-cf65-4632-b209-076e21eafc22","system_id":"levelo_inurba_marseille","lat":43.25579,"lon":5.38231,"is_reserved":false,"is_disabled":true,"rental_uris":{"android":"levelo://app?vid=18f6979e-cf65-4632-b209-076e21eafc22","ios":"levelo://app?vid=18f6979e-cf65-4632-b209-076e21eafc22"},"vehicle_type_id":"4","last_reported":1732392571,"current_range_meters":800,"station_id":"ce4bhih2rcd13ifvqfs0","pricing_plan_id":"cebpf4jnsgd1na2vs0mg"},{"bike_id":"cd78312a-142a-42d0-92e1-dbc654bf8bb4","system_id":"levelo_inurba_marseille","lat":43.24181,"lon":5.39719,"is_reserved":false,"is_disabled":true,"rental_uris":{"android":"levelo://app?vid=cd78312a-142a-42d0-92e1-dbc654bf8bb4","ios":"levelo://app?vid=cd78312a-142a-42d0-92e1-dbc654bf8bb4"},"vehicle_type_id":"4","last_reported":1732392571,"current_range_meters":12400,"station_id":"ce4bhn12rcd13ifvqgpg","pricing_plan_id":"cebpf4jnsgd1na2vs0mg"},{"bike_id":"54501558-8889-42fe-92e9-75dbee9f71f4","system_id":"levelo_inurba_marseille","lat":43.3093,"lon":5.40144,"is_reserved":false,"is_disabled":false,"rental_uris":{"android":"levelo://app?vid=54501558-8889-42fe-92e9-75dbee9f71f4","ios":"levelo://app?vid=54501558-8889-42fe-92e9-75dbee9f71f4"},"vehicle_type_id":"4","last_reported":1732392571,"current_range_meters":6000,"station_id":"ce4bgvp2rcd13ifvqct0","pricing_plan_id":"cebpf4jnsgd1na2vs0mg"},{"bike_id":"a093ad12-b6bc-47f6-9819-08d3a7e62582","system_id":"levelo_inurba_marseille","lat":43.27373,"lon":5.36256,"is_reserved":false,"is_disabled":false,"rental_uris":{"android":"levelo://app?vid=a093ad12-b6bc-47f6-9819-08d3a7e62582","ios":"levelo://app?vid=a093ad12-b6bc-47f6-9819-08d3a7e62582"},"vehicle_type_id":"4","last_reported":1732392571,"current_range_meters":38400,"station_id":"ce4bhbh2rcd13ifvqeo0","pricing_plan_id":"cebpf4jnsgd1na2vs0mg"},{"bike_id":"43f6da94-5cf1-446e-9b8d-b4c4e86bf027","system_id":"levelo_inurba_marseille","lat":43.26188,"lon":5.37454,"is_reserved":false,"is_disabled":true,"rental_uris":{"android":"levelo://app?vid=43f6da94-5cf1-446e-9b8d-b4c4e86bf027","ios":"levelo://app?vid=43f6da94-5cf1-446e-9b8d-b4c4e86bf027"},"vehicle_type_id":"4","last_reported":1732392571,"current_range_meters":10000,"station_id":"ce4bhgp2rcd13ifvqfc0","pricing_plan_id":"cebpf4jnsgd1na2vs0mg"},{"bike_id":"dd5ab154-647e-4dfa-88f1-0f781c7552f5","system_id":"levelo_inurba_marseille","lat":43.25579,"lon":5.38233,"is_reserved":false,"is_disabled":false,"rental_uris":{"android":"levelo://app?vid=dd5ab154-647e-4dfa-88f1-0f781c7552f5","ios":"levelo://app?vid=dd5ab154-647e-4dfa-88f1-0f781c7552f5"},"vehicle_type_id":"4","last_reported":1732392571,"current_range_meters":28800,"station_id":"ce4bhih2rcd13ifvqfs0","pricing_plan_id":"cebpf4jnsgd1na2vs0mg"},{"bike_id":"16a52f0f-bdd8-4938-8718-6cffc9a5adfb","system_id":"levelo_inurba_marseille","lat":43.311742,"lon":5.387199,"is_reserved":false,"is_disabled":false,"rental_uris":{"android":"levelo://app?vid=16a52f0f-bdd8-4938-8718-6cffc9a5adfb","ios":"levelo://app?vid=16a52f0f-bdd8-4938-8718-6cffc9a5adfb"},"vehicle_type_id":"4","last_reported":1732392571,"current_range_meters":2000,"station_id":"ce4bgv12rcd13ifvqcp0","pricing_plan_id":"cebpf4jnsgd1na2vs0mg"},{"bike_id":"994195f6-b5da-4158-a5b5-8b38baad32b0","system_id":"levelo_inurba_marseille","lat":43.33725,"lon":5.39184,"is_reserved":false,"is_disabled":false,"rental_uris":{"android":"levelo://app?vid=994195f6-b5da-4158-a5b5-8b38baad32b0","ios":"levelo://app?vid=994195f6-b5da-4158-a5b5-8b38baad32b0"},"vehicle_type_id":"4","last_reported":1732392571,"current_range_meters":30800,"station_id":"ce4bhr92rcd13ifvqhsg","pricing_plan_id":"cebpf4jnsgd1na2vs0mg"},{"bike_id":"7c2f19f3-5373-4c2a-87bb-e1fd3ef39822","system_id":"levelo_inurba_marseille","lat":43.26555,"lon":5.39009,"is_reserved":false,"is_disabled":true,"rental_uris":{"android":"levelo://app?vid=7c2f19f3-5373-4c2a-87bb-e1fd3ef39822","ios":"levelo://app?vid=7c2f19f3-5373-4c2a-87bb-e1fd3ef39822"},"vehicle_type_id":"4","last_reported":1732392571,"current_range_meters":24000,"station_id":"ce4bhe12rcd13ifvqf30","pricing_plan_id":"cebpf4jnsgd1na2vs0mg"},{"bike_id":"36ef9a42-f4d8-45f5-adc2-b51fb9b962d0","system_id":"levelo_inurba_marseille","lat":43.34143,"lon":5.40898,"is_reserved":false,"is_disabled":false,"rental_uris":{"android":"levelo://app?vid=36ef9a42-f4d8-45f5-adc2-b51fb9b962d0","ios":"levelo://app?vid=36ef9a42-f4d8-45f5-adc2-b51fb9b962d0"},"vehicle_type_id":"4","last_reported":1732392571,"current_range_meters":38800,"station_id":"ce4bhqh2rcd13ifvqhlg","pricing_plan_id":"cebpf4jnsgd1na2vs0mg"},{"bike_id":"a3202fc1-85cb-42ee-bead-37756f81ff0f","system_id":"levelo_inurba_marseille","lat":43.30549,"lon":5.38406,"is_reserved":false,"is_disabled":true,"rental_uris":{"android":"levelo://app?vid=a3202fc1-85cb-42ee-bead-37756f81ff0f","ios":"levelo://app?vid=a3202fc1-85cb-42ee-bead-37756f81ff0f"},"vehicle_type_id":"4","last_reported":1732392571,"current_range_meters":27600,"station_id":"ce4bgg92rcd13ifvqb30","pricing_plan_id":"cebpf4jnsgd1na2vs0mg"},{"bike_id":"97cd3183-b3fd-486d-8ecd-f6949d56b2f8","system_id":"levelo_inurba_marseille","lat":43.29552,"lon":5.42289,"is_reserved":false,"is_disabled":false,"rental_uris":{"android":"levelo://app?vid=97cd3183-b3fd-486d-8ecd-f6949d56b2f8","ios":"levelo://app?vid=97cd3183-b3fd-486d-8ecd-f6949d56b2f8"},"vehicle_type_id":"4","last_reported":1732392571,"current_range_meters":24800,"station_id":"ce4bhph2rcd13ifvqhdg","pricing_plan_id":"cebpf4jnsgd1na2vs0mg"},{"bike_id":"67eec873-2e0f-49d2-a011-594652020334","system_id":"levelo_inurba_marseille","lat":43.26203,"lon":5.37922,"is_reserved":false,"is_disabled":false,"rental_uris":{"android":"levelo://app?vid=67eec873-2e0f-49d2-a011-594652020334","ios":"levelo://app?vid=67eec873-2e0f-49d2-a011-594652020334"},"vehicle_type_id":"4","last_reported":1732392571,"current_range_meters":17200,"station_id":"ce4bhjp2rcd13ifvqg90","pricing_plan_id":"cebpf4jnsgd1na2vs0mg"},{"bike_id":"993397a7-0824-4fe1-bebd-18c1d07c311d","system_id":"levelo_inurba_marseille","lat":43.26571,"lon":5.3901,"is_reserved":false,"is_disabled":false,"rental_uris":{"android":"levelo://app?vid=993397a7-0824-4fe1-bebd-18c1d07c311d","ios":"levelo://app?vid=993397a7-0824-4fe1-bebd-18c1d07c311d"},"vehicle_type_id":"4","last_reported":1732392571,"current_range_meters":6400,"station_id":"ce4bhe12rcd13ifvqf30","pricing_plan_id":"cebpf4jnsgd1na2vs0mg"},{"bike_id":"cd311a74-51a2-432a-9ff8-1adf1f05e254","system_id":"levelo_inurba_marseille","lat":43.25825,"lon":5.39425,"is_reserved":false,"is_disabled":false,"rental_uris":{"android":"levelo://app?vid=cd311a74-51a2-432a-9ff8-1adf1f05e254","ios":"levelo://app?vid=cd311a74-51a2-432a-9ff8-1adf1f05e254"},"vehicle_type_id":"4","last_reported":1732392571,"current_range_meters":39200,"station_id":"ce4bhip2rcd13ifvqft0","pricing_plan_id":"cebpf4jnsgd1na2vs0mg"},{"bike_id":"2c10fb1d-2d63-4b3c-87d1-92f5ead31157","system_id":"levelo_inurba_marseille","lat":43.2938,"lon":5.37842,"is_reserved":false,"is_disabled":false,"rental_uris":{"android":"levelo://app?vid=2c10fb1d-2d63-4b3c-87d1-92f5ead31157","ios":"levelo://app?vid=2c10fb1d-2d63-4b3c-87d1-92f5ead31157"},"vehicle_type_id":"4","last_reported":1732392571,"current_range_meters":22000,"station_id":"ce4bgjh2rcd13ifvqbf0","pricing_plan_id":"cebpf4jnsgd1na2vs0mg"},{"bike_id":"adc63e0f-3749-4826-9f9d-5a1a2c8ca64c","system_id":"levelo_inurba_marseille","lat":43.2942,"lon":5.3862,"is_reserved":false,"is_disabled":false,"rental_uris":{"android":"levelo://app?vid=adc63e0f-3749-4826-9f9d-5a1a2c8ca64c","ios":"levelo://app?vid=adc63e0f-3749-4826-9f9d-5a1a2c8ca64c"},"vehicle_type_id":"4","last_reported":1732392571,"current_range_meters":12800,"station_id":"ce4bh2h2rcd13ifvqdh0","pricing_plan_id":"cebpf4jnsgd1na2vs0mg"},{"bike_id":"11b39255-cf50-4201-b715-ddf8c5d9cf97","system_id":"levelo_inurba_marseille","lat":43.29308,"lon":5.37159,"is_reserved":false,"is_disabled":false,"rental_uris":{"android":"levelo://app?vid=11b39255-cf50-4201-b715-ddf8c5d9cf97","ios":"levelo://app?vid=11b39255-cf50-4201-b715-ddf8c5d9cf97"},"vehicle_type_id":"4","last_reported":1732392571,"current_range_meters":8800,"station_id":"ce4bgh92rcd13ifvqb40","pricing_plan_id":"cebpf4jnsgd1na2vs0mg"},{"bike_id":"492646d2-5280-4dd5-aaaa-ee75b9cacaaa","system_id":"levelo_inurba_marseille","lat":43.29911,"lon":5.38528,"is_reserved":false,"is_disabled":false,"rental_uris":{"android":"levelo://app?vid=492646d2-5280-4dd5-aaaa-ee75b9cacaaa","ios":"levelo://app?vid=492646d2-5280-4dd5-aaaa-ee75b9cacaaa"},"vehicle_type_id":"4","last_reported":1732392571,"current_range_meters":16800,"station_id":"","pricing_plan_id":"cebpf4jnsgd1na2vs0mg"},{"bike_id":"1cd6dd5c-dd5c-40f0-b868-f3c8df35c052","system_id":"levelo_inurba_marseille","lat":43.27188,"lon":5.40941,"is_reserved":false,"is_disabled":false,"rental_uris":{"android":"levelo://app?vid=1cd6dd5c-dd5c-40f0-b868-f3c8df35c052","ios":"levelo://app?vid=1cd6dd5c-dd5c-40f0-b868-f3c8df35c052"},"vehicle_type_id":"4","last_reported":1732392571,"current_range_meters":39200,"station_id":"ce4bhl12rcd13ifvqgf0","pricing_plan_id":"cebpf4jnsgd1na2vs0mg"},{"bike_id":"73ff8f4e-173b-4111-860f-0fbe90564417","system_id":"levelo_inurba_marseille","lat":43.32677,"lon":5.40972,"is_reserved":false,"is_disabled":false,"rental_uris":{"android":"levelo://app?vid=73ff8f4e-173b-4111-860f-0fbe90564417","ios":"levelo://app?vid=73ff8f4e-173b-4111-860f-0fbe90564417"},"vehicle_type_id":"4","last_reported":1732392571,"current_range_meters":39200,"station_id":"ce4bhpp2rcd13ifvqhgg","pricing_plan_id":"cebpf4jnsgd1na2vs0mg"},{"bike_id":"36296f5c-0176-4be0-97c8-7930cda9c369","system_id":"levelo_inurba_marseille","lat":43.32106,"lon":5.36766,"is_reserved":false,"is_disabled":false,"rental_uris":{"android":"levelo://app?vid=36296f5c-0176-4be0-97c8-7930cda9c369","ios":"levelo://app?vid=36296f5c-0176-4be0-97c8-7930cda9c369"},"vehicle_type_id":"4","last_reported":1732392571,"current_range_meters":35600,"station_id":"ce4bhrh2rcd13ifvqhug","pricing_plan_id":"cebpf4jnsgd1na2vs0mg"},{"bike_id":"4d1fc215-00a8-43c1-a56d-07dfeae9adce","system_id":"levelo_inurba_marseille","lat":43.32058,"lon":5.415549,"is_reserved":false,"is_disabled":false,"rental_uris":{"android":"levelo://app?vid=4d1fc215-00a8-43c1-a56d-07dfeae9adce","ios":"levelo://app?vid=4d1fc215-00a8-43c1-a56d-07dfeae9adce"},"vehicle_type_id":"4","last_reported":1732392571,"current_range_meters":39200,"station_id":"ce4bhq92rcd13ifvqhkg","pricing_plan_id":"cebpf4jnsgd1na2vs0mg"},{"bike_id":"3749f547-26de-49f3-8704-9a5a504b68f5","system_id":"levelo_inurba_marseille","lat":43.25581,"lon":5.3823,"is_reserved":false,"is_disabled":false,"rental_uris":{"android":"levelo://app?vid=3749f547-26de-49f3-8704-9a5a504b68f5","ios":"levelo://app?vid=3749f547-26de-49f3-8704-9a5a504b68f5"},"vehicle_type_id":"4","last_reported":1732392571,"current_range_meters":38400,"station_id":"ce4bhih2rcd13ifvqfs0","pricing_plan_id":"cebpf4jnsgd1na2vs0mg"},{"bike_id":"d2a52b58-fabe-4a57-94ba-464e41b85800","system_id":"levelo_inurba_marseille","lat":43.30134,"lon":5.37425,"is_reserved":false,"is_disabled":true,"rental_uris":{"android":"levelo://app?vid=d2a52b58-fabe-4a57-94ba-464e41b85800","ios":"levelo://app?vid=d2a52b58-fabe-4a57-94ba-464e41b85800"},"vehicle_type_id":"4","last_reported":1732392571,"current_range_meters":28400,"station_id":"ce4bgs92rcd13ifvqcc0","pricing_plan_id":"cebpf4jnsgd1na2vs0mg"},{"bike_id":"8795e167-4ec2-4ba6-95a7-8837dd4d70b1","system_id":"levelo_inurba_marseille","lat":43.27613,"lon":5.36106,"is_reserved":false,"is_disabled":false,"rental_uris":{"android":"levelo://app?vid=8795e167-4ec2-4ba6-95a7-8837dd4d70b1","ios":"levelo://app?vid=8795e167-4ec2-4ba6-95a7-8837dd4d70b1"},"vehicle_type_id":"4","last_reported":1732392571,"current_range_meters":34800,"station_id":"ce4bgj92rcd13ifvqbe0","pricing_plan_id":"cebpf4jnsgd1na2vs0mg"},{"bike_id":"dd0f4ec8-8e5e-4165-95a5-902fa909b3ed","system_id":"levelo_inurba_marseille","lat":43.24544,"lon":5.39519,"is_reserved":false,"is_disabled":false,"rental_uris":{"android":"levelo://app?vid=dd0f4ec8-8e5e-4165-95a5-902fa909b3ed","ios":"levelo://app?vid=dd0f4ec8-8e5e-4165-95a5-902fa909b3ed"},"vehicle_type_id":"4","last_reported":1732392571,"current_range_meters":10000,"station_id":"ce4bhlp2rcd13ifvqgjg","pricing_plan_id":"cebpf4jnsgd1na2vs0mg"},{"bike_id":"c8859f1b-488f-4e2d-8e48-9cebf7fdea4a","system_id":"levelo_inurba_marseille","lat":43.31489,"lon":5.37308,"is_reserved":false,"is_disabled":false,"rental_uris":{"android":"levelo://app?vid=c8859f1b-488f-4e2d-8e48-9cebf7fdea4a","ios":"levelo://app?vid=c8859f1b-488f-4e2d-8e48-9cebf7fdea4a"},"vehicle_type_id":"4","last_reported":1732392571,"current_range_meters":33200,"station_id":"ce4bgt12rcd13ifvqcd0","pricing_plan_id":"cebpf4jnsgd1na2vs0mg"},{"bike_id":"3f6be80c-da3b-4962-a49d-f245ade77382","system_id":"levelo_inurba_marseille","lat":43.29304,"lon":5.37169,"is_reserved":false,"is_disabled":false,"rental_uris":{"android":"levelo://app?vid=3f6be80c-da3b-4962-a49d-f245ade77382","ios":"levelo://app?vid=3f6be80c-da3b-4962-a49d-f245ade77382"},"vehicle_type_id":"4","last_reported":1732392571,"current_range_meters":36800,"station_id":"ce4bgh92rcd13ifvqb40","pricing_plan_id":"cebpf4jnsgd1na2vs0mg"},{"bike_id":"2f341b63-7084-485d-9d06-6fd29ec39d9d","system_id":"levelo_inurba_marseille","lat":43.31222,"lon":5.36862,"is_reserved":false,"is_disabled":false,"rental_uris":{"android":"levelo://app?vid=2f341b63-7084-485d-9d06-6fd29ec39d9d","ios":"levelo://app?vid=2f341b63-7084-485d-9d06-6fd29ec39d9d"},"vehicle_type_id":"4","last_reported":1732392571,"current_range_meters":32000,"station_id":"ce4bgl92rcd13ifvqbq0","pricing_plan_id":"cebpf4jnsgd1na2vs0mg"},{"bike_id":"ed8ea14a-efdb-44aa-893a-23ec19aa13cd","system_id":"levelo_inurba_marseille","lat":43.24076,"lon":5.37756,"is_reserved":false,"is_disabled":false,"rental_uris":{"android":"levelo://app?vid=ed8ea14a-efdb-44aa-893a-23ec19aa13cd","ios":"levelo://app?vid=ed8ea14a-efdb-44aa-893a-23ec19aa13cd"},"vehicle_type_id":"4","last_reported":1732392571,"current_range_meters":13600,"station_id":"ce4bhnp2rcd13ifvqgvg","pricing_plan_id":"cebpf4jnsgd1na2vs0mg"},{"bike_id":"a7790398-6f15-43a7-b440-b5dfc4446e31","system_id":"levelo_inurba_marseille","lat":43.26683,"lon":5.38267,"is_reserved":false,"is_disabled":false,"rental_uris":{"android":"levelo://app?vid=a7790398-6f15-43a7-b440-b5dfc4446e31","ios":"levelo://app?vid=a7790398-6f15-43a7-b440-b5dfc4446e31"},"vehicle_type_id":"4","last_reported":1732392571,"current_range_meters":40000,"station_id":"ce4bhg92rcd13ifvqf90","pricing_plan_id":"cebpf4jnsgd1na2vs0mg"},{"bike_id":"dd3b09fe-b71a-401a-b299-a88383f47f1c","system_id":"levelo_inurba_marseille","lat":43.337444,"lon":5.374475,"is_reserved":false,"is_disabled":false,"rental_uris":{"android":"levelo://app?vid=dd3b09fe-b71a-401a-b299-a88383f47f1c","ios":"levelo://app?vid=dd3b09fe-b71a-401a-b299-a88383f47f1c"},"vehicle_type_id":"4","last_reported":1732392571,"current_range_meters":34000,"station_id":"","pricing_plan_id":"cebpf4jnsgd1na2vs0mg"},{"bike_id":"3a660d7c-3937-4475-a0af-ffe3d752167f","system_id":"levelo_inurba_marseille","lat":43.31761,"lon":5.39018,"is_reserved":false,"is_disabled":false,"rental_uris":{"android":"levelo://app?vid=3a660d7c-3937-4475-a0af-ffe3d752167f","ios":"levelo://app?vid=3a660d7c-3937-4475-a0af-ffe3d752167f"},"vehicle_type_id":"4","last_reported":1732392571,"current_range_meters":5600,"station_id":"ce4bhqp2rcd13ifvqhng","pricing_plan_id":"cebpf4jnsgd1na2vs0mg"},{"bike_id":"e9bf011a-7de5-4276-9fb2-f1844513413b","system_id":"levelo_inurba_marseille","lat":43.24075,"lon":5.37756,"is_reserved":false,"is_disabled":false,"rental_uris":{"android":"levelo://app?vid=e9bf011a-7de5-4276-9fb2-f1844513413b","ios":"levelo://app?vid=e9bf011a-7de5-4276-9fb2-f1844513413b"},"vehicle_type_id":"4","last_reported":1732392571,"current_range_meters":26800,"station_id":"ce4bhnp2rcd13ifvqgvg","pricing_plan_id":"cebpf4jnsgd1na2vs0mg"},{"bike_id":"79148935-94e5-4eba-84e2-674a965eb5db","system_id":"levelo_inurba_marseille","lat":43.31224,"lon":5.36851,"is_reserved":false,"is_disabled":false,"rental_uris":{"android":"levelo://app?vid=79148935-94e5-4eba-84e2-674a965eb5db","ios":"levelo://app?vid=79148935-94e5-4eba-84e2-674a965eb5db"},"vehicle_type_id":"4","last_reported":1732392571,"current_range_meters":38800,"station_id":"ce4bgl92rcd13ifvqbq0","pricing_plan_id":"cebpf4jnsgd1na2vs0mg"},{"bike_id":"c9141344-4212-4983-abf2-7da6f9e1710d","system_id":"levelo_inurba_marseille","lat":43.25717,"lon":5.41112,"is_reserved":false,"is_disabled":false,"rental_uris":{"android":"levelo://app?vid=c9141344-4212-4983-abf2-7da6f9e1710d","ios":"levelo://app?vid=c9141344-4212-4983-abf2-7da6f9e1710d"},"vehicle_type_id":"4","last_reported":1732392571,"current_range_meters":32800,"station_id":"ce4bhkp2rcd13ifvqgd0","pricing_plan_id":"cebpf4jnsgd1na2vs0mg"},{"bike_id":"f776f509-a92d-41c7-bf5e-7e314391053b","system_id":"levelo_inurba_marseille","lat":43.28926,"lon":5.36625,"is_reserved":false,"is_disabled":false,"rental_uris":{"android":"levelo://app?vid=f776f509-a92d-41c7-bf5e-7e314391053b","ios":"levelo://app?vid=f776f509-a92d-41c7-bf5e-7e314391053b"},"vehicle_type_id":"4","last_reported":1732392571,"current_range_meters":30000,"station_id":"ce4bhap2rcd13ifvqek0","pricing_plan_id":"cebpf4jnsgd1na2vs0mg"},{"bike_id":"0631dd56-d1ea-40b3-ad48-10771462dbc0","system_id":"levelo_inurba_marseille","lat":43.29879,"lon":5.39738,"is_reserved":false,"is_disabled":false,"rental_uris":{"android":"levelo://app?vid=0631dd56-d1ea-40b3-ad48-10771462dbc0","ios":"levelo://app?vid=0631dd56-d1ea-40b3-ad48-10771462dbc0"},"vehicle_type_id":"4","last_reported":1732392571,"current_range_meters":4800,"station_id":"ce4bh0h2rcd13ifvqd50","pricing_plan_id":"cebpf4jnsgd1na2vs0mg"},{"bike_id":"9f5fd9a4-e637-41b4-bc9f-afc2f3228689","system_id":"levelo_inurba_marseille","lat":43.26936,"lon":5.40252,"is_reserved":false,"is_disabled":false,"rental_uris":{"android":"levelo://app?vid=9f5fd9a4-e637-41b4-bc9f-afc2f3228689","ios":"levelo://app?vid=9f5fd9a4-e637-41b4-bc9f-afc2f3228689"},"vehicle_type_id":"4","last_reported":1732392571,"current_range_meters":28000,"station_id":"cjm6bp8fraef2m0cb0m0","pricing_plan_id":"cebpf4jnsgd1na2vs0mg"},{"bike_id":"f6858fb5-b01a-4aca-b37e-51ecf5c6add6","system_id":"levelo_inurba_marseille","lat":43.29271,"lon":5.3844,"is_reserved":false,"is_disabled":false,"rental_uris":{"android":"levelo://app?vid=f6858fb5-b01a-4aca-b37e-51ecf5c6add6","ios":"levelo://app?vid=f6858fb5-b01a-4aca-b37e-51ecf5c6add6"},"vehicle_type_id":"4","last_reported":1732392571,"current_range_meters":31200,"station_id":"ce4bh692rcd13ifvqea0","pricing_plan_id":"cebpf4jnsgd1na2vs0mg"},{"bike_id":"30afc51d-7981-4daa-a145-a1a39f6a3f81","system_id":"levelo_inurba_marseille","lat":43.26932,"lon":5.38925,"is_reserved":false,"is_disabled":false,"rental_uris":{"android":"levelo://app?vid=30afc51d-7981-4daa-a145-a1a39f6a3f81","ios":"levelo://app?vid=30afc51d-7981-4daa-a145-a1a39f6a3f81"},"vehicle_type_id":"4","last_reported":1732392571,"current_range_meters":40000,"station_id":"ce4bhhh2rcd13ifvqfl0","pricing_plan_id":"cebpf4jnsgd1na2vs0mg"},{"bike_id":"17ba6615-9f08-440e-93e9-f8f4f3600fcd","system_id":"levelo_inurba_marseille","lat":43.30546,"lon":5.36531,"is_reserved":false,"is_disabled":true,"rental_uris":{"android":"levelo://app?vid=17ba6615-9f08-440e-93e9-f8f4f3600fcd","ios":"levelo://app?vid=17ba6615-9f08-440e-93e9-f8f4f3600fcd"},"vehicle_type_id":"4","last_reported":1732392571,"current_range_meters":6800,"station_id":"ce4bgs12rcd13ifvqcag","pricing_plan_id":"cebpf4jnsgd1na2vs0mg"},{"bike_id":"cbc2167d-639d-4b33-b914-3ad6f36f2868","system_id":"levelo_inurba_marseille","lat":43.22929,"lon":5.35374,"is_reserved":false,"is_disabled":false,"rental_uris":{"android":"levelo://app?vid=cbc2167d-639d-4b33-b914-3ad6f36f2868","ios":"levelo://app?vid=cbc2167d-639d-4b33-b914-3ad6f36f2868"},"vehicle_type_id":"4","last_reported":1732392571,"current_range_meters":38400,"station_id":"cpo3532slgdg3j2ikp40","pricing_plan_id":"cebpf4jnsgd1na2vs0mg"},{"bike_id":"c6bf24e7-cbae-4c27-a691-1a3776e3a87e","system_id":"levelo_inurba_marseille","lat":43.282598,"lon":5.350493,"is_reserved":false,"is_disabled":false,"rental_uris":{"android":"levelo://app?vid=c6bf24e7-cbae-4c27-a691-1a3776e3a87e","ios":"levelo://app?vid=c6bf24e7-cbae-4c27-a691-1a3776e3a87e"},"vehicle_type_id":"4","last_reported":1732392571,"current_range_meters":33200,"station_id":"ce4bhbp2rcd13ifvqerg","pricing_plan_id":"cebpf4jnsgd1na2vs0mg"},{"bike_id":"48e299ff-15a0-46aa-95f9-0d7210dbe96a","system_id":"levelo_inurba_marseille","lat":43.29417,"lon":5.38625,"is_reserved":false,"is_disabled":false,"rental_uris":{"android":"levelo://app?vid=48e299ff-15a0-46aa-95f9-0d7210dbe96a","ios":"levelo://app?vid=48e299ff-15a0-46aa-95f9-0d7210dbe96a"},"vehicle_type_id":"4","last_reported":1732392571,"current_range_meters":36000,"station_id":"ce4bh2h2rcd13ifvqdh0","pricing_plan_id":"cebpf4jnsgd1na2vs0mg"},{"bike_id":"d2d6b761-7df5-4ee3-9c07-7f6feedf1b78","system_id":"levelo_inurba_marseille","lat":43.29257,"lon":5.40923,"is_reserved":false,"is_disabled":false,"rental_uris":{"android":"levelo://app?vid=d2d6b761-7df5-4ee3-9c07-7f6feedf1b78","ios":"levelo://app?vid=d2d6b761-7df5-4ee3-9c07-7f6feedf1b78"},"vehicle_type_id":"4","last_reported":1732392571,"current_range_meters":27200,"station_id":"ce4bh192rcd13ifvqdc0","pricing_plan_id":"cebpf4jnsgd1na2vs0mg"},{"bike_id":"e037d650-67ba-407d-9a7c-d9f17719d625","system_id":"levelo_inurba_marseille","lat":43.29414,"lon":5.38623,"is_reserved":false,"is_disabled":false,"rental_uris":{"android":"levelo://app?vid=e037d650-67ba-407d-9a7c-d9f17719d625","ios":"levelo://app?vid=e037d650-67ba-407d-9a7c-d9f17719d625"},"vehicle_type_id":"4","last_reported":1732392571,"current_range_meters":12400,"station_id":"ce4bh2h2rcd13ifvqdh0","pricing_plan_id":"cebpf4jnsgd1na2vs0mg"},{"bike_id":"635f2088-37d7-4c7e-b140-3292398be605","system_id":"levelo_inurba_marseille","lat":43.24809,"lon":5.37454,"is_reserved":false,"is_disabled":false,"rental_uris":{"android":"levelo://app?vid=635f2088-37d7-4c7e-b140-3292398be605","ios":"levelo://app?vid=635f2088-37d7-4c7e-b140-3292398be605"},"vehicle_type_id":"4","last_reported":1732392571,"current_range_meters":38400,"station_id":"ce4bhgh2rcd13ifvqfb0","pricing_plan_id":"cebpf4jnsgd1na2vs0mg"},{"bike_id":"c838ef5d-d731-4ac9-87b1-ee7a3a460494","system_id":"levelo_inurba_marseille","lat":43.29707,"lon":5.366,"is_reserved":false,"is_disabled":false,"rental_uris":{"android":"levelo://app?vid=c838ef5d-d731-4ac9-87b1-ee7a3a460494","ios":"levelo://app?vid=c838ef5d-d731-4ac9-87b1-ee7a3a460494"},"vehicle_type_id":"4","last_reported":1732392571,"current_range_meters":28000,"station_id":"ce4bgn12rcd13ifvqbt0","pricing_plan_id":"cebpf4jnsgd1na2vs0mg"},{"bike_id":"6ecda9f4-241a-4f0f-8c7c-8a09eb20885b","system_id":"levelo_inurba_marseille","lat":43.26678,"lon":5.38262,"is_reserved":false,"is_disabled":false,"rental_uris":{"android":"levelo://app?vid=6ecda9f4-241a-4f0f-8c7c-8a09eb20885b","ios":"levelo://app?vid=6ecda9f4-241a-4f0f-8c7c-8a09eb20885b"},"vehicle_type_id":"4","last_reported":1732392571,"current_range_meters":33600,"station_id":"ce4bhg92rcd13ifvqf90","pricing_plan_id":"cebpf4jnsgd1na2vs0mg"},{"bike_id":"211c998e-f758-4ff8-907a-0ca46d0500d7","system_id":"levelo_inurba_marseille","lat":43.29264,"lon":5.38445,"is_reserved":false,"is_disabled":false,"rental_uris":{"android":"levelo://app?vid=211c998e-f758-4ff8-907a-0ca46d0500d7","ios":"levelo://app?vid=211c998e-f758-4ff8-907a-0ca46d0500d7"},"vehicle_type_id":"4","last_reported":1732392571,"current_range_meters":33600,"station_id":"ce4bh692rcd13ifvqea0","pricing_plan_id":"cebpf4jnsgd1na2vs0mg"},{"bike_id":"2671fb8a-3452-46fd-bec4-bd169133378c","system_id":"levelo_inurba_marseille","lat":43.26683,"lon":5.38269,"is_reserved":false,"is_disabled":true,"rental_uris":{"android":"levelo://app?vid=2671fb8a-3452-46fd-bec4-bd169133378c","ios":"levelo://app?vid=2671fb8a-3452-46fd-bec4-bd169133378c"},"vehicle_type_id":"4","last_reported":1732392571,"current_range_meters":0,"station_id":"ce4bhg92rcd13ifvqf90","pricing_plan_id":"cebpf4jnsgd1na2vs0mg"},{"bike_id":"facba062-9281-46c7-b4ed-5fef40c76d9f","system_id":"levelo_inurba_marseille","lat":43.28419,"lon":5.34979,"is_reserved":false,"is_disabled":false,"rental_uris":{"android":"levelo://app?vid=facba062-9281-46c7-b4ed-5fef40c76d9f","ios":"levelo://app?vid=facba062-9281-46c7-b4ed-5fef40c76d9f"},"vehicle_type_id":"4","last_reported":1732392571,"current_range_meters":20000,"station_id":"ce4bhbh2rcd13ifvqepg","pricing_plan_id":"cebpf4jnsgd1na2vs0mg"},{"bike_id":"e572ee7b-06a1-48ce-acc2-457156118763","system_id":"levelo_inurba_marseille","lat":43.29415,"lon":5.38623,"is_reserved":false,"is_disabled":false,"rental_uris":{"android":"levelo://app?vid=e572ee7b-06a1-48ce-acc2-457156118763","ios":"levelo://app?vid=e572ee7b-06a1-48ce-acc2-457156118763"},"vehicle_type_id":"4","last_reported":1732392571,"current_range_meters":24400,"station_id":"ce4bh2h2rcd13ifvqdh0","pricing_plan_id":"cebpf4jnsgd1na2vs0mg"},{"bike_id":"28f8ecf8-a7ae-4a32-aa4f-609e03eada5d","system_id":"levelo_inurba_marseille","lat":43.29526,"lon":5.3854,"is_reserved":false,"is_disabled":true,"rental_uris":{"android":"levelo://app?vid=28f8ecf8-a7ae-4a32-aa4f-609e03eada5d","ios":"levelo://app?vid=28f8ecf8-a7ae-4a32-aa4f-609e03eada5d"},"vehicle_type_id":"4","last_reported":1732392571,"current_range_meters":800,"station_id":"ce4bgih2rcd13ifvqba0","pricing_plan_id":"cebpf4jnsgd1na2vs0mg"},{"bike_id":"858b65e1-94fc-4151-a71e-8b168cb19dcb","system_id":"levelo_inurba_marseille","lat":43.30766,"lon":5.38158,"is_reserved":false,"is_disabled":true,"rental_uris":{"android":"levelo://app?vid=858b65e1-94fc-4151-a71e-8b168cb19dcb","ios":"levelo://app?vid=858b65e1-94fc-4151-a71e-8b168cb19dcb"},"vehicle_type_id":"4","last_reported":1732392571,"current_range_meters":8800,"station_id":"","pricing_plan_id":"cebpf4jnsgd1na2vs0mg"},{"bike_id":"467fe50f-b808-4a8b-965b-251cbeaaa96a","system_id":"levelo_inurba_marseille","lat":43.28106,"lon":5.37838,"is_reserved":false,"is_disabled":false,"rental_uris":{"android":"levelo://app?vid=467fe50f-b808-4a8b-965b-251cbeaaa96a","ios":"levelo://app?vid=467fe50f-b808-4a8b-965b-251cbeaaa96a"},"vehicle_type_id":"4","last_reported":1732392571,"current_range_meters":20400,"station_id":"ce4bha12rcd13ifvqee0","pricing_plan_id":"cebpf4jnsgd1na2vs0mg"},{"bike_id":"6daad87f-8ef0-4034-a0b7-ddeaca28df17","system_id":"levelo_inurba_marseille","lat":43.29702,"lon":5.36614,"is_reserved":false,"is_disabled":false,"rental_uris":{"android":"levelo://app?vid=6daad87f-8ef0-4034-a0b7-ddeaca28df17","ios":"levelo://app?vid=6daad87f-8ef0-4034-a0b7-ddeaca28df17"},"vehicle_type_id":"4","last_reported":1732392571,"current_range_meters":22000,"station_id":"ce4bgn12rcd13ifvqbt0","pricing_plan_id":"cebpf4jnsgd1na2vs0mg"},{"bike_id":"9bf477a0-e14d-4743-9508-0a902e970c65","system_id":"levelo_inurba_marseille","lat":43.26957,"lon":5.40259,"is_reserved":false,"is_disabled":false,"rental_uris":{"android":"levelo://app?vid=9bf477a0-e14d-4743-9508-0a902e970c65","ios":"levelo://app?vid=9bf477a0-e14d-4743-9508-0a902e970c65"},"vehicle_type_id":"4","last_reported":1732392571,"current_range_meters":34800,"station_id":"cjm6bp8fraef2m0cb0m0","pricing_plan_id":"cebpf4jnsgd1na2vs0mg"},{"bike_id":"133c0635-6ac4-49a6-b3b8-4ad5dda949c5","system_id":"levelo_inurba_marseille","lat":43.31705,"lon":5.37759,"is_reserved":false,"is_disabled":true,"rental_uris":{"android":"levelo://app?vid=133c0635-6ac4-49a6-b3b8-4ad5dda949c5","ios":"levelo://app?vid=133c0635-6ac4-49a6-b3b8-4ad5dda949c5"},"vehicle_type_id":"4","last_reported":1732392571,"current_range_meters":38800,"station_id":"ce4bgth2rcd13ifvqch0","pricing_plan_id":"cebpf4jnsgd1na2vs0mg"},{"bike_id":"bcc3b397-4053-4374-93ce-1da8586f0c5d","system_id":"levelo_inurba_marseille","lat":43.33716,"lon":5.39185,"is_reserved":false,"is_disabled":false,"rental_uris":{"android":"levelo://app?vid=bcc3b397-4053-4374-93ce-1da8586f0c5d","ios":"levelo://app?vid=bcc3b397-4053-4374-93ce-1da8586f0c5d"},"vehicle_type_id":"4","last_reported":1732392571,"current_range_meters":39200,"station_id":"ce4bhr92rcd13ifvqhsg","pricing_plan_id":"cebpf4jnsgd1na2vs0mg"},{"bike_id":"c83763ac-9177-40bf-85e3-993dccb48689","system_id":"levelo_inurba_marseille","lat":43.30302,"lon":5.39215,"is_reserved":false,"is_disabled":false,"rental_uris":{"android":"levelo://app?vid=c83763ac-9177-40bf-85e3-993dccb48689","ios":"levelo://app?vid=c83763ac-9177-40bf-85e3-993dccb48689"},"vehicle_type_id":"4","last_reported":1732392571,"current_range_meters":27600,"station_id":"ce4bgkh2rcd13ifvqbk0","pricing_plan_id":"cebpf4jnsgd1na2vs0mg"},{"bike_id":"d10336fe-c20c-4a65-b5c7-91fc2a2cbdb6","system_id":"levelo_inurba_marseille","lat":43.31371,"lon":5.38494,"is_reserved":false,"is_disabled":true,"rental_uris":{"android":"levelo://app?vid=d10336fe-c20c-4a65-b5c7-91fc2a2cbdb6","ios":"levelo://app?vid=d10336fe-c20c-4a65-b5c7-91fc2a2cbdb6"},"vehicle_type_id":"4","last_reported":1732392571,"current_range_meters":3600,"station_id":"ce4bgt92rcd13ifvqcf0","pricing_plan_id":"cebpf4jnsgd1na2vs0mg"},{"bike_id":"f4427e9f-c509-4364-a1f3-9e371b95713b","system_id":"levelo_inurba_marseille","lat":43.29422,"lon":5.3863,"is_reserved":false,"is_disabled":false,"rental_uris":{"android":"levelo://app?vid=f4427e9f-c509-4364-a1f3-9e371b95713b","ios":"levelo://app?vid=f4427e9f-c509-4364-a1f3-9e371b95713b"},"vehicle_type_id":"4","last_reported":1732392571,"current_range_meters":38800,"station_id":"ce4bh2h2rcd13ifvqdh0","pricing_plan_id":"cebpf4jnsgd1na2vs0mg"},{"bike_id":"a66f4473-e4f7-4a29-9238-bbec7cb9d5c8","system_id":"levelo_inurba_marseille","lat":43.29296,"lon":5.37445,"is_reserved":false,"is_disabled":false,"rental_uris":{"android":"levelo://app?vid=a66f4473-e4f7-4a29-9238-bbec7cb9d5c8","ios":"levelo://app?vid=a66f4473-e4f7-4a29-9238-bbec7cb9d5c8"},"vehicle_type_id":"4","last_reported":1732392571,"current_range_meters":28000,"station_id":"ce4bgi12rcd13ifvqb70","pricing_plan_id":"cebpf4jnsgd1na2vs0mg"},{"bike_id":"a228e08c-13f9-4cd7-852b-6320d06f226c","system_id":"levelo_inurba_marseille","lat":43.28571,"lon":5.39485,"is_reserved":false,"is_disabled":false,"rental_uris":{"android":"levelo://app?vid=a228e08c-13f9-4cd7-852b-6320d06f226c","ios":"levelo://app?vid=a228e08c-13f9-4cd7-852b-6320d06f226c"},"vehicle_type_id":"4","last_reported":1732392571,"current_range_meters":39200,"station_id":"ce4bh292rcd13ifvqdg0","pricing_plan_id":"cebpf4jnsgd1na2vs0mg"},{"bike_id":"f7033b3a-38b5-43ec-9dfb-9338084bda7e","system_id":"levelo_inurba_marseille","lat":43.26052,"lon":5.39389,"is_reserved":false,"is_disabled":false,"rental_uris":{"android":"levelo://app?vid=f7033b3a-38b5-43ec-9dfb-9338084bda7e","ios":"levelo://app?vid=f7033b3a-38b5-43ec-9dfb-9338084bda7e"},"vehicle_type_id":"4","last_reported":1732392571,"current_range_meters":6000,"station_id":"ce4bhh92rcd13ifvqfj0","pricing_plan_id":"cebpf4jnsgd1na2vs0mg"},{"bike_id":"820fced5-9767-41ce-bb28-b4e0b87a0362","system_id":"levelo_inurba_marseille","lat":43.30129,"lon":5.39867,"is_reserved":false,"is_disabled":false,"rental_uris":{"android":"levelo://app?vid=820fced5-9767-41ce-bb28-b4e0b87a0362","ios":"levelo://app?vid=820fced5-9767-41ce-bb28-b4e0b87a0362"},"vehicle_type_id":"4","last_reported":1732392571,"current_range_meters":9600,"station_id":"ce4bh0h2rcd13ifvqd40","pricing_plan_id":"cebpf4jnsgd1na2vs0mg"},{"bike_id":"552ae1f9-34eb-4d70-a19b-3616d3661778","system_id":"levelo_inurba_marseille","lat":43.33723,"lon":5.39185,"is_reserved":false,"is_disabled":false,"rental_uris":{"android":"levelo://app?vid=552ae1f9-34eb-4d70-a19b-3616d3661778","ios":"levelo://app?vid=552ae1f9-34eb-4d70-a19b-3616d3661778"},"vehicle_type_id":"4","last_reported":1732392571,"current_range_meters":19600,"station_id":"ce4bhr92rcd13ifvqhsg","pricing_plan_id":"cebpf4jnsgd1na2vs0mg"},{"bike_id":"f7f3756c-1ec7-4782-9c87-6273f87b6774","system_id":"levelo_inurba_marseille","lat":43.337444,"lon":5.374475,"is_reserved":false,"is_disabled":true,"rental_uris":{"android":"levelo://app?vid=f7f3756c-1ec7-4782-9c87-6273f87b6774","ios":"levelo://app?vid=f7f3756c-1ec7-4782-9c87-6273f87b6774"},"vehicle_type_id":"4","last_reported":1732392571,"current_range_meters":32000,"station_id":"","pricing_plan_id":"cebpf4jnsgd1na2vs0mg"},{"bike_id":"740f162e-a0c7-4af9-899d-283ea1409dc6","system_id":"levelo_inurba_marseille","lat":43.26934,"lon":5.38918,"is_reserved":false,"is_disabled":true,"rental_uris":{"android":"levelo://app?vid=740f162e-a0c7-4af9-899d-283ea1409dc6","ios":"levelo://app?vid=740f162e-a0c7-4af9-899d-283ea1409dc6"},"vehicle_type_id":"4","last_reported":1732392571,"current_range_meters":35600,"station_id":"ce4bhhh2rcd13ifvqfl0","pricing_plan_id":"cebpf4jnsgd1na2vs0mg"},{"bike_id":"7acb6f49-286a-4146-ad10-88dfb041fba4","system_id":"levelo_inurba_marseille","lat":43.30949,"lon":5.39029,"is_reserved":false,"is_disabled":false,"rental_uris":{"android":"levelo://app?vid=7acb6f49-286a-4146-ad10-88dfb041fba4","ios":"levelo://app?vid=7acb6f49-286a-4146-ad10-88dfb041fba4"},"vehicle_type_id":"4","last_reported":1732392571,"current_range_meters":12400,"station_id":"ce4bgup2rcd13ifvqco0","pricing_plan_id":"cebpf4jnsgd1na2vs0mg"},{"bike_id":"e8f826ec-cf1d-427e-a65b-cf83f280be00","system_id":"levelo_inurba_marseille","lat":43.27055,"lon":5.40262,"is_reserved":false,"is_disabled":false,"rental_uris":{"android":"levelo://app?vid=e8f826ec-cf1d-427e-a65b-cf83f280be00","ios":"levelo://app?vid=e8f826ec-cf1d-427e-a65b-cf83f280be00"},"vehicle_type_id":"4","last_reported":1732392571,"current_range_meters":38800,"station_id":"ce4bhk92rcd13ifvqgc0","pricing_plan_id":"cebpf4jnsgd1na2vs0mg"},{"bike_id":"3b97cc9e-e424-4721-9cc0-b2f33800e156","system_id":"levelo_inurba_marseille","lat":43.27837,"lon":5.3921,"is_reserved":false,"is_disabled":false,"rental_uris":{"android":"levelo://app?vid=3b97cc9e-e424-4721-9cc0-b2f33800e156","ios":"levelo://app?vid=3b97cc9e-e424-4721-9cc0-b2f33800e156"},"vehicle_type_id":"4","last_reported":1732392571,"current_range_meters":9200,"station_id":"ce4bhjp2rcd13ifvqga0","pricing_plan_id":"cebpf4jnsgd1na2vs0mg"},{"bike_id":"98400d4e-7391-4be4-819d-c80ccebbfa3c","system_id":"levelo_inurba_marseille","lat":43.2815,"lon":5.4264,"is_reserved":false,"is_disabled":false,"rental_uris":{"android":"levelo://app?vid=98400d4e-7391-4be4-819d-c80ccebbfa3c","ios":"levelo://app?vid=98400d4e-7391-4be4-819d-c80ccebbfa3c"},"vehicle_type_id":"4","last_reported":1732392571,"current_range_meters":20000,"station_id":"ce4bhnh2rcd13ifvqgug","pricing_plan_id":"cebpf4jnsgd1na2vs0mg"},{"bike_id":"ae2b9dc9-2b11-49d7-85f2-a5f66993d139","system_id":"levelo_inurba_marseille","lat":43.27524,"lon":5.41645,"is_reserved":false,"is_disabled":false,"rental_uris":{"android":"levelo://app?vid=ae2b9dc9-2b11-49d7-85f2-a5f66993d139","ios":"levelo://app?vid=ae2b9dc9-2b11-49d7-85f2-a5f66993d139"},"vehicle_type_id":"4","last_reported":1732392571,"current_range_meters":29600,"station_id":"","pricing_plan_id":"cebpf4jnsgd1na2vs0mg"},{"bike_id":"33c1f36b-c614-49a7-9ac7-00e6a6ae90fc","system_id":"levelo_inurba_marseille","lat":43.311742,"lon":5.387204,"is_reserved":false,"is_disabled":false,"rental_uris":{"android":"levelo://app?vid=33c1f36b-c614-49a7-9ac7-00e6a6ae90fc","ios":"levelo://app?vid=33c1f36b-c614-49a7-9ac7-00e6a6ae90fc"},"vehicle_type_id":"4","last_reported":1732392571,"current_range_meters":32400,"station_id":"ce4bgv12rcd13ifvqcp0","pricing_plan_id":"cebpf4jnsgd1na2vs0mg"},{"bike_id":"96fef04f-f424-4b1e-a003-fc645e04ed3a","system_id":"levelo_inurba_marseille","lat":43.27374,"lon":5.36243,"is_reserved":false,"is_disabled":true,"rental_uris":{"android":"levelo://app?vid=96fef04f-f424-4b1e-a003-fc645e04ed3a","ios":"levelo://app?vid=96fef04f-f424-4b1e-a003-fc645e04ed3a"},"vehicle_type_id":"4","last_reported":1732392571,"current_range_meters":36000,"station_id":"ce4bhbh2rcd13ifvqeo0","pricing_plan_id":"cebpf4jnsgd1na2vs0mg"},{"bike_id":"b7b61d62-d3cf-45c0-ae9e-f05215122577","system_id":"levelo_inurba_marseille","lat":43.30926,"lon":5.40139,"is_reserved":false,"is_disabled":true,"rental_uris":{"android":"levelo://app?vid=b7b61d62-d3cf-45c0-ae9e-f05215122577","ios":"levelo://app?vid=b7b61d62-d3cf-45c0-ae9e-f05215122577"},"vehicle_type_id":"4","last_reported":1732392571,"current_range_meters":0,"station_id":"ce4bgvp2rcd13ifvqct0","pricing_plan_id":"cebpf4jnsgd1na2vs0mg"},{"bike_id":"f8ac3536-f831-4b69-84f5-9f336b994d5e","system_id":"levelo_inurba_marseille","lat":43.32487,"lon":5.36552,"is_reserved":false,"is_disabled":false,"rental_uris":{"android":"levelo://app?vid=f8ac3536-f831-4b69-84f5-9f336b994d5e","ios":"levelo://app?vid=f8ac3536-f831-4b69-84f5-9f336b994d5e"},"vehicle_type_id":"4","last_reported":1732392571,"current_range_meters":32000,"station_id":"ce4bhs12rcd13ifvqhvg","pricing_plan_id":"cebpf4jnsgd1na2vs0mg"},{"bike_id":"45d006ef-af0d-4995-b808-76d59a7cfbc8","system_id":"levelo_inurba_marseille","lat":43.26943,"lon":5.4024,"is_reserved":false,"is_disabled":false,"rental_uris":{"android":"levelo://app?vid=45d006ef-af0d-4995-b808-76d59a7cfbc8","ios":"levelo://app?vid=45d006ef-af0d-4995-b808-76d59a7cfbc8"},"vehicle_type_id":"4","last_reported":1732392571,"current_range_meters":36000,"station_id":"cjm6bp8fraef2m0cb0m0","pricing_plan_id":"cebpf4jnsgd1na2vs0mg"},{"bike_id":"3c617961-b392-4790-98cc-5ce62dd58cf7","system_id":"levelo_inurba_marseille","lat":43.28416,"lon":5.34972,"is_reserved":false,"is_disabled":false,"rental_uris":{"android":"levelo://app?vid=3c617961-b392-4790-98cc-5ce62dd58cf7","ios":"levelo://app?vid=3c617961-b392-4790-98cc-5ce62dd58cf7"},"vehicle_type_id":"4","last_reported":1732392571,"current_range_meters":38400,"station_id":"ce4bhbh2rcd13ifvqepg","pricing_plan_id":"cebpf4jnsgd1na2vs0mg"},{"bike_id":"a55c7155-8dfc-4e13-b519-3e89d853fb5a","system_id":"levelo_inurba_marseille","lat":43.32658,"lon":5.40991,"is_reserved":false,"is_disabled":false,"rental_uris":{"android":"levelo://app?vid=a55c7155-8dfc-4e13-b519-3e89d853fb5a","ios":"levelo://app?vid=a55c7155-8dfc-4e13-b519-3e89d853fb5a"},"vehicle_type_id":"4","last_reported":1732392571,"current_range_meters":30800,"station_id":"ce4bhpp2rcd13ifvqhgg","pricing_plan_id":"cebpf4jnsgd1na2vs0mg"},{"bike_id":"63e5c75a-30c8-4be5-8ec8-448fdf89dbb8","system_id":"levelo_inurba_marseille","lat":43.23063,"lon":5.35485,"is_reserved":false,"is_disabled":false,"rental_uris":{"android":"levelo://app?vid=63e5c75a-30c8-4be5-8ec8-448fdf89dbb8","ios":"levelo://app?vid=63e5c75a-30c8-4be5-8ec8-448fdf89dbb8"},"vehicle_type_id":"4","last_reported":1732392571,"current_range_meters":8400,"station_id":"cpo3342slgdg3j2ifvpg","pricing_plan_id":"cebpf4jnsgd1na2vs0mg"},{"bike_id":"844693b4-a8ab-4270-9c51-2ae0bf163fc0","system_id":"levelo_inurba_marseille","lat":43.23151,"lon":5.43709,"is_reserved":false,"is_disabled":true,"rental_uris":{"android":"levelo://app?vid=844693b4-a8ab-4270-9c51-2ae0bf163fc0","ios":"levelo://app?vid=844693b4-a8ab-4270-9c51-2ae0bf163fc0"},"vehicle_type_id":"4","last_reported":1732392571,"current_range_meters":0,"station_id":"ce4bhmp2rcd13ifvqgog","pricing_plan_id":"cebpf4jnsgd1na2vs0mg"},{"bike_id":"325fe5f5-d999-444f-bb23-27ea636eb738","system_id":"levelo_inurba_marseille","lat":43.24172,"lon":5.36401,"is_reserved":false,"is_disabled":false,"rental_uris":{"android":"levelo://app?vid=325fe5f5-d999-444f-bb23-27ea636eb738","ios":"levelo://app?vid=325fe5f5-d999-444f-bb23-27ea636eb738"},"vehicle_type_id":"4","last_reported":1732392571,"current_range_meters":38400,"station_id":"cpo36qri1sfpv3e86is0","pricing_plan_id":"cebpf4jnsgd1na2vs0mg"},{"bike_id":"89228f68-3127-4436-9201-8331b38355c7","system_id":"levelo_inurba_marseille","lat":43.25719,"lon":5.41075,"is_reserved":false,"is_disabled":false,"rental_uris":{"android":"levelo://app?vid=89228f68-3127-4436-9201-8331b38355c7","ios":"levelo://app?vid=89228f68-3127-4436-9201-8331b38355c7"},"vehicle_type_id":"4","last_reported":1732392571,"current_range_meters":38800,"station_id":"ce4bhkp2rcd13ifvqgd0","pricing_plan_id":"cebpf4jnsgd1na2vs0mg"},{"bike_id":"0e4e4e0f-80b8-4da4-a5fd-15d890ba7922","system_id":"levelo_inurba_marseille","lat":43.27992,"lon":5.41662,"is_reserved":false,"is_disabled":false,"rental_uris":{"android":"levelo://app?vid=0e4e4e0f-80b8-4da4-a5fd-15d890ba7922","ios":"levelo://app?vid=0e4e4e0f-80b8-4da4-a5fd-15d890ba7922"},"vehicle_type_id":"4","last_reported":1732392571,"current_range_meters":6800,"station_id":"ce4bho12rcd13ifvqh1g","pricing_plan_id":"cebpf4jnsgd1na2vs0mg"},{"bike_id":"400c51b9-2ef9-425c-b02b-68c86da8008f","system_id":"levelo_inurba_marseille","lat":43.28423,"lon":5.34996,"is_reserved":false,"is_disabled":false,"rental_uris":{"android":"levelo://app?vid=400c51b9-2ef9-425c-b02b-68c86da8008f","ios":"levelo://app?vid=400c51b9-2ef9-425c-b02b-68c86da8008f"},"vehicle_type_id":"4","last_reported":1732392571,"current_range_meters":38800,"station_id":"ce4bhbh2rcd13ifvqepg","pricing_plan_id":"cebpf4jnsgd1na2vs0mg"},{"bike_id":"e5951ee3-4a5a-4ebb-b469-096c5188dfa3","system_id":"levelo_inurba_marseille","lat":43.23194,"lon":5.35558,"is_reserved":false,"is_disabled":false,"rental_uris":{"android":"levelo://app?vid=e5951ee3-4a5a-4ebb-b469-096c5188dfa3","ios":"levelo://app?vid=e5951ee3-4a5a-4ebb-b469-096c5188dfa3"},"vehicle_type_id":"4","last_reported":1732392571,"current_range_meters":22400,"station_id":"ce4bhu92rcd13ifvqi70","pricing_plan_id":"cebpf4jnsgd1na2vs0mg"},{"bike_id":"b4031e97-07ad-4bf3-b625-27b2659b4faf","system_id":"levelo_inurba_marseille","lat":43.25726,"lon":5.4111,"is_reserved":false,"is_disabled":false,"rental_uris":{"android":"levelo://app?vid=b4031e97-07ad-4bf3-b625-27b2659b4faf","ios":"levelo://app?vid=b4031e97-07ad-4bf3-b625-27b2659b4faf"},"vehicle_type_id":"4","last_reported":1732392571,"current_range_meters":14400,"station_id":"ce4bhkp2rcd13ifvqgd0","pricing_plan_id":"cebpf4jnsgd1na2vs0mg"},{"bike_id":"53aedfa4-4049-4759-bc95-757addd8c685","system_id":"levelo_inurba_marseille","lat":43.26554,"lon":5.37287,"is_reserved":false,"is_disabled":false,"rental_uris":{"android":"levelo://app?vid=53aedfa4-4049-4759-bc95-757addd8c685","ios":"levelo://app?vid=53aedfa4-4049-4759-bc95-757addd8c685"},"vehicle_type_id":"4","last_reported":1732392571,"current_range_meters":38800,"station_id":"ce4bhg12rcd13ifvqf70","pricing_plan_id":"cebpf4jnsgd1na2vs0mg"},{"bike_id":"e89acc00-2b06-4720-9a63-22cf0d597a07","system_id":"levelo_inurba_marseille","lat":43.25006,"lon":5.38919,"is_reserved":false,"is_disabled":false,"rental_uris":{"android":"levelo://app?vid=e89acc00-2b06-4720-9a63-22cf0d597a07","ios":"levelo://app?vid=e89acc00-2b06-4720-9a63-22cf0d597a07"},"vehicle_type_id":"4","last_reported":1732392571,"current_range_meters":32800,"station_id":"ce4bhgp2rcd13ifvqfd0","pricing_plan_id":"cebpf4jnsgd1na2vs0mg"},{"bike_id":"5ef872c6-492e-48e2-8cbd-5a489c5744df","system_id":"levelo_inurba_marseille","lat":43.25719,"lon":5.41113,"is_reserved":false,"is_disabled":false,"rental_uris":{"android":"levelo://app?vid=5ef872c6-492e-48e2-8cbd-5a489c5744df","ios":"levelo://app?vid=5ef872c6-492e-48e2-8cbd-5a489c5744df"},"vehicle_type_id":"4","last_reported":1732392571,"current_range_meters":26800,"station_id":"ce4bhkp2rcd13ifvqgd0","pricing_plan_id":"cebpf4jnsgd1na2vs0mg"},{"bike_id":"6c948e9c-d5b3-4fe5-a918-1bd2f7c83b02","system_id":"levelo_inurba_marseille","lat":43.32114,"lon":5.36765,"is_reserved":false,"is_disabled":false,"rental_uris":{"android":"levelo://app?vid=6c948e9c-d5b3-4fe5-a918-1bd2f7c83b02","ios":"levelo://app?vid=6c948e9c-d5b3-4fe5-a918-1bd2f7c83b02"},"vehicle_type_id":"4","last_reported":1732392571,"current_range_meters":32000,"station_id":"ce4bhrh2rcd13ifvqhug","pricing_plan_id":"cebpf4jnsgd1na2vs0mg"},{"bike_id":"9e620abf-d324-4f99-84fc-d67e71109f2a","system_id":"levelo_inurba_marseille","lat":43.31077,"lon":5.42434,"is_reserved":false,"is_disabled":true,"rental_uris":{"android":"levelo://app?vid=9e620abf-d324-4f99-84fc-d67e71109f2a","ios":"levelo://app?vid=9e620abf-d324-4f99-84fc-d67e71109f2a"},"vehicle_type_id":"4","last_reported":1732392571,"current_range_meters":0,"station_id":"ce4bhp92rcd13ifvqhag","pricing_plan_id":"cebpf4jnsgd1na2vs0mg"},{"bike_id":"9388a7ff-9c5c-4c26-9899-39b2408cf7e3","system_id":"levelo_inurba_marseille","lat":43.31025,"lon":5.38342,"is_reserved":false,"is_disabled":true,"rental_uris":{"android":"levelo://app?vid=9388a7ff-9c5c-4c26-9899-39b2408cf7e3","ios":"levelo://app?vid=9388a7ff-9c5c-4c26-9899-39b2408cf7e3"},"vehicle_type_id":"4","last_reported":1732392571,"current_range_meters":0,"station_id":"","pricing_plan_id":"cebpf4jnsgd1na2vs0mg"},{"bike_id":"06908836-8a1b-48b3-9c53-6a94eb5589c2","system_id":"levelo_inurba_marseille","lat":43.24684,"lon":5.38139,"is_reserved":false,"is_disabled":false,"rental_uris":{"android":"levelo://app?vid=06908836-8a1b-48b3-9c53-6a94eb5589c2","ios":"levelo://app?vid=06908836-8a1b-48b3-9c53-6a94eb5589c2"},"vehicle_type_id":"4","last_reported":1732392571,"current_range_meters":36000,"station_id":"ce4bhih2rcd13ifvqfr0","pricing_plan_id":"cebpf4jnsgd1na2vs0mg"},{"bike_id":"32790f5a-4de3-4d19-a189-7b6ceceb2a72","system_id":"levelo_inurba_marseille","lat":43.29263,"lon":5.38433,"is_reserved":false,"is_disabled":false,"rental_uris":{"android":"levelo://app?vid=32790f5a-4de3-4d19-a189-7b6ceceb2a72","ios":"levelo://app?vid=32790f5a-4de3-4d19-a189-7b6ceceb2a72"},"vehicle_type_id":"4","last_reported":1732392571,"current_range_meters":27600,"station_id":"ce4bh692rcd13ifvqea0","pricing_plan_id":"cebpf4jnsgd1na2vs0mg"},{"bike_id":"c6b4454a-877c-429e-8e00-351fc70ff9bb","system_id":"levelo_inurba_marseille","lat":43.32368,"lon":5.38876,"is_reserved":false,"is_disabled":false,"rental_uris":{"android":"levelo://app?vid=c6b4454a-877c-429e-8e00-351fc70ff9bb","ios":"levelo://app?vid=c6b4454a-877c-429e-8e00-351fc70ff9bb"},"vehicle_type_id":"4","last_reported":1732392571,"current_range_meters":12000,"station_id":"ce4bhqp2rcd13ifvqhog","pricing_plan_id":"cebpf4jnsgd1na2vs0mg"},{"bike_id":"878c1aca-74e8-4a96-8b6f-16d85c7f1ac1","system_id":"levelo_inurba_marseille","lat":43.309002,"lon":5.39644,"is_reserved":false,"is_disabled":false,"rental_uris":{"android":"levelo://app?vid=878c1aca-74e8-4a96-8b6f-16d85c7f1ac1","ios":"levelo://app?vid=878c1aca-74e8-4a96-8b6f-16d85c7f1ac1"},"vehicle_type_id":"4","last_reported":1732392571,"current_range_meters":2800,"station_id":"ce4bh012rcd13ifvqcv0","pricing_plan_id":"cebpf4jnsgd1na2vs0mg"},{"bike_id":"32d6030b-c22c-4a6e-81ed-9593ffd5919f","system_id":"levelo_inurba_marseille","lat":43.2693,"lon":5.40252,"is_reserved":false,"is_disabled":false,"rental_uris":{"android":"levelo://app?vid=32d6030b-c22c-4a6e-81ed-9593ffd5919f","ios":"levelo://app?vid=32d6030b-c22c-4a6e-81ed-9593ffd5919f"},"vehicle_type_id":"4","last_reported":1732392571,"current_range_meters":28800,"station_id":"cjm6bp8fraef2m0cb0m0","pricing_plan_id":"cebpf4jnsgd1na2vs0mg"},{"bike_id":"fcb3b44a-19bf-4080-9911-85044ccb8606","system_id":"levelo_inurba_marseille","lat":43.32538,"lon":5.41435,"is_reserved":false,"is_disabled":false,"rental_uris":{"android":"levelo://app?vid=fcb3b44a-19bf-4080-9911-85044ccb8606","ios":"levelo://app?vid=fcb3b44a-19bf-4080-9911-85044ccb8606"},"vehicle_type_id":"4","last_reported":1732392571,"current_range_meters":38800,"station_id":"ce4bhq12rcd13ifvqhhg","pricing_plan_id":"cebpf4jnsgd1na2vs0mg"},{"bike_id":"5c53cfbd-2547-413a-b79a-f8cc3b1ca992","system_id":"levelo_inurba_marseille","lat":43.32112,"lon":5.36771,"is_reserved":false,"is_disabled":false,"rental_uris":{"android":"levelo://app?vid=5c53cfbd-2547-413a-b79a-f8cc3b1ca992","ios":"levelo://app?vid=5c53cfbd-2547-413a-b79a-f8cc3b1ca992"},"vehicle_type_id":"4","last_reported":1732392571,"current_range_meters":9200,"station_id":"ce4bhrh2rcd13ifvqhug","pricing_plan_id":"cebpf4jnsgd1na2vs0mg"},{"bike_id":"84944571-a7ce-4f88-8b76-be139a0aee54","system_id":"levelo_inurba_marseille","lat":43.31712,"lon":5.43705,"is_reserved":false,"is_disabled":false,"rental_uris":{"android":"levelo://app?vid=84944571-a7ce-4f88-8b76-be139a0aee54","ios":"levelo://app?vid=84944571-a7ce-4f88-8b76-be139a0aee54"},"vehicle_type_id":"4","last_reported":1732392571,"current_range_meters":24800,"station_id":"ce4bhp92rcd13ifvqhcg","pricing_plan_id":"cebpf4jnsgd1na2vs0mg"},{"bike_id":"04f3811e-7719-46ec-ae7e-124656c2f683","system_id":"levelo_inurba_marseille","lat":43.26783,"lon":5.39413,"is_reserved":false,"is_disabled":false,"rental_uris":{"android":"levelo://app?vid=04f3811e-7719-46ec-ae7e-124656c2f683","ios":"levelo://app?vid=04f3811e-7719-46ec-ae7e-124656c2f683"},"vehicle_type_id":"4","last_reported":1732392571,"current_range_meters":10800,"station_id":"ce4bhh12rcd13ifvqfg0","pricing_plan_id":"cebpf4jnsgd1na2vs0mg"},{"bike_id":"04b9c9cb-be15-44a7-9bdc-6d22ca715c34","system_id":"levelo_inurba_marseille","lat":43.33717,"lon":5.39173,"is_reserved":false,"is_disabled":false,"rental_uris":{"android":"levelo://app?vid=04b9c9cb-be15-44a7-9bdc-6d22ca715c34","ios":"levelo://app?vid=04b9c9cb-be15-44a7-9bdc-6d22ca715c34"},"vehicle_type_id":"4","last_reported":1732392571,"current_range_meters":28000,"station_id":"ce4bhr92rcd13ifvqhsg","pricing_plan_id":"cebpf4jnsgd1na2vs0mg"},{"bike_id":"7801e9c8-ab7f-4073-9aaa-d6d368c082a5","system_id":"levelo_inurba_marseille","lat":43.29979,"lon":5.37177,"is_reserved":false,"is_disabled":false,"rental_uris":{"android":"levelo://app?vid=7801e9c8-ab7f-4073-9aaa-d6d368c082a5","ios":"levelo://app?vid=7801e9c8-ab7f-4073-9aaa-d6d368c082a5"},"vehicle_type_id":"4","last_reported":1732392571,"current_range_meters":38800,"station_id":"ce4bgr92rcd13ifvqc7g","pricing_plan_id":"cebpf4jnsgd1na2vs0mg"},{"bike_id":"785d50f5-c1b5-44e6-952a-fc6de0195c73","system_id":"levelo_inurba_marseille","lat":43.30087,"lon":5.3907,"is_reserved":false,"is_disabled":false,"rental_uris":{"android":"levelo://app?vid=785d50f5-c1b5-44e6-952a-fc6de0195c73","ios":"levelo://app?vid=785d50f5-c1b5-44e6-952a-fc6de0195c73"},"vehicle_type_id":"4","last_reported":1732392571,"current_range_meters":38400,"station_id":"ce4bh192rcd13ifvqdb0","pricing_plan_id":"cebpf4jnsgd1na2vs0mg"},{"bike_id":"a1ebf52a-87cf-4a7e-ab0b-8664a5d5dda5","system_id":"levelo_inurba_marseille","lat":43.298969,"lon":5.436737,"is_reserved":false,"is_disabled":false,"rental_uris":{"android":"levelo://app?vid=a1ebf52a-87cf-4a7e-ab0b-8664a5d5dda5","ios":"levelo://app?vid=a1ebf52a-87cf-4a7e-ab0b-8664a5d5dda5"},"vehicle_type_id":"4","last_reported":1732392571,"current_range_meters":11600,"station_id":"ce4bhpp2rcd13ifvqhfg","pricing_plan_id":"cebpf4jnsgd1na2vs0mg"},{"bike_id":"56ca6b93-ca3d-4dfc-8e20-e35c24d8bd07","system_id":"levelo_inurba_marseille","lat":43.337444,"lon":5.374475,"is_reserved":false,"is_disabled":true,"rental_uris":{"android":"levelo://app?vid=56ca6b93-ca3d-4dfc-8e20-e35c24d8bd07","ios":"levelo://app?vid=56ca6b93-ca3d-4dfc-8e20-e35c24d8bd07"},"vehicle_type_id":"4","last_reported":1732392571,"current_range_meters":0,"station_id":"","pricing_plan_id":"cebpf4jnsgd1na2vs0mg"},{"bike_id":"e9ed487d-bc77-4fe8-9a61-dc2ac11a5a4f","system_id":"levelo_inurba_marseille","lat":43.29872,"lon":5.38893,"is_reserved":false,"is_disabled":true,"rental_uris":{"android":"levelo://app?vid=e9ed487d-bc77-4fe8-9a61-dc2ac11a5a4f","ios":"levelo://app?vid=e9ed487d-bc77-4fe8-9a61-dc2ac11a5a4f"},"vehicle_type_id":"4","last_reported":1732392571,"current_range_meters":0,"station_id":"ce4bh392rcd13ifvqdl0","pricing_plan_id":"cebpf4jnsgd1na2vs0mg"},{"bike_id":"fc4e3e2e-faf4-4cbc-8fd8-119b18821073","system_id":"levelo_inurba_marseille","lat":43.25574,"lon":5.38223,"is_reserved":false,"is_disabled":true,"rental_uris":{"android":"levelo://app?vid=fc4e3e2e-faf4-4cbc-8fd8-119b18821073","ios":"levelo://app?vid=fc4e3e2e-faf4-4cbc-8fd8-119b18821073"},"vehicle_type_id":"4","last_reported":1732392571,"current_range_meters":16000,"station_id":"ce4bhih2rcd13ifvqfs0","pricing_plan_id":"cebpf4jnsgd1na2vs0mg"},{"bike_id":"784ccf42-6e96-40cb-b1ba-cc836864e352","system_id":"levelo_inurba_marseille","lat":43.31356,"lon":5.38497,"is_reserved":false,"is_disabled":false,"rental_uris":{"android":"levelo://app?vid=784ccf42-6e96-40cb-b1ba-cc836864e352","ios":"levelo://app?vid=784ccf42-6e96-40cb-b1ba-cc836864e352"},"vehicle_type_id":"4","last_reported":1732392571,"current_range_meters":38000,"station_id":"ce4bgt92rcd13ifvqcf0","pricing_plan_id":"cebpf4jnsgd1na2vs0mg"},{"bike_id":"46ac22a8-6f10-4221-98a6-34eba5c97bfb","system_id":"levelo_inurba_marseille","lat":43.29198,"lon":5.37306,"is_reserved":false,"is_disabled":true,"rental_uris":{"android":"levelo://app?vid=46ac22a8-6f10-4221-98a6-34eba5c97bfb","ios":"levelo://app?vid=46ac22a8-6f10-4221-98a6-34eba5c97bfb"},"vehicle_type_id":"4","last_reported":1732392571,"current_range_meters":0,"station_id":"","pricing_plan_id":"cebpf4jnsgd1na2vs0mg"},{"bike_id":"1f741346-28e9-475e-945e-50145fcc1501","system_id":"levelo_inurba_marseille","lat":43.26926,"lon":5.38912,"is_reserved":false,"is_disabled":false,"rental_uris":{"android":"levelo://app?vid=1f741346-28e9-475e-945e-50145fcc1501","ios":"levelo://app?vid=1f741346-28e9-475e-945e-50145fcc1501"},"vehicle_type_id":"4","last_reported":1732392571,"current_range_meters":38800,"station_id":"ce4bhhh2rcd13ifvqfl0","pricing_plan_id":"cebpf4jnsgd1na2vs0mg"},{"bike_id":"c49b8609-9666-4244-8296-b395ec183917","system_id":"levelo_inurba_marseille","lat":43.27523,"lon":5.41642,"is_reserved":false,"is_disabled":false,"rental_uris":{"android":"levelo://app?vid=c49b8609-9666-4244-8296-b395ec183917","ios":"levelo://app?vid=c49b8609-9666-4244-8296-b395ec183917"},"vehicle_type_id":"4","last_reported":1732392571,"current_range_meters":14400,"station_id":"","pricing_plan_id":"cebpf4jnsgd1na2vs0mg"},{"bike_id":"b98490ee-49c9-4a5b-acb2-11855e78584d","system_id":"levelo_inurba_marseille","lat":43.31322,"lon":5.39692,"is_reserved":false,"is_disabled":false,"rental_uris":{"android":"levelo://app?vid=b98490ee-49c9-4a5b-acb2-11855e78584d","ios":"levelo://app?vid=b98490ee-49c9-4a5b-acb2-11855e78584d"},"vehicle_type_id":"4","last_reported":1732392571,"current_range_meters":20800,"station_id":"ce4bgvp2rcd13ifvqcu0","pricing_plan_id":"cebpf4jnsgd1na2vs0mg"},{"bike_id":"43746d86-8a13-4845-9faf-ae69b548d714","system_id":"levelo_inurba_marseille","lat":43.29445,"lon":5.37921,"is_reserved":false,"is_disabled":true,"rental_uris":{"android":"levelo://app?vid=43746d86-8a13-4845-9faf-ae69b548d714","ios":"levelo://app?vid=43746d86-8a13-4845-9faf-ae69b548d714"},"vehicle_type_id":"4","last_reported":1732392571,"current_range_meters":1200,"station_id":"","pricing_plan_id":"cebpf4jnsgd1na2vs0mg"},{"bike_id":"63a091db-3cba-4397-868c-8231d0ea9c84","system_id":"levelo_inurba_marseille","lat":43.25109,"lon":5.40321,"is_reserved":false,"is_disabled":false,"rental_uris":{"android":"levelo://app?vid=63a091db-3cba-4397-868c-8231d0ea9c84","ios":"levelo://app?vid=63a091db-3cba-4397-868c-8231d0ea9c84"},"vehicle_type_id":"4","last_reported":1732392571,"current_range_meters":32400,"station_id":"ce4bhlh2rcd13ifvqgig","pricing_plan_id":"cebpf4jnsgd1na2vs0mg"},{"bike_id":"a3acc461-ae70-4571-86d4-bbe3bb01774e","system_id":"levelo_inurba_marseille","lat":43.27992,"lon":5.40003,"is_reserved":false,"is_disabled":true,"rental_uris":{"android":"levelo://app?vid=a3acc461-ae70-4571-86d4-bbe3bb01774e","ios":"levelo://app?vid=a3acc461-ae70-4571-86d4-bbe3bb01774e"},"vehicle_type_id":"4","last_reported":1732392571,"current_range_meters":0,"station_id":"ce4bho92rcd13ifvqh4g","pricing_plan_id":"cebpf4jnsgd1na2vs0mg"},{"bike_id":"04e5b85e-ec3a-4101-b913-b70d86b9a4f1","system_id":"levelo_inurba_marseille","lat":43.29967,"lon":5.38498,"is_reserved":false,"is_disabled":false,"rental_uris":{"android":"levelo://app?vid=04e5b85e-ec3a-4101-b913-b70d86b9a4f1","ios":"levelo://app?vid=04e5b85e-ec3a-4101-b913-b70d86b9a4f1"},"vehicle_type_id":"4","last_reported":1732392571,"current_range_meters":16000,"station_id":"ce4bgj92rcd13ifvqbd0","pricing_plan_id":"cebpf4jnsgd1na2vs0mg"},{"bike_id":"a2b09865-004d-45eb-b301-cf3640220a72","system_id":"levelo_inurba_marseille","lat":43.29594,"lon":5.38097,"is_reserved":false,"is_disabled":true,"rental_uris":{"android":"levelo://app?vid=a2b09865-004d-45eb-b301-cf3640220a72","ios":"levelo://app?vid=a2b09865-004d-45eb-b301-cf3640220a72"},"vehicle_type_id":"4","last_reported":1732392571,"current_range_meters":0,"station_id":"ce4bgl12rcd13ifvqbo0","pricing_plan_id":"cebpf4jnsgd1na2vs0mg"},{"bike_id":"539e4d64-ba55-4083-bba2-6200d719802e","system_id":"levelo_inurba_marseille","lat":43.29528,"lon":5.38543,"is_reserved":false,"is_disabled":false,"rental_uris":{"android":"levelo://app?vid=539e4d64-ba55-4083-bba2-6200d719802e","ios":"levelo://app?vid=539e4d64-ba55-4083-bba2-6200d719802e"},"vehicle_type_id":"4","last_reported":1732392571,"current_range_meters":29600,"station_id":"ce4bgih2rcd13ifvqba0","pricing_plan_id":"cebpf4jnsgd1na2vs0mg"},{"bike_id":"0699c5da-4728-48b1-87ae-532dd4f42015","system_id":"levelo_inurba_marseille","lat":43.25721,"lon":5.41106,"is_reserved":false,"is_disabled":false,"rental_uris":{"android":"levelo://app?vid=0699c5da-4728-48b1-87ae-532dd4f42015","ios":"levelo://app?vid=0699c5da-4728-48b1-87ae-532dd4f42015"},"vehicle_type_id":"4","last_reported":1732392571,"current_range_meters":9600,"station_id":"ce4bhkp2rcd13ifvqgd0","pricing_plan_id":"cebpf4jnsgd1na2vs0mg"},{"bike_id":"99017f8b-523c-4185-b631-55a88f544065","system_id":"levelo_inurba_marseille","lat":43.28423,"lon":5.34992,"is_reserved":false,"is_disabled":false,"rental_uris":{"android":"levelo://app?vid=99017f8b-523c-4185-b631-55a88f544065","ios":"levelo://app?vid=99017f8b-523c-4185-b631-55a88f544065"},"vehicle_type_id":"4","last_reported":1732392571,"current_range_meters":38000,"station_id":"ce4bhbh2rcd13ifvqepg","pricing_plan_id":"cebpf4jnsgd1na2vs0mg"},{"bike_id":"f7f29097-34a0-4fd3-9ee7-8abdc6d41ad7","system_id":"levelo_inurba_marseille","lat":43.27203,"lon":5.39196,"is_reserved":false,"is_disabled":true,"rental_uris":{"android":"levelo://app?vid=f7f29097-34a0-4fd3-9ee7-8abdc6d41ad7","ios":"levelo://app?vid=f7f29097-34a0-4fd3-9ee7-8abdc6d41ad7"},"vehicle_type_id":"4","last_reported":1732392571,"current_range_meters":2800,"station_id":"ce4bhhp2rcd13ifvqfm0","pricing_plan_id":"cebpf4jnsgd1na2vs0mg"},{"bike_id":"2d5917c9-f983-4ed8-9e47-b40a384ab972","system_id":"levelo_inurba_marseille","lat":43.26933,"lon":5.40252,"is_reserved":false,"is_disabled":false,"rental_uris":{"android":"levelo://app?vid=2d5917c9-f983-4ed8-9e47-b40a384ab972","ios":"levelo://app?vid=2d5917c9-f983-4ed8-9e47-b40a384ab972"},