{"last_updated":1767021145,"ttl":60,"version":"2.2","data":{"bikes":[{"bike_id":"80e5704f-ad4a-47fa-8434-b81adbddb3a7","system_id":"levelo_inurba_marseille","lat":43.279412,"lon":5.410494,"is_reserved":false,"is_disabled":true,"rental_uris":{"android":"levelo://app?vid=80e5704f-ad4a-47fa-8434-b81adbddb3a7","ios":"levelo://app?vid=80e5704f-ad4a-47fa-8434-b81adbddb3a7"},"vehicle_type_id":"4","last_reported":1767021146,"current_range_meters":2800,"station_id":"ce4bhnp2rcd13ifvqh0g","pricing_plan_id":"cebpf4jnsgd1na2vs0mg"},{"bike_id":"8526cb13-c70f-4134-9aed-80c4c9d31e4e","system_id":"levelo_inurba_marseille","lat":43.27895,"lon":5.39157,"is_reserved":false,"is_disabled":false,"rental_uris":{"android":"levelo://app?vid=8526cb13-c70f-4134-9aed-80c4c9d31e4e","ios":"levelo://app?vid=8526cb13-c70f-4134-9aed-80c4c9d31e4e"},"vehicle_type_id":"4","last_reported":1767021146,"current_range_meters":3200,"station_id":"","pricing_plan_id":"cebpf4jnsgd1na2vs0mg"},{"bike_id":"72fcb636-9cc7-47eb-a2a7-69f582794571","system_id":"levelo_inurba_marseille","lat":43.2985,"lon":5.36287,"is_reserved":false,"is_disabled":false,"rental_uris":{"android":"levelo://app?vid=72fcb636-9cc7-47eb-a2a7-69f582794571","ios":"levelo://app?vid=72fcb636-9cc7-47eb-a2a7-69f582794571"},"vehicle_type_id":"4","last_reported":1767021146,"current_range_meters":3200,"station_id":"ce4bgpp2rcd13ifvqc3g","pricing_plan_id":"cebpf4jnsgd1na2vs0mg"},{"bike_id":"c9d11a0b-c298-4dda-9aab-e8c0e764f668","system_id":"levelo_inurba_marseille","lat":43.22551,"lon":5.41627,"is_reserved":false,"is_disabled":false,"rental_uris":{"android":"levelo://app?vid=c9d11a0b-c298-4dda-9aab-e8c0e764f668","ios":"levelo://app?vid=c9d11a0b-c298-4dda-9aab-e8c0e764f668"},"vehicle_type_id":"4","last_reported":1767021146,"current_range_meters":3200,"station_id":"st_d2o4gvlbi1j2169b742g","pricing_plan_id":"cebpf4jnsgd1na2vs0mg"},{"bike_id":"7d7a8814-135a-4b37-ad45-e39046bc5b14","system_id":"levelo_inurba_marseille","lat":43.28486,"lon":5.38415,"is_reserved":false,"is_disabled":false,"rental_uris":{"android":"levelo://app?vid=7d7a8814-135a-4b37-ad45-e39046bc5b14","ios":"levelo://app?vid=7d7a8814-135a-4b37-ad45-e39046bc5b14"},"vehicle_type_id":"4","last_reported":1767021146,"current_range_meters":3600,"station_id":"ce4bh512rcd13ifvqe3g","pricing_plan_id":"cebpf4jnsgd1na2vs0mg"},{"bike_id":"d5157bc4-281e-4273-a854-3dd0ece413ba","system_id":"levelo_inurba_marseille","lat":43.307343,"lon":5.424365,"is_reserved":false,"is_disabled":false,"rental_uris":{"android":"levelo://app?vid=d5157bc4-281e-4273-a854-3dd0ece413ba","ios":"levelo://app?vid=d5157bc4-281e-4273-a854-3dd0ece413ba"},"vehicle_type_id":"4","last_reported":1767021146,"current_range_meters":3600,"station_id":"st_cvj6ca6bvosntc0bfgr0","pricing_plan_id":"cebpf4jnsgd1na2vs0mg"},{"bike_id":"0b9adc37-c18d-46d2-b368-63c8d0a3729c","system_id":"levelo_inurba_marseille","lat":43.295296,"lon":5.385449,"is_reserved":false,"is_disabled":false,"rental_uris":{"android":"levelo://app?vid=0b9adc37-c18d-46d2-b368-63c8d0a3729c","ios":"levelo://app?vid=0b9adc37-c18d-46d2-b368-63c8d0a3729c"},"vehicle_type_id":"4","last_reported":1767021146,"current_range_meters":3600,"station_id":"ce4bgih2rcd13ifvqba0","pricing_plan_id":"cebpf4jnsgd1na2vs0mg"},{"bike_id":"b1613545-ea2a-4973-88b1-f1323209ed4c","system_id":"levelo_inurba_marseille","lat":43.28046,"lon":5.42609,"is_reserved":false,"is_disabled":false,"rental_uris":{"android":"levelo://app?vid=b1613545-ea2a-4973-88b1-f1323209ed4c","ios":"levelo://app?vid=b1613545-ea2a-4973-88b1-f1323209ed4c"},"vehicle_type_id":"4","last_reported":1767021146,"current_range_meters":3600,"station_id":"","pricing_plan_id":"cebpf4jnsgd1na2vs0mg"},{"bike_id":"c037facf-1adb-4c8c-a392-a196b02d1bf8","system_id":"levelo_inurba_marseille","lat":43.33151,"lon":5.37698,"is_reserved":false,"is_disabled":false,"rental_uris":{"android":"levelo://app?vid=c037facf-1adb-4c8c-a392-a196b02d1bf8","ios":"levelo://app?vid=c037facf-1adb-4c8c-a392-a196b02d1bf8"},"vehicle_type_id":"4","last_reported":1767021146,"current_range_meters":4000,"station_id":"st_d46cu089ee8s73dldbu0","pricing_plan_id":"cebpf4jnsgd1na2vs0mg"},{"bike_id":"57111cce-f67f-4dd6-a3de-cd82c5d54404","system_id":"levelo_inurba_marseille","lat":43.2501,"lon":5.38916,"is_reserved":false,"is_disabled":true,"rental_uris":{"android":"levelo://app?vid=57111cce-f67f-4dd6-a3de-cd82c5d54404","ios":"levelo://app?vid=57111cce-f67f-4dd6-a3de-cd82c5d54404"},"vehicle_type_id":"4","last_reported":1767021146,"current_range_meters":4000,"station_id":"ce4bhgp2rcd13ifvqfd0","pricing_plan_id":"cebpf4jnsgd1na2vs0mg"},{"bike_id":"eaa5b4a1-461f-4bb3-a5a1-41601001760e","system_id":"levelo_inurba_marseille","lat":43.29617,"lon":5.37166,"is_reserved":false,"is_disabled":false,"rental_uris":{"android":"levelo://app?vid=eaa5b4a1-461f-4bb3-a5a1-41601001760e","ios":"levelo://app?vid=eaa5b4a1-461f-4bb3-a5a1-41601001760e"},"vehicle_type_id":"4","last_reported":1767021146,"current_range_meters":4000,"station_id":"ce4bgnh2rcd13ifvqc0g","pricing_plan_id":"cebpf4jnsgd1na2vs0mg"},{"bike_id":"e84c9e5b-ac18-42dc-b1a0-a8e560bda7f4","system_id":"levelo_inurba_marseille","lat":43.30559,"lon":5.36566,"is_reserved":false,"is_disabled":false,"rental_uris":{"android":"levelo://app?vid=e84c9e5b-ac18-42dc-b1a0-a8e560bda7f4","ios":"levelo://app?vid=e84c9e5b-ac18-42dc-b1a0-a8e560bda7f4"},"vehicle_type_id":"4","last_reported":1767021146,"current_range_meters":4400,"station_id":"ce4bgs12rcd13ifvqcag","pricing_plan_id":"cebpf4jnsgd1na2vs0mg"},{"bike_id":"601059d2-2b99-4cb3-a4ba-c086b1a763fb","system_id":"levelo_inurba_marseille","lat":43.32544,"lon":5.4142,"is_reserved":false,"is_disabled":false,"rental_uris":{"android":"levelo://app?vid=601059d2-2b99-4cb3-a4ba-c086b1a763fb","ios":"levelo://app?vid=601059d2-2b99-4cb3-a4ba-c086b1a763fb"},"vehicle_type_id":"4","last_reported":1767021146,"current_range_meters":4400,"station_id":"ce4bhq12rcd13ifvqhhg","pricing_plan_id":"cebpf4jnsgd1na2vs0mg"},{"bike_id":"a227823c-7ec0-4e12-979c-95529bf5ee7c","system_id":"levelo_inurba_marseille","lat":43.26556,"lon":5.37298,"is_reserved":false,"is_disabled":false,"rental_uris":{"android":"levelo://app?vid=a227823c-7ec0-4e12-979c-95529bf5ee7c","ios":"levelo://app?vid=a227823c-7ec0-4e12-979c-95529bf5ee7c"},"vehicle_type_id":"4","last_reported":1767021146,"current_range_meters":4800,"station_id":"ce4bhg12rcd13ifvqf70","pricing_plan_id":"cebpf4jnsgd1na2vs0mg"},{"bike_id":"3239c13c-9547-4d40-80c9-b5cd2a78d63f","system_id":"levelo_inurba_marseille","lat":43.23198,"lon":5.35555,"is_reserved":false,"is_disabled":false,"rental_uris":{"android":"levelo://app?vid=3239c13c-9547-4d40-80c9-b5cd2a78d63f","ios":"levelo://app?vid=3239c13c-9547-4d40-80c9-b5cd2a78d63f"},"vehicle_type_id":"4","last_reported":1767021146,"current_range_meters":5600,"station_id":"ce4bhu92rcd13ifvqi70","pricing_plan_id":"cebpf4jnsgd1na2vs0mg"},{"bike_id":"ab9766e2-366c-45fc-89d1-88b9c7abd442","system_id":"levelo_inurba_marseille","lat":43.2953,"lon":5.38542,"is_reserved":false,"is_disabled":false,"rental_uris":{"android":"levelo://app?vid=ab9766e2-366c-45fc-89d1-88b9c7abd442","ios":"levelo://app?vid=ab9766e2-366c-45fc-89d1-88b9c7abd442"},"vehicle_type_id":"4","last_reported":1767021146,"current_range_meters":5600,"station_id":"ce4bgih2rcd13ifvqba0","pricing_plan_id":"cebpf4jnsgd1na2vs0mg"},{"bike_id":"42cdabe3-e24b-41b1-b129-6bb17a94a340","system_id":"levelo_inurba_marseille","lat":43.31231,"lon":5.38085,"is_reserved":false,"is_disabled":false,"rental_uris":{"android":"levelo://app?vid=42cdabe3-e24b-41b1-b129-6bb17a94a340","ios":"levelo://app?vid=42cdabe3-e24b-41b1-b129-6bb17a94a340"},"vehicle_type_id":"4","last_reported":1767021146,"current_range_meters":6000,"station_id":"ce4bh312rcd13ifvqdj0","pricing_plan_id":"cebpf4jnsgd1na2vs0mg"},{"bike_id":"3499c137-635e-4fa9-b52f-c9d276066f24","system_id":"levelo_inurba_marseille","lat":43.2952,"lon":5.37507,"is_reserved":false,"is_disabled":false,"rental_uris":{"android":"levelo://app?vid=3499c137-635e-4fa9-b52f-c9d276066f24","ios":"levelo://app?vid=3499c137-635e-4fa9-b52f-c9d276066f24"},"vehicle_type_id":"4","last_reported":1767021146,"current_range_meters":6000,"station_id":"ce4bgkp2rcd13ifvqbmg","pricing_plan_id":"cebpf4jnsgd1na2vs0mg"},{"bike_id":"991f4e07-4184-40b6-af99-1eb33e3d3eff","system_id":"levelo_inurba_marseille","lat":43.26066,"lon":5.39424,"is_reserved":false,"is_disabled":false,"rental_uris":{"android":"levelo://app?vid=991f4e07-4184-40b6-af99-1eb33e3d3eff","ios":"levelo://app?vid=991f4e07-4184-40b6-af99-1eb33e3d3eff"},"vehicle_type_id":"4","last_reported":1767021146,"current_range_meters":6000,"station_id":"ce4bhh92rcd13ifvqfj0","pricing_plan_id":"cebpf4jnsgd1na2vs0mg"},{"bike_id":"3e7e1220-648b-4b63-ae22-365b2db0274e","system_id":"levelo_inurba_marseille","lat":43.21771,"lon":5.34599,"is_reserved":false,"is_disabled":false,"rental_uris":{"android":"levelo://app?vid=3e7e1220-648b-4b63-ae22-365b2db0274e","ios":"levelo://app?vid=3e7e1220-648b-4b63-ae22-365b2db0274e"},"vehicle_type_id":"4","last_reported":1767021146,"current_range_meters":6000,"station_id":"st_cvj6r9ubvosntc0bgbag","pricing_plan_id":"cebpf4jnsgd1na2vs0mg"},{"bike_id":"ec3a3c86-9abd-43c8-b159-b95b9b1267ed","system_id":"levelo_inurba_marseille","lat":43.28827,"lon":5.35547,"is_reserved":false,"is_disabled":false,"rental_uris":{"android":"levelo://app?vid=ec3a3c86-9abd-43c8-b159-b95b9b1267ed","ios":"levelo://app?vid=ec3a3c86-9abd-43c8-b159-b95b9b1267ed"},"vehicle_type_id":"4","last_reported":1767021146,"current_range_meters":6000,"station_id":"","pricing_plan_id":"cebpf4jnsgd1na2vs0mg"},{"bike_id":"814cd22c-608f-4c38-83ca-cbc9887a6fa0","system_id":"levelo_inurba_marseille","lat":43.29003,"lon":5.35606,"is_reserved":false,"is_disabled":false,"rental_uris":{"android":"levelo://app?vid=814cd22c-608f-4c38-83ca-cbc9887a6fa0","ios":"levelo://app?vid=814cd22c-608f-4c38-83ca-cbc9887a6fa0"},"vehicle_type_id":"4","last_reported":1767021146,"current_range_meters":6400,"station_id":"ce4bhb92rcd13ifvqen0","pricing_plan_id":"cebpf4jnsgd1na2vs0mg"},{"bike_id":"7351eb57-054e-445e-a14b-6b04bdf893fc","system_id":"levelo_inurba_marseille","lat":43.29197,"lon":5.35805,"is_reserved":false,"is_disabled":false,"rental_uris":{"android":"levelo://app?vid=7351eb57-054e-445e-a14b-6b04bdf893fc","ios":"levelo://app?vid=7351eb57-054e-445e-a14b-6b04bdf893fc"},"vehicle_type_id":"4","last_reported":1767021146,"current_range_meters":6400,"station_id":"ce4bhb12rcd13ifvqel0","pricing_plan_id":"cebpf4jnsgd1na2vs0mg"},{"bike_id":"8ad4855b-4006-4dee-996c-3457e9060df8","system_id":"levelo_inurba_marseille","lat":43.25509,"lon":5.37657,"is_reserved":false,"is_disabled":false,"rental_uris":{"android":"levelo://app?vid=8ad4855b-4006-4dee-996c-3457e9060df8","ios":"levelo://app?vid=8ad4855b-4006-4dee-996c-3457e9060df8"},"vehicle_type_id":"4","last_reported":1767021146,"current_range_meters":6400,"station_id":"ce4bhh12rcd13ifvqff0","pricing_plan_id":"cebpf4jnsgd1na2vs0mg"},{"bike_id":"955adfe1-7644-42d9-ba8a-77dc59adf72a","system_id":"levelo_inurba_marseille","lat":43.21759,"lon":5.34603,"is_reserved":false,"is_disabled":false,"rental_uris":{"android":"levelo://app?vid=955adfe1-7644-42d9-ba8a-77dc59adf72a","ios":"levelo://app?vid=955adfe1-7644-42d9-ba8a-77dc59adf72a"},"vehicle_type_id":"4","last_reported":1767021146,"current_range_meters":6400,"station_id":"","pricing_plan_id":"cebpf4jnsgd1na2vs0mg"},{"bike_id":"6dfa43c5-2380-4799-bac0-200042727c94","system_id":"levelo_inurba_marseille","lat":43.3045,"lon":5.39753,"is_reserved":false,"is_disabled":false,"rental_uris":{"android":"levelo://app?vid=6dfa43c5-2380-4799-bac0-200042727c94","ios":"levelo://app?vid=6dfa43c5-2380-4799-bac0-200042727c94"},"vehicle_type_id":"4","last_reported":1767021146,"current_range_meters":6400,"station_id":"ce4bh092rcd13ifvqd20","pricing_plan_id":"cebpf4jnsgd1na2vs0mg"},{"bike_id":"17a49efb-d179-4b85-b20c-4afe87c0613f","system_id":"levelo_inurba_marseille","lat":43.31037,"lon":5.37172,"is_reserved":false,"is_disabled":true,"rental_uris":{"android":"levelo://app?vid=17a49efb-d179-4b85-b20c-4afe87c0613f","ios":"levelo://app?vid=17a49efb-d179-4b85-b20c-4afe87c0613f"},"vehicle_type_id":"4","last_reported":1767021146,"current_range_meters":6400,"station_id":"st_d4kl2rp97mjs73e7tdfg","pricing_plan_id":"cebpf4jnsgd1na2vs0mg"},{"bike_id":"c8411e89-c6af-478a-90cf-72dd8bcb011c","system_id":"levelo_inurba_marseille","lat":43.28608,"lon":5.37064,"is_reserved":false,"is_disabled":false,"rental_uris":{"android":"levelo://app?vid=c8411e89-c6af-478a-90cf-72dd8bcb011c","ios":"levelo://app?vid=c8411e89-c6af-478a-90cf-72dd8bcb011c"},"vehicle_type_id":"4","last_reported":1767021146,"current_range_meters":6400,"station_id":"ce4bht12rcd13ifvqi60","pricing_plan_id":"cebpf4jnsgd1na2vs0mg"},{"bike_id":"c93bbf3c-9650-44c3-9782-9bef181a9bed","system_id":"levelo_inurba_marseille","lat":43.24763,"lon":5.37564,"is_reserved":false,"is_disabled":false,"rental_uris":{"android":"levelo://app?vid=c93bbf3c-9650-44c3-9782-9bef181a9bed","ios":"levelo://app?vid=c93bbf3c-9650-44c3-9782-9bef181a9bed"},"vehicle_type_id":"4","last_reported":1767021146,"current_range_meters":6400,"station_id":"","pricing_plan_id":"cebpf4jnsgd1na2vs0mg"},{"bike_id":"08f4624a-a23d-4738-b794-a8bd53bfd7e8","system_id":"levelo_inurba_marseille","lat":43.298458,"lon":5.376545,"is_reserved":false,"is_disabled":false,"rental_uris":{"android":"levelo://app?vid=08f4624a-a23d-4738-b794-a8bd53bfd7e8","ios":"levelo://app?vid=08f4624a-a23d-4738-b794-a8bd53bfd7e8"},"vehicle_type_id":"4","last_reported":1767021146,"current_range_meters":6800,"station_id":"","pricing_plan_id":"cebpf4jnsgd1na2vs0mg"},{"bike_id":"36e3ab74-d85b-46de-9904-53928a1da310","system_id":"levelo_inurba_marseille","lat":43.25673,"lon":5.40018,"is_reserved":false,"is_disabled":false,"rental_uris":{"android":"levelo://app?vid=36e3ab74-d85b-46de-9904-53928a1da310","ios":"levelo://app?vid=36e3ab74-d85b-46de-9904-53928a1da310"},"vehicle_type_id":"4","last_reported":1767021146,"current_range_meters":6800,"station_id":"","pricing_plan_id":"cebpf4jnsgd1na2vs0mg"},{"bike_id":"7451e2f1-97cc-4a6a-824e-1c725c74e9d6","system_id":"levelo_inurba_marseille","lat":43.29866,"lon":5.37255,"is_reserved":false,"is_disabled":false,"rental_uris":{"android":"levelo://app?vid=7451e2f1-97cc-4a6a-824e-1c725c74e9d6","ios":"levelo://app?vid=7451e2f1-97cc-4a6a-824e-1c725c74e9d6"},"vehicle_type_id":"4","last_reported":1767021146,"current_range_meters":6800,"station_id":"","pricing_plan_id":"cebpf4jnsgd1na2vs0mg"},{"bike_id":"b8359eb8-309f-4919-a9d8-14bc8a289068","system_id":"levelo_inurba_marseille","lat":43.29845,"lon":5.381046,"is_reserved":false,"is_disabled":false,"rental_uris":{"android":"levelo://app?vid=b8359eb8-309f-4919-a9d8-14bc8a289068","ios":"levelo://app?vid=b8359eb8-309f-4919-a9d8-14bc8a289068"},"vehicle_type_id":"4","last_reported":1767021146,"current_range_meters":6800,"station_id":"","pricing_plan_id":"cebpf4jnsgd1na2vs0mg"},{"bike_id":"94b65cfe-edaf-4322-865d-06eff46e3ede","system_id":"levelo_inurba_marseille","lat":43.30037,"lon":5.37356,"is_reserved":false,"is_disabled":false,"rental_uris":{"android":"levelo://app?vid=94b65cfe-edaf-4322-865d-06eff46e3ede","ios":"levelo://app?vid=94b65cfe-edaf-4322-865d-06eff46e3ede"},"vehicle_type_id":"4","last_reported":1767021146,"current_range_meters":6800,"station_id":"","pricing_plan_id":"cebpf4jnsgd1na2vs0mg"},{"bike_id":"0da9873e-af99-4300-8b70-d36ad1f5ced6","system_id":"levelo_inurba_marseille","lat":43.28409,"lon":5.34971,"is_reserved":false,"is_disabled":false,"rental_uris":{"android":"levelo://app?vid=0da9873e-af99-4300-8b70-d36ad1f5ced6","ios":"levelo://app?vid=0da9873e-af99-4300-8b70-d36ad1f5ced6"},"vehicle_type_id":"4","last_reported":1767021146,"current_range_meters":6800,"station_id":"ce4bhbh2rcd13ifvqepg","pricing_plan_id":"cebpf4jnsgd1na2vs0mg"},{"bike_id":"d930ea5f-6b91-4dbe-9c42-e83ff7245067","system_id":"levelo_inurba_marseille","lat":43.28617,"lon":5.37068,"is_reserved":false,"is_disabled":false,"rental_uris":{"android":"levelo://app?vid=d930ea5f-6b91-4dbe-9c42-e83ff7245067","ios":"levelo://app?vid=d930ea5f-6b91-4dbe-9c42-e83ff7245067"},"vehicle_type_id":"4","last_reported":1767021146,"current_range_meters":6800,"station_id":"ce4bht12rcd13ifvqi60","pricing_plan_id":"cebpf4jnsgd1na2vs0mg"},{"bike_id":"03b90b08-7107-4323-a3fb-ee0aa078f40f","system_id":"levelo_inurba_marseille","lat":43.24813,"lon":5.37456,"is_reserved":false,"is_disabled":false,"rental_uris":{"android":"levelo://app?vid=03b90b08-7107-4323-a3fb-ee0aa078f40f","ios":"levelo://app?vid=03b90b08-7107-4323-a3fb-ee0aa078f40f"},"vehicle_type_id":"4","last_reported":1767021146,"current_range_meters":7200,"station_id":"ce4bhgh2rcd13ifvqfb0","pricing_plan_id":"cebpf4jnsgd1na2vs0mg"},{"bike_id":"d6a449d9-67ef-4444-ae17-bd1e29b48728","system_id":"levelo_inurba_marseille","lat":43.285767,"lon":5.429835,"is_reserved":false,"is_disabled":false,"rental_uris":{"android":"levelo://app?vid=d6a449d9-67ef-4444-ae17-bd1e29b48728","ios":"levelo://app?vid=d6a449d9-67ef-4444-ae17-bd1e29b48728"},"vehicle_type_id":"4","last_reported":1767021146,"current_range_meters":7200,"station_id":"","pricing_plan_id":"cebpf4jnsgd1na2vs0mg"},{"bike_id":"e33749b8-8410-47d5-8e07-fa5b7499f3c8","system_id":"levelo_inurba_marseille","lat":43.30655,"lon":5.40091,"is_reserved":false,"is_disabled":false,"rental_uris":{"android":"levelo://app?vid=e33749b8-8410-47d5-8e07-fa5b7499f3c8","ios":"levelo://app?vid=e33749b8-8410-47d5-8e07-fa5b7499f3c8"},"vehicle_type_id":"4","last_reported":1767021146,"current_range_meters":7200,"station_id":"ce4bh112rcd13ifvqda0","pricing_plan_id":"cebpf4jnsgd1na2vs0mg"},{"bike_id":"00a2c6ad-a711-4f2a-8e27-9524ad0f1faa","system_id":"levelo_inurba_marseille","lat":43.27056,"lon":5.40262,"is_reserved":false,"is_disabled":false,"rental_uris":{"android":"levelo://app?vid=00a2c6ad-a711-4f2a-8e27-9524ad0f1faa","ios":"levelo://app?vid=00a2c6ad-a711-4f2a-8e27-9524ad0f1faa"},"vehicle_type_id":"4","last_reported":1767021146,"current_range_meters":8000,"station_id":"ce4bhk92rcd13ifvqgc0","pricing_plan_id":"cebpf4jnsgd1na2vs0mg"},{"bike_id":"a9b8d250-558c-4684-a429-a7d4e8207241","system_id":"levelo_inurba_marseille","lat":43.28264,"lon":5.35061,"is_reserved":false,"is_disabled":false,"rental_uris":{"android":"levelo://app?vid=a9b8d250-558c-4684-a429-a7d4e8207241","ios":"levelo://app?vid=a9b8d250-558c-4684-a429-a7d4e8207241"},"vehicle_type_id":"4","last_reported":1767021146,"current_range_meters":8000,"station_id":"ce4bhbp2rcd13ifvqerg","pricing_plan_id":"cebpf4jnsgd1na2vs0mg"},{"bike_id":"6f43cfcd-5b7c-4880-b513-fb31e9502d04","system_id":"levelo_inurba_marseille","lat":43.28035,"lon":5.44031,"is_reserved":false,"is_disabled":false,"rental_uris":{"android":"levelo://app?vid=6f43cfcd-5b7c-4880-b513-fb31e9502d04","ios":"levelo://app?vid=6f43cfcd-5b7c-4880-b513-fb31e9502d04"},"vehicle_type_id":"4","last_reported":1767021146,"current_range_meters":8000,"station_id":"","pricing_plan_id":"cebpf4jnsgd1na2vs0mg"},{"bike_id":"1a2b8a5b-2025-4b64-9ba0-175c39674349","system_id":"levelo_inurba_marseille","lat":43.21741,"lon":5.34604,"is_reserved":false,"is_disabled":false,"rental_uris":{"android":"levelo://app?vid=1a2b8a5b-2025-4b64-9ba0-175c39674349","ios":"levelo://app?vid=1a2b8a5b-2025-4b64-9ba0-175c39674349"},"vehicle_type_id":"4","last_reported":1767021146,"current_range_meters":8000,"station_id":"","pricing_plan_id":"cebpf4jnsgd1na2vs0mg"},{"bike_id":"13fe7d34-8cd4-4100-a7c6-d278d7140658","system_id":"levelo_inurba_marseille","lat":43.26029,"lon":5.37565,"is_reserved":false,"is_disabled":false,"rental_uris":{"android":"levelo://app?vid=13fe7d34-8cd4-4100-a7c6-d278d7140658","ios":"levelo://app?vid=13fe7d34-8cd4-4100-a7c6-d278d7140658"},"vehicle_type_id":"4","last_reported":1767021146,"current_range_meters":8000,"station_id":"ce4bhgh2rcd13ifvqfa0","pricing_plan_id":"cebpf4jnsgd1na2vs0mg"},{"bike_id":"d65fd896-c386-4517-b368-06b266c26a3e","system_id":"levelo_inurba_marseille","lat":43.30423,"lon":5.41289,"is_reserved":false,"is_disabled":false,"rental_uris":{"android":"levelo://app?vid=d65fd896-c386-4517-b368-06b266c26a3e","ios":"levelo://app?vid=d65fd896-c386-4517-b368-06b266c26a3e"},"vehicle_type_id":"4","last_reported":1767021146,"current_range_meters":8400,"station_id":"ce4bhop2rcd13ifvqh8g","pricing_plan_id":"cebpf4jnsgd1na2vs0mg"},{"bike_id":"d6e88a96-e819-42ed-ba47-0ad831dd2b72","system_id":"levelo_inurba_marseille","lat":43.29591,"lon":5.37488,"is_reserved":false,"is_disabled":false,"rental_uris":{"android":"levelo://app?vid=d6e88a96-e819-42ed-ba47-0ad831dd2b72","ios":"levelo://app?vid=d6e88a96-e819-42ed-ba47-0ad831dd2b72"},"vehicle_type_id":"4","last_reported":1767021146,"current_range_meters":8400,"station_id":"ce4bgh92rcd13ifvqb50","pricing_plan_id":"cebpf4jnsgd1na2vs0mg"},{"bike_id":"6f931f24-09d5-49e4-bcaf-80c2cd2a82ec","system_id":"levelo_inurba_marseille","lat":43.28689,"lon":5.38555,"is_reserved":false,"is_disabled":false,"rental_uris":{"android":"levelo://app?vid=6f931f24-09d5-49e4-bcaf-80c2cd2a82ec","ios":"levelo://app?vid=6f931f24-09d5-49e4-bcaf-80c2cd2a82ec"},"vehicle_type_id":"4","last_reported":1767021146,"current_range_meters":8400,"station_id":"","pricing_plan_id":"cebpf4jnsgd1na2vs0mg"},{"bike_id":"81062f73-91d6-4254-837a-3a79f2f3a1d9","system_id":"levelo_inurba_marseille","lat":43.28109,"lon":5.38926,"is_reserved":false,"is_disabled":false,"rental_uris":{"android":"levelo://app?vid=81062f73-91d6-4254-837a-3a79f2f3a1d9","ios":"levelo://app?vid=81062f73-91d6-4254-837a-3a79f2f3a1d9"},"vehicle_type_id":"4","last_reported":1767021146,"current_range_meters":8400,"station_id":"","pricing_plan_id":"cebpf4jnsgd1na2vs0mg"},{"bike_id":"b672c522-aca1-4885-98f6-4e99eceec109","system_id":"levelo_inurba_marseille","lat":43.30099,"lon":5.38692,"is_reserved":false,"is_disabled":false,"rental_uris":{"android":"levelo://app?vid=b672c522-aca1-4885-98f6-4e99eceec109","ios":"levelo://app?vid=b672c522-aca1-4885-98f6-4e99eceec109"},"vehicle_type_id":"4","last_reported":1767021146,"current_range_meters":8800,"station_id":"","pricing_plan_id":"cebpf4jnsgd1na2vs0mg"},{"bike_id":"d07dc22c-a864-4104-81e7-c60339403064","system_id":"levelo_inurba_marseille","lat":43.29642,"lon":5.38135,"is_reserved":false,"is_disabled":false,"rental_uris":{"android":"levelo://app?vid=d07dc22c-a864-4104-81e7-c60339403064","ios":"levelo://app?vid=d07dc22c-a864-4104-81e7-c60339403064"},"vehicle_type_id":"4","last_reported":1767021146,"current_range_meters":8800,"station_id":"","pricing_plan_id":"cebpf4jnsgd1na2vs0mg"},{"bike_id":"d97adee6-ba37-4bf4-a92e-e7401effdebf","system_id":"levelo_inurba_marseille","lat":43.2638,"lon":5.41078,"is_reserved":false,"is_disabled":false,"rental_uris":{"android":"levelo://app?vid=d97adee6-ba37-4bf4-a92e-e7401effdebf","ios":"levelo://app?vid=d97adee6-ba37-4bf4-a92e-e7401effdebf"},"vehicle_type_id":"4","last_reported":1767021146,"current_range_meters":8800,"station_id":"st_d4e5ca6na9uc73bfl5fg","pricing_plan_id":"cebpf4jnsgd1na2vs0mg"},{"bike_id":"8bba8d40-aa25-4081-b344-b21d158dffa6","system_id":"levelo_inurba_marseille","lat":43.211947,"lon":5.350782,"is_reserved":false,"is_disabled":false,"rental_uris":{"android":"levelo://app?vid=8bba8d40-aa25-4081-b344-b21d158dffa6","ios":"levelo://app?vid=8bba8d40-aa25-4081-b344-b21d158dffa6"},"vehicle_type_id":"4","last_reported":1767021146,"current_range_meters":8800,"station_id":"st_cvj6sg6p6f1abm77japg","pricing_plan_id":"cebpf4jnsgd1na2vs0mg"},{"bike_id":"ecc6083e-67e0-4b76-a541-33709fea5c37","system_id":"levelo_inurba_marseille","lat":43.248244,"lon":5.374716,"is_reserved":false,"is_disabled":false,"rental_uris":{"android":"levelo://app?vid=ecc6083e-67e0-4b76-a541-33709fea5c37","ios":"levelo://app?vid=ecc6083e-67e0-4b76-a541-33709fea5c37"},"vehicle_type_id":"4","last_reported":1767021146,"current_range_meters":8800,"station_id":"ce4bhgh2rcd13ifvqfb0","pricing_plan_id":"cebpf4jnsgd1na2vs0mg"},{"bike_id":"f1e029ec-966a-4c18-90a6-6313298321ec","system_id":"levelo_inurba_marseille","lat":43.24233,"lon":5.39346,"is_reserved":false,"is_disabled":false,"rental_uris":{"android":"levelo://app?vid=f1e029ec-966a-4c18-90a6-6313298321ec","ios":"levelo://app?vid=f1e029ec-966a-4c18-90a6-6313298321ec"},"vehicle_type_id":"4","last_reported":1767021146,"current_range_meters":9200,"station_id":"","pricing_plan_id":"cebpf4jnsgd1na2vs0mg"},{"bike_id":"c342fbd5-df63-43d2-911d-bfa0fcc44689","system_id":"levelo_inurba_marseille","lat":43.33109,"lon":5.41035,"is_reserved":false,"is_disabled":false,"rental_uris":{"android":"levelo://app?vid=c342fbd5-df63-43d2-911d-bfa0fcc44689","ios":"levelo://app?vid=c342fbd5-df63-43d2-911d-bfa0fcc44689"},"vehicle_type_id":"4","last_reported":1767021146,"current_range_meters":9200,"station_id":"","pricing_plan_id":"cebpf4jnsgd1na2vs0mg"},{"bike_id":"cc00b416-c130-4972-9fac-c093127e2149","system_id":"levelo_inurba_marseille","lat":43.28961,"lon":5.36643,"is_reserved":false,"is_disabled":false,"rental_uris":{"android":"levelo://app?vid=cc00b416-c130-4972-9fac-c093127e2149","ios":"levelo://app?vid=cc00b416-c130-4972-9fac-c093127e2149"},"vehicle_type_id":"4","last_reported":1767021146,"current_range_meters":9200,"station_id":"ce4bhap2rcd13ifvqek0","pricing_plan_id":"cebpf4jnsgd1na2vs0mg"},{"bike_id":"5f26fd32-d57c-4a0b-a416-65f73ea2479e","system_id":"levelo_inurba_marseille","lat":43.32784,"lon":5.40671,"is_reserved":false,"is_disabled":false,"rental_uris":{"android":"levelo://app?vid=5f26fd32-d57c-4a0b-a416-65f73ea2479e","ios":"levelo://app?vid=5f26fd32-d57c-4a0b-a416-65f73ea2479e"},"vehicle_type_id":"4","last_reported":1767021146,"current_range_meters":9200,"station_id":"","pricing_plan_id":"cebpf4jnsgd1na2vs0mg"},{"bike_id":"31704bec-4f9a-49bc-bf97-b66633aba2e8","system_id":"levelo_inurba_marseille","lat":43.2605,"lon":5.41738,"is_reserved":false,"is_disabled":false,"rental_uris":{"android":"levelo://app?vid=31704bec-4f9a-49bc-bf97-b66633aba2e8","ios":"levelo://app?vid=31704bec-4f9a-49bc-bf97-b66633aba2e8"},"vehicle_type_id":"4","last_reported":1767021146,"current_range_meters":9200,"station_id":"","pricing_plan_id":"cebpf4jnsgd1na2vs0mg"},{"bike_id":"49166d3a-7d57-41ae-b5e6-9a6cbabce031","system_id":"levelo_inurba_marseille","lat":43.29686,"lon":5.36771,"is_reserved":false,"is_disabled":false,"rental_uris":{"android":"levelo://app?vid=49166d3a-7d57-41ae-b5e6-9a6cbabce031","ios":"levelo://app?vid=49166d3a-7d57-41ae-b5e6-9a6cbabce031"},"vehicle_type_id":"4","last_reported":1767021146,"current_range_meters":9600,"station_id":"","pricing_plan_id":"cebpf4jnsgd1na2vs0mg"},{"bike_id":"93238dbe-7e18-4ff9-acc5-cf08ef47ac5a","system_id":"levelo_inurba_marseille","lat":43.27426,"lon":5.41462,"is_reserved":false,"is_disabled":false,"rental_uris":{"android":"levelo://app?vid=93238dbe-7e18-4ff9-acc5-cf08ef47ac5a","ios":"levelo://app?vid=93238dbe-7e18-4ff9-acc5-cf08ef47ac5a"},"vehicle_type_id":"4","last_reported":1767021146,"current_range_meters":9600,"station_id":"","pricing_plan_id":"cebpf4jnsgd1na2vs0mg"},{"bike_id":"409f22f5-c320-45ca-851d-1966d2bb3619","system_id":"levelo_inurba_marseille","lat":43.30795,"lon":5.37016,"is_reserved":false,"is_disabled":false,"rental_uris":{"android":"levelo://app?vid=409f22f5-c320-45ca-851d-1966d2bb3619","ios":"levelo://app?vid=409f22f5-c320-45ca-851d-1966d2bb3619"},"vehicle_type_id":"4","last_reported":1767021146,"current_range_meters":9600,"station_id":"","pricing_plan_id":"cebpf4jnsgd1na2vs0mg"},{"bike_id":"108f9e54-1a6b-4b8e-98bf-46ffc09d1c52","system_id":"levelo_inurba_marseille","lat":43.24308,"lon":5.39229,"is_reserved":false,"is_disabled":false,"rental_uris":{"android":"levelo://app?vid=108f9e54-1a6b-4b8e-98bf-46ffc09d1c52","ios":"levelo://app?vid=108f9e54-1a6b-4b8e-98bf-46ffc09d1c52"},"vehicle_type_id":"4","last_reported":1767021146,"current_range_meters":9600,"station_id":"","pricing_plan_id":"cebpf4jnsgd1na2vs0mg"},{"bike_id":"e43603f8-aac9-49ab-adb5-4f98f7f31c88","system_id":"levelo_inurba_marseille","lat":43.28492,"lon":5.38421,"is_reserved":false,"is_disabled":false,"rental_uris":{"android":"levelo://app?vid=e43603f8-aac9-49ab-adb5-4f98f7f31c88","ios":"levelo://app?vid=e43603f8-aac9-49ab-adb5-4f98f7f31c88"},"vehicle_type_id":"4","last_reported":1767021146,"current_range_meters":9600,"station_id":"ce4bh512rcd13ifvqe3g","pricing_plan_id":"cebpf4jnsgd1na2vs0mg"},{"bike_id":"917b698b-6d07-4dcf-be03-698c150ee9f0","system_id":"levelo_inurba_marseille","lat":43.29082,"lon":5.36961,"is_reserved":false,"is_disabled":false,"rental_uris":{"android":"levelo://app?vid=917b698b-6d07-4dcf-be03-698c150ee9f0","ios":"levelo://app?vid=917b698b-6d07-4dcf-be03-698c150ee9f0"},"vehicle_type_id":"4","last_reported":1767021146,"current_range_meters":9600,"station_id":"","pricing_plan_id":"cebpf4jnsgd1na2vs0mg"},{"bike_id":"959f4659-d365-4ff3-8e93-16417568f80d","system_id":"levelo_inurba_marseille","lat":43.296304,"lon":5.377895,"is_reserved":false,"is_disabled":false,"rental_uris":{"android":"levelo://app?vid=959f4659-d365-4ff3-8e93-16417568f80d","ios":"levelo://app?vid=959f4659-d365-4ff3-8e93-16417568f80d"},"vehicle_type_id":"4","last_reported":1767021146,"current_range_meters":9600,"station_id":"","pricing_plan_id":"cebpf4jnsgd1na2vs0mg"},{"bike_id":"f737ec76-1ed3-420a-ba1a-4c26fe21313b","system_id":"levelo_inurba_marseille","lat":43.3136,"lon":5.36714,"is_reserved":false,"is_disabled":false,"rental_uris":{"android":"levelo://app?vid=f737ec76-1ed3-420a-ba1a-4c26fe21313b","ios":"levelo://app?vid=f737ec76-1ed3-420a-ba1a-4c26fe21313b"},"vehicle_type_id":"4","last_reported":1767021146,"current_range_meters":9600,"station_id":"ce4bgr92rcd13ifvqc6g","pricing_plan_id":"cebpf4jnsgd1na2vs0mg"},{"bike_id":"8c27f8dd-49de-48cb-b4c0-2c146ce86148","system_id":"levelo_inurba_marseille","lat":43.29594,"lon":5.38132,"is_reserved":false,"is_disabled":false,"rental_uris":{"android":"levelo://app?vid=8c27f8dd-49de-48cb-b4c0-2c146ce86148","ios":"levelo://app?vid=8c27f8dd-49de-48cb-b4c0-2c146ce86148"},"vehicle_type_id":"4","last_reported":1767021146,"current_range_meters":9600,"station_id":"ce4bgl12rcd13ifvqbo0","pricing_plan_id":"cebpf4jnsgd1na2vs0mg"},{"bike_id":"ecf15a0d-c1e4-4ff5-bf9f-4fec57a7c1d3","system_id":"levelo_inurba_marseille","lat":43.283755,"lon":5.384666,"is_reserved":false,"is_disabled":false,"rental_uris":{"android":"levelo://app?vid=ecf15a0d-c1e4-4ff5-bf9f-4fec57a7c1d3","ios":"levelo://app?vid=ecf15a0d-c1e4-4ff5-bf9f-4fec57a7c1d3"},"vehicle_type_id":"4","last_reported":1767021146,"current_range_meters":9600,"station_id":"ce4bhg12rcd13ifvqf80","pricing_plan_id":"cebpf4jnsgd1na2vs0mg"},{"bike_id":"d92812f8-5b57-4c59-8c7f-259f28af8665","system_id":"levelo_inurba_marseille","lat":43.28315,"lon":5.43212,"is_reserved":false,"is_disabled":false,"rental_uris":{"android":"levelo://app?vid=d92812f8-5b57-4c59-8c7f-259f28af8665","ios":"levelo://app?vid=d92812f8-5b57-4c59-8c7f-259f28af8665"},"vehicle_type_id":"4","last_reported":1767021146,"current_range_meters":9600,"station_id":"","pricing_plan_id":"cebpf4jnsgd1na2vs0mg"},{"bike_id":"a5390c1b-8ddc-4e56-baf4-66b1fe2b384c","system_id":"levelo_inurba_marseille","lat":43.28877,"lon":5.42517,"is_reserved":false,"is_disabled":false,"rental_uris":{"android":"levelo://app?vid=a5390c1b-8ddc-4e56-baf4-66b1fe2b384c","ios":"levelo://app?vid=a5390c1b-8ddc-4e56-baf4-66b1fe2b384c"},"vehicle_type_id":"4","last_reported":1767021146,"current_range_meters":10000,"station_id":"st_d3b462108ojc7389ooeg","pricing_plan_id":"cebpf4jnsgd1na2vs0mg"},{"bike_id":"8edc1ab8-c82c-4ca3-afef-ae2ed37ce96b","system_id":"levelo_inurba_marseille","lat":43.31221,"lon":5.368624,"is_reserved":false,"is_disabled":false,"rental_uris":{"android":"levelo://app?vid=8edc1ab8-c82c-4ca3-afef-ae2ed37ce96b","ios":"levelo://app?vid=8edc1ab8-c82c-4ca3-afef-ae2ed37ce96b"},"vehicle_type_id":"4","last_reported":1767021146,"current_range_meters":10000,"station_id":"ce4bgl92rcd13ifvqbq0","pricing_plan_id":"cebpf4jnsgd1na2vs0mg"},{"bike_id":"8e408ba0-2118-43f7-a8ba-d277410a9103","system_id":"levelo_inurba_marseille","lat":43.31239,"lon":5.3807,"is_reserved":false,"is_disabled":false,"rental_uris":{"android":"levelo://app?vid=8e408ba0-2118-43f7-a8ba-d277410a9103","ios":"levelo://app?vid=8e408ba0-2118-43f7-a8ba-d277410a9103"},"vehicle_type_id":"4","last_reported":1767021146,"current_range_meters":10000,"station_id":"","pricing_plan_id":"cebpf4jnsgd1na2vs0mg"},{"bike_id":"5a52afd5-b114-47b2-b716-51cf26e827d2","system_id":"levelo_inurba_marseille","lat":43.287571,"lon":5.352304,"is_reserved":false,"is_disabled":false,"rental_uris":{"android":"levelo://app?vid=5a52afd5-b114-47b2-b716-51cf26e827d2","ios":"levelo://app?vid=5a52afd5-b114-47b2-b716-51cf26e827d2"},"vehicle_type_id":"4","last_reported":1767021146,"current_range_meters":10000,"station_id":"","pricing_plan_id":"cebpf4jnsgd1na2vs0mg"},{"bike_id":"596c9b3b-bd08-4237-a80d-9ed209e66871","system_id":"levelo_inurba_marseille","lat":43.28864,"lon":5.42511,"is_reserved":false,"is_disabled":false,"rental_uris":{"android":"levelo://app?vid=596c9b3b-bd08-4237-a80d-9ed209e66871","ios":"levelo://app?vid=596c9b3b-bd08-4237-a80d-9ed209e66871"},"vehicle_type_id":"4","last_reported":1767021146,"current_range_meters":10000,"station_id":"st_d3b462108ojc7389ooeg","pricing_plan_id":"cebpf4jnsgd1na2vs0mg"},{"bike_id":"6a41fbaa-7c2a-49e7-b996-3b1dd53fe3c6","system_id":"levelo_inurba_marseille","lat":43.25114,"lon":5.40324,"is_reserved":false,"is_disabled":false,"rental_uris":{"android":"levelo://app?vid=6a41fbaa-7c2a-49e7-b996-3b1dd53fe3c6","ios":"levelo://app?vid=6a41fbaa-7c2a-49e7-b996-3b1dd53fe3c6"},"vehicle_type_id":"4","last_reported":1767021146,"current_range_meters":10000,"station_id":"ce4bhlh2rcd13ifvqgig","pricing_plan_id":"cebpf4jnsgd1na2vs0mg"},{"bike_id":"3435cb16-529c-447a-9093-2c50b6067ce8","system_id":"levelo_inurba_marseille","lat":43.301422,"lon":5.380718,"is_reserved":false,"is_disabled":false,"rental_uris":{"android":"levelo://app?vid=3435cb16-529c-447a-9093-2c50b6067ce8","ios":"levelo://app?vid=3435cb16-529c-447a-9093-2c50b6067ce8"},"vehicle_type_id":"4","last_reported":1767021146,"current_range_meters":10000,"station_id":"","pricing_plan_id":"cebpf4jnsgd1na2vs0mg"},{"bike_id":"293b1a03-b471-4057-8f13-11b74273e4e7","system_id":"levelo_inurba_marseille","lat":43.337444,"lon":5.374475,"is_reserved":false,"is_disabled":false,"rental_uris":{"android":"levelo://app?vid=293b1a03-b471-4057-8f13-11b74273e4e7","ios":"levelo://app?vid=293b1a03-b471-4057-8f13-11b74273e4e7"},"vehicle_type_id":"4","last_reported":1767021146,"current_range_meters":10000,"station_id":"","pricing_plan_id":"cebpf4jnsgd1na2vs0mg"},{"bike_id":"b7465372-9062-4788-bd0d-d36bd948cc0f","system_id":"levelo_inurba_marseille","lat":43.24164,"lon":5.36391,"is_reserved":false,"is_disabled":false,"rental_uris":{"android":"levelo://app?vid=b7465372-9062-4788-bd0d-d36bd948cc0f","ios":"levelo://app?vid=b7465372-9062-4788-bd0d-d36bd948cc0f"},"vehicle_type_id":"4","last_reported":1767021146,"current_range_meters":10000,"station_id":"cpo36qri1sfpv3e86is0","pricing_plan_id":"cebpf4jnsgd1na2vs0mg"},{"bike_id":"a3513709-de55-41ae-a867-541a49f485f7","system_id":"levelo_inurba_marseille","lat":43.26374,"lon":5.41066,"is_reserved":false,"is_disabled":false,"rental_uris":{"android":"levelo://app?vid=a3513709-de55-41ae-a867-541a49f485f7","ios":"levelo://app?vid=a3513709-de55-41ae-a867-541a49f485f7"},"vehicle_type_id":"4","last_reported":1767021146,"current_range_meters":10800,"station_id":"st_d4e5ca6na9uc73bfl5fg","pricing_plan_id":"cebpf4jnsgd1na2vs0mg"},{"bike_id":"3e9d2708-7dd5-4e56-8595-717730ecd47b","system_id":"levelo_inurba_marseille","lat":43.2465,"lon":5.38885,"is_reserved":false,"is_disabled":false,"rental_uris":{"android":"levelo://app?vid=3e9d2708-7dd5-4e56-8595-717730ecd47b","ios":"levelo://app?vid=3e9d2708-7dd5-4e56-8595-717730ecd47b"},"vehicle_type_id":"4","last_reported":1767021146,"current_range_meters":10800,"station_id":"ce4bhg12rcd13ifvqf60","pricing_plan_id":"cebpf4jnsgd1na2vs0mg"},{"bike_id":"8311b606-6ac3-4e17-a3e8-fd93d55fee19","system_id":"levelo_inurba_marseille","lat":43.2657,"lon":5.37272,"is_reserved":false,"is_disabled":false,"rental_uris":{"android":"levelo://app?vid=8311b606-6ac3-4e17-a3e8-fd93d55fee19","ios":"levelo://app?vid=8311b606-6ac3-4e17-a3e8-fd93d55fee19"},"vehicle_type_id":"4","last_reported":1767021146,"current_range_meters":10800,"station_id":"ce4bhg12rcd13ifvqf70","pricing_plan_id":"cebpf4jnsgd1na2vs0mg"},{"bike_id":"b68d2457-3470-4bc1-8823-fb7c081727f0","system_id":"levelo_inurba_marseille","lat":43.29726,"lon":5.37669,"is_reserved":false,"is_disabled":false,"rental_uris":{"android":"levelo://app?vid=b68d2457-3470-4bc1-8823-fb7c081727f0","ios":"levelo://app?vid=b68d2457-3470-4bc1-8823-fb7c081727f0"},"vehicle_type_id":"4","last_reported":1767021146,"current_range_meters":10800,"station_id":"ce4bgkh2rcd13ifvqbl0","pricing_plan_id":"cebpf4jnsgd1na2vs0mg"},{"bike_id":"2fa43d22-f3a9-490d-ae6d-704c0d5a420c","system_id":"levelo_inurba_marseille","lat":43.2995,"lon":5.36532,"is_reserved":false,"is_disabled":false,"rental_uris":{"android":"levelo://app?vid=2fa43d22-f3a9-490d-ae6d-704c0d5a420c","ios":"levelo://app?vid=2fa43d22-f3a9-490d-ae6d-704c0d5a420c"},"vehicle_type_id":"4","last_reported":1767021146,"current_range_meters":10800,"station_id":"ce4bgm92rcd13ifvqbr0","pricing_plan_id":"cebpf4jnsgd1na2vs0mg"},{"bike_id":"5663c206-c4de-47ab-9767-8711dc76a6f9","system_id":"levelo_inurba_marseille","lat":43.30146,"lon":5.43076,"is_reserved":false,"is_disabled":false,"rental_uris":{"android":"levelo://app?vid=5663c206-c4de-47ab-9767-8711dc76a6f9","ios":"levelo://app?vid=5663c206-c4de-47ab-9767-8711dc76a6f9"},"vehicle_type_id":"4","last_reported":1767021146,"current_range_meters":11200,"station_id":"st_d3js3co5814s73ftftug","pricing_plan_id":"cebpf4jnsgd1na2vs0mg"},{"bike_id":"036cbba1-2eba-4d3a-bebd-070ee4e03e68","system_id":"levelo_inurba_marseille","lat":43.27445,"lon":5.39445,"is_reserved":false,"is_disabled":true,"rental_uris":{"android":"levelo://app?vid=036cbba1-2eba-4d3a-bebd-070ee4e03e68","ios":"levelo://app?vid=036cbba1-2eba-4d3a-bebd-070ee4e03e68"},"vehicle_type_id":"4","last_reported":1767021146,"current_range_meters":11200,"station_id":"ce4bhdp2rcd13ifvqf20","pricing_plan_id":"cebpf4jnsgd1na2vs0mg"},{"bike_id":"5ec820fb-f47e-43b3-bc55-57a5ad8275a7","system_id":"levelo_inurba_marseille","lat":43.29222,"lon":5.36335,"is_reserved":false,"is_disabled":false,"rental_uris":{"android":"levelo://app?vid=5ec820fb-f47e-43b3-bc55-57a5ad8275a7","ios":"levelo://app?vid=5ec820fb-f47e-43b3-bc55-57a5ad8275a7"},"vehicle_type_id":"4","last_reported":1767021146,"current_range_meters":11200,"station_id":"","pricing_plan_id":"cebpf4jnsgd1na2vs0mg"},{"bike_id":"49ddfe4d-a455-4471-80b2-514804bef855","system_id":"levelo_inurba_marseille","lat":43.30436,"lon":5.39744,"is_reserved":false,"is_disabled":false,"rental_uris":{"android":"levelo://app?vid=49ddfe4d-a455-4471-80b2-514804bef855","ios":"levelo://app?vid=49ddfe4d-a455-4471-80b2-514804bef855"},"vehicle_type_id":"4","last_reported":1767021146,"current_range_meters":11200,"station_id":"ce4bh092rcd13ifvqd20","pricing_plan_id":"cebpf4jnsgd1na2vs0mg"},{"bike_id":"1b98c6d3-988a-40e8-a138-836b264a962b","system_id":"levelo_inurba_marseille","lat":43.32331,"lon":5.36678,"is_reserved":false,"is_disabled":false,"rental_uris":{"android":"levelo://app?vid=1b98c6d3-988a-40e8-a138-836b264a962b","ios":"levelo://app?vid=1b98c6d3-988a-40e8-a138-836b264a962b"},"vehicle_type_id":"4","last_reported":1767021146,"current_range_meters":11200,"station_id":"","pricing_plan_id":"cebpf4jnsgd1na2vs0mg"},{"bike_id":"c31389bb-9537-4042-bd64-eb19b3929f3f","system_id":"levelo_inurba_marseille","lat":43.297077,"lon":5.366047,"is_reserved":false,"is_disabled":false,"rental_uris":{"android":"levelo://app?vid=c31389bb-9537-4042-bd64-eb19b3929f3f","ios":"levelo://app?vid=c31389bb-9537-4042-bd64-eb19b3929f3f"},"vehicle_type_id":"4","last_reported":1767021146,"current_range_meters":11200,"station_id":"ce4bgn12rcd13ifvqbt0","pricing_plan_id":"cebpf4jnsgd1na2vs0mg"},{"bike_id":"1085335c-4c05-4119-a79e-6c5d99f9baeb","system_id":"levelo_inurba_marseille","lat":43.29378,"lon":5.37863,"is_reserved":false,"is_disabled":false,"rental_uris":{"android":"levelo://app?vid=1085335c-4c05-4119-a79e-6c5d99f9baeb","ios":"levelo://app?vid=1085335c-4c05-4119-a79e-6c5d99f9baeb"},"vehicle_type_id":"4","last_reported":1767021146,"current_range_meters":11600,"station_id":"ce4bgjh2rcd13ifvqbf0","pricing_plan_id":"cebpf4jnsgd1na2vs0mg"},{"bike_id":"0c8752f9-67a9-4eee-998d-0a21d8c8f9f0","system_id":"levelo_inurba_marseille","lat":43.32891,"lon":5.40548,"is_reserved":false,"is_disabled":false,"rental_uris":{"android":"levelo://app?vid=0c8752f9-67a9-4eee-998d-0a21d8c8f9f0","ios":"levelo://app?vid=0c8752f9-67a9-4eee-998d-0a21d8c8f9f0"},"vehicle_type_id":"4","last_reported":1767021146,"current_range_meters":11600,"station_id":"ce4bhq92rcd13ifvqhkg","pricing_plan_id":"cebpf4jnsgd1na2vs0mg"},{"bike_id":"654d6a05-384c-4092-b29e-beb1c608b021","system_id":"levelo_inurba_marseille","lat":43.24653,"lon":5.38888,"is_reserved":false,"is_disabled":false,"rental_uris":{"android":"levelo://app?vid=654d6a05-384c-4092-b29e-beb1c608b021","ios":"levelo://app?vid=654d6a05-384c-4092-b29e-beb1c608b021"},"vehicle_type_id":"4","last_reported":1767021146,"current_range_meters":11600,"station_id":"ce4bhg12rcd13ifvqf60","pricing_plan_id":"cebpf4jnsgd1na2vs0mg"},{"bike_id":"3981849e-f312-451e-a7c6-49908a23c833","system_id":"levelo_inurba_marseille","lat":43.30125,"lon":5.40209,"is_reserved":false,"is_disabled":false,"rental_uris":{"android":"levelo://app?vid=3981849e-f312-451e-a7c6-49908a23c833","ios":"levelo://app?vid=3981849e-f312-451e-a7c6-49908a23c833"},"vehicle_type_id":"4","last_reported":1767021146,"current_range_meters":11600,"station_id":"","pricing_plan_id":"cebpf4jnsgd1na2vs0mg"},{"bike_id":"ab07ab4d-8c00-4184-a952-35d08d673f0e","system_id":"levelo_inurba_marseille","lat":43.30767,"lon":5.43714,"is_reserved":false,"is_disabled":false,"rental_uris":{"android":"levelo://app?vid=ab07ab4d-8c00-4184-a952-35d08d673f0e","ios":"levelo://app?vid=ab07ab4d-8c00-4184-a952-35d08d673f0e"},"vehicle_type_id":"4","last_reported":1767021146,"current_range_meters":11600,"station_id":"","pricing_plan_id":"cebpf4jnsgd1na2vs0mg"},{"bike_id":"b388443f-e6d4-4125-a04a-5dae673a45a3","system_id":"levelo_inurba_marseille","lat":43.28469,"lon":5.38434,"is_reserved":false,"is_disabled":false,"rental_uris":{"android":"levelo://app?vid=b388443f-e6d4-4125-a04a-5dae673a45a3","ios":"levelo://app?vid=b388443f-e6d4-4125-a04a-5dae673a45a3"},"vehicle_type_id":"4","last_reported":1767021146,"current_range_meters":11600,"station_id":"ce4bh512rcd13ifvqe3g","pricing_plan_id":"cebpf4jnsgd1na2vs0mg"},{"bike_id":"12c38b32-5974-4311-910a-572392b8079a","system_id":"levelo_inurba_marseille","lat":43.28043,"lon":5.3509,"is_reserved":false,"is_disabled":false,"rental_uris":{"android":"levelo://app?vid=12c38b32-5974-4311-910a-572392b8079a","ios":"levelo://app?vid=12c38b32-5974-4311-910a-572392b8079a"},"vehicle_type_id":"4","last_reported":1767021146,"current_range_meters":11600,"station_id":"","pricing_plan_id":"cebpf4jnsgd1na2vs0mg"},{"bike_id":"51f79da2-bde2-492e-a11c-85c3b1d14a13","system_id":"levelo_inurba_marseille","lat":43.23781,"lon":5.36629,"is_reserved":false,"is_disabled":false,"rental_uris":{"android":"levelo://app?vid=51f79da2-bde2-492e-a11c-85c3b1d14a13","ios":"levelo://app?vid=51f79da2-bde2-492e-a11c-85c3b1d14a13"},"vehicle_type_id":"4","last_reported":1767021146,"current_range_meters":11600,"station_id":"st_d3nk18o9ro0c73en2l3g","pricing_plan_id":"cebpf4jnsgd1na2vs0mg"},{"bike_id":"70830288-aad2-48e8-9831-2389da295d40","system_id":"levelo_inurba_marseille","lat":43.27062,"lon":5.4226,"is_reserved":false,"is_disabled":false,"rental_uris":{"android":"levelo://app?vid=70830288-aad2-48e8-9831-2389da295d40","ios":"levelo://app?vid=70830288-aad2-48e8-9831-2389da295d40"},"vehicle_type_id":"4","last_reported":1767021146,"current_range_meters":11600,"station_id":"ce4bhk92rcd13ifvqgb0","pricing_plan_id":"cebpf4jnsgd1na2vs0mg"},{"bike_id":"0a62435e-a1a1-4faf-b848-03bd53df937d","system_id":"levelo_inurba_marseille","lat":43.29867,"lon":5.37905,"is_reserved":false,"is_disabled":false,"rental_uris":{"android":"levelo://app?vid=0a62435e-a1a1-4faf-b848-03bd53df937d","ios":"levelo://app?vid=0a62435e-a1a1-4faf-b848-03bd53df937d"},"vehicle_type_id":"4","last_reported":1767021146,"current_range_meters":11600,"station_id":"","pricing_plan_id":"cebpf4jnsgd1na2vs0mg"},{"bike_id":"8ed0aaee-94a4-4a16-a923-e8b24a7704a6","system_id":"levelo_inurba_marseille","lat":43.2887,"lon":5.4252,"is_reserved":false,"is_disabled":false,"rental_uris":{"android":"levelo://app?vid=8ed0aaee-94a4-4a16-a923-e8b24a7704a6","ios":"levelo://app?vid=8ed0aaee-94a4-4a16-a923-e8b24a7704a6"},"vehicle_type_id":"4","last_reported":1767021146,"current_range_meters":11600,"station_id":"st_d3b462108ojc7389ooeg","pricing_plan_id":"cebpf4jnsgd1na2vs0mg"},{"bike_id":"c05da9ea-ba20-461f-9abc-0c1da25f6581","system_id":"levelo_inurba_marseille","lat":43.29602,"lon":5.36411,"is_reserved":false,"is_disabled":false,"rental_uris":{"android":"levelo://app?vid=c05da9ea-ba20-461f-9abc-0c1da25f6581","ios":"levelo://app?vid=c05da9ea-ba20-461f-9abc-0c1da25f6581"},"vehicle_type_id":"4","last_reported":1767021146,"current_range_meters":12000,"station_id":"","pricing_plan_id":"cebpf4jnsgd1na2vs0mg"},{"bike_id":"f4c01557-62cf-4b89-aaa2-7c63ad0ad51f","system_id":"levelo_inurba_marseille","lat":43.31055,"lon":5.37173,"is_reserved":false,"is_disabled":false,"rental_uris":{"android":"levelo://app?vid=f4c01557-62cf-4b89-aaa2-7c63ad0ad51f","ios":"levelo://app?vid=f4c01557-62cf-4b89-aaa2-7c63ad0ad51f"},"vehicle_type_id":"4","last_reported":1767021146,"current_range_meters":12000,"station_id":"st_d4kl2rp97mjs73e7tdfg","pricing_plan_id":"cebpf4jnsgd1na2vs0mg"},{"bike_id":"6430d914-0a21-4065-b1bd-22ff590b6d10","system_id":"levelo_inurba_marseille","lat":43.288618,"lon":5.425205,"is_reserved":false,"is_disabled":false,"rental_uris":{"android":"levelo://app?vid=6430d914-0a21-4065-b1bd-22ff590b6d10","ios":"levelo://app?vid=6430d914-0a21-4065-b1bd-22ff590b6d10"},"vehicle_type_id":"4","last_reported":1767021146,"current_range_meters":12000,"station_id":"st_d3b462108ojc7389ooeg","pricing_plan_id":"cebpf4jnsgd1na2vs0mg"},{"bike_id":"0d5ddc8d-f2c4-4737-b087-1361f53189ff","system_id":"levelo_inurba_marseille","lat":43.26966,"lon":5.38645,"is_reserved":false,"is_disabled":false,"rental_uris":{"android":"levelo://app?vid=0d5ddc8d-f2c4-4737-b087-1361f53189ff","ios":"levelo://app?vid=0d5ddc8d-f2c4-4737-b087-1361f53189ff"},"vehicle_type_id":"4","last_reported":1767021146,"current_range_meters":12000,"station_id":"ce4bhh92rcd13ifvqfh0","pricing_plan_id":"cebpf4jnsgd1na2vs0mg"},{"bike_id":"201d708c-5b31-4274-b242-ae5ba82f8408","system_id":"levelo_inurba_marseille","lat":43.31713,"lon":5.43703,"is_reserved":false,"is_disabled":false,"rental_uris":{"android":"levelo://app?vid=201d708c-5b31-4274-b242-ae5ba82f8408","ios":"levelo://app?vid=201d708c-5b31-4274-b242-ae5ba82f8408"},"vehicle_type_id":"4","last_reported":1767021146,"current_range_meters":12000,"station_id":"ce4bhp92rcd13ifvqhcg","pricing_plan_id":"cebpf4jnsgd1na2vs0mg"},{"bike_id":"d91c0c42-845a-414a-8b35-d1568bcd6bbf","system_id":"levelo_inurba_marseille","lat":43.29922,"lon":5.37475,"is_reserved":false,"is_disabled":false,"rental_uris":{"android":"levelo://app?vid=d91c0c42-845a-414a-8b35-d1568bcd6bbf","ios":"levelo://app?vid=d91c0c42-845a-414a-8b35-d1568bcd6bbf"},"vehicle_type_id":"4","last_reported":1767021146,"current_range_meters":12000,"station_id":"ce4bgjh2rcd13ifvqbg0","pricing_plan_id":"cebpf4jnsgd1na2vs0mg"},{"bike_id":"f1411068-b09b-4667-92c7-1f093aee39a9","system_id":"levelo_inurba_marseille","lat":43.2948,"lon":5.43323,"is_reserved":false,"is_disabled":true,"rental_uris":{"android":"levelo://app?vid=f1411068-b09b-4667-92c7-1f093aee39a9","ios":"levelo://app?vid=f1411068-b09b-4667-92c7-1f093aee39a9"},"vehicle_type_id":"4","last_reported":1767021146,"current_range_meters":12000,"station_id":"st_d3j5ugp08ojc73fj9d10","pricing_plan_id":"cebpf4jnsgd1na2vs0mg"},{"bike_id":"ae1b9423-a5b0-4421-80f5-23134313aff2","system_id":"levelo_inurba_marseille","lat":43.25575,"lon":5.38241,"is_reserved":false,"is_disabled":false,"rental_uris":{"android":"levelo://app?vid=ae1b9423-a5b0-4421-80f5-23134313aff2","ios":"levelo://app?vid=ae1b9423-a5b0-4421-80f5-23134313aff2"},"vehicle_type_id":"4","last_reported":1767021146,"current_range_meters":12000,"station_id":"ce4bhih2rcd13ifvqfs0","pricing_plan_id":"cebpf4jnsgd1na2vs0mg"},{"bike_id":"486d6fd8-4606-4f0e-9474-4089eacb8b09","system_id":"levelo_inurba_marseille","lat":43.3113,"lon":5.3776,"is_reserved":false,"is_disabled":false,"rental_uris":{"android":"levelo://app?vid=486d6fd8-4606-4f0e-9474-4089eacb8b09","ios":"levelo://app?vid=486d6fd8-4606-4f0e-9474-4089eacb8b09"},"vehicle_type_id":"4","last_reported":1767021146,"current_range_meters":12000,"station_id":"ce4bgt92rcd13ifvqcg0","pricing_plan_id":"cebpf4jnsgd1na2vs0mg"},{"bike_id":"85f80c36-b01d-4148-8a0f-5ed00798dda8","system_id":"levelo_inurba_marseille","lat":43.30104,"lon":5.36478,"is_reserved":false,"is_disabled":false,"rental_uris":{"android":"levelo://app?vid=85f80c36-b01d-4148-8a0f-5ed00798dda8","ios":"levelo://app?vid=85f80c36-b01d-4148-8a0f-5ed00798dda8"},"vehicle_type_id":"4","last_reported":1767021146,"current_range_meters":12000,"station_id":"","pricing_plan_id":"cebpf4jnsgd1na2vs0mg"},{"bike_id":"9c1b57e1-addf-4919-93ed-023a6be78e08","system_id":"levelo_inurba_marseille","lat":43.269562,"lon":5.386351,"is_reserved":false,"is_disabled":false,"rental_uris":{"android":"levelo://app?vid=9c1b57e1-addf-4919-93ed-023a6be78e08","ios":"levelo://app?vid=9c1b57e1-addf-4919-93ed-023a6be78e08"},"vehicle_type_id":"4","last_reported":1767021146,"current_range_meters":12000,"station_id":"ce4bhh92rcd13ifvqfh0","pricing_plan_id":"cebpf4jnsgd1na2vs0mg"},{"bike_id":"433621e1-12cd-4d0c-b747-14612e74827b","system_id":"levelo_inurba_marseille","lat":43.217503,"lon":5.346013,"is_reserved":false,"is_disabled":false,"rental_uris":{"android":"levelo://app?vid=433621e1-12cd-4d0c-b747-14612e74827b","ios":"levelo://app?vid=433621e1-12cd-4d0c-b747-14612e74827b"},"vehicle_type_id":"4","last_reported":1767021146,"current_range_meters":12400,"station_id":"st_cvj6r9ubvosntc0bgbag","pricing_plan_id":"cebpf4jnsgd1na2vs0mg"},{"bike_id":"f696103b-2b2b-4509-b475-28746835ce9f","system_id":"levelo_inurba_marseille","lat":43.32482,"lon":5.36573,"is_reserved":false,"is_disabled":false,"rental_uris":{"android":"levelo://app?vid=f696103b-2b2b-4509-b475-28746835ce9f","ios":"levelo://app?vid=f696103b-2b2b-4509-b475-28746835ce9f"},"vehicle_type_id":"4","last_reported":1767021146,"current_range_meters":12400,"station_id":"ce4bhs12rcd13ifvqhvg","pricing_plan_id":"cebpf4jnsgd1na2vs0mg"},{"bike_id":"9f035e6d-4716-4f35-9777-425cc5769f01","system_id":"levelo_inurba_marseille","lat":43.31321,"lon":5.36778,"is_reserved":false,"is_disabled":false,"rental_uris":{"android":"levelo://app?vid=9f035e6d-4716-4f35-9777-425cc5769f01","ios":"levelo://app?vid=9f035e6d-4716-4f35-9777-425cc5769f01"},"vehicle_type_id":"4","last_reported":1767021146,"current_range_meters":12400,"station_id":"ce4bgr92rcd13ifvqc6g","pricing_plan_id":"cebpf4jnsgd1na2vs0mg"},{"bike_id":"a10a567e-725f-4d13-9a20-ae79e944eb3d","system_id":"levelo_inurba_marseille","lat":43.276187,"lon":5.361007,"is_reserved":false,"is_disabled":false,"rental_uris":{"android":"levelo://app?vid=a10a567e-725f-4d13-9a20-ae79e944eb3d","ios":"levelo://app?vid=a10a567e-725f-4d13-9a20-ae79e944eb3d"},"vehicle_type_id":"4","last_reported":1767021146,"current_range_meters":12400,"station_id":"ce4bgj92rcd13ifvqbe0","pricing_plan_id":"cebpf4jnsgd1na2vs0mg"},{"bike_id":"3e103596-c016-43fd-b57d-a0a6881be46d","system_id":"levelo_inurba_marseille","lat":43.29267,"lon":5.40903,"is_reserved":false,"is_disabled":false,"rental_uris":{"android":"levelo://app?vid=3e103596-c016-43fd-b57d-a0a6881be46d","ios":"levelo://app?vid=3e103596-c016-43fd-b57d-a0a6881be46d"},"vehicle_type_id":"4","last_reported":1767021146,"current_range_meters":12400,"station_id":"ce4bh192rcd13ifvqdc0","pricing_plan_id":"cebpf4jnsgd1na2vs0mg"},{"bike_id":"ebd2d008-f6da-48d9-ba52-7c53a3b24637","system_id":"levelo_inurba_marseille","lat":43.29839,"lon":5.36258,"is_reserved":false,"is_disabled":false,"rental_uris":{"android":"levelo://app?vid=ebd2d008-f6da-48d9-ba52-7c53a3b24637","ios":"levelo://app?vid=ebd2d008-f6da-48d9-ba52-7c53a3b24637"},"vehicle_type_id":"4","last_reported":1767021146,"current_range_meters":12400,"station_id":"ce4bgpp2rcd13ifvqc3g","pricing_plan_id":"cebpf4jnsgd1na2vs0mg"},{"bike_id":"2059b758-0b4a-46e4-91ff-a166d0193a47","system_id":"levelo_inurba_marseille","lat":43.31336,"lon":5.367551,"is_reserved":false,"is_disabled":false,"rental_uris":{"android":"levelo://app?vid=2059b758-0b4a-46e4-91ff-a166d0193a47","ios":"levelo://app?vid=2059b758-0b4a-46e4-91ff-a166d0193a47"},"vehicle_type_id":"4","last_reported":1767021146,"current_range_meters":12400,"station_id":"ce4bgr92rcd13ifvqc6g","pricing_plan_id":"cebpf4jnsgd1na2vs0mg"},{"bike_id":"febe362e-858e-44c5-b4bb-e4a7c6160c6f","system_id":"levelo_inurba_marseille","lat":43.32355,"lon":5.36731,"is_reserved":false,"is_disabled":false,"rental_uris":{"android":"levelo://app?vid=febe362e-858e-44c5-b4bb-e4a7c6160c6f","ios":"levelo://app?vid=febe362e-858e-44c5-b4bb-e4a7c6160c6f"},"vehicle_type_id":"4","last_reported":1767021146,"current_range_meters":12800,"station_id":"ce4bhsh2rcd13ifvqi2g","pricing_plan_id":"cebpf4jnsgd1na2vs0mg"},{"bike_id":"23536e4d-1e05-4aeb-96f2-8a34a4a397cf","system_id":"levelo_inurba_marseille","lat":43.2863,"lon":5.35101,"is_reserved":false,"is_disabled":false,"rental_uris":{"android":"levelo://app?vid=23536e4d-1e05-4aeb-96f2-8a34a4a397cf","ios":"levelo://app?vid=23536e4d-1e05-4aeb-96f2-8a34a4a397cf"},"vehicle_type_id":"4","last_reported":1767021146,"current_range_meters":12800,"station_id":"ce4bhch2rcd13ifvqeug","pricing_plan_id":"cebpf4jnsgd1na2vs0mg"},{"bike_id":"fc3e7d1f-6888-4dd5-ac43-c60ab216465e","system_id":"levelo_inurba_marseille","lat":43.24813,"lon":5.37456,"is_reserved":false,"is_disabled":false,"rental_uris":{"android":"levelo://app?vid=fc3e7d1f-6888-4dd5-ac43-c60ab216465e","ios":"levelo://app?vid=fc3e7d1f-6888-4dd5-ac43-c60ab216465e"},"vehicle_type_id":"4","last_reported":1767021146,"current_range_meters":12800,"station_id":"ce4bhgh2rcd13ifvqfb0","pricing_plan_id":"cebpf4jnsgd1na2vs0mg"},{"bike_id":"7d8fd278-107f-463e-bc59-44a753b741b2","system_id":"levelo_inurba_marseille","lat":43.305384,"lon":5.365537,"is_reserved":false,"is_disabled":false,"rental_uris":{"android":"levelo://app?vid=7d8fd278-107f-463e-bc59-44a753b741b2","ios":"levelo://app?vid=7d8fd278-107f-463e-bc59-44a753b741b2"},"vehicle_type_id":"4","last_reported":1767021146,"current_range_meters":12800,"station_id":"ce4bgs12rcd13ifvqcag","pricing_plan_id":"cebpf4jnsgd1na2vs0mg"},{"bike_id":"53d5e8c9-2653-43c3-af86-803b0eacfa38","system_id":"levelo_inurba_marseille","lat":43.30884,"lon":5.37207,"is_reserved":false,"is_disabled":false,"rental_uris":{"android":"levelo://app?vid=53d5e8c9-2653-43c3-af86-803b0eacfa38","ios":"levelo://app?vid=53d5e8c9-2653-43c3-af86-803b0eacfa38"},"vehicle_type_id":"4","last_reported":1767021146,"current_range_meters":12800,"station_id":"ce4bguh2rcd13ifvqckg","pricing_plan_id":"cebpf4jnsgd1na2vs0mg"},{"bike_id":"a186001d-255d-44eb-831d-d1dbd2507670","system_id":"levelo_inurba_marseille","lat":43.21211,"lon":5.35093,"is_reserved":false,"is_disabled":true,"rental_uris":{"android":"levelo://app?vid=a186001d-255d-44eb-831d-d1dbd2507670","ios":"levelo://app?vid=a186001d-255d-44eb-831d-d1dbd2507670"},"vehicle_type_id":"4","last_reported":1767021146,"current_range_meters":12800,"station_id":"st_cvj6sg6p6f1abm77japg","pricing_plan_id":"cebpf4jnsgd1na2vs0mg"},{"bike_id":"b3d987cd-c41c-479b-809e-597ead2d7b13","system_id":"levelo_inurba_marseille","lat":43.21753,"lon":5.34601,"is_reserved":false,"is_disabled":false,"rental_uris":{"android":"levelo://app?vid=b3d987cd-c41c-479b-809e-597ead2d7b13","ios":"levelo://app?vid=b3d987cd-c41c-479b-809e-597ead2d7b13"},"vehicle_type_id":"4","last_reported":1767021146,"current_range_meters":12800,"station_id":"","pricing_plan_id":"cebpf4jnsgd1na2vs0mg"},{"bike_id":"6ecd2bc8-2198-43a9-a7e6-37dd5d541656","system_id":"levelo_inurba_marseille","lat":43.33178,"lon":5.37673,"is_reserved":false,"is_disabled":false,"rental_uris":{"android":"levelo://app?vid=6ecd2bc8-2198-43a9-a7e6-37dd5d541656","ios":"levelo://app?vid=6ecd2bc8-2198-43a9-a7e6-37dd5d541656"},"vehicle_type_id":"4","last_reported":1767021146,"current_range_meters":13600,"station_id":"st_d46cu089ee8s73dldbu0","pricing_plan_id":"cebpf4jnsgd1na2vs0mg"},{"bike_id":"928b015a-7167-4e24-8c0a-0c323d75b19b","system_id":"levelo_inurba_marseille","lat":43.284825,"lon":5.384445,"is_reserved":false,"is_disabled":false,"rental_uris":{"android":"levelo://app?vid=928b015a-7167-4e24-8c0a-0c323d75b19b","ios":"levelo://app?vid=928b015a-7167-4e24-8c0a-0c323d75b19b"},"vehicle_type_id":"4","last_reported":1767021146,"current_range_meters":13600,"station_id":"ce4bh512rcd13ifvqe3g","pricing_plan_id":"cebpf4jnsgd1na2vs0mg"},{"bike_id":"72959de9-92e6-4658-a570-672fd05f73d3","system_id":"levelo_inurba_marseille","lat":43.3236,"lon":5.36719,"is_reserved":false,"is_disabled":false,"rental_uris":{"android":"levelo://app?vid=72959de9-92e6-4658-a570-672fd05f73d3","ios":"levelo://app?vid=72959de9-92e6-4658-a570-672fd05f73d3"},"vehicle_type_id":"4","last_reported":1767021146,"current_range_meters":13600,"station_id":"ce4bhsh2rcd13ifvqi2g","pricing_plan_id":"cebpf4jnsgd1na2vs0mg"},{"bike_id":"ef68c7b4-bf69-4575-8451-3aa7bbb169cc","system_id":"levelo_inurba_marseille","lat":43.297904,"lon":5.380967,"is_reserved":false,"is_disabled":false,"rental_uris":{"android":"levelo://app?vid=ef68c7b4-bf69-4575-8451-3aa7bbb169cc","ios":"levelo://app?vid=ef68c7b4-bf69-4575-8451-3aa7bbb169cc"},"vehicle_type_id":"4","last_reported":1767021146,"current_range_meters":13600,"station_id":"st_d4a7ka997mjs738ck50g","pricing_plan_id":"cebpf4jnsgd1na2vs0mg"},{"bike_id":"11e95434-d435-4144-a3f1-20677a4d3b31","system_id":"levelo_inurba_marseille","lat":43.24169,"lon":5.36396,"is_reserved":false,"is_disabled":false,"rental_uris":{"android":"levelo://app?vid=11e95434-d435-4144-a3f1-20677a4d3b31","ios":"levelo://app?vid=11e95434-d435-4144-a3f1-20677a4d3b31"},"vehicle_type_id":"4","last_reported":1767021146,"current_range_meters":13600,"station_id":"cpo36qri1sfpv3e86is0","pricing_plan_id":"cebpf4jnsgd1na2vs0mg"},{"bike_id":"02e1644b-829b-41f4-be69-7d123e4bbd8d","system_id":"levelo_inurba_marseille","lat":43.28018,"lon":5.39978,"is_reserved":false,"is_disabled":false,"rental_uris":{"android":"levelo://app?vid=02e1644b-829b-41f4-be69-7d123e4bbd8d","ios":"levelo://app?vid=02e1644b-829b-41f4-be69-7d123e4bbd8d"},"vehicle_type_id":"4","last_reported":1767021146,"current_range_meters":13600,"station_id":"ce4bho92rcd13ifvqh4g","pricing_plan_id":"cebpf4jnsgd1na2vs0mg"},{"bike_id":"d114c0ea-e911-4e32-951c-297f7234df83","system_id":"levelo_inurba_marseille","lat":43.312475,"lon":5.368368,"is_reserved":false,"is_disabled":false,"rental_uris":{"android":"levelo://app?vid=d114c0ea-e911-4e32-951c-297f7234df83","ios":"levelo://app?vid=d114c0ea-e911-4e32-951c-297f7234df83"},"vehicle_type_id":"4","last_reported":1767021146,"current_range_meters":13600,"station_id":"ce4bgl92rcd13ifvqbq0","pricing_plan_id":"cebpf4jnsgd1na2vs0mg"},{"bike_id":"55ec7e8b-6b2a-4530-bad9-3cd7350b93b7","system_id":"levelo_inurba_marseille","lat":43.32178,"lon":5.38444,"is_reserved":false,"is_disabled":false,"rental_uris":{"android":"levelo://app?vid=55ec7e8b-6b2a-4530-bad9-3cd7350b93b7","ios":"levelo://app?vid=55ec7e8b-6b2a-4530-bad9-3cd7350b93b7"},"vehicle_type_id":"4","last_reported":1767021146,"current_range_meters":13600,"station_id":"","pricing_plan_id":"cebpf4jnsgd1na2vs0mg"},{"bike_id":"c9fdc383-a829-4246-be37-a41d66e9e351","system_id":"levelo_inurba_marseille","lat":43.31912,"lon":5.37352,"is_reserved":false,"is_disabled":false,"rental_uris":{"android":"levelo://app?vid=c9fdc383-a829-4246-be37-a41d66e9e351","ios":"levelo://app?vid=c9fdc383-a829-4246-be37-a41d66e9e351"},"vehicle_type_id":"4","last_reported":1767021146,"current_range_meters":13600,"station_id":"","pricing_plan_id":"cebpf4jnsgd1na2vs0mg"},{"bike_id":"ab8f1ce9-2179-4824-98f6-eee771b589ca","system_id":"levelo_inurba_marseille","lat":43.304342,"lon":5.397396,"is_reserved":false,"is_disabled":false,"rental_uris":{"android":"levelo://app?vid=ab8f1ce9-2179-4824-98f6-eee771b589ca","ios":"levelo://app?vid=ab8f1ce9-2179-4824-98f6-eee771b589ca"},"vehicle_type_id":"4","last_reported":1767021146,"current_range_meters":13600,"station_id":"ce4bh092rcd13ifvqd20","pricing_plan_id":"cebpf4jnsgd1na2vs0mg"},{"bike_id":"d074fc92-cad8-46a4-9c3a-60454fdaaf67","system_id":"levelo_inurba_marseille","lat":43.29698,"lon":5.37684,"is_reserved":false,"is_disabled":false,"rental_uris":{"android":"levelo://app?vid=d074fc92-cad8-46a4-9c3a-60454fdaaf67","ios":"levelo://app?vid=d074fc92-cad8-46a4-9c3a-60454fdaaf67"},"vehicle_type_id":"4","last_reported":1767021146,"current_range_meters":13600,"station_id":"ce4bgkh2rcd13ifvqbl0","pricing_plan_id":"cebpf4jnsgd1na2vs0mg"},{"bike_id":"8cd8286c-2dd8-41ad-b181-1afd615d6e0d","system_id":"levelo_inurba_marseille","lat":43.28581,"lon":5.38459,"is_reserved":false,"is_disabled":false,"rental_uris":{"android":"levelo://app?vid=8cd8286c-2dd8-41ad-b181-1afd615d6e0d","ios":"levelo://app?vid=8cd8286c-2dd8-41ad-b181-1afd615d6e0d"},"vehicle_type_id":"4","last_reported":1767021146,"current_range_meters":14000,"station_id":"","pricing_plan_id":"cebpf4jnsgd1na2vs0mg"},{"bike_id":"bac2109d-15df-4d0e-bae2-d33bd1ac452e","system_id":"levelo_inurba_marseille","lat":43.29975,"lon":5.37168,"is_reserved":false,"is_disabled":false,"rental_uris":{"android":"levelo://app?vid=bac2109d-15df-4d0e-bae2-d33bd1ac452e","ios":"levelo://app?vid=bac2109d-15df-4d0e-bae2-d33bd1ac452e"},"vehicle_type_id":"4","last_reported":1767021146,"current_range_meters":14000,"station_id":"ce4bgr92rcd13ifvqc7g","pricing_plan_id":"cebpf4jnsgd1na2vs0mg"},{"bike_id":"dab86601-1d82-4518-931a-8a2c43c571b8","system_id":"levelo_inurba_marseille","lat":43.29624,"lon":5.37722,"is_reserved":false,"is_disabled":false,"rental_uris":{"android":"levelo://app?vid=dab86601-1d82-4518-931a-8a2c43c571b8","ios":"levelo://app?vid=dab86601-1d82-4518-931a-8a2c43c571b8"},"vehicle_type_id":"4","last_reported":1767021146,"current_range_meters":14000,"station_id":"ce4bgi92rcd13ifvqb90","pricing_plan_id":"cebpf4jnsgd1na2vs0mg"},{"bike_id":"b05640fc-cf78-4e6b-bafb-c8aa2abc6f80","system_id":"levelo_inurba_marseille","lat":43.273975,"lon":5.390468,"is_reserved":false,"is_disabled":false,"rental_uris":{"android":"levelo://app?vid=b05640fc-cf78-4e6b-bafb-c8aa2abc6f80","ios":"levelo://app?vid=b05640fc-cf78-4e6b-bafb-c8aa2abc6f80"},"vehicle_type_id":"4","last_reported":1767021146,"current_range_meters":14000,"station_id":"","pricing_plan_id":"cebpf4jnsgd1na2vs0mg"},{"bike_id":"2c46c7a5-389f-47fc-8086-ed2504307f23","system_id":"levelo_inurba_marseille","lat":43.27953,"lon":5.4104,"is_reserved":false,"is_disabled":false,"rental_uris":{"android":"levelo://app?vid=2c46c7a5-389f-47fc-8086-ed2504307f23","ios":"levelo://app?vid=2c46c7a5-389f-47fc-8086-ed2504307f23"},"vehicle_type_id":"4","last_reported":1767021146,"current_range_meters":14000,"station_id":"ce4bhnp2rcd13ifvqh0g","pricing_plan_id":"cebpf4jnsgd1na2vs0mg"},{"bike_id":"855aa69f-617b-444d-86ee-c73f0c737a2d","system_id":"levelo_inurba_marseille","lat":43.24475,"lon":5.42526,"is_reserved":false,"is_disabled":false,"rental_uris":{"android":"levelo://app?vid=855aa69f-617b-444d-86ee-c73f0c737a2d","ios":"levelo://app?vid=855aa69f-617b-444d-86ee-c73f0c737a2d"},"vehicle_type_id":"4","last_reported":1767021146,"current_range_meters":14000,"station_id":"st_d4a3vfp97mjs738cd8kg","pricing_plan_id":"cebpf4jnsgd1na2vs0mg"},{"bike_id":"4dbc32ba-02dc-454e-a399-a783879c7dcd","system_id":"levelo_inurba_marseille","lat":43.231827,"lon":5.399954,"is_reserved":false,"is_disabled":false,"rental_uris":{"android":"levelo://app?vid=4dbc32ba-02dc-454e-a399-a783879c7dcd","ios":"levelo://app?vid=4dbc32ba-02dc-454e-a399-a783879c7dcd"},"vehicle_type_id":"4","last_reported":1767021146,"current_range_meters":14000,"station_id":"ce4bhn12rcd13ifvqgqg","pricing_plan_id":"cebpf4jnsgd1na2vs0mg"},{"bike_id":"c229d242-44dd-423a-80bd-d6e731d6624d","system_id":"levelo_inurba_marseille","lat":43.29009,"lon":5.3761,"is_reserved":false,"is_disabled":false,"rental_uris":{"android":"levelo://app?vid=c229d242-44dd-423a-80bd-d6e731d6624d","ios":"levelo://app?vid=c229d242-44dd-423a-80bd-d6e731d6624d"},"vehicle_type_id":"4","last_reported":1767021146,"current_range_meters":14000,"station_id":"ce4bh692rcd13ifvqe90","pricing_plan_id":"cebpf4jnsgd1na2vs0mg"},{"bike_id":"affcbac3-4cc2-4872-ab33-4623a0ea2332","system_id":"levelo_inurba_marseille","lat":43.286,"lon":5.39881,"is_reserved":false,"is_disabled":false,"rental_uris":{"android":"levelo://app?vid=affcbac3-4cc2-4872-ab33-4623a0ea2332","ios":"levelo://app?vid=affcbac3-4cc2-4872-ab33-4623a0ea2332"},"vehicle_type_id":"4","last_reported":1767021146,"current_range_meters":14000,"station_id":"st_d4a7ka997mjs738ck50g","pricing_plan_id":"cebpf4jnsgd1na2vs0mg"},{"bike_id":"f9bf2b61-0b24-4018-a181-ecc22a139f07","system_id":"levelo_inurba_marseille","lat":43.30921,"lon":5.36854,"is_reserved":false,"is_disabled":false,"rental_uris":{"android":"levelo://app?vid=f9bf2b61-0b24-4018-a181-ecc22a139f07","ios":"levelo://app?vid=f9bf2b61-0b24-4018-a181-ecc22a139f07"},"vehicle_type_id":"4","last_reported":1767021146,"current_range_meters":14000,"station_id":"ce4bgn92rcd13ifvqbvg","pricing_plan_id":"cebpf4jnsgd1na2vs0mg"},{"bike_id":"1f986bde-e823-4547-a8eb-43be952db802","system_id":"levelo_inurba_marseille","lat":43.29442,"lon":5.37288,"is_reserved":false,"is_disabled":false,"rental_uris":{"android":"levelo://app?vid=1f986bde-e823-4547-a8eb-43be952db802","ios":"levelo://app?vid=1f986bde-e823-4547-a8eb-43be952db802"},"vehicle_type_id":"4","last_reported":1767021146,"current_range_meters":14000,"station_id":"","pricing_plan_id":"cebpf4jnsgd1na2vs0mg"},{"bike_id":"23c02d66-8437-4772-b823-99b2b1d7cc16","system_id":"levelo_inurba_marseille","lat":43.28479,"lon":5.38416,"is_reserved":false,"is_disabled":false,"rental_uris":{"android":"levelo://app?vid=23c02d66-8437-4772-b823-99b2b1d7cc16","ios":"levelo://app?vid=23c02d66-8437-4772-b823-99b2b1d7cc16"},"vehicle_type_id":"4","last_reported":1767021146,"current_range_meters":14000,"station_id":"ce4bh512rcd13ifvqe3g","pricing_plan_id":"cebpf4jnsgd1na2vs0mg"},{"bike_id":"301a723d-2238-4088-97aa-fd8abf463428","system_id":"levelo_inurba_marseille","lat":43.33544,"lon":5.37443,"is_reserved":false,"is_disabled":false,"rental_uris":{"android":"levelo://app?vid=301a723d-2238-4088-97aa-fd8abf463428","ios":"levelo://app?vid=301a723d-2238-4088-97aa-fd8abf463428"},"vehicle_type_id":"4","last_reported":1767021146,"current_range_meters":14400,"station_id":"st_d46tts09ee8s73dlu43g","pricing_plan_id":"cebpf4jnsgd1na2vs0mg"},{"bike_id":"02154302-b983-4257-8c77-5addd6e5a10d","system_id":"levelo_inurba_marseille","lat":43.22941,"lon":5.353659,"is_reserved":false,"is_disabled":false,"rental_uris":{"android":"levelo://app?vid=02154302-b983-4257-8c77-5addd6e5a10d","ios":"levelo://app?vid=02154302-b983-4257-8c77-5addd6e5a10d"},"vehicle_type_id":"4","last_reported":1767021146,"current_range_meters":14400,"station_id":"cpo3532slgdg3j2ikp40","pricing_plan_id":"cebpf4jnsgd1na2vs0mg"},{"bike_id":"3745e737-5737-4541-ab05-7d881133f68f","system_id":"levelo_inurba_marseille","lat":43.2799,"lon":5.40016,"is_reserved":false,"is_disabled":false,"rental_uris":{"android":"levelo://app?vid=3745e737-5737-4541-ab05-7d881133f68f","ios":"levelo://app?vid=3745e737-5737-4541-ab05-7d881133f68f"},"vehicle_type_id":"4","last_reported":1767021146,"current_range_meters":14400,"station_id":"ce4bho92rcd13ifvqh4g","pricing_plan_id":"cebpf4jnsgd1na2vs0mg"},{"bike_id":"6dd6d7de-0746-4ddc-be8f-e1ab3378009e","system_id":"levelo_inurba_marseille","lat":43.24166,"lon":5.36405,"is_reserved":false,"is_disabled":true,"rental_uris":{"android":"levelo://app?vid=6dd6d7de-0746-4ddc-be8f-e1ab3378009e","ios":"levelo://app?vid=6dd6d7de-0746-4ddc-be8f-e1ab3378009e"},"vehicle_type_id":"4","last_reported":1767021146,"current_range_meters":14400,"station_id":"cpo36qri1sfpv3e86is0","pricing_plan_id":"cebpf4jnsgd1na2vs0mg"},{"bike_id":"a151b997-9126-4824-a3ea-191febad7446","system_id":"levelo_inurba_marseille","lat":43.278121,"lon":5.407105,"is_reserved":false,"is_disabled":false,"rental_uris":{"android":"levelo://app?vid=a151b997-9126-4824-a3ea-191febad7446","ios":"levelo://app?vid=a151b997-9126-4824-a3ea-191febad7446"},"vehicle_type_id":"4","last_reported":1767021146,"current_range_meters":14400,"station_id":"ce4bhnh2rcd13ifvqgtg","pricing_plan_id":"cebpf4jnsgd1na2vs0mg"},{"bike_id":"647c60e8-e0c0-4a68-b1aa-4cb96225386c","system_id":"levelo_inurba_marseille","lat":43.28012,"lon":5.39985,"is_reserved":false,"is_disabled":false,"rental_uris":{"android":"levelo://app?vid=647c60e8-e0c0-4a68-b1aa-4cb96225386c","ios":"levelo://app?vid=647c60e8-e0c0-4a68-b1aa-4cb96225386c"},"vehicle_type_id":"4","last_reported":1767021146,"current_range_meters":14400,"station_id":"ce4bho92rcd13ifvqh4g","pricing_plan_id":"cebpf4jnsgd1na2vs0mg"},{"bike_id":"1dd2c077-d7fa-43b2-a55d-f6335f7bc478","system_id":"levelo_inurba_marseille","lat":43.29655,"lon":5.37343,"is_reserved":false,"is_disabled":false,"rental_uris":{"android":"levelo://app?vid=1dd2c077-d7fa-43b2-a55d-f6335f7bc478","ios":"levelo://app?vid=1dd2c077-d7fa-43b2-a55d-f6335f7bc478"},"vehicle_type_id":"4","last_reported":1767021146,"current_range_meters":14400,"station_id":"","pricing_plan_id":"cebpf4jnsgd1na2vs0mg"},{"bike_id":"b6645d2c-5f1c-4c53-921f-bbde10b6af88","system_id":"levelo_inurba_marseille","lat":43.29787,"lon":5.44035,"is_reserved":false,"is_disabled":false,"rental_uris":{"android":"levelo://app?vid=b6645d2c-5f1c-4c53-921f-bbde10b6af88","ios":"levelo://app?vid=b6645d2c-5f1c-4c53-921f-bbde10b6af88"},"vehicle_type_id":"4","last_reported":1767021146,"current_range_meters":14400,"station_id":"st_d3jp68qikq2c7381ktn0","pricing_plan_id":"cebpf4jnsgd1na2vs0mg"},{"bike_id":"1e979309-d823-4aaf-b851-f1be8461cefe","system_id":"levelo_inurba_marseille","lat":43.28474,"lon":5.48399,"is_reserved":false,"is_disabled":false,"rental_uris":{"android":"levelo://app?vid=1e979309-d823-4aaf-b851-f1be8461cefe","ios":"levelo://app?vid=1e979309-d823-4aaf-b851-f1be8461cefe"},"vehicle_type_id":"4","last_reported":1767021146,"current_range_meters":14400,"station_id":"","pricing_plan_id":"cebpf4jnsgd1na2vs0mg"},{"bike_id":"5c722bea-e4ed-4897-b11b-dca82120f16a","system_id":"levelo_inurba_marseille","lat":43.2902,"lon":5.35604,"is_reserved":false,"is_disabled":false,"rental_uris":{"android":"levelo://app?vid=5c722bea-e4ed-4897-b11b-dca82120f16a","ios":"levelo://app?vid=5c722bea-e4ed-4897-b11b-dca82120f16a"},"vehicle_type_id":"4","last_reported":1767021146,"current_range_meters":14400,"station_id":"","pricing_plan_id":"cebpf4jnsgd1na2vs0mg"},{"bike_id":"1f20f165-1ad6-4c1b-be90-9232024ae986","system_id":"levelo_inurba_marseille","lat":43.21197,"lon":5.35075,"is_reserved":false,"is_disabled":false,"rental_uris":{"android":"levelo://app?vid=1f20f165-1ad6-4c1b-be90-9232024ae986","ios":"levelo://app?vid=1f20f165-1ad6-4c1b-be90-9232024ae986"},"vehicle_type_id":"4","last_reported":1767021146,"current_range_meters":14400,"station_id":"st_cvj6sg6p6f1abm77japg","pricing_plan_id":"cebpf4jnsgd1na2vs0mg"},{"bike_id":"968baccc-9bbc-4ffc-b0a9-38cb42ddd7f8","system_id":"levelo_inurba_marseille","lat":43.30892,"lon":5.39649,"is_reserved":false,"is_disabled":false,"rental_uris":{"android":"levelo://app?vid=968baccc-9bbc-4ffc-b0a9-38cb42ddd7f8","ios":"levelo://app?vid=968baccc-9bbc-4ffc-b0a9-38cb42ddd7f8"},"vehicle_type_id":"4","last_reported":1767021146,"current_range_meters":14400,"station_id":"ce4bh012rcd13ifvqcv0","pricing_plan_id":"cebpf4jnsgd1na2vs0mg"},{"bike_id":"655b5370-38d3-4202-b3f5-89c1387a735d","system_id":"levelo_inurba_marseille","lat":43.27202,"lon":5.39162,"is_reserved":false,"is_disabled":false,"rental_uris":{"android":"levelo://app?vid=655b5370-38d3-4202-b3f5-89c1387a735d","ios":"levelo://app?vid=655b5370-38d3-4202-b3f5-89c1387a735d"},"vehicle_type_id":"4","last_reported":1767021146,"current_range_meters":14800,"station_id":"ce4bhhp2rcd13ifvqfm0","pricing_plan_id":"cebpf4jnsgd1na2vs0mg"},{"bike_id":"01cbb8d5-170b-46a8-8e8e-7d25f92ca46d","system_id":"levelo_inurba_marseille","lat":43.29291,"lon":5.37144,"is_reserved":false,"is_disabled":false,"rental_uris":{"android":"levelo://app?vid=01cbb8d5-170b-46a8-8e8e-7d25f92ca46d","ios":"levelo://app?vid=01cbb8d5-170b-46a8-8e8e-7d25f92ca46d"},"vehicle_type_id":"4","last_reported":1767021146,"current_range_meters":14800,"station_id":"ce4bgh92rcd13ifvqb40","pricing_plan_id":"cebpf4jnsgd1na2vs0mg"},{"bike_id":"1bf9af3e-5825-4028-b5fa-3733a35fec46","system_id":"levelo_inurba_marseille","lat":43.27055,"lon":5.38299,"is_reserved":false,"is_disabled":false,"rental_uris":{"android":"levelo://app?vid=1bf9af3e-5825-4028-b5fa-3733a35fec46","ios":"levelo://app?vid=1bf9af3e-5825-4028-b5fa-3733a35fec46"},"vehicle_type_id":"4","last_reported":1767021146,"current_range_meters":14800,"station_id":"st_d3n2fo6cfp8s73cte1j0","pricing_plan_id":"cebpf4jnsgd1na2vs0mg"},{"bike_id":"69a9232f-0c10-42f3-951d-98f9e1d93fde","system_id":"levelo_inurba_marseille","lat":43.29729,"lon":5.37695,"is_reserved":false,"is_disabled":false,"rental_uris":{"android":"levelo://app?vid=69a9232f-0c10-42f3-951d-98f9e1d93fde","ios":"levelo://app?vid=69a9232f-0c10-42f3-951d-98f9e1d93fde"},"vehicle_type_id":"4","last_reported":1767021146,"current_range_meters":14800,"station_id":"ce4bgkh2rcd13ifvqbl0","pricing_plan_id":"cebpf4jnsgd1na2vs0mg"},{"bike_id":"cf3c81cf-aace-4f48-8df1-352bf02cf81f","system_id":"levelo_inurba_marseille","lat":43.271918,"lon":5.391883,"is_reserved":false,"is_disabled":false,"rental_uris":{"android":"levelo://app?vid=cf3c81cf-aace-4f48-8df1-352bf02cf81f","ios":"levelo://app?vid=cf3c81cf-aace-4f48-8df1-352bf02cf81f"},"vehicle_type_id":"4","last_reported":1767021146,"current_range_meters":14800,"station_id":"ce4bhhp2rcd13ifvqfm0","pricing_plan_id":"cebpf4jnsgd1na2vs0mg"},{"bike_id":"248a03b6-5cb4-4aa2-8baa-dda3195e836a","system_id":"levelo_inurba_marseille","lat":43.26533,"lon":5.39499,"is_reserved":false,"is_disabled":false,"rental_uris":{"android":"levelo://app?vid=248a03b6-5cb4-4aa2-8baa-dda3195e836a","ios":"levelo://app?vid=248a03b6-5cb4-4aa2-8baa-dda3195e836a"},"vehicle_type_id":"4","last_reported":1767021146,"current_range_meters":14800,"station_id":"","pricing_plan_id":"cebpf4jnsgd1na2vs0mg"},{"bike_id":"0db285e6-f368-4b4c-8b3e-3a5e4c4fa55a","system_id":"levelo_inurba_marseille","lat":43.21742,"lon":5.34599,"is_reserved":false,"is_disabled":false,"rental_uris":{"android":"levelo://app?vid=0db285e6-f368-4b4c-8b3e-3a5e4c4fa55a","ios":"levelo://app?vid=0db285e6-f368-4b4c-8b3e-3a5e4c4fa55a"},"vehicle_type_id":"4","last_reported":1767021146,"current_range_meters":14800,"station_id":"","pricing_plan_id":"cebpf4jnsgd1na2vs0mg"},{"bike_id":"e54d4104-9e89-4bb8-b60e-d3755b992e4f","system_id":"levelo_inurba_marseille","lat":43.28526,"lon":5.44097,"is_reserved":false,"is_disabled":false,"rental_uris":{"android":"levelo://app?vid=e54d4104-9e89-4bb8-b60e-d3755b992e4f","ios":"levelo://app?vid=e54d4104-9e89-4bb8-b60e-d3755b992e4f"},"vehicle_type_id":"4","last_reported":1767021146,"current_range_meters":14800,"station_id":"st_d3j3df2ikq2c7380ej80","pricing_plan_id":"cebpf4jnsgd1na2vs0mg"},{"bike_id":"22e75689-cfce-48d4-81dd-55053e1b4080","system_id":"levelo_inurba_marseille","lat":43.297787,"lon":5.393366,"is_reserved":false,"is_disabled":false,"rental_uris":{"android":"levelo://app?vid=22e75689-cfce-48d4-81dd-55053e1b4080","ios":"levelo://app?vid=22e75689-cfce-48d4-81dd-55053e1b4080"},"vehicle_type_id":"4","last_reported":1767021146,"current_range_meters":15200,"station_id":"chh1huq6cuj3fo74tm60","pricing_plan_id":"cebpf4jnsgd1na2vs0mg"},{"bike_id":"407aed4b-ce04-4b1d-b093-0424aff9d65b","system_id":"levelo_inurba_marseille","lat":43.25937,"lon":5.40887,"is_reserved":false,"is_disabled":false,"rental_uris":{"android":"levelo://app?vid=407aed4b-ce04-4b1d-b093-0424aff9d65b","ios":"levelo://app?vid=407aed4b-ce04-4b1d-b093-0424aff9d65b"},"vehicle_type_id":"4","last_reported":1767021146,"current_range_meters":15200,"station_id":"ce4bhm92rcd13ifvqglg","pricing_plan_id":"cebpf4jnsgd1na2vs0mg"},{"bike_id":"801e92b4-a981-43e9-9f51-9c4eba2c38b1","system_id":"levelo_inurba_marseille","lat":43.27664,"lon":5.38882,"is_reserved":false,"is_disabled":false,"rental_uris":{"android":"levelo://app?vid=801e92b4-a981-43e9-9f51-9c4eba2c38b1","ios":"levelo://app?vid=801e92b4-a981-43e9-9f51-9c4eba2c38b1"},"vehicle_type_id":"4","last_reported":1767021146,"current_range_meters":15200,"station_id":"ce4bhi12rcd13ifvqfo0","pricing_plan_id":"cebpf4jnsgd1na2vs0mg"},{"bike_id":"1756bd8d-a2c4-41cd-85c6-586541aebd61","system_id":"levelo_inurba_marseille","lat":43.28459,"lon":5.39189,"is_reserved":false,"is_disabled":true,"rental_uris":{"android":"levelo://app?vid=1756bd8d-a2c4-41cd-85c6-586541aebd61","ios":"levelo://app?vid=1756bd8d-a2c4-41cd-85c6-586541aebd61"},"vehicle_type_id":"4","last_reported":1767021146,"current_range_meters":15200,"station_id":"ce4bhoh2rcd13ifvqh5g","pricing_plan_id":"cebpf4jnsgd1na2vs0mg"},{"bike_id":"6177ad94-52a0-463a-8df6-47f72a1e7624","system_id":"levelo_inurba_marseille","lat":43.2551,"lon":5.37652,"is_reserved":false,"is_disabled":false,"rental_uris":{"android":"levelo://app?vid=6177ad94-52a0-463a-8df6-47f72a1e7624","ios":"levelo://app?vid=6177ad94-52a0-463a-8df6-47f72a1e7624"},"vehicle_type_id":"4","last_reported":1767021146,"current_range_meters":15200,"station_id":"ce4bhh12rcd13ifvqff0","pricing_plan_id":"cebpf4jnsgd1na2vs0mg"},{"bike_id":"eb3800e0-9284-488e-87ce-997a8a8d0e54","system_id":"levelo_inurba_marseille","lat":43.32099,"lon":5.36767,"is_reserved":false,"is_disabled":false,"rental_uris":{"android":"levelo://app?vid=eb3800e0-9284-488e-87ce-997a8a8d0e54","ios":"levelo://app?vid=eb3800e0-9284-488e-87ce-997a8a8d0e54"},"vehicle_type_id":"4","last_reported":1767021146,"current_range_meters":15200,"station_id":"ce4bhrh2rcd13ifvqhug","pricing_plan_id":"cebpf4jnsgd1na2vs0mg"},{"bike_id":"f415003e-a6bd-4975-9bb2-dc02ceb5098b","system_id":"levelo_inurba_marseille","lat":43.240755,"lon":5.377634,"is_reserved":false,"is_disabled":false,"rental_uris":{"android":"levelo://app?vid=f415003e-a6bd-4975-9bb2-dc02ceb5098b","ios":"levelo://app?vid=f415003e-a6bd-4975-9bb2-dc02ceb5098b"},"vehicle_type_id":"4","last_reported":1767021146,"current_range_meters":15200,"station_id":"ce4bhe12rcd13ifvqf30","pricing_plan_id":"cebpf4jnsgd1na2vs0mg"},{"bike_id":"1f39359d-eaf6-458b-8e16-4e46ad43876e","system_id":"levelo_inurba_marseille","lat":43.2417,"lon":5.39739,"is_reserved":false,"is_disabled":false,"rental_uris":{"android":"levelo://app?vid=1f39359d-eaf6-458b-8e16-4e46ad43876e","ios":"levelo://app?vid=1f39359d-eaf6-458b-8e16-4e46ad43876e"},"vehicle_type_id":"4","last_reported":1767021146,"current_range_meters":15200,"station_id":"ce4bhn12rcd13ifvqgpg","pricing_plan_id":"cebpf4jnsgd1na2vs0mg"},{"bike_id":"cda8f891-7ec2-4495-8bf4-6f20ed3faa0b","system_id":"levelo_inurba_marseille","lat":43.21198,"lon":5.35084,"is_reserved":false,"is_disabled":false,"rental_uris":{"android":"levelo://app?vid=cda8f891-7ec2-4495-8bf4-6f20ed3faa0b","ios":"levelo://app?vid=cda8f891-7ec2-4495-8bf4-6f20ed3faa0b"},"vehicle_type_id":"4","last_reported":1767021146,"current_range_meters":15200,"station_id":"st_cvj6sg6p6f1abm77japg","pricing_plan_id":"cebpf4jnsgd1na2vs0mg"},{"bike_id":"26fcc9de-a3f4-4b18-a853-822b3fde5b4a","system_id":"levelo_inurba_marseille","lat":43.32709,"lon":5.39227,"is_reserved":false,"is_disabled":false,"rental_uris":{"android":"levelo://app?vid=26fcc9de-a3f4-4b18-a853-822b3fde5b4a","ios":"levelo://app?vid=26fcc9de-a3f4-4b18-a853-822b3fde5b4a"},"vehicle_type_id":"4","last_reported":1767021146,"current_range_meters":15200,"station_id":"","pricing_plan_id":"cebpf4jnsgd1na2vs0mg"},{"bike_id":"658cfe34-b19b-4c41-94c6-f5a75f7f7995","system_id":"levelo_inurba_marseille","lat":43.295823,"lon":5.367438,"is_reserved":false,"is_disabled":false,"rental_uris":{"android":"levelo://app?vid=658cfe34-b19b-4c41-94c6-f5a75f7f7995","ios":"levelo://app?vid=658cfe34-b19b-4c41-94c6-f5a75f7f7995"},"vehicle_type_id":"4","last_reported":1767021146,"current_range_meters":16000,"station_id":"ce4bgph2rcd13ifvqc2g","pricing_plan_id":"cebpf4jnsgd1na2vs0mg"},{"bike_id":"2703b803-944c-4f90-b5fc-f9ddd565456b","system_id":"levelo_inurba_marseille","lat":43.27912,"lon":5.39575,"is_reserved":false,"is_disabled":true,"rental_uris":{"android":"levelo://app?vid=2703b803-944c-4f90-b5fc-f9ddd565456b","ios":"levelo://app?vid=2703b803-944c-4f90-b5fc-f9ddd565456b"},"vehicle_type_id":"4","last_reported":1767021146,"current_range_meters":16000,"station_id":"ce4bhf92rcd13ifvqf40","pricing_plan_id":"cebpf4jnsgd1na2vs0mg"},{"bike_id":"5401de85-2150-40d3-a790-950b4a025395","system_id":"levelo_inurba_marseille","lat":43.335478,"lon":5.374673,"is_reserved":false,"is_disabled":false,"rental_uris":{"android":"levelo://app?vid=5401de85-2150-40d3-a790-950b4a025395","ios":"levelo://app?vid=5401de85-2150-40d3-a790-950b4a025395"},"vehicle_type_id":"4","last_reported":1767021146,"current_range_meters":16000,"station_id":"st_d46tts09ee8s73dlu43g","pricing_plan_id":"cebpf4jnsgd1na2vs0mg"},{"bike_id":"02e818d7-b252-45c2-ada4-86e500d8fb91","system_id":"levelo_inurba_marseille","lat":43.27953,"lon":5.41046,"is_reserved":false,"is_disabled":false,"rental_uris":{"android":"levelo://app?vid=02e818d7-b252-45c2-ada4-86e500d8fb91","ios":"levelo://app?vid=02e818d7-b252-45c2-ada4-86e500d8fb91"},"vehicle_type_id":"4","last_reported":1767021146,"current_range_meters":16000,"station_id":"ce4bhnp2rcd13ifvqh0g","pricing_plan_id":"cebpf4jnsgd1na2vs0mg"},{"bike_id":"4ee2dc40-69ea-4c0d-9af3-3035276123d5","system_id":"levelo_inurba_marseille","lat":43.289864,"lon":5.378362,"is_reserved":false,"is_disabled":false,"rental_uris":{"android":"levelo://app?vid=4ee2dc40-69ea-4c0d-9af3-3035276123d5","ios":"levelo://app?vid=4ee2dc40-69ea-4c0d-9af3-3035276123d5"},"vehicle_type_id":"4","last_reported":1767021146,"current_range_meters":16000,"station_id":"","pricing_plan_id":"cebpf4jnsgd1na2vs0mg"},{"bike_id":"59aab69d-aa14-4a71-8d9b-0aa143ba58f2","system_id":"levelo_inurba_marseille","lat":43.28528,"lon":5.44095,"is_reserved":false,"is_disabled":true,"rental_uris":{"android":"levelo://app?vid=59aab69d-aa14-4a71-8d9b-0aa143ba58f2","ios":"levelo://app?vid=59aab69d-aa14-4a71-8d9b-0aa143ba58f2"},"vehicle_type_id":"4","last_reported":1767021146,"current_range_meters":16000,"station_id":"st_d3j3df2ikq2c7380ej80","pricing_plan_id":"cebpf4jnsgd1na2vs0mg"},{"bike_id":"ac22e188-d698-41a2-ab01-4c1844c8e7fd","system_id":"levelo_inurba_marseille","lat":43.32718,"lon":5.39258,"is_reserved":false,"is_disabled":false,"rental_uris":{"android":"levelo://app?vid=ac22e188-d698-41a2-ab01-4c1844c8e7fd","ios":"levelo://app?vid=ac22e188-d698-41a2-ab01-4c1844c8e7fd"},"vehicle_type_id":"4","last_reported":1767021146,"current_range_meters":16000,"station_id":"","pricing_plan_id":"cebpf4jnsgd1na2vs0mg"},{"bike_id":"1499f08b-07fb-45ef-b5dc-009014547bdc","system_id":"levelo_inurba_marseille","lat":43.21767,"lon":5.34602,"is_reserved":false,"is_disabled":false,"rental_uris":{"android":"levelo://app?vid=1499f08b-07fb-45ef-b5dc-009014547bdc","ios":"levelo://app?vid=1499f08b-07fb-45ef-b5dc-009014547bdc"},"vehicle_type_id":"4","last_reported":1767021146,"current_range_meters":16000,"station_id":"","pricing_plan_id":"cebpf4jnsgd1na2vs0mg"},{"bike_id":"2e45f257-97ba-4e8e-890f-ce3ce53b0169","system_id":"levelo_inurba_marseille","lat":43.24671,"lon":5.38161,"is_reserved":false,"is_disabled":false,"rental_uris":{"android":"levelo://app?vid=2e45f257-97ba-4e8e-890f-ce3ce53b0169","ios":"levelo://app?vid=2e45f257-97ba-4e8e-890f-ce3ce53b0169"},"vehicle_type_id":"4","last_reported":1767021146,"current_range_meters":16400,"station_id":"ce4bhih2rcd13ifvqfr0","pricing_plan_id":"cebpf4jnsgd1na2vs0mg"},{"bike_id":"0f0fc6ed-82de-439d-993e-666cb650fe34","system_id":"levelo_inurba_marseille","lat":43.2378,"lon":5.36628,"is_reserved":false,"is_disabled":false,"rental_uris":{"android":"levelo://app?vid=0f0fc6ed-82de-439d-993e-666cb650fe34","ios":"levelo://app?vid=0f0fc6ed-82de-439d-993e-666cb650fe34"},"vehicle_type_id":"4","last_reported":1767021146,"current_range_meters":16400,"station_id":"st_d3nk18o9ro0c73en2l3g","pricing_plan_id":"cebpf4jnsgd1na2vs0mg"},{"bike_id":"6232718b-a366-45db-8954-44b41dd82f3b","system_id":"levelo_inurba_marseille","lat":43.259332,"lon":5.408973,"is_reserved":false,"is_disabled":false,"rental_uris":{"android":"levelo://app?vid=6232718b-a366-45db-8954-44b41dd82f3b","ios":"levelo://app?vid=6232718b-a366-45db-8954-44b41dd82f3b"},"vehicle_type_id":"4","last_reported":1767021146,"current_range_meters":16400,"station_id":"ce4bhm92rcd13ifvqglg","pricing_plan_id":"cebpf4jnsgd1na2vs0mg"},{"bike_id":"b1fe7799-6a46-49a6-8b2f-2b105e3b71b6","system_id":"levelo_inurba_marseille","lat":43.2959,"lon":5.37518,"is_reserved":false,"is_disabled":false,"rental_uris":{"android":"levelo://app?vid=b1fe7799-6a46-49a6-8b2f-2b105e3b71b6","ios":"levelo://app?vid=b1fe7799-6a46-49a6-8b2f-2b105e3b71b6"},"vehicle_type_id":"4","last_reported":1767021146,"current_range_meters":16400,"station_id":"ce4bgh92rcd13ifvqb50","pricing_plan_id":"cebpf4jnsgd1na2vs0mg"},{"bike_id":"b5997051-9517-43db-a3fd-22957a07eea8","system_id":"levelo_inurba_marseille","lat":43.255,"lon":5.37639,"is_reserved":false,"is_disabled":false,"rental_uris":{"android":"levelo://app?vid=b5997051-9517-43db-a3fd-22957a07eea8","ios":"levelo://app?vid=b5997051-9517-43db-a3fd-22957a07eea8"},"vehicle_type_id":"4","last_reported":1767021146,"current_range_meters":16400,"station_id":"ce4bhh12rcd13ifvqff0","pricing_plan_id":"cebpf4jnsgd1na2vs0mg"},{"bike_id":"dbe09716-f079-4c70-a408-7e3d3011c76c","system_id":"levelo_inurba_marseille","lat":43.27437,"lon":5.39423,"is_reserved":false,"is_disabled":true,"rental_uris":{"android":"levelo://app?vid=dbe09716-f079-4c70-a408-7e3d3011c76c","ios":"levelo://app?vid=dbe09716-f079-4c70-a408-7e3d3011c76c"},"vehicle_type_id":"4","last_reported":1767021146,"current_range_meters":16400,"station_id":"ce4bhdp2rcd13ifvqf20","pricing_plan_id":"cebpf4jnsgd1na2vs0mg"},{"bike_id":"9152dc23-aabb-4dc0-8225-d34b5a4f8b0e","system_id":"levelo_inurba_marseille","lat":43.24676,"lon":5.38894,"is_reserved":false,"is_disabled":false,"rental_uris":{"android":"levelo://app?vid=9152dc23-aabb-4dc0-8225-d34b5a4f8b0e","ios":"levelo://app?vid=9152dc23-aabb-4dc0-8225-d34b5a4f8b0e"},"vehicle_type_id":"4","last_reported":1767021146,"current_range_meters":16400,"station_id":"ce4bhg12rcd13ifvqf60","pricing_plan_id":"cebpf4jnsgd1na2vs0mg"},{"bike_id":"c8c35a9a-4fd2-4128-bd87-390adcb17d7d","system_id":"levelo_inurba_marseille","lat":43.32082,"lon":5.41538,"is_reserved":false,"is_disabled":false,"rental_uris":{"android":"levelo://app?vid=c8c35a9a-4fd2-4128-bd87-390adcb17d7d","ios":"levelo://app?vid=c8c35a9a-4fd2-4128-bd87-390adcb17d7d"},"vehicle_type_id":"4","last_reported":1767021146,"current_range_meters":16400,"station_id":"ce4bhq92rcd13ifvqhkg","pricing_plan_id":"cebpf4jnsgd1na2vs0mg"},{"bike_id":"bf6369b9-a462-42a4-9878-d7395b7dd88e","system_id":"levelo_inurba_marseille","lat":43.29805,"lon":5.38076,"is_reserved":false,"is_disabled":false,"rental_uris":{"android":"levelo://app?vid=bf6369b9-a462-42a4-9878-d7395b7dd88e","ios":"levelo://app?vid=bf6369b9-a462-42a4-9878-d7395b7dd88e"},"vehicle_type_id":"4","last_reported":1767021146,"current_range_meters":16400,"station_id":"ce4bgip2rcd13ifvqbb0","pricing_plan_id":"cebpf4jnsgd1na2vs0mg"},{"bike_id":"bb994c60-bd14-49ed-a97c-c5ccd74ee23c","system_id":"levelo_inurba_marseille","lat":43.29691,"lon":5.37692,"is_reserved":false,"is_disabled":false,"rental_uris":{"android":"levelo://app?vid=bb994c60-bd14-49ed-a97c-c5ccd74ee23c","ios":"levelo://app?vid=bb994c60-bd14-49ed-a97c-c5ccd74ee23c"},"vehicle_type_id":"4","last_reported":1767021146,"current_range_meters":16400,"station_id":"ce4bgkh2rcd13ifvqbl0","pricing_plan_id":"cebpf4jnsgd1na2vs0mg"},{"bike_id":"ba1efb9d-5ff0-4ea0-a8c6-55f1ead9827b","system_id":"levelo_inurba_marseille","lat":43.30654,"lon":5.3932,"is_reserved":false,"is_disabled":false,"rental_uris":{"android":"levelo://app?vid=ba1efb9d-5ff0-4ea0-a8c6-55f1ead9827b","ios":"levelo://app?vid=ba1efb9d-5ff0-4ea0-a8c6-55f1ead9827b"},"vehicle_type_id":"4","last_reported":1767021146,"current_range_meters":16400,"station_id":"","pricing_plan_id":"cebpf4jnsgd1na2vs0mg"},{"bike_id":"35216096-d16e-4dc4-b635-fc1283f5b0c0","system_id":"levelo_inurba_marseille","lat":43.32128,"lon":5.36753,"is_reserved":false,"is_disabled":false,"rental_uris":{"android":"levelo://app?vid=35216096-d16e-4dc4-b635-fc1283f5b0c0","ios":"levelo://app?vid=35216096-d16e-4dc4-b635-fc1283f5b0c0"},"vehicle_type_id":"4","last_reported":1767021146,"current_range_meters":16400,"station_id":"ce4bhrh2rcd13ifvqhug","pricing_plan_id":"cebpf4jnsgd1na2vs0mg"},{"bike_id":"31a077c9-45f8-44fe-be9c-50cf9d939c3d","system_id":"levelo_inurba_marseille","lat":43.29564,"lon":5.37498,"is_reserved":false,"is_disabled":false,"rental_uris":{"android":"levelo://app?vid=31a077c9-45f8-44fe-be9c-50cf9d939c3d","ios":"levelo://app?vid=31a077c9-45f8-44fe-be9c-50cf9d939c3d"},"vehicle_type_id":"4","last_reported":1767021146,"current_range_meters":16400,"station_id":"ce4bgh92rcd13ifvqb50","pricing_plan_id":"cebpf4jnsgd1na2vs0mg"},{"bike_id":"7a858a05-8d49-486e-8d0c-dcbeffc98352","system_id":"levelo_inurba_marseille","lat":43.33546,"lon":5.37468,"is_reserved":false,"is_disabled":false,"rental_uris":{"android":"levelo://app?vid=7a858a05-8d49-486e-8d0c-dcbeffc98352","ios":"levelo://app?vid=7a858a05-8d49-486e-8d0c-dcbeffc98352"},"vehicle_type_id":"4","last_reported":1767021146,"current_range_meters":16400,"station_id":"st_d46tts09ee8s73dlu43g","pricing_plan_id":"cebpf4jnsgd1na2vs0mg"},{"bike_id":"7105bf42-04dc-4adf-bb88-28ab11dae704","system_id":"levelo_inurba_marseille","lat":43.28259,"lon":5.35089,"is_reserved":false,"is_disabled":false,"rental_uris":{"android":"levelo://app?vid=7105bf42-04dc-4adf-bb88-28ab11dae704","ios":"levelo://app?vid=7105bf42-04dc-4adf-bb88-28ab11dae704"},"vehicle_type_id":"4","last_reported":1767021146,"current_range_meters":16400,"station_id":"ce4bhbp2rcd13ifvqerg","pricing_plan_id":"cebpf4jnsgd1na2vs0mg"},{"bike_id":"cf1a13a0-b526-4e9a-9417-ad537cec4e5f","system_id":"levelo_inurba_marseille","lat":43.286161,"lon":5.351009,"is_reserved":false,"is_disabled":false,"rental_uris":{"android":"levelo://app?vid=cf1a13a0-b526-4e9a-9417-ad537cec4e5f","ios":"levelo://app?vid=cf1a13a0-b526-4e9a-9417-ad537cec4e5f"},"vehicle_type_id":"4","last_reported":1767021146,"current_range_meters":16400,"station_id":"ce4bhch2rcd13ifvqeug","pricing_plan_id":"cebpf4jnsgd1na2vs0mg"},{"bike_id":"ec0e7985-1834-419d-8825-4d58bae0e7a4","system_id":"levelo_inurba_marseille","lat":43.32371,"lon":5.36762,"is_reserved":false,"is_disabled":false,"rental_uris":{"android":"levelo://app?vid=ec0e7985-1834-419d-8825-4d58bae0e7a4","ios":"levelo://app?vid=ec0e7985-1834-419d-8825-4d58bae0e7a4"},"vehicle_type_id":"4","last_reported":1767021146,"current_range_meters":16400,"station_id":"ce4bhsh2rcd13ifvqi2g","pricing_plan_id":"cebpf4jnsgd1na2vs0mg"},{"bike_id":"cfd0b00f-fd44-4452-ae17-6adb50d92957","system_id":"levelo_inurba_marseille","lat":43.26582,"lon":5.37295,"is_reserved":false,"is_disabled":false,"rental_uris":{"android":"levelo://app?vid=cfd0b00f-fd44-4452-ae17-6adb50d92957","ios":"levelo://app?vid=cfd0b00f-fd44-4452-ae17-6adb50d92957"},"vehicle_type_id":"4","last_reported":1767021146,"current_range_meters":16400,"station_id":"ce4bhg12rcd13ifvqf70","pricing_plan_id":"cebpf4jnsgd1na2vs0mg"},{"bike_id":"32541f6a-1d2c-44c2-a392-06055eaf1598","system_id":"levelo_inurba_marseille","lat":43.26246,"lon":5.41621,"is_reserved":false,"is_disabled":false,"rental_uris":{"android":"levelo://app?vid=32541f6a-1d2c-44c2-a392-06055eaf1598","ios":"levelo://app?vid=32541f6a-1d2c-44c2-a392-06055eaf1598"},"vehicle_type_id":"4","last_reported":1767021146,"current_range_meters":16400,"station_id":"","pricing_plan_id":"cebpf4jnsgd1na2vs0mg"},{"bike_id":"1ef53504-7290-40b3-8fbc-4d2276df422a","system_id":"levelo_inurba_marseille","lat":43.28469,"lon":5.38402,"is_reserved":false,"is_disabled":false,"rental_uris":{"android":"levelo://app?vid=1ef53504-7290-40b3-8fbc-4d2276df422a","ios":"levelo://app?vid=1ef53504-7290-40b3-8fbc-4d2276df422a"},"vehicle_type_id":"4","last_reported":1767021146,"current_range_meters":16800,"station_id":"ce4bh512rcd13ifvqe3g","pricing_plan_id":"cebpf4jnsgd1na2vs0mg"},{"bike_id":"3f577dd2-4a41-477b-9eb0-e31dacf60ee3","system_id":"levelo_inurba_marseille","lat":43.3209,"lon":5.4155,"is_reserved":false,"is_disabled":false,"rental_uris":{"android":"levelo://app?vid=3f577dd2-4a41-477b-9eb0-e31dacf60ee3","ios":"levelo://app?vid=3f577dd2-4a41-477b-9eb0-e31dacf60ee3"},"vehicle_type_id":"4","last_reported":1767021146,"current_range_meters":16800,"station_id":"","pricing_plan_id":"cebpf4jnsgd1na2vs0mg"},{"bike_id":"62795a40-093f-484c-be6e-15a64fd7baa8","system_id":"levelo_inurba_marseille","lat":43.260412,"lon":5.375498,"is_reserved":false,"is_disabled":false,"rental_uris":{"android":"levelo://app?vid=62795a40-093f-484c-be6e-15a64fd7baa8","ios":"levelo://app?vid=62795a40-093f-484c-be6e-15a64fd7baa8"},"vehicle_type_id":"4","last_reported":1767021146,"current_range_meters":16800,"station_id":"ce4bhgh2rcd13ifvqfa0","pricing_plan_id":"cebpf4jnsgd1na2vs0mg"},{"bike_id":"dce28840-1b59-4930-917a-12d88071d00f","system_id":"levelo_inurba_marseille","lat":43.285386,"lon":5.44104,"is_reserved":false,"is_disabled":false,"rental_uris":{"android":"levelo://app?vid=dce28840-1b59-4930-917a-12d88071d00f","ios":"levelo://app?vid=dce28840-1b59-4930-917a-12d88071d00f"},"vehicle_type_id":"4","last_reported":1767021146,"current_range_meters":16800,"station_id":"st_d3j3df2ikq2c7380ej80","pricing_plan_id":"cebpf4jnsgd1na2vs0mg"},{"bike_id":"0905c6d5-0c3a-49d1-8f23-6c4743792616","system_id":"levelo_inurba_marseille","lat":43.279977,"lon":5.400209,"is_reserved":false,"is_disabled":false,"rental_uris":{"android":"levelo://app?vid=0905c6d5-0c3a-49d1-8f23-6c4743792616","ios":"levelo://app?vid=0905c6d5-0c3a-49d1-8f23-6c4743792616"},"vehicle_type_id":"4","last_reported":1767021146,"current_range_meters":16800,"station_id":"ce4bho92rcd13ifvqh4g","pricing_plan_id":"cebpf4jnsgd1na2vs0mg"},{"bike_id":"79fda2c3-d85a-402b-9c3b-0dceb91a8171","system_id":"levelo_inurba_marseille","lat":43.29798,"lon":5.37035,"is_reserved":false,"is_disabled":false,"rental_uris":{"android":"levelo://app?vid=79fda2c3-d85a-402b-9c3b-0dceb91a8171","ios":"levelo://app?vid=79fda2c3-d85a-402b-9c3b-0dceb91a8171"},"vehicle_type_id":"4","last_reported":1767021146,"current_range_meters":16800,"station_id":"","pricing_plan_id":"cebpf4jnsgd1na2vs0mg"},{"bike_id":"3ae180a1-ad81-4fbd-8d8e-5122c1af76f4","system_id":"levelo_inurba_marseille","lat":43.337444,"lon":5.374475,"is_reserved":false,"is_disabled":false,"rental_uris":{"android":"levelo://app?vid=3ae180a1-ad81-4fbd-8d8e-5122c1af76f4","ios":"levelo://app?vid=3ae180a1-ad81-4fbd-8d8e-5122c1af76f4"},"vehicle_type_id":"4","last_reported":1767021146,"current_range_meters":16800,"station_id":"","pricing_plan_id":"cebpf4jnsgd1na2vs0mg"},{"bike_id":"e3c408eb-4ad4-42d1-9c60-97eb41564ce0","system_id":"levelo_inurba_marseille","lat":43.32487,"lon":5.38285,"is_reserved":false,"is_disabled":false,"rental_uris":{"android":"levelo://app?vid=e3c408eb-4ad4-42d1-9c60-97eb41564ce0","ios":"levelo://app?vid=e3c408eb-4ad4-42d1-9c60-97eb41564ce0"},"vehicle_type_id":"4","last_reported":1767021146,"current_range_meters":16800,"station_id":"st_d4asgbiv49dc73anf9m0","pricing_plan_id":"cebpf4jnsgd1na2vs0mg"},{"bike_id":"d3a69848-5a9c-455e-8529-f8865014b273","system_id":"levelo_inurba_marseille","lat":43.28407,"lon":5.3498,"is_reserved":false,"is_disabled":false,"rental_uris":{"android":"levelo://app?vid=d3a69848-5a9c-455e-8529-f8865014b273","ios":"levelo://app?vid=d3a69848-5a9c-455e-8529-f8865014b273"},"vehicle_type_id":"4","last_reported":1767021146,"current_range_meters":16800,"station_id":"ce4bhbh2rcd13ifvqepg","pricing_plan_id":"cebpf4jnsgd1na2vs0mg"},{"bike_id":"ef7c300f-026c-4b02-8b75-5e5de9a9946e","system_id":"levelo_inurba_marseille","lat":43.29907,"lon":5.37469,"is_reserved":false,"is_disabled":false,"rental_uris":{"android":"levelo://app?vid=ef7c300f-026c-4b02-8b75-5e5de9a9946e","ios":"levelo://app?vid=ef7c300f-026c-4b02-8b75-5e5de9a9946e"},"vehicle_type_id":"4","last_reported":1767021146,"current_range_meters":16800,"station_id":"ce4bgjh2rcd13ifvqbg0","pricing_plan_id":"cebpf4jnsgd1na2vs0mg"},{"bike_id":"4a694a56-2014-4a59-81d9-a91f3b843169","system_id":"levelo_inurba_marseille","lat":43.30438,"lon":5.38891,"is_reserved":false,"is_disabled":false,"rental_uris":{"android":"levelo://app?vid=4a694a56-2014-4a59-81d9-a91f3b843169","ios":"levelo://app?vid=4a694a56-2014-4a59-81d9-a91f3b843169"},"vehicle_type_id":"4","last_reported":1767021146,"current_range_meters":16800,"station_id":"","pricing_plan_id":"cebpf4jnsgd1na2vs0mg"},{"bike_id":"44672969-d1a9-4c46-aff7-7ea9849f7179","system_id":"levelo_inurba_marseille","lat":43.23964,"lon":5.36635,"is_reserved":false,"is_disabled":false,"rental_uris":{"android":"levelo://app?vid=44672969-d1a9-4c46-aff7-7ea9849f7179","ios":"levelo://app?vid=44672969-d1a9-4c46-aff7-7ea9849f7179"},"vehicle_type_id":"4","last_reported":1767021146,"current_range_meters":16800,"station_id":"ce4bhi12rcd13ifvqfp0","pricing_plan_id":"cebpf4jnsgd1na2vs0mg"},{"bike_id":"1143eabc-e91b-41a6-8eaf-ee9abccf572b","system_id":"levelo_inurba_marseille","lat":43.31431,"lon":5.37523,"is_reserved":false,"is_disabled":false,"rental_uris":{"android":"levelo://app?vid=1143eabc-e91b-41a6-8eaf-ee9abccf572b","ios":"levelo://app?vid=1143eabc-e91b-41a6-8eaf-ee9abccf572b"},"vehicle_type_id":"4","last_reported":1767021146,"current_range_meters":16800,"station_id":"","pricing_plan_id":"cebpf4jnsgd1na2vs0mg"},{"bike_id":"0d3ef5ed-515f-43c0-81bb-b220fa5a1c5b","system_id":"levelo_inurba_marseille","lat":43.27365,"lon":5.36255,"is_reserved":false,"is_disabled":false,"rental_uris":{"android":"levelo://app?vid=0d3ef5ed-515f-43c0-81bb-b220fa5a1c5b","ios":"levelo://app?vid=0d3ef5ed-515f-43c0-81bb-b220fa5a1c5b"},"vehicle_type_id":"4","last_reported":1767021146,"current_range_meters":16800,"station_id":"ce4bhbh2rcd13ifvqeo0","pricing_plan_id":"cebpf4jnsgd1na2vs0mg"},{"bike_id":"ad04a5df-a9c7-4aa9-80f2-cab41c94780c","system_id":"levelo_inurba_marseille","lat":43.315023,"lon":5.373082,"is_reserved":false,"is_disabled":false,"rental_uris":{"android":"levelo://app?vid=ad04a5df-a9c7-4aa9-80f2-cab41c94780c","ios":"levelo://app?vid=ad04a5df-a9c7-4aa9-80f2-cab41c94780c"},"vehicle_type_id":"4","last_reported":1767021146,"current_range_meters":16800,"station_id":"ce4bgt12rcd13ifvqcd0","pricing_plan_id":"cebpf4jnsgd1na2vs0mg"},{"bike_id":"3a6694e6-51f3-4fa5-924d-19a8a09757cc","system_id":"levelo_inurba_marseille","lat":43.31679,"lon":5.37352,"is_reserved":false,"is_disabled":false,"rental_uris":{"android":"levelo://app?vid=3a6694e6-51f3-4fa5-924d-19a8a09757cc","ios":"levelo://app?vid=3a6694e6-51f3-4fa5-924d-19a8a09757cc"},"vehicle_type_id":"4","last_reported":1767021146,"current_range_meters":17200,"station_id":"","pricing_plan_id":"cebpf4jnsgd1na2vs0mg"},