{"last_updated":1744218563,"ttl":60,"version":"2.2","data":{"bikes":[{"bike_id":"6090bc0a-6bf5-42df-8ad5-818421a19ba2","system_id":"levelo_inurba_marseille","lat":43.2835,"lon":5.38117,"is_reserved":false,"is_disabled":false,"rental_uris":{"android":"levelo://app?vid=6090bc0a-6bf5-42df-8ad5-818421a19ba2","ios":"levelo://app?vid=6090bc0a-6bf5-42df-8ad5-818421a19ba2"},"vehicle_type_id":"4","last_reported":1744218564,"current_range_meters":2800,"station_id":"ce4bh412rcd13ifvqdr0","pricing_plan_id":"cebpf4jnsgd1na2vs0mg"},{"bike_id":"7f6b244f-2d8d-4ef4-a626-ded95a83f67e","system_id":"levelo_inurba_marseille","lat":43.26789,"lon":5.39408,"is_reserved":false,"is_disabled":false,"rental_uris":{"android":"levelo://app?vid=7f6b244f-2d8d-4ef4-a626-ded95a83f67e","ios":"levelo://app?vid=7f6b244f-2d8d-4ef4-a626-ded95a83f67e"},"vehicle_type_id":"4","last_reported":1744218564,"current_range_meters":2800,"station_id":"ce4bhh12rcd13ifvqfg0","pricing_plan_id":"cebpf4jnsgd1na2vs0mg"},{"bike_id":"9c6e1693-42a7-471c-b03d-ce4b50c60765","system_id":"levelo_inurba_marseille","lat":43.31083,"lon":5.42429,"is_reserved":false,"is_disabled":false,"rental_uris":{"android":"levelo://app?vid=9c6e1693-42a7-471c-b03d-ce4b50c60765","ios":"levelo://app?vid=9c6e1693-42a7-471c-b03d-ce4b50c60765"},"vehicle_type_id":"4","last_reported":1744218564,"current_range_meters":2800,"station_id":"ce4bhp92rcd13ifvqhag","pricing_plan_id":"cebpf4jnsgd1na2vs0mg"},{"bike_id":"bf6b209e-5a9a-4c31-a09b-dcabce37194f","system_id":"levelo_inurba_marseille","lat":43.28412,"lon":5.37509,"is_reserved":false,"is_disabled":false,"rental_uris":{"android":"levelo://app?vid=bf6b209e-5a9a-4c31-a09b-dcabce37194f","ios":"levelo://app?vid=bf6b209e-5a9a-4c31-a09b-dcabce37194f"},"vehicle_type_id":"4","last_reported":1744218564,"current_range_meters":2800,"station_id":"ce4bh412rcd13ifvqds0","pricing_plan_id":"cebpf4jnsgd1na2vs0mg"},{"bike_id":"f39be6f5-2f69-4c37-b021-559d20b299a4","system_id":"levelo_inurba_marseille","lat":43.30008,"lon":5.37653,"is_reserved":false,"is_disabled":false,"rental_uris":{"android":"levelo://app?vid=f39be6f5-2f69-4c37-b021-559d20b299a4","ios":"levelo://app?vid=f39be6f5-2f69-4c37-b021-559d20b299a4"},"vehicle_type_id":"4","last_reported":1744218564,"current_range_meters":2800,"station_id":"","pricing_plan_id":"cebpf4jnsgd1na2vs0mg"},{"bike_id":"1998df95-6ccd-4a07-90b3-9819dcd391f6","system_id":"levelo_inurba_marseille","lat":43.27383,"lon":5.3625,"is_reserved":false,"is_disabled":false,"rental_uris":{"android":"levelo://app?vid=1998df95-6ccd-4a07-90b3-9819dcd391f6","ios":"levelo://app?vid=1998df95-6ccd-4a07-90b3-9819dcd391f6"},"vehicle_type_id":"4","last_reported":1744218564,"current_range_meters":2800,"station_id":"ce4bhbh2rcd13ifvqeo0","pricing_plan_id":"cebpf4jnsgd1na2vs0mg"},{"bike_id":"f2e6fbb1-5603-456d-9ac2-e1f2fc181679","system_id":"levelo_inurba_marseille","lat":43.28418,"lon":5.34981,"is_reserved":false,"is_disabled":false,"rental_uris":{"android":"levelo://app?vid=f2e6fbb1-5603-456d-9ac2-e1f2fc181679","ios":"levelo://app?vid=f2e6fbb1-5603-456d-9ac2-e1f2fc181679"},"vehicle_type_id":"4","last_reported":1744218564,"current_range_meters":2800,"station_id":"ce4bhbh2rcd13ifvqepg","pricing_plan_id":"cebpf4jnsgd1na2vs0mg"},{"bike_id":"04ea21db-9998-4cdc-8b93-e4b23b0ed540","system_id":"levelo_inurba_marseille","lat":43.26129,"lon":5.39579,"is_reserved":false,"is_disabled":false,"rental_uris":{"android":"levelo://app?vid=04ea21db-9998-4cdc-8b93-e4b23b0ed540","ios":"levelo://app?vid=04ea21db-9998-4cdc-8b93-e4b23b0ed540"},"vehicle_type_id":"4","last_reported":1744218564,"current_range_meters":2800,"station_id":"","pricing_plan_id":"cebpf4jnsgd1na2vs0mg"},{"bike_id":"d7e193bc-6dff-43c8-a45a-4ea2a05cc973","system_id":"levelo_inurba_marseille","lat":43.30117,"lon":5.38056,"is_reserved":false,"is_disabled":false,"rental_uris":{"android":"levelo://app?vid=d7e193bc-6dff-43c8-a45a-4ea2a05cc973","ios":"levelo://app?vid=d7e193bc-6dff-43c8-a45a-4ea2a05cc973"},"vehicle_type_id":"4","last_reported":1744218564,"current_range_meters":3200,"station_id":"ce4bgjp2rcd13ifvqbh0","pricing_plan_id":"cebpf4jnsgd1na2vs0mg"},{"bike_id":"3576b946-70b3-456f-a60a-d98e227f015c","system_id":"levelo_inurba_marseille","lat":43.30076,"lon":5.38224,"is_reserved":false,"is_disabled":false,"rental_uris":{"android":"levelo://app?vid=3576b946-70b3-456f-a60a-d98e227f015c","ios":"levelo://app?vid=3576b946-70b3-456f-a60a-d98e227f015c"},"vehicle_type_id":"4","last_reported":1744218564,"current_range_meters":3200,"station_id":"","pricing_plan_id":"cebpf4jnsgd1na2vs0mg"},{"bike_id":"a48807ff-73c7-4bc3-a8a8-7eae61714253","system_id":"levelo_inurba_marseille","lat":43.24545,"lon":5.39529,"is_reserved":false,"is_disabled":false,"rental_uris":{"android":"levelo://app?vid=a48807ff-73c7-4bc3-a8a8-7eae61714253","ios":"levelo://app?vid=a48807ff-73c7-4bc3-a8a8-7eae61714253"},"vehicle_type_id":"4","last_reported":1744218564,"current_range_meters":3200,"station_id":"ce4bhlp2rcd13ifvqgjg","pricing_plan_id":"cebpf4jnsgd1na2vs0mg"},{"bike_id":"7101d28d-a7c5-459c-b75f-4a5ada26f06e","system_id":"levelo_inurba_marseille","lat":43.30952,"lon":5.39031,"is_reserved":false,"is_disabled":false,"rental_uris":{"android":"levelo://app?vid=7101d28d-a7c5-459c-b75f-4a5ada26f06e","ios":"levelo://app?vid=7101d28d-a7c5-459c-b75f-4a5ada26f06e"},"vehicle_type_id":"4","last_reported":1744218564,"current_range_meters":3200,"station_id":"ce4bgup2rcd13ifvqco0","pricing_plan_id":"cebpf4jnsgd1na2vs0mg"},{"bike_id":"1f5ede78-5a10-4766-b4bb-f9ce5bb57107","system_id":"levelo_inurba_marseille","lat":43.31719,"lon":5.43712,"is_reserved":false,"is_disabled":false,"rental_uris":{"android":"levelo://app?vid=1f5ede78-5a10-4766-b4bb-f9ce5bb57107","ios":"levelo://app?vid=1f5ede78-5a10-4766-b4bb-f9ce5bb57107"},"vehicle_type_id":"4","last_reported":1744218564,"current_range_meters":3200,"station_id":"ce4bhp92rcd13ifvqhcg","pricing_plan_id":"cebpf4jnsgd1na2vs0mg"},{"bike_id":"b2ae824a-2c26-4612-ac68-0d6c88870b7f","system_id":"levelo_inurba_marseille","lat":43.291649,"lon":5.371363,"is_reserved":false,"is_disabled":false,"rental_uris":{"android":"levelo://app?vid=b2ae824a-2c26-4612-ac68-0d6c88870b7f","ios":"levelo://app?vid=b2ae824a-2c26-4612-ac68-0d6c88870b7f"},"vehicle_type_id":"4","last_reported":1744218564,"current_range_meters":3200,"station_id":"ce4bha92rcd13ifvqeh0","pricing_plan_id":"cebpf4jnsgd1na2vs0mg"},{"bike_id":"a5893a1f-7c9d-4af5-acab-6328a27154af","system_id":"levelo_inurba_marseille","lat":43.292785,"lon":5.408999,"is_reserved":false,"is_disabled":true,"rental_uris":{"android":"levelo://app?vid=a5893a1f-7c9d-4af5-acab-6328a27154af","ios":"levelo://app?vid=a5893a1f-7c9d-4af5-acab-6328a27154af"},"vehicle_type_id":"4","last_reported":1744218564,"current_range_meters":3600,"station_id":"","pricing_plan_id":"cebpf4jnsgd1na2vs0mg"},{"bike_id":"3f31f207-3522-4657-a794-551127701951","system_id":"levelo_inurba_marseille","lat":43.27946,"lon":5.41049,"is_reserved":false,"is_disabled":true,"rental_uris":{"android":"levelo://app?vid=3f31f207-3522-4657-a794-551127701951","ios":"levelo://app?vid=3f31f207-3522-4657-a794-551127701951"},"vehicle_type_id":"4","last_reported":1744218564,"current_range_meters":4000,"station_id":"ce4bhnp2rcd13ifvqh0g","pricing_plan_id":"cebpf4jnsgd1na2vs0mg"},{"bike_id":"b513c763-e65b-4733-9664-ce5daf682a37","system_id":"levelo_inurba_marseille","lat":43.26568,"lon":5.39009,"is_reserved":false,"is_disabled":false,"rental_uris":{"android":"levelo://app?vid=b513c763-e65b-4733-9664-ce5daf682a37","ios":"levelo://app?vid=b513c763-e65b-4733-9664-ce5daf682a37"},"vehicle_type_id":"4","last_reported":1744218564,"current_range_meters":4000,"station_id":"ce4bhe12rcd13ifvqf30","pricing_plan_id":"cebpf4jnsgd1na2vs0mg"},{"bike_id":"61faeab7-d3b1-42ea-8185-a6bb834269b2","system_id":"levelo_inurba_marseille","lat":43.27137,"lon":5.41472,"is_reserved":false,"is_disabled":false,"rental_uris":{"android":"levelo://app?vid=61faeab7-d3b1-42ea-8185-a6bb834269b2","ios":"levelo://app?vid=61faeab7-d3b1-42ea-8185-a6bb834269b2"},"vehicle_type_id":"4","last_reported":1744218564,"current_range_meters":4000,"station_id":"","pricing_plan_id":"cebpf4jnsgd1na2vs0mg"},{"bike_id":"d75584c8-81a3-4ccb-8c54-71def74a1472","system_id":"levelo_inurba_marseille","lat":43.29259,"lon":5.38441,"is_reserved":false,"is_disabled":false,"rental_uris":{"android":"levelo://app?vid=d75584c8-81a3-4ccb-8c54-71def74a1472","ios":"levelo://app?vid=d75584c8-81a3-4ccb-8c54-71def74a1472"},"vehicle_type_id":"4","last_reported":1744218564,"current_range_meters":4000,"station_id":"ce4bh692rcd13ifvqea0","pricing_plan_id":"cebpf4jnsgd1na2vs0mg"},{"bike_id":"861f6333-f132-4d25-b571-e334324e1bcc","system_id":"levelo_inurba_marseille","lat":43.29533,"lon":5.37505,"is_reserved":false,"is_disabled":false,"rental_uris":{"android":"levelo://app?vid=861f6333-f132-4d25-b571-e334324e1bcc","ios":"levelo://app?vid=861f6333-f132-4d25-b571-e334324e1bcc"},"vehicle_type_id":"4","last_reported":1744218564,"current_range_meters":3600,"station_id":"ce4bgkp2rcd13ifvqbmg","pricing_plan_id":"cebpf4jnsgd1na2vs0mg"},{"bike_id":"31527c86-d2e7-45bb-8c47-494382b5150c","system_id":"levelo_inurba_marseille","lat":43.28463,"lon":5.35884,"is_reserved":false,"is_disabled":false,"rental_uris":{"android":"levelo://app?vid=31527c86-d2e7-45bb-8c47-494382b5150c","ios":"levelo://app?vid=31527c86-d2e7-45bb-8c47-494382b5150c"},"vehicle_type_id":"4","last_reported":1744218564,"current_range_meters":4400,"station_id":"ce4bhah2rcd13ifvqei0","pricing_plan_id":"cebpf4jnsgd1na2vs0mg"},{"bike_id":"a0a9cc52-988f-4ecb-9ecd-da2e8c5726a3","system_id":"levelo_inurba_marseille","lat":43.26786,"lon":5.3941,"is_reserved":false,"is_disabled":false,"rental_uris":{"android":"levelo://app?vid=a0a9cc52-988f-4ecb-9ecd-da2e8c5726a3","ios":"levelo://app?vid=a0a9cc52-988f-4ecb-9ecd-da2e8c5726a3"},"vehicle_type_id":"4","last_reported":1744218564,"current_range_meters":4400,"station_id":"ce4bhh12rcd13ifvqfg0","pricing_plan_id":"cebpf4jnsgd1na2vs0mg"},{"bike_id":"7b49194b-68fb-4bbf-9144-a5b2b48af93b","system_id":"levelo_inurba_marseille","lat":43.25113,"lon":5.40318,"is_reserved":false,"is_disabled":false,"rental_uris":{"android":"levelo://app?vid=7b49194b-68fb-4bbf-9144-a5b2b48af93b","ios":"levelo://app?vid=7b49194b-68fb-4bbf-9144-a5b2b48af93b"},"vehicle_type_id":"4","last_reported":1744218564,"current_range_meters":4000,"station_id":"ce4bhlh2rcd13ifvqgig","pricing_plan_id":"cebpf4jnsgd1na2vs0mg"},{"bike_id":"93fe341c-8e7d-4680-8830-e81afd13ca8a","system_id":"levelo_inurba_marseille","lat":43.288494,"lon":5.393221,"is_reserved":false,"is_disabled":false,"rental_uris":{"android":"levelo://app?vid=93fe341c-8e7d-4680-8830-e81afd13ca8a","ios":"levelo://app?vid=93fe341c-8e7d-4680-8830-e81afd13ca8a"},"vehicle_type_id":"4","last_reported":1744218564,"current_range_meters":4400,"station_id":"ce4bhnp2rcd13ifvqgvg","pricing_plan_id":"cebpf4jnsgd1na2vs0mg"},{"bike_id":"5939dcb0-5fd0-4d33-88ee-976b01befdbb","system_id":"levelo_inurba_marseille","lat":43.28459,"lon":5.39166,"is_reserved":false,"is_disabled":false,"rental_uris":{"android":"levelo://app?vid=5939dcb0-5fd0-4d33-88ee-976b01befdbb","ios":"levelo://app?vid=5939dcb0-5fd0-4d33-88ee-976b01befdbb"},"vehicle_type_id":"4","last_reported":1744218564,"current_range_meters":4800,"station_id":"ce4bhoh2rcd13ifvqh5g","pricing_plan_id":"cebpf4jnsgd1na2vs0mg"},{"bike_id":"cf59c43d-00e1-4fc5-a6ca-92ed27bc0603","system_id":"levelo_inurba_marseille","lat":43.29576,"lon":5.37519,"is_reserved":false,"is_disabled":false,"rental_uris":{"android":"levelo://app?vid=cf59c43d-00e1-4fc5-a6ca-92ed27bc0603","ios":"levelo://app?vid=cf59c43d-00e1-4fc5-a6ca-92ed27bc0603"},"vehicle_type_id":"4","last_reported":1744218564,"current_range_meters":4800,"station_id":"ce4bgh92rcd13ifvqb50","pricing_plan_id":"cebpf4jnsgd1na2vs0mg"},{"bike_id":"08f11e8a-a42c-4f86-b379-89492502bd21","system_id":"levelo_inurba_marseille","lat":43.29409,"lon":5.38633,"is_reserved":false,"is_disabled":false,"rental_uris":{"android":"levelo://app?vid=08f11e8a-a42c-4f86-b379-89492502bd21","ios":"levelo://app?vid=08f11e8a-a42c-4f86-b379-89492502bd21"},"vehicle_type_id":"4","last_reported":1744218564,"current_range_meters":4800,"station_id":"ce4bh2h2rcd13ifvqdh0","pricing_plan_id":"cebpf4jnsgd1na2vs0mg"},{"bike_id":"488970c7-ad85-4166-a4ad-456252c5bcc5","system_id":"levelo_inurba_marseille","lat":43.2744,"lon":5.41246,"is_reserved":false,"is_disabled":false,"rental_uris":{"android":"levelo://app?vid=488970c7-ad85-4166-a4ad-456252c5bcc5","ios":"levelo://app?vid=488970c7-ad85-4166-a4ad-456252c5bcc5"},"vehicle_type_id":"4","last_reported":1744218564,"current_range_meters":4800,"station_id":"","pricing_plan_id":"cebpf4jnsgd1na2vs0mg"},{"bike_id":"7ac0a7e6-9a41-4b63-b80a-b7441e6edad8","system_id":"levelo_inurba_marseille","lat":43.28726,"lon":5.37937,"is_reserved":false,"is_disabled":false,"rental_uris":{"android":"levelo://app?vid=7ac0a7e6-9a41-4b63-b80a-b7441e6edad8","ios":"levelo://app?vid=7ac0a7e6-9a41-4b63-b80a-b7441e6edad8"},"vehicle_type_id":"4","last_reported":1744218564,"current_range_meters":5600,"station_id":"ce4bh9p2rcd13ifvqec0","pricing_plan_id":"cebpf4jnsgd1na2vs0mg"},{"bike_id":"ea9cb942-3e82-4bc1-b0b4-54cd752e8272","system_id":"levelo_inurba_marseille","lat":43.27206,"lon":5.39186,"is_reserved":false,"is_disabled":false,"rental_uris":{"android":"levelo://app?vid=ea9cb942-3e82-4bc1-b0b4-54cd752e8272","ios":"levelo://app?vid=ea9cb942-3e82-4bc1-b0b4-54cd752e8272"},"vehicle_type_id":"4","last_reported":1744218564,"current_range_meters":5600,"station_id":"ce4bhhp2rcd13ifvqfm0","pricing_plan_id":"cebpf4jnsgd1na2vs0mg"},{"bike_id":"a7cb23c5-e61f-4868-a268-15ace503e5fa","system_id":"levelo_inurba_marseille","lat":43.29243,"lon":5.38443,"is_reserved":false,"is_disabled":false,"rental_uris":{"android":"levelo://app?vid=a7cb23c5-e61f-4868-a268-15ace503e5fa","ios":"levelo://app?vid=a7cb23c5-e61f-4868-a268-15ace503e5fa"},"vehicle_type_id":"4","last_reported":1744218564,"current_range_meters":6000,"station_id":"ce4bh692rcd13ifvqea0","pricing_plan_id":"cebpf4jnsgd1na2vs0mg"},{"bike_id":"ec41b842-c84f-4ab1-894c-fc6101e00efb","system_id":"levelo_inurba_marseille","lat":43.31716,"lon":5.40287,"is_reserved":false,"is_disabled":false,"rental_uris":{"android":"levelo://app?vid=ec41b842-c84f-4ab1-894c-fc6101e00efb","ios":"levelo://app?vid=ec41b842-c84f-4ab1-894c-fc6101e00efb"},"vehicle_type_id":"4","last_reported":1744218564,"current_range_meters":6000,"station_id":"","pricing_plan_id":"cebpf4jnsgd1na2vs0mg"},{"bike_id":"ca012479-a626-4aef-a88a-80afa90ae731","system_id":"levelo_inurba_marseille","lat":43.23964,"lon":5.36632,"is_reserved":false,"is_disabled":false,"rental_uris":{"android":"levelo://app?vid=ca012479-a626-4aef-a88a-80afa90ae731","ios":"levelo://app?vid=ca012479-a626-4aef-a88a-80afa90ae731"},"vehicle_type_id":"4","last_reported":1744218564,"current_range_meters":6000,"station_id":"ce4bhi12rcd13ifvqfp0","pricing_plan_id":"cebpf4jnsgd1na2vs0mg"},{"bike_id":"313052b9-df49-4511-9af3-c4d584430438","system_id":"levelo_inurba_marseille","lat":43.29631,"lon":5.40599,"is_reserved":false,"is_disabled":false,"rental_uris":{"android":"levelo://app?vid=313052b9-df49-4511-9af3-c4d584430438","ios":"levelo://app?vid=313052b9-df49-4511-9af3-c4d584430438"},"vehicle_type_id":"4","last_reported":1744218564,"current_range_meters":6400,"station_id":"ce4bh0h2rcd13ifvqd60","pricing_plan_id":"cebpf4jnsgd1na2vs0mg"},{"bike_id":"70c0a789-2b32-4eb9-a364-011ff72e0ce0","system_id":"levelo_inurba_marseille","lat":43.292,"lon":5.39315,"is_reserved":false,"is_disabled":false,"rental_uris":{"android":"levelo://app?vid=70c0a789-2b32-4eb9-a364-011ff72e0ce0","ios":"levelo://app?vid=70c0a789-2b32-4eb9-a364-011ff72e0ce0"},"vehicle_type_id":"4","last_reported":1744218564,"current_range_meters":6400,"station_id":"ce4bh192rcd13ifvqdd0","pricing_plan_id":"cebpf4jnsgd1na2vs0mg"},{"bike_id":"dd6aac91-0da3-4b93-80b1-0fb1aeec4f50","system_id":"levelo_inurba_marseille","lat":43.28688,"lon":5.38655,"is_reserved":false,"is_disabled":false,"rental_uris":{"android":"levelo://app?vid=dd6aac91-0da3-4b93-80b1-0fb1aeec4f50","ios":"levelo://app?vid=dd6aac91-0da3-4b93-80b1-0fb1aeec4f50"},"vehicle_type_id":"4","last_reported":1744218564,"current_range_meters":6400,"station_id":"ce4bh492rcd13ifvqdug","pricing_plan_id":"cebpf4jnsgd1na2vs0mg"},{"bike_id":"87a20805-8708-467a-bdcb-f1c24997fced","system_id":"levelo_inurba_marseille","lat":43.23967,"lon":5.36634,"is_reserved":false,"is_disabled":false,"rental_uris":{"android":"levelo://app?vid=87a20805-8708-467a-bdcb-f1c24997fced","ios":"levelo://app?vid=87a20805-8708-467a-bdcb-f1c24997fced"},"vehicle_type_id":"4","last_reported":1744218564,"current_range_meters":6400,"station_id":"ce4bhi12rcd13ifvqfp0","pricing_plan_id":"cebpf4jnsgd1na2vs0mg"},{"bike_id":"fcf1f2f3-5533-4ea3-be58-d4acaf0b4741","system_id":"levelo_inurba_marseille","lat":43.24804,"lon":5.37449,"is_reserved":false,"is_disabled":false,"rental_uris":{"android":"levelo://app?vid=fcf1f2f3-5533-4ea3-be58-d4acaf0b4741","ios":"levelo://app?vid=fcf1f2f3-5533-4ea3-be58-d4acaf0b4741"},"vehicle_type_id":"4","last_reported":1744218564,"current_range_meters":6400,"station_id":"ce4bhgh2rcd13ifvqfb0","pricing_plan_id":"cebpf4jnsgd1na2vs0mg"},{"bike_id":"d84b6520-83df-4f74-9787-1bb4819f1504","system_id":"levelo_inurba_marseille","lat":43.26575,"lon":5.38999,"is_reserved":false,"is_disabled":false,"rental_uris":{"android":"levelo://app?vid=d84b6520-83df-4f74-9787-1bb4819f1504","ios":"levelo://app?vid=d84b6520-83df-4f74-9787-1bb4819f1504"},"vehicle_type_id":"4","last_reported":1744218564,"current_range_meters":6400,"station_id":"ce4bhe12rcd13ifvqf30","pricing_plan_id":"cebpf4jnsgd1na2vs0mg"},{"bike_id":"70810d3e-9936-4863-b211-84f880613e88","system_id":"levelo_inurba_marseille","lat":43.31293,"lon":5.37308,"is_reserved":false,"is_disabled":false,"rental_uris":{"android":"levelo://app?vid=70810d3e-9936-4863-b211-84f880613e88","ios":"levelo://app?vid=70810d3e-9936-4863-b211-84f880613e88"},"vehicle_type_id":"4","last_reported":1744218564,"current_range_meters":6400,"station_id":"","pricing_plan_id":"cebpf4jnsgd1na2vs0mg"},{"bike_id":"17506c8f-6136-4cb8-9e2b-a21454128d39","system_id":"levelo_inurba_marseille","lat":43.32485,"lon":5.36564,"is_reserved":false,"is_disabled":false,"rental_uris":{"android":"levelo://app?vid=17506c8f-6136-4cb8-9e2b-a21454128d39","ios":"levelo://app?vid=17506c8f-6136-4cb8-9e2b-a21454128d39"},"vehicle_type_id":"4","last_reported":1744218564,"current_range_meters":6400,"station_id":"ce4bhs12rcd13ifvqhvg","pricing_plan_id":"cebpf4jnsgd1na2vs0mg"},{"bike_id":"45324981-c2f9-4f46-a1d2-1239f7bcced9","system_id":"levelo_inurba_marseille","lat":43.21747,"lon":5.34584,"is_reserved":false,"is_disabled":false,"rental_uris":{"android":"levelo://app?vid=45324981-c2f9-4f46-a1d2-1239f7bcced9","ios":"levelo://app?vid=45324981-c2f9-4f46-a1d2-1239f7bcced9"},"vehicle_type_id":"4","last_reported":1744218564,"current_range_meters":6400,"station_id":"st_cvj6r9ubvosntc0bgbag","pricing_plan_id":"cebpf4jnsgd1na2vs0mg"},{"bike_id":"6806d000-65f7-4912-97c7-24bf8c24ae8f","system_id":"levelo_inurba_marseille","lat":43.31147,"lon":5.38426,"is_reserved":false,"is_disabled":false,"rental_uris":{"android":"levelo://app?vid=6806d000-65f7-4912-97c7-24bf8c24ae8f","ios":"levelo://app?vid=6806d000-65f7-4912-97c7-24bf8c24ae8f"},"vehicle_type_id":"4","last_reported":1744218564,"current_range_meters":6400,"station_id":"","pricing_plan_id":"cebpf4jnsgd1na2vs0mg"},{"bike_id":"fd086482-0c06-480a-8515-a67e54bc4388","system_id":"levelo_inurba_marseille","lat":43.31166,"lon":5.3873,"is_reserved":false,"is_disabled":false,"rental_uris":{"android":"levelo://app?vid=fd086482-0c06-480a-8515-a67e54bc4388","ios":"levelo://app?vid=fd086482-0c06-480a-8515-a67e54bc4388"},"vehicle_type_id":"4","last_reported":1744218564,"current_range_meters":6400,"station_id":"ce4bgv12rcd13ifvqcp0","pricing_plan_id":"cebpf4jnsgd1na2vs0mg"},{"bike_id":"54b7f256-741a-4f90-b90e-3ec585024337","system_id":"levelo_inurba_marseille","lat":43.29266,"lon":5.38433,"is_reserved":false,"is_disabled":false,"rental_uris":{"android":"levelo://app?vid=54b7f256-741a-4f90-b90e-3ec585024337","ios":"levelo://app?vid=54b7f256-741a-4f90-b90e-3ec585024337"},"vehicle_type_id":"4","last_reported":1744218564,"current_range_meters":6400,"station_id":"ce4bh692rcd13ifvqea0","pricing_plan_id":"cebpf4jnsgd1na2vs0mg"},{"bike_id":"3bfd792d-8024-4b3d-8c0a-4428de874fa2","system_id":"levelo_inurba_marseille","lat":43.32004,"lon":5.38573,"is_reserved":false,"is_disabled":false,"rental_uris":{"android":"levelo://app?vid=3bfd792d-8024-4b3d-8c0a-4428de874fa2","ios":"levelo://app?vid=3bfd792d-8024-4b3d-8c0a-4428de874fa2"},"vehicle_type_id":"4","last_reported":1744218564,"current_range_meters":6800,"station_id":"","pricing_plan_id":"cebpf4jnsgd1na2vs0mg"},{"bike_id":"3d0cae43-5b75-4aac-b7cb-471ce1151dd5","system_id":"levelo_inurba_marseille","lat":43.3304,"lon":5.39538,"is_reserved":false,"is_disabled":false,"rental_uris":{"android":"levelo://app?vid=3d0cae43-5b75-4aac-b7cb-471ce1151dd5","ios":"levelo://app?vid=3d0cae43-5b75-4aac-b7cb-471ce1151dd5"},"vehicle_type_id":"4","last_reported":1744218564,"current_range_meters":6800,"station_id":"","pricing_plan_id":"cebpf4jnsgd1na2vs0mg"},{"bike_id":"6c538639-448d-465a-a848-776d41bd7934","system_id":"levelo_inurba_marseille","lat":43.296557,"lon":5.404677,"is_reserved":false,"is_disabled":false,"rental_uris":{"android":"levelo://app?vid=6c538639-448d-465a-a848-776d41bd7934","ios":"levelo://app?vid=6c538639-448d-465a-a848-776d41bd7934"},"vehicle_type_id":"4","last_reported":1744218564,"current_range_meters":6800,"station_id":"ce4bgkp2rcd13ifvqbmg","pricing_plan_id":"cebpf4jnsgd1na2vs0mg"},{"bike_id":"5e6ad826-38da-4531-b4ba-2eda8622ede3","system_id":"levelo_inurba_marseille","lat":43.31107,"lon":5.40467,"is_reserved":false,"is_disabled":false,"rental_uris":{"android":"levelo://app?vid=5e6ad826-38da-4531-b4ba-2eda8622ede3","ios":"levelo://app?vid=5e6ad826-38da-4531-b4ba-2eda8622ede3"},"vehicle_type_id":"4","last_reported":1744218564,"current_range_meters":6800,"station_id":"","pricing_plan_id":"cebpf4jnsgd1na2vs0mg"},{"bike_id":"25091db6-7cbc-4d6a-a8ad-6d6900c5c5e6","system_id":"levelo_inurba_marseille","lat":43.28171,"lon":5.42632,"is_reserved":false,"is_disabled":false,"rental_uris":{"android":"levelo://app?vid=25091db6-7cbc-4d6a-a8ad-6d6900c5c5e6","ios":"levelo://app?vid=25091db6-7cbc-4d6a-a8ad-6d6900c5c5e6"},"vehicle_type_id":"4","last_reported":1744218564,"current_range_meters":6800,"station_id":"ce4bhnh2rcd13ifvqgug","pricing_plan_id":"cebpf4jnsgd1na2vs0mg"},{"bike_id":"29374ad3-c750-42ae-bd2c-4ec6e77d1bf4","system_id":"levelo_inurba_marseille","lat":43.27999,"lon":5.41665,"is_reserved":false,"is_disabled":false,"rental_uris":{"android":"levelo://app?vid=29374ad3-c750-42ae-bd2c-4ec6e77d1bf4","ios":"levelo://app?vid=29374ad3-c750-42ae-bd2c-4ec6e77d1bf4"},"vehicle_type_id":"4","last_reported":1744218564,"current_range_meters":7200,"station_id":"ce4bho12rcd13ifvqh1g","pricing_plan_id":"cebpf4jnsgd1na2vs0mg"},{"bike_id":"1ba4aafd-b6e3-4492-a7fe-8aa7a4a49ed2","system_id":"levelo_inurba_marseille","lat":43.29033,"lon":5.35913,"is_reserved":false,"is_disabled":false,"rental_uris":{"android":"levelo://app?vid=1ba4aafd-b6e3-4492-a7fe-8aa7a4a49ed2","ios":"levelo://app?vid=1ba4aafd-b6e3-4492-a7fe-8aa7a4a49ed2"},"vehicle_type_id":"4","last_reported":1744218564,"current_range_meters":7200,"station_id":"ce4bha92rcd13ifvqeg0","pricing_plan_id":"cebpf4jnsgd1na2vs0mg"},{"bike_id":"68d1cc33-0218-451e-8e10-d32225c21263","system_id":"levelo_inurba_marseille","lat":43.2316,"lon":5.4371,"is_reserved":false,"is_disabled":true,"rental_uris":{"android":"levelo://app?vid=68d1cc33-0218-451e-8e10-d32225c21263","ios":"levelo://app?vid=68d1cc33-0218-451e-8e10-d32225c21263"},"vehicle_type_id":"4","last_reported":1744218564,"current_range_meters":7200,"station_id":"ce4bhmp2rcd13ifvqgog","pricing_plan_id":"cebpf4jnsgd1na2vs0mg"},{"bike_id":"b2738bd6-58ca-4062-b321-d46ebd85171c","system_id":"levelo_inurba_marseille","lat":43.27423,"lon":5.39416,"is_reserved":false,"is_disabled":false,"rental_uris":{"android":"levelo://app?vid=b2738bd6-58ca-4062-b321-d46ebd85171c","ios":"levelo://app?vid=b2738bd6-58ca-4062-b321-d46ebd85171c"},"vehicle_type_id":"4","last_reported":1744218564,"current_range_meters":7200,"station_id":"ce4bhdp2rcd13ifvqf20","pricing_plan_id":"cebpf4jnsgd1na2vs0mg"},{"bike_id":"a05f0e6f-e8f1-4a0a-a2d7-a93b6a2aaa26","system_id":"levelo_inurba_marseille","lat":43.29262,"lon":5.38439,"is_reserved":false,"is_disabled":false,"rental_uris":{"android":"levelo://app?vid=a05f0e6f-e8f1-4a0a-a2d7-a93b6a2aaa26","ios":"levelo://app?vid=a05f0e6f-e8f1-4a0a-a2d7-a93b6a2aaa26"},"vehicle_type_id":"4","last_reported":1744218564,"current_range_meters":7200,"station_id":"ce4bh692rcd13ifvqea0","pricing_plan_id":"cebpf4jnsgd1na2vs0mg"},{"bike_id":"794f8372-c137-464b-a859-e933ddc5f5b4","system_id":"levelo_inurba_marseille","lat":43.2794,"lon":5.41048,"is_reserved":false,"is_disabled":false,"rental_uris":{"android":"levelo://app?vid=794f8372-c137-464b-a859-e933ddc5f5b4","ios":"levelo://app?vid=794f8372-c137-464b-a859-e933ddc5f5b4"},"vehicle_type_id":"4","last_reported":1744218564,"current_range_meters":7200,"station_id":"ce4bhnp2rcd13ifvqh0g","pricing_plan_id":"cebpf4jnsgd1na2vs0mg"},{"bike_id":"b6c46f27-93a5-481b-87cb-c794d787f27c","system_id":"levelo_inurba_marseille","lat":43.2679,"lon":5.39417,"is_reserved":false,"is_disabled":false,"rental_uris":{"android":"levelo://app?vid=b6c46f27-93a5-481b-87cb-c794d787f27c","ios":"levelo://app?vid=b6c46f27-93a5-481b-87cb-c794d787f27c"},"vehicle_type_id":"4","last_reported":1744218564,"current_range_meters":7200,"station_id":"ce4bhh12rcd13ifvqfg0","pricing_plan_id":"cebpf4jnsgd1na2vs0mg"},{"bike_id":"6d4b2d14-ba5c-4010-884d-049f9710b0eb","system_id":"levelo_inurba_marseille","lat":43.27912,"lon":5.38011,"is_reserved":false,"is_disabled":false,"rental_uris":{"android":"levelo://app?vid=6d4b2d14-ba5c-4010-884d-049f9710b0eb","ios":"levelo://app?vid=6d4b2d14-ba5c-4010-884d-049f9710b0eb"},"vehicle_type_id":"4","last_reported":1744218564,"current_range_meters":7200,"station_id":"ce4bhf92rcd13ifvqf50","pricing_plan_id":"cebpf4jnsgd1na2vs0mg"},{"bike_id":"1e330338-c899-41c8-9397-06da2fe98570","system_id":"levelo_inurba_marseille","lat":43.28945,"lon":5.39635,"is_reserved":false,"is_disabled":false,"rental_uris":{"android":"levelo://app?vid=1e330338-c899-41c8-9397-06da2fe98570","ios":"levelo://app?vid=1e330338-c899-41c8-9397-06da2fe98570"},"vehicle_type_id":"4","last_reported":1744218564,"current_range_meters":8000,"station_id":"ce4bh3h2rcd13ifvqdn0","pricing_plan_id":"cebpf4jnsgd1na2vs0mg"},{"bike_id":"5dca8226-8c41-4c36-9bb7-6898bac28605","system_id":"levelo_inurba_marseille","lat":43.27377,"lon":5.36249,"is_reserved":false,"is_disabled":false,"rental_uris":{"android":"levelo://app?vid=5dca8226-8c41-4c36-9bb7-6898bac28605","ios":"levelo://app?vid=5dca8226-8c41-4c36-9bb7-6898bac28605"},"vehicle_type_id":"4","last_reported":1744218564,"current_range_meters":8000,"station_id":"ce4bhbh2rcd13ifvqeo0","pricing_plan_id":"cebpf4jnsgd1na2vs0mg"},{"bike_id":"951a075f-4063-499f-95ef-2ec50db6526c","system_id":"levelo_inurba_marseille","lat":43.22925,"lon":5.35404,"is_reserved":false,"is_disabled":false,"rental_uris":{"android":"levelo://app?vid=951a075f-4063-499f-95ef-2ec50db6526c","ios":"levelo://app?vid=951a075f-4063-499f-95ef-2ec50db6526c"},"vehicle_type_id":"4","last_reported":1744218564,"current_range_meters":8000,"station_id":"cpo3532slgdg3j2ikp40","pricing_plan_id":"cebpf4jnsgd1na2vs0mg"},{"bike_id":"78441610-129e-4c39-b251-5947c2cb206d","system_id":"levelo_inurba_marseille","lat":43.23962,"lon":5.36658,"is_reserved":false,"is_disabled":false,"rental_uris":{"android":"levelo://app?vid=78441610-129e-4c39-b251-5947c2cb206d","ios":"levelo://app?vid=78441610-129e-4c39-b251-5947c2cb206d"},"vehicle_type_id":"4","last_reported":1744218564,"current_range_meters":8000,"station_id":"ce4bhi12rcd13ifvqfp0","pricing_plan_id":"cebpf4jnsgd1na2vs0mg"},{"bike_id":"70ae756b-9511-45d1-9395-a1448d36ce61","system_id":"levelo_inurba_marseille","lat":43.28073,"lon":5.39665,"is_reserved":false,"is_disabled":false,"rental_uris":{"android":"levelo://app?vid=70ae756b-9511-45d1-9395-a1448d36ce61","ios":"levelo://app?vid=70ae756b-9511-45d1-9395-a1448d36ce61"},"vehicle_type_id":"4","last_reported":1744218564,"current_range_meters":8000,"station_id":"ce4bho12rcd13ifvqh2g","pricing_plan_id":"cebpf4jnsgd1na2vs0mg"},{"bike_id":"a7d9e2b2-12a8-418d-a519-9487fbbb53d4","system_id":"levelo_inurba_marseille","lat":43.31117,"lon":5.37779,"is_reserved":false,"is_disabled":false,"rental_uris":{"android":"levelo://app?vid=a7d9e2b2-12a8-418d-a519-9487fbbb53d4","ios":"levelo://app?vid=a7d9e2b2-12a8-418d-a519-9487fbbb53d4"},"vehicle_type_id":"4","last_reported":1744218564,"current_range_meters":8000,"station_id":"ce4bgt92rcd13ifvqcg0","pricing_plan_id":"cebpf4jnsgd1na2vs0mg"},{"bike_id":"401bad0d-06f1-4973-b01d-88d3956789fc","system_id":"levelo_inurba_marseille","lat":43.28269,"lon":5.35063,"is_reserved":false,"is_disabled":false,"rental_uris":{"android":"levelo://app?vid=401bad0d-06f1-4973-b01d-88d3956789fc","ios":"levelo://app?vid=401bad0d-06f1-4973-b01d-88d3956789fc"},"vehicle_type_id":"4","last_reported":1744218564,"current_range_meters":8000,"station_id":"ce4bhbp2rcd13ifvqerg","pricing_plan_id":"cebpf4jnsgd1na2vs0mg"},{"bike_id":"6d7969e2-8d1d-43e4-b0fc-b51a96bff5bd","system_id":"levelo_inurba_marseille","lat":43.3258,"lon":5.38376,"is_reserved":false,"is_disabled":false,"rental_uris":{"android":"levelo://app?vid=6d7969e2-8d1d-43e4-b0fc-b51a96bff5bd","ios":"levelo://app?vid=6d7969e2-8d1d-43e4-b0fc-b51a96bff5bd"},"vehicle_type_id":"4","last_reported":1744218564,"current_range_meters":8000,"station_id":"","pricing_plan_id":"cebpf4jnsgd1na2vs0mg"},{"bike_id":"ee3e25c7-88f7-4a55-a758-47a1987fed8e","system_id":"levelo_inurba_marseille","lat":43.2904,"lon":5.39974,"is_reserved":false,"is_disabled":false,"rental_uris":{"android":"levelo://app?vid=ee3e25c7-88f7-4a55-a758-47a1987fed8e","ios":"levelo://app?vid=ee3e25c7-88f7-4a55-a758-47a1987fed8e"},"vehicle_type_id":"4","last_reported":1744218564,"current_range_meters":8000,"station_id":"ce4bh392rcd13ifvqdm0","pricing_plan_id":"cebpf4jnsgd1na2vs0mg"},{"bike_id":"55615e15-42fd-4058-9387-68e483c29361","system_id":"levelo_inurba_marseille","lat":43.30538,"lon":5.38442,"is_reserved":false,"is_disabled":false,"rental_uris":{"android":"levelo://app?vid=55615e15-42fd-4058-9387-68e483c29361","ios":"levelo://app?vid=55615e15-42fd-4058-9387-68e483c29361"},"vehicle_type_id":"4","last_reported":1744218564,"current_range_meters":8000,"station_id":"ce4bgg92rcd13ifvqb30","pricing_plan_id":"cebpf4jnsgd1na2vs0mg"},{"bike_id":"36a8f5d6-6a52-40a8-855b-0be14c9563b1","system_id":"levelo_inurba_marseille","lat":43.31121,"lon":5.37777,"is_reserved":false,"is_disabled":false,"rental_uris":{"android":"levelo://app?vid=36a8f5d6-6a52-40a8-855b-0be14c9563b1","ios":"levelo://app?vid=36a8f5d6-6a52-40a8-855b-0be14c9563b1"},"vehicle_type_id":"4","last_reported":1744218564,"current_range_meters":8000,"station_id":"ce4bgt92rcd13ifvqcg0","pricing_plan_id":"cebpf4jnsgd1na2vs0mg"},{"bike_id":"1a988c0d-ca4b-4823-b294-348542a1a416","system_id":"levelo_inurba_marseille","lat":43.29532,"lon":5.39392,"is_reserved":false,"is_disabled":false,"rental_uris":{"android":"levelo://app?vid=1a988c0d-ca4b-4823-b294-348542a1a416","ios":"levelo://app?vid=1a988c0d-ca4b-4823-b294-348542a1a416"},"vehicle_type_id":"4","last_reported":1744218564,"current_range_meters":8000,"station_id":"ce4bh292rcd13ifvqdf0","pricing_plan_id":"cebpf4jnsgd1na2vs0mg"},{"bike_id":"f1404126-a8b6-4901-8096-956bfe36c4f9","system_id":"levelo_inurba_marseille","lat":43.29266,"lon":5.38436,"is_reserved":false,"is_disabled":false,"rental_uris":{"android":"levelo://app?vid=f1404126-a8b6-4901-8096-956bfe36c4f9","ios":"levelo://app?vid=f1404126-a8b6-4901-8096-956bfe36c4f9"},"vehicle_type_id":"4","last_reported":1744218564,"current_range_meters":8400,"station_id":"ce4bh692rcd13ifvqea0","pricing_plan_id":"cebpf4jnsgd1na2vs0mg"},{"bike_id":"ec8471b8-2fed-4ff5-aaab-2326ac6dff64","system_id":"levelo_inurba_marseille","lat":43.29596,"lon":5.381,"is_reserved":false,"is_disabled":false,"rental_uris":{"android":"levelo://app?vid=ec8471b8-2fed-4ff5-aaab-2326ac6dff64","ios":"levelo://app?vid=ec8471b8-2fed-4ff5-aaab-2326ac6dff64"},"vehicle_type_id":"4","last_reported":1744218564,"current_range_meters":8400,"station_id":"ce4bgl12rcd13ifvqbo0","pricing_plan_id":"cebpf4jnsgd1na2vs0mg"},{"bike_id":"828749ef-ea53-4e04-8db8-6971812ec390","system_id":"levelo_inurba_marseille","lat":43.29298,"lon":5.37471,"is_reserved":false,"is_disabled":false,"rental_uris":{"android":"levelo://app?vid=828749ef-ea53-4e04-8db8-6971812ec390","ios":"levelo://app?vid=828749ef-ea53-4e04-8db8-6971812ec390"},"vehicle_type_id":"4","last_reported":1744218564,"current_range_meters":8400,"station_id":"ce4bgi12rcd13ifvqb70","pricing_plan_id":"cebpf4jnsgd1na2vs0mg"},{"bike_id":"80663e12-6b64-446d-88c9-20255bde1a8a","system_id":"levelo_inurba_marseille","lat":43.30874,"lon":5.39699,"is_reserved":false,"is_disabled":true,"rental_uris":{"android":"levelo://app?vid=80663e12-6b64-446d-88c9-20255bde1a8a","ios":"levelo://app?vid=80663e12-6b64-446d-88c9-20255bde1a8a"},"vehicle_type_id":"4","last_reported":1744218564,"current_range_meters":8400,"station_id":"ce4bh012rcd13ifvqcv0","pricing_plan_id":"cebpf4jnsgd1na2vs0mg"},{"bike_id":"08f9c0c8-8b33-4578-8a03-20f44d582241","system_id":"levelo_inurba_marseille","lat":43.30579,"lon":5.37049,"is_reserved":false,"is_disabled":false,"rental_uris":{"android":"levelo://app?vid=08f9c0c8-8b33-4578-8a03-20f44d582241","ios":"levelo://app?vid=08f9c0c8-8b33-4578-8a03-20f44d582241"},"vehicle_type_id":"4","last_reported":1744218564,"current_range_meters":8400,"station_id":"","pricing_plan_id":"cebpf4jnsgd1na2vs0mg"},{"bike_id":"bef9d662-dee6-48f5-9052-a85091533dc1","system_id":"levelo_inurba_marseille","lat":43.26059,"lon":5.39405,"is_reserved":false,"is_disabled":false,"rental_uris":{"android":"levelo://app?vid=bef9d662-dee6-48f5-9052-a85091533dc1","ios":"levelo://app?vid=bef9d662-dee6-48f5-9052-a85091533dc1"},"vehicle_type_id":"4","last_reported":1744218564,"current_range_meters":8400,"station_id":"ce4bhh92rcd13ifvqfj0","pricing_plan_id":"cebpf4jnsgd1na2vs0mg"},{"bike_id":"feca3d9e-12e9-4a3a-8f8a-211aa953b3fa","system_id":"levelo_inurba_marseille","lat":43.29325,"lon":5.41153,"is_reserved":false,"is_disabled":false,"rental_uris":{"android":"levelo://app?vid=feca3d9e-12e9-4a3a-8f8a-211aa953b3fa","ios":"levelo://app?vid=feca3d9e-12e9-4a3a-8f8a-211aa953b3fa"},"vehicle_type_id":"4","last_reported":1744218564,"current_range_meters":8400,"station_id":"","pricing_plan_id":"cebpf4jnsgd1na2vs0mg"},{"bike_id":"b397701f-0d3d-44bf-ab3e-3ccc7e74fb2e","system_id":"levelo_inurba_marseille","lat":43.26447,"lon":5.42265,"is_reserved":false,"is_disabled":false,"rental_uris":{"android":"levelo://app?vid=b397701f-0d3d-44bf-ab3e-3ccc7e74fb2e","ios":"levelo://app?vid=b397701f-0d3d-44bf-ab3e-3ccc7e74fb2e"},"vehicle_type_id":"4","last_reported":1744218564,"current_range_meters":8400,"station_id":"","pricing_plan_id":"cebpf4jnsgd1na2vs0mg"},{"bike_id":"ad212075-aa88-4f52-8b77-40fff53ff563","system_id":"levelo_inurba_marseille","lat":43.30385,"lon":5.42499,"is_reserved":false,"is_disabled":false,"rental_uris":{"android":"levelo://app?vid=ad212075-aa88-4f52-8b77-40fff53ff563","ios":"levelo://app?vid=ad212075-aa88-4f52-8b77-40fff53ff563"},"vehicle_type_id":"4","last_reported":1744218564,"current_range_meters":8400,"station_id":"ce4bhoh2rcd13ifvqh6g","pricing_plan_id":"cebpf4jnsgd1na2vs0mg"},{"bike_id":"4cec3633-5c3b-47cb-9250-05147a82c93f","system_id":"levelo_inurba_marseille","lat":43.304264,"lon":5.38893,"is_reserved":false,"is_disabled":false,"rental_uris":{"android":"levelo://app?vid=4cec3633-5c3b-47cb-9250-05147a82c93f","ios":"levelo://app?vid=4cec3633-5c3b-47cb-9250-05147a82c93f"},"vehicle_type_id":"4","last_reported":1744218564,"current_range_meters":8800,"station_id":"ce4bgt12rcd13ifvqce0","pricing_plan_id":"cebpf4jnsgd1na2vs0mg"},{"bike_id":"1adcfecd-7da9-485c-b40f-e62ffc130e51","system_id":"levelo_inurba_marseille","lat":43.21761,"lon":5.34593,"is_reserved":false,"is_disabled":false,"rental_uris":{"android":"levelo://app?vid=1adcfecd-7da9-485c-b40f-e62ffc130e51","ios":"levelo://app?vid=1adcfecd-7da9-485c-b40f-e62ffc130e51"},"vehicle_type_id":"4","last_reported":1744218564,"current_range_meters":8800,"station_id":"st_cvj6r9ubvosntc0bgbag","pricing_plan_id":"cebpf4jnsgd1na2vs0mg"},{"bike_id":"0431fb19-5491-47e7-912d-194f626a2c91","system_id":"levelo_inurba_marseille","lat":43.29424,"lon":5.38646,"is_reserved":false,"is_disabled":false,"rental_uris":{"android":"levelo://app?vid=0431fb19-5491-47e7-912d-194f626a2c91","ios":"levelo://app?vid=0431fb19-5491-47e7-912d-194f626a2c91"},"vehicle_type_id":"4","last_reported":1744218564,"current_range_meters":8800,"station_id":"ce4bh2h2rcd13ifvqdh0","pricing_plan_id":"cebpf4jnsgd1na2vs0mg"},{"bike_id":"800fd452-fbd4-4877-900a-dd5113241d49","system_id":"levelo_inurba_marseille","lat":43.29798,"lon":5.38096,"is_reserved":false,"is_disabled":false,"rental_uris":{"android":"levelo://app?vid=800fd452-fbd4-4877-900a-dd5113241d49","ios":"levelo://app?vid=800fd452-fbd4-4877-900a-dd5113241d49"},"vehicle_type_id":"4","last_reported":1744218564,"current_range_meters":8800,"station_id":"ce4bgip2rcd13ifvqbb0","pricing_plan_id":"cebpf4jnsgd1na2vs0mg"},{"bike_id":"4ce1f9c6-ca43-45f6-bad7-55d7134cb815","system_id":"levelo_inurba_marseille","lat":43.282716,"lon":5.350537,"is_reserved":false,"is_disabled":false,"rental_uris":{"android":"levelo://app?vid=4ce1f9c6-ca43-45f6-bad7-55d7134cb815","ios":"levelo://app?vid=4ce1f9c6-ca43-45f6-bad7-55d7134cb815"},"vehicle_type_id":"4","last_reported":1744218564,"current_range_meters":8800,"station_id":"ce4bhbp2rcd13ifvqerg","pricing_plan_id":"cebpf4jnsgd1na2vs0mg"},{"bike_id":"5a514589-cb88-4d0d-a176-9dcbce6008d2","system_id":"levelo_inurba_marseille","lat":43.24805,"lon":5.37454,"is_reserved":false,"is_disabled":false,"rental_uris":{"android":"levelo://app?vid=5a514589-cb88-4d0d-a176-9dcbce6008d2","ios":"levelo://app?vid=5a514589-cb88-4d0d-a176-9dcbce6008d2"},"vehicle_type_id":"4","last_reported":1744218564,"current_range_meters":8800,"station_id":"ce4bhgh2rcd13ifvqfb0","pricing_plan_id":"cebpf4jnsgd1na2vs0mg"},{"bike_id":"116f33ac-4d1a-44e5-8f1f-c3419569c7c4","system_id":"levelo_inurba_marseille","lat":43.25583,"lon":5.38234,"is_reserved":false,"is_disabled":false,"rental_uris":{"android":"levelo://app?vid=116f33ac-4d1a-44e5-8f1f-c3419569c7c4","ios":"levelo://app?vid=116f33ac-4d1a-44e5-8f1f-c3419569c7c4"},"vehicle_type_id":"4","last_reported":1744218564,"current_range_meters":8800,"station_id":"ce4bhih2rcd13ifvqfs0","pricing_plan_id":"cebpf4jnsgd1na2vs0mg"},{"bike_id":"2a8ee773-6a34-4292-aeb4-7e2d801622bb","system_id":"levelo_inurba_marseille","lat":43.276,"lon":5.36121,"is_reserved":false,"is_disabled":false,"rental_uris":{"android":"levelo://app?vid=2a8ee773-6a34-4292-aeb4-7e2d801622bb","ios":"levelo://app?vid=2a8ee773-6a34-4292-aeb4-7e2d801622bb"},"vehicle_type_id":"4","last_reported":1744218564,"current_range_meters":8800,"station_id":"ce4bgj92rcd13ifvqbe0","pricing_plan_id":"cebpf4jnsgd1na2vs0mg"},{"bike_id":"0e7051ad-00f7-4897-9995-929c1987289a","system_id":"levelo_inurba_marseille","lat":43.3305,"lon":5.39019,"is_reserved":false,"is_disabled":false,"rental_uris":{"android":"levelo://app?vid=0e7051ad-00f7-4897-9995-929c1987289a","ios":"levelo://app?vid=0e7051ad-00f7-4897-9995-929c1987289a"},"vehicle_type_id":"4","last_reported":1744218564,"current_range_meters":8800,"station_id":"ce4bhr92rcd13ifvqhrg","pricing_plan_id":"cebpf4jnsgd1na2vs0mg"},{"bike_id":"6bbeaa60-bd53-405a-9cef-1665c8c74a73","system_id":"levelo_inurba_marseille","lat":43.27942,"lon":5.41045,"is_reserved":false,"is_disabled":false,"rental_uris":{"android":"levelo://app?vid=6bbeaa60-bd53-405a-9cef-1665c8c74a73","ios":"levelo://app?vid=6bbeaa60-bd53-405a-9cef-1665c8c74a73"},"vehicle_type_id":"4","last_reported":1744218564,"current_range_meters":9200,"station_id":"ce4bhnp2rcd13ifvqh0g","pricing_plan_id":"cebpf4jnsgd1na2vs0mg"},{"bike_id":"1edab1b3-58b6-4885-8608-6066fb810ed7","system_id":"levelo_inurba_marseille","lat":43.31117,"lon":5.37768,"is_reserved":false,"is_disabled":false,"rental_uris":{"android":"levelo://app?vid=1edab1b3-58b6-4885-8608-6066fb810ed7","ios":"levelo://app?vid=1edab1b3-58b6-4885-8608-6066fb810ed7"},"vehicle_type_id":"4","last_reported":1744218564,"current_range_meters":9200,"station_id":"ce4bgt92rcd13ifvqcg0","pricing_plan_id":"cebpf4jnsgd1na2vs0mg"},{"bike_id":"b83f5d56-be0a-4603-8ebb-6e6897497140","system_id":"levelo_inurba_marseille","lat":43.24805,"lon":5.37445,"is_reserved":false,"is_disabled":false,"rental_uris":{"android":"levelo://app?vid=b83f5d56-be0a-4603-8ebb-6e6897497140","ios":"levelo://app?vid=b83f5d56-be0a-4603-8ebb-6e6897497140"},"vehicle_type_id":"4","last_reported":1744218564,"current_range_meters":9200,"station_id":"ce4bhgh2rcd13ifvqfb0","pricing_plan_id":"cebpf4jnsgd1na2vs0mg"},{"bike_id":"841cc48f-644f-4c42-a397-236e943da4b4","system_id":"levelo_inurba_marseille","lat":43.27066,"lon":5.42292,"is_reserved":false,"is_disabled":false,"rental_uris":{"android":"levelo://app?vid=841cc48f-644f-4c42-a397-236e943da4b4","ios":"levelo://app?vid=841cc48f-644f-4c42-a397-236e943da4b4"},"vehicle_type_id":"4","last_reported":1744218564,"current_range_meters":9200,"station_id":"ce4bhk92rcd13ifvqgb0","pricing_plan_id":"cebpf4jnsgd1na2vs0mg"},{"bike_id":"c6ee5f52-09dd-4e77-890d-e9d40c6ae452","system_id":"levelo_inurba_marseille","lat":43.29303,"lon":5.38553,"is_reserved":false,"is_disabled":false,"rental_uris":{"android":"levelo://app?vid=c6ee5f52-09dd-4e77-890d-e9d40c6ae452","ios":"levelo://app?vid=c6ee5f52-09dd-4e77-890d-e9d40c6ae452"},"vehicle_type_id":"4","last_reported":1744218564,"current_range_meters":9200,"station_id":"","pricing_plan_id":"cebpf4jnsgd1na2vs0mg"},{"bike_id":"7f108e71-301d-4754-94a2-67b09fe746c5","system_id":"levelo_inurba_marseille","lat":43.2606,"lon":5.39394,"is_reserved":false,"is_disabled":false,"rental_uris":{"android":"levelo://app?vid=7f108e71-301d-4754-94a2-67b09fe746c5","ios":"levelo://app?vid=7f108e71-301d-4754-94a2-67b09fe746c5"},"vehicle_type_id":"4","last_reported":1744218564,"current_range_meters":9600,"station_id":"ce4bhh92rcd13ifvqfj0","pricing_plan_id":"cebpf4jnsgd1na2vs0mg"},{"bike_id":"b86def6d-6325-4797-a23a-3acb4347d8a9","system_id":"levelo_inurba_marseille","lat":43.27385,"lon":5.36245,"is_reserved":false,"is_disabled":false,"rental_uris":{"android":"levelo://app?vid=b86def6d-6325-4797-a23a-3acb4347d8a9","ios":"levelo://app?vid=b86def6d-6325-4797-a23a-3acb4347d8a9"},"vehicle_type_id":"4","last_reported":1744218564,"current_range_meters":9600,"station_id":"ce4bhbh2rcd13ifvqeo0","pricing_plan_id":"cebpf4jnsgd1na2vs0mg"},{"bike_id":"775733a9-8be6-4b1a-bfa1-d68b64a4b98a","system_id":"levelo_inurba_marseille","lat":43.27379,"lon":5.36257,"is_reserved":false,"is_disabled":false,"rental_uris":{"android":"levelo://app?vid=775733a9-8be6-4b1a-bfa1-d68b64a4b98a","ios":"levelo://app?vid=775733a9-8be6-4b1a-bfa1-d68b64a4b98a"},"vehicle_type_id":"4","last_reported":1744218564,"current_range_meters":9600,"station_id":"ce4bhbh2rcd13ifvqeo0","pricing_plan_id":"cebpf4jnsgd1na2vs0mg"},{"bike_id":"277a3d62-b186-4754-a538-5d94ea160663","system_id":"levelo_inurba_marseille","lat":43.25577,"lon":5.38242,"is_reserved":false,"is_disabled":false,"rental_uris":{"android":"levelo://app?vid=277a3d62-b186-4754-a538-5d94ea160663","ios":"levelo://app?vid=277a3d62-b186-4754-a538-5d94ea160663"},"vehicle_type_id":"4","last_reported":1744218564,"current_range_meters":9600,"station_id":"ce4bhih2rcd13ifvqfs0","pricing_plan_id":"cebpf4jnsgd1na2vs0mg"},{"bike_id":"c770f756-173e-4074-8891-5f139a42096a","system_id":"levelo_inurba_marseille","lat":43.302115,"lon":5.394681,"is_reserved":false,"is_disabled":false,"rental_uris":{"android":"levelo://app?vid=c770f756-173e-4074-8891-5f139a42096a","ios":"levelo://app?vid=c770f756-173e-4074-8891-5f139a42096a"},"vehicle_type_id":"4","last_reported":1744218564,"current_range_meters":9600,"station_id":"ce4bh0p2rcd13ifvqd70","pricing_plan_id":"cebpf4jnsgd1na2vs0mg"},{"bike_id":"250d1e17-457b-4176-9d81-2859cd0a713a","system_id":"levelo_inurba_marseille","lat":43.2901,"lon":5.35614,"is_reserved":false,"is_disabled":false,"rental_uris":{"android":"levelo://app?vid=250d1e17-457b-4176-9d81-2859cd0a713a","ios":"levelo://app?vid=250d1e17-457b-4176-9d81-2859cd0a713a"},"vehicle_type_id":"4","last_reported":1744218564,"current_range_meters":9600,"station_id":"ce4bhb92rcd13ifvqen0","pricing_plan_id":"cebpf4jnsgd1na2vs0mg"},{"bike_id":"26a2c694-ac2a-4bf6-ac8f-bbadfe641824","system_id":"levelo_inurba_marseille","lat":43.27378,"lon":5.36252,"is_reserved":false,"is_disabled":false,"rental_uris":{"android":"levelo://app?vid=26a2c694-ac2a-4bf6-ac8f-bbadfe641824","ios":"levelo://app?vid=26a2c694-ac2a-4bf6-ac8f-bbadfe641824"},"vehicle_type_id":"4","last_reported":1744218564,"current_range_meters":9600,"station_id":"ce4bhbh2rcd13ifvqeo0","pricing_plan_id":"cebpf4jnsgd1na2vs0mg"},{"bike_id":"c56e7f99-ad02-41e6-86b4-cfbff8b320b2","system_id":"levelo_inurba_marseille","lat":43.32366,"lon":5.36753,"is_reserved":false,"is_disabled":false,"rental_uris":{"android":"levelo://app?vid=c56e7f99-ad02-41e6-86b4-cfbff8b320b2","ios":"levelo://app?vid=c56e7f99-ad02-41e6-86b4-cfbff8b320b2"},"vehicle_type_id":"4","last_reported":1744218564,"current_range_meters":9600,"station_id":"ce4bhsh2rcd13ifvqi2g","pricing_plan_id":"cebpf4jnsgd1na2vs0mg"},{"bike_id":"5baff91e-202c-4bea-a79d-3b39b6417f71","system_id":"levelo_inurba_marseille","lat":43.28934,"lon":5.36642,"is_reserved":false,"is_disabled":false,"rental_uris":{"android":"levelo://app?vid=5baff91e-202c-4bea-a79d-3b39b6417f71","ios":"levelo://app?vid=5baff91e-202c-4bea-a79d-3b39b6417f71"},"vehicle_type_id":"4","last_reported":1744218564,"current_range_meters":10000,"station_id":"ce4bhap2rcd13ifvqek0","pricing_plan_id":"cebpf4jnsgd1na2vs0mg"},{"bike_id":"85c6c1a7-1e02-4ae5-b680-67cbc15bed7f","system_id":"levelo_inurba_marseille","lat":43.27506,"lon":5.42454,"is_reserved":false,"is_disabled":false,"rental_uris":{"android":"levelo://app?vid=85c6c1a7-1e02-4ae5-b680-67cbc15bed7f","ios":"levelo://app?vid=85c6c1a7-1e02-4ae5-b680-67cbc15bed7f"},"vehicle_type_id":"4","last_reported":1744218564,"current_range_meters":10000,"station_id":"ce4bhn92rcd13ifvqgrg","pricing_plan_id":"cebpf4jnsgd1na2vs0mg"},{"bike_id":"1a8c3bfa-7658-4f5e-93b8-93807ec24b6f","system_id":"levelo_inurba_marseille","lat":43.26556,"lon":5.39033,"is_reserved":false,"is_disabled":true,"rental_uris":{"android":"levelo://app?vid=1a8c3bfa-7658-4f5e-93b8-93807ec24b6f","ios":"levelo://app?vid=1a8c3bfa-7658-4f5e-93b8-93807ec24b6f"},"vehicle_type_id":"4","last_reported":1744218564,"current_range_meters":10000,"station_id":"ce4bhe12rcd13ifvqf30","pricing_plan_id":"cebpf4jnsgd1na2vs0mg"},{"bike_id":"59b621ed-81cf-40df-a684-917ebf84494c","system_id":"levelo_inurba_marseille","lat":43.28626,"lon":5.35084,"is_reserved":false,"is_disabled":false,"rental_uris":{"android":"levelo://app?vid=59b621ed-81cf-40df-a684-917ebf84494c","ios":"levelo://app?vid=59b621ed-81cf-40df-a684-917ebf84494c"},"vehicle_type_id":"4","last_reported":1744218564,"current_range_meters":10000,"station_id":"ce4bhch2rcd13ifvqeug","pricing_plan_id":"cebpf4jnsgd1na2vs0mg"},{"bike_id":"a89f726b-fc98-450f-b703-830957b74bc7","system_id":"levelo_inurba_marseille","lat":43.25123,"lon":5.40319,"is_reserved":false,"is_disabled":false,"rental_uris":{"android":"levelo://app?vid=a89f726b-fc98-450f-b703-830957b74bc7","ios":"levelo://app?vid=a89f726b-fc98-450f-b703-830957b74bc7"},"vehicle_type_id":"4","last_reported":1744218564,"current_range_meters":10000,"station_id":"ce4bhlh2rcd13ifvqgig","pricing_plan_id":"cebpf4jnsgd1na2vs0mg"},{"bike_id":"e11d0095-2f72-4d07-8c5e-01e2bca3987d","system_id":"levelo_inurba_marseille","lat":43.26059,"lon":5.39391,"is_reserved":false,"is_disabled":false,"rental_uris":{"android":"levelo://app?vid=e11d0095-2f72-4d07-8c5e-01e2bca3987d","ios":"levelo://app?vid=e11d0095-2f72-4d07-8c5e-01e2bca3987d"},"vehicle_type_id":"4","last_reported":1744218564,"current_range_meters":10800,"station_id":"ce4bhh92rcd13ifvqfj0","pricing_plan_id":"cebpf4jnsgd1na2vs0mg"},{"bike_id":"8fa78f52-8834-4b2c-8a1d-e4f911c35cd4","system_id":"levelo_inurba_marseille","lat":43.257221,"lon":5.411119,"is_reserved":false,"is_disabled":true,"rental_uris":{"android":"levelo://app?vid=8fa78f52-8834-4b2c-8a1d-e4f911c35cd4","ios":"levelo://app?vid=8fa78f52-8834-4b2c-8a1d-e4f911c35cd4"},"vehicle_type_id":"4","last_reported":1744218564,"current_range_meters":10800,"station_id":"ce4bhkp2rcd13ifvqgd0","pricing_plan_id":"cebpf4jnsgd1na2vs0mg"},{"bike_id":"7d9d4c2d-78e4-439a-8dce-d9511ee18231","system_id":"levelo_inurba_marseille","lat":43.27914,"lon":5.39579,"is_reserved":false,"is_disabled":false,"rental_uris":{"android":"levelo://app?vid=7d9d4c2d-78e4-439a-8dce-d9511ee18231","ios":"levelo://app?vid=7d9d4c2d-78e4-439a-8dce-d9511ee18231"},"vehicle_type_id":"4","last_reported":1744218564,"current_range_meters":10800,"station_id":"ce4bhf92rcd13ifvqf40","pricing_plan_id":"cebpf4jnsgd1na2vs0mg"},{"bike_id":"f4f7e46c-c4bd-4228-b4d6-08c2da14d9f4","system_id":"levelo_inurba_marseille","lat":43.28947,"lon":5.36385,"is_reserved":false,"is_disabled":false,"rental_uris":{"android":"levelo://app?vid=f4f7e46c-c4bd-4228-b4d6-08c2da14d9f4","ios":"levelo://app?vid=f4f7e46c-c4bd-4228-b4d6-08c2da14d9f4"},"vehicle_type_id":"4","last_reported":1744218564,"current_range_meters":10800,"station_id":"ce4bhc92rcd13ifvqetg","pricing_plan_id":"cebpf4jnsgd1na2vs0mg"},{"bike_id":"cc7650c6-2598-4f79-a20b-c700f7d60c0d","system_id":"levelo_inurba_marseille","lat":43.30358,"lon":5.41874,"is_reserved":false,"is_disabled":false,"rental_uris":{"android":"levelo://app?vid=cc7650c6-2598-4f79-a20b-c700f7d60c0d","ios":"levelo://app?vid=cc7650c6-2598-4f79-a20b-c700f7d60c0d"},"vehicle_type_id":"4","last_reported":1744218564,"current_range_meters":10800,"station_id":"ce4bhop2rcd13ifvqh7g","pricing_plan_id":"cebpf4jnsgd1na2vs0mg"},{"bike_id":"ae35f466-e30f-46bb-8f77-40851b7ac464","system_id":"levelo_inurba_marseille","lat":43.29258,"lon":5.38437,"is_reserved":false,"is_disabled":false,"rental_uris":{"android":"levelo://app?vid=ae35f466-e30f-46bb-8f77-40851b7ac464","ios":"levelo://app?vid=ae35f466-e30f-46bb-8f77-40851b7ac464"},"vehicle_type_id":"4","last_reported":1744218564,"current_range_meters":10800,"station_id":"ce4bh692rcd13ifvqea0","pricing_plan_id":"cebpf4jnsgd1na2vs0mg"},{"bike_id":"0d05c424-4af6-4961-bebd-f107bfa0153f","system_id":"levelo_inurba_marseille","lat":43.28157,"lon":5.42646,"is_reserved":false,"is_disabled":false,"rental_uris":{"android":"levelo://app?vid=0d05c424-4af6-4961-bebd-f107bfa0153f","ios":"levelo://app?vid=0d05c424-4af6-4961-bebd-f107bfa0153f"},"vehicle_type_id":"4","last_reported":1744218564,"current_range_meters":10800,"station_id":"ce4bhnh2rcd13ifvqgug","pricing_plan_id":"cebpf4jnsgd1na2vs0mg"},{"bike_id":"120ef657-8def-4e2c-b7eb-67c6e096ca33","system_id":"levelo_inurba_marseille","lat":43.30949,"lon":5.39033,"is_reserved":false,"is_disabled":false,"rental_uris":{"android":"levelo://app?vid=120ef657-8def-4e2c-b7eb-67c6e096ca33","ios":"levelo://app?vid=120ef657-8def-4e2c-b7eb-67c6e096ca33"},"vehicle_type_id":"4","last_reported":1744218564,"current_range_meters":10800,"station_id":"ce4bgup2rcd13ifvqco0","pricing_plan_id":"cebpf4jnsgd1na2vs0mg"},{"bike_id":"60bc3fb2-7a9c-478d-bae3-531d94541e5b","system_id":"levelo_inurba_marseille","lat":43.27069,"lon":5.42283,"is_reserved":false,"is_disabled":false,"rental_uris":{"android":"levelo://app?vid=60bc3fb2-7a9c-478d-bae3-531d94541e5b","ios":"levelo://app?vid=60bc3fb2-7a9c-478d-bae3-531d94541e5b"},"vehicle_type_id":"4","last_reported":1744218564,"current_range_meters":11200,"station_id":"ce4bhk92rcd13ifvqgb0","pricing_plan_id":"cebpf4jnsgd1na2vs0mg"},{"bike_id":"70faaabf-b9e6-4769-a86c-b8057a6ea811","system_id":"levelo_inurba_marseille","lat":43.2927,"lon":5.38436,"is_reserved":false,"is_disabled":false,"rental_uris":{"android":"levelo://app?vid=70faaabf-b9e6-4769-a86c-b8057a6ea811","ios":"levelo://app?vid=70faaabf-b9e6-4769-a86c-b8057a6ea811"},"vehicle_type_id":"4","last_reported":1744218564,"current_range_meters":11200,"station_id":"ce4bh692rcd13ifvqea0","pricing_plan_id":"cebpf4jnsgd1na2vs0mg"},{"bike_id":"e82d3cbf-6990-4eca-9743-6a7db542c284","system_id":"levelo_inurba_marseille","lat":43.32339,"lon":5.40625,"is_reserved":false,"is_disabled":false,"rental_uris":{"android":"levelo://app?vid=e82d3cbf-6990-4eca-9743-6a7db542c284","ios":"levelo://app?vid=e82d3cbf-6990-4eca-9743-6a7db542c284"},"vehicle_type_id":"4","last_reported":1744218564,"current_range_meters":11200,"station_id":"ce4bhq92rcd13ifvqhjg","pricing_plan_id":"cebpf4jnsgd1na2vs0mg"},{"bike_id":"4d65224f-0660-4196-8641-d1a2d5671503","system_id":"levelo_inurba_marseille","lat":43.255,"lon":5.37648,"is_reserved":false,"is_disabled":false,"rental_uris":{"android":"levelo://app?vid=4d65224f-0660-4196-8641-d1a2d5671503","ios":"levelo://app?vid=4d65224f-0660-4196-8641-d1a2d5671503"},"vehicle_type_id":"4","last_reported":1744218564,"current_range_meters":11200,"station_id":"ce4bhh12rcd13ifvqff0","pricing_plan_id":"cebpf4jnsgd1na2vs0mg"},{"bike_id":"4b4cdf38-8b39-432f-9783-3290b1cfc867","system_id":"levelo_inurba_marseille","lat":43.28154,"lon":5.42649,"is_reserved":false,"is_disabled":false,"rental_uris":{"android":"levelo://app?vid=4b4cdf38-8b39-432f-9783-3290b1cfc867","ios":"levelo://app?vid=4b4cdf38-8b39-432f-9783-3290b1cfc867"},"vehicle_type_id":"4","last_reported":1744218564,"current_range_meters":11200,"station_id":"ce4bhnh2rcd13ifvqgug","pricing_plan_id":"cebpf4jnsgd1na2vs0mg"},{"bike_id":"762772c6-ad25-41c6-a354-c7b96d3cbfb0","system_id":"levelo_inurba_marseille","lat":43.317123,"lon":5.437027,"is_reserved":false,"is_disabled":false,"rental_uris":{"android":"levelo://app?vid=762772c6-ad25-41c6-a354-c7b96d3cbfb0","ios":"levelo://app?vid=762772c6-ad25-41c6-a354-c7b96d3cbfb0"},"vehicle_type_id":"4","last_reported":1744218564,"current_range_meters":11600,"station_id":"ce4bhp92rcd13ifvqhcg","pricing_plan_id":"cebpf4jnsgd1na2vs0mg"},{"bike_id":"01e31f15-bc9b-4d18-bebd-edf19bcedef2","system_id":"levelo_inurba_marseille","lat":43.28716,"lon":5.37941,"is_reserved":false,"is_disabled":true,"rental_uris":{"android":"levelo://app?vid=01e31f15-bc9b-4d18-bebd-edf19bcedef2","ios":"levelo://app?vid=01e31f15-bc9b-4d18-bebd-edf19bcedef2"},"vehicle_type_id":"4","last_reported":1744218564,"current_range_meters":11600,"station_id":"ce4bh9p2rcd13ifvqec0","pricing_plan_id":"cebpf4jnsgd1na2vs0mg"},{"bike_id":"5f30a5a4-de9f-499e-b151-b811ebb3b43a","system_id":"levelo_inurba_marseille","lat":43.31078,"lon":5.38358,"is_reserved":false,"is_disabled":true,"rental_uris":{"android":"levelo://app?vid=5f30a5a4-de9f-499e-b151-b811ebb3b43a","ios":"levelo://app?vid=5f30a5a4-de9f-499e-b151-b811ebb3b43a"},"vehicle_type_id":"4","last_reported":1744218564,"current_range_meters":11600,"station_id":"ce4bgv92rcd13ifvqcr0","pricing_plan_id":"cebpf4jnsgd1na2vs0mg"},{"bike_id":"c2c12d5a-d830-4852-9378-ec3b6d010485","system_id":"levelo_inurba_marseille","lat":43.29799,"lon":5.38074,"is_reserved":false,"is_disabled":false,"rental_uris":{"android":"levelo://app?vid=c2c12d5a-d830-4852-9378-ec3b6d010485","ios":"levelo://app?vid=c2c12d5a-d830-4852-9378-ec3b6d010485"},"vehicle_type_id":"4","last_reported":1744218564,"current_range_meters":11600,"station_id":"ce4bgip2rcd13ifvqbb0","pricing_plan_id":"cebpf4jnsgd1na2vs0mg"},{"bike_id":"d1180cea-64d9-46f6-b9db-97ad6cf9ab82","system_id":"levelo_inurba_marseille","lat":43.26942,"lon":5.40251,"is_reserved":false,"is_disabled":false,"rental_uris":{"android":"levelo://app?vid=d1180cea-64d9-46f6-b9db-97ad6cf9ab82","ios":"levelo://app?vid=d1180cea-64d9-46f6-b9db-97ad6cf9ab82"},"vehicle_type_id":"4","last_reported":1744218564,"current_range_meters":11600,"station_id":"cjm6bp8fraef2m0cb0m0","pricing_plan_id":"cebpf4jnsgd1na2vs0mg"},{"bike_id":"6f5861fe-f610-475b-a0de-f461b0ea5c15","system_id":"levelo_inurba_marseille","lat":43.3171,"lon":5.43707,"is_reserved":false,"is_disabled":false,"rental_uris":{"android":"levelo://app?vid=6f5861fe-f610-475b-a0de-f461b0ea5c15","ios":"levelo://app?vid=6f5861fe-f610-475b-a0de-f461b0ea5c15"},"vehicle_type_id":"4","last_reported":1744218564,"current_range_meters":11600,"station_id":"ce4bhp92rcd13ifvqhcg","pricing_plan_id":"cebpf4jnsgd1na2vs0mg"},{"bike_id":"7e0f4b44-83b5-434b-bc69-5da50f8a11b1","system_id":"levelo_inurba_marseille","lat":43.31126,"lon":5.37778,"is_reserved":false,"is_disabled":false,"rental_uris":{"android":"levelo://app?vid=7e0f4b44-83b5-434b-bc69-5da50f8a11b1","ios":"levelo://app?vid=7e0f4b44-83b5-434b-bc69-5da50f8a11b1"},"vehicle_type_id":"4","last_reported":1744218564,"current_range_meters":11600,"station_id":"ce4bgt92rcd13ifvqcg0","pricing_plan_id":"cebpf4jnsgd1na2vs0mg"},{"bike_id":"c694fcf6-387e-431e-8a0d-e43e81f8d60b","system_id":"levelo_inurba_marseille","lat":43.24071,"lon":5.37767,"is_reserved":false,"is_disabled":false,"rental_uris":{"android":"levelo://app?vid=c694fcf6-387e-431e-8a0d-e43e81f8d60b","ios":"levelo://app?vid=c694fcf6-387e-431e-8a0d-e43e81f8d60b"},"vehicle_type_id":"4","last_reported":1744218564,"current_range_meters":12000,"station_id":"ce4bhnp2rcd13ifvqgvg","pricing_plan_id":"cebpf4jnsgd1na2vs0mg"},{"bike_id":"cabbee1e-f8d0-4108-9956-5492a47a1b8e","system_id":"levelo_inurba_marseille","lat":43.29009,"lon":5.35614,"is_reserved":false,"is_disabled":false,"rental_uris":{"android":"levelo://app?vid=cabbee1e-f8d0-4108-9956-5492a47a1b8e","ios":"levelo://app?vid=cabbee1e-f8d0-4108-9956-5492a47a1b8e"},"vehicle_type_id":"4","last_reported":1744218564,"current_range_meters":12000,"station_id":"ce4bhb92rcd13ifvqen0","pricing_plan_id":"cebpf4jnsgd1na2vs0mg"},{"bike_id":"8cfb3580-abfc-4e88-b713-7dbebe324f46","system_id":"levelo_inurba_marseille","lat":43.29773,"lon":5.37098,"is_reserved":false,"is_disabled":false,"rental_uris":{"android":"levelo://app?vid=8cfb3580-abfc-4e88-b713-7dbebe324f46","ios":"levelo://app?vid=8cfb3580-abfc-4e88-b713-7dbebe324f46"},"vehicle_type_id":"4","last_reported":1744218564,"current_range_meters":12400,"station_id":"ce4bgop2rcd13ifvqc1g","pricing_plan_id":"cebpf4jnsgd1na2vs0mg"},{"bike_id":"8ac5065d-3b85-4f6e-8efb-44c8e31605cc","system_id":"levelo_inurba_marseille","lat":43.21753,"lon":5.34593,"is_reserved":false,"is_disabled":false,"rental_uris":{"android":"levelo://app?vid=8ac5065d-3b85-4f6e-8efb-44c8e31605cc","ios":"levelo://app?vid=8ac5065d-3b85-4f6e-8efb-44c8e31605cc"},"vehicle_type_id":"4","last_reported":1744218564,"current_range_meters":12400,"station_id":"st_cvj6r9ubvosntc0bgbag","pricing_plan_id":"cebpf4jnsgd1na2vs0mg"},{"bike_id":"4372f18e-c37f-44c1-abd1-65c34fa89ebc","system_id":"levelo_inurba_marseille","lat":43.27178,"lon":5.40994,"is_reserved":false,"is_disabled":false,"rental_uris":{"android":"levelo://app?vid=4372f18e-c37f-44c1-abd1-65c34fa89ebc","ios":"levelo://app?vid=4372f18e-c37f-44c1-abd1-65c34fa89ebc"},"vehicle_type_id":"4","last_reported":1744218564,"current_range_meters":12400,"station_id":"ce4bhl12rcd13ifvqgf0","pricing_plan_id":"cebpf4jnsgd1na2vs0mg"},{"bike_id":"faf40670-0a4a-4bfa-a1d6-65ec416a480b","system_id":"levelo_inurba_marseille","lat":43.30593,"lon":5.37211,"is_reserved":false,"is_disabled":false,"rental_uris":{"android":"levelo://app?vid=faf40670-0a4a-4bfa-a1d6-65ec416a480b","ios":"levelo://app?vid=faf40670-0a4a-4bfa-a1d6-65ec416a480b"},"vehicle_type_id":"4","last_reported":1744218564,"current_range_meters":12400,"station_id":"ce4bgqh2rcd13ifvqc4g","pricing_plan_id":"cebpf4jnsgd1na2vs0mg"},{"bike_id":"4a933f66-5d69-4b1f-bbc3-37cacc78030b","system_id":"levelo_inurba_marseille","lat":43.265664,"lon":5.390302,"is_reserved":false,"is_disabled":false,"rental_uris":{"android":"levelo://app?vid=4a933f66-5d69-4b1f-bbc3-37cacc78030b","ios":"levelo://app?vid=4a933f66-5d69-4b1f-bbc3-37cacc78030b"},"vehicle_type_id":"4","last_reported":1744218564,"current_range_meters":12400,"station_id":"","pricing_plan_id":"cebpf4jnsgd1na2vs0mg"},{"bike_id":"51220fd5-275f-44db-a81e-280c0ca810af","system_id":"levelo_inurba_marseille","lat":43.32264,"lon":5.38534,"is_reserved":false,"is_disabled":false,"rental_uris":{"android":"levelo://app?vid=51220fd5-275f-44db-a81e-280c0ca810af","ios":"levelo://app?vid=51220fd5-275f-44db-a81e-280c0ca810af"},"vehicle_type_id":"4","last_reported":1744218564,"current_range_meters":12400,"station_id":"","pricing_plan_id":"cebpf4jnsgd1na2vs0mg"},{"bike_id":"b96be04a-adcd-4816-8c18-ee76dccce0e8","system_id":"levelo_inurba_marseille","lat":43.24171,"lon":5.36401,"is_reserved":false,"is_disabled":false,"rental_uris":{"android":"levelo://app?vid=b96be04a-adcd-4816-8c18-ee76dccce0e8","ios":"levelo://app?vid=b96be04a-adcd-4816-8c18-ee76dccce0e8"},"vehicle_type_id":"4","last_reported":1744218564,"current_range_meters":12400,"station_id":"cpo36qri1sfpv3e86is0","pricing_plan_id":"cebpf4jnsgd1na2vs0mg"},{"bike_id":"53fb0077-3a65-43ca-a501-d7c36dc0627d","system_id":"levelo_inurba_marseille","lat":43.31802,"lon":5.38724,"is_reserved":false,"is_disabled":false,"rental_uris":{"android":"levelo://app?vid=53fb0077-3a65-43ca-a501-d7c36dc0627d","ios":"levelo://app?vid=53fb0077-3a65-43ca-a501-d7c36dc0627d"},"vehicle_type_id":"4","last_reported":1744218564,"current_range_meters":12800,"station_id":"","pricing_plan_id":"cebpf4jnsgd1na2vs0mg"},{"bike_id":"42183e06-5978-4858-b301-03ad7c7deda6","system_id":"levelo_inurba_marseille","lat":43.27173,"lon":5.40962,"is_reserved":false,"is_disabled":false,"rental_uris":{"android":"levelo://app?vid=42183e06-5978-4858-b301-03ad7c7deda6","ios":"levelo://app?vid=42183e06-5978-4858-b301-03ad7c7deda6"},"vehicle_type_id":"4","last_reported":1744218564,"current_range_meters":12800,"station_id":"ce4bhl12rcd13ifvqgf0","pricing_plan_id":"cebpf4jnsgd1na2vs0mg"},{"bike_id":"ed812d20-a818-47fb-9e54-322b04ca0c56","system_id":"levelo_inurba_marseille","lat":43.28415,"lon":5.37526,"is_reserved":false,"is_disabled":false,"rental_uris":{"android":"levelo://app?vid=ed812d20-a818-47fb-9e54-322b04ca0c56","ios":"levelo://app?vid=ed812d20-a818-47fb-9e54-322b04ca0c56"},"vehicle_type_id":"4","last_reported":1744218564,"current_range_meters":12800,"station_id":"ce4bh412rcd13ifvqds0","pricing_plan_id":"cebpf4jnsgd1na2vs0mg"},{"bike_id":"637dbe36-3e0a-4af1-b303-7fef78454261","system_id":"levelo_inurba_marseille","lat":43.27075,"lon":5.42281,"is_reserved":false,"is_disabled":false,"rental_uris":{"android":"levelo://app?vid=637dbe36-3e0a-4af1-b303-7fef78454261","ios":"levelo://app?vid=637dbe36-3e0a-4af1-b303-7fef78454261"},"vehicle_type_id":"4","last_reported":1744218564,"current_range_meters":12800,"station_id":"ce4bhk92rcd13ifvqgb0","pricing_plan_id":"cebpf4jnsgd1na2vs0mg"},{"bike_id":"ded10d64-bf66-4765-9d2b-fbb4ba7b9c18","system_id":"levelo_inurba_marseille","lat":43.29426,"lon":5.38617,"is_reserved":false,"is_disabled":false,"rental_uris":{"android":"levelo://app?vid=ded10d64-bf66-4765-9d2b-fbb4ba7b9c18","ios":"levelo://app?vid=ded10d64-bf66-4765-9d2b-fbb4ba7b9c18"},"vehicle_type_id":"4","last_reported":1744218564,"current_range_meters":12800,"station_id":"ce4bh2h2rcd13ifvqdh0","pricing_plan_id":"cebpf4jnsgd1na2vs0mg"},{"bike_id":"5b6bfdac-685e-490b-a327-82c8cfe9ed7e","system_id":"levelo_inurba_marseille","lat":43.289808,"lon":5.366473,"is_reserved":false,"is_disabled":false,"rental_uris":{"android":"levelo://app?vid=5b6bfdac-685e-490b-a327-82c8cfe9ed7e","ios":"levelo://app?vid=5b6bfdac-685e-490b-a327-82c8cfe9ed7e"},"vehicle_type_id":"4","last_reported":1744218564,"current_range_meters":13600,"station_id":"ce4bhap2rcd13ifvqek0","pricing_plan_id":"cebpf4jnsgd1na2vs0mg"},{"bike_id":"b475c905-94bb-4dc5-a6c2-96dfccc20d19","system_id":"levelo_inurba_marseille","lat":43.304213,"lon":5.412822,"is_reserved":false,"is_disabled":false,"rental_uris":{"android":"levelo://app?vid=b475c905-94bb-4dc5-a6c2-96dfccc20d19","ios":"levelo://app?vid=b475c905-94bb-4dc5-a6c2-96dfccc20d19"},"vehicle_type_id":"4","last_reported":1744218564,"current_range_meters":13600,"station_id":"ce4bhop2rcd13ifvqh8g","pricing_plan_id":"cebpf4jnsgd1na2vs0mg"},{"bike_id":"521919a8-d2e3-45e2-8ad2-747b98d27e41","system_id":"levelo_inurba_marseille","lat":43.29793,"lon":5.40409,"is_reserved":false,"is_disabled":false,"rental_uris":{"android":"levelo://app?vid=521919a8-d2e3-45e2-8ad2-747b98d27e41","ios":"levelo://app?vid=521919a8-d2e3-45e2-8ad2-747b98d27e41"},"vehicle_type_id":"4","last_reported":1744218564,"current_range_meters":13600,"station_id":"ce4bh112rcd13ifvqd90","pricing_plan_id":"cebpf4jnsgd1na2vs0mg"},{"bike_id":"14800b15-767a-485a-a5ce-26b1cdaa3daa","system_id":"levelo_inurba_marseille","lat":43.29008,"lon":5.35611,"is_reserved":false,"is_disabled":false,"rental_uris":{"android":"levelo://app?vid=14800b15-767a-485a-a5ce-26b1cdaa3daa","ios":"levelo://app?vid=14800b15-767a-485a-a5ce-26b1cdaa3daa"},"vehicle_type_id":"4","last_reported":1744218564,"current_range_meters":13600,"station_id":"ce4bhb92rcd13ifvqen0","pricing_plan_id":"cebpf4jnsgd1na2vs0mg"},{"bike_id":"9fce7fb9-26b6-4832-9f96-ea1b75c489f0","system_id":"levelo_inurba_marseille","lat":43.21194,"lon":5.3508,"is_reserved":false,"is_disabled":false,"rental_uris":{"android":"levelo://app?vid=9fce7fb9-26b6-4832-9f96-ea1b75c489f0","ios":"levelo://app?vid=9fce7fb9-26b6-4832-9f96-ea1b75c489f0"},"vehicle_type_id":"4","last_reported":1744218564,"current_range_meters":13600,"station_id":"st_cvj6sg6p6f1abm77japg","pricing_plan_id":"cebpf4jnsgd1na2vs0mg"},{"bike_id":"b4b93a64-d083-4ab2-bbd0-53609c602fb5","system_id":"levelo_inurba_marseille","lat":43.309273,"lon":5.401479,"is_reserved":false,"is_disabled":true,"rental_uris":{"android":"levelo://app?vid=b4b93a64-d083-4ab2-bbd0-53609c602fb5","ios":"levelo://app?vid=b4b93a64-d083-4ab2-bbd0-53609c602fb5"},"vehicle_type_id":"4","last_reported":1744218564,"current_range_meters":13600,"station_id":"ce4bgvp2rcd13ifvqct0","pricing_plan_id":"cebpf4jnsgd1na2vs0mg"},{"bike_id":"168bff2f-5204-45e4-9816-1323582a8e96","system_id":"levelo_inurba_marseille","lat":43.2512,"lon":5.40317,"is_reserved":false,"is_disabled":false,"rental_uris":{"android":"levelo://app?vid=168bff2f-5204-45e4-9816-1323582a8e96","ios":"levelo://app?vid=168bff2f-5204-45e4-9816-1323582a8e96"},"vehicle_type_id":"4","last_reported":1744218564,"current_range_meters":13600,"station_id":"ce4bhlh2rcd13ifvqgig","pricing_plan_id":"cebpf4jnsgd1na2vs0mg"},{"bike_id":"379d8a58-597d-49a0-bb74-671416388891","system_id":"levelo_inurba_marseille","lat":43.28426,"lon":5.34977,"is_reserved":false,"is_disabled":false,"rental_uris":{"android":"levelo://app?vid=379d8a58-597d-49a0-bb74-671416388891","ios":"levelo://app?vid=379d8a58-597d-49a0-bb74-671416388891"},"vehicle_type_id":"4","last_reported":1744218564,"current_range_meters":13600,"station_id":"ce4bhbh2rcd13ifvqepg","pricing_plan_id":"cebpf4jnsgd1na2vs0mg"},{"bike_id":"d44ff2b9-417e-4368-bebb-1fc974db3122","system_id":"levelo_inurba_marseille","lat":43.33667,"lon":5.39744,"is_reserved":false,"is_disabled":false,"rental_uris":{"android":"levelo://app?vid=d44ff2b9-417e-4368-bebb-1fc974db3122","ios":"levelo://app?vid=d44ff2b9-417e-4368-bebb-1fc974db3122"},"vehicle_type_id":"4","last_reported":1744218564,"current_range_meters":13600,"station_id":"","pricing_plan_id":"cebpf4jnsgd1na2vs0mg"},{"bike_id":"d0eeea24-6369-436e-89b9-0e1792fabb25","system_id":"levelo_inurba_marseille","lat":43.29534,"lon":5.38544,"is_reserved":false,"is_disabled":false,"rental_uris":{"android":"levelo://app?vid=d0eeea24-6369-436e-89b9-0e1792fabb25","ios":"levelo://app?vid=d0eeea24-6369-436e-89b9-0e1792fabb25"},"vehicle_type_id":"4","last_reported":1744218564,"current_range_meters":14000,"station_id":"ce4bgih2rcd13ifvqba0","pricing_plan_id":"cebpf4jnsgd1na2vs0mg"},{"bike_id":"37967cd8-0dc5-40d7-af03-2bbfc2c2b2fc","system_id":"levelo_inurba_marseille","lat":43.2737,"lon":5.36249,"is_reserved":false,"is_disabled":false,"rental_uris":{"android":"levelo://app?vid=37967cd8-0dc5-40d7-af03-2bbfc2c2b2fc","ios":"levelo://app?vid=37967cd8-0dc5-40d7-af03-2bbfc2c2b2fc"},"vehicle_type_id":"4","last_reported":1744218564,"current_range_meters":14000,"station_id":"ce4bhbh2rcd13ifvqeo0","pricing_plan_id":"cebpf4jnsgd1na2vs0mg"},{"bike_id":"c369bf23-f24d-4fbc-a2a6-9db5e7f2adca","system_id":"levelo_inurba_marseille","lat":43.27624,"lon":5.3612,"is_reserved":false,"is_disabled":false,"rental_uris":{"android":"levelo://app?vid=c369bf23-f24d-4fbc-a2a6-9db5e7f2adca","ios":"levelo://app?vid=c369bf23-f24d-4fbc-a2a6-9db5e7f2adca"},"vehicle_type_id":"4","last_reported":1744218564,"current_range_meters":14000,"station_id":"ce4bgj92rcd13ifvqbe0","pricing_plan_id":"cebpf4jnsgd1na2vs0mg"},{"bike_id":"d2709778-4b3d-4d6f-bb62-1b7c1b5834e8","system_id":"levelo_inurba_marseille","lat":43.28481,"lon":5.3843,"is_reserved":false,"is_disabled":false,"rental_uris":{"android":"levelo://app?vid=d2709778-4b3d-4d6f-bb62-1b7c1b5834e8","ios":"levelo://app?vid=d2709778-4b3d-4d6f-bb62-1b7c1b5834e8"},"vehicle_type_id":"4","last_reported":1744218564,"current_range_meters":14000,"station_id":"ce4bh512rcd13ifvqe3g","pricing_plan_id":"cebpf4jnsgd1na2vs0mg"},{"bike_id":"f2ddeead-c55a-49b3-90e5-4eec0e251056","system_id":"levelo_inurba_marseille","lat":43.31712,"lon":5.43701,"is_reserved":false,"is_disabled":false,"rental_uris":{"android":"levelo://app?vid=f2ddeead-c55a-49b3-90e5-4eec0e251056","ios":"levelo://app?vid=f2ddeead-c55a-49b3-90e5-4eec0e251056"},"vehicle_type_id":"4","last_reported":1744218564,"current_range_meters":14000,"station_id":"ce4bhp92rcd13ifvqhcg","pricing_plan_id":"cebpf4jnsgd1na2vs0mg"},{"bike_id":"82512ff3-4410-4742-bc96-4f9c7ec5d6e6","system_id":"levelo_inurba_marseille","lat":43.30783,"lon":5.37647,"is_reserved":false,"is_disabled":false,"rental_uris":{"android":"levelo://app?vid=82512ff3-4410-4742-bc96-4f9c7ec5d6e6","ios":"levelo://app?vid=82512ff3-4410-4742-bc96-4f9c7ec5d6e6"},"vehicle_type_id":"4","last_reported":1744218564,"current_range_meters":14000,"station_id":"ce4bgv92rcd13ifvqcq0","pricing_plan_id":"cebpf4jnsgd1na2vs0mg"},{"bike_id":"4c28f3d7-3228-4605-8a0a-01ab16fbb532","system_id":"levelo_inurba_marseille","lat":43.27217,"lon":5.39204,"is_reserved":false,"is_disabled":true,"rental_uris":{"android":"levelo://app?vid=4c28f3d7-3228-4605-8a0a-01ab16fbb532","ios":"levelo://app?vid=4c28f3d7-3228-4605-8a0a-01ab16fbb532"},"vehicle_type_id":"4","last_reported":1744218564,"current_range_meters":14000,"station_id":"ce4bhhp2rcd13ifvqfm0","pricing_plan_id":"cebpf4jnsgd1na2vs0mg"},{"bike_id":"b22f984f-34cc-497e-98d9-45bf42e96078","system_id":"levelo_inurba_marseille","lat":43.28367,"lon":5.38637,"is_reserved":false,"is_disabled":false,"rental_uris":{"android":"levelo://app?vid=b22f984f-34cc-497e-98d9-45bf42e96078","ios":"levelo://app?vid=b22f984f-34cc-497e-98d9-45bf42e96078"},"vehicle_type_id":"4","last_reported":1744218564,"current_range_meters":14400,"station_id":"ce4bh492rcd13ifvqdvg","pricing_plan_id":"cebpf4jnsgd1na2vs0mg"},{"bike_id":"e8714145-6c41-4f14-a2ba-a4c4db99e04c","system_id":"levelo_inurba_marseille","lat":43.3013,"lon":5.387831,"is_reserved":false,"is_disabled":false,"rental_uris":{"android":"levelo://app?vid=e8714145-6c41-4f14-a2ba-a4c4db99e04c","ios":"levelo://app?vid=e8714145-6c41-4f14-a2ba-a4c4db99e04c"},"vehicle_type_id":"4","last_reported":1744218564,"current_range_meters":14400,"station_id":"ce4bh292rcd13ifvqdf0","pricing_plan_id":"cebpf4jnsgd1na2vs0mg"},{"bike_id":"4a7901df-c919-4147-a2dc-ccae443e447e","system_id":"levelo_inurba_marseille","lat":43.28421,"lon":5.34982,"is_reserved":false,"is_disabled":false,"rental_uris":{"android":"levelo://app?vid=4a7901df-c919-4147-a2dc-ccae443e447e","ios":"levelo://app?vid=4a7901df-c919-4147-a2dc-ccae443e447e"},"vehicle_type_id":"4","last_reported":1744218564,"current_range_meters":14400,"station_id":"ce4bhbh2rcd13ifvqepg","pricing_plan_id":"cebpf4jnsgd1na2vs0mg"},{"bike_id":"910571f4-4962-4503-b883-b4534b9b6603","system_id":"levelo_inurba_marseille","lat":43.32515,"lon":5.38295,"is_reserved":false,"is_disabled":false,"rental_uris":{"android":"levelo://app?vid=910571f4-4962-4503-b883-b4534b9b6603","ios":"levelo://app?vid=910571f4-4962-4503-b883-b4534b9b6603"},"vehicle_type_id":"4","last_reported":1744218564,"current_range_meters":14400,"station_id":"","pricing_plan_id":"cebpf4jnsgd1na2vs0mg"},{"bike_id":"e3027524-04a4-4d95-9225-cf81c92c7405","system_id":"levelo_inurba_marseille","lat":43.2762,"lon":5.36105,"is_reserved":false,"is_disabled":false,"rental_uris":{"android":"levelo://app?vid=e3027524-04a4-4d95-9225-cf81c92c7405","ios":"levelo://app?vid=e3027524-04a4-4d95-9225-cf81c92c7405"},"vehicle_type_id":"4","last_reported":1744218564,"current_range_meters":14400,"station_id":"ce4bgj92rcd13ifvqbe0","pricing_plan_id":"cebpf4jnsgd1na2vs0mg"},{"bike_id":"4e78f6b1-c541-4270-95bc-54b84d1371cb","system_id":"levelo_inurba_marseille","lat":43.28626,"lon":5.35103,"is_reserved":false,"is_disabled":false,"rental_uris":{"android":"levelo://app?vid=4e78f6b1-c541-4270-95bc-54b84d1371cb","ios":"levelo://app?vid=4e78f6b1-c541-4270-95bc-54b84d1371cb"},"vehicle_type_id":"4","last_reported":1744218564,"current_range_meters":14400,"station_id":"ce4bhch2rcd13ifvqeug","pricing_plan_id":"cebpf4jnsgd1na2vs0mg"},{"bike_id":"b376218e-3a76-446a-953c-6a0a52673ea6","system_id":"levelo_inurba_marseille","lat":43.29249,"lon":5.38444,"is_reserved":false,"is_disabled":false,"rental_uris":{"android":"levelo://app?vid=b376218e-3a76-446a-953c-6a0a52673ea6","ios":"levelo://app?vid=b376218e-3a76-446a-953c-6a0a52673ea6"},"vehicle_type_id":"4","last_reported":1744218564,"current_range_meters":14800,"station_id":"ce4bh692rcd13ifvqea0","pricing_plan_id":"cebpf4jnsgd1na2vs0mg"},{"bike_id":"c4ad8cfc-1fcc-4afc-98c8-b8887be22438","system_id":"levelo_inurba_marseille","lat":43.2955,"lon":5.42271,"is_reserved":false,"is_disabled":false,"rental_uris":{"android":"levelo://app?vid=c4ad8cfc-1fcc-4afc-98c8-b8887be22438","ios":"levelo://app?vid=c4ad8cfc-1fcc-4afc-98c8-b8887be22438"},"vehicle_type_id":"4","last_reported":1744218564,"current_range_meters":14800,"station_id":"ce4bhph2rcd13ifvqhdg","pricing_plan_id":"cebpf4jnsgd1na2vs0mg"},{"bike_id":"24468822-6d20-42c0-b5e8-2691953ea9cf","system_id":"levelo_inurba_marseille","lat":43.25573,"lon":5.38265,"is_reserved":false,"is_disabled":false,"rental_uris":{"android":"levelo://app?vid=24468822-6d20-42c0-b5e8-2691953ea9cf","ios":"levelo://app?vid=24468822-6d20-42c0-b5e8-2691953ea9cf"},"vehicle_type_id":"4","last_reported":1744218564,"current_range_meters":14800,"station_id":"ce4bhih2rcd13ifvqfs0","pricing_plan_id":"cebpf4jnsgd1na2vs0mg"},{"bike_id":"c857a889-3b0c-45cc-bbd0-3a32ad66e7e7","system_id":"levelo_inurba_marseille","lat":43.28464,"lon":5.359,"is_reserved":false,"is_disabled":false,"rental_uris":{"android":"levelo://app?vid=c857a889-3b0c-45cc-bbd0-3a32ad66e7e7","ios":"levelo://app?vid=c857a889-3b0c-45cc-bbd0-3a32ad66e7e7"},"vehicle_type_id":"4","last_reported":1744218564,"current_range_meters":14800,"station_id":"ce4bhah2rcd13ifvqei0","pricing_plan_id":"cebpf4jnsgd1na2vs0mg"},{"bike_id":"417095ad-77df-49ea-a5a5-b03d3ddc554e","system_id":"levelo_inurba_marseille","lat":43.2861,"lon":5.35111,"is_reserved":false,"is_disabled":false,"rental_uris":{"android":"levelo://app?vid=417095ad-77df-49ea-a5a5-b03d3ddc554e","ios":"levelo://app?vid=417095ad-77df-49ea-a5a5-b03d3ddc554e"},"vehicle_type_id":"4","last_reported":1744218564,"current_range_meters":14800,"station_id":"ce4bhch2rcd13ifvqeug","pricing_plan_id":"cebpf4jnsgd1na2vs0mg"},{"bike_id":"c0caac97-a957-4f01-bd7d-413a2d6a15d7","system_id":"levelo_inurba_marseille","lat":43.24802,"lon":5.37445,"is_reserved":false,"is_disabled":false,"rental_uris":{"android":"levelo://app?vid=c0caac97-a957-4f01-bd7d-413a2d6a15d7","ios":"levelo://app?vid=c0caac97-a957-4f01-bd7d-413a2d6a15d7"},"vehicle_type_id":"4","last_reported":1744218564,"current_range_meters":14800,"station_id":"ce4bhgh2rcd13ifvqfb0","pricing_plan_id":"cebpf4jnsgd1na2vs0mg"},{"bike_id":"87d38074-2a96-46f6-bb73-d07d52469a94","system_id":"levelo_inurba_marseille","lat":43.28405,"lon":5.37529,"is_reserved":false,"is_disabled":false,"rental_uris":{"android":"levelo://app?vid=87d38074-2a96-46f6-bb73-d07d52469a94","ios":"levelo://app?vid=87d38074-2a96-46f6-bb73-d07d52469a94"},"vehicle_type_id":"4","last_reported":1744218564,"current_range_meters":14800,"station_id":"ce4bh412rcd13ifvqds0","pricing_plan_id":"cebpf4jnsgd1na2vs0mg"},{"bike_id":"c8f5b633-1cf8-4a1a-a3ac-78bb986b844b","system_id":"levelo_inurba_marseille","lat":43.25115,"lon":5.40331,"is_reserved":false,"is_disabled":false,"rental_uris":{"android":"levelo://app?vid=c8f5b633-1cf8-4a1a-a3ac-78bb986b844b","ios":"levelo://app?vid=c8f5b633-1cf8-4a1a-a3ac-78bb986b844b"},"vehicle_type_id":"4","last_reported":1744218564,"current_range_meters":14800,"station_id":"ce4bhlh2rcd13ifvqgig","pricing_plan_id":"cebpf4jnsgd1na2vs0mg"},{"bike_id":"11078d77-39e2-4a2b-927a-b726dd744b82","system_id":"levelo_inurba_marseille","lat":43.30541,"lon":5.38426,"is_reserved":false,"is_disabled":false,"rental_uris":{"android":"levelo://app?vid=11078d77-39e2-4a2b-927a-b726dd744b82","ios":"levelo://app?vid=11078d77-39e2-4a2b-927a-b726dd744b82"},"vehicle_type_id":"4","last_reported":1744218564,"current_range_meters":14800,"station_id":"ce4bgg92rcd13ifvqb30","pricing_plan_id":"cebpf4jnsgd1na2vs0mg"},{"bike_id":"79a7f7b7-c7d8-49c0-8b35-a7be374cb2c5","system_id":"levelo_inurba_marseille","lat":43.30188,"lon":5.36609,"is_reserved":false,"is_disabled":false,"rental_uris":{"android":"levelo://app?vid=79a7f7b7-c7d8-49c0-8b35-a7be374cb2c5","ios":"levelo://app?vid=79a7f7b7-c7d8-49c0-8b35-a7be374cb2c5"},"vehicle_type_id":"4","last_reported":1744218564,"current_range_meters":15200,"station_id":"ce4bgrh2rcd13ifvqc8g","pricing_plan_id":"cebpf4jnsgd1na2vs0mg"},{"bike_id":"bcc4cec5-0b7e-4f72-bfbb-d9b361c3b3c2","system_id":"levelo_inurba_marseille","lat":43.286764,"lon":5.386659,"is_reserved":false,"is_disabled":false,"rental_uris":{"android":"levelo://app?vid=bcc4cec5-0b7e-4f72-bfbb-d9b361c3b3c2","ios":"levelo://app?vid=bcc4cec5-0b7e-4f72-bfbb-d9b361c3b3c2"},"vehicle_type_id":"4","last_reported":1744218564,"current_range_meters":15200,"station_id":"ce4bh492rcd13ifvqdug","pricing_plan_id":"cebpf4jnsgd1na2vs0mg"},{"bike_id":"4044457b-6c3c-420d-b77f-741e7872cae2","system_id":"levelo_inurba_marseille","lat":43.282655,"lon":5.3507,"is_reserved":false,"is_disabled":false,"rental_uris":{"android":"levelo://app?vid=4044457b-6c3c-420d-b77f-741e7872cae2","ios":"levelo://app?vid=4044457b-6c3c-420d-b77f-741e7872cae2"},"vehicle_type_id":"4","last_reported":1744218564,"current_range_meters":15200,"station_id":"ce4bhbp2rcd13ifvqerg","pricing_plan_id":"cebpf4jnsgd1na2vs0mg"},{"bike_id":"d59dbfc5-9426-45f1-899f-cf9fe26cce20","system_id":"levelo_inurba_marseille","lat":43.28269,"lon":5.35068,"is_reserved":false,"is_disabled":false,"rental_uris":{"android":"levelo://app?vid=d59dbfc5-9426-45f1-899f-cf9fe26cce20","ios":"levelo://app?vid=d59dbfc5-9426-45f1-899f-cf9fe26cce20"},"vehicle_type_id":"4","last_reported":1744218564,"current_range_meters":15200,"station_id":"ce4bhbp2rcd13ifvqerg","pricing_plan_id":"cebpf4jnsgd1na2vs0mg"},{"bike_id":"5829cd0d-c17e-4de3-b63f-9cd151926e69","system_id":"levelo_inurba_marseille","lat":43.29585,"lon":5.36743,"is_reserved":false,"is_disabled":true,"rental_uris":{"android":"levelo://app?vid=5829cd0d-c17e-4de3-b63f-9cd151926e69","ios":"levelo://app?vid=5829cd0d-c17e-4de3-b63f-9cd151926e69"},"vehicle_type_id":"4","last_reported":1744218564,"current_range_meters":15200,"station_id":"ce4bgph2rcd13ifvqc2g","pricing_plan_id":"cebpf4jnsgd1na2vs0mg"},{"bike_id":"ac95576c-82eb-44b7-a1ed-1a333494a201","system_id":"levelo_inurba_marseille","lat":43.273381,"lon":5.392637,"is_reserved":false,"is_disabled":false,"rental_uris":{"android":"levelo://app?vid=ac95576c-82eb-44b7-a1ed-1a333494a201","ios":"levelo://app?vid=ac95576c-82eb-44b7-a1ed-1a333494a201"},"vehicle_type_id":"4","last_reported":1744218564,"current_range_meters":16000,"station_id":"ce4bhdp2rcd13ifvqf20","pricing_plan_id":"cebpf4jnsgd1na2vs0mg"},{"bike_id":"64e2cb8e-63fb-4a14-ace3-5760ecb16fc0","system_id":"levelo_inurba_marseille","lat":43.30949,"lon":5.39028,"is_reserved":false,"is_disabled":false,"rental_uris":{"android":"levelo://app?vid=64e2cb8e-63fb-4a14-ace3-5760ecb16fc0","ios":"levelo://app?vid=64e2cb8e-63fb-4a14-ace3-5760ecb16fc0"},"vehicle_type_id":"4","last_reported":1744218564,"current_range_meters":16000,"station_id":"ce4bgup2rcd13ifvqco0","pricing_plan_id":"cebpf4jnsgd1na2vs0mg"},{"bike_id":"42c1fdc6-38af-4ea1-a910-702e15d5a9b4","system_id":"levelo_inurba_marseille","lat":43.30929,"lon":5.40182,"is_reserved":false,"is_disabled":true,"rental_uris":{"android":"levelo://app?vid=42c1fdc6-38af-4ea1-a910-702e15d5a9b4","ios":"levelo://app?vid=42c1fdc6-38af-4ea1-a910-702e15d5a9b4"},"vehicle_type_id":"4","last_reported":1744218564,"current_range_meters":16000,"station_id":"ce4bgvp2rcd13ifvqct0","pricing_plan_id":"cebpf4jnsgd1na2vs0mg"},{"bike_id":"3e193bf4-ed71-43ce-9a37-9a250214b00c","system_id":"levelo_inurba_marseille","lat":43.27383,"lon":5.36203,"is_reserved":false,"is_disabled":false,"rental_uris":{"android":"levelo://app?vid=3e193bf4-ed71-43ce-9a37-9a250214b00c","ios":"levelo://app?vid=3e193bf4-ed71-43ce-9a37-9a250214b00c"},"vehicle_type_id":"4","last_reported":1744218564,"current_range_meters":16000,"station_id":"","pricing_plan_id":"cebpf4jnsgd1na2vs0mg"},{"bike_id":"2929d590-b2ef-43ea-98f7-8a7fee68e0cf","system_id":"levelo_inurba_marseille","lat":43.21752,"lon":5.34601,"is_reserved":false,"is_disabled":false,"rental_uris":{"android":"levelo://app?vid=2929d590-b2ef-43ea-98f7-8a7fee68e0cf","ios":"levelo://app?vid=2929d590-b2ef-43ea-98f7-8a7fee68e0cf"},"vehicle_type_id":"4","last_reported":1744218564,"current_range_meters":16400,"station_id":"","pricing_plan_id":"cebpf4jnsgd1na2vs0mg"},{"bike_id":"a648c7d4-c79b-404d-be09-837ec56372bc","system_id":"levelo_inurba_marseille","lat":43.28612,"lon":5.35103,"is_reserved":false,"is_disabled":false,"rental_uris":{"android":"levelo://app?vid=a648c7d4-c79b-404d-be09-837ec56372bc","ios":"levelo://app?vid=a648c7d4-c79b-404d-be09-837ec56372bc"},"vehicle_type_id":"4","last_reported":1744218564,"current_range_meters":16400,"station_id":"ce4bhch2rcd13ifvqeug","pricing_plan_id":"cebpf4jnsgd1na2vs0mg"},{"bike_id":"39f83220-5386-4594-b481-8d78bef7d574","system_id":"levelo_inurba_marseille","lat":43.29201,"lon":5.39324,"is_reserved":false,"is_disabled":false,"rental_uris":{"android":"levelo://app?vid=39f83220-5386-4594-b481-8d78bef7d574","ios":"levelo://app?vid=39f83220-5386-4594-b481-8d78bef7d574"},"vehicle_type_id":"4","last_reported":1744218564,"current_range_meters":16400,"station_id":"ce4bh192rcd13ifvqdd0","pricing_plan_id":"cebpf4jnsgd1na2vs0mg"},{"bike_id":"da3e3c2b-fc27-4ff4-b302-6233d0d1cae7","system_id":"levelo_inurba_marseille","lat":43.30954,"lon":5.39033,"is_reserved":false,"is_disabled":false,"rental_uris":{"android":"levelo://app?vid=da3e3c2b-fc27-4ff4-b302-6233d0d1cae7","ios":"levelo://app?vid=da3e3c2b-fc27-4ff4-b302-6233d0d1cae7"},"vehicle_type_id":"4","last_reported":1744218564,"current_range_meters":16400,"station_id":"ce4bgup2rcd13ifvqco0","pricing_plan_id":"cebpf4jnsgd1na2vs0mg"},{"bike_id":"597f229d-e5b2-4c1a-bbb5-6af49000c4fc","system_id":"levelo_inurba_marseille","lat":43.29271,"lon":5.38443,"is_reserved":false,"is_disabled":false,"rental_uris":{"android":"levelo://app?vid=597f229d-e5b2-4c1a-bbb5-6af49000c4fc","ios":"levelo://app?vid=597f229d-e5b2-4c1a-bbb5-6af49000c4fc"},"vehicle_type_id":"4","last_reported":1744218564,"current_range_meters":16400,"station_id":"ce4bh692rcd13ifvqea0","pricing_plan_id":"cebpf4jnsgd1na2vs0mg"},{"bike_id":"93fb948d-b430-489d-9e30-07473ac37cc7","system_id":"levelo_inurba_marseille","lat":43.24057,"lon":5.37747,"is_reserved":false,"is_disabled":false,"rental_uris":{"android":"levelo://app?vid=93fb948d-b430-489d-9e30-07473ac37cc7","ios":"levelo://app?vid=93fb948d-b430-489d-9e30-07473ac37cc7"},"vehicle_type_id":"4","last_reported":1744218564,"current_range_meters":16400,"station_id":"ce4bhnp2rcd13ifvqgvg","pricing_plan_id":"cebpf4jnsgd1na2vs0mg"},{"bike_id":"522792bd-c7df-480a-a6c2-f2b54e171021","system_id":"levelo_inurba_marseille","lat":43.28465,"lon":5.38433,"is_reserved":false,"is_disabled":false,"rental_uris":{"android":"levelo://app?vid=522792bd-c7df-480a-a6c2-f2b54e171021","ios":"levelo://app?vid=522792bd-c7df-480a-a6c2-f2b54e171021"},"vehicle_type_id":"4","last_reported":1744218564,"current_range_meters":16800,"station_id":"ce4bh512rcd13ifvqe3g","pricing_plan_id":"cebpf4jnsgd1na2vs0mg"},{"bike_id":"8f03617a-6019-41e5-955f-a7d8d63e4620","system_id":"levelo_inurba_marseille","lat":43.31119,"lon":5.37779,"is_reserved":false,"is_disabled":false,"rental_uris":{"android":"levelo://app?vid=8f03617a-6019-41e5-955f-a7d8d63e4620","ios":"levelo://app?vid=8f03617a-6019-41e5-955f-a7d8d63e4620"},"vehicle_type_id":"4","last_reported":1744218564,"current_range_meters":16800,"station_id":"ce4bgt92rcd13ifvqcg0","pricing_plan_id":"cebpf4jnsgd1na2vs0mg"},{"bike_id":"6f87cfd7-5069-472b-b1c9-d32f5d581745","system_id":"levelo_inurba_marseille","lat":43.32372,"lon":5.38889,"is_reserved":false,"is_disabled":false,"rental_uris":{"android":"levelo://app?vid=6f87cfd7-5069-472b-b1c9-d32f5d581745","ios":"levelo://app?vid=6f87cfd7-5069-472b-b1c9-d32f5d581745"},"vehicle_type_id":"4","last_reported":1744218564,"current_range_meters":16800,"station_id":"ce4bhqp2rcd13ifvqhog","pricing_plan_id":"cebpf4jnsgd1na2vs0mg"},{"bike_id":"b50c2cab-ef46-4099-b292-bd0ff46a605c","system_id":"levelo_inurba_marseille","lat":43.24812,"lon":5.37457,"is_reserved":false,"is_disabled":false,"rental_uris":{"android":"levelo://app?vid=b50c2cab-ef46-4099-b292-bd0ff46a605c","ios":"levelo://app?vid=b50c2cab-ef46-4099-b292-bd0ff46a605c"},"vehicle_type_id":"4","last_reported":1744218564,"current_range_meters":16800,"station_id":"ce4bhgh2rcd13ifvqfb0","pricing_plan_id":"cebpf4jnsgd1na2vs0mg"},{"bike_id":"a8a0cc3b-b1f0-472e-95f1-cbc08b509ff3","system_id":"levelo_inurba_marseille","lat":43.29417,"lon":5.38611,"is_reserved":false,"is_disabled":false,"rental_uris":{"android":"levelo://app?vid=a8a0cc3b-b1f0-472e-95f1-cbc08b509ff3","ios":"levelo://app?vid=a8a0cc3b-b1f0-472e-95f1-cbc08b509ff3"},"vehicle_type_id":"4","last_reported":1744218564,"current_range_meters":16800,"station_id":"ce4bh2h2rcd13ifvqdh0","pricing_plan_id":"cebpf4jnsgd1na2vs0mg"},{"bike_id":"1a3cd0ab-ec77-41b3-982c-74e5093499a8","system_id":"levelo_inurba_marseille","lat":43.3045,"lon":5.38886,"is_reserved":false,"is_disabled":true,"rental_uris":{"android":"levelo://app?vid=1a3cd0ab-ec77-41b3-982c-74e5093499a8","ios":"levelo://app?vid=1a3cd0ab-ec77-41b3-982c-74e5093499a8"},"vehicle_type_id":"4","last_reported":1744218564,"current_range_meters":16800,"station_id":"ce4bgk12rcd13ifvqbi0","pricing_plan_id":"cebpf4jnsgd1na2vs0mg"},{"bike_id":"e84b8cf3-23a0-41ed-a7da-d8ee52f95923","system_id":"levelo_inurba_marseille","lat":43.27622,"lon":5.36125,"is_reserved":false,"is_disabled":false,"rental_uris":{"android":"levelo://app?vid=e84b8cf3-23a0-41ed-a7da-d8ee52f95923","ios":"levelo://app?vid=e84b8cf3-23a0-41ed-a7da-d8ee52f95923"},"vehicle_type_id":"4","last_reported":1744218564,"current_range_meters":16800,"station_id":"ce4bgj92rcd13ifvqbe0","pricing_plan_id":"cebpf4jnsgd1na2vs0mg"},{"bike_id":"c90a11e8-608a-4a67-962f-fa9fcaea6021","system_id":"levelo_inurba_marseille","lat":43.287022,"lon":5.373773,"is_reserved":false,"is_disabled":false,"rental_uris":{"android":"levelo://app?vid=c90a11e8-608a-4a67-962f-fa9fcaea6021","ios":"levelo://app?vid=c90a11e8-608a-4a67-962f-fa9fcaea6021"},"vehicle_type_id":"4","last_reported":1744218564,"current_range_meters":17200,"station_id":"ce4bh3p2rcd13ifvqdq0","pricing_plan_id":"cebpf4jnsgd1na2vs0mg"},{"bike_id":"57ca3498-64c0-4e01-a6c4-b65284c91127","system_id":"levelo_inurba_marseille","lat":43.32367,"lon":5.38889,"is_reserved":false,"is_disabled":false,"rental_uris":{"android":"levelo://app?vid=57ca3498-64c0-4e01-a6c4-b65284c91127","ios":"levelo://app?vid=57ca3498-64c0-4e01-a6c4-b65284c91127"},"vehicle_type_id":"4","last_reported":1744218564,"current_range_meters":17200,"station_id":"ce4bhqp2rcd13ifvqhog","pricing_plan_id":"cebpf4jnsgd1na2vs0mg"},{"bike_id":"e52eca1a-23e4-42be-b8cc-c70f71b29d28","system_id":"levelo_inurba_marseille","lat":43.292739,"lon":5.384164,"is_reserved":false,"is_disabled":false,"rental_uris":{"android":"levelo://app?vid=e52eca1a-23e4-42be-b8cc-c70f71b29d28","ios":"levelo://app?vid=e52eca1a-23e4-42be-b8cc-c70f71b29d28"},"vehicle_type_id":"4","last_reported":1744218564,"current_range_meters":17200,"station_id":"ce4bgpp2rcd13ifvqc3g","pricing_plan_id":"cebpf4jnsgd1na2vs0mg"},{"bike_id":"066918e9-658d-41fb-94df-83bd20a02c25","system_id":"levelo_inurba_marseille","lat":43.23051,"lon":5.35491,"is_reserved":false,"is_disabled":true,"rental_uris":{"android":"levelo://app?vid=066918e9-658d-41fb-94df-83bd20a02c25","ios":"levelo://app?vid=066918e9-658d-41fb-94df-83bd20a02c25"},"vehicle_type_id":"4","last_reported":1744218564,"current_range_meters":17200,"station_id":"cpo3342slgdg3j2ifvpg","pricing_plan_id":"cebpf4jnsgd1na2vs0mg"},{"bike_id":"ba260ce7-c346-4426-9a40-e0bbd6c1a81c","system_id":"levelo_inurba_marseille","lat":43.29612,"lon":5.38158,"is_reserved":false,"is_disabled":false,"rental_uris":{"android":"levelo://app?vid=ba260ce7-c346-4426-9a40-e0bbd6c1a81c","ios":"levelo://app?vid=ba260ce7-c346-4426-9a40-e0bbd6c1a81c"},"vehicle_type_id":"4","last_reported":1744218564,"current_range_meters":17200,"station_id":"ce4bgl12rcd13ifvqbo0","pricing_plan_id":"cebpf4jnsgd1na2vs0mg"},{"bike_id":"78ada462-2383-449b-9e36-b599937d1dde","system_id":"levelo_inurba_marseille","lat":43.25586,"lon":5.38234,"is_reserved":false,"is_disabled":false,"rental_uris":{"android":"levelo://app?vid=78ada462-2383-449b-9e36-b599937d1dde","ios":"levelo://app?vid=78ada462-2383-449b-9e36-b599937d1dde"},"vehicle_type_id":"4","last_reported":1744218564,"current_range_meters":17200,"station_id":"ce4bhih2rcd13ifvqfs0","pricing_plan_id":"cebpf4jnsgd1na2vs0mg"},{"bike_id":"0b64c030-cd05-46b1-a788-790953765801","system_id":"levelo_inurba_marseille","lat":43.27377,"lon":5.36258,"is_reserved":false,"is_disabled":false,"rental_uris":{"android":"levelo://app?vid=0b64c030-cd05-46b1-a788-790953765801","ios":"levelo://app?vid=0b64c030-cd05-46b1-a788-790953765801"},"vehicle_type_id":"4","last_reported":1744218564,"current_range_meters":17200,"station_id":"ce4bhbh2rcd13ifvqeo0","pricing_plan_id":"cebpf4jnsgd1na2vs0mg"},{"bike_id":"43ddc771-6666-4c58-8204-7835e4ad8e95","system_id":"levelo_inurba_marseille","lat":43.26779,"lon":5.39458,"is_reserved":false,"is_disabled":false,"rental_uris":{"android":"levelo://app?vid=43ddc771-6666-4c58-8204-7835e4ad8e95","ios":"levelo://app?vid=43ddc771-6666-4c58-8204-7835e4ad8e95"},"vehicle_type_id":"4","last_reported":1744218564,"current_range_meters":17200,"station_id":"","pricing_plan_id":"cebpf4jnsgd1na2vs0mg"},{"bike_id":"5047455d-c97a-4875-9440-a0dd56a0356d","system_id":"levelo_inurba_marseille","lat":43.32365,"lon":5.36719,"is_reserved":false,"is_disabled":false,"rental_uris":{"android":"levelo://app?vid=5047455d-c97a-4875-9440-a0dd56a0356d","ios":"levelo://app?vid=5047455d-c97a-4875-9440-a0dd56a0356d"},"vehicle_type_id":"4","last_reported":1744218564,"current_range_meters":17200,"station_id":"ce4bhsh2rcd13ifvqi2g","pricing_plan_id":"cebpf4jnsgd1na2vs0mg"},{"bike_id":"f78bf8a8-b506-43e9-9fc4-9ec4cb688e82","system_id":"levelo_inurba_marseille","lat":43.321106,"lon":5.367772,"is_reserved":false,"is_disabled":false,"rental_uris":{"android":"levelo://app?vid=f78bf8a8-b506-43e9-9fc4-9ec4cb688e82","ios":"levelo://app?vid=f78bf8a8-b506-43e9-9fc4-9ec4cb688e82"},"vehicle_type_id":"4","last_reported":1744218564,"current_range_meters":17600,"station_id":"ce4bhrh2rcd13ifvqhug","pricing_plan_id":"cebpf4jnsgd1na2vs0mg"},{"bike_id":"e3c3a051-8134-4ed3-913b-374aa217874c","system_id":"levelo_inurba_marseille","lat":43.2559,"lon":5.40455,"is_reserved":false,"is_disabled":false,"rental_uris":{"android":"levelo://app?vid=e3c3a051-8134-4ed3-913b-374aa217874c","ios":"levelo://app?vid=e3c3a051-8134-4ed3-913b-374aa217874c"},"vehicle_type_id":"4","last_reported":1744218564,"current_range_meters":17600,"station_id":"","pricing_plan_id":"cebpf4jnsgd1na2vs0mg"},{"bike_id":"6e6fa2a2-1377-4e06-a48e-4f0a93e5cc21","system_id":"levelo_inurba_marseille","lat":43.27567,"lon":5.38428,"is_reserved":false,"is_disabled":false,"rental_uris":{"android":"levelo://app?vid=6e6fa2a2-1377-4e06-a48e-4f0a93e5cc21","ios":"levelo://app?vid=6e6fa2a2-1377-4e06-a48e-4f0a93e5cc21"},"vehicle_type_id":"4","last_reported":1744218564,"current_range_meters":17200,"station_id":"ce4bhh92rcd13ifvqfi0","pricing_plan_id":"cebpf4jnsgd1na2vs0mg"},{"bike_id":"fca7f33c-6695-4798-856e-2e6ea5934354","system_id":"levelo_inurba_marseille","lat":43.3054,"lon":5.3842,"is_reserved":false,"is_disabled":false,"rental_uris":{"android":"levelo://app?vid=fca7f33c-6695-4798-856e-2e6ea5934354","ios":"levelo://app?vid=fca7f33c-6695-4798-856e-2e6ea5934354"},"vehicle_type_id":"4","last_reported":1744218564,"current_range_meters":17600,"station_id":"ce4bgg92rcd13ifvqb30","pricing_plan_id":"cebpf4jnsgd1na2vs0mg"},{"bike_id":"d1f92f28-9609-4256-bd4a-880c7b09d4e8","system_id":"levelo_inurba_marseille","lat":43.29326,"lon":5.4116,"is_reserved":false,"is_disabled":false,"rental_uris":{"android":"levelo://app?vid=d1f92f28-9609-4256-bd4a-880c7b09d4e8","ios":"levelo://app?vid=d1f92f28-9609-4256-bd4a-880c7b09d4e8"},"vehicle_type_id":"4","last_reported":1744218564,"current_range_meters":17600,"station_id":"","pricing_plan_id":"cebpf4jnsgd1na2vs0mg"},{"bike_id":"0c2d954f-e1fb-4d4e-95d2-2ea809a8181a","system_id":"levelo_inurba_marseille","lat":43.29259,"lon":5.40909,"is_reserved":false,"is_disabled":false,"rental_uris":{"android":"levelo://app?vid=0c2d954f-e1fb-4d4e-95d2-2ea809a8181a","ios":"levelo://app?vid=0c2d954f-e1fb-4d4e-95d2-2ea809a8181a"},"vehicle_type_id":"4","last_reported":1744218564,"current_range_meters":17600,"station_id":"ce4bh192rcd13ifvqdc0","pricing_plan_id":"cebpf4jnsgd1na2vs0mg"},{"bike_id":"44abbb1a-d871-450d-afa3-19ca84567adf","system_id":"levelo_inurba_marseille","lat":43.29848,"lon":5.36283,"is_reserved":false,"is_disabled":false,"rental_uris":{"android":"levelo://app?vid=44abbb1a-d871-450d-afa3-19ca84567adf","ios":"levelo://app?vid=44abbb1a-d871-450d-afa3-19ca84567adf"},"vehicle_type_id":"4","last_reported":1744218564,"current_range_meters":18000,"station_id":"ce4bgpp2rcd13ifvqc3g","pricing_plan_id":"cebpf4jnsgd1na2vs0mg"},{"bike_id":"79a5f007-7ed1-49af-a2f3-9f387b154b24","system_id":"levelo_inurba_marseille","lat":43.30117,"lon":5.39849,"is_reserved":false,"is_disabled":false,"rental_uris":{"android":"levelo://app?vid=79a5f007-7ed1-49af-a2f3-9f387b154b24","ios":"levelo://app?vid=79a5f007-7ed1-49af-a2f3-9f387b154b24"},"vehicle_type_id":"4","last_reported":1744218564,"current_range_meters":18000,"station_id":"ce4bh0h2rcd13ifvqd40","pricing_plan_id":"cebpf4jnsgd1na2vs0mg"},{"bike_id":"488e45b7-20d2-4d8a-9c86-0c15c3483b54","system_id":"levelo_inurba_marseille","lat":43.31999,"lon":5.38166,"is_reserved":false,"is_disabled":false,"rental_uris":{"android":"levelo://app?vid=488e45b7-20d2-4d8a-9c86-0c15c3483b54","ios":"levelo://app?vid=488e45b7-20d2-4d8a-9c86-0c15c3483b54"},"vehicle_type_id":"4","last_reported":1744218564,"current_range_meters":18000,"station_id":"ce4bhr12rcd13ifvqhpg","pricing_plan_id":"cebpf4jnsgd1na2vs0mg"},{"bike_id":"50685c51-94d0-4002-a53c-0e460c841376","system_id":"levelo_inurba_marseille","lat":43.28417,"lon":5.37506,"is_reserved":false,"is_disabled":false,"rental_uris":{"android":"levelo://app?vid=50685c51-94d0-4002-a53c-0e460c841376","ios":"levelo://app?vid=50685c51-94d0-4002-a53c-0e460c841376"},"vehicle_type_id":"4","last_reported":1744218564,"current_range_meters":18000,"station_id":"ce4bh412rcd13ifvqds0","pricing_plan_id":"cebpf4jnsgd1na2vs0mg"},{"bike_id":"8a4ea130-aaf8-47b8-b8fb-6866acb56957","system_id":"levelo_inurba_marseille","lat":43.26944,"lon":5.40251,"is_reserved":false,"is_disabled":false,"rental_uris":{"android":"levelo://app?vid=8a4ea130-aaf8-47b8-b8fb-6866acb56957","ios":"levelo://app?vid=8a4ea130-aaf8-47b8-b8fb-6866acb56957"},"vehicle_type_id":"4","last_reported":1744218564,"current_range_meters":18000,"station_id":"cjm6bp8fraef2m0cb0m0","pricing_plan_id":"cebpf4jnsgd1na2vs0mg"},{"bike_id":"a1a6e143-2e45-4ef1-87b1-4d94600aa9ed","system_id":"levelo_inurba_marseille","lat":43.27418,"lon":5.39409,"is_reserved":false,"is_disabled":false,"rental_uris":{"android":"levelo://app?vid=a1a6e143-2e45-4ef1-87b1-4d94600aa9ed","ios":"levelo://app?vid=a1a6e143-2e45-4ef1-87b1-4d94600aa9ed"},"vehicle_type_id":"4","last_reported":1744218564,"current_range_meters":17600,"station_id":"ce4bhdp2rcd13ifvqf20","pricing_plan_id":"cebpf4jnsgd1na2vs0mg"},{"bike_id":"640b6901-af87-4cbb-84ba-cf000e7c8d63","system_id":"levelo_inurba_marseille","lat":43.26483,"lon":5.39565,"is_reserved":false,"is_disabled":true,"rental_uris":{"android":"levelo://app?vid=640b6901-af87-4cbb-84ba-cf000e7c8d63","ios":"levelo://app?vid=640b6901-af87-4cbb-84ba-cf000e7c8d63"},"vehicle_type_id":"4","last_reported":1744218564,"current_range_meters":18000,"station_id":"ce4bhi12rcd13ifvqfq0","pricing_plan_id":"cebpf4jnsgd1na2vs0mg"},{"bike_id":"7767a2ce-0f4e-4308-b757-46f19459e884","system_id":"levelo_inurba_marseille","lat":43.29266,"lon":5.38437,"is_reserved":false,"is_disabled":false,"rental_uris":{"android":"levelo://app?vid=7767a2ce-0f4e-4308-b757-46f19459e884","ios":"levelo://app?vid=7767a2ce-0f4e-4308-b757-46f19459e884"},"vehicle_type_id":"4","last_reported":1744218564,"current_range_meters":18000,"station_id":"ce4bh692rcd13ifvqea0","pricing_plan_id":"cebpf4jnsgd1na2vs0mg"},{"bike_id":"39d569f2-804d-4c1f-93cb-ffdd8bba0563","system_id":"levelo_inurba_marseille","lat":43.30548,"lon":5.38403,"is_reserved":false,"is_disabled":true,"rental_uris":{"android":"levelo://app?vid=39d569f2-804d-4c1f-93cb-ffdd8bba0563","ios":"levelo://app?vid=39d569f2-804d-4c1f-93cb-ffdd8bba0563"},"vehicle_type_id":"4","last_reported":1744218564,"current_range_meters":18800,"station_id":"ce4bgg92rcd13ifvqb30","pricing_plan_id":"cebpf4jnsgd1na2vs0mg"},{"bike_id":"b497cd61-1442-4cef-a2f9-b026948cab44","system_id":"levelo_inurba_marseille","lat":43.29196,"lon":5.39319,"is_reserved":false,"is_disabled":false,"rental_uris":{"android":"levelo://app?vid=b497cd61-1442-4cef-a2f9-b026948cab44","ios":"levelo://app?vid=b497cd61-1442-4cef-a2f9-b026948cab44"},"vehicle_type_id":"4","last_reported":1744218564,"current_range_meters":18800,"station_id":"ce4bh192rcd13ifvqdd0","pricing_plan_id":"cebpf4jnsgd1na2vs0mg"},{"bike_id":"d0fb29be-9904-4591-882f-d21bc08f5c6b","system_id":"levelo_inurba_marseille","lat":43.286883,"lon":5.379215,"is_reserved":false,"is_disabled":false,"rental_uris":{"android":"levelo://app?vid=d0fb29be-9904-4591-882f-d21bc08f5c6b","ios":"levelo://app?vid=d0fb29be-9904-4591-882f-d21bc08f5c6b"},"vehicle_type_id":"4","last_reported":1744218564,"current_range_meters":18800,"station_id":"ce4bh9p2rcd13ifvqec0","pricing_plan_id":"cebpf4jnsgd1na2vs0mg"},{"bike_id":"ef291804-1477-432e-b153-82ea15725418","system_id":"levelo_inurba_marseille","lat":43.3381,"lon":5.37463,"is_reserved":false,"is_disabled":false,"rental_uris":{"android":"levelo://app?vid=ef291804-1477-432e-b153-82ea15725418","ios":"levelo://app?vid=ef291804-1477-432e-b153-82ea15725418"},"vehicle_type_id":"4","last_reported":1744218564,"current_range_meters":18800,"station_id":"","pricing_plan_id":"cebpf4jnsgd1na2vs0mg"},