{"last_updated":1720501700,"ttl":30,"version":"2.2","data":{"bikes":[{"bike_id":"c9923dd3-2765-4e80-b6e6-b55517b0d76d","system_id":"levelo_inurba_marseille","lat":43.313391,"lon":5.36706,"is_reserved":false,"is_disabled":false,"rental_uris":{"android":"levelo://app?vid=c9923dd3-2765-4e80-b6e6-b55517b0d76d","ios":"levelo://app?vid=c9923dd3-2765-4e80-b6e6-b55517b0d76d"},"vehicle_type_id":"4","last_reported":1720501700,"current_range_meters":21600,"station_id":"ce4bgr92rcd13ifvqc6g","pricing_plan_id":"cebpf4jnsgd1na2vs0mg"},{"bike_id":"d93c9245-6500-49c9-86df-de2de404ec39","system_id":"levelo_inurba_marseille","lat":43.313391,"lon":5.36706,"is_reserved":false,"is_disabled":false,"rental_uris":{"android":"levelo://app?vid=d93c9245-6500-49c9-86df-de2de404ec39","ios":"levelo://app?vid=d93c9245-6500-49c9-86df-de2de404ec39"},"vehicle_type_id":"4","last_reported":1720501700,"current_range_meters":25600,"station_id":"ce4bgr92rcd13ifvqc6g","pricing_plan_id":"cebpf4jnsgd1na2vs0mg"},{"bike_id":"be9d0d6d-8671-4fd5-b83a-ae0c66c68713","system_id":"levelo_inurba_marseille","lat":43.313391,"lon":5.36706,"is_reserved":false,"is_disabled":false,"rental_uris":{"android":"levelo://app?vid=be9d0d6d-8671-4fd5-b83a-ae0c66c68713","ios":"levelo://app?vid=be9d0d6d-8671-4fd5-b83a-ae0c66c68713"},"vehicle_type_id":"4","last_reported":1720501700,"current_range_meters":7600,"station_id":"ce4bgr92rcd13ifvqc6g","pricing_plan_id":"cebpf4jnsgd1na2vs0mg"},{"bike_id":"bafc1842-df63-49e6-b315-42b9a3ddca4e","system_id":"levelo_inurba_marseille","lat":43.313391,"lon":5.36706,"is_reserved":false,"is_disabled":false,"rental_uris":{"android":"levelo://app?vid=bafc1842-df63-49e6-b315-42b9a3ddca4e","ios":"levelo://app?vid=bafc1842-df63-49e6-b315-42b9a3ddca4e"},"vehicle_type_id":"4","last_reported":1720501700,"current_range_meters":23200,"station_id":"ce4bgr92rcd13ifvqc6g","pricing_plan_id":"cebpf4jnsgd1na2vs0mg"},{"bike_id":"d459b0c6-0bd9-45de-8ae0-d8f88f7e5912","system_id":"levelo_inurba_marseille","lat":43.312239,"lon":5.368562,"is_reserved":false,"is_disabled":false,"rental_uris":{"android":"levelo://app?vid=d459b0c6-0bd9-45de-8ae0-d8f88f7e5912","ios":"levelo://app?vid=d459b0c6-0bd9-45de-8ae0-d8f88f7e5912"},"vehicle_type_id":"4","last_reported":1720501700,"current_range_meters":28000,"station_id":"ce4bgl92rcd13ifvqbq0","pricing_plan_id":"cebpf4jnsgd1na2vs0mg"},{"bike_id":"1991fa48-da20-426e-a19a-e34c61926a3e","system_id":"levelo_inurba_marseille","lat":43.312239,"lon":5.368562,"is_reserved":false,"is_disabled":false,"rental_uris":{"android":"levelo://app?vid=1991fa48-da20-426e-a19a-e34c61926a3e","ios":"levelo://app?vid=1991fa48-da20-426e-a19a-e34c61926a3e"},"vehicle_type_id":"4","last_reported":1720501700,"current_range_meters":22400,"station_id":"ce4bgl92rcd13ifvqbq0","pricing_plan_id":"cebpf4jnsgd1na2vs0mg"},{"bike_id":"567aeb04-8cf2-4d0e-af8b-24bd508e18fe","system_id":"levelo_inurba_marseille","lat":43.312239,"lon":5.368562,"is_reserved":false,"is_disabled":false,"rental_uris":{"android":"levelo://app?vid=567aeb04-8cf2-4d0e-af8b-24bd508e18fe","ios":"levelo://app?vid=567aeb04-8cf2-4d0e-af8b-24bd508e18fe"},"vehicle_type_id":"4","last_reported":1720501700,"current_range_meters":27600,"station_id":"ce4bgl92rcd13ifvqbq0","pricing_plan_id":"cebpf4jnsgd1na2vs0mg"},{"bike_id":"caa482ef-46f2-435d-b61c-467e42dc5097","system_id":"levelo_inurba_marseille","lat":43.312239,"lon":5.368562,"is_reserved":false,"is_disabled":false,"rental_uris":{"android":"levelo://app?vid=caa482ef-46f2-435d-b61c-467e42dc5097","ios":"levelo://app?vid=caa482ef-46f2-435d-b61c-467e42dc5097"},"vehicle_type_id":"4","last_reported":1720501700,"current_range_meters":8800,"station_id":"ce4bgl92rcd13ifvqbq0","pricing_plan_id":"cebpf4jnsgd1na2vs0mg"},{"bike_id":"6e0aab5e-abb9-468d-a6f8-85fe7da39be8","system_id":"levelo_inurba_marseille","lat":43.312239,"lon":5.368562,"is_reserved":false,"is_disabled":false,"rental_uris":{"android":"levelo://app?vid=6e0aab5e-abb9-468d-a6f8-85fe7da39be8","ios":"levelo://app?vid=6e0aab5e-abb9-468d-a6f8-85fe7da39be8"},"vehicle_type_id":"4","last_reported":1720501700,"current_range_meters":31200,"station_id":"ce4bgl92rcd13ifvqbq0","pricing_plan_id":"cebpf4jnsgd1na2vs0mg"},{"bike_id":"92c251ec-51a2-4ba2-9280-35ea2c7f2d51","system_id":"levelo_inurba_marseille","lat":43.309076,"lon":5.368465,"is_reserved":false,"is_disabled":false,"rental_uris":{"android":"levelo://app?vid=92c251ec-51a2-4ba2-9280-35ea2c7f2d51","ios":"levelo://app?vid=92c251ec-51a2-4ba2-9280-35ea2c7f2d51"},"vehicle_type_id":"4","last_reported":1720501700,"current_range_meters":15200,"station_id":"ce4bgn92rcd13ifvqbvg","pricing_plan_id":"cebpf4jnsgd1na2vs0mg"},{"bike_id":"2e4100d4-eb65-496e-a7ae-a344083621b9","system_id":"levelo_inurba_marseille","lat":43.314811,"lon":5.373103,"is_reserved":false,"is_disabled":false,"rental_uris":{"android":"levelo://app?vid=2e4100d4-eb65-496e-a7ae-a344083621b9","ios":"levelo://app?vid=2e4100d4-eb65-496e-a7ae-a344083621b9"},"vehicle_type_id":"4","last_reported":1720501700,"current_range_meters":30400,"station_id":"ce4bgt12rcd13ifvqcd0","pricing_plan_id":"cebpf4jnsgd1na2vs0mg"},{"bike_id":"5cf031b1-e9a5-4d5d-be4a-ea1fba1d489f","system_id":"levelo_inurba_marseille","lat":43.314811,"lon":5.373103,"is_reserved":false,"is_disabled":false,"rental_uris":{"android":"levelo://app?vid=5cf031b1-e9a5-4d5d-be4a-ea1fba1d489f","ios":"levelo://app?vid=5cf031b1-e9a5-4d5d-be4a-ea1fba1d489f"},"vehicle_type_id":"4","last_reported":1720501700,"current_range_meters":31200,"station_id":"ce4bgt12rcd13ifvqcd0","pricing_plan_id":"cebpf4jnsgd1na2vs0mg"},{"bike_id":"99d6aa2e-0dc6-412e-a06d-f10f9bf5a5f9","system_id":"levelo_inurba_marseille","lat":43.314811,"lon":5.373104,"is_reserved":false,"is_disabled":false,"rental_uris":{"android":"levelo://app?vid=99d6aa2e-0dc6-412e-a06d-f10f9bf5a5f9","ios":"levelo://app?vid=99d6aa2e-0dc6-412e-a06d-f10f9bf5a5f9"},"vehicle_type_id":"4","last_reported":1720501700,"current_range_meters":28000,"station_id":"ce4bgt12rcd13ifvqcd0","pricing_plan_id":"cebpf4jnsgd1na2vs0mg"},{"bike_id":"b81c2de3-4735-4eb8-a071-949ef4708dbb","system_id":"levelo_inurba_marseille","lat":43.309039,"lon":5.371797,"is_reserved":false,"is_disabled":false,"rental_uris":{"android":"levelo://app?vid=b81c2de3-4735-4eb8-a071-949ef4708dbb","ios":"levelo://app?vid=b81c2de3-4735-4eb8-a071-949ef4708dbb"},"vehicle_type_id":"4","last_reported":1720501700,"current_range_meters":31200,"station_id":"ce4bguh2rcd13ifvqckg","pricing_plan_id":"cebpf4jnsgd1na2vs0mg"},{"bike_id":"bbf0a617-a1ba-4369-8e35-cb47cf26cc55","system_id":"levelo_inurba_marseille","lat":43.314496,"lon":5.373926,"is_reserved":false,"is_disabled":false,"rental_uris":{"android":"levelo://app?vid=bbf0a617-a1ba-4369-8e35-cb47cf26cc55","ios":"levelo://app?vid=bbf0a617-a1ba-4369-8e35-cb47cf26cc55"},"vehicle_type_id":"4","last_reported":1720501700,"current_range_meters":11200,"station_id":"","pricing_plan_id":"cebpf4jnsgd1na2vs0mg"},{"bike_id":"4ecc26c7-a132-4640-938f-f37049f7b259","system_id":"levelo_inurba_marseille","lat":43.308151,"lon":5.37111,"is_reserved":false,"is_disabled":false,"rental_uris":{"android":"levelo://app?vid=4ecc26c7-a132-4640-938f-f37049f7b259","ios":"levelo://app?vid=4ecc26c7-a132-4640-938f-f37049f7b259"},"vehicle_type_id":"4","last_reported":1720501700,"current_range_meters":0,"station_id":"","pricing_plan_id":"cebpf4jnsgd1na2vs0mg"},{"bike_id":"525d1a09-10f2-4d1f-aaed-9579fe1b9575","system_id":"levelo_inurba_marseille","lat":43.30847,"lon":5.37476,"is_reserved":false,"is_disabled":false,"rental_uris":{"android":"levelo://app?vid=525d1a09-10f2-4d1f-aaed-9579fe1b9575","ios":"levelo://app?vid=525d1a09-10f2-4d1f-aaed-9579fe1b9575"},"vehicle_type_id":"4","last_reported":1720501700,"current_range_meters":16400,"station_id":"","pricing_plan_id":"cebpf4jnsgd1na2vs0mg"},{"bike_id":"2061d109-34b6-4c9e-9599-80348f290728","system_id":"levelo_inurba_marseille","lat":43.305534,"lon":5.367067,"is_reserved":false,"is_disabled":false,"rental_uris":{"android":"levelo://app?vid=2061d109-34b6-4c9e-9599-80348f290728","ios":"levelo://app?vid=2061d109-34b6-4c9e-9599-80348f290728"},"vehicle_type_id":"4","last_reported":1720501700,"current_range_meters":11200,"station_id":"ce4bgrp2rcd13ifvqc9g","pricing_plan_id":"cebpf4jnsgd1na2vs0mg"},{"bike_id":"93612f2b-fa75-4ee4-985d-e5db782c5b4a","system_id":"levelo_inurba_marseille","lat":43.30537,"lon":5.367345,"is_reserved":false,"is_disabled":false,"rental_uris":{"android":"levelo://app?vid=93612f2b-fa75-4ee4-985d-e5db782c5b4a","ios":"levelo://app?vid=93612f2b-fa75-4ee4-985d-e5db782c5b4a"},"vehicle_type_id":"4","last_reported":1720501700,"current_range_meters":29600,"station_id":"ce4bgrp2rcd13ifvqc9g","pricing_plan_id":"cebpf4jnsgd1na2vs0mg"},{"bike_id":"8c7c93ca-eee3-4ce0-be2f-4b740987cd66","system_id":"levelo_inurba_marseille","lat":43.30534,"lon":5.36661,"is_reserved":false,"is_disabled":false,"rental_uris":{"android":"levelo://app?vid=8c7c93ca-eee3-4ce0-be2f-4b740987cd66","ios":"levelo://app?vid=8c7c93ca-eee3-4ce0-be2f-4b740987cd66"},"vehicle_type_id":"4","last_reported":1720501700,"current_range_meters":22400,"station_id":"","pricing_plan_id":"cebpf4jnsgd1na2vs0mg"},{"bike_id":"3966fae5-8ec6-40d2-afe0-9b55e39c167d","system_id":"levelo_inurba_marseille","lat":43.305706,"lon":5.365654,"is_reserved":false,"is_disabled":false,"rental_uris":{"android":"levelo://app?vid=3966fae5-8ec6-40d2-afe0-9b55e39c167d","ios":"levelo://app?vid=3966fae5-8ec6-40d2-afe0-9b55e39c167d"},"vehicle_type_id":"4","last_reported":1720501700,"current_range_meters":7200,"station_id":"ce4bgs12rcd13ifvqcag","pricing_plan_id":"cebpf4jnsgd1na2vs0mg"},{"bike_id":"bc794bb7-4f3f-458d-8c5e-c459e32b447e","system_id":"levelo_inurba_marseille","lat":43.305706,"lon":5.365654,"is_reserved":false,"is_disabled":false,"rental_uris":{"android":"levelo://app?vid=bc794bb7-4f3f-458d-8c5e-c459e32b447e","ios":"levelo://app?vid=bc794bb7-4f3f-458d-8c5e-c459e32b447e"},"vehicle_type_id":"4","last_reported":1720501700,"current_range_meters":23600,"station_id":"ce4bgs12rcd13ifvqcag","pricing_plan_id":"cebpf4jnsgd1na2vs0mg"},{"bike_id":"ed429c38-6858-4a37-8234-5a6ae4f34bd2","system_id":"levelo_inurba_marseille","lat":43.305989,"lon":5.37225,"is_reserved":false,"is_disabled":false,"rental_uris":{"android":"levelo://app?vid=ed429c38-6858-4a37-8234-5a6ae4f34bd2","ios":"levelo://app?vid=ed429c38-6858-4a37-8234-5a6ae4f34bd2"},"vehicle_type_id":"4","last_reported":1720501700,"current_range_meters":20400,"station_id":"ce4bgqh2rcd13ifvqc4g","pricing_plan_id":"cebpf4jnsgd1na2vs0mg"},{"bike_id":"2ae8bed3-4d63-47af-a4e1-c5a6de97f24d","system_id":"levelo_inurba_marseille","lat":43.305989,"lon":5.37225,"is_reserved":false,"is_disabled":false,"rental_uris":{"android":"levelo://app?vid=2ae8bed3-4d63-47af-a4e1-c5a6de97f24d","ios":"levelo://app?vid=2ae8bed3-4d63-47af-a4e1-c5a6de97f24d"},"vehicle_type_id":"4","last_reported":1720501700,"current_range_meters":31200,"station_id":"ce4bgqh2rcd13ifvqc4g","pricing_plan_id":"cebpf4jnsgd1na2vs0mg"},{"bike_id":"133714ed-a787-4659-97e7-ba26cd755ed8","system_id":"levelo_inurba_marseille","lat":43.311125,"lon":5.377624,"is_reserved":false,"is_disabled":false,"rental_uris":{"android":"levelo://app?vid=133714ed-a787-4659-97e7-ba26cd755ed8","ios":"levelo://app?vid=133714ed-a787-4659-97e7-ba26cd755ed8"},"vehicle_type_id":"4","last_reported":1720501700,"current_range_meters":2800,"station_id":"ce4bgt92rcd13ifvqcg0","pricing_plan_id":"cebpf4jnsgd1na2vs0mg"},{"bike_id":"bfc8a2e0-28d4-4632-8156-9366eeef6a69","system_id":"levelo_inurba_marseille","lat":43.311181,"lon":5.377622,"is_reserved":false,"is_disabled":false,"rental_uris":{"android":"levelo://app?vid=bfc8a2e0-28d4-4632-8156-9366eeef6a69","ios":"levelo://app?vid=bfc8a2e0-28d4-4632-8156-9366eeef6a69"},"vehicle_type_id":"4","last_reported":1720501700,"current_range_meters":24800,"station_id":"ce4bgt92rcd13ifvqcg0","pricing_plan_id":"cebpf4jnsgd1na2vs0mg"},{"bike_id":"3fd7ef14-04dc-450f-b1f4-c867d5926a1f","system_id":"levelo_inurba_marseille","lat":43.311131,"lon":5.377651,"is_reserved":false,"is_disabled":false,"rental_uris":{"android":"levelo://app?vid=3fd7ef14-04dc-450f-b1f4-c867d5926a1f","ios":"levelo://app?vid=3fd7ef14-04dc-450f-b1f4-c867d5926a1f"},"vehicle_type_id":"4","last_reported":1720501700,"current_range_meters":12000,"station_id":"ce4bgt92rcd13ifvqcg0","pricing_plan_id":"cebpf4jnsgd1na2vs0mg"},{"bike_id":"7a49add5-971b-4f63-902a-9f45170eb612","system_id":"levelo_inurba_marseille","lat":43.311125,"lon":5.377624,"is_reserved":false,"is_disabled":false,"rental_uris":{"android":"levelo://app?vid=7a49add5-971b-4f63-902a-9f45170eb612","ios":"levelo://app?vid=7a49add5-971b-4f63-902a-9f45170eb612"},"vehicle_type_id":"4","last_reported":1720501700,"current_range_meters":3600,"station_id":"ce4bgt92rcd13ifvqcg0","pricing_plan_id":"cebpf4jnsgd1na2vs0mg"},{"bike_id":"2088f9af-0ce8-4963-8f36-a55e65f25594","system_id":"levelo_inurba_marseille","lat":43.311125,"lon":5.377624,"is_reserved":false,"is_disabled":false,"rental_uris":{"android":"levelo://app?vid=2088f9af-0ce8-4963-8f36-a55e65f25594","ios":"levelo://app?vid=2088f9af-0ce8-4963-8f36-a55e65f25594"},"vehicle_type_id":"4","last_reported":1720501700,"current_range_meters":24800,"station_id":"ce4bgt92rcd13ifvqcg0","pricing_plan_id":"cebpf4jnsgd1na2vs0mg"},{"bike_id":"27348171-559f-419d-951f-fdadb937449f","system_id":"levelo_inurba_marseille","lat":43.311125,"lon":5.377624,"is_reserved":false,"is_disabled":false,"rental_uris":{"android":"levelo://app?vid=27348171-559f-419d-951f-fdadb937449f","ios":"levelo://app?vid=27348171-559f-419d-951f-fdadb937449f"},"vehicle_type_id":"4","last_reported":1720501700,"current_range_meters":29200,"station_id":"ce4bgt92rcd13ifvqcg0","pricing_plan_id":"cebpf4jnsgd1na2vs0mg"},{"bike_id":"95bfdc58-fe5f-4703-8d1c-a95b072283c6","system_id":"levelo_inurba_marseille","lat":43.311125,"lon":5.377624,"is_reserved":false,"is_disabled":false,"rental_uris":{"android":"levelo://app?vid=95bfdc58-fe5f-4703-8d1c-a95b072283c6","ios":"levelo://app?vid=95bfdc58-fe5f-4703-8d1c-a95b072283c6"},"vehicle_type_id":"4","last_reported":1720501700,"current_range_meters":7200,"station_id":"ce4bgt92rcd13ifvqcg0","pricing_plan_id":"cebpf4jnsgd1na2vs0mg"},{"bike_id":"80cb0de6-3faa-4b97-a79d-c9213349e355","system_id":"levelo_inurba_marseille","lat":43.311125,"lon":5.377624,"is_reserved":false,"is_disabled":false,"rental_uris":{"android":"levelo://app?vid=80cb0de6-3faa-4b97-a79d-c9213349e355","ios":"levelo://app?vid=80cb0de6-3faa-4b97-a79d-c9213349e355"},"vehicle_type_id":"4","last_reported":1720501700,"current_range_meters":19200,"station_id":"ce4bgt92rcd13ifvqcg0","pricing_plan_id":"cebpf4jnsgd1na2vs0mg"},{"bike_id":"5e58293c-d1f1-4c62-aa88-fbb5a0b4060b","system_id":"levelo_inurba_marseille","lat":43.311125,"lon":5.377624,"is_reserved":false,"is_disabled":false,"rental_uris":{"android":"levelo://app?vid=5e58293c-d1f1-4c62-aa88-fbb5a0b4060b","ios":"levelo://app?vid=5e58293c-d1f1-4c62-aa88-fbb5a0b4060b"},"vehicle_type_id":"4","last_reported":1720501700,"current_range_meters":4400,"station_id":"ce4bgt92rcd13ifvqcg0","pricing_plan_id":"cebpf4jnsgd1na2vs0mg"},{"bike_id":"6516d55c-3cd9-4c61-8cb5-92911865cebd","system_id":"levelo_inurba_marseille","lat":43.311125,"lon":5.377624,"is_reserved":false,"is_disabled":false,"rental_uris":{"android":"levelo://app?vid=6516d55c-3cd9-4c61-8cb5-92911865cebd","ios":"levelo://app?vid=6516d55c-3cd9-4c61-8cb5-92911865cebd"},"vehicle_type_id":"4","last_reported":1720501700,"current_range_meters":31200,"station_id":"ce4bgt92rcd13ifvqcg0","pricing_plan_id":"cebpf4jnsgd1na2vs0mg"},{"bike_id":"f35f35f5-e86f-4d1f-a678-cfa7d22310ed","system_id":"levelo_inurba_marseille","lat":43.311125,"lon":5.377624,"is_reserved":false,"is_disabled":false,"rental_uris":{"android":"levelo://app?vid=f35f35f5-e86f-4d1f-a678-cfa7d22310ed","ios":"levelo://app?vid=f35f35f5-e86f-4d1f-a678-cfa7d22310ed"},"vehicle_type_id":"4","last_reported":1720501700,"current_range_meters":8400,"station_id":"ce4bgt92rcd13ifvqcg0","pricing_plan_id":"cebpf4jnsgd1na2vs0mg"},{"bike_id":"9a5e4a66-be58-4c8d-b00d-c5d7254a2937","system_id":"levelo_inurba_marseille","lat":43.311125,"lon":5.377624,"is_reserved":false,"is_disabled":false,"rental_uris":{"android":"levelo://app?vid=9a5e4a66-be58-4c8d-b00d-c5d7254a2937","ios":"levelo://app?vid=9a5e4a66-be58-4c8d-b00d-c5d7254a2937"},"vehicle_type_id":"4","last_reported":1720501700,"current_range_meters":23600,"station_id":"ce4bgt92rcd13ifvqcg0","pricing_plan_id":"cebpf4jnsgd1na2vs0mg"},{"bike_id":"99d0ab1c-4c59-4dfe-a30b-df21f39ae2d0","system_id":"levelo_inurba_marseille","lat":43.307945,"lon":5.376487,"is_reserved":false,"is_disabled":false,"rental_uris":{"android":"levelo://app?vid=99d0ab1c-4c59-4dfe-a30b-df21f39ae2d0","ios":"levelo://app?vid=99d0ab1c-4c59-4dfe-a30b-df21f39ae2d0"},"vehicle_type_id":"4","last_reported":1720501700,"current_range_meters":22800,"station_id":"ce4bgv92rcd13ifvqcq0","pricing_plan_id":"cebpf4jnsgd1na2vs0mg"},{"bike_id":"822dea71-c7c5-4b57-9d2d-28eda4f0c6b4","system_id":"levelo_inurba_marseille","lat":43.307945,"lon":5.376487,"is_reserved":false,"is_disabled":false,"rental_uris":{"android":"levelo://app?vid=822dea71-c7c5-4b57-9d2d-28eda4f0c6b4","ios":"levelo://app?vid=822dea71-c7c5-4b57-9d2d-28eda4f0c6b4"},"vehicle_type_id":"4","last_reported":1720501700,"current_range_meters":27200,"station_id":"ce4bgv92rcd13ifvqcq0","pricing_plan_id":"cebpf4jnsgd1na2vs0mg"},{"bike_id":"f434573e-8bbd-4b28-b5f1-c8c219ace90b","system_id":"levelo_inurba_marseille","lat":43.307945,"lon":5.376487,"is_reserved":false,"is_disabled":false,"rental_uris":{"android":"levelo://app?vid=f434573e-8bbd-4b28-b5f1-c8c219ace90b","ios":"levelo://app?vid=f434573e-8bbd-4b28-b5f1-c8c219ace90b"},"vehicle_type_id":"4","last_reported":1720501700,"current_range_meters":16800,"station_id":"ce4bgv92rcd13ifvqcq0","pricing_plan_id":"cebpf4jnsgd1na2vs0mg"},{"bike_id":"1e6c6665-8549-47f4-ae24-5efb86131bdd","system_id":"levelo_inurba_marseille","lat":43.307945,"lon":5.376487,"is_reserved":false,"is_disabled":false,"rental_uris":{"android":"levelo://app?vid=1e6c6665-8549-47f4-ae24-5efb86131bdd","ios":"levelo://app?vid=1e6c6665-8549-47f4-ae24-5efb86131bdd"},"vehicle_type_id":"4","last_reported":1720501700,"current_range_meters":20000,"station_id":"ce4bgv92rcd13ifvqcq0","pricing_plan_id":"cebpf4jnsgd1na2vs0mg"},{"bike_id":"37398bb3-c213-4040-ba9a-a6b1800976c7","system_id":"levelo_inurba_marseille","lat":43.307945,"lon":5.376487,"is_reserved":false,"is_disabled":false,"rental_uris":{"android":"levelo://app?vid=37398bb3-c213-4040-ba9a-a6b1800976c7","ios":"levelo://app?vid=37398bb3-c213-4040-ba9a-a6b1800976c7"},"vehicle_type_id":"4","last_reported":1720501700,"current_range_meters":18800,"station_id":"ce4bgv92rcd13ifvqcq0","pricing_plan_id":"cebpf4jnsgd1na2vs0mg"},{"bike_id":"17dcb8c1-42bc-4783-9598-c7621ac600f1","system_id":"levelo_inurba_marseille","lat":43.307945,"lon":5.376487,"is_reserved":false,"is_disabled":false,"rental_uris":{"android":"levelo://app?vid=17dcb8c1-42bc-4783-9598-c7621ac600f1","ios":"levelo://app?vid=17dcb8c1-42bc-4783-9598-c7621ac600f1"},"vehicle_type_id":"4","last_reported":1720501700,"current_range_meters":16000,"station_id":"ce4bgv92rcd13ifvqcq0","pricing_plan_id":"cebpf4jnsgd1na2vs0mg"},{"bike_id":"a40f6ca1-c871-4803-bfe9-1112c3144d7a","system_id":"levelo_inurba_marseille","lat":43.307945,"lon":5.376487,"is_reserved":false,"is_disabled":false,"rental_uris":{"android":"levelo://app?vid=a40f6ca1-c871-4803-bfe9-1112c3144d7a","ios":"levelo://app?vid=a40f6ca1-c871-4803-bfe9-1112c3144d7a"},"vehicle_type_id":"4","last_reported":1720501700,"current_range_meters":31600,"station_id":"ce4bgv92rcd13ifvqcq0","pricing_plan_id":"cebpf4jnsgd1na2vs0mg"},{"bike_id":"f234f9ec-005a-4b8e-96b5-a2d0e58fbf56","system_id":"levelo_inurba_marseille","lat":43.307945,"lon":5.376487,"is_reserved":false,"is_disabled":false,"rental_uris":{"android":"levelo://app?vid=f234f9ec-005a-4b8e-96b5-a2d0e58fbf56","ios":"levelo://app?vid=f234f9ec-005a-4b8e-96b5-a2d0e58fbf56"},"vehicle_type_id":"4","last_reported":1720501700,"current_range_meters":22400,"station_id":"ce4bgv92rcd13ifvqcq0","pricing_plan_id":"cebpf4jnsgd1na2vs0mg"},{"bike_id":"ded34829-709a-41fc-a11e-6f1c46aeabb3","system_id":"levelo_inurba_marseille","lat":43.307945,"lon":5.376487,"is_reserved":false,"is_disabled":false,"rental_uris":{"android":"levelo://app?vid=ded34829-709a-41fc-a11e-6f1c46aeabb3","ios":"levelo://app?vid=ded34829-709a-41fc-a11e-6f1c46aeabb3"},"vehicle_type_id":"4","last_reported":1720501700,"current_range_meters":27200,"station_id":"ce4bgv92rcd13ifvqcq0","pricing_plan_id":"cebpf4jnsgd1na2vs0mg"},{"bike_id":"abae96a6-7eed-42cd-a7f6-d367c0dc3939","system_id":"levelo_inurba_marseille","lat":43.307945,"lon":5.376487,"is_reserved":false,"is_disabled":false,"rental_uris":{"android":"levelo://app?vid=abae96a6-7eed-42cd-a7f6-d367c0dc3939","ios":"levelo://app?vid=abae96a6-7eed-42cd-a7f6-d367c0dc3939"},"vehicle_type_id":"4","last_reported":1720501700,"current_range_meters":3200,"station_id":"ce4bgv92rcd13ifvqcq0","pricing_plan_id":"cebpf4jnsgd1na2vs0mg"},{"bike_id":"08f9f1bf-3b11-48c6-9c25-fe8fbbaddac6","system_id":"levelo_inurba_marseille","lat":43.307945,"lon":5.376487,"is_reserved":false,"is_disabled":false,"rental_uris":{"android":"levelo://app?vid=08f9f1bf-3b11-48c6-9c25-fe8fbbaddac6","ios":"levelo://app?vid=08f9f1bf-3b11-48c6-9c25-fe8fbbaddac6"},"vehicle_type_id":"4","last_reported":1720501700,"current_range_meters":20800,"station_id":"ce4bgv92rcd13ifvqcq0","pricing_plan_id":"cebpf4jnsgd1na2vs0mg"},{"bike_id":"2d8aea4e-7dc3-4e2d-bb88-a15c9d503d35","system_id":"levelo_inurba_marseille","lat":43.307945,"lon":5.376487,"is_reserved":false,"is_disabled":false,"rental_uris":{"android":"levelo://app?vid=2d8aea4e-7dc3-4e2d-bb88-a15c9d503d35","ios":"levelo://app?vid=2d8aea4e-7dc3-4e2d-bb88-a15c9d503d35"},"vehicle_type_id":"4","last_reported":1720501700,"current_range_meters":31600,"station_id":"ce4bgv92rcd13ifvqcq0","pricing_plan_id":"cebpf4jnsgd1na2vs0mg"},{"bike_id":"b742045a-11d4-4ec8-9d80-72c4c9b7e80b","system_id":"levelo_inurba_marseille","lat":43.307945,"lon":5.376487,"is_reserved":false,"is_disabled":false,"rental_uris":{"android":"levelo://app?vid=b742045a-11d4-4ec8-9d80-72c4c9b7e80b","ios":"levelo://app?vid=b742045a-11d4-4ec8-9d80-72c4c9b7e80b"},"vehicle_type_id":"4","last_reported":1720501700,"current_range_meters":31200,"station_id":"ce4bgv92rcd13ifvqcq0","pricing_plan_id":"cebpf4jnsgd1na2vs0mg"},{"bike_id":"fa59a7e6-41e5-49f9-8c9b-719c41e397d7","system_id":"levelo_inurba_marseille","lat":43.307945,"lon":5.376487,"is_reserved":false,"is_disabled":false,"rental_uris":{"android":"levelo://app?vid=fa59a7e6-41e5-49f9-8c9b-719c41e397d7","ios":"levelo://app?vid=fa59a7e6-41e5-49f9-8c9b-719c41e397d7"},"vehicle_type_id":"4","last_reported":1720501700,"current_range_meters":20400,"station_id":"ce4bgv92rcd13ifvqcq0","pricing_plan_id":"cebpf4jnsgd1na2vs0mg"},{"bike_id":"084f110f-9d36-44bd-9431-49d1662eda27","system_id":"levelo_inurba_marseille","lat":43.307945,"lon":5.376487,"is_reserved":false,"is_disabled":false,"rental_uris":{"android":"levelo://app?vid=084f110f-9d36-44bd-9431-49d1662eda27","ios":"levelo://app?vid=084f110f-9d36-44bd-9431-49d1662eda27"},"vehicle_type_id":"4","last_reported":1720501700,"current_range_meters":30400,"station_id":"ce4bgv92rcd13ifvqcq0","pricing_plan_id":"cebpf4jnsgd1na2vs0mg"},{"bike_id":"907b76aa-2974-40ac-896f-01bbd288fa98","system_id":"levelo_inurba_marseille","lat":43.307945,"lon":5.376487,"is_reserved":false,"is_disabled":false,"rental_uris":{"android":"levelo://app?vid=907b76aa-2974-40ac-896f-01bbd288fa98","ios":"levelo://app?vid=907b76aa-2974-40ac-896f-01bbd288fa98"},"vehicle_type_id":"4","last_reported":1720501700,"current_range_meters":27200,"station_id":"ce4bgv92rcd13ifvqcq0","pricing_plan_id":"cebpf4jnsgd1na2vs0mg"},{"bike_id":"3adb2939-d7a9-4bd2-a22f-d70675d4ea19","system_id":"levelo_inurba_marseille","lat":43.307945,"lon":5.376487,"is_reserved":false,"is_disabled":false,"rental_uris":{"android":"levelo://app?vid=3adb2939-d7a9-4bd2-a22f-d70675d4ea19","ios":"levelo://app?vid=3adb2939-d7a9-4bd2-a22f-d70675d4ea19"},"vehicle_type_id":"4","last_reported":1720501700,"current_range_meters":31600,"station_id":"ce4bgv92rcd13ifvqcq0","pricing_plan_id":"cebpf4jnsgd1na2vs0mg"},{"bike_id":"0ec43eaa-3d1b-477f-8803-0ad88dc33c73","system_id":"levelo_inurba_marseille","lat":43.307945,"lon":5.376487,"is_reserved":false,"is_disabled":false,"rental_uris":{"android":"levelo://app?vid=0ec43eaa-3d1b-477f-8803-0ad88dc33c73","ios":"levelo://app?vid=0ec43eaa-3d1b-477f-8803-0ad88dc33c73"},"vehicle_type_id":"4","last_reported":1720501700,"current_range_meters":31200,"station_id":"ce4bgv92rcd13ifvqcq0","pricing_plan_id":"cebpf4jnsgd1na2vs0mg"},{"bike_id":"ceea47cb-2665-47b8-8b5a-237f16ecf6fd","system_id":"levelo_inurba_marseille","lat":43.3041,"lon":5.36792,"is_reserved":false,"is_disabled":false,"rental_uris":{"android":"levelo://app?vid=ceea47cb-2665-47b8-8b5a-237f16ecf6fd","ios":"levelo://app?vid=ceea47cb-2665-47b8-8b5a-237f16ecf6fd"},"vehicle_type_id":"4","last_reported":1720501700,"current_range_meters":25600,"station_id":"","pricing_plan_id":"cebpf4jnsgd1na2vs0mg"},{"bike_id":"e5a3e667-5682-4203-abb7-448b50e39eb4","system_id":"levelo_inurba_marseille","lat":43.317075,"lon":5.377367,"is_reserved":false,"is_disabled":false,"rental_uris":{"android":"levelo://app?vid=e5a3e667-5682-4203-abb7-448b50e39eb4","ios":"levelo://app?vid=e5a3e667-5682-4203-abb7-448b50e39eb4"},"vehicle_type_id":"4","last_reported":1720501700,"current_range_meters":16800,"station_id":"ce4bgth2rcd13ifvqch0","pricing_plan_id":"cebpf4jnsgd1na2vs0mg"},{"bike_id":"c201b59a-74aa-43e9-b089-f079cb696826","system_id":"levelo_inurba_marseille","lat":43.317071,"lon":5.377493,"is_reserved":false,"is_disabled":false,"rental_uris":{"android":"levelo://app?vid=c201b59a-74aa-43e9-b089-f079cb696826","ios":"levelo://app?vid=c201b59a-74aa-43e9-b089-f079cb696826"},"vehicle_type_id":"4","last_reported":1720501700,"current_range_meters":14800,"station_id":"ce4bgth2rcd13ifvqch0","pricing_plan_id":"cebpf4jnsgd1na2vs0mg"},{"bike_id":"36abbd69-0ffe-4032-86c3-d270673b6b01","system_id":"levelo_inurba_marseille","lat":43.317075,"lon":5.377367,"is_reserved":false,"is_disabled":false,"rental_uris":{"android":"levelo://app?vid=36abbd69-0ffe-4032-86c3-d270673b6b01","ios":"levelo://app?vid=36abbd69-0ffe-4032-86c3-d270673b6b01"},"vehicle_type_id":"4","last_reported":1720501700,"current_range_meters":31200,"station_id":"ce4bgth2rcd13ifvqch0","pricing_plan_id":"cebpf4jnsgd1na2vs0mg"},{"bike_id":"39fa4c85-a407-4d8b-84e3-fb866ee79577","system_id":"levelo_inurba_marseille","lat":43.317075,"lon":5.377367,"is_reserved":false,"is_disabled":false,"rental_uris":{"android":"levelo://app?vid=39fa4c85-a407-4d8b-84e3-fb866ee79577","ios":"levelo://app?vid=39fa4c85-a407-4d8b-84e3-fb866ee79577"},"vehicle_type_id":"4","last_reported":1720501700,"current_range_meters":28000,"station_id":"ce4bgth2rcd13ifvqch0","pricing_plan_id":"cebpf4jnsgd1na2vs0mg"},{"bike_id":"672af73b-c287-40cf-8f2c-807f685bdd92","system_id":"levelo_inurba_marseille","lat":43.317075,"lon":5.377367,"is_reserved":false,"is_disabled":false,"rental_uris":{"android":"levelo://app?vid=672af73b-c287-40cf-8f2c-807f685bdd92","ios":"levelo://app?vid=672af73b-c287-40cf-8f2c-807f685bdd92"},"vehicle_type_id":"4","last_reported":1720501700,"current_range_meters":5600,"station_id":"ce4bgth2rcd13ifvqch0","pricing_plan_id":"cebpf4jnsgd1na2vs0mg"},{"bike_id":"a22f2329-9487-4d38-8730-e3a9dabde50f","system_id":"levelo_inurba_marseille","lat":43.303046,"lon":5.368981,"is_reserved":false,"is_disabled":false,"rental_uris":{"android":"levelo://app?vid=a22f2329-9487-4d38-8730-e3a9dabde50f","ios":"levelo://app?vid=a22f2329-9487-4d38-8730-e3a9dabde50f"},"vehicle_type_id":"4","last_reported":1720501700,"current_range_meters":24800,"station_id":"ce4bgqh2rcd13ifvqc5g","pricing_plan_id":"cebpf4jnsgd1na2vs0mg"},{"bike_id":"9684eaab-692c-4de0-9571-9fa142e1440b","system_id":"levelo_inurba_marseille","lat":43.30304,"lon":5.368987,"is_reserved":false,"is_disabled":false,"rental_uris":{"android":"levelo://app?vid=9684eaab-692c-4de0-9571-9fa142e1440b","ios":"levelo://app?vid=9684eaab-692c-4de0-9571-9fa142e1440b"},"vehicle_type_id":"4","last_reported":1720501700,"current_range_meters":22800,"station_id":"ce4bgqh2rcd13ifvqc5g","pricing_plan_id":"cebpf4jnsgd1na2vs0mg"},{"bike_id":"02b484f0-4c41-4270-ae62-2a5d54f21d48","system_id":"levelo_inurba_marseille","lat":43.315289,"lon":5.380349,"is_reserved":false,"is_disabled":false,"rental_uris":{"android":"levelo://app?vid=02b484f0-4c41-4270-ae62-2a5d54f21d48","ios":"levelo://app?vid=02b484f0-4c41-4270-ae62-2a5d54f21d48"},"vehicle_type_id":"4","last_reported":1720501700,"current_range_meters":31600,"station_id":"ce4bhsp2rcd13ifvqi50","pricing_plan_id":"cebpf4jnsgd1na2vs0mg"},{"bike_id":"5788382f-9f78-47d1-86bc-09b614f9e720","system_id":"levelo_inurba_marseille","lat":43.315289,"lon":5.380349,"is_reserved":false,"is_disabled":false,"rental_uris":{"android":"levelo://app?vid=5788382f-9f78-47d1-86bc-09b614f9e720","ios":"levelo://app?vid=5788382f-9f78-47d1-86bc-09b614f9e720"},"vehicle_type_id":"4","last_reported":1720501700,"current_range_meters":28400,"station_id":"ce4bhsp2rcd13ifvqi50","pricing_plan_id":"cebpf4jnsgd1na2vs0mg"},{"bike_id":"81b79917-5f81-4569-978d-088ff71ced59","system_id":"levelo_inurba_marseille","lat":43.315289,"lon":5.380349,"is_reserved":false,"is_disabled":false,"rental_uris":{"android":"levelo://app?vid=81b79917-5f81-4569-978d-088ff71ced59","ios":"levelo://app?vid=81b79917-5f81-4569-978d-088ff71ced59"},"vehicle_type_id":"4","last_reported":1720501700,"current_range_meters":7600,"station_id":"ce4bhsp2rcd13ifvqi50","pricing_plan_id":"cebpf4jnsgd1na2vs0mg"},{"bike_id":"bde4adf9-3150-4e68-b181-496fb85b9919","system_id":"levelo_inurba_marseille","lat":43.315289,"lon":5.380349,"is_reserved":false,"is_disabled":false,"rental_uris":{"android":"levelo://app?vid=bde4adf9-3150-4e68-b181-496fb85b9919","ios":"levelo://app?vid=bde4adf9-3150-4e68-b181-496fb85b9919"},"vehicle_type_id":"4","last_reported":1720501700,"current_range_meters":18800,"station_id":"ce4bhsp2rcd13ifvqi50","pricing_plan_id":"cebpf4jnsgd1na2vs0mg"},{"bike_id":"27ab03de-d3b8-462a-bb8b-c5b6d30f4f9f","system_id":"levelo_inurba_marseille","lat":43.315289,"lon":5.380349,"is_reserved":false,"is_disabled":false,"rental_uris":{"android":"levelo://app?vid=27ab03de-d3b8-462a-bb8b-c5b6d30f4f9f","ios":"levelo://app?vid=27ab03de-d3b8-462a-bb8b-c5b6d30f4f9f"},"vehicle_type_id":"4","last_reported":1720501700,"current_range_meters":30800,"station_id":"ce4bhsp2rcd13ifvqi50","pricing_plan_id":"cebpf4jnsgd1na2vs0mg"},{"bike_id":"6fd89628-445e-413c-9f5f-4620b4c08bf2","system_id":"levelo_inurba_marseille","lat":43.315289,"lon":5.380349,"is_reserved":false,"is_disabled":false,"rental_uris":{"android":"levelo://app?vid=6fd89628-445e-413c-9f5f-4620b4c08bf2","ios":"levelo://app?vid=6fd89628-445e-413c-9f5f-4620b4c08bf2"},"vehicle_type_id":"4","last_reported":1720501700,"current_range_meters":3200,"station_id":"ce4bhsp2rcd13ifvqi50","pricing_plan_id":"cebpf4jnsgd1na2vs0mg"},{"bike_id":"e2ad75c8-5e21-4cb3-9d61-04b42e769325","system_id":"levelo_inurba_marseille","lat":43.315289,"lon":5.380349,"is_reserved":false,"is_disabled":false,"rental_uris":{"android":"levelo://app?vid=e2ad75c8-5e21-4cb3-9d61-04b42e769325","ios":"levelo://app?vid=e2ad75c8-5e21-4cb3-9d61-04b42e769325"},"vehicle_type_id":"4","last_reported":1720501700,"current_range_meters":21200,"station_id":"ce4bhsp2rcd13ifvqi50","pricing_plan_id":"cebpf4jnsgd1na2vs0mg"},{"bike_id":"0fdbaeaa-59e4-4c6a-a0af-34572c2e5cdd","system_id":"levelo_inurba_marseille","lat":43.31534,"lon":5.38032,"is_reserved":false,"is_disabled":false,"rental_uris":{"android":"levelo://app?vid=0fdbaeaa-59e4-4c6a-a0af-34572c2e5cdd","ios":"levelo://app?vid=0fdbaeaa-59e4-4c6a-a0af-34572c2e5cdd"},"vehicle_type_id":"4","last_reported":1720501700,"current_range_meters":26800,"station_id":"ce4bhsp2rcd13ifvqi50","pricing_plan_id":"cebpf4jnsgd1na2vs0mg"},{"bike_id":"0e5ffd48-20f8-4dce-9050-955f535382c0","system_id":"levelo_inurba_marseille","lat":43.315289,"lon":5.380349,"is_reserved":false,"is_disabled":false,"rental_uris":{"android":"levelo://app?vid=0e5ffd48-20f8-4dce-9050-955f535382c0","ios":"levelo://app?vid=0e5ffd48-20f8-4dce-9050-955f535382c0"},"vehicle_type_id":"4","last_reported":1720501700,"current_range_meters":16800,"station_id":"ce4bhsp2rcd13ifvqi50","pricing_plan_id":"cebpf4jnsgd1na2vs0mg"},{"bike_id":"b002fede-79ce-4139-bb55-6a87446cf623","system_id":"levelo_inurba_marseille","lat":43.30207,"lon":5.36774,"is_reserved":false,"is_disabled":false,"rental_uris":{"android":"levelo://app?vid=b002fede-79ce-4139-bb55-6a87446cf623","ios":"levelo://app?vid=b002fede-79ce-4139-bb55-6a87446cf623"},"vehicle_type_id":"4","last_reported":1720501700,"current_range_meters":26800,"station_id":"","pricing_plan_id":"cebpf4jnsgd1na2vs0mg"},{"bike_id":"239c76b8-609c-4e3b-abcc-f86f71ea5962","system_id":"levelo_inurba_marseille","lat":43.301939,"lon":5.366286,"is_reserved":false,"is_disabled":false,"rental_uris":{"android":"levelo://app?vid=239c76b8-609c-4e3b-abcc-f86f71ea5962","ios":"levelo://app?vid=239c76b8-609c-4e3b-abcc-f86f71ea5962"},"vehicle_type_id":"4","last_reported":1720501700,"current_range_meters":18400,"station_id":"ce4bgrh2rcd13ifvqc8g","pricing_plan_id":"cebpf4jnsgd1na2vs0mg"},{"bike_id":"2983d09b-0840-4d53-983a-0ad574679a2a","system_id":"levelo_inurba_marseille","lat":43.308012,"lon":5.381511,"is_reserved":false,"is_disabled":false,"rental_uris":{"android":"levelo://app?vid=2983d09b-0840-4d53-983a-0ad574679a2a","ios":"levelo://app?vid=2983d09b-0840-4d53-983a-0ad574679a2a"},"vehicle_type_id":"4","last_reported":1720501700,"current_range_meters":29200,"station_id":"ce4bgt12rcd13ifvqce0","pricing_plan_id":"cebpf4jnsgd1na2vs0mg"},{"bike_id":"2643de52-f2f8-41bb-af86-0376a5d9bc94","system_id":"levelo_inurba_marseille","lat":43.307964,"lon":5.381641,"is_reserved":false,"is_disabled":false,"rental_uris":{"android":"levelo://app?vid=2643de52-f2f8-41bb-af86-0376a5d9bc94","ios":"levelo://app?vid=2643de52-f2f8-41bb-af86-0376a5d9bc94"},"vehicle_type_id":"4","last_reported":1720501700,"current_range_meters":0,"station_id":"ce4bgt12rcd13ifvqce0","pricing_plan_id":"cebpf4jnsgd1na2vs0mg"},{"bike_id":"10547e81-fc8d-4808-b367-a784008cf1cb","system_id":"levelo_inurba_marseille","lat":43.301008,"lon":5.368712,"is_reserved":false,"is_disabled":false,"rental_uris":{"android":"levelo://app?vid=10547e81-fc8d-4808-b367-a784008cf1cb","ios":"levelo://app?vid=10547e81-fc8d-4808-b367-a784008cf1cb"},"vehicle_type_id":"4","last_reported":1720501700,"current_range_meters":9600,"station_id":"","pricing_plan_id":"cebpf4jnsgd1na2vs0mg"},{"bike_id":"20b50ca9-198c-45f8-890e-57852e88aacc","system_id":"levelo_inurba_marseille","lat":43.304606,"lon":5.379026,"is_reserved":false,"is_disabled":false,"rental_uris":{"android":"levelo://app?vid=20b50ca9-198c-45f8-890e-57852e88aacc","ios":"levelo://app?vid=20b50ca9-198c-45f8-890e-57852e88aacc"},"vehicle_type_id":"4","last_reported":1720501700,"current_range_meters":30800,"station_id":"ce4bgup2rcd13ifvqcn0","pricing_plan_id":"cebpf4jnsgd1na2vs0mg"},{"bike_id":"8cdbb369-fdf9-4958-adb6-f04faefe3436","system_id":"levelo_inurba_marseille","lat":43.324771,"lon":5.36557,"is_reserved":false,"is_disabled":false,"rental_uris":{"android":"levelo://app?vid=8cdbb369-fdf9-4958-adb6-f04faefe3436","ios":"levelo://app?vid=8cdbb369-fdf9-4958-adb6-f04faefe3436"},"vehicle_type_id":"4","last_reported":1720501700,"current_range_meters":26400,"station_id":"ce4bhs12rcd13ifvqhvg","pricing_plan_id":"cebpf4jnsgd1na2vs0mg"},{"bike_id":"671013bc-16c2-4c28-b153-4fe938d85347","system_id":"levelo_inurba_marseille","lat":43.304606,"lon":5.379026,"is_reserved":false,"is_disabled":false,"rental_uris":{"android":"levelo://app?vid=671013bc-16c2-4c28-b153-4fe938d85347","ios":"levelo://app?vid=671013bc-16c2-4c28-b153-4fe938d85347"},"vehicle_type_id":"4","last_reported":1720501700,"current_range_meters":9200,"station_id":"ce4bgup2rcd13ifvqcn0","pricing_plan_id":"cebpf4jnsgd1na2vs0mg"},{"bike_id":"94cc5fbd-fe92-45e7-81a0-865debbc82fd","system_id":"levelo_inurba_marseille","lat":43.304606,"lon":5.379026,"is_reserved":false,"is_disabled":false,"rental_uris":{"android":"levelo://app?vid=94cc5fbd-fe92-45e7-81a0-865debbc82fd","ios":"levelo://app?vid=94cc5fbd-fe92-45e7-81a0-865debbc82fd"},"vehicle_type_id":"4","last_reported":1720501700,"current_range_meters":12000,"station_id":"ce4bgup2rcd13ifvqcn0","pricing_plan_id":"cebpf4jnsgd1na2vs0mg"},{"bike_id":"797cd11f-b266-414b-878a-017c66bda2db","system_id":"levelo_inurba_marseille","lat":43.30457,"lon":5.378948,"is_reserved":false,"is_disabled":false,"rental_uris":{"android":"levelo://app?vid=797cd11f-b266-414b-878a-017c66bda2db","ios":"levelo://app?vid=797cd11f-b266-414b-878a-017c66bda2db"},"vehicle_type_id":"4","last_reported":1720501700,"current_range_meters":6800,"station_id":"ce4bgup2rcd13ifvqcn0","pricing_plan_id":"cebpf4jnsgd1na2vs0mg"},{"bike_id":"f1093c6c-d309-4598-81a0-0404b9c388cc","system_id":"levelo_inurba_marseille","lat":43.304606,"lon":5.379026,"is_reserved":false,"is_disabled":false,"rental_uris":{"android":"levelo://app?vid=f1093c6c-d309-4598-81a0-0404b9c388cc","ios":"levelo://app?vid=f1093c6c-d309-4598-81a0-0404b9c388cc"},"vehicle_type_id":"4","last_reported":1720501700,"current_range_meters":23200,"station_id":"ce4bgup2rcd13ifvqcn0","pricing_plan_id":"cebpf4jnsgd1na2vs0mg"},{"bike_id":"5a2bd743-0a33-4fc6-90cd-992962444856","system_id":"levelo_inurba_marseille","lat":43.304606,"lon":5.379026,"is_reserved":false,"is_disabled":false,"rental_uris":{"android":"levelo://app?vid=5a2bd743-0a33-4fc6-90cd-992962444856","ios":"levelo://app?vid=5a2bd743-0a33-4fc6-90cd-992962444856"},"vehicle_type_id":"4","last_reported":1720501700,"current_range_meters":19600,"station_id":"ce4bgup2rcd13ifvqcn0","pricing_plan_id":"cebpf4jnsgd1na2vs0mg"},{"bike_id":"3e90fcc8-d846-4c99-933b-db34e15c554b","system_id":"levelo_inurba_marseille","lat":43.304606,"lon":5.379026,"is_reserved":false,"is_disabled":false,"rental_uris":{"android":"levelo://app?vid=3e90fcc8-d846-4c99-933b-db34e15c554b","ios":"levelo://app?vid=3e90fcc8-d846-4c99-933b-db34e15c554b"},"vehicle_type_id":"4","last_reported":1720501700,"current_range_meters":1200,"station_id":"ce4bgup2rcd13ifvqcn0","pricing_plan_id":"cebpf4jnsgd1na2vs0mg"},{"bike_id":"9e10594c-a24b-4516-98fb-2180f4bc6687","system_id":"levelo_inurba_marseille","lat":43.304606,"lon":5.379026,"is_reserved":false,"is_disabled":false,"rental_uris":{"android":"levelo://app?vid=9e10594c-a24b-4516-98fb-2180f4bc6687","ios":"levelo://app?vid=9e10594c-a24b-4516-98fb-2180f4bc6687"},"vehicle_type_id":"4","last_reported":1720501700,"current_range_meters":20800,"station_id":"ce4bgup2rcd13ifvqcn0","pricing_plan_id":"cebpf4jnsgd1na2vs0mg"},{"bike_id":"db989f12-cc13-4659-94c0-461ae16d813b","system_id":"levelo_inurba_marseille","lat":43.304606,"lon":5.379026,"is_reserved":false,"is_disabled":false,"rental_uris":{"android":"levelo://app?vid=db989f12-cc13-4659-94c0-461ae16d813b","ios":"levelo://app?vid=db989f12-cc13-4659-94c0-461ae16d813b"},"vehicle_type_id":"4","last_reported":1720501700,"current_range_meters":15200,"station_id":"ce4bgup2rcd13ifvqcn0","pricing_plan_id":"cebpf4jnsgd1na2vs0mg"},{"bike_id":"1b6c335e-ce55-4a22-b52b-48ab5aa01d8e","system_id":"levelo_inurba_marseille","lat":43.304606,"lon":5.379026,"is_reserved":false,"is_disabled":false,"rental_uris":{"android":"levelo://app?vid=1b6c335e-ce55-4a22-b52b-48ab5aa01d8e","ios":"levelo://app?vid=1b6c335e-ce55-4a22-b52b-48ab5aa01d8e"},"vehicle_type_id":"4","last_reported":1720501700,"current_range_meters":26400,"station_id":"ce4bgup2rcd13ifvqcn0","pricing_plan_id":"cebpf4jnsgd1na2vs0mg"},{"bike_id":"15ce9db8-346b-4839-8235-1d492046e047","system_id":"levelo_inurba_marseille","lat":43.304606,"lon":5.379026,"is_reserved":false,"is_disabled":false,"rental_uris":{"android":"levelo://app?vid=15ce9db8-346b-4839-8235-1d492046e047","ios":"levelo://app?vid=15ce9db8-346b-4839-8235-1d492046e047"},"vehicle_type_id":"4","last_reported":1720501700,"current_range_meters":6800,"station_id":"ce4bgup2rcd13ifvqcn0","pricing_plan_id":"cebpf4jnsgd1na2vs0mg"},{"bike_id":"bfa512db-1d9c-4016-97fa-8e87609ad1c6","system_id":"levelo_inurba_marseille","lat":43.304606,"lon":5.379026,"is_reserved":false,"is_disabled":false,"rental_uris":{"android":"levelo://app?vid=bfa512db-1d9c-4016-97fa-8e87609ad1c6","ios":"levelo://app?vid=bfa512db-1d9c-4016-97fa-8e87609ad1c6"},"vehicle_type_id":"4","last_reported":1720501700,"current_range_meters":9600,"station_id":"ce4bgup2rcd13ifvqcn0","pricing_plan_id":"cebpf4jnsgd1na2vs0mg"},{"bike_id":"dc8e92ca-25de-4e17-8459-1cbfce0dbc85","system_id":"levelo_inurba_marseille","lat":43.304606,"lon":5.379026,"is_reserved":false,"is_disabled":false,"rental_uris":{"android":"levelo://app?vid=dc8e92ca-25de-4e17-8459-1cbfce0dbc85","ios":"levelo://app?vid=dc8e92ca-25de-4e17-8459-1cbfce0dbc85"},"vehicle_type_id":"4","last_reported":1720501700,"current_range_meters":24000,"station_id":"ce4bgup2rcd13ifvqcn0","pricing_plan_id":"cebpf4jnsgd1na2vs0mg"},{"bike_id":"ac6992fe-808b-4fe5-bf59-48d6f1586618","system_id":"levelo_inurba_marseille","lat":43.30458,"lon":5.37901,"is_reserved":false,"is_disabled":false,"rental_uris":{"android":"levelo://app?vid=ac6992fe-808b-4fe5-bf59-48d6f1586618","ios":"levelo://app?vid=ac6992fe-808b-4fe5-bf59-48d6f1586618"},"vehicle_type_id":"4","last_reported":1720501700,"current_range_meters":7200,"station_id":"ce4bgup2rcd13ifvqcn0","pricing_plan_id":"cebpf4jnsgd1na2vs0mg"},{"bike_id":"b6face77-ad3f-4706-a0ad-f409a8c7542d","system_id":"levelo_inurba_marseille","lat":43.304606,"lon":5.379026,"is_reserved":false,"is_disabled":false,"rental_uris":{"android":"levelo://app?vid=b6face77-ad3f-4706-a0ad-f409a8c7542d","ios":"levelo://app?vid=b6face77-ad3f-4706-a0ad-f409a8c7542d"},"vehicle_type_id":"4","last_reported":1720501700,"current_range_meters":18000,"station_id":"ce4bgup2rcd13ifvqcn0","pricing_plan_id":"cebpf4jnsgd1na2vs0mg"},{"bike_id":"185e42b8-4c50-4a61-ac8c-aa5cdf763632","system_id":"levelo_inurba_marseille","lat":43.304606,"lon":5.379026,"is_reserved":false,"is_disabled":false,"rental_uris":{"android":"levelo://app?vid=185e42b8-4c50-4a61-ac8c-aa5cdf763632","ios":"levelo://app?vid=185e42b8-4c50-4a61-ac8c-aa5cdf763632"},"vehicle_type_id":"4","last_reported":1720501700,"current_range_meters":22800,"station_id":"ce4bgup2rcd13ifvqcn0","pricing_plan_id":"cebpf4jnsgd1na2vs0mg"},{"bike_id":"20adf276-ef1e-48fc-886b-ec272f662098","system_id":"levelo_inurba_marseille","lat":43.304606,"lon":5.379026,"is_reserved":false,"is_disabled":false,"rental_uris":{"android":"levelo://app?vid=20adf276-ef1e-48fc-886b-ec272f662098","ios":"levelo://app?vid=20adf276-ef1e-48fc-886b-ec272f662098"},"vehicle_type_id":"4","last_reported":1720501700,"current_range_meters":400,"station_id":"ce4bgup2rcd13ifvqcn0","pricing_plan_id":"cebpf4jnsgd1na2vs0mg"},{"bike_id":"108bfa3b-9437-4cf9-9f81-30f7df334820","system_id":"levelo_inurba_marseille","lat":43.304606,"lon":5.379026,"is_reserved":false,"is_disabled":false,"rental_uris":{"android":"levelo://app?vid=108bfa3b-9437-4cf9-9f81-30f7df334820","ios":"levelo://app?vid=108bfa3b-9437-4cf9-9f81-30f7df334820"},"vehicle_type_id":"4","last_reported":1720501700,"current_range_meters":29600,"station_id":"ce4bgup2rcd13ifvqcn0","pricing_plan_id":"cebpf4jnsgd1na2vs0mg"},{"bike_id":"9349180b-9346-42b0-96a2-52e5b61ac0bc","system_id":"levelo_inurba_marseille","lat":43.304606,"lon":5.379026,"is_reserved":false,"is_disabled":false,"rental_uris":{"android":"levelo://app?vid=9349180b-9346-42b0-96a2-52e5b61ac0bc","ios":"levelo://app?vid=9349180b-9346-42b0-96a2-52e5b61ac0bc"},"vehicle_type_id":"4","last_reported":1720501700,"current_range_meters":15200,"station_id":"ce4bgup2rcd13ifvqcn0","pricing_plan_id":"cebpf4jnsgd1na2vs0mg"},{"bike_id":"d4b9d4aa-870e-4439-bcc0-24b40a26bc59","system_id":"levelo_inurba_marseille","lat":43.304606,"lon":5.379026,"is_reserved":false,"is_disabled":false,"rental_uris":{"android":"levelo://app?vid=d4b9d4aa-870e-4439-bcc0-24b40a26bc59","ios":"levelo://app?vid=d4b9d4aa-870e-4439-bcc0-24b40a26bc59"},"vehicle_type_id":"4","last_reported":1720501700,"current_range_meters":25200,"station_id":"ce4bgup2rcd13ifvqcn0","pricing_plan_id":"cebpf4jnsgd1na2vs0mg"},{"bike_id":"40824a27-371a-4b02-81ec-441a22e42459","system_id":"levelo_inurba_marseille","lat":43.304606,"lon":5.379026,"is_reserved":false,"is_disabled":false,"rental_uris":{"android":"levelo://app?vid=40824a27-371a-4b02-81ec-441a22e42459","ios":"levelo://app?vid=40824a27-371a-4b02-81ec-441a22e42459"},"vehicle_type_id":"4","last_reported":1720501700,"current_range_meters":26000,"station_id":"ce4bgup2rcd13ifvqcn0","pricing_plan_id":"cebpf4jnsgd1na2vs0mg"},{"bike_id":"851e6ab3-4057-481f-894e-4c987b97e38c","system_id":"levelo_inurba_marseille","lat":43.304606,"lon":5.379026,"is_reserved":false,"is_disabled":false,"rental_uris":{"android":"levelo://app?vid=851e6ab3-4057-481f-894e-4c987b97e38c","ios":"levelo://app?vid=851e6ab3-4057-481f-894e-4c987b97e38c"},"vehicle_type_id":"4","last_reported":1720501700,"current_range_meters":26800,"station_id":"ce4bgup2rcd13ifvqcn0","pricing_plan_id":"cebpf4jnsgd1na2vs0mg"},{"bike_id":"061ecbbc-aade-4378-a9f4-01414d599e6e","system_id":"levelo_inurba_marseille","lat":43.304606,"lon":5.379026,"is_reserved":false,"is_disabled":false,"rental_uris":{"android":"levelo://app?vid=061ecbbc-aade-4378-a9f4-01414d599e6e","ios":"levelo://app?vid=061ecbbc-aade-4378-a9f4-01414d599e6e"},"vehicle_type_id":"4","last_reported":1720501700,"current_range_meters":26400,"station_id":"ce4bgup2rcd13ifvqcn0","pricing_plan_id":"cebpf4jnsgd1na2vs0mg"},{"bike_id":"a1f97732-3a73-4282-ba98-c7a84e0df194","system_id":"levelo_inurba_marseille","lat":43.304606,"lon":5.379026,"is_reserved":false,"is_disabled":false,"rental_uris":{"android":"levelo://app?vid=a1f97732-3a73-4282-ba98-c7a84e0df194","ios":"levelo://app?vid=a1f97732-3a73-4282-ba98-c7a84e0df194"},"vehicle_type_id":"4","last_reported":1720501700,"current_range_meters":26000,"station_id":"ce4bgup2rcd13ifvqcn0","pricing_plan_id":"cebpf4jnsgd1na2vs0mg"},{"bike_id":"775c8255-bc11-4736-96af-c6af6fa5dde0","system_id":"levelo_inurba_marseille","lat":43.324771,"lon":5.36557,"is_reserved":false,"is_disabled":false,"rental_uris":{"android":"levelo://app?vid=775c8255-bc11-4736-96af-c6af6fa5dde0","ios":"levelo://app?vid=775c8255-bc11-4736-96af-c6af6fa5dde0"},"vehicle_type_id":"4","last_reported":1720501700,"current_range_meters":23600,"station_id":"ce4bhs12rcd13ifvqhvg","pricing_plan_id":"cebpf4jnsgd1na2vs0mg"},{"bike_id":"53f41f08-9ebe-4743-9c64-53f3d0ac2a2f","system_id":"levelo_inurba_marseille","lat":43.324776,"lon":5.365794,"is_reserved":false,"is_disabled":false,"rental_uris":{"android":"levelo://app?vid=53f41f08-9ebe-4743-9c64-53f3d0ac2a2f","ios":"levelo://app?vid=53f41f08-9ebe-4743-9c64-53f3d0ac2a2f"},"vehicle_type_id":"4","last_reported":1720501700,"current_range_meters":19200,"station_id":"ce4bhs12rcd13ifvqhvg","pricing_plan_id":"cebpf4jnsgd1na2vs0mg"},{"bike_id":"6c161ef7-e331-47e0-a311-7d3881f22d83","system_id":"levelo_inurba_marseille","lat":43.324771,"lon":5.36557,"is_reserved":false,"is_disabled":false,"rental_uris":{"android":"levelo://app?vid=6c161ef7-e331-47e0-a311-7d3881f22d83","ios":"levelo://app?vid=6c161ef7-e331-47e0-a311-7d3881f22d83"},"vehicle_type_id":"4","last_reported":1720501700,"current_range_meters":27600,"station_id":"ce4bhs12rcd13ifvqhvg","pricing_plan_id":"cebpf4jnsgd1na2vs0mg"},{"bike_id":"9dc9a6f5-5a77-4ad0-949e-5299f5781239","system_id":"levelo_inurba_marseille","lat":43.324771,"lon":5.36557,"is_reserved":false,"is_disabled":false,"rental_uris":{"android":"levelo://app?vid=9dc9a6f5-5a77-4ad0-949e-5299f5781239","ios":"levelo://app?vid=9dc9a6f5-5a77-4ad0-949e-5299f5781239"},"vehicle_type_id":"4","last_reported":1720501700,"current_range_meters":4000,"station_id":"ce4bhs12rcd13ifvqhvg","pricing_plan_id":"cebpf4jnsgd1na2vs0mg"},{"bike_id":"f48a9556-28ee-44b7-b03e-35b95aaf6176","system_id":"levelo_inurba_marseille","lat":43.324771,"lon":5.36557,"is_reserved":false,"is_disabled":false,"rental_uris":{"android":"levelo://app?vid=f48a9556-28ee-44b7-b03e-35b95aaf6176","ios":"levelo://app?vid=f48a9556-28ee-44b7-b03e-35b95aaf6176"},"vehicle_type_id":"4","last_reported":1720501700,"current_range_meters":25200,"station_id":"ce4bhs12rcd13ifvqhvg","pricing_plan_id":"cebpf4jnsgd1na2vs0mg"},{"bike_id":"3b6f66fb-9e0a-4052-87c6-71ce8e2a90c6","system_id":"levelo_inurba_marseille","lat":43.324771,"lon":5.36557,"is_reserved":false,"is_disabled":false,"rental_uris":{"android":"levelo://app?vid=3b6f66fb-9e0a-4052-87c6-71ce8e2a90c6","ios":"levelo://app?vid=3b6f66fb-9e0a-4052-87c6-71ce8e2a90c6"},"vehicle_type_id":"4","last_reported":1720501700,"current_range_meters":2800,"station_id":"ce4bhs12rcd13ifvqhvg","pricing_plan_id":"cebpf4jnsgd1na2vs0mg"},{"bike_id":"2854fc22-ee9b-4be2-93ec-25bca00574cd","system_id":"levelo_inurba_marseille","lat":43.324771,"lon":5.36557,"is_reserved":false,"is_disabled":false,"rental_uris":{"android":"levelo://app?vid=2854fc22-ee9b-4be2-93ec-25bca00574cd","ios":"levelo://app?vid=2854fc22-ee9b-4be2-93ec-25bca00574cd"},"vehicle_type_id":"4","last_reported":1720501700,"current_range_meters":27200,"station_id":"ce4bhs12rcd13ifvqhvg","pricing_plan_id":"cebpf4jnsgd1na2vs0mg"},{"bike_id":"3e6044ab-a58a-4ad7-880e-d2dfd7fe199a","system_id":"levelo_inurba_marseille","lat":43.324771,"lon":5.36557,"is_reserved":false,"is_disabled":false,"rental_uris":{"android":"levelo://app?vid=3e6044ab-a58a-4ad7-880e-d2dfd7fe199a","ios":"levelo://app?vid=3e6044ab-a58a-4ad7-880e-d2dfd7fe199a"},"vehicle_type_id":"4","last_reported":1720501700,"current_range_meters":29600,"station_id":"ce4bhs12rcd13ifvqhvg","pricing_plan_id":"cebpf4jnsgd1na2vs0mg"},{"bike_id":"e486d6ba-449e-41b6-a1cc-a6130d4c3c02","system_id":"levelo_inurba_marseille","lat":43.324771,"lon":5.36557,"is_reserved":false,"is_disabled":false,"rental_uris":{"android":"levelo://app?vid=e486d6ba-449e-41b6-a1cc-a6130d4c3c02","ios":"levelo://app?vid=e486d6ba-449e-41b6-a1cc-a6130d4c3c02"},"vehicle_type_id":"4","last_reported":1720501700,"current_range_meters":23600,"station_id":"ce4bhs12rcd13ifvqhvg","pricing_plan_id":"cebpf4jnsgd1na2vs0mg"},{"bike_id":"736b006d-eb18-434f-8304-02f2a380b86d","system_id":"levelo_inurba_marseille","lat":43.324771,"lon":5.36557,"is_reserved":false,"is_disabled":false,"rental_uris":{"android":"levelo://app?vid=736b006d-eb18-434f-8304-02f2a380b86d","ios":"levelo://app?vid=736b006d-eb18-434f-8304-02f2a380b86d"},"vehicle_type_id":"4","last_reported":1720501700,"current_range_meters":30400,"station_id":"ce4bhs12rcd13ifvqhvg","pricing_plan_id":"cebpf4jnsgd1na2vs0mg"},{"bike_id":"a40e8641-70d0-4e45-8b2e-6af26f473c5b","system_id":"levelo_inurba_marseille","lat":43.324771,"lon":5.36557,"is_reserved":false,"is_disabled":false,"rental_uris":{"android":"levelo://app?vid=a40e8641-70d0-4e45-8b2e-6af26f473c5b","ios":"levelo://app?vid=a40e8641-70d0-4e45-8b2e-6af26f473c5b"},"vehicle_type_id":"4","last_reported":1720501700,"current_range_meters":31200,"station_id":"ce4bhs12rcd13ifvqhvg","pricing_plan_id":"cebpf4jnsgd1na2vs0mg"},{"bike_id":"4501fb02-015c-4902-b78b-53bc4746f442","system_id":"levelo_inurba_marseille","lat":43.324836,"lon":5.36582,"is_reserved":false,"is_disabled":false,"rental_uris":{"android":"levelo://app?vid=4501fb02-015c-4902-b78b-53bc4746f442","ios":"levelo://app?vid=4501fb02-015c-4902-b78b-53bc4746f442"},"vehicle_type_id":"4","last_reported":1720501700,"current_range_meters":16400,"station_id":"ce4bhs12rcd13ifvqhvg","pricing_plan_id":"cebpf4jnsgd1na2vs0mg"},{"bike_id":"f300970f-5023-448b-8137-0556f7ca3130","system_id":"levelo_inurba_marseille","lat":43.32483,"lon":5.365588,"is_reserved":false,"is_disabled":false,"rental_uris":{"android":"levelo://app?vid=f300970f-5023-448b-8137-0556f7ca3130","ios":"levelo://app?vid=f300970f-5023-448b-8137-0556f7ca3130"},"vehicle_type_id":"4","last_reported":1720501700,"current_range_meters":8400,"station_id":"ce4bhs12rcd13ifvqhvg","pricing_plan_id":"cebpf4jnsgd1na2vs0mg"},{"bike_id":"fe8ddb05-8df8-4aa6-800a-75d952c9adec","system_id":"levelo_inurba_marseille","lat":43.32484,"lon":5.36567,"is_reserved":false,"is_disabled":false,"rental_uris":{"android":"levelo://app?vid=fe8ddb05-8df8-4aa6-800a-75d952c9adec","ios":"levelo://app?vid=fe8ddb05-8df8-4aa6-800a-75d952c9adec"},"vehicle_type_id":"4","last_reported":1720501700,"current_range_meters":5200,"station_id":"ce4bhs12rcd13ifvqhvg","pricing_plan_id":"cebpf4jnsgd1na2vs0mg"},{"bike_id":"e034f9d9-e672-45ae-8875-f01a3e77f00e","system_id":"levelo_inurba_marseille","lat":43.324771,"lon":5.36557,"is_reserved":false,"is_disabled":false,"rental_uris":{"android":"levelo://app?vid=e034f9d9-e672-45ae-8875-f01a3e77f00e","ios":"levelo://app?vid=e034f9d9-e672-45ae-8875-f01a3e77f00e"},"vehicle_type_id":"4","last_reported":1720501700,"current_range_meters":23600,"station_id":"ce4bhs12rcd13ifvqhvg","pricing_plan_id":"cebpf4jnsgd1na2vs0mg"},{"bike_id":"6e2229a5-d7e5-4b32-add6-6a5d52b55935","system_id":"levelo_inurba_marseille","lat":43.304606,"lon":5.379026,"is_reserved":false,"is_disabled":false,"rental_uris":{"android":"levelo://app?vid=6e2229a5-d7e5-4b32-add6-6a5d52b55935","ios":"levelo://app?vid=6e2229a5-d7e5-4b32-add6-6a5d52b55935"},"vehicle_type_id":"4","last_reported":1720501700,"current_range_meters":23600,"station_id":"ce4bgup2rcd13ifvqcn0","pricing_plan_id":"cebpf4jnsgd1na2vs0mg"},{"bike_id":"c13acf34-6ed3-406c-a01e-ab9b2319ec84","system_id":"levelo_inurba_marseille","lat":43.32485,"lon":5.36568,"is_reserved":false,"is_disabled":false,"rental_uris":{"android":"levelo://app?vid=c13acf34-6ed3-406c-a01e-ab9b2319ec84","ios":"levelo://app?vid=c13acf34-6ed3-406c-a01e-ab9b2319ec84"},"vehicle_type_id":"4","last_reported":1720501700,"current_range_meters":18400,"station_id":"ce4bhs12rcd13ifvqhvg","pricing_plan_id":"cebpf4jnsgd1na2vs0mg"},{"bike_id":"27216017-635b-42d7-b21c-2df8cf298f3c","system_id":"levelo_inurba_marseille","lat":43.324857,"lon":5.365672,"is_reserved":false,"is_disabled":false,"rental_uris":{"android":"levelo://app?vid=27216017-635b-42d7-b21c-2df8cf298f3c","ios":"levelo://app?vid=27216017-635b-42d7-b21c-2df8cf298f3c"},"vehicle_type_id":"4","last_reported":1720501700,"current_range_meters":22400,"station_id":"ce4bhs12rcd13ifvqhvg","pricing_plan_id":"cebpf4jnsgd1na2vs0mg"},{"bike_id":"c1aa7e40-5514-4d91-90f5-78e60593c7a1","system_id":"levelo_inurba_marseille","lat":43.324771,"lon":5.36557,"is_reserved":false,"is_disabled":false,"rental_uris":{"android":"levelo://app?vid=c1aa7e40-5514-4d91-90f5-78e60593c7a1","ios":"levelo://app?vid=c1aa7e40-5514-4d91-90f5-78e60593c7a1"},"vehicle_type_id":"4","last_reported":1720501700,"current_range_meters":31200,"station_id":"ce4bhs12rcd13ifvqhvg","pricing_plan_id":"cebpf4jnsgd1na2vs0mg"},{"bike_id":"4b1e36bc-aedc-481a-b977-27deef7c5805","system_id":"levelo_inurba_marseille","lat":43.324771,"lon":5.36557,"is_reserved":false,"is_disabled":false,"rental_uris":{"android":"levelo://app?vid=4b1e36bc-aedc-481a-b977-27deef7c5805","ios":"levelo://app?vid=4b1e36bc-aedc-481a-b977-27deef7c5805"},"vehicle_type_id":"4","last_reported":1720501700,"current_range_meters":23600,"station_id":"ce4bhs12rcd13ifvqhvg","pricing_plan_id":"cebpf4jnsgd1na2vs0mg"},{"bike_id":"20371a2d-effe-47ab-aa4c-6a0a65f35039","system_id":"levelo_inurba_marseille","lat":43.310804,"lon":5.38359,"is_reserved":false,"is_disabled":false,"rental_uris":{"android":"levelo://app?vid=20371a2d-effe-47ab-aa4c-6a0a65f35039","ios":"levelo://app?vid=20371a2d-effe-47ab-aa4c-6a0a65f35039"},"vehicle_type_id":"4","last_reported":1720501700,"current_range_meters":26800,"station_id":"ce4bgv92rcd13ifvqcr0","pricing_plan_id":"cebpf4jnsgd1na2vs0mg"},{"bike_id":"8b1568d1-0339-4c07-8d18-57a7b0d95dab","system_id":"levelo_inurba_marseille","lat":43.302784,"lon":5.377158,"is_reserved":false,"is_disabled":false,"rental_uris":{"android":"levelo://app?vid=8b1568d1-0339-4c07-8d18-57a7b0d95dab","ios":"levelo://app?vid=8b1568d1-0339-4c07-8d18-57a7b0d95dab"},"vehicle_type_id":"4","last_reported":1720501700,"current_range_meters":31200,"station_id":"ce4bguh2rcd13ifvqcj0","pricing_plan_id":"cebpf4jnsgd1na2vs0mg"},{"bike_id":"7fb22b4d-92b0-4de0-9f5e-db9aedcdfa9e","system_id":"levelo_inurba_marseille","lat":43.302784,"lon":5.377158,"is_reserved":false,"is_disabled":false,"rental_uris":{"android":"levelo://app?vid=7fb22b4d-92b0-4de0-9f5e-db9aedcdfa9e","ios":"levelo://app?vid=7fb22b4d-92b0-4de0-9f5e-db9aedcdfa9e"},"vehicle_type_id":"4","last_reported":1720501700,"current_range_meters":31200,"station_id":"ce4bguh2rcd13ifvqcj0","pricing_plan_id":"cebpf4jnsgd1na2vs0mg"},{"bike_id":"43222fe0-c933-4589-99ee-cf4266ea2e74","system_id":"levelo_inurba_marseille","lat":43.30143,"lon":5.37413,"is_reserved":false,"is_disabled":false,"rental_uris":{"android":"levelo://app?vid=43222fe0-c933-4589-99ee-cf4266ea2e74","ios":"levelo://app?vid=43222fe0-c933-4589-99ee-cf4266ea2e74"},"vehicle_type_id":"4","last_reported":1720501700,"current_range_meters":25200,"station_id":"ce4bgs92rcd13ifvqcc0","pricing_plan_id":"cebpf4jnsgd1na2vs0mg"},{"bike_id":"3e8441cf-9262-46b6-a719-71d9f66e7f1c","system_id":"levelo_inurba_marseille","lat":43.302784,"lon":5.377158,"is_reserved":false,"is_disabled":false,"rental_uris":{"android":"levelo://app?vid=3e8441cf-9262-46b6-a719-71d9f66e7f1c","ios":"levelo://app?vid=3e8441cf-9262-46b6-a719-71d9f66e7f1c"},"vehicle_type_id":"4","last_reported":1720501700,"current_range_meters":22400,"station_id":"ce4bguh2rcd13ifvqcj0","pricing_plan_id":"cebpf4jnsgd1na2vs0mg"},{"bike_id":"a29e3971-c842-4fde-8fca-3e3dae94b304","system_id":"levelo_inurba_marseille","lat":43.302784,"lon":5.377158,"is_reserved":false,"is_disabled":false,"rental_uris":{"android":"levelo://app?vid=a29e3971-c842-4fde-8fca-3e3dae94b304","ios":"levelo://app?vid=a29e3971-c842-4fde-8fca-3e3dae94b304"},"vehicle_type_id":"4","last_reported":1720501700,"current_range_meters":800,"station_id":"ce4bguh2rcd13ifvqcj0","pricing_plan_id":"cebpf4jnsgd1na2vs0mg"},{"bike_id":"9dce9eab-a598-4b94-bffe-b48e89be4287","system_id":"levelo_inurba_marseille","lat":43.302784,"lon":5.377158,"is_reserved":false,"is_disabled":false,"rental_uris":{"android":"levelo://app?vid=9dce9eab-a598-4b94-bffe-b48e89be4287","ios":"levelo://app?vid=9dce9eab-a598-4b94-bffe-b48e89be4287"},"vehicle_type_id":"4","last_reported":1720501700,"current_range_meters":16400,"station_id":"ce4bguh2rcd13ifvqcj0","pricing_plan_id":"cebpf4jnsgd1na2vs0mg"},{"bike_id":"17723755-91f3-4d3a-8485-64aa54ae096c","system_id":"levelo_inurba_marseille","lat":43.301429,"lon":5.37413,"is_reserved":false,"is_disabled":false,"rental_uris":{"android":"levelo://app?vid=17723755-91f3-4d3a-8485-64aa54ae096c","ios":"levelo://app?vid=17723755-91f3-4d3a-8485-64aa54ae096c"},"vehicle_type_id":"4","last_reported":1720501700,"current_range_meters":30000,"station_id":"ce4bgs92rcd13ifvqcc0","pricing_plan_id":"cebpf4jnsgd1na2vs0mg"},{"bike_id":"70254760-8859-4efc-9053-0ec276e8f93c","system_id":"levelo_inurba_marseille","lat":43.319935,"lon":5.381699,"is_reserved":false,"is_disabled":false,"rental_uris":{"android":"levelo://app?vid=70254760-8859-4efc-9053-0ec276e8f93c","ios":"levelo://app?vid=70254760-8859-4efc-9053-0ec276e8f93c"},"vehicle_type_id":"4","last_reported":1720501700,"current_range_meters":31200,"station_id":"ce4bhr12rcd13ifvqhpg","pricing_plan_id":"cebpf4jnsgd1na2vs0mg"},{"bike_id":"453d50e9-1645-4bb8-9df6-9da5b410cb11","system_id":"levelo_inurba_marseille","lat":43.319935,"lon":5.381699,"is_reserved":false,"is_disabled":false,"rental_uris":{"android":"levelo://app?vid=453d50e9-1645-4bb8-9df6-9da5b410cb11","ios":"levelo://app?vid=453d50e9-1645-4bb8-9df6-9da5b410cb11"},"vehicle_type_id":"4","last_reported":1720501700,"current_range_meters":31200,"station_id":"ce4bhr12rcd13ifvqhpg","pricing_plan_id":"cebpf4jnsgd1na2vs0mg"},{"bike_id":"191f1d10-806c-43d9-9b98-e8f1042a4aa3","system_id":"levelo_inurba_marseille","lat":43.319935,"lon":5.381699,"is_reserved":false,"is_disabled":false,"rental_uris":{"android":"levelo://app?vid=191f1d10-806c-43d9-9b98-e8f1042a4aa3","ios":"levelo://app?vid=191f1d10-806c-43d9-9b98-e8f1042a4aa3"},"vehicle_type_id":"4","last_reported":1720501700,"current_range_meters":13600,"station_id":"ce4bhr12rcd13ifvqhpg","pricing_plan_id":"cebpf4jnsgd1na2vs0mg"},{"bike_id":"d931222f-66d6-4c0a-8cd1-80b22dff606c","system_id":"levelo_inurba_marseille","lat":43.319982,"lon":5.38157,"is_reserved":false,"is_disabled":false,"rental_uris":{"android":"levelo://app?vid=d931222f-66d6-4c0a-8cd1-80b22dff606c","ios":"levelo://app?vid=d931222f-66d6-4c0a-8cd1-80b22dff606c"},"vehicle_type_id":"4","last_reported":1720501700,"current_range_meters":21200,"station_id":"ce4bhr12rcd13ifvqhpg","pricing_plan_id":"cebpf4jnsgd1na2vs0mg"},{"bike_id":"04039bb3-26dd-4291-b9be-56ca84c9c770","system_id":"levelo_inurba_marseille","lat":43.319935,"lon":5.381699,"is_reserved":false,"is_disabled":false,"rental_uris":{"android":"levelo://app?vid=04039bb3-26dd-4291-b9be-56ca84c9c770","ios":"levelo://app?vid=04039bb3-26dd-4291-b9be-56ca84c9c770"},"vehicle_type_id":"4","last_reported":1720501700,"current_range_meters":31200,"station_id":"ce4bhr12rcd13ifvqhpg","pricing_plan_id":"cebpf4jnsgd1na2vs0mg"},{"bike_id":"c0ab7e6f-ea64-44a1-a20e-36c6e72533bf","system_id":"levelo_inurba_marseille","lat":43.319935,"lon":5.381699,"is_reserved":false,"is_disabled":false,"rental_uris":{"android":"levelo://app?vid=c0ab7e6f-ea64-44a1-a20e-36c6e72533bf","ios":"levelo://app?vid=c0ab7e6f-ea64-44a1-a20e-36c6e72533bf"},"vehicle_type_id":"4","last_reported":1720501700,"current_range_meters":30800,"station_id":"ce4bhr12rcd13ifvqhpg","pricing_plan_id":"cebpf4jnsgd1na2vs0mg"},{"bike_id":"2fee8e08-d981-4bb6-8ace-dee30c36409c","system_id":"levelo_inurba_marseille","lat":43.313571,"lon":5.384829,"is_reserved":false,"is_disabled":false,"rental_uris":{"android":"levelo://app?vid=2fee8e08-d981-4bb6-8ace-dee30c36409c","ios":"levelo://app?vid=2fee8e08-d981-4bb6-8ace-dee30c36409c"},"vehicle_type_id":"4","last_reported":1720501700,"current_range_meters":31200,"station_id":"ce4bgt92rcd13ifvqcf0","pricing_plan_id":"cebpf4jnsgd1na2vs0mg"},{"bike_id":"ba33867a-61ec-4d75-8d60-3431bfb69634","system_id":"levelo_inurba_marseille","lat":43.313636,"lon":5.384906,"is_reserved":false,"is_disabled":false,"rental_uris":{"android":"levelo://app?vid=ba33867a-61ec-4d75-8d60-3431bfb69634","ios":"levelo://app?vid=ba33867a-61ec-4d75-8d60-3431bfb69634"},"vehicle_type_id":"4","last_reported":1720501700,"current_range_meters":13200,"station_id":"ce4bgt92rcd13ifvqcf0","pricing_plan_id":"cebpf4jnsgd1na2vs0mg"},{"bike_id":"e3f519b7-f2f3-4879-8bd3-3d6558246946","system_id":"levelo_inurba_marseille","lat":43.313695,"lon":5.38492,"is_reserved":false,"is_disabled":false,"rental_uris":{"android":"levelo://app?vid=e3f519b7-f2f3-4879-8bd3-3d6558246946","ios":"levelo://app?vid=e3f519b7-f2f3-4879-8bd3-3d6558246946"},"vehicle_type_id":"4","last_reported":1720501700,"current_range_meters":14400,"station_id":"ce4bgt92rcd13ifvqcf0","pricing_plan_id":"cebpf4jnsgd1na2vs0mg"},{"bike_id":"af48efa2-df71-48ba-be4e-e972088186b4","system_id":"levelo_inurba_marseille","lat":43.313678,"lon":5.384954,"is_reserved":false,"is_disabled":false,"rental_uris":{"android":"levelo://app?vid=af48efa2-df71-48ba-be4e-e972088186b4","ios":"levelo://app?vid=af48efa2-df71-48ba-be4e-e972088186b4"},"vehicle_type_id":"4","last_reported":1720501700,"current_range_meters":29600,"station_id":"ce4bgt92rcd13ifvqcf0","pricing_plan_id":"cebpf4jnsgd1na2vs0mg"},{"bike_id":"bf7dbc7e-b609-4d7a-a19c-ddb7c76c690b","system_id":"levelo_inurba_marseille","lat":43.313571,"lon":5.384829,"is_reserved":false,"is_disabled":false,"rental_uris":{"android":"levelo://app?vid=bf7dbc7e-b609-4d7a-a19c-ddb7c76c690b","ios":"levelo://app?vid=bf7dbc7e-b609-4d7a-a19c-ddb7c76c690b"},"vehicle_type_id":"4","last_reported":1720501700,"current_range_meters":29600,"station_id":"ce4bgt92rcd13ifvqcf0","pricing_plan_id":"cebpf4jnsgd1na2vs0mg"},{"bike_id":"127bbf9b-7ddf-4543-8811-348c9318f442","system_id":"levelo_inurba_marseille","lat":43.31363,"lon":5.38497,"is_reserved":false,"is_disabled":false,"rental_uris":{"android":"levelo://app?vid=127bbf9b-7ddf-4543-8811-348c9318f442","ios":"levelo://app?vid=127bbf9b-7ddf-4543-8811-348c9318f442"},"vehicle_type_id":"4","last_reported":1720501700,"current_range_meters":16800,"station_id":"ce4bgt92rcd13ifvqcf0","pricing_plan_id":"cebpf4jnsgd1na2vs0mg"},{"bike_id":"a3410d93-0e0e-4738-89e4-96ea7190c85a","system_id":"levelo_inurba_marseille","lat":43.313571,"lon":5.384829,"is_reserved":false,"is_disabled":false,"rental_uris":{"android":"levelo://app?vid=a3410d93-0e0e-4738-89e4-96ea7190c85a","ios":"levelo://app?vid=a3410d93-0e0e-4738-89e4-96ea7190c85a"},"vehicle_type_id":"4","last_reported":1720501700,"current_range_meters":3200,"station_id":"ce4bgt92rcd13ifvqcf0","pricing_plan_id":"cebpf4jnsgd1na2vs0mg"},{"bike_id":"60fc8315-2285-439e-b90e-1a13cdef34c2","system_id":"levelo_inurba_marseille","lat":43.313571,"lon":5.384829,"is_reserved":false,"is_disabled":false,"rental_uris":{"android":"levelo://app?vid=60fc8315-2285-439e-b90e-1a13cdef34c2","ios":"levelo://app?vid=60fc8315-2285-439e-b90e-1a13cdef34c2"},"vehicle_type_id":"4","last_reported":1720501700,"current_range_meters":26400,"station_id":"ce4bgt92rcd13ifvqcf0","pricing_plan_id":"cebpf4jnsgd1na2vs0mg"},{"bike_id":"2332f672-64a3-44eb-8fd6-6ba8e3f114d2","system_id":"levelo_inurba_marseille","lat":43.313571,"lon":5.384829,"is_reserved":false,"is_disabled":false,"rental_uris":{"android":"levelo://app?vid=2332f672-64a3-44eb-8fd6-6ba8e3f114d2","ios":"levelo://app?vid=2332f672-64a3-44eb-8fd6-6ba8e3f114d2"},"vehicle_type_id":"4","last_reported":1720501700,"current_range_meters":26400,"station_id":"ce4bgt92rcd13ifvqcf0","pricing_plan_id":"cebpf4jnsgd1na2vs0mg"},{"bike_id":"8c484f2e-4f7d-47d9-a87f-c0e8076283f1","system_id":"levelo_inurba_marseille","lat":43.313571,"lon":5.384829,"is_reserved":false,"is_disabled":false,"rental_uris":{"android":"levelo://app?vid=8c484f2e-4f7d-47d9-a87f-c0e8076283f1","ios":"levelo://app?vid=8c484f2e-4f7d-47d9-a87f-c0e8076283f1"},"vehicle_type_id":"4","last_reported":1720501700,"current_range_meters":27600,"station_id":"ce4bgt92rcd13ifvqcf0","pricing_plan_id":"cebpf4jnsgd1na2vs0mg"},{"bike_id":"84ee39e8-6082-4755-9bd8-cd2581ea4a67","system_id":"levelo_inurba_marseille","lat":43.30292,"lon":5.37927,"is_reserved":false,"is_disabled":false,"rental_uris":{"android":"levelo://app?vid=84ee39e8-6082-4755-9bd8-cd2581ea4a67","ios":"levelo://app?vid=84ee39e8-6082-4755-9bd8-cd2581ea4a67"},"vehicle_type_id":"4","last_reported":1720501700,"current_range_meters":24000,"station_id":"","pricing_plan_id":"cebpf4jnsgd1na2vs0mg"},{"bike_id":"7350c435-361c-4f6e-9e5e-6d0c512a0db4","system_id":"levelo_inurba_marseille","lat":43.299724,"lon":5.371829,"is_reserved":false,"is_disabled":false,"rental_uris":{"android":"levelo://app?vid=7350c435-361c-4f6e-9e5e-6d0c512a0db4","ios":"levelo://app?vid=7350c435-361c-4f6e-9e5e-6d0c512a0db4"},"vehicle_type_id":"4","last_reported":1720501700,"current_range_meters":10000,"station_id":"ce4bgr92rcd13ifvqc7g","pricing_plan_id":"cebpf4jnsgd1na2vs0mg"},{"bike_id":"465dfa70-52a7-4870-a02e-009b4818139e","system_id":"levelo_inurba_marseille","lat":43.305376,"lon":5.384212,"is_reserved":false,"is_disabled":false,"rental_uris":{"android":"levelo://app?vid=465dfa70-52a7-4870-a02e-009b4818139e","ios":"levelo://app?vid=465dfa70-52a7-4870-a02e-009b4818139e"},"vehicle_type_id":"4","last_reported":1720501700,"current_range_meters":16400,"station_id":"ce4bgg92rcd13ifvqb30","pricing_plan_id":"cebpf4jnsgd1na2vs0mg"},{"bike_id":"425e7708-f550-4adf-9baa-d5704c5384d8","system_id":"levelo_inurba_marseille","lat":43.311722,"lon":5.387247,"is_reserved":false,"is_disabled":false,"rental_uris":{"android":"levelo://app?vid=425e7708-f550-4adf-9baa-d5704c5384d8","ios":"levelo://app?vid=425e7708-f550-4adf-9baa-d5704c5384d8"},"vehicle_type_id":"4","last_reported":1720501700,"current_range_meters":18000,"station_id":"ce4bgv12rcd13ifvqcp0","pricing_plan_id":"cebpf4jnsgd1na2vs0mg"},{"bike_id":"cdb93e07-7cc5-4668-be6b-11315ee47630","system_id":"levelo_inurba_marseille","lat":43.31174,"lon":5.387115,"is_reserved":false,"is_disabled":false,"rental_uris":{"android":"levelo://app?vid=cdb93e07-7cc5-4668-be6b-11315ee47630","ios":"levelo://app?vid=cdb93e07-7cc5-4668-be6b-11315ee47630"},"vehicle_type_id":"4","last_reported":1720501700,"current_range_meters":10400,"station_id":"ce4bgv12rcd13ifvqcp0","pricing_plan_id":"cebpf4jnsgd1na2vs0mg"},{"bike_id":"a02f08b7-d520-4550-bedb-c4a4fb520806","system_id":"levelo_inurba_marseille","lat":43.311722,"lon":5.387247,"is_reserved":false,"is_disabled":false,"rental_uris":{"android":"levelo://app?vid=a02f08b7-d520-4550-bedb-c4a4fb520806","ios":"levelo://app?vid=a02f08b7-d520-4550-bedb-c4a4fb520806"},"vehicle_type_id":"4","last_reported":1720501700,"current_range_meters":15200,"station_id":"ce4bgv12rcd13ifvqcp0","pricing_plan_id":"cebpf4jnsgd1na2vs0mg"},{"bike_id":"81416da2-6c5c-4c42-bca1-4467ee8bd9f9","system_id":"levelo_inurba_marseille","lat":43.311722,"lon":5.387247,"is_reserved":false,"is_disabled":false,"rental_uris":{"android":"levelo://app?vid=81416da2-6c5c-4c42-bca1-4467ee8bd9f9","ios":"levelo://app?vid=81416da2-6c5c-4c42-bca1-4467ee8bd9f9"},"vehicle_type_id":"4","last_reported":1720501700,"current_range_meters":31200,"station_id":"ce4bgv12rcd13ifvqcp0","pricing_plan_id":"cebpf4jnsgd1na2vs0mg"},{"bike_id":"ec0f4cb5-f854-40a1-af6d-cc6ade089a57","system_id":"levelo_inurba_marseille","lat":43.31181,"lon":5.38715,"is_reserved":false,"is_disabled":false,"rental_uris":{"android":"levelo://app?vid=ec0f4cb5-f854-40a1-af6d-cc6ade089a57","ios":"levelo://app?vid=ec0f4cb5-f854-40a1-af6d-cc6ade089a57"},"vehicle_type_id":"4","last_reported":1720501700,"current_range_meters":22400,"station_id":"ce4bgv12rcd13ifvqcp0","pricing_plan_id":"cebpf4jnsgd1na2vs0mg"},{"bike_id":"069aef79-fd6c-4d96-8ad2-8ebae7475a8a","system_id":"levelo_inurba_marseille","lat":43.311722,"lon":5.387247,"is_reserved":false,"is_disabled":false,"rental_uris":{"android":"levelo://app?vid=069aef79-fd6c-4d96-8ad2-8ebae7475a8a","ios":"levelo://app?vid=069aef79-fd6c-4d96-8ad2-8ebae7475a8a"},"vehicle_type_id":"4","last_reported":1720501700,"current_range_meters":20400,"station_id":"ce4bgv12rcd13ifvqcp0","pricing_plan_id":"cebpf4jnsgd1na2vs0mg"},{"bike_id":"9761613d-8c7d-45c1-be53-04a4c4295573","system_id":"levelo_inurba_marseille","lat":43.311722,"lon":5.387247,"is_reserved":false,"is_disabled":false,"rental_uris":{"android":"levelo://app?vid=9761613d-8c7d-45c1-be53-04a4c4295573","ios":"levelo://app?vid=9761613d-8c7d-45c1-be53-04a4c4295573"},"vehicle_type_id":"4","last_reported":1720501700,"current_range_meters":24400,"station_id":"ce4bgv12rcd13ifvqcp0","pricing_plan_id":"cebpf4jnsgd1na2vs0mg"},{"bike_id":"c96de401-41b3-4a37-ba03-b6d078cd4ab4","system_id":"levelo_inurba_marseille","lat":43.311722,"lon":5.387247,"is_reserved":false,"is_disabled":false,"rental_uris":{"android":"levelo://app?vid=c96de401-41b3-4a37-ba03-b6d078cd4ab4","ios":"levelo://app?vid=c96de401-41b3-4a37-ba03-b6d078cd4ab4"},"vehicle_type_id":"4","last_reported":1720501700,"current_range_meters":31200,"station_id":"ce4bgv12rcd13ifvqcp0","pricing_plan_id":"cebpf4jnsgd1na2vs0mg"},{"bike_id":"2877e405-0732-4e11-a1d9-ae2a083e52c3","system_id":"levelo_inurba_marseille","lat":43.299243,"lon":5.37481,"is_reserved":false,"is_disabled":false,"rental_uris":{"android":"levelo://app?vid=2877e405-0732-4e11-a1d9-ae2a083e52c3","ios":"levelo://app?vid=2877e405-0732-4e11-a1d9-ae2a083e52c3"},"vehicle_type_id":"4","last_reported":1720501700,"current_range_meters":30800,"station_id":"ce4bgjh2rcd13ifvqbg0","pricing_plan_id":"cebpf4jnsgd1na2vs0mg"},{"bike_id":"3060f7ad-ccc8-42e5-b17c-2a1665081fb4","system_id":"levelo_inurba_marseille","lat":43.311722,"lon":5.387247,"is_reserved":false,"is_disabled":false,"rental_uris":{"android":"levelo://app?vid=3060f7ad-ccc8-42e5-b17c-2a1665081fb4","ios":"levelo://app?vid=3060f7ad-ccc8-42e5-b17c-2a1665081fb4"},"vehicle_type_id":"4","last_reported":1720501700,"current_range_meters":28000,"station_id":"ce4bgv12rcd13ifvqcp0","pricing_plan_id":"cebpf4jnsgd1na2vs0mg"},{"bike_id":"abf93da0-d2f9-4ab6-9871-acfb42d0e07e","system_id":"levelo_inurba_marseille","lat":43.305364,"lon":5.384119,"is_reserved":false,"is_disabled":false,"rental_uris":{"android":"levelo://app?vid=abf93da0-d2f9-4ab6-9871-acfb42d0e07e","ios":"levelo://app?vid=abf93da0-d2f9-4ab6-9871-acfb42d0e07e"},"vehicle_type_id":"4","last_reported":1720501700,"current_range_meters":7200,"station_id":"ce4bgg92rcd13ifvqb30","pricing_plan_id":"cebpf4jnsgd1na2vs0mg"},{"bike_id":"7634410e-0d2b-4032-b616-de9fb0488adf","system_id":"levelo_inurba_marseille","lat":43.311741,"lon":5.387187,"is_reserved":false,"is_disabled":false,"rental_uris":{"android":"levelo://app?vid=7634410e-0d2b-4032-b616-de9fb0488adf","ios":"levelo://app?vid=7634410e-0d2b-4032-b616-de9fb0488adf"},"vehicle_type_id":"4","last_reported":1720501700,"current_range_meters":23600,"station_id":"ce4bgv12rcd13ifvqcp0","pricing_plan_id":"cebpf4jnsgd1na2vs0mg"},{"bike_id":"05ed9346-66e5-4506-a2c1-9a7d71ae1b85","system_id":"levelo_inurba_marseille","lat":43.311716,"lon":5.387191,"is_reserved":false,"is_disabled":false,"rental_uris":{"android":"levelo://app?vid=05ed9346-66e5-4506-a2c1-9a7d71ae1b85","ios":"levelo://app?vid=05ed9346-66e5-4506-a2c1-9a7d71ae1b85"},"vehicle_type_id":"4","last_reported":1720501700,"current_range_meters":27600,"station_id":"ce4bgv12rcd13ifvqcp0","pricing_plan_id":"cebpf4jnsgd1na2vs0mg"},{"bike_id":"52b55555-c341-481f-bc32-54b45b104486","system_id":"levelo_inurba_marseille","lat":43.311724,"lon":5.387194,"is_reserved":false,"is_disabled":false,"rental_uris":{"android":"levelo://app?vid=52b55555-c341-481f-bc32-54b45b104486","ios":"levelo://app?vid=52b55555-c341-481f-bc32-54b45b104486"},"vehicle_type_id":"4","last_reported":1720501700,"current_range_meters":24800,"station_id":"ce4bgv12rcd13ifvqcp0","pricing_plan_id":"cebpf4jnsgd1na2vs0mg"},{"bike_id":"c31ac384-3f34-480d-9a78-2bb0963b4daa","system_id":"levelo_inurba_marseille","lat":43.311722,"lon":5.387247,"is_reserved":false,"is_disabled":false,"rental_uris":{"android":"levelo://app?vid=c31ac384-3f34-480d-9a78-2bb0963b4daa","ios":"levelo://app?vid=c31ac384-3f34-480d-9a78-2bb0963b4daa"},"vehicle_type_id":"4","last_reported":1720501700,"current_range_meters":18000,"station_id":"ce4bgv12rcd13ifvqcp0","pricing_plan_id":"cebpf4jnsgd1na2vs0mg"},{"bike_id":"8f365bd5-bd04-4631-b29f-2e132057600e","system_id":"levelo_inurba_marseille","lat":43.311722,"lon":5.387247,"is_reserved":false,"is_disabled":false,"rental_uris":{"android":"levelo://app?vid=8f365bd5-bd04-4631-b29f-2e132057600e","ios":"levelo://app?vid=8f365bd5-bd04-4631-b29f-2e132057600e"},"vehicle_type_id":"4","last_reported":1720501700,"current_range_meters":31200,"station_id":"ce4bgv12rcd13ifvqcp0","pricing_plan_id":"cebpf4jnsgd1na2vs0mg"},{"bike_id":"197bbbb8-0651-4548-a35f-24ed552299e6","system_id":"levelo_inurba_marseille","lat":43.297794,"lon":5.370888,"is_reserved":false,"is_disabled":false,"rental_uris":{"android":"levelo://app?vid=197bbbb8-0651-4548-a35f-24ed552299e6","ios":"levelo://app?vid=197bbbb8-0651-4548-a35f-24ed552299e6"},"vehicle_type_id":"4","last_reported":1720501700,"current_range_meters":28400,"station_id":"ce4bgop2rcd13ifvqc1g","pricing_plan_id":"cebpf4jnsgd1na2vs0mg"},{"bike_id":"0e647998-b979-4598-9038-64074f852e08","system_id":"levelo_inurba_marseille","lat":43.322872,"lon":5.382756,"is_reserved":false,"is_disabled":false,"rental_uris":{"android":"levelo://app?vid=0e647998-b979-4598-9038-64074f852e08","ios":"levelo://app?vid=0e647998-b979-4598-9038-64074f852e08"},"vehicle_type_id":"4","last_reported":1720501700,"current_range_meters":22800,"station_id":"ce4bhr12rcd13ifvqhqg","pricing_plan_id":"cebpf4jnsgd1na2vs0mg"},{"bike_id":"69085457-2960-4053-901c-61af52c41e66","system_id":"levelo_inurba_marseille","lat":43.32293,"lon":5.38266,"is_reserved":false,"is_disabled":false,"rental_uris":{"android":"levelo://app?vid=69085457-2960-4053-901c-61af52c41e66","ios":"levelo://app?vid=69085457-2960-4053-901c-61af52c41e66"},"vehicle_type_id":"4","last_reported":1720501700,"current_range_meters":28400,"station_id":"ce4bhr12rcd13ifvqhqg","pricing_plan_id":"cebpf4jnsgd1na2vs0mg"},{"bike_id":"0a4350d7-9963-4855-b0ec-cdcbc237706a","system_id":"levelo_inurba_marseille","lat":43.322872,"lon":5.382756,"is_reserved":false,"is_disabled":false,"rental_uris":{"android":"levelo://app?vid=0a4350d7-9963-4855-b0ec-cdcbc237706a","ios":"levelo://app?vid=0a4350d7-9963-4855-b0ec-cdcbc237706a"},"vehicle_type_id":"4","last_reported":1720501700,"current_range_meters":21600,"station_id":"ce4bhr12rcd13ifvqhqg","pricing_plan_id":"cebpf4jnsgd1na2vs0mg"},{"bike_id":"25433afc-0e40-4c87-bc8b-8760568d28ea","system_id":"levelo_inurba_marseille","lat":43.322872,"lon":5.382756,"is_reserved":false,"is_disabled":false,"rental_uris":{"android":"levelo://app?vid=25433afc-0e40-4c87-bc8b-8760568d28ea","ios":"levelo://app?vid=25433afc-0e40-4c87-bc8b-8760568d28ea"},"vehicle_type_id":"4","last_reported":1720501700,"current_range_meters":30400,"station_id":"ce4bhr12rcd13ifvqhqg","pricing_plan_id":"cebpf4jnsgd1na2vs0mg"},{"bike_id":"845219b1-9c6f-4b39-9280-6f86ed70e6ea","system_id":"levelo_inurba_marseille","lat":43.297163,"lon":5.365866,"is_reserved":false,"is_disabled":false,"rental_uris":{"android":"levelo://app?vid=845219b1-9c6f-4b39-9280-6f86ed70e6ea","ios":"levelo://app?vid=845219b1-9c6f-4b39-9280-6f86ed70e6ea"},"vehicle_type_id":"4","last_reported":1720501700,"current_range_meters":20800,"station_id":"ce4bgn12rcd13ifvqbt0","pricing_plan_id":"cebpf4jnsgd1na2vs0mg"},{"bike_id":"464ac414-cd18-4443-b64f-16dfb96a17d5","system_id":"levelo_inurba_marseille","lat":43.32809,"lon":5.361127,"is_reserved":false,"is_disabled":false,"rental_uris":{"android":"levelo://app?vid=464ac414-cd18-4443-b64f-16dfb96a17d5","ios":"levelo://app?vid=464ac414-cd18-4443-b64f-16dfb96a17d5"},"vehicle_type_id":"4","last_reported":1720501700,"current_range_meters":18800,"station_id":"","pricing_plan_id":"cebpf4jnsgd1na2vs0mg"},{"bike_id":"c0239619-c8e3-478a-84d8-43f82ef3d285","system_id":"levelo_inurba_marseille","lat":43.296921,"lon":5.376579,"is_reserved":false,"is_disabled":false,"rental_uris":{"android":"levelo://app?vid=c0239619-c8e3-478a-84d8-43f82ef3d285","ios":"levelo://app?vid=c0239619-c8e3-478a-84d8-43f82ef3d285"},"vehicle_type_id":"4","last_reported":1720501700,"current_range_meters":29200,"station_id":"ce4bgkh2rcd13ifvqbl0","pricing_plan_id":"cebpf4jnsgd1na2vs0mg"},{"bike_id":"94830a69-54fb-4304-9a7c-6f1e00e9981e","system_id":"levelo_inurba_marseille","lat":43.296921,"lon":5.376579,"is_reserved":false,"is_disabled":false,"rental_uris":{"android":"levelo://app?vid=94830a69-54fb-4304-9a7c-6f1e00e9981e","ios":"levelo://app?vid=94830a69-54fb-4304-9a7c-6f1e00e9981e"},"vehicle_type_id":"4","last_reported":1720501700,"current_range_meters":4800,"station_id":"ce4bgkh2rcd13ifvqbl0","pricing_plan_id":"cebpf4jnsgd1na2vs0mg"},{"bike_id":"0578b0fb-86fb-4992-8b1b-8ad2d3fc8fe7","system_id":"levelo_inurba_marseille","lat":43.299028,"lon":5.381509,"is_reserved":false,"is_disabled":false,"rental_uris":{"android":"levelo://app?vid=0578b0fb-86fb-4992-8b1b-8ad2d3fc8fe7","ios":"levelo://app?vid=0578b0fb-86fb-4992-8b1b-8ad2d3fc8fe7"},"vehicle_type_id":"4","last_reported":1720501700,"current_range_meters":22000,"station_id":"ce4bgj12rcd13ifvqbc0","pricing_plan_id":"cebpf4jnsgd1na2vs0mg"},{"bike_id":"4646abe1-8b6e-4f67-b79e-7421471bbc4d","system_id":"levelo_inurba_marseille","lat":43.296935,"lon":5.376544,"is_reserved":false,"is_disabled":false,"rental_uris":{"android":"levelo://app?vid=4646abe1-8b6e-4f67-b79e-7421471bbc4d","ios":"levelo://app?vid=4646abe1-8b6e-4f67-b79e-7421471bbc4d"},"vehicle_type_id":"4","last_reported":1720501700,"current_range_meters":19600,"station_id":"ce4bgkh2rcd13ifvqbl0","pricing_plan_id":"cebpf4jnsgd1na2vs0mg"},{"bike_id":"6aaa3759-6a9f-4443-8f32-077bf4fa4fef","system_id":"levelo_inurba_marseille","lat":43.299028,"lon":5.381509,"is_reserved":false,"is_disabled":false,"rental_uris":{"android":"levelo://app?vid=6aaa3759-6a9f-4443-8f32-077bf4fa4fef","ios":"levelo://app?vid=6aaa3759-6a9f-4443-8f32-077bf4fa4fef"},"vehicle_type_id":"4","last_reported":1720501700,"current_range_meters":25600,"station_id":"ce4bgj12rcd13ifvqbc0","pricing_plan_id":"cebpf4jnsgd1na2vs0mg"},{"bike_id":"cc5c7f12-d9de-450e-94ae-be7435d50d2d","system_id":"levelo_inurba_marseille","lat":43.299028,"lon":5.381509,"is_reserved":false,"is_disabled":false,"rental_uris":{"android":"levelo://app?vid=cc5c7f12-d9de-450e-94ae-be7435d50d2d","ios":"levelo://app?vid=cc5c7f12-d9de-450e-94ae-be7435d50d2d"},"vehicle_type_id":"4","last_reported":1720501700,"current_range_meters":6400,"station_id":"ce4bgj12rcd13ifvqbc0","pricing_plan_id":"cebpf4jnsgd1na2vs0mg"},{"bike_id":"02ff56d7-f9e5-461b-8c15-4fee00609f58","system_id":"levelo_inurba_marseille","lat":43.309589,"lon":5.390258,"is_reserved":false,"is_disabled":false,"rental_uris":{"android":"levelo://app?vid=02ff56d7-f9e5-461b-8c15-4fee00609f58","ios":"levelo://app?vid=02ff56d7-f9e5-461b-8c15-4fee00609f58"},"vehicle_type_id":"4","last_reported":1720501700,"current_range_meters":27600,"station_id":"ce4bgup2rcd13ifvqco0","pricing_plan_id":"cebpf4jnsgd1na2vs0mg"},{"bike_id":"6b1d571d-36fa-4090-8aa8-132a7a156596","system_id":"levelo_inurba_marseille","lat":43.299028,"lon":5.381509,"is_reserved":false,"is_disabled":false,"rental_uris":{"android":"levelo://app?vid=6b1d571d-36fa-4090-8aa8-132a7a156596","ios":"levelo://app?vid=6b1d571d-36fa-4090-8aa8-132a7a156596"},"vehicle_type_id":"4","last_reported":1720501700,"current_range_meters":24000,"station_id":"ce4bgj12rcd13ifvqbc0","pricing_plan_id":"cebpf4jnsgd1na2vs0mg"},{"bike_id":"12f12b3f-9edb-48d1-885c-b51f81d6b006","system_id":"levelo_inurba_marseille","lat":43.299028,"lon":5.381509,"is_reserved":false,"is_disabled":false,"rental_uris":{"android":"levelo://app?vid=12f12b3f-9edb-48d1-885c-b51f81d6b006","ios":"levelo://app?vid=12f12b3f-9edb-48d1-885c-b51f81d6b006"},"vehicle_type_id":"4","last_reported":1720501700,"current_range_meters":31600,"station_id":"ce4bgj12rcd13ifvqbc0","pricing_plan_id":"cebpf4jnsgd1na2vs0mg"},{"bike_id":"77341ff0-1a3b-466d-8041-68f0ff8706d5","system_id":"levelo_inurba_marseille","lat":43.309589,"lon":5.390258,"is_reserved":false,"is_disabled":false,"rental_uris":{"android":"levelo://app?vid=77341ff0-1a3b-466d-8041-68f0ff8706d5","ios":"levelo://app?vid=77341ff0-1a3b-466d-8041-68f0ff8706d5"},"vehicle_type_id":"4","last_reported":1720501700,"current_range_meters":14400,"station_id":"ce4bgup2rcd13ifvqco0","pricing_plan_id":"cebpf4jnsgd1na2vs0mg"},{"bike_id":"54ae8f0e-23dc-491b-9d56-b1afdadeec8b","system_id":"levelo_inurba_marseille","lat":43.309589,"lon":5.390258,"is_reserved":false,"is_disabled":false,"rental_uris":{"android":"levelo://app?vid=54ae8f0e-23dc-491b-9d56-b1afdadeec8b","ios":"levelo://app?vid=54ae8f0e-23dc-491b-9d56-b1afdadeec8b"},"vehicle_type_id":"4","last_reported":1720501700,"current_range_meters":25600,"station_id":"ce4bgup2rcd13ifvqco0","pricing_plan_id":"cebpf4jnsgd1na2vs0mg"},{"bike_id":"4b87105c-f702-4f69-aa68-1aaace851098","system_id":"levelo_inurba_marseille","lat":43.309589,"lon":5.390258,"is_reserved":false,"is_disabled":false,"rental_uris":{"android":"levelo://app?vid=4b87105c-f702-4f69-aa68-1aaace851098","ios":"levelo://app?vid=4b87105c-f702-4f69-aa68-1aaace851098"},"vehicle_type_id":"4","last_reported":1720501700,"current_range_meters":31200,"station_id":"ce4bgup2rcd13ifvqco0","pricing_plan_id":"cebpf4jnsgd1na2vs0mg"},{"bike_id":"0e9d68f5-d9dd-4fea-9587-9e9666c6c3a3","system_id":"levelo_inurba_marseille","lat":43.309589,"lon":5.390258,"is_reserved":false,"is_disabled":false,"rental_uris":{"android":"levelo://app?vid=0e9d68f5-d9dd-4fea-9587-9e9666c6c3a3","ios":"levelo://app?vid=0e9d68f5-d9dd-4fea-9587-9e9666c6c3a3"},"vehicle_type_id":"4","last_reported":1720501700,"current_range_meters":12000,"station_id":"ce4bgup2rcd13ifvqco0","pricing_plan_id":"cebpf4jnsgd1na2vs0mg"},{"bike_id":"67df139a-3cf3-41a8-a20d-6c7bd2cf6b19","system_id":"levelo_inurba_marseille","lat":43.317557,"lon":5.390173,"is_reserved":false,"is_disabled":false,"rental_uris":{"android":"levelo://app?vid=67df139a-3cf3-41a8-a20d-6c7bd2cf6b19","ios":"levelo://app?vid=67df139a-3cf3-41a8-a20d-6c7bd2cf6b19"},"vehicle_type_id":"4","last_reported":1720501700,"current_range_meters":12000,"station_id":"ce4bhqp2rcd13ifvqhng","pricing_plan_id":"cebpf4jnsgd1na2vs0mg"},{"bike_id":"5bd7b579-74d2-42aa-b71d-f54a2ac6c38e","system_id":"levelo_inurba_marseille","lat":43.317557,"lon":5.390173,"is_reserved":false,"is_disabled":false,"rental_uris":{"android":"levelo://app?vid=5bd7b579-74d2-42aa-b71d-f54a2ac6c38e","ios":"levelo://app?vid=5bd7b579-74d2-42aa-b71d-f54a2ac6c38e"},"vehicle_type_id":"4","last_reported":1720501700,"current_range_meters":32000,"station_id":"ce4bhqp2rcd13ifvqhng","pricing_plan_id":"cebpf4jnsgd1na2vs0mg"},{"bike_id":"9638ddf0-3757-4f5e-b29c-5da18eb0125e","system_id":"levelo_inurba_marseille","lat":43.317557,"lon":5.390173,"is_reserved":false,"is_disabled":false,"rental_uris":{"android":"levelo://app?vid=9638ddf0-3757-4f5e-b29c-5da18eb0125e","ios":"levelo://app?vid=9638ddf0-3757-4f5e-b29c-5da18eb0125e"},"vehicle_type_id":"4","last_reported":1720501700,"current_range_meters":22000,"station_id":"ce4bhqp2rcd13ifvqhng","pricing_plan_id":"cebpf4jnsgd1na2vs0mg"},{"bike_id":"199108bb-3857-4c4c-8780-dea13cf778e2","system_id":"levelo_inurba_marseille","lat":43.317557,"lon":5.390173,"is_reserved":false,"is_disabled":false,"rental_uris":{"android":"levelo://app?vid=199108bb-3857-4c4c-8780-dea13cf778e2","ios":"levelo://app?vid=199108bb-3857-4c4c-8780-dea13cf778e2"},"vehicle_type_id":"4","last_reported":1720501700,"current_range_meters":15200,"station_id":"ce4bhqp2rcd13ifvqhng","pricing_plan_id":"cebpf4jnsgd1na2vs0mg"},{"bike_id":"02a8e8eb-88d8-4f9b-913c-548a1f090da2","system_id":"levelo_inurba_marseille","lat":43.317557,"lon":5.390173,"is_reserved":false,"is_disabled":false,"rental_uris":{"android":"levelo://app?vid=02a8e8eb-88d8-4f9b-913c-548a1f090da2","ios":"levelo://app?vid=02a8e8eb-88d8-4f9b-913c-548a1f090da2"},"vehicle_type_id":"4","last_reported":1720501700,"current_range_meters":30800,"station_id":"ce4bhqp2rcd13ifvqhng","pricing_plan_id":"cebpf4jnsgd1na2vs0mg"},{"bike_id":"297560e6-f218-4095-9af2-d0f30a122a90","system_id":"levelo_inurba_marseille","lat":43.298037,"lon":5.381066,"is_reserved":false,"is_disabled":false,"rental_uris":{"android":"levelo://app?vid=297560e6-f218-4095-9af2-d0f30a122a90","ios":"levelo://app?vid=297560e6-f218-4095-9af2-d0f30a122a90"},"vehicle_type_id":"4","last_reported":1720501700,"current_range_meters":29600,"station_id":"ce4bgip2rcd13ifvqbb0","pricing_plan_id":"cebpf4jnsgd1na2vs0mg"},{"bike_id":"5b801228-ca6e-49e7-ac7f-820aeb43729c","system_id":"levelo_inurba_marseille","lat":43.298037,"lon":5.381066,"is_reserved":false,"is_disabled":false,"rental_uris":{"android":"levelo://app?vid=5b801228-ca6e-49e7-ac7f-820aeb43729c","ios":"levelo://app?vid=5b801228-ca6e-49e7-ac7f-820aeb43729c"},"vehicle_type_id":"4","last_reported":1720501700,"current_range_meters":25600,"station_id":"ce4bgip2rcd13ifvqbb0","pricing_plan_id":"cebpf4jnsgd1na2vs0mg"},{"bike_id":"9fa74028-708a-44ea-bead-4664c882b784","system_id":"levelo_inurba_marseille","lat":43.304317,"lon":5.388856,"is_reserved":false,"is_disabled":false,"rental_uris":{"android":"levelo://app?vid=9fa74028-708a-44ea-bead-4664c882b784","ios":"levelo://app?vid=9fa74028-708a-44ea-bead-4664c882b784"},"vehicle_type_id":"4","last_reported":1720501700,"current_range_meters":30000,"station_id":"ce4bgk12rcd13ifvqbi0","pricing_plan_id":"cebpf4jnsgd1na2vs0mg"},{"bike_id":"959de2c0-454f-4ab7-9f27-123d3b32aa85","system_id":"levelo_inurba_marseille","lat":43.304324,"lon":5.388919,"is_reserved":false,"is_disabled":false,"rental_uris":{"android":"levelo://app?vid=959de2c0-454f-4ab7-9f27-123d3b32aa85","ios":"levelo://app?vid=959de2c0-454f-4ab7-9f27-123d3b32aa85"},"vehicle_type_id":"4","last_reported":1720501700,"current_range_meters":30000,"station_id":"ce4bgk12rcd13ifvqbi0","pricing_plan_id":"cebpf4jnsgd1na2vs0mg"},{"bike_id":"c653748a-bdf5-4acb-8aae-054db6b721f1","system_id":"levelo_inurba_marseille","lat":43.304274,"lon":5.388873,"is_reserved":false,"is_disabled":false,"rental_uris":{"android":"levelo://app?vid=c653748a-bdf5-4acb-8aae-054db6b721f1","ios":"levelo://app?vid=c653748a-bdf5-4acb-8aae-054db6b721f1"},"vehicle_type_id":"4","last_reported":1720501700,"current_range_meters":29600,"station_id":"ce4bgk12rcd13ifvqbi0","pricing_plan_id":"cebpf4jnsgd1na2vs0mg"},{"bike_id":"8e0d02c0-9e28-4b04-aa47-9a51af30d1f6","system_id":"levelo_inurba_marseille","lat":43.304352,"lon":5.389013,"is_reserved":false,"is_disabled":false,"rental_uris":{"android":"levelo://app?vid=8e0d02c0-9e28-4b04-aa47-9a51af30d1f6","ios":"levelo://app?vid=8e0d02c0-9e28-4b04-aa47-9a51af30d1f6"},"vehicle_type_id":"4","last_reported":1720501700,"current_range_meters":30400,"station_id":"ce4bgk12rcd13ifvqbi0","pricing_plan_id":"cebpf4jnsgd1na2vs0mg"},{"bike_id":"4cee1347-b81a-49df-88ad-f32fc9c2e602","system_id":"levelo_inurba_marseille","lat":43.296263,"lon":5.377094,"is_reserved":false,"is_disabled":false,"rental_uris":{"android":"levelo://app?vid=4cee1347-b81a-49df-88ad-f32fc9c2e602","ios":"levelo://app?vid=4cee1347-b81a-49df-88ad-f32fc9c2e602"},"vehicle_type_id":"4","last_reported":1720501700,"current_range_meters":24800,"station_id":"ce4bgi92rcd13ifvqb90","pricing_plan_id":"cebpf4jnsgd1na2vs0mg"},{"bike_id":"0a083d22-6455-43a3-8c10-0273e10a8ba7","system_id":"levelo_inurba_marseille","lat":43.296277,"lon":5.377108,"is_reserved":false,"is_disabled":false,"rental_uris":{"android":"levelo://app?vid=0a083d22-6455-43a3-8c10-0273e10a8ba7","ios":"levelo://app?vid=0a083d22-6455-43a3-8c10-0273e10a8ba7"},"vehicle_type_id":"4","last_reported":1720501700,"current_range_meters":27200,"station_id":"ce4bgi92rcd13ifvqb90","pricing_plan_id":"cebpf4jnsgd1na2vs0mg"},{"bike_id":"52c52c1c-7210-49bd-bfc7-5e319501cfd0","system_id":"levelo_inurba_marseille","lat":43.299724,"lon":5.384848,"is_reserved":false,"is_disabled":false,"rental_uris":{"android":"levelo://app?vid=52c52c1c-7210-49bd-bfc7-5e319501cfd0","ios":"levelo://app?vid=52c52c1c-7210-49bd-bfc7-5e319501cfd0"},"vehicle_type_id":"4","last_reported":1720501700,"current_range_meters":22800,"station_id":"ce4bgj92rcd13ifvqbd0","pricing_plan_id":"cebpf4jnsgd1na2vs0mg"},{"bike_id":"268a40a2-2c6c-41df-800d-613b37974e0b","system_id":"levelo_inurba_marseille","lat":43.295279,"lon":5.375048,"is_reserved":false,"is_disabled":false,"rental_uris":{"android":"levelo://app?vid=268a40a2-2c6c-41df-800d-613b37974e0b","ios":"levelo://app?vid=268a40a2-2c6c-41df-800d-613b37974e0b"},"vehicle_type_id":"4","last_reported":1720501700,"current_range_meters":6800,"station_id":"ce4bgkp2rcd13ifvqbmg","pricing_plan_id":"cebpf4jnsgd1na2vs0mg"},{"bike_id":"c3be7fce-ac01-4e78-90cb-7361dd8628b0","system_id":"levelo_inurba_marseille","lat":43.301396,"lon":5.387812,"is_reserved":false,"is_disabled":false,"rental_uris":{"android":"levelo://app?vid=c3be7fce-ac01-4e78-90cb-7361dd8628b0","ios":"levelo://app?vid=c3be7fce-ac01-4e78-90cb-7361dd8628b0"},"vehicle_type_id":"4","last_reported":1720501700,"current_range_meters":0,"station_id":"ce4bghh2rcd13ifvqb60","pricing_plan_id":"cebpf4jnsgd1na2vs0mg"},{"bike_id":"1f13e93b-2408-4996-b33d-67040570c8fe","system_id":"levelo_inurba_marseille","lat":43.32367,"lon":5.388836,"is_reserved":false,"is_disabled":false,"rental_uris":{"android":"levelo://app?vid=1f13e93b-2408-4996-b33d-67040570c8fe","ios":"levelo://app?vid=1f13e93b-2408-4996-b33d-67040570c8fe"},"vehicle_type_id":"4","last_reported":1720501700,"current_range_meters":6000,"station_id":"ce4bhqp2rcd13ifvqhog","pricing_plan_id":"cebpf4jnsgd1na2vs0mg"},{"bike_id":"9c58efd6-fc67-4532-adf0-b9e80eeea387","system_id":"levelo_inurba_marseille","lat":43.323668,"lon":5.388827,"is_reserved":false,"is_disabled":false,"rental_uris":{"android":"levelo://app?vid=9c58efd6-fc67-4532-adf0-b9e80eeea387","ios":"levelo://app?vid=9c58efd6-fc67-4532-adf0-b9e80eeea387"},"vehicle_type_id":"4","last_reported":1720501700,"current_range_meters":20400,"station_id":"ce4bhqp2rcd13ifvqhog","pricing_plan_id":"cebpf4jnsgd1na2vs0mg"},{"bike_id":"b7e5f2eb-eeb5-4f6f-a1a6-822b8a0ce761","system_id":"levelo_inurba_marseille","lat":43.305994,"lon":5.393687,"is_reserved":false,"is_disabled":false,"rental_uris":{"android":"levelo://app?vid=b7e5f2eb-eeb5-4f6f-a1a6-822b8a0ce761","ios":"levelo://app?vid=b7e5f2eb-eeb5-4f6f-a1a6-822b8a0ce761"},"vehicle_type_id":"4","last_reported":1720501700,"current_range_meters":29200,"station_id":"ce4bh0p2rcd13ifvqd80","pricing_plan_id":"cebpf4jnsgd1na2vs0mg"},{"bike_id":"22e89614-af9f-46d5-a9b1-93299dbb4c39","system_id":"levelo_inurba_marseille","lat":43.305994,"lon":5.393687,"is_reserved":false,"is_disabled":false,"rental_uris":{"android":"levelo://app?vid=22e89614-af9f-46d5-a9b1-93299dbb4c39","ios":"levelo://app?vid=22e89614-af9f-46d5-a9b1-93299dbb4c39"},"vehicle_type_id":"4","last_reported":1720501700,"current_range_meters":30400,"station_id":"ce4bh0p2rcd13ifvqd80","pricing_plan_id":"cebpf4jnsgd1na2vs0mg"},{"bike_id":"968b3fdb-ac1e-4dca-a8f0-90e4e96556f4","system_id":"levelo_inurba_marseille","lat":43.305994,"lon":5.393687,"is_reserved":false,"is_disabled":false,"rental_uris":{"android":"levelo://app?vid=968b3fdb-ac1e-4dca-a8f0-90e4e96556f4","ios":"levelo://app?vid=968b3fdb-ac1e-4dca-a8f0-90e4e96556f4"},"vehicle_type_id":"4","last_reported":1720501700,"current_range_meters":31200,"station_id":"ce4bh0p2rcd13ifvqd80","pricing_plan_id":"cebpf4jnsgd1na2vs0mg"},{"bike_id":"eb46784e-2172-46ae-b4f9-0e9dab96e440","system_id":"levelo_inurba_marseille","lat":43.305994,"lon":5.393687,"is_reserved":false,"is_disabled":false,"rental_uris":{"android":"levelo://app?vid=eb46784e-2172-46ae-b4f9-0e9dab96e440","ios":"levelo://app?vid=eb46784e-2172-46ae-b4f9-0e9dab96e440"},"vehicle_type_id":"4","last_reported":1720501700,"current_range_meters":30800,"station_id":"ce4bh0p2rcd13ifvqd80","pricing_plan_id":"cebpf4jnsgd1na2vs0mg"},{"bike_id":"c89e973d-e048-42b0-81d5-7e87a75af480","system_id":"levelo_inurba_marseille","lat":43.305994,"lon":5.393687,"is_reserved":false,"is_disabled":false,"rental_uris":{"android":"levelo://app?vid=c89e973d-e048-42b0-81d5-7e87a75af480","ios":"levelo://app?vid=c89e973d-e048-42b0-81d5-7e87a75af480"},"vehicle_type_id":"4","last_reported":1720501700,"current_range_meters":28800,"station_id":"ce4bh0p2rcd13ifvqd80","pricing_plan_id":"cebpf4jnsgd1na2vs0mg"},{"bike_id":"d2ccc377-a87f-4804-aeb5-5c26b6f4be65","system_id":"levelo_inurba_marseille","lat":43.303002,"lon":5.392142,"is_reserved":false,"is_disabled":false,"rental_uris":{"android":"levelo://app?vid=d2ccc377-a87f-4804-aeb5-5c26b6f4be65","ios":"levelo://app?vid=d2ccc377-a87f-4804-aeb5-5c26b6f4be65"},"vehicle_type_id":"4","last_reported":1720501700,"current_range_meters":14000,"station_id":"ce4bgkh2rcd13ifvqbk0","pricing_plan_id":"cebpf4jnsgd1na2vs0mg"},{"bike_id":"d1684d79-e865-49fe-bd88-5d526e61f05d","system_id":"levelo_inurba_marseille","lat":43.302992,"lon":5.392136,"is_reserved":false,"is_disabled":false,"rental_uris":{"android":"levelo://app?vid=d1684d79-e865-49fe-bd88-5d526e61f05d","ios":"levelo://app?vid=d1684d79-e865-49fe-bd88-5d526e61f05d"},"vehicle_type_id":"4","last_reported":1720501700,"current_range_meters":16000,"station_id":"ce4bgkh2rcd13ifvqbk0","pricing_plan_id":"cebpf4jnsgd1na2vs0mg"},{"bike_id":"1ec7c627-0007-463f-ba88-7939a7f3231b","system_id":"levelo_inurba_marseille","lat":43.2936,"lon":5.37835,"is_reserved":false,"is_disabled":false,"rental_uris":{"android":"levelo://app?vid=1ec7c627-0007-463f-ba88-7939a7f3231b","ios":"levelo://app?vid=1ec7c627-0007-463f-ba88-7939a7f3231b"},"vehicle_type_id":"4","last_reported":1720501700,"current_range_meters":27600,"station_id":"ce4bgjh2rcd13ifvqbf0","pricing_plan_id":"cebpf4jnsgd1na2vs0mg"},{"bike_id":"9d5dd6ee-8bb9-41f3-976b-41a68ec6a3fc","system_id":"levelo_inurba_marseille","lat":43.30085,"lon":5.390856,"is_reserved":false,"is_disabled":false,"rental_uris":{"android":"levelo://app?vid=9d5dd6ee-8bb9-41f3-976b-41a68ec6a3fc","ios":"levelo://app?vid=9d5dd6ee-8bb9-41f3-976b-41a68ec6a3fc"},"vehicle_type_id":"4","last_reported":1720501700,"current_range_meters":28000,"station_id":"ce4bh192rcd13ifvqdb0","pricing_plan_id":"cebpf4jnsgd1na2vs0mg"},{"bike_id":"18758d2e-8ca2-4cf5-9ec9-8350c2685fb2","system_id":"levelo_inurba_marseille","lat":43.292311,"lon":5.360731,"is_reserved":false,"is_disabled":false,"rental_uris":{"android":"levelo://app?vid=18758d2e-8ca2-4cf5-9ec9-8350c2685fb2","ios":"levelo://app?vid=18758d2e-8ca2-4cf5-9ec9-8350c2685fb2"},"vehicle_type_id":"4","last_reported":1720501700,"current_range_meters":19600,"station_id":"ce4bhbh2rcd13ifvqeqg","pricing_plan_id":"cebpf4jnsgd1na2vs0mg"},{"bike_id":"04be0c99-0d9b-4c55-9157-3442665ad1c2","system_id":"levelo_inurba_marseille","lat":43.29216,"lon":5.36059,"is_reserved":false,"is_disabled":false,"rental_uris":{"android":"levelo://app?vid=04be0c99-0d9b-4c55-9157-3442665ad1c2","ios":"levelo://app?vid=04be0c99-0d9b-4c55-9157-3442665ad1c2"},"vehicle_type_id":"4","last_reported":1720501700,"current_range_meters":30800,"station_id":"ce4bhbh2rcd13ifvqeqg","pricing_plan_id":"cebpf4jnsgd1na2vs0mg"},{"bike_id":"1be7eeff-356b-4acd-af80-a7a4c3d15506","system_id":"levelo_inurba_marseille","lat":43.291671,"lon":5.371575,"is_reserved":false,"is_disabled":false,"rental_uris":{"android":"levelo://app?vid=1be7eeff-356b-4acd-af80-a7a4c3d15506","ios":"levelo://app?vid=1be7eeff-356b-4acd-af80-a7a4c3d15506"},"vehicle_type_id":"4","last_reported":1720501700,"current_range_meters":29600,"station_id":"ce4bha92rcd13ifvqeh0","pricing_plan_id":"cebpf4jnsgd1na2vs0mg"},{"bike_id":"4d2f0ab2-a50f-4ea9-956d-44e390219da5","system_id":"levelo_inurba_marseille","lat":43.291994,"lon":5.357886,"is_reserved":false,"is_disabled":false,"rental_uris":{"android":"levelo://app?vid=4d2f0ab2-a50f-4ea9-956d-44e390219da5","ios":"levelo://app?vid=4d2f0ab2-a50f-4ea9-956d-44e390219da5"},"vehicle_type_id":"4","last_reported":1720501700,"current_range_meters":30400,"station_id":"ce4bhb12rcd13ifvqel0","pricing_plan_id":"cebpf4jnsgd1na2vs0mg"},{"bike_id":"e2bc6318-d4fd-4f5a-bfeb-137d459dd5c2","system_id":"levelo_inurba_marseille","lat":43.309047,"lon":5.396551,"is_reserved":false,"is_disabled":false,"rental_uris":{"android":"levelo://app?vid=e2bc6318-d4fd-4f5a-bfeb-137d459dd5c2","ios":"levelo://app?vid=e2bc6318-d4fd-4f5a-bfeb-137d459dd5c2"},"vehicle_type_id":"4","last_reported":1720501700,"current_range_meters":10000,"station_id":"ce4bh012rcd13ifvqcv0","pricing_plan_id":"cebpf4jnsgd1na2vs0mg"},{"bike_id":"1c5bda11-b4f1-4062-b90c-2c88c6ed597f","system_id":"levelo_inurba_marseille","lat":43.308821,"lon":5.396406,"is_reserved":false,"is_disabled":false,"rental_uris":{"android":"levelo://app?vid=1c5bda11-b4f1-4062-b90c-2c88c6ed597f","ios":"levelo://app?vid=1c5bda11-b4f1-4062-b90c-2c88c6ed597f"},"vehicle_type_id":"4","last_reported":1720501700,"current_range_meters":29200,"station_id":"ce4bh012rcd13ifvqcv0","pricing_plan_id":"cebpf4jnsgd1na2vs0mg"},{"bike_id":"42c99718-713b-4dac-8404-da57ab357cf6","system_id":"levelo_inurba_marseille","lat":43.308821,"lon":5.396416,"is_reserved":false,"is_disabled":false,"rental_uris":{"android":"levelo://app?vid=42c99718-713b-4dac-8404-da57ab357cf6","ios":"levelo://app?vid=42c99718-713b-4dac-8404-da57ab357cf6"},"vehicle_type_id":"4","last_reported":1720501700,"current_range_meters":30000,"station_id":"ce4bh012rcd13ifvqcv0","pricing_plan_id":"cebpf4jnsgd1na2vs0mg"},