{"last_updated":1752783118,"ttl":60,"version":"2.2","data":{"bikes":[{"bike_id":"53b742a7-31ae-4272-9bba-7740339e2a2f","system_id":"levelo_inurba_marseille","lat":43.33747,"lon":5.37463,"is_reserved":false,"is_disabled":false,"rental_uris":{"android":"levelo://app?vid=53b742a7-31ae-4272-9bba-7740339e2a2f","ios":"levelo://app?vid=53b742a7-31ae-4272-9bba-7740339e2a2f"},"vehicle_type_id":"1","last_reported":1752783118,"current_range_meters":22800,"station_id":"","pricing_plan_id":"cebpf4jnsgd1na2vs0mg"},{"bike_id":"d98ef30e-38a0-41ef-a00a-304afa979a1e","system_id":"levelo_inurba_marseille","lat":43.29902,"lon":5.43677,"is_reserved":false,"is_disabled":false,"rental_uris":{"android":"levelo://app?vid=d98ef30e-38a0-41ef-a00a-304afa979a1e","ios":"levelo://app?vid=d98ef30e-38a0-41ef-a00a-304afa979a1e"},"vehicle_type_id":"4","last_reported":1752783118,"current_range_meters":2800,"station_id":"ce4bhpp2rcd13ifvqhfg","pricing_plan_id":"cebpf4jnsgd1na2vs0mg"},{"bike_id":"ff941d11-0560-4315-965e-4cacee3415c0","system_id":"levelo_inurba_marseille","lat":43.30877,"lon":5.39649,"is_reserved":false,"is_disabled":false,"rental_uris":{"android":"levelo://app?vid=ff941d11-0560-4315-965e-4cacee3415c0","ios":"levelo://app?vid=ff941d11-0560-4315-965e-4cacee3415c0"},"vehicle_type_id":"4","last_reported":1752783118,"current_range_meters":2800,"station_id":"ce4bh012rcd13ifvqcv0","pricing_plan_id":"cebpf4jnsgd1na2vs0mg"},{"bike_id":"d6729e24-00a8-4947-a5d0-63894f875ffd","system_id":"levelo_inurba_marseille","lat":43.29531,"lon":5.38543,"is_reserved":false,"is_disabled":false,"rental_uris":{"android":"levelo://app?vid=d6729e24-00a8-4947-a5d0-63894f875ffd","ios":"levelo://app?vid=d6729e24-00a8-4947-a5d0-63894f875ffd"},"vehicle_type_id":"4","last_reported":1752783118,"current_range_meters":2800,"station_id":"ce4bgih2rcd13ifvqba0","pricing_plan_id":"cebpf4jnsgd1na2vs0mg"},{"bike_id":"d555cc46-bc21-42fb-90d1-4983139444cc","system_id":"levelo_inurba_marseille","lat":43.292285,"lon":5.360515,"is_reserved":false,"is_disabled":true,"rental_uris":{"android":"levelo://app?vid=d555cc46-bc21-42fb-90d1-4983139444cc","ios":"levelo://app?vid=d555cc46-bc21-42fb-90d1-4983139444cc"},"vehicle_type_id":"4","last_reported":1752783118,"current_range_meters":2800,"station_id":"","pricing_plan_id":"cebpf4jnsgd1na2vs0mg"},{"bike_id":"a6338661-9d24-4569-9318-fc70bd973dcb","system_id":"levelo_inurba_marseille","lat":43.29704,"lon":5.36613,"is_reserved":false,"is_disabled":false,"rental_uris":{"android":"levelo://app?vid=a6338661-9d24-4569-9318-fc70bd973dcb","ios":"levelo://app?vid=a6338661-9d24-4569-9318-fc70bd973dcb"},"vehicle_type_id":"4","last_reported":1752783118,"current_range_meters":3200,"station_id":"ce4bgn12rcd13ifvqbt0","pricing_plan_id":"cebpf4jnsgd1na2vs0mg"},{"bike_id":"f7785000-c0e2-43bf-9774-2188bcefc59e","system_id":"levelo_inurba_marseille","lat":43.3079,"lon":5.376444,"is_reserved":false,"is_disabled":false,"rental_uris":{"android":"levelo://app?vid=f7785000-c0e2-43bf-9774-2188bcefc59e","ios":"levelo://app?vid=f7785000-c0e2-43bf-9774-2188bcefc59e"},"vehicle_type_id":"4","last_reported":1752783118,"current_range_meters":3200,"station_id":"ce4bgv92rcd13ifvqcq0","pricing_plan_id":"cebpf4jnsgd1na2vs0mg"},{"bike_id":"c8233f46-5358-4c64-9cb1-d87211826640","system_id":"levelo_inurba_marseille","lat":43.27973,"lon":5.38675,"is_reserved":false,"is_disabled":false,"rental_uris":{"android":"levelo://app?vid=c8233f46-5358-4c64-9cb1-d87211826640","ios":"levelo://app?vid=c8233f46-5358-4c64-9cb1-d87211826640"},"vehicle_type_id":"4","last_reported":1752783118,"current_range_meters":3200,"station_id":"","pricing_plan_id":"cebpf4jnsgd1na2vs0mg"},{"bike_id":"d9b1d4a3-08ff-4c03-885a-8d874d31b59d","system_id":"levelo_inurba_marseille","lat":43.26198,"lon":5.37523,"is_reserved":false,"is_disabled":false,"rental_uris":{"android":"levelo://app?vid=d9b1d4a3-08ff-4c03-885a-8d874d31b59d","ios":"levelo://app?vid=d9b1d4a3-08ff-4c03-885a-8d874d31b59d"},"vehicle_type_id":"4","last_reported":1752783118,"current_range_meters":3200,"station_id":"ce4bhgp2rcd13ifvqfc0","pricing_plan_id":"cebpf4jnsgd1na2vs0mg"},{"bike_id":"080b0f22-14dd-4044-a18f-ee7f74366cea","system_id":"levelo_inurba_marseille","lat":43.31977,"lon":5.38133,"is_reserved":false,"is_disabled":true,"rental_uris":{"android":"levelo://app?vid=080b0f22-14dd-4044-a18f-ee7f74366cea","ios":"levelo://app?vid=080b0f22-14dd-4044-a18f-ee7f74366cea"},"vehicle_type_id":"4","last_reported":1752783118,"current_range_meters":3200,"station_id":"ce4bhr12rcd13ifvqhpg","pricing_plan_id":"cebpf4jnsgd1na2vs0mg"},{"bike_id":"a5396428-8a5d-46f5-a238-60b3b836469b","system_id":"levelo_inurba_marseille","lat":43.295288,"lon":5.3854,"is_reserved":false,"is_disabled":false,"rental_uris":{"android":"levelo://app?vid=a5396428-8a5d-46f5-a238-60b3b836469b","ios":"levelo://app?vid=a5396428-8a5d-46f5-a238-60b3b836469b"},"vehicle_type_id":"4","last_reported":1752783118,"current_range_meters":3600,"station_id":"ce4bgih2rcd13ifvqba0","pricing_plan_id":"cebpf4jnsgd1na2vs0mg"},{"bike_id":"e743fc8e-82be-43e7-934d-d34864b47047","system_id":"levelo_inurba_marseille","lat":43.29811,"lon":5.38099,"is_reserved":false,"is_disabled":false,"rental_uris":{"android":"levelo://app?vid=e743fc8e-82be-43e7-934d-d34864b47047","ios":"levelo://app?vid=e743fc8e-82be-43e7-934d-d34864b47047"},"vehicle_type_id":"4","last_reported":1752783118,"current_range_meters":3600,"station_id":"ce4bgip2rcd13ifvqbb0","pricing_plan_id":"cebpf4jnsgd1na2vs0mg"},{"bike_id":"d29fe45d-c7ad-4da2-986a-09da21c833f1","system_id":"levelo_inurba_marseille","lat":43.29443,"lon":5.39743,"is_reserved":false,"is_disabled":false,"rental_uris":{"android":"levelo://app?vid=d29fe45d-c7ad-4da2-986a-09da21c833f1","ios":"levelo://app?vid=d29fe45d-c7ad-4da2-986a-09da21c833f1"},"vehicle_type_id":"4","last_reported":1752783118,"current_range_meters":3600,"station_id":"ce4bh3h2rcd13ifvqdo0","pricing_plan_id":"cebpf4jnsgd1na2vs0mg"},{"bike_id":"e1153bb1-ce6a-4b90-90b9-6a9ae878b864","system_id":"levelo_inurba_marseille","lat":43.27041,"lon":5.40278,"is_reserved":false,"is_disabled":false,"rental_uris":{"android":"levelo://app?vid=e1153bb1-ce6a-4b90-90b9-6a9ae878b864","ios":"levelo://app?vid=e1153bb1-ce6a-4b90-90b9-6a9ae878b864"},"vehicle_type_id":"4","last_reported":1752783118,"current_range_meters":4000,"station_id":"ce4bhk92rcd13ifvqgc0","pricing_plan_id":"cebpf4jnsgd1na2vs0mg"},{"bike_id":"7609d108-8524-4c69-9f42-33d4f22b6ea6","system_id":"levelo_inurba_marseille","lat":43.28714,"lon":5.37935,"is_reserved":false,"is_disabled":false,"rental_uris":{"android":"levelo://app?vid=7609d108-8524-4c69-9f42-33d4f22b6ea6","ios":"levelo://app?vid=7609d108-8524-4c69-9f42-33d4f22b6ea6"},"vehicle_type_id":"4","last_reported":1752783118,"current_range_meters":4000,"station_id":"ce4bh9p2rcd13ifvqec0","pricing_plan_id":"cebpf4jnsgd1na2vs0mg"},{"bike_id":"2b334187-1e96-472f-8530-309e9c96656c","system_id":"levelo_inurba_marseille","lat":43.25089,"lon":5.39527,"is_reserved":false,"is_disabled":false,"rental_uris":{"android":"levelo://app?vid=2b334187-1e96-472f-8530-309e9c96656c","ios":"levelo://app?vid=2b334187-1e96-472f-8530-309e9c96656c"},"vehicle_type_id":"4","last_reported":1752783118,"current_range_meters":4000,"station_id":"ce4bhm12rcd13ifvqgkg","pricing_plan_id":"cebpf4jnsgd1na2vs0mg"},{"bike_id":"d5749ad4-d731-4f8a-8a0e-ac6827b46438","system_id":"levelo_inurba_marseille","lat":43.27968,"lon":5.38749,"is_reserved":false,"is_disabled":false,"rental_uris":{"android":"levelo://app?vid=d5749ad4-d731-4f8a-8a0e-ac6827b46438","ios":"levelo://app?vid=d5749ad4-d731-4f8a-8a0e-ac6827b46438"},"vehicle_type_id":"4","last_reported":1752783118,"current_range_meters":4000,"station_id":"ce4bhg12rcd13ifvqf80","pricing_plan_id":"cebpf4jnsgd1na2vs0mg"},{"bike_id":"6732f009-8ed4-4722-aff7-57b6d07178a8","system_id":"levelo_inurba_marseille","lat":43.29547,"lon":5.39397,"is_reserved":false,"is_disabled":false,"rental_uris":{"android":"levelo://app?vid=6732f009-8ed4-4722-aff7-57b6d07178a8","ios":"levelo://app?vid=6732f009-8ed4-4722-aff7-57b6d07178a8"},"vehicle_type_id":"4","last_reported":1752783118,"current_range_meters":4000,"station_id":"ce4bh292rcd13ifvqdf0","pricing_plan_id":"cebpf4jnsgd1na2vs0mg"},{"bike_id":"2f1580d1-6f93-4b0e-9f38-8e06c0913483","system_id":"levelo_inurba_marseille","lat":43.30931,"lon":5.40141,"is_reserved":false,"is_disabled":false,"rental_uris":{"android":"levelo://app?vid=2f1580d1-6f93-4b0e-9f38-8e06c0913483","ios":"levelo://app?vid=2f1580d1-6f93-4b0e-9f38-8e06c0913483"},"vehicle_type_id":"4","last_reported":1752783118,"current_range_meters":4800,"station_id":"ce4bgvp2rcd13ifvqct0","pricing_plan_id":"cebpf4jnsgd1na2vs0mg"},{"bike_id":"cf875f67-a886-46fc-b2b8-7d996ce4f387","system_id":"levelo_inurba_marseille","lat":43.31169,"lon":5.38714,"is_reserved":false,"is_disabled":false,"rental_uris":{"android":"levelo://app?vid=cf875f67-a886-46fc-b2b8-7d996ce4f387","ios":"levelo://app?vid=cf875f67-a886-46fc-b2b8-7d996ce4f387"},"vehicle_type_id":"4","last_reported":1752783118,"current_range_meters":4800,"station_id":"ce4bgv12rcd13ifvqcp0","pricing_plan_id":"cebpf4jnsgd1na2vs0mg"},{"bike_id":"66b7d11c-5db3-4a7d-9d7e-797798824550","system_id":"levelo_inurba_marseille","lat":43.308084,"lon":5.401,"is_reserved":false,"is_disabled":false,"rental_uris":{"android":"levelo://app?vid=66b7d11c-5db3-4a7d-9d7e-797798824550","ios":"levelo://app?vid=66b7d11c-5db3-4a7d-9d7e-797798824550"},"vehicle_type_id":"4","last_reported":1752783118,"current_range_meters":4800,"station_id":"ce4bgvp2rcd13ifvqct0","pricing_plan_id":"cebpf4jnsgd1na2vs0mg"},{"bike_id":"81b1a08a-4785-494d-9a4c-60aeb4ef4b8a","system_id":"levelo_inurba_marseille","lat":43.306377,"lon":5.400943,"is_reserved":false,"is_disabled":false,"rental_uris":{"android":"levelo://app?vid=81b1a08a-4785-494d-9a4c-60aeb4ef4b8a","ios":"levelo://app?vid=81b1a08a-4785-494d-9a4c-60aeb4ef4b8a"},"vehicle_type_id":"4","last_reported":1752783118,"current_range_meters":5600,"station_id":"ce4bh112rcd13ifvqda0","pricing_plan_id":"cebpf4jnsgd1na2vs0mg"},{"bike_id":"9eb11d44-370d-464b-b78f-5461a3b04cc3","system_id":"levelo_inurba_marseille","lat":43.31078,"lon":5.38358,"is_reserved":false,"is_disabled":true,"rental_uris":{"android":"levelo://app?vid=9eb11d44-370d-464b-b78f-5461a3b04cc3","ios":"levelo://app?vid=9eb11d44-370d-464b-b78f-5461a3b04cc3"},"vehicle_type_id":"4","last_reported":1752783118,"current_range_meters":6000,"station_id":"ce4bgv92rcd13ifvqcr0","pricing_plan_id":"cebpf4jnsgd1na2vs0mg"},{"bike_id":"0f2b38d7-092e-4ce6-ab6c-5e5b46007c2d","system_id":"levelo_inurba_marseille","lat":43.2788,"lon":5.3814,"is_reserved":false,"is_disabled":false,"rental_uris":{"android":"levelo://app?vid=0f2b38d7-092e-4ce6-ab6c-5e5b46007c2d","ios":"levelo://app?vid=0f2b38d7-092e-4ce6-ab6c-5e5b46007c2d"},"vehicle_type_id":"4","last_reported":1752783118,"current_range_meters":6000,"station_id":"ce4bhf92rcd13ifvqf50","pricing_plan_id":"cebpf4jnsgd1na2vs0mg"},{"bike_id":"8d411925-e136-4fde-aeca-febdb9827e68","system_id":"levelo_inurba_marseille","lat":43.29847,"lon":5.36286,"is_reserved":false,"is_disabled":false,"rental_uris":{"android":"levelo://app?vid=8d411925-e136-4fde-aeca-febdb9827e68","ios":"levelo://app?vid=8d411925-e136-4fde-aeca-febdb9827e68"},"vehicle_type_id":"4","last_reported":1752783118,"current_range_meters":6400,"station_id":"ce4bgpp2rcd13ifvqc3g","pricing_plan_id":"cebpf4jnsgd1na2vs0mg"},{"bike_id":"9cf8c661-3538-4f8e-bcc3-7fcb9457f9bb","system_id":"levelo_inurba_marseille","lat":43.29597,"lon":5.38088,"is_reserved":false,"is_disabled":false,"rental_uris":{"android":"levelo://app?vid=9cf8c661-3538-4f8e-bcc3-7fcb9457f9bb","ios":"levelo://app?vid=9cf8c661-3538-4f8e-bcc3-7fcb9457f9bb"},"vehicle_type_id":"4","last_reported":1752783118,"current_range_meters":6400,"station_id":"ce4bgl12rcd13ifvqbo0","pricing_plan_id":"cebpf4jnsgd1na2vs0mg"},{"bike_id":"8f14405a-fea8-4b11-887d-54f354875c28","system_id":"levelo_inurba_marseille","lat":43.29672,"lon":5.38578,"is_reserved":false,"is_disabled":false,"rental_uris":{"android":"levelo://app?vid=8f14405a-fea8-4b11-887d-54f354875c28","ios":"levelo://app?vid=8f14405a-fea8-4b11-887d-54f354875c28"},"vehicle_type_id":"4","last_reported":1752783118,"current_range_meters":6400,"station_id":"","pricing_plan_id":"cebpf4jnsgd1na2vs0mg"},{"bike_id":"740e0913-5d93-4339-8ea1-98d04bdbdf68","system_id":"levelo_inurba_marseille","lat":43.267886,"lon":5.394145,"is_reserved":false,"is_disabled":false,"rental_uris":{"android":"levelo://app?vid=740e0913-5d93-4339-8ea1-98d04bdbdf68","ios":"levelo://app?vid=740e0913-5d93-4339-8ea1-98d04bdbdf68"},"vehicle_type_id":"4","last_reported":1752783118,"current_range_meters":5600,"station_id":"ce4bhh12rcd13ifvqfg0","pricing_plan_id":"cebpf4jnsgd1na2vs0mg"},{"bike_id":"1987db29-d495-4441-ab6f-b7703efeee90","system_id":"levelo_inurba_marseille","lat":43.28623,"lon":5.35133,"is_reserved":false,"is_disabled":false,"rental_uris":{"android":"levelo://app?vid=1987db29-d495-4441-ab6f-b7703efeee90","ios":"levelo://app?vid=1987db29-d495-4441-ab6f-b7703efeee90"},"vehicle_type_id":"4","last_reported":1752783118,"current_range_meters":6400,"station_id":"ce4bhch2rcd13ifvqeug","pricing_plan_id":"cebpf4jnsgd1na2vs0mg"},{"bike_id":"79d25aa8-08e3-4d21-bfd5-71132203585d","system_id":"levelo_inurba_marseille","lat":43.29304,"lon":5.37461,"is_reserved":false,"is_disabled":false,"rental_uris":{"android":"levelo://app?vid=79d25aa8-08e3-4d21-bfd5-71132203585d","ios":"levelo://app?vid=79d25aa8-08e3-4d21-bfd5-71132203585d"},"vehicle_type_id":"4","last_reported":1752783118,"current_range_meters":6400,"station_id":"ce4bgi12rcd13ifvqb70","pricing_plan_id":"cebpf4jnsgd1na2vs0mg"},{"bike_id":"87a687ca-1171-41b7-a877-d6a630108b37","system_id":"levelo_inurba_marseille","lat":43.28498,"lon":5.38566,"is_reserved":false,"is_disabled":false,"rental_uris":{"android":"levelo://app?vid=87a687ca-1171-41b7-a877-d6a630108b37","ios":"levelo://app?vid=87a687ca-1171-41b7-a877-d6a630108b37"},"vehicle_type_id":"4","last_reported":1752783118,"current_range_meters":6800,"station_id":"ce4bh8p2rcd13ifvqeb0","pricing_plan_id":"cebpf4jnsgd1na2vs0mg"},{"bike_id":"589648fd-3b9c-45b6-8ec9-c4b223a0245e","system_id":"levelo_inurba_marseille","lat":43.30463,"lon":5.3791,"is_reserved":false,"is_disabled":false,"rental_uris":{"android":"levelo://app?vid=589648fd-3b9c-45b6-8ec9-c4b223a0245e","ios":"levelo://app?vid=589648fd-3b9c-45b6-8ec9-c4b223a0245e"},"vehicle_type_id":"4","last_reported":1752783118,"current_range_meters":6400,"station_id":"ce4bgup2rcd13ifvqcn0","pricing_plan_id":"cebpf4jnsgd1na2vs0mg"},{"bike_id":"ec9012fc-4d71-4a6c-a841-cec16328297b","system_id":"levelo_inurba_marseille","lat":43.29279,"lon":5.40114,"is_reserved":false,"is_disabled":false,"rental_uris":{"android":"levelo://app?vid=ec9012fc-4d71-4a6c-a841-cec16328297b","ios":"levelo://app?vid=ec9012fc-4d71-4a6c-a841-cec16328297b"},"vehicle_type_id":"4","last_reported":1752783118,"current_range_meters":6800,"station_id":"ce4bh312rcd13ifvqdk0","pricing_plan_id":"cebpf4jnsgd1na2vs0mg"},{"bike_id":"a47dabf9-ec51-462f-aaba-52c6fe2b29f3","system_id":"levelo_inurba_marseille","lat":43.26551,"lon":5.37287,"is_reserved":false,"is_disabled":false,"rental_uris":{"android":"levelo://app?vid=a47dabf9-ec51-462f-aaba-52c6fe2b29f3","ios":"levelo://app?vid=a47dabf9-ec51-462f-aaba-52c6fe2b29f3"},"vehicle_type_id":"4","last_reported":1752783118,"current_range_meters":6800,"station_id":"ce4bhg12rcd13ifvqf70","pricing_plan_id":"cebpf4jnsgd1na2vs0mg"},{"bike_id":"675a4573-a1f2-4f9d-b1bd-48fb0f00616c","system_id":"levelo_inurba_marseille","lat":43.28623,"lon":5.35103,"is_reserved":false,"is_disabled":false,"rental_uris":{"android":"levelo://app?vid=675a4573-a1f2-4f9d-b1bd-48fb0f00616c","ios":"levelo://app?vid=675a4573-a1f2-4f9d-b1bd-48fb0f00616c"},"vehicle_type_id":"4","last_reported":1752783118,"current_range_meters":6800,"station_id":"ce4bhch2rcd13ifvqeug","pricing_plan_id":"cebpf4jnsgd1na2vs0mg"},{"bike_id":"3f0e74c9-9787-419a-bab2-6063492cb597","system_id":"levelo_inurba_marseille","lat":43.24775,"lon":5.37482,"is_reserved":false,"is_disabled":false,"rental_uris":{"android":"levelo://app?vid=3f0e74c9-9787-419a-bab2-6063492cb597","ios":"levelo://app?vid=3f0e74c9-9787-419a-bab2-6063492cb597"},"vehicle_type_id":"4","last_reported":1752783118,"current_range_meters":7200,"station_id":"ce4bhgh2rcd13ifvqfb0","pricing_plan_id":"cebpf4jnsgd1na2vs0mg"},{"bike_id":"334afd1e-1581-4689-85ab-8c2ac070cd1c","system_id":"levelo_inurba_marseille","lat":43.26786,"lon":5.39461,"is_reserved":false,"is_disabled":true,"rental_uris":{"android":"levelo://app?vid=334afd1e-1581-4689-85ab-8c2ac070cd1c","ios":"levelo://app?vid=334afd1e-1581-4689-85ab-8c2ac070cd1c"},"vehicle_type_id":"4","last_reported":1752783118,"current_range_meters":7200,"station_id":"ce4bhh12rcd13ifvqfg0","pricing_plan_id":"cebpf4jnsgd1na2vs0mg"},{"bike_id":"9dc2dfac-eee6-491f-b53b-354b6af93941","system_id":"levelo_inurba_marseille","lat":43.28566,"lon":5.39494,"is_reserved":false,"is_disabled":false,"rental_uris":{"android":"levelo://app?vid=9dc2dfac-eee6-491f-b53b-354b6af93941","ios":"levelo://app?vid=9dc2dfac-eee6-491f-b53b-354b6af93941"},"vehicle_type_id":"4","last_reported":1752783118,"current_range_meters":8000,"station_id":"ce4bh292rcd13ifvqdg0","pricing_plan_id":"cebpf4jnsgd1na2vs0mg"},{"bike_id":"c63c8c92-a462-48f0-9941-3e333f462ebc","system_id":"levelo_inurba_marseille","lat":43.26571,"lon":5.39022,"is_reserved":false,"is_disabled":false,"rental_uris":{"android":"levelo://app?vid=c63c8c92-a462-48f0-9941-3e333f462ebc","ios":"levelo://app?vid=c63c8c92-a462-48f0-9941-3e333f462ebc"},"vehicle_type_id":"4","last_reported":1752783118,"current_range_meters":8000,"station_id":"ce4bhe12rcd13ifvqf30","pricing_plan_id":"cebpf4jnsgd1na2vs0mg"},{"bike_id":"b38ef71f-6db5-458c-aa48-e3acf99f141d","system_id":"levelo_inurba_marseille","lat":43.2894,"lon":5.36641,"is_reserved":false,"is_disabled":false,"rental_uris":{"android":"levelo://app?vid=b38ef71f-6db5-458c-aa48-e3acf99f141d","ios":"levelo://app?vid=b38ef71f-6db5-458c-aa48-e3acf99f141d"},"vehicle_type_id":"4","last_reported":1752783118,"current_range_meters":8000,"station_id":"ce4bhap2rcd13ifvqek0","pricing_plan_id":"cebpf4jnsgd1na2vs0mg"},{"bike_id":"e482f93f-bb0c-4edf-a89f-7e382d8f3bc7","system_id":"levelo_inurba_marseille","lat":43.27488,"lon":5.42454,"is_reserved":false,"is_disabled":false,"rental_uris":{"android":"levelo://app?vid=e482f93f-bb0c-4edf-a89f-7e382d8f3bc7","ios":"levelo://app?vid=e482f93f-bb0c-4edf-a89f-7e382d8f3bc7"},"vehicle_type_id":"4","last_reported":1752783118,"current_range_meters":8000,"station_id":"ce4bhn92rcd13ifvqgrg","pricing_plan_id":"cebpf4jnsgd1na2vs0mg"},{"bike_id":"1d970645-20d1-4bb0-a0ab-6fbce665c466","system_id":"levelo_inurba_marseille","lat":43.24801,"lon":5.37465,"is_reserved":false,"is_disabled":false,"rental_uris":{"android":"levelo://app?vid=1d970645-20d1-4bb0-a0ab-6fbce665c466","ios":"levelo://app?vid=1d970645-20d1-4bb0-a0ab-6fbce665c466"},"vehicle_type_id":"4","last_reported":1752783118,"current_range_meters":8000,"station_id":"ce4bhgh2rcd13ifvqfb0","pricing_plan_id":"cebpf4jnsgd1na2vs0mg"},{"bike_id":"5da25551-c72b-44cb-8190-26e52cfc095b","system_id":"levelo_inurba_marseille","lat":43.30608,"lon":5.37228,"is_reserved":false,"is_disabled":false,"rental_uris":{"android":"levelo://app?vid=5da25551-c72b-44cb-8190-26e52cfc095b","ios":"levelo://app?vid=5da25551-c72b-44cb-8190-26e52cfc095b"},"vehicle_type_id":"4","last_reported":1752783118,"current_range_meters":8400,"station_id":"ce4bgqh2rcd13ifvqc4g","pricing_plan_id":"cebpf4jnsgd1na2vs0mg"},{"bike_id":"b4b2976f-4de6-4335-8c7d-4f0b889e9e36","system_id":"levelo_inurba_marseille","lat":43.30305,"lon":5.36907,"is_reserved":false,"is_disabled":false,"rental_uris":{"android":"levelo://app?vid=b4b2976f-4de6-4335-8c7d-4f0b889e9e36","ios":"levelo://app?vid=b4b2976f-4de6-4335-8c7d-4f0b889e9e36"},"vehicle_type_id":"4","last_reported":1752783118,"current_range_meters":8800,"station_id":"ce4bgqh2rcd13ifvqc5g","pricing_plan_id":"cebpf4jnsgd1na2vs0mg"},{"bike_id":"b4504445-891c-403d-8d32-c3a333606f50","system_id":"levelo_inurba_marseille","lat":43.29362,"lon":5.37846,"is_reserved":false,"is_disabled":false,"rental_uris":{"android":"levelo://app?vid=b4504445-891c-403d-8d32-c3a333606f50","ios":"levelo://app?vid=b4504445-891c-403d-8d32-c3a333606f50"},"vehicle_type_id":"4","last_reported":1752783118,"current_range_meters":8800,"station_id":"ce4bgjh2rcd13ifvqbf0","pricing_plan_id":"cebpf4jnsgd1na2vs0mg"},{"bike_id":"a8828ca8-fdac-48cd-8e10-9e410175fdf5","system_id":"levelo_inurba_marseille","lat":43.28413,"lon":5.37574,"is_reserved":false,"is_disabled":false,"rental_uris":{"android":"levelo://app?vid=a8828ca8-fdac-48cd-8e10-9e410175fdf5","ios":"levelo://app?vid=a8828ca8-fdac-48cd-8e10-9e410175fdf5"},"vehicle_type_id":"4","last_reported":1752783118,"current_range_meters":8800,"station_id":"","pricing_plan_id":"cebpf4jnsgd1na2vs0mg"},{"bike_id":"a4fd652b-34f8-4c68-a6e6-032a5cc5e418","system_id":"levelo_inurba_marseille","lat":43.312459,"lon":5.368534,"is_reserved":false,"is_disabled":true,"rental_uris":{"android":"levelo://app?vid=a4fd652b-34f8-4c68-a6e6-032a5cc5e418","ios":"levelo://app?vid=a4fd652b-34f8-4c68-a6e6-032a5cc5e418"},"vehicle_type_id":"4","last_reported":1752783118,"current_range_meters":8800,"station_id":"ce4bgl92rcd13ifvqbq0","pricing_plan_id":"cebpf4jnsgd1na2vs0mg"},{"bike_id":"fe4bb93d-7a4b-458b-839a-91f3adc42c61","system_id":"levelo_inurba_marseille","lat":43.29913,"lon":5.38156,"is_reserved":false,"is_disabled":false,"rental_uris":{"android":"levelo://app?vid=fe4bb93d-7a4b-458b-839a-91f3adc42c61","ios":"levelo://app?vid=fe4bb93d-7a4b-458b-839a-91f3adc42c61"},"vehicle_type_id":"4","last_reported":1752783118,"current_range_meters":8800,"station_id":"ce4bgj12rcd13ifvqbc0","pricing_plan_id":"cebpf4jnsgd1na2vs0mg"},{"bike_id":"43ab89d4-fd46-404d-b1b3-688fcf9babc7","system_id":"levelo_inurba_marseille","lat":43.25104,"lon":5.40339,"is_reserved":false,"is_disabled":false,"rental_uris":{"android":"levelo://app?vid=43ab89d4-fd46-404d-b1b3-688fcf9babc7","ios":"levelo://app?vid=43ab89d4-fd46-404d-b1b3-688fcf9babc7"},"vehicle_type_id":"4","last_reported":1752783118,"current_range_meters":9200,"station_id":"ce4bhlh2rcd13ifvqgig","pricing_plan_id":"cebpf4jnsgd1na2vs0mg"},{"bike_id":"65c4786d-dc12-49bd-a247-621e9dac67da","system_id":"levelo_inurba_marseille","lat":43.29262,"lon":5.38457,"is_reserved":false,"is_disabled":false,"rental_uris":{"android":"levelo://app?vid=65c4786d-dc12-49bd-a247-621e9dac67da","ios":"levelo://app?vid=65c4786d-dc12-49bd-a247-621e9dac67da"},"vehicle_type_id":"4","last_reported":1752783118,"current_range_meters":9200,"station_id":"ce4bh692rcd13ifvqea0","pricing_plan_id":"cebpf4jnsgd1na2vs0mg"},{"bike_id":"33fb36b8-11bf-415b-9f96-7b958eab6433","system_id":"levelo_inurba_marseille","lat":43.29914,"lon":5.37474,"is_reserved":false,"is_disabled":false,"rental_uris":{"android":"levelo://app?vid=33fb36b8-11bf-415b-9f96-7b958eab6433","ios":"levelo://app?vid=33fb36b8-11bf-415b-9f96-7b958eab6433"},"vehicle_type_id":"4","last_reported":1752783118,"current_range_meters":11600,"station_id":"ce4bgjh2rcd13ifvqbg0","pricing_plan_id":"cebpf4jnsgd1na2vs0mg"},{"bike_id":"f1a9dedb-774f-4a5e-bb42-f6dd5b67bfa3","system_id":"levelo_inurba_marseille","lat":43.2927,"lon":5.38444,"is_reserved":false,"is_disabled":false,"rental_uris":{"android":"levelo://app?vid=f1a9dedb-774f-4a5e-bb42-f6dd5b67bfa3","ios":"levelo://app?vid=f1a9dedb-774f-4a5e-bb42-f6dd5b67bfa3"},"vehicle_type_id":"4","last_reported":1752783118,"current_range_meters":9200,"station_id":"ce4bh692rcd13ifvqea0","pricing_plan_id":"cebpf4jnsgd1na2vs0mg"},{"bike_id":"20e4b9e2-cc57-4d18-9eee-11e3fafe66fd","system_id":"levelo_inurba_marseille","lat":43.26558,"lon":5.37264,"is_reserved":false,"is_disabled":false,"rental_uris":{"android":"levelo://app?vid=20e4b9e2-cc57-4d18-9eee-11e3fafe66fd","ios":"levelo://app?vid=20e4b9e2-cc57-4d18-9eee-11e3fafe66fd"},"vehicle_type_id":"4","last_reported":1752783118,"current_range_meters":9200,"station_id":"ce4bhg12rcd13ifvqf70","pricing_plan_id":"cebpf4jnsgd1na2vs0mg"},{"bike_id":"4863a66c-ac06-4ef1-9740-9459e16a3ade","system_id":"levelo_inurba_marseille","lat":43.27811,"lon":5.40711,"is_reserved":false,"is_disabled":false,"rental_uris":{"android":"levelo://app?vid=4863a66c-ac06-4ef1-9740-9459e16a3ade","ios":"levelo://app?vid=4863a66c-ac06-4ef1-9740-9459e16a3ade"},"vehicle_type_id":"4","last_reported":1752783118,"current_range_meters":9200,"station_id":"ce4bhnh2rcd13ifvqgtg","pricing_plan_id":"cebpf4jnsgd1na2vs0mg"},{"bike_id":"ec240f34-f07a-41a8-81f0-0f193530b53c","system_id":"levelo_inurba_marseille","lat":43.29431,"lon":5.39747,"is_reserved":false,"is_disabled":false,"rental_uris":{"android":"levelo://app?vid=ec240f34-f07a-41a8-81f0-0f193530b53c","ios":"levelo://app?vid=ec240f34-f07a-41a8-81f0-0f193530b53c"},"vehicle_type_id":"4","last_reported":1752783118,"current_range_meters":11200,"station_id":"ce4bh3h2rcd13ifvqdo0","pricing_plan_id":"cebpf4jnsgd1na2vs0mg"},{"bike_id":"d92f029d-bc02-40d2-8ff2-499eb46bbfce","system_id":"levelo_inurba_marseille","lat":43.24811,"lon":5.37466,"is_reserved":false,"is_disabled":false,"rental_uris":{"android":"levelo://app?vid=d92f029d-bc02-40d2-8ff2-499eb46bbfce","ios":"levelo://app?vid=d92f029d-bc02-40d2-8ff2-499eb46bbfce"},"vehicle_type_id":"4","last_reported":1752783118,"current_range_meters":9600,"station_id":"ce4bhgh2rcd13ifvqfb0","pricing_plan_id":"cebpf4jnsgd1na2vs0mg"},{"bike_id":"43ec0c47-82bb-4e89-bd64-363982687add","system_id":"levelo_inurba_marseille","lat":43.27921,"lon":5.3958,"is_reserved":false,"is_disabled":false,"rental_uris":{"android":"levelo://app?vid=43ec0c47-82bb-4e89-bd64-363982687add","ios":"levelo://app?vid=43ec0c47-82bb-4e89-bd64-363982687add"},"vehicle_type_id":"4","last_reported":1752783118,"current_range_meters":9600,"station_id":"ce4bhf92rcd13ifvqf40","pricing_plan_id":"cebpf4jnsgd1na2vs0mg"},{"bike_id":"4bc84343-d0df-44e9-b2a6-9bce2dc2257f","system_id":"levelo_inurba_marseille","lat":43.286226,"lon":5.351057,"is_reserved":false,"is_disabled":false,"rental_uris":{"android":"levelo://app?vid=4bc84343-d0df-44e9-b2a6-9bce2dc2257f","ios":"levelo://app?vid=4bc84343-d0df-44e9-b2a6-9bce2dc2257f"},"vehicle_type_id":"4","last_reported":1752783118,"current_range_meters":9600,"station_id":"ce4bhch2rcd13ifvqeug","pricing_plan_id":"cebpf4jnsgd1na2vs0mg"},{"bike_id":"073fae74-c1c8-445e-baf2-ee21faf95161","system_id":"levelo_inurba_marseille","lat":43.30593,"lon":5.39367,"is_reserved":false,"is_disabled":false,"rental_uris":{"android":"levelo://app?vid=073fae74-c1c8-445e-baf2-ee21faf95161","ios":"levelo://app?vid=073fae74-c1c8-445e-baf2-ee21faf95161"},"vehicle_type_id":"4","last_reported":1752783118,"current_range_meters":9600,"station_id":"ce4bh0p2rcd13ifvqd80","pricing_plan_id":"cebpf4jnsgd1na2vs0mg"},{"bike_id":"57239988-9161-49ce-a0a2-4581baf1b159","system_id":"levelo_inurba_marseille","lat":43.33765,"lon":5.37401,"is_reserved":false,"is_disabled":false,"rental_uris":{"android":"levelo://app?vid=57239988-9161-49ce-a0a2-4581baf1b159","ios":"levelo://app?vid=57239988-9161-49ce-a0a2-4581baf1b159"},"vehicle_type_id":"4","last_reported":1752783118,"current_range_meters":9600,"station_id":"","pricing_plan_id":"cebpf4jnsgd1na2vs0mg"},{"bike_id":"9b6ad8c5-621f-4aec-88e2-0fd1c0890107","system_id":"levelo_inurba_marseille","lat":43.2953,"lon":5.38545,"is_reserved":false,"is_disabled":false,"rental_uris":{"android":"levelo://app?vid=9b6ad8c5-621f-4aec-88e2-0fd1c0890107","ios":"levelo://app?vid=9b6ad8c5-621f-4aec-88e2-0fd1c0890107"},"vehicle_type_id":"4","last_reported":1752783118,"current_range_meters":9600,"station_id":"ce4bgih2rcd13ifvqba0","pricing_plan_id":"cebpf4jnsgd1na2vs0mg"},{"bike_id":"0d1fbd6e-696e-4fe5-93cd-08ef5e0e6aff","system_id":"levelo_inurba_marseille","lat":43.290247,"lon":5.386332,"is_reserved":false,"is_disabled":false,"rental_uris":{"android":"levelo://app?vid=0d1fbd6e-696e-4fe5-93cd-08ef5e0e6aff","ios":"levelo://app?vid=0d1fbd6e-696e-4fe5-93cd-08ef5e0e6aff"},"vehicle_type_id":"4","last_reported":1752783118,"current_range_meters":9600,"station_id":"ce4bh4p2rcd13ifvqe0g","pricing_plan_id":"cebpf4jnsgd1na2vs0mg"},{"bike_id":"81f88721-00d0-431c-83bf-446e11578408","system_id":"levelo_inurba_marseille","lat":43.225044,"lon":5.347758,"is_reserved":false,"is_disabled":false,"rental_uris":{"android":"levelo://app?vid=81f88721-00d0-431c-83bf-446e11578408","ios":"levelo://app?vid=81f88721-00d0-431c-83bf-446e11578408"},"vehicle_type_id":"4","last_reported":1752783118,"current_range_meters":9600,"station_id":"st_cvj5dfep6f1abm77gieg","pricing_plan_id":"cebpf4jnsgd1na2vs0mg"},{"bike_id":"994d3dc6-c07e-4859-8dcc-4b858e3792a6","system_id":"levelo_inurba_marseille","lat":43.27913,"lon":5.39575,"is_reserved":false,"is_disabled":false,"rental_uris":{"android":"levelo://app?vid=994d3dc6-c07e-4859-8dcc-4b858e3792a6","ios":"levelo://app?vid=994d3dc6-c07e-4859-8dcc-4b858e3792a6"},"vehicle_type_id":"4","last_reported":1752783118,"current_range_meters":9600,"station_id":"ce4bhf92rcd13ifvqf40","pricing_plan_id":"cebpf4jnsgd1na2vs0mg"},{"bike_id":"708c748e-b378-4ec8-b0f9-fe73edb8e225","system_id":"levelo_inurba_marseille","lat":43.27998,"lon":5.40011,"is_reserved":false,"is_disabled":false,"rental_uris":{"android":"levelo://app?vid=708c748e-b378-4ec8-b0f9-fe73edb8e225","ios":"levelo://app?vid=708c748e-b378-4ec8-b0f9-fe73edb8e225"},"vehicle_type_id":"4","last_reported":1752783118,"current_range_meters":9600,"station_id":"ce4bho92rcd13ifvqh4g","pricing_plan_id":"cebpf4jnsgd1na2vs0mg"},{"bike_id":"710063c1-813b-4b51-a3c5-5c21f0e0cfaf","system_id":"levelo_inurba_marseille","lat":43.29528,"lon":5.38543,"is_reserved":false,"is_disabled":false,"rental_uris":{"android":"levelo://app?vid=710063c1-813b-4b51-a3c5-5c21f0e0cfaf","ios":"levelo://app?vid=710063c1-813b-4b51-a3c5-5c21f0e0cfaf"},"vehicle_type_id":"4","last_reported":1752783118,"current_range_meters":10000,"station_id":"ce4bgih2rcd13ifvqba0","pricing_plan_id":"cebpf4jnsgd1na2vs0mg"},{"bike_id":"55d25fd3-ed16-40bc-869a-0722298f0ebf","system_id":"levelo_inurba_marseille","lat":43.27676,"lon":5.38887,"is_reserved":false,"is_disabled":false,"rental_uris":{"android":"levelo://app?vid=55d25fd3-ed16-40bc-869a-0722298f0ebf","ios":"levelo://app?vid=55d25fd3-ed16-40bc-869a-0722298f0ebf"},"vehicle_type_id":"4","last_reported":1752783118,"current_range_meters":10000,"station_id":"ce4bhi12rcd13ifvqfo0","pricing_plan_id":"cebpf4jnsgd1na2vs0mg"},{"bike_id":"ef4b4d31-f0dd-46ad-a680-a538bbd964a3","system_id":"levelo_inurba_marseille","lat":43.2953,"lon":5.38549,"is_reserved":false,"is_disabled":false,"rental_uris":{"android":"levelo://app?vid=ef4b4d31-f0dd-46ad-a680-a538bbd964a3","ios":"levelo://app?vid=ef4b4d31-f0dd-46ad-a680-a538bbd964a3"},"vehicle_type_id":"4","last_reported":1752783118,"current_range_meters":10000,"station_id":"ce4bgih2rcd13ifvqba0","pricing_plan_id":"cebpf4jnsgd1na2vs0mg"},{"bike_id":"492a419e-7fc3-43b7-b688-aee4d064f5a3","system_id":"levelo_inurba_marseille","lat":43.29277,"lon":5.37195,"is_reserved":false,"is_disabled":true,"rental_uris":{"android":"levelo://app?vid=492a419e-7fc3-43b7-b688-aee4d064f5a3","ios":"levelo://app?vid=492a419e-7fc3-43b7-b688-aee4d064f5a3"},"vehicle_type_id":"4","last_reported":1752783118,"current_range_meters":10000,"station_id":"ce4bgh92rcd13ifvqb40","pricing_plan_id":"cebpf4jnsgd1na2vs0mg"},{"bike_id":"0b4aeec2-26f8-4cc4-b7a9-87e25034d77d","system_id":"levelo_inurba_marseille","lat":43.30372,"lon":5.4248,"is_reserved":false,"is_disabled":true,"rental_uris":{"android":"levelo://app?vid=0b4aeec2-26f8-4cc4-b7a9-87e25034d77d","ios":"levelo://app?vid=0b4aeec2-26f8-4cc4-b7a9-87e25034d77d"},"vehicle_type_id":"4","last_reported":1752783118,"current_range_meters":10000,"station_id":"ce4bhoh2rcd13ifvqh6g","pricing_plan_id":"cebpf4jnsgd1na2vs0mg"},{"bike_id":"729a4ff3-41de-427e-a016-f797c6e95a2b","system_id":"levelo_inurba_marseille","lat":43.30604,"lon":5.3723,"is_reserved":false,"is_disabled":false,"rental_uris":{"android":"levelo://app?vid=729a4ff3-41de-427e-a016-f797c6e95a2b","ios":"levelo://app?vid=729a4ff3-41de-427e-a016-f797c6e95a2b"},"vehicle_type_id":"4","last_reported":1752783118,"current_range_meters":10000,"station_id":"ce4bgqh2rcd13ifvqc4g","pricing_plan_id":"cebpf4jnsgd1na2vs0mg"},{"bike_id":"90f54ea4-e306-4792-9966-1cc1bc24176c","system_id":"levelo_inurba_marseille","lat":43.26488,"lon":5.39544,"is_reserved":false,"is_disabled":true,"rental_uris":{"android":"levelo://app?vid=90f54ea4-e306-4792-9966-1cc1bc24176c","ios":"levelo://app?vid=90f54ea4-e306-4792-9966-1cc1bc24176c"},"vehicle_type_id":"4","last_reported":1752783118,"current_range_meters":10000,"station_id":"ce4bhi12rcd13ifvqfq0","pricing_plan_id":"cebpf4jnsgd1na2vs0mg"},{"bike_id":"f917674a-db6e-41d3-a9b6-f8499e0e194f","system_id":"levelo_inurba_marseille","lat":43.292633,"lon":5.384247,"is_reserved":false,"is_disabled":true,"rental_uris":{"android":"levelo://app?vid=f917674a-db6e-41d3-a9b6-f8499e0e194f","ios":"levelo://app?vid=f917674a-db6e-41d3-a9b6-f8499e0e194f"},"vehicle_type_id":"4","last_reported":1752783118,"current_range_meters":10800,"station_id":"ce4bh692rcd13ifvqea0","pricing_plan_id":"cebpf4jnsgd1na2vs0mg"},{"bike_id":"41ee9dcd-b187-4958-a82b-103d3d60828f","system_id":"levelo_inurba_marseille","lat":43.28607,"lon":5.35138,"is_reserved":false,"is_disabled":false,"rental_uris":{"android":"levelo://app?vid=41ee9dcd-b187-4958-a82b-103d3d60828f","ios":"levelo://app?vid=41ee9dcd-b187-4958-a82b-103d3d60828f"},"vehicle_type_id":"4","last_reported":1752783118,"current_range_meters":10800,"station_id":"ce4bhch2rcd13ifvqeug","pricing_plan_id":"cebpf4jnsgd1na2vs0mg"},{"bike_id":"4b01c196-84e4-4cd7-b8b2-e5b41a307cf3","system_id":"levelo_inurba_marseille","lat":43.292045,"lon":5.357995,"is_reserved":false,"is_disabled":false,"rental_uris":{"android":"levelo://app?vid=4b01c196-84e4-4cd7-b8b2-e5b41a307cf3","ios":"levelo://app?vid=4b01c196-84e4-4cd7-b8b2-e5b41a307cf3"},"vehicle_type_id":"4","last_reported":1752783118,"current_range_meters":10800,"station_id":"ce4bhb12rcd13ifvqel0","pricing_plan_id":"cebpf4jnsgd1na2vs0mg"},{"bike_id":"6bfc4c91-1511-4e12-aaf9-9a56c1d47bd6","system_id":"levelo_inurba_marseille","lat":43.296774,"lon":5.372866,"is_reserved":false,"is_disabled":false,"rental_uris":{"android":"levelo://app?vid=6bfc4c91-1511-4e12-aaf9-9a56c1d47bd6","ios":"levelo://app?vid=6bfc4c91-1511-4e12-aaf9-9a56c1d47bd6"},"vehicle_type_id":"4","last_reported":1752783118,"current_range_meters":10800,"station_id":"ce4bgk12rcd13ifvqbj0","pricing_plan_id":"cebpf4jnsgd1na2vs0mg"},{"bike_id":"555bc53e-5286-4fb6-9154-af42b3fd9792","system_id":"levelo_inurba_marseille","lat":43.300761,"lon":5.37279,"is_reserved":false,"is_disabled":false,"rental_uris":{"android":"levelo://app?vid=555bc53e-5286-4fb6-9154-af42b3fd9792","ios":"levelo://app?vid=555bc53e-5286-4fb6-9154-af42b3fd9792"},"vehicle_type_id":"4","last_reported":1752783118,"current_range_meters":10800,"station_id":"","pricing_plan_id":"cebpf4jnsgd1na2vs0mg"},{"bike_id":"b9116b35-96a7-4c82-9bbf-53c9f5bad46f","system_id":"levelo_inurba_marseille","lat":43.2795,"lon":5.38712,"is_reserved":false,"is_disabled":false,"rental_uris":{"android":"levelo://app?vid=b9116b35-96a7-4c82-9bbf-53c9f5bad46f","ios":"levelo://app?vid=b9116b35-96a7-4c82-9bbf-53c9f5bad46f"},"vehicle_type_id":"4","last_reported":1752783118,"current_range_meters":10800,"station_id":"ce4bhg12rcd13ifvqf80","pricing_plan_id":"cebpf4jnsgd1na2vs0mg"},{"bike_id":"03171b5e-058b-4eae-b5bd-53670e090559","system_id":"levelo_inurba_marseille","lat":43.29221,"lon":5.36062,"is_reserved":false,"is_disabled":false,"rental_uris":{"android":"levelo://app?vid=03171b5e-058b-4eae-b5bd-53670e090559","ios":"levelo://app?vid=03171b5e-058b-4eae-b5bd-53670e090559"},"vehicle_type_id":"4","last_reported":1752783118,"current_range_meters":10800,"station_id":"ce4bhbh2rcd13ifvqeqg","pricing_plan_id":"cebpf4jnsgd1na2vs0mg"},{"bike_id":"89ae8bf2-aa6e-4a30-9060-1ae628fd203f","system_id":"levelo_inurba_marseille","lat":43.29979,"lon":5.37177,"is_reserved":false,"is_disabled":false,"rental_uris":{"android":"levelo://app?vid=89ae8bf2-aa6e-4a30-9060-1ae628fd203f","ios":"levelo://app?vid=89ae8bf2-aa6e-4a30-9060-1ae628fd203f"},"vehicle_type_id":"4","last_reported":1752783118,"current_range_meters":10800,"station_id":"ce4bgr92rcd13ifvqc7g","pricing_plan_id":"cebpf4jnsgd1na2vs0mg"},{"bike_id":"3b0c20ef-18bb-492d-b498-226c45749e9d","system_id":"levelo_inurba_marseille","lat":43.28713,"lon":5.37403,"is_reserved":false,"is_disabled":false,"rental_uris":{"android":"levelo://app?vid=3b0c20ef-18bb-492d-b498-226c45749e9d","ios":"levelo://app?vid=3b0c20ef-18bb-492d-b498-226c45749e9d"},"vehicle_type_id":"4","last_reported":1752783118,"current_range_meters":11200,"station_id":"ce4bh3p2rcd13ifvqdq0","pricing_plan_id":"cebpf4jnsgd1na2vs0mg"},{"bike_id":"6c7dee28-0d94-4295-8cfb-2680987524ce","system_id":"levelo_inurba_marseille","lat":43.29399,"lon":5.38589,"is_reserved":false,"is_disabled":false,"rental_uris":{"android":"levelo://app?vid=6c7dee28-0d94-4295-8cfb-2680987524ce","ios":"levelo://app?vid=6c7dee28-0d94-4295-8cfb-2680987524ce"},"vehicle_type_id":"4","last_reported":1752783118,"current_range_meters":11200,"station_id":"ce4bh2h2rcd13ifvqdh0","pricing_plan_id":"cebpf4jnsgd1na2vs0mg"},{"bike_id":"8471793f-7781-4f4f-9385-a26a48845d08","system_id":"levelo_inurba_marseille","lat":43.28151,"lon":5.42644,"is_reserved":false,"is_disabled":false,"rental_uris":{"android":"levelo://app?vid=8471793f-7781-4f4f-9385-a26a48845d08","ios":"levelo://app?vid=8471793f-7781-4f4f-9385-a26a48845d08"},"vehicle_type_id":"4","last_reported":1752783118,"current_range_meters":11200,"station_id":"ce4bhnh2rcd13ifvqgug","pricing_plan_id":"cebpf4jnsgd1na2vs0mg"},{"bike_id":"e5decb8b-8bf5-44fe-a198-a2033d0cdf4c","system_id":"levelo_inurba_marseille","lat":43.28849,"lon":5.39323,"is_reserved":false,"is_disabled":false,"rental_uris":{"android":"levelo://app?vid=e5decb8b-8bf5-44fe-a198-a2033d0cdf4c","ios":"levelo://app?vid=e5decb8b-8bf5-44fe-a198-a2033d0cdf4c"},"vehicle_type_id":"4","last_reported":1752783118,"current_range_meters":11200,"station_id":"ce4bh2p2rcd13ifvqdi0","pricing_plan_id":"cebpf4jnsgd1na2vs0mg"},{"bike_id":"50de9c7e-537a-4d13-bfd9-ed99cbfe7b62","system_id":"levelo_inurba_marseille","lat":43.295986,"lon":5.380988,"is_reserved":false,"is_disabled":false,"rental_uris":{"android":"levelo://app?vid=50de9c7e-537a-4d13-bfd9-ed99cbfe7b62","ios":"levelo://app?vid=50de9c7e-537a-4d13-bfd9-ed99cbfe7b62"},"vehicle_type_id":"4","last_reported":1752783118,"current_range_meters":11200,"station_id":"ce4bgl12rcd13ifvqbo0","pricing_plan_id":"cebpf4jnsgd1na2vs0mg"},{"bike_id":"0122e80f-cc4e-4bd7-9a39-a6c13d5d4e2f","system_id":"levelo_inurba_marseille","lat":43.271756,"lon":5.409938,"is_reserved":false,"is_disabled":false,"rental_uris":{"android":"levelo://app?vid=0122e80f-cc4e-4bd7-9a39-a6c13d5d4e2f","ios":"levelo://app?vid=0122e80f-cc4e-4bd7-9a39-a6c13d5d4e2f"},"vehicle_type_id":"4","last_reported":1752783118,"current_range_meters":11200,"station_id":"ce4bhl12rcd13ifvqgf0","pricing_plan_id":"cebpf4jnsgd1na2vs0mg"},{"bike_id":"a7d735ab-bf30-49b5-b301-4359c138b671","system_id":"levelo_inurba_marseille","lat":43.23961,"lon":5.3663,"is_reserved":false,"is_disabled":false,"rental_uris":{"android":"levelo://app?vid=a7d735ab-bf30-49b5-b301-4359c138b671","ios":"levelo://app?vid=a7d735ab-bf30-49b5-b301-4359c138b671"},"vehicle_type_id":"4","last_reported":1752783118,"current_range_meters":11600,"station_id":"ce4bhi12rcd13ifvqfp0","pricing_plan_id":"cebpf4jnsgd1na2vs0mg"},{"bike_id":"cc0e9bd1-f15c-4d5e-add3-0eb24b74a385","system_id":"levelo_inurba_marseille","lat":43.29268,"lon":5.38447,"is_reserved":false,"is_disabled":false,"rental_uris":{"android":"levelo://app?vid=cc0e9bd1-f15c-4d5e-add3-0eb24b74a385","ios":"levelo://app?vid=cc0e9bd1-f15c-4d5e-add3-0eb24b74a385"},"vehicle_type_id":"4","last_reported":1752783118,"current_range_meters":11600,"station_id":"ce4bh692rcd13ifvqea0","pricing_plan_id":"cebpf4jnsgd1na2vs0mg"},{"bike_id":"b2a298e9-19e9-4d30-9a09-a4722cdf6a7b","system_id":"levelo_inurba_marseille","lat":43.21179,"lon":5.35096,"is_reserved":false,"is_disabled":false,"rental_uris":{"android":"levelo://app?vid=b2a298e9-19e9-4d30-9a09-a4722cdf6a7b","ios":"levelo://app?vid=b2a298e9-19e9-4d30-9a09-a4722cdf6a7b"},"vehicle_type_id":"4","last_reported":1752783118,"current_range_meters":11600,"station_id":"st_cvj6sg6p6f1abm77japg","pricing_plan_id":"cebpf4jnsgd1na2vs0mg"},{"bike_id":"04d15a50-cb94-495c-969c-c09473f1fcda","system_id":"levelo_inurba_marseille","lat":43.296223,"lon":5.377025,"is_reserved":false,"is_disabled":false,"rental_uris":{"android":"levelo://app?vid=04d15a50-cb94-495c-969c-c09473f1fcda","ios":"levelo://app?vid=04d15a50-cb94-495c-969c-c09473f1fcda"},"vehicle_type_id":"4","last_reported":1752783118,"current_range_meters":11600,"station_id":"","pricing_plan_id":"cebpf4jnsgd1na2vs0mg"},{"bike_id":"3444bdc6-514a-4ba6-9650-f9073305e33d","system_id":"levelo_inurba_marseille","lat":43.29682,"lon":5.3698,"is_reserved":false,"is_disabled":false,"rental_uris":{"android":"levelo://app?vid=3444bdc6-514a-4ba6-9650-f9073305e33d","ios":"levelo://app?vid=3444bdc6-514a-4ba6-9650-f9073305e33d"},"vehicle_type_id":"4","last_reported":1752783118,"current_range_meters":11600,"station_id":"","pricing_plan_id":"cebpf4jnsgd1na2vs0mg"},{"bike_id":"bfd41c4b-39f3-4c2b-bc87-2cb1a8c3cd66","system_id":"levelo_inurba_marseille","lat":43.26802,"lon":5.40269,"is_reserved":false,"is_disabled":false,"rental_uris":{"android":"levelo://app?vid=bfd41c4b-39f3-4c2b-bc87-2cb1a8c3cd66","ios":"levelo://app?vid=bfd41c4b-39f3-4c2b-bc87-2cb1a8c3cd66"},"vehicle_type_id":"4","last_reported":1752783118,"current_range_meters":11600,"station_id":"ce501612rcd8frsf0b60","pricing_plan_id":"cebpf4jnsgd1na2vs0mg"},{"bike_id":"9ff813f5-7ffe-477a-a652-434a34f03c1a","system_id":"levelo_inurba_marseille","lat":43.29261,"lon":5.38463,"is_reserved":false,"is_disabled":true,"rental_uris":{"android":"levelo://app?vid=9ff813f5-7ffe-477a-a652-434a34f03c1a","ios":"levelo://app?vid=9ff813f5-7ffe-477a-a652-434a34f03c1a"},"vehicle_type_id":"4","last_reported":1752783118,"current_range_meters":11600,"station_id":"ce4bh692rcd13ifvqea0","pricing_plan_id":"cebpf4jnsgd1na2vs0mg"},{"bike_id":"9dab5271-bf3f-4e69-931a-a7a3337bccc3","system_id":"levelo_inurba_marseille","lat":43.293432,"lon":5.385683,"is_reserved":false,"is_disabled":false,"rental_uris":{"android":"levelo://app?vid=9dab5271-bf3f-4e69-931a-a7a3337bccc3","ios":"levelo://app?vid=9dab5271-bf3f-4e69-931a-a7a3337bccc3"},"vehicle_type_id":"4","last_reported":1752783118,"current_range_meters":11600,"station_id":"ce501612rcd8frsf0b60","pricing_plan_id":"cebpf4jnsgd1na2vs0mg"},{"bike_id":"6ff34866-45bf-4aba-a9f6-3634c31770fd","system_id":"levelo_inurba_marseille","lat":43.31169,"lon":5.38724,"is_reserved":false,"is_disabled":false,"rental_uris":{"android":"levelo://app?vid=6ff34866-45bf-4aba-a9f6-3634c31770fd","ios":"levelo://app?vid=6ff34866-45bf-4aba-a9f6-3634c31770fd"},"vehicle_type_id":"4","last_reported":1752783118,"current_range_meters":11600,"station_id":"ce4bgv12rcd13ifvqcp0","pricing_plan_id":"cebpf4jnsgd1na2vs0mg"},{"bike_id":"28d27c17-e6ca-4cec-aec9-f1f6696b8a12","system_id":"levelo_inurba_marseille","lat":43.29899,"lon":5.43674,"is_reserved":false,"is_disabled":true,"rental_uris":{"android":"levelo://app?vid=28d27c17-e6ca-4cec-aec9-f1f6696b8a12","ios":"levelo://app?vid=28d27c17-e6ca-4cec-aec9-f1f6696b8a12"},"vehicle_type_id":"4","last_reported":1752783118,"current_range_meters":11600,"station_id":"ce4bhpp2rcd13ifvqhfg","pricing_plan_id":"cebpf4jnsgd1na2vs0mg"},{"bike_id":"4aff3131-c2f0-49aa-9f71-6988eb132719","system_id":"levelo_inurba_marseille","lat":43.29414,"lon":5.38612,"is_reserved":false,"is_disabled":true,"rental_uris":{"android":"levelo://app?vid=4aff3131-c2f0-49aa-9f71-6988eb132719","ios":"levelo://app?vid=4aff3131-c2f0-49aa-9f71-6988eb132719"},"vehicle_type_id":"4","last_reported":1752783118,"current_range_meters":12000,"station_id":"ce4bh2h2rcd13ifvqdh0","pricing_plan_id":"cebpf4jnsgd1na2vs0mg"},{"bike_id":"c07512f5-20de-47cc-9f7a-5bd8928a488f","system_id":"levelo_inurba_marseille","lat":43.31159,"lon":5.38721,"is_reserved":false,"is_disabled":false,"rental_uris":{"android":"levelo://app?vid=c07512f5-20de-47cc-9f7a-5bd8928a488f","ios":"levelo://app?vid=c07512f5-20de-47cc-9f7a-5bd8928a488f"},"vehicle_type_id":"4","last_reported":1752783118,"current_range_meters":12000,"station_id":"ce4bgv12rcd13ifvqcp0","pricing_plan_id":"cebpf4jnsgd1na2vs0mg"},{"bike_id":"59961a5c-6008-4288-809d-6658027f5769","system_id":"levelo_inurba_marseille","lat":43.26173,"lon":5.37463,"is_reserved":false,"is_disabled":false,"rental_uris":{"android":"levelo://app?vid=59961a5c-6008-4288-809d-6658027f5769","ios":"levelo://app?vid=59961a5c-6008-4288-809d-6658027f5769"},"vehicle_type_id":"4","last_reported":1752783118,"current_range_meters":12000,"station_id":"ce4bhgp2rcd13ifvqfc0","pricing_plan_id":"cebpf4jnsgd1na2vs0mg"},{"bike_id":"c303be8a-04b5-403f-a92a-eac34b716859","system_id":"levelo_inurba_marseille","lat":43.229447,"lon":5.353437,"is_reserved":false,"is_disabled":false,"rental_uris":{"android":"levelo://app?vid=c303be8a-04b5-403f-a92a-eac34b716859","ios":"levelo://app?vid=c303be8a-04b5-403f-a92a-eac34b716859"},"vehicle_type_id":"4","last_reported":1752783118,"current_range_meters":12000,"station_id":"cpo3532slgdg3j2ikp40","pricing_plan_id":"cebpf4jnsgd1na2vs0mg"},{"bike_id":"6e6017d7-c8d2-45a2-b6af-b78c610689e0","system_id":"levelo_inurba_marseille","lat":43.29879,"lon":5.36546,"is_reserved":false,"is_disabled":false,"rental_uris":{"android":"levelo://app?vid=6e6017d7-c8d2-45a2-b6af-b78c610689e0","ios":"levelo://app?vid=6e6017d7-c8d2-45a2-b6af-b78c610689e0"},"vehicle_type_id":"4","last_reported":1752783118,"current_range_meters":12000,"station_id":"ce4bgm92rcd13ifvqbr0","pricing_plan_id":"cebpf4jnsgd1na2vs0mg"},{"bike_id":"07f5ae19-0925-43ef-aab4-48ec58bc62b9","system_id":"levelo_inurba_marseille","lat":43.314465,"lon":5.374376,"is_reserved":false,"is_disabled":false,"rental_uris":{"android":"levelo://app?vid=07f5ae19-0925-43ef-aab4-48ec58bc62b9","ios":"levelo://app?vid=07f5ae19-0925-43ef-aab4-48ec58bc62b9"},"vehicle_type_id":"4","last_reported":1752783118,"current_range_meters":12000,"station_id":"","pricing_plan_id":"cebpf4jnsgd1na2vs0mg"},{"bike_id":"57c10aef-3375-4a77-9864-0c2a1301425c","system_id":"levelo_inurba_marseille","lat":43.26228,"lon":5.40454,"is_reserved":false,"is_disabled":false,"rental_uris":{"android":"levelo://app?vid=57c10aef-3375-4a77-9864-0c2a1301425c","ios":"levelo://app?vid=57c10aef-3375-4a77-9864-0c2a1301425c"},"vehicle_type_id":"4","last_reported":1752783118,"current_range_meters":12400,"station_id":"ce4bhmh2rcd13ifvqgmg","pricing_plan_id":"cebpf4jnsgd1na2vs0mg"},{"bike_id":"0714a563-de17-4c6e-b8c8-88cb39d88da1","system_id":"levelo_inurba_marseille","lat":43.24378,"lon":5.3707,"is_reserved":false,"is_disabled":false,"rental_uris":{"android":"levelo://app?vid=0714a563-de17-4c6e-b8c8-88cb39d88da1","ios":"levelo://app?vid=0714a563-de17-4c6e-b8c8-88cb39d88da1"},"vehicle_type_id":"4","last_reported":1752783118,"current_range_meters":12400,"station_id":"ce4bhhh2rcd13ifvqfk0","pricing_plan_id":"cebpf4jnsgd1na2vs0mg"},{"bike_id":"5608ce29-3724-49de-80ae-80031e218710","system_id":"levelo_inurba_marseille","lat":43.29029,"lon":5.38636,"is_reserved":false,"is_disabled":false,"rental_uris":{"android":"levelo://app?vid=5608ce29-3724-49de-80ae-80031e218710","ios":"levelo://app?vid=5608ce29-3724-49de-80ae-80031e218710"},"vehicle_type_id":"4","last_reported":1752783118,"current_range_meters":12400,"station_id":"ce4bh4p2rcd13ifvqe0g","pricing_plan_id":"cebpf4jnsgd1na2vs0mg"},{"bike_id":"03580a94-8da1-4cc8-a204-84801c736590","system_id":"levelo_inurba_marseille","lat":43.286707,"lon":5.363501,"is_reserved":false,"is_disabled":false,"rental_uris":{"android":"levelo://app?vid=03580a94-8da1-4cc8-a204-84801c736590","ios":"levelo://app?vid=03580a94-8da1-4cc8-a204-84801c736590"},"vehicle_type_id":"4","last_reported":1752783118,"current_range_meters":12400,"station_id":"ce4bhah2rcd13ifvqej0","pricing_plan_id":"cebpf4jnsgd1na2vs0mg"},{"bike_id":"d1e94785-07c9-4567-977b-a1d086ccac8d","system_id":"levelo_inurba_marseille","lat":43.29895,"lon":5.43672,"is_reserved":false,"is_disabled":false,"rental_uris":{"android":"levelo://app?vid=d1e94785-07c9-4567-977b-a1d086ccac8d","ios":"levelo://app?vid=d1e94785-07c9-4567-977b-a1d086ccac8d"},"vehicle_type_id":"4","last_reported":1752783118,"current_range_meters":12800,"station_id":"ce4bhpp2rcd13ifvqhfg","pricing_plan_id":"cebpf4jnsgd1na2vs0mg"},{"bike_id":"2d6d94d6-d51a-4e51-8720-e3d436593314","system_id":"levelo_inurba_marseille","lat":43.29029,"lon":5.38631,"is_reserved":false,"is_disabled":false,"rental_uris":{"android":"levelo://app?vid=2d6d94d6-d51a-4e51-8720-e3d436593314","ios":"levelo://app?vid=2d6d94d6-d51a-4e51-8720-e3d436593314"},"vehicle_type_id":"4","last_reported":1752783118,"current_range_meters":12800,"station_id":"ce4bh4p2rcd13ifvqe0g","pricing_plan_id":"cebpf4jnsgd1na2vs0mg"},{"bike_id":"923b17a0-61a0-4d35-88f1-93062aa5f171","system_id":"levelo_inurba_marseille","lat":43.309481,"lon":5.390527,"is_reserved":false,"is_disabled":false,"rental_uris":{"android":"levelo://app?vid=923b17a0-61a0-4d35-88f1-93062aa5f171","ios":"levelo://app?vid=923b17a0-61a0-4d35-88f1-93062aa5f171"},"vehicle_type_id":"4","last_reported":1752783118,"current_range_meters":12800,"station_id":"ce4bgup2rcd13ifvqco0","pricing_plan_id":"cebpf4jnsgd1na2vs0mg"},{"bike_id":"3dd53699-95df-4ee3-81a9-ba42f3db478b","system_id":"levelo_inurba_marseille","lat":43.30325,"lon":5.40447,"is_reserved":false,"is_disabled":false,"rental_uris":{"android":"levelo://app?vid=3dd53699-95df-4ee3-81a9-ba42f3db478b","ios":"levelo://app?vid=3dd53699-95df-4ee3-81a9-ba42f3db478b"},"vehicle_type_id":"4","last_reported":1752783118,"current_range_meters":12800,"station_id":"ce4bh012rcd13ifvqd10","pricing_plan_id":"cebpf4jnsgd1na2vs0mg"},{"bike_id":"3e2535f8-7d7e-418e-8d9a-1404dd8a8196","system_id":"levelo_inurba_marseille","lat":43.33769,"lon":5.37435,"is_reserved":false,"is_disabled":true,"rental_uris":{"android":"levelo://app?vid=3e2535f8-7d7e-418e-8d9a-1404dd8a8196","ios":"levelo://app?vid=3e2535f8-7d7e-418e-8d9a-1404dd8a8196"},"vehicle_type_id":"4","last_reported":1752783118,"current_range_meters":12800,"station_id":"ce4bgh92rcd13ifvqb40","pricing_plan_id":"cebpf4jnsgd1na2vs0mg"},{"bike_id":"8135d4b4-bd61-46e0-98ef-03eb3c76fe3b","system_id":"levelo_inurba_marseille","lat":43.24165,"lon":5.36395,"is_reserved":false,"is_disabled":false,"rental_uris":{"android":"levelo://app?vid=8135d4b4-bd61-46e0-98ef-03eb3c76fe3b","ios":"levelo://app?vid=8135d4b4-bd61-46e0-98ef-03eb3c76fe3b"},"vehicle_type_id":"4","last_reported":1752783118,"current_range_meters":12800,"station_id":"cpo36qri1sfpv3e86is0","pricing_plan_id":"cebpf4jnsgd1na2vs0mg"},{"bike_id":"e02d43c6-0964-4146-8af9-b7174dbb1c9c","system_id":"levelo_inurba_marseille","lat":43.302779,"lon":5.384308,"is_reserved":false,"is_disabled":false,"rental_uris":{"android":"levelo://app?vid=e02d43c6-0964-4146-8af9-b7174dbb1c9c","ios":"levelo://app?vid=e02d43c6-0964-4146-8af9-b7174dbb1c9c"},"vehicle_type_id":"4","last_reported":1752783118,"current_range_meters":12800,"station_id":"ce4bh0p2rcd13ifvqd80","pricing_plan_id":"cebpf4jnsgd1na2vs0mg"},{"bike_id":"8a347f89-75fb-49e8-8fff-99aaf0db68a3","system_id":"levelo_inurba_marseille","lat":43.30327,"lon":5.40438,"is_reserved":false,"is_disabled":false,"rental_uris":{"android":"levelo://app?vid=8a347f89-75fb-49e8-8fff-99aaf0db68a3","ios":"levelo://app?vid=8a347f89-75fb-49e8-8fff-99aaf0db68a3"},"vehicle_type_id":"4","last_reported":1752783118,"current_range_meters":13600,"station_id":"ce4bh012rcd13ifvqd10","pricing_plan_id":"cebpf4jnsgd1na2vs0mg"},{"bike_id":"6d70d6d4-7776-4d1e-a307-46e9e54de733","system_id":"levelo_inurba_marseille","lat":43.29536,"lon":5.39927,"is_reserved":false,"is_disabled":true,"rental_uris":{"android":"levelo://app?vid=6d70d6d4-7776-4d1e-a307-46e9e54de733","ios":"levelo://app?vid=6d70d6d4-7776-4d1e-a307-46e9e54de733"},"vehicle_type_id":"4","last_reported":1752783118,"current_range_meters":13600,"station_id":"ce4bh312rcd13ifvqdj0","pricing_plan_id":"cebpf4jnsgd1na2vs0mg"},{"bike_id":"73fd62e5-db0f-4871-8730-59ccf1bc69ba","system_id":"levelo_inurba_marseille","lat":43.29421,"lon":5.38609,"is_reserved":false,"is_disabled":false,"rental_uris":{"android":"levelo://app?vid=73fd62e5-db0f-4871-8730-59ccf1bc69ba","ios":"levelo://app?vid=73fd62e5-db0f-4871-8730-59ccf1bc69ba"},"vehicle_type_id":"4","last_reported":1752783118,"current_range_meters":13600,"station_id":"ce4bh2h2rcd13ifvqdh0","pricing_plan_id":"cebpf4jnsgd1na2vs0mg"},{"bike_id":"65fada85-6dcf-4f5f-bde0-b33feefc92b9","system_id":"levelo_inurba_marseille","lat":43.27172,"lon":5.40995,"is_reserved":false,"is_disabled":false,"rental_uris":{"android":"levelo://app?vid=65fada85-6dcf-4f5f-bde0-b33feefc92b9","ios":"levelo://app?vid=65fada85-6dcf-4f5f-bde0-b33feefc92b9"},"vehicle_type_id":"4","last_reported":1752783118,"current_range_meters":13600,"station_id":"ce4bhl12rcd13ifvqgf0","pricing_plan_id":"cebpf4jnsgd1na2vs0mg"},{"bike_id":"8190b158-4f1a-4f58-a07b-5b1c4e7d71cb","system_id":"levelo_inurba_marseille","lat":43.2921,"lon":5.36058,"is_reserved":false,"is_disabled":false,"rental_uris":{"android":"levelo://app?vid=8190b158-4f1a-4f58-a07b-5b1c4e7d71cb","ios":"levelo://app?vid=8190b158-4f1a-4f58-a07b-5b1c4e7d71cb"},"vehicle_type_id":"4","last_reported":1752783118,"current_range_meters":13600,"station_id":"ce4bhbh2rcd13ifvqeqg","pricing_plan_id":"cebpf4jnsgd1na2vs0mg"},{"bike_id":"78274e74-ab73-4fa7-b1a3-d1a684863996","system_id":"levelo_inurba_marseille","lat":43.22505,"lon":5.34788,"is_reserved":false,"is_disabled":false,"rental_uris":{"android":"levelo://app?vid=78274e74-ab73-4fa7-b1a3-d1a684863996","ios":"levelo://app?vid=78274e74-ab73-4fa7-b1a3-d1a684863996"},"vehicle_type_id":"4","last_reported":1752783118,"current_range_meters":13600,"station_id":"st_cvj5dfep6f1abm77gieg","pricing_plan_id":"cebpf4jnsgd1na2vs0mg"},{"bike_id":"a2a33e33-6e01-4300-b944-4634c29a2189","system_id":"levelo_inurba_marseille","lat":43.29251,"lon":5.3845,"is_reserved":false,"is_disabled":false,"rental_uris":{"android":"levelo://app?vid=a2a33e33-6e01-4300-b944-4634c29a2189","ios":"levelo://app?vid=a2a33e33-6e01-4300-b944-4634c29a2189"},"vehicle_type_id":"4","last_reported":1752783118,"current_range_meters":13600,"station_id":"ce4bh692rcd13ifvqea0","pricing_plan_id":"cebpf4jnsgd1na2vs0mg"},{"bike_id":"b861e845-045e-4bb7-9260-06d3fafca4ef","system_id":"levelo_inurba_marseille","lat":43.29896,"lon":5.43671,"is_reserved":false,"is_disabled":false,"rental_uris":{"android":"levelo://app?vid=b861e845-045e-4bb7-9260-06d3fafca4ef","ios":"levelo://app?vid=b861e845-045e-4bb7-9260-06d3fafca4ef"},"vehicle_type_id":"4","last_reported":1752783118,"current_range_meters":14000,"station_id":"ce4bhpp2rcd13ifvqhfg","pricing_plan_id":"cebpf4jnsgd1na2vs0mg"},{"bike_id":"2c6e34ec-e4ad-4b55-908f-732bdcecdb2f","system_id":"levelo_inurba_marseille","lat":43.21186,"lon":5.35068,"is_reserved":false,"is_disabled":false,"rental_uris":{"android":"levelo://app?vid=2c6e34ec-e4ad-4b55-908f-732bdcecdb2f","ios":"levelo://app?vid=2c6e34ec-e4ad-4b55-908f-732bdcecdb2f"},"vehicle_type_id":"4","last_reported":1752783118,"current_range_meters":14000,"station_id":"st_cvj6sg6p6f1abm77japg","pricing_plan_id":"cebpf4jnsgd1na2vs0mg"},{"bike_id":"c7b314a4-876a-4774-ab0c-414a539d6580","system_id":"levelo_inurba_marseille","lat":43.30907,"lon":5.36847,"is_reserved":false,"is_disabled":false,"rental_uris":{"android":"levelo://app?vid=c7b314a4-876a-4774-ab0c-414a539d6580","ios":"levelo://app?vid=c7b314a4-876a-4774-ab0c-414a539d6580"},"vehicle_type_id":"4","last_reported":1752783118,"current_range_meters":14000,"station_id":"ce4bgn92rcd13ifvqbvg","pricing_plan_id":"cebpf4jnsgd1na2vs0mg"},{"bike_id":"34a0902c-b1a1-455d-b616-8b5fa12f3a3e","system_id":"levelo_inurba_marseille","lat":43.34148,"lon":5.40908,"is_reserved":false,"is_disabled":false,"rental_uris":{"android":"levelo://app?vid=34a0902c-b1a1-455d-b616-8b5fa12f3a3e","ios":"levelo://app?vid=34a0902c-b1a1-455d-b616-8b5fa12f3a3e"},"vehicle_type_id":"4","last_reported":1752783118,"current_range_meters":14000,"station_id":"ce4bhqh2rcd13ifvqhlg","pricing_plan_id":"cebpf4jnsgd1na2vs0mg"},{"bike_id":"b3d93b47-e588-45e1-bce7-00ad374ebca5","system_id":"levelo_inurba_marseille","lat":43.28448,"lon":5.3593,"is_reserved":false,"is_disabled":false,"rental_uris":{"android":"levelo://app?vid=b3d93b47-e588-45e1-bce7-00ad374ebca5","ios":"levelo://app?vid=b3d93b47-e588-45e1-bce7-00ad374ebca5"},"vehicle_type_id":"4","last_reported":1752783118,"current_range_meters":14000,"station_id":"ce4bhah2rcd13ifvqei0","pricing_plan_id":"cebpf4jnsgd1na2vs0mg"},{"bike_id":"a923c6c4-87e9-495b-96f2-46085f6a95ae","system_id":"levelo_inurba_marseille","lat":43.31499,"lon":5.37277,"is_reserved":false,"is_disabled":false,"rental_uris":{"android":"levelo://app?vid=a923c6c4-87e9-495b-96f2-46085f6a95ae","ios":"levelo://app?vid=a923c6c4-87e9-495b-96f2-46085f6a95ae"},"vehicle_type_id":"4","last_reported":1752783118,"current_range_meters":14000,"station_id":"","pricing_plan_id":"cebpf4jnsgd1na2vs0mg"},{"bike_id":"2ac93549-5c94-4228-8eea-782a21384d10","system_id":"levelo_inurba_marseille","lat":43.29634,"lon":5.37793,"is_reserved":false,"is_disabled":false,"rental_uris":{"android":"levelo://app?vid=2ac93549-5c94-4228-8eea-782a21384d10","ios":"levelo://app?vid=2ac93549-5c94-4228-8eea-782a21384d10"},"vehicle_type_id":"4","last_reported":1752783118,"current_range_meters":14000,"station_id":"","pricing_plan_id":"cebpf4jnsgd1na2vs0mg"},{"bike_id":"f1a7f3b0-3bad-4ded-bc92-3fb1685f68ed","system_id":"levelo_inurba_marseille","lat":43.293638,"lon":5.378632,"is_reserved":false,"is_disabled":true,"rental_uris":{"android":"levelo://app?vid=f1a7f3b0-3bad-4ded-bc92-3fb1685f68ed","ios":"levelo://app?vid=f1a7f3b0-3bad-4ded-bc92-3fb1685f68ed"},"vehicle_type_id":"4","last_reported":1752783118,"current_range_meters":14400,"station_id":"ce4bgjh2rcd13ifvqbf0","pricing_plan_id":"cebpf4jnsgd1na2vs0mg"},{"bike_id":"da891840-0cec-4ccc-961c-48903736c6fa","system_id":"levelo_inurba_marseille","lat":43.31139,"lon":5.37692,"is_reserved":false,"is_disabled":false,"rental_uris":{"android":"levelo://app?vid=da891840-0cec-4ccc-961c-48903736c6fa","ios":"levelo://app?vid=da891840-0cec-4ccc-961c-48903736c6fa"},"vehicle_type_id":"4","last_reported":1752783118,"current_range_meters":14400,"station_id":"","pricing_plan_id":"cebpf4jnsgd1na2vs0mg"},{"bike_id":"df53088a-7d68-44da-aae5-1a88ce148c43","system_id":"levelo_inurba_marseille","lat":43.29696,"lon":5.37296,"is_reserved":false,"is_disabled":false,"rental_uris":{"android":"levelo://app?vid=df53088a-7d68-44da-aae5-1a88ce148c43","ios":"levelo://app?vid=df53088a-7d68-44da-aae5-1a88ce148c43"},"vehicle_type_id":"4","last_reported":1752783118,"current_range_meters":14400,"station_id":"ce4bgk12rcd13ifvqbj0","pricing_plan_id":"cebpf4jnsgd1na2vs0mg"},{"bike_id":"622244d5-7432-4978-b4b9-2f09f3f0c9d2","system_id":"levelo_inurba_marseille","lat":43.30095,"lon":5.39078,"is_reserved":false,"is_disabled":false,"rental_uris":{"android":"levelo://app?vid=622244d5-7432-4978-b4b9-2f09f3f0c9d2","ios":"levelo://app?vid=622244d5-7432-4978-b4b9-2f09f3f0c9d2"},"vehicle_type_id":"4","last_reported":1752783118,"current_range_meters":14400,"station_id":"ce4bh192rcd13ifvqdb0","pricing_plan_id":"cebpf4jnsgd1na2vs0mg"},{"bike_id":"9c4fcc8e-e909-40b4-bb2c-eef8f551b3da","system_id":"levelo_inurba_marseille","lat":43.303713,"lon":5.42487,"is_reserved":false,"is_disabled":false,"rental_uris":{"android":"levelo://app?vid=9c4fcc8e-e909-40b4-bb2c-eef8f551b3da","ios":"levelo://app?vid=9c4fcc8e-e909-40b4-bb2c-eef8f551b3da"},"vehicle_type_id":"4","last_reported":1752783118,"current_range_meters":14400,"station_id":"ce4bhoh2rcd13ifvqh6g","pricing_plan_id":"cebpf4jnsgd1na2vs0mg"},{"bike_id":"e555b545-304c-4dce-8496-1643c0f2600e","system_id":"levelo_inurba_marseille","lat":43.337444,"lon":5.374475,"is_reserved":false,"is_disabled":false,"rental_uris":{"android":"levelo://app?vid=e555b545-304c-4dce-8496-1643c0f2600e","ios":"levelo://app?vid=e555b545-304c-4dce-8496-1643c0f2600e"},"vehicle_type_id":"4","last_reported":1752783118,"current_range_meters":14400,"station_id":"","pricing_plan_id":"cebpf4jnsgd1na2vs0mg"},{"bike_id":"a892e11b-5f24-46b3-9734-e4718e4a509a","system_id":"levelo_inurba_marseille","lat":43.27498,"lon":5.42454,"is_reserved":false,"is_disabled":false,"rental_uris":{"android":"levelo://app?vid=a892e11b-5f24-46b3-9734-e4718e4a509a","ios":"levelo://app?vid=a892e11b-5f24-46b3-9734-e4718e4a509a"},"vehicle_type_id":"4","last_reported":1752783118,"current_range_meters":14400,"station_id":"ce4bhn92rcd13ifvqgrg","pricing_plan_id":"cebpf4jnsgd1na2vs0mg"},{"bike_id":"ba3823fb-c6a3-4066-b41a-411ec979f129","system_id":"levelo_inurba_marseille","lat":43.32333,"lon":5.40629,"is_reserved":false,"is_disabled":false,"rental_uris":{"android":"levelo://app?vid=ba3823fb-c6a3-4066-b41a-411ec979f129","ios":"levelo://app?vid=ba3823fb-c6a3-4066-b41a-411ec979f129"},"vehicle_type_id":"4","last_reported":1752783118,"current_range_meters":14400,"station_id":"ce4bhq92rcd13ifvqhjg","pricing_plan_id":"cebpf4jnsgd1na2vs0mg"},{"bike_id":"fa952d17-ab1a-4475-9dcd-13ca92954e4b","system_id":"levelo_inurba_marseille","lat":43.29231,"lon":5.3848,"is_reserved":false,"is_disabled":false,"rental_uris":{"android":"levelo://app?vid=fa952d17-ab1a-4475-9dcd-13ca92954e4b","ios":"levelo://app?vid=fa952d17-ab1a-4475-9dcd-13ca92954e4b"},"vehicle_type_id":"4","last_reported":1752783118,"current_range_meters":14400,"station_id":"ce4bh692rcd13ifvqea0","pricing_plan_id":"cebpf4jnsgd1na2vs0mg"},{"bike_id":"ae28ea44-06e0-468d-b104-f45ecdf62a40","system_id":"levelo_inurba_marseille","lat":43.23183,"lon":5.35564,"is_reserved":false,"is_disabled":false,"rental_uris":{"android":"levelo://app?vid=ae28ea44-06e0-468d-b104-f45ecdf62a40","ios":"levelo://app?vid=ae28ea44-06e0-468d-b104-f45ecdf62a40"},"vehicle_type_id":"4","last_reported":1752783118,"current_range_meters":14800,"station_id":"ce4bhu92rcd13ifvqi70","pricing_plan_id":"cebpf4jnsgd1na2vs0mg"},{"bike_id":"72363da8-e89e-41f4-b909-1cd750ba8cd6","system_id":"levelo_inurba_marseille","lat":43.250883,"lon":5.395275,"is_reserved":false,"is_disabled":false,"rental_uris":{"android":"levelo://app?vid=72363da8-e89e-41f4-b909-1cd750ba8cd6","ios":"levelo://app?vid=72363da8-e89e-41f4-b909-1cd750ba8cd6"},"vehicle_type_id":"4","last_reported":1752783118,"current_range_meters":14800,"station_id":"ce4bhm12rcd13ifvqgkg","pricing_plan_id":"cebpf4jnsgd1na2vs0mg"},{"bike_id":"398d6518-63ea-41c2-90f5-21fa7f9671fe","system_id":"levelo_inurba_marseille","lat":43.28876,"lon":5.37864,"is_reserved":false,"is_disabled":false,"rental_uris":{"android":"levelo://app?vid=398d6518-63ea-41c2-90f5-21fa7f9671fe","ios":"levelo://app?vid=398d6518-63ea-41c2-90f5-21fa7f9671fe"},"vehicle_type_id":"4","last_reported":1752783118,"current_range_meters":14800,"station_id":"","pricing_plan_id":"cebpf4jnsgd1na2vs0mg"},{"bike_id":"4617c6c3-f658-4ca2-a7ce-0267bda5bf49","system_id":"levelo_inurba_marseille","lat":43.292542,"lon":5.384353,"is_reserved":false,"is_disabled":false,"rental_uris":{"android":"levelo://app?vid=4617c6c3-f658-4ca2-a7ce-0267bda5bf49","ios":"levelo://app?vid=4617c6c3-f658-4ca2-a7ce-0267bda5bf49"},"vehicle_type_id":"4","last_reported":1752783118,"current_range_meters":14800,"station_id":"ce4bh692rcd13ifvqea0","pricing_plan_id":"cebpf4jnsgd1na2vs0mg"},{"bike_id":"0698bc0a-1356-460f-8b6d-fca0137a6217","system_id":"levelo_inurba_marseille","lat":43.21168,"lon":5.35083,"is_reserved":false,"is_disabled":false,"rental_uris":{"android":"levelo://app?vid=0698bc0a-1356-460f-8b6d-fca0137a6217","ios":"levelo://app?vid=0698bc0a-1356-460f-8b6d-fca0137a6217"},"vehicle_type_id":"4","last_reported":1752783118,"current_range_meters":14800,"station_id":"st_cvj6sg6p6f1abm77japg","pricing_plan_id":"cebpf4jnsgd1na2vs0mg"},{"bike_id":"531dca68-8617-41b0-a6cd-abffc94e1d45","system_id":"levelo_inurba_marseille","lat":43.31216,"lon":5.3734,"is_reserved":false,"is_disabled":false,"rental_uris":{"android":"levelo://app?vid=531dca68-8617-41b0-a6cd-abffc94e1d45","ios":"levelo://app?vid=531dca68-8617-41b0-a6cd-abffc94e1d45"},"vehicle_type_id":"4","last_reported":1752783118,"current_range_meters":14800,"station_id":"","pricing_plan_id":"cebpf4jnsgd1na2vs0mg"},{"bike_id":"ad052428-87f6-4ad4-b01d-00ca0e47f564","system_id":"levelo_inurba_marseille","lat":43.29011,"lon":5.38655,"is_reserved":false,"is_disabled":false,"rental_uris":{"android":"levelo://app?vid=ad052428-87f6-4ad4-b01d-00ca0e47f564","ios":"levelo://app?vid=ad052428-87f6-4ad4-b01d-00ca0e47f564"},"vehicle_type_id":"4","last_reported":1752783118,"current_range_meters":15200,"station_id":"ce4bh4p2rcd13ifvqe0g","pricing_plan_id":"cebpf4jnsgd1na2vs0mg"},{"bike_id":"9c837b99-081f-4caa-a8a3-7d6dc61e9d18","system_id":"levelo_inurba_marseille","lat":43.23056,"lon":5.35504,"is_reserved":false,"is_disabled":false,"rental_uris":{"android":"levelo://app?vid=9c837b99-081f-4caa-a8a3-7d6dc61e9d18","ios":"levelo://app?vid=9c837b99-081f-4caa-a8a3-7d6dc61e9d18"},"vehicle_type_id":"4","last_reported":1752783118,"current_range_meters":15200,"station_id":"cpo3342slgdg3j2ifvpg","pricing_plan_id":"cebpf4jnsgd1na2vs0mg"},{"bike_id":"ecd11f8d-fc9e-48e6-8f3d-953f579e8eed","system_id":"levelo_inurba_marseille","lat":43.29256,"lon":5.38449,"is_reserved":false,"is_disabled":false,"rental_uris":{"android":"levelo://app?vid=ecd11f8d-fc9e-48e6-8f3d-953f579e8eed","ios":"levelo://app?vid=ecd11f8d-fc9e-48e6-8f3d-953f579e8eed"},"vehicle_type_id":"4","last_reported":1752783118,"current_range_meters":15200,"station_id":"ce4bh692rcd13ifvqea0","pricing_plan_id":"cebpf4jnsgd1na2vs0mg"},{"bike_id":"168a7671-aba6-4148-ba70-c792dfe2e642","system_id":"levelo_inurba_marseille","lat":43.21188,"lon":5.35077,"is_reserved":false,"is_disabled":false,"rental_uris":{"android":"levelo://app?vid=168a7671-aba6-4148-ba70-c792dfe2e642","ios":"levelo://app?vid=168a7671-aba6-4148-ba70-c792dfe2e642"},"vehicle_type_id":"4","last_reported":1752783118,"current_range_meters":15200,"station_id":"st_cvj6sg6p6f1abm77japg","pricing_plan_id":"cebpf4jnsgd1na2vs0mg"},{"bike_id":"2272a1cb-30d4-47dd-bed5-39b01483f853","system_id":"levelo_inurba_marseille","lat":43.229279,"lon":5.35365,"is_reserved":false,"is_disabled":false,"rental_uris":{"android":"levelo://app?vid=2272a1cb-30d4-47dd-bed5-39b01483f853","ios":"levelo://app?vid=2272a1cb-30d4-47dd-bed5-39b01483f853"},"vehicle_type_id":"4","last_reported":1752783118,"current_range_meters":15200,"station_id":"cpo3532slgdg3j2ikp40","pricing_plan_id":"cebpf4jnsgd1na2vs0mg"},{"bike_id":"5a53aea4-6ba9-4a21-96e1-b5898a42c2ca","system_id":"levelo_inurba_marseille","lat":43.2953,"lon":5.38542,"is_reserved":false,"is_disabled":false,"rental_uris":{"android":"levelo://app?vid=5a53aea4-6ba9-4a21-96e1-b5898a42c2ca","ios":"levelo://app?vid=5a53aea4-6ba9-4a21-96e1-b5898a42c2ca"},"vehicle_type_id":"4","last_reported":1752783118,"current_range_meters":15200,"station_id":"ce4bgih2rcd13ifvqba0","pricing_plan_id":"cebpf4jnsgd1na2vs0mg"},{"bike_id":"415b159e-3f13-44c5-83f8-07987511b5f9","system_id":"levelo_inurba_marseille","lat":43.25089,"lon":5.39529,"is_reserved":false,"is_disabled":false,"rental_uris":{"android":"levelo://app?vid=415b159e-3f13-44c5-83f8-07987511b5f9","ios":"levelo://app?vid=415b159e-3f13-44c5-83f8-07987511b5f9"},"vehicle_type_id":"4","last_reported":1752783118,"current_range_meters":16000,"station_id":"ce4bhm12rcd13ifvqgkg","pricing_plan_id":"cebpf4jnsgd1na2vs0mg"},{"bike_id":"a82d675d-f65f-415d-abab-aca85261effa","system_id":"levelo_inurba_marseille","lat":43.29518,"lon":5.39402,"is_reserved":false,"is_disabled":false,"rental_uris":{"android":"levelo://app?vid=a82d675d-f65f-415d-abab-aca85261effa","ios":"levelo://app?vid=a82d675d-f65f-415d-abab-aca85261effa"},"vehicle_type_id":"4","last_reported":1752783118,"current_range_meters":16000,"station_id":"ce4bh292rcd13ifvqdf0","pricing_plan_id":"cebpf4jnsgd1na2vs0mg"},{"bike_id":"b9c220fa-ce21-46e5-9c5b-52d91725030b","system_id":"levelo_inurba_marseille","lat":43.22874,"lon":5.3543,"is_reserved":false,"is_disabled":false,"rental_uris":{"android":"levelo://app?vid=b9c220fa-ce21-46e5-9c5b-52d91725030b","ios":"levelo://app?vid=b9c220fa-ce21-46e5-9c5b-52d91725030b"},"vehicle_type_id":"4","last_reported":1752783118,"current_range_meters":16000,"station_id":"","pricing_plan_id":"cebpf4jnsgd1na2vs0mg"},{"bike_id":"a092d05c-8017-44f5-ba8a-35792463d6a3","system_id":"levelo_inurba_marseille","lat":43.225,"lon":5.34805,"is_reserved":false,"is_disabled":false,"rental_uris":{"android":"levelo://app?vid=a092d05c-8017-44f5-ba8a-35792463d6a3","ios":"levelo://app?vid=a092d05c-8017-44f5-ba8a-35792463d6a3"},"vehicle_type_id":"4","last_reported":1752783118,"current_range_meters":16000,"station_id":"st_cvj5dfep6f1abm77gieg","pricing_plan_id":"cebpf4jnsgd1na2vs0mg"},{"bike_id":"31695fe3-ba1a-451d-a7a2-e6e81aefdddc","system_id":"levelo_inurba_marseille","lat":43.28627,"lon":5.35109,"is_reserved":false,"is_disabled":true,"rental_uris":{"android":"levelo://app?vid=31695fe3-ba1a-451d-a7a2-e6e81aefdddc","ios":"levelo://app?vid=31695fe3-ba1a-451d-a7a2-e6e81aefdddc"},"vehicle_type_id":"4","last_reported":1752783118,"current_range_meters":16000,"station_id":"ce4bhch2rcd13ifvqeug","pricing_plan_id":"cebpf4jnsgd1na2vs0mg"},{"bike_id":"584a4f79-7574-4f7a-b624-7e9a4ec58cca","system_id":"levelo_inurba_marseille","lat":43.26791,"lon":5.40262,"is_reserved":false,"is_disabled":false,"rental_uris":{"android":"levelo://app?vid=584a4f79-7574-4f7a-b624-7e9a4ec58cca","ios":"levelo://app?vid=584a4f79-7574-4f7a-b624-7e9a4ec58cca"},"vehicle_type_id":"4","last_reported":1752783118,"current_range_meters":16000,"station_id":"ce501612rcd8frsf0b60","pricing_plan_id":"cebpf4jnsgd1na2vs0mg"},{"bike_id":"d0573d96-ddb4-4622-bd15-49483cac3810","system_id":"levelo_inurba_marseille","lat":43.258633,"lon":5.399035,"is_reserved":false,"is_disabled":true,"rental_uris":{"android":"levelo://app?vid=d0573d96-ddb4-4622-bd15-49483cac3810","ios":"levelo://app?vid=d0573d96-ddb4-4622-bd15-49483cac3810"},"vehicle_type_id":"4","last_reported":1752783118,"current_range_meters":16000,"station_id":"ce4bhl92rcd13ifvqghg","pricing_plan_id":"cebpf4jnsgd1na2vs0mg"},{"bike_id":"e54582ed-ba92-4640-a97f-9e97144ce87f","system_id":"levelo_inurba_marseille","lat":43.322683,"lon":5.406538,"is_reserved":false,"is_disabled":false,"rental_uris":{"android":"levelo://app?vid=e54582ed-ba92-4640-a97f-9e97144ce87f","ios":"levelo://app?vid=e54582ed-ba92-4640-a97f-9e97144ce87f"},"vehicle_type_id":"4","last_reported":1752783118,"current_range_meters":16000,"station_id":"","pricing_plan_id":"cebpf4jnsgd1na2vs0mg"},{"bike_id":"7a6aca03-37b0-40ef-9d9a-27893d501471","system_id":"levelo_inurba_marseille","lat":43.25014,"lon":5.38924,"is_reserved":false,"is_disabled":false,"rental_uris":{"android":"levelo://app?vid=7a6aca03-37b0-40ef-9d9a-27893d501471","ios":"levelo://app?vid=7a6aca03-37b0-40ef-9d9a-27893d501471"},"vehicle_type_id":"4","last_reported":1752783118,"current_range_meters":16000,"station_id":"ce4bhgp2rcd13ifvqfd0","pricing_plan_id":"cebpf4jnsgd1na2vs0mg"},{"bike_id":"c2a447ad-94bd-40d8-be82-eddb6b088af2","system_id":"levelo_inurba_marseille","lat":43.280989,"lon":5.367004,"is_reserved":false,"is_disabled":false,"rental_uris":{"android":"levelo://app?vid=c2a447ad-94bd-40d8-be82-eddb6b088af2","ios":"levelo://app?vid=c2a447ad-94bd-40d8-be82-eddb6b088af2"},"vehicle_type_id":"4","last_reported":1752783118,"current_range_meters":16000,"station_id":"ce4bha12rcd13ifvqef0","pricing_plan_id":"cebpf4jnsgd1na2vs0mg"},{"bike_id":"3d31efcd-823f-4c6d-bf8d-9481b1c0ef1d","system_id":"levelo_inurba_marseille","lat":43.30088,"lon":5.39069,"is_reserved":false,"is_disabled":false,"rental_uris":{"android":"levelo://app?vid=3d31efcd-823f-4c6d-bf8d-9481b1c0ef1d","ios":"levelo://app?vid=3d31efcd-823f-4c6d-bf8d-9481b1c0ef1d"},"vehicle_type_id":"4","last_reported":1752783118,"current_range_meters":16800,"station_id":"ce4bh192rcd13ifvqdb0","pricing_plan_id":"cebpf4jnsgd1na2vs0mg"},{"bike_id":"6be86623-c65c-4a0d-b3a4-c58891bfa931","system_id":"levelo_inurba_marseille","lat":43.2251,"lon":5.34758,"is_reserved":false,"is_disabled":false,"rental_uris":{"android":"levelo://app?vid=6be86623-c65c-4a0d-b3a4-c58891bfa931","ios":"levelo://app?vid=6be86623-c65c-4a0d-b3a4-c58891bfa931"},"vehicle_type_id":"4","last_reported":1752783118,"current_range_meters":16400,"station_id":"st_cvj5dfep6f1abm77gieg","pricing_plan_id":"cebpf4jnsgd1na2vs0mg"},{"bike_id":"0d87ca24-976c-4967-995f-815e40a697aa","system_id":"levelo_inurba_marseille","lat":43.32111,"lon":5.36766,"is_reserved":false,"is_disabled":false,"rental_uris":{"android":"levelo://app?vid=0d87ca24-976c-4967-995f-815e40a697aa","ios":"levelo://app?vid=0d87ca24-976c-4967-995f-815e40a697aa"},"vehicle_type_id":"4","last_reported":1752783118,"current_range_meters":16400,"station_id":"ce4bhrh2rcd13ifvqhug","pricing_plan_id":"cebpf4jnsgd1na2vs0mg"},{"bike_id":"3edba850-7d9e-4b76-a0a5-6c53f218fc41","system_id":"levelo_inurba_marseille","lat":43.23195,"lon":5.35554,"is_reserved":false,"is_disabled":false,"rental_uris":{"android":"levelo://app?vid=3edba850-7d9e-4b76-a0a5-6c53f218fc41","ios":"levelo://app?vid=3edba850-7d9e-4b76-a0a5-6c53f218fc41"},"vehicle_type_id":"4","last_reported":1752783118,"current_range_meters":16400,"station_id":"ce4bhu92rcd13ifvqi70","pricing_plan_id":"cebpf4jnsgd1na2vs0mg"},{"bike_id":"201a6255-b2fb-4008-8106-1ddade7a08f4","system_id":"levelo_inurba_marseille","lat":43.267292,"lon":5.38349,"is_reserved":false,"is_disabled":false,"rental_uris":{"android":"levelo://app?vid=201a6255-b2fb-4008-8106-1ddade7a08f4","ios":"levelo://app?vid=201a6255-b2fb-4008-8106-1ddade7a08f4"},"vehicle_type_id":"4","last_reported":1752783118,"current_range_meters":16400,"station_id":"ce4bhg92rcd13ifvqf90","pricing_plan_id":"cebpf4jnsgd1na2vs0mg"},{"bike_id":"2ded6291-a823-49b5-9bc5-1374dd62faea","system_id":"levelo_inurba_marseille","lat":43.24401,"lon":5.37045,"is_reserved":false,"is_disabled":false,"rental_uris":{"android":"levelo://app?vid=2ded6291-a823-49b5-9bc5-1374dd62faea","ios":"levelo://app?vid=2ded6291-a823-49b5-9bc5-1374dd62faea"},"vehicle_type_id":"4","last_reported":1752783118,"current_range_meters":16400,"station_id":"ce4bhhh2rcd13ifvqfk0","pricing_plan_id":"cebpf4jnsgd1na2vs0mg"},{"bike_id":"93064a8f-6df9-4f93-85e3-ab80e6e91177","system_id":"levelo_inurba_marseille","lat":43.2619,"lon":5.40464,"is_reserved":false,"is_disabled":false,"rental_uris":{"android":"levelo://app?vid=93064a8f-6df9-4f93-85e3-ab80e6e91177","ios":"levelo://app?vid=93064a8f-6df9-4f93-85e3-ab80e6e91177"},"vehicle_type_id":"4","last_reported":1752783118,"current_range_meters":16800,"station_id":"ce4bhmh2rcd13ifvqgmg","pricing_plan_id":"cebpf4jnsgd1na2vs0mg"},{"bike_id":"1d94feba-c90e-4d75-9f8d-9ea4bb03490e","system_id":"levelo_inurba_marseille","lat":43.29102,"lon":5.38162,"is_reserved":false,"is_disabled":true,"rental_uris":{"android":"levelo://app?vid=1d94feba-c90e-4d75-9f8d-9ea4bb03490e","ios":"levelo://app?vid=1d94feba-c90e-4d75-9f8d-9ea4bb03490e"},"vehicle_type_id":"4","last_reported":1752783118,"current_range_meters":16800,"station_id":"ce4bh512rcd13ifvqe2g","pricing_plan_id":"cebpf4jnsgd1na2vs0mg"},{"bike_id":"b1411f20-9712-40f9-a9cc-407b4e40f865","system_id":"levelo_inurba_marseille","lat":43.268209,"lon":5.414877,"is_reserved":false,"is_disabled":false,"rental_uris":{"android":"levelo://app?vid=b1411f20-9712-40f9-a9cc-407b4e40f865","ios":"levelo://app?vid=b1411f20-9712-40f9-a9cc-407b4e40f865"},"vehicle_type_id":"4","last_reported":1752783118,"current_range_meters":16800,"station_id":"","pricing_plan_id":"cebpf4jnsgd1na2vs0mg"},{"bike_id":"084eace8-045f-4012-9455-c501cad7ce10","system_id":"levelo_inurba_marseille","lat":43.22499,"lon":5.34782,"is_reserved":false,"is_disabled":false,"rental_uris":{"android":"levelo://app?vid=084eace8-045f-4012-9455-c501cad7ce10","ios":"levelo://app?vid=084eace8-045f-4012-9455-c501cad7ce10"},"vehicle_type_id":"4","last_reported":1752783118,"current_range_meters":16800,"station_id":"st_cvj5dfep6f1abm77gieg","pricing_plan_id":"cebpf4jnsgd1na2vs0mg"},{"bike_id":"553fa98c-cad1-4f43-89c4-f99be239a9a1","system_id":"levelo_inurba_marseille","lat":43.29246,"lon":5.38453,"is_reserved":false,"is_disabled":false,"rental_uris":{"android":"levelo://app?vid=553fa98c-cad1-4f43-89c4-f99be239a9a1","ios":"levelo://app?vid=553fa98c-cad1-4f43-89c4-f99be239a9a1"},"vehicle_type_id":"4","last_reported":1752783118,"current_range_meters":16800,"station_id":"ce4bh692rcd13ifvqea0","pricing_plan_id":"cebpf4jnsgd1na2vs0mg"},{"bike_id":"4c0ea010-fab1-4680-b798-1d8aad58bcd3","system_id":"levelo_inurba_marseille","lat":43.27196,"lon":5.40989,"is_reserved":false,"is_disabled":false,"rental_uris":{"android":"levelo://app?vid=4c0ea010-fab1-4680-b798-1d8aad58bcd3","ios":"levelo://app?vid=4c0ea010-fab1-4680-b798-1d8aad58bcd3"},"vehicle_type_id":"4","last_reported":1752783118,"current_range_meters":16800,"station_id":"ce4bhl12rcd13ifvqgf0","pricing_plan_id":"cebpf4jnsgd1na2vs0mg"},{"bike_id":"ed822664-f978-4865-b4d3-8b7323601ddf","system_id":"levelo_inurba_marseille","lat":43.29799,"lon":5.39357,"is_reserved":false,"is_disabled":true,"rental_uris":{"android":"levelo://app?vid=ed822664-f978-4865-b4d3-8b7323601ddf","ios":"levelo://app?vid=ed822664-f978-4865-b4d3-8b7323601ddf"},"vehicle_type_id":"4","last_reported":1752783118,"current_range_meters":16800,"station_id":"chh1huq6cuj3fo74tm60","pricing_plan_id":"cebpf4jnsgd1na2vs0mg"},{"bike_id":"5dc15d15-3eb2-44e6-b982-e6ed7fcfd087","system_id":"levelo_inurba_marseille","lat":43.30529,"lon":5.36552,"is_reserved":false,"is_disabled":false,"rental_uris":{"android":"levelo://app?vid=5dc15d15-3eb2-44e6-b982-e6ed7fcfd087","ios":"levelo://app?vid=5dc15d15-3eb2-44e6-b982-e6ed7fcfd087"},"vehicle_type_id":"4","last_reported":1752783118,"current_range_meters":15200,"station_id":"ce4bgs12rcd13ifvqcag","pricing_plan_id":"cebpf4jnsgd1na2vs0mg"},{"bike_id":"650e85b2-6284-4880-9ff7-8ce75c33f883","system_id":"levelo_inurba_marseille","lat":43.26495,"lon":5.39544,"is_reserved":false,"is_disabled":false,"rental_uris":{"android":"levelo://app?vid=650e85b2-6284-4880-9ff7-8ce75c33f883","ios":"levelo://app?vid=650e85b2-6284-4880-9ff7-8ce75c33f883"},"vehicle_type_id":"4","last_reported":1752783118,"current_range_meters":16800,"station_id":"ce4bhi12rcd13ifvqfq0","pricing_plan_id":"cebpf4jnsgd1na2vs0mg"},{"bike_id":"1fe65187-ac28-4e64-b7bb-a76e964c43b1","system_id":"levelo_inurba_marseille","lat":43.29528,"lon":5.39037,"is_reserved":false,"is_disabled":false,"rental_uris":{"android":"levelo://app?vid=1fe65187-ac28-4e64-b7bb-a76e964c43b1","ios":"levelo://app?vid=1fe65187-ac28-4e64-b7bb-a76e964c43b1"},"vehicle_type_id":"4","last_reported":1752783118,"current_range_meters":16800,"station_id":"ce4bh3p2rcd13ifvqdp0","pricing_plan_id":"cebpf4jnsgd1na2vs0mg"},{"bike_id":"5b4e5f0f-cac3-450a-9463-e6a77e2c277e","system_id":"levelo_inurba_marseille","lat":43.246423,"lon":5.388921,"is_reserved":false,"is_disabled":true,"rental_uris":{"android":"levelo://app?vid=5b4e5f0f-cac3-450a-9463-e6a77e2c277e","ios":"levelo://app?vid=5b4e5f0f-cac3-450a-9463-e6a77e2c277e"},"vehicle_type_id":"4","last_reported":1752783118,"current_range_meters":16800,"station_id":"ce4bhg12rcd13ifvqf60","pricing_plan_id":"cebpf4jnsgd1na2vs0mg"},{"bike_id":"dac9146e-2828-411e-846d-814e8c8c13f2","system_id":"levelo_inurba_marseille","lat":43.26542,"lon":5.38962,"is_reserved":false,"is_disabled":false,"rental_uris":{"android":"levelo://app?vid=dac9146e-2828-411e-846d-814e8c8c13f2","ios":"levelo://app?vid=dac9146e-2828-411e-846d-814e8c8c13f2"},"vehicle_type_id":"4","last_reported":1752783118,"current_range_meters":16800,"station_id":"ce4bhe12rcd13ifvqf30","pricing_plan_id":"cebpf4jnsgd1na2vs0mg"},{"bike_id":"be60c88c-1453-4626-be80-200258f79626","system_id":"levelo_inurba_marseille","lat":43.23194,"lon":5.35545,"is_reserved":false,"is_disabled":false,"rental_uris":{"android":"levelo://app?vid=be60c88c-1453-4626-be80-200258f79626","ios":"levelo://app?vid=be60c88c-1453-4626-be80-200258f79626"},"vehicle_type_id":"4","last_reported":1752783118,"current_range_meters":16800,"station_id":"ce4bhu92rcd13ifvqi70","pricing_plan_id":"cebpf4jnsgd1na2vs0mg"},{"bike_id":"93f2d037-f84f-4817-a18f-77ea92597358","system_id":"levelo_inurba_marseille","lat":43.24383,"lon":5.37048,"is_reserved":false,"is_disabled":false,"rental_uris":{"android":"levelo://app?vid=93f2d037-f84f-4817-a18f-77ea92597358","ios":"levelo://app?vid=93f2d037-f84f-4817-a18f-77ea92597358"},"vehicle_type_id":"4","last_reported":1752783118,"current_range_meters":16800,"station_id":"ce4bhhh2rcd13ifvqfk0","pricing_plan_id":"cebpf4jnsgd1na2vs0mg"},{"bike_id":"409515f8-3415-426d-b0c7-61f840c7c187","system_id":"levelo_inurba_marseille","lat":43.22491,"lon":5.34805,"is_reserved":false,"is_disabled":false,"rental_uris":{"android":"levelo://app?vid=409515f8-3415-426d-b0c7-61f840c7c187","ios":"levelo://app?vid=409515f8-3415-426d-b0c7-61f840c7c187"},"vehicle_type_id":"4","last_reported":1752783118,"current_range_meters":16800,"station_id":"st_cvj5dfep6f1abm77gieg","pricing_plan_id":"cebpf4jnsgd1na2vs0mg"},{"bike_id":"9653e787-66b1-40fa-b568-85d9a88a02cb","system_id":"levelo_inurba_marseille","lat":43.299389,"lon":5.385263,"is_reserved":false,"is_disabled":false,"rental_uris":{"android":"levelo://app?vid=9653e787-66b1-40fa-b568-85d9a88a02cb","ios":"levelo://app?vid=9653e787-66b1-40fa-b568-85d9a88a02cb"},"vehicle_type_id":"4","last_reported":1752783118,"current_range_meters":16800,"station_id":"ce4bgj92rcd13ifvqbd0","pricing_plan_id":"cebpf4jnsgd1na2vs0mg"},{"bike_id":"c6db0f6a-96fe-4e1d-8ded-c2ef38c9bab4","system_id":"levelo_inurba_marseille","lat":43.304183,"lon":5.412838,"is_reserved":false,"is_disabled":true,"rental_uris":{"android":"levelo://app?vid=c6db0f6a-96fe-4e1d-8ded-c2ef38c9bab4","ios":"levelo://app?vid=c6db0f6a-96fe-4e1d-8ded-c2ef38c9bab4"},"vehicle_type_id":"4","last_reported":1752783118,"current_range_meters":17200,"station_id":"ce4bhop2rcd13ifvqh8g","pricing_plan_id":"cebpf4jnsgd1na2vs0mg"},{"bike_id":"1f5ec7bc-0e3b-4cd2-9211-9cf36fa915c3","system_id":"levelo_inurba_marseille","lat":43.3045,"lon":5.38893,"is_reserved":false,"is_disabled":false,"rental_uris":{"android":"levelo://app?vid=1f5ec7bc-0e3b-4cd2-9211-9cf36fa915c3","ios":"levelo://app?vid=1f5ec7bc-0e3b-4cd2-9211-9cf36fa915c3"},"vehicle_type_id":"4","last_reported":1752783118,"current_range_meters":17200,"station_id":"ce4bgk12rcd13ifvqbi0","pricing_plan_id":"cebpf4jnsgd1na2vs0mg"},{"bike_id":"dfbee1af-822c-476d-9a5b-3ca987769485","system_id":"levelo_inurba_marseille","lat":43.271854,"lon":5.362776,"is_reserved":false,"is_disabled":false,"rental_uris":{"android":"levelo://app?vid=dfbee1af-822c-476d-9a5b-3ca987769485","ios":"levelo://app?vid=dfbee1af-822c-476d-9a5b-3ca987769485"},"vehicle_type_id":"4","last_reported":1752783118,"current_range_meters":17200,"station_id":"","pricing_plan_id":"cebpf4jnsgd1na2vs0mg"},{"bike_id":"21c28a41-5988-44fd-bd9c-8737f24b78b9","system_id":"levelo_inurba_marseille","lat":43.27218,"lon":5.40088,"is_reserved":false,"is_disabled":false,"rental_uris":{"android":"levelo://app?vid=21c28a41-5988-44fd-bd9c-8737f24b78b9","ios":"levelo://app?vid=21c28a41-5988-44fd-bd9c-8737f24b78b9"},"vehicle_type_id":"4","last_reported":1752783118,"current_range_meters":17200,"station_id":"","pricing_plan_id":"cebpf4jnsgd1na2vs0mg"},{"bike_id":"297914b4-f29d-4efa-a16f-6b7800ec2454","system_id":"levelo_inurba_marseille","lat":43.28886,"lon":5.37123,"is_reserved":false,"is_disabled":false,"rental_uris":{"android":"levelo://app?vid=297914b4-f29d-4efa-a16f-6b7800ec2454","ios":"levelo://app?vid=297914b4-f29d-4efa-a16f-6b7800ec2454"},"vehicle_type_id":"4","last_reported":1752783118,"current_range_meters":17200,"station_id":"","pricing_plan_id":"cebpf4jnsgd1na2vs0mg"},{"bike_id":"7acde026-60d2-4f30-857e-d117fba0b592","system_id":"levelo_inurba_marseille","lat":43.29252,"lon":5.38429,"is_reserved":false,"is_disabled":false,"rental_uris":{"android":"levelo://app?vid=7acde026-60d2-4f30-857e-d117fba0b592","ios":"levelo://app?vid=7acde026-60d2-4f30-857e-d117fba0b592"},"vehicle_type_id":"4","last_reported":1752783118,"current_range_meters":17200,"station_id":"ce4bh692rcd13ifvqea0","pricing_plan_id":"cebpf4jnsgd1na2vs0mg"},{"bike_id":"537662da-9a29-4232-b85c-18043744b642","system_id":"levelo_inurba_marseille","lat":43.290775,"lon":5.371662,"is_reserved":false,"is_disabled":false,"rental_uris":{"android":"levelo://app?vid=537662da-9a29-4232-b85c-18043744b642","ios":"levelo://app?vid=537662da-9a29-4232-b85c-18043744b642"},"vehicle_type_id":"4","last_reported":1752783118,"current_range_meters":17200,"station_id":"ce4bh5p2rcd13ifvqe4g","pricing_plan_id":"cebpf4jnsgd1na2vs0mg"},{"bike_id":"84e306f0-5370-49c8-9470-a072c19a663b","system_id":"levelo_inurba_marseille","lat":43.296016,"lon":5.404296,"is_reserved":false,"is_disabled":false,"rental_uris":{"android":"levelo://app?vid=84e306f0-5370-49c8-9470-a072c19a663b","ios":"levelo://app?vid=84e306f0-5370-49c8-9470-a072c19a663b"},"vehicle_type_id":"4","last_reported":1752783118,"current_range_meters":13600,"station_id":"ce4bh112rcd13ifvqd90","pricing_plan_id":"cebpf4jnsgd1na2vs0mg"},{"bike_id":"8ca35254-0a78-41fe-ba14-d16c8017b384","system_id":"levelo_inurba_marseille","lat":43.28078,"lon":5.39657,"is_reserved":false,"is_disabled":false,"rental_uris":{"android":"levelo://app?vid=8ca35254-0a78-41fe-ba14-d16c8017b384","ios":"levelo://app?vid=8ca35254-0a78-41fe-ba14-d16c8017b384"},"vehicle_type_id":"4","last_reported":1752783118,"current_range_meters":17600,"station_id":"ce4bho12rcd13ifvqh2g","pricing_plan_id":"cebpf4jnsgd1na2vs0mg"},{"bike_id":"c443e4d0-e59b-45c1-8bb3-94439eafe524","system_id":"levelo_inurba_marseille","lat":43.30947,"lon":5.39088,"is_reserved":false,"is_disabled":false,"rental_uris":{"android":"levelo://app?vid=c443e4d0-e59b-45c1-8bb3-94439eafe524","ios":"levelo://app?vid=c443e4d0-e59b-45c1-8bb3-94439eafe524"},"vehicle_type_id":"4","last_reported":1752783118,"current_range_meters":17600,"station_id":"","pricing_plan_id":"cebpf4jnsgd1na2vs0mg"},{"bike_id":"c2ee7bfc-d258-412e-985b-95ec73823b65","system_id":"levelo_inurba_marseille","lat":43.32657,"lon":5.40994,"is_reserved":false,"is_disabled":false,"rental_uris":{"android":"levelo://app?vid=c2ee7bfc-d258-412e-985b-95ec73823b65","ios":"levelo://app?vid=c2ee7bfc-d258-412e-985b-95ec73823b65"},"vehicle_type_id":"4","last_reported":1752783118,"current_range_meters":17600,"station_id":"ce4bhpp2rcd13ifvqhgg","pricing_plan_id":"cebpf4jnsgd1na2vs0mg"},{"bike_id":"5a5b52e9-924c-46ff-aaa6-4be503ec86d8","system_id":"levelo_inurba_marseille","lat":43.28845,"lon":5.39301,"is_reserved":false,"is_disabled":false,"rental_uris":{"android":"levelo://app?vid=5a5b52e9-924c-46ff-aaa6-4be503ec86d8","ios":"levelo://app?vid=5a5b52e9-924c-46ff-aaa6-4be503ec86d8"},"vehicle_type_id":"4","last_reported":1752783118,"current_range_meters":17600,"station_id":"ce4bh2p2rcd13ifvqdi0","pricing_plan_id":"cebpf4jnsgd1na2vs0mg"},{"bike_id":"ce40837d-3edf-4cc2-a747-2f8d4ee2c7fb","system_id":"levelo_inurba_marseille","lat":43.22477,"lon":5.34822,"is_reserved":false,"is_disabled":false,"rental_uris":{"android":"levelo://app?vid=ce40837d-3edf-4cc2-a747-2f8d4ee2c7fb","ios":"levelo://app?vid=ce40837d-3edf-4cc2-a747-2f8d4ee2c7fb"},"vehicle_type_id":"4","last_reported":1752783118,"current_range_meters":17600,"station_id":"st_cvj5dfep6f1abm77gieg","pricing_plan_id":"cebpf4jnsgd1na2vs0mg"},{"bike_id":"9e46aa88-7b19-47c3-b789-71b8902b53cb","system_id":"levelo_inurba_marseille","lat":43.28149,"lon":5.42625,"is_reserved":false,"is_disabled":false,"rental_uris":{"android":"levelo://app?vid=9e46aa88-7b19-47c3-b789-71b8902b53cb","ios":"levelo://app?vid=9e46aa88-7b19-47c3-b789-71b8902b53cb"},"vehicle_type_id":"4","last_reported":1752783118,"current_range_meters":17600,"station_id":"ce4bhnh2rcd13ifvqgug","pricing_plan_id":"cebpf4jnsgd1na2vs0mg"},{"bike_id":"27e5bac6-c46c-4d9d-a2be-5387a47dec56","system_id":"levelo_inurba_marseille","lat":43.30641,"lon":5.40093,"is_reserved":false,"is_disabled":false,"rental_uris":{"android":"levelo://app?vid=27e5bac6-c46c-4d9d-a2be-5387a47dec56","ios":"levelo://app?vid=27e5bac6-c46c-4d9d-a2be-5387a47dec56"},"vehicle_type_id":"4","last_reported":1752783118,"current_range_meters":17600,"station_id":"ce4bh112rcd13ifvqda0","pricing_plan_id":"cebpf4jnsgd1na2vs0mg"},{"bike_id":"8d1de1c4-7658-47e2-9e4d-b5a8578541ea","system_id":"levelo_inurba_marseille","lat":43.29643,"lon":5.37175,"is_reserved":false,"is_disabled":false,"rental_uris":{"android":"levelo://app?vid=8d1de1c4-7658-47e2-9e4d-b5a8578541ea","ios":"levelo://app?vid=8d1de1c4-7658-47e2-9e4d-b5a8578541ea"},"vehicle_type_id":"4","last_reported":1752783118,"current_range_meters":17600,"station_id":"ce4bgnh2rcd13ifvqc0g","pricing_plan_id":"cebpf4jnsgd1na2vs0mg"},{"bike_id":"ce7bd25b-5213-4881-a28b-f582e6a1d712","system_id":"levelo_inurba_marseille","lat":43.3137,"lon":5.36712,"is_reserved":false,"is_disabled":true,"rental_uris":{"android":"levelo://app?vid=ce7bd25b-5213-4881-a28b-f582e6a1d712","ios":"levelo://app?vid=ce7bd25b-5213-4881-a28b-f582e6a1d712"},"vehicle_type_id":"4","last_reported":1752783118,"current_range_meters":17600,"station_id":"ce4bgr92rcd13ifvqc6g","pricing_plan_id":"cebpf4jnsgd1na2vs0mg"},{"bike_id":"00cb9e03-8028-497f-8c29-77cd4bf2e8d6","system_id":"levelo_inurba_marseille","lat":43.28618,"lon":5.351,"is_reserved":false,"is_disabled":true,"rental_uris":{"android":"levelo://app?vid=00cb9e03-8028-497f-8c29-77cd4bf2e8d6","ios":"levelo://app?vid=00cb9e03-8028-497f-8c29-77cd4bf2e8d6"},"vehicle_type_id":"4","last_reported":1752783118,"current_range_meters":17600,"station_id":"ce4bhch2rcd13ifvqeug","pricing_plan_id":"cebpf4jnsgd1na2vs0mg"},{"bike_id":"5353e258-58f9-4a5f-8bbd-1d4a1c1d57f9","system_id":"levelo_inurba_marseille","lat":43.29604,"lon":5.38099,"is_reserved":false,"is_disabled":false,"rental_uris":{"android":"levelo://app?vid=5353e258-58f9-4a5f-8bbd-1d4a1c1d57f9","ios":"levelo://app?vid=5353e258-58f9-4a5f-8bbd-1d4a1c1d57f9"},"vehicle_type_id":"4","last_reported":1752783118,"current_range_meters":17600,"station_id":"ce4bgl12rcd13ifvqbo0","pricing_plan_id":"cebpf4jnsgd1na2vs0mg"},{"bike_id":"12717973-3258-43e4-91e2-6d6cc1b5725a","system_id":"levelo_inurba_marseille","lat":43.28922,"lon":5.383948,"is_reserved":false,"is_disabled":true,"rental_uris":{"android":"levelo://app?vid=12717973-3258-43e4-91e2-6d6cc1b5725a","ios":"levelo://app?vid=12717973-3258-43e4-91e2-6d6cc1b5725a"},"vehicle_type_id":"4","last_reported":1752783118,"current_range_meters":17600,"station_id":"ce4bh612rcd13ifvqe6g","pricing_plan_id":"cebpf4jnsgd1na2vs0mg"},{"bike_id":"fe0b7be1-fdb7-4ec0-89dd-b904725d2711","system_id":"levelo_inurba_marseille","lat":43.26059,"lon":5.39398,"is_reserved":false,"is_disabled":false,"rental_uris":{"android":"levelo://app?vid=fe0b7be1-fdb7-4ec0-89dd-b904725d2711","ios":"levelo://app?vid=fe0b7be1-fdb7-4ec0-89dd-b904725d2711"},"vehicle_type_id":"4","last_reported":1752783118,"current_range_meters":18000,"station_id":"ce4bhh92rcd13ifvqfj0","pricing_plan_id":"cebpf4jnsgd1na2vs0mg"},{"bike_id":"a5cad3ef-6474-4325-a6bd-f395ad734bbe","system_id":"levelo_inurba_marseille","lat":43.28942,"lon":5.36645,"is_reserved":false,"is_disabled":false,"rental_uris":{"android":"levelo://app?vid=a5cad3ef-6474-4325-a6bd-f395ad734bbe","ios":"levelo://app?vid=a5cad3ef-6474-4325-a6bd-f395ad734bbe"},"vehicle_type_id":"4","last_reported":1752783118,"current_range_meters":18000,"station_id":"ce4bhap2rcd13ifvqek0","pricing_plan_id":"cebpf4jnsgd1na2vs0mg"},{"bike_id":"5ce12e84-bd49-4bf6-afbc-41716fa886f7","system_id":"levelo_inurba_marseille","lat":43.25004,"lon":5.38925,"is_reserved":false,"is_disabled":false,"rental_uris":{"android":"levelo://app?vid=5ce12e84-bd49-4bf6-afbc-41716fa886f7","ios":"levelo://app?vid=5ce12e84-bd49-4bf6-afbc-41716fa886f7"},"vehicle_type_id":"4","last_reported":1752783118,"current_range_meters":18000,"station_id":"ce4bhgp2rcd13ifvqfd0","pricing_plan_id":"cebpf4jnsgd1na2vs0mg"},{"bike_id":"ac0ed4be-466c-4caa-b855-3c6bbe5a11b5","system_id":"levelo_inurba_marseille","lat":43.26763,"lon":5.37179,"is_reserved":false,"is_disabled":false,"rental_uris":{"android":"levelo://app?vid=ac0ed4be-466c-4caa-b855-3c6bbe5a11b5","ios":"levelo://app?vid=ac0ed4be-466c-4caa-b855-3c6bbe5a11b5"},"vehicle_type_id":"4","last_reported":1752783118,"current_range_meters":18000,"station_id":"","pricing_plan_id":"cebpf4jnsgd1na2vs0mg"},{"bike_id":"f310b61a-0922-4b58-99ec-3c007edcb4df","system_id":"levelo_inurba_marseille","lat":43.27843,"lon":5.39627,"is_reserved":false,"is_disabled":false,"rental_uris":{"android":"levelo://app?vid=f310b61a-0922-4b58-99ec-3c007edcb4df","ios":"levelo://app?vid=f310b61a-0922-4b58-99ec-3c007edcb4df"},"vehicle_type_id":"4","last_reported":1752783118,"current_range_meters":18000,"station_id":"","pricing_plan_id":"cebpf4jnsgd1na2vs0mg"},{"bike_id":"9399c63b-6dcc-483a-87d6-8068d4a236b5","system_id":"levelo_inurba_marseille","lat":43.286,"lon":5.35142,"is_reserved":false,"is_disabled":false,"rental_uris":{"android":"levelo://app?vid=9399c63b-6dcc-483a-87d6-8068d4a236b5","ios":"levelo://app?vid=9399c63b-6dcc-483a-87d6-8068d4a236b5"},"vehicle_type_id":"4","last_reported":1752783118,"current_range_meters":18000,"station_id":"ce4bhch2rcd13ifvqeug","pricing_plan_id":"cebpf4jnsgd1na2vs0mg"},{"bike_id":"ba007438-932e-481a-8ed9-fea12d87305a","system_id":"levelo_inurba_marseille","lat":43.29652,"lon":5.3628,"is_reserved":false,"is_disabled":false,"rental_uris":{"android":"levelo://app?vid=ba007438-932e-481a-8ed9-fea12d87305a","ios":"levelo://app?vid=ba007438-932e-481a-8ed9-fea12d87305a"},"vehicle_type_id":"4","last_reported":1752783118,"current_range_meters":18000,"station_id":"","pricing_plan_id":"cebpf4jnsgd1na2vs0mg"},{"bike_id":"efed4cf7-405f-4996-8f6a-62d2b762985e","system_id":"levelo_inurba_marseille","lat":43.29265,"lon":5.38422,"is_reserved":false,"is_disabled":false,"rental_uris":{"android":"levelo://app?vid=efed4cf7-405f-4996-8f6a-62d2b762985e","ios":"levelo://app?vid=efed4cf7-405f-4996-8f6a-62d2b762985e"},"vehicle_type_id":"4","last_reported":1752783118,"current_range_meters":18000,"station_id":"ce4bh692rcd13ifvqea0","pricing_plan_id":"cebpf4jnsgd1na2vs0mg"},{"bike_id":"9ff20376-409c-4158-a4c4-3f4412e0aaa7","system_id":"levelo_inurba_marseille","lat":43.29264,"lon":5.38422,"is_reserved":false,"is_disabled":false,"rental_uris":{"android":"levelo://app?vid=9ff20376-409c-4158-a4c4-3f4412e0aaa7","ios":"levelo://app?vid=9ff20376-409c-4158-a4c4-3f4412e0aaa7"},"vehicle_type_id":"4","last_reported":1752783118,"current_range_meters":18000,"station_id":"ce4bh692rcd13ifvqea0","pricing_plan_id":"cebpf4jnsgd1na2vs0mg"},{"bike_id":"5ec81368-da44-47eb-8865-045ca82a4dcd","system_id":"levelo_inurba_marseille","lat":43.2923,"lon":5.38421,"is_reserved":false,"is_disabled":false,"rental_uris":{"android":"levelo://app?vid=5ec81368-da44-47eb-8865-045ca82a4dcd","ios":"levelo://app?vid=5ec81368-da44-47eb-8865-045ca82a4dcd"},"vehicle_type_id":"4","last_reported":1752783118,"current_range_meters":18000,"station_id":"ce4bh692rcd13ifvqea0","pricing_plan_id":"cebpf4jnsgd1na2vs0mg"},{"bike_id":"1fa6e47a-247c-43f3-a2d5-2457ee6c5d39","system_id":"levelo_inurba_marseille","lat":43.21192,"lon":5.35075,"is_reserved":false,"is_disabled":false,"rental_uris":{"android":"levelo://app?vid=1fa6e47a-247c-43f3-a2d5-2457ee6c5d39","ios":"levelo://app?vid=1fa6e47a-247c-43f3-a2d5-2457ee6c5d39"},"vehicle_type_id":"4","last_reported":1752783118,"current_range_meters":18000,"station_id":"st_cvj6sg6p6f1abm77japg","pricing_plan_id":"cebpf4jnsgd1na2vs0mg"},{"bike_id":"d4ccdfae-9719-4f1b-8277-9fe3b9bb995c","system_id":"levelo_inurba_marseille","lat":43.26954,"lon":5.38634,"is_reserved":false,"is_disabled":false,"rental_uris":{"android":"levelo://app?vid=d4ccdfae-9719-4f1b-8277-9fe3b9bb995c","ios":"levelo://app?vid=d4ccdfae-9719-4f1b-8277-9fe3b9bb995c"},"vehicle_type_id":"4","last_reported":1752783118,"current_range_meters":18000,"station_id":"ce4bhh92rcd13ifvqfh0","pricing_plan_id":"cebpf4jnsgd1na2vs0mg"},{"bike_id":"ab40eab5-f236-4422-a5a5-b90da08304bc","system_id":"levelo_inurba_marseille","lat":43.30669,"lon":5.37164,"is_reserved":false,"is_disabled":false,"rental_uris":{"android":"levelo://app?vid=ab40eab5-f236-4422-a5a5-b90da08304bc","ios":"levelo://app?vid=ab40eab5-f236-4422-a5a5-b90da08304bc"},"vehicle_type_id":"4","last_reported":1752783118,"current_range_meters":18000,"station_id":"","pricing_plan_id":"cebpf4jnsgd1na2vs0mg"},{"bike_id":"cfb52d04-9134-4c86-8269-771716b20f27","system_id":"levelo_inurba_marseille","lat":43.211926,"lon":5.350705,"is_reserved":false,"is_disabled":false,"rental_uris":{"android":"levelo://app?vid=cfb52d04-9134-4c86-8269-771716b20f27","ios":"levelo://app?vid=cfb52d04-9134-4c86-8269-771716b20f27"},"vehicle_type_id":"4","last_reported":1752783118,"current_range_meters":18000,"station_id":"st_cvj6sg6p6f1abm77japg","pricing_plan_id":"cebpf4jnsgd1na2vs0mg"},{"bike_id":"612802c2-1df6-4193-9b4f-4f54faca8f56","system_id":"levelo_inurba_marseille","lat":43.30597,"lon":5.39363,"is_reserved":false,"is_disabled":false,"rental_uris":{"android":"levelo://app?vid=612802c2-1df6-4193-9b4f-4f54faca8f56","ios":"levelo://app?vid=612802c2-1df6-4193-9b4f-4f54faca8f56"},"vehicle_type_id":"4","last_reported":1752783118,"current_range_meters":18000,"station_id":"ce4bh0p2rcd13ifvqd80","pricing_plan_id":"cebpf4jnsgd1na2vs0mg"},{"bike_id":"fbdbbc69-f5d2-4310-8cce-08a69cc26ff4","system_id":"levelo_inurba_marseille","lat":43.29311,"lon":5.37162,"is_reserved":false,"is_disabled":false,"rental_uris":{"android":"levelo://app?vid=fbdbbc69-f5d2-4310-8cce-08a69cc26ff4","ios":"levelo://app?vid=fbdbbc69-f5d2-4310-8cce-08a69cc26ff4"},"vehicle_type_id":"4","last_reported":1752783118,"current_range_meters":18800,"station_id":"ce4bgh92rcd13ifvqb40","pricing_plan_id":"cebpf4jnsgd1na2vs0mg"},{"bike_id":"2d95b47d-d06f-40a4-bb6e-c13e954e3c8f","system_id":"levelo_inurba_marseille","lat":43.27735,"lon":5.41399,"is_reserved":false,"is_disabled":false,"rental_uris":{"android":"levelo://app?vid=2d95b47d-d06f-40a4-bb6e-c13e954e3c8f","ios":"levelo://app?vid=2d95b47d-d06f-40a4-bb6e-c13e954e3c8f"},"vehicle_type_id":"4","last_reported":1752783118,"current_range_meters":18800,"station_id":"","pricing_plan_id":"cebpf4jnsgd1na2vs0mg"},{"bike_id":"2b82c353-a948-4c1b-8605-358eb5c90c76","system_id":"levelo_inurba_marseille","lat":43.30738,"lon":5.42437,"is_reserved":false,"is_disabled":false,"rental_uris":{"android":"levelo://app?vid=2b82c353-a948-4c1b-8605-358eb5c90c76","ios":"levelo://app?vid=2b82c353-a948-4c1b-8605-358eb5c90c76"},"vehicle_type_id":"4","last_reported":1752783118,"current_range_meters":18800,"station_id":"st_cvj6ca6bvosntc0bfgr0","pricing_plan_id":"cebpf4jnsgd1na2vs0mg"},{"bike_id":"b24c405d-5e3e-4ef7-8830-b534faa50e30","system_id":"levelo_inurba_marseille","lat":43.29533,"lon":5.38542,"is_reserved":false,"is_disabled":false,"rental_uris":{"android":"levelo://app?vid=b24c405d-5e3e-4ef7-8830-b534faa50e30","ios":"levelo://app?vid=b24c405d-5e3e-4ef7-8830-b534faa50e30"},"vehicle_type_id":"4","last_reported":1752783118,"current_range_meters":18800,"station_id":"ce4bgih2rcd13ifvqba0","pricing_plan_id":"cebpf4jnsgd1na2vs0mg"},{"bike_id":"f5f0a488-a9d3-443e-bcad-58781462099e","system_id":"levelo_inurba_marseille","lat":43.29784,"lon":5.38079,"is_reserved":false,"is_disabled":false,"rental_uris":{"android":"levelo://app?vid=f5f0a488-a9d3-443e-bcad-58781462099e","ios":"levelo://app?vid=f5f0a488-a9d3-443e-bcad-58781462099e"},