{"last_updated":1703156768,"ttl":30,"version":"2.2","data":{"bikes":[{"bike_id":"0f4cc70e-ce1e-4e82-a66e-5588a43de74a","system_id":"levelo_inurba_marseille","lat":43.313391,"lon":5.36706,"is_reserved":false,"is_disabled":false,"rental_uris":{"android":"levelo://app?vid=0f4cc70e-ce1e-4e82-a66e-5588a43de74a","ios":"levelo://app?vid=0f4cc70e-ce1e-4e82-a66e-5588a43de74a"},"vehicle_type_id":"4","last_reported":1703156768,"current_range_meters":31600,"station_id":"ce4bgr92rcd13ifvqc6g","pricing_plan_id":"free"},{"bike_id":"6cbd72cd-31ae-4016-a8ae-21818b385590","system_id":"levelo_inurba_marseille","lat":43.31341,"lon":5.367098,"is_reserved":false,"is_disabled":false,"rental_uris":{"android":"levelo://app?vid=6cbd72cd-31ae-4016-a8ae-21818b385590","ios":"levelo://app?vid=6cbd72cd-31ae-4016-a8ae-21818b385590"},"vehicle_type_id":"4","last_reported":1703156768,"current_range_meters":24400,"station_id":"ce4bgr92rcd13ifvqc6g","pricing_plan_id":"free"},{"bike_id":"a10e181f-a198-45a5-b95a-2c762cb5e61a","system_id":"levelo_inurba_marseille","lat":43.31341,"lon":5.367098,"is_reserved":false,"is_disabled":false,"rental_uris":{"android":"levelo://app?vid=a10e181f-a198-45a5-b95a-2c762cb5e61a","ios":"levelo://app?vid=a10e181f-a198-45a5-b95a-2c762cb5e61a"},"vehicle_type_id":"4","last_reported":1703156768,"current_range_meters":22400,"station_id":"ce4bgr92rcd13ifvqc6g","pricing_plan_id":"free"},{"bike_id":"c32e3021-2d39-45a9-8f5c-43c0f9699d07","system_id":"levelo_inurba_marseille","lat":43.313391,"lon":5.36706,"is_reserved":false,"is_disabled":false,"rental_uris":{"android":"levelo://app?vid=c32e3021-2d39-45a9-8f5c-43c0f9699d07","ios":"levelo://app?vid=c32e3021-2d39-45a9-8f5c-43c0f9699d07"},"vehicle_type_id":"4","last_reported":1703156768,"current_range_meters":24000,"station_id":"ce4bgr92rcd13ifvqc6g","pricing_plan_id":"free"},{"bike_id":"01e8188e-a813-4a19-b955-6b9bcc876833","system_id":"levelo_inurba_marseille","lat":43.313391,"lon":5.36706,"is_reserved":false,"is_disabled":false,"rental_uris":{"android":"levelo://app?vid=01e8188e-a813-4a19-b955-6b9bcc876833","ios":"levelo://app?vid=01e8188e-a813-4a19-b955-6b9bcc876833"},"vehicle_type_id":"4","last_reported":1703156768,"current_range_meters":11200,"station_id":"ce4bgr92rcd13ifvqc6g","pricing_plan_id":"free"},{"bike_id":"58d3b9e0-6402-4a47-b126-d305d66a04b8","system_id":"levelo_inurba_marseille","lat":43.313391,"lon":5.36706,"is_reserved":false,"is_disabled":false,"rental_uris":{"android":"levelo://app?vid=58d3b9e0-6402-4a47-b126-d305d66a04b8","ios":"levelo://app?vid=58d3b9e0-6402-4a47-b126-d305d66a04b8"},"vehicle_type_id":"4","last_reported":1703156768,"current_range_meters":26800,"station_id":"ce4bgr92rcd13ifvqc6g","pricing_plan_id":"free"},{"bike_id":"0ca656c3-1664-4e62-96d4-7a9cfeb5aa3f","system_id":"levelo_inurba_marseille","lat":43.313391,"lon":5.36706,"is_reserved":false,"is_disabled":false,"rental_uris":{"android":"levelo://app?vid=0ca656c3-1664-4e62-96d4-7a9cfeb5aa3f","ios":"levelo://app?vid=0ca656c3-1664-4e62-96d4-7a9cfeb5aa3f"},"vehicle_type_id":"4","last_reported":1703156768,"current_range_meters":21600,"station_id":"ce4bgr92rcd13ifvqc6g","pricing_plan_id":"free"},{"bike_id":"863d1d39-2b2c-4c20-9587-ed3879c48410","system_id":"levelo_inurba_marseille","lat":43.313391,"lon":5.36706,"is_reserved":false,"is_disabled":false,"rental_uris":{"android":"levelo://app?vid=863d1d39-2b2c-4c20-9587-ed3879c48410","ios":"levelo://app?vid=863d1d39-2b2c-4c20-9587-ed3879c48410"},"vehicle_type_id":"4","last_reported":1703156768,"current_range_meters":20800,"station_id":"ce4bgr92rcd13ifvqc6g","pricing_plan_id":"free"},{"bike_id":"9c4bed50-4c08-46fb-9163-9ec5afa45ff6","system_id":"levelo_inurba_marseille","lat":43.313391,"lon":5.36706,"is_reserved":false,"is_disabled":false,"rental_uris":{"android":"levelo://app?vid=9c4bed50-4c08-46fb-9163-9ec5afa45ff6","ios":"levelo://app?vid=9c4bed50-4c08-46fb-9163-9ec5afa45ff6"},"vehicle_type_id":"4","last_reported":1703156768,"current_range_meters":0,"station_id":"ce4bgr92rcd13ifvqc6g","pricing_plan_id":"free"},{"bike_id":"9e8522a6-8d12-4a90-a6fc-5f975dcf5153","system_id":"levelo_inurba_marseille","lat":43.313391,"lon":5.36706,"is_reserved":false,"is_disabled":false,"rental_uris":{"android":"levelo://app?vid=9e8522a6-8d12-4a90-a6fc-5f975dcf5153","ios":"levelo://app?vid=9e8522a6-8d12-4a90-a6fc-5f975dcf5153"},"vehicle_type_id":"4","last_reported":1703156768,"current_range_meters":20400,"station_id":"ce4bgr92rcd13ifvqc6g","pricing_plan_id":"free"},{"bike_id":"0f877e39-0671-47e1-bc9c-1ec99ea40997","system_id":"levelo_inurba_marseille","lat":43.312239,"lon":5.368562,"is_reserved":false,"is_disabled":false,"rental_uris":{"android":"levelo://app?vid=0f877e39-0671-47e1-bc9c-1ec99ea40997","ios":"levelo://app?vid=0f877e39-0671-47e1-bc9c-1ec99ea40997"},"vehicle_type_id":"4","last_reported":1703156768,"current_range_meters":20400,"station_id":"ce4bgl92rcd13ifvqbq0","pricing_plan_id":"free"},{"bike_id":"ee707e06-b9ed-4ebc-9ba5-d7e4c3505a7d","system_id":"levelo_inurba_marseille","lat":43.309076,"lon":5.368465,"is_reserved":false,"is_disabled":false,"rental_uris":{"android":"levelo://app?vid=ee707e06-b9ed-4ebc-9ba5-d7e4c3505a7d","ios":"levelo://app?vid=ee707e06-b9ed-4ebc-9ba5-d7e4c3505a7d"},"vehicle_type_id":"4","last_reported":1703156768,"current_range_meters":28400,"station_id":"ce4bgn92rcd13ifvqbvg","pricing_plan_id":"free"},{"bike_id":"5d5d4789-8f06-4ef4-9d08-2c13f4cd452c","system_id":"levelo_inurba_marseille","lat":43.309076,"lon":5.368465,"is_reserved":false,"is_disabled":false,"rental_uris":{"android":"levelo://app?vid=5d5d4789-8f06-4ef4-9d08-2c13f4cd452c","ios":"levelo://app?vid=5d5d4789-8f06-4ef4-9d08-2c13f4cd452c"},"vehicle_type_id":"4","last_reported":1703156768,"current_range_meters":9600,"station_id":"ce4bgn92rcd13ifvqbvg","pricing_plan_id":"free"},{"bike_id":"9610fd63-0e45-4cc8-85a9-ff3c4789afda","system_id":"levelo_inurba_marseille","lat":43.309076,"lon":5.368465,"is_reserved":false,"is_disabled":false,"rental_uris":{"android":"levelo://app?vid=9610fd63-0e45-4cc8-85a9-ff3c4789afda","ios":"levelo://app?vid=9610fd63-0e45-4cc8-85a9-ff3c4789afda"},"vehicle_type_id":"4","last_reported":1703156768,"current_range_meters":31600,"station_id":"ce4bgn92rcd13ifvqbvg","pricing_plan_id":"free"},{"bike_id":"6af4a1d2-c218-4b41-b48f-e5f6af338f1a","system_id":"levelo_inurba_marseille","lat":43.309076,"lon":5.368465,"is_reserved":false,"is_disabled":false,"rental_uris":{"android":"levelo://app?vid=6af4a1d2-c218-4b41-b48f-e5f6af338f1a","ios":"levelo://app?vid=6af4a1d2-c218-4b41-b48f-e5f6af338f1a"},"vehicle_type_id":"4","last_reported":1703156768,"current_range_meters":30400,"station_id":"ce4bgn92rcd13ifvqbvg","pricing_plan_id":"free"},{"bike_id":"9fb2f0e0-18aa-48c6-81c8-1f4a120422f4","system_id":"levelo_inurba_marseille","lat":43.309076,"lon":5.368465,"is_reserved":false,"is_disabled":false,"rental_uris":{"android":"levelo://app?vid=9fb2f0e0-18aa-48c6-81c8-1f4a120422f4","ios":"levelo://app?vid=9fb2f0e0-18aa-48c6-81c8-1f4a120422f4"},"vehicle_type_id":"4","last_reported":1703156768,"current_range_meters":30000,"station_id":"ce4bgn92rcd13ifvqbvg","pricing_plan_id":"free"},{"bike_id":"24072cf2-13c7-4dd0-8928-1a83df1d8e51","system_id":"levelo_inurba_marseille","lat":43.314811,"lon":5.373103,"is_reserved":false,"is_disabled":false,"rental_uris":{"android":"levelo://app?vid=24072cf2-13c7-4dd0-8928-1a83df1d8e51","ios":"levelo://app?vid=24072cf2-13c7-4dd0-8928-1a83df1d8e51"},"vehicle_type_id":"4","last_reported":1703156768,"current_range_meters":22000,"station_id":"ce4bgt12rcd13ifvqcd0","pricing_plan_id":"free"},{"bike_id":"1b5649e3-7852-4147-b5ea-041770351b7c","system_id":"levelo_inurba_marseille","lat":43.309039,"lon":5.371797,"is_reserved":false,"is_disabled":false,"rental_uris":{"android":"levelo://app?vid=1b5649e3-7852-4147-b5ea-041770351b7c","ios":"levelo://app?vid=1b5649e3-7852-4147-b5ea-041770351b7c"},"vehicle_type_id":"4","last_reported":1703156768,"current_range_meters":16000,"station_id":"ce4bguh2rcd13ifvqckg","pricing_plan_id":"free"},{"bike_id":"59e36ea4-c803-480a-b568-594e51839d20","system_id":"levelo_inurba_marseille","lat":43.305712,"lon":5.365641,"is_reserved":false,"is_disabled":false,"rental_uris":{"android":"levelo://app?vid=59e36ea4-c803-480a-b568-594e51839d20","ios":"levelo://app?vid=59e36ea4-c803-480a-b568-594e51839d20"},"vehicle_type_id":"4","last_reported":1703156768,"current_range_meters":8800,"station_id":"ce4bgs12rcd13ifvqcag","pricing_plan_id":"free"},{"bike_id":"2c7b1a1a-f67e-4633-93bf-2bcd60210142","system_id":"levelo_inurba_marseille","lat":43.305712,"lon":5.365641,"is_reserved":false,"is_disabled":false,"rental_uris":{"android":"levelo://app?vid=2c7b1a1a-f67e-4633-93bf-2bcd60210142","ios":"levelo://app?vid=2c7b1a1a-f67e-4633-93bf-2bcd60210142"},"vehicle_type_id":"4","last_reported":1703156768,"current_range_meters":27600,"station_id":"ce4bgs12rcd13ifvqcag","pricing_plan_id":"free"},{"bike_id":"d2b7c784-4584-4ab1-8b87-c962789eea32","system_id":"levelo_inurba_marseille","lat":43.30549,"lon":5.36564,"is_reserved":false,"is_disabled":false,"rental_uris":{"android":"levelo://app?vid=d2b7c784-4584-4ab1-8b87-c962789eea32","ios":"levelo://app?vid=d2b7c784-4584-4ab1-8b87-c962789eea32"},"vehicle_type_id":"4","last_reported":1703156768,"current_range_meters":24800,"station_id":"ce4bgs12rcd13ifvqcag","pricing_plan_id":"free"},{"bike_id":"77e684ab-1748-4e3f-a9ee-7352b6d17e4c","system_id":"levelo_inurba_marseille","lat":43.30543,"lon":5.36549,"is_reserved":false,"is_disabled":false,"rental_uris":{"android":"levelo://app?vid=77e684ab-1748-4e3f-a9ee-7352b6d17e4c","ios":"levelo://app?vid=77e684ab-1748-4e3f-a9ee-7352b6d17e4c"},"vehicle_type_id":"4","last_reported":1703156768,"current_range_meters":19600,"station_id":"ce4bgs12rcd13ifvqcag","pricing_plan_id":"free"},{"bike_id":"52a98006-4d2a-4dde-8525-b5f89dcc2730","system_id":"levelo_inurba_marseille","lat":43.305435,"lon":5.365418,"is_reserved":false,"is_disabled":false,"rental_uris":{"android":"levelo://app?vid=52a98006-4d2a-4dde-8525-b5f89dcc2730","ios":"levelo://app?vid=52a98006-4d2a-4dde-8525-b5f89dcc2730"},"vehicle_type_id":"4","last_reported":1703156768,"current_range_meters":26800,"station_id":"ce4bgs12rcd13ifvqcag","pricing_plan_id":"free"},{"bike_id":"3b889af7-a29d-437b-9dae-21d150b3c58a","system_id":"levelo_inurba_marseille","lat":43.305411,"lon":5.365282,"is_reserved":false,"is_disabled":false,"rental_uris":{"android":"levelo://app?vid=3b889af7-a29d-437b-9dae-21d150b3c58a","ios":"levelo://app?vid=3b889af7-a29d-437b-9dae-21d150b3c58a"},"vehicle_type_id":"4","last_reported":1703156768,"current_range_meters":27600,"station_id":"ce4bgs12rcd13ifvqcag","pricing_plan_id":"free"},{"bike_id":"2bd707cd-b871-4078-a3bf-6e5d985e7b45","system_id":"levelo_inurba_marseille","lat":43.305706,"lon":5.365654,"is_reserved":false,"is_disabled":false,"rental_uris":{"android":"levelo://app?vid=2bd707cd-b871-4078-a3bf-6e5d985e7b45","ios":"levelo://app?vid=2bd707cd-b871-4078-a3bf-6e5d985e7b45"},"vehicle_type_id":"4","last_reported":1703156768,"current_range_meters":31200,"station_id":"ce4bgs12rcd13ifvqcag","pricing_plan_id":"free"},{"bike_id":"24198953-b0c1-48a6-b109-5f6c5958ea32","system_id":"levelo_inurba_marseille","lat":43.305706,"lon":5.365654,"is_reserved":false,"is_disabled":false,"rental_uris":{"android":"levelo://app?vid=24198953-b0c1-48a6-b109-5f6c5958ea32","ios":"levelo://app?vid=24198953-b0c1-48a6-b109-5f6c5958ea32"},"vehicle_type_id":"4","last_reported":1703156768,"current_range_meters":25600,"station_id":"ce4bgs12rcd13ifvqcag","pricing_plan_id":"free"},{"bike_id":"4bfd1333-d4fd-49dd-988d-174efc245730","system_id":"levelo_inurba_marseille","lat":43.30537,"lon":5.36532,"is_reserved":false,"is_disabled":false,"rental_uris":{"android":"levelo://app?vid=4bfd1333-d4fd-49dd-988d-174efc245730","ios":"levelo://app?vid=4bfd1333-d4fd-49dd-988d-174efc245730"},"vehicle_type_id":"4","last_reported":1703156768,"current_range_meters":8000,"station_id":"ce4bgs12rcd13ifvqcag","pricing_plan_id":"free"},{"bike_id":"55c7e0e6-70ff-4dcc-8e80-f76823d81cd6","system_id":"levelo_inurba_marseille","lat":43.305368,"lon":5.367343,"is_reserved":false,"is_disabled":false,"rental_uris":{"android":"levelo://app?vid=55c7e0e6-70ff-4dcc-8e80-f76823d81cd6","ios":"levelo://app?vid=55c7e0e6-70ff-4dcc-8e80-f76823d81cd6"},"vehicle_type_id":"4","last_reported":1703156768,"current_range_meters":20800,"station_id":"ce4bgrp2rcd13ifvqc9g","pricing_plan_id":"free"},{"bike_id":"00025df9-d908-4484-89e5-3b00ebffb2ad","system_id":"levelo_inurba_marseille","lat":43.305706,"lon":5.365654,"is_reserved":false,"is_disabled":false,"rental_uris":{"android":"levelo://app?vid=00025df9-d908-4484-89e5-3b00ebffb2ad","ios":"levelo://app?vid=00025df9-d908-4484-89e5-3b00ebffb2ad"},"vehicle_type_id":"4","last_reported":1703156768,"current_range_meters":9600,"station_id":"ce4bgs12rcd13ifvqcag","pricing_plan_id":"free"},{"bike_id":"dae571e3-c946-40a6-8a1a-93d1dcdc2ca0","system_id":"levelo_inurba_marseille","lat":43.305706,"lon":5.365654,"is_reserved":false,"is_disabled":false,"rental_uris":{"android":"levelo://app?vid=dae571e3-c946-40a6-8a1a-93d1dcdc2ca0","ios":"levelo://app?vid=dae571e3-c946-40a6-8a1a-93d1dcdc2ca0"},"vehicle_type_id":"4","last_reported":1703156768,"current_range_meters":26400,"station_id":"ce4bgs12rcd13ifvqcag","pricing_plan_id":"free"},{"bike_id":"e4651f1c-0e33-4d3a-a2f4-4fe670884c1e","system_id":"levelo_inurba_marseille","lat":43.305368,"lon":5.367343,"is_reserved":false,"is_disabled":false,"rental_uris":{"android":"levelo://app?vid=e4651f1c-0e33-4d3a-a2f4-4fe670884c1e","ios":"levelo://app?vid=e4651f1c-0e33-4d3a-a2f4-4fe670884c1e"},"vehicle_type_id":"4","last_reported":1703156768,"current_range_meters":10400,"station_id":"ce4bgrp2rcd13ifvqc9g","pricing_plan_id":"free"},{"bike_id":"a70a89dd-b8bf-4888-9b25-af4f2896cb63","system_id":"levelo_inurba_marseille","lat":43.305706,"lon":5.365654,"is_reserved":false,"is_disabled":false,"rental_uris":{"android":"levelo://app?vid=a70a89dd-b8bf-4888-9b25-af4f2896cb63","ios":"levelo://app?vid=a70a89dd-b8bf-4888-9b25-af4f2896cb63"},"vehicle_type_id":"4","last_reported":1703156768,"current_range_meters":6400,"station_id":"ce4bgs12rcd13ifvqcag","pricing_plan_id":"free"},{"bike_id":"c9d0122a-6b42-40f5-97c4-0904d724d9ec","system_id":"levelo_inurba_marseille","lat":43.305706,"lon":5.365654,"is_reserved":false,"is_disabled":false,"rental_uris":{"android":"levelo://app?vid=c9d0122a-6b42-40f5-97c4-0904d724d9ec","ios":"levelo://app?vid=c9d0122a-6b42-40f5-97c4-0904d724d9ec"},"vehicle_type_id":"4","last_reported":1703156768,"current_range_meters":24400,"station_id":"ce4bgs12rcd13ifvqcag","pricing_plan_id":"free"},{"bike_id":"18171d1a-eaa0-403c-8f6e-6cd57e374d11","system_id":"levelo_inurba_marseille","lat":43.305706,"lon":5.365654,"is_reserved":false,"is_disabled":false,"rental_uris":{"android":"levelo://app?vid=18171d1a-eaa0-403c-8f6e-6cd57e374d11","ios":"levelo://app?vid=18171d1a-eaa0-403c-8f6e-6cd57e374d11"},"vehicle_type_id":"4","last_reported":1703156768,"current_range_meters":24800,"station_id":"ce4bgs12rcd13ifvqcag","pricing_plan_id":"free"},{"bike_id":"9d46b7a0-b3f2-4495-a8a2-61cf6a2662f1","system_id":"levelo_inurba_marseille","lat":43.305706,"lon":5.365654,"is_reserved":false,"is_disabled":false,"rental_uris":{"android":"levelo://app?vid=9d46b7a0-b3f2-4495-a8a2-61cf6a2662f1","ios":"levelo://app?vid=9d46b7a0-b3f2-4495-a8a2-61cf6a2662f1"},"vehicle_type_id":"4","last_reported":1703156768,"current_range_meters":28800,"station_id":"ce4bgs12rcd13ifvqcag","pricing_plan_id":"free"},{"bike_id":"dbed54b7-24b8-410f-96e1-acc1e1eb8e42","system_id":"levelo_inurba_marseille","lat":43.305706,"lon":5.365654,"is_reserved":false,"is_disabled":false,"rental_uris":{"android":"levelo://app?vid=dbed54b7-24b8-410f-96e1-acc1e1eb8e42","ios":"levelo://app?vid=dbed54b7-24b8-410f-96e1-acc1e1eb8e42"},"vehicle_type_id":"4","last_reported":1703156768,"current_range_meters":31600,"station_id":"ce4bgs12rcd13ifvqcag","pricing_plan_id":"free"},{"bike_id":"cf7737c8-5152-4523-bcc2-8a2e6f2bc066","system_id":"levelo_inurba_marseille","lat":43.305989,"lon":5.37225,"is_reserved":false,"is_disabled":false,"rental_uris":{"android":"levelo://app?vid=cf7737c8-5152-4523-bcc2-8a2e6f2bc066","ios":"levelo://app?vid=cf7737c8-5152-4523-bcc2-8a2e6f2bc066"},"vehicle_type_id":"4","last_reported":1703156768,"current_range_meters":30000,"station_id":"ce4bgqh2rcd13ifvqc4g","pricing_plan_id":"free"},{"bike_id":"8df4c882-772a-43b3-b7c2-3f879f656c2a","system_id":"levelo_inurba_marseille","lat":43.305989,"lon":5.37225,"is_reserved":false,"is_disabled":false,"rental_uris":{"android":"levelo://app?vid=8df4c882-772a-43b3-b7c2-3f879f656c2a","ios":"levelo://app?vid=8df4c882-772a-43b3-b7c2-3f879f656c2a"},"vehicle_type_id":"4","last_reported":1703156768,"current_range_meters":18400,"station_id":"ce4bgqh2rcd13ifvqc4g","pricing_plan_id":"free"},{"bike_id":"b147276e-f4b1-4a46-a447-6ff61a28eb33","system_id":"levelo_inurba_marseille","lat":43.311131,"lon":5.377651,"is_reserved":false,"is_disabled":false,"rental_uris":{"android":"levelo://app?vid=b147276e-f4b1-4a46-a447-6ff61a28eb33","ios":"levelo://app?vid=b147276e-f4b1-4a46-a447-6ff61a28eb33"},"vehicle_type_id":"4","last_reported":1703156768,"current_range_meters":21600,"station_id":"ce4bgt92rcd13ifvqcg0","pricing_plan_id":"free"},{"bike_id":"390652b0-9429-4a84-8dc0-486275ae3e7b","system_id":"levelo_inurba_marseille","lat":43.311131,"lon":5.377651,"is_reserved":false,"is_disabled":false,"rental_uris":{"android":"levelo://app?vid=390652b0-9429-4a84-8dc0-486275ae3e7b","ios":"levelo://app?vid=390652b0-9429-4a84-8dc0-486275ae3e7b"},"vehicle_type_id":"4","last_reported":1703156768,"current_range_meters":13600,"station_id":"ce4bgt92rcd13ifvqcg0","pricing_plan_id":"free"},{"bike_id":"5fadf607-6899-4aae-bd1d-4111e22fa940","system_id":"levelo_inurba_marseille","lat":43.311125,"lon":5.377624,"is_reserved":false,"is_disabled":false,"rental_uris":{"android":"levelo://app?vid=5fadf607-6899-4aae-bd1d-4111e22fa940","ios":"levelo://app?vid=5fadf607-6899-4aae-bd1d-4111e22fa940"},"vehicle_type_id":"4","last_reported":1703156768,"current_range_meters":26400,"station_id":"ce4bgt92rcd13ifvqcg0","pricing_plan_id":"free"},{"bike_id":"3942969e-b612-401c-8e3f-a1da6c1ac677","system_id":"levelo_inurba_marseille","lat":43.307945,"lon":5.376487,"is_reserved":false,"is_disabled":false,"rental_uris":{"android":"levelo://app?vid=3942969e-b612-401c-8e3f-a1da6c1ac677","ios":"levelo://app?vid=3942969e-b612-401c-8e3f-a1da6c1ac677"},"vehicle_type_id":"4","last_reported":1703156768,"current_range_meters":29200,"station_id":"ce4bgv92rcd13ifvqcq0","pricing_plan_id":"free"},{"bike_id":"bc2c7bf7-22be-4f94-87bc-06a35545ca4f","system_id":"levelo_inurba_marseille","lat":43.303046,"lon":5.368981,"is_reserved":false,"is_disabled":false,"rental_uris":{"android":"levelo://app?vid=bc2c7bf7-22be-4f94-87bc-06a35545ca4f","ios":"levelo://app?vid=bc2c7bf7-22be-4f94-87bc-06a35545ca4f"},"vehicle_type_id":"4","last_reported":1703156768,"current_range_meters":27600,"station_id":"ce4bgqh2rcd13ifvqc5g","pricing_plan_id":"free"},{"bike_id":"030b902e-b3d2-485c-8dfc-5476ebc90298","system_id":"levelo_inurba_marseille","lat":43.303046,"lon":5.368981,"is_reserved":false,"is_disabled":false,"rental_uris":{"android":"levelo://app?vid=030b902e-b3d2-485c-8dfc-5476ebc90298","ios":"levelo://app?vid=030b902e-b3d2-485c-8dfc-5476ebc90298"},"vehicle_type_id":"4","last_reported":1703156768,"current_range_meters":16000,"station_id":"ce4bgqh2rcd13ifvqc5g","pricing_plan_id":"free"},{"bike_id":"0f29f9fc-ade1-445d-ba8d-4631c9525c9b","system_id":"levelo_inurba_marseille","lat":43.30639,"lon":5.37998,"is_reserved":false,"is_disabled":false,"rental_uris":{"android":"levelo://app?vid=0f29f9fc-ade1-445d-ba8d-4631c9525c9b","ios":"levelo://app?vid=0f29f9fc-ade1-445d-ba8d-4631c9525c9b"},"vehicle_type_id":"4","last_reported":1703156768,"current_range_meters":800,"station_id":"","pricing_plan_id":"free"},{"bike_id":"973f910a-7c54-4e8f-a135-0b24d91e4070","system_id":"levelo_inurba_marseille","lat":43.304606,"lon":5.379026,"is_reserved":false,"is_disabled":false,"rental_uris":{"android":"levelo://app?vid=973f910a-7c54-4e8f-a135-0b24d91e4070","ios":"levelo://app?vid=973f910a-7c54-4e8f-a135-0b24d91e4070"},"vehicle_type_id":"4","last_reported":1703156768,"current_range_meters":28000,"station_id":"ce4bgup2rcd13ifvqcn0","pricing_plan_id":"free"},{"bike_id":"5be17877-d20a-4629-8cdc-ee671d897a31","system_id":"levelo_inurba_marseille","lat":43.304606,"lon":5.379026,"is_reserved":false,"is_disabled":false,"rental_uris":{"android":"levelo://app?vid=5be17877-d20a-4629-8cdc-ee671d897a31","ios":"levelo://app?vid=5be17877-d20a-4629-8cdc-ee671d897a31"},"vehicle_type_id":"4","last_reported":1703156768,"current_range_meters":26800,"station_id":"ce4bgup2rcd13ifvqcn0","pricing_plan_id":"free"},{"bike_id":"5482700b-5534-4ab6-8daf-b07b221a2cb6","system_id":"levelo_inurba_marseille","lat":43.302784,"lon":5.377158,"is_reserved":false,"is_disabled":false,"rental_uris":{"android":"levelo://app?vid=5482700b-5534-4ab6-8daf-b07b221a2cb6","ios":"levelo://app?vid=5482700b-5534-4ab6-8daf-b07b221a2cb6"},"vehicle_type_id":"4","last_reported":1703156768,"current_range_meters":12400,"station_id":"ce4bguh2rcd13ifvqcj0","pricing_plan_id":"free"},{"bike_id":"dbe733c3-3417-4581-b63c-59aa0b2fe4ec","system_id":"levelo_inurba_marseille","lat":43.302784,"lon":5.377158,"is_reserved":false,"is_disabled":false,"rental_uris":{"android":"levelo://app?vid=dbe733c3-3417-4581-b63c-59aa0b2fe4ec","ios":"levelo://app?vid=dbe733c3-3417-4581-b63c-59aa0b2fe4ec"},"vehicle_type_id":"4","last_reported":1703156768,"current_range_meters":0,"station_id":"ce4bguh2rcd13ifvqcj0","pricing_plan_id":"free"},{"bike_id":"c8511e9d-5f62-4adb-8fe0-4a8897be5186","system_id":"levelo_inurba_marseille","lat":43.302784,"lon":5.377158,"is_reserved":false,"is_disabled":false,"rental_uris":{"android":"levelo://app?vid=c8511e9d-5f62-4adb-8fe0-4a8897be5186","ios":"levelo://app?vid=c8511e9d-5f62-4adb-8fe0-4a8897be5186"},"vehicle_type_id":"4","last_reported":1703156768,"current_range_meters":31200,"station_id":"ce4bguh2rcd13ifvqcj0","pricing_plan_id":"free"},{"bike_id":"7c60963a-ac52-4445-ac6b-8aa2008d411d","system_id":"levelo_inurba_marseille","lat":43.30143,"lon":5.37413,"is_reserved":false,"is_disabled":false,"rental_uris":{"android":"levelo://app?vid=7c60963a-ac52-4445-ac6b-8aa2008d411d","ios":"levelo://app?vid=7c60963a-ac52-4445-ac6b-8aa2008d411d"},"vehicle_type_id":"4","last_reported":1703156768,"current_range_meters":10000,"station_id":"ce4bgs92rcd13ifvqcc0","pricing_plan_id":"free"},{"bike_id":"43279f19-9522-45e5-98e0-f66f230738c1","system_id":"levelo_inurba_marseille","lat":43.301429,"lon":5.37413,"is_reserved":false,"is_disabled":false,"rental_uris":{"android":"levelo://app?vid=43279f19-9522-45e5-98e0-f66f230738c1","ios":"levelo://app?vid=43279f19-9522-45e5-98e0-f66f230738c1"},"vehicle_type_id":"4","last_reported":1703156768,"current_range_meters":24800,"station_id":"ce4bgs92rcd13ifvqcc0","pricing_plan_id":"free"},{"bike_id":"d36bbffd-38f3-4cb2-b5e5-aaef5dacce7b","system_id":"levelo_inurba_marseille","lat":43.301429,"lon":5.37413,"is_reserved":false,"is_disabled":false,"rental_uris":{"android":"levelo://app?vid=d36bbffd-38f3-4cb2-b5e5-aaef5dacce7b","ios":"levelo://app?vid=d36bbffd-38f3-4cb2-b5e5-aaef5dacce7b"},"vehicle_type_id":"4","last_reported":1703156768,"current_range_meters":24400,"station_id":"ce4bgs92rcd13ifvqcc0","pricing_plan_id":"free"},{"bike_id":"a6937c53-5e9c-46dc-81f5-55c014975955","system_id":"levelo_inurba_marseille","lat":43.301429,"lon":5.37413,"is_reserved":false,"is_disabled":false,"rental_uris":{"android":"levelo://app?vid=a6937c53-5e9c-46dc-81f5-55c014975955","ios":"levelo://app?vid=a6937c53-5e9c-46dc-81f5-55c014975955"},"vehicle_type_id":"4","last_reported":1703156768,"current_range_meters":28000,"station_id":"ce4bgs92rcd13ifvqcc0","pricing_plan_id":"free"},{"bike_id":"ad0dedf2-0cd4-4d6b-9ecb-d240001f99ef","system_id":"levelo_inurba_marseille","lat":43.319935,"lon":5.381699,"is_reserved":false,"is_disabled":false,"rental_uris":{"android":"levelo://app?vid=ad0dedf2-0cd4-4d6b-9ecb-d240001f99ef","ios":"levelo://app?vid=ad0dedf2-0cd4-4d6b-9ecb-d240001f99ef"},"vehicle_type_id":"4","last_reported":1703156768,"current_range_meters":0,"station_id":"ce4bhr12rcd13ifvqhpg","pricing_plan_id":"free"},{"bike_id":"bf29f302-2dda-4aeb-bd7f-38d08e28933e","system_id":"levelo_inurba_marseille","lat":43.320005,"lon":5.381601,"is_reserved":false,"is_disabled":false,"rental_uris":{"android":"levelo://app?vid=bf29f302-2dda-4aeb-bd7f-38d08e28933e","ios":"levelo://app?vid=bf29f302-2dda-4aeb-bd7f-38d08e28933e"},"vehicle_type_id":"4","last_reported":1703156768,"current_range_meters":10800,"station_id":"ce4bhr12rcd13ifvqhpg","pricing_plan_id":"free"},{"bike_id":"a740481f-e24f-43db-b1c0-a5b3e85bf242","system_id":"levelo_inurba_marseille","lat":43.313571,"lon":5.384829,"is_reserved":false,"is_disabled":false,"rental_uris":{"android":"levelo://app?vid=a740481f-e24f-43db-b1c0-a5b3e85bf242","ios":"levelo://app?vid=a740481f-e24f-43db-b1c0-a5b3e85bf242"},"vehicle_type_id":"4","last_reported":1703156768,"current_range_meters":26000,"station_id":"ce4bgt92rcd13ifvqcf0","pricing_plan_id":"free"},{"bike_id":"8f1fe183-be40-4893-b51a-74cd47d9c282","system_id":"levelo_inurba_marseille","lat":43.299724,"lon":5.371829,"is_reserved":false,"is_disabled":false,"rental_uris":{"android":"levelo://app?vid=8f1fe183-be40-4893-b51a-74cd47d9c282","ios":"levelo://app?vid=8f1fe183-be40-4893-b51a-74cd47d9c282"},"vehicle_type_id":"4","last_reported":1703156768,"current_range_meters":16400,"station_id":"ce4bgr92rcd13ifvqc7g","pricing_plan_id":"free"},{"bike_id":"343eb495-173c-4aa7-b874-0b7649e6bb44","system_id":"levelo_inurba_marseille","lat":43.299222,"lon":5.365554,"is_reserved":false,"is_disabled":false,"rental_uris":{"android":"levelo://app?vid=343eb495-173c-4aa7-b874-0b7649e6bb44","ios":"levelo://app?vid=343eb495-173c-4aa7-b874-0b7649e6bb44"},"vehicle_type_id":"4","last_reported":1703156768,"current_range_meters":20400,"station_id":"ce4bgm92rcd13ifvqbr0","pricing_plan_id":"free"},{"bike_id":"fb5fd907-460c-4a25-a1e4-884547970c49","system_id":"levelo_inurba_marseille","lat":43.298433,"lon":5.362774,"is_reserved":false,"is_disabled":false,"rental_uris":{"android":"levelo://app?vid=fb5fd907-460c-4a25-a1e4-884547970c49","ios":"levelo://app?vid=fb5fd907-460c-4a25-a1e4-884547970c49"},"vehicle_type_id":"4","last_reported":1703156768,"current_range_meters":5200,"station_id":"ce4bgpp2rcd13ifvqc3g","pricing_plan_id":"free"},{"bike_id":"78875150-d64f-42db-96cf-da81ea826daa","system_id":"levelo_inurba_marseille","lat":43.298433,"lon":5.362774,"is_reserved":false,"is_disabled":false,"rental_uris":{"android":"levelo://app?vid=78875150-d64f-42db-96cf-da81ea826daa","ios":"levelo://app?vid=78875150-d64f-42db-96cf-da81ea826daa"},"vehicle_type_id":"4","last_reported":1703156768,"current_range_meters":22000,"station_id":"ce4bgpp2rcd13ifvqc3g","pricing_plan_id":"free"},{"bike_id":"c5118001-5503-44fb-9b93-85a6ac8d8747","system_id":"levelo_inurba_marseille","lat":43.298433,"lon":5.362774,"is_reserved":false,"is_disabled":false,"rental_uris":{"android":"levelo://app?vid=c5118001-5503-44fb-9b93-85a6ac8d8747","ios":"levelo://app?vid=c5118001-5503-44fb-9b93-85a6ac8d8747"},"vehicle_type_id":"4","last_reported":1703156768,"current_range_meters":28000,"station_id":"ce4bgpp2rcd13ifvqc3g","pricing_plan_id":"free"},{"bike_id":"db4fffcc-d7f7-42b8-8946-844d8963797e","system_id":"levelo_inurba_marseille","lat":43.298433,"lon":5.362774,"is_reserved":false,"is_disabled":false,"rental_uris":{"android":"levelo://app?vid=db4fffcc-d7f7-42b8-8946-844d8963797e","ios":"levelo://app?vid=db4fffcc-d7f7-42b8-8946-844d8963797e"},"vehicle_type_id":"4","last_reported":1703156768,"current_range_meters":27200,"station_id":"ce4bgpp2rcd13ifvqc3g","pricing_plan_id":"free"},{"bike_id":"c22e4b9f-ba20-4a7c-a7c8-fd0a73d903e0","system_id":"levelo_inurba_marseille","lat":43.32829,"lon":5.36684,"is_reserved":false,"is_disabled":false,"rental_uris":{"android":"levelo://app?vid=c22e4b9f-ba20-4a7c-a7c8-fd0a73d903e0","ios":"levelo://app?vid=c22e4b9f-ba20-4a7c-a7c8-fd0a73d903e0"},"vehicle_type_id":"4","last_reported":1703156768,"current_range_meters":19200,"station_id":"ce4bhs92rcd13ifvqi0g","pricing_plan_id":"free"},{"bike_id":"eb8ebe7d-6983-4780-997c-9447c3c0c6e2","system_id":"levelo_inurba_marseille","lat":43.3283,"lon":5.3668,"is_reserved":false,"is_disabled":false,"rental_uris":{"android":"levelo://app?vid=eb8ebe7d-6983-4780-997c-9447c3c0c6e2","ios":"levelo://app?vid=eb8ebe7d-6983-4780-997c-9447c3c0c6e2"},"vehicle_type_id":"4","last_reported":1703156768,"current_range_meters":25600,"station_id":"ce4bhs92rcd13ifvqi0g","pricing_plan_id":"free"},{"bike_id":"c12df297-168e-4ca3-95d9-a300ff1ffbd9","system_id":"levelo_inurba_marseille","lat":43.328371,"lon":5.366909,"is_reserved":false,"is_disabled":false,"rental_uris":{"android":"levelo://app?vid=c12df297-168e-4ca3-95d9-a300ff1ffbd9","ios":"levelo://app?vid=c12df297-168e-4ca3-95d9-a300ff1ffbd9"},"vehicle_type_id":"4","last_reported":1703156768,"current_range_meters":25600,"station_id":"ce4bhs92rcd13ifvqi0g","pricing_plan_id":"free"},{"bike_id":"7b61e578-eb09-4c42-8536-5cf1eb9d1ca6","system_id":"levelo_inurba_marseille","lat":43.328326,"lon":5.366776,"is_reserved":false,"is_disabled":false,"rental_uris":{"android":"levelo://app?vid=7b61e578-eb09-4c42-8536-5cf1eb9d1ca6","ios":"levelo://app?vid=7b61e578-eb09-4c42-8536-5cf1eb9d1ca6"},"vehicle_type_id":"4","last_reported":1703156768,"current_range_meters":30000,"station_id":"ce4bhs92rcd13ifvqi0g","pricing_plan_id":"free"},{"bike_id":"d43a8e71-21a6-440f-82cc-35ff68a20e43","system_id":"levelo_inurba_marseille","lat":43.297163,"lon":5.365866,"is_reserved":false,"is_disabled":false,"rental_uris":{"android":"levelo://app?vid=d43a8e71-21a6-440f-82cc-35ff68a20e43","ios":"levelo://app?vid=d43a8e71-21a6-440f-82cc-35ff68a20e43"},"vehicle_type_id":"4","last_reported":1703156768,"current_range_meters":22400,"station_id":"ce4bgn12rcd13ifvqbt0","pricing_plan_id":"free"},{"bike_id":"be16ab84-d79b-433f-a7d6-5e19b15d666a","system_id":"levelo_inurba_marseille","lat":43.296131,"lon":5.370791,"is_reserved":false,"is_disabled":false,"rental_uris":{"android":"levelo://app?vid=be16ab84-d79b-433f-a7d6-5e19b15d666a","ios":"levelo://app?vid=be16ab84-d79b-433f-a7d6-5e19b15d666a"},"vehicle_type_id":"4","last_reported":1703156768,"current_range_meters":24000,"station_id":"ce4bgnh2rcd13ifvqc0g","pricing_plan_id":"free"},{"bike_id":"707561d9-10f7-4c99-ac27-c6cdd72284c2","system_id":"levelo_inurba_marseille","lat":43.29618,"lon":5.37165,"is_reserved":false,"is_disabled":false,"rental_uris":{"android":"levelo://app?vid=707561d9-10f7-4c99-ac27-c6cdd72284c2","ios":"levelo://app?vid=707561d9-10f7-4c99-ac27-c6cdd72284c2"},"vehicle_type_id":"4","last_reported":1703156768,"current_range_meters":4000,"station_id":"ce4bgnh2rcd13ifvqc0g","pricing_plan_id":"free"},{"bike_id":"34bcf520-3665-4067-9f95-62ab16f726ea","system_id":"levelo_inurba_marseille","lat":43.299028,"lon":5.381509,"is_reserved":false,"is_disabled":false,"rental_uris":{"android":"levelo://app?vid=34bcf520-3665-4067-9f95-62ab16f726ea","ios":"levelo://app?vid=34bcf520-3665-4067-9f95-62ab16f726ea"},"vehicle_type_id":"4","last_reported":1703156768,"current_range_meters":16800,"station_id":"ce4bgj12rcd13ifvqbc0","pricing_plan_id":"free"},{"bike_id":"eec945ba-7281-4dcd-b3dd-1f0ca506c44d","system_id":"levelo_inurba_marseille","lat":43.299028,"lon":5.381509,"is_reserved":false,"is_disabled":false,"rental_uris":{"android":"levelo://app?vid=eec945ba-7281-4dcd-b3dd-1f0ca506c44d","ios":"levelo://app?vid=eec945ba-7281-4dcd-b3dd-1f0ca506c44d"},"vehicle_type_id":"4","last_reported":1703156768,"current_range_meters":27600,"station_id":"ce4bgj12rcd13ifvqbc0","pricing_plan_id":"free"},{"bike_id":"a0071872-a6a8-46ea-94c2-ef1c79c92d10","system_id":"levelo_inurba_marseille","lat":43.309448,"lon":5.3904,"is_reserved":false,"is_disabled":false,"rental_uris":{"android":"levelo://app?vid=a0071872-a6a8-46ea-94c2-ef1c79c92d10","ios":"levelo://app?vid=a0071872-a6a8-46ea-94c2-ef1c79c92d10"},"vehicle_type_id":"4","last_reported":1703156768,"current_range_meters":0,"station_id":"ce4bgup2rcd13ifvqco0","pricing_plan_id":"free"},{"bike_id":"7a6fdde0-c26a-479c-9e14-9026d1e84630","system_id":"levelo_inurba_marseille","lat":43.296921,"lon":5.376579,"is_reserved":false,"is_disabled":false,"rental_uris":{"android":"levelo://app?vid=7a6fdde0-c26a-479c-9e14-9026d1e84630","ios":"levelo://app?vid=7a6fdde0-c26a-479c-9e14-9026d1e84630"},"vehicle_type_id":"4","last_reported":1703156768,"current_range_meters":18000,"station_id":"ce4bgkh2rcd13ifvqbl0","pricing_plan_id":"free"},{"bike_id":"d1ac3923-a774-46a0-b94e-1a5b18ce7de1","system_id":"levelo_inurba_marseille","lat":43.295748,"lon":5.37522,"is_reserved":false,"is_disabled":false,"rental_uris":{"android":"levelo://app?vid=d1ac3923-a774-46a0-b94e-1a5b18ce7de1","ios":"levelo://app?vid=d1ac3923-a774-46a0-b94e-1a5b18ce7de1"},"vehicle_type_id":"4","last_reported":1703156768,"current_range_meters":6000,"station_id":"ce4bgh92rcd13ifvqb50","pricing_plan_id":"free"},{"bike_id":"b3103865-e125-4445-8416-59ac8297121c","system_id":"levelo_inurba_marseille","lat":43.298037,"lon":5.381066,"is_reserved":false,"is_disabled":false,"rental_uris":{"android":"levelo://app?vid=b3103865-e125-4445-8416-59ac8297121c","ios":"levelo://app?vid=b3103865-e125-4445-8416-59ac8297121c"},"vehicle_type_id":"4","last_reported":1703156768,"current_range_meters":23600,"station_id":"ce4bgip2rcd13ifvqbb0","pricing_plan_id":"free"},{"bike_id":"1939be98-cd44-4000-92a4-680974621619","system_id":"levelo_inurba_marseille","lat":43.295748,"lon":5.37522,"is_reserved":false,"is_disabled":false,"rental_uris":{"android":"levelo://app?vid=1939be98-cd44-4000-92a4-680974621619","ios":"levelo://app?vid=1939be98-cd44-4000-92a4-680974621619"},"vehicle_type_id":"4","last_reported":1703156768,"current_range_meters":15600,"station_id":"ce4bgh92rcd13ifvqb50","pricing_plan_id":"free"},{"bike_id":"5f3da40d-3677-4a42-ba14-8322e8db26ff","system_id":"levelo_inurba_marseille","lat":43.295748,"lon":5.37522,"is_reserved":false,"is_disabled":false,"rental_uris":{"android":"levelo://app?vid=5f3da40d-3677-4a42-ba14-8322e8db26ff","ios":"levelo://app?vid=5f3da40d-3677-4a42-ba14-8322e8db26ff"},"vehicle_type_id":"4","last_reported":1703156768,"current_range_meters":23600,"station_id":"ce4bgh92rcd13ifvqb50","pricing_plan_id":"free"},{"bike_id":"357e3667-4fce-46d5-b74e-390bff1a96f8","system_id":"levelo_inurba_marseille","lat":43.296277,"lon":5.377108,"is_reserved":false,"is_disabled":false,"rental_uris":{"android":"levelo://app?vid=357e3667-4fce-46d5-b74e-390bff1a96f8","ios":"levelo://app?vid=357e3667-4fce-46d5-b74e-390bff1a96f8"},"vehicle_type_id":"4","last_reported":1703156768,"current_range_meters":20400,"station_id":"ce4bgi92rcd13ifvqb90","pricing_plan_id":"free"},{"bike_id":"f4815b14-ce21-41c4-ae19-281ce4035f69","system_id":"levelo_inurba_marseille","lat":43.296263,"lon":5.377094,"is_reserved":false,"is_disabled":false,"rental_uris":{"android":"levelo://app?vid=f4815b14-ce21-41c4-ae19-281ce4035f69","ios":"levelo://app?vid=f4815b14-ce21-41c4-ae19-281ce4035f69"},"vehicle_type_id":"4","last_reported":1703156768,"current_range_meters":17600,"station_id":"ce4bgi92rcd13ifvqb90","pricing_plan_id":"free"},{"bike_id":"3a5e6f09-2574-4125-80c7-fb469be3a9e2","system_id":"levelo_inurba_marseille","lat":43.299707,"lon":5.384859,"is_reserved":false,"is_disabled":false,"rental_uris":{"android":"levelo://app?vid=3a5e6f09-2574-4125-80c7-fb469be3a9e2","ios":"levelo://app?vid=3a5e6f09-2574-4125-80c7-fb469be3a9e2"},"vehicle_type_id":"4","last_reported":1703156768,"current_range_meters":30000,"station_id":"ce4bgj92rcd13ifvqbd0","pricing_plan_id":"free"},{"bike_id":"067c5847-e3de-4619-9fe5-45b46332d96c","system_id":"levelo_inurba_marseille","lat":43.299724,"lon":5.384848,"is_reserved":false,"is_disabled":false,"rental_uris":{"android":"levelo://app?vid=067c5847-e3de-4619-9fe5-45b46332d96c","ios":"levelo://app?vid=067c5847-e3de-4619-9fe5-45b46332d96c"},"vehicle_type_id":"4","last_reported":1703156768,"current_range_meters":11200,"station_id":"ce4bgj92rcd13ifvqbd0","pricing_plan_id":"free"},{"bike_id":"8a5132d1-dbd5-40b6-8e06-13c5cbad0944","system_id":"levelo_inurba_marseille","lat":43.299717,"lon":5.384845,"is_reserved":false,"is_disabled":false,"rental_uris":{"android":"levelo://app?vid=8a5132d1-dbd5-40b6-8e06-13c5cbad0944","ios":"levelo://app?vid=8a5132d1-dbd5-40b6-8e06-13c5cbad0944"},"vehicle_type_id":"4","last_reported":1703156768,"current_range_meters":17200,"station_id":"ce4bgj92rcd13ifvqbd0","pricing_plan_id":"free"},{"bike_id":"ef809751-2ccd-4e64-b095-2c589a15060d","system_id":"levelo_inurba_marseille","lat":43.299717,"lon":5.384845,"is_reserved":false,"is_disabled":false,"rental_uris":{"android":"levelo://app?vid=ef809751-2ccd-4e64-b095-2c589a15060d","ios":"levelo://app?vid=ef809751-2ccd-4e64-b095-2c589a15060d"},"vehicle_type_id":"4","last_reported":1703156768,"current_range_meters":30400,"station_id":"ce4bgj92rcd13ifvqbd0","pricing_plan_id":"free"},{"bike_id":"027da980-c6c5-4fc5-b76d-6541da04f3c7","system_id":"levelo_inurba_marseille","lat":43.299717,"lon":5.384845,"is_reserved":false,"is_disabled":false,"rental_uris":{"android":"levelo://app?vid=027da980-c6c5-4fc5-b76d-6541da04f3c7","ios":"levelo://app?vid=027da980-c6c5-4fc5-b76d-6541da04f3c7"},"vehicle_type_id":"4","last_reported":1703156768,"current_range_meters":30000,"station_id":"ce4bgj92rcd13ifvqbd0","pricing_plan_id":"free"},{"bike_id":"39a5a7f1-613e-4ce9-85dc-bf406e7675c4","system_id":"levelo_inurba_marseille","lat":43.32367,"lon":5.388836,"is_reserved":false,"is_disabled":false,"rental_uris":{"android":"levelo://app?vid=39a5a7f1-613e-4ce9-85dc-bf406e7675c4","ios":"levelo://app?vid=39a5a7f1-613e-4ce9-85dc-bf406e7675c4"},"vehicle_type_id":"4","last_reported":1703156768,"current_range_meters":0,"station_id":"ce4bhqp2rcd13ifvqhog","pricing_plan_id":"free"},{"bike_id":"68170004-38e5-4093-87ef-d1865be83be6","system_id":"levelo_inurba_marseille","lat":43.32367,"lon":5.388836,"is_reserved":false,"is_disabled":false,"rental_uris":{"android":"levelo://app?vid=68170004-38e5-4093-87ef-d1865be83be6","ios":"levelo://app?vid=68170004-38e5-4093-87ef-d1865be83be6"},"vehicle_type_id":"4","last_reported":1703156768,"current_range_meters":27200,"station_id":"ce4bhqp2rcd13ifvqhog","pricing_plan_id":"free"},{"bike_id":"65d4c50c-5fb8-459c-bc53-9059926e739d","system_id":"levelo_inurba_marseille","lat":43.29602,"lon":5.381084,"is_reserved":false,"is_disabled":false,"rental_uris":{"android":"levelo://app?vid=65d4c50c-5fb8-459c-bc53-9059926e739d","ios":"levelo://app?vid=65d4c50c-5fb8-459c-bc53-9059926e739d"},"vehicle_type_id":"4","last_reported":1703156768,"current_range_meters":18800,"station_id":"ce4bgl12rcd13ifvqbo0","pricing_plan_id":"free"},{"bike_id":"c78d68b2-8d00-42ef-ab5a-7e9eebd003da","system_id":"levelo_inurba_marseille","lat":43.293259,"lon":5.371586,"is_reserved":false,"is_disabled":false,"rental_uris":{"android":"levelo://app?vid=c78d68b2-8d00-42ef-ab5a-7e9eebd003da","ios":"levelo://app?vid=c78d68b2-8d00-42ef-ab5a-7e9eebd003da"},"vehicle_type_id":"4","last_reported":1703156768,"current_range_meters":27600,"station_id":"ce4bgh92rcd13ifvqb40","pricing_plan_id":"free"},{"bike_id":"9f8fe673-18c7-4def-8ae7-6c96c2209d5e","system_id":"levelo_inurba_marseille","lat":43.29321,"lon":5.37444,"is_reserved":false,"is_disabled":false,"rental_uris":{"android":"levelo://app?vid=9f8fe673-18c7-4def-8ae7-6c96c2209d5e","ios":"levelo://app?vid=9f8fe673-18c7-4def-8ae7-6c96c2209d5e"},"vehicle_type_id":"4","last_reported":1703156768,"current_range_meters":28400,"station_id":"ce4bgi12rcd13ifvqb70","pricing_plan_id":"free"},{"bike_id":"f763e273-0e54-4beb-97fe-0103f5b839d6","system_id":"levelo_inurba_marseille","lat":43.298037,"lon":5.381066,"is_reserved":false,"is_disabled":false,"rental_uris":{"android":"levelo://app?vid=f763e273-0e54-4beb-97fe-0103f5b839d6","ios":"levelo://app?vid=f763e273-0e54-4beb-97fe-0103f5b839d6"},"vehicle_type_id":"4","last_reported":1703156768,"current_range_meters":22000,"station_id":"ce4bgip2rcd13ifvqbb0","pricing_plan_id":"free"},{"bike_id":"83c0cc6f-48f2-4fd3-9494-e45ad6e1f5b7","system_id":"levelo_inurba_marseille","lat":43.2927,"lon":5.37633,"is_reserved":false,"is_disabled":false,"rental_uris":{"android":"levelo://app?vid=83c0cc6f-48f2-4fd3-9494-e45ad6e1f5b7","ios":"levelo://app?vid=83c0cc6f-48f2-4fd3-9494-e45ad6e1f5b7"},"vehicle_type_id":"4","last_reported":1703156768,"current_range_meters":10000,"station_id":"","pricing_plan_id":"free"},{"bike_id":"3c68bbaa-112e-4994-92c5-4223311094cc","system_id":"levelo_inurba_marseille","lat":43.29264,"lon":5.37614,"is_reserved":false,"is_disabled":false,"rental_uris":{"android":"levelo://app?vid=3c68bbaa-112e-4994-92c5-4223311094cc","ios":"levelo://app?vid=3c68bbaa-112e-4994-92c5-4223311094cc"},"vehicle_type_id":"4","last_reported":1703156768,"current_range_meters":7600,"station_id":"","pricing_plan_id":"free"},{"bike_id":"5f495086-b90a-4330-90b7-b73d292c511d","system_id":"levelo_inurba_marseille","lat":43.292647,"lon":5.376207,"is_reserved":false,"is_disabled":false,"rental_uris":{"android":"levelo://app?vid=5f495086-b90a-4330-90b7-b73d292c511d","ios":"levelo://app?vid=5f495086-b90a-4330-90b7-b73d292c511d"},"vehicle_type_id":"4","last_reported":1703156768,"current_range_meters":23600,"station_id":"","pricing_plan_id":"free"},{"bike_id":"9daf6733-f00b-4f10-981e-433756961b64","system_id":"levelo_inurba_marseille","lat":43.291671,"lon":5.371575,"is_reserved":false,"is_disabled":false,"rental_uris":{"android":"levelo://app?vid=9daf6733-f00b-4f10-981e-433756961b64","ios":"levelo://app?vid=9daf6733-f00b-4f10-981e-433756961b64"},"vehicle_type_id":"4","last_reported":1703156768,"current_range_meters":29600,"station_id":"ce4bha92rcd13ifvqeh0","pricing_plan_id":"free"},{"bike_id":"2ecc3584-dd18-4533-97ba-067f225c5b3a","system_id":"levelo_inurba_marseille","lat":43.291675,"lon":5.371583,"is_reserved":false,"is_disabled":false,"rental_uris":{"android":"levelo://app?vid=2ecc3584-dd18-4533-97ba-067f225c5b3a","ios":"levelo://app?vid=2ecc3584-dd18-4533-97ba-067f225c5b3a"},"vehicle_type_id":"4","last_reported":1703156768,"current_range_meters":16800,"station_id":"ce4bha92rcd13ifvqeh0","pricing_plan_id":"free"},{"bike_id":"3b7272af-b5cb-499c-b9ed-921ff6d22785","system_id":"levelo_inurba_marseille","lat":43.291675,"lon":5.371583,"is_reserved":false,"is_disabled":false,"rental_uris":{"android":"levelo://app?vid=3b7272af-b5cb-499c-b9ed-921ff6d22785","ios":"levelo://app?vid=3b7272af-b5cb-499c-b9ed-921ff6d22785"},"vehicle_type_id":"4","last_reported":1703156768,"current_range_meters":5200,"station_id":"ce4bha92rcd13ifvqeh0","pricing_plan_id":"free"},{"bike_id":"374ea286-b261-41ae-8a68-e3322d44e0bc","system_id":"levelo_inurba_marseille","lat":43.291675,"lon":5.371583,"is_reserved":false,"is_disabled":false,"rental_uris":{"android":"levelo://app?vid=374ea286-b261-41ae-8a68-e3322d44e0bc","ios":"levelo://app?vid=374ea286-b261-41ae-8a68-e3322d44e0bc"},"vehicle_type_id":"4","last_reported":1703156768,"current_range_meters":17600,"station_id":"ce4bha92rcd13ifvqeh0","pricing_plan_id":"free"},{"bike_id":"d19c4df6-eae1-420b-b4fa-02dedbcf19a1","system_id":"levelo_inurba_marseille","lat":43.313291,"lon":5.396838,"is_reserved":false,"is_disabled":false,"rental_uris":{"android":"levelo://app?vid=d19c4df6-eae1-420b-b4fa-02dedbcf19a1","ios":"levelo://app?vid=d19c4df6-eae1-420b-b4fa-02dedbcf19a1"},"vehicle_type_id":"4","last_reported":1703156768,"current_range_meters":23600,"station_id":"ce4bgvp2rcd13ifvqcu0","pricing_plan_id":"free"},{"bike_id":"eaa95831-b912-4582-a061-15d627353aa9","system_id":"levelo_inurba_marseille","lat":43.291994,"lon":5.357886,"is_reserved":false,"is_disabled":false,"rental_uris":{"android":"levelo://app?vid=eaa95831-b912-4582-a061-15d627353aa9","ios":"levelo://app?vid=eaa95831-b912-4582-a061-15d627353aa9"},"vehicle_type_id":"4","last_reported":1703156768,"current_range_meters":22400,"station_id":"ce4bhb12rcd13ifvqel0","pricing_plan_id":"free"},{"bike_id":"87ecc19a-27c7-4954-b558-5febadccf9ac","system_id":"levelo_inurba_marseille","lat":43.313291,"lon":5.396838,"is_reserved":false,"is_disabled":false,"rental_uris":{"android":"levelo://app?vid=87ecc19a-27c7-4954-b558-5febadccf9ac","ios":"levelo://app?vid=87ecc19a-27c7-4954-b558-5febadccf9ac"},"vehicle_type_id":"4","last_reported":1703156768,"current_range_meters":29600,"station_id":"ce4bgvp2rcd13ifvqcu0","pricing_plan_id":"free"},{"bike_id":"b2db378b-84ca-4dfa-8cd8-73689737e0ad","system_id":"levelo_inurba_marseille","lat":43.313291,"lon":5.396838,"is_reserved":false,"is_disabled":false,"rental_uris":{"android":"levelo://app?vid=b2db378b-84ca-4dfa-8cd8-73689737e0ad","ios":"levelo://app?vid=b2db378b-84ca-4dfa-8cd8-73689737e0ad"},"vehicle_type_id":"4","last_reported":1703156768,"current_range_meters":10400,"station_id":"ce4bgvp2rcd13ifvqcu0","pricing_plan_id":"free"},{"bike_id":"9cd7ba3a-d6f5-4e92-85b5-ff04db73781a","system_id":"levelo_inurba_marseille","lat":43.29529,"lon":5.385581,"is_reserved":false,"is_disabled":false,"rental_uris":{"android":"levelo://app?vid=9cd7ba3a-d6f5-4e92-85b5-ff04db73781a","ios":"levelo://app?vid=9cd7ba3a-d6f5-4e92-85b5-ff04db73781a"},"vehicle_type_id":"4","last_reported":1703156768,"current_range_meters":17200,"station_id":"ce4bgih2rcd13ifvqba0","pricing_plan_id":"free"},{"bike_id":"2414a031-815f-4619-8977-9e04e69f1152","system_id":"levelo_inurba_marseille","lat":43.29529,"lon":5.385581,"is_reserved":false,"is_disabled":false,"rental_uris":{"android":"levelo://app?vid=2414a031-815f-4619-8977-9e04e69f1152","ios":"levelo://app?vid=2414a031-815f-4619-8977-9e04e69f1152"},"vehicle_type_id":"4","last_reported":1703156768,"current_range_meters":16400,"station_id":"ce4bgih2rcd13ifvqba0","pricing_plan_id":"free"},{"bike_id":"5fa0b20f-154f-4543-964c-e94fbce3c906","system_id":"levelo_inurba_marseille","lat":43.29529,"lon":5.385581,"is_reserved":false,"is_disabled":false,"rental_uris":{"android":"levelo://app?vid=5fa0b20f-154f-4543-964c-e94fbce3c906","ios":"levelo://app?vid=5fa0b20f-154f-4543-964c-e94fbce3c906"},"vehicle_type_id":"4","last_reported":1703156768,"current_range_meters":6000,"station_id":"ce4bgih2rcd13ifvqba0","pricing_plan_id":"free"},{"bike_id":"fcfaaf22-7bbe-46d8-aae7-2bcdcd6a136d","system_id":"levelo_inurba_marseille","lat":43.29529,"lon":5.385581,"is_reserved":false,"is_disabled":false,"rental_uris":{"android":"levelo://app?vid=fcfaaf22-7bbe-46d8-aae7-2bcdcd6a136d","ios":"levelo://app?vid=fcfaaf22-7bbe-46d8-aae7-2bcdcd6a136d"},"vehicle_type_id":"4","last_reported":1703156768,"current_range_meters":12800,"station_id":"ce4bgih2rcd13ifvqba0","pricing_plan_id":"free"},{"bike_id":"5560bbaf-6e6b-40f3-84af-4afb994eba6c","system_id":"levelo_inurba_marseille","lat":43.30208,"lon":5.39468,"is_reserved":false,"is_disabled":false,"rental_uris":{"android":"levelo://app?vid=5560bbaf-6e6b-40f3-84af-4afb994eba6c","ios":"levelo://app?vid=5560bbaf-6e6b-40f3-84af-4afb994eba6c"},"vehicle_type_id":"4","last_reported":1703156768,"current_range_meters":12400,"station_id":"ce4bh0p2rcd13ifvqd70","pricing_plan_id":"free"},{"bike_id":"625a40c2-5915-469a-a9b5-725aa7c074cf","system_id":"levelo_inurba_marseille","lat":43.302008,"lon":5.394694,"is_reserved":false,"is_disabled":false,"rental_uris":{"android":"levelo://app?vid=625a40c2-5915-469a-a9b5-725aa7c074cf","ios":"levelo://app?vid=625a40c2-5915-469a-a9b5-725aa7c074cf"},"vehicle_type_id":"4","last_reported":1703156768,"current_range_meters":29200,"station_id":"ce4bh0p2rcd13ifvqd70","pricing_plan_id":"free"},{"bike_id":"41698e1f-4f9b-4628-80b9-66d65f7ce08b","system_id":"levelo_inurba_marseille","lat":43.302008,"lon":5.394694,"is_reserved":false,"is_disabled":false,"rental_uris":{"android":"levelo://app?vid=41698e1f-4f9b-4628-80b9-66d65f7ce08b","ios":"levelo://app?vid=41698e1f-4f9b-4628-80b9-66d65f7ce08b"},"vehicle_type_id":"4","last_reported":1703156768,"current_range_meters":31200,"station_id":"ce4bh0p2rcd13ifvqd70","pricing_plan_id":"free"},{"bike_id":"2fdddbed-74be-4747-91b9-645f4bef026b","system_id":"levelo_inurba_marseille","lat":43.290327,"lon":5.375711,"is_reserved":false,"is_disabled":false,"rental_uris":{"android":"levelo://app?vid=2fdddbed-74be-4747-91b9-645f4bef026b","ios":"levelo://app?vid=2fdddbed-74be-4747-91b9-645f4bef026b"},"vehicle_type_id":"4","last_reported":1703156768,"current_range_meters":13200,"station_id":"ce4bh692rcd13ifvqe90","pricing_plan_id":"free"},{"bike_id":"76ad0d28-e83d-41e4-b37e-933ddecca311","system_id":"levelo_inurba_marseille","lat":43.290327,"lon":5.375711,"is_reserved":false,"is_disabled":false,"rental_uris":{"android":"levelo://app?vid=76ad0d28-e83d-41e4-b37e-933ddecca311","ios":"levelo://app?vid=76ad0d28-e83d-41e4-b37e-933ddecca311"},"vehicle_type_id":"4","last_reported":1703156768,"current_range_meters":6800,"station_id":"ce4bh692rcd13ifvqe90","pricing_plan_id":"free"},{"bike_id":"5847059b-3799-4497-a437-7e61beb578bd","system_id":"levelo_inurba_marseille","lat":43.290327,"lon":5.375711,"is_reserved":false,"is_disabled":false,"rental_uris":{"android":"levelo://app?vid=5847059b-3799-4497-a437-7e61beb578bd","ios":"levelo://app?vid=5847059b-3799-4497-a437-7e61beb578bd"},"vehicle_type_id":"4","last_reported":1703156768,"current_range_meters":29200,"station_id":"ce4bh692rcd13ifvqe90","pricing_plan_id":"free"},{"bike_id":"9bfd433d-af36-4fd3-87e2-2ee76411320e","system_id":"levelo_inurba_marseille","lat":43.294162,"lon":5.386292,"is_reserved":false,"is_disabled":false,"rental_uris":{"android":"levelo://app?vid=9bfd433d-af36-4fd3-87e2-2ee76411320e","ios":"levelo://app?vid=9bfd433d-af36-4fd3-87e2-2ee76411320e"},"vehicle_type_id":"4","last_reported":1703156768,"current_range_meters":24800,"station_id":"ce4bh2h2rcd13ifvqdh0","pricing_plan_id":"free"},{"bike_id":"72939f27-3069-4b40-b72f-6bfeadfb910f","system_id":"levelo_inurba_marseille","lat":43.292642,"lon":5.384254,"is_reserved":false,"is_disabled":false,"rental_uris":{"android":"levelo://app?vid=72939f27-3069-4b40-b72f-6bfeadfb910f","ios":"levelo://app?vid=72939f27-3069-4b40-b72f-6bfeadfb910f"},"vehicle_type_id":"4","last_reported":1703156768,"current_range_meters":20800,"station_id":"ce4bh692rcd13ifvqea0","pricing_plan_id":"free"},{"bike_id":"5f85d6ef-d957-49e7-a148-83ea00db3e32","system_id":"levelo_inurba_marseille","lat":43.292644,"lon":5.384257,"is_reserved":false,"is_disabled":false,"rental_uris":{"android":"levelo://app?vid=5f85d6ef-d957-49e7-a148-83ea00db3e32","ios":"levelo://app?vid=5f85d6ef-d957-49e7-a148-83ea00db3e32"},"vehicle_type_id":"4","last_reported":1703156768,"current_range_meters":30800,"station_id":"ce4bh692rcd13ifvqea0","pricing_plan_id":"free"},{"bike_id":"918cfe44-6887-4bcb-84e8-6b9f71abc617","system_id":"levelo_inurba_marseille","lat":43.330442,"lon":5.389148,"is_reserved":false,"is_disabled":false,"rental_uris":{"android":"levelo://app?vid=918cfe44-6887-4bcb-84e8-6b9f71abc617","ios":"levelo://app?vid=918cfe44-6887-4bcb-84e8-6b9f71abc617"},"vehicle_type_id":"4","last_reported":1703156768,"current_range_meters":8400,"station_id":"ce4bhr92rcd13ifvqhrg","pricing_plan_id":"free"},{"bike_id":"96ffbe44-c7d7-4301-962e-3918fe3b15ac","system_id":"levelo_inurba_marseille","lat":43.290995,"lon":5.381361,"is_reserved":false,"is_disabled":false,"rental_uris":{"android":"levelo://app?vid=96ffbe44-c7d7-4301-962e-3918fe3b15ac","ios":"levelo://app?vid=96ffbe44-c7d7-4301-962e-3918fe3b15ac"},"vehicle_type_id":"4","last_reported":1703156768,"current_range_meters":27200,"station_id":"ce4bh512rcd13ifvqe2g","pricing_plan_id":"free"},{"bike_id":"5df88ea0-2066-40ec-b50c-e0a828a5fd18","system_id":"levelo_inurba_marseille","lat":43.290995,"lon":5.381361,"is_reserved":false,"is_disabled":false,"rental_uris":{"android":"levelo://app?vid=5df88ea0-2066-40ec-b50c-e0a828a5fd18","ios":"levelo://app?vid=5df88ea0-2066-40ec-b50c-e0a828a5fd18"},"vehicle_type_id":"4","last_reported":1703156768,"current_range_meters":28800,"station_id":"ce4bh512rcd13ifvqe2g","pricing_plan_id":"free"},{"bike_id":"fc1fc441-1d1a-40c0-ab75-370892b59c37","system_id":"levelo_inurba_marseille","lat":43.289743,"lon":5.378304,"is_reserved":false,"is_disabled":false,"rental_uris":{"android":"levelo://app?vid=fc1fc441-1d1a-40c0-ab75-370892b59c37","ios":"levelo://app?vid=fc1fc441-1d1a-40c0-ab75-370892b59c37"},"vehicle_type_id":"4","last_reported":1703156768,"current_range_meters":16400,"station_id":"ce4bh9p2rcd13ifvqed0","pricing_plan_id":"free"},{"bike_id":"1b9bc0b6-1ff5-4b70-98d7-4d6362953644","system_id":"levelo_inurba_marseille","lat":43.289741,"lon":5.378306,"is_reserved":false,"is_disabled":false,"rental_uris":{"android":"levelo://app?vid=1b9bc0b6-1ff5-4b70-98d7-4d6362953644","ios":"levelo://app?vid=1b9bc0b6-1ff5-4b70-98d7-4d6362953644"},"vehicle_type_id":"4","last_reported":1703156768,"current_range_meters":11200,"station_id":"ce4bh9p2rcd13ifvqed0","pricing_plan_id":"free"},{"bike_id":"74471a81-9272-4a84-a7e7-46f4622f12b1","system_id":"levelo_inurba_marseille","lat":43.289743,"lon":5.378304,"is_reserved":false,"is_disabled":false,"rental_uris":{"android":"levelo://app?vid=74471a81-9272-4a84-a7e7-46f4622f12b1","ios":"levelo://app?vid=74471a81-9272-4a84-a7e7-46f4622f12b1"},"vehicle_type_id":"4","last_reported":1703156768,"current_range_meters":12800,"station_id":"ce4bh9p2rcd13ifvqed0","pricing_plan_id":"free"},{"bike_id":"1ab59a10-3717-47c8-bc08-bb50a54c6473","system_id":"levelo_inurba_marseille","lat":43.295169,"lon":5.390426,"is_reserved":false,"is_disabled":false,"rental_uris":{"android":"levelo://app?vid=1ab59a10-3717-47c8-bc08-bb50a54c6473","ios":"levelo://app?vid=1ab59a10-3717-47c8-bc08-bb50a54c6473"},"vehicle_type_id":"4","last_reported":1703156768,"current_range_meters":23600,"station_id":"ce4bh3p2rcd13ifvqdp0","pricing_plan_id":"free"},{"bike_id":"d1fe29db-81c3-4215-8d0b-6b1ec3d1ab1c","system_id":"levelo_inurba_marseille","lat":43.2901,"lon":5.381269,"is_reserved":false,"is_disabled":false,"rental_uris":{"android":"levelo://app?vid=d1fe29db-81c3-4215-8d0b-6b1ec3d1ab1c","ios":"levelo://app?vid=d1fe29db-81c3-4215-8d0b-6b1ec3d1ab1c"},"vehicle_type_id":"4","last_reported":1703156768,"current_range_meters":10000,"station_id":"ce4bh4p2rcd13ifvqe1g","pricing_plan_id":"free"},{"bike_id":"bf17614e-4bcd-4b94-9bf4-cf306f54880d","system_id":"levelo_inurba_marseille","lat":43.304274,"lon":5.388873,"is_reserved":false,"is_disabled":false,"rental_uris":{"android":"levelo://app?vid=bf17614e-4bcd-4b94-9bf4-cf306f54880d","ios":"levelo://app?vid=bf17614e-4bcd-4b94-9bf4-cf306f54880d"},"vehicle_type_id":"4","last_reported":1703156768,"current_range_meters":8800,"station_id":"ce4bgk12rcd13ifvqbi0","pricing_plan_id":"free"},{"bike_id":"0f82c18c-ee67-47b9-8b34-0722490b2472","system_id":"levelo_inurba_marseille","lat":43.312609,"lon":5.401662,"is_reserved":false,"is_disabled":false,"rental_uris":{"android":"levelo://app?vid=0f82c18c-ee67-47b9-8b34-0722490b2472","ios":"levelo://app?vid=0f82c18c-ee67-47b9-8b34-0722490b2472"},"vehicle_type_id":"4","last_reported":1703156768,"current_range_meters":15600,"station_id":"ce4bh092rcd13ifvqd30","pricing_plan_id":"free"},{"bike_id":"e33267fd-bdc5-4486-bd06-03cdda13a56b","system_id":"levelo_inurba_marseille","lat":43.28727,"lon":5.36078,"is_reserved":false,"is_disabled":false,"rental_uris":{"android":"levelo://app?vid=e33267fd-bdc5-4486-bd06-03cdda13a56b","ios":"levelo://app?vid=e33267fd-bdc5-4486-bd06-03cdda13a56b"},"vehicle_type_id":"4","last_reported":1703156768,"current_range_meters":12400,"station_id":"cki0cbj6b192h4jlfktg","pricing_plan_id":"free"},{"bike_id":"ef8a375f-f5b2-4f6a-bcac-03830260deab","system_id":"levelo_inurba_marseille","lat":43.28727,"lon":5.36078,"is_reserved":false,"is_disabled":false,"rental_uris":{"android":"levelo://app?vid=ef8a375f-f5b2-4f6a-bcac-03830260deab","ios":"levelo://app?vid=ef8a375f-f5b2-4f6a-bcac-03830260deab"},"vehicle_type_id":"4","last_reported":1703156768,"current_range_meters":18000,"station_id":"cki0cbj6b192h4jlfktg","pricing_plan_id":"free"},{"bike_id":"4a3dce4d-9723-4003-8d55-9c56bac9d26b","system_id":"levelo_inurba_marseille","lat":43.29874,"lon":5.39736,"is_reserved":false,"is_disabled":false,"rental_uris":{"android":"levelo://app?vid=4a3dce4d-9723-4003-8d55-9c56bac9d26b","ios":"levelo://app?vid=4a3dce4d-9723-4003-8d55-9c56bac9d26b"},"vehicle_type_id":"4","last_reported":1703156768,"current_range_meters":0,"station_id":"ce4bh0h2rcd13ifvqd50","pricing_plan_id":"free"},{"bike_id":"c1a54c8c-cb72-4c72-8424-32d404636075","system_id":"levelo_inurba_marseille","lat":43.290345,"lon":5.38646,"is_reserved":false,"is_disabled":false,"rental_uris":{"android":"levelo://app?vid=c1a54c8c-cb72-4c72-8424-32d404636075","ios":"levelo://app?vid=c1a54c8c-cb72-4c72-8424-32d404636075"},"vehicle_type_id":"4","last_reported":1703156768,"current_range_meters":18000,"station_id":"ce4bh4p2rcd13ifvqe0g","pricing_plan_id":"free"},{"bike_id":"8f64d522-7a38-45fb-b6e6-5b4d6337952b","system_id":"levelo_inurba_marseille","lat":43.290345,"lon":5.38646,"is_reserved":false,"is_disabled":false,"rental_uris":{"android":"levelo://app?vid=8f64d522-7a38-45fb-b6e6-5b4d6337952b","ios":"levelo://app?vid=8f64d522-7a38-45fb-b6e6-5b4d6337952b"},"vehicle_type_id":"4","last_reported":1703156768,"current_range_meters":0,"station_id":"ce4bh4p2rcd13ifvqe0g","pricing_plan_id":"free"},{"bike_id":"152d8e57-f7c5-44be-a835-6bd95a868408","system_id":"levelo_inurba_marseille","lat":43.284538,"lon":5.358657,"is_reserved":false,"is_disabled":false,"rental_uris":{"android":"levelo://app?vid=152d8e57-f7c5-44be-a835-6bd95a868408","ios":"levelo://app?vid=152d8e57-f7c5-44be-a835-6bd95a868408"},"vehicle_type_id":"4","last_reported":1703156768,"current_range_meters":12400,"station_id":"ce4bhah2rcd13ifvqei0","pricing_plan_id":"free"},{"bike_id":"93a736df-211c-4b1b-9cc6-83a381c0b635","system_id":"levelo_inurba_marseille","lat":43.285848,"lon":5.350787,"is_reserved":false,"is_disabled":false,"rental_uris":{"android":"levelo://app?vid=93a736df-211c-4b1b-9cc6-83a381c0b635","ios":"levelo://app?vid=93a736df-211c-4b1b-9cc6-83a381c0b635"},"vehicle_type_id":"4","last_reported":1703156768,"current_range_meters":16800,"station_id":"ce4bhch2rcd13ifvqeug","pricing_plan_id":"free"},{"bike_id":"7eeaae8b-982b-42e4-8538-83fd54adcf1b","system_id":"levelo_inurba_marseille","lat":43.285848,"lon":5.350787,"is_reserved":false,"is_disabled":false,"rental_uris":{"android":"levelo://app?vid=7eeaae8b-982b-42e4-8538-83fd54adcf1b","ios":"levelo://app?vid=7eeaae8b-982b-42e4-8538-83fd54adcf1b"},"vehicle_type_id":"4","last_reported":1703156768,"current_range_meters":20800,"station_id":"ce4bhch2rcd13ifvqeug","pricing_plan_id":"free"},{"bike_id":"23f1c0ca-6a2a-40bf-9750-46ae705a5358","system_id":"levelo_inurba_marseille","lat":43.285848,"lon":5.350787,"is_reserved":false,"is_disabled":false,"rental_uris":{"android":"levelo://app?vid=23f1c0ca-6a2a-40bf-9750-46ae705a5358","ios":"levelo://app?vid=23f1c0ca-6a2a-40bf-9750-46ae705a5358"},"vehicle_type_id":"4","last_reported":1703156768,"current_range_meters":18800,"station_id":"ce4bhch2rcd13ifvqeug","pricing_plan_id":"free"},{"bike_id":"8538e6dd-dbef-4a5a-a119-9a857fd021ad","system_id":"levelo_inurba_marseille","lat":43.33218,"lon":5.397067,"is_reserved":false,"is_disabled":false,"rental_uris":{"android":"levelo://app?vid=8538e6dd-dbef-4a5a-a119-9a857fd021ad","ios":"levelo://app?vid=8538e6dd-dbef-4a5a-a119-9a857fd021ad"},"vehicle_type_id":"4","last_reported":1703156768,"current_range_meters":0,"station_id":"","pricing_plan_id":"free"},{"bike_id":"5a473c70-90da-4bf1-ac9a-e14a11082b6e","system_id":"levelo_inurba_marseille","lat":43.284787,"lon":5.384116,"is_reserved":false,"is_disabled":false,"rental_uris":{"android":"levelo://app?vid=5a473c70-90da-4bf1-ac9a-e14a11082b6e","ios":"levelo://app?vid=5a473c70-90da-4bf1-ac9a-e14a11082b6e"},"vehicle_type_id":"4","last_reported":1703156768,"current_range_meters":21200,"station_id":"ce4bh512rcd13ifvqe3g","pricing_plan_id":"free"},{"bike_id":"5469035a-df4a-4f90-bd51-dd980b3a3b11","system_id":"levelo_inurba_marseille","lat":43.28344,"lon":5.38109,"is_reserved":false,"is_disabled":false,"rental_uris":{"android":"levelo://app?vid=5469035a-df4a-4f90-bd51-dd980b3a3b11","ios":"levelo://app?vid=5469035a-df4a-4f90-bd51-dd980b3a3b11"},"vehicle_type_id":"4","last_reported":1703156768,"current_range_meters":0,"station_id":"ce4bh412rcd13ifvqdr0","pricing_plan_id":"free"},{"bike_id":"0f42eedd-bd33-445f-91fc-4e7504a96eb4","system_id":"levelo_inurba_marseille","lat":43.32412,"lon":5.406787,"is_reserved":false,"is_disabled":false,"rental_uris":{"android":"levelo://app?vid=0f42eedd-bd33-445f-91fc-4e7504a96eb4","ios":"levelo://app?vid=0f42eedd-bd33-445f-91fc-4e7504a96eb4"},"vehicle_type_id":"4","last_reported":1703156768,"current_range_meters":17600,"station_id":"","pricing_plan_id":"free"},{"bike_id":"25acf729-0c15-45f0-8053-2c35b0919b50","system_id":"levelo_inurba_marseille","lat":43.284219,"lon":5.3497,"is_reserved":false,"is_disabled":false,"rental_uris":{"android":"levelo://app?vid=25acf729-0c15-45f0-8053-2c35b0919b50","ios":"levelo://app?vid=25acf729-0c15-45f0-8053-2c35b0919b50"},"vehicle_type_id":"4","last_reported":1703156768,"current_range_meters":30400,"station_id":"ce4bhbh2rcd13ifvqepg","pricing_plan_id":"free"},{"bike_id":"e68ad7a3-9f73-42da-8e90-59adcc6ccfbd","system_id":"levelo_inurba_marseille","lat":43.284219,"lon":5.3497,"is_reserved":false,"is_disabled":false,"rental_uris":{"android":"levelo://app?vid=e68ad7a3-9f73-42da-8e90-59adcc6ccfbd","ios":"levelo://app?vid=e68ad7a3-9f73-42da-8e90-59adcc6ccfbd"},"vehicle_type_id":"4","last_reported":1703156768,"current_range_meters":31200,"station_id":"ce4bhbh2rcd13ifvqepg","pricing_plan_id":"free"},{"bike_id":"2031e777-f2fb-4b7f-9560-32a80ae62c76","system_id":"levelo_inurba_marseille","lat":43.284217,"lon":5.349697,"is_reserved":false,"is_disabled":false,"rental_uris":{"android":"levelo://app?vid=2031e777-f2fb-4b7f-9560-32a80ae62c76","ios":"levelo://app?vid=2031e777-f2fb-4b7f-9560-32a80ae62c76"},"vehicle_type_id":"4","last_reported":1703156768,"current_range_meters":10000,"station_id":"ce4bhbh2rcd13ifvqepg","pricing_plan_id":"free"},{"bike_id":"d0d30fde-c8ad-40e2-b14e-380b8f6e2410","system_id":"levelo_inurba_marseille","lat":43.284217,"lon":5.349697,"is_reserved":false,"is_disabled":false,"rental_uris":{"android":"levelo://app?vid=d0d30fde-c8ad-40e2-b14e-380b8f6e2410","ios":"levelo://app?vid=d0d30fde-c8ad-40e2-b14e-380b8f6e2410"},"vehicle_type_id":"4","last_reported":1703156768,"current_range_meters":13600,"station_id":"ce4bhbh2rcd13ifvqepg","pricing_plan_id":"free"},{"bike_id":"d33d70d6-0a1e-4a44-bfc5-d3da5ecf10ca","system_id":"levelo_inurba_marseille","lat":43.289363,"lon":5.396322,"is_reserved":false,"is_disabled":false,"rental_uris":{"android":"levelo://app?vid=d33d70d6-0a1e-4a44-bfc5-d3da5ecf10ca","ios":"levelo://app?vid=d33d70d6-0a1e-4a44-bfc5-d3da5ecf10ca"},"vehicle_type_id":"4","last_reported":1703156768,"current_range_meters":22000,"station_id":"ce4bh3h2rcd13ifvqdn0","pricing_plan_id":"free"},{"bike_id":"494d98a3-1979-4fff-8f69-2edc18163137","system_id":"levelo_inurba_marseille","lat":43.29271,"lon":5.40111,"is_reserved":false,"is_disabled":false,"rental_uris":{"android":"levelo://app?vid=494d98a3-1979-4fff-8f69-2edc18163137","ios":"levelo://app?vid=494d98a3-1979-4fff-8f69-2edc18163137"},"vehicle_type_id":"4","last_reported":1703156768,"current_range_meters":0,"station_id":"ce4bh312rcd13ifvqdk0","pricing_plan_id":"free"},{"bike_id":"d1117c16-7e29-43bf-9dcb-8d40a3af244d","system_id":"levelo_inurba_marseille","lat":43.287154,"lon":5.399979,"is_reserved":false,"is_disabled":false,"rental_uris":{"android":"levelo://app?vid=d1117c16-7e29-43bf-9dcb-8d40a3af244d","ios":"levelo://app?vid=d1117c16-7e29-43bf-9dcb-8d40a3af244d"},"vehicle_type_id":"4","last_reported":1703156768,"current_range_meters":23200,"station_id":"ce4bho92rcd13ifvqh3g","pricing_plan_id":"free"},{"bike_id":"c4bcab5e-8676-48d8-99ed-41eea105a485","system_id":"levelo_inurba_marseille","lat":43.29041,"lon":5.399634,"is_reserved":false,"is_disabled":false,"rental_uris":{"android":"levelo://app?vid=c4bcab5e-8676-48d8-99ed-41eea105a485","ios":"levelo://app?vid=c4bcab5e-8676-48d8-99ed-41eea105a485"},"vehicle_type_id":"4","last_reported":1703156768,"current_range_meters":26800,"station_id":"ce4bh392rcd13ifvqdm0","pricing_plan_id":"free"},{"bike_id":"fbd2ce6e-c792-49b4-81a5-c8cdbe45b2c3","system_id":"levelo_inurba_marseille","lat":43.284462,"lon":5.392121,"is_reserved":false,"is_disabled":false,"rental_uris":{"android":"levelo://app?vid=fbd2ce6e-c792-49b4-81a5-c8cdbe45b2c3","ios":"levelo://app?vid=fbd2ce6e-c792-49b4-81a5-c8cdbe45b2c3"},"vehicle_type_id":"4","last_reported":1703156768,"current_range_meters":30400,"station_id":"ce4bhoh2rcd13ifvqh5g","pricing_plan_id":"free"},{"bike_id":"a3699879-f32d-49c2-b48e-0a3aa32e9ad2","system_id":"levelo_inurba_marseille","lat":43.284462,"lon":5.392121,"is_reserved":false,"is_disabled":false,"rental_uris":{"android":"levelo://app?vid=a3699879-f32d-49c2-b48e-0a3aa32e9ad2","ios":"levelo://app?vid=a3699879-f32d-49c2-b48e-0a3aa32e9ad2"},"vehicle_type_id":"4","last_reported":1703156768,"current_range_meters":23200,"station_id":"ce4bhoh2rcd13ifvqh5g","pricing_plan_id":"free"},{"bike_id":"698b29fd-10e3-48b7-8fde-37c8d5711e8c","system_id":"levelo_inurba_marseille","lat":43.284462,"lon":5.392121,"is_reserved":false,"is_disabled":false,"rental_uris":{"android":"levelo://app?vid=698b29fd-10e3-48b7-8fde-37c8d5711e8c","ios":"levelo://app?vid=698b29fd-10e3-48b7-8fde-37c8d5711e8c"},"vehicle_type_id":"4","last_reported":1703156768,"current_range_meters":25600,"station_id":"ce4bhoh2rcd13ifvqh5g","pricing_plan_id":"free"},{"bike_id":"bdddb89b-d4ea-48fd-84d2-aafa175bf35f","system_id":"levelo_inurba_marseille","lat":43.284462,"lon":5.392121,"is_reserved":false,"is_disabled":false,"rental_uris":{"android":"levelo://app?vid=bdddb89b-d4ea-48fd-84d2-aafa175bf35f","ios":"levelo://app?vid=bdddb89b-d4ea-48fd-84d2-aafa175bf35f"},"vehicle_type_id":"4","last_reported":1703156768,"current_range_meters":27600,"station_id":"ce4bhoh2rcd13ifvqh5g","pricing_plan_id":"free"},{"bike_id":"20a66e52-3814-408d-87be-64cea1c56576","system_id":"levelo_inurba_marseille","lat":43.284462,"lon":5.392121,"is_reserved":false,"is_disabled":false,"rental_uris":{"android":"levelo://app?vid=20a66e52-3814-408d-87be-64cea1c56576","ios":"levelo://app?vid=20a66e52-3814-408d-87be-64cea1c56576"},"vehicle_type_id":"4","last_reported":1703156768,"current_range_meters":28400,"station_id":"ce4bhoh2rcd13ifvqh5g","pricing_plan_id":"free"},{"bike_id":"12dc0ac8-8431-4f45-b8fa-4270a91d62a9","system_id":"levelo_inurba_marseille","lat":43.284462,"lon":5.392121,"is_reserved":false,"is_disabled":false,"rental_uris":{"android":"levelo://app?vid=12dc0ac8-8431-4f45-b8fa-4270a91d62a9","ios":"levelo://app?vid=12dc0ac8-8431-4f45-b8fa-4270a91d62a9"},"vehicle_type_id":"4","last_reported":1703156768,"current_range_meters":31600,"station_id":"ce4bhoh2rcd13ifvqh5g","pricing_plan_id":"free"},{"bike_id":"fac924f5-635f-46ca-b84f-a9d9ddf9e3f4","system_id":"levelo_inurba_marseille","lat":43.284462,"lon":5.392121,"is_reserved":false,"is_disabled":false,"rental_uris":{"android":"levelo://app?vid=fac924f5-635f-46ca-b84f-a9d9ddf9e3f4","ios":"levelo://app?vid=fac924f5-635f-46ca-b84f-a9d9ddf9e3f4"},"vehicle_type_id":"4","last_reported":1703156768,"current_range_meters":18400,"station_id":"ce4bhoh2rcd13ifvqh5g","pricing_plan_id":"free"},{"bike_id":"adcd56aa-785f-4acc-9fb4-aba9ca0440ab","system_id":"levelo_inurba_marseille","lat":43.304188,"lon":5.412904,"is_reserved":false,"is_disabled":false,"rental_uris":{"android":"levelo://app?vid=adcd56aa-785f-4acc-9fb4-aba9ca0440ab","ios":"levelo://app?vid=adcd56aa-785f-4acc-9fb4-aba9ca0440ab"},"vehicle_type_id":"4","last_reported":1703156768,"current_range_meters":20000,"station_id":"ce4bhop2rcd13ifvqh8g","pricing_plan_id":"free"},{"bike_id":"26944012-8df6-487e-9f8f-41cba95cfc9e","system_id":"levelo_inurba_marseille","lat":43.287154,"lon":5.399979,"is_reserved":false,"is_disabled":false,"rental_uris":{"android":"levelo://app?vid=26944012-8df6-487e-9f8f-41cba95cfc9e","ios":"levelo://app?vid=26944012-8df6-487e-9f8f-41cba95cfc9e"},"vehicle_type_id":"4","last_reported":1703156768,"current_range_meters":16400,"station_id":"ce4bho92rcd13ifvqh3g","pricing_plan_id":"free"},{"bike_id":"bc77ac53-1734-4d5d-a709-01c2c5f773e1","system_id":"levelo_inurba_marseille","lat":43.287154,"lon":5.399979,"is_reserved":false,"is_disabled":false,"rental_uris":{"android":"levelo://app?vid=bc77ac53-1734-4d5d-a709-01c2c5f773e1","ios":"levelo://app?vid=bc77ac53-1734-4d5d-a709-01c2c5f773e1"},"vehicle_type_id":"4","last_reported":1703156768,"current_range_meters":18800,"station_id":"ce4bho92rcd13ifvqh3g","pricing_plan_id":"free"},{"bike_id":"688f7685-7309-4f81-b80e-e9717365a408","system_id":"levelo_inurba_marseille","lat":43.320045,"lon":5.415048,"is_reserved":false,"is_disabled":false,"rental_uris":{"android":"levelo://app?vid=688f7685-7309-4f81-b80e-e9717365a408","ios":"levelo://app?vid=688f7685-7309-4f81-b80e-e9717365a408"},"vehicle_type_id":"4","last_reported":1703156768,"current_range_meters":4800,"station_id":"ce4bhq92rcd13ifvqhkg","pricing_plan_id":"free"},{"bike_id":"b7f90704-26af-4d37-b76f-1a966422bb17","system_id":"levelo_inurba_marseille","lat":43.32533,"lon":5.414263,"is_reserved":false,"is_disabled":false,"rental_uris":{"android":"levelo://app?vid=b7f90704-26af-4d37-b76f-1a966422bb17","ios":"levelo://app?vid=b7f90704-26af-4d37-b76f-1a966422bb17"},"vehicle_type_id":"4","last_reported":1703156768,"current_range_meters":30400,"station_id":"ce4bhq12rcd13ifvqhhg","pricing_plan_id":"free"},{"bike_id":"9c1b43f5-fe03-41d1-8d3b-5abb18dfcac4","system_id":"levelo_inurba_marseille","lat":43.325233,"lon":5.414318,"is_reserved":false,"is_disabled":false,"rental_uris":{"android":"levelo://app?vid=9c1b43f5-fe03-41d1-8d3b-5abb18dfcac4","ios":"levelo://app?vid=9c1b43f5-fe03-41d1-8d3b-5abb18dfcac4"},"vehicle_type_id":"4","last_reported":1703156768,"current_range_meters":20800,"station_id":"ce4bhq12rcd13ifvqhhg","pricing_plan_id":"free"},{"bike_id":"6c1a6977-de43-497f-b7fe-0ac7e8be0658","system_id":"levelo_inurba_marseille","lat":43.325243,"lon":5.414326,"is_reserved":false,"is_disabled":false,"rental_uris":{"android":"levelo://app?vid=6c1a6977-de43-497f-b7fe-0ac7e8be0658","ios":"levelo://app?vid=6c1a6977-de43-497f-b7fe-0ac7e8be0658"},"vehicle_type_id":"4","last_reported":1703156768,"current_range_meters":30400,"station_id":"ce4bhq12rcd13ifvqhhg","pricing_plan_id":"free"},{"bike_id":"12a389ad-c2a2-4a79-b30b-58e593528180","system_id":"levelo_inurba_marseille","lat":43.292569,"lon":5.409107,"is_reserved":false,"is_disabled":false,"rental_uris":{"android":"levelo://app?vid=12a389ad-c2a2-4a79-b30b-58e593528180","ios":"levelo://app?vid=12a389ad-c2a2-4a79-b30b-58e593528180"},"vehicle_type_id":"4","last_reported":1703156768,"current_range_meters":10400,"station_id":"ce4bh192rcd13ifvqdc0","pricing_plan_id":"free"},{"bike_id":"1a937141-33b2-4d3a-a476-496a1a8c2d08","system_id":"levelo_inurba_marseille","lat":43.280784,"lon":5.396622,"is_reserved":false,"is_disabled":false,"rental_uris":{"android":"levelo://app?vid=1a937141-33b2-4d3a-a476-496a1a8c2d08","ios":"levelo://app?vid=1a937141-33b2-4d3a-a476-496a1a8c2d08"},"vehicle_type_id":"4","last_reported":1703156768,"current_range_meters":15200,"station_id":"ce4bho12rcd13ifvqh2g","pricing_plan_id":"free"},{"bike_id":"e08b7c96-79e5-4077-b55f-738f27113a8b","system_id":"levelo_inurba_marseille","lat":43.278399,"lon":5.392139,"is_reserved":false,"is_disabled":false,"rental_uris":{"android":"levelo://app?vid=e08b7c96-79e5-4077-b55f-738f27113a8b","ios":"levelo://app?vid=e08b7c96-79e5-4077-b55f-738f27113a8b"},"vehicle_type_id":"4","last_reported":1703156768,"current_range_meters":28000,"station_id":"ce4bhjp2rcd13ifvqga0","pricing_plan_id":"free"},{"bike_id":"8440783c-07c9-423e-a7fc-7d68df01cf8d","system_id":"levelo_inurba_marseille","lat":43.273613,"lon":5.362705,"is_reserved":false,"is_disabled":false,"rental_uris":{"android":"levelo://app?vid=8440783c-07c9-423e-a7fc-7d68df01cf8d","ios":"levelo://app?vid=8440783c-07c9-423e-a7fc-7d68df01cf8d"},"vehicle_type_id":"4","last_reported":1703156768,"current_range_meters":18400,"station_id":"ce4bhbh2rcd13ifvqeo0","pricing_plan_id":"free"},{"bike_id":"f6127d15-b5f4-4acd-8e2f-b682fadcea45","system_id":"levelo_inurba_marseille","lat":43.275625,"lon":5.384392,"is_reserved":false,"is_disabled":false,"rental_uris":{"android":"levelo://app?vid=f6127d15-b5f4-4acd-8e2f-b682fadcea45","ios":"levelo://app?vid=f6127d15-b5f4-4acd-8e2f-b682fadcea45"},"vehicle_type_id":"4","last_reported":1703156768,"current_range_meters":25200,"station_id":"ce4bhh92rcd13ifvqfi0","pricing_plan_id":"free"},{"bike_id":"a2961cf9-de37-41a0-9b1a-96bfa4e4887c","system_id":"levelo_inurba_marseille","lat":43.275594,"lon":5.384284,"is_reserved":false,"is_disabled":false,"rental_uris":{"android":"levelo://app?vid=a2961cf9-de37-41a0-9b1a-96bfa4e4887c","ios":"levelo://app?vid=a2961cf9-de37-41a0-9b1a-96bfa4e4887c"},"vehicle_type_id":"4","last_reported":1703156768,"current_range_meters":25200,"station_id":"ce4bhh92rcd13ifvqfi0","pricing_plan_id":"free"},{"bike_id":"e41ac5a2-9343-4c24-902f-1b8bfd0fa19e","system_id":"levelo_inurba_marseille","lat":43.276771,"lon":5.388799,"is_reserved":false,"is_disabled":false,"rental_uris":{"android":"levelo://app?vid=e41ac5a2-9343-4c24-902f-1b8bfd0fa19e","ios":"levelo://app?vid=e41ac5a2-9343-4c24-902f-1b8bfd0fa19e"},"vehicle_type_id":"4","last_reported":1703156768,"current_range_meters":9600,"station_id":"ce4bhi12rcd13ifvqfo0","pricing_plan_id":"free"},{"bike_id":"c166fdab-dbad-4efb-9f3b-b327c0cb0b53","system_id":"levelo_inurba_marseille","lat":43.279975,"lon":5.40009,"is_reserved":false,"is_disabled":false,"rental_uris":{"android":"levelo://app?vid=c166fdab-dbad-4efb-9f3b-b327c0cb0b53","ios":"levelo://app?vid=c166fdab-dbad-4efb-9f3b-b327c0cb0b53"},"vehicle_type_id":"4","last_reported":1703156768,"current_range_meters":22000,"station_id":"ce4bho92rcd13ifvqh4g","pricing_plan_id":"free"},{"bike_id":"0078fc31-b533-44cb-b47c-4aff8b27716d","system_id":"levelo_inurba_marseille","lat":43.279977,"lon":5.400184,"is_reserved":false,"is_disabled":false,"rental_uris":{"android":"levelo://app?vid=0078fc31-b533-44cb-b47c-4aff8b27716d","ios":"levelo://app?vid=0078fc31-b533-44cb-b47c-4aff8b27716d"},"vehicle_type_id":"4","last_reported":1703156768,"current_range_meters":25200,"station_id":"ce4bho92rcd13ifvqh4g","pricing_plan_id":"free"},{"bike_id":"2ccdce10-14f3-49aa-864f-a4af82f9832d","system_id":"levelo_inurba_marseille","lat":43.279952,"lon":5.400085,"is_reserved":false,"is_disabled":false,"rental_uris":{"android":"levelo://app?vid=2ccdce10-14f3-49aa-864f-a4af82f9832d","ios":"levelo://app?vid=2ccdce10-14f3-49aa-864f-a4af82f9832d"},"vehicle_type_id":"4","last_reported":1703156768,"current_range_meters":30400,"station_id":"ce4bho92rcd13ifvqh4g","pricing_plan_id":"free"},{"bike_id":"22ed5440-f54a-48b7-8f11-2fd3bdb32cd1","system_id":"levelo_inurba_marseille","lat":43.310785,"lon":5.424305,"is_reserved":false,"is_disabled":false,"rental_uris":{"android":"levelo://app?vid=22ed5440-f54a-48b7-8f11-2fd3bdb32cd1","ios":"levelo://app?vid=22ed5440-f54a-48b7-8f11-2fd3bdb32cd1"},"vehicle_type_id":"4","last_reported":1703156768,"current_range_meters":26000,"station_id":"ce4bhp92rcd13ifvqhag","pricing_plan_id":"free"},{"bike_id":"a7ebbe4e-e4b4-4b88-92ae-339f682a95cb","system_id":"levelo_inurba_marseille","lat":43.310785,"lon":5.424305,"is_reserved":false,"is_disabled":false,"rental_uris":{"android":"levelo://app?vid=a7ebbe4e-e4b4-4b88-92ae-339f682a95cb","ios":"levelo://app?vid=a7ebbe4e-e4b4-4b88-92ae-339f682a95cb"},"vehicle_type_id":"4","last_reported":1703156768,"current_range_meters":19600,"station_id":"ce4bhp92rcd13ifvqhag","pricing_plan_id":"free"},{"bike_id":"21f4a169-6e35-4a8e-94ba-dad1b033815c","system_id":"levelo_inurba_marseille","lat":43.310785,"lon":5.424305,"is_reserved":false,"is_disabled":false,"rental_uris":{"android":"levelo://app?vid=21f4a169-6e35-4a8e-94ba-dad1b033815c","ios":"levelo://app?vid=21f4a169-6e35-4a8e-94ba-dad1b033815c"},"vehicle_type_id":"4","last_reported":1703156768,"current_range_meters":1600,"station_id":"ce4bhp92rcd13ifvqhag","pricing_plan_id":"free"},{"bike_id":"decdd8cf-b71c-48df-99a7-f30058e39ec0","system_id":"levelo_inurba_marseille","lat":43.34137,"lon":5.40912,"is_reserved":false,"is_disabled":false,"rental_uris":{"android":"levelo://app?vid=decdd8cf-b71c-48df-99a7-f30058e39ec0","ios":"levelo://app?vid=decdd8cf-b71c-48df-99a7-f30058e39ec0"},"vehicle_type_id":"4","last_reported":1703156768,"current_range_meters":0,"station_id":"ce4bhqh2rcd13ifvqhlg","pricing_plan_id":"free"},{"bike_id":"974dc7db-ff3c-4554-8964-132f9db52d9b","system_id":"levelo_inurba_marseille","lat":43.276092,"lon":5.395289,"is_reserved":false,"is_disabled":false,"rental_uris":{"android":"levelo://app?vid=974dc7db-ff3c-4554-8964-132f9db52d9b","ios":"levelo://app?vid=974dc7db-ff3c-4554-8964-132f9db52d9b"},"vehicle_type_id":"4","last_reported":1703156768,"current_range_meters":0,"station_id":"","pricing_plan_id":"free"},{"bike_id":"bf502de2-f50f-490d-b8af-d0080bdd9469","system_id":"levelo_inurba_marseille","lat":43.273129,"lon":5.390725,"is_reserved":false,"is_disabled":false,"rental_uris":{"android":"levelo://app?vid=bf502de2-f50f-490d-b8af-d0080bdd9469","ios":"levelo://app?vid=bf502de2-f50f-490d-b8af-d0080bdd9469"},"vehicle_type_id":"4","last_reported":1703156768,"current_range_meters":17200,"station_id":"ce4bhgp2rcd13ifvqfe0","pricing_plan_id":"free"},{"bike_id":"d9a02183-a000-43af-b331-798da0a99f12","system_id":"levelo_inurba_marseille","lat":43.273129,"lon":5.390725,"is_reserved":false,"is_disabled":false,"rental_uris":{"android":"levelo://app?vid=d9a02183-a000-43af-b331-798da0a99f12","ios":"levelo://app?vid=d9a02183-a000-43af-b331-798da0a99f12"},"vehicle_type_id":"4","last_reported":1703156768,"current_range_meters":27200,"station_id":"ce4bhgp2rcd13ifvqfe0","pricing_plan_id":"free"},{"bike_id":"b2246717-b6d6-46bf-9868-75e79fd6bc16","system_id":"levelo_inurba_marseille","lat":43.274099,"lon":5.394019,"is_reserved":false,"is_disabled":false,"rental_uris":{"android":"levelo://app?vid=b2246717-b6d6-46bf-9868-75e79fd6bc16","ios":"levelo://app?vid=b2246717-b6d6-46bf-9868-75e79fd6bc16"},"vehicle_type_id":"4","last_reported":1703156768,"current_range_meters":30000,"station_id":"ce4bhdp2rcd13ifvqf20","pricing_plan_id":"free"},{"bike_id":"2be595cb-94de-4ed8-97b5-1bcdfea7cfdb","system_id":"levelo_inurba_marseille","lat":43.304088,"lon":5.425388,"is_reserved":false,"is_disabled":false,"rental_uris":{"android":"levelo://app?vid=2be595cb-94de-4ed8-97b5-1bcdfea7cfdb","ios":"levelo://app?vid=2be595cb-94de-4ed8-97b5-1bcdfea7cfdb"},"vehicle_type_id":"4","last_reported":1703156768,"current_range_meters":18000,"station_id":"ce4bhoh2rcd13ifvqh6g","pricing_plan_id":"free"},{"bike_id":"96484c65-8dd7-4167-a438-a7d837c6b7a7","system_id":"levelo_inurba_marseille","lat":43.295523,"lon":5.422926,"is_reserved":false,"is_disabled":false,"rental_uris":{"android":"levelo://app?vid=96484c65-8dd7-4167-a438-a7d837c6b7a7","ios":"levelo://app?vid=96484c65-8dd7-4167-a438-a7d837c6b7a7"},"vehicle_type_id":"4","last_reported":1703156768,"current_range_meters":32000,"station_id":"ce4bhph2rcd13ifvqhdg","pricing_plan_id":"free"},{"bike_id":"22706b4f-3656-4e38-92ed-f7cffffc8317","system_id":"levelo_inurba_marseille","lat":43.295523,"lon":5.422926,"is_reserved":false,"is_disabled":false,"rental_uris":{"android":"levelo://app?vid=22706b4f-3656-4e38-92ed-f7cffffc8317","ios":"levelo://app?vid=22706b4f-3656-4e38-92ed-f7cffffc8317"},"vehicle_type_id":"4","last_reported":1703156768,"current_range_meters":21200,"station_id":"ce4bhph2rcd13ifvqhdg","pricing_plan_id":"free"},{"bike_id":"e1bf0a92-1001-45ad-b936-6f06e086a92c","system_id":"levelo_inurba_marseille","lat":43.295511,"lon":5.422926,"is_reserved":false,"is_disabled":false,"rental_uris":{"android":"levelo://app?vid=e1bf0a92-1001-45ad-b936-6f06e086a92c","ios":"levelo://app?vid=e1bf0a92-1001-45ad-b936-6f06e086a92c"},"vehicle_type_id":"4","last_reported":1703156768,"current_range_meters":4000,"station_id":"ce4bhph2rcd13ifvqhdg","pricing_plan_id":"free"},{"bike_id":"5b29fe46-f98b-40e4-8c4c-2a510e7be214","system_id":"levelo_inurba_marseille","lat":43.295511,"lon":5.422926,"is_reserved":false,"is_disabled":false,"rental_uris":{"android":"levelo://app?vid=5b29fe46-f98b-40e4-8c4c-2a510e7be214","ios":"levelo://app?vid=5b29fe46-f98b-40e4-8c4c-2a510e7be214"},"vehicle_type_id":"4","last_reported":1703156768,"current_range_meters":15200,"station_id":"ce4bhph2rcd13ifvqhdg","pricing_plan_id":"free"},{"bike_id":"b820e38f-be0d-4e7b-9fb1-dfc16632fe0d","system_id":"levelo_inurba_marseille","lat":43.295511,"lon":5.422926,"is_reserved":false,"is_disabled":false,"rental_uris":{"android":"levelo://app?vid=b820e38f-be0d-4e7b-9fb1-dfc16632fe0d","ios":"levelo://app?vid=b820e38f-be0d-4e7b-9fb1-dfc16632fe0d"},"vehicle_type_id":"4","last_reported":1703156768,"current_range_meters":25200,"station_id":"ce4bhph2rcd13ifvqhdg","pricing_plan_id":"free"},{"bike_id":"b55db1a0-b820-479b-9929-7610c21584c5","system_id":"levelo_inurba_marseille","lat":43.295511,"lon":5.422926,"is_reserved":false,"is_disabled":false,"rental_uris":{"android":"levelo://app?vid=b55db1a0-b820-479b-9929-7610c21584c5","ios":"levelo://app?vid=b55db1a0-b820-479b-9929-7610c21584c5"},"vehicle_type_id":"4","last_reported":1703156768,"current_range_meters":25200,"station_id":"ce4bhph2rcd13ifvqhdg","pricing_plan_id":"free"},{"bike_id":"97999d47-e50f-4006-afef-b554a87fcfb7","system_id":"levelo_inurba_marseille","lat":43.295511,"lon":5.422926,"is_reserved":false,"is_disabled":false,"rental_uris":{"android":"levelo://app?vid=97999d47-e50f-4006-afef-b554a87fcfb7","ios":"levelo://app?vid=97999d47-e50f-4006-afef-b554a87fcfb7"},"vehicle_type_id":"4","last_reported":1703156768,"current_range_meters":9600,"station_id":"ce4bhph2rcd13ifvqhdg","pricing_plan_id":"free"},{"bike_id":"cf8f989c-0f9b-44c9-a902-baf07382b6e1","system_id":"levelo_inurba_marseille","lat":43.295523,"lon":5.422926,"is_reserved":false,"is_disabled":false,"rental_uris":{"android":"levelo://app?vid=cf8f989c-0f9b-44c9-a902-baf07382b6e1","ios":"levelo://app?vid=cf8f989c-0f9b-44c9-a902-baf07382b6e1"},"vehicle_type_id":"4","last_reported":1703156768,"current_range_meters":17600,"station_id":"ce4bhph2rcd13ifvqhdg","pricing_plan_id":"free"},{"bike_id":"e1718046-7a3c-4e23-803c-063df1fec1b5","system_id":"levelo_inurba_marseille","lat":43.272116,"lon":5.391747,"is_reserved":false,"is_disabled":false,"rental_uris":{"android":"levelo://app?vid=e1718046-7a3c-4e23-803c-063df1fec1b5","ios":"levelo://app?vid=e1718046-7a3c-4e23-803c-063df1fec1b5"},"vehicle_type_id":"4","last_reported":1703156768,"current_range_meters":7600,"station_id":"ce4bhhp2rcd13ifvqfm0","pricing_plan_id":"free"},{"bike_id":"d30199b5-0058-44e6-bf85-299f3545e092","system_id":"levelo_inurba_marseille","lat":43.278128,"lon":5.407195,"is_reserved":false,"is_disabled":false,"rental_uris":{"android":"levelo://app?vid=d30199b5-0058-44e6-bf85-299f3545e092","ios":"levelo://app?vid=d30199b5-0058-44e6-bf85-299f3545e092"},"vehicle_type_id":"4","last_reported":1703156768,"current_range_meters":31200,"station_id":"ce4bhnh2rcd13ifvqgtg","pricing_plan_id":"free"},{"bike_id":"1cf29c8c-3aa7-45da-9151-6233028e2361","system_id":"levelo_inurba_marseille","lat":43.278128,"lon":5.407195,"is_reserved":false,"is_disabled":false,"rental_uris":{"android":"levelo://app?vid=1cf29c8c-3aa7-45da-9151-6233028e2361","ios":"levelo://app?vid=1cf29c8c-3aa7-45da-9151-6233028e2361"},"vehicle_type_id":"4","last_reported":1703156768,"current_range_meters":31200,"station_id":"ce4bhnh2rcd13ifvqgtg","pricing_plan_id":"free"},{"bike_id":"c6640060-cd81-49c1-9c3b-b620b8348ace","system_id":"levelo_inurba_marseille","lat":43.278128,"lon":5.407195,"is_reserved":false,"is_disabled":false,"rental_uris":{"android":"levelo://app?vid=c6640060-cd81-49c1-9c3b-b620b8348ace","ios":"levelo://app?vid=c6640060-cd81-49c1-9c3b-b620b8348ace"},"vehicle_type_id":"4","last_reported":1703156768,"current_range_meters":31200,"station_id":"ce4bhnh2rcd13ifvqgtg","pricing_plan_id":"free"},{"bike_id":"e368d309-2938-4c86-99b1-71b0fef1e6a8","system_id":"levelo_inurba_marseille","lat":43.269467,"lon":5.386439,"is_reserved":false,"is_disabled":false,"rental_uris":{"android":"levelo://app?vid=e368d309-2938-4c86-99b1-71b0fef1e6a8","ios":"levelo://app?vid=e368d309-2938-4c86-99b1-71b0fef1e6a8"},"vehicle_type_id":"4","last_reported":1703156768,"current_range_meters":18400,"station_id":"ce4bhh92rcd13ifvqfh0","pricing_plan_id":"free"},{"bike_id":"934e6eae-f346-4018-bb25-353c75a5712b","system_id":"levelo_inurba_marseille","lat":43.269547,"lon":5.38632,"is_reserved":false,"is_disabled":false,"rental_uris":{"android":"levelo://app?vid=934e6eae-f346-4018-bb25-353c75a5712b","ios":"levelo://app?vid=934e6eae-f346-4018-bb25-353c75a5712b"},"vehicle_type_id":"4","last_reported":1703156768,"current_range_meters":24800,"station_id":"ce4bhh92rcd13ifvqfh0","pricing_plan_id":"free"},{"bike_id":"baa26ee1-d04c-4664-a582-70cdda2ac72f","system_id":"levelo_inurba_marseille","lat":43.269467,"lon":5.386439,"is_reserved":false,"is_disabled":false,"rental_uris":{"android":"levelo://app?vid=baa26ee1-d04c-4664-a582-70cdda2ac72f","ios":"levelo://app?vid=baa26ee1-d04c-4664-a582-70cdda2ac72f"},"vehicle_type_id":"4","last_reported":1703156768,"current_range_meters":21200,"station_id":"ce4bhh92rcd13ifvqfh0","pricing_plan_id":"free"},{"bike_id":"0e8b4398-3a6c-44db-897f-a6c2814378d8","system_id":"levelo_inurba_marseille","lat":43.269467,"lon":5.386439,"is_reserved":false,"is_disabled":false,"rental_uris":{"android":"levelo://app?vid=0e8b4398-3a6c-44db-897f-a6c2814378d8","ios":"levelo://app?vid=0e8b4398-3a6c-44db-897f-a6c2814378d8"},"vehicle_type_id":"4","last_reported":1703156768,"current_range_meters":16800,"station_id":"ce4bhh92rcd13ifvqfh0","pricing_plan_id":"free"},{"bike_id":"919201fc-c2d1-4af5-9310-baef3d4928e1","system_id":"levelo_inurba_marseille","lat":43.269467,"lon":5.386439,"is_reserved":false,"is_disabled":false,"rental_uris":{"android":"levelo://app?vid=919201fc-c2d1-4af5-9310-baef3d4928e1","ios":"levelo://app?vid=919201fc-c2d1-4af5-9310-baef3d4928e1"},"vehicle_type_id":"4","last_reported":1703156768,"current_range_meters":25600,"station_id":"ce4bhh92rcd13ifvqfh0","pricing_plan_id":"free"},{"bike_id":"7e9c2d59-c8cd-4749-853a-de401ef5c64b","system_id":"levelo_inurba_marseille","lat":43.269467,"lon":5.386439,"is_reserved":false,"is_disabled":false,"rental_uris":{"android":"levelo://app?vid=7e9c2d59-c8cd-4749-853a-de401ef5c64b","ios":"levelo://app?vid=7e9c2d59-c8cd-4749-853a-de401ef5c64b"},"vehicle_type_id":"4","last_reported":1703156768,"current_range_meters":26000,"station_id":"ce4bhh92rcd13ifvqfh0","pricing_plan_id":"free"},{"bike_id":"1d874513-3522-4671-a576-6066e801f589","system_id":"levelo_inurba_marseille","lat":43.26947,"lon":5.38634,"is_reserved":false,"is_disabled":false,"rental_uris":{"android":"levelo://app?vid=1d874513-3522-4671-a576-6066e801f589","ios":"levelo://app?vid=1d874513-3522-4671-a576-6066e801f589"},"vehicle_type_id":"4","last_reported":1703156768,"current_range_meters":27200,"station_id":"ce4bhh92rcd13ifvqfh0","pricing_plan_id":"free"},{"bike_id":"4a98490b-ec13-4857-9b8c-97fa606891a5","system_id":"levelo_inurba_marseille","lat":43.269467,"lon":5.386439,"is_reserved":false,"is_disabled":false,"rental_uris":{"android":"levelo://app?vid=4a98490b-ec13-4857-9b8c-97fa606891a5","ios":"levelo://app?vid=4a98490b-ec13-4857-9b8c-97fa606891a5"},"vehicle_type_id":"4","last_reported":1703156768,"current_range_meters":28400,"station_id":"ce4bhh92rcd13ifvqfh0","pricing_plan_id":"free"},{"bike_id":"86e873f8-a38e-4794-a872-b5b8802e3aeb","system_id":"levelo_inurba_marseille","lat":43.269467,"lon":5.386439,"is_reserved":false,"is_disabled":false,"rental_uris":{"android":"levelo://app?vid=86e873f8-a38e-4794-a872-b5b8802e3aeb","ios":"levelo://app?vid=86e873f8-a38e-4794-a872-b5b8802e3aeb"},"vehicle_type_id":"4","last_reported":1703156768,"current_range_meters":13200,"station_id":"ce4bhh92rcd13ifvqfh0","pricing_plan_id":"free"},{"bike_id":"9681aff0-da2a-4880-99ea-51fdd1f5202e","system_id":"levelo_inurba_marseille","lat":43.269467,"lon":5.386439,"is_reserved":false,"is_disabled":false,"rental_uris":{"android":"levelo://app?vid=9681aff0-da2a-4880-99ea-51fdd1f5202e","ios":"levelo://app?vid=9681aff0-da2a-4880-99ea-51fdd1f5202e"},"vehicle_type_id":"4","last_reported":1703156768,"current_range_meters":29600,"station_id":"ce4bhh92rcd13ifvqfh0","pricing_plan_id":"free"},{"bike_id":"c235349a-6eab-4009-8305-181eab6fa4ea","system_id":"levelo_inurba_marseille","lat":43.269467,"lon":5.386439,"is_reserved":false,"is_disabled":false,"rental_uris":{"android":"levelo://app?vid=c235349a-6eab-4009-8305-181eab6fa4ea","ios":"levelo://app?vid=c235349a-6eab-4009-8305-181eab6fa4ea"},"vehicle_type_id":"4","last_reported":1703156768,"current_range_meters":28000,"station_id":"ce4bhh92rcd13ifvqfh0","pricing_plan_id":"free"},{"bike_id":"213e632f-c9b3-4a50-b82d-687eaf5bde3b","system_id":"levelo_inurba_marseille","lat":43.269467,"lon":5.386439,"is_reserved":false,"is_disabled":false,"rental_uris":{"android":"levelo://app?vid=213e632f-c9b3-4a50-b82d-687eaf5bde3b","ios":"levelo://app?vid=213e632f-c9b3-4a50-b82d-687eaf5bde3b"},"vehicle_type_id":"4","last_reported":1703156768,"current_range_meters":24800,"station_id":"ce4bhh92rcd13ifvqfh0","pricing_plan_id":"free"},{"bike_id":"69422865-249b-4ba9-a8f2-9f12f17374f4","system_id":"levelo_inurba_marseille","lat":43.269467,"lon":5.386439,"is_reserved":false,"is_disabled":false,"rental_uris":{"android":"levelo://app?vid=69422865-249b-4ba9-a8f2-9f12f17374f4","ios":"levelo://app?vid=69422865-249b-4ba9-a8f2-9f12f17374f4"},"vehicle_type_id":"4","last_reported":1703156768,"current_range_meters":20400,"station_id":"ce4bhh92rcd13ifvqfh0","pricing_plan_id":"free"},{"bike_id":"54f2e7eb-ce57-4b70-ad6c-b3421601538b","system_id":"levelo_inurba_marseille","lat":43.26946,"lon":5.38647,"is_reserved":false,"is_disabled":false,"rental_uris":{"android":"levelo://app?vid=54f2e7eb-ce57-4b70-ad6c-b3421601538b","ios":"levelo://app?vid=54f2e7eb-ce57-4b70-ad6c-b3421601538b"},"vehicle_type_id":"4","last_reported":1703156768,"current_range_meters":26000,"station_id":"ce4bhh92rcd13ifvqfh0","pricing_plan_id":"free"},{"bike_id":"73b73050-58ad-407f-ba84-a2376b055bbf","system_id":"levelo_inurba_marseille","lat":43.279465,"lon":5.410561,"is_reserved":false,"is_disabled":false,"rental_uris":{"android":"levelo://app?vid=73b73050-58ad-407f-ba84-a2376b055bbf","ios":"levelo://app?vid=73b73050-58ad-407f-ba84-a2376b055bbf"},"vehicle_type_id":"4","last_reported":1703156768,"current_range_meters":29200,"station_id":"ce4bhnp2rcd13ifvqh0g","pricing_plan_id":"free"},{"bike_id":"177828f6-b3f8-467c-a5bc-6758ba6b1013","system_id":"levelo_inurba_marseille","lat":43.26684,"lon":5.38272,"is_reserved":false,"is_disabled":false,"rental_uris":{"android":"levelo://app?vid=177828f6-b3f8-467c-a5bc-6758ba6b1013","ios":"levelo://app?vid=177828f6-b3f8-467c-a5bc-6758ba6b1013"},"vehicle_type_id":"4","last_reported":1703156768,"current_range_meters":27200,"station_id":"ce4bhg92rcd13ifvqf90","pricing_plan_id":"free"},{"bike_id":"0ed87846-2b7c-485f-8548-009efb7438a1","system_id":"levelo_inurba_marseille","lat":43.26684,"lon":5.38273,"is_reserved":false,"is_disabled":false,"rental_uris":{"android":"levelo://app?vid=0ed87846-2b7c-485f-8548-009efb7438a1","ios":"levelo://app?vid=0ed87846-2b7c-485f-8548-009efb7438a1"},"vehicle_type_id":"4","last_reported":1703156768,"current_range_meters":13600,"station_id":"ce4bhg92rcd13ifvqf90","pricing_plan_id":"free"},{"bike_id":"a9ba4e8b-8bde-4838-a4d5-b5a8c970b833","system_id":"levelo_inurba_marseille","lat":43.26681,"lon":5.382694,"is_reserved":false,"is_disabled":false,"rental_uris":{"android":"levelo://app?vid=a9ba4e8b-8bde-4838-a4d5-b5a8c970b833","ios":"levelo://app?vid=a9ba4e8b-8bde-4838-a4d5-b5a8c970b833"},"vehicle_type_id":"4","last_reported":1703156768,"current_range_meters":26800,"station_id":"ce4bhg92rcd13ifvqf90","pricing_plan_id":"free"},{"bike_id":"3fabb490-1eca-4163-8e53-bef8dac04080","system_id":"levelo_inurba_marseille","lat":43.26681,"lon":5.382694,"is_reserved":false,"is_disabled":false,"rental_uris":{"android":"levelo://app?vid=3fabb490-1eca-4163-8e53-bef8dac04080","ios":"levelo://app?vid=3fabb490-1eca-4163-8e53-bef8dac04080"},"vehicle_type_id":"4","last_reported":1703156768,"current_range_meters":14800,"station_id":"ce4bhg92rcd13ifvqf90","pricing_plan_id":"free"},{"bike_id":"c6abee2f-540f-4858-95fa-7c53fd6a171b","system_id":"levelo_inurba_marseille","lat":43.26681,"lon":5.382694,"is_reserved":false,"is_disabled":false,"rental_uris":{"android":"levelo://app?vid=c6abee2f-540f-4858-95fa-7c53fd6a171b","ios":"levelo://app?vid=c6abee2f-540f-4858-95fa-7c53fd6a171b"},"vehicle_type_id":"4","last_reported":1703156768,"current_range_meters":16800,"station_id":"ce4bhg92rcd13ifvqf90","pricing_plan_id":"free"},{"bike_id":"499e0ea3-b36e-4411-bf4a-88455c2cfc35","system_id":"levelo_inurba_marseille","lat":43.26681,"lon":5.382694,"is_reserved":false,"is_disabled":false,"rental_uris":{"android":"levelo://app?vid=499e0ea3-b36e-4411-bf4a-88455c2cfc35","ios":"levelo://app?vid=499e0ea3-b36e-4411-bf4a-88455c2cfc35"},"vehicle_type_id":"4","last_reported":1703156768,"current_range_meters":11200,"station_id":"ce4bhg92rcd13ifvqf90","pricing_plan_id":"free"},{"bike_id":"28409cfa-9604-442b-9a4d-7f70005b036e","system_id":"levelo_inurba_marseille","lat":43.26681,"lon":5.382694,"is_reserved":false,"is_disabled":false,"rental_uris":{"android":"levelo://app?vid=28409cfa-9604-442b-9a4d-7f70005b036e","ios":"levelo://app?vid=28409cfa-9604-442b-9a4d-7f70005b036e"},"vehicle_type_id":"4","last_reported":1703156768,"current_range_meters":29600,"station_id":"ce4bhg92rcd13ifvqf90","pricing_plan_id":"free"},{"bike_id":"e5eee720-81cd-4487-a969-6c8bb657cefd","system_id":"levelo_inurba_marseille","lat":43.2799,"lon":5.41657,"is_reserved":false,"is_disabled":false,"rental_uris":{"android":"levelo://app?vid=e5eee720-81cd-4487-a969-6c8bb657cefd","ios":"levelo://app?vid=e5eee720-81cd-4487-a969-6c8bb657cefd"},"vehicle_type_id":"4","last_reported":1703156768,"current_range_meters":0,"station_id":"ce4bho12rcd13ifvqh1g","pricing_plan_id":"free"},{"bike_id":"303d8084-4598-43c0-8bc0-f7ff685c3090","system_id":"levelo_inurba_marseille","lat":43.28979,"lon":5.426433,"is_reserved":false,"is_disabled":false,"rental_uris":{"android":"levelo://app?vid=303d8084-4598-43c0-8bc0-f7ff685c3090","ios":"levelo://app?vid=303d8084-4598-43c0-8bc0-f7ff685c3090"},"vehicle_type_id":"4","last_reported":1703156768,"current_range_meters":400,"station_id":"","pricing_plan_id":"free"},{"bike_id":"d185a919-1fd5-4bf5-b1c7-0e1a680294c2","system_id":"levelo_inurba_marseille","lat":43.26949,"lon":5.40262,"is_reserved":false,"is_disabled":false,"rental_uris":{"android":"levelo://app?vid=d185a919-1fd5-4bf5-b1c7-0e1a680294c2","ios":"levelo://app?vid=d185a919-1fd5-4bf5-b1c7-0e1a680294c2"},"vehicle_type_id":"4","last_reported":1703156768,"current_range_meters":12800,"station_id":"cjm6bp8fraef2m0cb0m0","pricing_plan_id":"free"},{"bike_id":"cc94c972-ff7b-4546-9d86-9d0a06b255e4","system_id":"levelo_inurba_marseille","lat":43.26949,"lon":5.40262,"is_reserved":false,"is_disabled":false,"rental_uris":{"android":"levelo://app?vid=cc94c972-ff7b-4546-9d86-9d0a06b255e4","ios":"levelo://app?vid=cc94c972-ff7b-4546-9d86-9d0a06b255e4"},"vehicle_type_id":"4","last_reported":1703156768,"current_range_meters":27200,"station_id":"cjm6bp8fraef2m0cb0m0","pricing_plan_id":"free"},{"bike_id":"b2f6d5e2-4172-4376-a161-87ef22a0ca9d","system_id":"levelo_inurba_marseille","lat":43.262012,"lon":5.379307,"is_reserved":false,"is_disabled":false,"rental_uris":{"android":"levelo://app?vid=b2f6d5e2-4172-4376-a161-87ef22a0ca9d","ios":"levelo://app?vid=b2f6d5e2-4172-4376-a161-87ef22a0ca9d"},"vehicle_type_id":"4","last_reported":1703156768,"current_range_meters":25600,"station_id":"ce4bhjp2rcd13ifvqg90","pricing_plan_id":"free"},{"bike_id":"ce35b9e3-755d-43da-9e1f-4cea0ff73eea","system_id":"levelo_inurba_marseille","lat":43.26202,"lon":5.379299,"is_reserved":false,"is_disabled":false,"rental_uris":{"android":"levelo://app?vid=ce35b9e3-755d-43da-9e1f-4cea0ff73eea","ios":"levelo://app?vid=ce35b9e3-755d-43da-9e1f-4cea0ff73eea"},"vehicle_type_id":"4","last_reported":1703156768,"current_range_meters":26800,"station_id":"ce4bhjp2rcd13ifvqg90","pricing_plan_id":"free"},{"bike_id":"74e87557-16fd-4015-9249-6ee3bb63732a","system_id":"levelo_inurba_marseille","lat":43.267959,"lon":5.402685,"is_reserved":false,"is_disabled":false,"rental_uris":{"android":"levelo://app?vid=74e87557-16fd-4015-9249-6ee3bb63732a","ios":"levelo://app?vid=74e87557-16fd-4015-9249-6ee3bb63732a"},"vehicle_type_id":"4","last_reported":1703156768,"current_range_meters":8000,"station_id":"ce501612rcd8frsf0b60","pricing_plan_id":"free"},{"bike_id":"bd28b5cb-98cb-4d05-a55e-5887aadc1636","system_id":"levelo_inurba_marseille","lat":43.298768,"lon":5.43643,"is_reserved":false,"is_disabled":false,"rental_uris":{"android":"levelo://app?vid=bd28b5cb-98cb-4d05-a55e-5887aadc1636","ios":"levelo://app?vid=bd28b5cb-98cb-4d05-a55e-5887aadc1636"},"vehicle_type_id":"4","last_reported":1703156768,"current_range_meters":30400,"station_id":"ce4bhpp2rcd13ifvqhfg","pricing_plan_id":"free"},{"bike_id":"69b8414e-b803-47e4-bdac-322d57968726","system_id":"levelo_inurba_marseille","lat":43.260219,"lon":5.37546,"is_reserved":false,"is_disabled":false,"rental_uris":{"android":"levelo://app?vid=69b8414e-b803-47e4-bdac-322d57968726","ios":"levelo://app?vid=69b8414e-b803-47e4-bdac-322d57968726"},"vehicle_type_id":"4","last_reported":1703156768,"current_range_meters":10800,"station_id":"ce4bhgh2rcd13ifvqfa0","pricing_plan_id":"free"},{"bike_id":"2b7af1fb-dafe-42ce-9d9a-e13c5fbf000c","system_id":"levelo_inurba_marseille","lat":43.281548,"lon":5.42643,"is_reserved":false,"is_disabled":false,"rental_uris":{"android":"levelo://app?vid=2b7af1fb-dafe-42ce-9d9a-e13c5fbf000c","ios":"levelo://app?vid=2b7af1fb-dafe-42ce-9d9a-e13c5fbf000c"},"vehicle_type_id":"4","last_reported":1703156768,"current_range_meters":14400,"station_id":"ce4bhnh2rcd13ifvqgug","pricing_plan_id":"free"},{"bike_id":"f1fc0061-6850-415d-a8e2-0a92e93b0059","system_id":"levelo_inurba_marseille","lat":43.281548,"lon":5.42643,"is_reserved":false,"is_disabled":false,"rental_uris":{"android":"levelo://app?vid=f1fc0061-6850-415d-a8e2-0a92e93b0059","ios":"levelo://app?vid=f1fc0061-6850-415d-a8e2-0a92e93b0059"},"vehicle_type_id":"4","last_reported":1703156768,"current_range_meters":6800,"station_id":"ce4bhnh2rcd13ifvqgug","pricing_plan_id":"free"},{"bike_id":"1ce21548-b1a2-4f98-9cad-34b8dd5d1afd","system_id":"levelo_inurba_marseille","lat":43.281548,"lon":5.42643,"is_reserved":false,"is_disabled":false,"rental_uris":{"android":"levelo://app?vid=1ce21548-b1a2-4f98-9cad-34b8dd5d1afd","ios":"levelo://app?vid=1ce21548-b1a2-4f98-9cad-34b8dd5d1afd"},"vehicle_type_id":"4","last_reported":1703156768,"current_range_meters":18000,"station_id":"ce4bhnh2rcd13ifvqgug","pricing_plan_id":"free"},{"bike_id":"7942fcd2-247b-4f07-b81d-f3e0e5c73666","system_id":"levelo_inurba_marseille","lat":43.281548,"lon":5.42643,"is_reserved":false,"is_disabled":false,"rental_uris":{"android":"levelo://app?vid=7942fcd2-247b-4f07-b81d-f3e0e5c73666","ios":"levelo://app?vid=7942fcd2-247b-4f07-b81d-f3e0e5c73666"},"vehicle_type_id":"4","last_reported":1703156768,"current_range_meters":31600,"station_id":"ce4bhnh2rcd13ifvqgug","pricing_plan_id":"free"},