{"last_updated":1683579945,"ttl":30,"version":"2.2","data":{"bikes":[{"bike_id":"d47292a4-18eb-4d64-8074-f5787ba3c380","system_id":"levelo_inurba_marseille","lat":43.312239,"lon":5.368562,"is_reserved":false,"is_disabled":false,"rental_uris":{"android":"levelo://app?vid=d47292a4-18eb-4d64-8074-f5787ba3c380","ios":"levelo://app?vid=d47292a4-18eb-4d64-8074-f5787ba3c380"},"vehicle_type_id":"4","last_reported":1683579945,"current_range_meters":19200,"station_id":"ce4bgl92rcd13ifvqbq0","pricing_plan_id":"free"},{"bike_id":"e59a7df0-9ca9-44f6-905f-4cf580e7ae9b","system_id":"levelo_inurba_marseille","lat":43.314811,"lon":5.373104,"is_reserved":false,"is_disabled":false,"rental_uris":{"android":"levelo://app?vid=e59a7df0-9ca9-44f6-905f-4cf580e7ae9b","ios":"levelo://app?vid=e59a7df0-9ca9-44f6-905f-4cf580e7ae9b"},"vehicle_type_id":"4","last_reported":1683579945,"current_range_meters":19600,"station_id":"ce4bgt12rcd13ifvqcd0","pricing_plan_id":"free"},{"bike_id":"a5da8ec5-cc42-41f3-864b-3ec6db7f2c45","system_id":"levelo_inurba_marseille","lat":43.30543,"lon":5.3671,"is_reserved":false,"is_disabled":false,"rental_uris":{"android":"levelo://app?vid=a5da8ec5-cc42-41f3-864b-3ec6db7f2c45","ios":"levelo://app?vid=a5da8ec5-cc42-41f3-864b-3ec6db7f2c45"},"vehicle_type_id":"4","last_reported":1683579945,"current_range_meters":800,"station_id":"ce4bgrp2rcd13ifvqc9g","pricing_plan_id":"free"},{"bike_id":"233eda76-0656-4b0a-93f5-fea0f1673b99","system_id":"levelo_inurba_marseille","lat":43.305706,"lon":5.365654,"is_reserved":false,"is_disabled":false,"rental_uris":{"android":"levelo://app?vid=233eda76-0656-4b0a-93f5-fea0f1673b99","ios":"levelo://app?vid=233eda76-0656-4b0a-93f5-fea0f1673b99"},"vehicle_type_id":"4","last_reported":1683579945,"current_range_meters":31200,"station_id":"ce4bgs12rcd13ifvqcag","pricing_plan_id":"free"},{"bike_id":"78bee0d8-6659-477a-b07e-9a4e6a33bb26","system_id":"levelo_inurba_marseille","lat":43.305706,"lon":5.365654,"is_reserved":false,"is_disabled":false,"rental_uris":{"android":"levelo://app?vid=78bee0d8-6659-477a-b07e-9a4e6a33bb26","ios":"levelo://app?vid=78bee0d8-6659-477a-b07e-9a4e6a33bb26"},"vehicle_type_id":"4","last_reported":1683579945,"current_range_meters":31200,"station_id":"ce4bgs12rcd13ifvqcag","pricing_plan_id":"free"},{"bike_id":"84fa1db1-1aec-4b10-ae2a-52d5567ef259","system_id":"levelo_inurba_marseille","lat":43.305706,"lon":5.365654,"is_reserved":false,"is_disabled":false,"rental_uris":{"android":"levelo://app?vid=84fa1db1-1aec-4b10-ae2a-52d5567ef259","ios":"levelo://app?vid=84fa1db1-1aec-4b10-ae2a-52d5567ef259"},"vehicle_type_id":"4","last_reported":1683579945,"current_range_meters":31200,"station_id":"ce4bgs12rcd13ifvqcag","pricing_plan_id":"free"},{"bike_id":"ed08e1e6-138a-4ac7-a8d8-d5fdfdbda8e1","system_id":"levelo_inurba_marseille","lat":43.305706,"lon":5.365654,"is_reserved":false,"is_disabled":false,"rental_uris":{"android":"levelo://app?vid=ed08e1e6-138a-4ac7-a8d8-d5fdfdbda8e1","ios":"levelo://app?vid=ed08e1e6-138a-4ac7-a8d8-d5fdfdbda8e1"},"vehicle_type_id":"4","last_reported":1683579945,"current_range_meters":31600,"station_id":"ce4bgs12rcd13ifvqcag","pricing_plan_id":"free"},{"bike_id":"d075320d-672f-4be7-907f-cbb30754e049","system_id":"levelo_inurba_marseille","lat":43.305706,"lon":5.365654,"is_reserved":false,"is_disabled":false,"rental_uris":{"android":"levelo://app?vid=d075320d-672f-4be7-907f-cbb30754e049","ios":"levelo://app?vid=d075320d-672f-4be7-907f-cbb30754e049"},"vehicle_type_id":"4","last_reported":1683579945,"current_range_meters":31200,"station_id":"ce4bgs12rcd13ifvqcag","pricing_plan_id":"free"},{"bike_id":"c86b20a2-a039-4f46-a33e-052dffe09828","system_id":"levelo_inurba_marseille","lat":43.305706,"lon":5.365654,"is_reserved":false,"is_disabled":false,"rental_uris":{"android":"levelo://app?vid=c86b20a2-a039-4f46-a33e-052dffe09828","ios":"levelo://app?vid=c86b20a2-a039-4f46-a33e-052dffe09828"},"vehicle_type_id":"4","last_reported":1683579945,"current_range_meters":30800,"station_id":"ce4bgs12rcd13ifvqcag","pricing_plan_id":"free"},{"bike_id":"e62a49b0-03c4-4361-89fe-77626274d9e6","system_id":"levelo_inurba_marseille","lat":43.305989,"lon":5.37225,"is_reserved":false,"is_disabled":false,"rental_uris":{"android":"levelo://app?vid=e62a49b0-03c4-4361-89fe-77626274d9e6","ios":"levelo://app?vid=e62a49b0-03c4-4361-89fe-77626274d9e6"},"vehicle_type_id":"4","last_reported":1683579945,"current_range_meters":11600,"station_id":"ce4bgqh2rcd13ifvqc4g","pricing_plan_id":"free"},{"bike_id":"d354bb48-b9b4-43b6-87af-98ba91d4184c","system_id":"levelo_inurba_marseille","lat":43.311131,"lon":5.377651,"is_reserved":false,"is_disabled":false,"rental_uris":{"android":"levelo://app?vid=d354bb48-b9b4-43b6-87af-98ba91d4184c","ios":"levelo://app?vid=d354bb48-b9b4-43b6-87af-98ba91d4184c"},"vehicle_type_id":"4","last_reported":1683579945,"current_range_meters":9200,"station_id":"ce4bgt92rcd13ifvqcg0","pricing_plan_id":"free"},{"bike_id":"2868cf2a-c4b8-400e-9059-ad35767f2cec","system_id":"levelo_inurba_marseille","lat":43.311131,"lon":5.377651,"is_reserved":false,"is_disabled":false,"rental_uris":{"android":"levelo://app?vid=2868cf2a-c4b8-400e-9059-ad35767f2cec","ios":"levelo://app?vid=2868cf2a-c4b8-400e-9059-ad35767f2cec"},"vehicle_type_id":"4","last_reported":1683579945,"current_range_meters":0,"station_id":"ce4bgt92rcd13ifvqcg0","pricing_plan_id":"free"},{"bike_id":"6785280e-e0ff-43e7-9528-a7d107fa39fa","system_id":"levelo_inurba_marseille","lat":43.311131,"lon":5.377651,"is_reserved":false,"is_disabled":false,"rental_uris":{"android":"levelo://app?vid=6785280e-e0ff-43e7-9528-a7d107fa39fa","ios":"levelo://app?vid=6785280e-e0ff-43e7-9528-a7d107fa39fa"},"vehicle_type_id":"4","last_reported":1683579945,"current_range_meters":2400,"station_id":"ce4bgt92rcd13ifvqcg0","pricing_plan_id":"free"},{"bike_id":"7b9ef22b-8a0d-4da6-a407-d27c27819065","system_id":"levelo_inurba_marseille","lat":43.311131,"lon":5.377651,"is_reserved":false,"is_disabled":false,"rental_uris":{"android":"levelo://app?vid=7b9ef22b-8a0d-4da6-a407-d27c27819065","ios":"levelo://app?vid=7b9ef22b-8a0d-4da6-a407-d27c27819065"},"vehicle_type_id":"4","last_reported":1683579945,"current_range_meters":27600,"station_id":"ce4bgt92rcd13ifvqcg0","pricing_plan_id":"free"},{"bike_id":"3a49f45a-3aa2-466e-806d-bf0ef1d3ff8e","system_id":"levelo_inurba_marseille","lat":43.317075,"lon":5.377367,"is_reserved":false,"is_disabled":false,"rental_uris":{"android":"levelo://app?vid=3a49f45a-3aa2-466e-806d-bf0ef1d3ff8e","ios":"levelo://app?vid=3a49f45a-3aa2-466e-806d-bf0ef1d3ff8e"},"vehicle_type_id":"4","last_reported":1683579945,"current_range_meters":31200,"station_id":"ce4bgth2rcd13ifvqch0","pricing_plan_id":"free"},{"bike_id":"a06d57a0-4d36-4e4a-85f6-3b26881d68f1","system_id":"levelo_inurba_marseille","lat":43.317075,"lon":5.377367,"is_reserved":false,"is_disabled":false,"rental_uris":{"android":"levelo://app?vid=a06d57a0-4d36-4e4a-85f6-3b26881d68f1","ios":"levelo://app?vid=a06d57a0-4d36-4e4a-85f6-3b26881d68f1"},"vehicle_type_id":"4","last_reported":1683579945,"current_range_meters":29600,"station_id":"ce4bgth2rcd13ifvqch0","pricing_plan_id":"free"},{"bike_id":"9d2032e8-9dd5-4637-89d7-95595b510e88","system_id":"levelo_inurba_marseille","lat":43.303046,"lon":5.368981,"is_reserved":false,"is_disabled":false,"rental_uris":{"android":"levelo://app?vid=9d2032e8-9dd5-4637-89d7-95595b510e88","ios":"levelo://app?vid=9d2032e8-9dd5-4637-89d7-95595b510e88"},"vehicle_type_id":"4","last_reported":1683579945,"current_range_meters":4800,"station_id":"ce4bgqh2rcd13ifvqc5g","pricing_plan_id":"free"},{"bike_id":"e78d1c30-d352-43f5-983b-8023959a4c14","system_id":"levelo_inurba_marseille","lat":43.303046,"lon":5.368981,"is_reserved":false,"is_disabled":false,"rental_uris":{"android":"levelo://app?vid=e78d1c30-d352-43f5-983b-8023959a4c14","ios":"levelo://app?vid=e78d1c30-d352-43f5-983b-8023959a4c14"},"vehicle_type_id":"4","last_reported":1683579945,"current_range_meters":29600,"station_id":"ce4bgqh2rcd13ifvqc5g","pricing_plan_id":"free"},{"bike_id":"652b3f6b-ca97-46c0-bd1c-e871e376d736","system_id":"levelo_inurba_marseille","lat":43.315289,"lon":5.380349,"is_reserved":false,"is_disabled":false,"rental_uris":{"android":"levelo://app?vid=652b3f6b-ca97-46c0-bd1c-e871e376d736","ios":"levelo://app?vid=652b3f6b-ca97-46c0-bd1c-e871e376d736"},"vehicle_type_id":"4","last_reported":1683579945,"current_range_meters":22800,"station_id":"ce4bhsp2rcd13ifvqi50","pricing_plan_id":"free"},{"bike_id":"b2b3a101-8fa9-49fe-86d2-1f52765a6aa5","system_id":"levelo_inurba_marseille","lat":43.315293,"lon":5.380349,"is_reserved":false,"is_disabled":false,"rental_uris":{"android":"levelo://app?vid=b2b3a101-8fa9-49fe-86d2-1f52765a6aa5","ios":"levelo://app?vid=b2b3a101-8fa9-49fe-86d2-1f52765a6aa5"},"vehicle_type_id":"4","last_reported":1683579945,"current_range_meters":28400,"station_id":"ce4bhsp2rcd13ifvqi50","pricing_plan_id":"free"},{"bike_id":"74dc49db-f918-43ed-a8d8-199327d2e08a","system_id":"levelo_inurba_marseille","lat":43.30241,"lon":5.36473,"is_reserved":false,"is_disabled":false,"rental_uris":{"android":"levelo://app?vid=74dc49db-f918-43ed-a8d8-199327d2e08a","ios":"levelo://app?vid=74dc49db-f918-43ed-a8d8-199327d2e08a"},"vehicle_type_id":"4","last_reported":1683579945,"current_range_meters":18400,"station_id":"","pricing_plan_id":"free"},{"bike_id":"9408e94d-08a9-4053-9f24-c1f0f8146718","system_id":"levelo_inurba_marseille","lat":43.301939,"lon":5.366286,"is_reserved":false,"is_disabled":false,"rental_uris":{"android":"levelo://app?vid=9408e94d-08a9-4053-9f24-c1f0f8146718","ios":"levelo://app?vid=9408e94d-08a9-4053-9f24-c1f0f8146718"},"vehicle_type_id":"4","last_reported":1683579945,"current_range_meters":31200,"station_id":"ce4bgrh2rcd13ifvqc8g","pricing_plan_id":"free"},{"bike_id":"51d994f4-73a6-41a2-916f-dbedc0536537","system_id":"levelo_inurba_marseille","lat":43.301939,"lon":5.366286,"is_reserved":false,"is_disabled":false,"rental_uris":{"android":"levelo://app?vid=51d994f4-73a6-41a2-916f-dbedc0536537","ios":"levelo://app?vid=51d994f4-73a6-41a2-916f-dbedc0536537"},"vehicle_type_id":"4","last_reported":1683579945,"current_range_meters":20000,"station_id":"ce4bgrh2rcd13ifvqc8g","pricing_plan_id":"free"},{"bike_id":"b3494841-d64b-4a0a-89c0-802b201bf4a7","system_id":"levelo_inurba_marseille","lat":43.308012,"lon":5.381511,"is_reserved":false,"is_disabled":false,"rental_uris":{"android":"levelo://app?vid=b3494841-d64b-4a0a-89c0-802b201bf4a7","ios":"levelo://app?vid=b3494841-d64b-4a0a-89c0-802b201bf4a7"},"vehicle_type_id":"4","last_reported":1683579945,"current_range_meters":16400,"station_id":"ce4bgt12rcd13ifvqce0","pricing_plan_id":"free"},{"bike_id":"9c0fa09f-bcfa-4968-9bcf-bff14918f2de","system_id":"levelo_inurba_marseille","lat":43.308012,"lon":5.381511,"is_reserved":false,"is_disabled":false,"rental_uris":{"android":"levelo://app?vid=9c0fa09f-bcfa-4968-9bcf-bff14918f2de","ios":"levelo://app?vid=9c0fa09f-bcfa-4968-9bcf-bff14918f2de"},"vehicle_type_id":"4","last_reported":1683579945,"current_range_meters":27600,"station_id":"ce4bgt12rcd13ifvqce0","pricing_plan_id":"free"},{"bike_id":"f6cdd40c-3f82-4c60-b9a3-fba41fee9e78","system_id":"levelo_inurba_marseille","lat":43.308012,"lon":5.381511,"is_reserved":false,"is_disabled":false,"rental_uris":{"android":"levelo://app?vid=f6cdd40c-3f82-4c60-b9a3-fba41fee9e78","ios":"levelo://app?vid=f6cdd40c-3f82-4c60-b9a3-fba41fee9e78"},"vehicle_type_id":"4","last_reported":1683579945,"current_range_meters":20000,"station_id":"ce4bgt12rcd13ifvqce0","pricing_plan_id":"free"},{"bike_id":"6d6c9ecd-0297-4ace-add2-52ce7ca72558","system_id":"levelo_inurba_marseille","lat":43.308012,"lon":5.381511,"is_reserved":false,"is_disabled":false,"rental_uris":{"android":"levelo://app?vid=6d6c9ecd-0297-4ace-add2-52ce7ca72558","ios":"levelo://app?vid=6d6c9ecd-0297-4ace-add2-52ce7ca72558"},"vehicle_type_id":"4","last_reported":1683579945,"current_range_meters":21600,"station_id":"ce4bgt12rcd13ifvqce0","pricing_plan_id":"free"},{"bike_id":"8422e08b-edf1-487e-be9e-47755dab0daf","system_id":"levelo_inurba_marseille","lat":43.308012,"lon":5.381511,"is_reserved":false,"is_disabled":false,"rental_uris":{"android":"levelo://app?vid=8422e08b-edf1-487e-be9e-47755dab0daf","ios":"levelo://app?vid=8422e08b-edf1-487e-be9e-47755dab0daf"},"vehicle_type_id":"4","last_reported":1683579945,"current_range_meters":4000,"station_id":"ce4bgt12rcd13ifvqce0","pricing_plan_id":"free"},{"bike_id":"cb0c6e1b-0f02-404b-8b0d-8a3db9543508","system_id":"levelo_inurba_marseille","lat":43.308012,"lon":5.381511,"is_reserved":false,"is_disabled":false,"rental_uris":{"android":"levelo://app?vid=cb0c6e1b-0f02-404b-8b0d-8a3db9543508","ios":"levelo://app?vid=cb0c6e1b-0f02-404b-8b0d-8a3db9543508"},"vehicle_type_id":"4","last_reported":1683579945,"current_range_meters":15600,"station_id":"ce4bgt12rcd13ifvqce0","pricing_plan_id":"free"},{"bike_id":"f853dc76-950e-4c88-9321-720ef8b9cdcc","system_id":"levelo_inurba_marseille","lat":43.304606,"lon":5.379026,"is_reserved":false,"is_disabled":false,"rental_uris":{"android":"levelo://app?vid=f853dc76-950e-4c88-9321-720ef8b9cdcc","ios":"levelo://app?vid=f853dc76-950e-4c88-9321-720ef8b9cdcc"},"vehicle_type_id":"4","last_reported":1683579945,"current_range_meters":1200,"station_id":"ce4bgup2rcd13ifvqcn0","pricing_plan_id":"free"},{"bike_id":"cc1f243f-d065-4398-acb1-c501e6632e28","system_id":"levelo_inurba_marseille","lat":43.30135,"lon":5.37413,"is_reserved":false,"is_disabled":false,"rental_uris":{"android":"levelo://app?vid=cc1f243f-d065-4398-acb1-c501e6632e28","ios":"levelo://app?vid=cc1f243f-d065-4398-acb1-c501e6632e28"},"vehicle_type_id":"4","last_reported":1683579945,"current_range_meters":6000,"station_id":"ce4bgs92rcd13ifvqcc0","pricing_plan_id":"free"},{"bike_id":"455d17ec-bcdd-4a0d-81dc-511b67fb4b69","system_id":"levelo_inurba_marseille","lat":43.301429,"lon":5.37413,"is_reserved":false,"is_disabled":false,"rental_uris":{"android":"levelo://app?vid=455d17ec-bcdd-4a0d-81dc-511b67fb4b69","ios":"levelo://app?vid=455d17ec-bcdd-4a0d-81dc-511b67fb4b69"},"vehicle_type_id":"4","last_reported":1683579945,"current_range_meters":26400,"station_id":"ce4bgs92rcd13ifvqcc0","pricing_plan_id":"free"},{"bike_id":"cd645258-9316-49ff-ae8a-b4c676e2979b","system_id":"levelo_inurba_marseille","lat":43.313571,"lon":5.384829,"is_reserved":false,"is_disabled":false,"rental_uris":{"android":"levelo://app?vid=cd645258-9316-49ff-ae8a-b4c676e2979b","ios":"levelo://app?vid=cd645258-9316-49ff-ae8a-b4c676e2979b"},"vehicle_type_id":"4","last_reported":1683579945,"current_range_meters":7600,"station_id":"ce4bgt92rcd13ifvqcf0","pricing_plan_id":"free"},{"bike_id":"2ce12a46-5f95-42d9-881e-12e5bb2c83b1","system_id":"levelo_inurba_marseille","lat":43.313571,"lon":5.384829,"is_reserved":false,"is_disabled":false,"rental_uris":{"android":"levelo://app?vid=2ce12a46-5f95-42d9-881e-12e5bb2c83b1","ios":"levelo://app?vid=2ce12a46-5f95-42d9-881e-12e5bb2c83b1"},"vehicle_type_id":"4","last_reported":1683579945,"current_range_meters":21600,"station_id":"ce4bgt92rcd13ifvqcf0","pricing_plan_id":"free"},{"bike_id":"c81ea309-116c-43ee-85ad-d48a780c40c2","system_id":"levelo_inurba_marseille","lat":43.31364,"lon":5.38494,"is_reserved":false,"is_disabled":false,"rental_uris":{"android":"levelo://app?vid=c81ea309-116c-43ee-85ad-d48a780c40c2","ios":"levelo://app?vid=c81ea309-116c-43ee-85ad-d48a780c40c2"},"vehicle_type_id":"4","last_reported":1683579945,"current_range_meters":18400,"station_id":"ce4bgt92rcd13ifvqcf0","pricing_plan_id":"free"},{"bike_id":"1d0849d1-a7d1-4997-84e0-f9d02dcb2b96","system_id":"levelo_inurba_marseille","lat":43.313571,"lon":5.384829,"is_reserved":false,"is_disabled":false,"rental_uris":{"android":"levelo://app?vid=1d0849d1-a7d1-4997-84e0-f9d02dcb2b96","ios":"levelo://app?vid=1d0849d1-a7d1-4997-84e0-f9d02dcb2b96"},"vehicle_type_id":"4","last_reported":1683579945,"current_range_meters":30800,"station_id":"ce4bgt92rcd13ifvqcf0","pricing_plan_id":"free"},{"bike_id":"78f9a8c2-e8e7-42a7-8d98-83633625a811","system_id":"levelo_inurba_marseille","lat":43.313571,"lon":5.384829,"is_reserved":false,"is_disabled":false,"rental_uris":{"android":"levelo://app?vid=78f9a8c2-e8e7-42a7-8d98-83633625a811","ios":"levelo://app?vid=78f9a8c2-e8e7-42a7-8d98-83633625a811"},"vehicle_type_id":"4","last_reported":1683579945,"current_range_meters":18800,"station_id":"ce4bgt92rcd13ifvqcf0","pricing_plan_id":"free"},{"bike_id":"adad5ebb-cec7-4941-bb3e-4b5eae0e87b6","system_id":"levelo_inurba_marseille","lat":43.313571,"lon":5.384829,"is_reserved":false,"is_disabled":false,"rental_uris":{"android":"levelo://app?vid=adad5ebb-cec7-4941-bb3e-4b5eae0e87b6","ios":"levelo://app?vid=adad5ebb-cec7-4941-bb3e-4b5eae0e87b6"},"vehicle_type_id":"4","last_reported":1683579945,"current_range_meters":24400,"station_id":"ce4bgt92rcd13ifvqcf0","pricing_plan_id":"free"},{"bike_id":"a46320dd-79d3-4988-a57a-1ac732fc0fd3","system_id":"levelo_inurba_marseille","lat":43.313571,"lon":5.384829,"is_reserved":false,"is_disabled":false,"rental_uris":{"android":"levelo://app?vid=a46320dd-79d3-4988-a57a-1ac732fc0fd3","ios":"levelo://app?vid=a46320dd-79d3-4988-a57a-1ac732fc0fd3"},"vehicle_type_id":"4","last_reported":1683579945,"current_range_meters":28800,"station_id":"ce4bgt92rcd13ifvqcf0","pricing_plan_id":"free"},{"bike_id":"2375edf0-5c25-4d62-adfb-91f1d5c57df3","system_id":"levelo_inurba_marseille","lat":43.313571,"lon":5.384829,"is_reserved":false,"is_disabled":false,"rental_uris":{"android":"levelo://app?vid=2375edf0-5c25-4d62-adfb-91f1d5c57df3","ios":"levelo://app?vid=2375edf0-5c25-4d62-adfb-91f1d5c57df3"},"vehicle_type_id":"4","last_reported":1683579945,"current_range_meters":12800,"station_id":"ce4bgt92rcd13ifvqcf0","pricing_plan_id":"free"},{"bike_id":"965ea70b-2768-4035-bcdf-2017ab0ea770","system_id":"levelo_inurba_marseille","lat":43.313571,"lon":5.384829,"is_reserved":false,"is_disabled":false,"rental_uris":{"android":"levelo://app?vid=965ea70b-2768-4035-bcdf-2017ab0ea770","ios":"levelo://app?vid=965ea70b-2768-4035-bcdf-2017ab0ea770"},"vehicle_type_id":"4","last_reported":1683579945,"current_range_meters":5600,"station_id":"ce4bgt92rcd13ifvqcf0","pricing_plan_id":"free"},{"bike_id":"11355a26-ce04-4637-b186-e63c722271b4","system_id":"levelo_inurba_marseille","lat":43.3135,"lon":5.3853,"is_reserved":false,"is_disabled":false,"rental_uris":{"android":"levelo://app?vid=11355a26-ce04-4637-b186-e63c722271b4","ios":"levelo://app?vid=11355a26-ce04-4637-b186-e63c722271b4"},"vehicle_type_id":"4","last_reported":1683579945,"current_range_meters":25600,"station_id":"","pricing_plan_id":"free"},{"bike_id":"f312295b-6cc2-46de-8f37-a806558faa8a","system_id":"levelo_inurba_marseille","lat":43.299222,"lon":5.365554,"is_reserved":false,"is_disabled":false,"rental_uris":{"android":"levelo://app?vid=f312295b-6cc2-46de-8f37-a806558faa8a","ios":"levelo://app?vid=f312295b-6cc2-46de-8f37-a806558faa8a"},"vehicle_type_id":"4","last_reported":1683579945,"current_range_meters":31200,"station_id":"ce4bgm92rcd13ifvqbr0","pricing_plan_id":"free"},{"bike_id":"d9103399-78a8-4618-9d29-66e966590040","system_id":"levelo_inurba_marseille","lat":43.299222,"lon":5.365554,"is_reserved":false,"is_disabled":false,"rental_uris":{"android":"levelo://app?vid=d9103399-78a8-4618-9d29-66e966590040","ios":"levelo://app?vid=d9103399-78a8-4618-9d29-66e966590040"},"vehicle_type_id":"4","last_reported":1683579945,"current_range_meters":28400,"station_id":"ce4bgm92rcd13ifvqbr0","pricing_plan_id":"free"},{"bike_id":"d516dea1-0a2b-43f7-85a8-bf2df41c57b4","system_id":"levelo_inurba_marseille","lat":43.299222,"lon":5.365554,"is_reserved":false,"is_disabled":false,"rental_uris":{"android":"levelo://app?vid=d516dea1-0a2b-43f7-85a8-bf2df41c57b4","ios":"levelo://app?vid=d516dea1-0a2b-43f7-85a8-bf2df41c57b4"},"vehicle_type_id":"4","last_reported":1683579945,"current_range_meters":6400,"station_id":"ce4bgm92rcd13ifvqbr0","pricing_plan_id":"free"},{"bike_id":"2c65cf39-f773-432e-897d-ac966e275dd8","system_id":"levelo_inurba_marseille","lat":43.298433,"lon":5.362774,"is_reserved":false,"is_disabled":false,"rental_uris":{"android":"levelo://app?vid=2c65cf39-f773-432e-897d-ac966e275dd8","ios":"levelo://app?vid=2c65cf39-f773-432e-897d-ac966e275dd8"},"vehicle_type_id":"4","last_reported":1683579945,"current_range_meters":20400,"station_id":"ce4bgpp2rcd13ifvqc3g","pricing_plan_id":"free"},{"bike_id":"2b2da678-aba3-43e2-b0de-4a30da79e48b","system_id":"levelo_inurba_marseille","lat":43.299243,"lon":5.374807,"is_reserved":false,"is_disabled":false,"rental_uris":{"android":"levelo://app?vid=2b2da678-aba3-43e2-b0de-4a30da79e48b","ios":"levelo://app?vid=2b2da678-aba3-43e2-b0de-4a30da79e48b"},"vehicle_type_id":"4","last_reported":1683579945,"current_range_meters":9200,"station_id":"ce4bgjh2rcd13ifvqbg0","pricing_plan_id":"free"},{"bike_id":"c99e0446-e585-41ee-a096-f99ecc9c03e0","system_id":"levelo_inurba_marseille","lat":43.299243,"lon":5.374807,"is_reserved":false,"is_disabled":false,"rental_uris":{"android":"levelo://app?vid=c99e0446-e585-41ee-a096-f99ecc9c03e0","ios":"levelo://app?vid=c99e0446-e585-41ee-a096-f99ecc9c03e0"},"vehicle_type_id":"4","last_reported":1683579945,"current_range_meters":30800,"station_id":"ce4bgjh2rcd13ifvqbg0","pricing_plan_id":"free"},{"bike_id":"2e843d9b-5da1-43bb-a83f-752d42ce94aa","system_id":"levelo_inurba_marseille","lat":43.311722,"lon":5.387247,"is_reserved":false,"is_disabled":false,"rental_uris":{"android":"levelo://app?vid=2e843d9b-5da1-43bb-a83f-752d42ce94aa","ios":"levelo://app?vid=2e843d9b-5da1-43bb-a83f-752d42ce94aa"},"vehicle_type_id":"4","last_reported":1683579945,"current_range_meters":6800,"station_id":"ce4bgv12rcd13ifvqcp0","pricing_plan_id":"free"},{"bike_id":"66739d3c-95dc-46d6-a9fb-1c8daa4306e6","system_id":"levelo_inurba_marseille","lat":43.311722,"lon":5.387247,"is_reserved":false,"is_disabled":false,"rental_uris":{"android":"levelo://app?vid=66739d3c-95dc-46d6-a9fb-1c8daa4306e6","ios":"levelo://app?vid=66739d3c-95dc-46d6-a9fb-1c8daa4306e6"},"vehicle_type_id":"4","last_reported":1683579945,"current_range_meters":16400,"station_id":"ce4bgv12rcd13ifvqcp0","pricing_plan_id":"free"},{"bike_id":"5cd8a94b-7bec-4c3c-9c6b-5257da7553c1","system_id":"levelo_inurba_marseille","lat":43.311722,"lon":5.387247,"is_reserved":false,"is_disabled":false,"rental_uris":{"android":"levelo://app?vid=5cd8a94b-7bec-4c3c-9c6b-5257da7553c1","ios":"levelo://app?vid=5cd8a94b-7bec-4c3c-9c6b-5257da7553c1"},"vehicle_type_id":"4","last_reported":1683579945,"current_range_meters":12800,"station_id":"ce4bgv12rcd13ifvqcp0","pricing_plan_id":"free"},{"bike_id":"713f4129-b285-457d-9645-da32280c751c","system_id":"levelo_inurba_marseille","lat":43.311722,"lon":5.387247,"is_reserved":false,"is_disabled":false,"rental_uris":{"android":"levelo://app?vid=713f4129-b285-457d-9645-da32280c751c","ios":"levelo://app?vid=713f4129-b285-457d-9645-da32280c751c"},"vehicle_type_id":"4","last_reported":1683579945,"current_range_meters":13600,"station_id":"ce4bgv12rcd13ifvqcp0","pricing_plan_id":"free"},{"bike_id":"2f706956-9825-4ea0-916d-aca01333e41c","system_id":"levelo_inurba_marseille","lat":43.311722,"lon":5.387247,"is_reserved":false,"is_disabled":false,"rental_uris":{"android":"levelo://app?vid=2f706956-9825-4ea0-916d-aca01333e41c","ios":"levelo://app?vid=2f706956-9825-4ea0-916d-aca01333e41c"},"vehicle_type_id":"4","last_reported":1683579945,"current_range_meters":18000,"station_id":"ce4bgv12rcd13ifvqcp0","pricing_plan_id":"free"},{"bike_id":"18e0acb2-deaa-40c3-ac17-547981720f0b","system_id":"levelo_inurba_marseille","lat":43.299243,"lon":5.37481,"is_reserved":false,"is_disabled":false,"rental_uris":{"android":"levelo://app?vid=18e0acb2-deaa-40c3-ac17-547981720f0b","ios":"levelo://app?vid=18e0acb2-deaa-40c3-ac17-547981720f0b"},"vehicle_type_id":"4","last_reported":1683579945,"current_range_meters":18800,"station_id":"ce4bgjh2rcd13ifvqbg0","pricing_plan_id":"free"},{"bike_id":"040219de-17f5-4ee4-8be4-518f3cdfe2db","system_id":"levelo_inurba_marseille","lat":43.311722,"lon":5.387247,"is_reserved":false,"is_disabled":false,"rental_uris":{"android":"levelo://app?vid=040219de-17f5-4ee4-8be4-518f3cdfe2db","ios":"levelo://app?vid=040219de-17f5-4ee4-8be4-518f3cdfe2db"},"vehicle_type_id":"4","last_reported":1683579945,"current_range_meters":22000,"station_id":"ce4bgv12rcd13ifvqcp0","pricing_plan_id":"free"},{"bike_id":"45d990d3-5132-49d3-a4ad-5d200f035b9b","system_id":"levelo_inurba_marseille","lat":43.299243,"lon":5.374807,"is_reserved":false,"is_disabled":false,"rental_uris":{"android":"levelo://app?vid=45d990d3-5132-49d3-a4ad-5d200f035b9b","ios":"levelo://app?vid=45d990d3-5132-49d3-a4ad-5d200f035b9b"},"vehicle_type_id":"4","last_reported":1683579945,"current_range_meters":22800,"station_id":"ce4bgjh2rcd13ifvqbg0","pricing_plan_id":"free"},{"bike_id":"4ba44efc-29ec-48c3-97f5-568663608123","system_id":"levelo_inurba_marseille","lat":43.297794,"lon":5.370888,"is_reserved":false,"is_disabled":false,"rental_uris":{"android":"levelo://app?vid=4ba44efc-29ec-48c3-97f5-568663608123","ios":"levelo://app?vid=4ba44efc-29ec-48c3-97f5-568663608123"},"vehicle_type_id":"4","last_reported":1683579945,"current_range_meters":19200,"station_id":"ce4bgop2rcd13ifvqc1g","pricing_plan_id":"free"},{"bike_id":"ac715d40-e1b3-42e5-bec9-0f230eece339","system_id":"levelo_inurba_marseille","lat":43.328371,"lon":5.366912,"is_reserved":false,"is_disabled":false,"rental_uris":{"android":"levelo://app?vid=ac715d40-e1b3-42e5-bec9-0f230eece339","ios":"levelo://app?vid=ac715d40-e1b3-42e5-bec9-0f230eece339"},"vehicle_type_id":"4","last_reported":1683579945,"current_range_meters":31200,"station_id":"ce4bhs92rcd13ifvqi0g","pricing_plan_id":"free"},{"bike_id":"ef1f74e1-c8ce-42cc-84d3-7910f0bea3f6","system_id":"levelo_inurba_marseille","lat":43.30305,"lon":5.38536,"is_reserved":false,"is_disabled":false,"rental_uris":{"android":"levelo://app?vid=ef1f74e1-c8ce-42cc-84d3-7910f0bea3f6","ios":"levelo://app?vid=ef1f74e1-c8ce-42cc-84d3-7910f0bea3f6"},"vehicle_type_id":"4","last_reported":1683579945,"current_range_meters":20800,"station_id":"","pricing_plan_id":"free"},{"bike_id":"a939d2da-14ba-4fd2-9a54-1e4ff2ff005d","system_id":"levelo_inurba_marseille","lat":43.29573,"lon":5.367355,"is_reserved":false,"is_disabled":false,"rental_uris":{"android":"levelo://app?vid=a939d2da-14ba-4fd2-9a54-1e4ff2ff005d","ios":"levelo://app?vid=a939d2da-14ba-4fd2-9a54-1e4ff2ff005d"},"vehicle_type_id":"4","last_reported":1683579945,"current_range_meters":16000,"station_id":"ce4bgph2rcd13ifvqc2g","pricing_plan_id":"free"},{"bike_id":"b3b7af93-9b78-4ec0-b88d-2a2d8f48beaf","system_id":"levelo_inurba_marseille","lat":43.309589,"lon":5.390258,"is_reserved":false,"is_disabled":false,"rental_uris":{"android":"levelo://app?vid=b3b7af93-9b78-4ec0-b88d-2a2d8f48beaf","ios":"levelo://app?vid=b3b7af93-9b78-4ec0-b88d-2a2d8f48beaf"},"vehicle_type_id":"4","last_reported":1683579945,"current_range_meters":10800,"station_id":"ce4bgup2rcd13ifvqco0","pricing_plan_id":"free"},{"bike_id":"fde52806-4d21-4bff-af7d-48990b5e67a2","system_id":"levelo_inurba_marseille","lat":43.296935,"lon":5.376544,"is_reserved":false,"is_disabled":false,"rental_uris":{"android":"levelo://app?vid=fde52806-4d21-4bff-af7d-48990b5e67a2","ios":"levelo://app?vid=fde52806-4d21-4bff-af7d-48990b5e67a2"},"vehicle_type_id":"4","last_reported":1683579945,"current_range_meters":3200,"station_id":"ce4bgkh2rcd13ifvqbl0","pricing_plan_id":"free"},{"bike_id":"cbec0d89-98a3-4181-8196-4afe2ac817eb","system_id":"levelo_inurba_marseille","lat":43.309589,"lon":5.390258,"is_reserved":false,"is_disabled":false,"rental_uris":{"android":"levelo://app?vid=cbec0d89-98a3-4181-8196-4afe2ac817eb","ios":"levelo://app?vid=cbec0d89-98a3-4181-8196-4afe2ac817eb"},"vehicle_type_id":"4","last_reported":1683579945,"current_range_meters":30400,"station_id":"ce4bgup2rcd13ifvqco0","pricing_plan_id":"free"},{"bike_id":"a5213787-ae49-4c5c-bc22-17a092d112f9","system_id":"levelo_inurba_marseille","lat":43.296935,"lon":5.376544,"is_reserved":false,"is_disabled":false,"rental_uris":{"android":"levelo://app?vid=a5213787-ae49-4c5c-bc22-17a092d112f9","ios":"levelo://app?vid=a5213787-ae49-4c5c-bc22-17a092d112f9"},"vehicle_type_id":"4","last_reported":1683579945,"current_range_meters":19600,"station_id":"ce4bgkh2rcd13ifvqbl0","pricing_plan_id":"free"},{"bike_id":"89794fb9-3bc2-45e4-a79c-e427cdae1b2f","system_id":"levelo_inurba_marseille","lat":43.317557,"lon":5.390173,"is_reserved":false,"is_disabled":false,"rental_uris":{"android":"levelo://app?vid=89794fb9-3bc2-45e4-a79c-e427cdae1b2f","ios":"levelo://app?vid=89794fb9-3bc2-45e4-a79c-e427cdae1b2f"},"vehicle_type_id":"4","last_reported":1683579945,"current_range_meters":13200,"station_id":"ce4bhqp2rcd13ifvqhng","pricing_plan_id":"free"},{"bike_id":"4f6418cd-2719-486c-8971-8645a7fa1118","system_id":"levelo_inurba_marseille","lat":43.317557,"lon":5.390173,"is_reserved":false,"is_disabled":false,"rental_uris":{"android":"levelo://app?vid=4f6418cd-2719-486c-8971-8645a7fa1118","ios":"levelo://app?vid=4f6418cd-2719-486c-8971-8645a7fa1118"},"vehicle_type_id":"4","last_reported":1683579945,"current_range_meters":28000,"station_id":"ce4bhqp2rcd13ifvqhng","pricing_plan_id":"free"},{"bike_id":"a6833ac8-5b85-4bf3-b546-bc2dc743a297","system_id":"levelo_inurba_marseille","lat":43.3176,"lon":5.39015,"is_reserved":false,"is_disabled":false,"rental_uris":{"android":"levelo://app?vid=a6833ac8-5b85-4bf3-b546-bc2dc743a297","ios":"levelo://app?vid=a6833ac8-5b85-4bf3-b546-bc2dc743a297"},"vehicle_type_id":"4","last_reported":1683579945,"current_range_meters":14000,"station_id":"","pricing_plan_id":"free"},{"bike_id":"40bcea4e-adf4-4001-b0a1-f6360e1f6d72","system_id":"levelo_inurba_marseille","lat":43.317557,"lon":5.390173,"is_reserved":false,"is_disabled":false,"rental_uris":{"android":"levelo://app?vid=40bcea4e-adf4-4001-b0a1-f6360e1f6d72","ios":"levelo://app?vid=40bcea4e-adf4-4001-b0a1-f6360e1f6d72"},"vehicle_type_id":"4","last_reported":1683579945,"current_range_meters":0,"station_id":"ce4bhqp2rcd13ifvqhng","pricing_plan_id":"free"},{"bike_id":"387c26fc-aef2-4a23-bae7-722931a93d3c","system_id":"levelo_inurba_marseille","lat":43.317557,"lon":5.390173,"is_reserved":false,"is_disabled":false,"rental_uris":{"android":"levelo://app?vid=387c26fc-aef2-4a23-bae7-722931a93d3c","ios":"levelo://app?vid=387c26fc-aef2-4a23-bae7-722931a93d3c"},"vehicle_type_id":"4","last_reported":1683579945,"current_range_meters":22000,"station_id":"ce4bhqp2rcd13ifvqhng","pricing_plan_id":"free"},{"bike_id":"d7abd8ad-2fcc-41a8-b1a7-e00ad973feb0","system_id":"levelo_inurba_marseille","lat":43.317557,"lon":5.390173,"is_reserved":false,"is_disabled":false,"rental_uris":{"android":"levelo://app?vid=d7abd8ad-2fcc-41a8-b1a7-e00ad973feb0","ios":"levelo://app?vid=d7abd8ad-2fcc-41a8-b1a7-e00ad973feb0"},"vehicle_type_id":"4","last_reported":1683579945,"current_range_meters":29600,"station_id":"ce4bhqp2rcd13ifvqhng","pricing_plan_id":"free"},{"bike_id":"7a7de1c7-b700-4a01-9d90-04859f7934aa","system_id":"levelo_inurba_marseille","lat":43.30436,"lon":5.38887,"is_reserved":false,"is_disabled":false,"rental_uris":{"android":"levelo://app?vid=7a7de1c7-b700-4a01-9d90-04859f7934aa","ios":"levelo://app?vid=7a7de1c7-b700-4a01-9d90-04859f7934aa"},"vehicle_type_id":"4","last_reported":1683579945,"current_range_meters":19600,"station_id":"ce4bgk12rcd13ifvqbi0","pricing_plan_id":"free"},{"bike_id":"45cb06f3-3e97-40c4-9d70-b588f5a4bf8d","system_id":"levelo_inurba_marseille","lat":43.299707,"lon":5.384859,"is_reserved":false,"is_disabled":false,"rental_uris":{"android":"levelo://app?vid=45cb06f3-3e97-40c4-9d70-b588f5a4bf8d","ios":"levelo://app?vid=45cb06f3-3e97-40c4-9d70-b588f5a4bf8d"},"vehicle_type_id":"4","last_reported":1683579945,"current_range_meters":21200,"station_id":"ce4bgj92rcd13ifvqbd0","pricing_plan_id":"free"},{"bike_id":"194bfd5b-c758-4476-a93b-91efa549801d","system_id":"levelo_inurba_marseille","lat":43.299707,"lon":5.384859,"is_reserved":false,"is_disabled":false,"rental_uris":{"android":"levelo://app?vid=194bfd5b-c758-4476-a93b-91efa549801d","ios":"levelo://app?vid=194bfd5b-c758-4476-a93b-91efa549801d"},"vehicle_type_id":"4","last_reported":1683579945,"current_range_meters":28400,"station_id":"ce4bgj92rcd13ifvqbd0","pricing_plan_id":"free"},{"bike_id":"52f9a966-88e9-4e72-92c8-0db5bd19f2c4","system_id":"levelo_inurba_marseille","lat":43.31396,"lon":5.39353,"is_reserved":false,"is_disabled":false,"rental_uris":{"android":"levelo://app?vid=52f9a966-88e9-4e72-92c8-0db5bd19f2c4","ios":"levelo://app?vid=52f9a966-88e9-4e72-92c8-0db5bd19f2c4"},"vehicle_type_id":"4","last_reported":1683579945,"current_range_meters":3200,"station_id":"","pricing_plan_id":"free"},{"bike_id":"3415204a-ace2-42c1-9888-1d0234abbbdd","system_id":"levelo_inurba_marseille","lat":43.279742,"lon":5.38744,"is_reserved":false,"is_disabled":false,"rental_uris":{"android":"levelo://app?vid=3415204a-ace2-42c1-9888-1d0234abbbdd","ios":"levelo://app?vid=3415204a-ace2-42c1-9888-1d0234abbbdd"},"vehicle_type_id":"4","last_reported":1683579945,"current_range_meters":24000,"station_id":"ce4bhg12rcd13ifvqf80","pricing_plan_id":"free"},{"bike_id":"ffea91ad-569a-40d3-a87a-b02867056e7b","system_id":"levelo_inurba_marseille","lat":43.29601,"lon":5.381084,"is_reserved":false,"is_disabled":false,"rental_uris":{"android":"levelo://app?vid=ffea91ad-569a-40d3-a87a-b02867056e7b","ios":"levelo://app?vid=ffea91ad-569a-40d3-a87a-b02867056e7b"},"vehicle_type_id":"4","last_reported":1683579945,"current_range_meters":7600,"station_id":"ce4bgl12rcd13ifvqbo0","pricing_plan_id":"free"},{"bike_id":"f9ac87aa-2fee-4162-9dcf-08fad1180c36","system_id":"levelo_inurba_marseille","lat":43.305994,"lon":5.393687,"is_reserved":false,"is_disabled":false,"rental_uris":{"android":"levelo://app?vid=f9ac87aa-2fee-4162-9dcf-08fad1180c36","ios":"levelo://app?vid=f9ac87aa-2fee-4162-9dcf-08fad1180c36"},"vehicle_type_id":"4","last_reported":1683579945,"current_range_meters":16400,"station_id":"ce4bh0p2rcd13ifvqd80","pricing_plan_id":"free"},{"bike_id":"d5a810b8-3bf1-4aa9-bdbb-1b4984d883b4","system_id":"levelo_inurba_marseille","lat":43.305994,"lon":5.393687,"is_reserved":false,"is_disabled":false,"rental_uris":{"android":"levelo://app?vid=d5a810b8-3bf1-4aa9-bdbb-1b4984d883b4","ios":"levelo://app?vid=d5a810b8-3bf1-4aa9-bdbb-1b4984d883b4"},"vehicle_type_id":"4","last_reported":1683579945,"current_range_meters":22400,"station_id":"ce4bh0p2rcd13ifvqd80","pricing_plan_id":"free"},{"bike_id":"f3aab3c3-888d-431c-a61b-43392f96cf9b","system_id":"levelo_inurba_marseille","lat":43.305994,"lon":5.393687,"is_reserved":false,"is_disabled":false,"rental_uris":{"android":"levelo://app?vid=f3aab3c3-888d-431c-a61b-43392f96cf9b","ios":"levelo://app?vid=f3aab3c3-888d-431c-a61b-43392f96cf9b"},"vehicle_type_id":"4","last_reported":1683579945,"current_range_meters":7200,"station_id":"ce4bh0p2rcd13ifvqd80","pricing_plan_id":"free"},{"bike_id":"fd2bfbe7-6627-4bf2-9965-d9ffcf771d9c","system_id":"levelo_inurba_marseille","lat":43.305994,"lon":5.393687,"is_reserved":false,"is_disabled":false,"rental_uris":{"android":"levelo://app?vid=fd2bfbe7-6627-4bf2-9965-d9ffcf771d9c","ios":"levelo://app?vid=fd2bfbe7-6627-4bf2-9965-d9ffcf771d9c"},"vehicle_type_id":"4","last_reported":1683579945,"current_range_meters":31200,"station_id":"ce4bh0p2rcd13ifvqd80","pricing_plan_id":"free"},{"bike_id":"c6a99708-8ce6-48a2-9fbb-402cca1d1d88","system_id":"levelo_inurba_marseille","lat":43.305994,"lon":5.393687,"is_reserved":false,"is_disabled":false,"rental_uris":{"android":"levelo://app?vid=c6a99708-8ce6-48a2-9fbb-402cca1d1d88","ios":"levelo://app?vid=c6a99708-8ce6-48a2-9fbb-402cca1d1d88"},"vehicle_type_id":"4","last_reported":1683579945,"current_range_meters":25200,"station_id":"ce4bh0p2rcd13ifvqd80","pricing_plan_id":"free"},{"bike_id":"886acc7c-5a98-42ea-bbef-d5c30ee5adaf","system_id":"levelo_inurba_marseille","lat":43.305994,"lon":5.393687,"is_reserved":false,"is_disabled":false,"rental_uris":{"android":"levelo://app?vid=886acc7c-5a98-42ea-bbef-d5c30ee5adaf","ios":"levelo://app?vid=886acc7c-5a98-42ea-bbef-d5c30ee5adaf"},"vehicle_type_id":"4","last_reported":1683579945,"current_range_meters":30000,"station_id":"ce4bh0p2rcd13ifvqd80","pricing_plan_id":"free"},{"bike_id":"70566324-38ff-4887-8de3-ffac0a02df74","system_id":"levelo_inurba_marseille","lat":43.305994,"lon":5.393687,"is_reserved":false,"is_disabled":false,"rental_uris":{"android":"levelo://app?vid=70566324-38ff-4887-8de3-ffac0a02df74","ios":"levelo://app?vid=70566324-38ff-4887-8de3-ffac0a02df74"},"vehicle_type_id":"4","last_reported":1683579945,"current_range_meters":22000,"station_id":"ce4bh0p2rcd13ifvqd80","pricing_plan_id":"free"},{"bike_id":"d36ee72c-85e7-40b0-a699-d6988aac786e","system_id":"levelo_inurba_marseille","lat":43.305994,"lon":5.393687,"is_reserved":false,"is_disabled":false,"rental_uris":{"android":"levelo://app?vid=d36ee72c-85e7-40b0-a699-d6988aac786e","ios":"levelo://app?vid=d36ee72c-85e7-40b0-a699-d6988aac786e"},"vehicle_type_id":"4","last_reported":1683579945,"current_range_meters":18800,"station_id":"ce4bh0p2rcd13ifvqd80","pricing_plan_id":"free"},{"bike_id":"6d60a79b-92a7-4e35-9730-35d2376452e9","system_id":"levelo_inurba_marseille","lat":43.305994,"lon":5.393687,"is_reserved":false,"is_disabled":false,"rental_uris":{"android":"levelo://app?vid=6d60a79b-92a7-4e35-9730-35d2376452e9","ios":"levelo://app?vid=6d60a79b-92a7-4e35-9730-35d2376452e9"},"vehicle_type_id":"4","last_reported":1683579945,"current_range_meters":18400,"station_id":"ce4bh0p2rcd13ifvqd80","pricing_plan_id":"free"},{"bike_id":"c410226b-2466-4fa6-b618-5988a24e6eec","system_id":"levelo_inurba_marseille","lat":43.303002,"lon":5.392142,"is_reserved":false,"is_disabled":false,"rental_uris":{"android":"levelo://app?vid=c410226b-2466-4fa6-b618-5988a24e6eec","ios":"levelo://app?vid=c410226b-2466-4fa6-b618-5988a24e6eec"},"vehicle_type_id":"4","last_reported":1683579945,"current_range_meters":23600,"station_id":"ce4bgkh2rcd13ifvqbk0","pricing_plan_id":"free"},{"bike_id":"ee9fae01-440e-4d05-bf61-7a182f380096","system_id":"levelo_inurba_marseille","lat":43.29388,"lon":5.37943,"is_reserved":false,"is_disabled":false,"rental_uris":{"android":"levelo://app?vid=ee9fae01-440e-4d05-bf61-7a182f380096","ios":"levelo://app?vid=ee9fae01-440e-4d05-bf61-7a182f380096"},"vehicle_type_id":"4","last_reported":1683579945,"current_range_meters":12400,"station_id":"","pricing_plan_id":"free"},{"bike_id":"95861ba8-14d1-4ba7-883c-307afaa2b3d1","system_id":"levelo_inurba_marseille","lat":43.30085,"lon":5.390856,"is_reserved":false,"is_disabled":false,"rental_uris":{"android":"levelo://app?vid=95861ba8-14d1-4ba7-883c-307afaa2b3d1","ios":"levelo://app?vid=95861ba8-14d1-4ba7-883c-307afaa2b3d1"},"vehicle_type_id":"4","last_reported":1683579945,"current_range_meters":26000,"station_id":"ce4bh192rcd13ifvqdb0","pricing_plan_id":"free"},{"bike_id":"a41c2875-e83f-4b68-a438-800b3b9a3e81","system_id":"levelo_inurba_marseille","lat":43.298764,"lon":5.388973,"is_reserved":false,"is_disabled":false,"rental_uris":{"android":"levelo://app?vid=a41c2875-e83f-4b68-a438-800b3b9a3e81","ios":"levelo://app?vid=a41c2875-e83f-4b68-a438-800b3b9a3e81"},"vehicle_type_id":"4","last_reported":1683579945,"current_range_meters":14800,"station_id":"ce4bh392rcd13ifvqdl0","pricing_plan_id":"free"},{"bike_id":"9ed431a1-9aa6-415e-a8fb-19339b0f8df9","system_id":"levelo_inurba_marseille","lat":43.298764,"lon":5.388973,"is_reserved":false,"is_disabled":false,"rental_uris":{"android":"levelo://app?vid=9ed431a1-9aa6-415e-a8fb-19339b0f8df9","ios":"levelo://app?vid=9ed431a1-9aa6-415e-a8fb-19339b0f8df9"},"vehicle_type_id":"4","last_reported":1683579945,"current_range_meters":16000,"station_id":"ce4bh392rcd13ifvqdl0","pricing_plan_id":"free"},{"bike_id":"2e65b4cf-8c3b-4527-a7ee-a6444d6ae598","system_id":"levelo_inurba_marseille","lat":43.298764,"lon":5.388973,"is_reserved":false,"is_disabled":false,"rental_uris":{"android":"levelo://app?vid=2e65b4cf-8c3b-4527-a7ee-a6444d6ae598","ios":"levelo://app?vid=2e65b4cf-8c3b-4527-a7ee-a6444d6ae598"},"vehicle_type_id":"4","last_reported":1683579945,"current_range_meters":9200,"station_id":"ce4bh392rcd13ifvqdl0","pricing_plan_id":"free"},{"bike_id":"b290d7e3-d5d3-4ffe-9937-fa9b17820d73","system_id":"levelo_inurba_marseille","lat":43.298764,"lon":5.388973,"is_reserved":false,"is_disabled":false,"rental_uris":{"android":"levelo://app?vid=b290d7e3-d5d3-4ffe-9937-fa9b17820d73","ios":"levelo://app?vid=b290d7e3-d5d3-4ffe-9937-fa9b17820d73"},"vehicle_type_id":"4","last_reported":1683579945,"current_range_meters":23200,"station_id":"ce4bh392rcd13ifvqdl0","pricing_plan_id":"free"},{"bike_id":"0281cc7e-0694-4887-b194-6f0f606b472c","system_id":"levelo_inurba_marseille","lat":43.309038,"lon":5.396546,"is_reserved":false,"is_disabled":false,"rental_uris":{"android":"levelo://app?vid=0281cc7e-0694-4887-b194-6f0f606b472c","ios":"levelo://app?vid=0281cc7e-0694-4887-b194-6f0f606b472c"},"vehicle_type_id":"4","last_reported":1683579945,"current_range_meters":18400,"station_id":"ce4bh012rcd13ifvqcv0","pricing_plan_id":"free"},{"bike_id":"81880469-b0ac-4b5b-aa0a-68096b5cdfbe","system_id":"levelo_inurba_marseille","lat":43.309038,"lon":5.396546,"is_reserved":false,"is_disabled":false,"rental_uris":{"android":"levelo://app?vid=81880469-b0ac-4b5b-aa0a-68096b5cdfbe","ios":"levelo://app?vid=81880469-b0ac-4b5b-aa0a-68096b5cdfbe"},"vehicle_type_id":"4","last_reported":1683579945,"current_range_meters":24800,"station_id":"ce4bh012rcd13ifvqcv0","pricing_plan_id":"free"},{"bike_id":"b07ef6c4-86dc-4d0d-8e2a-abc7b2454968","system_id":"levelo_inurba_marseille","lat":43.302759,"lon":5.400793,"is_reserved":false,"is_disabled":false,"rental_uris":{"android":"levelo://app?vid=b07ef6c4-86dc-4d0d-8e2a-abc7b2454968","ios":"levelo://app?vid=b07ef6c4-86dc-4d0d-8e2a-abc7b2454968"},"vehicle_type_id":"4","last_reported":1683579945,"current_range_meters":9600,"station_id":"ce4bgvh2rcd13ifvqcs0","pricing_plan_id":"free"},{"bike_id":"c5b017a7-150e-4b7d-9da2-a8bc5a4d0e42","system_id":"levelo_inurba_marseille","lat":43.313291,"lon":5.396838,"is_reserved":false,"is_disabled":false,"rental_uris":{"android":"levelo://app?vid=c5b017a7-150e-4b7d-9da2-a8bc5a4d0e42","ios":"levelo://app?vid=c5b017a7-150e-4b7d-9da2-a8bc5a4d0e42"},"vehicle_type_id":"4","last_reported":1683579945,"current_range_meters":10800,"station_id":"ce4bgvp2rcd13ifvqcu0","pricing_plan_id":"free"},{"bike_id":"a3a6c072-b312-4b6f-bc78-5373a2749b2c","system_id":"levelo_inurba_marseille","lat":43.309038,"lon":5.396546,"is_reserved":false,"is_disabled":false,"rental_uris":{"android":"levelo://app?vid=a3a6c072-b312-4b6f-bc78-5373a2749b2c","ios":"levelo://app?vid=a3a6c072-b312-4b6f-bc78-5373a2749b2c"},"vehicle_type_id":"4","last_reported":1683579945,"current_range_meters":0,"station_id":"ce4bh012rcd13ifvqcv0","pricing_plan_id":"free"},{"bike_id":"61030399-0dc2-4b2d-aaa4-b7f1e569da6c","system_id":"levelo_inurba_marseille","lat":43.309038,"lon":5.396546,"is_reserved":false,"is_disabled":false,"rental_uris":{"android":"levelo://app?vid=61030399-0dc2-4b2d-aaa4-b7f1e569da6c","ios":"levelo://app?vid=61030399-0dc2-4b2d-aaa4-b7f1e569da6c"},"vehicle_type_id":"4","last_reported":1683579945,"current_range_meters":11600,"station_id":"ce4bh012rcd13ifvqcv0","pricing_plan_id":"free"},{"bike_id":"02a50577-cce1-41c4-a92a-7cd10a1769a8","system_id":"levelo_inurba_marseille","lat":43.309038,"lon":5.396546,"is_reserved":false,"is_disabled":false,"rental_uris":{"android":"levelo://app?vid=02a50577-cce1-41c4-a92a-7cd10a1769a8","ios":"levelo://app?vid=02a50577-cce1-41c4-a92a-7cd10a1769a8"},"vehicle_type_id":"4","last_reported":1683579945,"current_range_meters":19600,"station_id":"ce4bh012rcd13ifvqcv0","pricing_plan_id":"free"},{"bike_id":"0b8fbaed-946d-4fbc-8c3d-644a2c1414f8","system_id":"levelo_inurba_marseille","lat":43.313291,"lon":5.396838,"is_reserved":false,"is_disabled":false,"rental_uris":{"android":"levelo://app?vid=0b8fbaed-946d-4fbc-8c3d-644a2c1414f8","ios":"levelo://app?vid=0b8fbaed-946d-4fbc-8c3d-644a2c1414f8"},"vehicle_type_id":"4","last_reported":1683579945,"current_range_meters":26000,"station_id":"ce4bgvp2rcd13ifvqcu0","pricing_plan_id":"free"},{"bike_id":"0dea751e-fdb2-453f-83ce-9226b5b144ec","system_id":"levelo_inurba_marseille","lat":43.309038,"lon":5.396546,"is_reserved":false,"is_disabled":false,"rental_uris":{"android":"levelo://app?vid=0dea751e-fdb2-453f-83ce-9226b5b144ec","ios":"levelo://app?vid=0dea751e-fdb2-453f-83ce-9226b5b144ec"},"vehicle_type_id":"4","last_reported":1683579945,"current_range_meters":16800,"station_id":"ce4bh012rcd13ifvqcv0","pricing_plan_id":"free"},{"bike_id":"60420065-27bf-47f0-b34a-b71246ba134b","system_id":"levelo_inurba_marseille","lat":43.309038,"lon":5.396546,"is_reserved":false,"is_disabled":false,"rental_uris":{"android":"levelo://app?vid=60420065-27bf-47f0-b34a-b71246ba134b","ios":"levelo://app?vid=60420065-27bf-47f0-b34a-b71246ba134b"},"vehicle_type_id":"4","last_reported":1683579945,"current_range_meters":6000,"station_id":"ce4bh012rcd13ifvqcv0","pricing_plan_id":"free"},{"bike_id":"346a932b-fda3-41e6-b8f1-66a3b5b17113","system_id":"levelo_inurba_marseille","lat":43.30882,"lon":5.39645,"is_reserved":false,"is_disabled":false,"rental_uris":{"android":"levelo://app?vid=346a932b-fda3-41e6-b8f1-66a3b5b17113","ios":"levelo://app?vid=346a932b-fda3-41e6-b8f1-66a3b5b17113"},"vehicle_type_id":"4","last_reported":1683579945,"current_range_meters":12000,"station_id":"ce4bh012rcd13ifvqcv0","pricing_plan_id":"free"},{"bike_id":"ec955817-b0f8-4adf-ba33-90bb1d981929","system_id":"levelo_inurba_marseille","lat":43.309038,"lon":5.396546,"is_reserved":false,"is_disabled":false,"rental_uris":{"android":"levelo://app?vid=ec955817-b0f8-4adf-ba33-90bb1d981929","ios":"levelo://app?vid=ec955817-b0f8-4adf-ba33-90bb1d981929"},"vehicle_type_id":"4","last_reported":1683579945,"current_range_meters":23200,"station_id":"ce4bh012rcd13ifvqcv0","pricing_plan_id":"free"},{"bike_id":"cee8a353-2447-43be-b9c6-c40fbe51fa21","system_id":"levelo_inurba_marseille","lat":43.309038,"lon":5.396546,"is_reserved":false,"is_disabled":false,"rental_uris":{"android":"levelo://app?vid=cee8a353-2447-43be-b9c6-c40fbe51fa21","ios":"levelo://app?vid=cee8a353-2447-43be-b9c6-c40fbe51fa21"},"vehicle_type_id":"4","last_reported":1683579945,"current_range_meters":4400,"station_id":"ce4bh012rcd13ifvqcv0","pricing_plan_id":"free"},{"bike_id":"14583113-2aa3-492b-9304-c8e4f70f5278","system_id":"levelo_inurba_marseille","lat":43.309038,"lon":5.396546,"is_reserved":false,"is_disabled":false,"rental_uris":{"android":"levelo://app?vid=14583113-2aa3-492b-9304-c8e4f70f5278","ios":"levelo://app?vid=14583113-2aa3-492b-9304-c8e4f70f5278"},"vehicle_type_id":"4","last_reported":1683579945,"current_range_meters":21200,"station_id":"ce4bh012rcd13ifvqcv0","pricing_plan_id":"free"},{"bike_id":"775f099c-5490-4505-b84a-6ad6f6ea9deb","system_id":"levelo_inurba_marseille","lat":43.309038,"lon":5.396546,"is_reserved":false,"is_disabled":false,"rental_uris":{"android":"levelo://app?vid=775f099c-5490-4505-b84a-6ad6f6ea9deb","ios":"levelo://app?vid=775f099c-5490-4505-b84a-6ad6f6ea9deb"},"vehicle_type_id":"4","last_reported":1683579945,"current_range_meters":3600,"station_id":"ce4bh012rcd13ifvqcv0","pricing_plan_id":"free"},{"bike_id":"4c7a8dfa-2318-43ee-9d21-a77f59738f8a","system_id":"levelo_inurba_marseille","lat":43.313291,"lon":5.396838,"is_reserved":false,"is_disabled":false,"rental_uris":{"android":"levelo://app?vid=4c7a8dfa-2318-43ee-9d21-a77f59738f8a","ios":"levelo://app?vid=4c7a8dfa-2318-43ee-9d21-a77f59738f8a"},"vehicle_type_id":"4","last_reported":1683579945,"current_range_meters":23200,"station_id":"ce4bgvp2rcd13ifvqcu0","pricing_plan_id":"free"},{"bike_id":"28593291-c317-41e0-acb7-f3211c568bc3","system_id":"levelo_inurba_marseille","lat":43.313291,"lon":5.396838,"is_reserved":false,"is_disabled":false,"rental_uris":{"android":"levelo://app?vid=28593291-c317-41e0-acb7-f3211c568bc3","ios":"levelo://app?vid=28593291-c317-41e0-acb7-f3211c568bc3"},"vehicle_type_id":"4","last_reported":1683579945,"current_range_meters":4800,"station_id":"ce4bgvp2rcd13ifvqcu0","pricing_plan_id":"free"},{"bike_id":"0d4eeb0b-7473-4a8a-ad90-873a70a85ca2","system_id":"levelo_inurba_marseille","lat":43.29529,"lon":5.385581,"is_reserved":false,"is_disabled":false,"rental_uris":{"android":"levelo://app?vid=0d4eeb0b-7473-4a8a-ad90-873a70a85ca2","ios":"levelo://app?vid=0d4eeb0b-7473-4a8a-ad90-873a70a85ca2"},"vehicle_type_id":"4","last_reported":1683579945,"current_range_meters":31200,"station_id":"ce4bgih2rcd13ifvqba0","pricing_plan_id":"free"},{"bike_id":"f362a3d6-31ec-447e-b9f8-16de52b83670","system_id":"levelo_inurba_marseille","lat":43.29537,"lon":5.38538,"is_reserved":false,"is_disabled":false,"rental_uris":{"android":"levelo://app?vid=f362a3d6-31ec-447e-b9f8-16de52b83670","ios":"levelo://app?vid=f362a3d6-31ec-447e-b9f8-16de52b83670"},"vehicle_type_id":"4","last_reported":1683579945,"current_range_meters":0,"station_id":"ce4bgih2rcd13ifvqba0","pricing_plan_id":"free"},{"bike_id":"bab0abdd-1180-4bc7-bea2-93b7ee008eff","system_id":"levelo_inurba_marseille","lat":43.313291,"lon":5.396838,"is_reserved":false,"is_disabled":false,"rental_uris":{"android":"levelo://app?vid=bab0abdd-1180-4bc7-bea2-93b7ee008eff","ios":"levelo://app?vid=bab0abdd-1180-4bc7-bea2-93b7ee008eff"},"vehicle_type_id":"4","last_reported":1683579945,"current_range_meters":14000,"station_id":"ce4bgvp2rcd13ifvqcu0","pricing_plan_id":"free"},{"bike_id":"1c11f936-81da-430d-9bf7-057709be83c3","system_id":"levelo_inurba_marseille","lat":43.29528,"lon":5.38541,"is_reserved":false,"is_disabled":false,"rental_uris":{"android":"levelo://app?vid=1c11f936-81da-430d-9bf7-057709be83c3","ios":"levelo://app?vid=1c11f936-81da-430d-9bf7-057709be83c3"},"vehicle_type_id":"4","last_reported":1683579945,"current_range_meters":6800,"station_id":"ce4bgih2rcd13ifvqba0","pricing_plan_id":"free"},{"bike_id":"fcb4972e-ab0d-4373-9932-f468239f4c4c","system_id":"levelo_inurba_marseille","lat":43.29529,"lon":5.385581,"is_reserved":false,"is_disabled":false,"rental_uris":{"android":"levelo://app?vid=fcb4972e-ab0d-4373-9932-f468239f4c4c","ios":"levelo://app?vid=fcb4972e-ab0d-4373-9932-f468239f4c4c"},"vehicle_type_id":"4","last_reported":1683579945,"current_range_meters":10000,"station_id":"ce4bgih2rcd13ifvqba0","pricing_plan_id":"free"},{"bike_id":"e72f2cc2-5809-4452-8cd5-a8d3ed5c9ec0","system_id":"levelo_inurba_marseille","lat":43.29526,"lon":5.38543,"is_reserved":false,"is_disabled":false,"rental_uris":{"android":"levelo://app?vid=e72f2cc2-5809-4452-8cd5-a8d3ed5c9ec0","ios":"levelo://app?vid=e72f2cc2-5809-4452-8cd5-a8d3ed5c9ec0"},"vehicle_type_id":"4","last_reported":1683579945,"current_range_meters":12800,"station_id":"ce4bgih2rcd13ifvqba0","pricing_plan_id":"free"},{"bike_id":"6b13d14a-cc69-4202-9bce-d7aeeb3ffdad","system_id":"levelo_inurba_marseille","lat":43.29525,"lon":5.38546,"is_reserved":false,"is_disabled":false,"rental_uris":{"android":"levelo://app?vid=6b13d14a-cc69-4202-9bce-d7aeeb3ffdad","ios":"levelo://app?vid=6b13d14a-cc69-4202-9bce-d7aeeb3ffdad"},"vehicle_type_id":"4","last_reported":1683579945,"current_range_meters":9200,"station_id":"ce4bgih2rcd13ifvqba0","pricing_plan_id":"free"},{"bike_id":"2bffec78-352b-4d8a-aaa5-412cd0fb99a7","system_id":"levelo_inurba_marseille","lat":43.309038,"lon":5.396546,"is_reserved":false,"is_disabled":false,"rental_uris":{"android":"levelo://app?vid=2bffec78-352b-4d8a-aaa5-412cd0fb99a7","ios":"levelo://app?vid=2bffec78-352b-4d8a-aaa5-412cd0fb99a7"},"vehicle_type_id":"4","last_reported":1683579945,"current_range_meters":25200,"station_id":"ce4bh012rcd13ifvqcv0","pricing_plan_id":"free"},{"bike_id":"44397244-1fc0-4a26-b7d0-1bd89cd775fd","system_id":"levelo_inurba_marseille","lat":43.290779,"lon":5.371482,"is_reserved":false,"is_disabled":false,"rental_uris":{"android":"levelo://app?vid=44397244-1fc0-4a26-b7d0-1bd89cd775fd","ios":"levelo://app?vid=44397244-1fc0-4a26-b7d0-1bd89cd775fd"},"vehicle_type_id":"4","last_reported":1683579945,"current_range_meters":20000,"station_id":"ce4bh5p2rcd13ifvqe4g","pricing_plan_id":"free"},{"bike_id":"94d59943-bd36-4409-a7d2-2f1ea2e0e60c","system_id":"levelo_inurba_marseille","lat":43.302008,"lon":5.394694,"is_reserved":false,"is_disabled":false,"rental_uris":{"android":"levelo://app?vid=94d59943-bd36-4409-a7d2-2f1ea2e0e60c","ios":"levelo://app?vid=94d59943-bd36-4409-a7d2-2f1ea2e0e60c"},"vehicle_type_id":"4","last_reported":1683579945,"current_range_meters":12000,"station_id":"ce4bh0p2rcd13ifvqd70","pricing_plan_id":"free"},{"bike_id":"0c70f3c5-cc69-45ce-b55b-421092ab205b","system_id":"levelo_inurba_marseille","lat":43.302008,"lon":5.394694,"is_reserved":false,"is_disabled":false,"rental_uris":{"android":"levelo://app?vid=0c70f3c5-cc69-45ce-b55b-421092ab205b","ios":"levelo://app?vid=0c70f3c5-cc69-45ce-b55b-421092ab205b"},"vehicle_type_id":"4","last_reported":1683579945,"current_range_meters":24800,"station_id":"ce4bh0p2rcd13ifvqd70","pricing_plan_id":"free"},{"bike_id":"c5c57354-61ec-4ff6-b361-754b6c1a7927","system_id":"levelo_inurba_marseille","lat":43.302008,"lon":5.394694,"is_reserved":false,"is_disabled":false,"rental_uris":{"android":"levelo://app?vid=c5c57354-61ec-4ff6-b361-754b6c1a7927","ios":"levelo://app?vid=c5c57354-61ec-4ff6-b361-754b6c1a7927"},"vehicle_type_id":"4","last_reported":1683579945,"current_range_meters":11600,"station_id":"ce4bh0p2rcd13ifvqd70","pricing_plan_id":"free"},{"bike_id":"21d1b674-8d0d-406f-ac57-09adf8ed2205","system_id":"levelo_inurba_marseille","lat":43.302008,"lon":5.394694,"is_reserved":false,"is_disabled":false,"rental_uris":{"android":"levelo://app?vid=21d1b674-8d0d-406f-ac57-09adf8ed2205","ios":"levelo://app?vid=21d1b674-8d0d-406f-ac57-09adf8ed2205"},"vehicle_type_id":"4","last_reported":1683579945,"current_range_meters":30000,"station_id":"ce4bh0p2rcd13ifvqd70","pricing_plan_id":"free"},{"bike_id":"9b10c7ff-55ab-4b48-9e91-394e37641280","system_id":"levelo_inurba_marseille","lat":43.290624,"lon":5.359245,"is_reserved":false,"is_disabled":false,"rental_uris":{"android":"levelo://app?vid=9b10c7ff-55ab-4b48-9e91-394e37641280","ios":"levelo://app?vid=9b10c7ff-55ab-4b48-9e91-394e37641280"},"vehicle_type_id":"4","last_reported":1683579945,"current_range_meters":0,"station_id":"ce4bha92rcd13ifvqeg0","pricing_plan_id":"free"},{"bike_id":"c8cbd3a8-0d4e-437f-98ae-50cd561d6a8d","system_id":"levelo_inurba_marseille","lat":43.294153,"lon":5.386305,"is_reserved":false,"is_disabled":false,"rental_uris":{"android":"levelo://app?vid=c8cbd3a8-0d4e-437f-98ae-50cd561d6a8d","ios":"levelo://app?vid=c8cbd3a8-0d4e-437f-98ae-50cd561d6a8d"},"vehicle_type_id":"4","last_reported":1683579945,"current_range_meters":16000,"station_id":"ce4bh2h2rcd13ifvqdh0","pricing_plan_id":"free"},{"bike_id":"d233023e-bd54-49a5-a9ac-18006951a2d8","system_id":"levelo_inurba_marseille","lat":43.294153,"lon":5.386305,"is_reserved":false,"is_disabled":false,"rental_uris":{"android":"levelo://app?vid=d233023e-bd54-49a5-a9ac-18006951a2d8","ios":"levelo://app?vid=d233023e-bd54-49a5-a9ac-18006951a2d8"},"vehicle_type_id":"4","last_reported":1683579945,"current_range_meters":6800,"station_id":"ce4bh2h2rcd13ifvqdh0","pricing_plan_id":"free"},{"bike_id":"1ef9d2ca-cfee-4337-91f8-c1dc7cef9afb","system_id":"levelo_inurba_marseille","lat":43.290319,"lon":5.375732,"is_reserved":false,"is_disabled":false,"rental_uris":{"android":"levelo://app?vid=1ef9d2ca-cfee-4337-91f8-c1dc7cef9afb","ios":"levelo://app?vid=1ef9d2ca-cfee-4337-91f8-c1dc7cef9afb"},"vehicle_type_id":"4","last_reported":1683579945,"current_range_meters":25200,"station_id":"ce4bh692rcd13ifvqe90","pricing_plan_id":"free"},{"bike_id":"f1058385-1b50-4d4a-b868-6224f3cdc027","system_id":"levelo_inurba_marseille","lat":43.294162,"lon":5.386292,"is_reserved":false,"is_disabled":false,"rental_uris":{"android":"levelo://app?vid=f1058385-1b50-4d4a-b868-6224f3cdc027","ios":"levelo://app?vid=f1058385-1b50-4d4a-b868-6224f3cdc027"},"vehicle_type_id":"4","last_reported":1683579945,"current_range_meters":2000,"station_id":"ce4bh2h2rcd13ifvqdh0","pricing_plan_id":"free"},{"bike_id":"0a09c9cf-0b63-4e45-b2c5-8e2c1af52358","system_id":"levelo_inurba_marseille","lat":43.294162,"lon":5.386292,"is_reserved":false,"is_disabled":false,"rental_uris":{"android":"levelo://app?vid=0a09c9cf-0b63-4e45-b2c5-8e2c1af52358","ios":"levelo://app?vid=0a09c9cf-0b63-4e45-b2c5-8e2c1af52358"},"vehicle_type_id":"4","last_reported":1683579945,"current_range_meters":8000,"station_id":"ce4bh2h2rcd13ifvqdh0","pricing_plan_id":"free"},{"bike_id":"9d9f71fa-db3c-47c7-813c-e9ed4704abbc","system_id":"levelo_inurba_marseille","lat":43.294162,"lon":5.386292,"is_reserved":false,"is_disabled":false,"rental_uris":{"android":"levelo://app?vid=9d9f71fa-db3c-47c7-813c-e9ed4704abbc","ios":"levelo://app?vid=9d9f71fa-db3c-47c7-813c-e9ed4704abbc"},"vehicle_type_id":"4","last_reported":1683579945,"current_range_meters":4000,"station_id":"ce4bh2h2rcd13ifvqdh0","pricing_plan_id":"free"},{"bike_id":"8ad499de-12f4-4903-9888-1011d6f75d98","system_id":"levelo_inurba_marseille","lat":43.290319,"lon":5.375732,"is_reserved":false,"is_disabled":false,"rental_uris":{"android":"levelo://app?vid=8ad499de-12f4-4903-9888-1011d6f75d98","ios":"levelo://app?vid=8ad499de-12f4-4903-9888-1011d6f75d98"},"vehicle_type_id":"4","last_reported":1683579945,"current_range_meters":15200,"station_id":"ce4bh692rcd13ifvqe90","pricing_plan_id":"free"},{"bike_id":"a2bc489d-8d8b-43b0-b6fc-9a4289e520b5","system_id":"levelo_inurba_marseille","lat":43.290327,"lon":5.375711,"is_reserved":false,"is_disabled":false,"rental_uris":{"android":"levelo://app?vid=a2bc489d-8d8b-43b0-b6fc-9a4289e520b5","ios":"levelo://app?vid=a2bc489d-8d8b-43b0-b6fc-9a4289e520b5"},"vehicle_type_id":"4","last_reported":1683579945,"current_range_meters":14000,"station_id":"ce4bh692rcd13ifvqe90","pricing_plan_id":"free"},{"bike_id":"f1928ac1-37fb-45df-86f8-d4885cc6342b","system_id":"levelo_inurba_marseille","lat":43.289468,"lon":5.363719,"is_reserved":false,"is_disabled":false,"rental_uris":{"android":"levelo://app?vid=f1928ac1-37fb-45df-86f8-d4885cc6342b","ios":"levelo://app?vid=f1928ac1-37fb-45df-86f8-d4885cc6342b"},"vehicle_type_id":"4","last_reported":1683579945,"current_range_meters":3200,"station_id":"ce4bhc92rcd13ifvqetg","pricing_plan_id":"free"},{"bike_id":"271936b4-0b6f-4af7-859d-654293b65351","system_id":"levelo_inurba_marseille","lat":43.289468,"lon":5.363719,"is_reserved":false,"is_disabled":false,"rental_uris":{"android":"levelo://app?vid=271936b4-0b6f-4af7-859d-654293b65351","ios":"levelo://app?vid=271936b4-0b6f-4af7-859d-654293b65351"},"vehicle_type_id":"4","last_reported":1683579945,"current_range_meters":21200,"station_id":"ce4bhc92rcd13ifvqetg","pricing_plan_id":"free"},{"bike_id":"01483eee-bdbc-4ea1-993b-88de0409d6c5","system_id":"levelo_inurba_marseille","lat":43.289468,"lon":5.363719,"is_reserved":false,"is_disabled":false,"rental_uris":{"android":"levelo://app?vid=01483eee-bdbc-4ea1-993b-88de0409d6c5","ios":"levelo://app?vid=01483eee-bdbc-4ea1-993b-88de0409d6c5"},"vehicle_type_id":"4","last_reported":1683579945,"current_range_meters":22400,"station_id":"ce4bhc92rcd13ifvqetg","pricing_plan_id":"free"},{"bike_id":"b28b3310-a4b4-4eb4-843a-137c4d3829f7","system_id":"levelo_inurba_marseille","lat":43.289468,"lon":5.363719,"is_reserved":false,"is_disabled":false,"rental_uris":{"android":"levelo://app?vid=b28b3310-a4b4-4eb4-843a-137c4d3829f7","ios":"levelo://app?vid=b28b3310-a4b4-4eb4-843a-137c4d3829f7"},"vehicle_type_id":"4","last_reported":1683579945,"current_range_meters":16000,"station_id":"ce4bhc92rcd13ifvqetg","pricing_plan_id":"free"},{"bike_id":"84ab830e-4fde-4d3e-8ea6-1b657fa0c4bd","system_id":"levelo_inurba_marseille","lat":43.292644,"lon":5.384257,"is_reserved":false,"is_disabled":false,"rental_uris":{"android":"levelo://app?vid=84ab830e-4fde-4d3e-8ea6-1b657fa0c4bd","ios":"levelo://app?vid=84ab830e-4fde-4d3e-8ea6-1b657fa0c4bd"},"vehicle_type_id":"4","last_reported":1683579945,"current_range_meters":8000,"station_id":"ce4bh692rcd13ifvqea0","pricing_plan_id":"free"},{"bike_id":"f52a17b0-6be2-4b34-a150-ef892fabc10b","system_id":"levelo_inurba_marseille","lat":43.292642,"lon":5.384254,"is_reserved":false,"is_disabled":false,"rental_uris":{"android":"levelo://app?vid=f52a17b0-6be2-4b34-a150-ef892fabc10b","ios":"levelo://app?vid=f52a17b0-6be2-4b34-a150-ef892fabc10b"},"vehicle_type_id":"4","last_reported":1683579945,"current_range_meters":30400,"station_id":"ce4bh692rcd13ifvqea0","pricing_plan_id":"free"},{"bike_id":"73ae6911-363a-42fd-bffb-9f5fcb7a3738","system_id":"levelo_inurba_marseille","lat":43.292644,"lon":5.384257,"is_reserved":false,"is_disabled":false,"rental_uris":{"android":"levelo://app?vid=73ae6911-363a-42fd-bffb-9f5fcb7a3738","ios":"levelo://app?vid=73ae6911-363a-42fd-bffb-9f5fcb7a3738"},"vehicle_type_id":"4","last_reported":1683579945,"current_range_meters":12000,"station_id":"ce4bh692rcd13ifvqea0","pricing_plan_id":"free"},{"bike_id":"4333872a-ebc1-455a-9c78-3fb81ba2c0fb","system_id":"levelo_inurba_marseille","lat":43.292644,"lon":5.384257,"is_reserved":false,"is_disabled":false,"rental_uris":{"android":"levelo://app?vid=4333872a-ebc1-455a-9c78-3fb81ba2c0fb","ios":"levelo://app?vid=4333872a-ebc1-455a-9c78-3fb81ba2c0fb"},"vehicle_type_id":"4","last_reported":1683579945,"current_range_meters":26800,"station_id":"ce4bh692rcd13ifvqea0","pricing_plan_id":"free"},{"bike_id":"89f333b9-efaa-46bd-b28a-3cdb2c584912","system_id":"levelo_inurba_marseille","lat":43.292642,"lon":5.384254,"is_reserved":false,"is_disabled":false,"rental_uris":{"android":"levelo://app?vid=89f333b9-efaa-46bd-b28a-3cdb2c584912","ios":"levelo://app?vid=89f333b9-efaa-46bd-b28a-3cdb2c584912"},"vehicle_type_id":"4","last_reported":1683579945,"current_range_meters":31200,"station_id":"ce4bh692rcd13ifvqea0","pricing_plan_id":"free"},{"bike_id":"6f1e789e-4254-41fd-a637-e14e602bb977","system_id":"levelo_inurba_marseille","lat":43.292642,"lon":5.384254,"is_reserved":false,"is_disabled":false,"rental_uris":{"android":"levelo://app?vid=6f1e789e-4254-41fd-a637-e14e602bb977","ios":"levelo://app?vid=6f1e789e-4254-41fd-a637-e14e602bb977"},"vehicle_type_id":"4","last_reported":1683579945,"current_range_meters":26000,"station_id":"ce4bh692rcd13ifvqea0","pricing_plan_id":"free"},{"bike_id":"afd898d9-f9e0-42f0-b6f3-c48442bcdc55","system_id":"levelo_inurba_marseille","lat":43.304296,"lon":5.397513,"is_reserved":false,"is_disabled":false,"rental_uris":{"android":"levelo://app?vid=afd898d9-f9e0-42f0-b6f3-c48442bcdc55","ios":"levelo://app?vid=afd898d9-f9e0-42f0-b6f3-c48442bcdc55"},"vehicle_type_id":"4","last_reported":1683579945,"current_range_meters":26800,"station_id":"ce4bh092rcd13ifvqd20","pricing_plan_id":"free"},{"bike_id":"c272d357-373a-4df9-9812-ae896c2c2a57","system_id":"levelo_inurba_marseille","lat":43.29248,"lon":5.38445,"is_reserved":false,"is_disabled":false,"rental_uris":{"android":"levelo://app?vid=c272d357-373a-4df9-9812-ae896c2c2a57","ios":"levelo://app?vid=c272d357-373a-4df9-9812-ae896c2c2a57"},"vehicle_type_id":"4","last_reported":1683579945,"current_range_meters":24800,"station_id":"ce4bh692rcd13ifvqea0","pricing_plan_id":"free"},{"bike_id":"900543c1-ba77-4615-8f9b-f04944156c0b","system_id":"levelo_inurba_marseille","lat":43.33044,"lon":5.38912,"is_reserved":false,"is_disabled":false,"rental_uris":{"android":"levelo://app?vid=900543c1-ba77-4615-8f9b-f04944156c0b","ios":"levelo://app?vid=900543c1-ba77-4615-8f9b-f04944156c0b"},"vehicle_type_id":"4","last_reported":1683579945,"current_range_meters":22800,"station_id":"ce4bhr92rcd13ifvqhrg","pricing_plan_id":"free"},{"bike_id":"c80426be-83d3-4e57-a092-befe7b8a7a79","system_id":"levelo_inurba_marseille","lat":43.33043,"lon":5.38916,"is_reserved":false,"is_disabled":false,"rental_uris":{"android":"levelo://app?vid=c80426be-83d3-4e57-a092-befe7b8a7a79","ios":"levelo://app?vid=c80426be-83d3-4e57-a092-befe7b8a7a79"},"vehicle_type_id":"4","last_reported":1683579945,"current_range_meters":24400,"station_id":"ce4bhr92rcd13ifvqhrg","pricing_plan_id":"free"},{"bike_id":"1d530d53-7eb9-4d66-b978-cc330cde8073","system_id":"levelo_inurba_marseille","lat":43.33042,"lon":5.38919,"is_reserved":false,"is_disabled":false,"rental_uris":{"android":"levelo://app?vid=1d530d53-7eb9-4d66-b978-cc330cde8073","ios":"levelo://app?vid=1d530d53-7eb9-4d66-b978-cc330cde8073"},"vehicle_type_id":"4","last_reported":1683579945,"current_range_meters":9200,"station_id":"ce4bhr92rcd13ifvqhrg","pricing_plan_id":"free"},{"bike_id":"fba4825a-c3ad-4e1b-8a8f-3b5dd322bb5f","system_id":"levelo_inurba_marseille","lat":43.33044,"lon":5.38916,"is_reserved":false,"is_disabled":false,"rental_uris":{"android":"levelo://app?vid=fba4825a-c3ad-4e1b-8a8f-3b5dd322bb5f","ios":"levelo://app?vid=fba4825a-c3ad-4e1b-8a8f-3b5dd322bb5f"},"vehicle_type_id":"4","last_reported":1683579945,"current_range_meters":31200,"station_id":"ce4bhr92rcd13ifvqhrg","pricing_plan_id":"free"},{"bike_id":"2c4d1fc8-5966-49f2-8d08-251e531c7e7f","system_id":"levelo_inurba_marseille","lat":43.33045,"lon":5.38917,"is_reserved":false,"is_disabled":false,"rental_uris":{"android":"levelo://app?vid=2c4d1fc8-5966-49f2-8d08-251e531c7e7f","ios":"levelo://app?vid=2c4d1fc8-5966-49f2-8d08-251e531c7e7f"},"vehicle_type_id":"4","last_reported":1683579945,"current_range_meters":24000,"station_id":"ce4bhr92rcd13ifvqhrg","pricing_plan_id":"free"},{"bike_id":"3ec5bfc0-1cbe-4217-b73e-9546086e4ec0","system_id":"levelo_inurba_marseille","lat":43.33047,"lon":5.38917,"is_reserved":false,"is_disabled":false,"rental_uris":{"android":"levelo://app?vid=3ec5bfc0-1cbe-4217-b73e-9546086e4ec0","ios":"levelo://app?vid=3ec5bfc0-1cbe-4217-b73e-9546086e4ec0"},"vehicle_type_id":"4","last_reported":1683579945,"current_range_meters":23600,"station_id":"ce4bhr92rcd13ifvqhrg","pricing_plan_id":"free"},{"bike_id":"0f789c79-226b-4c8f-ab80-8dbe22335ac0","system_id":"levelo_inurba_marseille","lat":43.290995,"lon":5.381361,"is_reserved":false,"is_disabled":false,"rental_uris":{"android":"levelo://app?vid=0f789c79-226b-4c8f-ab80-8dbe22335ac0","ios":"levelo://app?vid=0f789c79-226b-4c8f-ab80-8dbe22335ac0"},"vehicle_type_id":"4","last_reported":1683579945,"current_range_meters":0,"station_id":"ce4bh512rcd13ifvqe2g","pricing_plan_id":"free"},{"bike_id":"9eda2a52-c769-4e7a-b017-cc8ed8bfdf22","system_id":"levelo_inurba_marseille","lat":43.289743,"lon":5.378304,"is_reserved":false,"is_disabled":false,"rental_uris":{"android":"levelo://app?vid=9eda2a52-c769-4e7a-b017-cc8ed8bfdf22","ios":"levelo://app?vid=9eda2a52-c769-4e7a-b017-cc8ed8bfdf22"},"vehicle_type_id":"4","last_reported":1683579945,"current_range_meters":6000,"station_id":"ce4bh9p2rcd13ifvqed0","pricing_plan_id":"free"},{"bike_id":"c11a2f26-6511-4ae5-950b-c499a05a5c52","system_id":"levelo_inurba_marseille","lat":43.289741,"lon":5.378306,"is_reserved":false,"is_disabled":false,"rental_uris":{"android":"levelo://app?vid=c11a2f26-6511-4ae5-950b-c499a05a5c52","ios":"levelo://app?vid=c11a2f26-6511-4ae5-950b-c499a05a5c52"},"vehicle_type_id":"4","last_reported":1683579945,"current_range_meters":24800,"station_id":"ce4bh9p2rcd13ifvqed0","pricing_plan_id":"free"},{"bike_id":"73323904-c41d-4291-ae34-c5c02b9e07e2","system_id":"levelo_inurba_marseille","lat":43.28856,"lon":5.358371,"is_reserved":false,"is_disabled":false,"rental_uris":{"android":"levelo://app?vid=73323904-c41d-4291-ae34-c5c02b9e07e2","ios":"levelo://app?vid=73323904-c41d-4291-ae34-c5c02b9e07e2"},"vehicle_type_id":"4","last_reported":1683579945,"current_range_meters":7600,"station_id":"ce4bhb12rcd13ifvqem0","pricing_plan_id":"free"},{"bike_id":"7f293936-1ae3-4bf5-8c6a-23fdb41693dc","system_id":"levelo_inurba_marseille","lat":43.28856,"lon":5.358371,"is_reserved":false,"is_disabled":false,"rental_uris":{"android":"levelo://app?vid=7f293936-1ae3-4bf5-8c6a-23fdb41693dc","ios":"levelo://app?vid=7f293936-1ae3-4bf5-8c6a-23fdb41693dc"},"vehicle_type_id":"4","last_reported":1683579945,"current_range_meters":23600,"station_id":"ce4bhb12rcd13ifvqem0","pricing_plan_id":"free"},{"bike_id":"d551490e-b074-42fe-89cc-398f6aa81c13","system_id":"levelo_inurba_marseille","lat":43.28856,"lon":5.358371,"is_reserved":false,"is_disabled":false,"rental_uris":{"android":"levelo://app?vid=d551490e-b074-42fe-89cc-398f6aa81c13","ios":"levelo://app?vid=d551490e-b074-42fe-89cc-398f6aa81c13"},"vehicle_type_id":"4","last_reported":1683579945,"current_range_meters":14000,"station_id":"ce4bhb12rcd13ifvqem0","pricing_plan_id":"free"},{"bike_id":"78725f08-8d42-4f1a-9002-0d0b35dc7efd","system_id":"levelo_inurba_marseille","lat":43.33747,"lon":5.37438,"is_reserved":false,"is_disabled":false,"rental_uris":{"android":"levelo://app?vid=78725f08-8d42-4f1a-9002-0d0b35dc7efd","ios":"levelo://app?vid=78725f08-8d42-4f1a-9002-0d0b35dc7efd"},"vehicle_type_id":"4","last_reported":1683579945,"current_range_meters":13200,"station_id":"","pricing_plan_id":"free"},{"bike_id":"beeb13a9-91c0-4ca7-bd5f-905d967f8529","system_id":"levelo_inurba_marseille","lat":43.30642,"lon":5.401031,"is_reserved":false,"is_disabled":false,"rental_uris":{"android":"levelo://app?vid=beeb13a9-91c0-4ca7-bd5f-905d967f8529","ios":"levelo://app?vid=beeb13a9-91c0-4ca7-bd5f-905d967f8529"},"vehicle_type_id":"4","last_reported":1683579945,"current_range_meters":1200,"station_id":"ce4bh112rcd13ifvqda0","pricing_plan_id":"free"},{"bike_id":"64a3089f-7b46-475e-9433-f46718e95cde","system_id":"levelo_inurba_marseille","lat":43.30642,"lon":5.401031,"is_reserved":false,"is_disabled":false,"rental_uris":{"android":"levelo://app?vid=64a3089f-7b46-475e-9433-f46718e95cde","ios":"levelo://app?vid=64a3089f-7b46-475e-9433-f46718e95cde"},"vehicle_type_id":"4","last_reported":1683579945,"current_range_meters":29600,"station_id":"ce4bh112rcd13ifvqda0","pricing_plan_id":"free"},{"bike_id":"3be8f928-1ebf-42b1-87d7-220a02387f80","system_id":"levelo_inurba_marseille","lat":43.30642,"lon":5.401031,"is_reserved":false,"is_disabled":false,"rental_uris":{"android":"levelo://app?vid=3be8f928-1ebf-42b1-87d7-220a02387f80","ios":"levelo://app?vid=3be8f928-1ebf-42b1-87d7-220a02387f80"},"vehicle_type_id":"4","last_reported":1683579945,"current_range_meters":26000,"station_id":"ce4bh112rcd13ifvqda0","pricing_plan_id":"free"},{"bike_id":"32e06434-ea61-4ba1-a5b7-f12db2a51ea2","system_id":"levelo_inurba_marseille","lat":43.30642,"lon":5.401031,"is_reserved":false,"is_disabled":false,"rental_uris":{"android":"levelo://app?vid=32e06434-ea61-4ba1-a5b7-f12db2a51ea2","ios":"levelo://app?vid=32e06434-ea61-4ba1-a5b7-f12db2a51ea2"},"vehicle_type_id":"4","last_reported":1683579945,"current_range_meters":10400,"station_id":"ce4bh112rcd13ifvqda0","pricing_plan_id":"free"},{"bike_id":"7c306005-c1bb-4487-b2b5-4de88de61454","system_id":"levelo_inurba_marseille","lat":43.30642,"lon":5.401031,"is_reserved":false,"is_disabled":false,"rental_uris":{"android":"levelo://app?vid=7c306005-c1bb-4487-b2b5-4de88de61454","ios":"levelo://app?vid=7c306005-c1bb-4487-b2b5-4de88de61454"},"vehicle_type_id":"4","last_reported":1683579945,"current_range_meters":31200,"station_id":"ce4bh112rcd13ifvqda0","pricing_plan_id":"free"},{"bike_id":"7c7fe969-ca3b-4e6a-9b0a-6e22bc5df003","system_id":"levelo_inurba_marseille","lat":43.33776,"lon":5.37422,"is_reserved":false,"is_disabled":false,"rental_uris":{"android":"levelo://app?vid=7c7fe969-ca3b-4e6a-9b0a-6e22bc5df003","ios":"levelo://app?vid=7c7fe969-ca3b-4e6a-9b0a-6e22bc5df003"},"vehicle_type_id":"4","last_reported":1683579945,"current_range_meters":31200,"station_id":"ce4rr2p2rcd13i802rgg","pricing_plan_id":"free"},{"bike_id":"31c519be-4b56-485c-aed8-f701ba1fb58d","system_id":"levelo_inurba_marseille","lat":43.301117,"lon":5.398795,"is_reserved":false,"is_disabled":false,"rental_uris":{"android":"levelo://app?vid=31c519be-4b56-485c-aed8-f701ba1fb58d","ios":"levelo://app?vid=31c519be-4b56-485c-aed8-f701ba1fb58d"},"vehicle_type_id":"4","last_reported":1683579945,"current_range_meters":31200,"station_id":"ce4bh0h2rcd13ifvqd40","pricing_plan_id":"free"},{"bike_id":"485b389d-2ebe-4617-aae0-fe0813a6e924","system_id":"levelo_inurba_marseille","lat":43.301117,"lon":5.398795,"is_reserved":false,"is_disabled":false,"rental_uris":{"android":"levelo://app?vid=485b389d-2ebe-4617-aae0-fe0813a6e924","ios":"levelo://app?vid=485b389d-2ebe-4617-aae0-fe0813a6e924"},"vehicle_type_id":"4","last_reported":1683579945,"current_range_meters":21200,"station_id":"ce4bh0h2rcd13ifvqd40","pricing_plan_id":"free"},{"bike_id":"944e9ff4-6590-4102-b5ee-f064ed5bd877","system_id":"levelo_inurba_marseille","lat":43.301117,"lon":5.398795,"is_reserved":false,"is_disabled":false,"rental_uris":{"android":"levelo://app?vid=944e9ff4-6590-4102-b5ee-f064ed5bd877","ios":"levelo://app?vid=944e9ff4-6590-4102-b5ee-f064ed5bd877"},"vehicle_type_id":"4","last_reported":1683579945,"current_range_meters":18000,"station_id":"ce4bh0h2rcd13ifvqd40","pricing_plan_id":"free"},{"bike_id":"d0790ade-d565-49a2-9c41-2d4e09fce409","system_id":"levelo_inurba_marseille","lat":43.28667,"lon":5.36357,"is_reserved":false,"is_disabled":false,"rental_uris":{"android":"levelo://app?vid=d0790ade-d565-49a2-9c41-2d4e09fce409","ios":"levelo://app?vid=d0790ade-d565-49a2-9c41-2d4e09fce409"},"vehicle_type_id":"4","last_reported":1683579945,"current_range_meters":24000,"station_id":"ce4bhah2rcd13ifvqej0","pricing_plan_id":"free"},{"bike_id":"18b9f0e8-56f6-43ab-b350-f127d24dcc51","system_id":"levelo_inurba_marseille","lat":43.28667,"lon":5.36353,"is_reserved":false,"is_disabled":false,"rental_uris":{"android":"levelo://app?vid=18b9f0e8-56f6-43ab-b350-f127d24dcc51","ios":"levelo://app?vid=18b9f0e8-56f6-43ab-b350-f127d24dcc51"},"vehicle_type_id":"4","last_reported":1683579945,"current_range_meters":19200,"station_id":"ce4bhah2rcd13ifvqej0","pricing_plan_id":"free"},{"bike_id":"2c73bd9d-7d90-476b-8923-736bc1cd0bbe","system_id":"levelo_inurba_marseille","lat":43.298681,"lon":5.397225,"is_reserved":false,"is_disabled":false,"rental_uris":{"android":"levelo://app?vid=2c73bd9d-7d90-476b-8923-736bc1cd0bbe","ios":"levelo://app?vid=2c73bd9d-7d90-476b-8923-736bc1cd0bbe"},"vehicle_type_id":"4","last_reported":1683579945,"current_range_meters":31600,"station_id":"ce4bh0h2rcd13ifvqd50","pricing_plan_id":"free"},{"bike_id":"3551c753-64e4-4260-bcef-c2d33f358455","system_id":"levelo_inurba_marseille","lat":43.28666,"lon":5.36339,"is_reserved":false,"is_disabled":false,"rental_uris":{"android":"levelo://app?vid=3551c753-64e4-4260-bcef-c2d33f358455","ios":"levelo://app?vid=3551c753-64e4-4260-bcef-c2d33f358455"},"vehicle_type_id":"4","last_reported":1683579945,"current_range_meters":2400,"station_id":"ce4bhah2rcd13ifvqej0","pricing_plan_id":"free"},{"bike_id":"21fd4991-eba0-4b16-8304-09f779322b2e","system_id":"levelo_inurba_marseille","lat":43.298681,"lon":5.397225,"is_reserved":false,"is_disabled":false,"rental_uris":{"android":"levelo://app?vid=21fd4991-eba0-4b16-8304-09f779322b2e","ios":"levelo://app?vid=21fd4991-eba0-4b16-8304-09f779322b2e"},"vehicle_type_id":"4","last_reported":1683579945,"current_range_meters":31200,"station_id":"ce4bh0h2rcd13ifvqd50","pricing_plan_id":"free"},{"bike_id":"508940e0-414c-4364-ae34-0b9b2ef6d468","system_id":"levelo_inurba_marseille","lat":43.28664,"lon":5.36356,"is_reserved":false,"is_disabled":false,"rental_uris":{"android":"levelo://app?vid=508940e0-414c-4364-ae34-0b9b2ef6d468","ios":"levelo://app?vid=508940e0-414c-4364-ae34-0b9b2ef6d468"},"vehicle_type_id":"4","last_reported":1683579945,"current_range_meters":6800,"station_id":"ce4bhah2rcd13ifvqej0","pricing_plan_id":"free"},{"bike_id":"a102ff74-b0eb-4c62-95fc-cb598f4ac12b","system_id":"levelo_inurba_marseille","lat":43.2987,"lon":5.39735,"is_reserved":false,"is_disabled":false,"rental_uris":{"android":"levelo://app?vid=a102ff74-b0eb-4c62-95fc-cb598f4ac12b","ios":"levelo://app?vid=a102ff74-b0eb-4c62-95fc-cb598f4ac12b"},"vehicle_type_id":"4","last_reported":1683579945,"current_range_meters":18400,"station_id":"ce4bh0h2rcd13ifvqd50","pricing_plan_id":"free"},{"bike_id":"3388efd5-c354-4ca3-a0a2-68f81ed9b113","system_id":"levelo_inurba_marseille","lat":43.29871,"lon":5.39736,"is_reserved":false,"is_disabled":false,"rental_uris":{"android":"levelo://app?vid=3388efd5-c354-4ca3-a0a2-68f81ed9b113","ios":"levelo://app?vid=3388efd5-c354-4ca3-a0a2-68f81ed9b113"},"vehicle_type_id":"4","last_reported":1683579945,"current_range_meters":4000,"station_id":"ce4bh0h2rcd13ifvqd50","pricing_plan_id":"free"},{"bike_id":"50969179-a8d8-46b1-a663-4983af0d0f78","system_id":"levelo_inurba_marseille","lat":43.28663,"lon":5.36358,"is_reserved":false,"is_disabled":false,"rental_uris":{"android":"levelo://app?vid=50969179-a8d8-46b1-a663-4983af0d0f78","ios":"levelo://app?vid=50969179-a8d8-46b1-a663-4983af0d0f78"},"vehicle_type_id":"4","last_reported":1683579945,"current_range_meters":2800,"station_id":"ce4bhah2rcd13ifvqej0","pricing_plan_id":"free"},{"bike_id":"8013d346-041a-4aaa-8ef2-b9b549422355","system_id":"levelo_inurba_marseille","lat":43.28662,"lon":5.36353,"is_reserved":false,"is_disabled":false,"rental_uris":{"android":"levelo://app?vid=8013d346-041a-4aaa-8ef2-b9b549422355","ios":"levelo://app?vid=8013d346-041a-4aaa-8ef2-b9b549422355"},"vehicle_type_id":"4","last_reported":1683579945,"current_range_meters":6800,"station_id":"ce4bhah2rcd13ifvqej0","pricing_plan_id":"free"},{"bike_id":"79ddbf80-5110-455f-97c3-316bde9bade2","system_id":"levelo_inurba_marseille","lat":43.298681,"lon":5.397225,"is_reserved":false,"is_disabled":false,"rental_uris":{"android":"levelo://app?vid=79ddbf80-5110-455f-97c3-316bde9bade2","ios":"levelo://app?vid=79ddbf80-5110-455f-97c3-316bde9bade2"},"vehicle_type_id":"4","last_reported":1683579945,"current_range_meters":2000,"station_id":"ce4bh0h2rcd13ifvqd50","pricing_plan_id":"free"},{"bike_id":"e01e0504-8f28-4b24-b937-c5b09fc7c79a","system_id":"levelo_inurba_marseille","lat":43.298681,"lon":5.397225,"is_reserved":false,"is_disabled":false,"rental_uris":{"android":"levelo://app?vid=e01e0504-8f28-4b24-b937-c5b09fc7c79a","ios":"levelo://app?vid=e01e0504-8f28-4b24-b937-c5b09fc7c79a"},"vehicle_type_id":"4","last_reported":1683579945,"current_range_meters":28400,"station_id":"ce4bh0h2rcd13ifvqd50","pricing_plan_id":"free"},{"bike_id":"1afcc5c2-aee2-4d29-b5a0-ed346730f685","system_id":"levelo_inurba_marseille","lat":43.28661,"lon":5.36352,"is_reserved":false,"is_disabled":false,"rental_uris":{"android":"levelo://app?vid=1afcc5c2-aee2-4d29-b5a0-ed346730f685","ios":"levelo://app?vid=1afcc5c2-aee2-4d29-b5a0-ed346730f685"},"vehicle_type_id":"4","last_reported":1683579945,"current_range_meters":13600,"station_id":"ce4bhah2rcd13ifvqej0","pricing_plan_id":"free"},{"bike_id":"d27ef292-8052-4dfb-b785-db62eb192aff","system_id":"levelo_inurba_marseille","lat":43.298681,"lon":5.397225,"is_reserved":false,"is_disabled":false,"rental_uris":{"android":"levelo://app?vid=d27ef292-8052-4dfb-b785-db62eb192aff","ios":"levelo://app?vid=d27ef292-8052-4dfb-b785-db62eb192aff"},"vehicle_type_id":"4","last_reported":1683579945,"current_range_meters":31600,"station_id":"ce4bh0h2rcd13ifvqd50","pricing_plan_id":"free"},{"bike_id":"eb39d6cb-3712-4119-ba82-b67fffa23608","system_id":"levelo_inurba_marseille","lat":43.298681,"lon":5.397225,"is_reserved":false,"is_disabled":false,"rental_uris":{"android":"levelo://app?vid=eb39d6cb-3712-4119-ba82-b67fffa23608","ios":"levelo://app?vid=eb39d6cb-3712-4119-ba82-b67fffa23608"},"vehicle_type_id":"4","last_reported":1683579945,"current_range_meters":31200,"station_id":"ce4bh0h2rcd13ifvqd50","pricing_plan_id":"free"},{"bike_id":"30814d6c-7863-415d-8827-a2d2ed2f8e59","system_id":"levelo_inurba_marseille","lat":43.298681,"lon":5.397225,"is_reserved":false,"is_disabled":false,"rental_uris":{"android":"levelo://app?vid=30814d6c-7863-415d-8827-a2d2ed2f8e59","ios":"levelo://app?vid=30814d6c-7863-415d-8827-a2d2ed2f8e59"},"vehicle_type_id":"4","last_reported":1683579945,"current_range_meters":8000,"station_id":"ce4bh0h2rcd13ifvqd50","pricing_plan_id":"free"},{"bike_id":"b4fc8786-8fe9-4acf-affc-27ab8b47b397","system_id":"levelo_inurba_marseille","lat":43.295196,"lon":5.39397,"is_reserved":false,"is_disabled":false,"rental_uris":{"android":"levelo://app?vid=b4fc8786-8fe9-4acf-affc-27ab8b47b397","ios":"levelo://app?vid=b4fc8786-8fe9-4acf-affc-27ab8b47b397"},"vehicle_type_id":"4","last_reported":1683579945,"current_range_meters":5600,"station_id":"ce4bh292rcd13ifvqdf0","pricing_plan_id":"free"},{"bike_id":"55beeae7-c1cb-4d46-bc8b-078bea28c414","system_id":"levelo_inurba_marseille","lat":43.290345,"lon":5.38646,"is_reserved":false,"is_disabled":false,"rental_uris":{"android":"levelo://app?vid=55beeae7-c1cb-4d46-bc8b-078bea28c414","ios":"levelo://app?vid=55beeae7-c1cb-4d46-bc8b-078bea28c414"},"vehicle_type_id":"4","last_reported":1683579945,"current_range_meters":30800,"station_id":"ce4bh4p2rcd13ifvqe0g","pricing_plan_id":"free"},{"bike_id":"f4a0ef64-c3e2-4d11-a4e9-ac3dd175476f","system_id":"levelo_inurba_marseille","lat":43.29515,"lon":5.39403,"is_reserved":false,"is_disabled":false,"rental_uris":{"android":"levelo://app?vid=f4a0ef64-c3e2-4d11-a4e9-ac3dd175476f","ios":"levelo://app?vid=f4a0ef64-c3e2-4d11-a4e9-ac3dd175476f"},"vehicle_type_id":"4","last_reported":1683579945,"current_range_meters":0,"station_id":"ce4bh292rcd13ifvqdf0","pricing_plan_id":"free"},{"bike_id":"558c4f98-7d4c-41ec-a8b4-b0248c915cf1","system_id":"levelo_inurba_marseille","lat":43.295194,"lon":5.39397,"is_reserved":false,"is_disabled":false,"rental_uris":{"android":"levelo://app?vid=558c4f98-7d4c-41ec-a8b4-b0248c915cf1","ios":"levelo://app?vid=558c4f98-7d4c-41ec-a8b4-b0248c915cf1"},"vehicle_type_id":"4","last_reported":1683579945,"current_range_meters":19600,"station_id":"ce4bh292rcd13ifvqdf0","pricing_plan_id":"free"},{"bike_id":"feb6570d-cc0a-4dfd-9786-2b9a7bbfbc4e","system_id":"levelo_inurba_marseille","lat":43.302759,"lon":5.400793,"is_reserved":false,"is_disabled":false,"rental_uris":{"android":"levelo://app?vid=feb6570d-cc0a-4dfd-9786-2b9a7bbfbc4e","ios":"levelo://app?vid=feb6570d-cc0a-4dfd-9786-2b9a7bbfbc4e"},"vehicle_type_id":"4","last_reported":1683579945,"current_range_meters":31600,"station_id":"ce4bgvh2rcd13ifvqcs0","pricing_plan_id":"free"},{"bike_id":"f0d684e0-0a24-4865-8a73-0988ea3e523e","system_id":"levelo_inurba_marseille","lat":43.290336,"lon":5.386425,"is_reserved":false,"is_disabled":false,"rental_uris":{"android":"levelo://app?vid=f0d684e0-0a24-4865-8a73-0988ea3e523e","ios":"levelo://app?vid=f0d684e0-0a24-4865-8a73-0988ea3e523e"},"vehicle_type_id":"4","last_reported":1683579945,"current_range_meters":16400,"station_id":"ce4bh4p2rcd13ifvqe0g","pricing_plan_id":"free"},{"bike_id":"c1ad753c-eb1d-4f2a-884a-304e46f50cf3","system_id":"levelo_inurba_marseille","lat":43.302759,"lon":5.400793,"is_reserved":false,"is_disabled":false,"rental_uris":{"android":"levelo://app?vid=c1ad753c-eb1d-4f2a-884a-304e46f50cf3","ios":"levelo://app?vid=c1ad753c-eb1d-4f2a-884a-304e46f50cf3"},"vehicle_type_id":"4","last_reported":1683579945,"current_range_meters":31200,"station_id":"ce4bgvh2rcd13ifvqcs0","pricing_plan_id":"free"},{"bike_id":"d3f8cdd7-9e68-4d58-ade4-38ec3bf62f9b","system_id":"levelo_inurba_marseille","lat":43.295194,"lon":5.39397,"is_reserved":false,"is_disabled":false,"rental_uris":{"android":"levelo://app?vid=d3f8cdd7-9e68-4d58-ade4-38ec3bf62f9b","ios":"levelo://app?vid=d3f8cdd7-9e68-4d58-ade4-38ec3bf62f9b"},"vehicle_type_id":"4","last_reported":1683579945,"current_range_meters":16800,"station_id":"ce4bh292rcd13ifvqdf0","pricing_plan_id":"free"},{"bike_id":"ed6e20d7-15b5-4a0e-bbef-acef96677fb5","system_id":"levelo_inurba_marseille","lat":43.302759,"lon":5.400793,"is_reserved":false,"is_disabled":false,"rental_uris":{"android":"levelo://app?vid=ed6e20d7-15b5-4a0e-bbef-acef96677fb5","ios":"levelo://app?vid=ed6e20d7-15b5-4a0e-bbef-acef96677fb5"},"vehicle_type_id":"4","last_reported":1683579945,"current_range_meters":23200,"station_id":"ce4bgvh2rcd13ifvqcs0","pricing_plan_id":"free"},{"bike_id":"f3496272-94a4-4819-8c95-53a12b7fc99a","system_id":"levelo_inurba_marseille","lat":43.302759,"lon":5.400793,"is_reserved":false,"is_disabled":false,"rental_uris":{"android":"levelo://app?vid=f3496272-94a4-4819-8c95-53a12b7fc99a","ios":"levelo://app?vid=f3496272-94a4-4819-8c95-53a12b7fc99a"},"vehicle_type_id":"4","last_reported":1683579945,"current_range_meters":30800,"station_id":"ce4bgvh2rcd13ifvqcs0","pricing_plan_id":"free"},{"bike_id":"d2d2ed47-1fca-4fc8-855f-3d52ef145f03","system_id":"levelo_inurba_marseille","lat":43.302759,"lon":5.400793,"is_reserved":false,"is_disabled":false,"rental_uris":{"android":"levelo://app?vid=d2d2ed47-1fca-4fc8-855f-3d52ef145f03","ios":"levelo://app?vid=d2d2ed47-1fca-4fc8-855f-3d52ef145f03"},"vehicle_type_id":"4","last_reported":1683579945,"current_range_meters":31600,"station_id":"ce4bgvh2rcd13ifvqcs0","pricing_plan_id":"free"},{"bike_id":"48b31770-0f33-4ebc-b2f6-cc7f81129ef6","system_id":"levelo_inurba_marseille","lat":43.302759,"lon":5.400793,"is_reserved":false,"is_disabled":false,"rental_uris":{"android":"levelo://app?vid=48b31770-0f33-4ebc-b2f6-cc7f81129ef6","ios":"levelo://app?vid=48b31770-0f33-4ebc-b2f6-cc7f81129ef6"},"vehicle_type_id":"4","last_reported":1683579945,"current_range_meters":16400,"station_id":"ce4bgvh2rcd13ifvqcs0","pricing_plan_id":"free"},{"bike_id":"e5e99419-1f8b-4571-97ce-815fd146b297","system_id":"levelo_inurba_marseille","lat":43.302759,"lon":5.400793,"is_reserved":false,"is_disabled":false,"rental_uris":{"android":"levelo://app?vid=e5e99419-1f8b-4571-97ce-815fd146b297","ios":"levelo://app?vid=e5e99419-1f8b-4571-97ce-815fd146b297"},"vehicle_type_id":"4","last_reported":1683579945,"current_range_meters":23200,"station_id":"ce4bgvh2rcd13ifvqcs0","pricing_plan_id":"free"},{"bike_id":"ed7964b4-ed34-4387-a768-cef7ff35b940","system_id":"levelo_inurba_marseille","lat":43.302759,"lon":5.400793,"is_reserved":false,"is_disabled":false,"rental_uris":{"android":"levelo://app?vid=ed7964b4-ed34-4387-a768-cef7ff35b940","ios":"levelo://app?vid=ed7964b4-ed34-4387-a768-cef7ff35b940"},"vehicle_type_id":"4","last_reported":1683579945,"current_range_meters":31600,"station_id":"ce4bgvh2rcd13ifvqcs0","pricing_plan_id":"free"},{"bike_id":"a6fb9f1a-8419-4408-a0fd-d5505b26301d","system_id":"levelo_inurba_marseille","lat":43.302759,"lon":5.400793,"is_reserved":false,"is_disabled":false,"rental_uris":{"android":"levelo://app?vid=a6fb9f1a-8419-4408-a0fd-d5505b26301d","ios":"levelo://app?vid=a6fb9f1a-8419-4408-a0fd-d5505b26301d"},"vehicle_type_id":"4","last_reported":1683579945,"current_range_meters":30400,"station_id":"ce4bgvh2rcd13ifvqcs0","pricing_plan_id":"free"},{"bike_id":"2904519e-8490-4b42-bb9e-a9527e4749e5","system_id":"levelo_inurba_marseille","lat":43.302759,"lon":5.400793,"is_reserved":false,"is_disabled":false,"rental_uris":{"android":"levelo://app?vid=2904519e-8490-4b42-bb9e-a9527e4749e5","ios":"levelo://app?vid=2904519e-8490-4b42-bb9e-a9527e4749e5"},"vehicle_type_id":"4","last_reported":1683579945,"current_range_meters":8000,"station_id":"ce4bgvh2rcd13ifvqcs0","pricing_plan_id":"free"},{"bike_id":"1feb834c-3606-4813-96d9-8340df02b799","system_id":"levelo_inurba_marseille","lat":43.290336,"lon":5.386425,"is_reserved":false,"is_disabled":false,"rental_uris":{"android":"levelo://app?vid=1feb834c-3606-4813-96d9-8340df02b799","ios":"levelo://app?vid=1feb834c-3606-4813-96d9-8340df02b799"},"vehicle_type_id":"4","last_reported":1683579945,"current_range_meters":31600,"station_id":"ce4bh4p2rcd13ifvqe0g","pricing_plan_id":"free"},{"bike_id":"555acc9c-671d-4530-889c-c1ac07ee0d4b","system_id":"levelo_inurba_marseille","lat":43.302759,"lon":5.400793,"is_reserved":false,"is_disabled":false,"rental_uris":{"android":"levelo://app?vid=555acc9c-671d-4530-889c-c1ac07ee0d4b","ios":"levelo://app?vid=555acc9c-671d-4530-889c-c1ac07ee0d4b"},"vehicle_type_id":"4","last_reported":1683579945,"current_range_meters":30000,"station_id":"ce4bgvh2rcd13ifvqcs0","pricing_plan_id":"free"},{"bike_id":"d7cdfbf4-8f23-4038-b4e8-70e6250bbcce","system_id":"levelo_inurba_marseille","lat":43.290336,"lon":5.386425,"is_reserved":false,"is_disabled":false,"rental_uris":{"android":"levelo://app?vid=d7cdfbf4-8f23-4038-b4e8-70e6250bbcce","ios":"levelo://app?vid=d7cdfbf4-8f23-4038-b4e8-70e6250bbcce"},"vehicle_type_id":"4","last_reported":1683579945,"current_range_meters":31200,"station_id":"ce4bh4p2rcd13ifvqe0g","pricing_plan_id":"free"},{"bike_id":"65aba0f9-d5ec-4b88-a1ba-243d3b8c1181","system_id":"levelo_inurba_marseille","lat":43.302759,"lon":5.400793,"is_reserved":false,"is_disabled":false,"rental_uris":{"android":"levelo://app?vid=65aba0f9-d5ec-4b88-a1ba-243d3b8c1181","ios":"levelo://app?vid=65aba0f9-d5ec-4b88-a1ba-243d3b8c1181"},"vehicle_type_id":"4","last_reported":1683579945,"current_range_meters":18800,"station_id":"ce4bgvh2rcd13ifvqcs0","pricing_plan_id":"free"},{"bike_id":"0beb45e5-dce9-4591-8a0e-4ca49ba09b57","system_id":"levelo_inurba_marseille","lat":43.287185,"lon":5.379373,"is_reserved":false,"is_disabled":false,"rental_uris":{"android":"levelo://app?vid=0beb45e5-dce9-4591-8a0e-4ca49ba09b57","ios":"levelo://app?vid=0beb45e5-dce9-4591-8a0e-4ca49ba09b57"},"vehicle_type_id":"4","last_reported":1683579945,"current_range_meters":15600,"station_id":"ce4bh9p2rcd13ifvqec0","pricing_plan_id":"free"},{"bike_id":"30941413-3e40-4afc-a222-57f81cd89a18","system_id":"levelo_inurba_marseille","lat":43.287185,"lon":5.379373,"is_reserved":false,"is_disabled":false,"rental_uris":{"android":"levelo://app?vid=30941413-3e40-4afc-a222-57f81cd89a18","ios":"levelo://app?vid=30941413-3e40-4afc-a222-57f81cd89a18"},"vehicle_type_id":"4","last_reported":1683579945,"current_range_meters":31200,"station_id":"ce4bh9p2rcd13ifvqec0","pricing_plan_id":"free"},{"bike_id":"e55a092f-4e1f-449c-ad98-790abb323956","system_id":"levelo_inurba_marseille","lat":43.287184,"lon":5.37937,"is_reserved":false,"is_disabled":false,"rental_uris":{"android":"levelo://app?vid=e55a092f-4e1f-449c-ad98-790abb323956","ios":"levelo://app?vid=e55a092f-4e1f-449c-ad98-790abb323956"},"vehicle_type_id":"4","last_reported":1683579945,"current_range_meters":22800,"station_id":"ce4bh9p2rcd13ifvqec0","pricing_plan_id":"free"},{"bike_id":"599c901c-9982-4abd-be7b-c02a4e7be087","system_id":"levelo_inurba_marseille","lat":43.31644,"lon":5.40431,"is_reserved":false,"is_disabled":false,"rental_uris":{"android":"levelo://app?vid=599c901c-9982-4abd-be7b-c02a4e7be087","ios":"levelo://app?vid=599c901c-9982-4abd-be7b-c02a4e7be087"},"vehicle_type_id":"4","last_reported":1683579945,"current_range_meters":30400,"station_id":"ce4bh012rcd13ifvqd00","pricing_plan_id":"free"},{"bike_id":"9d5c5e9e-1c08-470c-b1a5-a54f8e7aeb33","system_id":"levelo_inurba_marseille","lat":43.31644,"lon":5.40432,"is_reserved":false,"is_disabled":false,"rental_uris":{"android":"levelo://app?vid=9d5c5e9e-1c08-470c-b1a5-a54f8e7aeb33","ios":"levelo://app?vid=9d5c5e9e-1c08-470c-b1a5-a54f8e7aeb33"},"vehicle_type_id":"4","last_reported":1683579945,"current_range_meters":31200,"station_id":"ce4bh012rcd13ifvqd00","pricing_plan_id":"free"},{"bike_id":"1acadfab-027c-427e-a681-9553d796a5f9","system_id":"levelo_inurba_marseille","lat":43.31644,"lon":5.40434,"is_reserved":false,"is_disabled":false,"rental_uris":{"android":"levelo://app?vid=1acadfab-027c-427e-a681-9553d796a5f9","ios":"levelo://app?vid=1acadfab-027c-427e-a681-9553d796a5f9"},"vehicle_type_id":"4","last_reported":1683579945,"current_range_meters":28800,"station_id":"ce4bh012rcd13ifvqd00","pricing_plan_id":"free"},{"bike_id":"de4ec532-1ebb-4500-a4ce-5fdbd1b1afc6","system_id":"levelo_inurba_marseille","lat":43.31645,"lon":5.40436,"is_reserved":false,"is_disabled":false,"rental_uris":{"android":"levelo://app?vid=de4ec532-1ebb-4500-a4ce-5fdbd1b1afc6","ios":"levelo://app?vid=de4ec532-1ebb-4500-a4ce-5fdbd1b1afc6"},"vehicle_type_id":"4","last_reported":1683579945,"current_range_meters":28800,"station_id":"ce4bh012rcd13ifvqd00","pricing_plan_id":"free"},{"bike_id":"7762b489-cb69-4fc0-8ff1-e36592259d8d","system_id":"levelo_inurba_marseille","lat":43.316523,"lon":5.404367,"is_reserved":false,"is_disabled":false,"rental_uris":{"android":"levelo://app?vid=7762b489-cb69-4fc0-8ff1-e36592259d8d","ios":"levelo://app?vid=7762b489-cb69-4fc0-8ff1-e36592259d8d"},"vehicle_type_id":"4","last_reported":1683579945,"current_range_meters":31200,"station_id":"ce4bh012rcd13ifvqd00","pricing_plan_id":"free"},{"bike_id":"7c022dc7-a3e5-4663-ab0b-c3c6b33b09e0","system_id":"levelo_inurba_marseille","lat":43.316523,"lon":5.404367,"is_reserved":false,"is_disabled":false,"rental_uris":{"android":"levelo://app?vid=7c022dc7-a3e5-4663-ab0b-c3c6b33b09e0","ios":"levelo://app?vid=7c022dc7-a3e5-4663-ab0b-c3c6b33b09e0"},"vehicle_type_id":"4","last_reported":1683579945,"current_range_meters":29600,"station_id":"ce4bh012rcd13ifvqd00","pricing_plan_id":"free"},{"bike_id":"a4adc47b-c0a2-41ef-a96b-b211f12e1357","system_id":"levelo_inurba_marseille","lat":43.292142,"lon":5.393255,"is_reserved":false,"is_disabled":false,"rental_uris":{"android":"levelo://app?vid=a4adc47b-c0a2-41ef-a96b-b211f12e1357","ios":"levelo://app?vid=a4adc47b-c0a2-41ef-a96b-b211f12e1357"},"vehicle_type_id":"4","last_reported":1683579945,"current_range_meters":25200,"station_id":"ce4bh192rcd13ifvqdd0","pricing_plan_id":"free"},{"bike_id":"0e965bc6-ba23-4a22-a6d4-5248f824c673","system_id":"levelo_inurba_marseille","lat":43.291994,"lon":5.392907,"is_reserved":false,"is_disabled":false,"rental_uris":{"android":"levelo://app?vid=0e965bc6-ba23-4a22-a6d4-5248f824c673","ios":"levelo://app?vid=0e965bc6-ba23-4a22-a6d4-5248f824c673"},"vehicle_type_id":"4","last_reported":1683579945,"current_range_meters":31200,"station_id":"ce4bh192rcd13ifvqdd0","pricing_plan_id":"free"},{"bike_id":"f0301709-596d-4529-b87a-67e4360aed23","system_id":"levelo_inurba_marseille","lat":43.291994,"lon":5.392907,"is_reserved":false,"is_disabled":false,"rental_uris":{"android":"levelo://app?vid=f0301709-596d-4529-b87a-67e4360aed23","ios":"levelo://app?vid=f0301709-596d-4529-b87a-67e4360aed23"},"vehicle_type_id":"4","last_reported":1683579945,"current_range_meters":27200,"station_id":"ce4bh192rcd13ifvqdd0","pricing_plan_id":"free"},{"bike_id":"07124ba0-c4e2-440c-9b63-a3fd345f2015","system_id":"levelo_inurba_marseille","lat":43.284534,"lon":5.358662,"is_reserved":false,"is_disabled":false,"rental_uris":{"android":"levelo://app?vid=07124ba0-c4e2-440c-9b63-a3fd345f2015","ios":"levelo://app?vid=07124ba0-c4e2-440c-9b63-a3fd345f2015"},"vehicle_type_id":"4","last_reported":1683579945,"current_range_meters":0,"station_id":"ce4bhah2rcd13ifvqei0","pricing_plan_id":"free"},{"bike_id":"ab5af03f-1cf5-4b48-9812-0b881244eccb","system_id":"levelo_inurba_marseille","lat":43.29576,"lon":5.39972,"is_reserved":false,"is_disabled":false,"rental_uris":{"android":"levelo://app?vid=ab5af03f-1cf5-4b48-9812-0b881244eccb","ios":"levelo://app?vid=ab5af03f-1cf5-4b48-9812-0b881244eccb"},"vehicle_type_id":"4","last_reported":1683579945,"current_range_meters":30800,"station_id":"ce4bh312rcd13ifvqdj0","pricing_plan_id":"free"},{"bike_id":"ad725322-2572-4f03-a520-04332e8ac0f4","system_id":"levelo_inurba_marseille","lat":43.295713,"lon":5.399639,"is_reserved":false,"is_disabled":false,"rental_uris":{"android":"levelo://app?vid=ad725322-2572-4f03-a520-04332e8ac0f4","ios":"levelo://app?vid=ad725322-2572-4f03-a520-04332e8ac0f4"},"vehicle_type_id":"4","last_reported":1683579945,"current_range_meters":30400,"station_id":"ce4bh312rcd13ifvqdj0","pricing_plan_id":"free"},{"bike_id":"1894efa7-c962-49bf-b3c5-a37b05bad0de","system_id":"levelo_inurba_marseille","lat":43.295713,"lon":5.399639,"is_reserved":false,"is_disabled":false,"rental_uris":{"android":"levelo://app?vid=1894efa7-c962-49bf-b3c5-a37b05bad0de","ios":"levelo://app?vid=1894efa7-c962-49bf-b3c5-a37b05bad0de"},"vehicle_type_id":"4","last_reported":1683579945,"current_range_meters":8400,"station_id":"ce4bh312rcd13ifvqdj0","pricing_plan_id":"free"},{"bike_id":"7e99124f-97c2-4428-8d0e-9f13146255fd","system_id":"levelo_inurba_marseille","lat":43.29571,"lon":5.39975,"is_reserved":false,"is_disabled":false,"rental_uris":{"android":"levelo://app?vid=7e99124f-97c2-4428-8d0e-9f13146255fd","ios":"levelo://app?vid=7e99124f-97c2-4428-8d0e-9f13146255fd"},"vehicle_type_id":"4","last_reported":1683579945,"current_range_meters":18000,"station_id":"ce4bh312rcd13ifvqdj0","pricing_plan_id":"free"},{"bike_id":"d2d1e2e5-5983-4c76-aa66-09ce39fefd56","system_id":"levelo_inurba_marseille","lat":43.29574,"lon":5.39983,"is_reserved":false,"is_disabled":false,"rental_uris":{"android":"levelo://app?vid=d2d1e2e5-5983-4c76-aa66-09ce39fefd56","ios":"levelo://app?vid=d2d1e2e5-5983-4c76-aa66-09ce39fefd56"},"vehicle_type_id":"4","last_reported":1683579945,"current_range_meters":4000,"station_id":"ce4bh312rcd13ifvqdj0","pricing_plan_id":"free"},{"bike_id":"e8c6eaa1-32c3-4cff-86e5-ead7b54238b4","system_id":"levelo_inurba_marseille","lat":43.286595,"lon":5.386795,"is_reserved":false,"is_disabled":false,"rental_uris":{"android":"levelo://app?vid=e8c6eaa1-32c3-4cff-86e5-ead7b54238b4","ios":"levelo://app?vid=e8c6eaa1-32c3-4cff-86e5-ead7b54238b4"},"vehicle_type_id":"4","last_reported":1683579945,"current_range_meters":31600,"station_id":"ce4bh492rcd13ifvqdug","pricing_plan_id":"free"},{"bike_id":"6eb9ca87-b23f-4ed1-87fd-dca10e958ca5","system_id":"levelo_inurba_marseille","lat":43.286595,"lon":5.386795,"is_reserved":false,"is_disabled":false,"rental_uris":{"android":"levelo://app?vid=6eb9ca87-b23f-4ed1-87fd-dca10e958ca5","ios":"levelo://app?vid=6eb9ca87-b23f-4ed1-87fd-dca10e958ca5"},"vehicle_type_id":"4","last_reported":1683579945,"current_range_meters":4800,"station_id":"ce4bh492rcd13ifvqdug","pricing_plan_id":"free"},{"bike_id":"8b8d40d8-ae80-4d6a-8778-e54866a26af6","system_id":"levelo_inurba_marseille","lat":43.28666,"lon":5.38669,"is_reserved":false,"is_disabled":false,"rental_uris":{"android":"levelo://app?vid=8b8d40d8-ae80-4d6a-8778-e54866a26af6","ios":"levelo://app?vid=8b8d40d8-ae80-4d6a-8778-e54866a26af6"},"vehicle_type_id":"4","last_reported":1683579945,"current_range_meters":7600,"station_id":"","pricing_plan_id":"free"},{"bike_id":"eeed33b8-4405-4fee-8d96-fecd07572891","system_id":"levelo_inurba_marseille","lat":43.32335,"lon":5.40613,"is_reserved":false,"is_disabled":false,"rental_uris":{"android":"levelo://app?vid=eeed33b8-4405-4fee-8d96-fecd07572891","ios":"levelo://app?vid=eeed33b8-4405-4fee-8d96-fecd07572891"},"vehicle_type_id":"4","last_reported":1683579945,"current_range_meters":30800,"station_id":"ce4bhq92rcd13ifvqhjg","pricing_plan_id":"free"},{"bike_id":"9c83bfd6-c1b6-4a4e-a784-955d5b766f75","system_id":"levelo_inurba_marseille","lat":43.32336,"lon":5.40617,"is_reserved":false,"is_disabled":false,"rental_uris":{"android":"levelo://app?vid=9c83bfd6-c1b6-4a4e-a784-955d5b766f75","ios":"levelo://app?vid=9c83bfd6-c1b6-4a4e-a784-955d5b766f75"},"vehicle_type_id":"4","last_reported":1683579945,"current_range_meters":25600,"station_id":"ce4bhq92rcd13ifvqhjg","pricing_plan_id":"free"},{"bike_id":"9b8c7df0-56a7-4b07-ba7e-b4a63be1b374","system_id":"levelo_inurba_marseille","lat":43.33717,"lon":5.391857,"is_reserved":false,"is_disabled":false,"rental_uris":{"android":"levelo://app?vid=9b8c7df0-56a7-4b07-ba7e-b4a63be1b374","ios":"levelo://app?vid=9b8c7df0-56a7-4b07-ba7e-b4a63be1b374"},"vehicle_type_id":"4","last_reported":1683579945,"current_range_meters":17600,"station_id":"ce4bhr92rcd13ifvqhsg","pricing_plan_id":"free"},{"bike_id":"f536521f-f652-4f76-95a5-be13ca8d8868","system_id":"levelo_inurba_marseille","lat":43.32338,"lon":5.40619,"is_reserved":false,"is_disabled":false,"rental_uris":{"android":"levelo://app?vid=f536521f-f652-4f76-95a5-be13ca8d8868","ios":"levelo://app?vid=f536521f-f652-4f76-95a5-be13ca8d8868"},"vehicle_type_id":"4","last_reported":1683579945,"current_range_meters":13600,"station_id":"ce4bhq92rcd13ifvqhjg","pricing_plan_id":"free"},