{"last_updated":1749805891,"ttl":60,"version":"2.2","data":{"bikes":[{"bike_id":"b31f0139-170f-4194-984f-4386218a1e9d","system_id":"levelo_inurba_marseille","lat":43.33771,"lon":5.37424,"is_reserved":false,"is_disabled":true,"rental_uris":{"android":"levelo://app?vid=b31f0139-170f-4194-984f-4386218a1e9d","ios":"levelo://app?vid=b31f0139-170f-4194-984f-4386218a1e9d"},"vehicle_type_id":"4","last_reported":1749805892,"current_range_meters":0,"station_id":"","pricing_plan_id":"cebpf4jnsgd1na2vs0mg"},{"bike_id":"1acfb620-cad7-48c0-8901-d7a5b74a5b65","system_id":"levelo_inurba_marseille","lat":43.33751,"lon":5.37456,"is_reserved":false,"is_disabled":false,"rental_uris":{"android":"levelo://app?vid=1acfb620-cad7-48c0-8901-d7a5b74a5b65","ios":"levelo://app?vid=1acfb620-cad7-48c0-8901-d7a5b74a5b65"},"vehicle_type_id":"4","last_reported":1749805892,"current_range_meters":4400,"station_id":"","pricing_plan_id":"cebpf4jnsgd1na2vs0mg"},{"bike_id":"bf89d78c-eb96-40d5-beb0-f402ef102cc1","system_id":"levelo_inurba_marseille","lat":43.337444,"lon":5.374475,"is_reserved":false,"is_disabled":true,"rental_uris":{"android":"levelo://app?vid=bf89d78c-eb96-40d5-beb0-f402ef102cc1","ios":"levelo://app?vid=bf89d78c-eb96-40d5-beb0-f402ef102cc1"},"vehicle_type_id":"4","last_reported":1749805892,"current_range_meters":0,"station_id":"","pricing_plan_id":"cebpf4jnsgd1na2vs0mg"},{"bike_id":"7c6a9c32-3bbe-4d4c-8294-1969d0688a87","system_id":"levelo_inurba_marseille","lat":43.2846,"lon":5.42072,"is_reserved":false,"is_disabled":true,"rental_uris":{"android":"levelo://app?vid=7c6a9c32-3bbe-4d4c-8294-1969d0688a87","ios":"levelo://app?vid=7c6a9c32-3bbe-4d4c-8294-1969d0688a87"},"vehicle_type_id":"4","last_reported":1749805892,"current_range_meters":0,"station_id":"","pricing_plan_id":"cebpf4jnsgd1na2vs0mg"},{"bike_id":"66b1cbfb-c132-4ef4-922c-0beab9b5a350","system_id":"levelo_inurba_marseille","lat":43.29756,"lon":5.4599,"is_reserved":false,"is_disabled":true,"rental_uris":{"android":"levelo://app?vid=66b1cbfb-c132-4ef4-922c-0beab9b5a350","ios":"levelo://app?vid=66b1cbfb-c132-4ef4-922c-0beab9b5a350"},"vehicle_type_id":"4","last_reported":1749805892,"current_range_meters":0,"station_id":"","pricing_plan_id":"cebpf4jnsgd1na2vs0mg"},{"bike_id":"492f4bbd-1190-4ef2-b66a-479ffe91b09b","system_id":"levelo_inurba_marseille","lat":43.337444,"lon":5.374475,"is_reserved":false,"is_disabled":true,"rental_uris":{"android":"levelo://app?vid=492f4bbd-1190-4ef2-b66a-479ffe91b09b","ios":"levelo://app?vid=492f4bbd-1190-4ef2-b66a-479ffe91b09b"},"vehicle_type_id":"4","last_reported":1749805892,"current_range_meters":0,"station_id":"","pricing_plan_id":"cebpf4jnsgd1na2vs0mg"},{"bike_id":"b7223bce-535c-4df5-bb89-a04f8cb64b97","system_id":"levelo_inurba_marseille","lat":43.31287,"lon":5.37538,"is_reserved":false,"is_disabled":true,"rental_uris":{"android":"levelo://app?vid=b7223bce-535c-4df5-bb89-a04f8cb64b97","ios":"levelo://app?vid=b7223bce-535c-4df5-bb89-a04f8cb64b97"},"vehicle_type_id":"4","last_reported":1749805892,"current_range_meters":0,"station_id":"","pricing_plan_id":"cebpf4jnsgd1na2vs0mg"},{"bike_id":"a9b6bf99-4070-4437-bb20-72962ae30b90","system_id":"levelo_inurba_marseille","lat":43.27453,"lon":5.36372,"is_reserved":false,"is_disabled":true,"rental_uris":{"android":"levelo://app?vid=a9b6bf99-4070-4437-bb20-72962ae30b90","ios":"levelo://app?vid=a9b6bf99-4070-4437-bb20-72962ae30b90"},"vehicle_type_id":"4","last_reported":1749805892,"current_range_meters":0,"station_id":"","pricing_plan_id":"cebpf4jnsgd1na2vs0mg"},{"bike_id":"d8071bd8-b887-49ad-a0e2-47415f5f1dce","system_id":"levelo_inurba_marseille","lat":43.30441,"lon":5.3889,"is_reserved":false,"is_disabled":true,"rental_uris":{"android":"levelo://app?vid=d8071bd8-b887-49ad-a0e2-47415f5f1dce","ios":"levelo://app?vid=d8071bd8-b887-49ad-a0e2-47415f5f1dce"},"vehicle_type_id":"4","last_reported":1749805892,"current_range_meters":0,"station_id":"ce4bgk12rcd13ifvqbi0","pricing_plan_id":"cebpf4jnsgd1na2vs0mg"},{"bike_id":"d8ce0c2e-abfd-4607-971c-16918ee1cb89","system_id":"levelo_inurba_marseille","lat":43.2847,"lon":5.38428,"is_reserved":false,"is_disabled":true,"rental_uris":{"android":"levelo://app?vid=d8ce0c2e-abfd-4607-971c-16918ee1cb89","ios":"levelo://app?vid=d8ce0c2e-abfd-4607-971c-16918ee1cb89"},"vehicle_type_id":"4","last_reported":1749805892,"current_range_meters":0,"station_id":"ce4bh512rcd13ifvqe3g","pricing_plan_id":"cebpf4jnsgd1na2vs0mg"},{"bike_id":"a6059978-6375-44f1-965f-99de05c08aaf","system_id":"levelo_inurba_marseille","lat":43.30351,"lon":5.41879,"is_reserved":false,"is_disabled":true,"rental_uris":{"android":"levelo://app?vid=a6059978-6375-44f1-965f-99de05c08aaf","ios":"levelo://app?vid=a6059978-6375-44f1-965f-99de05c08aaf"},"vehicle_type_id":"4","last_reported":1749805892,"current_range_meters":0,"station_id":"ce4bhop2rcd13ifvqh7g","pricing_plan_id":"cebpf4jnsgd1na2vs0mg"},{"bike_id":"b3e697f7-00b4-4362-b589-55d2d2ef404d","system_id":"levelo_inurba_marseille","lat":43.34144,"lon":5.40889,"is_reserved":false,"is_disabled":true,"rental_uris":{"android":"levelo://app?vid=b3e697f7-00b4-4362-b589-55d2d2ef404d","ios":"levelo://app?vid=b3e697f7-00b4-4362-b589-55d2d2ef404d"},"vehicle_type_id":"4","last_reported":1749805892,"current_range_meters":0,"station_id":"ce4bhqh2rcd13ifvqhlg","pricing_plan_id":"cebpf4jnsgd1na2vs0mg"},{"bike_id":"1cdcee42-9bb0-4aec-a136-79bace70428b","system_id":"levelo_inurba_marseille","lat":43.21748,"lon":5.34606,"is_reserved":false,"is_disabled":true,"rental_uris":{"android":"levelo://app?vid=1cdcee42-9bb0-4aec-a136-79bace70428b","ios":"levelo://app?vid=1cdcee42-9bb0-4aec-a136-79bace70428b"},"vehicle_type_id":"4","last_reported":1749805892,"current_range_meters":0,"station_id":"st_cvj6r9ubvosntc0bgbag","pricing_plan_id":"cebpf4jnsgd1na2vs0mg"},{"bike_id":"5077581b-cebb-46fc-ba69-4fa8272d4810","system_id":"levelo_inurba_marseille","lat":43.21364,"lon":5.35529,"is_reserved":false,"is_disabled":true,"rental_uris":{"android":"levelo://app?vid=5077581b-cebb-46fc-ba69-4fa8272d4810","ios":"levelo://app?vid=5077581b-cebb-46fc-ba69-4fa8272d4810"},"vehicle_type_id":"4","last_reported":1749805892,"current_range_meters":400,"station_id":"","pricing_plan_id":"cebpf4jnsgd1na2vs0mg"},{"bike_id":"18bbd17f-ef9e-4818-b6a1-2959feee4372","system_id":"levelo_inurba_marseille","lat":43.30157,"lon":5.37203,"is_reserved":false,"is_disabled":true,"rental_uris":{"android":"levelo://app?vid=18bbd17f-ef9e-4818-b6a1-2959feee4372","ios":"levelo://app?vid=18bbd17f-ef9e-4818-b6a1-2959feee4372"},"vehicle_type_id":"4","last_reported":1749805892,"current_range_meters":800,"station_id":"","pricing_plan_id":"cebpf4jnsgd1na2vs0mg"},{"bike_id":"a5652db6-c4dd-41f1-afe5-06a93e19d8ff","system_id":"levelo_inurba_marseille","lat":43.24608,"lon":5.39302,"is_reserved":false,"is_disabled":true,"rental_uris":{"android":"levelo://app?vid=a5652db6-c4dd-41f1-afe5-06a93e19d8ff","ios":"levelo://app?vid=a5652db6-c4dd-41f1-afe5-06a93e19d8ff"},"vehicle_type_id":"4","last_reported":1749805892,"current_range_meters":1200,"station_id":"","pricing_plan_id":"cebpf4jnsgd1na2vs0mg"},{"bike_id":"c3697be0-7a32-4b43-82b1-5cd94feb7e84","system_id":"levelo_inurba_marseille","lat":43.284127,"lon":5.37517,"is_reserved":false,"is_disabled":true,"rental_uris":{"android":"levelo://app?vid=c3697be0-7a32-4b43-82b1-5cd94feb7e84","ios":"levelo://app?vid=c3697be0-7a32-4b43-82b1-5cd94feb7e84"},"vehicle_type_id":"4","last_reported":1749805892,"current_range_meters":1200,"station_id":"ce4bh412rcd13ifvqds0","pricing_plan_id":"cebpf4jnsgd1na2vs0mg"},{"bike_id":"5aae89f9-295b-4689-a151-d16794496d97","system_id":"levelo_inurba_marseille","lat":43.31482,"lon":5.37306,"is_reserved":false,"is_disabled":true,"rental_uris":{"android":"levelo://app?vid=5aae89f9-295b-4689-a151-d16794496d97","ios":"levelo://app?vid=5aae89f9-295b-4689-a151-d16794496d97"},"vehicle_type_id":"4","last_reported":1749805892,"current_range_meters":1600,"station_id":"ce4bgt12rcd13ifvqcd0","pricing_plan_id":"cebpf4jnsgd1na2vs0mg"},{"bike_id":"04eb0d78-8479-49ed-89b0-760046004710","system_id":"levelo_inurba_marseille","lat":43.28721,"lon":5.37937,"is_reserved":false,"is_disabled":true,"rental_uris":{"android":"levelo://app?vid=04eb0d78-8479-49ed-89b0-760046004710","ios":"levelo://app?vid=04eb0d78-8479-49ed-89b0-760046004710"},"vehicle_type_id":"4","last_reported":1749805892,"current_range_meters":1600,"station_id":"ce4bh9p2rcd13ifvqec0","pricing_plan_id":"cebpf4jnsgd1na2vs0mg"},{"bike_id":"5c219ba0-bd6f-4ec1-8199-9fc28d07f25c","system_id":"levelo_inurba_marseille","lat":43.32325,"lon":5.44684,"is_reserved":false,"is_disabled":true,"rental_uris":{"android":"levelo://app?vid=5c219ba0-bd6f-4ec1-8199-9fc28d07f25c","ios":"levelo://app?vid=5c219ba0-bd6f-4ec1-8199-9fc28d07f25c"},"vehicle_type_id":"4","last_reported":1749805892,"current_range_meters":2000,"station_id":"","pricing_plan_id":"cebpf4jnsgd1na2vs0mg"},{"bike_id":"a20fa0ca-f850-4006-811a-e6d33129babd","system_id":"levelo_inurba_marseille","lat":43.28471,"lon":5.38566,"is_reserved":false,"is_disabled":true,"rental_uris":{"android":"levelo://app?vid=a20fa0ca-f850-4006-811a-e6d33129babd","ios":"levelo://app?vid=a20fa0ca-f850-4006-811a-e6d33129babd"},"vehicle_type_id":"4","last_reported":1749805892,"current_range_meters":2000,"station_id":"ce4bh8p2rcd13ifvqeb0","pricing_plan_id":"cebpf4jnsgd1na2vs0mg"},{"bike_id":"e1982154-916e-4f61-befa-5d8dec3bf6ad","system_id":"levelo_inurba_marseille","lat":43.32554,"lon":5.41453,"is_reserved":false,"is_disabled":false,"rental_uris":{"android":"levelo://app?vid=e1982154-916e-4f61-befa-5d8dec3bf6ad","ios":"levelo://app?vid=e1982154-916e-4f61-befa-5d8dec3bf6ad"},"vehicle_type_id":"4","last_reported":1749805892,"current_range_meters":3200,"station_id":"ce4bhq12rcd13ifvqhhg","pricing_plan_id":"cebpf4jnsgd1na2vs0mg"},{"bike_id":"8e108a83-e2bf-43e0-9b41-3765b051abd1","system_id":"levelo_inurba_marseille","lat":43.2805,"lon":5.34937,"is_reserved":false,"is_disabled":false,"rental_uris":{"android":"levelo://app?vid=8e108a83-e2bf-43e0-9b41-3765b051abd1","ios":"levelo://app?vid=8e108a83-e2bf-43e0-9b41-3765b051abd1"},"vehicle_type_id":"4","last_reported":1749805892,"current_range_meters":3600,"station_id":"","pricing_plan_id":"cebpf4jnsgd1na2vs0mg"},{"bike_id":"12492594-a9c6-4847-8187-69ceb9b55464","system_id":"levelo_inurba_marseille","lat":43.29527,"lon":5.37504,"is_reserved":false,"is_disabled":false,"rental_uris":{"android":"levelo://app?vid=12492594-a9c6-4847-8187-69ceb9b55464","ios":"levelo://app?vid=12492594-a9c6-4847-8187-69ceb9b55464"},"vehicle_type_id":"4","last_reported":1749805892,"current_range_meters":3600,"station_id":"ce4bgkp2rcd13ifvqbmg","pricing_plan_id":"cebpf4jnsgd1na2vs0mg"},{"bike_id":"29081f26-98ce-4cc2-8c14-dddbd6948b90","system_id":"levelo_inurba_marseille","lat":43.29638,"lon":5.40607,"is_reserved":false,"is_disabled":false,"rental_uris":{"android":"levelo://app?vid=29081f26-98ce-4cc2-8c14-dddbd6948b90","ios":"levelo://app?vid=29081f26-98ce-4cc2-8c14-dddbd6948b90"},"vehicle_type_id":"4","last_reported":1749805892,"current_range_meters":3600,"station_id":"ce4bh0h2rcd13ifvqd60","pricing_plan_id":"cebpf4jnsgd1na2vs0mg"},{"bike_id":"189413fd-d258-4658-9734-3e22f62b5f46","system_id":"levelo_inurba_marseille","lat":43.29199,"lon":5.39327,"is_reserved":false,"is_disabled":false,"rental_uris":{"android":"levelo://app?vid=189413fd-d258-4658-9734-3e22f62b5f46","ios":"levelo://app?vid=189413fd-d258-4658-9734-3e22f62b5f46"},"vehicle_type_id":"4","last_reported":1749805892,"current_range_meters":4400,"station_id":"ce4bh192rcd13ifvqdd0","pricing_plan_id":"cebpf4jnsgd1na2vs0mg"},{"bike_id":"e4827806-d9dc-4cdc-a4f2-2cd2142e6fd7","system_id":"levelo_inurba_marseille","lat":43.24806,"lon":5.37458,"is_reserved":false,"is_disabled":false,"rental_uris":{"android":"levelo://app?vid=e4827806-d9dc-4cdc-a4f2-2cd2142e6fd7","ios":"levelo://app?vid=e4827806-d9dc-4cdc-a4f2-2cd2142e6fd7"},"vehicle_type_id":"4","last_reported":1749805892,"current_range_meters":4800,"station_id":"ce4bhgh2rcd13ifvqfb0","pricing_plan_id":"cebpf4jnsgd1na2vs0mg"},{"bike_id":"f332fde2-dc92-4a98-8499-acf0fa5d3cae","system_id":"levelo_inurba_marseille","lat":43.24173,"lon":5.36392,"is_reserved":false,"is_disabled":false,"rental_uris":{"android":"levelo://app?vid=f332fde2-dc92-4a98-8499-acf0fa5d3cae","ios":"levelo://app?vid=f332fde2-dc92-4a98-8499-acf0fa5d3cae"},"vehicle_type_id":"4","last_reported":1749805892,"current_range_meters":4800,"station_id":"cpo36qri1sfpv3e86is0","pricing_plan_id":"cebpf4jnsgd1na2vs0mg"},{"bike_id":"9be6034f-5a67-45b8-ad1f-b3cf90fc3066","system_id":"levelo_inurba_marseille","lat":43.31367,"lon":5.36768,"is_reserved":false,"is_disabled":false,"rental_uris":{"android":"levelo://app?vid=9be6034f-5a67-45b8-ad1f-b3cf90fc3066","ios":"levelo://app?vid=9be6034f-5a67-45b8-ad1f-b3cf90fc3066"},"vehicle_type_id":"4","last_reported":1749805892,"current_range_meters":6400,"station_id":"","pricing_plan_id":"cebpf4jnsgd1na2vs0mg"},{"bike_id":"9c219669-262c-4c59-afaf-456a86f8cec0","system_id":"levelo_inurba_marseille","lat":43.25209,"lon":5.40305,"is_reserved":false,"is_disabled":false,"rental_uris":{"android":"levelo://app?vid=9c219669-262c-4c59-afaf-456a86f8cec0","ios":"levelo://app?vid=9c219669-262c-4c59-afaf-456a86f8cec0"},"vehicle_type_id":"4","last_reported":1749805892,"current_range_meters":6400,"station_id":"","pricing_plan_id":"cebpf4jnsgd1na2vs0mg"},{"bike_id":"308cbf69-b866-4a48-b377-e4f7d5e7c70b","system_id":"levelo_inurba_marseille","lat":43.32922,"lon":5.3902,"is_reserved":false,"is_disabled":false,"rental_uris":{"android":"levelo://app?vid=308cbf69-b866-4a48-b377-e4f7d5e7c70b","ios":"levelo://app?vid=308cbf69-b866-4a48-b377-e4f7d5e7c70b"},"vehicle_type_id":"4","last_reported":1749805892,"current_range_meters":6400,"station_id":"","pricing_plan_id":"cebpf4jnsgd1na2vs0mg"},{"bike_id":"06416074-12eb-4b68-a81a-2d1bd207a589","system_id":"levelo_inurba_marseille","lat":43.30443,"lon":5.38894,"is_reserved":false,"is_disabled":false,"rental_uris":{"android":"levelo://app?vid=06416074-12eb-4b68-a81a-2d1bd207a589","ios":"levelo://app?vid=06416074-12eb-4b68-a81a-2d1bd207a589"},"vehicle_type_id":"4","last_reported":1749805892,"current_range_meters":6400,"station_id":"ce4bgk12rcd13ifvqbi0","pricing_plan_id":"cebpf4jnsgd1na2vs0mg"},{"bike_id":"7d47230e-1fba-4bc8-999d-6a56b930b97c","system_id":"levelo_inurba_marseille","lat":43.31233,"lon":5.36859,"is_reserved":false,"is_disabled":false,"rental_uris":{"android":"levelo://app?vid=7d47230e-1fba-4bc8-999d-6a56b930b97c","ios":"levelo://app?vid=7d47230e-1fba-4bc8-999d-6a56b930b97c"},"vehicle_type_id":"4","last_reported":1749805892,"current_range_meters":6400,"station_id":"ce4bgl92rcd13ifvqbq0","pricing_plan_id":"cebpf4jnsgd1na2vs0mg"},{"bike_id":"56274541-6ef6-468d-bbb3-aaf9c61596e4","system_id":"levelo_inurba_marseille","lat":43.2962,"lon":5.37027,"is_reserved":false,"is_disabled":false,"rental_uris":{"android":"levelo://app?vid=56274541-6ef6-468d-bbb3-aaf9c61596e4","ios":"levelo://app?vid=56274541-6ef6-468d-bbb3-aaf9c61596e4"},"vehicle_type_id":"4","last_reported":1749805892,"current_range_meters":6400,"station_id":"ce4bgn12rcd13ifvqbt0","pricing_plan_id":"cebpf4jnsgd1na2vs0mg"},{"bike_id":"53520b29-34bc-43be-8b67-3ecf6dc64437","system_id":"levelo_inurba_marseille","lat":43.298049,"lon":5.381025,"is_reserved":false,"is_disabled":false,"rental_uris":{"android":"levelo://app?vid=53520b29-34bc-43be-8b67-3ecf6dc64437","ios":"levelo://app?vid=53520b29-34bc-43be-8b67-3ecf6dc64437"},"vehicle_type_id":"4","last_reported":1749805892,"current_range_meters":6800,"station_id":"ce4bgip2rcd13ifvqbb0","pricing_plan_id":"cebpf4jnsgd1na2vs0mg"},{"bike_id":"5247374f-d210-4dea-b969-03177405a4a3","system_id":"levelo_inurba_marseille","lat":43.29799,"lon":5.40404,"is_reserved":false,"is_disabled":false,"rental_uris":{"android":"levelo://app?vid=5247374f-d210-4dea-b969-03177405a4a3","ios":"levelo://app?vid=5247374f-d210-4dea-b969-03177405a4a3"},"vehicle_type_id":"4","last_reported":1749805892,"current_range_meters":6800,"station_id":"ce4bh112rcd13ifvqd90","pricing_plan_id":"cebpf4jnsgd1na2vs0mg"},{"bike_id":"bd1a489a-1070-4007-8c0a-1dcc413c2770","system_id":"levelo_inurba_marseille","lat":43.32482,"lon":5.36577,"is_reserved":false,"is_disabled":false,"rental_uris":{"android":"levelo://app?vid=bd1a489a-1070-4007-8c0a-1dcc413c2770","ios":"levelo://app?vid=bd1a489a-1070-4007-8c0a-1dcc413c2770"},"vehicle_type_id":"4","last_reported":1749805892,"current_range_meters":6800,"station_id":"ce4bhs12rcd13ifvqhvg","pricing_plan_id":"cebpf4jnsgd1na2vs0mg"},{"bike_id":"989d2d33-8402-4599-aeed-02b4dc6f2c74","system_id":"levelo_inurba_marseille","lat":43.250343,"lon":5.400663,"is_reserved":false,"is_disabled":false,"rental_uris":{"android":"levelo://app?vid=989d2d33-8402-4599-aeed-02b4dc6f2c74","ios":"levelo://app?vid=989d2d33-8402-4599-aeed-02b4dc6f2c74"},"vehicle_type_id":"4","last_reported":1749805892,"current_range_meters":7200,"station_id":"ce4bhn12rcd13ifvqgpg","pricing_plan_id":"cebpf4jnsgd1na2vs0mg"},{"bike_id":"a2421370-e442-436f-a98a-844d44299694","system_id":"levelo_inurba_marseille","lat":43.3236,"lon":5.36766,"is_reserved":false,"is_disabled":false,"rental_uris":{"android":"levelo://app?vid=a2421370-e442-436f-a98a-844d44299694","ios":"levelo://app?vid=a2421370-e442-436f-a98a-844d44299694"},"vehicle_type_id":"4","last_reported":1749805892,"current_range_meters":7200,"station_id":"ce4bhsh2rcd13ifvqi2g","pricing_plan_id":"cebpf4jnsgd1na2vs0mg"},{"bike_id":"a426bcb6-9733-433a-b425-ccc13f254a65","system_id":"levelo_inurba_marseille","lat":43.29566,"lon":5.44239,"is_reserved":false,"is_disabled":false,"rental_uris":{"android":"levelo://app?vid=a426bcb6-9733-433a-b425-ccc13f254a65","ios":"levelo://app?vid=a426bcb6-9733-433a-b425-ccc13f254a65"},"vehicle_type_id":"4","last_reported":1749805892,"current_range_meters":8000,"station_id":"","pricing_plan_id":"cebpf4jnsgd1na2vs0mg"},{"bike_id":"d7e0e96d-d725-4724-87d9-9c6f1bc4f537","system_id":"levelo_inurba_marseille","lat":43.27376,"lon":5.36259,"is_reserved":false,"is_disabled":false,"rental_uris":{"android":"levelo://app?vid=d7e0e96d-d725-4724-87d9-9c6f1bc4f537","ios":"levelo://app?vid=d7e0e96d-d725-4724-87d9-9c6f1bc4f537"},"vehicle_type_id":"4","last_reported":1749805892,"current_range_meters":8000,"station_id":"ce4bhbh2rcd13ifvqeo0","pricing_plan_id":"cebpf4jnsgd1na2vs0mg"},{"bike_id":"df0d5db6-9eb3-4c0c-95dd-309c56fe16f8","system_id":"levelo_inurba_marseille","lat":43.29251,"lon":5.36841,"is_reserved":false,"is_disabled":false,"rental_uris":{"android":"levelo://app?vid=df0d5db6-9eb3-4c0c-95dd-309c56fe16f8","ios":"levelo://app?vid=df0d5db6-9eb3-4c0c-95dd-309c56fe16f8"},"vehicle_type_id":"4","last_reported":1749805892,"current_range_meters":8000,"station_id":"ce4bhbp2rcd13ifvqesg","pricing_plan_id":"cebpf4jnsgd1na2vs0mg"},{"bike_id":"ac6dfcbb-1806-40ee-b61c-5cbb73114693","system_id":"levelo_inurba_marseille","lat":43.32108,"lon":5.36782,"is_reserved":false,"is_disabled":false,"rental_uris":{"android":"levelo://app?vid=ac6dfcbb-1806-40ee-b61c-5cbb73114693","ios":"levelo://app?vid=ac6dfcbb-1806-40ee-b61c-5cbb73114693"},"vehicle_type_id":"4","last_reported":1749805892,"current_range_meters":8000,"station_id":"ce4bhrh2rcd13ifvqhug","pricing_plan_id":"cebpf4jnsgd1na2vs0mg"},{"bike_id":"501fe5cc-ec9f-4031-8e12-9c9a87dfd25d","system_id":"levelo_inurba_marseille","lat":43.31774,"lon":5.40596,"is_reserved":false,"is_disabled":false,"rental_uris":{"android":"levelo://app?vid=501fe5cc-ec9f-4031-8e12-9c9a87dfd25d","ios":"levelo://app?vid=501fe5cc-ec9f-4031-8e12-9c9a87dfd25d"},"vehicle_type_id":"4","last_reported":1749805892,"current_range_meters":8400,"station_id":"","pricing_plan_id":"cebpf4jnsgd1na2vs0mg"},{"bike_id":"a25b84b4-c252-4eda-97fb-1a1f22303c5d","system_id":"levelo_inurba_marseille","lat":43.31373,"lon":5.3744,"is_reserved":false,"is_disabled":false,"rental_uris":{"android":"levelo://app?vid=a25b84b4-c252-4eda-97fb-1a1f22303c5d","ios":"levelo://app?vid=a25b84b4-c252-4eda-97fb-1a1f22303c5d"},"vehicle_type_id":"4","last_reported":1749805892,"current_range_meters":8400,"station_id":"","pricing_plan_id":"cebpf4jnsgd1na2vs0mg"},{"bike_id":"0002f675-9397-43e8-a2c4-c6559bc2f189","system_id":"levelo_inurba_marseille","lat":43.30917,"lon":5.36837,"is_reserved":false,"is_disabled":false,"rental_uris":{"android":"levelo://app?vid=0002f675-9397-43e8-a2c4-c6559bc2f189","ios":"levelo://app?vid=0002f675-9397-43e8-a2c4-c6559bc2f189"},"vehicle_type_id":"4","last_reported":1749805892,"current_range_meters":8400,"station_id":"ce4bgn92rcd13ifvqbvg","pricing_plan_id":"cebpf4jnsgd1na2vs0mg"},{"bike_id":"f9fd3463-cf9c-46ea-8305-4847b4ac3ce4","system_id":"levelo_inurba_marseille","lat":43.30956,"lon":5.39037,"is_reserved":false,"is_disabled":false,"rental_uris":{"android":"levelo://app?vid=f9fd3463-cf9c-46ea-8305-4847b4ac3ce4","ios":"levelo://app?vid=f9fd3463-cf9c-46ea-8305-4847b4ac3ce4"},"vehicle_type_id":"4","last_reported":1749805892,"current_range_meters":8400,"station_id":"ce4bgup2rcd13ifvqco0","pricing_plan_id":"cebpf4jnsgd1na2vs0mg"},{"bike_id":"9799de32-02a1-44a2-82d3-2ab74a9cbde7","system_id":"levelo_inurba_marseille","lat":43.26939,"lon":5.40256,"is_reserved":false,"is_disabled":false,"rental_uris":{"android":"levelo://app?vid=9799de32-02a1-44a2-82d3-2ab74a9cbde7","ios":"levelo://app?vid=9799de32-02a1-44a2-82d3-2ab74a9cbde7"},"vehicle_type_id":"4","last_reported":1749805892,"current_range_meters":8400,"station_id":"cjm6bp8fraef2m0cb0m0","pricing_plan_id":"cebpf4jnsgd1na2vs0mg"},{"bike_id":"2f37ddf5-175f-4225-86a5-a304b47dbe7c","system_id":"levelo_inurba_marseille","lat":43.28271,"lon":5.35069,"is_reserved":false,"is_disabled":false,"rental_uris":{"android":"levelo://app?vid=2f37ddf5-175f-4225-86a5-a304b47dbe7c","ios":"levelo://app?vid=2f37ddf5-175f-4225-86a5-a304b47dbe7c"},"vehicle_type_id":"4","last_reported":1749805892,"current_range_meters":8800,"station_id":"ce4bhbp2rcd13ifvqerg","pricing_plan_id":"cebpf4jnsgd1na2vs0mg"},{"bike_id":"97421c04-2630-4fc1-9da9-b17d88602c5f","system_id":"levelo_inurba_marseille","lat":43.337599,"lon":5.374395,"is_reserved":false,"is_disabled":false,"rental_uris":{"android":"levelo://app?vid=97421c04-2630-4fc1-9da9-b17d88602c5f","ios":"levelo://app?vid=97421c04-2630-4fc1-9da9-b17d88602c5f"},"vehicle_type_id":"4","last_reported":1749805892,"current_range_meters":9200,"station_id":"","pricing_plan_id":"cebpf4jnsgd1na2vs0mg"},{"bike_id":"3bdb47fe-0f4d-4e36-bfdb-2d2509b0a553","system_id":"levelo_inurba_marseille","lat":43.25085,"lon":5.37871,"is_reserved":false,"is_disabled":false,"rental_uris":{"android":"levelo://app?vid=3bdb47fe-0f4d-4e36-bfdb-2d2509b0a553","ios":"levelo://app?vid=3bdb47fe-0f4d-4e36-bfdb-2d2509b0a553"},"vehicle_type_id":"4","last_reported":1749805892,"current_range_meters":9200,"station_id":"","pricing_plan_id":"cebpf4jnsgd1na2vs0mg"},{"bike_id":"8d60347d-541c-40fb-90ca-203bf6bd520a","system_id":"levelo_inurba_marseille","lat":43.27128,"lon":5.36394,"is_reserved":false,"is_disabled":false,"rental_uris":{"android":"levelo://app?vid=8d60347d-541c-40fb-90ca-203bf6bd520a","ios":"levelo://app?vid=8d60347d-541c-40fb-90ca-203bf6bd520a"},"vehicle_type_id":"4","last_reported":1749805892,"current_range_meters":9200,"station_id":"","pricing_plan_id":"cebpf4jnsgd1na2vs0mg"},{"bike_id":"94ba6f4b-428d-4ab6-ab1a-43165113acc6","system_id":"levelo_inurba_marseille","lat":43.31118,"lon":5.37751,"is_reserved":false,"is_disabled":false,"rental_uris":{"android":"levelo://app?vid=94ba6f4b-428d-4ab6-ab1a-43165113acc6","ios":"levelo://app?vid=94ba6f4b-428d-4ab6-ab1a-43165113acc6"},"vehicle_type_id":"4","last_reported":1749805892,"current_range_meters":9200,"station_id":"ce4bgt92rcd13ifvqcg0","pricing_plan_id":"cebpf4jnsgd1na2vs0mg"},{"bike_id":"7db892a7-47b2-4df3-86a0-1a095197db95","system_id":"levelo_inurba_marseille","lat":43.31689,"lon":5.40445,"is_reserved":false,"is_disabled":false,"rental_uris":{"android":"levelo://app?vid=7db892a7-47b2-4df3-86a0-1a095197db95","ios":"levelo://app?vid=7db892a7-47b2-4df3-86a0-1a095197db95"},"vehicle_type_id":"4","last_reported":1749805892,"current_range_meters":9200,"station_id":"ce4bh012rcd13ifvqd00","pricing_plan_id":"cebpf4jnsgd1na2vs0mg"},{"bike_id":"4e650c3c-fcda-4c43-ab0a-0720e4a729ee","system_id":"levelo_inurba_marseille","lat":43.29,"lon":5.35611,"is_reserved":false,"is_disabled":false,"rental_uris":{"android":"levelo://app?vid=4e650c3c-fcda-4c43-ab0a-0720e4a729ee","ios":"levelo://app?vid=4e650c3c-fcda-4c43-ab0a-0720e4a729ee"},"vehicle_type_id":"4","last_reported":1749805892,"current_range_meters":9200,"station_id":"ce4bhb92rcd13ifvqen0","pricing_plan_id":"cebpf4jnsgd1na2vs0mg"},{"bike_id":"1268e070-f02d-4537-93df-0bfd5c4daa05","system_id":"levelo_inurba_marseille","lat":43.32691,"lon":5.37645,"is_reserved":false,"is_disabled":false,"rental_uris":{"android":"levelo://app?vid=1268e070-f02d-4537-93df-0bfd5c4daa05","ios":"levelo://app?vid=1268e070-f02d-4537-93df-0bfd5c4daa05"},"vehicle_type_id":"4","last_reported":1749805892,"current_range_meters":9600,"station_id":"","pricing_plan_id":"cebpf4jnsgd1na2vs0mg"},{"bike_id":"7d56a784-e936-4f13-b7ad-9fccdd1fe89b","system_id":"levelo_inurba_marseille","lat":43.30515,"lon":5.36566,"is_reserved":false,"is_disabled":false,"rental_uris":{"android":"levelo://app?vid=7d56a784-e936-4f13-b7ad-9fccdd1fe89b","ios":"levelo://app?vid=7d56a784-e936-4f13-b7ad-9fccdd1fe89b"},"vehicle_type_id":"4","last_reported":1749805892,"current_range_meters":9600,"station_id":"","pricing_plan_id":"cebpf4jnsgd1na2vs0mg"},{"bike_id":"6bff8f35-611c-4484-87fe-657017f57085","system_id":"levelo_inurba_marseille","lat":43.31376,"lon":5.36732,"is_reserved":false,"is_disabled":false,"rental_uris":{"android":"levelo://app?vid=6bff8f35-611c-4484-87fe-657017f57085","ios":"levelo://app?vid=6bff8f35-611c-4484-87fe-657017f57085"},"vehicle_type_id":"4","last_reported":1749805892,"current_range_meters":9600,"station_id":"ce4bgr92rcd13ifvqc6g","pricing_plan_id":"cebpf4jnsgd1na2vs0mg"},{"bike_id":"4b7b3824-fb13-4c0c-9fd0-ed6e789ce4eb","system_id":"levelo_inurba_marseille","lat":43.284669,"lon":5.358827,"is_reserved":false,"is_disabled":false,"rental_uris":{"android":"levelo://app?vid=4b7b3824-fb13-4c0c-9fd0-ed6e789ce4eb","ios":"levelo://app?vid=4b7b3824-fb13-4c0c-9fd0-ed6e789ce4eb"},"vehicle_type_id":"4","last_reported":1749805892,"current_range_meters":9600,"station_id":"ce4bhah2rcd13ifvqei0","pricing_plan_id":"cebpf4jnsgd1na2vs0mg"},{"bike_id":"ea18ab8e-6c1f-48d0-a594-c74a3b78688b","system_id":"levelo_inurba_marseille","lat":43.26058,"lon":5.39398,"is_reserved":false,"is_disabled":false,"rental_uris":{"android":"levelo://app?vid=ea18ab8e-6c1f-48d0-a594-c74a3b78688b","ios":"levelo://app?vid=ea18ab8e-6c1f-48d0-a594-c74a3b78688b"},"vehicle_type_id":"4","last_reported":1749805892,"current_range_meters":9600,"station_id":"ce4bhh92rcd13ifvqfj0","pricing_plan_id":"cebpf4jnsgd1na2vs0mg"},{"bike_id":"8d077453-18da-4e23-9305-ee493a72b0b4","system_id":"levelo_inurba_marseille","lat":43.34141,"lon":5.40881,"is_reserved":false,"is_disabled":false,"rental_uris":{"android":"levelo://app?vid=8d077453-18da-4e23-9305-ee493a72b0b4","ios":"levelo://app?vid=8d077453-18da-4e23-9305-ee493a72b0b4"},"vehicle_type_id":"4","last_reported":1749805892,"current_range_meters":9600,"station_id":"ce4bhqh2rcd13ifvqhlg","pricing_plan_id":"cebpf4jnsgd1na2vs0mg"},{"bike_id":"415ae651-19f2-4161-a374-d53ba201227b","system_id":"levelo_inurba_marseille","lat":43.33604,"lon":5.4103,"is_reserved":false,"is_disabled":false,"rental_uris":{"android":"levelo://app?vid=415ae651-19f2-4161-a374-d53ba201227b","ios":"levelo://app?vid=415ae651-19f2-4161-a374-d53ba201227b"},"vehicle_type_id":"4","last_reported":1749805892,"current_range_meters":9600,"station_id":"ce4bhqh2rcd13ifvqhmg","pricing_plan_id":"cebpf4jnsgd1na2vs0mg"},{"bike_id":"b88c2d08-80f4-4734-a92d-59177ca23f87","system_id":"levelo_inurba_marseille","lat":43.244107,"lon":5.371261,"is_reserved":false,"is_disabled":false,"rental_uris":{"android":"levelo://app?vid=b88c2d08-80f4-4734-a92d-59177ca23f87","ios":"levelo://app?vid=b88c2d08-80f4-4734-a92d-59177ca23f87"},"vehicle_type_id":"4","last_reported":1749805892,"current_range_meters":9600,"station_id":"ce4bhu92rcd13ifvqi70","pricing_plan_id":"cebpf4jnsgd1na2vs0mg"},{"bike_id":"3a11c5a8-e636-4a8e-97c5-5f95a0b7cfbb","system_id":"levelo_inurba_marseille","lat":43.33774,"lon":5.39204,"is_reserved":false,"is_disabled":false,"rental_uris":{"android":"levelo://app?vid=3a11c5a8-e636-4a8e-97c5-5f95a0b7cfbb","ios":"levelo://app?vid=3a11c5a8-e636-4a8e-97c5-5f95a0b7cfbb"},"vehicle_type_id":"4","last_reported":1749805892,"current_range_meters":10000,"station_id":"","pricing_plan_id":"cebpf4jnsgd1na2vs0mg"},{"bike_id":"2ae3497c-45b2-474e-a61b-246541dfb5a5","system_id":"levelo_inurba_marseille","lat":43.31397,"lon":5.36668,"is_reserved":false,"is_disabled":false,"rental_uris":{"android":"levelo://app?vid=2ae3497c-45b2-474e-a61b-246541dfb5a5","ios":"levelo://app?vid=2ae3497c-45b2-474e-a61b-246541dfb5a5"},"vehicle_type_id":"4","last_reported":1749805892,"current_range_meters":10000,"station_id":"","pricing_plan_id":"cebpf4jnsgd1na2vs0mg"},{"bike_id":"bf7987fd-6ae8-4284-9b69-798032abd168","system_id":"levelo_inurba_marseille","lat":43.29622,"lon":5.37725,"is_reserved":false,"is_disabled":false,"rental_uris":{"android":"levelo://app?vid=bf7987fd-6ae8-4284-9b69-798032abd168","ios":"levelo://app?vid=bf7987fd-6ae8-4284-9b69-798032abd168"},"vehicle_type_id":"4","last_reported":1749805892,"current_range_meters":10000,"station_id":"ce4bgi92rcd13ifvqb90","pricing_plan_id":"cebpf4jnsgd1na2vs0mg"},{"bike_id":"d868bd62-3c5e-4130-a7d2-3bd9b314843a","system_id":"levelo_inurba_marseille","lat":43.26979,"lon":5.42801,"is_reserved":false,"is_disabled":false,"rental_uris":{"android":"levelo://app?vid=d868bd62-3c5e-4130-a7d2-3bd9b314843a","ios":"levelo://app?vid=d868bd62-3c5e-4130-a7d2-3bd9b314843a"},"vehicle_type_id":"4","last_reported":1749805892,"current_range_meters":10800,"station_id":"","pricing_plan_id":"cebpf4jnsgd1na2vs0mg"},{"bike_id":"063eff84-b62e-4128-85ed-5896eed2f5f4","system_id":"levelo_inurba_marseille","lat":43.31307,"lon":5.37503,"is_reserved":false,"is_disabled":false,"rental_uris":{"android":"levelo://app?vid=063eff84-b62e-4128-85ed-5896eed2f5f4","ios":"levelo://app?vid=063eff84-b62e-4128-85ed-5896eed2f5f4"},"vehicle_type_id":"4","last_reported":1749805892,"current_range_meters":10800,"station_id":"","pricing_plan_id":"cebpf4jnsgd1na2vs0mg"},{"bike_id":"efef7ea9-dfe7-4a71-9a42-eb2cee9bc37e","system_id":"levelo_inurba_marseille","lat":43.31189,"lon":5.37209,"is_reserved":false,"is_disabled":false,"rental_uris":{"android":"levelo://app?vid=efef7ea9-dfe7-4a71-9a42-eb2cee9bc37e","ios":"levelo://app?vid=efef7ea9-dfe7-4a71-9a42-eb2cee9bc37e"},"vehicle_type_id":"4","last_reported":1749805892,"current_range_meters":10800,"station_id":"","pricing_plan_id":"cebpf4jnsgd1na2vs0mg"},{"bike_id":"6e464720-93b0-4699-80fe-881649eb71cd","system_id":"levelo_inurba_marseille","lat":43.23228,"lon":5.356,"is_reserved":false,"is_disabled":false,"rental_uris":{"android":"levelo://app?vid=6e464720-93b0-4699-80fe-881649eb71cd","ios":"levelo://app?vid=6e464720-93b0-4699-80fe-881649eb71cd"},"vehicle_type_id":"4","last_reported":1749805892,"current_range_meters":10800,"station_id":"","pricing_plan_id":"cebpf4jnsgd1na2vs0mg"},{"bike_id":"e5ef7447-82af-477b-846f-d44631249354","system_id":"levelo_inurba_marseille","lat":43.32486,"lon":5.38804,"is_reserved":false,"is_disabled":false,"rental_uris":{"android":"levelo://app?vid=e5ef7447-82af-477b-846f-d44631249354","ios":"levelo://app?vid=e5ef7447-82af-477b-846f-d44631249354"},"vehicle_type_id":"4","last_reported":1749805892,"current_range_meters":10800,"station_id":"","pricing_plan_id":"cebpf4jnsgd1na2vs0mg"},{"bike_id":"5381b96c-848a-4ae2-aa7a-c12d7ddad5b0","system_id":"levelo_inurba_marseille","lat":43.2781,"lon":5.40697,"is_reserved":false,"is_disabled":false,"rental_uris":{"android":"levelo://app?vid=5381b96c-848a-4ae2-aa7a-c12d7ddad5b0","ios":"levelo://app?vid=5381b96c-848a-4ae2-aa7a-c12d7ddad5b0"},"vehicle_type_id":"4","last_reported":1749805892,"current_range_meters":10800,"station_id":"ce4bhnh2rcd13ifvqgtg","pricing_plan_id":"cebpf4jnsgd1na2vs0mg"},{"bike_id":"cac16850-0e6d-465a-bbca-79973376e09f","system_id":"levelo_inurba_marseille","lat":43.27514,"lon":5.38982,"is_reserved":false,"is_disabled":false,"rental_uris":{"android":"levelo://app?vid=cac16850-0e6d-465a-bbca-79973376e09f","ios":"levelo://app?vid=cac16850-0e6d-465a-bbca-79973376e09f"},"vehicle_type_id":"4","last_reported":1749805892,"current_range_meters":11200,"station_id":"","pricing_plan_id":"cebpf4jnsgd1na2vs0mg"},{"bike_id":"e3e03bc8-69be-4c68-93e9-04d1c743b8c8","system_id":"levelo_inurba_marseille","lat":43.25861,"lon":5.39896,"is_reserved":false,"is_disabled":false,"rental_uris":{"android":"levelo://app?vid=e3e03bc8-69be-4c68-93e9-04d1c743b8c8","ios":"levelo://app?vid=e3e03bc8-69be-4c68-93e9-04d1c743b8c8"},"vehicle_type_id":"4","last_reported":1749805892,"current_range_meters":11600,"station_id":"ce4bhl92rcd13ifvqghg","pricing_plan_id":"cebpf4jnsgd1na2vs0mg"},{"bike_id":"1a5bde47-bf3b-4cd4-b091-da658f66aa67","system_id":"levelo_inurba_marseille","lat":43.32541,"lon":5.41472,"is_reserved":false,"is_disabled":false,"rental_uris":{"android":"levelo://app?vid=1a5bde47-bf3b-4cd4-b091-da658f66aa67","ios":"levelo://app?vid=1a5bde47-bf3b-4cd4-b091-da658f66aa67"},"vehicle_type_id":"4","last_reported":1749805892,"current_range_meters":11600,"station_id":"ce4bhq12rcd13ifvqhhg","pricing_plan_id":"cebpf4jnsgd1na2vs0mg"},{"bike_id":"78e4331f-c67f-4812-a1cf-4af0acc5e2d6","system_id":"levelo_inurba_marseille","lat":43.32315,"lon":5.36718,"is_reserved":false,"is_disabled":false,"rental_uris":{"android":"levelo://app?vid=78e4331f-c67f-4812-a1cf-4af0acc5e2d6","ios":"levelo://app?vid=78e4331f-c67f-4812-a1cf-4af0acc5e2d6"},"vehicle_type_id":"4","last_reported":1749805892,"current_range_meters":11600,"station_id":"ce4bhsh2rcd13ifvqi2g","pricing_plan_id":"cebpf4jnsgd1na2vs0mg"},{"bike_id":"3fe50ebb-7407-4c5c-803b-1cd761668abb","system_id":"levelo_inurba_marseille","lat":43.22911,"lon":5.35376,"is_reserved":false,"is_disabled":false,"rental_uris":{"android":"levelo://app?vid=3fe50ebb-7407-4c5c-803b-1cd761668abb","ios":"levelo://app?vid=3fe50ebb-7407-4c5c-803b-1cd761668abb"},"vehicle_type_id":"4","last_reported":1749805892,"current_range_meters":11600,"station_id":"cpo3532slgdg3j2ikp40","pricing_plan_id":"cebpf4jnsgd1na2vs0mg"},{"bike_id":"47187193-da4a-4340-9d9a-d499526e254e","system_id":"levelo_inurba_marseille","lat":43.21751,"lon":5.34593,"is_reserved":false,"is_disabled":false,"rental_uris":{"android":"levelo://app?vid=47187193-da4a-4340-9d9a-d499526e254e","ios":"levelo://app?vid=47187193-da4a-4340-9d9a-d499526e254e"},"vehicle_type_id":"4","last_reported":1749805892,"current_range_meters":11600,"station_id":"st_cvj6r9ubvosntc0bgbag","pricing_plan_id":"cebpf4jnsgd1na2vs0mg"},{"bike_id":"b47afa4d-b528-40af-a593-24946a8ad95b","system_id":"levelo_inurba_marseille","lat":43.29716,"lon":5.36636,"is_reserved":false,"is_disabled":false,"rental_uris":{"android":"levelo://app?vid=b47afa4d-b528-40af-a593-24946a8ad95b","ios":"levelo://app?vid=b47afa4d-b528-40af-a593-24946a8ad95b"},"vehicle_type_id":"4","last_reported":1749805892,"current_range_meters":12000,"station_id":"ce4bgn12rcd13ifvqbt0","pricing_plan_id":"cebpf4jnsgd1na2vs0mg"},{"bike_id":"06d9bd6c-1332-47d9-bd7b-658fbd35db66","system_id":"levelo_inurba_marseille","lat":43.28268,"lon":5.35071,"is_reserved":false,"is_disabled":false,"rental_uris":{"android":"levelo://app?vid=06d9bd6c-1332-47d9-bd7b-658fbd35db66","ios":"levelo://app?vid=06d9bd6c-1332-47d9-bd7b-658fbd35db66"},"vehicle_type_id":"4","last_reported":1749805892,"current_range_meters":12000,"station_id":"ce4bhbp2rcd13ifvqerg","pricing_plan_id":"cebpf4jnsgd1na2vs0mg"},{"bike_id":"e3090e73-608d-49d7-917c-b0d225170417","system_id":"levelo_inurba_marseille","lat":43.29267,"lon":5.36838,"is_reserved":false,"is_disabled":false,"rental_uris":{"android":"levelo://app?vid=e3090e73-608d-49d7-917c-b0d225170417","ios":"levelo://app?vid=e3090e73-608d-49d7-917c-b0d225170417"},"vehicle_type_id":"4","last_reported":1749805892,"current_range_meters":12000,"station_id":"ce4bhbp2rcd13ifvqesg","pricing_plan_id":"cebpf4jnsgd1na2vs0mg"},{"bike_id":"9abb2bf5-5901-46cc-a8ad-37089c132550","system_id":"levelo_inurba_marseille","lat":43.23149,"lon":5.4372,"is_reserved":false,"is_disabled":false,"rental_uris":{"android":"levelo://app?vid=9abb2bf5-5901-46cc-a8ad-37089c132550","ios":"levelo://app?vid=9abb2bf5-5901-46cc-a8ad-37089c132550"},"vehicle_type_id":"4","last_reported":1749805892,"current_range_meters":12000,"station_id":"ce4bhmp2rcd13ifvqgog","pricing_plan_id":"cebpf4jnsgd1na2vs0mg"},{"bike_id":"41902e46-3363-402b-89a9-77321257c96b","system_id":"levelo_inurba_marseille","lat":43.32361,"lon":5.36751,"is_reserved":false,"is_disabled":false,"rental_uris":{"android":"levelo://app?vid=41902e46-3363-402b-89a9-77321257c96b","ios":"levelo://app?vid=41902e46-3363-402b-89a9-77321257c96b"},"vehicle_type_id":"4","last_reported":1749805892,"current_range_meters":12000,"station_id":"ce4bhsh2rcd13ifvqi2g","pricing_plan_id":"cebpf4jnsgd1na2vs0mg"},{"bike_id":"346f3f80-6b15-4406-b905-bb78596f5bac","system_id":"levelo_inurba_marseille","lat":43.32345,"lon":5.36725,"is_reserved":false,"is_disabled":false,"rental_uris":{"android":"levelo://app?vid=346f3f80-6b15-4406-b905-bb78596f5bac","ios":"levelo://app?vid=346f3f80-6b15-4406-b905-bb78596f5bac"},"vehicle_type_id":"4","last_reported":1749805892,"current_range_meters":12000,"station_id":"ce4bhsh2rcd13ifvqi2g","pricing_plan_id":"cebpf4jnsgd1na2vs0mg"},{"bike_id":"b6dd7842-2a8a-4cee-9157-1a034f9308fe","system_id":"levelo_inurba_marseille","lat":43.2984,"lon":5.36264,"is_reserved":false,"is_disabled":false,"rental_uris":{"android":"levelo://app?vid=b6dd7842-2a8a-4cee-9157-1a034f9308fe","ios":"levelo://app?vid=b6dd7842-2a8a-4cee-9157-1a034f9308fe"},"vehicle_type_id":"4","last_reported":1749805892,"current_range_meters":12400,"station_id":"ce4bgpp2rcd13ifvqc3g","pricing_plan_id":"cebpf4jnsgd1na2vs0mg"},{"bike_id":"dfe86e4d-732f-444a-affa-bc91e3d641f2","system_id":"levelo_inurba_marseille","lat":43.31717,"lon":5.40428,"is_reserved":false,"is_disabled":false,"rental_uris":{"android":"levelo://app?vid=dfe86e4d-732f-444a-affa-bc91e3d641f2","ios":"levelo://app?vid=dfe86e4d-732f-444a-affa-bc91e3d641f2"},"vehicle_type_id":"4","last_reported":1749805892,"current_range_meters":12400,"station_id":"ce4bh012rcd13ifvqd00","pricing_plan_id":"cebpf4jnsgd1na2vs0mg"},{"bike_id":"d3c2c15d-1fc6-4b22-a13e-ddd837cdf627","system_id":"levelo_inurba_marseille","lat":43.254837,"lon":5.376497,"is_reserved":false,"is_disabled":false,"rental_uris":{"android":"levelo://app?vid=d3c2c15d-1fc6-4b22-a13e-ddd837cdf627","ios":"levelo://app?vid=d3c2c15d-1fc6-4b22-a13e-ddd837cdf627"},"vehicle_type_id":"4","last_reported":1749805892,"current_range_meters":12400,"station_id":"ce4bhh12rcd13ifvqff0","pricing_plan_id":"cebpf4jnsgd1na2vs0mg"},{"bike_id":"2de973a3-f4bd-4f47-b4bd-2a61c67c98ed","system_id":"levelo_inurba_marseille","lat":43.25913,"lon":5.40892,"is_reserved":false,"is_disabled":false,"rental_uris":{"android":"levelo://app?vid=2de973a3-f4bd-4f47-b4bd-2a61c67c98ed","ios":"levelo://app?vid=2de973a3-f4bd-4f47-b4bd-2a61c67c98ed"},"vehicle_type_id":"4","last_reported":1749805892,"current_range_meters":12400,"station_id":"ce4bhm92rcd13ifvqglg","pricing_plan_id":"cebpf4jnsgd1na2vs0mg"},{"bike_id":"ebffdb0b-41ca-46de-be61-84515fef8b11","system_id":"levelo_inurba_marseille","lat":43.24624,"lon":5.436902,"is_reserved":false,"is_disabled":false,"rental_uris":{"android":"levelo://app?vid=ebffdb0b-41ca-46de-be61-84515fef8b11","ios":"levelo://app?vid=ebffdb0b-41ca-46de-be61-84515fef8b11"},"vehicle_type_id":"4","last_reported":1749805892,"current_range_meters":12400,"station_id":"ce4bhmp2rcd13ifvqgog","pricing_plan_id":"cebpf4jnsgd1na2vs0mg"},{"bike_id":"566c7291-85cb-414c-ace7-f588a8181d84","system_id":"levelo_inurba_marseille","lat":43.24074,"lon":5.377603,"is_reserved":false,"is_disabled":false,"rental_uris":{"android":"levelo://app?vid=566c7291-85cb-414c-ace7-f588a8181d84","ios":"levelo://app?vid=566c7291-85cb-414c-ace7-f588a8181d84"},"vehicle_type_id":"4","last_reported":1749805892,"current_range_meters":12400,"station_id":"ce4bhnp2rcd13ifvqgvg","pricing_plan_id":"cebpf4jnsgd1na2vs0mg"},{"bike_id":"7389b02b-e562-41c8-9cc6-01c25d9fca9a","system_id":"levelo_inurba_marseille","lat":43.33605,"lon":5.41036,"is_reserved":false,"is_disabled":false,"rental_uris":{"android":"levelo://app?vid=7389b02b-e562-41c8-9cc6-01c25d9fca9a","ios":"levelo://app?vid=7389b02b-e562-41c8-9cc6-01c25d9fca9a"},"vehicle_type_id":"4","last_reported":1749805892,"current_range_meters":12400,"station_id":"ce4bhqh2rcd13ifvqhmg","pricing_plan_id":"cebpf4jnsgd1na2vs0mg"},{"bike_id":"d43412a6-ed5f-43b0-a573-b370e795a12a","system_id":"levelo_inurba_marseille","lat":43.32353,"lon":5.36754,"is_reserved":false,"is_disabled":false,"rental_uris":{"android":"levelo://app?vid=d43412a6-ed5f-43b0-a573-b370e795a12a","ios":"levelo://app?vid=d43412a6-ed5f-43b0-a573-b370e795a12a"},"vehicle_type_id":"4","last_reported":1749805892,"current_range_meters":12400,"station_id":"ce4bhsh2rcd13ifvqi2g","pricing_plan_id":"cebpf4jnsgd1na2vs0mg"},{"bike_id":"d521f4e9-7017-431b-9e14-ff14e13511b6","system_id":"levelo_inurba_marseille","lat":43.25495,"lon":5.3765,"is_reserved":false,"is_disabled":false,"rental_uris":{"android":"levelo://app?vid=d521f4e9-7017-431b-9e14-ff14e13511b6","ios":"levelo://app?vid=d521f4e9-7017-431b-9e14-ff14e13511b6"},"vehicle_type_id":"4","last_reported":1749805892,"current_range_meters":12800,"station_id":"ce4bhh12rcd13ifvqff0","pricing_plan_id":"cebpf4jnsgd1na2vs0mg"},{"bike_id":"abc78fa0-198a-44c4-81ba-0dd7efe04434","system_id":"levelo_inurba_marseille","lat":43.23145,"lon":5.43718,"is_reserved":false,"is_disabled":false,"rental_uris":{"android":"levelo://app?vid=abc78fa0-198a-44c4-81ba-0dd7efe04434","ios":"levelo://app?vid=abc78fa0-198a-44c4-81ba-0dd7efe04434"},"vehicle_type_id":"4","last_reported":1749805892,"current_range_meters":12800,"station_id":"ce4bhmp2rcd13ifvqgog","pricing_plan_id":"cebpf4jnsgd1na2vs0mg"},{"bike_id":"383be704-7505-4fb8-833a-9acdb8d96e06","system_id":"levelo_inurba_marseille","lat":43.21189,"lon":5.35069,"is_reserved":false,"is_disabled":false,"rental_uris":{"android":"levelo://app?vid=383be704-7505-4fb8-833a-9acdb8d96e06","ios":"levelo://app?vid=383be704-7505-4fb8-833a-9acdb8d96e06"},"vehicle_type_id":"4","last_reported":1749805892,"current_range_meters":13600,"station_id":"st_cvj6sg6p6f1abm77japg","pricing_plan_id":"cebpf4jnsgd1na2vs0mg"},{"bike_id":"5f977929-ccb4-449a-8fdc-f2bf323c78e2","system_id":"levelo_inurba_marseille","lat":43.337444,"lon":5.374475,"is_reserved":false,"is_disabled":false,"rental_uris":{"android":"levelo://app?vid=5f977929-ccb4-449a-8fdc-f2bf323c78e2","ios":"levelo://app?vid=5f977929-ccb4-449a-8fdc-f2bf323c78e2"},"vehicle_type_id":"4","last_reported":1749805892,"current_range_meters":14000,"station_id":"","pricing_plan_id":"cebpf4jnsgd1na2vs0mg"},{"bike_id":"75b7cb52-9392-44a5-9dba-e37edc15aa69","system_id":"levelo_inurba_marseille","lat":43.29574,"lon":5.39983,"is_reserved":false,"is_disabled":false,"rental_uris":{"android":"levelo://app?vid=75b7cb52-9392-44a5-9dba-e37edc15aa69","ios":"levelo://app?vid=75b7cb52-9392-44a5-9dba-e37edc15aa69"},"vehicle_type_id":"4","last_reported":1749805892,"current_range_meters":14000,"station_id":"ce4bh312rcd13ifvqdj0","pricing_plan_id":"cebpf4jnsgd1na2vs0mg"},{"bike_id":"c6c38e3c-8bc6-4973-96fe-75d10e8751f4","system_id":"levelo_inurba_marseille","lat":43.30363,"lon":5.42502,"is_reserved":false,"is_disabled":false,"rental_uris":{"android":"levelo://app?vid=c6c38e3c-8bc6-4973-96fe-75d10e8751f4","ios":"levelo://app?vid=c6c38e3c-8bc6-4973-96fe-75d10e8751f4"},"vehicle_type_id":"4","last_reported":1749805892,"current_range_meters":14000,"station_id":"ce4bhoh2rcd13ifvqh6g","pricing_plan_id":"cebpf4jnsgd1na2vs0mg"},{"bike_id":"6facbc0d-f1b5-4dc3-86d4-5c1204834925","system_id":"levelo_inurba_marseille","lat":43.280536,"lon":5.347971,"is_reserved":false,"is_disabled":false,"rental_uris":{"android":"levelo://app?vid=6facbc0d-f1b5-4dc3-86d4-5c1204834925","ios":"levelo://app?vid=6facbc0d-f1b5-4dc3-86d4-5c1204834925"},"vehicle_type_id":"4","last_reported":1749805892,"current_range_meters":14400,"station_id":"","pricing_plan_id":"cebpf4jnsgd1na2vs0mg"},{"bike_id":"5d605a58-66ae-45f8-b2b7-7416320f2e11","system_id":"levelo_inurba_marseille","lat":43.31088,"lon":5.383815,"is_reserved":false,"is_disabled":false,"rental_uris":{"android":"levelo://app?vid=5d605a58-66ae-45f8-b2b7-7416320f2e11","ios":"levelo://app?vid=5d605a58-66ae-45f8-b2b7-7416320f2e11"},"vehicle_type_id":"4","last_reported":1749805892,"current_range_meters":14400,"station_id":"ce4bgv92rcd13ifvqcr0","pricing_plan_id":"cebpf4jnsgd1na2vs0mg"},{"bike_id":"157208a8-fc2b-4fb9-8e8d-a8edbd71740d","system_id":"levelo_inurba_marseille","lat":43.27068,"lon":5.40236,"is_reserved":false,"is_disabled":false,"rental_uris":{"android":"levelo://app?vid=157208a8-fc2b-4fb9-8e8d-a8edbd71740d","ios":"levelo://app?vid=157208a8-fc2b-4fb9-8e8d-a8edbd71740d"},"vehicle_type_id":"4","last_reported":1749805892,"current_range_meters":14400,"station_id":"ce4bhk92rcd13ifvqgc0","pricing_plan_id":"cebpf4jnsgd1na2vs0mg"},{"bike_id":"b9744627-1737-453c-b7ed-c1681c0ddfbb","system_id":"levelo_inurba_marseille","lat":43.27506,"lon":5.42434,"is_reserved":false,"is_disabled":false,"rental_uris":{"android":"levelo://app?vid=b9744627-1737-453c-b7ed-c1681c0ddfbb","ios":"levelo://app?vid=b9744627-1737-453c-b7ed-c1681c0ddfbb"},"vehicle_type_id":"4","last_reported":1749805892,"current_range_meters":14400,"station_id":"ce4bhn92rcd13ifvqgrg","pricing_plan_id":"cebpf4jnsgd1na2vs0mg"},{"bike_id":"59c90e23-0327-4b73-a887-6cb8c1e8365c","system_id":"levelo_inurba_marseille","lat":43.28356,"lon":5.38102,"is_reserved":false,"is_disabled":false,"rental_uris":{"android":"levelo://app?vid=59c90e23-0327-4b73-a887-6cb8c1e8365c","ios":"levelo://app?vid=59c90e23-0327-4b73-a887-6cb8c1e8365c"},"vehicle_type_id":"4","last_reported":1749805892,"current_range_meters":14800,"station_id":"ce4bh412rcd13ifvqdr0","pricing_plan_id":"cebpf4jnsgd1na2vs0mg"},{"bike_id":"326cc913-bdbc-48c2-9a88-414846f09512","system_id":"levelo_inurba_marseille","lat":43.3236,"lon":5.36766,"is_reserved":false,"is_disabled":false,"rental_uris":{"android":"levelo://app?vid=326cc913-bdbc-48c2-9a88-414846f09512","ios":"levelo://app?vid=326cc913-bdbc-48c2-9a88-414846f09512"},"vehicle_type_id":"4","last_reported":1749805892,"current_range_meters":14800,"station_id":"ce4bhsh2rcd13ifvqi2g","pricing_plan_id":"cebpf4jnsgd1na2vs0mg"},{"bike_id":"7ab6d917-e6cd-4f6c-98cc-9e2c7c3901f7","system_id":"levelo_inurba_marseille","lat":43.21342,"lon":5.34992,"is_reserved":false,"is_disabled":false,"rental_uris":{"android":"levelo://app?vid=7ab6d917-e6cd-4f6c-98cc-9e2c7c3901f7","ios":"levelo://app?vid=7ab6d917-e6cd-4f6c-98cc-9e2c7c3901f7"},"vehicle_type_id":"4","last_reported":1749805892,"current_range_meters":15200,"station_id":"","pricing_plan_id":"cebpf4jnsgd1na2vs0mg"},{"bike_id":"f38ab1a7-3078-4364-a5da-31d8874fee8e","system_id":"levelo_inurba_marseille","lat":43.30906,"lon":5.36837,"is_reserved":false,"is_disabled":false,"rental_uris":{"android":"levelo://app?vid=f38ab1a7-3078-4364-a5da-31d8874fee8e","ios":"levelo://app?vid=f38ab1a7-3078-4364-a5da-31d8874fee8e"},"vehicle_type_id":"4","last_reported":1749805892,"current_range_meters":15200,"station_id":"ce4bgn92rcd13ifvqbvg","pricing_plan_id":"cebpf4jnsgd1na2vs0mg"},{"bike_id":"4befabab-b2ad-40ca-8a59-2e8290dfa17a","system_id":"levelo_inurba_marseille","lat":43.30131,"lon":5.37399,"is_reserved":false,"is_disabled":false,"rental_uris":{"android":"levelo://app?vid=4befabab-b2ad-40ca-8a59-2e8290dfa17a","ios":"levelo://app?vid=4befabab-b2ad-40ca-8a59-2e8290dfa17a"},"vehicle_type_id":"4","last_reported":1749805892,"current_range_meters":15200,"station_id":"ce4bgs92rcd13ifvqcc0","pricing_plan_id":"cebpf4jnsgd1na2vs0mg"},{"bike_id":"27bf6b31-f0cb-4787-8be9-31a3ed5f4c45","system_id":"levelo_inurba_marseille","lat":43.292014,"lon":5.357946,"is_reserved":false,"is_disabled":false,"rental_uris":{"android":"levelo://app?vid=27bf6b31-f0cb-4787-8be9-31a3ed5f4c45","ios":"levelo://app?vid=27bf6b31-f0cb-4787-8be9-31a3ed5f4c45"},"vehicle_type_id":"4","last_reported":1749805892,"current_range_meters":15200,"station_id":"ce4bhb12rcd13ifvqel0","pricing_plan_id":"cebpf4jnsgd1na2vs0mg"},{"bike_id":"16522447-dcdc-4ee2-942d-0a59d326b814","system_id":"levelo_inurba_marseille","lat":43.33024,"lon":5.39043,"is_reserved":false,"is_disabled":false,"rental_uris":{"android":"levelo://app?vid=16522447-dcdc-4ee2-942d-0a59d326b814","ios":"levelo://app?vid=16522447-dcdc-4ee2-942d-0a59d326b814"},"vehicle_type_id":"4","last_reported":1749805892,"current_range_meters":15200,"station_id":"ce4bhr92rcd13ifvqhrg","pricing_plan_id":"cebpf4jnsgd1na2vs0mg"},{"bike_id":"d17b7dfb-25d1-4e77-9be4-f66ea1bb7560","system_id":"levelo_inurba_marseille","lat":43.217497,"lon":5.346,"is_reserved":false,"is_disabled":false,"rental_uris":{"android":"levelo://app?vid=d17b7dfb-25d1-4e77-9be4-f66ea1bb7560","ios":"levelo://app?vid=d17b7dfb-25d1-4e77-9be4-f66ea1bb7560"},"vehicle_type_id":"4","last_reported":1749805892,"current_range_meters":15200,"station_id":"st_cvj6r9ubvosntc0bgbag","pricing_plan_id":"cebpf4jnsgd1na2vs0mg"},{"bike_id":"075c05ec-b3c9-44c3-b57f-1083abf2ca61","system_id":"levelo_inurba_marseille","lat":43.271212,"lon":5.426366,"is_reserved":false,"is_disabled":false,"rental_uris":{"android":"levelo://app?vid=075c05ec-b3c9-44c3-b57f-1083abf2ca61","ios":"levelo://app?vid=075c05ec-b3c9-44c3-b57f-1083abf2ca61"},"vehicle_type_id":"4","last_reported":1749805892,"current_range_meters":16000,"station_id":"","pricing_plan_id":"cebpf4jnsgd1na2vs0mg"},{"bike_id":"c0bd4251-d527-48a7-9378-e4e80c1c274f","system_id":"levelo_inurba_marseille","lat":43.318497,"lon":5.373583,"is_reserved":false,"is_disabled":false,"rental_uris":{"android":"levelo://app?vid=c0bd4251-d527-48a7-9378-e4e80c1c274f","ios":"levelo://app?vid=c0bd4251-d527-48a7-9378-e4e80c1c274f"},"vehicle_type_id":"4","last_reported":1749805892,"current_range_meters":16000,"station_id":"","pricing_plan_id":"cebpf4jnsgd1na2vs0mg"},{"bike_id":"75139ee8-a707-4cd3-adba-34bda952448d","system_id":"levelo_inurba_marseille","lat":43.30542,"lon":5.3655,"is_reserved":false,"is_disabled":false,"rental_uris":{"android":"levelo://app?vid=75139ee8-a707-4cd3-adba-34bda952448d","ios":"levelo://app?vid=75139ee8-a707-4cd3-adba-34bda952448d"},"vehicle_type_id":"4","last_reported":1749805892,"current_range_meters":16000,"station_id":"ce4bgs12rcd13ifvqcag","pricing_plan_id":"cebpf4jnsgd1na2vs0mg"},{"bike_id":"6fed1da4-54b9-4d0a-b8cd-046760adfe0f","system_id":"levelo_inurba_marseille","lat":43.27211,"lon":5.39171,"is_reserved":false,"is_disabled":false,"rental_uris":{"android":"levelo://app?vid=6fed1da4-54b9-4d0a-b8cd-046760adfe0f","ios":"levelo://app?vid=6fed1da4-54b9-4d0a-b8cd-046760adfe0f"},"vehicle_type_id":"4","last_reported":1749805892,"current_range_meters":16000,"station_id":"ce4bhhp2rcd13ifvqfm0","pricing_plan_id":"cebpf4jnsgd1na2vs0mg"},{"bike_id":"e5708a3e-75b1-4cc3-9a1d-a05b35bc1aea","system_id":"levelo_inurba_marseille","lat":43.33712,"lon":5.39189,"is_reserved":false,"is_disabled":false,"rental_uris":{"android":"levelo://app?vid=e5708a3e-75b1-4cc3-9a1d-a05b35bc1aea","ios":"levelo://app?vid=e5708a3e-75b1-4cc3-9a1d-a05b35bc1aea"},"vehicle_type_id":"4","last_reported":1749805892,"current_range_meters":16000,"station_id":"ce4bhr92rcd13ifvqhsg","pricing_plan_id":"cebpf4jnsgd1na2vs0mg"},{"bike_id":"3b2851dc-cdc3-4c74-bb7a-6b50ea5674bc","system_id":"levelo_inurba_marseille","lat":43.30176,"lon":5.38024,"is_reserved":false,"is_disabled":false,"rental_uris":{"android":"levelo://app?vid=3b2851dc-cdc3-4c74-bb7a-6b50ea5674bc","ios":"levelo://app?vid=3b2851dc-cdc3-4c74-bb7a-6b50ea5674bc"},"vehicle_type_id":"4","last_reported":1749805892,"current_range_meters":16400,"station_id":"","pricing_plan_id":"cebpf4jnsgd1na2vs0mg"},{"bike_id":"7835a476-bf82-41b7-87e3-950cf4d733b9","system_id":"levelo_inurba_marseille","lat":43.281,"lon":5.35648,"is_reserved":false,"is_disabled":false,"rental_uris":{"android":"levelo://app?vid=7835a476-bf82-41b7-87e3-950cf4d733b9","ios":"levelo://app?vid=7835a476-bf82-41b7-87e3-950cf4d733b9"},"vehicle_type_id":"4","last_reported":1749805892,"current_range_meters":16400,"station_id":"","pricing_plan_id":"cebpf4jnsgd1na2vs0mg"},{"bike_id":"177f5631-1c1c-45f3-8f60-4d2ef5b162d0","system_id":"levelo_inurba_marseille","lat":43.29584,"lon":5.36737,"is_reserved":false,"is_disabled":false,"rental_uris":{"android":"levelo://app?vid=177f5631-1c1c-45f3-8f60-4d2ef5b162d0","ios":"levelo://app?vid=177f5631-1c1c-45f3-8f60-4d2ef5b162d0"},"vehicle_type_id":"4","last_reported":1749805892,"current_range_meters":16400,"station_id":"ce4bgph2rcd13ifvqc2g","pricing_plan_id":"cebpf4jnsgd1na2vs0mg"},{"bike_id":"a344e1c7-e266-4c65-8ec3-e60cd77aaba4","system_id":"levelo_inurba_marseille","lat":43.30548,"lon":5.36539,"is_reserved":false,"is_disabled":false,"rental_uris":{"android":"levelo://app?vid=a344e1c7-e266-4c65-8ec3-e60cd77aaba4","ios":"levelo://app?vid=a344e1c7-e266-4c65-8ec3-e60cd77aaba4"},"vehicle_type_id":"4","last_reported":1749805892,"current_range_meters":16400,"station_id":"ce4bgs12rcd13ifvqcag","pricing_plan_id":"cebpf4jnsgd1na2vs0mg"},{"bike_id":"614d8bbe-4969-4486-8908-bb01ed1e76d1","system_id":"levelo_inurba_marseille","lat":43.29281,"lon":5.40108,"is_reserved":false,"is_disabled":false,"rental_uris":{"android":"levelo://app?vid=614d8bbe-4969-4486-8908-bb01ed1e76d1","ios":"levelo://app?vid=614d8bbe-4969-4486-8908-bb01ed1e76d1"},"vehicle_type_id":"4","last_reported":1749805892,"current_range_meters":16400,"station_id":"ce4bh312rcd13ifvqdk0","pricing_plan_id":"cebpf4jnsgd1na2vs0mg"},{"bike_id":"caca3031-d7c1-4d5d-9ad0-c67b41e48a83","system_id":"levelo_inurba_marseille","lat":43.25861,"lon":5.39906,"is_reserved":false,"is_disabled":false,"rental_uris":{"android":"levelo://app?vid=caca3031-d7c1-4d5d-9ad0-c67b41e48a83","ios":"levelo://app?vid=caca3031-d7c1-4d5d-9ad0-c67b41e48a83"},"vehicle_type_id":"4","last_reported":1749805892,"current_range_meters":16400,"station_id":"ce4bhl92rcd13ifvqghg","pricing_plan_id":"cebpf4jnsgd1na2vs0mg"},{"bike_id":"d6995d02-c8f2-4938-8ac6-e3f99fb2c4ad","system_id":"levelo_inurba_marseille","lat":43.25122,"lon":5.40313,"is_reserved":false,"is_disabled":false,"rental_uris":{"android":"levelo://app?vid=d6995d02-c8f2-4938-8ac6-e3f99fb2c4ad","ios":"levelo://app?vid=d6995d02-c8f2-4938-8ac6-e3f99fb2c4ad"},"vehicle_type_id":"4","last_reported":1749805892,"current_range_meters":16400,"station_id":"ce4bhlh2rcd13ifvqgig","pricing_plan_id":"cebpf4jnsgd1na2vs0mg"},{"bike_id":"bdc5a330-457d-4912-b76a-c30a160326aa","system_id":"levelo_inurba_marseille","lat":43.24184,"lon":5.39728,"is_reserved":false,"is_disabled":false,"rental_uris":{"android":"levelo://app?vid=bdc5a330-457d-4912-b76a-c30a160326aa","ios":"levelo://app?vid=bdc5a330-457d-4912-b76a-c30a160326aa"},"vehicle_type_id":"4","last_reported":1749805892,"current_range_meters":16400,"station_id":"ce4bhn12rcd13ifvqgpg","pricing_plan_id":"cebpf4jnsgd1na2vs0mg"},{"bike_id":"dc495b0f-7a71-4aa1-a797-079fc6916b9a","system_id":"levelo_inurba_marseille","lat":43.302729,"lon":5.377059,"is_reserved":false,"is_disabled":false,"rental_uris":{"android":"levelo://app?vid=dc495b0f-7a71-4aa1-a797-079fc6916b9a","ios":"levelo://app?vid=dc495b0f-7a71-4aa1-a797-079fc6916b9a"},"vehicle_type_id":"4","last_reported":1749805892,"current_range_meters":16800,"station_id":"ce4bguh2rcd13ifvqcj0","pricing_plan_id":"cebpf4jnsgd1na2vs0mg"},{"bike_id":"b601b45f-6dc5-41ac-9716-35fcc2d4ea0c","system_id":"levelo_inurba_marseille","lat":43.29005,"lon":5.35613,"is_reserved":false,"is_disabled":false,"rental_uris":{"android":"levelo://app?vid=b601b45f-6dc5-41ac-9716-35fcc2d4ea0c","ios":"levelo://app?vid=b601b45f-6dc5-41ac-9716-35fcc2d4ea0c"},"vehicle_type_id":"4","last_reported":1749805892,"current_range_meters":16800,"station_id":"ce4bhb92rcd13ifvqen0","pricing_plan_id":"cebpf4jnsgd1na2vs0mg"},{"bike_id":"4fa3fa05-3b9c-4e1a-9060-09c96ee54ee6","system_id":"levelo_inurba_marseille","lat":43.25585,"lon":5.38241,"is_reserved":false,"is_disabled":false,"rental_uris":{"android":"levelo://app?vid=4fa3fa05-3b9c-4e1a-9060-09c96ee54ee6","ios":"levelo://app?vid=4fa3fa05-3b9c-4e1a-9060-09c96ee54ee6"},"vehicle_type_id":"4","last_reported":1749805892,"current_range_meters":16800,"station_id":"ce4bhih2rcd13ifvqfs0","pricing_plan_id":"cebpf4jnsgd1na2vs0mg"},{"bike_id":"ba0042d0-63d3-4ad7-809b-aef890f577cf","system_id":"levelo_inurba_marseille","lat":43.259402,"lon":5.408978,"is_reserved":false,"is_disabled":false,"rental_uris":{"android":"levelo://app?vid=ba0042d0-63d3-4ad7-809b-aef890f577cf","ios":"levelo://app?vid=ba0042d0-63d3-4ad7-809b-aef890f577cf"},"vehicle_type_id":"4","last_reported":1749805892,"current_range_meters":16800,"station_id":"ce4bhm92rcd13ifvqglg","pricing_plan_id":"cebpf4jnsgd1na2vs0mg"},{"bike_id":"97b36174-3e40-40d3-acab-81a2e12dbada","system_id":"levelo_inurba_marseille","lat":43.2937,"lon":5.37838,"is_reserved":false,"is_disabled":false,"rental_uris":{"android":"levelo://app?vid=97b36174-3e40-40d3-acab-81a2e12dbada","ios":"levelo://app?vid=97b36174-3e40-40d3-acab-81a2e12dbada"},"vehicle_type_id":"4","last_reported":1749805892,"current_range_meters":17200,"station_id":"ce4bgjh2rcd13ifvqbf0","pricing_plan_id":"cebpf4jnsgd1na2vs0mg"},{"bike_id":"b29b4e5d-0a9e-4a83-adba-2ee4af972922","system_id":"levelo_inurba_marseille","lat":43.29531,"lon":5.39045,"is_reserved":false,"is_disabled":false,"rental_uris":{"android":"levelo://app?vid=b29b4e5d-0a9e-4a83-adba-2ee4af972922","ios":"levelo://app?vid=b29b4e5d-0a9e-4a83-adba-2ee4af972922"},"vehicle_type_id":"4","last_reported":1749805892,"current_range_meters":17200,"station_id":"ce4bh3p2rcd13ifvqdp0","pricing_plan_id":"cebpf4jnsgd1na2vs0mg"},{"bike_id":"44626486-c468-47ec-a4db-bf7bc52d397d","system_id":"levelo_inurba_marseille","lat":43.28103,"lon":5.37839,"is_reserved":false,"is_disabled":false,"rental_uris":{"android":"levelo://app?vid=44626486-c468-47ec-a4db-bf7bc52d397d","ios":"levelo://app?vid=44626486-c468-47ec-a4db-bf7bc52d397d"},"vehicle_type_id":"4","last_reported":1749805892,"current_range_meters":17200,"station_id":"ce4bha12rcd13ifvqee0","pricing_plan_id":"cebpf4jnsgd1na2vs0mg"},{"bike_id":"32061525-bea0-4411-b7ed-f0817b132ff9","system_id":"levelo_inurba_marseille","lat":43.26677,"lon":5.38272,"is_reserved":false,"is_disabled":false,"rental_uris":{"android":"levelo://app?vid=32061525-bea0-4411-b7ed-f0817b132ff9","ios":"levelo://app?vid=32061525-bea0-4411-b7ed-f0817b132ff9"},"vehicle_type_id":"4","last_reported":1749805892,"current_range_meters":17200,"station_id":"ce4bhg92rcd13ifvqf90","pricing_plan_id":"cebpf4jnsgd1na2vs0mg"},{"bike_id":"69f4af3c-c96f-406b-b941-50b65d1e21f6","system_id":"levelo_inurba_marseille","lat":43.26213,"lon":5.3743,"is_reserved":false,"is_disabled":false,"rental_uris":{"android":"levelo://app?vid=69f4af3c-c96f-406b-b941-50b65d1e21f6","ios":"levelo://app?vid=69f4af3c-c96f-406b-b941-50b65d1e21f6"},"vehicle_type_id":"4","last_reported":1749805892,"current_range_meters":17200,"station_id":"ce4bhgp2rcd13ifvqfc0","pricing_plan_id":"cebpf4jnsgd1na2vs0mg"},{"bike_id":"6de39c66-0d53-48f9-a331-754a5212609f","system_id":"levelo_inurba_marseille","lat":43.27056,"lon":5.40259,"is_reserved":false,"is_disabled":false,"rental_uris":{"android":"levelo://app?vid=6de39c66-0d53-48f9-a331-754a5212609f","ios":"levelo://app?vid=6de39c66-0d53-48f9-a331-754a5212609f"},"vehicle_type_id":"4","last_reported":1749805892,"current_range_meters":17200,"station_id":"ce4bhk92rcd13ifvqgc0","pricing_plan_id":"cebpf4jnsgd1na2vs0mg"},{"bike_id":"fd9f55f2-dc1a-4d9d-a918-5ae6f2bd5907","system_id":"levelo_inurba_marseille","lat":43.23149,"lon":5.43705,"is_reserved":false,"is_disabled":false,"rental_uris":{"android":"levelo://app?vid=fd9f55f2-dc1a-4d9d-a918-5ae6f2bd5907","ios":"levelo://app?vid=fd9f55f2-dc1a-4d9d-a918-5ae6f2bd5907"},"vehicle_type_id":"4","last_reported":1749805892,"current_range_meters":17200,"station_id":"ce4bhmp2rcd13ifvqgog","pricing_plan_id":"cebpf4jnsgd1na2vs0mg"},{"bike_id":"090e9744-4c4c-46bd-9369-095ed307f547","system_id":"levelo_inurba_marseille","lat":43.27499,"lon":5.42459,"is_reserved":false,"is_disabled":false,"rental_uris":{"android":"levelo://app?vid=090e9744-4c4c-46bd-9369-095ed307f547","ios":"levelo://app?vid=090e9744-4c4c-46bd-9369-095ed307f547"},"vehicle_type_id":"4","last_reported":1749805892,"current_range_meters":17200,"station_id":"ce4bhn92rcd13ifvqgrg","pricing_plan_id":"cebpf4jnsgd1na2vs0mg"},{"bike_id":"370797df-7a54-4279-83d7-5eca14579627","system_id":"levelo_inurba_marseille","lat":43.30369,"lon":5.42485,"is_reserved":false,"is_disabled":false,"rental_uris":{"android":"levelo://app?vid=370797df-7a54-4279-83d7-5eca14579627","ios":"levelo://app?vid=370797df-7a54-4279-83d7-5eca14579627"},"vehicle_type_id":"4","last_reported":1749805892,"current_range_meters":17200,"station_id":"ce4bhoh2rcd13ifvqh6g","pricing_plan_id":"cebpf4jnsgd1na2vs0mg"},{"bike_id":"2ab31527-f915-4286-b3a0-0beafd2cdd50","system_id":"levelo_inurba_marseille","lat":43.29977,"lon":5.37011,"is_reserved":false,"is_disabled":false,"rental_uris":{"android":"levelo://app?vid=2ab31527-f915-4286-b3a0-0beafd2cdd50","ios":"levelo://app?vid=2ab31527-f915-4286-b3a0-0beafd2cdd50"},"vehicle_type_id":"4","last_reported":1749805892,"current_range_meters":17600,"station_id":"","pricing_plan_id":"cebpf4jnsgd1na2vs0mg"},{"bike_id":"82149e16-ef34-4380-9e4d-a8dd0b448c7e","system_id":"levelo_inurba_marseille","lat":43.31226,"lon":5.36871,"is_reserved":false,"is_disabled":false,"rental_uris":{"android":"levelo://app?vid=82149e16-ef34-4380-9e4d-a8dd0b448c7e","ios":"levelo://app?vid=82149e16-ef34-4380-9e4d-a8dd0b448c7e"},"vehicle_type_id":"4","last_reported":1749805892,"current_range_meters":17600,"station_id":"ce4bgl92rcd13ifvqbq0","pricing_plan_id":"cebpf4jnsgd1na2vs0mg"},{"bike_id":"a3d8ed61-ad96-4794-9377-3745ebafc863","system_id":"levelo_inurba_marseille","lat":43.290981,"lon":5.380911,"is_reserved":false,"is_disabled":false,"rental_uris":{"android":"levelo://app?vid=a3d8ed61-ad96-4794-9377-3745ebafc863","ios":"levelo://app?vid=a3d8ed61-ad96-4794-9377-3745ebafc863"},"vehicle_type_id":"4","last_reported":1749805892,"current_range_meters":17600,"station_id":"ce4bh512rcd13ifvqe2g","pricing_plan_id":"cebpf4jnsgd1na2vs0mg"},{"bike_id":"2a580a26-d80d-449e-806f-9387192f9cb0","system_id":"levelo_inurba_marseille","lat":43.27505,"lon":5.42443,"is_reserved":false,"is_disabled":false,"rental_uris":{"android":"levelo://app?vid=2a580a26-d80d-449e-806f-9387192f9cb0","ios":"levelo://app?vid=2a580a26-d80d-449e-806f-9387192f9cb0"},"vehicle_type_id":"4","last_reported":1749805892,"current_range_meters":17600,"station_id":"ce4bhn92rcd13ifvqgrg","pricing_plan_id":"cebpf4jnsgd1na2vs0mg"},{"bike_id":"35d2d225-4975-47e1-82d8-5ff3989080a4","system_id":"levelo_inurba_marseille","lat":43.336,"lon":5.41022,"is_reserved":false,"is_disabled":false,"rental_uris":{"android":"levelo://app?vid=35d2d225-4975-47e1-82d8-5ff3989080a4","ios":"levelo://app?vid=35d2d225-4975-47e1-82d8-5ff3989080a4"},"vehicle_type_id":"4","last_reported":1749805892,"current_range_meters":17600,"station_id":"ce4bhqh2rcd13ifvqhmg","pricing_plan_id":"cebpf4jnsgd1na2vs0mg"},{"bike_id":"f3ec16b2-8afd-4ecb-8d58-15a6a90ff603","system_id":"levelo_inurba_marseille","lat":43.323612,"lon":5.367639,"is_reserved":false,"is_disabled":false,"rental_uris":{"android":"levelo://app?vid=f3ec16b2-8afd-4ecb-8d58-15a6a90ff603","ios":"levelo://app?vid=f3ec16b2-8afd-4ecb-8d58-15a6a90ff603"},"vehicle_type_id":"4","last_reported":1749805892,"current_range_meters":17600,"station_id":"ce4bhsh2rcd13ifvqi2g","pricing_plan_id":"cebpf4jnsgd1na2vs0mg"},{"bike_id":"5f85d7b9-d7c0-46c3-aa28-8b41f1578e6e","system_id":"levelo_inurba_marseille","lat":43.299587,"lon":5.37157,"is_reserved":false,"is_disabled":false,"rental_uris":{"android":"levelo://app?vid=5f85d7b9-d7c0-46c3-aa28-8b41f1578e6e","ios":"levelo://app?vid=5f85d7b9-d7c0-46c3-aa28-8b41f1578e6e"},"vehicle_type_id":"4","last_reported":1749805892,"current_range_meters":18000,"station_id":"ce4bgr92rcd13ifvqc7g","pricing_plan_id":"cebpf4jnsgd1na2vs0mg"},{"bike_id":"8b33f7ed-7ec2-4cdf-a0ba-ff0a1015e0cb","system_id":"levelo_inurba_marseille","lat":43.30462,"lon":5.37921,"is_reserved":false,"is_disabled":false,"rental_uris":{"android":"levelo://app?vid=8b33f7ed-7ec2-4cdf-a0ba-ff0a1015e0cb","ios":"levelo://app?vid=8b33f7ed-7ec2-4cdf-a0ba-ff0a1015e0cb"},"vehicle_type_id":"4","last_reported":1749805892,"current_range_meters":18000,"station_id":"ce4bgup2rcd13ifvqcn0","pricing_plan_id":"cebpf4jnsgd1na2vs0mg"},{"bike_id":"af6eb8df-ddad-43f9-9627-5abe366850b6","system_id":"levelo_inurba_marseille","lat":43.34141,"lon":5.40904,"is_reserved":false,"is_disabled":false,"rental_uris":{"android":"levelo://app?vid=af6eb8df-ddad-43f9-9627-5abe366850b6","ios":"levelo://app?vid=af6eb8df-ddad-43f9-9627-5abe366850b6"},"vehicle_type_id":"4","last_reported":1749805892,"current_range_meters":18000,"station_id":"ce4bhqh2rcd13ifvqhlg","pricing_plan_id":"cebpf4jnsgd1na2vs0mg"},{"bike_id":"033f15e1-5ed0-4098-a7ec-2a49aba179ae","system_id":"levelo_inurba_marseille","lat":43.285,"lon":5.35311,"is_reserved":false,"is_disabled":false,"rental_uris":{"android":"levelo://app?vid=033f15e1-5ed0-4098-a7ec-2a49aba179ae","ios":"levelo://app?vid=033f15e1-5ed0-4098-a7ec-2a49aba179ae"},"vehicle_type_id":"4","last_reported":1749805892,"current_range_meters":18800,"station_id":"","pricing_plan_id":"cebpf4jnsgd1na2vs0mg"},{"bike_id":"7e82008c-2c98-4bc8-856a-e41994b933e7","system_id":"levelo_inurba_marseille","lat":43.30188,"lon":5.36622,"is_reserved":false,"is_disabled":false,"rental_uris":{"android":"levelo://app?vid=7e82008c-2c98-4bc8-856a-e41994b933e7","ios":"levelo://app?vid=7e82008c-2c98-4bc8-856a-e41994b933e7"},"vehicle_type_id":"4","last_reported":1749805892,"current_range_meters":18800,"station_id":"ce4bgrh2rcd13ifvqc8g","pricing_plan_id":"cebpf4jnsgd1na2vs0mg"},{"bike_id":"0ec9defd-0e2a-4009-8545-dad67a44be7c","system_id":"levelo_inurba_marseille","lat":43.30475,"lon":5.37912,"is_reserved":false,"is_disabled":false,"rental_uris":{"android":"levelo://app?vid=0ec9defd-0e2a-4009-8545-dad67a44be7c","ios":"levelo://app?vid=0ec9defd-0e2a-4009-8545-dad67a44be7c"},"vehicle_type_id":"4","last_reported":1749805892,"current_range_meters":18800,"station_id":"ce4bgup2rcd13ifvqcn0","pricing_plan_id":"cebpf4jnsgd1na2vs0mg"},{"bike_id":"b78e7ab2-ce35-4885-8d6a-0160c87e7d67","system_id":"levelo_inurba_marseille","lat":43.30481,"lon":5.37898,"is_reserved":false,"is_disabled":false,"rental_uris":{"android":"levelo://app?vid=b78e7ab2-ce35-4885-8d6a-0160c87e7d67","ios":"levelo://app?vid=b78e7ab2-ce35-4885-8d6a-0160c87e7d67"},"vehicle_type_id":"4","last_reported":1749805892,"current_range_meters":18800,"station_id":"ce4bgup2rcd13ifvqcn0","pricing_plan_id":"cebpf4jnsgd1na2vs0mg"},{"bike_id":"03ef4127-ae6c-42d2-980c-fd7dd585c188","system_id":"levelo_inurba_marseille","lat":43.28273,"lon":5.35061,"is_reserved":false,"is_disabled":false,"rental_uris":{"android":"levelo://app?vid=03ef4127-ae6c-42d2-980c-fd7dd585c188","ios":"levelo://app?vid=03ef4127-ae6c-42d2-980c-fd7dd585c188"},"vehicle_type_id":"4","last_reported":1749805892,"current_range_meters":18800,"station_id":"ce4bhbp2rcd13ifvqerg","pricing_plan_id":"cebpf4jnsgd1na2vs0mg"},{"bike_id":"96f0d17a-50fa-482c-9666-38c428acd9f8","system_id":"levelo_inurba_marseille","lat":43.28275,"lon":5.35073,"is_reserved":false,"is_disabled":false,"rental_uris":{"android":"levelo://app?vid=96f0d17a-50fa-482c-9666-38c428acd9f8","ios":"levelo://app?vid=96f0d17a-50fa-482c-9666-38c428acd9f8"},"vehicle_type_id":"4","last_reported":1749805892,"current_range_meters":18800,"station_id":"ce4bhbp2rcd13ifvqerg","pricing_plan_id":"cebpf4jnsgd1na2vs0mg"},{"bike_id":"f1c160cf-2487-4cad-80b6-5d7679e0d40e","system_id":"levelo_inurba_marseille","lat":43.2594,"lon":5.40901,"is_reserved":false,"is_disabled":false,"rental_uris":{"android":"levelo://app?vid=f1c160cf-2487-4cad-80b6-5d7679e0d40e","ios":"levelo://app?vid=f1c160cf-2487-4cad-80b6-5d7679e0d40e"},"vehicle_type_id":"4","last_reported":1749805892,"current_range_meters":18800,"station_id":"ce4bhm92rcd13ifvqglg","pricing_plan_id":"cebpf4jnsgd1na2vs0mg"},{"bike_id":"89ff0bcf-cb80-46a3-bfe9-45a83cf340e5","system_id":"levelo_inurba_marseille","lat":43.28701,"lon":5.39979,"is_reserved":false,"is_disabled":false,"rental_uris":{"android":"levelo://app?vid=89ff0bcf-cb80-46a3-bfe9-45a83cf340e5","ios":"levelo://app?vid=89ff0bcf-cb80-46a3-bfe9-45a83cf340e5"},"vehicle_type_id":"4","last_reported":1749805892,"current_range_meters":18800,"station_id":"ce4bho92rcd13ifvqh3g","pricing_plan_id":"cebpf4jnsgd1na2vs0mg"},{"bike_id":"32a1e25c-a62f-4fff-9598-8ef34b5419ef","system_id":"levelo_inurba_marseille","lat":43.33748,"lon":5.39181,"is_reserved":false,"is_disabled":false,"rental_uris":{"android":"levelo://app?vid=32a1e25c-a62f-4fff-9598-8ef34b5419ef","ios":"levelo://app?vid=32a1e25c-a62f-4fff-9598-8ef34b5419ef"},"vehicle_type_id":"4","last_reported":1749805892,"current_range_meters":18800,"station_id":"ce4bhr92rcd13ifvqhsg","pricing_plan_id":"cebpf4jnsgd1na2vs0mg"},{"bike_id":"b958404b-f187-4a0f-a0b3-985c06d0f694","system_id":"levelo_inurba_marseille","lat":43.30137,"lon":5.38783,"is_reserved":false,"is_disabled":false,"rental_uris":{"android":"levelo://app?vid=b958404b-f187-4a0f-a0b3-985c06d0f694","ios":"levelo://app?vid=b958404b-f187-4a0f-a0b3-985c06d0f694"},"vehicle_type_id":"4","last_reported":1749805892,"current_range_meters":19200,"station_id":"ce4bghh2rcd13ifvqb60","pricing_plan_id":"cebpf4jnsgd1na2vs0mg"},{"bike_id":"33008d1f-82fc-46d7-bc22-7402cd98b5ac","system_id":"levelo_inurba_marseille","lat":43.292661,"lon":5.376428,"is_reserved":false,"is_disabled":false,"rental_uris":{"android":"levelo://app?vid=33008d1f-82fc-46d7-bc22-7402cd98b5ac","ios":"levelo://app?vid=33008d1f-82fc-46d7-bc22-7402cd98b5ac"},"vehicle_type_id":"4","last_reported":1749805892,"current_range_meters":19200,"station_id":"ce4bgi12rcd13ifvqb80","pricing_plan_id":"cebpf4jnsgd1na2vs0mg"},{"bike_id":"db4b43d2-2d11-4c47-83cd-2a38575cb3f3","system_id":"levelo_inurba_marseille","lat":43.30907,"lon":5.36842,"is_reserved":false,"is_disabled":false,"rental_uris":{"android":"levelo://app?vid=db4b43d2-2d11-4c47-83cd-2a38575cb3f3","ios":"levelo://app?vid=db4b43d2-2d11-4c47-83cd-2a38575cb3f3"},"vehicle_type_id":"4","last_reported":1749805892,"current_range_meters":19200,"station_id":"ce4bgn92rcd13ifvqbvg","pricing_plan_id":"cebpf4jnsgd1na2vs0mg"},{"bike_id":"df60d3c8-3dab-4f09-89b3-85a6660ead58","system_id":"levelo_inurba_marseille","lat":43.30952,"lon":5.39052,"is_reserved":false,"is_disabled":false,"rental_uris":{"android":"levelo://app?vid=df60d3c8-3dab-4f09-89b3-85a6660ead58","ios":"levelo://app?vid=df60d3c8-3dab-4f09-89b3-85a6660ead58"},"vehicle_type_id":"4","last_reported":1749805892,"current_range_meters":19200,"station_id":"ce4bgup2rcd13ifvqco0","pricing_plan_id":"cebpf4jnsgd1na2vs0mg"},{"bike_id":"d4d2bf59-64b4-4b2c-b840-64c4f617791f","system_id":"levelo_inurba_marseille","lat":43.27373,"lon":5.36257,"is_reserved":false,"is_disabled":false,"rental_uris":{"android":"levelo://app?vid=d4d2bf59-64b4-4b2c-b840-64c4f617791f","ios":"levelo://app?vid=d4d2bf59-64b4-4b2c-b840-64c4f617791f"},"vehicle_type_id":"4","last_reported":1749805892,"current_range_meters":19200,"station_id":"ce4bhbh2rcd13ifvqeo0","pricing_plan_id":"cebpf4jnsgd1na2vs0mg"},{"bike_id":"ee963629-a777-491b-9390-844a1001bffb","system_id":"levelo_inurba_marseille","lat":43.27836,"lon":5.3921,"is_reserved":false,"is_disabled":false,"rental_uris":{"android":"levelo://app?vid=ee963629-a777-491b-9390-844a1001bffb","ios":"levelo://app?vid=ee963629-a777-491b-9390-844a1001bffb"},"vehicle_type_id":"4","last_reported":1749805892,"current_range_meters":19200,"station_id":"ce4bhjp2rcd13ifvqga0","pricing_plan_id":"cebpf4jnsgd1na2vs0mg"},{"bike_id":"1ba114cf-0bfe-4baf-b5b3-06d7533c55dd","system_id":"levelo_inurba_marseille","lat":43.25868,"lon":5.39895,"is_reserved":false,"is_disabled":false,"rental_uris":{"android":"levelo://app?vid=1ba114cf-0bfe-4baf-b5b3-06d7533c55dd","ios":"levelo://app?vid=1ba114cf-0bfe-4baf-b5b3-06d7533c55dd"},"vehicle_type_id":"4","last_reported":1749805892,"current_range_meters":19200,"station_id":"ce4bhl92rcd13ifvqghg","pricing_plan_id":"cebpf4jnsgd1na2vs0mg"},{"bike_id":"c3c5e2ae-f869-49fd-9524-cf505693e6b5","system_id":"levelo_inurba_marseille","lat":43.27501,"lon":5.42437,"is_reserved":false,"is_disabled":false,"rental_uris":{"android":"levelo://app?vid=c3c5e2ae-f869-49fd-9524-cf505693e6b5","ios":"levelo://app?vid=c3c5e2ae-f869-49fd-9524-cf505693e6b5"},"vehicle_type_id":"4","last_reported":1749805892,"current_range_meters":19200,"station_id":"ce4bhn92rcd13ifvqgrg","pricing_plan_id":"cebpf4jnsgd1na2vs0mg"},{"bike_id":"db339d6c-c02f-41cd-ad1d-59c4416a051a","system_id":"levelo_inurba_marseille","lat":43.28155,"lon":5.42642,"is_reserved":false,"is_disabled":false,"rental_uris":{"android":"levelo://app?vid=db339d6c-c02f-41cd-ad1d-59c4416a051a","ios":"levelo://app?vid=db339d6c-c02f-41cd-ad1d-59c4416a051a"},"vehicle_type_id":"4","last_reported":1749805892,"current_range_meters":19200,"station_id":"ce4bhnh2rcd13ifvqgug","pricing_plan_id":"cebpf4jnsgd1na2vs0mg"},{"bike_id":"d0e0617d-5016-40ba-b4c5-1a83d3add731","system_id":"levelo_inurba_marseille","lat":43.32358,"lon":5.36761,"is_reserved":false,"is_disabled":false,"rental_uris":{"android":"levelo://app?vid=d0e0617d-5016-40ba-b4c5-1a83d3add731","ios":"levelo://app?vid=d0e0617d-5016-40ba-b4c5-1a83d3add731"},"vehicle_type_id":"4","last_reported":1749805892,"current_range_meters":19200,"station_id":"ce4bhsh2rcd13ifvqi2g","pricing_plan_id":"cebpf4jnsgd1na2vs0mg"},{"bike_id":"ccb9975b-34a8-47da-b755-e17344ae18d3","system_id":"levelo_inurba_marseille","lat":43.23183,"lon":5.35551,"is_reserved":false,"is_disabled":false,"rental_uris":{"android":"levelo://app?vid=ccb9975b-34a8-47da-b755-e17344ae18d3","ios":"levelo://app?vid=ccb9975b-34a8-47da-b755-e17344ae18d3"},"vehicle_type_id":"4","last_reported":1749805892,"current_range_meters":19200,"station_id":"ce4bhu92rcd13ifvqi70","pricing_plan_id":"cebpf4jnsgd1na2vs0mg"},{"bike_id":"67759013-5fbf-4a63-a4e4-0058f4ee81dd","system_id":"levelo_inurba_marseille","lat":43.29942,"lon":5.36555,"is_reserved":false,"is_disabled":false,"rental_uris":{"android":"levelo://app?vid=67759013-5fbf-4a63-a4e4-0058f4ee81dd","ios":"levelo://app?vid=67759013-5fbf-4a63-a4e4-0058f4ee81dd"},"vehicle_type_id":"4","last_reported":1749805892,"current_range_meters":19600,"station_id":"ce4bgm92rcd13ifvqbr0","pricing_plan_id":"cebpf4jnsgd1na2vs0mg"},{"bike_id":"2dfd9119-cb0a-4111-9b9e-f4df4c3e91ef","system_id":"levelo_inurba_marseille","lat":43.29586,"lon":5.36742,"is_reserved":false,"is_disabled":false,"rental_uris":{"android":"levelo://app?vid=2dfd9119-cb0a-4111-9b9e-f4df4c3e91ef","ios":"levelo://app?vid=2dfd9119-cb0a-4111-9b9e-f4df4c3e91ef"},"vehicle_type_id":"4","last_reported":1749805892,"current_range_meters":19600,"station_id":"ce4bgph2rcd13ifvqc2g","pricing_plan_id":"cebpf4jnsgd1na2vs0mg"},{"bike_id":"e3c38020-98a7-4a69-8cb4-4e5939b2dc03","system_id":"levelo_inurba_marseille","lat":43.30148,"lon":5.37418,"is_reserved":false,"is_disabled":false,"rental_uris":{"android":"levelo://app?vid=e3c38020-98a7-4a69-8cb4-4e5939b2dc03","ios":"levelo://app?vid=e3c38020-98a7-4a69-8cb4-4e5939b2dc03"},"vehicle_type_id":"4","last_reported":1749805892,"current_range_meters":19600,"station_id":"ce4bgs92rcd13ifvqcc0","pricing_plan_id":"cebpf4jnsgd1na2vs0mg"},{"bike_id":"cb6fde58-267b-4acf-95e6-99425e18e595","system_id":"levelo_inurba_marseille","lat":43.25923,"lon":5.40911,"is_reserved":false,"is_disabled":false,"rental_uris":{"android":"levelo://app?vid=cb6fde58-267b-4acf-95e6-99425e18e595","ios":"levelo://app?vid=cb6fde58-267b-4acf-95e6-99425e18e595"},"vehicle_type_id":"4","last_reported":1749805892,"current_range_meters":19600,"station_id":"ce4bhm92rcd13ifvqglg","pricing_plan_id":"cebpf4jnsgd1na2vs0mg"},{"bike_id":"d85fab4b-5d5f-4080-ac16-2f467d0a6db6","system_id":"levelo_inurba_marseille","lat":43.27497,"lon":5.42446,"is_reserved":false,"is_disabled":false,"rental_uris":{"android":"levelo://app?vid=d85fab4b-5d5f-4080-ac16-2f467d0a6db6","ios":"levelo://app?vid=d85fab4b-5d5f-4080-ac16-2f467d0a6db6"},"vehicle_type_id":"4","last_reported":1749805892,"current_range_meters":19600,"station_id":"ce4bhn92rcd13ifvqgrg","pricing_plan_id":"cebpf4jnsgd1na2vs0mg"},{"bike_id":"ab397cef-f29c-445d-ac29-b4089dce55fc","system_id":"levelo_inurba_marseille","lat":43.299403,"lon":5.386543,"is_reserved":false,"is_disabled":false,"rental_uris":{"android":"levelo://app?vid=ab397cef-f29c-445d-ac29-b4089dce55fc","ios":"levelo://app?vid=ab397cef-f29c-445d-ac29-b4089dce55fc"},"vehicle_type_id":"4","last_reported":1749805892,"current_range_meters":20000,"station_id":"","pricing_plan_id":"cebpf4jnsgd1na2vs0mg"},{"bike_id":"54a5cf50-7aaf-4484-87d0-a3c2302cecd6","system_id":"levelo_inurba_marseille","lat":43.30923,"lon":5.36855,"is_reserved":false,"is_disabled":false,"rental_uris":{"android":"levelo://app?vid=54a5cf50-7aaf-4484-87d0-a3c2302cecd6","ios":"levelo://app?vid=54a5cf50-7aaf-4484-87d0-a3c2302cecd6"},"vehicle_type_id":"4","last_reported":1749805892,"current_range_meters":20000,"station_id":"ce4bgn92rcd13ifvqbvg","pricing_plan_id":"cebpf4jnsgd1na2vs0mg"},{"bike_id":"89511dfc-7d62-45cd-a94a-940e5444bd92","system_id":"levelo_inurba_marseille","lat":43.31366,"lon":5.36687,"is_reserved":false,"is_disabled":false,"rental_uris":{"android":"levelo://app?vid=89511dfc-7d62-45cd-a94a-940e5444bd92","ios":"levelo://app?vid=89511dfc-7d62-45cd-a94a-940e5444bd92"},"vehicle_type_id":"4","last_reported":1749805892,"current_range_meters":20000,"station_id":"ce4bgr92rcd13ifvqc6g","pricing_plan_id":"cebpf4jnsgd1na2vs0mg"},{"bike_id":"558cd456-1017-4899-a5e0-10f264e95a8c","system_id":"levelo_inurba_marseille","lat":43.32219,"lon":5.38099,"is_reserved":false,"is_disabled":false,"rental_uris":{"android":"levelo://app?vid=558cd456-1017-4899-a5e0-10f264e95a8c","ios":"levelo://app?vid=558cd456-1017-4899-a5e0-10f264e95a8c"},"vehicle_type_id":"4","last_reported":1749805892,"current_range_meters":20400,"station_id":"","pricing_plan_id":"cebpf4jnsgd1na2vs0mg"},{"bike_id":"21e26669-9470-46cb-b07f-ce1b700183c9","system_id":"levelo_inurba_marseille","lat":43.30422,"lon":5.38894,"is_reserved":false,"is_disabled":false,"rental_uris":{"android":"levelo://app?vid=21e26669-9470-46cb-b07f-ce1b700183c9","ios":"levelo://app?vid=21e26669-9470-46cb-b07f-ce1b700183c9"},"vehicle_type_id":"4","last_reported":1749805892,"current_range_meters":20400,"station_id":"ce4bgk12rcd13ifvqbi0","pricing_plan_id":"cebpf4jnsgd1na2vs0mg"},{"bike_id":"a419b8ff-7300-4eb4-b9e4-286faaf8c8fd","system_id":"levelo_inurba_marseille","lat":43.30544,"lon":5.36687,"is_reserved":false,"is_disabled":false,"rental_uris":{"android":"levelo://app?vid=a419b8ff-7300-4eb4-b9e4-286faaf8c8fd","ios":"levelo://app?vid=a419b8ff-7300-4eb4-b9e4-286faaf8c8fd"},"vehicle_type_id":"4","last_reported":1749805892,"current_range_meters":20400,"station_id":"ce4bgrp2rcd13ifvqc9g","pricing_plan_id":"cebpf4jnsgd1na2vs0mg"},{"bike_id":"fbe1d875-c023-4ad2-bd94-b5b806f33e2a","system_id":"levelo_inurba_marseille","lat":43.31767,"lon":5.3901,"is_reserved":false,"is_disabled":false,"rental_uris":{"android":"levelo://app?vid=fbe1d875-c023-4ad2-bd94-b5b806f33e2a","ios":"levelo://app?vid=fbe1d875-c023-4ad2-bd94-b5b806f33e2a"},"vehicle_type_id":"4","last_reported":1749805892,"current_range_meters":20400,"station_id":"ce4bhqp2rcd13ifvqhng","pricing_plan_id":"cebpf4jnsgd1na2vs0mg"},{"bike_id":"e60ef4d0-232f-4441-9d4f-db494b5704d2","system_id":"levelo_inurba_marseille","lat":43.292689,"lon":5.37633,"is_reserved":false,"is_disabled":false,"rental_uris":{"android":"levelo://app?vid=e60ef4d0-232f-4441-9d4f-db494b5704d2","ios":"levelo://app?vid=e60ef4d0-232f-4441-9d4f-db494b5704d2"},"vehicle_type_id":"4","last_reported":1749805892,"current_range_meters":20800,"station_id":"ce4bgi12rcd13ifvqb80","pricing_plan_id":"cebpf4jnsgd1na2vs0mg"},{"bike_id":"32f73c34-fa18-4a01-b1f0-835e9d5cf1e0","system_id":"levelo_inurba_marseille","lat":43.30144,"lon":5.38082,"is_reserved":false,"is_disabled":false,"rental_uris":{"android":"levelo://app?vid=32f73c34-fa18-4a01-b1f0-835e9d5cf1e0","ios":"levelo://app?vid=32f73c34-fa18-4a01-b1f0-835e9d5cf1e0"},"vehicle_type_id":"4","last_reported":1749805892,"current_range_meters":20800,"station_id":"ce4bgjp2rcd13ifvqbh0","pricing_plan_id":"cebpf4jnsgd1na2vs0mg"},{"bike_id":"3b59c8fc-8268-43ee-be59-3852c8650b42","system_id":"levelo_inurba_marseille","lat":43.29443,"lon":5.39743,"is_reserved":false,"is_disabled":false,"rental_uris":{"android":"levelo://app?vid=3b59c8fc-8268-43ee-be59-3852c8650b42","ios":"levelo://app?vid=3b59c8fc-8268-43ee-be59-3852c8650b42"},"vehicle_type_id":"4","last_reported":1749805892,"current_range_meters":20800,"station_id":"ce4bh3h2rcd13ifvqdo0","pricing_plan_id":"cebpf4jnsgd1na2vs0mg"},{"bike_id":"9b331992-ff3f-40d3-ac5a-fab8909673b7","system_id":"levelo_inurba_marseille","lat":43.267752,"lon":5.39406,"is_reserved":false,"is_disabled":false,"rental_uris":{"android":"levelo://app?vid=9b331992-ff3f-40d3-ac5a-fab8909673b7","ios":"levelo://app?vid=9b331992-ff3f-40d3-ac5a-fab8909673b7"},"vehicle_type_id":"4","last_reported":1749805892,"current_range_meters":20800,"station_id":"ce4bhh12rcd13ifvqfg0","pricing_plan_id":"cebpf4jnsgd1na2vs0mg"},{"bike_id":"b35d1f8f-1c2e-4129-81c1-4e7af758d967","system_id":"levelo_inurba_marseille","lat":43.2418,"lon":5.39729,"is_reserved":false,"is_disabled":false,"rental_uris":{"android":"levelo://app?vid=b35d1f8f-1c2e-4129-81c1-4e7af758d967","ios":"levelo://app?vid=b35d1f8f-1c2e-4129-81c1-4e7af758d967"},"vehicle_type_id":"4","last_reported":1749805892,"current_range_meters":20800,"station_id":"ce4bhn12rcd13ifvqgpg","pricing_plan_id":"cebpf4jnsgd1na2vs0mg"},{"bike_id":"679d881d-2dfe-4ec2-babb-8b09d0832382","system_id":"levelo_inurba_marseille","lat":43.32774,"lon":5.39146,"is_reserved":false,"is_disabled":false,"rental_uris":{"android":"levelo://app?vid=679d881d-2dfe-4ec2-babb-8b09d0832382","ios":"levelo://app?vid=679d881d-2dfe-4ec2-babb-8b09d0832382"},"vehicle_type_id":"4","last_reported":1749805892,"current_range_meters":21600,"station_id":"","pricing_plan_id":"cebpf4jnsgd1na2vs0mg"},{"bike_id":"e7347b52-f4e9-46e3-aa1e-98ce52db04c6","system_id":"levelo_inurba_marseille","lat":43.29619,"lon":5.37724,"is_reserved":false,"is_disabled":false,"rental_uris":{"android":"levelo://app?vid=e7347b52-f4e9-46e3-aa1e-98ce52db04c6","ios":"levelo://app?vid=e7347b52-f4e9-46e3-aa1e-98ce52db04c6"},"vehicle_type_id":"4","last_reported":1749805892,"current_range_meters":21600,"station_id":"ce4bgi92rcd13ifvqb90","pricing_plan_id":"cebpf4jnsgd1na2vs0mg"},{"bike_id":"2ff0307b-dccf-4255-8a96-f5d9a3771077","system_id":"levelo_inurba_marseille","lat":43.29704,"lon":5.366,"is_reserved":false,"is_disabled":false,"rental_uris":{"android":"levelo://app?vid=2ff0307b-dccf-4255-8a96-f5d9a3771077","ios":"levelo://app?vid=2ff0307b-dccf-4255-8a96-f5d9a3771077"},"vehicle_type_id":"4","last_reported":1749805892,"current_range_meters":21600,"station_id":"ce4bgn12rcd13ifvqbt0","pricing_plan_id":"cebpf4jnsgd1na2vs0mg"},{"bike_id":"442222a9-43d4-4779-aa38-71617039870d","system_id":"levelo_inurba_marseille","lat":43.26804,"lon":5.40269,"is_reserved":false,"is_disabled":false,"rental_uris":{"android":"levelo://app?vid=442222a9-43d4-4779-aa38-71617039870d","ios":"levelo://app?vid=442222a9-43d4-4779-aa38-71617039870d"},"vehicle_type_id":"4","last_reported":1749805892,"current_range_meters":21600,"station_id":"ce501612rcd8frsf0b60","pricing_plan_id":"cebpf4jnsgd1na2vs0mg"},{"bike_id":"7240a984-bb6d-4c3b-ab8d-aef55ac0bce8","system_id":"levelo_inurba_marseille","lat":43.21191,"lon":5.35069,"is_reserved":false,"is_disabled":false,"rental_uris":{"android":"levelo://app?vid=7240a984-bb6d-4c3b-ab8d-aef55ac0bce8","ios":"levelo://app?vid=7240a984-bb6d-4c3b-ab8d-aef55ac0bce8"},"vehicle_type_id":"4","last_reported":1749805892,"current_range_meters":21600,"station_id":"st_cvj6sg6p6f1abm77japg","pricing_plan_id":"cebpf4jnsgd1na2vs0mg"},{"bike_id":"c82f75f2-635c-40da-9f67-77d82cb74c97","system_id":"levelo_inurba_marseille","lat":43.21183,"lon":5.35064,"is_reserved":false,"is_disabled":false,"rental_uris":{"android":"levelo://app?vid=c82f75f2-635c-40da-9f67-77d82cb74c97","ios":"levelo://app?vid=c82f75f2-635c-40da-9f67-77d82cb74c97"},"vehicle_type_id":"4","last_reported":1749805892,"current_range_meters":21600,"station_id":"st_cvj6sg6p6f1abm77japg","pricing_plan_id":"cebpf4jnsgd1na2vs0mg"},{"bike_id":"9657cbc6-92a6-46eb-8524-a1202c5063b8","system_id":"levelo_inurba_marseille","lat":43.28568,"lon":5.39493,"is_reserved":false,"is_disabled":false,"rental_uris":{"android":"levelo://app?vid=9657cbc6-92a6-46eb-8524-a1202c5063b8","ios":"levelo://app?vid=9657cbc6-92a6-46eb-8524-a1202c5063b8"},"vehicle_type_id":"4","last_reported":1749805892,"current_range_meters":22000,"station_id":"ce4bh292rcd13ifvqdg0","pricing_plan_id":"cebpf4jnsgd1na2vs0mg"},{"bike_id":"64b990fa-86d1-4cbe-9c7c-7d49193d6452","system_id":"levelo_inurba_marseille","lat":43.26673,"lon":5.38272,"is_reserved":false,"is_disabled":false,"rental_uris":{"android":"levelo://app?vid=64b990fa-86d1-4cbe-9c7c-7d49193d6452","ios":"levelo://app?vid=64b990fa-86d1-4cbe-9c7c-7d49193d6452"},"vehicle_type_id":"4","last_reported":1749805892,"current_range_meters":22000,"station_id":"ce4bhg92rcd13ifvqf90","pricing_plan_id":"cebpf4jnsgd1na2vs0mg"},{"bike_id":"f2c9af96-1c1f-4ce9-b7e8-1282fcb6fec2","system_id":"levelo_inurba_marseille","lat":43.24388,"lon":5.41141,"is_reserved":false,"is_disabled":false,"rental_uris":{"android":"levelo://app?vid=f2c9af96-1c1f-4ce9-b7e8-1282fcb6fec2","ios":"levelo://app?vid=f2c9af96-1c1f-4ce9-b7e8-1282fcb6fec2"},"vehicle_type_id":"4","last_reported":1749805892,"current_range_meters":22400,"station_id":"","pricing_plan_id":"cebpf4jnsgd1na2vs0mg"},{"bike_id":"5cde8349-6ec3-4886-88b7-be6262c0cbd4","system_id":"levelo_inurba_marseille","lat":43.31419,"lon":5.36737,"is_reserved":false,"is_disabled":false,"rental_uris":{"android":"levelo://app?vid=5cde8349-6ec3-4886-88b7-be6262c0cbd4","ios":"levelo://app?vid=5cde8349-6ec3-4886-88b7-be6262c0cbd4"},"vehicle_type_id":"4","last_reported":1749805892,"current_range_meters":22400,"station_id":"","pricing_plan_id":"cebpf4jnsgd1na2vs0mg"},{"bike_id":"5e997148-1316-4828-bfdb-1f664d9e53fb","system_id":"levelo_inurba_marseille","lat":43.29709,"lon":5.37695,"is_reserved":false,"is_disabled":false,"rental_uris":{"android":"levelo://app?vid=5e997148-1316-4828-bfdb-1f664d9e53fb","ios":"levelo://app?vid=5e997148-1316-4828-bfdb-1f664d9e53fb"},"vehicle_type_id":"4","last_reported":1749805892,"current_range_meters":22400,"station_id":"ce4bgkh2rcd13ifvqbl0","pricing_plan_id":"cebpf4jnsgd1na2vs0mg"},{"bike_id":"d89e1ef5-5a3a-49ae-9ba0-d1e8abf73749","system_id":"levelo_inurba_marseille","lat":43.29851,"lon":5.36285,"is_reserved":false,"is_disabled":false,"rental_uris":{"android":"levelo://app?vid=d89e1ef5-5a3a-49ae-9ba0-d1e8abf73749","ios":"levelo://app?vid=d89e1ef5-5a3a-49ae-9ba0-d1e8abf73749"},"vehicle_type_id":"4","last_reported":1749805892,"current_range_meters":22400,"station_id":"ce4bgpp2rcd13ifvqc3g","pricing_plan_id":"cebpf4jnsgd1na2vs0mg"},{"bike_id":"20f95c71-b040-48ef-8179-2a842e4db563","system_id":"levelo_inurba_marseille","lat":43.30539,"lon":5.36705,"is_reserved":false,"is_disabled":false,"rental_uris":{"android":"levelo://app?vid=20f95c71-b040-48ef-8179-2a842e4db563","ios":"levelo://app?vid=20f95c71-b040-48ef-8179-2a842e4db563"},"vehicle_type_id":"4","last_reported":1749805892,"current_range_meters":22400,"station_id":"ce4bgrp2rcd13ifvqc9g","pricing_plan_id":"cebpf4jnsgd1na2vs0mg"},{"bike_id":"00167165-4fc7-4470-b198-ce35681182e3","system_id":"levelo_inurba_marseille","lat":43.30543,"lon":5.36718,"is_reserved":false,"is_disabled":false,"rental_uris":{"android":"levelo://app?vid=00167165-4fc7-4470-b198-ce35681182e3","ios":"levelo://app?vid=00167165-4fc7-4470-b198-ce35681182e3"},"vehicle_type_id":"4","last_reported":1749805892,"current_range_meters":22400,"station_id":"ce4bgrp2rcd13ifvqc9g","pricing_plan_id":"cebpf4jnsgd1na2vs0mg"},{"bike_id":"6dffafd5-1a4c-4101-bc3f-c64cd1754739","system_id":"levelo_inurba_marseille","lat":43.29549,"lon":5.42276,"is_reserved":false,"is_disabled":false,"rental_uris":{"android":"levelo://app?vid=6dffafd5-1a4c-4101-bc3f-c64cd1754739","ios":"levelo://app?vid=6dffafd5-1a4c-4101-bc3f-c64cd1754739"},"vehicle_type_id":"4","last_reported":1749805892,"current_range_meters":22400,"station_id":"ce4bhph2rcd13ifvqhdg","pricing_plan_id":"cebpf4jnsgd1na2vs0mg"},{"bike_id":"d81ebef1-def3-4b3b-8a2c-e915262efa10","system_id":"levelo_inurba_marseille","lat":43.3288,"lon":5.39173,"is_reserved":false,"is_disabled":false,"rental_uris":{"android":"levelo://app?vid=d81ebef1-def3-4b3b-8a2c-e915262efa10","ios":"levelo://app?vid=d81ebef1-def3-4b3b-8a2c-e915262efa10"},"vehicle_type_id":"4","last_reported":1749805892,"current_range_meters":22800,"station_id":"","pricing_plan_id":"cebpf4jnsgd1na2vs0mg"},{"bike_id":"e77a2ea7-4d86-4638-ab56-477e5ae1b2f7","system_id":"levelo_inurba_marseille","lat":43.29529,"lon":5.37489,"is_reserved":false,"is_disabled":false,"rental_uris":{"android":"levelo://app?vid=e77a2ea7-4d86-4638-ab56-477e5ae1b2f7","ios":"levelo://app?vid=e77a2ea7-4d86-4638-ab56-477e5ae1b2f7"},"vehicle_type_id":"4","last_reported":1749805892,"current_range_meters":22800,"station_id":"ce4bgkp2rcd13ifvqbmg","pricing_plan_id":"cebpf4jnsgd1na2vs0mg"},{"bike_id":"ef19c5b7-517b-4e5e-9c3b-2ee5106f0ba7","system_id":"levelo_inurba_marseille","lat":43.31225,"lon":5.36857,"is_reserved":false,"is_disabled":false,"rental_uris":{"android":"levelo://app?vid=ef19c5b7-517b-4e5e-9c3b-2ee5106f0ba7","ios":"levelo://app?vid=ef19c5b7-517b-4e5e-9c3b-2ee5106f0ba7"},"vehicle_type_id":"4","last_reported":1749805892,"current_range_meters":22800,"station_id":"ce4bgl92rcd13ifvqbq0","pricing_plan_id":"cebpf4jnsgd1na2vs0mg"},{"bike_id":"b80ffbe8-7f2c-4ee7-81f0-0d376e26981a","system_id":"levelo_inurba_marseille","lat":43.30563,"lon":5.36532,"is_reserved":false,"is_disabled":false,"rental_uris":{"android":"levelo://app?vid=b80ffbe8-7f2c-4ee7-81f0-0d376e26981a","ios":"levelo://app?vid=b80ffbe8-7f2c-4ee7-81f0-0d376e26981a"},"vehicle_type_id":"4","last_reported":1749805892,"current_range_meters":22800,"station_id":"ce4bgs12rcd13ifvqcag","pricing_plan_id":"cebpf4jnsgd1na2vs0mg"},{"bike_id":"0aee95d5-474d-444c-9d31-3f5785730b82","system_id":"levelo_inurba_marseille","lat":43.30959,"lon":5.39043,"is_reserved":false,"is_disabled":false,"rental_uris":{"android":"levelo://app?vid=0aee95d5-474d-444c-9d31-3f5785730b82","ios":"levelo://app?vid=0aee95d5-474d-444c-9d31-3f5785730b82"},"vehicle_type_id":"4","last_reported":1749805892,"current_range_meters":22800,"station_id":"ce4bgup2rcd13ifvqco0","pricing_plan_id":"cebpf4jnsgd1na2vs0mg"},{"bike_id":"63c7b2fc-a38f-4bfd-b144-b33b75d1f9f5","system_id":"levelo_inurba_marseille","lat":43.2582,"lon":5.39427,"is_reserved":false,"is_disabled":false,"rental_uris":{"android":"levelo://app?vid=63c7b2fc-a38f-4bfd-b144-b33b75d1f9f5","ios":"levelo://app?vid=63c7b2fc-a38f-4bfd-b144-b33b75d1f9f5"},"vehicle_type_id":"4","last_reported":1749805892,"current_range_meters":22800,"station_id":"ce4bhip2rcd13ifvqft0","pricing_plan_id":"cebpf4jnsgd1na2vs0mg"},{"bike_id":"7de09d50-88e3-4b1f-ae3e-c16cc2933e4e","system_id":"levelo_inurba_marseille","lat":43.25932,"lon":5.40911,"is_reserved":false,"is_disabled":false,"rental_uris":{"android":"levelo://app?vid=7de09d50-88e3-4b1f-ae3e-c16cc2933e4e","ios":"levelo://app?vid=7de09d50-88e3-4b1f-ae3e-c16cc2933e4e"},"vehicle_type_id":"4","last_reported":1749805892,"current_range_meters":22800,"station_id":"ce4bhm92rcd13ifvqglg","pricing_plan_id":"cebpf4jnsgd1na2vs0mg"},{"bike_id":"6bd7a3c8-df0a-4e89-a583-8ab3fbc4abdd","system_id":"levelo_inurba_marseille","lat":43.25916,"lon":5.40888,"is_reserved":false,"is_disabled":false,"rental_uris":{"android":"levelo://app?vid=6bd7a3c8-df0a-4e89-a583-8ab3fbc4abdd","ios":"levelo://app?vid=6bd7a3c8-df0a-4e89-a583-8ab3fbc4abdd"},"vehicle_type_id":"4","last_reported":1749805892,"current_range_meters":22800,"station_id":"ce4bhm92rcd13ifvqglg","pricing_plan_id":"cebpf4jnsgd1na2vs0mg"},{"bike_id":"9d6df7e9-6983-46d5-9b19-0bff453842f3","system_id":"levelo_inurba_marseille","lat":43.23142,"lon":5.43717,"is_reserved":false,"is_disabled":false,"rental_uris":{"android":"levelo://app?vid=9d6df7e9-6983-46d5-9b19-0bff453842f3","ios":"levelo://app?vid=9d6df7e9-6983-46d5-9b19-0bff453842f3"},"vehicle_type_id":"4","last_reported":1749805892,"current_range_meters":22800,"station_id":"ce4bhmp2rcd13ifvqgog","pricing_plan_id":"cebpf4jnsgd1na2vs0mg"},{"bike_id":"01da230a-3793-4a05-8f9b-c78e608bb483","system_id":"levelo_inurba_marseille","lat":43.24189,"lon":5.39714,"is_reserved":false,"is_disabled":false,"rental_uris":{"android":"levelo://app?vid=01da230a-3793-4a05-8f9b-c78e608bb483","ios":"levelo://app?vid=01da230a-3793-4a05-8f9b-c78e608bb483"},"vehicle_type_id":"4","last_reported":1749805892,"current_range_meters":22800,"station_id":"ce4bhn12rcd13ifvqgpg","pricing_plan_id":"cebpf4jnsgd1na2vs0mg"},{"bike_id":"c1b08b61-b8cf-4dca-afd4-54005dd03698","system_id":"levelo_inurba_marseille","lat":43.29893,"lon":5.43673,"is_reserved":false,"is_disabled":false,"rental_uris":{"android":"levelo://app?vid=c1b08b61-b8cf-4dca-afd4-54005dd03698","ios":"levelo://app?vid=c1b08b61-b8cf-4dca-afd4-54005dd03698"},"vehicle_type_id":"4","last_reported":1749805892,"current_range_meters":22800,"station_id":"ce4bhpp2rcd13ifvqhfg","pricing_plan_id":"cebpf4jnsgd1na2vs0mg"},{"bike_id":"57da9616-2dc1-40f2-b27d-a68fbadb7cd5","system_id":"levelo_inurba_marseille","lat":43.33603,"lon":5.41012,"is_reserved":false,"is_disabled":false,"rental_uris":{"android":"levelo://app?vid=57da9616-2dc1-40f2-b27d-a68fbadb7cd5","ios":"levelo://app?vid=57da9616-2dc1-40f2-b27d-a68fbadb7cd5"},"vehicle_type_id":"4","last_reported":1749805892,"current_range_meters":22800,"station_id":"ce4bhqh2rcd13ifvqhmg","pricing_plan_id":"cebpf4jnsgd1na2vs0mg"},{"bike_id":"b7de2daa-196c-4111-9244-8dff16c1dcca","system_id":"levelo_inurba_marseille","lat":43.32104,"lon":5.36758,"is_reserved":false,"is_disabled":false,"rental_uris":{"android":"levelo://app?vid=b7de2daa-196c-4111-9244-8dff16c1dcca","ios":"levelo://app?vid=b7de2daa-196c-4111-9244-8dff16c1dcca"},"vehicle_type_id":"4","last_reported":1749805892,"current_range_meters":22800,"station_id":"ce4bhrh2rcd13ifvqhug","pricing_plan_id":"cebpf4jnsgd1na2vs0mg"},{"bike_id":"44f5dc57-eb60-498c-892e-a4a50b3ae19f","system_id":"levelo_inurba_marseille","lat":43.22937,"lon":5.35368,"is_reserved":false,"is_disabled":false,"rental_uris":{"android":"levelo://app?vid=44f5dc57-eb60-498c-892e-a4a50b3ae19f","ios":"levelo://app?vid=44f5dc57-eb60-498c-892e-a4a50b3ae19f"},"vehicle_type_id":"4","last_reported":1749805892,"current_range_meters":22800,"station_id":"cpo3532slgdg3j2ikp40","pricing_plan_id":"cebpf4jnsgd1na2vs0mg"},{"bike_id":"25638e98-9a31-4b5b-91d1-35ecce5a10fd","system_id":"levelo_inurba_marseille","lat":43.337444,"lon":5.374475,"is_reserved":false,"is_disabled":false,"rental_uris":{"android":"levelo://app?vid=25638e98-9a31-4b5b-91d1-35ecce5a10fd","ios":"levelo://app?vid=25638e98-9a31-4b5b-91d1-35ecce5a10fd"},"vehicle_type_id":"4","last_reported":1749805892,"current_range_meters":23200,"station_id":"","pricing_plan_id":"cebpf4jnsgd1na2vs0mg"},{"bike_id":"2e9d2a29-3a8b-4cc2-b9d5-138614a8517d","system_id":"levelo_inurba_marseille","lat":43.2922,"lon":5.40032,"is_reserved":false,"is_disabled":false,"rental_uris":{"android":"levelo://app?vid=2e9d2a29-3a8b-4cc2-b9d5-138614a8517d","ios":"levelo://app?vid=2e9d2a29-3a8b-4cc2-b9d5-138614a8517d"},"vehicle_type_id":"4","last_reported":1749805892,"current_range_meters":23200,"station_id":"","pricing_plan_id":"cebpf4jnsgd1na2vs0mg"},{"bike_id":"83e5b45f-19f1-4c29-89c8-841132bd9a02","system_id":"levelo_inurba_marseille","lat":43.30553,"lon":5.36532,"is_reserved":false,"is_disabled":false,"rental_uris":{"android":"levelo://app?vid=83e5b45f-19f1-4c29-89c8-841132bd9a02","ios":"levelo://app?vid=83e5b45f-19f1-4c29-89c8-841132bd9a02"},"vehicle_type_id":"4","last_reported":1749805892,"current_range_meters":23200,"station_id":"ce4bgs12rcd13ifvqcag","pricing_plan_id":"cebpf4jnsgd1na2vs0mg"},{"bike_id":"1331c9e3-75c6-49ae-87cc-69e094d3dcde","system_id":"levelo_inurba_marseille","lat":43.25574,"lon":5.38236,"is_reserved":false,"is_disabled":false,"rental_uris":{"android":"levelo://app?vid=1331c9e3-75c6-49ae-87cc-69e094d3dcde","ios":"levelo://app?vid=1331c9e3-75c6-49ae-87cc-69e094d3dcde"},"vehicle_type_id":"4","last_reported":1749805892,"current_range_meters":23200,"station_id":"ce4bhih2rcd13ifvqfs0","pricing_plan_id":"cebpf4jnsgd1na2vs0mg"},{"bike_id":"91e4b6ee-986c-4242-ad3d-79fbe6e27b0d","system_id":"levelo_inurba_marseille","lat":43.25114,"lon":5.40319,"is_reserved":false,"is_disabled":false,"rental_uris":{"android":"levelo://app?vid=91e4b6ee-986c-4242-ad3d-79fbe6e27b0d","ios":"levelo://app?vid=91e4b6ee-986c-4242-ad3d-79fbe6e27b0d"},"vehicle_type_id":"4","last_reported":1749805892,"current_range_meters":23200,"station_id":"ce4bhlh2rcd13ifvqgig","pricing_plan_id":"cebpf4jnsgd1na2vs0mg"},{"bike_id":"c8a9ad5a-56e9-4162-a17d-cb3c2ed4b67b","system_id":"levelo_inurba_marseille","lat":43.323623,"lon":5.367613,"is_reserved":false,"is_disabled":false,"rental_uris":{"android":"levelo://app?vid=c8a9ad5a-56e9-4162-a17d-cb3c2ed4b67b","ios":"levelo://app?vid=c8a9ad5a-56e9-4162-a17d-cb3c2ed4b67b"},"vehicle_type_id":"4","last_reported":1749805892,"current_range_meters":23200,"station_id":"ce4bhsh2rcd13ifvqi2g","pricing_plan_id":"cebpf4jnsgd1na2vs0mg"},{"bike_id":"56226cf9-7d90-4f55-8bd1-b144d56933ea","system_id":"levelo_inurba_marseille","lat":43.30541,"lon":5.36712,"is_reserved":false,"is_disabled":false,"rental_uris":{"android":"levelo://app?vid=56226cf9-7d90-4f55-8bd1-b144d56933ea","ios":"levelo://app?vid=56226cf9-7d90-4f55-8bd1-b144d56933ea"},"vehicle_type_id":"4","last_reported":1749805892,"current_range_meters":24000,"station_id":"ce4bgrp2rcd13ifvqc9g","pricing_plan_id":"cebpf4jnsgd1na2vs0mg"},{"bike_id":"2fba34ad-33f0-4a87-8bce-1fe3bba871e8","system_id":"levelo_inurba_marseille","lat":43.285846,"lon":5.394903,"is_reserved":false,"is_disabled":false,"rental_uris":{"android":"levelo://app?vid=2fba34ad-33f0-4a87-8bce-1fe3bba871e8","ios":"levelo://app?vid=2fba34ad-33f0-4a87-8bce-1fe3bba871e8"},"vehicle_type_id":"4","last_reported":1749805892,"current_range_meters":24000,"station_id":"ce4bh292rcd13ifvqdg0","pricing_plan_id":"cebpf4jnsgd1na2vs0mg"},{"bike_id":"0c1fa559-1102-4ec6-af61-6bd89eefec3f","system_id":"levelo_inurba_marseille","lat":43.28979,"lon":5.37842,"is_reserved":false,"is_disabled":false,"rental_uris":{"android":"levelo://app?vid=0c1fa559-1102-4ec6-af61-6bd89eefec3f","ios":"levelo://app?vid=0c1fa559-1102-4ec6-af61-6bd89eefec3f"},"vehicle_type_id":"4","last_reported":1749805892,"current_range_meters":24000,"station_id":"ce4bh9p2rcd13ifvqed0","pricing_plan_id":"cebpf4jnsgd1na2vs0mg"},{"bike_id":"b861b270-1a8b-430a-9ace-373192b06cc4","system_id":"levelo_inurba_marseille","lat":43.23139,"lon":5.43722,"is_reserved":false,"is_disabled":false,"rental_uris":{"android":"levelo://app?vid=b861b270-1a8b-430a-9ace-373192b06cc4","ios":"levelo://app?vid=b861b270-1a8b-430a-9ace-373192b06cc4"},"vehicle_type_id":"4","last_reported":1749805892,"current_range_meters":24000,"station_id":"ce4bhmp2rcd13ifvqgog","pricing_plan_id":"cebpf4jnsgd1na2vs0mg"},