{"last_updated":1718050110,"ttl":30,"version":"2.2","data":{"bikes":[{"bike_id":"2148f8c4-27cd-4f60-9cc2-07ebfbd7ba08","system_id":"levelo_inurba_marseille","lat":43.312297,"lon":5.367198,"is_reserved":false,"is_disabled":false,"rental_uris":{"android":"levelo://app?vid=2148f8c4-27cd-4f60-9cc2-07ebfbd7ba08","ios":"levelo://app?vid=2148f8c4-27cd-4f60-9cc2-07ebfbd7ba08"},"vehicle_type_id":"4","last_reported":1718050110,"current_range_meters":26000,"station_id":"","pricing_plan_id":"cebpf4jnsgd1na2vs0mg"},{"bike_id":"6201296d-c27a-4d98-b467-e503af43dba7","system_id":"levelo_inurba_marseille","lat":43.308773,"lon":5.368298,"is_reserved":false,"is_disabled":false,"rental_uris":{"android":"levelo://app?vid=6201296d-c27a-4d98-b467-e503af43dba7","ios":"levelo://app?vid=6201296d-c27a-4d98-b467-e503af43dba7"},"vehicle_type_id":"4","last_reported":1718050110,"current_range_meters":0,"station_id":"ce4bgn92rcd13ifvqbvg","pricing_plan_id":"cebpf4jnsgd1na2vs0mg"},{"bike_id":"73a011c4-869e-4203-8930-ca14ba99fc5c","system_id":"levelo_inurba_marseille","lat":43.314811,"lon":5.373104,"is_reserved":false,"is_disabled":false,"rental_uris":{"android":"levelo://app?vid=73a011c4-869e-4203-8930-ca14ba99fc5c","ios":"levelo://app?vid=73a011c4-869e-4203-8930-ca14ba99fc5c"},"vehicle_type_id":"4","last_reported":1718050110,"current_range_meters":8000,"station_id":"ce4bgt12rcd13ifvqcd0","pricing_plan_id":"cebpf4jnsgd1na2vs0mg"},{"bike_id":"3749b4c7-260f-43bd-a176-a3066341154c","system_id":"levelo_inurba_marseille","lat":43.309039,"lon":5.371797,"is_reserved":false,"is_disabled":false,"rental_uris":{"android":"levelo://app?vid=3749b4c7-260f-43bd-a176-a3066341154c","ios":"levelo://app?vid=3749b4c7-260f-43bd-a176-a3066341154c"},"vehicle_type_id":"4","last_reported":1718050110,"current_range_meters":7200,"station_id":"ce4bguh2rcd13ifvqckg","pricing_plan_id":"cebpf4jnsgd1na2vs0mg"},{"bike_id":"b7a9fc93-e5a5-47a6-8bcb-27908129b050","system_id":"levelo_inurba_marseille","lat":43.309039,"lon":5.371797,"is_reserved":false,"is_disabled":false,"rental_uris":{"android":"levelo://app?vid=b7a9fc93-e5a5-47a6-8bcb-27908129b050","ios":"levelo://app?vid=b7a9fc93-e5a5-47a6-8bcb-27908129b050"},"vehicle_type_id":"4","last_reported":1718050110,"current_range_meters":1600,"station_id":"ce4bguh2rcd13ifvqckg","pricing_plan_id":"cebpf4jnsgd1na2vs0mg"},{"bike_id":"328addb4-85eb-4d6b-8d05-4554babb1484","system_id":"levelo_inurba_marseille","lat":43.314811,"lon":5.373103,"is_reserved":false,"is_disabled":false,"rental_uris":{"android":"levelo://app?vid=328addb4-85eb-4d6b-8d05-4554babb1484","ios":"levelo://app?vid=328addb4-85eb-4d6b-8d05-4554babb1484"},"vehicle_type_id":"4","last_reported":1718050110,"current_range_meters":17200,"station_id":"ce4bgt12rcd13ifvqcd0","pricing_plan_id":"cebpf4jnsgd1na2vs0mg"},{"bike_id":"ab7d5753-fc5f-418b-974e-ac9abb04b6a1","system_id":"levelo_inurba_marseille","lat":43.31535,"lon":5.373217,"is_reserved":false,"is_disabled":false,"rental_uris":{"android":"levelo://app?vid=ab7d5753-fc5f-418b-974e-ac9abb04b6a1","ios":"levelo://app?vid=ab7d5753-fc5f-418b-974e-ac9abb04b6a1"},"vehicle_type_id":"4","last_reported":1718050110,"current_range_meters":14400,"station_id":"ce4bgt12rcd13ifvqcd0","pricing_plan_id":"cebpf4jnsgd1na2vs0mg"},{"bike_id":"e1fd2ba7-6419-4c1e-93dc-c43b173651f6","system_id":"levelo_inurba_marseille","lat":43.31461,"lon":5.37381,"is_reserved":false,"is_disabled":false,"rental_uris":{"android":"levelo://app?vid=e1fd2ba7-6419-4c1e-93dc-c43b173651f6","ios":"levelo://app?vid=e1fd2ba7-6419-4c1e-93dc-c43b173651f6"},"vehicle_type_id":"4","last_reported":1718050110,"current_range_meters":0,"station_id":"","pricing_plan_id":"cebpf4jnsgd1na2vs0mg"},{"bike_id":"15eed7f3-2021-47b3-96d7-4eaaccee7201","system_id":"levelo_inurba_marseille","lat":43.31639,"lon":5.374014,"is_reserved":false,"is_disabled":false,"rental_uris":{"android":"levelo://app?vid=15eed7f3-2021-47b3-96d7-4eaaccee7201","ios":"levelo://app?vid=15eed7f3-2021-47b3-96d7-4eaaccee7201"},"vehicle_type_id":"4","last_reported":1718050110,"current_range_meters":0,"station_id":"","pricing_plan_id":"cebpf4jnsgd1na2vs0mg"},{"bike_id":"55d2ff2e-ec06-4c7a-9e4b-8f9dfcd22664","system_id":"levelo_inurba_marseille","lat":43.317075,"lon":5.377367,"is_reserved":false,"is_disabled":false,"rental_uris":{"android":"levelo://app?vid=55d2ff2e-ec06-4c7a-9e4b-8f9dfcd22664","ios":"levelo://app?vid=55d2ff2e-ec06-4c7a-9e4b-8f9dfcd22664"},"vehicle_type_id":"4","last_reported":1718050110,"current_range_meters":23200,"station_id":"ce4bgth2rcd13ifvqch0","pricing_plan_id":"cebpf4jnsgd1na2vs0mg"},{"bike_id":"8d9e9992-2aca-46fb-aeae-45848b681c8a","system_id":"levelo_inurba_marseille","lat":43.305368,"lon":5.367343,"is_reserved":false,"is_disabled":false,"rental_uris":{"android":"levelo://app?vid=8d9e9992-2aca-46fb-aeae-45848b681c8a","ios":"levelo://app?vid=8d9e9992-2aca-46fb-aeae-45848b681c8a"},"vehicle_type_id":"4","last_reported":1718050110,"current_range_meters":26800,"station_id":"ce4bgrp2rcd13ifvqc9g","pricing_plan_id":"cebpf4jnsgd1na2vs0mg"},{"bike_id":"60f2dc25-2eee-45d8-9ef4-7e5519f5fd6f","system_id":"levelo_inurba_marseille","lat":43.30981,"lon":5.376603,"is_reserved":false,"is_disabled":false,"rental_uris":{"android":"levelo://app?vid=60f2dc25-2eee-45d8-9ef4-7e5519f5fd6f","ios":"levelo://app?vid=60f2dc25-2eee-45d8-9ef4-7e5519f5fd6f"},"vehicle_type_id":"4","last_reported":1718050110,"current_range_meters":15200,"station_id":"","pricing_plan_id":"cebpf4jnsgd1na2vs0mg"},{"bike_id":"fe9930fc-4d16-4621-852c-c1f4e7e3917c","system_id":"levelo_inurba_marseille","lat":43.305989,"lon":5.37225,"is_reserved":false,"is_disabled":false,"rental_uris":{"android":"levelo://app?vid=fe9930fc-4d16-4621-852c-c1f4e7e3917c","ios":"levelo://app?vid=fe9930fc-4d16-4621-852c-c1f4e7e3917c"},"vehicle_type_id":"4","last_reported":1718050110,"current_range_meters":10000,"station_id":"ce4bgqh2rcd13ifvqc4g","pricing_plan_id":"cebpf4jnsgd1na2vs0mg"},{"bike_id":"bc41c147-8ae4-4696-b8fe-fac1a49dfe2d","system_id":"levelo_inurba_marseille","lat":43.307945,"lon":5.376487,"is_reserved":false,"is_disabled":false,"rental_uris":{"android":"levelo://app?vid=bc41c147-8ae4-4696-b8fe-fac1a49dfe2d","ios":"levelo://app?vid=bc41c147-8ae4-4696-b8fe-fac1a49dfe2d"},"vehicle_type_id":"4","last_reported":1718050110,"current_range_meters":18000,"station_id":"ce4bgv92rcd13ifvqcq0","pricing_plan_id":"cebpf4jnsgd1na2vs0mg"},{"bike_id":"773df0fb-ecc0-4ba7-b73e-7daa511c1174","system_id":"levelo_inurba_marseille","lat":43.307945,"lon":5.376487,"is_reserved":false,"is_disabled":false,"rental_uris":{"android":"levelo://app?vid=773df0fb-ecc0-4ba7-b73e-7daa511c1174","ios":"levelo://app?vid=773df0fb-ecc0-4ba7-b73e-7daa511c1174"},"vehicle_type_id":"4","last_reported":1718050110,"current_range_meters":15200,"station_id":"ce4bgv92rcd13ifvqcq0","pricing_plan_id":"cebpf4jnsgd1na2vs0mg"},{"bike_id":"40ce5cfc-3e9b-4428-969a-e8d8042632f4","system_id":"levelo_inurba_marseille","lat":43.303111,"lon":5.368743,"is_reserved":false,"is_disabled":false,"rental_uris":{"android":"levelo://app?vid=40ce5cfc-3e9b-4428-969a-e8d8042632f4","ios":"levelo://app?vid=40ce5cfc-3e9b-4428-969a-e8d8042632f4"},"vehicle_type_id":"4","last_reported":1718050110,"current_range_meters":0,"station_id":"ce4bgqh2rcd13ifvqc5g","pricing_plan_id":"cebpf4jnsgd1na2vs0mg"},{"bike_id":"8609d70c-da9a-4f1c-981e-0e02381cc208","system_id":"levelo_inurba_marseille","lat":43.303046,"lon":5.368981,"is_reserved":false,"is_disabled":false,"rental_uris":{"android":"levelo://app?vid=8609d70c-da9a-4f1c-981e-0e02381cc208","ios":"levelo://app?vid=8609d70c-da9a-4f1c-981e-0e02381cc208"},"vehicle_type_id":"4","last_reported":1718050110,"current_range_meters":22400,"station_id":"ce4bgqh2rcd13ifvqc5g","pricing_plan_id":"cebpf4jnsgd1na2vs0mg"},{"bike_id":"b57fa076-0a37-4e4d-89b8-2482990c5aaf","system_id":"levelo_inurba_marseille","lat":43.315289,"lon":5.380349,"is_reserved":false,"is_disabled":false,"rental_uris":{"android":"levelo://app?vid=b57fa076-0a37-4e4d-89b8-2482990c5aaf","ios":"levelo://app?vid=b57fa076-0a37-4e4d-89b8-2482990c5aaf"},"vehicle_type_id":"4","last_reported":1718050110,"current_range_meters":31200,"station_id":"ce4bhsp2rcd13ifvqi50","pricing_plan_id":"cebpf4jnsgd1na2vs0mg"},{"bike_id":"c48a2beb-7059-4d6d-8643-0a00923c27b8","system_id":"levelo_inurba_marseille","lat":43.315289,"lon":5.380349,"is_reserved":false,"is_disabled":false,"rental_uris":{"android":"levelo://app?vid=c48a2beb-7059-4d6d-8643-0a00923c27b8","ios":"levelo://app?vid=c48a2beb-7059-4d6d-8643-0a00923c27b8"},"vehicle_type_id":"4","last_reported":1718050110,"current_range_meters":6800,"station_id":"ce4bhsp2rcd13ifvqi50","pricing_plan_id":"cebpf4jnsgd1na2vs0mg"},{"bike_id":"ddab50cd-f5fe-4846-af39-186466b9bc67","system_id":"levelo_inurba_marseille","lat":43.315289,"lon":5.380349,"is_reserved":false,"is_disabled":false,"rental_uris":{"android":"levelo://app?vid=ddab50cd-f5fe-4846-af39-186466b9bc67","ios":"levelo://app?vid=ddab50cd-f5fe-4846-af39-186466b9bc67"},"vehicle_type_id":"4","last_reported":1718050110,"current_range_meters":0,"station_id":"ce4bhsp2rcd13ifvqi50","pricing_plan_id":"cebpf4jnsgd1na2vs0mg"},{"bike_id":"3e3fe189-957c-498c-9f38-5543321fd70c","system_id":"levelo_inurba_marseille","lat":43.315289,"lon":5.380349,"is_reserved":false,"is_disabled":false,"rental_uris":{"android":"levelo://app?vid=3e3fe189-957c-498c-9f38-5543321fd70c","ios":"levelo://app?vid=3e3fe189-957c-498c-9f38-5543321fd70c"},"vehicle_type_id":"4","last_reported":1718050110,"current_range_meters":22400,"station_id":"ce4bhsp2rcd13ifvqi50","pricing_plan_id":"cebpf4jnsgd1na2vs0mg"},{"bike_id":"32da3de9-14a1-4b49-902a-63f3f17482e4","system_id":"levelo_inurba_marseille","lat":43.321438,"lon":5.374697,"is_reserved":false,"is_disabled":false,"rental_uris":{"android":"levelo://app?vid=32da3de9-14a1-4b49-902a-63f3f17482e4","ios":"levelo://app?vid=32da3de9-14a1-4b49-902a-63f3f17482e4"},"vehicle_type_id":"4","last_reported":1718050110,"current_range_meters":0,"station_id":"","pricing_plan_id":"cebpf4jnsgd1na2vs0mg"},{"bike_id":"c968d5ac-62bf-414c-aef2-f6003f454212","system_id":"levelo_inurba_marseille","lat":43.311125,"lon":5.377624,"is_reserved":false,"is_disabled":false,"rental_uris":{"android":"levelo://app?vid=c968d5ac-62bf-414c-aef2-f6003f454212","ios":"levelo://app?vid=c968d5ac-62bf-414c-aef2-f6003f454212"},"vehicle_type_id":"4","last_reported":1718050110,"current_range_meters":14800,"station_id":"ce4bgt92rcd13ifvqcg0","pricing_plan_id":"cebpf4jnsgd1na2vs0mg"},{"bike_id":"d5bea61c-99ed-4850-a155-610d59acd39b","system_id":"levelo_inurba_marseille","lat":43.301939,"lon":5.366286,"is_reserved":false,"is_disabled":false,"rental_uris":{"android":"levelo://app?vid=d5bea61c-99ed-4850-a155-610d59acd39b","ios":"levelo://app?vid=d5bea61c-99ed-4850-a155-610d59acd39b"},"vehicle_type_id":"4","last_reported":1718050110,"current_range_meters":23600,"station_id":"ce4bgrh2rcd13ifvqc8g","pricing_plan_id":"cebpf4jnsgd1na2vs0mg"},{"bike_id":"88fa2585-a259-409d-a549-282f6ad04a5f","system_id":"levelo_inurba_marseille","lat":43.308012,"lon":5.381511,"is_reserved":false,"is_disabled":false,"rental_uris":{"android":"levelo://app?vid=88fa2585-a259-409d-a549-282f6ad04a5f","ios":"levelo://app?vid=88fa2585-a259-409d-a549-282f6ad04a5f"},"vehicle_type_id":"4","last_reported":1718050110,"current_range_meters":20800,"station_id":"ce4bgt12rcd13ifvqce0","pricing_plan_id":"cebpf4jnsgd1na2vs0mg"},{"bike_id":"3b85df27-a192-4d15-9ac4-d19a93491079","system_id":"levelo_inurba_marseille","lat":43.308012,"lon":5.381511,"is_reserved":false,"is_disabled":false,"rental_uris":{"android":"levelo://app?vid=3b85df27-a192-4d15-9ac4-d19a93491079","ios":"levelo://app?vid=3b85df27-a192-4d15-9ac4-d19a93491079"},"vehicle_type_id":"4","last_reported":1718050110,"current_range_meters":800,"station_id":"ce4bgt12rcd13ifvqce0","pricing_plan_id":"cebpf4jnsgd1na2vs0mg"},{"bike_id":"9b366f8d-3c1b-4e8a-90e2-3d567aea81af","system_id":"levelo_inurba_marseille","lat":43.324771,"lon":5.36557,"is_reserved":false,"is_disabled":false,"rental_uris":{"android":"levelo://app?vid=9b366f8d-3c1b-4e8a-90e2-3d567aea81af","ios":"levelo://app?vid=9b366f8d-3c1b-4e8a-90e2-3d567aea81af"},"vehicle_type_id":"4","last_reported":1718050110,"current_range_meters":18000,"station_id":"ce4bhs12rcd13ifvqhvg","pricing_plan_id":"cebpf4jnsgd1na2vs0mg"},{"bike_id":"97a89233-b186-4d20-b87e-ba011f1363de","system_id":"levelo_inurba_marseille","lat":43.32484,"lon":5.36567,"is_reserved":false,"is_disabled":false,"rental_uris":{"android":"levelo://app?vid=97a89233-b186-4d20-b87e-ba011f1363de","ios":"levelo://app?vid=97a89233-b186-4d20-b87e-ba011f1363de"},"vehicle_type_id":"4","last_reported":1718050110,"current_range_meters":0,"station_id":"ce4bhs12rcd13ifvqhvg","pricing_plan_id":"cebpf4jnsgd1na2vs0mg"},{"bike_id":"31f05fe5-e943-4ec8-bb18-57dde8b62088","system_id":"levelo_inurba_marseille","lat":43.324871,"lon":5.365755,"is_reserved":false,"is_disabled":false,"rental_uris":{"android":"levelo://app?vid=31f05fe5-e943-4ec8-bb18-57dde8b62088","ios":"levelo://app?vid=31f05fe5-e943-4ec8-bb18-57dde8b62088"},"vehicle_type_id":"4","last_reported":1718050110,"current_range_meters":20000,"station_id":"ce4bhs12rcd13ifvqhvg","pricing_plan_id":"cebpf4jnsgd1na2vs0mg"},{"bike_id":"381d15ad-f748-46e6-851d-cce9d207814b","system_id":"levelo_inurba_marseille","lat":43.310804,"lon":5.38359,"is_reserved":false,"is_disabled":false,"rental_uris":{"android":"levelo://app?vid=381d15ad-f748-46e6-851d-cce9d207814b","ios":"levelo://app?vid=381d15ad-f748-46e6-851d-cce9d207814b"},"vehicle_type_id":"4","last_reported":1718050110,"current_range_meters":7600,"station_id":"ce4bgv92rcd13ifvqcr0","pricing_plan_id":"cebpf4jnsgd1na2vs0mg"},{"bike_id":"2183f5a4-9caa-441d-9814-93ce688dedcb","system_id":"levelo_inurba_marseille","lat":43.310804,"lon":5.38359,"is_reserved":false,"is_disabled":false,"rental_uris":{"android":"levelo://app?vid=2183f5a4-9caa-441d-9814-93ce688dedcb","ios":"levelo://app?vid=2183f5a4-9caa-441d-9814-93ce688dedcb"},"vehicle_type_id":"4","last_reported":1718050110,"current_range_meters":24000,"station_id":"ce4bgv92rcd13ifvqcr0","pricing_plan_id":"cebpf4jnsgd1na2vs0mg"},{"bike_id":"a232de33-1ac7-493e-8a3f-b624a324f9ce","system_id":"levelo_inurba_marseille","lat":43.31065,"lon":5.38352,"is_reserved":false,"is_disabled":false,"rental_uris":{"android":"levelo://app?vid=a232de33-1ac7-493e-8a3f-b624a324f9ce","ios":"levelo://app?vid=a232de33-1ac7-493e-8a3f-b624a324f9ce"},"vehicle_type_id":"4","last_reported":1718050110,"current_range_meters":25200,"station_id":"","pricing_plan_id":"cebpf4jnsgd1na2vs0mg"},{"bike_id":"70ca43bb-66c9-4c55-ae3e-3bc53ad813bb","system_id":"levelo_inurba_marseille","lat":43.310804,"lon":5.38359,"is_reserved":false,"is_disabled":false,"rental_uris":{"android":"levelo://app?vid=70ca43bb-66c9-4c55-ae3e-3bc53ad813bb","ios":"levelo://app?vid=70ca43bb-66c9-4c55-ae3e-3bc53ad813bb"},"vehicle_type_id":"4","last_reported":1718050110,"current_range_meters":12400,"station_id":"ce4bgv92rcd13ifvqcr0","pricing_plan_id":"cebpf4jnsgd1na2vs0mg"},{"bike_id":"f7f58fe5-561c-4a34-b8cb-da1c5c711141","system_id":"levelo_inurba_marseille","lat":43.310804,"lon":5.38359,"is_reserved":false,"is_disabled":false,"rental_uris":{"android":"levelo://app?vid=f7f58fe5-561c-4a34-b8cb-da1c5c711141","ios":"levelo://app?vid=f7f58fe5-561c-4a34-b8cb-da1c5c711141"},"vehicle_type_id":"4","last_reported":1718050110,"current_range_meters":0,"station_id":"ce4bgv92rcd13ifvqcr0","pricing_plan_id":"cebpf4jnsgd1na2vs0mg"},{"bike_id":"dfeb3aec-27ca-4b2d-b334-c66f767d465c","system_id":"levelo_inurba_marseille","lat":43.310804,"lon":5.38359,"is_reserved":false,"is_disabled":false,"rental_uris":{"android":"levelo://app?vid=dfeb3aec-27ca-4b2d-b334-c66f767d465c","ios":"levelo://app?vid=dfeb3aec-27ca-4b2d-b334-c66f767d465c"},"vehicle_type_id":"4","last_reported":1718050110,"current_range_meters":22000,"station_id":"ce4bgv92rcd13ifvqcr0","pricing_plan_id":"cebpf4jnsgd1na2vs0mg"},{"bike_id":"70b4260c-2bc3-4f49-955d-752a4c7e3332","system_id":"levelo_inurba_marseille","lat":43.310804,"lon":5.38359,"is_reserved":false,"is_disabled":false,"rental_uris":{"android":"levelo://app?vid=70b4260c-2bc3-4f49-955d-752a4c7e3332","ios":"levelo://app?vid=70b4260c-2bc3-4f49-955d-752a4c7e3332"},"vehicle_type_id":"4","last_reported":1718050110,"current_range_meters":22800,"station_id":"ce4bgv92rcd13ifvqcr0","pricing_plan_id":"cebpf4jnsgd1na2vs0mg"},{"bike_id":"299437e8-0a65-4e79-bd7b-0316ab7160f0","system_id":"levelo_inurba_marseille","lat":43.302784,"lon":5.377158,"is_reserved":false,"is_disabled":false,"rental_uris":{"android":"levelo://app?vid=299437e8-0a65-4e79-bd7b-0316ab7160f0","ios":"levelo://app?vid=299437e8-0a65-4e79-bd7b-0316ab7160f0"},"vehicle_type_id":"4","last_reported":1718050110,"current_range_meters":13200,"station_id":"ce4bguh2rcd13ifvqcj0","pricing_plan_id":"cebpf4jnsgd1na2vs0mg"},{"bike_id":"72f18667-0a11-4b36-9a40-07ba203274b5","system_id":"levelo_inurba_marseille","lat":43.310804,"lon":5.38359,"is_reserved":false,"is_disabled":false,"rental_uris":{"android":"levelo://app?vid=72f18667-0a11-4b36-9a40-07ba203274b5","ios":"levelo://app?vid=72f18667-0a11-4b36-9a40-07ba203274b5"},"vehicle_type_id":"4","last_reported":1718050110,"current_range_meters":6800,"station_id":"ce4bgv92rcd13ifvqcr0","pricing_plan_id":"cebpf4jnsgd1na2vs0mg"},{"bike_id":"9b2f4846-59a5-4cff-861b-e8045bc2841f","system_id":"levelo_inurba_marseille","lat":43.319935,"lon":5.381699,"is_reserved":false,"is_disabled":false,"rental_uris":{"android":"levelo://app?vid=9b2f4846-59a5-4cff-861b-e8045bc2841f","ios":"levelo://app?vid=9b2f4846-59a5-4cff-861b-e8045bc2841f"},"vehicle_type_id":"4","last_reported":1718050110,"current_range_meters":0,"station_id":"ce4bhr12rcd13ifvqhpg","pricing_plan_id":"cebpf4jnsgd1na2vs0mg"},{"bike_id":"12620fa0-7ce4-463f-b584-af39f581d16b","system_id":"levelo_inurba_marseille","lat":43.319935,"lon":5.381699,"is_reserved":false,"is_disabled":false,"rental_uris":{"android":"levelo://app?vid=12620fa0-7ce4-463f-b584-af39f581d16b","ios":"levelo://app?vid=12620fa0-7ce4-463f-b584-af39f581d16b"},"vehicle_type_id":"4","last_reported":1718050110,"current_range_meters":6800,"station_id":"ce4bhr12rcd13ifvqhpg","pricing_plan_id":"cebpf4jnsgd1na2vs0mg"},{"bike_id":"108e04ae-a6db-4fd4-ae22-e48a4f2007bc","system_id":"levelo_inurba_marseille","lat":43.313571,"lon":5.384829,"is_reserved":false,"is_disabled":false,"rental_uris":{"android":"levelo://app?vid=108e04ae-a6db-4fd4-ae22-e48a4f2007bc","ios":"levelo://app?vid=108e04ae-a6db-4fd4-ae22-e48a4f2007bc"},"vehicle_type_id":"4","last_reported":1718050110,"current_range_meters":30400,"station_id":"ce4bgt92rcd13ifvqcf0","pricing_plan_id":"cebpf4jnsgd1na2vs0mg"},{"bike_id":"f4848e0b-7ecb-4255-b501-c93f1567441d","system_id":"levelo_inurba_marseille","lat":43.319935,"lon":5.381699,"is_reserved":false,"is_disabled":false,"rental_uris":{"android":"levelo://app?vid=f4848e0b-7ecb-4255-b501-c93f1567441d","ios":"levelo://app?vid=f4848e0b-7ecb-4255-b501-c93f1567441d"},"vehicle_type_id":"4","last_reported":1718050110,"current_range_meters":12400,"station_id":"ce4bhr12rcd13ifvqhpg","pricing_plan_id":"cebpf4jnsgd1na2vs0mg"},{"bike_id":"d2169b9e-9e3b-4abc-adb9-563458e89de4","system_id":"levelo_inurba_marseille","lat":43.299222,"lon":5.365554,"is_reserved":false,"is_disabled":false,"rental_uris":{"android":"levelo://app?vid=d2169b9e-9e3b-4abc-adb9-563458e89de4","ios":"levelo://app?vid=d2169b9e-9e3b-4abc-adb9-563458e89de4"},"vehicle_type_id":"4","last_reported":1718050110,"current_range_meters":4000,"station_id":"ce4bgm92rcd13ifvqbr0","pricing_plan_id":"cebpf4jnsgd1na2vs0mg"},{"bike_id":"cdc5b567-b918-4d4b-9523-2948cf930ca5","system_id":"levelo_inurba_marseille","lat":43.29973,"lon":5.37173,"is_reserved":false,"is_disabled":false,"rental_uris":{"android":"levelo://app?vid=cdc5b567-b918-4d4b-9523-2948cf930ca5","ios":"levelo://app?vid=cdc5b567-b918-4d4b-9523-2948cf930ca5"},"vehicle_type_id":"4","last_reported":1718050110,"current_range_meters":14400,"station_id":"ce4bgr92rcd13ifvqc7g","pricing_plan_id":"cebpf4jnsgd1na2vs0mg"},{"bike_id":"faf20de4-952b-4e6b-8880-e8ba9484c636","system_id":"levelo_inurba_marseille","lat":43.299734,"lon":5.371778,"is_reserved":false,"is_disabled":false,"rental_uris":{"android":"levelo://app?vid=faf20de4-952b-4e6b-8880-e8ba9484c636","ios":"levelo://app?vid=faf20de4-952b-4e6b-8880-e8ba9484c636"},"vehicle_type_id":"4","last_reported":1718050110,"current_range_meters":25600,"station_id":"ce4bgr92rcd13ifvqc7g","pricing_plan_id":"cebpf4jnsgd1na2vs0mg"},{"bike_id":"d304eae1-324e-4637-8005-2af6c58dee28","system_id":"levelo_inurba_marseille","lat":43.2997,"lon":5.37173,"is_reserved":false,"is_disabled":false,"rental_uris":{"android":"levelo://app?vid=d304eae1-324e-4637-8005-2af6c58dee28","ios":"levelo://app?vid=d304eae1-324e-4637-8005-2af6c58dee28"},"vehicle_type_id":"4","last_reported":1718050110,"current_range_meters":21200,"station_id":"ce4bgr92rcd13ifvqc7g","pricing_plan_id":"cebpf4jnsgd1na2vs0mg"},{"bike_id":"f09df349-bb12-404b-b6b3-f9a20580be99","system_id":"levelo_inurba_marseille","lat":43.299222,"lon":5.365554,"is_reserved":false,"is_disabled":false,"rental_uris":{"android":"levelo://app?vid=f09df349-bb12-404b-b6b3-f9a20580be99","ios":"levelo://app?vid=f09df349-bb12-404b-b6b3-f9a20580be99"},"vehicle_type_id":"4","last_reported":1718050110,"current_range_meters":0,"station_id":"ce4bgm92rcd13ifvqbr0","pricing_plan_id":"cebpf4jnsgd1na2vs0mg"},{"bike_id":"e201148f-e039-4e27-bf96-e0bd167c16f5","system_id":"levelo_inurba_marseille","lat":43.305407,"lon":5.38415,"is_reserved":false,"is_disabled":false,"rental_uris":{"android":"levelo://app?vid=e201148f-e039-4e27-bf96-e0bd167c16f5","ios":"levelo://app?vid=e201148f-e039-4e27-bf96-e0bd167c16f5"},"vehicle_type_id":"4","last_reported":1718050110,"current_range_meters":27200,"station_id":"ce4bgg92rcd13ifvqb30","pricing_plan_id":"cebpf4jnsgd1na2vs0mg"},{"bike_id":"adaa7dba-2da8-4aff-abb4-fdce2f816080","system_id":"levelo_inurba_marseille","lat":43.305374,"lon":5.384135,"is_reserved":false,"is_disabled":false,"rental_uris":{"android":"levelo://app?vid=adaa7dba-2da8-4aff-abb4-fdce2f816080","ios":"levelo://app?vid=adaa7dba-2da8-4aff-abb4-fdce2f816080"},"vehicle_type_id":"4","last_reported":1718050110,"current_range_meters":21200,"station_id":"ce4bgg92rcd13ifvqb30","pricing_plan_id":"cebpf4jnsgd1na2vs0mg"},{"bike_id":"608d338f-8b7b-48ab-9355-62c1748981c1","system_id":"levelo_inurba_marseille","lat":43.305458,"lon":5.384331,"is_reserved":false,"is_disabled":false,"rental_uris":{"android":"levelo://app?vid=608d338f-8b7b-48ab-9355-62c1748981c1","ios":"levelo://app?vid=608d338f-8b7b-48ab-9355-62c1748981c1"},"vehicle_type_id":"4","last_reported":1718050110,"current_range_meters":8400,"station_id":"ce4bgg92rcd13ifvqb30","pricing_plan_id":"cebpf4jnsgd1na2vs0mg"},{"bike_id":"c867d108-cef1-4bad-94b1-27da19bb54b1","system_id":"levelo_inurba_marseille","lat":43.298452,"lon":5.362706,"is_reserved":false,"is_disabled":false,"rental_uris":{"android":"levelo://app?vid=c867d108-cef1-4bad-94b1-27da19bb54b1","ios":"levelo://app?vid=c867d108-cef1-4bad-94b1-27da19bb54b1"},"vehicle_type_id":"4","last_reported":1718050110,"current_range_meters":0,"station_id":"ce4bgpp2rcd13ifvqc3g","pricing_plan_id":"cebpf4jnsgd1na2vs0mg"},{"bike_id":"8edbc1f6-9ed6-4fbd-9779-cc597fcfa4bc","system_id":"levelo_inurba_marseille","lat":43.305439,"lon":5.384338,"is_reserved":false,"is_disabled":false,"rental_uris":{"android":"levelo://app?vid=8edbc1f6-9ed6-4fbd-9779-cc597fcfa4bc","ios":"levelo://app?vid=8edbc1f6-9ed6-4fbd-9779-cc597fcfa4bc"},"vehicle_type_id":"4","last_reported":1718050110,"current_range_meters":5200,"station_id":"ce4bgg92rcd13ifvqb30","pricing_plan_id":"cebpf4jnsgd1na2vs0mg"},{"bike_id":"79768115-39cb-477f-a1f7-b5850f1245d4","system_id":"levelo_inurba_marseille","lat":43.30524,"lon":5.38431,"is_reserved":false,"is_disabled":false,"rental_uris":{"android":"levelo://app?vid=79768115-39cb-477f-a1f7-b5850f1245d4","ios":"levelo://app?vid=79768115-39cb-477f-a1f7-b5850f1245d4"},"vehicle_type_id":"4","last_reported":1718050110,"current_range_meters":30400,"station_id":"ce4bgg92rcd13ifvqb30","pricing_plan_id":"cebpf4jnsgd1na2vs0mg"},{"bike_id":"7cc60960-fb11-46e0-90a7-898a527e47b4","system_id":"levelo_inurba_marseille","lat":43.31171,"lon":5.38714,"is_reserved":false,"is_disabled":false,"rental_uris":{"android":"levelo://app?vid=7cc60960-fb11-46e0-90a7-898a527e47b4","ios":"levelo://app?vid=7cc60960-fb11-46e0-90a7-898a527e47b4"},"vehicle_type_id":"4","last_reported":1718050110,"current_range_meters":0,"station_id":"ce4bgv12rcd13ifvqcp0","pricing_plan_id":"cebpf4jnsgd1na2vs0mg"},{"bike_id":"e498d189-ed0d-42ee-90b2-12ce5ced0c7d","system_id":"levelo_inurba_marseille","lat":43.311722,"lon":5.387247,"is_reserved":false,"is_disabled":false,"rental_uris":{"android":"levelo://app?vid=e498d189-ed0d-42ee-90b2-12ce5ced0c7d","ios":"levelo://app?vid=e498d189-ed0d-42ee-90b2-12ce5ced0c7d"},"vehicle_type_id":"4","last_reported":1718050110,"current_range_meters":14800,"station_id":"ce4bgv12rcd13ifvqcp0","pricing_plan_id":"cebpf4jnsgd1na2vs0mg"},{"bike_id":"44633568-3934-497b-8674-62af8ef7d3fb","system_id":"levelo_inurba_marseille","lat":43.307464,"lon":5.385928,"is_reserved":false,"is_disabled":false,"rental_uris":{"android":"levelo://app?vid=44633568-3934-497b-8674-62af8ef7d3fb","ios":"levelo://app?vid=44633568-3934-497b-8674-62af8ef7d3fb"},"vehicle_type_id":"4","last_reported":1718050110,"current_range_meters":18800,"station_id":"","pricing_plan_id":"cebpf4jnsgd1na2vs0mg"},{"bike_id":"483df9c9-767b-44e9-a75e-e13d4efa069f","system_id":"levelo_inurba_marseille","lat":43.297794,"lon":5.370888,"is_reserved":false,"is_disabled":false,"rental_uris":{"android":"levelo://app?vid=483df9c9-767b-44e9-a75e-e13d4efa069f","ios":"levelo://app?vid=483df9c9-767b-44e9-a75e-e13d4efa069f"},"vehicle_type_id":"4","last_reported":1718050110,"current_range_meters":4400,"station_id":"ce4bgop2rcd13ifvqc1g","pricing_plan_id":"cebpf4jnsgd1na2vs0mg"},{"bike_id":"51a8b080-1707-44b3-b327-739216e19667","system_id":"levelo_inurba_marseille","lat":43.322872,"lon":5.382756,"is_reserved":false,"is_disabled":false,"rental_uris":{"android":"levelo://app?vid=51a8b080-1707-44b3-b327-739216e19667","ios":"levelo://app?vid=51a8b080-1707-44b3-b327-739216e19667"},"vehicle_type_id":"4","last_reported":1718050110,"current_range_meters":10800,"station_id":"ce4bhr12rcd13ifvqhqg","pricing_plan_id":"cebpf4jnsgd1na2vs0mg"},{"bike_id":"1fc75ff6-2552-478e-a563-f4a2e17d403d","system_id":"levelo_inurba_marseille","lat":43.297163,"lon":5.365866,"is_reserved":false,"is_disabled":false,"rental_uris":{"android":"levelo://app?vid=1fc75ff6-2552-478e-a563-f4a2e17d403d","ios":"levelo://app?vid=1fc75ff6-2552-478e-a563-f4a2e17d403d"},"vehicle_type_id":"4","last_reported":1718050110,"current_range_meters":0,"station_id":"ce4bgn12rcd13ifvqbt0","pricing_plan_id":"cebpf4jnsgd1na2vs0mg"},{"bike_id":"8586cd38-6a4c-4992-94f6-73b8f2cfa1d2","system_id":"levelo_inurba_marseille","lat":43.2968,"lon":5.37291,"is_reserved":false,"is_disabled":false,"rental_uris":{"android":"levelo://app?vid=8586cd38-6a4c-4992-94f6-73b8f2cfa1d2","ios":"levelo://app?vid=8586cd38-6a4c-4992-94f6-73b8f2cfa1d2"},"vehicle_type_id":"4","last_reported":1718050110,"current_range_meters":9200,"station_id":"ce4bgk12rcd13ifvqbj0","pricing_plan_id":"cebpf4jnsgd1na2vs0mg"},{"bike_id":"685bc998-f85e-427a-bed2-f882cd85841d","system_id":"levelo_inurba_marseille","lat":43.299206,"lon":5.381447,"is_reserved":false,"is_disabled":false,"rental_uris":{"android":"levelo://app?vid=685bc998-f85e-427a-bed2-f882cd85841d","ios":"levelo://app?vid=685bc998-f85e-427a-bed2-f882cd85841d"},"vehicle_type_id":"4","last_reported":1718050110,"current_range_meters":9200,"station_id":"ce4bgj12rcd13ifvqbc0","pricing_plan_id":"cebpf4jnsgd1na2vs0mg"},{"bike_id":"4df6c283-dcd5-4966-b531-b774b2a05ade","system_id":"levelo_inurba_marseille","lat":43.29906,"lon":5.38134,"is_reserved":false,"is_disabled":false,"rental_uris":{"android":"levelo://app?vid=4df6c283-dcd5-4966-b531-b774b2a05ade","ios":"levelo://app?vid=4df6c283-dcd5-4966-b531-b774b2a05ade"},"vehicle_type_id":"4","last_reported":1718050110,"current_range_meters":26800,"station_id":"ce4bgj12rcd13ifvqbc0","pricing_plan_id":"cebpf4jnsgd1na2vs0mg"},{"bike_id":"1ad2a8fe-ecf7-4f51-965c-18cfee1c9fb7","system_id":"levelo_inurba_marseille","lat":43.309589,"lon":5.390258,"is_reserved":false,"is_disabled":false,"rental_uris":{"android":"levelo://app?vid=1ad2a8fe-ecf7-4f51-965c-18cfee1c9fb7","ios":"levelo://app?vid=1ad2a8fe-ecf7-4f51-965c-18cfee1c9fb7"},"vehicle_type_id":"4","last_reported":1718050110,"current_range_meters":0,"station_id":"ce4bgup2rcd13ifvqco0","pricing_plan_id":"cebpf4jnsgd1na2vs0mg"},{"bike_id":"e8443a0d-fd00-4972-99b1-26cfb1f8aa42","system_id":"levelo_inurba_marseille","lat":43.299028,"lon":5.381509,"is_reserved":false,"is_disabled":false,"rental_uris":{"android":"levelo://app?vid=e8443a0d-fd00-4972-99b1-26cfb1f8aa42","ios":"levelo://app?vid=e8443a0d-fd00-4972-99b1-26cfb1f8aa42"},"vehicle_type_id":"4","last_reported":1718050110,"current_range_meters":19600,"station_id":"ce4bgj12rcd13ifvqbc0","pricing_plan_id":"cebpf4jnsgd1na2vs0mg"},{"bike_id":"a9f47efb-96fc-455a-a060-2a8e0d36594e","system_id":"levelo_inurba_marseille","lat":43.309589,"lon":5.390258,"is_reserved":false,"is_disabled":false,"rental_uris":{"android":"levelo://app?vid=a9f47efb-96fc-455a-a060-2a8e0d36594e","ios":"levelo://app?vid=a9f47efb-96fc-455a-a060-2a8e0d36594e"},"vehicle_type_id":"4","last_reported":1718050110,"current_range_meters":8800,"station_id":"ce4bgup2rcd13ifvqco0","pricing_plan_id":"cebpf4jnsgd1na2vs0mg"},{"bike_id":"ed82fb69-de7b-45c7-a551-c373ed426877","system_id":"levelo_inurba_marseille","lat":43.309589,"lon":5.390258,"is_reserved":false,"is_disabled":false,"rental_uris":{"android":"levelo://app?vid=ed82fb69-de7b-45c7-a551-c373ed426877","ios":"levelo://app?vid=ed82fb69-de7b-45c7-a551-c373ed426877"},"vehicle_type_id":"4","last_reported":1718050110,"current_range_meters":4400,"station_id":"ce4bgup2rcd13ifvqco0","pricing_plan_id":"cebpf4jnsgd1na2vs0mg"},{"bike_id":"8ede572d-7a5c-4a23-a76d-6db1b8dad32b","system_id":"levelo_inurba_marseille","lat":43.317557,"lon":5.390173,"is_reserved":false,"is_disabled":false,"rental_uris":{"android":"levelo://app?vid=8ede572d-7a5c-4a23-a76d-6db1b8dad32b","ios":"levelo://app?vid=8ede572d-7a5c-4a23-a76d-6db1b8dad32b"},"vehicle_type_id":"4","last_reported":1718050110,"current_range_meters":2800,"station_id":"ce4bhqp2rcd13ifvqhng","pricing_plan_id":"cebpf4jnsgd1na2vs0mg"},{"bike_id":"8c77690f-3886-413a-91fd-8db50332479b","system_id":"levelo_inurba_marseille","lat":43.29718,"lon":5.37875,"is_reserved":false,"is_disabled":false,"rental_uris":{"android":"levelo://app?vid=8c77690f-3886-413a-91fd-8db50332479b","ios":"levelo://app?vid=8c77690f-3886-413a-91fd-8db50332479b"},"vehicle_type_id":"4","last_reported":1718050110,"current_range_meters":30000,"station_id":"","pricing_plan_id":"cebpf4jnsgd1na2vs0mg"},{"bike_id":"a0b5d7b0-d159-4c9c-a538-84a2cf457f6e","system_id":"levelo_inurba_marseille","lat":43.304278,"lon":5.388868,"is_reserved":false,"is_disabled":false,"rental_uris":{"android":"levelo://app?vid=a0b5d7b0-d159-4c9c-a538-84a2cf457f6e","ios":"levelo://app?vid=a0b5d7b0-d159-4c9c-a538-84a2cf457f6e"},"vehicle_type_id":"4","last_reported":1718050110,"current_range_meters":10400,"station_id":"ce4bgk12rcd13ifvqbi0","pricing_plan_id":"cebpf4jnsgd1na2vs0mg"},{"bike_id":"09f882f9-009b-4072-831a-c2101bccc4de","system_id":"levelo_inurba_marseille","lat":43.304278,"lon":5.388868,"is_reserved":false,"is_disabled":false,"rental_uris":{"android":"levelo://app?vid=09f882f9-009b-4072-831a-c2101bccc4de","ios":"levelo://app?vid=09f882f9-009b-4072-831a-c2101bccc4de"},"vehicle_type_id":"4","last_reported":1718050110,"current_range_meters":31200,"station_id":"ce4bgk12rcd13ifvqbi0","pricing_plan_id":"cebpf4jnsgd1na2vs0mg"},{"bike_id":"01da03af-eef8-44f7-92cc-ad5113476657","system_id":"levelo_inurba_marseille","lat":43.304278,"lon":5.388868,"is_reserved":false,"is_disabled":false,"rental_uris":{"android":"levelo://app?vid=01da03af-eef8-44f7-92cc-ad5113476657","ios":"levelo://app?vid=01da03af-eef8-44f7-92cc-ad5113476657"},"vehicle_type_id":"4","last_reported":1718050110,"current_range_meters":22000,"station_id":"ce4bgk12rcd13ifvqbi0","pricing_plan_id":"cebpf4jnsgd1na2vs0mg"},{"bike_id":"5aa48f55-bf67-4cb2-a7e0-96cd0e8d7769","system_id":"levelo_inurba_marseille","lat":43.304278,"lon":5.388868,"is_reserved":false,"is_disabled":false,"rental_uris":{"android":"levelo://app?vid=5aa48f55-bf67-4cb2-a7e0-96cd0e8d7769","ios":"levelo://app?vid=5aa48f55-bf67-4cb2-a7e0-96cd0e8d7769"},"vehicle_type_id":"4","last_reported":1718050110,"current_range_meters":31200,"station_id":"ce4bgk12rcd13ifvqbi0","pricing_plan_id":"cebpf4jnsgd1na2vs0mg"},{"bike_id":"0984ba0f-b148-45a6-910b-fd03eb328c53","system_id":"levelo_inurba_marseille","lat":43.304274,"lon":5.388873,"is_reserved":false,"is_disabled":false,"rental_uris":{"android":"levelo://app?vid=0984ba0f-b148-45a6-910b-fd03eb328c53","ios":"levelo://app?vid=0984ba0f-b148-45a6-910b-fd03eb328c53"},"vehicle_type_id":"4","last_reported":1718050110,"current_range_meters":12800,"station_id":"ce4bgk12rcd13ifvqbi0","pricing_plan_id":"cebpf4jnsgd1na2vs0mg"},{"bike_id":"ac23e75f-7edc-47d3-9130-4d7ecfabe85a","system_id":"levelo_inurba_marseille","lat":43.304274,"lon":5.388873,"is_reserved":false,"is_disabled":false,"rental_uris":{"android":"levelo://app?vid=ac23e75f-7edc-47d3-9130-4d7ecfabe85a","ios":"levelo://app?vid=ac23e75f-7edc-47d3-9130-4d7ecfabe85a"},"vehicle_type_id":"4","last_reported":1718050110,"current_range_meters":15600,"station_id":"ce4bgk12rcd13ifvqbi0","pricing_plan_id":"cebpf4jnsgd1na2vs0mg"},{"bike_id":"95b862c6-7fb7-40b6-bc1d-d30bf1166ef2","system_id":"levelo_inurba_marseille","lat":43.304278,"lon":5.388868,"is_reserved":false,"is_disabled":false,"rental_uris":{"android":"levelo://app?vid=95b862c6-7fb7-40b6-bc1d-d30bf1166ef2","ios":"levelo://app?vid=95b862c6-7fb7-40b6-bc1d-d30bf1166ef2"},"vehicle_type_id":"4","last_reported":1718050110,"current_range_meters":11600,"station_id":"ce4bgk12rcd13ifvqbi0","pricing_plan_id":"cebpf4jnsgd1na2vs0mg"},{"bike_id":"cda1139f-d640-4ec7-b5f5-fa03c75651ad","system_id":"levelo_inurba_marseille","lat":43.298556,"lon":5.383843,"is_reserved":false,"is_disabled":false,"rental_uris":{"android":"levelo://app?vid=cda1139f-d640-4ec7-b5f5-fa03c75651ad","ios":"levelo://app?vid=cda1139f-d640-4ec7-b5f5-fa03c75651ad"},"vehicle_type_id":"4","last_reported":1718050110,"current_range_meters":25600,"station_id":"","pricing_plan_id":"cebpf4jnsgd1na2vs0mg"},{"bike_id":"e3adbe99-3873-42e2-bdb6-13b2f89508c4","system_id":"levelo_inurba_marseille","lat":43.304278,"lon":5.388868,"is_reserved":false,"is_disabled":false,"rental_uris":{"android":"levelo://app?vid=e3adbe99-3873-42e2-bdb6-13b2f89508c4","ios":"levelo://app?vid=e3adbe99-3873-42e2-bdb6-13b2f89508c4"},"vehicle_type_id":"4","last_reported":1718050110,"current_range_meters":16800,"station_id":"ce4bgk12rcd13ifvqbi0","pricing_plan_id":"cebpf4jnsgd1na2vs0mg"},{"bike_id":"902b2455-d090-4169-97f8-6437c39069c2","system_id":"levelo_inurba_marseille","lat":43.29041,"lon":5.399634,"is_reserved":false,"is_disabled":false,"rental_uris":{"android":"levelo://app?vid=902b2455-d090-4169-97f8-6437c39069c2","ios":"levelo://app?vid=902b2455-d090-4169-97f8-6437c39069c2"},"vehicle_type_id":"4","last_reported":1718050110,"current_range_meters":31600,"station_id":"ce4bh392rcd13ifvqdm0","pricing_plan_id":"cebpf4jnsgd1na2vs0mg"},{"bike_id":"1d8f83c2-7af7-4b40-9cd3-a6bef7069c46","system_id":"levelo_inurba_marseille","lat":43.29466,"lon":5.37576,"is_reserved":false,"is_disabled":false,"rental_uris":{"android":"levelo://app?vid=1d8f83c2-7af7-4b40-9cd3-a6bef7069c46","ios":"levelo://app?vid=1d8f83c2-7af7-4b40-9cd3-a6bef7069c46"},"vehicle_type_id":"4","last_reported":1718050110,"current_range_meters":2400,"station_id":"","pricing_plan_id":"cebpf4jnsgd1na2vs0mg"},{"bike_id":"515f9d4c-901e-40b1-bff2-7c0a2f83d3f9","system_id":"levelo_inurba_marseille","lat":43.32366,"lon":5.38883,"is_reserved":false,"is_disabled":false,"rental_uris":{"android":"levelo://app?vid=515f9d4c-901e-40b1-bff2-7c0a2f83d3f9","ios":"levelo://app?vid=515f9d4c-901e-40b1-bff2-7c0a2f83d3f9"},"vehicle_type_id":"4","last_reported":1718050110,"current_range_meters":0,"station_id":"ce4bhqp2rcd13ifvqhog","pricing_plan_id":"cebpf4jnsgd1na2vs0mg"},{"bike_id":"f07f95cc-38cd-4948-b236-4f8ca5c37972","system_id":"levelo_inurba_marseille","lat":43.32367,"lon":5.38886,"is_reserved":false,"is_disabled":false,"rental_uris":{"android":"levelo://app?vid=f07f95cc-38cd-4948-b236-4f8ca5c37972","ios":"levelo://app?vid=f07f95cc-38cd-4948-b236-4f8ca5c37972"},"vehicle_type_id":"4","last_reported":1718050110,"current_range_meters":19600,"station_id":"ce4bhqp2rcd13ifvqhog","pricing_plan_id":"cebpf4jnsgd1na2vs0mg"},{"bike_id":"5e9cac16-670e-4ed5-abb3-6f5156511ae3","system_id":"levelo_inurba_marseille","lat":43.32367,"lon":5.38889,"is_reserved":false,"is_disabled":false,"rental_uris":{"android":"levelo://app?vid=5e9cac16-670e-4ed5-abb3-6f5156511ae3","ios":"levelo://app?vid=5e9cac16-670e-4ed5-abb3-6f5156511ae3"},"vehicle_type_id":"4","last_reported":1718050110,"current_range_meters":2400,"station_id":"ce4bhqp2rcd13ifvqhog","pricing_plan_id":"cebpf4jnsgd1na2vs0mg"},{"bike_id":"95c3eefc-14b5-4e74-8f9f-9623766bd34b","system_id":"levelo_inurba_marseille","lat":43.32367,"lon":5.388836,"is_reserved":false,"is_disabled":false,"rental_uris":{"android":"levelo://app?vid=95c3eefc-14b5-4e74-8f9f-9623766bd34b","ios":"levelo://app?vid=95c3eefc-14b5-4e74-8f9f-9623766bd34b"},"vehicle_type_id":"4","last_reported":1718050110,"current_range_meters":18000,"station_id":"ce4bhqp2rcd13ifvqhog","pricing_plan_id":"cebpf4jnsgd1na2vs0mg"},{"bike_id":"19d99416-daac-41f3-9043-b9ee26c46abf","system_id":"levelo_inurba_marseille","lat":43.279087,"lon":5.380114,"is_reserved":false,"is_disabled":false,"rental_uris":{"android":"levelo://app?vid=19d99416-daac-41f3-9043-b9ee26c46abf","ios":"levelo://app?vid=19d99416-daac-41f3-9043-b9ee26c46abf"},"vehicle_type_id":"4","last_reported":1718050110,"current_range_meters":4000,"station_id":"ce4bhf92rcd13ifvqf50","pricing_plan_id":"cebpf4jnsgd1na2vs0mg"},{"bike_id":"915c5424-307d-4d8b-8842-468661ee25d1","system_id":"levelo_inurba_marseille","lat":43.29602,"lon":5.381084,"is_reserved":false,"is_disabled":false,"rental_uris":{"android":"levelo://app?vid=915c5424-307d-4d8b-8842-468661ee25d1","ios":"levelo://app?vid=915c5424-307d-4d8b-8842-468661ee25d1"},"vehicle_type_id":"4","last_reported":1718050110,"current_range_meters":4400,"station_id":"ce4bgl12rcd13ifvqbo0","pricing_plan_id":"cebpf4jnsgd1na2vs0mg"},{"bike_id":"091d0760-44da-4d52-91d5-c81ebd757699","system_id":"levelo_inurba_marseille","lat":43.289184,"lon":5.366408,"is_reserved":false,"is_disabled":false,"rental_uris":{"android":"levelo://app?vid=091d0760-44da-4d52-91d5-c81ebd757699","ios":"levelo://app?vid=091d0760-44da-4d52-91d5-c81ebd757699"},"vehicle_type_id":"4","last_reported":1718050110,"current_range_meters":12000,"station_id":"ce4bhap2rcd13ifvqek0","pricing_plan_id":"cebpf4jnsgd1na2vs0mg"},{"bike_id":"54897d63-6c9e-4e0a-adc5-922cc1722da7","system_id":"levelo_inurba_marseille","lat":43.293259,"lon":5.371586,"is_reserved":false,"is_disabled":false,"rental_uris":{"android":"levelo://app?vid=54897d63-6c9e-4e0a-adc5-922cc1722da7","ios":"levelo://app?vid=54897d63-6c9e-4e0a-adc5-922cc1722da7"},"vehicle_type_id":"4","last_reported":1718050110,"current_range_meters":21200,"station_id":"ce4bgh92rcd13ifvqb40","pricing_plan_id":"cebpf4jnsgd1na2vs0mg"},{"bike_id":"8f022deb-db90-46e1-bc00-54bdb9f7b59b","system_id":"levelo_inurba_marseille","lat":43.293259,"lon":5.371586,"is_reserved":false,"is_disabled":false,"rental_uris":{"android":"levelo://app?vid=8f022deb-db90-46e1-bc00-54bdb9f7b59b","ios":"levelo://app?vid=8f022deb-db90-46e1-bc00-54bdb9f7b59b"},"vehicle_type_id":"4","last_reported":1718050110,"current_range_meters":0,"station_id":"ce4bgh92rcd13ifvqb40","pricing_plan_id":"cebpf4jnsgd1na2vs0mg"},{"bike_id":"114b5954-2f8a-4aec-8800-25b1aa3ae9a8","system_id":"levelo_inurba_marseille","lat":43.293069,"lon":5.371761,"is_reserved":false,"is_disabled":false,"rental_uris":{"android":"levelo://app?vid=114b5954-2f8a-4aec-8800-25b1aa3ae9a8","ios":"levelo://app?vid=114b5954-2f8a-4aec-8800-25b1aa3ae9a8"},"vehicle_type_id":"4","last_reported":1718050110,"current_range_meters":0,"station_id":"ce4bgh92rcd13ifvqb40","pricing_plan_id":"cebpf4jnsgd1na2vs0mg"},{"bike_id":"10cb67f5-38c3-499f-b08b-f59fee9258c3","system_id":"levelo_inurba_marseille","lat":43.292749,"lon":5.368402,"is_reserved":false,"is_disabled":false,"rental_uris":{"android":"levelo://app?vid=10cb67f5-38c3-499f-b08b-f59fee9258c3","ios":"levelo://app?vid=10cb67f5-38c3-499f-b08b-f59fee9258c3"},"vehicle_type_id":"4","last_reported":1718050110,"current_range_meters":0,"station_id":"ce4bhbp2rcd13ifvqesg","pricing_plan_id":"cebpf4jnsgd1na2vs0mg"},{"bike_id":"5c47a17b-9959-44ef-94d4-0084565e4d42","system_id":"levelo_inurba_marseille","lat":43.29241,"lon":5.36611,"is_reserved":false,"is_disabled":false,"rental_uris":{"android":"levelo://app?vid=5c47a17b-9959-44ef-94d4-0084565e4d42","ios":"levelo://app?vid=5c47a17b-9959-44ef-94d4-0084565e4d42"},"vehicle_type_id":"4","last_reported":1718050110,"current_range_meters":9200,"station_id":"chh1huq6cuj3fo74tm60","pricing_plan_id":"cebpf4jnsgd1na2vs0mg"},{"bike_id":"6b07e45c-6e6f-4c2f-b195-88d53c6b82c8","system_id":"levelo_inurba_marseille","lat":43.293081,"lon":5.374533,"is_reserved":false,"is_disabled":false,"rental_uris":{"android":"levelo://app?vid=6b07e45c-6e6f-4c2f-b195-88d53c6b82c8","ios":"levelo://app?vid=6b07e45c-6e6f-4c2f-b195-88d53c6b82c8"},"vehicle_type_id":"4","last_reported":1718050110,"current_range_meters":0,"station_id":"ce4bgi12rcd13ifvqb70","pricing_plan_id":"cebpf4jnsgd1na2vs0mg"},{"bike_id":"674b5998-e81f-4dbd-8961-c4921822514d","system_id":"levelo_inurba_marseille","lat":43.305994,"lon":5.393687,"is_reserved":false,"is_disabled":false,"rental_uris":{"android":"levelo://app?vid=674b5998-e81f-4dbd-8961-c4921822514d","ios":"levelo://app?vid=674b5998-e81f-4dbd-8961-c4921822514d"},"vehicle_type_id":"4","last_reported":1718050110,"current_range_meters":3600,"station_id":"ce4bh0p2rcd13ifvqd80","pricing_plan_id":"cebpf4jnsgd1na2vs0mg"},{"bike_id":"6ad7bae9-33c6-483f-9268-1a345499795d","system_id":"levelo_inurba_marseille","lat":43.29296,"lon":5.37445,"is_reserved":false,"is_disabled":false,"rental_uris":{"android":"levelo://app?vid=6ad7bae9-33c6-483f-9268-1a345499795d","ios":"levelo://app?vid=6ad7bae9-33c6-483f-9268-1a345499795d"},"vehicle_type_id":"4","last_reported":1718050110,"current_range_meters":0,"station_id":"ce4bgi12rcd13ifvqb70","pricing_plan_id":"cebpf4jnsgd1na2vs0mg"},{"bike_id":"0a56dbaa-6351-4749-9be8-e5efa31571c9","system_id":"levelo_inurba_marseille","lat":43.305994,"lon":5.393687,"is_reserved":false,"is_disabled":false,"rental_uris":{"android":"levelo://app?vid=0a56dbaa-6351-4749-9be8-e5efa31571c9","ios":"levelo://app?vid=0a56dbaa-6351-4749-9be8-e5efa31571c9"},"vehicle_type_id":"4","last_reported":1718050110,"current_range_meters":4400,"station_id":"ce4bh0p2rcd13ifvqd80","pricing_plan_id":"cebpf4jnsgd1na2vs0mg"},{"bike_id":"c3cf4517-687a-4757-b9fe-bfc075f0d30e","system_id":"levelo_inurba_marseille","lat":43.2929,"lon":5.37447,"is_reserved":false,"is_disabled":false,"rental_uris":{"android":"levelo://app?vid=c3cf4517-687a-4757-b9fe-bfc075f0d30e","ios":"levelo://app?vid=c3cf4517-687a-4757-b9fe-bfc075f0d30e"},"vehicle_type_id":"4","last_reported":1718050110,"current_range_meters":0,"station_id":"ce4bgi12rcd13ifvqb70","pricing_plan_id":"cebpf4jnsgd1na2vs0mg"},{"bike_id":"0f124ab6-06bb-4ffa-88af-d0c000429d77","system_id":"levelo_inurba_marseille","lat":43.292891,"lon":5.374481,"is_reserved":false,"is_disabled":false,"rental_uris":{"android":"levelo://app?vid=0f124ab6-06bb-4ffa-88af-d0c000429d77","ios":"levelo://app?vid=0f124ab6-06bb-4ffa-88af-d0c000429d77"},"vehicle_type_id":"4","last_reported":1718050110,"current_range_meters":0,"station_id":"ce4bgi12rcd13ifvqb70","pricing_plan_id":"cebpf4jnsgd1na2vs0mg"},{"bike_id":"2da42779-5d3d-4544-a86b-98a9d082cbe2","system_id":"levelo_inurba_marseille","lat":43.305994,"lon":5.393687,"is_reserved":false,"is_disabled":false,"rental_uris":{"android":"levelo://app?vid=2da42779-5d3d-4544-a86b-98a9d082cbe2","ios":"levelo://app?vid=2da42779-5d3d-4544-a86b-98a9d082cbe2"},"vehicle_type_id":"4","last_reported":1718050110,"current_range_meters":16400,"station_id":"ce4bh0p2rcd13ifvqd80","pricing_plan_id":"cebpf4jnsgd1na2vs0mg"},{"bike_id":"1a06237e-8d5d-4696-960d-dab4817f22aa","system_id":"levelo_inurba_marseille","lat":43.303002,"lon":5.392142,"is_reserved":false,"is_disabled":false,"rental_uris":{"android":"levelo://app?vid=1a06237e-8d5d-4696-960d-dab4817f22aa","ios":"levelo://app?vid=1a06237e-8d5d-4696-960d-dab4817f22aa"},"vehicle_type_id":"4","last_reported":1718050110,"current_range_meters":7600,"station_id":"ce4bgkh2rcd13ifvqbk0","pricing_plan_id":"cebpf4jnsgd1na2vs0mg"},{"bike_id":"39a4c77b-9a8c-40af-be95-1f86b21bedeb","system_id":"levelo_inurba_marseille","lat":43.305994,"lon":5.393687,"is_reserved":false,"is_disabled":false,"rental_uris":{"android":"levelo://app?vid=39a4c77b-9a8c-40af-be95-1f86b21bedeb","ios":"levelo://app?vid=39a4c77b-9a8c-40af-be95-1f86b21bedeb"},"vehicle_type_id":"4","last_reported":1718050110,"current_range_meters":29600,"station_id":"ce4bh0p2rcd13ifvqd80","pricing_plan_id":"cebpf4jnsgd1na2vs0mg"},{"bike_id":"ee38165d-29d8-4ce4-a2e7-b48b6265b64f","system_id":"levelo_inurba_marseille","lat":43.303002,"lon":5.392142,"is_reserved":false,"is_disabled":false,"rental_uris":{"android":"levelo://app?vid=ee38165d-29d8-4ce4-a2e7-b48b6265b64f","ios":"levelo://app?vid=ee38165d-29d8-4ce4-a2e7-b48b6265b64f"},"vehicle_type_id":"4","last_reported":1718050110,"current_range_meters":31600,"station_id":"ce4bgkh2rcd13ifvqbk0","pricing_plan_id":"cebpf4jnsgd1na2vs0mg"},{"bike_id":"19c8a2d3-ab75-4deb-a906-d73329077745","system_id":"levelo_inurba_marseille","lat":43.302992,"lon":5.392136,"is_reserved":false,"is_disabled":false,"rental_uris":{"android":"levelo://app?vid=19c8a2d3-ab75-4deb-a906-d73329077745","ios":"levelo://app?vid=19c8a2d3-ab75-4deb-a906-d73329077745"},"vehicle_type_id":"4","last_reported":1718050110,"current_range_meters":6400,"station_id":"ce4bgkh2rcd13ifvqbk0","pricing_plan_id":"cebpf4jnsgd1na2vs0mg"},{"bike_id":"2e03e3fc-3511-48f1-bd37-bf3c9ad8d619","system_id":"levelo_inurba_marseille","lat":43.29375,"lon":5.37842,"is_reserved":false,"is_disabled":false,"rental_uris":{"android":"levelo://app?vid=2e03e3fc-3511-48f1-bd37-bf3c9ad8d619","ios":"levelo://app?vid=2e03e3fc-3511-48f1-bd37-bf3c9ad8d619"},"vehicle_type_id":"4","last_reported":1718050110,"current_range_meters":22000,"station_id":"","pricing_plan_id":"cebpf4jnsgd1na2vs0mg"},{"bike_id":"7b92aac0-2bc6-4514-9f56-d664c4ae0eb0","system_id":"levelo_inurba_marseille","lat":43.302992,"lon":5.392136,"is_reserved":false,"is_disabled":false,"rental_uris":{"android":"levelo://app?vid=7b92aac0-2bc6-4514-9f56-d664c4ae0eb0","ios":"levelo://app?vid=7b92aac0-2bc6-4514-9f56-d664c4ae0eb0"},"vehicle_type_id":"4","last_reported":1718050110,"current_range_meters":12800,"station_id":"ce4bgkh2rcd13ifvqbk0","pricing_plan_id":"cebpf4jnsgd1na2vs0mg"},{"bike_id":"a5818624-6492-4249-a2ee-e9d370379158","system_id":"levelo_inurba_marseille","lat":43.303002,"lon":5.392142,"is_reserved":false,"is_disabled":false,"rental_uris":{"android":"levelo://app?vid=a5818624-6492-4249-a2ee-e9d370379158","ios":"levelo://app?vid=a5818624-6492-4249-a2ee-e9d370379158"},"vehicle_type_id":"4","last_reported":1718050110,"current_range_meters":30000,"station_id":"ce4bgkh2rcd13ifvqbk0","pricing_plan_id":"cebpf4jnsgd1na2vs0mg"},{"bike_id":"7a2e94f1-70af-48d7-9c9a-e679c86116ca","system_id":"levelo_inurba_marseille","lat":43.2936,"lon":5.37835,"is_reserved":false,"is_disabled":false,"rental_uris":{"android":"levelo://app?vid=7a2e94f1-70af-48d7-9c9a-e679c86116ca","ios":"levelo://app?vid=7a2e94f1-70af-48d7-9c9a-e679c86116ca"},"vehicle_type_id":"4","last_reported":1718050110,"current_range_meters":16000,"station_id":"ce4bgjh2rcd13ifvqbf0","pricing_plan_id":"cebpf4jnsgd1na2vs0mg"},{"bike_id":"9fe19b20-b55a-4a13-8030-0073dee7f072","system_id":"levelo_inurba_marseille","lat":43.2936,"lon":5.37835,"is_reserved":false,"is_disabled":false,"rental_uris":{"android":"levelo://app?vid=9fe19b20-b55a-4a13-8030-0073dee7f072","ios":"levelo://app?vid=9fe19b20-b55a-4a13-8030-0073dee7f072"},"vehicle_type_id":"4","last_reported":1718050110,"current_range_meters":0,"station_id":"ce4bgjh2rcd13ifvqbf0","pricing_plan_id":"cebpf4jnsgd1na2vs0mg"},{"bike_id":"a4e203ce-c8ff-42b6-962f-0c99d5be109a","system_id":"levelo_inurba_marseille","lat":43.292311,"lon":5.360731,"is_reserved":false,"is_disabled":false,"rental_uris":{"android":"levelo://app?vid=a4e203ce-c8ff-42b6-962f-0c99d5be109a","ios":"levelo://app?vid=a4e203ce-c8ff-42b6-962f-0c99d5be109a"},"vehicle_type_id":"4","last_reported":1718050110,"current_range_meters":31200,"station_id":"ce4bhbh2rcd13ifvqeqg","pricing_plan_id":"cebpf4jnsgd1na2vs0mg"},{"bike_id":"3e70f9ec-a6f8-45f3-b80e-886ce817c59c","system_id":"levelo_inurba_marseille","lat":43.30085,"lon":5.390856,"is_reserved":false,"is_disabled":false,"rental_uris":{"android":"levelo://app?vid=3e70f9ec-a6f8-45f3-b80e-886ce817c59c","ios":"levelo://app?vid=3e70f9ec-a6f8-45f3-b80e-886ce817c59c"},"vehicle_type_id":"4","last_reported":1718050110,"current_range_meters":18400,"station_id":"ce4bh192rcd13ifvqdb0","pricing_plan_id":"cebpf4jnsgd1na2vs0mg"},{"bike_id":"018a40f9-70cb-4770-abdb-f67acccac6ae","system_id":"levelo_inurba_marseille","lat":43.292311,"lon":5.360731,"is_reserved":false,"is_disabled":false,"rental_uris":{"android":"levelo://app?vid=018a40f9-70cb-4770-abdb-f67acccac6ae","ios":"levelo://app?vid=018a40f9-70cb-4770-abdb-f67acccac6ae"},"vehicle_type_id":"4","last_reported":1718050110,"current_range_meters":4000,"station_id":"ce4bhbh2rcd13ifvqeqg","pricing_plan_id":"cebpf4jnsgd1na2vs0mg"},{"bike_id":"670dca88-b8d0-4558-9616-e29e0ff7dce3","system_id":"levelo_inurba_marseille","lat":43.29215,"lon":5.3604,"is_reserved":false,"is_disabled":false,"rental_uris":{"android":"levelo://app?vid=670dca88-b8d0-4558-9616-e29e0ff7dce3","ios":"levelo://app?vid=670dca88-b8d0-4558-9616-e29e0ff7dce3"},"vehicle_type_id":"4","last_reported":1718050110,"current_range_meters":18800,"station_id":"ce4bhbh2rcd13ifvqeqg","pricing_plan_id":"cebpf4jnsgd1na2vs0mg"},{"bike_id":"53ac5235-dbdc-428f-af68-27946b18456f","system_id":"levelo_inurba_marseille","lat":43.292311,"lon":5.360731,"is_reserved":false,"is_disabled":false,"rental_uris":{"android":"levelo://app?vid=53ac5235-dbdc-428f-af68-27946b18456f","ios":"levelo://app?vid=53ac5235-dbdc-428f-af68-27946b18456f"},"vehicle_type_id":"4","last_reported":1718050110,"current_range_meters":31200,"station_id":"ce4bhbh2rcd13ifvqeqg","pricing_plan_id":"cebpf4jnsgd1na2vs0mg"},{"bike_id":"ab78e0e9-c91e-4ceb-9adf-94d31cc53cd7","system_id":"levelo_inurba_marseille","lat":43.291675,"lon":5.371583,"is_reserved":false,"is_disabled":false,"rental_uris":{"android":"levelo://app?vid=ab78e0e9-c91e-4ceb-9adf-94d31cc53cd7","ios":"levelo://app?vid=ab78e0e9-c91e-4ceb-9adf-94d31cc53cd7"},"vehicle_type_id":"4","last_reported":1718050110,"current_range_meters":5600,"station_id":"ce4bha92rcd13ifvqeh0","pricing_plan_id":"cebpf4jnsgd1na2vs0mg"},{"bike_id":"953730f3-602d-4faf-80f3-c55683e94ff4","system_id":"levelo_inurba_marseille","lat":43.298764,"lon":5.388973,"is_reserved":false,"is_disabled":false,"rental_uris":{"android":"levelo://app?vid=953730f3-602d-4faf-80f3-c55683e94ff4","ios":"levelo://app?vid=953730f3-602d-4faf-80f3-c55683e94ff4"},"vehicle_type_id":"4","last_reported":1718050110,"current_range_meters":30800,"station_id":"ce4bh392rcd13ifvqdl0","pricing_plan_id":"cebpf4jnsgd1na2vs0mg"},{"bike_id":"e28bf716-f326-48f5-8abd-d112d5c999ca","system_id":"levelo_inurba_marseille","lat":43.298764,"lon":5.388973,"is_reserved":false,"is_disabled":false,"rental_uris":{"android":"levelo://app?vid=e28bf716-f326-48f5-8abd-d112d5c999ca","ios":"levelo://app?vid=e28bf716-f326-48f5-8abd-d112d5c999ca"},"vehicle_type_id":"4","last_reported":1718050110,"current_range_meters":24000,"station_id":"ce4bh392rcd13ifvqdl0","pricing_plan_id":"cebpf4jnsgd1na2vs0mg"},{"bike_id":"436d0184-917e-4e4b-99ae-1d88f6afc812","system_id":"levelo_inurba_marseille","lat":43.313291,"lon":5.396838,"is_reserved":false,"is_disabled":false,"rental_uris":{"android":"levelo://app?vid=436d0184-917e-4e4b-99ae-1d88f6afc812","ios":"levelo://app?vid=436d0184-917e-4e4b-99ae-1d88f6afc812"},"vehicle_type_id":"4","last_reported":1718050110,"current_range_meters":21200,"station_id":"ce4bgvp2rcd13ifvqcu0","pricing_plan_id":"cebpf4jnsgd1na2vs0mg"},{"bike_id":"77f35897-520d-475f-9cd3-d7fb0d250054","system_id":"levelo_inurba_marseille","lat":43.312856,"lon":5.39663,"is_reserved":false,"is_disabled":false,"rental_uris":{"android":"levelo://app?vid=77f35897-520d-475f-9cd3-d7fb0d250054","ios":"levelo://app?vid=77f35897-520d-475f-9cd3-d7fb0d250054"},"vehicle_type_id":"4","last_reported":1718050110,"current_range_meters":14000,"station_id":"ce4bgvp2rcd13ifvqcu0","pricing_plan_id":"cebpf4jnsgd1na2vs0mg"},{"bike_id":"34b445b6-e87b-4e9b-bc13-13d70ed99f53","system_id":"levelo_inurba_marseille","lat":43.30874,"lon":5.39623,"is_reserved":false,"is_disabled":false,"rental_uris":{"android":"levelo://app?vid=34b445b6-e87b-4e9b-bc13-13d70ed99f53","ios":"levelo://app?vid=34b445b6-e87b-4e9b-bc13-13d70ed99f53"},"vehicle_type_id":"4","last_reported":1718050110,"current_range_meters":22800,"station_id":"ce4bh012rcd13ifvqcv0","pricing_plan_id":"cebpf4jnsgd1na2vs0mg"},{"bike_id":"4b059b7b-9fb9-4261-82a1-e1e988930bf1","system_id":"levelo_inurba_marseille","lat":43.309038,"lon":5.396546,"is_reserved":false,"is_disabled":false,"rental_uris":{"android":"levelo://app?vid=4b059b7b-9fb9-4261-82a1-e1e988930bf1","ios":"levelo://app?vid=4b059b7b-9fb9-4261-82a1-e1e988930bf1"},"vehicle_type_id":"4","last_reported":1718050110,"current_range_meters":10000,"station_id":"ce4bh012rcd13ifvqcv0","pricing_plan_id":"cebpf4jnsgd1na2vs0mg"},{"bike_id":"58912c00-1f3c-4b0d-90cd-9be0503ba43f","system_id":"levelo_inurba_marseille","lat":43.291896,"lon":5.357959,"is_reserved":false,"is_disabled":false,"rental_uris":{"android":"levelo://app?vid=58912c00-1f3c-4b0d-90cd-9be0503ba43f","ios":"levelo://app?vid=58912c00-1f3c-4b0d-90cd-9be0503ba43f"},"vehicle_type_id":"4","last_reported":1718050110,"current_range_meters":14000,"station_id":"","pricing_plan_id":"cebpf4jnsgd1na2vs0mg"},{"bike_id":"88615f23-a1e3-4951-82db-b8f4b7c89e46","system_id":"levelo_inurba_marseille","lat":43.309038,"lon":5.396546,"is_reserved":false,"is_disabled":false,"rental_uris":{"android":"levelo://app?vid=88615f23-a1e3-4951-82db-b8f4b7c89e46","ios":"levelo://app?vid=88615f23-a1e3-4951-82db-b8f4b7c89e46"},"vehicle_type_id":"4","last_reported":1718050110,"current_range_meters":19200,"station_id":"ce4bh012rcd13ifvqcv0","pricing_plan_id":"cebpf4jnsgd1na2vs0mg"},{"bike_id":"f11deb7b-385f-45be-9178-6c4b53539924","system_id":"levelo_inurba_marseille","lat":43.309047,"lon":5.396551,"is_reserved":false,"is_disabled":false,"rental_uris":{"android":"levelo://app?vid=f11deb7b-385f-45be-9178-6c4b53539924","ios":"levelo://app?vid=f11deb7b-385f-45be-9178-6c4b53539924"},"vehicle_type_id":"4","last_reported":1718050110,"current_range_meters":1200,"station_id":"ce4bh012rcd13ifvqcv0","pricing_plan_id":"cebpf4jnsgd1na2vs0mg"},{"bike_id":"644e07f4-6ee5-4b1f-b4a5-9061b9dacf25","system_id":"levelo_inurba_marseille","lat":43.313291,"lon":5.396838,"is_reserved":false,"is_disabled":false,"rental_uris":{"android":"levelo://app?vid=644e07f4-6ee5-4b1f-b4a5-9061b9dacf25","ios":"levelo://app?vid=644e07f4-6ee5-4b1f-b4a5-9061b9dacf25"},"vehicle_type_id":"4","last_reported":1718050110,"current_range_meters":2000,"station_id":"ce4bgvp2rcd13ifvqcu0","pricing_plan_id":"cebpf4jnsgd1na2vs0mg"},{"bike_id":"a9d80ba9-5e27-4a0a-8465-2ca7bb0c83e8","system_id":"levelo_inurba_marseille","lat":43.313291,"lon":5.396838,"is_reserved":false,"is_disabled":false,"rental_uris":{"android":"levelo://app?vid=a9d80ba9-5e27-4a0a-8465-2ca7bb0c83e8","ios":"levelo://app?vid=a9d80ba9-5e27-4a0a-8465-2ca7bb0c83e8"},"vehicle_type_id":"4","last_reported":1718050110,"current_range_meters":16000,"station_id":"ce4bgvp2rcd13ifvqcu0","pricing_plan_id":"cebpf4jnsgd1na2vs0mg"},{"bike_id":"d690ee24-a50a-41c0-8cf6-e9934cf1ba92","system_id":"levelo_inurba_marseille","lat":43.309047,"lon":5.396551,"is_reserved":false,"is_disabled":false,"rental_uris":{"android":"levelo://app?vid=d690ee24-a50a-41c0-8cf6-e9934cf1ba92","ios":"levelo://app?vid=d690ee24-a50a-41c0-8cf6-e9934cf1ba92"},"vehicle_type_id":"4","last_reported":1718050110,"current_range_meters":4000,"station_id":"ce4bh012rcd13ifvqcv0","pricing_plan_id":"cebpf4jnsgd1na2vs0mg"},{"bike_id":"8d3bd3c6-1dfd-4ba9-b797-b3be123f4ca0","system_id":"levelo_inurba_marseille","lat":43.31323,"lon":5.39703,"is_reserved":false,"is_disabled":false,"rental_uris":{"android":"levelo://app?vid=8d3bd3c6-1dfd-4ba9-b797-b3be123f4ca0","ios":"levelo://app?vid=8d3bd3c6-1dfd-4ba9-b797-b3be123f4ca0"},"vehicle_type_id":"4","last_reported":1718050110,"current_range_meters":0,"station_id":"ce4bgvp2rcd13ifvqcu0","pricing_plan_id":"cebpf4jnsgd1na2vs0mg"},{"bike_id":"c9ca44cd-c88d-4822-ab08-8ea86573c2ef","system_id":"levelo_inurba_marseille","lat":43.309038,"lon":5.396546,"is_reserved":false,"is_disabled":false,"rental_uris":{"android":"levelo://app?vid=c9ca44cd-c88d-4822-ab08-8ea86573c2ef","ios":"levelo://app?vid=c9ca44cd-c88d-4822-ab08-8ea86573c2ef"},"vehicle_type_id":"4","last_reported":1718050110,"current_range_meters":0,"station_id":"ce4bh012rcd13ifvqcv0","pricing_plan_id":"cebpf4jnsgd1na2vs0mg"},{"bike_id":"4cc86da8-c378-488b-948a-85af8a4d2821","system_id":"levelo_inurba_marseille","lat":43.29529,"lon":5.385581,"is_reserved":false,"is_disabled":false,"rental_uris":{"android":"levelo://app?vid=4cc86da8-c378-488b-948a-85af8a4d2821","ios":"levelo://app?vid=4cc86da8-c378-488b-948a-85af8a4d2821"},"vehicle_type_id":"4","last_reported":1718050110,"current_range_meters":17200,"station_id":"ce4bgih2rcd13ifvqba0","pricing_plan_id":"cebpf4jnsgd1na2vs0mg"},{"bike_id":"cf603ea0-949a-4b1a-92ee-e907e5f8a05b","system_id":"levelo_inurba_marseille","lat":43.290779,"lon":5.371482,"is_reserved":false,"is_disabled":false,"rental_uris":{"android":"levelo://app?vid=cf603ea0-949a-4b1a-92ee-e907e5f8a05b","ios":"levelo://app?vid=cf603ea0-949a-4b1a-92ee-e907e5f8a05b"},"vehicle_type_id":"4","last_reported":1718050110,"current_range_meters":23200,"station_id":"ce4bh5p2rcd13ifvqe4g","pricing_plan_id":"cebpf4jnsgd1na2vs0mg"},{"bike_id":"60d72ca8-fc31-45e2-a2f6-3967dd145d9e","system_id":"levelo_inurba_marseille","lat":43.3021,"lon":5.39461,"is_reserved":false,"is_disabled":false,"rental_uris":{"android":"levelo://app?vid=60d72ca8-fc31-45e2-a2f6-3967dd145d9e","ios":"levelo://app?vid=60d72ca8-fc31-45e2-a2f6-3967dd145d9e"},"vehicle_type_id":"4","last_reported":1718050110,"current_range_meters":22400,"station_id":"ce4bh0p2rcd13ifvqd70","pricing_plan_id":"cebpf4jnsgd1na2vs0mg"},{"bike_id":"138b9583-7da7-45f4-8144-7cf4a4851612","system_id":"levelo_inurba_marseille","lat":43.302008,"lon":5.394694,"is_reserved":false,"is_disabled":false,"rental_uris":{"android":"levelo://app?vid=138b9583-7da7-45f4-8144-7cf4a4851612","ios":"levelo://app?vid=138b9583-7da7-45f4-8144-7cf4a4851612"},"vehicle_type_id":"4","last_reported":1718050110,"current_range_meters":0,"station_id":"ce4bh0p2rcd13ifvqd70","pricing_plan_id":"cebpf4jnsgd1na2vs0mg"},{"bike_id":"69a79e3a-db16-4295-a2da-e3e877f1aa0c","system_id":"levelo_inurba_marseille","lat":43.302008,"lon":5.394694,"is_reserved":false,"is_disabled":false,"rental_uris":{"android":"levelo://app?vid=69a79e3a-db16-4295-a2da-e3e877f1aa0c","ios":"levelo://app?vid=69a79e3a-db16-4295-a2da-e3e877f1aa0c"},"vehicle_type_id":"4","last_reported":1718050110,"current_range_meters":4800,"station_id":"ce4bh0p2rcd13ifvqd70","pricing_plan_id":"cebpf4jnsgd1na2vs0mg"},{"bike_id":"d04e9a50-d44a-4546-a31b-f76fb9a2ec0b","system_id":"levelo_inurba_marseille","lat":43.30201,"lon":5.39461,"is_reserved":false,"is_disabled":false,"rental_uris":{"android":"levelo://app?vid=d04e9a50-d44a-4546-a31b-f76fb9a2ec0b","ios":"levelo://app?vid=d04e9a50-d44a-4546-a31b-f76fb9a2ec0b"},"vehicle_type_id":"4","last_reported":1718050110,"current_range_meters":13600,"station_id":"ce4bh0p2rcd13ifvqd70","pricing_plan_id":"cebpf4jnsgd1na2vs0mg"},{"bike_id":"ec52c502-9fd2-46e8-ac64-0455244880fc","system_id":"levelo_inurba_marseille","lat":43.30208,"lon":5.39468,"is_reserved":false,"is_disabled":false,"rental_uris":{"android":"levelo://app?vid=ec52c502-9fd2-46e8-ac64-0455244880fc","ios":"levelo://app?vid=ec52c502-9fd2-46e8-ac64-0455244880fc"},"vehicle_type_id":"4","last_reported":1718050110,"current_range_meters":1200,"station_id":"ce4bh0p2rcd13ifvqd70","pricing_plan_id":"cebpf4jnsgd1na2vs0mg"},{"bike_id":"fb50e090-e84d-4530-9005-35b0d1d15b48","system_id":"levelo_inurba_marseille","lat":43.302008,"lon":5.394694,"is_reserved":false,"is_disabled":false,"rental_uris":{"android":"levelo://app?vid=fb50e090-e84d-4530-9005-35b0d1d15b48","ios":"levelo://app?vid=fb50e090-e84d-4530-9005-35b0d1d15b48"},"vehicle_type_id":"4","last_reported":1718050110,"current_range_meters":0,"station_id":"ce4bh0p2rcd13ifvqd70","pricing_plan_id":"cebpf4jnsgd1na2vs0mg"},{"bike_id":"f744b62e-6ad8-4880-aee8-7794ed5bd712","system_id":"levelo_inurba_marseille","lat":43.32367,"lon":5.388836,"is_reserved":false,"is_disabled":false,"rental_uris":{"android":"levelo://app?vid=f744b62e-6ad8-4880-aee8-7794ed5bd712","ios":"levelo://app?vid=f744b62e-6ad8-4880-aee8-7794ed5bd712"},"vehicle_type_id":"4","last_reported":1718050110,"current_range_meters":0,"station_id":"ce4bhqp2rcd13ifvqhog","pricing_plan_id":"cebpf4jnsgd1na2vs0mg"},{"bike_id":"d2af672f-dc70-4dde-870c-3326ddd0faba","system_id":"levelo_inurba_marseille","lat":43.294162,"lon":5.386292,"is_reserved":false,"is_disabled":false,"rental_uris":{"android":"levelo://app?vid=d2af672f-dc70-4dde-870c-3326ddd0faba","ios":"levelo://app?vid=d2af672f-dc70-4dde-870c-3326ddd0faba"},"vehicle_type_id":"4","last_reported":1718050110,"current_range_meters":0,"station_id":"ce4bh2h2rcd13ifvqdh0","pricing_plan_id":"cebpf4jnsgd1na2vs0mg"},{"bike_id":"1480a11b-c629-47d8-ad61-70b303349c45","system_id":"levelo_inurba_marseille","lat":43.290368,"lon":5.37719,"is_reserved":false,"is_disabled":false,"rental_uris":{"android":"levelo://app?vid=1480a11b-c629-47d8-ad61-70b303349c45","ios":"levelo://app?vid=1480a11b-c629-47d8-ad61-70b303349c45"},"vehicle_type_id":"4","last_reported":1718050110,"current_range_meters":19200,"station_id":"","pricing_plan_id":"cebpf4jnsgd1na2vs0mg"},{"bike_id":"978a4f50-6aea-44ff-bd32-0b5778623e93","system_id":"levelo_inurba_marseille","lat":43.289468,"lon":5.363719,"is_reserved":false,"is_disabled":false,"rental_uris":{"android":"levelo://app?vid=978a4f50-6aea-44ff-bd32-0b5778623e93","ios":"levelo://app?vid=978a4f50-6aea-44ff-bd32-0b5778623e93"},"vehicle_type_id":"4","last_reported":1718050110,"current_range_meters":6400,"station_id":"ce4bhc92rcd13ifvqetg","pricing_plan_id":"cebpf4jnsgd1na2vs0mg"},{"bike_id":"f9d347bf-88ee-4e9d-a1f6-101820af9123","system_id":"levelo_inurba_marseille","lat":43.304296,"lon":5.397513,"is_reserved":false,"is_disabled":false,"rental_uris":{"android":"levelo://app?vid=f9d347bf-88ee-4e9d-a1f6-101820af9123","ios":"levelo://app?vid=f9d347bf-88ee-4e9d-a1f6-101820af9123"},"vehicle_type_id":"4","last_reported":1718050110,"current_range_meters":15600,"station_id":"ce4bh092rcd13ifvqd20","pricing_plan_id":"cebpf4jnsgd1na2vs0mg"},{"bike_id":"6de7bf88-ecc5-42e4-ad68-66ee863d5166","system_id":"levelo_inurba_marseille","lat":43.292633,"lon":5.38447,"is_reserved":false,"is_disabled":false,"rental_uris":{"android":"levelo://app?vid=6de7bf88-ecc5-42e4-ad68-66ee863d5166","ios":"levelo://app?vid=6de7bf88-ecc5-42e4-ad68-66ee863d5166"},"vehicle_type_id":"4","last_reported":1718050110,"current_range_meters":18000,"station_id":"ce4bh692rcd13ifvqea0","pricing_plan_id":"cebpf4jnsgd1na2vs0mg"},{"bike_id":"d61fb6d1-0d96-468d-bb21-2007299afabb","system_id":"levelo_inurba_marseille","lat":43.304274,"lon":5.397513,"is_reserved":false,"is_disabled":false,"rental_uris":{"android":"levelo://app?vid=d61fb6d1-0d96-468d-bb21-2007299afabb","ios":"levelo://app?vid=d61fb6d1-0d96-468d-bb21-2007299afabb"},"vehicle_type_id":"4","last_reported":1718050110,"current_range_meters":6800,"station_id":"ce4bh092rcd13ifvqd20","pricing_plan_id":"cebpf4jnsgd1na2vs0mg"},{"bike_id":"c018c82e-f6b2-4138-b037-4e05432a5add","system_id":"levelo_inurba_marseille","lat":43.295713,"lon":5.399639,"is_reserved":false,"is_disabled":false,"rental_uris":{"android":"levelo://app?vid=c018c82e-f6b2-4138-b037-4e05432a5add","ios":"levelo://app?vid=c018c82e-f6b2-4138-b037-4e05432a5add"},"vehicle_type_id":"4","last_reported":1718050110,"current_range_meters":0,"station_id":"ce4bh312rcd13ifvqdj0","pricing_plan_id":"cebpf4jnsgd1na2vs0mg"},{"bike_id":"63bd536b-8402-4fbd-b4af-bd837da1e3a0","system_id":"levelo_inurba_marseille","lat":43.258658,"lon":5.398935,"is_reserved":false,"is_disabled":false,"rental_uris":{"android":"levelo://app?vid=63bd536b-8402-4fbd-b4af-bd837da1e3a0","ios":"levelo://app?vid=63bd536b-8402-4fbd-b4af-bd837da1e3a0"},"vehicle_type_id":"4","last_reported":1718050110,"current_range_meters":21600,"station_id":"ce4bhl92rcd13ifvqghg","pricing_plan_id":"cebpf4jnsgd1na2vs0mg"},{"bike_id":"cfdb7b80-3a2f-4e9e-8d30-d331d100284f","system_id":"levelo_inurba_marseille","lat":43.29243,"lon":5.38437,"is_reserved":false,"is_disabled":false,"rental_uris":{"android":"levelo://app?vid=cfdb7b80-3a2f-4e9e-8d30-d331d100284f","ios":"levelo://app?vid=cfdb7b80-3a2f-4e9e-8d30-d331d100284f"},"vehicle_type_id":"4","last_reported":1718050110,"current_range_meters":0,"station_id":"ce4bh692rcd13ifvqea0","pricing_plan_id":"cebpf4jnsgd1na2vs0mg"},{"bike_id":"cda3a03a-2e86-447b-817c-9fafeaeedd5c","system_id":"levelo_inurba_marseille","lat":43.29005,"lon":5.35619,"is_reserved":false,"is_disabled":false,"rental_uris":{"android":"levelo://app?vid=cda3a03a-2e86-447b-817c-9fafeaeedd5c","ios":"levelo://app?vid=cda3a03a-2e86-447b-817c-9fafeaeedd5c"},"vehicle_type_id":"4","last_reported":1718050110,"current_range_meters":0,"station_id":"ce4bhb92rcd13ifvqen0","pricing_plan_id":"cebpf4jnsgd1na2vs0mg"},{"bike_id":"03c0eaea-ec36-487a-8bd4-738773aca29d","system_id":"levelo_inurba_marseille","lat":43.295367,"lon":5.389788,"is_reserved":false,"is_disabled":false,"rental_uris":{"android":"levelo://app?vid=03c0eaea-ec36-487a-8bd4-738773aca29d","ios":"levelo://app?vid=03c0eaea-ec36-487a-8bd4-738773aca29d"},"vehicle_type_id":"4","last_reported":1718050110,"current_range_meters":0,"station_id":"","pricing_plan_id":"cebpf4jnsgd1na2vs0mg"},{"bike_id":"7b4ccbe3-9184-433e-bd54-aa293d697c5c","system_id":"levelo_inurba_marseille","lat":43.290995,"lon":5.381361,"is_reserved":false,"is_disabled":false,"rental_uris":{"android":"levelo://app?vid=7b4ccbe3-9184-433e-bd54-aa293d697c5c","ios":"levelo://app?vid=7b4ccbe3-9184-433e-bd54-aa293d697c5c"},"vehicle_type_id":"4","last_reported":1718050110,"current_range_meters":16400,"station_id":"ce4bh512rcd13ifvqe2g","pricing_plan_id":"cebpf4jnsgd1na2vs0mg"},{"bike_id":"fbd7664b-70b1-4dfc-b413-921861083597","system_id":"levelo_inurba_marseille","lat":43.29789,"lon":5.39334,"is_reserved":false,"is_disabled":false,"rental_uris":{"android":"levelo://app?vid=fbd7664b-70b1-4dfc-b413-921861083597","ios":"levelo://app?vid=fbd7664b-70b1-4dfc-b413-921861083597"},"vehicle_type_id":"4","last_reported":1718050110,"current_range_meters":10800,"station_id":"chh1huq6cuj3fo74tm60","pricing_plan_id":"cebpf4jnsgd1na2vs0mg"},{"bike_id":"90c8cb18-3af5-456a-a813-e995cd777346","system_id":"levelo_inurba_marseille","lat":43.297815,"lon":5.393548,"is_reserved":false,"is_disabled":false,"rental_uris":{"android":"levelo://app?vid=90c8cb18-3af5-456a-a813-e995cd777346","ios":"levelo://app?vid=90c8cb18-3af5-456a-a813-e995cd777346"},"vehicle_type_id":"4","last_reported":1718050110,"current_range_meters":26000,"station_id":"chh1huq6cuj3fo74tm60","pricing_plan_id":"cebpf4jnsgd1na2vs0mg"},{"bike_id":"2d17497c-e8f0-43a6-ba6f-4604afb4e19e","system_id":"levelo_inurba_marseille","lat":43.289743,"lon":5.378304,"is_reserved":false,"is_disabled":false,"rental_uris":{"android":"levelo://app?vid=2d17497c-e8f0-43a6-ba6f-4604afb4e19e","ios":"levelo://app?vid=2d17497c-e8f0-43a6-ba6f-4604afb4e19e"},"vehicle_type_id":"4","last_reported":1718050110,"current_range_meters":7600,"station_id":"ce4bh9p2rcd13ifvqed0","pricing_plan_id":"cebpf4jnsgd1na2vs0mg"},{"bike_id":"d924ff8f-10b9-49ec-9bd3-e18aaefa482a","system_id":"levelo_inurba_marseille","lat":43.295169,"lon":5.390426,"is_reserved":false,"is_disabled":false,"rental_uris":{"android":"levelo://app?vid=d924ff8f-10b9-49ec-9bd3-e18aaefa482a","ios":"levelo://app?vid=d924ff8f-10b9-49ec-9bd3-e18aaefa482a"},"vehicle_type_id":"4","last_reported":1718050110,"current_range_meters":30800,"station_id":"ce4bh3p2rcd13ifvqdp0","pricing_plan_id":"cebpf4jnsgd1na2vs0mg"},{"bike_id":"b92e8af7-d4a3-411c-aa8f-ed7039aa7fc1","system_id":"levelo_inurba_marseille","lat":43.33028,"lon":5.3904,"is_reserved":false,"is_disabled":false,"rental_uris":{"android":"levelo://app?vid=b92e8af7-d4a3-411c-aa8f-ed7039aa7fc1","ios":"levelo://app?vid=b92e8af7-d4a3-411c-aa8f-ed7039aa7fc1"},"vehicle_type_id":"4","last_reported":1718050110,"current_range_meters":0,"station_id":"ce4bhr92rcd13ifvqhrg","pricing_plan_id":"cebpf4jnsgd1na2vs0mg"},{"bike_id":"3a27bcf1-f586-426a-89f2-df9506656ddc","system_id":"levelo_inurba_marseille","lat":43.295169,"lon":5.390426,"is_reserved":false,"is_disabled":false,"rental_uris":{"android":"levelo://app?vid=3a27bcf1-f586-426a-89f2-df9506656ddc","ios":"levelo://app?vid=3a27bcf1-f586-426a-89f2-df9506656ddc"},"vehicle_type_id":"4","last_reported":1718050110,"current_range_meters":0,"station_id":"ce4bh3p2rcd13ifvqdp0","pricing_plan_id":"cebpf4jnsgd1na2vs0mg"},{"bike_id":"44089c6e-6b7f-4e64-8d13-ce9a32b3f21a","system_id":"levelo_inurba_marseille","lat":43.295169,"lon":5.390426,"is_reserved":false,"is_disabled":false,"rental_uris":{"android":"levelo://app?vid=44089c6e-6b7f-4e64-8d13-ce9a32b3f21a","ios":"levelo://app?vid=44089c6e-6b7f-4e64-8d13-ce9a32b3f21a"},"vehicle_type_id":"4","last_reported":1718050110,"current_range_meters":31200,"station_id":"ce4bh3p2rcd13ifvqdp0","pricing_plan_id":"cebpf4jnsgd1na2vs0mg"},{"bike_id":"64315884-f896-481f-a2d8-bfe1ef5b8b74","system_id":"levelo_inurba_marseille","lat":43.2901,"lon":5.381269,"is_reserved":false,"is_disabled":false,"rental_uris":{"android":"levelo://app?vid=64315884-f896-481f-a2d8-bfe1ef5b8b74","ios":"levelo://app?vid=64315884-f896-481f-a2d8-bfe1ef5b8b74"},"vehicle_type_id":"4","last_reported":1718050110,"current_range_meters":8400,"station_id":"ce4bh4p2rcd13ifvqe1g","pricing_plan_id":"cebpf4jnsgd1na2vs0mg"},{"bike_id":"44c5c257-acb3-448f-a18c-f01cf973fe6a","system_id":"levelo_inurba_marseille","lat":43.2901,"lon":5.381269,"is_reserved":false,"is_disabled":false,"rental_uris":{"android":"levelo://app?vid=44c5c257-acb3-448f-a18c-f01cf973fe6a","ios":"levelo://app?vid=44c5c257-acb3-448f-a18c-f01cf973fe6a"},"vehicle_type_id":"4","last_reported":1718050110,"current_range_meters":8800,"station_id":"ce4bh4p2rcd13ifvqe1g","pricing_plan_id":"cebpf4jnsgd1na2vs0mg"},{"bike_id":"3f46d27a-4b3e-40a1-bbff-026a8e7cac08","system_id":"levelo_inurba_marseille","lat":43.29021,"lon":5.38134,"is_reserved":false,"is_disabled":false,"rental_uris":{"android":"levelo://app?vid=3f46d27a-4b3e-40a1-bbff-026a8e7cac08","ios":"levelo://app?vid=3f46d27a-4b3e-40a1-bbff-026a8e7cac08"},"vehicle_type_id":"4","last_reported":1718050110,"current_range_meters":0,"station_id":"ce4bh4p2rcd13ifvqe1g","pricing_plan_id":"cebpf4jnsgd1na2vs0mg"},{"bike_id":"cbf70b13-9705-486f-a4ba-322128b8de34","system_id":"levelo_inurba_marseille","lat":43.293271,"lon":5.388541,"is_reserved":false,"is_disabled":false,"rental_uris":{"android":"levelo://app?vid=cbf70b13-9705-486f-a4ba-322128b8de34","ios":"levelo://app?vid=cbf70b13-9705-486f-a4ba-322128b8de34"},"vehicle_type_id":"4","last_reported":1718050110,"current_range_meters":24400,"station_id":"ce4bh292rcd13ifvqdf0","pricing_plan_id":"cebpf4jnsgd1na2vs0mg"},{"bike_id":"3c0324c5-c393-43fa-8dcd-aa986d88a712","system_id":"levelo_inurba_marseille","lat":43.2918,"lon":5.38604,"is_reserved":false,"is_disabled":false,"rental_uris":{"android":"levelo://app?vid=3c0324c5-c393-43fa-8dcd-aa986d88a712","ios":"levelo://app?vid=3c0324c5-c393-43fa-8dcd-aa986d88a712"},"vehicle_type_id":"4","last_reported":1718050110,"current_range_meters":15600,"station_id":"","pricing_plan_id":"cebpf4jnsgd1na2vs0mg"},{"bike_id":"cafff717-c543-44d1-bfd3-19307a408223","system_id":"levelo_inurba_marseille","lat":43.312609,"lon":5.401662,"is_reserved":false,"is_disabled":false,"rental_uris":{"android":"levelo://app?vid=cafff717-c543-44d1-bfd3-19307a408223","ios":"levelo://app?vid=cafff717-c543-44d1-bfd3-19307a408223"},"vehicle_type_id":"4","last_reported":1718050110,"current_range_meters":10000,"station_id":"ce4bh092rcd13ifvqd30","pricing_plan_id":"cebpf4jnsgd1na2vs0mg"},{"bike_id":"4396aaa5-71a2-4c2b-998c-c744a777bc41","system_id":"levelo_inurba_marseille","lat":43.312609,"lon":5.401662,"is_reserved":false,"is_disabled":false,"rental_uris":{"android":"levelo://app?vid=4396aaa5-71a2-4c2b-998c-c744a777bc41","ios":"levelo://app?vid=4396aaa5-71a2-4c2b-998c-c744a777bc41"},"vehicle_type_id":"4","last_reported":1718050110,"current_range_meters":23600,"station_id":"ce4bh092rcd13ifvqd30","pricing_plan_id":"cebpf4jnsgd1na2vs0mg"},{"bike_id":"b17e867e-c0f6-49c1-b91a-7b354ca6d67b","system_id":"levelo_inurba_marseille","lat":43.337444,"lon":5.374475,"is_reserved":false,"is_disabled":false,"rental_uris":{"android":"levelo://app?vid=b17e867e-c0f6-49c1-b91a-7b354ca6d67b","ios":"levelo://app?vid=b17e867e-c0f6-49c1-b91a-7b354ca6d67b"},"vehicle_type_id":"4","last_reported":1718050110,"current_range_meters":30400,"station_id":"","pricing_plan_id":"cebpf4jnsgd1na2vs0mg"},{"bike_id":"2270cdf7-424b-4263-8535-88a2ba994e4c","system_id":"levelo_inurba_marseille","lat":43.309371,"lon":5.401449,"is_reserved":false,"is_disabled":false,"rental_uris":{"android":"levelo://app?vid=2270cdf7-424b-4263-8535-88a2ba994e4c","ios":"levelo://app?vid=2270cdf7-424b-4263-8535-88a2ba994e4c"},"vehicle_type_id":"4","last_reported":1718050110,"current_range_meters":22400,"station_id":"ce4bgvp2rcd13ifvqct0","pricing_plan_id":"cebpf4jnsgd1na2vs0mg"},{"bike_id":"bbe016a4-fa21-468a-b39a-032a173376cb","system_id":"levelo_inurba_marseille","lat":43.309371,"lon":5.401449,"is_reserved":false,"is_disabled":false,"rental_uris":{"android":"levelo://app?vid=bbe016a4-fa21-468a-b39a-032a173376cb","ios":"levelo://app?vid=bbe016a4-fa21-468a-b39a-032a173376cb"},"vehicle_type_id":"4","last_reported":1718050110,"current_range_meters":18800,"station_id":"ce4bgvp2rcd13ifvqct0","pricing_plan_id":"cebpf4jnsgd1na2vs0mg"},{"bike_id":"a0e046dd-fc0a-4d14-87f2-86e414c80339","system_id":"levelo_inurba_marseille","lat":43.309371,"lon":5.401449,"is_reserved":false,"is_disabled":false,"rental_uris":{"android":"levelo://app?vid=a0e046dd-fc0a-4d14-87f2-86e414c80339","ios":"levelo://app?vid=a0e046dd-fc0a-4d14-87f2-86e414c80339"},"vehicle_type_id":"4","last_reported":1718050110,"current_range_meters":9600,"station_id":"ce4bgvp2rcd13ifvqct0","pricing_plan_id":"cebpf4jnsgd1na2vs0mg"},{"bike_id":"58e8b916-c44f-4c8a-9407-698e8f6d9d5c","system_id":"levelo_inurba_marseille","lat":43.337586,"lon":5.374536,"is_reserved":false,"is_disabled":false,"rental_uris":{"android":"levelo://app?vid=58e8b916-c44f-4c8a-9407-698e8f6d9d5c","ios":"levelo://app?vid=58e8b916-c44f-4c8a-9407-698e8f6d9d5c"},"vehicle_type_id":"4","last_reported":1718050110,"current_range_meters":8400,"station_id":"","pricing_plan_id":"cebpf4jnsgd1na2vs0mg"},{"bike_id":"9f478ae0-0b19-41ed-a635-a0c300864afc","system_id":"levelo_inurba_marseille","lat":43.30642,"lon":5.401031,"is_reserved":false,"is_disabled":false,"rental_uris":{"android":"levelo://app?vid=9f478ae0-0b19-41ed-a635-a0c300864afc","ios":"levelo://app?vid=9f478ae0-0b19-41ed-a635-a0c300864afc"},"vehicle_type_id":"4","last_reported":1718050110,"current_range_meters":12400,"station_id":"ce4bh112rcd13ifvqda0","pricing_plan_id":"cebpf4jnsgd1na2vs0mg"},{"bike_id":"1c505e53-8997-4d53-ada3-736d8d3cf9e2","system_id":"levelo_inurba_marseille","lat":43.306513,"lon":5.400928,"is_reserved":false,"is_disabled":false,"rental_uris":{"android":"levelo://app?vid=1c505e53-8997-4d53-ada3-736d8d3cf9e2","ios":"levelo://app?vid=1c505e53-8997-4d53-ada3-736d8d3cf9e2"},"vehicle_type_id":"4","last_reported":1718050110,"current_range_meters":0,"station_id":"ce4bh112rcd13ifvqda0","pricing_plan_id":"cebpf4jnsgd1na2vs0mg"},{"bike_id":"98b8f156-f877-4c21-b9da-8a5b5b7220f2","system_id":"levelo_inurba_marseille","lat":43.306412,"lon":5.401035,"is_reserved":false,"is_disabled":false,"rental_uris":{"android":"levelo://app?vid=98b8f156-f877-4c21-b9da-8a5b5b7220f2","ios":"levelo://app?vid=98b8f156-f877-4c21-b9da-8a5b5b7220f2"},"vehicle_type_id":"4","last_reported":1718050110,"current_range_meters":22000,"station_id":"ce4bh112rcd13ifvqda0","pricing_plan_id":"cebpf4jnsgd1na2vs0mg"},{"bike_id":"55e730c6-9638-47bb-b363-41c4733aed9c","system_id":"levelo_inurba_marseille","lat":43.301117,"lon":5.398795,"is_reserved":false,"is_disabled":false,"rental_uris":{"android":"levelo://app?vid=55e730c6-9638-47bb-b363-41c4733aed9c","ios":"levelo://app?vid=55e730c6-9638-47bb-b363-41c4733aed9c"},"vehicle_type_id":"4","last_reported":1718050110,"current_range_meters":15600,"station_id":"ce4bh0h2rcd13ifvqd40","pricing_plan_id":"cebpf4jnsgd1na2vs0mg"},{"bike_id":"139b34df-60db-4706-9a41-b785371bb40b","system_id":"levelo_inurba_marseille","lat":43.301117,"lon":5.398795,"is_reserved":false,"is_disabled":false,"rental_uris":{"android":"levelo://app?vid=139b34df-60db-4706-9a41-b785371bb40b","ios":"levelo://app?vid=139b34df-60db-4706-9a41-b785371bb40b"},"vehicle_type_id":"4","last_reported":1718050110,"current_range_meters":24000,"station_id":"ce4bh0h2rcd13ifvqd40","pricing_plan_id":"cebpf4jnsgd1na2vs0mg"},{"bike_id":"c668ca56-006c-4fb6-a0f2-d022ab144f25","system_id":"levelo_inurba_marseille","lat":43.298681,"lon":5.397225,"is_reserved":false,"is_disabled":false,"rental_uris":{"android":"levelo://app?vid=c668ca56-006c-4fb6-a0f2-d022ab144f25","ios":"levelo://app?vid=c668ca56-006c-4fb6-a0f2-d022ab144f25"},"vehicle_type_id":"4","last_reported":1718050110,"current_range_meters":16800,"station_id":"ce4bh0h2rcd13ifvqd50","pricing_plan_id":"cebpf4jnsgd1na2vs0mg"},{"bike_id":"b5d73a1f-fc36-4816-ae43-a31f4f40b41c","system_id":"levelo_inurba_marseille","lat":43.30642,"lon":5.401031,"is_reserved":false,"is_disabled":false,"rental_uris":{"android":"levelo://app?vid=b5d73a1f-fc36-4816-ae43-a31f4f40b41c","ios":"levelo://app?vid=b5d73a1f-fc36-4816-ae43-a31f4f40b41c"},"vehicle_type_id":"4","last_reported":1718050110,"current_range_meters":15600,"station_id":"ce4bh112rcd13ifvqda0","pricing_plan_id":"cebpf4jnsgd1na2vs0mg"},{"bike_id":"67873329-c88f-4d14-bbef-45c1533fec16","system_id":"levelo_inurba_marseille","lat":43.301117,"lon":5.398795,"is_reserved":false,"is_disabled":false,"rental_uris":{"android":"levelo://app?vid=67873329-c88f-4d14-bbef-45c1533fec16","ios":"levelo://app?vid=67873329-c88f-4d14-bbef-45c1533fec16"},"vehicle_type_id":"4","last_reported":1718050110,"current_range_meters":29600,"station_id":"ce4bh0h2rcd13ifvqd40","pricing_plan_id":"cebpf4jnsgd1na2vs0mg"},{"bike_id":"5e82d48b-a6d6-434a-b26f-144818f1a6a4","system_id":"levelo_inurba_marseille","lat":43.301117,"lon":5.398795,"is_reserved":false,"is_disabled":false,"rental_uris":{"android":"levelo://app?vid=5e82d48b-a6d6-434a-b26f-144818f1a6a4","ios":"levelo://app?vid=5e82d48b-a6d6-434a-b26f-144818f1a6a4"},"vehicle_type_id":"4","last_reported":1718050110,"current_range_meters":0,"station_id":"ce4bh0h2rcd13ifvqd40","pricing_plan_id":"cebpf4jnsgd1na2vs0mg"},{"bike_id":"ac57319d-0118-405e-ba7a-35e7e7cd4a60","system_id":"levelo_inurba_marseille","lat":43.301117,"lon":5.398795,"is_reserved":false,"is_disabled":false,"rental_uris":{"android":"levelo://app?vid=ac57319d-0118-405e-ba7a-35e7e7cd4a60","ios":"levelo://app?vid=ac57319d-0118-405e-ba7a-35e7e7cd4a60"},"vehicle_type_id":"4","last_reported":1718050110,"current_range_meters":28400,"station_id":"ce4bh0h2rcd13ifvqd40","pricing_plan_id":"cebpf4jnsgd1na2vs0mg"},{"bike_id":"70264595-be5e-4274-830c-762bec69e2d2","system_id":"levelo_inurba_marseille","lat":43.330442,"lon":5.389148,"is_reserved":false,"is_disabled":false,"rental_uris":{"android":"levelo://app?vid=70264595-be5e-4274-830c-762bec69e2d2","ios":"levelo://app?vid=70264595-be5e-4274-830c-762bec69e2d2"},"vehicle_type_id":"4","last_reported":1718050110,"current_range_meters":4000,"station_id":"ce4bhr92rcd13ifvqhrg","pricing_plan_id":"cebpf4jnsgd1na2vs0mg"},{"bike_id":"832b8a7f-ed55-4f7f-8f1c-f6ee8d59186e","system_id":"levelo_inurba_marseille","lat":43.295196,"lon":5.39397,"is_reserved":false,"is_disabled":false,"rental_uris":{"android":"levelo://app?vid=832b8a7f-ed55-4f7f-8f1c-f6ee8d59186e","ios":"levelo://app?vid=832b8a7f-ed55-4f7f-8f1c-f6ee8d59186e"},"vehicle_type_id":"4","last_reported":1718050110,"current_range_meters":4800,"station_id":"ce4bh292rcd13ifvqdf0","pricing_plan_id":"cebpf4jnsgd1na2vs0mg"},{"bike_id":"e35a9532-1c9a-4d14-83b1-c2a9ad381481","system_id":"levelo_inurba_marseille","lat":43.28727,"lon":5.36078,"is_reserved":false,"is_disabled":false,"rental_uris":{"android":"levelo://app?vid=e35a9532-1c9a-4d14-83b1-c2a9ad381481","ios":"levelo://app?vid=e35a9532-1c9a-4d14-83b1-c2a9ad381481"},"vehicle_type_id":"4","last_reported":1718050110,"current_range_meters":26800,"station_id":"cki0cbj6b192h4jlfktg","pricing_plan_id":"cebpf4jnsgd1na2vs0mg"},{"bike_id":"d54ab6c2-23db-42db-895f-18864060abfd","system_id":"levelo_inurba_marseille","lat":43.286961,"lon":5.373785,"is_reserved":false,"is_disabled":false,"rental_uris":{"android":"levelo://app?vid=d54ab6c2-23db-42db-895f-18864060abfd","ios":"levelo://app?vid=d54ab6c2-23db-42db-895f-18864060abfd"},"vehicle_type_id":"4","last_reported":1718050110,"current_range_meters":10800,"station_id":"ce4bh3p2rcd13ifvqdq0","pricing_plan_id":"cebpf4jnsgd1na2vs0mg"},{"bike_id":"efc0b9e6-69c6-429e-bbd6-4e91645ae5de","system_id":"levelo_inurba_marseille","lat":43.298681,"lon":5.397225,"is_reserved":false,"is_disabled":false,"rental_uris":{"android":"levelo://app?vid=efc0b9e6-69c6-429e-bbd6-4e91645ae5de","ios":"levelo://app?vid=efc0b9e6-69c6-429e-bbd6-4e91645ae5de"},"vehicle_type_id":"4","last_reported":1718050110,"current_range_meters":11200,"station_id":"ce4bh0h2rcd13ifvqd50","pricing_plan_id":"cebpf4jnsgd1na2vs0mg"},{"bike_id":"2488d2bd-25eb-4246-af05-52b9b4cde7f7","system_id":"levelo_inurba_marseille","lat":43.286961,"lon":5.373785,"is_reserved":false,"is_disabled":false,"rental_uris":{"android":"levelo://app?vid=2488d2bd-25eb-4246-af05-52b9b4cde7f7","ios":"levelo://app?vid=2488d2bd-25eb-4246-af05-52b9b4cde7f7"},"vehicle_type_id":"4","last_reported":1718050110,"current_range_meters":3600,"station_id":"ce4bh3p2rcd13ifvqdq0","pricing_plan_id":"cebpf4jnsgd1na2vs0mg"},{"bike_id":"3a5e2fa8-e49b-453c-bd80-6503a0a3cab1","system_id":"levelo_inurba_marseille","lat":43.290345,"lon":5.38646,"is_reserved":false,"is_disabled":false,"rental_uris":{"android":"levelo://app?vid=3a5e2fa8-e49b-453c-bd80-6503a0a3cab1","ios":"levelo://app?vid=3a5e2fa8-e49b-453c-bd80-6503a0a3cab1"},"vehicle_type_id":"4","last_reported":1718050110,"current_range_meters":0,"station_id":"ce4bh4p2rcd13ifvqe0g","pricing_plan_id":"cebpf4jnsgd1na2vs0mg"},{"bike_id":"3f201fe8-377b-4356-862e-4643e0280454","system_id":"levelo_inurba_marseille","lat":43.298681,"lon":5.397225,"is_reserved":false,"is_disabled":false,"rental_uris":{"android":"levelo://app?vid=3f201fe8-377b-4356-862e-4643e0280454","ios":"levelo://app?vid=3f201fe8-377b-4356-862e-4643e0280454"},"vehicle_type_id":"4","last_reported":1718050110,"current_range_meters":22400,"station_id":"ce4bh0h2rcd13ifvqd50","pricing_plan_id":"cebpf4jnsgd1na2vs0mg"},{"bike_id":"026a6d5c-472b-4d79-80e0-b6d82487b745","system_id":"levelo_inurba_marseille","lat":43.298681,"lon":5.397225,"is_reserved":false,"is_disabled":false,"rental_uris":{"android":"levelo://app?vid=026a6d5c-472b-4d79-80e0-b6d82487b745","ios":"levelo://app?vid=026a6d5c-472b-4d79-80e0-b6d82487b745"},"vehicle_type_id":"4","last_reported":1718050110,"current_range_meters":30400,"station_id":"ce4bh0h2rcd13ifvqd50","pricing_plan_id":"cebpf4jnsgd1na2vs0mg"},{"bike_id":"a205718b-d183-43af-bd8d-bbced6fcb0fd","system_id":"levelo_inurba_marseille","lat":43.298681,"lon":5.397225,"is_reserved":false,"is_disabled":false,"rental_uris":{"android":"levelo://app?vid=a205718b-d183-43af-bd8d-bbced6fcb0fd","ios":"levelo://app?vid=a205718b-d183-43af-bd8d-bbced6fcb0fd"},"vehicle_type_id":"4","last_reported":1718050110,"current_range_meters":12000,"station_id":"ce4bh0h2rcd13ifvqd50","pricing_plan_id":"cebpf4jnsgd1na2vs0mg"},{"bike_id":"e6a6e2e4-1717-4ee9-9cea-6e05c22d4e98","system_id":"levelo_inurba_marseille","lat":43.298681,"lon":5.397225,"is_reserved":false,"is_disabled":false,"rental_uris":{"android":"levelo://app?vid=e6a6e2e4-1717-4ee9-9cea-6e05c22d4e98","ios":"levelo://app?vid=e6a6e2e4-1717-4ee9-9cea-6e05c22d4e98"},"vehicle_type_id":"4","last_reported":1718050110,"current_range_meters":1200,"station_id":"ce4bh0h2rcd13ifvqd50","pricing_plan_id":"cebpf4jnsgd1na2vs0mg"},{"bike_id":"6dad644b-f71e-4637-8d90-fbbe18a97f9a","system_id":"levelo_inurba_marseille","lat":43.286591,"lon":5.363346,"is_reserved":false,"is_disabled":false,"rental_uris":{"android":"levelo://app?vid=6dad644b-f71e-4637-8d90-fbbe18a97f9a","ios":"levelo://app?vid=6dad644b-f71e-4637-8d90-fbbe18a97f9a"},"vehicle_type_id":"4","last_reported":1718050110,"current_range_meters":23200,"station_id":"ce4bhah2rcd13ifvqej0","pricing_plan_id":"cebpf4jnsgd1na2vs0mg"},{"bike_id":"d77dc037-414a-48ca-9e77-c6ecf05ac12f","system_id":"levelo_inurba_marseille","lat":43.298681,"lon":5.397225,"is_reserved":false,"is_disabled":false,"rental_uris":{"android":"levelo://app?vid=d77dc037-414a-48ca-9e77-c6ecf05ac12f","ios":"levelo://app?vid=d77dc037-414a-48ca-9e77-c6ecf05ac12f"},"vehicle_type_id":"4","last_reported":1718050110,"current_range_meters":31200,"station_id":"ce4bh0h2rcd13ifvqd50","pricing_plan_id":"cebpf4jnsgd1na2vs0mg"},{"bike_id":"120a6670-a820-4e86-b731-f5e5237e674b","system_id":"levelo_inurba_marseille","lat":43.298681,"lon":5.397225,"is_reserved":false,"is_disabled":false,"rental_uris":{"android":"levelo://app?vid=120a6670-a820-4e86-b731-f5e5237e674b","ios":"levelo://app?vid=120a6670-a820-4e86-b731-f5e5237e674b"},"vehicle_type_id":"4","last_reported":1718050110,"current_range_meters":27200,"station_id":"ce4bh0h2rcd13ifvqd50","pricing_plan_id":"cebpf4jnsgd1na2vs0mg"},{"bike_id":"8bf5b2a7-e557-4dcc-b630-dbc4d633239f","system_id":"levelo_inurba_marseille","lat":43.286961,"lon":5.373785,"is_reserved":false,"is_disabled":false,"rental_uris":{"android":"levelo://app?vid=8bf5b2a7-e557-4dcc-b630-dbc4d633239f","ios":"levelo://app?vid=8bf5b2a7-e557-4dcc-b630-dbc4d633239f"},"vehicle_type_id":"4","last_reported":1718050110,"current_range_meters":8000,"station_id":"ce4bh3p2rcd13ifvqdq0","pricing_plan_id":"cebpf4jnsgd1na2vs0mg"},{"bike_id":"99c4ca8a-42f3-475b-9a69-866e43f59b9f","system_id":"levelo_inurba_marseille","lat":43.298753,"lon":5.397391,"is_reserved":false,"is_disabled":false,"rental_uris":{"android":"levelo://app?vid=99c4ca8a-42f3-475b-9a69-866e43f59b9f","ios":"levelo://app?vid=99c4ca8a-42f3-475b-9a69-866e43f59b9f"},"vehicle_type_id":"4","last_reported":1718050110,"current_range_meters":15200,"station_id":"ce4bh0h2rcd13ifvqd50","pricing_plan_id":"cebpf4jnsgd1na2vs0mg"},{"bike_id":"2aa167d3-0b6b-4751-b849-449ecee4bc44","system_id":"levelo_inurba_marseille","lat":43.298681,"lon":5.397225,"is_reserved":false,"is_disabled":false,"rental_uris":{"android":"levelo://app?vid=2aa167d3-0b6b-4751-b849-449ecee4bc44","ios":"levelo://app?vid=2aa167d3-0b6b-4751-b849-449ecee4bc44"},"vehicle_type_id":"4","last_reported":1718050110,"current_range_meters":11600,"station_id":"ce4bh0h2rcd13ifvqd50","pricing_plan_id":"cebpf4jnsgd1na2vs0mg"},{"bike_id":"e2829e15-c8a6-41c8-aa91-4aff8adef0a3","system_id":"levelo_inurba_marseille","lat":43.286961,"lon":5.373785,"is_reserved":false,"is_disabled":false,"rental_uris":{"android":"levelo://app?vid=e2829e15-c8a6-41c8-aa91-4aff8adef0a3","ios":"levelo://app?vid=e2829e15-c8a6-41c8-aa91-4aff8adef0a3"},"vehicle_type_id":"4","last_reported":1718050110,"current_range_meters":0,"station_id":"ce4bh3p2rcd13ifvqdq0","pricing_plan_id":"cebpf4jnsgd1na2vs0mg"},{"bike_id":"36273653-6cf0-492c-9429-b8acb3cc8d5f","system_id":"levelo_inurba_marseille","lat":43.29869,"lon":5.3974,"is_reserved":false,"is_disabled":false,"rental_uris":{"android":"levelo://app?vid=36273653-6cf0-492c-9429-b8acb3cc8d5f","ios":"levelo://app?vid=36273653-6cf0-492c-9429-b8acb3cc8d5f"},"vehicle_type_id":"4","last_reported":1718050110,"current_range_meters":17600,"station_id":"ce4bh0h2rcd13ifvqd50","pricing_plan_id":"cebpf4jnsgd1na2vs0mg"},{"bike_id":"a75d1e81-374f-4bae-9887-dca2b7fb043e","system_id":"levelo_inurba_marseille","lat":43.286591,"lon":5.363346,"is_reserved":false,"is_disabled":false,"rental_uris":{"android":"levelo://app?vid=a75d1e81-374f-4bae-9887-dca2b7fb043e","ios":"levelo://app?vid=a75d1e81-374f-4bae-9887-dca2b7fb043e"},"vehicle_type_id":"4","last_reported":1718050110,"current_range_meters":4000,"station_id":"ce4bhah2rcd13ifvqej0","pricing_plan_id":"cebpf4jnsgd1na2vs0mg"},{"bike_id":"03fe3b6a-9904-4cbf-bc64-e63998c485b2","system_id":"levelo_inurba_marseille","lat":43.286961,"lon":5.373785,"is_reserved":false,"is_disabled":false,"rental_uris":{"android":"levelo://app?vid=03fe3b6a-9904-4cbf-bc64-e63998c485b2","ios":"levelo://app?vid=03fe3b6a-9904-4cbf-bc64-e63998c485b2"},"vehicle_type_id":"4","last_reported":1718050110,"current_range_meters":15200,"station_id":"ce4bh3p2rcd13ifvqdq0","pricing_plan_id":"cebpf4jnsgd1na2vs0mg"},{"bike_id":"0b58264a-319b-47f7-96d9-357fa7bce1eb","system_id":"levelo_inurba_marseille","lat":43.286961,"lon":5.373785,"is_reserved":false,"is_disabled":false,"rental_uris":{"android":"levelo://app?vid=0b58264a-319b-47f7-96d9-357fa7bce1eb","ios":"levelo://app?vid=0b58264a-319b-47f7-96d9-357fa7bce1eb"},"vehicle_type_id":"4","last_reported":1718050110,"current_range_meters":6800,"station_id":"ce4bh3p2rcd13ifvqdq0","pricing_plan_id":"cebpf4jnsgd1na2vs0mg"},{"bike_id":"470d0515-d73e-4151-9d51-a08efb5b510f","system_id":"levelo_inurba_marseille","lat":43.286961,"lon":5.373785,"is_reserved":false,"is_disabled":false,"rental_uris":{"android":"levelo://app?vid=470d0515-d73e-4151-9d51-a08efb5b510f","ios":"levelo://app?vid=470d0515-d73e-4151-9d51-a08efb5b510f"},"vehicle_type_id":"4","last_reported":1718050110,"current_range_meters":16800,"station_id":"ce4bh3p2rcd13ifvqdq0","pricing_plan_id":"cebpf4jnsgd1na2vs0mg"},{"bike_id":"1b860497-fa12-441c-88c4-d1505244ca50","system_id":"levelo_inurba_marseille","lat":43.286961,"lon":5.373785,"is_reserved":false,"is_disabled":false,"rental_uris":{"android":"levelo://app?vid=1b860497-fa12-441c-88c4-d1505244ca50","ios":"levelo://app?vid=1b860497-fa12-441c-88c4-d1505244ca50"},"vehicle_type_id":"4","last_reported":1718050110,"current_range_meters":14800,"station_id":"ce4bh3p2rcd13ifvqdq0","pricing_plan_id":"cebpf4jnsgd1na2vs0mg"},{"bike_id":"4ea3e5a0-d627-4372-b3b6-f10a67550757","system_id":"levelo_inurba_marseille","lat":43.286961,"lon":5.373785,"is_reserved":false,"is_disabled":false,"rental_uris":{"android":"levelo://app?vid=4ea3e5a0-d627-4372-b3b6-f10a67550757","ios":"levelo://app?vid=4ea3e5a0-d627-4372-b3b6-f10a67550757"},"vehicle_type_id":"4","last_reported":1718050110,"current_range_meters":12400,"station_id":"ce4bh3p2rcd13ifvqdq0","pricing_plan_id":"cebpf4jnsgd1na2vs0mg"},{"bike_id":"fe34d42e-b991-4679-ad11-1b5faa7dbbdd","system_id":"levelo_inurba_marseille","lat":43.286938,"lon":5.374,"is_reserved":false,"is_disabled":false,"rental_uris":{"android":"levelo://app?vid=fe34d42e-b991-4679-ad11-1b5faa7dbbdd","ios":"levelo://app?vid=fe34d42e-b991-4679-ad11-1b5faa7dbbdd"},"vehicle_type_id":"4","last_reported":1718050110,"current_range_meters":0,"station_id":"ce4bh3p2rcd13ifvqdq0","pricing_plan_id":"cebpf4jnsgd1na2vs0mg"},{"bike_id":"481e70c5-d737-4206-a915-248c287a2800","system_id":"levelo_inurba_marseille","lat":43.286961,"lon":5.373785,"is_reserved":false,"is_disabled":false,"rental_uris":{"android":"levelo://app?vid=481e70c5-d737-4206-a915-248c287a2800","ios":"levelo://app?vid=481e70c5-d737-4206-a915-248c287a2800"},"vehicle_type_id":"4","last_reported":1718050110,"current_range_meters":8800,"station_id":"ce4bh3p2rcd13ifvqdq0","pricing_plan_id":"cebpf4jnsgd1na2vs0mg"},{"bike_id":"c9512ae8-1ca5-49d5-9979-f77652e35225","system_id":"levelo_inurba_marseille","lat":43.286593,"lon":5.363346,"is_reserved":false,"is_disabled":false,"rental_uris":{"android":"levelo://app?vid=c9512ae8-1ca5-49d5-9979-f77652e35225","ios":"levelo://app?vid=c9512ae8-1ca5-49d5-9979-f77652e35225"},"vehicle_type_id":"4","last_reported":1718050110,"current_range_meters":14400,"station_id":"ce4bhah2rcd13ifvqej0","pricing_plan_id":"cebpf4jnsgd1na2vs0mg"},{"bike_id":"886966df-185a-4ae2-88e5-2e68e3a92f58","system_id":"levelo_inurba_marseille","lat":43.295196,"lon":5.39397,"is_reserved":false,"is_disabled":false,"rental_uris":{"android":"levelo://app?vid=886966df-185a-4ae2-88e5-2e68e3a92f58","ios":"levelo://app?vid=886966df-185a-4ae2-88e5-2e68e3a92f58"},"vehicle_type_id":"4","last_reported":1718050110,"current_range_meters":12000,"station_id":"ce4bh292rcd13ifvqdf0","pricing_plan_id":"cebpf4jnsgd1na2vs0mg"},{"bike_id":"3c909212-6088-4835-80d6-bf7ad3cec2b3","system_id":"levelo_inurba_marseille","lat":43.295196,"lon":5.39397,"is_reserved":false,"is_disabled":false,"rental_uris":{"android":"levelo://app?vid=3c909212-6088-4835-80d6-bf7ad3cec2b3","ios":"levelo://app?vid=3c909212-6088-4835-80d6-bf7ad3cec2b3"},"vehicle_type_id":"4","last_reported":1718050110,"current_range_meters":10000,"station_id":"ce4bh292rcd13ifvqdf0","pricing_plan_id":"cebpf4jnsgd1na2vs0mg"},{"bike_id":"64e3fa6a-5e45-4e2a-8310-170d89af61f0","system_id":"levelo_inurba_marseille","lat":43.29518,"lon":5.39395,"is_reserved":false,"is_disabled":false,"rental_uris":{"android":"levelo://app?vid=64e3fa6a-5e45-4e2a-8310-170d89af61f0","ios":"levelo://app?vid=64e3fa6a-5e45-4e2a-8310-170d89af61f0"},"vehicle_type_id":"4","last_reported":1718050110,"current_range_meters":1600,"station_id":"ce4bh292rcd13ifvqdf0","pricing_plan_id":"cebpf4jnsgd1na2vs0mg"},{"bike_id":"aa121863-7c58-42a3-86ef-d1032b7f8010","system_id":"levelo_inurba_marseille","lat":43.286961,"lon":5.373785,"is_reserved":false,"is_disabled":false,"rental_uris":{"android":"levelo://app?vid=aa121863-7c58-42a3-86ef-d1032b7f8010","ios":"levelo://app?vid=aa121863-7c58-42a3-86ef-d1032b7f8010"},"vehicle_type_id":"4","last_reported":1718050110,"current_range_meters":9600,"station_id":"ce4bh3p2rcd13ifvqdq0","pricing_plan_id":"cebpf4jnsgd1na2vs0mg"},{"bike_id":"3a759dc1-368b-4b5d-b7d6-a4f04f3c076c","system_id":"levelo_inurba_marseille","lat":43.29519,"lon":5.39403,"is_reserved":false,"is_disabled":false,"rental_uris":{"android":"levelo://app?vid=3a759dc1-368b-4b5d-b7d6-a4f04f3c076c","ios":"levelo://app?vid=3a759dc1-368b-4b5d-b7d6-a4f04f3c076c"},"vehicle_type_id":"4","last_reported":1718050110,"current_range_meters":0,"station_id":"ce4bh292rcd13ifvqdf0","pricing_plan_id":"cebpf4jnsgd1na2vs0mg"},{"bike_id":"ad26d8ea-38e8-4995-ba49-c5554e98e429","system_id":"levelo_inurba_marseille","lat":43.30424,"lon":5.40133,"is_reserved":false,"is_disabled":false,"rental_uris":{"android":"levelo://app?vid=ad26d8ea-38e8-4995-ba49-c5554e98e429","ios":"levelo://app?vid=ad26d8ea-38e8-4995-ba49-c5554e98e429"},"vehicle_type_id":"4","last_reported":1718050110,"current_range_meters":24800,"station_id":"","pricing_plan_id":"cebpf4jnsgd1na2vs0mg"},{"bike_id":"71f54ee6-b765-44a2-9c78-48b158f57b5d","system_id":"levelo_inurba_marseille","lat":43.295194,"lon":5.39397,"is_reserved":false,"is_disabled":false,"rental_uris":{"android":"levelo://app?vid=71f54ee6-b765-44a2-9c78-48b158f57b5d","ios":"levelo://app?vid=71f54ee6-b765-44a2-9c78-48b158f57b5d"},"vehicle_type_id":"4","last_reported":1718050110,"current_range_meters":31200,"station_id":"ce4bh292rcd13ifvqdf0","pricing_plan_id":"cebpf4jnsgd1na2vs0mg"},{"bike_id":"5ac4f8ac-910e-40b7-9fa4-b193df2b6f04","system_id":"levelo_inurba_marseille","lat":43.302759,"lon":5.400793,"is_reserved":false,"is_disabled":false,"rental_uris":{"android":"levelo://app?vid=5ac4f8ac-910e-40b7-9fa4-b193df2b6f04","ios":"levelo://app?vid=5ac4f8ac-910e-40b7-9fa4-b193df2b6f04"},"vehicle_type_id":"4","last_reported":1718050110,"current_range_meters":0,"station_id":"ce4bgvh2rcd13ifvqcs0","pricing_plan_id":"cebpf4jnsgd1na2vs0mg"},{"bike_id":"066053c6-12b6-438e-9805-84c46f9d8298","system_id":"levelo_inurba_marseille","lat":43.290345,"lon":5.38646,"is_reserved":false,"is_disabled":false,"rental_uris":{"android":"levelo://app?vid=066053c6-12b6-438e-9805-84c46f9d8298","ios":"levelo://app?vid=066053c6-12b6-438e-9805-84c46f9d8298"},"vehicle_type_id":"4","last_reported":1718050110,"current_range_meters":11200,"station_id":"ce4bh4p2rcd13ifvqe0g","pricing_plan_id":"cebpf4jnsgd1na2vs0mg"},{"bike_id":"9dc58868-e246-4b8b-aa5f-5d2e6c904c19","system_id":"levelo_inurba_marseille","lat":43.295713,"lon":5.399639,"is_reserved":false,"is_disabled":false,"rental_uris":{"android":"levelo://app?vid=9dc58868-e246-4b8b-aa5f-5d2e6c904c19","ios":"levelo://app?vid=9dc58868-e246-4b8b-aa5f-5d2e6c904c19"},"vehicle_type_id":"4","last_reported":1718050110,"current_range_meters":4400,"station_id":"ce4bh312rcd13ifvqdj0","pricing_plan_id":"cebpf4jnsgd1na2vs0mg"},{"bike_id":"22521d66-631e-4a69-b0d5-cf010733b704","system_id":"levelo_inurba_marseille","lat":43.29491,"lon":5.39386,"is_reserved":false,"is_disabled":false,"rental_uris":{"android":"levelo://app?vid=22521d66-631e-4a69-b0d5-cf010733b704","ios":"levelo://app?vid=22521d66-631e-4a69-b0d5-cf010733b704"},"vehicle_type_id":"4","last_reported":1718050110,"current_range_meters":12400,"station_id":"ce4bh292rcd13ifvqdf0","pricing_plan_id":"cebpf4jnsgd1na2vs0mg"},{"bike_id":"15e07218-0d3b-401e-b737-e79d5432218b","system_id":"levelo_inurba_marseille","lat":43.295054,"lon":5.394041,"is_reserved":false,"is_disabled":false,"rental_uris":{"android":"levelo://app?vid=15e07218-0d3b-401e-b737-e79d5432218b","ios":"levelo://app?vid=15e07218-0d3b-401e-b737-e79d5432218b"},"vehicle_type_id":"4","last_reported":1718050110,"current_range_meters":26400,"station_id":"ce4bh292rcd13ifvqdf0","pricing_plan_id":"cebpf4jnsgd1na2vs0mg"},{"bike_id":"adf3404f-32ad-42ba-a818-a544db0cb336","system_id":"levelo_inurba_marseille","lat":43.302759,"lon":5.400793,"is_reserved":false,"is_disabled":false,"rental_uris":{"android":"levelo://app?vid=adf3404f-32ad-42ba-a818-a544db0cb336","ios":"levelo://app?vid=adf3404f-32ad-42ba-a818-a544db0cb336"},"vehicle_type_id":"4","last_reported":1718050110,"current_range_meters":3600,"station_id":"ce4bgvh2rcd13ifvqcs0","pricing_plan_id":"cebpf4jnsgd1na2vs0mg"},{"bike_id":"2af83886-5dbf-4b69-a7ab-928ca43c0bdd","system_id":"levelo_inurba_marseille","lat":43.302759,"lon":5.400793,"is_reserved":false,"is_disabled":false,"rental_uris":{"android":"levelo://app?vid=2af83886-5dbf-4b69-a7ab-928ca43c0bdd","ios":"levelo://app?vid=2af83886-5dbf-4b69-a7ab-928ca43c0bdd"},"vehicle_type_id":"4","last_reported":1718050110,"current_range_meters":18400,"station_id":"ce4bgvh2rcd13ifvqcs0","pricing_plan_id":"cebpf4jnsgd1na2vs0mg"},