{"last_updated":1730059769,"ttl":60,"version":"2.2","data":{"bikes":[{"bike_id":"46ca7a5a-b63f-4a23-af18-d368d3c3861e","system_id":"levelo_inurba_marseille","lat":43.27325,"lon":5.39092,"is_reserved":false,"is_disabled":false,"rental_uris":{"android":"levelo://app?vid=46ca7a5a-b63f-4a23-af18-d368d3c3861e","ios":"levelo://app?vid=46ca7a5a-b63f-4a23-af18-d368d3c3861e"},"vehicle_type_id":"4","last_reported":1730059769,"current_range_meters":30800,"station_id":"ce4bhgp2rcd13ifvqfe0","pricing_plan_id":"cebpf4jnsgd1na2vs0mg"},{"bike_id":"b18112ad-c734-415d-85ae-7bce01edb4df","system_id":"levelo_inurba_marseille","lat":43.29413,"lon":5.38634,"is_reserved":false,"is_disabled":false,"rental_uris":{"android":"levelo://app?vid=b18112ad-c734-415d-85ae-7bce01edb4df","ios":"levelo://app?vid=b18112ad-c734-415d-85ae-7bce01edb4df"},"vehicle_type_id":"4","last_reported":1730059769,"current_range_meters":3600,"station_id":"ce4bh2h2rcd13ifvqdh0","pricing_plan_id":"cebpf4jnsgd1na2vs0mg"},{"bike_id":"69f4165a-13a2-4bd8-b4d6-abfa25614867","system_id":"levelo_inurba_marseille","lat":43.26805,"lon":5.40265,"is_reserved":false,"is_disabled":false,"rental_uris":{"android":"levelo://app?vid=69f4165a-13a2-4bd8-b4d6-abfa25614867","ios":"levelo://app?vid=69f4165a-13a2-4bd8-b4d6-abfa25614867"},"vehicle_type_id":"4","last_reported":1730059769,"current_range_meters":38800,"station_id":"ce501612rcd8frsf0b60","pricing_plan_id":"cebpf4jnsgd1na2vs0mg"},{"bike_id":"d809a323-42e5-48a5-bd41-2a693b07d015","system_id":"levelo_inurba_marseille","lat":43.29528,"lon":5.38548,"is_reserved":false,"is_disabled":false,"rental_uris":{"android":"levelo://app?vid=d809a323-42e5-48a5-bd41-2a693b07d015","ios":"levelo://app?vid=d809a323-42e5-48a5-bd41-2a693b07d015"},"vehicle_type_id":"4","last_reported":1730059769,"current_range_meters":20800,"station_id":"ce4bgih2rcd13ifvqba0","pricing_plan_id":"cebpf4jnsgd1na2vs0mg"},{"bike_id":"8cb2cc8e-9f6f-4186-891e-59af7fdd143e","system_id":"levelo_inurba_marseille","lat":43.29427,"lon":5.3861,"is_reserved":false,"is_disabled":false,"rental_uris":{"android":"levelo://app?vid=8cb2cc8e-9f6f-4186-891e-59af7fdd143e","ios":"levelo://app?vid=8cb2cc8e-9f6f-4186-891e-59af7fdd143e"},"vehicle_type_id":"4","last_reported":1730059769,"current_range_meters":7200,"station_id":"ce4bh2h2rcd13ifvqdh0","pricing_plan_id":"cebpf4jnsgd1na2vs0mg"},{"bike_id":"b6e289e4-f54c-41d4-9b66-a1a2db060b7b","system_id":"levelo_inurba_marseille","lat":43.28463,"lon":5.35885,"is_reserved":false,"is_disabled":false,"rental_uris":{"android":"levelo://app?vid=b6e289e4-f54c-41d4-9b66-a1a2db060b7b","ios":"levelo://app?vid=b6e289e4-f54c-41d4-9b66-a1a2db060b7b"},"vehicle_type_id":"4","last_reported":1730059769,"current_range_meters":27200,"station_id":"ce4bhah2rcd13ifvqei0","pricing_plan_id":"cebpf4jnsgd1na2vs0mg"},{"bike_id":"48660d12-eacc-4f93-a06c-04c2aa9e37e4","system_id":"levelo_inurba_marseille","lat":43.268,"lon":5.40276,"is_reserved":false,"is_disabled":false,"rental_uris":{"android":"levelo://app?vid=48660d12-eacc-4f93-a06c-04c2aa9e37e4","ios":"levelo://app?vid=48660d12-eacc-4f93-a06c-04c2aa9e37e4"},"vehicle_type_id":"4","last_reported":1730059769,"current_range_meters":17200,"station_id":"ce501612rcd8frsf0b60","pricing_plan_id":"cebpf4jnsgd1na2vs0mg"},{"bike_id":"f3d5c86c-ab11-4ca3-aa72-c97ea732ed17","system_id":"levelo_inurba_marseille","lat":43.27329,"lon":5.39076,"is_reserved":false,"is_disabled":false,"rental_uris":{"android":"levelo://app?vid=f3d5c86c-ab11-4ca3-aa72-c97ea732ed17","ios":"levelo://app?vid=f3d5c86c-ab11-4ca3-aa72-c97ea732ed17"},"vehicle_type_id":"4","last_reported":1730059769,"current_range_meters":28000,"station_id":"ce4bhgp2rcd13ifvqfe0","pricing_plan_id":"cebpf4jnsgd1na2vs0mg"},{"bike_id":"9fb636e5-62cf-4512-aed6-0c2da0e74711","system_id":"levelo_inurba_marseille","lat":43.29421,"lon":5.38611,"is_reserved":false,"is_disabled":false,"rental_uris":{"android":"levelo://app?vid=9fb636e5-62cf-4512-aed6-0c2da0e74711","ios":"levelo://app?vid=9fb636e5-62cf-4512-aed6-0c2da0e74711"},"vehicle_type_id":"4","last_reported":1730059769,"current_range_meters":38800,"station_id":"ce4bh2h2rcd13ifvqdh0","pricing_plan_id":"cebpf4jnsgd1na2vs0mg"},{"bike_id":"56118e17-676d-4c84-a0c6-c202d4a39f45","system_id":"levelo_inurba_marseille","lat":43.27817,"lon":5.407124,"is_reserved":false,"is_disabled":false,"rental_uris":{"android":"levelo://app?vid=56118e17-676d-4c84-a0c6-c202d4a39f45","ios":"levelo://app?vid=56118e17-676d-4c84-a0c6-c202d4a39f45"},"vehicle_type_id":"4","last_reported":1730059769,"current_range_meters":8400,"station_id":"ce4bhnh2rcd13ifvqgtg","pricing_plan_id":"cebpf4jnsgd1na2vs0mg"},{"bike_id":"e2971513-5509-43da-a4bb-a3d89812546c","system_id":"levelo_inurba_marseille","lat":43.25006,"lon":5.38916,"is_reserved":false,"is_disabled":false,"rental_uris":{"android":"levelo://app?vid=e2971513-5509-43da-a4bb-a3d89812546c","ios":"levelo://app?vid=e2971513-5509-43da-a4bb-a3d89812546c"},"vehicle_type_id":"4","last_reported":1730059769,"current_range_meters":8400,"station_id":"ce4bhgp2rcd13ifvqfd0","pricing_plan_id":"cebpf4jnsgd1na2vs0mg"},{"bike_id":"7c34c063-d68c-4488-8d3a-c6e39d4916e7","system_id":"levelo_inurba_marseille","lat":43.26493,"lon":5.39542,"is_reserved":false,"is_disabled":false,"rental_uris":{"android":"levelo://app?vid=7c34c063-d68c-4488-8d3a-c6e39d4916e7","ios":"levelo://app?vid=7c34c063-d68c-4488-8d3a-c6e39d4916e7"},"vehicle_type_id":"4","last_reported":1730059769,"current_range_meters":30800,"station_id":"ce4bhi12rcd13ifvqfq0","pricing_plan_id":"cebpf4jnsgd1na2vs0mg"},{"bike_id":"9a16e82a-f871-44a7-bbab-e9a55c407f30","system_id":"levelo_inurba_marseille","lat":43.29282,"lon":5.36841,"is_reserved":false,"is_disabled":false,"rental_uris":{"android":"levelo://app?vid=9a16e82a-f871-44a7-bbab-e9a55c407f30","ios":"levelo://app?vid=9a16e82a-f871-44a7-bbab-e9a55c407f30"},"vehicle_type_id":"4","last_reported":1730059769,"current_range_meters":4400,"station_id":"ce4bhbp2rcd13ifvqesg","pricing_plan_id":"cebpf4jnsgd1na2vs0mg"},{"bike_id":"269ba49b-8c6b-4cd6-8c73-787931fe8494","system_id":"levelo_inurba_marseille","lat":43.27416,"lon":5.39415,"is_reserved":false,"is_disabled":false,"rental_uris":{"android":"levelo://app?vid=269ba49b-8c6b-4cd6-8c73-787931fe8494","ios":"levelo://app?vid=269ba49b-8c6b-4cd6-8c73-787931fe8494"},"vehicle_type_id":"4","last_reported":1730059769,"current_range_meters":38800,"station_id":"ce4bhdp2rcd13ifvqf20","pricing_plan_id":"cebpf4jnsgd1na2vs0mg"},{"bike_id":"eb74aa32-c49d-4202-bac3-91a96c4d4783","system_id":"levelo_inurba_marseille","lat":43.30808,"lon":5.36993,"is_reserved":false,"is_disabled":false,"rental_uris":{"android":"levelo://app?vid=eb74aa32-c49d-4202-bac3-91a96c4d4783","ios":"levelo://app?vid=eb74aa32-c49d-4202-bac3-91a96c4d4783"},"vehicle_type_id":"4","last_reported":1730059769,"current_range_meters":20000,"station_id":"ce4bguh2rcd13ifvqckg","pricing_plan_id":"cebpf4jnsgd1na2vs0mg"},{"bike_id":"7dd11c94-3bc3-42b1-a5c1-755385890fd7","system_id":"levelo_inurba_marseille","lat":43.29264,"lon":5.38439,"is_reserved":false,"is_disabled":false,"rental_uris":{"android":"levelo://app?vid=7dd11c94-3bc3-42b1-a5c1-755385890fd7","ios":"levelo://app?vid=7dd11c94-3bc3-42b1-a5c1-755385890fd7"},"vehicle_type_id":"4","last_reported":1730059769,"current_range_meters":28000,"station_id":"ce4bh692rcd13ifvqea0","pricing_plan_id":"cebpf4jnsgd1na2vs0mg"},{"bike_id":"ea843040-42ce-465a-97a7-aaeeb0d9b478","system_id":"levelo_inurba_marseille","lat":43.29286,"lon":5.40134,"is_reserved":false,"is_disabled":false,"rental_uris":{"android":"levelo://app?vid=ea843040-42ce-465a-97a7-aaeeb0d9b478","ios":"levelo://app?vid=ea843040-42ce-465a-97a7-aaeeb0d9b478"},"vehicle_type_id":"4","last_reported":1730059769,"current_range_meters":28000,"station_id":"ce4bh312rcd13ifvqdk0","pricing_plan_id":"cebpf4jnsgd1na2vs0mg"},{"bike_id":"8e82082e-bce6-4e31-bedf-6aaf6efe5cd7","system_id":"levelo_inurba_marseille","lat":43.31483,"lon":5.37305,"is_reserved":false,"is_disabled":false,"rental_uris":{"android":"levelo://app?vid=8e82082e-bce6-4e31-bedf-6aaf6efe5cd7","ios":"levelo://app?vid=8e82082e-bce6-4e31-bedf-6aaf6efe5cd7"},"vehicle_type_id":"4","last_reported":1730059769,"current_range_meters":25200,"station_id":"ce4bgt12rcd13ifvqcd0","pricing_plan_id":"cebpf4jnsgd1na2vs0mg"},{"bike_id":"d342ab4d-c47e-4bf5-99cd-ed5545ab9569","system_id":"levelo_inurba_marseille","lat":43.26802,"lon":5.4027,"is_reserved":false,"is_disabled":false,"rental_uris":{"android":"levelo://app?vid=d342ab4d-c47e-4bf5-99cd-ed5545ab9569","ios":"levelo://app?vid=d342ab4d-c47e-4bf5-99cd-ed5545ab9569"},"vehicle_type_id":"4","last_reported":1730059769,"current_range_meters":10800,"station_id":"ce501612rcd8frsf0b60","pricing_plan_id":"cebpf4jnsgd1na2vs0mg"},{"bike_id":"a763bb73-54ed-4d0c-95d2-a5f494012b39","system_id":"levelo_inurba_marseille","lat":43.29612,"lon":5.37717,"is_reserved":false,"is_disabled":false,"rental_uris":{"android":"levelo://app?vid=a763bb73-54ed-4d0c-95d2-a5f494012b39","ios":"levelo://app?vid=a763bb73-54ed-4d0c-95d2-a5f494012b39"},"vehicle_type_id":"4","last_reported":1730059769,"current_range_meters":17600,"station_id":"ce4bgi92rcd13ifvqb90","pricing_plan_id":"cebpf4jnsgd1na2vs0mg"},{"bike_id":"0282ae87-bb16-4126-bfdf-4680320c4859","system_id":"levelo_inurba_marseille","lat":43.28408,"lon":5.37506,"is_reserved":false,"is_disabled":false,"rental_uris":{"android":"levelo://app?vid=0282ae87-bb16-4126-bfdf-4680320c4859","ios":"levelo://app?vid=0282ae87-bb16-4126-bfdf-4680320c4859"},"vehicle_type_id":"4","last_reported":1730059769,"current_range_meters":4000,"station_id":"ce4bh412rcd13ifvqds0","pricing_plan_id":"cebpf4jnsgd1na2vs0mg"},{"bike_id":"948245a4-4e1d-491d-8d2f-fc5838fb7d52","system_id":"levelo_inurba_marseille","lat":43.31765,"lon":5.39001,"is_reserved":false,"is_disabled":false,"rental_uris":{"android":"levelo://app?vid=948245a4-4e1d-491d-8d2f-fc5838fb7d52","ios":"levelo://app?vid=948245a4-4e1d-491d-8d2f-fc5838fb7d52"},"vehicle_type_id":"4","last_reported":1730059769,"current_range_meters":6400,"station_id":"ce4bhqp2rcd13ifvqhng","pricing_plan_id":"cebpf4jnsgd1na2vs0mg"},{"bike_id":"8ed0e600-52f7-4841-aa09-f2be0f0fd557","system_id":"levelo_inurba_marseille","lat":43.26814,"lon":5.40262,"is_reserved":false,"is_disabled":false,"rental_uris":{"android":"levelo://app?vid=8ed0e600-52f7-4841-aa09-f2be0f0fd557","ios":"levelo://app?vid=8ed0e600-52f7-4841-aa09-f2be0f0fd557"},"vehicle_type_id":"4","last_reported":1730059769,"current_range_meters":38800,"station_id":"ce501612rcd8frsf0b60","pricing_plan_id":"cebpf4jnsgd1na2vs0mg"},{"bike_id":"bc0f77b0-a26d-4e6d-af93-ca044bbc5695","system_id":"levelo_inurba_marseille","lat":43.29255,"lon":5.38431,"is_reserved":false,"is_disabled":false,"rental_uris":{"android":"levelo://app?vid=bc0f77b0-a26d-4e6d-af93-ca044bbc5695","ios":"levelo://app?vid=bc0f77b0-a26d-4e6d-af93-ca044bbc5695"},"vehicle_type_id":"4","last_reported":1730059769,"current_range_meters":22000,"station_id":"ce4bh692rcd13ifvqea0","pricing_plan_id":"cebpf4jnsgd1na2vs0mg"},{"bike_id":"2ab6a876-b383-42be-8174-3b09d00c2764","system_id":"levelo_inurba_marseille","lat":43.22927,"lon":5.35374,"is_reserved":false,"is_disabled":false,"rental_uris":{"android":"levelo://app?vid=2ab6a876-b383-42be-8174-3b09d00c2764","ios":"levelo://app?vid=2ab6a876-b383-42be-8174-3b09d00c2764"},"vehicle_type_id":"4","last_reported":1730059769,"current_range_meters":38800,"station_id":"cpo3532slgdg3j2ikp40","pricing_plan_id":"cebpf4jnsgd1na2vs0mg"},{"bike_id":"90c0ef72-ee2a-4738-9133-7aab712d0fc1","system_id":"levelo_inurba_marseille","lat":43.28492,"lon":5.38415,"is_reserved":false,"is_disabled":false,"rental_uris":{"android":"levelo://app?vid=90c0ef72-ee2a-4738-9133-7aab712d0fc1","ios":"levelo://app?vid=90c0ef72-ee2a-4738-9133-7aab712d0fc1"},"vehicle_type_id":"4","last_reported":1730059769,"current_range_meters":38800,"station_id":"ce4bh512rcd13ifvqe3g","pricing_plan_id":"cebpf4jnsgd1na2vs0mg"},{"bike_id":"8c3b86cb-1acb-4219-a05a-3d3fcfa68040","system_id":"levelo_inurba_marseille","lat":43.29786,"lon":5.38108,"is_reserved":false,"is_disabled":false,"rental_uris":{"android":"levelo://app?vid=8c3b86cb-1acb-4219-a05a-3d3fcfa68040","ios":"levelo://app?vid=8c3b86cb-1acb-4219-a05a-3d3fcfa68040"},"vehicle_type_id":"4","last_reported":1730059769,"current_range_meters":38000,"station_id":"ce4bgip2rcd13ifvqbb0","pricing_plan_id":"cebpf4jnsgd1na2vs0mg"},{"bike_id":"5605e734-9f9e-436e-abb6-d1a1c2bbf595","system_id":"levelo_inurba_marseille","lat":43.29418,"lon":5.3863,"is_reserved":false,"is_disabled":false,"rental_uris":{"android":"levelo://app?vid=5605e734-9f9e-436e-abb6-d1a1c2bbf595","ios":"levelo://app?vid=5605e734-9f9e-436e-abb6-d1a1c2bbf595"},"vehicle_type_id":"4","last_reported":1730059769,"current_range_meters":38800,"station_id":"ce4bh2h2rcd13ifvqdh0","pricing_plan_id":"cebpf4jnsgd1na2vs0mg"},{"bike_id":"75f85d87-9545-46da-ace2-b3d73f836933","system_id":"levelo_inurba_marseille","lat":43.24803,"lon":5.37455,"is_reserved":false,"is_disabled":false,"rental_uris":{"android":"levelo://app?vid=75f85d87-9545-46da-ace2-b3d73f836933","ios":"levelo://app?vid=75f85d87-9545-46da-ace2-b3d73f836933"},"vehicle_type_id":"4","last_reported":1730059769,"current_range_meters":18800,"station_id":"ce4bhgh2rcd13ifvqfb0","pricing_plan_id":"cebpf4jnsgd1na2vs0mg"},{"bike_id":"711ea989-9bbd-4a86-a947-8e287449186f","system_id":"levelo_inurba_marseille","lat":43.229242,"lon":5.353705,"is_reserved":false,"is_disabled":false,"rental_uris":{"android":"levelo://app?vid=711ea989-9bbd-4a86-a947-8e287449186f","ios":"levelo://app?vid=711ea989-9bbd-4a86-a947-8e287449186f"},"vehicle_type_id":"4","last_reported":1730059769,"current_range_meters":38800,"station_id":"cpo3532slgdg3j2ikp40","pricing_plan_id":"cebpf4jnsgd1na2vs0mg"},{"bike_id":"27f39214-437b-402f-ba70-e8fd46f4e41b","system_id":"levelo_inurba_marseille","lat":43.284852,"lon":5.369343,"is_reserved":false,"is_disabled":false,"rental_uris":{"android":"levelo://app?vid=27f39214-437b-402f-ba70-e8fd46f4e41b","ios":"levelo://app?vid=27f39214-437b-402f-ba70-e8fd46f4e41b"},"vehicle_type_id":"4","last_reported":1730059769,"current_range_meters":17600,"station_id":"","pricing_plan_id":"cebpf4jnsgd1na2vs0mg"},{"bike_id":"5ed72901-e44e-460e-9669-5f1f8a6d2f53","system_id":"levelo_inurba_marseille","lat":43.28664,"lon":5.44476,"is_reserved":false,"is_disabled":false,"rental_uris":{"android":"levelo://app?vid=5ed72901-e44e-460e-9669-5f1f8a6d2f53","ios":"levelo://app?vid=5ed72901-e44e-460e-9669-5f1f8a6d2f53"},"vehicle_type_id":"4","last_reported":1730059769,"current_range_meters":8400,"station_id":"","pricing_plan_id":"cebpf4jnsgd1na2vs0mg"},{"bike_id":"5224767e-8a00-4542-af5d-95713f6f5f63","system_id":"levelo_inurba_marseille","lat":43.29419,"lon":5.38624,"is_reserved":false,"is_disabled":false,"rental_uris":{"android":"levelo://app?vid=5224767e-8a00-4542-af5d-95713f6f5f63","ios":"levelo://app?vid=5224767e-8a00-4542-af5d-95713f6f5f63"},"vehicle_type_id":"4","last_reported":1730059769,"current_range_meters":36800,"station_id":"ce4bh2h2rcd13ifvqdh0","pricing_plan_id":"cebpf4jnsgd1na2vs0mg"},{"bike_id":"d1dacee6-8f47-4ca5-823b-a2ea6c3413e8","system_id":"levelo_inurba_marseille","lat":43.23201,"lon":5.35562,"is_reserved":false,"is_disabled":false,"rental_uris":{"android":"levelo://app?vid=d1dacee6-8f47-4ca5-823b-a2ea6c3413e8","ios":"levelo://app?vid=d1dacee6-8f47-4ca5-823b-a2ea6c3413e8"},"vehicle_type_id":"4","last_reported":1730059769,"current_range_meters":38800,"station_id":"ce4bhu92rcd13ifvqi70","pricing_plan_id":"cebpf4jnsgd1na2vs0mg"},{"bike_id":"540b1268-662b-483a-a88b-c79092eddc85","system_id":"levelo_inurba_marseille","lat":43.26801,"lon":5.40259,"is_reserved":false,"is_disabled":false,"rental_uris":{"android":"levelo://app?vid=540b1268-662b-483a-a88b-c79092eddc85","ios":"levelo://app?vid=540b1268-662b-483a-a88b-c79092eddc85"},"vehicle_type_id":"4","last_reported":1730059769,"current_range_meters":31200,"station_id":"ce501612rcd8frsf0b60","pricing_plan_id":"cebpf4jnsgd1na2vs0mg"},{"bike_id":"1420596e-9006-4b1e-abb8-89eb7361d32b","system_id":"levelo_inurba_marseille","lat":43.29415,"lon":5.3863,"is_reserved":false,"is_disabled":false,"rental_uris":{"android":"levelo://app?vid=1420596e-9006-4b1e-abb8-89eb7361d32b","ios":"levelo://app?vid=1420596e-9006-4b1e-abb8-89eb7361d32b"},"vehicle_type_id":"4","last_reported":1730059769,"current_range_meters":38800,"station_id":"ce4bh2h2rcd13ifvqdh0","pricing_plan_id":"cebpf4jnsgd1na2vs0mg"},{"bike_id":"b557f3ba-5025-408f-bd53-6503249c6f8c","system_id":"levelo_inurba_marseille","lat":43.25498,"lon":5.3765,"is_reserved":false,"is_disabled":false,"rental_uris":{"android":"levelo://app?vid=b557f3ba-5025-408f-bd53-6503249c6f8c","ios":"levelo://app?vid=b557f3ba-5025-408f-bd53-6503249c6f8c"},"vehicle_type_id":"4","last_reported":1730059769,"current_range_meters":39200,"station_id":"ce4bhh12rcd13ifvqff0","pricing_plan_id":"cebpf4jnsgd1na2vs0mg"},{"bike_id":"e4a5d63e-70ce-4eb7-a34a-b3b2d0d5aa97","system_id":"levelo_inurba_marseille","lat":43.29304,"lon":5.37452,"is_reserved":false,"is_disabled":false,"rental_uris":{"android":"levelo://app?vid=e4a5d63e-70ce-4eb7-a34a-b3b2d0d5aa97","ios":"levelo://app?vid=e4a5d63e-70ce-4eb7-a34a-b3b2d0d5aa97"},"vehicle_type_id":"4","last_reported":1730059769,"current_range_meters":28400,"station_id":"ce4bgi12rcd13ifvqb70","pricing_plan_id":"cebpf4jnsgd1na2vs0mg"},{"bike_id":"afb2bf35-8b5e-4247-805a-fe0c1b6fb966","system_id":"levelo_inurba_marseille","lat":43.26943,"lon":5.40248,"is_reserved":false,"is_disabled":false,"rental_uris":{"android":"levelo://app?vid=afb2bf35-8b5e-4247-805a-fe0c1b6fb966","ios":"levelo://app?vid=afb2bf35-8b5e-4247-805a-fe0c1b6fb966"},"vehicle_type_id":"4","last_reported":1730059769,"current_range_meters":8400,"station_id":"cjm6bp8fraef2m0cb0m0","pricing_plan_id":"cebpf4jnsgd1na2vs0mg"},{"bike_id":"b3dc86d3-78a2-48a7-a99a-ff69be56ef92","system_id":"levelo_inurba_marseille","lat":43.29956,"lon":5.37167,"is_reserved":false,"is_disabled":false,"rental_uris":{"android":"levelo://app?vid=b3dc86d3-78a2-48a7-a99a-ff69be56ef92","ios":"levelo://app?vid=b3dc86d3-78a2-48a7-a99a-ff69be56ef92"},"vehicle_type_id":"4","last_reported":1730059769,"current_range_meters":36400,"station_id":"ce4bgr92rcd13ifvqc7g","pricing_plan_id":"cebpf4jnsgd1na2vs0mg"},{"bike_id":"af664963-0e01-4ce9-b291-20c8cda42537","system_id":"levelo_inurba_marseille","lat":43.26199,"lon":5.37447,"is_reserved":false,"is_disabled":false,"rental_uris":{"android":"levelo://app?vid=af664963-0e01-4ce9-b291-20c8cda42537","ios":"levelo://app?vid=af664963-0e01-4ce9-b291-20c8cda42537"},"vehicle_type_id":"4","last_reported":1730059769,"current_range_meters":6400,"station_id":"ce4bhgp2rcd13ifvqfc0","pricing_plan_id":"cebpf4jnsgd1na2vs0mg"},{"bike_id":"e16ba0fb-c8f9-4074-a1c8-ad626ad5602f","system_id":"levelo_inurba_marseille","lat":43.26935,"lon":5.40243,"is_reserved":false,"is_disabled":false,"rental_uris":{"android":"levelo://app?vid=e16ba0fb-c8f9-4074-a1c8-ad626ad5602f","ios":"levelo://app?vid=e16ba0fb-c8f9-4074-a1c8-ad626ad5602f"},"vehicle_type_id":"4","last_reported":1730059769,"current_range_meters":37600,"station_id":"cjm6bp8fraef2m0cb0m0","pricing_plan_id":"cebpf4jnsgd1na2vs0mg"},{"bike_id":"18c51113-76bc-46ab-a0c4-2c63be9d3315","system_id":"levelo_inurba_marseille","lat":43.29885,"lon":5.38893,"is_reserved":false,"is_disabled":false,"rental_uris":{"android":"levelo://app?vid=18c51113-76bc-46ab-a0c4-2c63be9d3315","ios":"levelo://app?vid=18c51113-76bc-46ab-a0c4-2c63be9d3315"},"vehicle_type_id":"4","last_reported":1730059769,"current_range_meters":34000,"station_id":"ce4bh392rcd13ifvqdl0","pricing_plan_id":"cebpf4jnsgd1na2vs0mg"},{"bike_id":"49d48a20-ca55-4e3a-abd2-6bef373d1253","system_id":"levelo_inurba_marseille","lat":43.23065,"lon":5.35496,"is_reserved":false,"is_disabled":false,"rental_uris":{"android":"levelo://app?vid=49d48a20-ca55-4e3a-abd2-6bef373d1253","ios":"levelo://app?vid=49d48a20-ca55-4e3a-abd2-6bef373d1253"},"vehicle_type_id":"4","last_reported":1730059769,"current_range_meters":38800,"station_id":"cpo3342slgdg3j2ifvpg","pricing_plan_id":"cebpf4jnsgd1na2vs0mg"},{"bike_id":"bd4ba87a-4d1e-4971-9cba-7a75aad59bb8","system_id":"levelo_inurba_marseille","lat":43.29581,"lon":5.37518,"is_reserved":false,"is_disabled":false,"rental_uris":{"android":"levelo://app?vid=bd4ba87a-4d1e-4971-9cba-7a75aad59bb8","ios":"levelo://app?vid=bd4ba87a-4d1e-4971-9cba-7a75aad59bb8"},"vehicle_type_id":"4","last_reported":1730059769,"current_range_meters":24000,"station_id":"ce4bgh92rcd13ifvqb50","pricing_plan_id":"cebpf4jnsgd1na2vs0mg"},{"bike_id":"b4a2ee7a-0bcd-450f-9ac1-b2efce0dfee0","system_id":"levelo_inurba_marseille","lat":43.24802,"lon":5.37453,"is_reserved":false,"is_disabled":false,"rental_uris":{"android":"levelo://app?vid=b4a2ee7a-0bcd-450f-9ac1-b2efce0dfee0","ios":"levelo://app?vid=b4a2ee7a-0bcd-450f-9ac1-b2efce0dfee0"},"vehicle_type_id":"4","last_reported":1730059769,"current_range_meters":30400,"station_id":"ce4bhgh2rcd13ifvqfb0","pricing_plan_id":"cebpf4jnsgd1na2vs0mg"},{"bike_id":"6875a1a6-32b9-4783-93f5-84a3a0c85f67","system_id":"levelo_inurba_marseille","lat":43.23069,"lon":5.35489,"is_reserved":false,"is_disabled":false,"rental_uris":{"android":"levelo://app?vid=6875a1a6-32b9-4783-93f5-84a3a0c85f67","ios":"levelo://app?vid=6875a1a6-32b9-4783-93f5-84a3a0c85f67"},"vehicle_type_id":"4","last_reported":1730059769,"current_range_meters":24400,"station_id":"cpo3342slgdg3j2ifvpg","pricing_plan_id":"cebpf4jnsgd1na2vs0mg"},{"bike_id":"f51380fd-71e3-462a-9b06-5371c2606fd1","system_id":"levelo_inurba_marseille","lat":43.29418,"lon":5.3863,"is_reserved":false,"is_disabled":false,"rental_uris":{"android":"levelo://app?vid=f51380fd-71e3-462a-9b06-5371c2606fd1","ios":"levelo://app?vid=f51380fd-71e3-462a-9b06-5371c2606fd1"},"vehicle_type_id":"4","last_reported":1730059769,"current_range_meters":19600,"station_id":"ce4bh2h2rcd13ifvqdh0","pricing_plan_id":"cebpf4jnsgd1na2vs0mg"},{"bike_id":"f0f01ecf-ed36-4eb0-911b-5f5e67aad841","system_id":"levelo_inurba_marseille","lat":43.25493,"lon":5.3765,"is_reserved":false,"is_disabled":false,"rental_uris":{"android":"levelo://app?vid=f0f01ecf-ed36-4eb0-911b-5f5e67aad841","ios":"levelo://app?vid=f0f01ecf-ed36-4eb0-911b-5f5e67aad841"},"vehicle_type_id":"4","last_reported":1730059769,"current_range_meters":8800,"station_id":"ce4bhh12rcd13ifvqff0","pricing_plan_id":"cebpf4jnsgd1na2vs0mg"},{"bike_id":"8814c046-0913-48dc-8eb6-b2da83778ee2","system_id":"levelo_inurba_marseille","lat":43.29036,"lon":5.38637,"is_reserved":false,"is_disabled":false,"rental_uris":{"android":"levelo://app?vid=8814c046-0913-48dc-8eb6-b2da83778ee2","ios":"levelo://app?vid=8814c046-0913-48dc-8eb6-b2da83778ee2"},"vehicle_type_id":"4","last_reported":1730059769,"current_range_meters":2800,"station_id":"ce4bh4p2rcd13ifvqe0g","pricing_plan_id":"cebpf4jnsgd1na2vs0mg"},{"bike_id":"e89036ab-06cb-459b-91f1-830ff3435de6","system_id":"levelo_inurba_marseille","lat":43.23192,"lon":5.35549,"is_reserved":false,"is_disabled":false,"rental_uris":{"android":"levelo://app?vid=e89036ab-06cb-459b-91f1-830ff3435de6","ios":"levelo://app?vid=e89036ab-06cb-459b-91f1-830ff3435de6"},"vehicle_type_id":"4","last_reported":1730059769,"current_range_meters":38800,"station_id":"ce4bhu92rcd13ifvqi70","pricing_plan_id":"cebpf4jnsgd1na2vs0mg"},{"bike_id":"29e4d27e-c275-400d-963d-7448af940e61","system_id":"levelo_inurba_marseille","lat":43.32334,"lon":5.40621,"is_reserved":false,"is_disabled":false,"rental_uris":{"android":"levelo://app?vid=29e4d27e-c275-400d-963d-7448af940e61","ios":"levelo://app?vid=29e4d27e-c275-400d-963d-7448af940e61"},"vehicle_type_id":"4","last_reported":1730059769,"current_range_meters":22000,"station_id":"ce4bhq92rcd13ifvqhjg","pricing_plan_id":"cebpf4jnsgd1na2vs0mg"},{"bike_id":"66fb00a7-295c-492a-b5c9-538d3dea086f","system_id":"levelo_inurba_marseille","lat":43.23184,"lon":5.4372,"is_reserved":false,"is_disabled":false,"rental_uris":{"android":"levelo://app?vid=66fb00a7-295c-492a-b5c9-538d3dea086f","ios":"levelo://app?vid=66fb00a7-295c-492a-b5c9-538d3dea086f"},"vehicle_type_id":"4","last_reported":1730059769,"current_range_meters":24400,"station_id":"","pricing_plan_id":"cebpf4jnsgd1na2vs0mg"},{"bike_id":"47649c8d-953a-49e4-97ba-ecb896941db1","system_id":"levelo_inurba_marseille","lat":43.29033,"lon":5.38122,"is_reserved":false,"is_disabled":false,"rental_uris":{"android":"levelo://app?vid=47649c8d-953a-49e4-97ba-ecb896941db1","ios":"levelo://app?vid=47649c8d-953a-49e4-97ba-ecb896941db1"},"vehicle_type_id":"4","last_reported":1730059769,"current_range_meters":38800,"station_id":"ce4bh4p2rcd13ifvqe1g","pricing_plan_id":"cebpf4jnsgd1na2vs0mg"},{"bike_id":"37e1f818-39bd-426d-996c-7e8dc6637cba","system_id":"levelo_inurba_marseille","lat":43.29537,"lon":5.38536,"is_reserved":false,"is_disabled":false,"rental_uris":{"android":"levelo://app?vid=37e1f818-39bd-426d-996c-7e8dc6637cba","ios":"levelo://app?vid=37e1f818-39bd-426d-996c-7e8dc6637cba"},"vehicle_type_id":"4","last_reported":1730059769,"current_range_meters":32800,"station_id":"ce4bgih2rcd13ifvqba0","pricing_plan_id":"cebpf4jnsgd1na2vs0mg"},{"bike_id":"d464c49d-bc40-4fe1-bdbe-eb5c2433c7e8","system_id":"levelo_inurba_marseille","lat":43.27316,"lon":5.39075,"is_reserved":false,"is_disabled":false,"rental_uris":{"android":"levelo://app?vid=d464c49d-bc40-4fe1-bdbe-eb5c2433c7e8","ios":"levelo://app?vid=d464c49d-bc40-4fe1-bdbe-eb5c2433c7e8"},"vehicle_type_id":"4","last_reported":1730059769,"current_range_meters":39200,"station_id":"ce4bhgp2rcd13ifvqfe0","pricing_plan_id":"cebpf4jnsgd1na2vs0mg"},{"bike_id":"885ea3af-c618-49eb-9993-ad21f698297f","system_id":"levelo_inurba_marseille","lat":43.29024,"lon":5.38626,"is_reserved":false,"is_disabled":false,"rental_uris":{"android":"levelo://app?vid=885ea3af-c618-49eb-9993-ad21f698297f","ios":"levelo://app?vid=885ea3af-c618-49eb-9993-ad21f698297f"},"vehicle_type_id":"4","last_reported":1730059769,"current_range_meters":36400,"station_id":"ce4bh4p2rcd13ifvqe0g","pricing_plan_id":"cebpf4jnsgd1na2vs0mg"},{"bike_id":"4bb7618a-5a1d-43a4-b243-91155e914d79","system_id":"levelo_inurba_marseille","lat":43.29255,"lon":5.38439,"is_reserved":false,"is_disabled":false,"rental_uris":{"android":"levelo://app?vid=4bb7618a-5a1d-43a4-b243-91155e914d79","ios":"levelo://app?vid=4bb7618a-5a1d-43a4-b243-91155e914d79"},"vehicle_type_id":"4","last_reported":1730059769,"current_range_meters":27200,"station_id":"ce4bh692rcd13ifvqea0","pricing_plan_id":"cebpf4jnsgd1na2vs0mg"},{"bike_id":"15d52012-7d88-4459-b40c-87aa996e966f","system_id":"levelo_inurba_marseille","lat":43.29652,"lon":5.37533,"is_reserved":false,"is_disabled":false,"rental_uris":{"android":"levelo://app?vid=15d52012-7d88-4459-b40c-87aa996e966f","ios":"levelo://app?vid=15d52012-7d88-4459-b40c-87aa996e966f"},"vehicle_type_id":"4","last_reported":1730059769,"current_range_meters":36800,"station_id":"ce4bgih2rcd13ifvqba0","pricing_plan_id":"cebpf4jnsgd1na2vs0mg"},{"bike_id":"bdc81e4a-90db-4d88-9699-203dbfef39db","system_id":"levelo_inurba_marseille","lat":43.293084,"lon":5.371684,"is_reserved":false,"is_disabled":false,"rental_uris":{"android":"levelo://app?vid=bdc81e4a-90db-4d88-9699-203dbfef39db","ios":"levelo://app?vid=bdc81e4a-90db-4d88-9699-203dbfef39db"},"vehicle_type_id":"4","last_reported":1730059769,"current_range_meters":8800,"station_id":"ce4bgh92rcd13ifvqb40","pricing_plan_id":"cebpf4jnsgd1na2vs0mg"},{"bike_id":"dc408d0f-b451-4c96-9d06-39735057a541","system_id":"levelo_inurba_marseille","lat":43.28723,"lon":5.3608,"is_reserved":false,"is_disabled":false,"rental_uris":{"android":"levelo://app?vid=dc408d0f-b451-4c96-9d06-39735057a541","ios":"levelo://app?vid=dc408d0f-b451-4c96-9d06-39735057a541"},"vehicle_type_id":"4","last_reported":1730059769,"current_range_meters":17200,"station_id":"cki0cbj6b192h4jlfktg","pricing_plan_id":"cebpf4jnsgd1na2vs0mg"},{"bike_id":"e94ab717-1404-44f7-a8c7-fe6c250f7f06","system_id":"levelo_inurba_marseille","lat":43.28828,"lon":5.35859,"is_reserved":false,"is_disabled":false,"rental_uris":{"android":"levelo://app?vid=e94ab717-1404-44f7-a8c7-fe6c250f7f06","ios":"levelo://app?vid=e94ab717-1404-44f7-a8c7-fe6c250f7f06"},"vehicle_type_id":"4","last_reported":1730059769,"current_range_meters":3200,"station_id":"ce4bhb12rcd13ifvqem0","pricing_plan_id":"cebpf4jnsgd1na2vs0mg"},{"bike_id":"aff15b89-3d55-4512-ac59-79b8390e5060","system_id":"levelo_inurba_marseille","lat":43.26945,"lon":5.40249,"is_reserved":false,"is_disabled":false,"rental_uris":{"android":"levelo://app?vid=aff15b89-3d55-4512-ac59-79b8390e5060","ios":"levelo://app?vid=aff15b89-3d55-4512-ac59-79b8390e5060"},"vehicle_type_id":"4","last_reported":1730059769,"current_range_meters":25600,"station_id":"cjm6bp8fraef2m0cb0m0","pricing_plan_id":"cebpf4jnsgd1na2vs0mg"},{"bike_id":"7d6bfedb-2d6e-4015-8289-0a55585f13d6","system_id":"levelo_inurba_marseille","lat":43.27829,"lon":5.39204,"is_reserved":false,"is_disabled":false,"rental_uris":{"android":"levelo://app?vid=7d6bfedb-2d6e-4015-8289-0a55585f13d6","ios":"levelo://app?vid=7d6bfedb-2d6e-4015-8289-0a55585f13d6"},"vehicle_type_id":"4","last_reported":1730059769,"current_range_meters":36800,"station_id":"ce4bhjp2rcd13ifvqga0","pricing_plan_id":"cebpf4jnsgd1na2vs0mg"},{"bike_id":"d8f8d62c-901d-484e-b1ed-6e9f86fc3aaa","system_id":"levelo_inurba_marseille","lat":43.26939,"lon":5.40242,"is_reserved":false,"is_disabled":false,"rental_uris":{"android":"levelo://app?vid=d8f8d62c-901d-484e-b1ed-6e9f86fc3aaa","ios":"levelo://app?vid=d8f8d62c-901d-484e-b1ed-6e9f86fc3aaa"},"vehicle_type_id":"4","last_reported":1730059769,"current_range_meters":15200,"station_id":"cjm6bp8fraef2m0cb0m0","pricing_plan_id":"cebpf4jnsgd1na2vs0mg"},{"bike_id":"eaf3a236-172a-47c8-9157-742cb4314a8d","system_id":"levelo_inurba_marseille","lat":43.29852,"lon":5.36291,"is_reserved":false,"is_disabled":false,"rental_uris":{"android":"levelo://app?vid=eaf3a236-172a-47c8-9157-742cb4314a8d","ios":"levelo://app?vid=eaf3a236-172a-47c8-9157-742cb4314a8d"},"vehicle_type_id":"4","last_reported":1730059769,"current_range_meters":38800,"station_id":"ce4bgpp2rcd13ifvqc3g","pricing_plan_id":"cebpf4jnsgd1na2vs0mg"},{"bike_id":"0bea5ef3-b7c5-41d1-8066-b7eb876b3d2e","system_id":"levelo_inurba_marseille","lat":43.29257,"lon":5.38438,"is_reserved":false,"is_disabled":false,"rental_uris":{"android":"levelo://app?vid=0bea5ef3-b7c5-41d1-8066-b7eb876b3d2e","ios":"levelo://app?vid=0bea5ef3-b7c5-41d1-8066-b7eb876b3d2e"},"vehicle_type_id":"4","last_reported":1730059769,"current_range_meters":38400,"station_id":"ce4bh692rcd13ifvqea0","pricing_plan_id":"cebpf4jnsgd1na2vs0mg"},{"bike_id":"cd8988cf-34e0-4cd8-92c1-67d3cd8c964e","system_id":"levelo_inurba_marseille","lat":43.23967,"lon":5.36624,"is_reserved":false,"is_disabled":false,"rental_uris":{"android":"levelo://app?vid=cd8988cf-34e0-4cd8-92c1-67d3cd8c964e","ios":"levelo://app?vid=cd8988cf-34e0-4cd8-92c1-67d3cd8c964e"},"vehicle_type_id":"4","last_reported":1730059769,"current_range_meters":14400,"station_id":"ce4bhi12rcd13ifvqfp0","pricing_plan_id":"cebpf4jnsgd1na2vs0mg"},{"bike_id":"57fcd91a-2709-47ee-851d-148d1c0624f9","system_id":"levelo_inurba_marseille","lat":43.30812,"lon":5.43526,"is_reserved":false,"is_disabled":false,"rental_uris":{"android":"levelo://app?vid=57fcd91a-2709-47ee-851d-148d1c0624f9","ios":"levelo://app?vid=57fcd91a-2709-47ee-851d-148d1c0624f9"},"vehicle_type_id":"4","last_reported":1730059769,"current_range_meters":28000,"station_id":"ce4bhph2rcd13ifvqheg","pricing_plan_id":"cebpf4jnsgd1na2vs0mg"},{"bike_id":"569fbd4c-4b44-40b9-930d-637842ba4781","system_id":"levelo_inurba_marseille","lat":43.29262,"lon":5.38429,"is_reserved":false,"is_disabled":false,"rental_uris":{"android":"levelo://app?vid=569fbd4c-4b44-40b9-930d-637842ba4781","ios":"levelo://app?vid=569fbd4c-4b44-40b9-930d-637842ba4781"},"vehicle_type_id":"4","last_reported":1730059769,"current_range_meters":19600,"station_id":"ce4bh692rcd13ifvqea0","pricing_plan_id":"cebpf4jnsgd1na2vs0mg"},{"bike_id":"fe033b94-1ffc-4247-99d9-ceb247d10b00","system_id":"levelo_inurba_marseille","lat":43.29308,"lon":5.37442,"is_reserved":false,"is_disabled":false,"rental_uris":{"android":"levelo://app?vid=fe033b94-1ffc-4247-99d9-ceb247d10b00","ios":"levelo://app?vid=fe033b94-1ffc-4247-99d9-ceb247d10b00"},"vehicle_type_id":"4","last_reported":1730059769,"current_range_meters":16400,"station_id":"ce4bgi12rcd13ifvqb70","pricing_plan_id":"cebpf4jnsgd1na2vs0mg"},{"bike_id":"6794ef6f-3836-4f2e-a261-03bfa3b55e58","system_id":"levelo_inurba_marseille","lat":43.29606,"lon":5.38099,"is_reserved":false,"is_disabled":false,"rental_uris":{"android":"levelo://app?vid=6794ef6f-3836-4f2e-a261-03bfa3b55e58","ios":"levelo://app?vid=6794ef6f-3836-4f2e-a261-03bfa3b55e58"},"vehicle_type_id":"4","last_reported":1730059769,"current_range_meters":38800,"station_id":"ce4bgl12rcd13ifvqbo0","pricing_plan_id":"cebpf4jnsgd1na2vs0mg"},{"bike_id":"c028569c-fdbc-4b8a-ae28-058050895a43","system_id":"levelo_inurba_marseille","lat":43.26499,"lon":5.39538,"is_reserved":false,"is_disabled":false,"rental_uris":{"android":"levelo://app?vid=c028569c-fdbc-4b8a-ae28-058050895a43","ios":"levelo://app?vid=c028569c-fdbc-4b8a-ae28-058050895a43"},"vehicle_type_id":"4","last_reported":1730059769,"current_range_meters":38800,"station_id":"","pricing_plan_id":"cebpf4jnsgd1na2vs0mg"},{"bike_id":"2a4979b9-6d2a-47bf-80d2-0f23f2f15d3d","system_id":"levelo_inurba_marseille","lat":43.27829,"lon":5.39201,"is_reserved":false,"is_disabled":false,"rental_uris":{"android":"levelo://app?vid=2a4979b9-6d2a-47bf-80d2-0f23f2f15d3d","ios":"levelo://app?vid=2a4979b9-6d2a-47bf-80d2-0f23f2f15d3d"},"vehicle_type_id":"4","last_reported":1730059769,"current_range_meters":29600,"station_id":"ce4bhjp2rcd13ifvqga0","pricing_plan_id":"cebpf4jnsgd1na2vs0mg"},{"bike_id":"2cb4aed5-7884-4d29-8b8a-820d6184fd14","system_id":"levelo_inurba_marseille","lat":43.33023,"lon":5.39041,"is_reserved":false,"is_disabled":false,"rental_uris":{"android":"levelo://app?vid=2cb4aed5-7884-4d29-8b8a-820d6184fd14","ios":"levelo://app?vid=2cb4aed5-7884-4d29-8b8a-820d6184fd14"},"vehicle_type_id":"4","last_reported":1730059769,"current_range_meters":20800,"station_id":"ce4bhr92rcd13ifvqhrg","pricing_plan_id":"cebpf4jnsgd1na2vs0mg"},{"bike_id":"842dd664-499c-4609-ac01-b910b99b3842","system_id":"levelo_inurba_marseille","lat":43.28361,"lon":5.38101,"is_reserved":false,"is_disabled":false,"rental_uris":{"android":"levelo://app?vid=842dd664-499c-4609-ac01-b910b99b3842","ios":"levelo://app?vid=842dd664-499c-4609-ac01-b910b99b3842"},"vehicle_type_id":"4","last_reported":1730059769,"current_range_meters":28800,"station_id":"ce4bh412rcd13ifvqdr0","pricing_plan_id":"cebpf4jnsgd1na2vs0mg"},{"bike_id":"9cc7ecba-06f6-4341-b6b2-03cea0facdda","system_id":"levelo_inurba_marseille","lat":43.29529,"lon":5.38547,"is_reserved":false,"is_disabled":false,"rental_uris":{"android":"levelo://app?vid=9cc7ecba-06f6-4341-b6b2-03cea0facdda","ios":"levelo://app?vid=9cc7ecba-06f6-4341-b6b2-03cea0facdda"},"vehicle_type_id":"4","last_reported":1730059769,"current_range_meters":23200,"station_id":"ce4bgih2rcd13ifvqba0","pricing_plan_id":"cebpf4jnsgd1na2vs0mg"},{"bike_id":"3f8f3d50-15b0-44c3-a152-e86f7b67aaa2","system_id":"levelo_inurba_marseille","lat":43.29774,"lon":5.39112,"is_reserved":false,"is_disabled":false,"rental_uris":{"android":"levelo://app?vid=3f8f3d50-15b0-44c3-a152-e86f7b67aaa2","ios":"levelo://app?vid=3f8f3d50-15b0-44c3-a152-e86f7b67aaa2"},"vehicle_type_id":"4","last_reported":1730059769,"current_range_meters":28000,"station_id":"","pricing_plan_id":"cebpf4jnsgd1na2vs0mg"},{"bike_id":"4fb0acb4-ca5f-4c77-b161-7454632dabad","system_id":"levelo_inurba_marseille","lat":43.27419,"lon":5.39414,"is_reserved":false,"is_disabled":false,"rental_uris":{"android":"levelo://app?vid=4fb0acb4-ca5f-4c77-b161-7454632dabad","ios":"levelo://app?vid=4fb0acb4-ca5f-4c77-b161-7454632dabad"},"vehicle_type_id":"4","last_reported":1730059769,"current_range_meters":38800,"station_id":"ce4bhdp2rcd13ifvqf20","pricing_plan_id":"cebpf4jnsgd1na2vs0mg"},{"bike_id":"bff575ca-c255-4a46-8a9d-4bac098e697d","system_id":"levelo_inurba_marseille","lat":43.28457,"lon":5.3588,"is_reserved":false,"is_disabled":false,"rental_uris":{"android":"levelo://app?vid=bff575ca-c255-4a46-8a9d-4bac098e697d","ios":"levelo://app?vid=bff575ca-c255-4a46-8a9d-4bac098e697d"},"vehicle_type_id":"4","last_reported":1730059769,"current_range_meters":25200,"station_id":"ce4bhah2rcd13ifvqei0","pricing_plan_id":"cebpf4jnsgd1na2vs0mg"},{"bike_id":"1fafbe93-2ba4-4077-bfcf-7b3992b30a25","system_id":"levelo_inurba_marseille","lat":43.29552,"lon":5.42283,"is_reserved":false,"is_disabled":false,"rental_uris":{"android":"levelo://app?vid=1fafbe93-2ba4-4077-bfcf-7b3992b30a25","ios":"levelo://app?vid=1fafbe93-2ba4-4077-bfcf-7b3992b30a25"},"vehicle_type_id":"4","last_reported":1730059769,"current_range_meters":39200,"station_id":"ce4bhph2rcd13ifvqhdg","pricing_plan_id":"cebpf4jnsgd1na2vs0mg"},{"bike_id":"0727f7fa-8959-4af5-8998-b27de5da9a6d","system_id":"levelo_inurba_marseille","lat":43.31366,"lon":5.385,"is_reserved":false,"is_disabled":false,"rental_uris":{"android":"levelo://app?vid=0727f7fa-8959-4af5-8998-b27de5da9a6d","ios":"levelo://app?vid=0727f7fa-8959-4af5-8998-b27de5da9a6d"},"vehicle_type_id":"4","last_reported":1730059769,"current_range_meters":38800,"station_id":"ce4bgt92rcd13ifvqcf0","pricing_plan_id":"cebpf4jnsgd1na2vs0mg"},{"bike_id":"46981ae2-612b-4836-ba8d-26f03799ed02","system_id":"levelo_inurba_marseille","lat":43.301453,"lon":5.380865,"is_reserved":false,"is_disabled":false,"rental_uris":{"android":"levelo://app?vid=46981ae2-612b-4836-ba8d-26f03799ed02","ios":"levelo://app?vid=46981ae2-612b-4836-ba8d-26f03799ed02"},"vehicle_type_id":"4","last_reported":1730059769,"current_range_meters":18800,"station_id":"ce4bh3h2rcd13ifvqdo0","pricing_plan_id":"cebpf4jnsgd1na2vs0mg"},{"bike_id":"c532f8b2-40c0-4fb3-ab65-110983bcb041","system_id":"levelo_inurba_marseille","lat":43.29208,"lon":5.39319,"is_reserved":false,"is_disabled":false,"rental_uris":{"android":"levelo://app?vid=c532f8b2-40c0-4fb3-ab65-110983bcb041","ios":"levelo://app?vid=c532f8b2-40c0-4fb3-ab65-110983bcb041"},"vehicle_type_id":"4","last_reported":1730059769,"current_range_meters":28000,"station_id":"ce4bh192rcd13ifvqdd0","pricing_plan_id":"cebpf4jnsgd1na2vs0mg"},{"bike_id":"9d0e8b25-5412-42fa-93da-f9140abef710","system_id":"levelo_inurba_marseille","lat":43.29423,"lon":5.38631,"is_reserved":false,"is_disabled":false,"rental_uris":{"android":"levelo://app?vid=9d0e8b25-5412-42fa-93da-f9140abef710","ios":"levelo://app?vid=9d0e8b25-5412-42fa-93da-f9140abef710"},"vehicle_type_id":"4","last_reported":1730059769,"current_range_meters":38800,"station_id":"ce4bh2h2rcd13ifvqdh0","pricing_plan_id":"cebpf4jnsgd1na2vs0mg"},{"bike_id":"e113f747-4daa-44f7-a218-9e030daa2565","system_id":"levelo_inurba_marseille","lat":43.32102,"lon":5.36785,"is_reserved":false,"is_disabled":false,"rental_uris":{"android":"levelo://app?vid=e113f747-4daa-44f7-a218-9e030daa2565","ios":"levelo://app?vid=e113f747-4daa-44f7-a218-9e030daa2565"},"vehicle_type_id":"4","last_reported":1730059769,"current_range_meters":24800,"station_id":"ce4bhrh2rcd13ifvqhug","pricing_plan_id":"cebpf4jnsgd1na2vs0mg"},{"bike_id":"c83bf92a-895e-4031-90cc-0a4806604b3f","system_id":"levelo_inurba_marseille","lat":43.23053,"lon":5.35497,"is_reserved":false,"is_disabled":false,"rental_uris":{"android":"levelo://app?vid=c83bf92a-895e-4031-90cc-0a4806604b3f","ios":"levelo://app?vid=c83bf92a-895e-4031-90cc-0a4806604b3f"},"vehicle_type_id":"4","last_reported":1730059769,"current_range_meters":38800,"station_id":"cpo3342slgdg3j2ifvpg","pricing_plan_id":"cebpf4jnsgd1na2vs0mg"},{"bike_id":"54bbf389-3399-4fb4-8171-318257c90e0d","system_id":"levelo_inurba_marseille","lat":43.305379,"lon":5.384226,"is_reserved":false,"is_disabled":false,"rental_uris":{"android":"levelo://app?vid=54bbf389-3399-4fb4-8171-318257c90e0d","ios":"levelo://app?vid=54bbf389-3399-4fb4-8171-318257c90e0d"},"vehicle_type_id":"4","last_reported":1730059769,"current_range_meters":16800,"station_id":"ce4bgg92rcd13ifvqb30","pricing_plan_id":"cebpf4jnsgd1na2vs0mg"},{"bike_id":"9fd56fad-5f3d-42b4-b491-7b57b76bc0cf","system_id":"levelo_inurba_marseille","lat":43.27823,"lon":5.40715,"is_reserved":false,"is_disabled":false,"rental_uris":{"android":"levelo://app?vid=9fd56fad-5f3d-42b4-b491-7b57b76bc0cf","ios":"levelo://app?vid=9fd56fad-5f3d-42b4-b491-7b57b76bc0cf"},"vehicle_type_id":"4","last_reported":1730059769,"current_range_meters":21600,"station_id":"ce4bhnh2rcd13ifvqgtg","pricing_plan_id":"cebpf4jnsgd1na2vs0mg"},{"bike_id":"14a8d750-43d9-4bf2-a094-2e7b40f46dbe","system_id":"levelo_inurba_marseille","lat":43.298575,"lon":5.3631,"is_reserved":false,"is_disabled":false,"rental_uris":{"android":"levelo://app?vid=14a8d750-43d9-4bf2-a094-2e7b40f46dbe","ios":"levelo://app?vid=14a8d750-43d9-4bf2-a094-2e7b40f46dbe"},"vehicle_type_id":"4","last_reported":1730059769,"current_range_meters":36400,"station_id":"ce4bgl92rcd13ifvqbq0","pricing_plan_id":"cebpf4jnsgd1na2vs0mg"},{"bike_id":"67239e3e-59b1-45ae-ba43-a51f048c9c05","system_id":"levelo_inurba_marseille","lat":43.29196,"lon":5.39325,"is_reserved":false,"is_disabled":false,"rental_uris":{"android":"levelo://app?vid=67239e3e-59b1-45ae-ba43-a51f048c9c05","ios":"levelo://app?vid=67239e3e-59b1-45ae-ba43-a51f048c9c05"},"vehicle_type_id":"4","last_reported":1730059769,"current_range_meters":14400,"station_id":"ce4bh192rcd13ifvqdd0","pricing_plan_id":"cebpf4jnsgd1na2vs0mg"},{"bike_id":"11527d50-3abe-413d-8315-f503a8d2e9f6","system_id":"levelo_inurba_marseille","lat":43.31763,"lon":5.39016,"is_reserved":false,"is_disabled":false,"rental_uris":{"android":"levelo://app?vid=11527d50-3abe-413d-8315-f503a8d2e9f6","ios":"levelo://app?vid=11527d50-3abe-413d-8315-f503a8d2e9f6"},"vehicle_type_id":"4","last_reported":1730059769,"current_range_meters":19200,"station_id":"ce4bhqp2rcd13ifvqhng","pricing_plan_id":"cebpf4jnsgd1na2vs0mg"},{"bike_id":"b502ad4f-4825-42a7-9380-4b1fe6eb7c94","system_id":"levelo_inurba_marseille","lat":43.29959,"lon":5.41323,"is_reserved":false,"is_disabled":false,"rental_uris":{"android":"levelo://app?vid=b502ad4f-4825-42a7-9380-4b1fe6eb7c94","ios":"levelo://app?vid=b502ad4f-4825-42a7-9380-4b1fe6eb7c94"},"vehicle_type_id":"4","last_reported":1730059769,"current_range_meters":38000,"station_id":"ce4bhp12rcd13ifvqh9g","pricing_plan_id":"cebpf4jnsgd1na2vs0mg"},{"bike_id":"8915ea8a-535c-40ab-b1cc-423818978796","system_id":"levelo_inurba_marseille","lat":43.27435,"lon":5.3941,"is_reserved":false,"is_disabled":false,"rental_uris":{"android":"levelo://app?vid=8915ea8a-535c-40ab-b1cc-423818978796","ios":"levelo://app?vid=8915ea8a-535c-40ab-b1cc-423818978796"},"vehicle_type_id":"4","last_reported":1730059769,"current_range_meters":11200,"station_id":"ce4bhdp2rcd13ifvqf20","pricing_plan_id":"cebpf4jnsgd1na2vs0mg"},{"bike_id":"1d0d92b7-f6c1-4ccd-8c1f-6182976eb675","system_id":"levelo_inurba_marseille","lat":43.26209,"lon":5.37928,"is_reserved":false,"is_disabled":false,"rental_uris":{"android":"levelo://app?vid=1d0d92b7-f6c1-4ccd-8c1f-6182976eb675","ios":"levelo://app?vid=1d0d92b7-f6c1-4ccd-8c1f-6182976eb675"},"vehicle_type_id":"4","last_reported":1730059769,"current_range_meters":36800,"station_id":"ce4bhjp2rcd13ifvqg90","pricing_plan_id":"cebpf4jnsgd1na2vs0mg"},{"bike_id":"caa1cea7-b302-4eac-815c-533840b27333","system_id":"levelo_inurba_marseille","lat":43.29304,"lon":5.37176,"is_reserved":false,"is_disabled":false,"rental_uris":{"android":"levelo://app?vid=caa1cea7-b302-4eac-815c-533840b27333","ios":"levelo://app?vid=caa1cea7-b302-4eac-815c-533840b27333"},"vehicle_type_id":"4","last_reported":1730059769,"current_range_meters":24000,"station_id":"ce4bgh92rcd13ifvqb40","pricing_plan_id":"cebpf4jnsgd1na2vs0mg"},{"bike_id":"f1704452-cc24-4a74-8351-c1aa1bec66cb","system_id":"levelo_inurba_marseille","lat":43.28853,"lon":5.35856,"is_reserved":false,"is_disabled":false,"rental_uris":{"android":"levelo://app?vid=f1704452-cc24-4a74-8351-c1aa1bec66cb","ios":"levelo://app?vid=f1704452-cc24-4a74-8351-c1aa1bec66cb"},"vehicle_type_id":"4","last_reported":1730059769,"current_range_meters":29600,"station_id":"ce4bhb12rcd13ifvqem0","pricing_plan_id":"cebpf4jnsgd1na2vs0mg"},{"bike_id":"e516d94a-f497-42b0-a157-abab532d6c65","system_id":"levelo_inurba_marseille","lat":43.295246,"lon":5.39047,"is_reserved":false,"is_disabled":false,"rental_uris":{"android":"levelo://app?vid=e516d94a-f497-42b0-a157-abab532d6c65","ios":"levelo://app?vid=e516d94a-f497-42b0-a157-abab532d6c65"},"vehicle_type_id":"4","last_reported":1730059769,"current_range_meters":24000,"station_id":"ce4bh3p2rcd13ifvqdp0","pricing_plan_id":"cebpf4jnsgd1na2vs0mg"},{"bike_id":"0529f3c7-f8cd-46e2-b424-4c806f6294ac","system_id":"levelo_inurba_marseille","lat":43.28003,"lon":5.40019,"is_reserved":false,"is_disabled":false,"rental_uris":{"android":"levelo://app?vid=0529f3c7-f8cd-46e2-b424-4c806f6294ac","ios":"levelo://app?vid=0529f3c7-f8cd-46e2-b424-4c806f6294ac"},"vehicle_type_id":"4","last_reported":1730059769,"current_range_meters":22400,"station_id":"ce4bho92rcd13ifvqh4g","pricing_plan_id":"cebpf4jnsgd1na2vs0mg"},{"bike_id":"b8199a3a-a79b-449e-9a5f-c4f97c829179","system_id":"levelo_inurba_marseille","lat":43.29256,"lon":5.38434,"is_reserved":false,"is_disabled":false,"rental_uris":{"android":"levelo://app?vid=b8199a3a-a79b-449e-9a5f-c4f97c829179","ios":"levelo://app?vid=b8199a3a-a79b-449e-9a5f-c4f97c829179"},"vehicle_type_id":"4","last_reported":1730059769,"current_range_meters":28000,"station_id":"ce4bh692rcd13ifvqea0","pricing_plan_id":"cebpf4jnsgd1na2vs0mg"},{"bike_id":"04bea5fa-6c54-46bc-b7fd-75068383b614","system_id":"levelo_inurba_marseille","lat":43.27437,"lon":5.39406,"is_reserved":false,"is_disabled":false,"rental_uris":{"android":"levelo://app?vid=04bea5fa-6c54-46bc-b7fd-75068383b614","ios":"levelo://app?vid=04bea5fa-6c54-46bc-b7fd-75068383b614"},"vehicle_type_id":"4","last_reported":1730059769,"current_range_meters":30000,"station_id":"ce4bhdp2rcd13ifvqf20","pricing_plan_id":"cebpf4jnsgd1na2vs0mg"},{"bike_id":"c2b4f516-aa68-4d59-b697-27f29035d921","system_id":"levelo_inurba_marseille","lat":43.296295,"lon":5.371543,"is_reserved":false,"is_disabled":false,"rental_uris":{"android":"levelo://app?vid=c2b4f516-aa68-4d59-b697-27f29035d921","ios":"levelo://app?vid=c2b4f516-aa68-4d59-b697-27f29035d921"},"vehicle_type_id":"4","last_reported":1730059769,"current_range_meters":8000,"station_id":"ce4bgnh2rcd13ifvqc0g","pricing_plan_id":"cebpf4jnsgd1na2vs0mg"},{"bike_id":"ba7ff12b-4fb3-47ea-b304-85ab8fca1364","system_id":"levelo_inurba_marseille","lat":43.32289,"lon":5.38271,"is_reserved":false,"is_disabled":false,"rental_uris":{"android":"levelo://app?vid=ba7ff12b-4fb3-47ea-b304-85ab8fca1364","ios":"levelo://app?vid=ba7ff12b-4fb3-47ea-b304-85ab8fca1364"},"vehicle_type_id":"4","last_reported":1730059769,"current_range_meters":38000,"station_id":"ce4bhr12rcd13ifvqhqg","pricing_plan_id":"cebpf4jnsgd1na2vs0mg"},{"bike_id":"7bef6d31-294b-4dcd-a77f-ba5d039ccf7e","system_id":"levelo_inurba_marseille","lat":43.29021,"lon":5.38129,"is_reserved":false,"is_disabled":false,"rental_uris":{"android":"levelo://app?vid=7bef6d31-294b-4dcd-a77f-ba5d039ccf7e","ios":"levelo://app?vid=7bef6d31-294b-4dcd-a77f-ba5d039ccf7e"},"vehicle_type_id":"4","last_reported":1730059769,"current_range_meters":8400,"station_id":"ce4bh4p2rcd13ifvqe1g","pricing_plan_id":"cebpf4jnsgd1na2vs0mg"},{"bike_id":"6cd800d6-88b6-4a5d-bbea-8578ee6f97a8","system_id":"levelo_inurba_marseille","lat":43.29254,"lon":5.3843,"is_reserved":false,"is_disabled":false,"rental_uris":{"android":"levelo://app?vid=6cd800d6-88b6-4a5d-bbea-8578ee6f97a8","ios":"levelo://app?vid=6cd800d6-88b6-4a5d-bbea-8578ee6f97a8"},"vehicle_type_id":"4","last_reported":1730059769,"current_range_meters":14400,"station_id":"ce4bh692rcd13ifvqea0","pricing_plan_id":"cebpf4jnsgd1na2vs0mg"},{"bike_id":"95ccd292-e54f-4a73-9cbf-851edae955db","system_id":"levelo_inurba_marseille","lat":43.29318,"lon":5.3718,"is_reserved":false,"is_disabled":false,"rental_uris":{"android":"levelo://app?vid=95ccd292-e54f-4a73-9cbf-851edae955db","ios":"levelo://app?vid=95ccd292-e54f-4a73-9cbf-851edae955db"},"vehicle_type_id":"4","last_reported":1730059769,"current_range_meters":28800,"station_id":"ce4bgh92rcd13ifvqb40","pricing_plan_id":"cebpf4jnsgd1na2vs0mg"},{"bike_id":"2ef23ac5-0b5a-4637-bc6a-ed520d32cf55","system_id":"levelo_inurba_marseille","lat":43.25581,"lon":5.3823,"is_reserved":false,"is_disabled":false,"rental_uris":{"android":"levelo://app?vid=2ef23ac5-0b5a-4637-bc6a-ed520d32cf55","ios":"levelo://app?vid=2ef23ac5-0b5a-4637-bc6a-ed520d32cf55"},"vehicle_type_id":"4","last_reported":1730059769,"current_range_meters":21600,"station_id":"ce4bhih2rcd13ifvqfs0","pricing_plan_id":"cebpf4jnsgd1na2vs0mg"},{"bike_id":"69c1b06c-db93-45de-8fde-834afd9ce5ef","system_id":"levelo_inurba_marseille","lat":43.28474,"lon":5.38418,"is_reserved":false,"is_disabled":false,"rental_uris":{"android":"levelo://app?vid=69c1b06c-db93-45de-8fde-834afd9ce5ef","ios":"levelo://app?vid=69c1b06c-db93-45de-8fde-834afd9ce5ef"},"vehicle_type_id":"4","last_reported":1730059769,"current_range_meters":28800,"station_id":"ce4bh512rcd13ifvqe3g","pricing_plan_id":"cebpf4jnsgd1na2vs0mg"},{"bike_id":"f7a50275-88a4-4be4-ac33-5cce1242cfaa","system_id":"levelo_inurba_marseille","lat":43.31706,"lon":5.37758,"is_reserved":false,"is_disabled":false,"rental_uris":{"android":"levelo://app?vid=f7a50275-88a4-4be4-ac33-5cce1242cfaa","ios":"levelo://app?vid=f7a50275-88a4-4be4-ac33-5cce1242cfaa"},"vehicle_type_id":"4","last_reported":1730059769,"current_range_meters":37600,"station_id":"ce4bgth2rcd13ifvqch0","pricing_plan_id":"cebpf4jnsgd1na2vs0mg"},{"bike_id":"fa0b4bbd-eb47-44a3-a85f-8cf6702f18ae","system_id":"levelo_inurba_marseille","lat":43.29414,"lon":5.386255,"is_reserved":false,"is_disabled":false,"rental_uris":{"android":"levelo://app?vid=fa0b4bbd-eb47-44a3-a85f-8cf6702f18ae","ios":"levelo://app?vid=fa0b4bbd-eb47-44a3-a85f-8cf6702f18ae"},"vehicle_type_id":"4","last_reported":1730059769,"current_range_meters":3200,"station_id":"ce4bgv12rcd13ifvqcp0","pricing_plan_id":"cebpf4jnsgd1na2vs0mg"},{"bike_id":"59e82a4e-1841-4082-84ae-50a5176e85f8","system_id":"levelo_inurba_marseille","lat":43.296785,"lon":5.372851,"is_reserved":false,"is_disabled":false,"rental_uris":{"android":"levelo://app?vid=59e82a4e-1841-4082-84ae-50a5176e85f8","ios":"levelo://app?vid=59e82a4e-1841-4082-84ae-50a5176e85f8"},"vehicle_type_id":"4","last_reported":1730059769,"current_range_meters":38800,"station_id":"ce4bgk12rcd13ifvqbj0","pricing_plan_id":"cebpf4jnsgd1na2vs0mg"},{"bike_id":"186eb52f-399d-4f46-9854-51f3abac7c2c","system_id":"levelo_inurba_marseille","lat":43.30426,"lon":5.39751,"is_reserved":false,"is_disabled":false,"rental_uris":{"android":"levelo://app?vid=186eb52f-399d-4f46-9854-51f3abac7c2c","ios":"levelo://app?vid=186eb52f-399d-4f46-9854-51f3abac7c2c"},"vehicle_type_id":"4","last_reported":1730059769,"current_range_meters":26000,"station_id":"ce4bh092rcd13ifvqd20","pricing_plan_id":"cebpf4jnsgd1na2vs0mg"},{"bike_id":"5fa704f7-8bc8-43df-9b67-deb7fe6cc63d","system_id":"levelo_inurba_marseille","lat":43.25092,"lon":5.39513,"is_reserved":false,"is_disabled":false,"rental_uris":{"android":"levelo://app?vid=5fa704f7-8bc8-43df-9b67-deb7fe6cc63d","ios":"levelo://app?vid=5fa704f7-8bc8-43df-9b67-deb7fe6cc63d"},"vehicle_type_id":"4","last_reported":1730059769,"current_range_meters":28400,"station_id":"ce4bhm12rcd13ifvqgkg","pricing_plan_id":"cebpf4jnsgd1na2vs0mg"},{"bike_id":"2af0357b-0b54-4de4-84ca-424bad4ad85a","system_id":"levelo_inurba_marseille","lat":43.29259,"lon":5.38446,"is_reserved":false,"is_disabled":false,"rental_uris":{"android":"levelo://app?vid=2af0357b-0b54-4de4-84ca-424bad4ad85a","ios":"levelo://app?vid=2af0357b-0b54-4de4-84ca-424bad4ad85a"},"vehicle_type_id":"4","last_reported":1730059769,"current_range_meters":38800,"station_id":"ce4bh692rcd13ifvqea0","pricing_plan_id":"cebpf4jnsgd1na2vs0mg"},{"bike_id":"4cf016cf-222a-4af0-b71c-5001d7c7e17d","system_id":"levelo_inurba_marseille","lat":43.25093,"lon":5.39511,"is_reserved":false,"is_disabled":false,"rental_uris":{"android":"levelo://app?vid=4cf016cf-222a-4af0-b71c-5001d7c7e17d","ios":"levelo://app?vid=4cf016cf-222a-4af0-b71c-5001d7c7e17d"},"vehicle_type_id":"4","last_reported":1730059769,"current_range_meters":35600,"station_id":"ce4bhm12rcd13ifvqgkg","pricing_plan_id":"cebpf4jnsgd1na2vs0mg"},{"bike_id":"71885e99-dff7-4155-8dd7-9e0e8a76a9c6","system_id":"levelo_inurba_marseille","lat":43.26552,"lon":5.37283,"is_reserved":false,"is_disabled":false,"rental_uris":{"android":"levelo://app?vid=71885e99-dff7-4155-8dd7-9e0e8a76a9c6","ios":"levelo://app?vid=71885e99-dff7-4155-8dd7-9e0e8a76a9c6"},"vehicle_type_id":"4","last_reported":1730059769,"current_range_meters":25200,"station_id":"ce4bhg12rcd13ifvqf70","pricing_plan_id":"cebpf4jnsgd1na2vs0mg"},{"bike_id":"b7593b9f-bec6-480e-834f-c0321bab379e","system_id":"levelo_inurba_marseille","lat":43.2731,"lon":5.39088,"is_reserved":false,"is_disabled":false,"rental_uris":{"android":"levelo://app?vid=b7593b9f-bec6-480e-834f-c0321bab379e","ios":"levelo://app?vid=b7593b9f-bec6-480e-834f-c0321bab379e"},"vehicle_type_id":"4","last_reported":1730059769,"current_range_meters":20800,"station_id":"ce4bhgp2rcd13ifvqfe0","pricing_plan_id":"cebpf4jnsgd1na2vs0mg"},{"bike_id":"f120b805-c490-4702-851e-95e4dc06d7e2","system_id":"levelo_inurba_marseille","lat":43.29307,"lon":5.37178,"is_reserved":false,"is_disabled":false,"rental_uris":{"android":"levelo://app?vid=f120b805-c490-4702-851e-95e4dc06d7e2","ios":"levelo://app?vid=f120b805-c490-4702-851e-95e4dc06d7e2"},"vehicle_type_id":"4","last_reported":1730059769,"current_range_meters":26000,"station_id":"ce4bgh92rcd13ifvqb40","pricing_plan_id":"cebpf4jnsgd1na2vs0mg"},{"bike_id":"be743e96-8fcd-4cbf-a5bb-a9f368f089f9","system_id":"levelo_inurba_marseille","lat":43.29306,"lon":5.3718,"is_reserved":false,"is_disabled":false,"rental_uris":{"android":"levelo://app?vid=be743e96-8fcd-4cbf-a5bb-a9f368f089f9","ios":"levelo://app?vid=be743e96-8fcd-4cbf-a5bb-a9f368f089f9"},"vehicle_type_id":"4","last_reported":1730059769,"current_range_meters":38000,"station_id":"ce4bgh92rcd13ifvqb40","pricing_plan_id":"cebpf4jnsgd1na2vs0mg"},{"bike_id":"f92ab607-37b6-4d8b-aa31-73b6e9b0973c","system_id":"levelo_inurba_marseille","lat":43.29254,"lon":5.38434,"is_reserved":false,"is_disabled":false,"rental_uris":{"android":"levelo://app?vid=f92ab607-37b6-4d8b-aa31-73b6e9b0973c","ios":"levelo://app?vid=f92ab607-37b6-4d8b-aa31-73b6e9b0973c"},"vehicle_type_id":"4","last_reported":1730059769,"current_range_meters":28400,"station_id":"ce4bh692rcd13ifvqea0","pricing_plan_id":"cebpf4jnsgd1na2vs0mg"},{"bike_id":"8d1224ea-8c67-414f-8e8e-8dff85dd0343","system_id":"levelo_inurba_marseille","lat":43.25002,"lon":5.38925,"is_reserved":false,"is_disabled":false,"rental_uris":{"android":"levelo://app?vid=8d1224ea-8c67-414f-8e8e-8dff85dd0343","ios":"levelo://app?vid=8d1224ea-8c67-414f-8e8e-8dff85dd0343"},"vehicle_type_id":"4","last_reported":1730059769,"current_range_meters":36000,"station_id":"ce4bhgp2rcd13ifvqfd0","pricing_plan_id":"cebpf4jnsgd1na2vs0mg"},{"bike_id":"9befed88-9f8c-464c-b07b-093bd97066bb","system_id":"levelo_inurba_marseille","lat":43.29805,"lon":5.37136,"is_reserved":false,"is_disabled":false,"rental_uris":{"android":"levelo://app?vid=9befed88-9f8c-464c-b07b-093bd97066bb","ios":"levelo://app?vid=9befed88-9f8c-464c-b07b-093bd97066bb"},"vehicle_type_id":"4","last_reported":1730059769,"current_range_meters":18000,"station_id":"","pricing_plan_id":"cebpf4jnsgd1na2vs0mg"},{"bike_id":"f37e3b02-a49c-4c4e-b112-f9c8c24edf90","system_id":"levelo_inurba_marseille","lat":43.2319,"lon":5.35552,"is_reserved":false,"is_disabled":false,"rental_uris":{"android":"levelo://app?vid=f37e3b02-a49c-4c4e-b112-f9c8c24edf90","ios":"levelo://app?vid=f37e3b02-a49c-4c4e-b112-f9c8c24edf90"},"vehicle_type_id":"4","last_reported":1730059769,"current_range_meters":14400,"station_id":"ce4bhu92rcd13ifvqi70","pricing_plan_id":"cebpf4jnsgd1na2vs0mg"},{"bike_id":"37bb3bf7-6eba-4835-9e5f-68547447bdee","system_id":"levelo_inurba_marseille","lat":43.29557,"lon":5.4228,"is_reserved":false,"is_disabled":false,"rental_uris":{"android":"levelo://app?vid=37bb3bf7-6eba-4835-9e5f-68547447bdee","ios":"levelo://app?vid=37bb3bf7-6eba-4835-9e5f-68547447bdee"},"vehicle_type_id":"4","last_reported":1730059769,"current_range_meters":8000,"station_id":"ce4bhph2rcd13ifvqhdg","pricing_plan_id":"cebpf4jnsgd1na2vs0mg"},{"bike_id":"4652e07f-6120-439c-b1de-6fdd8652dbf2","system_id":"levelo_inurba_marseille","lat":43.29262,"lon":5.3843,"is_reserved":false,"is_disabled":false,"rental_uris":{"android":"levelo://app?vid=4652e07f-6120-439c-b1de-6fdd8652dbf2","ios":"levelo://app?vid=4652e07f-6120-439c-b1de-6fdd8652dbf2"},"vehicle_type_id":"4","last_reported":1730059769,"current_range_meters":36800,"station_id":"ce4bh692rcd13ifvqea0","pricing_plan_id":"cebpf4jnsgd1na2vs0mg"},{"bike_id":"8092ddcc-ec7b-4154-beb6-71d9f44801e5","system_id":"levelo_inurba_marseille","lat":43.29292,"lon":5.37447,"is_reserved":false,"is_disabled":false,"rental_uris":{"android":"levelo://app?vid=8092ddcc-ec7b-4154-beb6-71d9f44801e5","ios":"levelo://app?vid=8092ddcc-ec7b-4154-beb6-71d9f44801e5"},"vehicle_type_id":"4","last_reported":1730059769,"current_range_meters":25600,"station_id":"ce4bgi12rcd13ifvqb70","pricing_plan_id":"cebpf4jnsgd1na2vs0mg"},{"bike_id":"e3e1a6b1-db08-4206-b57b-babc39c58afe","system_id":"levelo_inurba_marseille","lat":43.29302,"lon":5.37173,"is_reserved":false,"is_disabled":false,"rental_uris":{"android":"levelo://app?vid=e3e1a6b1-db08-4206-b57b-babc39c58afe","ios":"levelo://app?vid=e3e1a6b1-db08-4206-b57b-babc39c58afe"},"vehicle_type_id":"4","last_reported":1730059769,"current_range_meters":10000,"station_id":"ce4bgh92rcd13ifvqb40","pricing_plan_id":"cebpf4jnsgd1na2vs0mg"},{"bike_id":"d2d6dae7-fe90-4222-b120-2832e30f799c","system_id":"levelo_inurba_marseille","lat":43.29261,"lon":5.38436,"is_reserved":false,"is_disabled":false,"rental_uris":{"android":"levelo://app?vid=d2d6dae7-fe90-4222-b120-2832e30f799c","ios":"levelo://app?vid=d2d6dae7-fe90-4222-b120-2832e30f799c"},"vehicle_type_id":"4","last_reported":1730059769,"current_range_meters":36000,"station_id":"ce4bh692rcd13ifvqea0","pricing_plan_id":"cebpf4jnsgd1na2vs0mg"},{"bike_id":"9ac03f4f-c6df-4bb5-9a66-665d8fac8401","system_id":"levelo_inurba_marseille","lat":43.29419,"lon":5.38643,"is_reserved":false,"is_disabled":false,"rental_uris":{"android":"levelo://app?vid=9ac03f4f-c6df-4bb5-9a66-665d8fac8401","ios":"levelo://app?vid=9ac03f4f-c6df-4bb5-9a66-665d8fac8401"},"vehicle_type_id":"4","last_reported":1730059769,"current_range_meters":17200,"station_id":"ce4bh2h2rcd13ifvqdh0","pricing_plan_id":"cebpf4jnsgd1na2vs0mg"},{"bike_id":"9c975ea9-79b8-44be-86c3-0afb0514a4ca","system_id":"levelo_inurba_marseille","lat":43.28149,"lon":5.42644,"is_reserved":false,"is_disabled":false,"rental_uris":{"android":"levelo://app?vid=9c975ea9-79b8-44be-86c3-0afb0514a4ca","ios":"levelo://app?vid=9c975ea9-79b8-44be-86c3-0afb0514a4ca"},"vehicle_type_id":"4","last_reported":1730059769,"current_range_meters":24000,"station_id":"ce4bhnh2rcd13ifvqgug","pricing_plan_id":"cebpf4jnsgd1na2vs0mg"},{"bike_id":"3308f169-eb05-408e-ad36-90ce2e6f8ace","system_id":"levelo_inurba_marseille","lat":43.26934,"lon":5.40245,"is_reserved":false,"is_disabled":false,"rental_uris":{"android":"levelo://app?vid=3308f169-eb05-408e-ad36-90ce2e6f8ace","ios":"levelo://app?vid=3308f169-eb05-408e-ad36-90ce2e6f8ace"},"vehicle_type_id":"4","last_reported":1730059769,"current_range_meters":4000,"station_id":"cjm6bp8fraef2m0cb0m0","pricing_plan_id":"cebpf4jnsgd1na2vs0mg"},{"bike_id":"a476afdf-a001-461f-9234-8699e3a6deb2","system_id":"levelo_inurba_marseille","lat":43.29291,"lon":5.37468,"is_reserved":false,"is_disabled":false,"rental_uris":{"android":"levelo://app?vid=a476afdf-a001-461f-9234-8699e3a6deb2","ios":"levelo://app?vid=a476afdf-a001-461f-9234-8699e3a6deb2"},"vehicle_type_id":"4","last_reported":1730059769,"current_range_meters":24000,"station_id":"ce4bgi12rcd13ifvqb70","pricing_plan_id":"cebpf4jnsgd1na2vs0mg"},{"bike_id":"cf9e1ba0-d773-4f1c-9ab4-3cc9d90109eb","system_id":"levelo_inurba_marseille","lat":43.29538,"lon":5.37506,"is_reserved":false,"is_disabled":false,"rental_uris":{"android":"levelo://app?vid=cf9e1ba0-d773-4f1c-9ab4-3cc9d90109eb","ios":"levelo://app?vid=cf9e1ba0-d773-4f1c-9ab4-3cc9d90109eb"},"vehicle_type_id":"4","last_reported":1730059769,"current_range_meters":36800,"station_id":"ce4bgkp2rcd13ifvqbmg","pricing_plan_id":"cebpf4jnsgd1na2vs0mg"},{"bike_id":"e39645c5-87ac-4e87-90ca-e4c6f3ff67ce","system_id":"levelo_inurba_marseille","lat":43.29942,"lon":5.36535,"is_reserved":false,"is_disabled":false,"rental_uris":{"android":"levelo://app?vid=e39645c5-87ac-4e87-90ca-e4c6f3ff67ce","ios":"levelo://app?vid=e39645c5-87ac-4e87-90ca-e4c6f3ff67ce"},"vehicle_type_id":"4","last_reported":1730059769,"current_range_meters":34000,"station_id":"ce4bgm92rcd13ifvqbr0","pricing_plan_id":"cebpf4jnsgd1na2vs0mg"},{"bike_id":"76062caa-077f-43f3-99bb-d065d1b403a8","system_id":"levelo_inurba_marseille","lat":43.24806,"lon":5.37456,"is_reserved":false,"is_disabled":false,"rental_uris":{"android":"levelo://app?vid=76062caa-077f-43f3-99bb-d065d1b403a8","ios":"levelo://app?vid=76062caa-077f-43f3-99bb-d065d1b403a8"},"vehicle_type_id":"4","last_reported":1730059769,"current_range_meters":28800,"station_id":"ce4bhgh2rcd13ifvqfb0","pricing_plan_id":"cebpf4jnsgd1na2vs0mg"},{"bike_id":"04effdc5-b669-44b0-a14a-638b9e73952d","system_id":"levelo_inurba_marseille","lat":43.3025,"lon":5.40071,"is_reserved":false,"is_disabled":false,"rental_uris":{"android":"levelo://app?vid=04effdc5-b669-44b0-a14a-638b9e73952d","ios":"levelo://app?vid=04effdc5-b669-44b0-a14a-638b9e73952d"},"vehicle_type_id":"4","last_reported":1730059769,"current_range_meters":38800,"station_id":"ce4bgvh2rcd13ifvqcs0","pricing_plan_id":"cebpf4jnsgd1na2vs0mg"},{"bike_id":"6f85b73d-f401-4611-a45c-024bc4701b09","system_id":"levelo_inurba_marseille","lat":43.29027,"lon":5.38124,"is_reserved":false,"is_disabled":false,"rental_uris":{"android":"levelo://app?vid=6f85b73d-f401-4611-a45c-024bc4701b09","ios":"levelo://app?vid=6f85b73d-f401-4611-a45c-024bc4701b09"},"vehicle_type_id":"4","last_reported":1730059769,"current_range_meters":36800,"station_id":"ce4bh4p2rcd13ifvqe1g","pricing_plan_id":"cebpf4jnsgd1na2vs0mg"},{"bike_id":"65eb9f76-1be8-4bfe-a299-ac6c2f91a291","system_id":"levelo_inurba_marseille","lat":43.29254,"lon":5.38441,"is_reserved":false,"is_disabled":false,"rental_uris":{"android":"levelo://app?vid=65eb9f76-1be8-4bfe-a299-ac6c2f91a291","ios":"levelo://app?vid=65eb9f76-1be8-4bfe-a299-ac6c2f91a291"},"vehicle_type_id":"4","last_reported":1730059769,"current_range_meters":27200,"station_id":"ce4bh692rcd13ifvqea0","pricing_plan_id":"cebpf4jnsgd1na2vs0mg"},{"bike_id":"3d729504-3198-4bd2-a0c7-ff4fc02f56e0","system_id":"levelo_inurba_marseille","lat":43.31709,"lon":5.37669,"is_reserved":false,"is_disabled":false,"rental_uris":{"android":"levelo://app?vid=3d729504-3198-4bd2-a0c7-ff4fc02f56e0","ios":"levelo://app?vid=3d729504-3198-4bd2-a0c7-ff4fc02f56e0"},"vehicle_type_id":"4","last_reported":1730059769,"current_range_meters":16000,"station_id":"ce4bgt12rcd13ifvqcd0","pricing_plan_id":"cebpf4jnsgd1na2vs0mg"},{"bike_id":"a08296db-b3f4-4d7c-b368-674ac3a21b1e","system_id":"levelo_inurba_marseille","lat":43.23061,"lon":5.35491,"is_reserved":false,"is_disabled":false,"rental_uris":{"android":"levelo://app?vid=a08296db-b3f4-4d7c-b368-674ac3a21b1e","ios":"levelo://app?vid=a08296db-b3f4-4d7c-b368-674ac3a21b1e"},"vehicle_type_id":"4","last_reported":1730059769,"current_range_meters":38800,"station_id":"cpo3342slgdg3j2ifvpg","pricing_plan_id":"cebpf4jnsgd1na2vs0mg"},{"bike_id":"15df30d1-16dd-4abd-ba4c-da9443f98a9c","system_id":"levelo_inurba_marseille","lat":43.31365,"lon":5.38488,"is_reserved":false,"is_disabled":false,"rental_uris":{"android":"levelo://app?vid=15df30d1-16dd-4abd-ba4c-da9443f98a9c","ios":"levelo://app?vid=15df30d1-16dd-4abd-ba4c-da9443f98a9c"},"vehicle_type_id":"4","last_reported":1730059769,"current_range_meters":24000,"station_id":"ce4bgt92rcd13ifvqcf0","pricing_plan_id":"cebpf4jnsgd1na2vs0mg"},{"bike_id":"b86d2c51-3632-4b6c-a98c-d6fa3cc2ba94","system_id":"levelo_inurba_marseille","lat":43.29262,"lon":5.38433,"is_reserved":false,"is_disabled":false,"rental_uris":{"android":"levelo://app?vid=b86d2c51-3632-4b6c-a98c-d6fa3cc2ba94","ios":"levelo://app?vid=b86d2c51-3632-4b6c-a98c-d6fa3cc2ba94"},"vehicle_type_id":"4","last_reported":1730059769,"current_range_meters":24000,"station_id":"ce4bh692rcd13ifvqea0","pricing_plan_id":"cebpf4jnsgd1na2vs0mg"},{"bike_id":"477cd90a-8a9d-4f2c-8ef4-702382168c43","system_id":"levelo_inurba_marseille","lat":43.276,"lon":5.41255,"is_reserved":false,"is_disabled":false,"rental_uris":{"android":"levelo://app?vid=477cd90a-8a9d-4f2c-8ef4-702382168c43","ios":"levelo://app?vid=477cd90a-8a9d-4f2c-8ef4-702382168c43"},"vehicle_type_id":"4","last_reported":1730059769,"current_range_meters":16400,"station_id":"","pricing_plan_id":"cebpf4jnsgd1na2vs0mg"},{"bike_id":"1db9458d-fd3f-4332-8d33-f426cd0b6206","system_id":"levelo_inurba_marseille","lat":43.29627,"lon":5.3773,"is_reserved":false,"is_disabled":false,"rental_uris":{"android":"levelo://app?vid=1db9458d-fd3f-4332-8d33-f426cd0b6206","ios":"levelo://app?vid=1db9458d-fd3f-4332-8d33-f426cd0b6206"},"vehicle_type_id":"4","last_reported":1730059769,"current_range_meters":33200,"station_id":"ce4bgi92rcd13ifvqb90","pricing_plan_id":"cebpf4jnsgd1na2vs0mg"},{"bike_id":"73b2e096-bc42-4a5b-abae-105e49dcdd27","system_id":"levelo_inurba_marseille","lat":43.29408,"lon":5.38656,"is_reserved":false,"is_disabled":false,"rental_uris":{"android":"levelo://app?vid=73b2e096-bc42-4a5b-abae-105e49dcdd27","ios":"levelo://app?vid=73b2e096-bc42-4a5b-abae-105e49dcdd27"},"vehicle_type_id":"4","last_reported":1730059769,"current_range_meters":38400,"station_id":"ce4bh2h2rcd13ifvqdh0","pricing_plan_id":"cebpf4jnsgd1na2vs0mg"},{"bike_id":"fc54002c-c5a8-498b-8033-305979afe3a2","system_id":"levelo_inurba_marseille","lat":43.26944,"lon":5.40251,"is_reserved":false,"is_disabled":false,"rental_uris":{"android":"levelo://app?vid=fc54002c-c5a8-498b-8033-305979afe3a2","ios":"levelo://app?vid=fc54002c-c5a8-498b-8033-305979afe3a2"},"vehicle_type_id":"4","last_reported":1730059769,"current_range_meters":7200,"station_id":"cjm6bp8fraef2m0cb0m0","pricing_plan_id":"cebpf4jnsgd1na2vs0mg"},{"bike_id":"63f5f6b0-2de5-42db-b4b5-2b98dc09b9d5","system_id":"levelo_inurba_marseille","lat":43.28351,"lon":5.38105,"is_reserved":false,"is_disabled":false,"rental_uris":{"android":"levelo://app?vid=63f5f6b0-2de5-42db-b4b5-2b98dc09b9d5","ios":"levelo://app?vid=63f5f6b0-2de5-42db-b4b5-2b98dc09b9d5"},"vehicle_type_id":"4","last_reported":1730059769,"current_range_meters":37600,"station_id":"ce4bh412rcd13ifvqdr0","pricing_plan_id":"cebpf4jnsgd1na2vs0mg"},{"bike_id":"d9183f18-0e74-4451-b4ef-d507942dce45","system_id":"levelo_inurba_marseille","lat":43.30295,"lon":5.36895,"is_reserved":false,"is_disabled":false,"rental_uris":{"android":"levelo://app?vid=d9183f18-0e74-4451-b4ef-d507942dce45","ios":"levelo://app?vid=d9183f18-0e74-4451-b4ef-d507942dce45"},"vehicle_type_id":"4","last_reported":1730059769,"current_range_meters":39200,"station_id":"ce4bgqh2rcd13ifvqc5g","pricing_plan_id":"cebpf4jnsgd1na2vs0mg"},{"bike_id":"9165fff1-34c0-43a9-b3a3-7c14ebdb7cbd","system_id":"levelo_inurba_marseille","lat":43.29261,"lon":5.38436,"is_reserved":false,"is_disabled":false,"rental_uris":{"android":"levelo://app?vid=9165fff1-34c0-43a9-b3a3-7c14ebdb7cbd","ios":"levelo://app?vid=9165fff1-34c0-43a9-b3a3-7c14ebdb7cbd"},"vehicle_type_id":"4","last_reported":1730059769,"current_range_meters":30800,"station_id":"ce4bh692rcd13ifvqea0","pricing_plan_id":"cebpf4jnsgd1na2vs0mg"},{"bike_id":"28dccaf3-d918-4dd8-8dc4-73cbd314cf3c","system_id":"levelo_inurba_marseille","lat":43.26208,"lon":5.3744,"is_reserved":false,"is_disabled":false,"rental_uris":{"android":"levelo://app?vid=28dccaf3-d918-4dd8-8dc4-73cbd314cf3c","ios":"levelo://app?vid=28dccaf3-d918-4dd8-8dc4-73cbd314cf3c"},"vehicle_type_id":"4","last_reported":1730059769,"current_range_meters":31200,"station_id":"ce4bhgp2rcd13ifvqfc0","pricing_plan_id":"cebpf4jnsgd1na2vs0mg"},{"bike_id":"76588601-f0de-444c-8708-6d6ae74a37db","system_id":"levelo_inurba_marseille","lat":43.23969,"lon":5.36637,"is_reserved":false,"is_disabled":false,"rental_uris":{"android":"levelo://app?vid=76588601-f0de-444c-8708-6d6ae74a37db","ios":"levelo://app?vid=76588601-f0de-444c-8708-6d6ae74a37db"},"vehicle_type_id":"4","last_reported":1730059769,"current_range_meters":38000,"station_id":"ce4bhi12rcd13ifvqfp0","pricing_plan_id":"cebpf4jnsgd1na2vs0mg"},{"bike_id":"7cdd88d2-5824-40fa-8faf-90ef733261c2","system_id":"levelo_inurba_marseille","lat":43.23969,"lon":5.36638,"is_reserved":false,"is_disabled":false,"rental_uris":{"android":"levelo://app?vid=7cdd88d2-5824-40fa-8faf-90ef733261c2","ios":"levelo://app?vid=7cdd88d2-5824-40fa-8faf-90ef733261c2"},"vehicle_type_id":"4","last_reported":1730059769,"current_range_meters":14400,"station_id":"ce4bhi12rcd13ifvqfp0","pricing_plan_id":"cebpf4jnsgd1na2vs0mg"},{"bike_id":"d4fbae45-58cf-47f7-84ce-212c261f93d7","system_id":"levelo_inurba_marseille","lat":43.29979,"lon":5.38493,"is_reserved":false,"is_disabled":false,"rental_uris":{"android":"levelo://app?vid=d4fbae45-58cf-47f7-84ce-212c261f93d7","ios":"levelo://app?vid=d4fbae45-58cf-47f7-84ce-212c261f93d7"},"vehicle_type_id":"4","last_reported":1730059769,"current_range_meters":38800,"station_id":"ce4bgj92rcd13ifvqbd0","pricing_plan_id":"cebpf4jnsgd1na2vs0mg"},{"bike_id":"9403ad19-9050-4623-81ae-08b1b66bb37c","system_id":"levelo_inurba_marseille","lat":43.23176,"lon":5.39989,"is_reserved":false,"is_disabled":false,"rental_uris":{"android":"levelo://app?vid=9403ad19-9050-4623-81ae-08b1b66bb37c","ios":"levelo://app?vid=9403ad19-9050-4623-81ae-08b1b66bb37c"},"vehicle_type_id":"4","last_reported":1730059769,"current_range_meters":8800,"station_id":"ce4bhn12rcd13ifvqgqg","pricing_plan_id":"cebpf4jnsgd1na2vs0mg"},{"bike_id":"4d5d1a61-2d95-46a5-90d7-17d152732de7","system_id":"levelo_inurba_marseille","lat":43.23964,"lon":5.36634,"is_reserved":false,"is_disabled":false,"rental_uris":{"android":"levelo://app?vid=4d5d1a61-2d95-46a5-90d7-17d152732de7","ios":"levelo://app?vid=4d5d1a61-2d95-46a5-90d7-17d152732de7"},"vehicle_type_id":"4","last_reported":1730059769,"current_range_meters":6800,"station_id":"ce4bhi12rcd13ifvqfp0","pricing_plan_id":"cebpf4jnsgd1na2vs0mg"},{"bike_id":"32d8e0be-4bcd-4be9-bad2-7fd3f76e340c","system_id":"levelo_inurba_marseille","lat":43.282984,"lon":5.350554,"is_reserved":false,"is_disabled":false,"rental_uris":{"android":"levelo://app?vid=32d8e0be-4bcd-4be9-bad2-7fd3f76e340c","ios":"levelo://app?vid=32d8e0be-4bcd-4be9-bad2-7fd3f76e340c"},"vehicle_type_id":"4","last_reported":1730059769,"current_range_meters":20800,"station_id":"ce4bh392rcd13ifvqdm0","pricing_plan_id":"cebpf4jnsgd1na2vs0mg"},{"bike_id":"963356f4-2bde-40a2-b9af-00455f481eea","system_id":"levelo_inurba_marseille","lat":43.292938,"lon":5.371473,"is_reserved":false,"is_disabled":false,"rental_uris":{"android":"levelo://app?vid=963356f4-2bde-40a2-b9af-00455f481eea","ios":"levelo://app?vid=963356f4-2bde-40a2-b9af-00455f481eea"},"vehicle_type_id":"4","last_reported":1730059769,"current_range_meters":17200,"station_id":"ce4bgh92rcd13ifvqb40","pricing_plan_id":"cebpf4jnsgd1na2vs0mg"},{"bike_id":"752c355b-5e66-4574-9160-3bd3e941915e","system_id":"levelo_inurba_marseille","lat":43.28564,"lon":5.39497,"is_reserved":false,"is_disabled":false,"rental_uris":{"android":"levelo://app?vid=752c355b-5e66-4574-9160-3bd3e941915e","ios":"levelo://app?vid=752c355b-5e66-4574-9160-3bd3e941915e"},"vehicle_type_id":"4","last_reported":1730059769,"current_range_meters":16000,"station_id":"ce4bh292rcd13ifvqdg0","pricing_plan_id":"cebpf4jnsgd1na2vs0mg"},{"bike_id":"bd998f17-00bd-495a-b9fb-e99a3793875c","system_id":"levelo_inurba_marseille","lat":43.29417,"lon":5.3863,"is_reserved":false,"is_disabled":false,"rental_uris":{"android":"levelo://app?vid=bd998f17-00bd-495a-b9fb-e99a3793875c","ios":"levelo://app?vid=bd998f17-00bd-495a-b9fb-e99a3793875c"},"vehicle_type_id":"4","last_reported":1730059769,"current_range_meters":34800,"station_id":"ce4bh2h2rcd13ifvqdh0","pricing_plan_id":"cebpf4jnsgd1na2vs0mg"},{"bike_id":"cd68f1dc-3134-4c22-9fa5-8490da02f071","system_id":"levelo_inurba_marseille","lat":43.2315,"lon":5.43717,"is_reserved":false,"is_disabled":false,"rental_uris":{"android":"levelo://app?vid=cd68f1dc-3134-4c22-9fa5-8490da02f071","ios":"levelo://app?vid=cd68f1dc-3134-4c22-9fa5-8490da02f071"},"vehicle_type_id":"4","last_reported":1730059769,"current_range_meters":14400,"station_id":"ce4bhmp2rcd13ifvqgog","pricing_plan_id":"cebpf4jnsgd1na2vs0mg"},{"bike_id":"90326538-3425-40ee-b0fb-cf6c32f15af4","system_id":"levelo_inurba_marseille","lat":43.27307,"lon":5.39074,"is_reserved":false,"is_disabled":false,"rental_uris":{"android":"levelo://app?vid=90326538-3425-40ee-b0fb-cf6c32f15af4","ios":"levelo://app?vid=90326538-3425-40ee-b0fb-cf6c32f15af4"},"vehicle_type_id":"4","last_reported":1730059769,"current_range_meters":27200,"station_id":"ce4bhgp2rcd13ifvqfe0","pricing_plan_id":"cebpf4jnsgd1na2vs0mg"},{"bike_id":"ee2495dc-0633-456b-9e5a-46edd252e1bd","system_id":"levelo_inurba_marseille","lat":43.25861,"lon":5.39898,"is_reserved":false,"is_disabled":false,"rental_uris":{"android":"levelo://app?vid=ee2495dc-0633-456b-9e5a-46edd252e1bd","ios":"levelo://app?vid=ee2495dc-0633-456b-9e5a-46edd252e1bd"},"vehicle_type_id":"4","last_reported":1730059769,"current_range_meters":17200,"station_id":"ce4bhl92rcd13ifvqghg","pricing_plan_id":"cebpf4jnsgd1na2vs0mg"},{"bike_id":"9bb78a7a-f016-4103-8e97-b12fea258a7b","system_id":"levelo_inurba_marseille","lat":43.29263,"lon":5.38429,"is_reserved":false,"is_disabled":false,"rental_uris":{"android":"levelo://app?vid=9bb78a7a-f016-4103-8e97-b12fea258a7b","ios":"levelo://app?vid=9bb78a7a-f016-4103-8e97-b12fea258a7b"},"vehicle_type_id":"4","last_reported":1730059769,"current_range_meters":4000,"station_id":"ce4bh692rcd13ifvqea0","pricing_plan_id":"cebpf4jnsgd1na2vs0mg"},{"bike_id":"9fdd618c-9d4c-4d0c-83e5-693c5e6c8942","system_id":"levelo_inurba_marseille","lat":43.28043,"lon":5.36952,"is_reserved":false,"is_disabled":false,"rental_uris":{"android":"levelo://app?vid=9fdd618c-9d4c-4d0c-83e5-693c5e6c8942","ios":"levelo://app?vid=9fdd618c-9d4c-4d0c-83e5-693c5e6c8942"},"vehicle_type_id":"4","last_reported":1730059769,"current_range_meters":20000,"station_id":"ce4bha12rcd13ifvqef0","pricing_plan_id":"cebpf4jnsgd1na2vs0mg"},{"bike_id":"4a9a4c82-1cff-4384-bfc5-2b50d6587cfb","system_id":"levelo_inurba_marseille","lat":43.27826,"lon":5.40724,"is_reserved":false,"is_disabled":false,"rental_uris":{"android":"levelo://app?vid=4a9a4c82-1cff-4384-bfc5-2b50d6587cfb","ios":"levelo://app?vid=4a9a4c82-1cff-4384-bfc5-2b50d6587cfb"},"vehicle_type_id":"4","last_reported":1730059769,"current_range_meters":24800,"station_id":"ce4bhnh2rcd13ifvqgtg","pricing_plan_id":"cebpf4jnsgd1na2vs0mg"},{"bike_id":"a7c6eb8e-227c-4432-958d-8969596fd179","system_id":"levelo_inurba_marseille","lat":43.25727,"lon":5.41109,"is_reserved":false,"is_disabled":false,"rental_uris":{"android":"levelo://app?vid=a7c6eb8e-227c-4432-958d-8969596fd179","ios":"levelo://app?vid=a7c6eb8e-227c-4432-958d-8969596fd179"},"vehicle_type_id":"4","last_reported":1730059769,"current_range_meters":39200,"station_id":"ce4bhkp2rcd13ifvqgd0","pricing_plan_id":"cebpf4jnsgd1na2vs0mg"},{"bike_id":"e89316dc-a19a-469f-a9cd-dc00b495757e","system_id":"levelo_inurba_marseille","lat":43.27444,"lon":5.40639,"is_reserved":false,"is_disabled":false,"rental_uris":{"android":"levelo://app?vid=e89316dc-a19a-469f-a9cd-dc00b495757e","ios":"levelo://app?vid=e89316dc-a19a-469f-a9cd-dc00b495757e"},"vehicle_type_id":"4","last_reported":1730059769,"current_range_meters":8400,"station_id":"","pricing_plan_id":"cebpf4jnsgd1na2vs0mg"},{"bike_id":"ed21e923-edf3-4b20-8101-eaa3d8639284","system_id":"levelo_inurba_marseille","lat":43.29531,"lon":5.37501,"is_reserved":false,"is_disabled":false,"rental_uris":{"android":"levelo://app?vid=ed21e923-edf3-4b20-8101-eaa3d8639284","ios":"levelo://app?vid=ed21e923-edf3-4b20-8101-eaa3d8639284"},"vehicle_type_id":"4","last_reported":1730059769,"current_range_meters":24000,"station_id":"ce4bgkp2rcd13ifvqbmg","pricing_plan_id":"cebpf4jnsgd1na2vs0mg"},{"bike_id":"44ecac53-e2d5-4730-96e0-ba76290d5a54","system_id":"levelo_inurba_marseille","lat":43.26937,"lon":5.40249,"is_reserved":false,"is_disabled":false,"rental_uris":{"android":"levelo://app?vid=44ecac53-e2d5-4730-96e0-ba76290d5a54","ios":"levelo://app?vid=44ecac53-e2d5-4730-96e0-ba76290d5a54"},"vehicle_type_id":"4","last_reported":1730059769,"current_range_meters":25600,"station_id":"cjm6bp8fraef2m0cb0m0","pricing_plan_id":"cebpf4jnsgd1na2vs0mg"},{"bike_id":"04dd23bb-f238-4eba-90d1-d80bc6673779","system_id":"levelo_inurba_marseille","lat":43.3117,"lon":5.38711,"is_reserved":false,"is_disabled":false,"rental_uris":{"android":"levelo://app?vid=04dd23bb-f238-4eba-90d1-d80bc6673779","ios":"levelo://app?vid=04dd23bb-f238-4eba-90d1-d80bc6673779"},"vehicle_type_id":"4","last_reported":1730059769,"current_range_meters":32000,"station_id":"ce4bgv12rcd13ifvqcp0","pricing_plan_id":"cebpf4jnsgd1na2vs0mg"},{"bike_id":"81e500be-3ff6-45b1-af40-237783c8efb0","system_id":"levelo_inurba_marseille","lat":43.27815,"lon":5.40714,"is_reserved":false,"is_disabled":false,"rental_uris":{"android":"levelo://app?vid=81e500be-3ff6-45b1-af40-237783c8efb0","ios":"levelo://app?vid=81e500be-3ff6-45b1-af40-237783c8efb0"},"vehicle_type_id":"4","last_reported":1730059769,"current_range_meters":12000,"station_id":"ce4bhnh2rcd13ifvqgtg","pricing_plan_id":"cebpf4jnsgd1na2vs0mg"},{"bike_id":"f1523813-6688-443a-b1fa-2502b7fef39b","system_id":"levelo_inurba_marseille","lat":43.29304,"lon":5.37186,"is_reserved":false,"is_disabled":false,"rental_uris":{"android":"levelo://app?vid=f1523813-6688-443a-b1fa-2502b7fef39b","ios":"levelo://app?vid=f1523813-6688-443a-b1fa-2502b7fef39b"},"vehicle_type_id":"4","last_reported":1730059769,"current_range_meters":38800,"station_id":"ce4bgh92rcd13ifvqb40","pricing_plan_id":"cebpf4jnsgd1na2vs0mg"},{"bike_id":"d1e8ce45-c463-4f89-ac74-a97eb436bb80","system_id":"levelo_inurba_marseille","lat":43.29851,"lon":5.36292,"is_reserved":false,"is_disabled":false,"rental_uris":{"android":"levelo://app?vid=d1e8ce45-c463-4f89-ac74-a97eb436bb80","ios":"levelo://app?vid=d1e8ce45-c463-4f89-ac74-a97eb436bb80"},"vehicle_type_id":"4","last_reported":1730059769,"current_range_meters":20400,"station_id":"ce4bgpp2rcd13ifvqc3g","pricing_plan_id":"cebpf4jnsgd1na2vs0mg"},{"bike_id":"1af7e080-1332-4911-8205-774cf596cdc7","system_id":"levelo_inurba_marseille","lat":43.29557,"lon":5.42294,"is_reserved":false,"is_disabled":false,"rental_uris":{"android":"levelo://app?vid=1af7e080-1332-4911-8205-774cf596cdc7","ios":"levelo://app?vid=1af7e080-1332-4911-8205-774cf596cdc7"},"vehicle_type_id":"4","last_reported":1730059769,"current_range_meters":24000,"station_id":"ce4bhph2rcd13ifvqhdg","pricing_plan_id":"cebpf4jnsgd1na2vs0mg"},{"bike_id":"eee66e51-5680-4b43-8b22-a6dbf737c96b","system_id":"levelo_inurba_marseille","lat":43.2959,"lon":5.37505,"is_reserved":false,"is_disabled":false,"rental_uris":{"android":"levelo://app?vid=eee66e51-5680-4b43-8b22-a6dbf737c96b","ios":"levelo://app?vid=eee66e51-5680-4b43-8b22-a6dbf737c96b"},"vehicle_type_id":"4","last_reported":1730059769,"current_range_meters":35200,"station_id":"ce4bgh92rcd13ifvqb50","pricing_plan_id":"cebpf4jnsgd1na2vs0mg"},{"bike_id":"37260c40-28c0-4a0c-b6ff-6b467ba216bb","system_id":"levelo_inurba_marseille","lat":43.29278,"lon":5.38437,"is_reserved":false,"is_disabled":false,"rental_uris":{"android":"levelo://app?vid=37260c40-28c0-4a0c-b6ff-6b467ba216bb","ios":"levelo://app?vid=37260c40-28c0-4a0c-b6ff-6b467ba216bb"},"vehicle_type_id":"4","last_reported":1730059769,"current_range_meters":28800,"station_id":"ce4bh692rcd13ifvqea0","pricing_plan_id":"cebpf4jnsgd1na2vs0mg"},{"bike_id":"38c2f697-c44f-4998-acd0-cd2c4add28af","system_id":"levelo_inurba_marseille","lat":43.29422,"lon":5.38645,"is_reserved":false,"is_disabled":false,"rental_uris":{"android":"levelo://app?vid=38c2f697-c44f-4998-acd0-cd2c4add28af","ios":"levelo://app?vid=38c2f697-c44f-4998-acd0-cd2c4add28af"},"vehicle_type_id":"4","last_reported":1730059769,"current_range_meters":12400,"station_id":"ce4bh2h2rcd13ifvqdh0","pricing_plan_id":"cebpf4jnsgd1na2vs0mg"},{"bike_id":"f57b35df-8b2b-448e-8757-7e05aa11ecb9","system_id":"levelo_inurba_marseille","lat":43.26203,"lon":5.37926,"is_reserved":false,"is_disabled":false,"rental_uris":{"android":"levelo://app?vid=f57b35df-8b2b-448e-8757-7e05aa11ecb9","ios":"levelo://app?vid=f57b35df-8b2b-448e-8757-7e05aa11ecb9"},"vehicle_type_id":"4","last_reported":1730059769,"current_range_meters":38800,"station_id":"ce4bhjp2rcd13ifvqg90","pricing_plan_id":"cebpf4jnsgd1na2vs0mg"},{"bike_id":"4f40e012-ea5b-4575-9527-1f943967bef1","system_id":"levelo_inurba_marseille","lat":43.23967,"lon":5.36629,"is_reserved":false,"is_disabled":false,"rental_uris":{"android":"levelo://app?vid=4f40e012-ea5b-4575-9527-1f943967bef1","ios":"levelo://app?vid=4f40e012-ea5b-4575-9527-1f943967bef1"},"vehicle_type_id":"4","last_reported":1730059769,"current_range_meters":9200,"station_id":"ce4bhi12rcd13ifvqfp0","pricing_plan_id":"cebpf4jnsgd1na2vs0mg"},{"bike_id":"e7d10e46-db22-405f-aa54-83379ef50215","system_id":"levelo_inurba_marseille","lat":43.32491,"lon":5.36554,"is_reserved":false,"is_disabled":false,"rental_uris":{"android":"levelo://app?vid=e7d10e46-db22-405f-aa54-83379ef50215","ios":"levelo://app?vid=e7d10e46-db22-405f-aa54-83379ef50215"},"vehicle_type_id":"4","last_reported":1730059769,"current_range_meters":20000,"station_id":"ce4bhs12rcd13ifvqhvg","pricing_plan_id":"cebpf4jnsgd1na2vs0mg"},{"bike_id":"3c3ea4ce-15d6-46b9-80e5-c9cc1b739712","system_id":"levelo_inurba_marseille","lat":43.29729,"lon":5.37708,"is_reserved":false,"is_disabled":false,"rental_uris":{"android":"levelo://app?vid=3c3ea4ce-15d6-46b9-80e5-c9cc1b739712","ios":"levelo://app?vid=3c3ea4ce-15d6-46b9-80e5-c9cc1b739712"},"vehicle_type_id":"4","last_reported":1730059769,"current_range_meters":38000,"station_id":"ce4bgkh2rcd13ifvqbl0","pricing_plan_id":"cebpf4jnsgd1na2vs0mg"},{"bike_id":"137cadb4-d671-4029-8729-5f827b1dde94","system_id":"levelo_inurba_marseille","lat":43.29401,"lon":5.3865,"is_reserved":false,"is_disabled":false,"rental_uris":{"android":"levelo://app?vid=137cadb4-d671-4029-8729-5f827b1dde94","ios":"levelo://app?vid=137cadb4-d671-4029-8729-5f827b1dde94"},"vehicle_type_id":"4","last_reported":1730059769,"current_range_meters":29600,"station_id":"ce4bh2h2rcd13ifvqdh0","pricing_plan_id":"cebpf4jnsgd1na2vs0mg"},{"bike_id":"cdba29c0-c574-4ba6-8698-33e6a2e3dcd7","system_id":"levelo_inurba_marseille","lat":43.25934,"lon":5.40911,"is_reserved":false,"is_disabled":false,"rental_uris":{"android":"levelo://app?vid=cdba29c0-c574-4ba6-8698-33e6a2e3dcd7","ios":"levelo://app?vid=cdba29c0-c574-4ba6-8698-33e6a2e3dcd7"},"vehicle_type_id":"4","last_reported":1730059769,"current_range_meters":33200,"station_id":"ce4bhm92rcd13ifvqglg","pricing_plan_id":"cebpf4jnsgd1na2vs0mg"},{"bike_id":"397e19e1-70d1-4c1a-82ef-1ec9a560a69f","system_id":"levelo_inurba_marseille","lat":43.28612,"lon":5.35102,"is_reserved":false,"is_disabled":false,"rental_uris":{"android":"levelo://app?vid=397e19e1-70d1-4c1a-82ef-1ec9a560a69f","ios":"levelo://app?vid=397e19e1-70d1-4c1a-82ef-1ec9a560a69f"},"vehicle_type_id":"4","last_reported":1730059769,"current_range_meters":38800,"station_id":"ce4bhch2rcd13ifvqeug","pricing_plan_id":"cebpf4jnsgd1na2vs0mg"},{"bike_id":"004333c7-3c88-45b5-b6a7-6f5b0c88a5bb","system_id":"levelo_inurba_marseille","lat":43.26941,"lon":5.40246,"is_reserved":false,"is_disabled":false,"rental_uris":{"android":"levelo://app?vid=004333c7-3c88-45b5-b6a7-6f5b0c88a5bb","ios":"levelo://app?vid=004333c7-3c88-45b5-b6a7-6f5b0c88a5bb"},"vehicle_type_id":"4","last_reported":1730059769,"current_range_meters":6000,"station_id":"cjm6bp8fraef2m0cb0m0","pricing_plan_id":"cebpf4jnsgd1na2vs0mg"},{"bike_id":"a792347a-d158-4403-9c48-1b4e0c6fc790","system_id":"levelo_inurba_marseille","lat":43.27069,"lon":5.42281,"is_reserved":false,"is_disabled":false,"rental_uris":{"android":"levelo://app?vid=a792347a-d158-4403-9c48-1b4e0c6fc790","ios":"levelo://app?vid=a792347a-d158-4403-9c48-1b4e0c6fc790"},"vehicle_type_id":"4","last_reported":1730059769,"current_range_meters":39200,"station_id":"ce4bhk92rcd13ifvqgb0","pricing_plan_id":"cebpf4jnsgd1na2vs0mg"},{"bike_id":"615da492-04b7-43cd-939c-f3cf84f28f19","system_id":"levelo_inurba_marseille","lat":43.29538,"lon":5.38546,"is_reserved":false,"is_disabled":false,"rental_uris":{"android":"levelo://app?vid=615da492-04b7-43cd-939c-f3cf84f28f19","ios":"levelo://app?vid=615da492-04b7-43cd-939c-f3cf84f28f19"},"vehicle_type_id":"4","last_reported":1730059769,"current_range_meters":19200,"station_id":"ce4bgih2rcd13ifvqba0","pricing_plan_id":"cebpf4jnsgd1na2vs0mg"},{"bike_id":"e114d299-3b0f-4472-b512-92f05ab4ddd6","system_id":"levelo_inurba_marseille","lat":43.275617,"lon":5.384356,"is_reserved":false,"is_disabled":false,"rental_uris":{"android":"levelo://app?vid=e114d299-3b0f-4472-b512-92f05ab4ddd6","ios":"levelo://app?vid=e114d299-3b0f-4472-b512-92f05ab4ddd6"},"vehicle_type_id":"4","last_reported":1730059769,"current_range_meters":6000,"station_id":"ce4bhh92rcd13ifvqfi0","pricing_plan_id":"cebpf4jnsgd1na2vs0mg"},{"bike_id":"e0bf05b6-3eb6-4872-8e8d-82b38f035f72","system_id":"levelo_inurba_marseille","lat":43.231853,"lon":5.399877,"is_reserved":false,"is_disabled":false,"rental_uris":{"android":"levelo://app?vid=e0bf05b6-3eb6-4872-8e8d-82b38f035f72","ios":"levelo://app?vid=e0bf05b6-3eb6-4872-8e8d-82b38f035f72"},"vehicle_type_id":"4","last_reported":1730059769,"current_range_meters":12800,"station_id":"ce4bhn12rcd13ifvqgqg","pricing_plan_id":"cebpf4jnsgd1na2vs0mg"},{"bike_id":"a735f151-651d-4bf7-99ed-eb10af086bd7","system_id":"levelo_inurba_marseille","lat":43.29532,"lon":5.38545,"is_reserved":false,"is_disabled":false,"rental_uris":{"android":"levelo://app?vid=a735f151-651d-4bf7-99ed-eb10af086bd7","ios":"levelo://app?vid=a735f151-651d-4bf7-99ed-eb10af086bd7"},"vehicle_type_id":"4","last_reported":1730059769,"current_range_meters":14800,"station_id":"","pricing_plan_id":"cebpf4jnsgd1na2vs0mg"},{"bike_id":"03ffeab1-71a3-48a9-9c51-d04215d91470","system_id":"levelo_inurba_marseille","lat":43.28148,"lon":5.42651,"is_reserved":false,"is_disabled":false,"rental_uris":{"android":"levelo://app?vid=03ffeab1-71a3-48a9-9c51-d04215d91470","ios":"levelo://app?vid=03ffeab1-71a3-48a9-9c51-d04215d91470"},"vehicle_type_id":"4","last_reported":1730059769,"current_range_meters":24400,"station_id":"ce4bhnh2rcd13ifvqgug","pricing_plan_id":"cebpf4jnsgd1na2vs0mg"},{"bike_id":"016fc884-44e1-4e58-afe4-7e18f6f1d442","system_id":"levelo_inurba_marseille","lat":43.27909,"lon":5.37999,"is_reserved":false,"is_disabled":false,"rental_uris":{"android":"levelo://app?vid=016fc884-44e1-4e58-afe4-7e18f6f1d442","ios":"levelo://app?vid=016fc884-44e1-4e58-afe4-7e18f6f1d442"},"vehicle_type_id":"4","last_reported":1730059769,"current_range_meters":5600,"station_id":"ce4bhf92rcd13ifvqf50","pricing_plan_id":"cebpf4jnsgd1na2vs0mg"},{"bike_id":"e2732363-8e1b-45e7-a618-8dda5d1a4482","system_id":"levelo_inurba_marseille","lat":43.23971,"lon":5.36632,"is_reserved":false,"is_disabled":false,"rental_uris":{"android":"levelo://app?vid=e2732363-8e1b-45e7-a618-8dda5d1a4482","ios":"levelo://app?vid=e2732363-8e1b-45e7-a618-8dda5d1a4482"},"vehicle_type_id":"4","last_reported":1730059769,"current_range_meters":9200,"station_id":"ce4bhi12rcd13ifvqfp0","pricing_plan_id":"cebpf4jnsgd1na2vs0mg"},{"bike_id":"0c0bdbd4-962a-4608-a595-94e7794fe001","system_id":"levelo_inurba_marseille","lat":43.30938,"lon":5.40144,"is_reserved":false,"is_disabled":false,"rental_uris":{"android":"levelo://app?vid=0c0bdbd4-962a-4608-a595-94e7794fe001","ios":"levelo://app?vid=0c0bdbd4-962a-4608-a595-94e7794fe001"},"vehicle_type_id":"4","last_reported":1730059769,"current_range_meters":28000,"station_id":"ce4bgvp2rcd13ifvqct0","pricing_plan_id":"cebpf4jnsgd1na2vs0mg"},{"bike_id":"409782fa-ef71-4b3e-957e-8c1b425efcd6","system_id":"levelo_inurba_marseille","lat":43.29536,"lon":5.37509,"is_reserved":false,"is_disabled":false,"rental_uris":{"android":"levelo://app?vid=409782fa-ef71-4b3e-957e-8c1b425efcd6","ios":"levelo://app?vid=409782fa-ef71-4b3e-957e-8c1b425efcd6"},"vehicle_type_id":"4","last_reported":1730059769,"current_range_meters":10000,"station_id":"ce4bgkp2rcd13ifvqbmg","pricing_plan_id":"cebpf4jnsgd1na2vs0mg"},{"bike_id":"0c7ca2a3-6f2c-4ec6-8bfc-f23f80115b03","system_id":"levelo_inurba_marseille","lat":43.26501,"lon":5.39549,"is_reserved":false,"is_disabled":false,"rental_uris":{"android":"levelo://app?vid=0c7ca2a3-6f2c-4ec6-8bfc-f23f80115b03","ios":"levelo://app?vid=0c7ca2a3-6f2c-4ec6-8bfc-f23f80115b03"},"vehicle_type_id":"4","last_reported":1730059769,"current_range_meters":32000,"station_id":"ce4bhi12rcd13ifvqfq0","pricing_plan_id":"cebpf4jnsgd1na2vs0mg"},{"bike_id":"7d0d6da2-ea58-46a9-b143-ef11153901da","system_id":"levelo_inurba_marseille","lat":43.28152,"lon":5.42645,"is_reserved":false,"is_disabled":false,"rental_uris":{"android":"levelo://app?vid=7d0d6da2-ea58-46a9-b143-ef11153901da","ios":"levelo://app?vid=7d0d6da2-ea58-46a9-b143-ef11153901da"},"vehicle_type_id":"4","last_reported":1730059769,"current_range_meters":38800,"station_id":"ce4bhnh2rcd13ifvqgug","pricing_plan_id":"cebpf4jnsgd1na2vs0mg"},{"bike_id":"17a7f9d5-f5c4-4304-b644-3868e98c0d50","system_id":"levelo_inurba_marseille","lat":43.308919,"lon":5.371828,"is_reserved":false,"is_disabled":false,"rental_uris":{"android":"levelo://app?vid=17a7f9d5-f5c4-4304-b644-3868e98c0d50","ios":"levelo://app?vid=17a7f9d5-f5c4-4304-b644-3868e98c0d50"},"vehicle_type_id":"4","last_reported":1730059769,"current_range_meters":2800,"station_id":"ce4bh0p2rcd13ifvqd80","pricing_plan_id":"cebpf4jnsgd1na2vs0mg"},{"bike_id":"e320d203-b760-4387-959d-77602c820fe5","system_id":"levelo_inurba_marseille","lat":43.28372,"lon":5.3862,"is_reserved":false,"is_disabled":false,"rental_uris":{"android":"levelo://app?vid=e320d203-b760-4387-959d-77602c820fe5","ios":"levelo://app?vid=e320d203-b760-4387-959d-77602c820fe5"},"vehicle_type_id":"4","last_reported":1730059769,"current_range_meters":11600,"station_id":"ce4bh492rcd13ifvqdvg","pricing_plan_id":"cebpf4jnsgd1na2vs0mg"},{"bike_id":"48db3a37-a8a1-442a-877a-bb8ad16603a2","system_id":"levelo_inurba_marseille","lat":43.30354,"lon":5.41881,"is_reserved":false,"is_disabled":false,"rental_uris":{"android":"levelo://app?vid=48db3a37-a8a1-442a-877a-bb8ad16603a2","ios":"levelo://app?vid=48db3a37-a8a1-442a-877a-bb8ad16603a2"},"vehicle_type_id":"4","last_reported":1730059769,"current_range_meters":38800,"station_id":"ce4bhop2rcd13ifvqh7g","pricing_plan_id":"cebpf4jnsgd1na2vs0mg"},{"bike_id":"d73f2c65-fb5c-44d5-807b-50e17f33e81e","system_id":"levelo_inurba_marseille","lat":43.24165,"lon":5.36394,"is_reserved":false,"is_disabled":false,"rental_uris":{"android":"levelo://app?vid=d73f2c65-fb5c-44d5-807b-50e17f33e81e","ios":"levelo://app?vid=d73f2c65-fb5c-44d5-807b-50e17f33e81e"},"vehicle_type_id":"4","last_reported":1730059769,"current_range_meters":8800,"station_id":"cpo36qri1sfpv3e86is0","pricing_plan_id":"cebpf4jnsgd1na2vs0mg"},{"bike_id":"82f8d194-41d5-4c64-93bb-a7a81382a458","system_id":"levelo_inurba_marseille","lat":43.29034,"lon":5.37571,"is_reserved":false,"is_disabled":false,"rental_uris":{"android":"levelo://app?vid=82f8d194-41d5-4c64-93bb-a7a81382a458","ios":"levelo://app?vid=82f8d194-41d5-4c64-93bb-a7a81382a458"},"vehicle_type_id":"4","last_reported":1730059769,"current_range_meters":16400,"station_id":"ce4bh692rcd13ifvqe90","pricing_plan_id":"cebpf4jnsgd1na2vs0mg"},{"bike_id":"af776b23-3a65-44e6-b57b-f550c8c430b6","system_id":"levelo_inurba_marseille","lat":43.28154,"lon":5.42648,"is_reserved":false,"is_disabled":false,"rental_uris":{"android":"levelo://app?vid=af776b23-3a65-44e6-b57b-f550c8c430b6","ios":"levelo://app?vid=af776b23-3a65-44e6-b57b-f550c8c430b6"},"vehicle_type_id":"4","last_reported":1730059769,"current_range_meters":14800,"station_id":"ce4bhnh2rcd13ifvqgug","pricing_plan_id":"cebpf4jnsgd1na2vs0mg"},{"bike_id":"e49103e6-4dc1-498f-8c5c-9341215d0efa","system_id":"levelo_inurba_marseille","lat":43.26936,"lon":5.38922,"is_reserved":false,"is_disabled":false,"rental_uris":{"android":"levelo://app?vid=e49103e6-4dc1-498f-8c5c-9341215d0efa","ios":"levelo://app?vid=e49103e6-4dc1-498f-8c5c-9341215d0efa"},"vehicle_type_id":"4","last_reported":1730059769,"current_range_meters":18800,"station_id":"ce4bhhh2rcd13ifvqfl0","pricing_plan_id":"cebpf4jnsgd1na2vs0mg"},{"bike_id":"c9eb749b-627f-4321-b6c5-4885d0ce6d28","system_id":"levelo_inurba_marseille","lat":43.27325,"lon":5.39081,"is_reserved":false,"is_disabled":false,"rental_uris":{"android":"levelo://app?vid=c9eb749b-627f-4321-b6c5-4885d0ce6d28","ios":"levelo://app?vid=c9eb749b-627f-4321-b6c5-4885d0ce6d28"},"vehicle_type_id":"4","last_reported":1730059769,"current_range_meters":6800,"station_id":"ce4bhgp2rcd13ifvqfe0","pricing_plan_id":"cebpf4jnsgd1na2vs0mg"},{"bike_id":"664c21e7-7c62-41c8-8c51-221d0e5f9f64","system_id":"levelo_inurba_marseille","lat":43.26951,"lon":5.38632,"is_reserved":false,"is_disabled":false,"rental_uris":{"android":"levelo://app?vid=664c21e7-7c62-41c8-8c51-221d0e5f9f64","ios":"levelo://app?vid=664c21e7-7c62-41c8-8c51-221d0e5f9f64"},"vehicle_type_id":"4","last_reported":1730059769,"current_range_meters":14400,"station_id":"ce4bhh92rcd13ifvqfh0","pricing_plan_id":"cebpf4jnsgd1na2vs0mg"},{"bike_id":"aea18959-def8-4c0c-bca6-5d2d92845fa4","system_id":"levelo_inurba_marseille","lat":43.26947,"lon":5.40253,"is_reserved":false,"is_disabled":false,"rental_uris":{"android":"levelo://app?vid=aea18959-def8-4c0c-bca6-5d2d92845fa4","ios":"levelo://app?vid=aea18959-def8-4c0c-bca6-5d2d92845fa4"},"vehicle_type_id":"4","last_reported":1730059769,"current_range_meters":8400,"station_id":"cjm6bp8fraef2m0cb0m0","pricing_plan_id":"cebpf4jnsgd1na2vs0mg"},{"bike_id":"d0fa5c93-bf34-4830-b8f1-106df6a258c8","system_id":"levelo_inurba_marseille","lat":43.290364,"lon":5.386353,"is_reserved":false,"is_disabled":false,"rental_uris":{"android":"levelo://app?vid=d0fa5c93-bf34-4830-b8f1-106df6a258c8","ios":"levelo://app?vid=d0fa5c93-bf34-4830-b8f1-106df6a258c8"},"vehicle_type_id":"4","last_reported":1730059769,"current_range_meters":18000,"station_id":"ce4bh4p2rcd13ifvqe0g","pricing_plan_id":"cebpf4jnsgd1na2vs0mg"},{"bike_id":"a10c3ce2-5522-4ae1-ba9e-4725d3f64a4b","system_id":"levelo_inurba_marseille","lat":43.29266,"lon":5.38448,"is_reserved":false,"is_disabled":false,"rental_uris":{"android":"levelo://app?vid=a10c3ce2-5522-4ae1-ba9e-4725d3f64a4b","ios":"levelo://app?vid=a10c3ce2-5522-4ae1-ba9e-4725d3f64a4b"},"vehicle_type_id":"4","last_reported":1730059769,"current_range_meters":27200,"station_id":"ce4bh692rcd13ifvqea0","pricing_plan_id":"cebpf4jnsgd1na2vs0mg"},{"bike_id":"98ab8048-b082-4269-98ba-e8072dfc5d37","system_id":"levelo_inurba_marseille","lat":43.2815,"lon":5.42649,"is_reserved":false,"is_disabled":false,"rental_uris":{"android":"levelo://app?vid=98ab8048-b082-4269-98ba-e8072dfc5d37","ios":"levelo://app?vid=98ab8048-b082-4269-98ba-e8072dfc5d37"},"vehicle_type_id":"4","last_reported":1730059769,"current_range_meters":27600,"station_id":"ce4bhnh2rcd13ifvqgug","pricing_plan_id":"cebpf4jnsgd1na2vs0mg"},{"bike_id":"e9161169-bf96-4d0e-aa7b-58a20bb22718","system_id":"levelo_inurba_marseille","lat":43.2942,"lon":5.38615,"is_reserved":false,"is_disabled":false,"rental_uris":{"android":"levelo://app?vid=e9161169-bf96-4d0e-aa7b-58a20bb22718","ios":"levelo://app?vid=e9161169-bf96-4d0e-aa7b-58a20bb22718"},"vehicle_type_id":"4","last_reported":1730059769,"current_range_meters":38400,"station_id":"ce4bh2h2rcd13ifvqdh0","pricing_plan_id":"cebpf4jnsgd1na2vs0mg"},{"bike_id":"1147a193-5672-43b3-9b8d-8e39a58d0c36","system_id":"levelo_inurba_marseille","lat":43.24072,"lon":5.37768,"is_reserved":false,"is_disabled":false,"rental_uris":{"android":"levelo://app?vid=1147a193-5672-43b3-9b8d-8e39a58d0c36","ios":"levelo://app?vid=1147a193-5672-43b3-9b8d-8e39a58d0c36"},"vehicle_type_id":"4","last_reported":1730059769,"current_range_meters":38000,"station_id":"ce4bhnp2rcd13ifvqgvg","pricing_plan_id":"cebpf4jnsgd1na2vs0mg"},{"bike_id":"fd1d52e9-4f5d-484b-9de6-041457b9b8af","system_id":"levelo_inurba_marseille","lat":43.2991,"lon":5.38154,"is_reserved":false,"is_disabled":false,"rental_uris":{"android":"levelo://app?vid=fd1d52e9-4f5d-484b-9de6-041457b9b8af","ios":"levelo://app?vid=fd1d52e9-4f5d-484b-9de6-041457b9b8af"},"vehicle_type_id":"4","last_reported":1730059769,"current_range_meters":32400,"station_id":"ce4bgj12rcd13ifvqbc0","pricing_plan_id":"cebpf4jnsgd1na2vs0mg"},{"bike_id":"3d06f455-5415-45a7-8e2b-1aa5d7fa64ff","system_id":"levelo_inurba_marseille","lat":43.26949,"lon":5.40228,"is_reserved":false,"is_disabled":false,"rental_uris":{"android":"levelo://app?vid=3d06f455-5415-45a7-8e2b-1aa5d7fa64ff","ios":"levelo://app?vid=3d06f455-5415-45a7-8e2b-1aa5d7fa64ff"},"vehicle_type_id":"4","last_reported":1730059769,"current_range_meters":30400,"station_id":"cjm6bp8fraef2m0cb0m0","pricing_plan_id":"cebpf4jnsgd1na2vs0mg"},{"bike_id":"6a6df775-b493-4dfb-aa28-0845f3f3e259","system_id":"levelo_inurba_marseille","lat":43.26941,"lon":5.40254,"is_reserved":false,"is_disabled":false,"rental_uris":{"android":"levelo://app?vid=6a6df775-b493-4dfb-aa28-0845f3f3e259","ios":"levelo://app?vid=6a6df775-b493-4dfb-aa28-0845f3f3e259"},"vehicle_type_id":"4","last_reported":1730059769,"current_range_meters":38800,"station_id":"cjm6bp8fraef2m0cb0m0","pricing_plan_id":"cebpf4jnsgd1na2vs0mg"},{"bike_id":"df78770c-b0f4-4070-8fa1-1c92f463d944","system_id":"levelo_inurba_marseille","lat":43.29053,"lon":5.37761,"is_reserved":false,"is_disabled":false,"rental_uris":{"android":"levelo://app?vid=df78770c-b0f4-4070-8fa1-1c92f463d944","ios":"levelo://app?vid=df78770c-b0f4-4070-8fa1-1c92f463d944"},"vehicle_type_id":"4","last_reported":1730059769,"current_range_meters":20000,"station_id":"ce4bh192rcd13ifvqdb0","pricing_plan_id":"cebpf4jnsgd1na2vs0mg"},{"bike_id":"b215c5e9-0df5-44a1-9449-e6b2441bbad2","system_id":"levelo_inurba_marseille","lat":43.25124,"lon":5.40317,"is_reserved":false,"is_disabled":false,"rental_uris":{"android":"levelo://app?vid=b215c5e9-0df5-44a1-9449-e6b2441bbad2","ios":"levelo://app?vid=b215c5e9-0df5-44a1-9449-e6b2441bbad2"},"vehicle_type_id":"4","last_reported":1730059769,"current_range_meters":10000,"station_id":"ce4bhlh2rcd13ifvqgig","pricing_plan_id":"cebpf4jnsgd1na2vs0mg"},{"bike_id":"25d43228-2990-4e42-a555-9d4222eb8d81","system_id":"levelo_inurba_marseille","lat":43.275391,"lon":5.38418,"is_reserved":false,"is_disabled":false,"rental_uris":{"android":"levelo://app?vid=25d43228-2990-4e42-a555-9d4222eb8d81","ios":"levelo://app?vid=25d43228-2990-4e42-a555-9d4222eb8d81"},"vehicle_type_id":"4","last_reported":1730059769,"current_range_meters":11200,"station_id":"ce4bhh92rcd13ifvqfi0","pricing_plan_id":"cebpf4jnsgd1na2vs0mg"},{"bike_id":"3083fa3f-22dd-41b3-a607-7217ce0e3d15","system_id":"levelo_inurba_marseille","lat":43.28716,"lon":5.39978,"is_reserved":false,"is_disabled":false,"rental_uris":{"android":"levelo://app?vid=3083fa3f-22dd-41b3-a607-7217ce0e3d15","ios":"levelo://app?vid=3083fa3f-22dd-41b3-a607-7217ce0e3d15"},"vehicle_type_id":"4","last_reported":1730059769,"current_range_meters":38800,"station_id":"ce4bho92rcd13ifvqh3g","pricing_plan_id":"cebpf4jnsgd1na2vs0mg"},