{"last_updated":1747768063,"ttl":60,"version":"2.2","data":{"bikes":[{"bike_id":"c0b9fd4f-e181-46ce-b0bf-f5119973334f","system_id":"levelo_inurba_marseille","lat":43.33771,"lon":5.37424,"is_reserved":false,"is_disabled":true,"rental_uris":{"android":"levelo://app?vid=c0b9fd4f-e181-46ce-b0bf-f5119973334f","ios":"levelo://app?vid=c0b9fd4f-e181-46ce-b0bf-f5119973334f"},"vehicle_type_id":"4","last_reported":1747768063,"current_range_meters":0,"station_id":"","pricing_plan_id":"cebpf4jnsgd1na2vs0mg"},{"bike_id":"fc2577e7-1497-425b-9d4f-ab8d7dc843c6","system_id":"levelo_inurba_marseille","lat":43.33771,"lon":5.37485,"is_reserved":false,"is_disabled":true,"rental_uris":{"android":"levelo://app?vid=fc2577e7-1497-425b-9d4f-ab8d7dc843c6","ios":"levelo://app?vid=fc2577e7-1497-425b-9d4f-ab8d7dc843c6"},"vehicle_type_id":"4","last_reported":1747768063,"current_range_meters":0,"station_id":"","pricing_plan_id":"cebpf4jnsgd1na2vs0mg"},{"bike_id":"fea43c0c-64be-4bdb-9fbb-ba49fa4326e1","system_id":"levelo_inurba_marseille","lat":43.28208,"lon":5.39051,"is_reserved":false,"is_disabled":true,"rental_uris":{"android":"levelo://app?vid=fea43c0c-64be-4bdb-9fbb-ba49fa4326e1","ios":"levelo://app?vid=fea43c0c-64be-4bdb-9fbb-ba49fa4326e1"},"vehicle_type_id":"4","last_reported":1747768063,"current_range_meters":0,"station_id":"","pricing_plan_id":"cebpf4jnsgd1na2vs0mg"},{"bike_id":"5636bff1-0a45-430b-bb01-70d0cea6c4fd","system_id":"levelo_inurba_marseille","lat":43.31914,"lon":5.39015,"is_reserved":false,"is_disabled":true,"rental_uris":{"android":"levelo://app?vid=5636bff1-0a45-430b-bb01-70d0cea6c4fd","ios":"levelo://app?vid=5636bff1-0a45-430b-bb01-70d0cea6c4fd"},"vehicle_type_id":"4","last_reported":1747768063,"current_range_meters":0,"station_id":"","pricing_plan_id":"cebpf4jnsgd1na2vs0mg"},{"bike_id":"399c41cd-ce0f-41ec-852e-8ace5217f7e1","system_id":"levelo_inurba_marseille","lat":43.29967,"lon":5.45282,"is_reserved":false,"is_disabled":true,"rental_uris":{"android":"levelo://app?vid=399c41cd-ce0f-41ec-852e-8ace5217f7e1","ios":"levelo://app?vid=399c41cd-ce0f-41ec-852e-8ace5217f7e1"},"vehicle_type_id":"4","last_reported":1747768063,"current_range_meters":0,"station_id":"","pricing_plan_id":"cebpf4jnsgd1na2vs0mg"},{"bike_id":"51ae0958-406a-4431-94ad-9f5846678e4f","system_id":"levelo_inurba_marseille","lat":43.2941,"lon":5.40868,"is_reserved":false,"is_disabled":true,"rental_uris":{"android":"levelo://app?vid=51ae0958-406a-4431-94ad-9f5846678e4f","ios":"levelo://app?vid=51ae0958-406a-4431-94ad-9f5846678e4f"},"vehicle_type_id":"4","last_reported":1747768063,"current_range_meters":0,"station_id":"","pricing_plan_id":"cebpf4jnsgd1na2vs0mg"},{"bike_id":"e9dd3aa4-b5e7-4480-926d-d7f537719bfa","system_id":"levelo_inurba_marseille","lat":43.230331,"lon":5.401847,"is_reserved":false,"is_disabled":true,"rental_uris":{"android":"levelo://app?vid=e9dd3aa4-b5e7-4480-926d-d7f537719bfa","ios":"levelo://app?vid=e9dd3aa4-b5e7-4480-926d-d7f537719bfa"},"vehicle_type_id":"4","last_reported":1747768063,"current_range_meters":0,"station_id":"","pricing_plan_id":"cebpf4jnsgd1na2vs0mg"},{"bike_id":"c22af89f-8939-4970-b34d-cc32bcc04cac","system_id":"levelo_inurba_marseille","lat":43.30298,"lon":5.36868,"is_reserved":false,"is_disabled":true,"rental_uris":{"android":"levelo://app?vid=c22af89f-8939-4970-b34d-cc32bcc04cac","ios":"levelo://app?vid=c22af89f-8939-4970-b34d-cc32bcc04cac"},"vehicle_type_id":"4","last_reported":1747768063,"current_range_meters":0,"station_id":"ce4bgqh2rcd13ifvqc5g","pricing_plan_id":"cebpf4jnsgd1na2vs0mg"},{"bike_id":"b797fcab-31d4-4ebc-805d-16929950857f","system_id":"levelo_inurba_marseille","lat":43.26216,"lon":5.374437,"is_reserved":false,"is_disabled":true,"rental_uris":{"android":"levelo://app?vid=b797fcab-31d4-4ebc-805d-16929950857f","ios":"levelo://app?vid=b797fcab-31d4-4ebc-805d-16929950857f"},"vehicle_type_id":"4","last_reported":1747768063,"current_range_meters":0,"station_id":"ce4bhgp2rcd13ifvqfc0","pricing_plan_id":"cebpf4jnsgd1na2vs0mg"},{"bike_id":"0f167f63-1fba-4ce6-af87-77dbab8d07ad","system_id":"levelo_inurba_marseille","lat":43.271709,"lon":5.409913,"is_reserved":false,"is_disabled":true,"rental_uris":{"android":"levelo://app?vid=0f167f63-1fba-4ce6-af87-77dbab8d07ad","ios":"levelo://app?vid=0f167f63-1fba-4ce6-af87-77dbab8d07ad"},"vehicle_type_id":"4","last_reported":1747768063,"current_range_meters":0,"station_id":"ce4bhl12rcd13ifvqgf0","pricing_plan_id":"cebpf4jnsgd1na2vs0mg"},{"bike_id":"56145f08-41a6-4b05-8988-644f4326190e","system_id":"levelo_inurba_marseille","lat":43.29601,"lon":5.38108,"is_reserved":false,"is_disabled":true,"rental_uris":{"android":"levelo://app?vid=56145f08-41a6-4b05-8988-644f4326190e","ios":"levelo://app?vid=56145f08-41a6-4b05-8988-644f4326190e"},"vehicle_type_id":"4","last_reported":1747768063,"current_range_meters":400,"station_id":"ce4bgl12rcd13ifvqbo0","pricing_plan_id":"cebpf4jnsgd1na2vs0mg"},{"bike_id":"61c9b8f9-9253-4479-a28a-0c4abaac9abd","system_id":"levelo_inurba_marseille","lat":43.26799,"lon":5.40262,"is_reserved":false,"is_disabled":true,"rental_uris":{"android":"levelo://app?vid=61c9b8f9-9253-4479-a28a-0c4abaac9abd","ios":"levelo://app?vid=61c9b8f9-9253-4479-a28a-0c4abaac9abd"},"vehicle_type_id":"4","last_reported":1747768063,"current_range_meters":400,"station_id":"ce501612rcd8frsf0b60","pricing_plan_id":"cebpf4jnsgd1na2vs0mg"},{"bike_id":"912be152-ba23-45b1-a14b-d3513a13eac9","system_id":"levelo_inurba_marseille","lat":43.31705,"lon":5.37267,"is_reserved":false,"is_disabled":true,"rental_uris":{"android":"levelo://app?vid=912be152-ba23-45b1-a14b-d3513a13eac9","ios":"levelo://app?vid=912be152-ba23-45b1-a14b-d3513a13eac9"},"vehicle_type_id":"4","last_reported":1747768063,"current_range_meters":800,"station_id":"","pricing_plan_id":"cebpf4jnsgd1na2vs0mg"},{"bike_id":"47a8fff6-18aa-4c9e-966b-46f2ca05636f","system_id":"levelo_inurba_marseille","lat":43.29798,"lon":5.38112,"is_reserved":false,"is_disabled":false,"rental_uris":{"android":"levelo://app?vid=47a8fff6-18aa-4c9e-966b-46f2ca05636f","ios":"levelo://app?vid=47a8fff6-18aa-4c9e-966b-46f2ca05636f"},"vehicle_type_id":"4","last_reported":1747768063,"current_range_meters":800,"station_id":"ce4bgip2rcd13ifvqbb0","pricing_plan_id":"cebpf4jnsgd1na2vs0mg"},{"bike_id":"86cf97dc-ea2d-428a-8962-7cd0d9f1878a","system_id":"levelo_inurba_marseille","lat":43.25508,"lon":5.39928,"is_reserved":false,"is_disabled":true,"rental_uris":{"android":"levelo://app?vid=86cf97dc-ea2d-428a-8962-7cd0d9f1878a","ios":"levelo://app?vid=86cf97dc-ea2d-428a-8962-7cd0d9f1878a"},"vehicle_type_id":"4","last_reported":1747768063,"current_range_meters":1200,"station_id":"","pricing_plan_id":"cebpf4jnsgd1na2vs0mg"},{"bike_id":"624cead2-ea23-497b-9f90-b7ccdf010f79","system_id":"levelo_inurba_marseille","lat":43.29025,"lon":5.38638,"is_reserved":false,"is_disabled":true,"rental_uris":{"android":"levelo://app?vid=624cead2-ea23-497b-9f90-b7ccdf010f79","ios":"levelo://app?vid=624cead2-ea23-497b-9f90-b7ccdf010f79"},"vehicle_type_id":"4","last_reported":1747768063,"current_range_meters":1200,"station_id":"ce4bh4p2rcd13ifvqe0g","pricing_plan_id":"cebpf4jnsgd1na2vs0mg"},{"bike_id":"df7eec56-0ab7-4442-8bb6-c4a5261e4d49","system_id":"levelo_inurba_marseille","lat":43.262084,"lon":5.374505,"is_reserved":false,"is_disabled":true,"rental_uris":{"android":"levelo://app?vid=df7eec56-0ab7-4442-8bb6-c4a5261e4d49","ios":"levelo://app?vid=df7eec56-0ab7-4442-8bb6-c4a5261e4d49"},"vehicle_type_id":"4","last_reported":1747768063,"current_range_meters":1200,"station_id":"ce4bhgp2rcd13ifvqfc0","pricing_plan_id":"cebpf4jnsgd1na2vs0mg"},{"bike_id":"1d198e18-0db5-4752-8126-60a5f62f604c","system_id":"levelo_inurba_marseille","lat":43.27668,"lon":5.38884,"is_reserved":false,"is_disabled":true,"rental_uris":{"android":"levelo://app?vid=1d198e18-0db5-4752-8126-60a5f62f604c","ios":"levelo://app?vid=1d198e18-0db5-4752-8126-60a5f62f604c"},"vehicle_type_id":"4","last_reported":1747768063,"current_range_meters":1200,"station_id":"ce4bhi12rcd13ifvqfo0","pricing_plan_id":"cebpf4jnsgd1na2vs0mg"},{"bike_id":"171a2621-40d1-4ba1-8a5f-fe28c9cbac05","system_id":"levelo_inurba_marseille","lat":43.2816,"lon":5.42644,"is_reserved":false,"is_disabled":true,"rental_uris":{"android":"levelo://app?vid=171a2621-40d1-4ba1-8a5f-fe28c9cbac05","ios":"levelo://app?vid=171a2621-40d1-4ba1-8a5f-fe28c9cbac05"},"vehicle_type_id":"4","last_reported":1747768063,"current_range_meters":1200,"station_id":"ce4bhnh2rcd13ifvqgug","pricing_plan_id":"cebpf4jnsgd1na2vs0mg"},{"bike_id":"55354908-40f1-4840-8e54-d933c745cc19","system_id":"levelo_inurba_marseille","lat":43.30926,"lon":5.36929,"is_reserved":false,"is_disabled":true,"rental_uris":{"android":"levelo://app?vid=55354908-40f1-4840-8e54-d933c745cc19","ios":"levelo://app?vid=55354908-40f1-4840-8e54-d933c745cc19"},"vehicle_type_id":"4","last_reported":1747768063,"current_range_meters":1600,"station_id":"","pricing_plan_id":"cebpf4jnsgd1na2vs0mg"},{"bike_id":"3c2e874b-823b-4069-8a4a-aca4fb4238f3","system_id":"levelo_inurba_marseille","lat":43.276346,"lon":5.397358,"is_reserved":false,"is_disabled":true,"rental_uris":{"android":"levelo://app?vid=3c2e874b-823b-4069-8a4a-aca4fb4238f3","ios":"levelo://app?vid=3c2e874b-823b-4069-8a4a-aca4fb4238f3"},"vehicle_type_id":"4","last_reported":1747768063,"current_range_meters":1600,"station_id":"","pricing_plan_id":"cebpf4jnsgd1na2vs0mg"},{"bike_id":"70cededa-5e74-4166-a6d1-01424ffc6754","system_id":"levelo_inurba_marseille","lat":43.310853,"lon":5.4243,"is_reserved":false,"is_disabled":true,"rental_uris":{"android":"levelo://app?vid=70cededa-5e74-4166-a6d1-01424ffc6754","ios":"levelo://app?vid=70cededa-5e74-4166-a6d1-01424ffc6754"},"vehicle_type_id":"4","last_reported":1747768063,"current_range_meters":1600,"station_id":"ce4bhp92rcd13ifvqhag","pricing_plan_id":"cebpf4jnsgd1na2vs0mg"},{"bike_id":"6d362400-aab0-4c9b-b57a-9f45b61b2a84","system_id":"levelo_inurba_marseille","lat":43.30019,"lon":5.409209,"is_reserved":false,"is_disabled":true,"rental_uris":{"android":"levelo://app?vid=6d362400-aab0-4c9b-b57a-9f45b61b2a84","ios":"levelo://app?vid=6d362400-aab0-4c9b-b57a-9f45b61b2a84"},"vehicle_type_id":"4","last_reported":1747768063,"current_range_meters":2000,"station_id":"","pricing_plan_id":"cebpf4jnsgd1na2vs0mg"},{"bike_id":"a3625378-7824-4696-b1ba-c33816a2e4b6","system_id":"levelo_inurba_marseille","lat":43.27826,"lon":5.39211,"is_reserved":false,"is_disabled":true,"rental_uris":{"android":"levelo://app?vid=a3625378-7824-4696-b1ba-c33816a2e4b6","ios":"levelo://app?vid=a3625378-7824-4696-b1ba-c33816a2e4b6"},"vehicle_type_id":"4","last_reported":1747768063,"current_range_meters":2000,"station_id":"ce4bhjp2rcd13ifvqga0","pricing_plan_id":"cebpf4jnsgd1na2vs0mg"},{"bike_id":"3e309358-0fb7-4800-a918-7268045916e5","system_id":"levelo_inurba_marseille","lat":43.27816,"lon":5.40721,"is_reserved":false,"is_disabled":true,"rental_uris":{"android":"levelo://app?vid=3e309358-0fb7-4800-a918-7268045916e5","ios":"levelo://app?vid=3e309358-0fb7-4800-a918-7268045916e5"},"vehicle_type_id":"4","last_reported":1747768063,"current_range_meters":2000,"station_id":"ce4bhnh2rcd13ifvqgtg","pricing_plan_id":"cebpf4jnsgd1na2vs0mg"},{"bike_id":"ea2e9715-5ca8-4d27-9713-0a830bdcc90f","system_id":"levelo_inurba_marseille","lat":43.30636,"lon":5.40087,"is_reserved":false,"is_disabled":false,"rental_uris":{"android":"levelo://app?vid=ea2e9715-5ca8-4d27-9713-0a830bdcc90f","ios":"levelo://app?vid=ea2e9715-5ca8-4d27-9713-0a830bdcc90f"},"vehicle_type_id":"4","last_reported":1747768063,"current_range_meters":3600,"station_id":"ce4bh112rcd13ifvqda0","pricing_plan_id":"cebpf4jnsgd1na2vs0mg"},{"bike_id":"b61792ea-696c-46b3-8b06-aa663d01e2b8","system_id":"levelo_inurba_marseille","lat":43.28426,"lon":5.34977,"is_reserved":false,"is_disabled":false,"rental_uris":{"android":"levelo://app?vid=b61792ea-696c-46b3-8b06-aa663d01e2b8","ios":"levelo://app?vid=b61792ea-696c-46b3-8b06-aa663d01e2b8"},"vehicle_type_id":"4","last_reported":1747768063,"current_range_meters":3600,"station_id":"ce4bhbh2rcd13ifvqepg","pricing_plan_id":"cebpf4jnsgd1na2vs0mg"},{"bike_id":"bcf76825-b688-4776-b2c2-b9e8e703785a","system_id":"levelo_inurba_marseille","lat":43.30735,"lon":5.4243,"is_reserved":false,"is_disabled":false,"rental_uris":{"android":"levelo://app?vid=bcf76825-b688-4776-b2c2-b9e8e703785a","ios":"levelo://app?vid=bcf76825-b688-4776-b2c2-b9e8e703785a"},"vehicle_type_id":"4","last_reported":1747768063,"current_range_meters":3600,"station_id":"st_cvj6ca6bvosntc0bfgr0","pricing_plan_id":"cebpf4jnsgd1na2vs0mg"},{"bike_id":"e64e36d1-c3e7-4427-9260-70ac75fa0a1c","system_id":"levelo_inurba_marseille","lat":43.33785,"lon":5.37467,"is_reserved":false,"is_disabled":false,"rental_uris":{"android":"levelo://app?vid=e64e36d1-c3e7-4427-9260-70ac75fa0a1c","ios":"levelo://app?vid=e64e36d1-c3e7-4427-9260-70ac75fa0a1c"},"vehicle_type_id":"4","last_reported":1747768063,"current_range_meters":4000,"station_id":"","pricing_plan_id":"cebpf4jnsgd1na2vs0mg"},{"bike_id":"3f7339e6-fc47-421a-a7ab-733e5caa0db2","system_id":"levelo_inurba_marseille","lat":43.305948,"lon":5.393635,"is_reserved":false,"is_disabled":false,"rental_uris":{"android":"levelo://app?vid=3f7339e6-fc47-421a-a7ab-733e5caa0db2","ios":"levelo://app?vid=3f7339e6-fc47-421a-a7ab-733e5caa0db2"},"vehicle_type_id":"4","last_reported":1747768063,"current_range_meters":4000,"station_id":"ce4bh0p2rcd13ifvqd80","pricing_plan_id":"cebpf4jnsgd1na2vs0mg"},{"bike_id":"1721b563-2dbf-4743-879c-28957ec43183","system_id":"levelo_inurba_marseille","lat":43.29516,"lon":5.37524,"is_reserved":false,"is_disabled":false,"rental_uris":{"android":"levelo://app?vid=1721b563-2dbf-4743-879c-28957ec43183","ios":"levelo://app?vid=1721b563-2dbf-4743-879c-28957ec43183"},"vehicle_type_id":"4","last_reported":1747768063,"current_range_meters":4400,"station_id":"ce4bgkp2rcd13ifvqbmg","pricing_plan_id":"cebpf4jnsgd1na2vs0mg"},{"bike_id":"e1099fc2-8880-4344-bde0-04dfc31e44a5","system_id":"levelo_inurba_marseille","lat":43.30822,"lon":5.43521,"is_reserved":false,"is_disabled":false,"rental_uris":{"android":"levelo://app?vid=e1099fc2-8880-4344-bde0-04dfc31e44a5","ios":"levelo://app?vid=e1099fc2-8880-4344-bde0-04dfc31e44a5"},"vehicle_type_id":"4","last_reported":1747768063,"current_range_meters":4400,"station_id":"ce4bhph2rcd13ifvqheg","pricing_plan_id":"cebpf4jnsgd1na2vs0mg"},{"bike_id":"20bee342-4a3f-4f34-940d-bb6cf00d52ae","system_id":"levelo_inurba_marseille","lat":43.26662,"lon":5.38593,"is_reserved":false,"is_disabled":false,"rental_uris":{"android":"levelo://app?vid=20bee342-4a3f-4f34-940d-bb6cf00d52ae","ios":"levelo://app?vid=20bee342-4a3f-4f34-940d-bb6cf00d52ae"},"vehicle_type_id":"4","last_reported":1747768063,"current_range_meters":4800,"station_id":"","pricing_plan_id":"cebpf4jnsgd1na2vs0mg"},{"bike_id":"cf0489de-93d3-411d-b728-da533c9a8b74","system_id":"levelo_inurba_marseille","lat":43.29005,"lon":5.35608,"is_reserved":false,"is_disabled":false,"rental_uris":{"android":"levelo://app?vid=cf0489de-93d3-411d-b728-da533c9a8b74","ios":"levelo://app?vid=cf0489de-93d3-411d-b728-da533c9a8b74"},"vehicle_type_id":"4","last_reported":1747768063,"current_range_meters":4800,"station_id":"ce4bhb92rcd13ifvqen0","pricing_plan_id":"cebpf4jnsgd1na2vs0mg"},{"bike_id":"d0c54a00-ea27-42db-b52f-4bb487e4e9e1","system_id":"levelo_inurba_marseille","lat":43.241648,"lon":5.396976,"is_reserved":false,"is_disabled":false,"rental_uris":{"android":"levelo://app?vid=d0c54a00-ea27-42db-b52f-4bb487e4e9e1","ios":"levelo://app?vid=d0c54a00-ea27-42db-b52f-4bb487e4e9e1"},"vehicle_type_id":"4","last_reported":1747768063,"current_range_meters":4800,"station_id":"ce4bhn12rcd13ifvqgpg","pricing_plan_id":"cebpf4jnsgd1na2vs0mg"},{"bike_id":"87f27f9b-2629-4278-9175-9ad313305cd0","system_id":"levelo_inurba_marseille","lat":43.30366,"lon":5.42479,"is_reserved":false,"is_disabled":false,"rental_uris":{"android":"levelo://app?vid=87f27f9b-2629-4278-9175-9ad313305cd0","ios":"levelo://app?vid=87f27f9b-2629-4278-9175-9ad313305cd0"},"vehicle_type_id":"4","last_reported":1747768063,"current_range_meters":4800,"station_id":"ce4bhoh2rcd13ifvqh6g","pricing_plan_id":"cebpf4jnsgd1na2vs0mg"},{"bike_id":"e2256946-2a59-4078-a174-2f990ae6085c","system_id":"levelo_inurba_marseille","lat":43.29528,"lon":5.42278,"is_reserved":false,"is_disabled":false,"rental_uris":{"android":"levelo://app?vid=e2256946-2a59-4078-a174-2f990ae6085c","ios":"levelo://app?vid=e2256946-2a59-4078-a174-2f990ae6085c"},"vehicle_type_id":"4","last_reported":1747768063,"current_range_meters":4800,"station_id":"ce4bhph2rcd13ifvqhdg","pricing_plan_id":"cebpf4jnsgd1na2vs0mg"},{"bike_id":"ba59102a-6c47-4600-bcb9-76e5920c2815","system_id":"levelo_inurba_marseille","lat":43.31379,"lon":5.37199,"is_reserved":false,"is_disabled":false,"rental_uris":{"android":"levelo://app?vid=ba59102a-6c47-4600-bcb9-76e5920c2815","ios":"levelo://app?vid=ba59102a-6c47-4600-bcb9-76e5920c2815"},"vehicle_type_id":"4","last_reported":1747768063,"current_range_meters":5600,"station_id":"","pricing_plan_id":"cebpf4jnsgd1na2vs0mg"},{"bike_id":"a110ade2-31f5-4fda-979f-872a63883b25","system_id":"levelo_inurba_marseille","lat":43.29876,"lon":5.38911,"is_reserved":false,"is_disabled":false,"rental_uris":{"android":"levelo://app?vid=a110ade2-31f5-4fda-979f-872a63883b25","ios":"levelo://app?vid=a110ade2-31f5-4fda-979f-872a63883b25"},"vehicle_type_id":"4","last_reported":1747768063,"current_range_meters":5600,"station_id":"ce4bh392rcd13ifvqdl0","pricing_plan_id":"cebpf4jnsgd1na2vs0mg"},{"bike_id":"9c3eadf3-209c-4ac8-b003-8fcd453ae05f","system_id":"levelo_inurba_marseille","lat":43.2804,"lon":5.36952,"is_reserved":false,"is_disabled":false,"rental_uris":{"android":"levelo://app?vid=9c3eadf3-209c-4ac8-b003-8fcd453ae05f","ios":"levelo://app?vid=9c3eadf3-209c-4ac8-b003-8fcd453ae05f"},"vehicle_type_id":"4","last_reported":1747768063,"current_range_meters":5600,"station_id":"ce4bha12rcd13ifvqef0","pricing_plan_id":"cebpf4jnsgd1na2vs0mg"},{"bike_id":"c2f42f92-8aab-4788-bc25-13c9277fd51b","system_id":"levelo_inurba_marseille","lat":43.28157,"lon":5.42647,"is_reserved":false,"is_disabled":false,"rental_uris":{"android":"levelo://app?vid=c2f42f92-8aab-4788-bc25-13c9277fd51b","ios":"levelo://app?vid=c2f42f92-8aab-4788-bc25-13c9277fd51b"},"vehicle_type_id":"4","last_reported":1747768063,"current_range_meters":5600,"station_id":"ce4bhnh2rcd13ifvqgug","pricing_plan_id":"cebpf4jnsgd1na2vs0mg"},{"bike_id":"0e4ac35c-d9c0-4e11-9dce-5d360ba888f0","system_id":"levelo_inurba_marseille","lat":43.2994,"lon":5.36555,"is_reserved":false,"is_disabled":false,"rental_uris":{"android":"levelo://app?vid=0e4ac35c-d9c0-4e11-9dce-5d360ba888f0","ios":"levelo://app?vid=0e4ac35c-d9c0-4e11-9dce-5d360ba888f0"},"vehicle_type_id":"4","last_reported":1747768063,"current_range_meters":6000,"station_id":"ce4bgm92rcd13ifvqbr0","pricing_plan_id":"cebpf4jnsgd1na2vs0mg"},{"bike_id":"9beb9fe0-2fb2-48d5-88fc-318027e84386","system_id":"levelo_inurba_marseille","lat":43.29845,"lon":5.36266,"is_reserved":false,"is_disabled":false,"rental_uris":{"android":"levelo://app?vid=9beb9fe0-2fb2-48d5-88fc-318027e84386","ios":"levelo://app?vid=9beb9fe0-2fb2-48d5-88fc-318027e84386"},"vehicle_type_id":"4","last_reported":1747768063,"current_range_meters":6000,"station_id":"ce4bgpp2rcd13ifvqc3g","pricing_plan_id":"cebpf4jnsgd1na2vs0mg"},{"bike_id":"823fcc98-1431-46cc-80db-eb17a9151132","system_id":"levelo_inurba_marseille","lat":43.28407,"lon":5.37549,"is_reserved":false,"is_disabled":false,"rental_uris":{"android":"levelo://app?vid=823fcc98-1431-46cc-80db-eb17a9151132","ios":"levelo://app?vid=823fcc98-1431-46cc-80db-eb17a9151132"},"vehicle_type_id":"4","last_reported":1747768063,"current_range_meters":6000,"station_id":"ce4bh412rcd13ifvqds0","pricing_plan_id":"cebpf4jnsgd1na2vs0mg"},{"bike_id":"f3f6b40d-3427-407a-94c6-05274b4321ce","system_id":"levelo_inurba_marseille","lat":43.28418,"lon":5.34988,"is_reserved":false,"is_disabled":false,"rental_uris":{"android":"levelo://app?vid=f3f6b40d-3427-407a-94c6-05274b4321ce","ios":"levelo://app?vid=f3f6b40d-3427-407a-94c6-05274b4321ce"},"vehicle_type_id":"4","last_reported":1747768063,"current_range_meters":6000,"station_id":"ce4bhbh2rcd13ifvqepg","pricing_plan_id":"cebpf4jnsgd1na2vs0mg"},{"bike_id":"cf20a5f9-ed8c-4691-830f-418dcf259a2b","system_id":"levelo_inurba_marseille","lat":43.25516,"lon":5.37656,"is_reserved":false,"is_disabled":false,"rental_uris":{"android":"levelo://app?vid=cf20a5f9-ed8c-4691-830f-418dcf259a2b","ios":"levelo://app?vid=cf20a5f9-ed8c-4691-830f-418dcf259a2b"},"vehicle_type_id":"4","last_reported":1747768063,"current_range_meters":6000,"station_id":"ce4bhh12rcd13ifvqff0","pricing_plan_id":"cebpf4jnsgd1na2vs0mg"},{"bike_id":"f278de53-882b-43af-843c-830ed33246a2","system_id":"levelo_inurba_marseille","lat":43.25578,"lon":5.38231,"is_reserved":false,"is_disabled":false,"rental_uris":{"android":"levelo://app?vid=f278de53-882b-43af-843c-830ed33246a2","ios":"levelo://app?vid=f278de53-882b-43af-843c-830ed33246a2"},"vehicle_type_id":"4","last_reported":1747768063,"current_range_meters":6000,"station_id":"ce4bhih2rcd13ifvqfs0","pricing_plan_id":"cebpf4jnsgd1na2vs0mg"},{"bike_id":"1addcad7-d488-4e1c-b76c-777e91802e42","system_id":"levelo_inurba_marseille","lat":43.25078,"lon":5.3951,"is_reserved":false,"is_disabled":false,"rental_uris":{"android":"levelo://app?vid=1addcad7-d488-4e1c-b76c-777e91802e42","ios":"levelo://app?vid=1addcad7-d488-4e1c-b76c-777e91802e42"},"vehicle_type_id":"4","last_reported":1747768063,"current_range_meters":6000,"station_id":"ce4bhm12rcd13ifvqgkg","pricing_plan_id":"cebpf4jnsgd1na2vs0mg"},{"bike_id":"bcbdbd69-7be8-42f8-a855-a4358565de8f","system_id":"levelo_inurba_marseille","lat":43.27745,"lon":5.41379,"is_reserved":false,"is_disabled":false,"rental_uris":{"android":"levelo://app?vid=bcbdbd69-7be8-42f8-a855-a4358565de8f","ios":"levelo://app?vid=bcbdbd69-7be8-42f8-a855-a4358565de8f"},"vehicle_type_id":"4","last_reported":1747768063,"current_range_meters":6400,"station_id":"","pricing_plan_id":"cebpf4jnsgd1na2vs0mg"},{"bike_id":"3e6d9c1e-d8c4-4931-bf43-f76cce5b4b2c","system_id":"levelo_inurba_marseille","lat":43.29032,"lon":5.3863,"is_reserved":false,"is_disabled":false,"rental_uris":{"android":"levelo://app?vid=3e6d9c1e-d8c4-4931-bf43-f76cce5b4b2c","ios":"levelo://app?vid=3e6d9c1e-d8c4-4931-bf43-f76cce5b4b2c"},"vehicle_type_id":"4","last_reported":1747768063,"current_range_meters":6400,"station_id":"ce4bh4p2rcd13ifvqe0g","pricing_plan_id":"cebpf4jnsgd1na2vs0mg"},{"bike_id":"60dc978b-f032-469e-b94f-630bfdfcbfa4","system_id":"levelo_inurba_marseille","lat":43.29066,"lon":5.37175,"is_reserved":false,"is_disabled":false,"rental_uris":{"android":"levelo://app?vid=60dc978b-f032-469e-b94f-630bfdfcbfa4","ios":"levelo://app?vid=60dc978b-f032-469e-b94f-630bfdfcbfa4"},"vehicle_type_id":"4","last_reported":1747768063,"current_range_meters":6400,"station_id":"ce4bh5p2rcd13ifvqe4g","pricing_plan_id":"cebpf4jnsgd1na2vs0mg"},{"bike_id":"43a669de-adcd-42c3-8105-1febeebaa55c","system_id":"levelo_inurba_marseille","lat":43.27908,"lon":5.39592,"is_reserved":false,"is_disabled":false,"rental_uris":{"android":"levelo://app?vid=43a669de-adcd-42c3-8105-1febeebaa55c","ios":"levelo://app?vid=43a669de-adcd-42c3-8105-1febeebaa55c"},"vehicle_type_id":"4","last_reported":1747768063,"current_range_meters":6400,"station_id":"ce4bhf92rcd13ifvqf40","pricing_plan_id":"cebpf4jnsgd1na2vs0mg"},{"bike_id":"4b88fdea-9410-479b-abf3-7d2c52ae8721","system_id":"levelo_inurba_marseille","lat":43.25109,"lon":5.40332,"is_reserved":false,"is_disabled":false,"rental_uris":{"android":"levelo://app?vid=4b88fdea-9410-479b-abf3-7d2c52ae8721","ios":"levelo://app?vid=4b88fdea-9410-479b-abf3-7d2c52ae8721"},"vehicle_type_id":"4","last_reported":1747768063,"current_range_meters":6400,"station_id":"ce4bhlh2rcd13ifvqgig","pricing_plan_id":"cebpf4jnsgd1na2vs0mg"},{"bike_id":"3756623f-8650-41f1-921f-b5cabd8d6af7","system_id":"levelo_inurba_marseille","lat":43.31983,"lon":5.37474,"is_reserved":false,"is_disabled":false,"rental_uris":{"android":"levelo://app?vid=3756623f-8650-41f1-921f-b5cabd8d6af7","ios":"levelo://app?vid=3756623f-8650-41f1-921f-b5cabd8d6af7"},"vehicle_type_id":"4","last_reported":1747768063,"current_range_meters":6800,"station_id":"","pricing_plan_id":"cebpf4jnsgd1na2vs0mg"},{"bike_id":"b5d7af4e-7d5c-464a-99ca-a69ec054d19f","system_id":"levelo_inurba_marseille","lat":43.30839,"lon":5.37927,"is_reserved":false,"is_disabled":false,"rental_uris":{"android":"levelo://app?vid=b5d7af4e-7d5c-464a-99ca-a69ec054d19f","ios":"levelo://app?vid=b5d7af4e-7d5c-464a-99ca-a69ec054d19f"},"vehicle_type_id":"4","last_reported":1747768063,"current_range_meters":6800,"station_id":"","pricing_plan_id":"cebpf4jnsgd1na2vs0mg"},{"bike_id":"56093d40-85f1-4757-b1be-963fe1670ef0","system_id":"levelo_inurba_marseille","lat":43.32811,"lon":5.3876,"is_reserved":false,"is_disabled":false,"rental_uris":{"android":"levelo://app?vid=56093d40-85f1-4757-b1be-963fe1670ef0","ios":"levelo://app?vid=56093d40-85f1-4757-b1be-963fe1670ef0"},"vehicle_type_id":"4","last_reported":1747768063,"current_range_meters":6800,"station_id":"","pricing_plan_id":"cebpf4jnsgd1na2vs0mg"},{"bike_id":"68da5479-01e7-4b91-9c52-a301a8429b0f","system_id":"levelo_inurba_marseille","lat":43.29247,"lon":5.37613,"is_reserved":false,"is_disabled":false,"rental_uris":{"android":"levelo://app?vid=68da5479-01e7-4b91-9c52-a301a8429b0f","ios":"levelo://app?vid=68da5479-01e7-4b91-9c52-a301a8429b0f"},"vehicle_type_id":"4","last_reported":1747768063,"current_range_meters":6800,"station_id":"ce4bgi12rcd13ifvqb80","pricing_plan_id":"cebpf4jnsgd1na2vs0mg"},{"bike_id":"d54351b5-c1a6-4c5f-9738-5e1563a63c83","system_id":"levelo_inurba_marseille","lat":43.29267,"lon":5.38438,"is_reserved":false,"is_disabled":false,"rental_uris":{"android":"levelo://app?vid=d54351b5-c1a6-4c5f-9738-5e1563a63c83","ios":"levelo://app?vid=d54351b5-c1a6-4c5f-9738-5e1563a63c83"},"vehicle_type_id":"4","last_reported":1747768063,"current_range_meters":6800,"station_id":"ce4bh692rcd13ifvqea0","pricing_plan_id":"cebpf4jnsgd1na2vs0mg"},{"bike_id":"63848e79-a9d7-4eee-9a0f-aab3aced5588","system_id":"levelo_inurba_marseille","lat":43.29276,"lon":5.36847,"is_reserved":false,"is_disabled":false,"rental_uris":{"android":"levelo://app?vid=63848e79-a9d7-4eee-9a0f-aab3aced5588","ios":"levelo://app?vid=63848e79-a9d7-4eee-9a0f-aab3aced5588"},"vehicle_type_id":"4","last_reported":1747768063,"current_range_meters":6800,"station_id":"ce4bhbp2rcd13ifvqesg","pricing_plan_id":"cebpf4jnsgd1na2vs0mg"},{"bike_id":"01cb2e34-f8ae-4c99-bc04-8da7443e4644","system_id":"levelo_inurba_marseille","lat":43.3041,"lon":5.41289,"is_reserved":false,"is_disabled":false,"rental_uris":{"android":"levelo://app?vid=01cb2e34-f8ae-4c99-bc04-8da7443e4644","ios":"levelo://app?vid=01cb2e34-f8ae-4c99-bc04-8da7443e4644"},"vehicle_type_id":"4","last_reported":1747768063,"current_range_meters":6800,"station_id":"ce4bhop2rcd13ifvqh8g","pricing_plan_id":"cebpf4jnsgd1na2vs0mg"},{"bike_id":"a86d588e-15d7-4bbc-a49c-a091c128c973","system_id":"levelo_inurba_marseille","lat":43.231968,"lon":5.355556,"is_reserved":false,"is_disabled":false,"rental_uris":{"android":"levelo://app?vid=a86d588e-15d7-4bbc-a49c-a091c128c973","ios":"levelo://app?vid=a86d588e-15d7-4bbc-a49c-a091c128c973"},"vehicle_type_id":"4","last_reported":1747768063,"current_range_meters":6800,"station_id":"ce4bhu92rcd13ifvqi70","pricing_plan_id":"cebpf4jnsgd1na2vs0mg"},{"bike_id":"8f0f531d-6a65-4647-8a6f-baa3d982f42f","system_id":"levelo_inurba_marseille","lat":43.28118,"lon":5.4258,"is_reserved":false,"is_disabled":false,"rental_uris":{"android":"levelo://app?vid=8f0f531d-6a65-4647-8a6f-baa3d982f42f","ios":"levelo://app?vid=8f0f531d-6a65-4647-8a6f-baa3d982f42f"},"vehicle_type_id":"4","last_reported":1747768063,"current_range_meters":7200,"station_id":"","pricing_plan_id":"cebpf4jnsgd1na2vs0mg"},{"bike_id":"13b83910-9e4d-44f1-a0fc-b847e2654d69","system_id":"levelo_inurba_marseille","lat":43.30427,"lon":5.39755,"is_reserved":false,"is_disabled":false,"rental_uris":{"android":"levelo://app?vid=13b83910-9e4d-44f1-a0fc-b847e2654d69","ios":"levelo://app?vid=13b83910-9e4d-44f1-a0fc-b847e2654d69"},"vehicle_type_id":"4","last_reported":1747768063,"current_range_meters":7200,"station_id":"ce4bh092rcd13ifvqd20","pricing_plan_id":"cebpf4jnsgd1na2vs0mg"},{"bike_id":"b08d7504-1c6c-4475-a52d-5e9e6d2a7cea","system_id":"levelo_inurba_marseille","lat":43.292,"lon":5.35806,"is_reserved":false,"is_disabled":false,"rental_uris":{"android":"levelo://app?vid=b08d7504-1c6c-4475-a52d-5e9e6d2a7cea","ios":"levelo://app?vid=b08d7504-1c6c-4475-a52d-5e9e6d2a7cea"},"vehicle_type_id":"4","last_reported":1747768063,"current_range_meters":7200,"station_id":"ce4bhb12rcd13ifvqel0","pricing_plan_id":"cebpf4jnsgd1na2vs0mg"},{"bike_id":"126c4136-5470-47ae-9a72-33dbde745361","system_id":"levelo_inurba_marseille","lat":43.26572,"lon":5.39022,"is_reserved":false,"is_disabled":false,"rental_uris":{"android":"levelo://app?vid=126c4136-5470-47ae-9a72-33dbde745361","ios":"levelo://app?vid=126c4136-5470-47ae-9a72-33dbde745361"},"vehicle_type_id":"4","last_reported":1747768063,"current_range_meters":7200,"station_id":"ce4bhe12rcd13ifvqf30","pricing_plan_id":"cebpf4jnsgd1na2vs0mg"},{"bike_id":"ab1a4504-8ef4-479d-9f6f-c03977ae52cb","system_id":"levelo_inurba_marseille","lat":43.24816,"lon":5.37449,"is_reserved":false,"is_disabled":false,"rental_uris":{"android":"levelo://app?vid=ab1a4504-8ef4-479d-9f6f-c03977ae52cb","ios":"levelo://app?vid=ab1a4504-8ef4-479d-9f6f-c03977ae52cb"},"vehicle_type_id":"4","last_reported":1747768063,"current_range_meters":7200,"station_id":"ce4bhgh2rcd13ifvqfb0","pricing_plan_id":"cebpf4jnsgd1na2vs0mg"},{"bike_id":"85eaca89-9437-48d0-9bca-a254337b88db","system_id":"levelo_inurba_marseille","lat":43.274545,"lon":5.409691,"is_reserved":false,"is_disabled":false,"rental_uris":{"android":"levelo://app?vid=85eaca89-9437-48d0-9bca-a254337b88db","ios":"levelo://app?vid=85eaca89-9437-48d0-9bca-a254337b88db"},"vehicle_type_id":"4","last_reported":1747768063,"current_range_meters":8000,"station_id":"","pricing_plan_id":"cebpf4jnsgd1na2vs0mg"},{"bike_id":"28ca19ef-d064-474e-89e4-8c4b8a4f08a1","system_id":"levelo_inurba_marseille","lat":43.29263,"lon":5.38444,"is_reserved":false,"is_disabled":false,"rental_uris":{"android":"levelo://app?vid=28ca19ef-d064-474e-89e4-8c4b8a4f08a1","ios":"levelo://app?vid=28ca19ef-d064-474e-89e4-8c4b8a4f08a1"},"vehicle_type_id":"4","last_reported":1747768063,"current_range_meters":8000,"station_id":"ce4bh692rcd13ifvqea0","pricing_plan_id":"cebpf4jnsgd1na2vs0mg"},{"bike_id":"8a77c670-a7af-4ac0-9918-4e6c1c91e962","system_id":"levelo_inurba_marseille","lat":43.25091,"lon":5.39537,"is_reserved":false,"is_disabled":false,"rental_uris":{"android":"levelo://app?vid=8a77c670-a7af-4ac0-9918-4e6c1c91e962","ios":"levelo://app?vid=8a77c670-a7af-4ac0-9918-4e6c1c91e962"},"vehicle_type_id":"4","last_reported":1747768063,"current_range_meters":8000,"station_id":"ce4bhm12rcd13ifvqgkg","pricing_plan_id":"cebpf4jnsgd1na2vs0mg"},{"bike_id":"20e333a9-798b-42d6-afa4-c94df8c77bd6","system_id":"levelo_inurba_marseille","lat":43.281625,"lon":5.42632,"is_reserved":false,"is_disabled":false,"rental_uris":{"android":"levelo://app?vid=20e333a9-798b-42d6-afa4-c94df8c77bd6","ios":"levelo://app?vid=20e333a9-798b-42d6-afa4-c94df8c77bd6"},"vehicle_type_id":"4","last_reported":1747768063,"current_range_meters":8000,"station_id":"ce4bhnh2rcd13ifvqgug","pricing_plan_id":"cebpf4jnsgd1na2vs0mg"},{"bike_id":"feadd485-e507-4070-a97d-b228f8e95bcb","system_id":"levelo_inurba_marseille","lat":43.2959,"lon":5.42288,"is_reserved":false,"is_disabled":false,"rental_uris":{"android":"levelo://app?vid=feadd485-e507-4070-a97d-b228f8e95bcb","ios":"levelo://app?vid=feadd485-e507-4070-a97d-b228f8e95bcb"},"vehicle_type_id":"4","last_reported":1747768063,"current_range_meters":8000,"station_id":"ce4bhph2rcd13ifvqhdg","pricing_plan_id":"cebpf4jnsgd1na2vs0mg"},{"bike_id":"c1fa837e-7bf1-467d-95f7-95a1a92171d6","system_id":"levelo_inurba_marseille","lat":43.32337,"lon":5.40615,"is_reserved":false,"is_disabled":false,"rental_uris":{"android":"levelo://app?vid=c1fa837e-7bf1-467d-95f7-95a1a92171d6","ios":"levelo://app?vid=c1fa837e-7bf1-467d-95f7-95a1a92171d6"},"vehicle_type_id":"4","last_reported":1747768063,"current_range_meters":8000,"station_id":"ce4bhq92rcd13ifvqhjg","pricing_plan_id":"cebpf4jnsgd1na2vs0mg"},{"bike_id":"6a45ccb3-8dbe-4619-a6a0-f79d41d5b6c3","system_id":"levelo_inurba_marseille","lat":43.30528,"lon":5.36554,"is_reserved":false,"is_disabled":false,"rental_uris":{"android":"levelo://app?vid=6a45ccb3-8dbe-4619-a6a0-f79d41d5b6c3","ios":"levelo://app?vid=6a45ccb3-8dbe-4619-a6a0-f79d41d5b6c3"},"vehicle_type_id":"4","last_reported":1747768063,"current_range_meters":8400,"station_id":"ce4bgs12rcd13ifvqcag","pricing_plan_id":"cebpf4jnsgd1na2vs0mg"},{"bike_id":"d3996809-7ebd-4c26-a054-6ef78dbb7380","system_id":"levelo_inurba_marseille","lat":43.306434,"lon":5.40075,"is_reserved":false,"is_disabled":false,"rental_uris":{"android":"levelo://app?vid=d3996809-7ebd-4c26-a054-6ef78dbb7380","ios":"levelo://app?vid=d3996809-7ebd-4c26-a054-6ef78dbb7380"},"vehicle_type_id":"4","last_reported":1747768063,"current_range_meters":8400,"station_id":"ce4bh112rcd13ifvqda0","pricing_plan_id":"cebpf4jnsgd1na2vs0mg"},{"bike_id":"1dee839a-6d77-4c6b-9568-be713b393c85","system_id":"levelo_inurba_marseille","lat":43.28852,"lon":5.35872,"is_reserved":false,"is_disabled":false,"rental_uris":{"android":"levelo://app?vid=1dee839a-6d77-4c6b-9568-be713b393c85","ios":"levelo://app?vid=1dee839a-6d77-4c6b-9568-be713b393c85"},"vehicle_type_id":"4","last_reported":1747768063,"current_range_meters":8400,"station_id":"ce4bhb12rcd13ifvqem0","pricing_plan_id":"cebpf4jnsgd1na2vs0mg"},{"bike_id":"2302f4f7-4624-40f3-afa7-384eda0c66d8","system_id":"levelo_inurba_marseille","lat":43.32083,"lon":5.38712,"is_reserved":false,"is_disabled":false,"rental_uris":{"android":"levelo://app?vid=2302f4f7-4624-40f3-afa7-384eda0c66d8","ios":"levelo://app?vid=2302f4f7-4624-40f3-afa7-384eda0c66d8"},"vehicle_type_id":"4","last_reported":1747768063,"current_range_meters":8800,"station_id":"","pricing_plan_id":"cebpf4jnsgd1na2vs0mg"},{"bike_id":"bffbaf88-357a-4e87-a68c-a9a27a6e01e6","system_id":"levelo_inurba_marseille","lat":43.2622,"lon":5.42142,"is_reserved":false,"is_disabled":false,"rental_uris":{"android":"levelo://app?vid=bffbaf88-357a-4e87-a68c-a9a27a6e01e6","ios":"levelo://app?vid=bffbaf88-357a-4e87-a68c-a9a27a6e01e6"},"vehicle_type_id":"4","last_reported":1747768063,"current_range_meters":8800,"station_id":"","pricing_plan_id":"cebpf4jnsgd1na2vs0mg"},{"bike_id":"25ec5a7a-b873-4454-b323-f5bb0c837c3d","system_id":"levelo_inurba_marseille","lat":43.30294,"lon":5.39224,"is_reserved":false,"is_disabled":false,"rental_uris":{"android":"levelo://app?vid=25ec5a7a-b873-4454-b323-f5bb0c837c3d","ios":"levelo://app?vid=25ec5a7a-b873-4454-b323-f5bb0c837c3d"},"vehicle_type_id":"4","last_reported":1747768063,"current_range_meters":8800,"station_id":"ce4bgkh2rcd13ifvqbk0","pricing_plan_id":"cebpf4jnsgd1na2vs0mg"},{"bike_id":"bc5c1d33-ac82-4820-8f6a-8d30cb9c0e40","system_id":"levelo_inurba_marseille","lat":43.29255,"lon":5.38451,"is_reserved":false,"is_disabled":false,"rental_uris":{"android":"levelo://app?vid=bc5c1d33-ac82-4820-8f6a-8d30cb9c0e40","ios":"levelo://app?vid=bc5c1d33-ac82-4820-8f6a-8d30cb9c0e40"},"vehicle_type_id":"4","last_reported":1747768063,"current_range_meters":8800,"station_id":"ce4bh692rcd13ifvqea0","pricing_plan_id":"cebpf4jnsgd1na2vs0mg"},{"bike_id":"263b793b-cdf9-413e-9f96-f62793391a77","system_id":"levelo_inurba_marseille","lat":43.25109,"lon":5.40322,"is_reserved":false,"is_disabled":false,"rental_uris":{"android":"levelo://app?vid=263b793b-cdf9-413e-9f96-f62793391a77","ios":"levelo://app?vid=263b793b-cdf9-413e-9f96-f62793391a77"},"vehicle_type_id":"4","last_reported":1747768063,"current_range_meters":8800,"station_id":"ce4bhlh2rcd13ifvqgig","pricing_plan_id":"cebpf4jnsgd1na2vs0mg"},{"bike_id":"812ec8db-b136-43fe-8a1c-9aad0e881add","system_id":"levelo_inurba_marseille","lat":43.309341,"lon":5.401379,"is_reserved":false,"is_disabled":false,"rental_uris":{"android":"levelo://app?vid=812ec8db-b136-43fe-8a1c-9aad0e881add","ios":"levelo://app?vid=812ec8db-b136-43fe-8a1c-9aad0e881add"},"vehicle_type_id":"4","last_reported":1747768063,"current_range_meters":9200,"station_id":"ce4bgvp2rcd13ifvqct0","pricing_plan_id":"cebpf4jnsgd1na2vs0mg"},{"bike_id":"b4fa7d6b-1afa-44a9-a986-ee10a8e93520","system_id":"levelo_inurba_marseille","lat":43.28421,"lon":5.34992,"is_reserved":false,"is_disabled":false,"rental_uris":{"android":"levelo://app?vid=b4fa7d6b-1afa-44a9-a986-ee10a8e93520","ios":"levelo://app?vid=b4fa7d6b-1afa-44a9-a986-ee10a8e93520"},"vehicle_type_id":"4","last_reported":1747768063,"current_range_meters":9200,"station_id":"ce4bhbh2rcd13ifvqepg","pricing_plan_id":"cebpf4jnsgd1na2vs0mg"},{"bike_id":"1fc06e81-b4ce-4c76-8e61-d963e53e7d8d","system_id":"levelo_inurba_marseille","lat":43.25122,"lon":5.4032,"is_reserved":false,"is_disabled":false,"rental_uris":{"android":"levelo://app?vid=1fc06e81-b4ce-4c76-8e61-d963e53e7d8d","ios":"levelo://app?vid=1fc06e81-b4ce-4c76-8e61-d963e53e7d8d"},"vehicle_type_id":"4","last_reported":1747768063,"current_range_meters":9200,"station_id":"ce4bhlh2rcd13ifvqgig","pricing_plan_id":"cebpf4jnsgd1na2vs0mg"},{"bike_id":"a0aabdb9-5fa2-40e6-8b72-83f513b3ace8","system_id":"levelo_inurba_marseille","lat":43.23207,"lon":5.35555,"is_reserved":false,"is_disabled":false,"rental_uris":{"android":"levelo://app?vid=a0aabdb9-5fa2-40e6-8b72-83f513b3ace8","ios":"levelo://app?vid=a0aabdb9-5fa2-40e6-8b72-83f513b3ace8"},"vehicle_type_id":"4","last_reported":1747768063,"current_range_meters":9200,"station_id":"ce4bhu92rcd13ifvqi70","pricing_plan_id":"cebpf4jnsgd1na2vs0mg"},{"bike_id":"b1ab9ccf-d005-4e04-959f-d15b750df38b","system_id":"levelo_inurba_marseille","lat":43.31285,"lon":5.38284,"is_reserved":false,"is_disabled":false,"rental_uris":{"android":"levelo://app?vid=b1ab9ccf-d005-4e04-959f-d15b750df38b","ios":"levelo://app?vid=b1ab9ccf-d005-4e04-959f-d15b750df38b"},"vehicle_type_id":"4","last_reported":1747768063,"current_range_meters":9600,"station_id":"","pricing_plan_id":"cebpf4jnsgd1na2vs0mg"},{"bike_id":"1dfd0b8b-8990-4e15-9d51-d117e9b16e79","system_id":"levelo_inurba_marseille","lat":43.30152,"lon":5.38764,"is_reserved":false,"is_disabled":false,"rental_uris":{"android":"levelo://app?vid=1dfd0b8b-8990-4e15-9d51-d117e9b16e79","ios":"levelo://app?vid=1dfd0b8b-8990-4e15-9d51-d117e9b16e79"},"vehicle_type_id":"4","last_reported":1747768063,"current_range_meters":9600,"station_id":"ce4bghh2rcd13ifvqb60","pricing_plan_id":"cebpf4jnsgd1na2vs0mg"},{"bike_id":"ea5e8b91-fb93-43a3-809a-55f05237784e","system_id":"levelo_inurba_marseille","lat":43.30529,"lon":5.3654,"is_reserved":false,"is_disabled":false,"rental_uris":{"android":"levelo://app?vid=ea5e8b91-fb93-43a3-809a-55f05237784e","ios":"levelo://app?vid=ea5e8b91-fb93-43a3-809a-55f05237784e"},"vehicle_type_id":"4","last_reported":1747768063,"current_range_meters":9600,"station_id":"ce4bgs12rcd13ifvqcag","pricing_plan_id":"cebpf4jnsgd1na2vs0mg"},{"bike_id":"74b3a725-2a7e-4f92-8049-6310b65d042f","system_id":"levelo_inurba_marseille","lat":43.29225,"lon":5.36056,"is_reserved":false,"is_disabled":false,"rental_uris":{"android":"levelo://app?vid=74b3a725-2a7e-4f92-8049-6310b65d042f","ios":"levelo://app?vid=74b3a725-2a7e-4f92-8049-6310b65d042f"},"vehicle_type_id":"4","last_reported":1747768063,"current_range_meters":9600,"station_id":"ce4bhbh2rcd13ifvqeqg","pricing_plan_id":"cebpf4jnsgd1na2vs0mg"},{"bike_id":"71bce8c4-08f3-4ace-887d-73ab10218209","system_id":"levelo_inurba_marseille","lat":43.25718,"lon":5.41114,"is_reserved":false,"is_disabled":false,"rental_uris":{"android":"levelo://app?vid=71bce8c4-08f3-4ace-887d-73ab10218209","ios":"levelo://app?vid=71bce8c4-08f3-4ace-887d-73ab10218209"},"vehicle_type_id":"4","last_reported":1747768063,"current_range_meters":9600,"station_id":"ce4bhkp2rcd13ifvqgd0","pricing_plan_id":"cebpf4jnsgd1na2vs0mg"},{"bike_id":"649893f4-d1f7-41d7-8f88-42f6b6e183d3","system_id":"levelo_inurba_marseille","lat":43.24079,"lon":5.37745,"is_reserved":false,"is_disabled":false,"rental_uris":{"android":"levelo://app?vid=649893f4-d1f7-41d7-8f88-42f6b6e183d3","ios":"levelo://app?vid=649893f4-d1f7-41d7-8f88-42f6b6e183d3"},"vehicle_type_id":"4","last_reported":1747768063,"current_range_meters":9600,"station_id":"ce4bhnp2rcd13ifvqgvg","pricing_plan_id":"cebpf4jnsgd1na2vs0mg"},{"bike_id":"141017c9-db67-4742-b07d-828ca23799ff","system_id":"levelo_inurba_marseille","lat":43.23197,"lon":5.3555,"is_reserved":false,"is_disabled":false,"rental_uris":{"android":"levelo://app?vid=141017c9-db67-4742-b07d-828ca23799ff","ios":"levelo://app?vid=141017c9-db67-4742-b07d-828ca23799ff"},"vehicle_type_id":"4","last_reported":1747768063,"current_range_meters":9600,"station_id":"ce4bhu92rcd13ifvqi70","pricing_plan_id":"cebpf4jnsgd1na2vs0mg"},{"bike_id":"e8162579-a5ad-485f-ad83-fec8a2ebe7e1","system_id":"levelo_inurba_marseille","lat":43.26826,"lon":5.39099,"is_reserved":false,"is_disabled":false,"rental_uris":{"android":"levelo://app?vid=e8162579-a5ad-485f-ad83-fec8a2ebe7e1","ios":"levelo://app?vid=e8162579-a5ad-485f-ad83-fec8a2ebe7e1"},"vehicle_type_id":"4","last_reported":1747768063,"current_range_meters":10000,"station_id":"","pricing_plan_id":"cebpf4jnsgd1na2vs0mg"},{"bike_id":"8c6e391d-6de7-4d45-b5f7-5ee9efc08a5a","system_id":"levelo_inurba_marseille","lat":43.31408,"lon":5.39685,"is_reserved":false,"is_disabled":false,"rental_uris":{"android":"levelo://app?vid=8c6e391d-6de7-4d45-b5f7-5ee9efc08a5a","ios":"levelo://app?vid=8c6e391d-6de7-4d45-b5f7-5ee9efc08a5a"},"vehicle_type_id":"4","last_reported":1747768063,"current_range_meters":10000,"station_id":"","pricing_plan_id":"cebpf4jnsgd1na2vs0mg"},{"bike_id":"8515e518-e6ae-4d30-823e-a81239625260","system_id":"levelo_inurba_marseille","lat":43.296953,"lon":5.361606,"is_reserved":false,"is_disabled":false,"rental_uris":{"android":"levelo://app?vid=8515e518-e6ae-4d30-823e-a81239625260","ios":"levelo://app?vid=8515e518-e6ae-4d30-823e-a81239625260"},"vehicle_type_id":"4","last_reported":1747768063,"current_range_meters":10000,"station_id":"","pricing_plan_id":"cebpf4jnsgd1na2vs0mg"},{"bike_id":"2e339b65-c779-4b26-874b-d621d2820451","system_id":"levelo_inurba_marseille","lat":43.29624,"lon":5.40596,"is_reserved":false,"is_disabled":false,"rental_uris":{"android":"levelo://app?vid=2e339b65-c779-4b26-874b-d621d2820451","ios":"levelo://app?vid=2e339b65-c779-4b26-874b-d621d2820451"},"vehicle_type_id":"4","last_reported":1747768063,"current_range_meters":10000,"station_id":"ce4bh0h2rcd13ifvqd60","pricing_plan_id":"cebpf4jnsgd1na2vs0mg"},{"bike_id":"0a11884a-975d-413c-8e52-07cd7ff9db8f","system_id":"levelo_inurba_marseille","lat":43.28103,"lon":5.37857,"is_reserved":false,"is_disabled":false,"rental_uris":{"android":"levelo://app?vid=0a11884a-975d-413c-8e52-07cd7ff9db8f","ios":"levelo://app?vid=0a11884a-975d-413c-8e52-07cd7ff9db8f"},"vehicle_type_id":"4","last_reported":1747768063,"current_range_meters":10000,"station_id":"ce4bha12rcd13ifvqee0","pricing_plan_id":"cebpf4jnsgd1na2vs0mg"},{"bike_id":"efa3d3ee-6ab6-4771-aa3d-1ec2742cd864","system_id":"levelo_inurba_marseille","lat":43.27824,"lon":5.40707,"is_reserved":false,"is_disabled":false,"rental_uris":{"android":"levelo://app?vid=efa3d3ee-6ab6-4771-aa3d-1ec2742cd864","ios":"levelo://app?vid=efa3d3ee-6ab6-4771-aa3d-1ec2742cd864"},"vehicle_type_id":"4","last_reported":1747768063,"current_range_meters":10000,"station_id":"ce4bhnh2rcd13ifvqgtg","pricing_plan_id":"cebpf4jnsgd1na2vs0mg"},{"bike_id":"3552fbf2-b43a-446f-93f5-d695fc251b73","system_id":"levelo_inurba_marseille","lat":43.25182,"lon":5.37519,"is_reserved":false,"is_disabled":false,"rental_uris":{"android":"levelo://app?vid=3552fbf2-b43a-446f-93f5-d695fc251b73","ios":"levelo://app?vid=3552fbf2-b43a-446f-93f5-d695fc251b73"},"vehicle_type_id":"4","last_reported":1747768063,"current_range_meters":10800,"station_id":"","pricing_plan_id":"cebpf4jnsgd1na2vs0mg"},{"bike_id":"b1a1de40-c19b-4d16-9adf-905126aa00c3","system_id":"levelo_inurba_marseille","lat":43.29261,"lon":5.38447,"is_reserved":false,"is_disabled":false,"rental_uris":{"android":"levelo://app?vid=b1a1de40-c19b-4d16-9adf-905126aa00c3","ios":"levelo://app?vid=b1a1de40-c19b-4d16-9adf-905126aa00c3"},"vehicle_type_id":"4","last_reported":1747768063,"current_range_meters":10800,"station_id":"ce4bh692rcd13ifvqea0","pricing_plan_id":"cebpf4jnsgd1na2vs0mg"},{"bike_id":"203e7e53-6bd9-48af-90d4-fd7680435492","system_id":"levelo_inurba_marseille","lat":43.29267,"lon":5.38438,"is_reserved":false,"is_disabled":false,"rental_uris":{"android":"levelo://app?vid=203e7e53-6bd9-48af-90d4-fd7680435492","ios":"levelo://app?vid=203e7e53-6bd9-48af-90d4-fd7680435492"},"vehicle_type_id":"4","last_reported":1747768063,"current_range_meters":10800,"station_id":"ce4bh692rcd13ifvqea0","pricing_plan_id":"cebpf4jnsgd1na2vs0mg"},{"bike_id":"99af6b54-f624-460f-b60d-c893dd375f78","system_id":"levelo_inurba_marseille","lat":43.24669,"lon":5.38162,"is_reserved":false,"is_disabled":false,"rental_uris":{"android":"levelo://app?vid=99af6b54-f624-460f-b60d-c893dd375f78","ios":"levelo://app?vid=99af6b54-f624-460f-b60d-c893dd375f78"},"vehicle_type_id":"4","last_reported":1747768063,"current_range_meters":10800,"station_id":"ce4bhih2rcd13ifvqfr0","pricing_plan_id":"cebpf4jnsgd1na2vs0mg"},{"bike_id":"36b9dc2a-bb6f-4d82-be67-ec5bce5c62f1","system_id":"levelo_inurba_marseille","lat":43.305343,"lon":5.36551,"is_reserved":false,"is_disabled":false,"rental_uris":{"android":"levelo://app?vid=36b9dc2a-bb6f-4d82-be67-ec5bce5c62f1","ios":"levelo://app?vid=36b9dc2a-bb6f-4d82-be67-ec5bce5c62f1"},"vehicle_type_id":"4","last_reported":1747768063,"current_range_meters":11200,"station_id":"ce4bgs12rcd13ifvqcag","pricing_plan_id":"cebpf4jnsgd1na2vs0mg"},{"bike_id":"07bf3b39-c4a9-4a8f-8f9b-05e399c65a96","system_id":"levelo_inurba_marseille","lat":43.29571,"lon":5.39975,"is_reserved":false,"is_disabled":false,"rental_uris":{"android":"levelo://app?vid=07bf3b39-c4a9-4a8f-8f9b-05e399c65a96","ios":"levelo://app?vid=07bf3b39-c4a9-4a8f-8f9b-05e399c65a96"},"vehicle_type_id":"4","last_reported":1747768063,"current_range_meters":11200,"station_id":"ce4bh312rcd13ifvqdj0","pricing_plan_id":"cebpf4jnsgd1na2vs0mg"},{"bike_id":"d37c310e-2245-4712-866c-f79b97897e66","system_id":"levelo_inurba_marseille","lat":43.29284,"lon":5.40118,"is_reserved":false,"is_disabled":false,"rental_uris":{"android":"levelo://app?vid=d37c310e-2245-4712-866c-f79b97897e66","ios":"levelo://app?vid=d37c310e-2245-4712-866c-f79b97897e66"},"vehicle_type_id":"4","last_reported":1747768063,"current_range_meters":11200,"station_id":"ce4bh312rcd13ifvqdk0","pricing_plan_id":"cebpf4jnsgd1na2vs0mg"},{"bike_id":"9cbc41a4-1ea7-437c-9922-07c42a064686","system_id":"levelo_inurba_marseille","lat":43.27369,"lon":5.36254,"is_reserved":false,"is_disabled":false,"rental_uris":{"android":"levelo://app?vid=9cbc41a4-1ea7-437c-9922-07c42a064686","ios":"levelo://app?vid=9cbc41a4-1ea7-437c-9922-07c42a064686"},"vehicle_type_id":"4","last_reported":1747768063,"current_range_meters":11200,"station_id":"ce4bhbh2rcd13ifvqeo0","pricing_plan_id":"cebpf4jnsgd1na2vs0mg"},{"bike_id":"49f05bcc-fd58-450f-908f-51a1dca2ea65","system_id":"levelo_inurba_marseille","lat":43.251,"lon":5.39506,"is_reserved":false,"is_disabled":false,"rental_uris":{"android":"levelo://app?vid=49f05bcc-fd58-450f-908f-51a1dca2ea65","ios":"levelo://app?vid=49f05bcc-fd58-450f-908f-51a1dca2ea65"},"vehicle_type_id":"4","last_reported":1747768063,"current_range_meters":11200,"station_id":"ce4bhm12rcd13ifvqgkg","pricing_plan_id":"cebpf4jnsgd1na2vs0mg"},{"bike_id":"71e146ad-5169-4dc5-a288-c7c746aad618","system_id":"levelo_inurba_marseille","lat":43.23184,"lon":5.40005,"is_reserved":false,"is_disabled":false,"rental_uris":{"android":"levelo://app?vid=71e146ad-5169-4dc5-a288-c7c746aad618","ios":"levelo://app?vid=71e146ad-5169-4dc5-a288-c7c746aad618"},"vehicle_type_id":"4","last_reported":1747768063,"current_range_meters":11200,"station_id":"ce4bhn12rcd13ifvqgqg","pricing_plan_id":"cebpf4jnsgd1na2vs0mg"},{"bike_id":"3aa335f5-2337-417e-9923-07d4840feb44","system_id":"levelo_inurba_marseille","lat":43.28081,"lon":5.39664,"is_reserved":false,"is_disabled":false,"rental_uris":{"android":"levelo://app?vid=3aa335f5-2337-417e-9923-07d4840feb44","ios":"levelo://app?vid=3aa335f5-2337-417e-9923-07d4840feb44"},"vehicle_type_id":"4","last_reported":1747768063,"current_range_meters":11200,"station_id":"ce4bho12rcd13ifvqh2g","pricing_plan_id":"cebpf4jnsgd1na2vs0mg"},{"bike_id":"1ff4dd87-bf56-4ab1-8365-aad71fcb827c","system_id":"levelo_inurba_marseille","lat":43.316076,"lon":5.423906,"is_reserved":false,"is_disabled":false,"rental_uris":{"android":"levelo://app?vid=1ff4dd87-bf56-4ab1-8365-aad71fcb827c","ios":"levelo://app?vid=1ff4dd87-bf56-4ab1-8365-aad71fcb827c"},"vehicle_type_id":"4","last_reported":1747768063,"current_range_meters":11200,"station_id":"ce4bhp92rcd13ifvqhbg","pricing_plan_id":"cebpf4jnsgd1na2vs0mg"},{"bike_id":"d5219471-74d1-4215-9a66-7edafa2bc65a","system_id":"levelo_inurba_marseille","lat":43.26679,"lon":5.38274,"is_reserved":false,"is_disabled":false,"rental_uris":{"android":"levelo://app?vid=d5219471-74d1-4215-9a66-7edafa2bc65a","ios":"levelo://app?vid=d5219471-74d1-4215-9a66-7edafa2bc65a"},"vehicle_type_id":"4","last_reported":1747768063,"current_range_meters":11600,"station_id":"ce4bhg92rcd13ifvqf90","pricing_plan_id":"cebpf4jnsgd1na2vs0mg"},{"bike_id":"59b8a132-4666-485c-b6ad-3e889f0d9322","system_id":"levelo_inurba_marseille","lat":43.255064,"lon":5.376452,"is_reserved":false,"is_disabled":false,"rental_uris":{"android":"levelo://app?vid=59b8a132-4666-485c-b6ad-3e889f0d9322","ios":"levelo://app?vid=59b8a132-4666-485c-b6ad-3e889f0d9322"},"vehicle_type_id":"4","last_reported":1747768063,"current_range_meters":11600,"station_id":"ce4bhh12rcd13ifvqff0","pricing_plan_id":"cebpf4jnsgd1na2vs0mg"},{"bike_id":"6ecf4230-0f1b-4d36-8c45-c1c939cbaa65","system_id":"levelo_inurba_marseille","lat":43.25869,"lon":5.39898,"is_reserved":false,"is_disabled":false,"rental_uris":{"android":"levelo://app?vid=6ecf4230-0f1b-4d36-8c45-c1c939cbaa65","ios":"levelo://app?vid=6ecf4230-0f1b-4d36-8c45-c1c939cbaa65"},"vehicle_type_id":"4","last_reported":1747768063,"current_range_meters":11600,"station_id":"ce4bhl92rcd13ifvqghg","pricing_plan_id":"cebpf4jnsgd1na2vs0mg"},{"bike_id":"c3c11b11-8507-45b4-bd48-1e3bdd46fbbe","system_id":"levelo_inurba_marseille","lat":43.23177,"lon":5.39987,"is_reserved":false,"is_disabled":false,"rental_uris":{"android":"levelo://app?vid=c3c11b11-8507-45b4-bd48-1e3bdd46fbbe","ios":"levelo://app?vid=c3c11b11-8507-45b4-bd48-1e3bdd46fbbe"},"vehicle_type_id":"4","last_reported":1747768063,"current_range_meters":11600,"station_id":"ce4bhn12rcd13ifvqgqg","pricing_plan_id":"cebpf4jnsgd1na2vs0mg"},{"bike_id":"48f27f29-5850-4f4f-b193-450032ac8cf8","system_id":"levelo_inurba_marseille","lat":43.26808,"lon":5.40268,"is_reserved":false,"is_disabled":false,"rental_uris":{"android":"levelo://app?vid=48f27f29-5850-4f4f-b193-450032ac8cf8","ios":"levelo://app?vid=48f27f29-5850-4f4f-b193-450032ac8cf8"},"vehicle_type_id":"4","last_reported":1747768063,"current_range_meters":11600,"station_id":"ce501612rcd8frsf0b60","pricing_plan_id":"cebpf4jnsgd1na2vs0mg"},{"bike_id":"f6e773e6-97fb-470c-90ee-7abb49b9e074","system_id":"levelo_inurba_marseille","lat":43.239644,"lon":5.366294,"is_reserved":false,"is_disabled":false,"rental_uris":{"android":"levelo://app?vid=f6e773e6-97fb-470c-90ee-7abb49b9e074","ios":"levelo://app?vid=f6e773e6-97fb-470c-90ee-7abb49b9e074"},"vehicle_type_id":"4","last_reported":1747768063,"current_range_meters":12000,"station_id":"ce4bhi12rcd13ifvqfp0","pricing_plan_id":"cebpf4jnsgd1na2vs0mg"},{"bike_id":"7294c1c2-3038-4353-a4fe-d2495b0f2ad2","system_id":"levelo_inurba_marseille","lat":43.31757,"lon":5.39014,"is_reserved":false,"is_disabled":false,"rental_uris":{"android":"levelo://app?vid=7294c1c2-3038-4353-a4fe-d2495b0f2ad2","ios":"levelo://app?vid=7294c1c2-3038-4353-a4fe-d2495b0f2ad2"},"vehicle_type_id":"4","last_reported":1747768063,"current_range_meters":12000,"station_id":"ce4bhqp2rcd13ifvqhng","pricing_plan_id":"cebpf4jnsgd1na2vs0mg"},{"bike_id":"d222c036-c02a-40db-bb80-83d7b7358871","system_id":"levelo_inurba_marseille","lat":43.33726,"lon":5.39203,"is_reserved":false,"is_disabled":false,"rental_uris":{"android":"levelo://app?vid=d222c036-c02a-40db-bb80-83d7b7358871","ios":"levelo://app?vid=d222c036-c02a-40db-bb80-83d7b7358871"},"vehicle_type_id":"4","last_reported":1747768063,"current_range_meters":12000,"station_id":"ce4bhr92rcd13ifvqhsg","pricing_plan_id":"cebpf4jnsgd1na2vs0mg"},{"bike_id":"e06b4522-2e52-4951-8ff8-086d65890cec","system_id":"levelo_inurba_marseille","lat":43.2694,"lon":5.40262,"is_reserved":false,"is_disabled":false,"rental_uris":{"android":"levelo://app?vid=e06b4522-2e52-4951-8ff8-086d65890cec","ios":"levelo://app?vid=e06b4522-2e52-4951-8ff8-086d65890cec"},"vehicle_type_id":"4","last_reported":1747768063,"current_range_meters":12000,"station_id":"cjm6bp8fraef2m0cb0m0","pricing_plan_id":"cebpf4jnsgd1na2vs0mg"},{"bike_id":"5d62ec38-fdc4-4b87-bc6b-8dde8fbe9868","system_id":"levelo_inurba_marseille","lat":43.29872,"lon":5.38905,"is_reserved":false,"is_disabled":false,"rental_uris":{"android":"levelo://app?vid=5d62ec38-fdc4-4b87-bc6b-8dde8fbe9868","ios":"levelo://app?vid=5d62ec38-fdc4-4b87-bc6b-8dde8fbe9868"},"vehicle_type_id":"4","last_reported":1747768063,"current_range_meters":12400,"station_id":"ce4bh392rcd13ifvqdl0","pricing_plan_id":"cebpf4jnsgd1na2vs0mg"},{"bike_id":"53fcfeb1-0cfa-4d43-8e4f-39192622d04b","system_id":"levelo_inurba_marseille","lat":43.29523,"lon":5.39044,"is_reserved":false,"is_disabled":false,"rental_uris":{"android":"levelo://app?vid=53fcfeb1-0cfa-4d43-8e4f-39192622d04b","ios":"levelo://app?vid=53fcfeb1-0cfa-4d43-8e4f-39192622d04b"},"vehicle_type_id":"4","last_reported":1747768063,"current_range_meters":12400,"station_id":"ce4bh3p2rcd13ifvqdp0","pricing_plan_id":"cebpf4jnsgd1na2vs0mg"},{"bike_id":"ae905db4-39fd-4d1a-b283-c006d7b7939e","system_id":"levelo_inurba_marseille","lat":43.28101,"lon":5.37847,"is_reserved":false,"is_disabled":false,"rental_uris":{"android":"levelo://app?vid=ae905db4-39fd-4d1a-b283-c006d7b7939e","ios":"levelo://app?vid=ae905db4-39fd-4d1a-b283-c006d7b7939e"},"vehicle_type_id":"4","last_reported":1747768063,"current_range_meters":12400,"station_id":"ce4bha12rcd13ifvqee0","pricing_plan_id":"cebpf4jnsgd1na2vs0mg"},{"bike_id":"4884629e-1b2b-4f82-a089-fccac6edde63","system_id":"levelo_inurba_marseille","lat":43.28424,"lon":5.3498,"is_reserved":false,"is_disabled":false,"rental_uris":{"android":"levelo://app?vid=4884629e-1b2b-4f82-a089-fccac6edde63","ios":"levelo://app?vid=4884629e-1b2b-4f82-a089-fccac6edde63"},"vehicle_type_id":"4","last_reported":1747768063,"current_range_meters":12400,"station_id":"ce4bhbh2rcd13ifvqepg","pricing_plan_id":"cebpf4jnsgd1na2vs0mg"},{"bike_id":"a108c6fe-fc59-467c-8bf3-782c2c64dc0a","system_id":"levelo_inurba_marseille","lat":43.28745,"lon":5.36066,"is_reserved":false,"is_disabled":false,"rental_uris":{"android":"levelo://app?vid=a108c6fe-fc59-467c-8bf3-782c2c64dc0a","ios":"levelo://app?vid=a108c6fe-fc59-467c-8bf3-782c2c64dc0a"},"vehicle_type_id":"4","last_reported":1747768063,"current_range_meters":12400,"station_id":"cki0cbj6b192h4jlfktg","pricing_plan_id":"cebpf4jnsgd1na2vs0mg"},{"bike_id":"25b93cff-d6a4-44e2-93bf-adadd73ecfd6","system_id":"levelo_inurba_marseille","lat":43.28033,"lon":5.36955,"is_reserved":false,"is_disabled":false,"rental_uris":{"android":"levelo://app?vid=25b93cff-d6a4-44e2-93bf-adadd73ecfd6","ios":"levelo://app?vid=25b93cff-d6a4-44e2-93bf-adadd73ecfd6"},"vehicle_type_id":"4","last_reported":1747768063,"current_range_meters":12800,"station_id":"ce4bha12rcd13ifvqef0","pricing_plan_id":"cebpf4jnsgd1na2vs0mg"},{"bike_id":"99d1eda0-e5d7-4556-a75c-74bc564c99a0","system_id":"levelo_inurba_marseille","lat":43.28953,"lon":5.36614,"is_reserved":false,"is_disabled":false,"rental_uris":{"android":"levelo://app?vid=99d1eda0-e5d7-4556-a75c-74bc564c99a0","ios":"levelo://app?vid=99d1eda0-e5d7-4556-a75c-74bc564c99a0"},"vehicle_type_id":"4","last_reported":1747768063,"current_range_meters":12800,"station_id":"ce4bhap2rcd13ifvqek0","pricing_plan_id":"cebpf4jnsgd1na2vs0mg"},{"bike_id":"1dc11bc0-5f09-4847-84a0-e8a8e47157b4","system_id":"levelo_inurba_marseille","lat":43.2739,"lon":5.36254,"is_reserved":false,"is_disabled":false,"rental_uris":{"android":"levelo://app?vid=1dc11bc0-5f09-4847-84a0-e8a8e47157b4","ios":"levelo://app?vid=1dc11bc0-5f09-4847-84a0-e8a8e47157b4"},"vehicle_type_id":"4","last_reported":1747768063,"current_range_meters":12800,"station_id":"ce4bhbh2rcd13ifvqeo0","pricing_plan_id":"cebpf4jnsgd1na2vs0mg"},{"bike_id":"01066873-17cd-4089-a7ff-48e95c81a7ee","system_id":"levelo_inurba_marseille","lat":43.28951,"lon":5.36428,"is_reserved":false,"is_disabled":false,"rental_uris":{"android":"levelo://app?vid=01066873-17cd-4089-a7ff-48e95c81a7ee","ios":"levelo://app?vid=01066873-17cd-4089-a7ff-48e95c81a7ee"},"vehicle_type_id":"4","last_reported":1747768063,"current_range_meters":12800,"station_id":"ce4bhc92rcd13ifvqetg","pricing_plan_id":"cebpf4jnsgd1na2vs0mg"},{"bike_id":"6285ef7a-6576-462e-833f-18f475f0c278","system_id":"levelo_inurba_marseille","lat":43.27903,"lon":5.38,"is_reserved":false,"is_disabled":false,"rental_uris":{"android":"levelo://app?vid=6285ef7a-6576-462e-833f-18f475f0c278","ios":"levelo://app?vid=6285ef7a-6576-462e-833f-18f475f0c278"},"vehicle_type_id":"4","last_reported":1747768063,"current_range_meters":12800,"station_id":"ce4bhf92rcd13ifvqf50","pricing_plan_id":"cebpf4jnsgd1na2vs0mg"},{"bike_id":"dc80936a-51b4-4ef9-b71e-e259b58f2ac3","system_id":"levelo_inurba_marseille","lat":43.23148,"lon":5.40032,"is_reserved":false,"is_disabled":false,"rental_uris":{"android":"levelo://app?vid=dc80936a-51b4-4ef9-b71e-e259b58f2ac3","ios":"levelo://app?vid=dc80936a-51b4-4ef9-b71e-e259b58f2ac3"},"vehicle_type_id":"4","last_reported":1747768063,"current_range_meters":12800,"station_id":"ce4bhn12rcd13ifvqgqg","pricing_plan_id":"cebpf4jnsgd1na2vs0mg"},{"bike_id":"f27cd884-9620-4910-82e7-d662c2057fa9","system_id":"levelo_inurba_marseille","lat":43.29264,"lon":5.37625,"is_reserved":false,"is_disabled":false,"rental_uris":{"android":"levelo://app?vid=f27cd884-9620-4910-82e7-d662c2057fa9","ios":"levelo://app?vid=f27cd884-9620-4910-82e7-d662c2057fa9"},"vehicle_type_id":"4","last_reported":1747768063,"current_range_meters":13600,"station_id":"ce4bgi12rcd13ifvqb80","pricing_plan_id":"cebpf4jnsgd1na2vs0mg"},{"bike_id":"bd6d7942-fe35-47f9-9314-0f83fb285e3d","system_id":"levelo_inurba_marseille","lat":43.28098,"lon":5.37848,"is_reserved":false,"is_disabled":false,"rental_uris":{"android":"levelo://app?vid=bd6d7942-fe35-47f9-9314-0f83fb285e3d","ios":"levelo://app?vid=bd6d7942-fe35-47f9-9314-0f83fb285e3d"},"vehicle_type_id":"4","last_reported":1747768063,"current_range_meters":13600,"station_id":"ce4bha12rcd13ifvqee0","pricing_plan_id":"cebpf4jnsgd1na2vs0mg"},{"bike_id":"dd57433d-b801-4e1a-a607-cad8db568e0e","system_id":"levelo_inurba_marseille","lat":43.25498,"lon":5.37651,"is_reserved":false,"is_disabled":false,"rental_uris":{"android":"levelo://app?vid=dd57433d-b801-4e1a-a607-cad8db568e0e","ios":"levelo://app?vid=dd57433d-b801-4e1a-a607-cad8db568e0e"},"vehicle_type_id":"4","last_reported":1747768063,"current_range_meters":13600,"station_id":"ce4bhh12rcd13ifvqff0","pricing_plan_id":"cebpf4jnsgd1na2vs0mg"},{"bike_id":"5eb68c04-da7f-4459-b57e-7fa15a1ceae4","system_id":"levelo_inurba_marseille","lat":43.30421,"lon":5.41286,"is_reserved":false,"is_disabled":false,"rental_uris":{"android":"levelo://app?vid=5eb68c04-da7f-4459-b57e-7fa15a1ceae4","ios":"levelo://app?vid=5eb68c04-da7f-4459-b57e-7fa15a1ceae4"},"vehicle_type_id":"4","last_reported":1747768063,"current_range_meters":13600,"station_id":"ce4bhop2rcd13ifvqh8g","pricing_plan_id":"cebpf4jnsgd1na2vs0mg"},{"bike_id":"774790b0-fd82-40fb-a7e2-c958965bc348","system_id":"levelo_inurba_marseille","lat":43.26817,"lon":5.4027,"is_reserved":false,"is_disabled":false,"rental_uris":{"android":"levelo://app?vid=774790b0-fd82-40fb-a7e2-c958965bc348","ios":"levelo://app?vid=774790b0-fd82-40fb-a7e2-c958965bc348"},"vehicle_type_id":"4","last_reported":1747768063,"current_range_meters":14000,"station_id":"ce501612rcd8frsf0b60","pricing_plan_id":"cebpf4jnsgd1na2vs0mg"},{"bike_id":"52e52300-7aa6-413c-9a7c-6dd411d05b1a","system_id":"levelo_inurba_marseille","lat":43.29611,"lon":5.37721,"is_reserved":false,"is_disabled":false,"rental_uris":{"android":"levelo://app?vid=52e52300-7aa6-413c-9a7c-6dd411d05b1a","ios":"levelo://app?vid=52e52300-7aa6-413c-9a7c-6dd411d05b1a"},"vehicle_type_id":"4","last_reported":1747768063,"current_range_meters":14400,"station_id":"ce4bgi92rcd13ifvqb90","pricing_plan_id":"cebpf4jnsgd1na2vs0mg"},{"bike_id":"7adb6039-8eb1-4934-9675-fc560e467e42","system_id":"levelo_inurba_marseille","lat":43.294159,"lon":5.386259,"is_reserved":false,"is_disabled":false,"rental_uris":{"android":"levelo://app?vid=7adb6039-8eb1-4934-9675-fc560e467e42","ios":"levelo://app?vid=7adb6039-8eb1-4934-9675-fc560e467e42"},"vehicle_type_id":"4","last_reported":1747768063,"current_range_meters":14400,"station_id":"ce4bh2h2rcd13ifvqdh0","pricing_plan_id":"cebpf4jnsgd1na2vs0mg"},{"bike_id":"9816b3ca-ab07-40e1-8b25-07dfbde7208f","system_id":"levelo_inurba_marseille","lat":43.28494,"lon":5.38418,"is_reserved":false,"is_disabled":false,"rental_uris":{"android":"levelo://app?vid=9816b3ca-ab07-40e1-8b25-07dfbde7208f","ios":"levelo://app?vid=9816b3ca-ab07-40e1-8b25-07dfbde7208f"},"vehicle_type_id":"4","last_reported":1747768063,"current_range_meters":14400,"station_id":"ce4bh512rcd13ifvqe3g","pricing_plan_id":"cebpf4jnsgd1na2vs0mg"},{"bike_id":"9f837843-007d-4c85-a691-48e33f3dc0af","system_id":"levelo_inurba_marseille","lat":43.28713,"lon":5.37944,"is_reserved":false,"is_disabled":false,"rental_uris":{"android":"levelo://app?vid=9f837843-007d-4c85-a691-48e33f3dc0af","ios":"levelo://app?vid=9f837843-007d-4c85-a691-48e33f3dc0af"},"vehicle_type_id":"4","last_reported":1747768063,"current_range_meters":14400,"station_id":"ce4bh9p2rcd13ifvqec0","pricing_plan_id":"cebpf4jnsgd1na2vs0mg"},{"bike_id":"92b0a5c8-c6d6-4a72-b93e-4d778b4d4efd","system_id":"levelo_inurba_marseille","lat":43.28034,"lon":5.3694,"is_reserved":false,"is_disabled":false,"rental_uris":{"android":"levelo://app?vid=92b0a5c8-c6d6-4a72-b93e-4d778b4d4efd","ios":"levelo://app?vid=92b0a5c8-c6d6-4a72-b93e-4d778b4d4efd"},"vehicle_type_id":"4","last_reported":1747768063,"current_range_meters":14400,"station_id":"ce4bha12rcd13ifvqef0","pricing_plan_id":"cebpf4jnsgd1na2vs0mg"},{"bike_id":"fbe735da-8bdb-45cc-9169-99bdebe04bb7","system_id":"levelo_inurba_marseille","lat":43.2866,"lon":5.3635,"is_reserved":false,"is_disabled":false,"rental_uris":{"android":"levelo://app?vid=fbe735da-8bdb-45cc-9169-99bdebe04bb7","ios":"levelo://app?vid=fbe735da-8bdb-45cc-9169-99bdebe04bb7"},"vehicle_type_id":"4","last_reported":1747768063,"current_range_meters":14400,"station_id":"ce4bhah2rcd13ifvqej0","pricing_plan_id":"cebpf4jnsgd1na2vs0mg"},{"bike_id":"d14cb34f-c088-4fce-8177-7d93d185cb84","system_id":"levelo_inurba_marseille","lat":43.28089,"lon":5.39646,"is_reserved":false,"is_disabled":false,"rental_uris":{"android":"levelo://app?vid=d14cb34f-c088-4fce-8177-7d93d185cb84","ios":"levelo://app?vid=d14cb34f-c088-4fce-8177-7d93d185cb84"},"vehicle_type_id":"4","last_reported":1747768063,"current_range_meters":14400,"station_id":"ce4bho12rcd13ifvqh2g","pricing_plan_id":"cebpf4jnsgd1na2vs0mg"},{"bike_id":"edffe597-6f79-49f9-8df7-4789a9f67718","system_id":"levelo_inurba_marseille","lat":43.32113,"lon":5.3677,"is_reserved":false,"is_disabled":false,"rental_uris":{"android":"levelo://app?vid=edffe597-6f79-49f9-8df7-4789a9f67718","ios":"levelo://app?vid=edffe597-6f79-49f9-8df7-4789a9f67718"},"vehicle_type_id":"4","last_reported":1747768063,"current_range_meters":14400,"station_id":"ce4bhrh2rcd13ifvqhug","pricing_plan_id":"cebpf4jnsgd1na2vs0mg"},{"bike_id":"54753558-2c15-479a-a3c5-bb89b6798ea4","system_id":"levelo_inurba_marseille","lat":43.29528,"lon":5.38555,"is_reserved":false,"is_disabled":false,"rental_uris":{"android":"levelo://app?vid=54753558-2c15-479a-a3c5-bb89b6798ea4","ios":"levelo://app?vid=54753558-2c15-479a-a3c5-bb89b6798ea4"},"vehicle_type_id":"4","last_reported":1747768063,"current_range_meters":14800,"station_id":"ce4bgih2rcd13ifvqba0","pricing_plan_id":"cebpf4jnsgd1na2vs0mg"},{"bike_id":"8cff2d10-82be-4598-aa6a-a9ebd83ed453","system_id":"levelo_inurba_marseille","lat":43.30209,"lon":5.39472,"is_reserved":false,"is_disabled":false,"rental_uris":{"android":"levelo://app?vid=8cff2d10-82be-4598-aa6a-a9ebd83ed453","ios":"levelo://app?vid=8cff2d10-82be-4598-aa6a-a9ebd83ed453"},"vehicle_type_id":"4","last_reported":1747768063,"current_range_meters":14800,"station_id":"ce4bh0p2rcd13ifvqd70","pricing_plan_id":"cebpf4jnsgd1na2vs0mg"},{"bike_id":"3e980595-d230-43fb-94d6-acd4c645345c","system_id":"levelo_inurba_marseille","lat":43.28274,"lon":5.3507,"is_reserved":false,"is_disabled":false,"rental_uris":{"android":"levelo://app?vid=3e980595-d230-43fb-94d6-acd4c645345c","ios":"levelo://app?vid=3e980595-d230-43fb-94d6-acd4c645345c"},"vehicle_type_id":"4","last_reported":1747768063,"current_range_meters":14800,"station_id":"ce4bhbp2rcd13ifvqerg","pricing_plan_id":"cebpf4jnsgd1na2vs0mg"},{"bike_id":"d22b0fd0-78a6-46fc-aad8-ce2ca2a629e3","system_id":"levelo_inurba_marseille","lat":43.21194,"lon":5.35073,"is_reserved":false,"is_disabled":false,"rental_uris":{"android":"levelo://app?vid=d22b0fd0-78a6-46fc-aad8-ce2ca2a629e3","ios":"levelo://app?vid=d22b0fd0-78a6-46fc-aad8-ce2ca2a629e3"},"vehicle_type_id":"4","last_reported":1747768063,"current_range_meters":14800,"station_id":"st_cvj6sg6p6f1abm77japg","pricing_plan_id":"cebpf4jnsgd1na2vs0mg"},{"bike_id":"2d56554d-56ce-439c-95c2-561936341417","system_id":"levelo_inurba_marseille","lat":43.3031,"lon":5.36898,"is_reserved":false,"is_disabled":false,"rental_uris":{"android":"levelo://app?vid=2d56554d-56ce-439c-95c2-561936341417","ios":"levelo://app?vid=2d56554d-56ce-439c-95c2-561936341417"},"vehicle_type_id":"4","last_reported":1747768063,"current_range_meters":15200,"station_id":"ce4bgqh2rcd13ifvqc5g","pricing_plan_id":"cebpf4jnsgd1na2vs0mg"},{"bike_id":"a7cf1c79-97e7-4070-84fc-785ed7a79f77","system_id":"levelo_inurba_marseille","lat":43.27579,"lon":5.38422,"is_reserved":false,"is_disabled":false,"rental_uris":{"android":"levelo://app?vid=a7cf1c79-97e7-4070-84fc-785ed7a79f77","ios":"levelo://app?vid=a7cf1c79-97e7-4070-84fc-785ed7a79f77"},"vehicle_type_id":"4","last_reported":1747768063,"current_range_meters":15200,"station_id":"ce4bhh92rcd13ifvqfi0","pricing_plan_id":"cebpf4jnsgd1na2vs0mg"},{"bike_id":"56cf80a0-6e20-4517-b7ab-ff4ac3730a84","system_id":"levelo_inurba_marseille","lat":43.231885,"lon":5.399882,"is_reserved":false,"is_disabled":false,"rental_uris":{"android":"levelo://app?vid=56cf80a0-6e20-4517-b7ab-ff4ac3730a84","ios":"levelo://app?vid=56cf80a0-6e20-4517-b7ab-ff4ac3730a84"},"vehicle_type_id":"4","last_reported":1747768063,"current_range_meters":15200,"station_id":"ce4bhn12rcd13ifvqgqg","pricing_plan_id":"cebpf4jnsgd1na2vs0mg"},{"bike_id":"ee222a69-22c8-443a-9094-3b7c8c2d365a","system_id":"levelo_inurba_marseille","lat":43.280815,"lon":5.396615,"is_reserved":false,"is_disabled":false,"rental_uris":{"android":"levelo://app?vid=ee222a69-22c8-443a-9094-3b7c8c2d365a","ios":"levelo://app?vid=ee222a69-22c8-443a-9094-3b7c8c2d365a"},"vehicle_type_id":"4","last_reported":1747768063,"current_range_meters":15200,"station_id":"ce4bho12rcd13ifvqh2g","pricing_plan_id":"cebpf4jnsgd1na2vs0mg"},{"bike_id":"5765434c-77b5-41b5-8b14-b978e4d6dd10","system_id":"levelo_inurba_marseille","lat":43.21189,"lon":5.35079,"is_reserved":false,"is_disabled":false,"rental_uris":{"android":"levelo://app?vid=5765434c-77b5-41b5-8b14-b978e4d6dd10","ios":"levelo://app?vid=5765434c-77b5-41b5-8b14-b978e4d6dd10"},"vehicle_type_id":"4","last_reported":1747768063,"current_range_meters":15200,"station_id":"st_cvj6sg6p6f1abm77japg","pricing_plan_id":"cebpf4jnsgd1na2vs0mg"},{"bike_id":"9587e73c-5675-4d6d-9600-9719dde26287","system_id":"levelo_inurba_marseille","lat":43.300345,"lon":5.384107,"is_reserved":false,"is_disabled":false,"rental_uris":{"android":"levelo://app?vid=9587e73c-5675-4d6d-9600-9719dde26287","ios":"levelo://app?vid=9587e73c-5675-4d6d-9600-9719dde26287"},"vehicle_type_id":"4","last_reported":1747768063,"current_range_meters":16000,"station_id":"ce4bgj92rcd13ifvqbd0","pricing_plan_id":"cebpf4jnsgd1na2vs0mg"},{"bike_id":"d3794132-a70f-416f-8f79-15d73a23ca4b","system_id":"levelo_inurba_marseille","lat":43.24645,"lon":5.38891,"is_reserved":false,"is_disabled":false,"rental_uris":{"android":"levelo://app?vid=d3794132-a70f-416f-8f79-15d73a23ca4b","ios":"levelo://app?vid=d3794132-a70f-416f-8f79-15d73a23ca4b"},"vehicle_type_id":"4","last_reported":1747768063,"current_range_meters":16000,"station_id":"ce4bhg12rcd13ifvqf60","pricing_plan_id":"cebpf4jnsgd1na2vs0mg"},{"bike_id":"e1fd3e3c-c5b7-4f67-b0c2-e90e5dcdcf4e","system_id":"levelo_inurba_marseille","lat":43.26491,"lon":5.3955,"is_reserved":false,"is_disabled":false,"rental_uris":{"android":"levelo://app?vid=e1fd3e3c-c5b7-4f67-b0c2-e90e5dcdcf4e","ios":"levelo://app?vid=e1fd3e3c-c5b7-4f67-b0c2-e90e5dcdcf4e"},"vehicle_type_id":"4","last_reported":1747768063,"current_range_meters":16000,"station_id":"ce4bhi12rcd13ifvqfq0","pricing_plan_id":"cebpf4jnsgd1na2vs0mg"},{"bike_id":"a253706b-1cb9-4ca4-9560-173eeb92ac1f","system_id":"levelo_inurba_marseille","lat":43.308079,"lon":5.435245,"is_reserved":false,"is_disabled":false,"rental_uris":{"android":"levelo://app?vid=a253706b-1cb9-4ca4-9560-173eeb92ac1f","ios":"levelo://app?vid=a253706b-1cb9-4ca4-9560-173eeb92ac1f"},"vehicle_type_id":"4","last_reported":1747768063,"current_range_meters":16000,"station_id":"ce4bhph2rcd13ifvqheg","pricing_plan_id":"cebpf4jnsgd1na2vs0mg"},{"bike_id":"1a340bac-8012-4c7c-b50a-247d19f083a9","system_id":"levelo_inurba_marseille","lat":43.21211,"lon":5.35072,"is_reserved":false,"is_disabled":false,"rental_uris":{"android":"levelo://app?vid=1a340bac-8012-4c7c-b50a-247d19f083a9","ios":"levelo://app?vid=1a340bac-8012-4c7c-b50a-247d19f083a9"},"vehicle_type_id":"4","last_reported":1747768063,"current_range_meters":16000,"station_id":"st_cvj6sg6p6f1abm77japg","pricing_plan_id":"cebpf4jnsgd1na2vs0mg"},{"bike_id":"41a63ad7-5271-4c92-a07b-12a7b1d342de","system_id":"levelo_inurba_marseille","lat":43.21231,"lon":5.35076,"is_reserved":false,"is_disabled":false,"rental_uris":{"android":"levelo://app?vid=41a63ad7-5271-4c92-a07b-12a7b1d342de","ios":"levelo://app?vid=41a63ad7-5271-4c92-a07b-12a7b1d342de"},"vehicle_type_id":"4","last_reported":1747768063,"current_range_meters":16400,"station_id":"","pricing_plan_id":"cebpf4jnsgd1na2vs0mg"},{"bike_id":"88c9a8b0-8d6d-4509-b43b-62e619dcb6cf","system_id":"levelo_inurba_marseille","lat":43.31073,"lon":5.38355,"is_reserved":false,"is_disabled":false,"rental_uris":{"android":"levelo://app?vid=88c9a8b0-8d6d-4509-b43b-62e619dcb6cf","ios":"levelo://app?vid=88c9a8b0-8d6d-4509-b43b-62e619dcb6cf"},"vehicle_type_id":"4","last_reported":1747768063,"current_range_meters":16400,"station_id":"ce4bgv92rcd13ifvqcr0","pricing_plan_id":"cebpf4jnsgd1na2vs0mg"},{"bike_id":"32ae8eee-ba9c-4f5c-beeb-743aa88b677a","system_id":"levelo_inurba_marseille","lat":43.30213,"lon":5.3947,"is_reserved":false,"is_disabled":false,"rental_uris":{"android":"levelo://app?vid=32ae8eee-ba9c-4f5c-beeb-743aa88b677a","ios":"levelo://app?vid=32ae8eee-ba9c-4f5c-beeb-743aa88b677a"},"vehicle_type_id":"4","last_reported":1747768063,"current_range_meters":16400,"station_id":"ce4bh0p2rcd13ifvqd70","pricing_plan_id":"cebpf4jnsgd1na2vs0mg"},{"bike_id":"a420846c-1cf0-48f0-bdd5-c86b47a6bc90","system_id":"levelo_inurba_marseille","lat":43.24171,"lon":5.36392,"is_reserved":false,"is_disabled":false,"rental_uris":{"android":"levelo://app?vid=a420846c-1cf0-48f0-bdd5-c86b47a6bc90","ios":"levelo://app?vid=a420846c-1cf0-48f0-bdd5-c86b47a6bc90"},"vehicle_type_id":"4","last_reported":1747768063,"current_range_meters":16400,"station_id":"cpo36qri1sfpv3e86is0","pricing_plan_id":"cebpf4jnsgd1na2vs0mg"},{"bike_id":"4c089b95-2d11-4e2f-9116-90d4de4101ea","system_id":"levelo_inurba_marseille","lat":43.29997,"lon":5.37333,"is_reserved":false,"is_disabled":false,"rental_uris":{"android":"levelo://app?vid=4c089b95-2d11-4e2f-9116-90d4de4101ea","ios":"levelo://app?vid=4c089b95-2d11-4e2f-9116-90d4de4101ea"},"vehicle_type_id":"4","last_reported":1747768063,"current_range_meters":16800,"station_id":"","pricing_plan_id":"cebpf4jnsgd1na2vs0mg"},{"bike_id":"ee23c448-6bb6-4f66-877e-3490139bd53f","system_id":"levelo_inurba_marseille","lat":43.28569,"lon":5.39499,"is_reserved":false,"is_disabled":false,"rental_uris":{"android":"levelo://app?vid=ee23c448-6bb6-4f66-877e-3490139bd53f","ios":"levelo://app?vid=ee23c448-6bb6-4f66-877e-3490139bd53f"},"vehicle_type_id":"4","last_reported":1747768063,"current_range_meters":16800,"station_id":"ce4bh292rcd13ifvqdg0","pricing_plan_id":"cebpf4jnsgd1na2vs0mg"},{"bike_id":"f77a6f3c-0b9c-4c42-bd55-bf7bc2d3d671","system_id":"levelo_inurba_marseille","lat":43.28939,"lon":5.36635,"is_reserved":false,"is_disabled":false,"rental_uris":{"android":"levelo://app?vid=f77a6f3c-0b9c-4c42-bd55-bf7bc2d3d671","ios":"levelo://app?vid=f77a6f3c-0b9c-4c42-bd55-bf7bc2d3d671"},"vehicle_type_id":"4","last_reported":1747768063,"current_range_meters":16800,"station_id":"ce4bhap2rcd13ifvqek0","pricing_plan_id":"cebpf4jnsgd1na2vs0mg"},{"bike_id":"b2098f36-3a4b-4364-a6b7-9bce689a500e","system_id":"levelo_inurba_marseille","lat":43.27815,"lon":5.40707,"is_reserved":false,"is_disabled":false,"rental_uris":{"android":"levelo://app?vid=b2098f36-3a4b-4364-a6b7-9bce689a500e","ios":"levelo://app?vid=b2098f36-3a4b-4364-a6b7-9bce689a500e"},"vehicle_type_id":"4","last_reported":1747768063,"current_range_meters":16800,"station_id":"ce4bhnh2rcd13ifvqgtg","pricing_plan_id":"cebpf4jnsgd1na2vs0mg"},{"bike_id":"24dc12dd-e0a1-4ccc-b473-486d35ddca69","system_id":"levelo_inurba_marseille","lat":43.317245,"lon":5.436955,"is_reserved":false,"is_disabled":false,"rental_uris":{"android":"levelo://app?vid=24dc12dd-e0a1-4ccc-b473-486d35ddca69","ios":"levelo://app?vid=24dc12dd-e0a1-4ccc-b473-486d35ddca69"},"vehicle_type_id":"4","last_reported":1747768063,"current_range_meters":16800,"station_id":"ce4bhp92rcd13ifvqhcg","pricing_plan_id":"cebpf4jnsgd1na2vs0mg"},{"bike_id":"20341d8a-5a7b-49d2-9f9d-dafcc3b6b254","system_id":"levelo_inurba_marseille","lat":43.317595,"lon":5.390208,"is_reserved":false,"is_disabled":false,"rental_uris":{"android":"levelo://app?vid=20341d8a-5a7b-49d2-9f9d-dafcc3b6b254","ios":"levelo://app?vid=20341d8a-5a7b-49d2-9f9d-dafcc3b6b254"},"vehicle_type_id":"4","last_reported":1747768063,"current_range_meters":16800,"station_id":"ce4bhqp2rcd13ifvqhng","pricing_plan_id":"cebpf4jnsgd1na2vs0mg"},{"bike_id":"bc205f9d-8454-4fa8-824f-4cae8bf9de90","system_id":"levelo_inurba_marseille","lat":43.280977,"lon":5.3784,"is_reserved":false,"is_disabled":false,"rental_uris":{"android":"levelo://app?vid=bc205f9d-8454-4fa8-824f-4cae8bf9de90","ios":"levelo://app?vid=bc205f9d-8454-4fa8-824f-4cae8bf9de90"},"vehicle_type_id":"4","last_reported":1747768063,"current_range_meters":17200,"station_id":"ce4bha12rcd13ifvqee0","pricing_plan_id":"cebpf4jnsgd1na2vs0mg"},{"bike_id":"ad08ec72-8861-409c-91e6-85a01995dd8f","system_id":"levelo_inurba_marseille","lat":43.28665,"lon":5.36353,"is_reserved":false,"is_disabled":false,"rental_uris":{"android":"levelo://app?vid=ad08ec72-8861-409c-91e6-85a01995dd8f","ios":"levelo://app?vid=ad08ec72-8861-409c-91e6-85a01995dd8f"},"vehicle_type_id":"4","last_reported":1747768063,"current_range_meters":17200,"station_id":"ce4bhah2rcd13ifvqej0","pricing_plan_id":"cebpf4jnsgd1na2vs0mg"},{"bike_id":"d3787df1-b187-4674-a172-34b227ec7bf2","system_id":"levelo_inurba_marseille","lat":43.260628,"lon":5.393974,"is_reserved":false,"is_disabled":false,"rental_uris":{"android":"levelo://app?vid=d3787df1-b187-4674-a172-34b227ec7bf2","ios":"levelo://app?vid=d3787df1-b187-4674-a172-34b227ec7bf2"},"vehicle_type_id":"4","last_reported":1747768063,"current_range_meters":17200,"station_id":"ce4bhh92rcd13ifvqfj0","pricing_plan_id":"cebpf4jnsgd1na2vs0mg"},{"bike_id":"d2243da5-46a4-4675-a166-c5959f727fa3","system_id":"levelo_inurba_marseille","lat":43.279464,"lon":5.410429,"is_reserved":false,"is_disabled":false,"rental_uris":{"android":"levelo://app?vid=d2243da5-46a4-4675-a166-c5959f727fa3","ios":"levelo://app?vid=d2243da5-46a4-4675-a166-c5959f727fa3"},"vehicle_type_id":"4","last_reported":1747768063,"current_range_meters":17200,"station_id":"ce4bhnp2rcd13ifvqh0g","pricing_plan_id":"cebpf4jnsgd1na2vs0mg"},{"bike_id":"0e6bb125-ff93-4853-97e0-da4a593482f4","system_id":"levelo_inurba_marseille","lat":43.28074,"lon":5.39622,"is_reserved":false,"is_disabled":false,"rental_uris":{"android":"levelo://app?vid=0e6bb125-ff93-4853-97e0-da4a593482f4","ios":"levelo://app?vid=0e6bb125-ff93-4853-97e0-da4a593482f4"},"vehicle_type_id":"4","last_reported":1747768063,"current_range_meters":17200,"station_id":"ce4bho12rcd13ifvqh2g","pricing_plan_id":"cebpf4jnsgd1na2vs0mg"},{"bike_id":"7b64057b-640d-4d3e-937d-f96f196e6a4e","system_id":"levelo_inurba_marseille","lat":43.28003,"lon":5.4001,"is_reserved":false,"is_disabled":false,"rental_uris":{"android":"levelo://app?vid=7b64057b-640d-4d3e-937d-f96f196e6a4e","ios":"levelo://app?vid=7b64057b-640d-4d3e-937d-f96f196e6a4e"},"vehicle_type_id":"4","last_reported":1747768063,"current_range_meters":17200,"station_id":"ce4bho92rcd13ifvqh4g","pricing_plan_id":"cebpf4jnsgd1na2vs0mg"},{"bike_id":"ba960376-72b6-497b-b5b8-ac851fc938c4","system_id":"levelo_inurba_marseille","lat":43.30359,"lon":5.41879,"is_reserved":false,"is_disabled":false,"rental_uris":{"android":"levelo://app?vid=ba960376-72b6-497b-b5b8-ac851fc938c4","ios":"levelo://app?vid=ba960376-72b6-497b-b5b8-ac851fc938c4"},"vehicle_type_id":"4","last_reported":1747768063,"current_range_meters":17200,"station_id":"ce4bhop2rcd13ifvqh7g","pricing_plan_id":"cebpf4jnsgd1na2vs0mg"},{"bike_id":"e31833c9-3629-4b2f-810c-c09df0eb266c","system_id":"levelo_inurba_marseille","lat":43.33751,"lon":5.37509,"is_reserved":false,"is_disabled":false,"rental_uris":{"android":"levelo://app?vid=e31833c9-3629-4b2f-810c-c09df0eb266c","ios":"levelo://app?vid=e31833c9-3629-4b2f-810c-c09df0eb266c"},"vehicle_type_id":"4","last_reported":1747768063,"current_range_meters":17600,"station_id":"","pricing_plan_id":"cebpf4jnsgd1na2vs0mg"},{"bike_id":"9ca87aa6-027d-4e28-bd9d-073189ce94c1","system_id":"levelo_inurba_marseille","lat":43.29118,"lon":5.380825,"is_reserved":false,"is_disabled":false,"rental_uris":{"android":"levelo://app?vid=9ca87aa6-027d-4e28-bd9d-073189ce94c1","ios":"levelo://app?vid=9ca87aa6-027d-4e28-bd9d-073189ce94c1"},"vehicle_type_id":"4","last_reported":1747768063,"current_range_meters":17600,"station_id":"ce4bh512rcd13ifvqe2g","pricing_plan_id":"cebpf4jnsgd1na2vs0mg"},{"bike_id":"9e2045d4-9c9c-4b3c-b34e-6cbaeeb6143a","system_id":"levelo_inurba_marseille","lat":43.29207,"lon":5.36088,"is_reserved":false,"is_disabled":false,"rental_uris":{"android":"levelo://app?vid=9e2045d4-9c9c-4b3c-b34e-6cbaeeb6143a","ios":"levelo://app?vid=9e2045d4-9c9c-4b3c-b34e-6cbaeeb6143a"},"vehicle_type_id":"4","last_reported":1747768063,"current_range_meters":17600,"station_id":"ce4bhbh2rcd13ifvqeqg","pricing_plan_id":"cebpf4jnsgd1na2vs0mg"},{"bike_id":"4e38f7d2-3a2f-4430-97f0-7b564ed6c4b9","system_id":"levelo_inurba_marseille","lat":43.21205,"lon":5.35071,"is_reserved":false,"is_disabled":false,"rental_uris":{"android":"levelo://app?vid=4e38f7d2-3a2f-4430-97f0-7b564ed6c4b9","ios":"levelo://app?vid=4e38f7d2-3a2f-4430-97f0-7b564ed6c4b9"},"vehicle_type_id":"4","last_reported":1747768063,"current_range_meters":17600,"station_id":"st_cvj6sg6p6f1abm77japg","pricing_plan_id":"cebpf4jnsgd1na2vs0mg"},{"bike_id":"509a7bc5-3ed4-44a0-83b3-6bbf477b3a61","system_id":"levelo_inurba_marseille","lat":43.21195,"lon":5.35053,"is_reserved":false,"is_disabled":false,"rental_uris":{"android":"levelo://app?vid=509a7bc5-3ed4-44a0-83b3-6bbf477b3a61","ios":"levelo://app?vid=509a7bc5-3ed4-44a0-83b3-6bbf477b3a61"},"vehicle_type_id":"4","last_reported":1747768063,"current_range_meters":17600,"station_id":"st_cvj6sg6p6f1abm77japg","pricing_plan_id":"cebpf4jnsgd1na2vs0mg"},{"bike_id":"1b96d389-a6ec-47fe-8643-d76889bc378e","system_id":"levelo_inurba_marseille","lat":43.31179,"lon":5.41617,"is_reserved":false,"is_disabled":false,"rental_uris":{"android":"levelo://app?vid=1b96d389-a6ec-47fe-8643-d76889bc378e","ios":"levelo://app?vid=1b96d389-a6ec-47fe-8643-d76889bc378e"},"vehicle_type_id":"4","last_reported":1747768063,"current_range_meters":18000,"station_id":"","pricing_plan_id":"cebpf4jnsgd1na2vs0mg"},{"bike_id":"35bd9a79-44f6-4106-a2a9-3365befa25fa","system_id":"levelo_inurba_marseille","lat":43.28682,"lon":5.38663,"is_reserved":false,"is_disabled":false,"rental_uris":{"android":"levelo://app?vid=35bd9a79-44f6-4106-a2a9-3365befa25fa","ios":"levelo://app?vid=35bd9a79-44f6-4106-a2a9-3365befa25fa"},"vehicle_type_id":"4","last_reported":1747768063,"current_range_meters":18000,"station_id":"ce4bh492rcd13ifvqdug","pricing_plan_id":"cebpf4jnsgd1na2vs0mg"},{"bike_id":"725f8eef-a6a9-4364-be25-9a17cbf1ef7a","system_id":"levelo_inurba_marseille","lat":43.29041,"lon":5.37156,"is_reserved":false,"is_disabled":false,"rental_uris":{"android":"levelo://app?vid=725f8eef-a6a9-4364-be25-9a17cbf1ef7a","ios":"levelo://app?vid=725f8eef-a6a9-4364-be25-9a17cbf1ef7a"},"vehicle_type_id":"4","last_reported":1747768063,"current_range_meters":18000,"station_id":"ce4bh5p2rcd13ifvqe4g","pricing_plan_id":"cebpf4jnsgd1na2vs0mg"},{"bike_id":"05ee309d-ea32-460a-abec-d7dc6500781d","system_id":"levelo_inurba_marseille","lat":43.2894,"lon":5.36643,"is_reserved":false,"is_disabled":false,"rental_uris":{"android":"levelo://app?vid=05ee309d-ea32-460a-abec-d7dc6500781d","ios":"levelo://app?vid=05ee309d-ea32-460a-abec-d7dc6500781d"},"vehicle_type_id":"4","last_reported":1747768063,"current_range_meters":18000,"station_id":"ce4bhap2rcd13ifvqek0","pricing_plan_id":"cebpf4jnsgd1na2vs0mg"},{"bike_id":"cf30ad57-e6b5-4bca-a62d-26c118f3fc22","system_id":"levelo_inurba_marseille","lat":43.29026,"lon":5.35604,"is_reserved":false,"is_disabled":false,"rental_uris":{"android":"levelo://app?vid=cf30ad57-e6b5-4bca-a62d-26c118f3fc22","ios":"levelo://app?vid=cf30ad57-e6b5-4bca-a62d-26c118f3fc22"},"vehicle_type_id":"4","last_reported":1747768063,"current_range_meters":18000,"station_id":"ce4bhb92rcd13ifvqen0","pricing_plan_id":"cebpf4jnsgd1na2vs0mg"},{"bike_id":"a1bdd2ee-d664-40ab-9b2e-1f52e422d85d","system_id":"levelo_inurba_marseille","lat":43.26952,"lon":5.38634,"is_reserved":false,"is_disabled":false,"rental_uris":{"android":"levelo://app?vid=a1bdd2ee-d664-40ab-9b2e-1f52e422d85d","ios":"levelo://app?vid=a1bdd2ee-d664-40ab-9b2e-1f52e422d85d"},"vehicle_type_id":"4","last_reported":1747768063,"current_range_meters":18000,"station_id":"ce4bhh92rcd13ifvqfh0","pricing_plan_id":"cebpf4jnsgd1na2vs0mg"},{"bike_id":"c4f0ddbf-912f-4dc6-81b8-da7688e7978e","system_id":"levelo_inurba_marseille","lat":43.30798,"lon":5.43529,"is_reserved":false,"is_disabled":false,"rental_uris":{"android":"levelo://app?vid=c4f0ddbf-912f-4dc6-81b8-da7688e7978e","ios":"levelo://app?vid=c4f0ddbf-912f-4dc6-81b8-da7688e7978e"},"vehicle_type_id":"4","last_reported":1747768063,"current_range_meters":18000,"station_id":"ce4bhph2rcd13ifvqheg","pricing_plan_id":"cebpf4jnsgd1na2vs0mg"},{"bike_id":"a7dd5f98-1109-4c9c-b9c4-482f6fc45105","system_id":"levelo_inurba_marseille","lat":43.31766,"lon":5.39017,"is_reserved":false,"is_disabled":false,"rental_uris":{"android":"levelo://app?vid=a7dd5f98-1109-4c9c-b9c4-482f6fc45105","ios":"levelo://app?vid=a7dd5f98-1109-4c9c-b9c4-482f6fc45105"},"vehicle_type_id":"4","last_reported":1747768063,"current_range_meters":18000,"station_id":"ce4bhqp2rcd13ifvqhng","pricing_plan_id":"cebpf4jnsgd1na2vs0mg"},{"bike_id":"a0b1bfab-f23f-45ef-9cca-abc7dadd7472","system_id":"levelo_inurba_marseille","lat":43.23193,"lon":5.35557,"is_reserved":false,"is_disabled":false,"rental_uris":{"android":"levelo://app?vid=a0b1bfab-f23f-45ef-9cca-abc7dadd7472","ios":"levelo://app?vid=a0b1bfab-f23f-45ef-9cca-abc7dadd7472"},"vehicle_type_id":"4","last_reported":1747768063,"current_range_meters":18000,"station_id":"ce4bhu92rcd13ifvqi70","pricing_plan_id":"cebpf4jnsgd1na2vs0mg"},{"bike_id":"628c52ae-b897-4dca-953c-8475bb2941d3","system_id":"levelo_inurba_marseille","lat":43.21183,"lon":5.35031,"is_reserved":false,"is_disabled":false,"rental_uris":{"android":"levelo://app?vid=628c52ae-b897-4dca-953c-8475bb2941d3","ios":"levelo://app?vid=628c52ae-b897-4dca-953c-8475bb2941d3"},"vehicle_type_id":"4","last_reported":1747768063,"current_range_meters":18000,"station_id":"st_cvj6sg6p6f1abm77japg","pricing_plan_id":"cebpf4jnsgd1na2vs0mg"},{"bike_id":"511fe0c5-c8fb-4f63-8a00-d8b23c695b71","system_id":"levelo_inurba_marseille","lat":43.3245,"lon":5.42843,"is_reserved":false,"is_disabled":false,"rental_uris":{"android":"levelo://app?vid=511fe0c5-c8fb-4f63-8a00-d8b23c695b71","ios":"levelo://app?vid=511fe0c5-c8fb-4f63-8a00-d8b23c695b71"},"vehicle_type_id":"4","last_reported":1747768063,"current_range_meters":18800,"station_id":"","pricing_plan_id":"cebpf4jnsgd1na2vs0mg"},{"bike_id":"a7c572da-26bf-4caa-9b61-74d56b18bd73","system_id":"levelo_inurba_marseille","lat":43.293,"lon":5.37458,"is_reserved":false,"is_disabled":false,"rental_uris":{"android":"levelo://app?vid=a7c572da-26bf-4caa-9b61-74d56b18bd73","ios":"levelo://app?vid=a7c572da-26bf-4caa-9b61-74d56b18bd73"},"vehicle_type_id":"4","last_reported":1747768063,"current_range_meters":18800,"station_id":"ce4bgi12rcd13ifvqb70","pricing_plan_id":"cebpf4jnsgd1na2vs0mg"},{"bike_id":"8bb7d43c-e583-40c0-9a6a-a2f0c4f03243","system_id":"levelo_inurba_marseille","lat":43.292641,"lon":5.409189,"is_reserved":false,"is_disabled":false,"rental_uris":{"android":"levelo://app?vid=8bb7d43c-e583-40c0-9a6a-a2f0c4f03243","ios":"levelo://app?vid=8bb7d43c-e583-40c0-9a6a-a2f0c4f03243"},"vehicle_type_id":"4","last_reported":1747768063,"current_range_meters":18800,"station_id":"ce4bh192rcd13ifvqdc0","pricing_plan_id":"cebpf4jnsgd1na2vs0mg"},{"bike_id":"c27ed0e2-63f8-4d83-a014-3d9f9e4f194d","system_id":"levelo_inurba_marseille","lat":43.23965,"lon":5.3663,"is_reserved":false,"is_disabled":false,"rental_uris":{"android":"levelo://app?vid=c27ed0e2-63f8-4d83-a014-3d9f9e4f194d","ios":"levelo://app?vid=c27ed0e2-63f8-4d83-a014-3d9f9e4f194d"},"vehicle_type_id":"4","last_reported":1747768063,"current_range_meters":18800,"station_id":"ce4bhi12rcd13ifvqfp0","pricing_plan_id":"cebpf4jnsgd1na2vs0mg"},{"bike_id":"cd5f78a7-3c1c-4363-b5cc-051787bae2ed","system_id":"levelo_inurba_marseille","lat":43.25827,"lon":5.39415,"is_reserved":false,"is_disabled":false,"rental_uris":{"android":"levelo://app?vid=cd5f78a7-3c1c-4363-b5cc-051787bae2ed","ios":"levelo://app?vid=cd5f78a7-3c1c-4363-b5cc-051787bae2ed"},"vehicle_type_id":"4","last_reported":1747768063,"current_range_meters":18800,"station_id":"ce4bhip2rcd13ifvqft0","pricing_plan_id":"cebpf4jnsgd1na2vs0mg"},{"bike_id":"ac54cb9d-c717-4084-9363-e0498a0029df","system_id":"levelo_inurba_marseille","lat":43.27941,"lon":5.41041,"is_reserved":false,"is_disabled":false,"rental_uris":{"android":"levelo://app?vid=ac54cb9d-c717-4084-9363-e0498a0029df","ios":"levelo://app?vid=ac54cb9d-c717-4084-9363-e0498a0029df"},"vehicle_type_id":"4","last_reported":1747768063,"current_range_meters":18800,"station_id":"ce4bhnp2rcd13ifvqh0g","pricing_plan_id":"cebpf4jnsgd1na2vs0mg"},{"bike_id":"c9a00e74-029a-454e-8e85-1b3d994b9d78","system_id":"levelo_inurba_marseille","lat":43.211915,"lon":5.350786,"is_reserved":false,"is_disabled":false,"rental_uris":{"android":"levelo://app?vid=c9a00e74-029a-454e-8e85-1b3d994b9d78","ios":"levelo://app?vid=c9a00e74-029a-454e-8e85-1b3d994b9d78"},"vehicle_type_id":"4","last_reported":1747768063,"current_range_meters":18800,"station_id":"st_cvj6sg6p6f1abm77japg","pricing_plan_id":"cebpf4jnsgd1na2vs0mg"},{"bike_id":"0748cfeb-b384-4768-bcbf-7dc1c57e318a","system_id":"levelo_inurba_marseille","lat":43.29255,"lon":5.38463,"is_reserved":false,"is_disabled":false,"rental_uris":{"android":"levelo://app?vid=0748cfeb-b384-4768-bcbf-7dc1c57e318a","ios":"levelo://app?vid=0748cfeb-b384-4768-bcbf-7dc1c57e318a"},"vehicle_type_id":"4","last_reported":1747768063,"current_range_meters":19200,"station_id":"ce4bh692rcd13ifvqea0","pricing_plan_id":"cebpf4jnsgd1na2vs0mg"},{"bike_id":"35397ef9-be2d-48f5-9cd2-03a5ab67ee10","system_id":"levelo_inurba_marseille","lat":43.26952,"lon":5.38643,"is_reserved":false,"is_disabled":false,"rental_uris":{"android":"levelo://app?vid=35397ef9-be2d-48f5-9cd2-03a5ab67ee10","ios":"levelo://app?vid=35397ef9-be2d-48f5-9cd2-03a5ab67ee10"},"vehicle_type_id":"4","last_reported":1747768063,"current_range_meters":19200,"station_id":"ce4bhh92rcd13ifvqfh0","pricing_plan_id":"cebpf4jnsgd1na2vs0mg"},{"bike_id":"2a954923-ace9-4790-81a0-254d59f9ea2b","system_id":"levelo_inurba_marseille","lat":43.2999,"lon":5.41296,"is_reserved":false,"is_disabled":false,"rental_uris":{"android":"levelo://app?vid=2a954923-ace9-4790-81a0-254d59f9ea2b","ios":"levelo://app?vid=2a954923-ace9-4790-81a0-254d59f9ea2b"},"vehicle_type_id":"4","last_reported":1747768063,"current_range_meters":19200,"station_id":"ce4bhp12rcd13ifvqh9g","pricing_plan_id":"cebpf4jnsgd1na2vs0mg"},{"bike_id":"c9332228-05cb-4726-839c-afbf0dc20163","system_id":"levelo_inurba_marseille","lat":43.32283,"lon":5.38273,"is_reserved":false,"is_disabled":false,"rental_uris":{"android":"levelo://app?vid=c9332228-05cb-4726-839c-afbf0dc20163","ios":"levelo://app?vid=c9332228-05cb-4726-839c-afbf0dc20163"},"vehicle_type_id":"4","last_reported":1747768063,"current_range_meters":19200,"station_id":"ce4bhr12rcd13ifvqhqg","pricing_plan_id":"cebpf4jnsgd1na2vs0mg"},{"bike_id":"ed11f8f9-2a2d-4592-809e-e655bba14632","system_id":"levelo_inurba_marseille","lat":43.21751,"lon":5.34599,"is_reserved":false,"is_disabled":false,"rental_uris":{"android":"levelo://app?vid=ed11f8f9-2a2d-4592-809e-e655bba14632","ios":"levelo://app?vid=ed11f8f9-2a2d-4592-809e-e655bba14632"},"vehicle_type_id":"4","last_reported":1747768063,"current_range_meters":19600,"station_id":"","pricing_plan_id":"cebpf4jnsgd1na2vs0mg"},{"bike_id":"cb2818ea-f441-46c1-9598-ce9cd3b58118","system_id":"levelo_inurba_marseille","lat":43.28713,"lon":5.37953,"is_reserved":false,"is_disabled":false,"rental_uris":{"android":"levelo://app?vid=cb2818ea-f441-46c1-9598-ce9cd3b58118","ios":"levelo://app?vid=cb2818ea-f441-46c1-9598-ce9cd3b58118"},"vehicle_type_id":"4","last_reported":1747768063,"current_range_meters":19600,"station_id":"ce4bh9p2rcd13ifvqec0","pricing_plan_id":"cebpf4jnsgd1na2vs0mg"},{"bike_id":"97b74aaf-f6dc-40e2-ac6c-9dd5fc5f7177","system_id":"levelo_inurba_marseille","lat":43.28029,"lon":5.36943,"is_reserved":false,"is_disabled":false,"rental_uris":{"android":"levelo://app?vid=97b74aaf-f6dc-40e2-ac6c-9dd5fc5f7177","ios":"levelo://app?vid=97b74aaf-f6dc-40e2-ac6c-9dd5fc5f7177"},"vehicle_type_id":"4","last_reported":1747768063,"current_range_meters":19600,"station_id":"ce4bha12rcd13ifvqef0","pricing_plan_id":"cebpf4jnsgd1na2vs0mg"},{"bike_id":"eb1dee0e-761a-4d1e-9076-951bdb93082d","system_id":"levelo_inurba_marseille","lat":43.26561,"lon":5.37294,"is_reserved":false,"is_disabled":false,"rental_uris":{"android":"levelo://app?vid=eb1dee0e-761a-4d1e-9076-951bdb93082d","ios":"levelo://app?vid=eb1dee0e-761a-4d1e-9076-951bdb93082d"},"vehicle_type_id":"4","last_reported":1747768063,"current_range_meters":19600,"station_id":"ce4bhg12rcd13ifvqf70","pricing_plan_id":"cebpf4jnsgd1na2vs0mg"},{"bike_id":"42c89125-e04a-4b83-af49-b2e2538f66fd","system_id":"levelo_inurba_marseille","lat":43.25868,"lon":5.39895,"is_reserved":false,"is_disabled":false,"rental_uris":{"android":"levelo://app?vid=42c89125-e04a-4b83-af49-b2e2538f66fd","ios":"levelo://app?vid=42c89125-e04a-4b83-af49-b2e2538f66fd"},"vehicle_type_id":"4","last_reported":1747768063,"current_range_meters":19600,"station_id":"ce4bhl92rcd13ifvqghg","pricing_plan_id":"cebpf4jnsgd1na2vs0mg"},{"bike_id":"f93c9409-da4e-4f50-8c46-d687493c8e8c","system_id":"levelo_inurba_marseille","lat":43.29787,"lon":5.3933,"is_reserved":false,"is_disabled":false,"rental_uris":{"android":"levelo://app?vid=f93c9409-da4e-4f50-8c46-d687493c8e8c","ios":"levelo://app?vid=f93c9409-da4e-4f50-8c46-d687493c8e8c"},"vehicle_type_id":"4","last_reported":1747768063,"current_range_meters":19600,"station_id":"chh1huq6cuj3fo74tm60","pricing_plan_id":"cebpf4jnsgd1na2vs0mg"},{"bike_id":"0eba188e-45dc-4d88-bb44-5a6542fb27f0","system_id":"levelo_inurba_marseille","lat":43.30091,"lon":5.39083,"is_reserved":false,"is_disabled":false,"rental_uris":{"android":"levelo://app?vid=0eba188e-45dc-4d88-bb44-5a6542fb27f0","ios":"levelo://app?vid=0eba188e-45dc-4d88-bb44-5a6542fb27f0"},"vehicle_type_id":"4","last_reported":1747768063,"current_range_meters":20000,"station_id":"ce4bh192rcd13ifvqdb0","pricing_plan_id":"cebpf4jnsgd1na2vs0mg"},{"bike_id":"a483d9b9-f7a3-4bca-836d-714fb1b76295","system_id":"levelo_inurba_marseille","lat":43.286926,"lon":5.373852,"is_reserved":false,"is_disabled":false,"rental_uris":{"android":"levelo://app?vid=a483d9b9-f7a3-4bca-836d-714fb1b76295","ios":"levelo://app?vid=a483d9b9-f7a3-4bca-836d-714fb1b76295"},"vehicle_type_id":"4","last_reported":1747768063,"current_range_meters":20000,"station_id":"ce4bh3p2rcd13ifvqdq0","pricing_plan_id":"cebpf4jnsgd1na2vs0mg"},{"bike_id":"2952ade9-356c-4336-99a1-396e23965977","system_id":"levelo_inurba_marseille","lat":43.28415,"lon":5.37495,"is_reserved":false,"is_disabled":false,"rental_uris":{"android":"levelo://app?vid=2952ade9-356c-4336-99a1-396e23965977","ios":"levelo://app?vid=2952ade9-356c-4336-99a1-396e23965977"},"vehicle_type_id":"4","last_reported":1747768063,"current_range_meters":20000,"station_id":"ce4bh412rcd13ifvqds0","pricing_plan_id":"cebpf4jnsgd1na2vs0mg"},{"bike_id":"9fc4c32e-9edb-4d53-8b73-78f40630aac4","system_id":"levelo_inurba_marseille","lat":43.29028,"lon":5.38651,"is_reserved":false,"is_disabled":false,"rental_uris":{"android":"levelo://app?vid=9fc4c32e-9edb-4d53-8b73-78f40630aac4","ios":"levelo://app?vid=9fc4c32e-9edb-4d53-8b73-78f40630aac4"},"vehicle_type_id":"4","last_reported":1747768063,"current_range_meters":20000,"station_id":"ce4bh4p2rcd13ifvqe0g","pricing_plan_id":"cebpf4jnsgd1na2vs0mg"},{"bike_id":"c0058ff1-f32e-49de-93ac-d32f597b979c","system_id":"levelo_inurba_marseille","lat":43.28104,"lon":5.37837,"is_reserved":false,"is_disabled":false,"rental_uris":{"android":"levelo://app?vid=c0058ff1-f32e-49de-93ac-d32f597b979c","ios":"levelo://app?vid=c0058ff1-f32e-49de-93ac-d32f597b979c"},"vehicle_type_id":"4","last_reported":1747768063,"current_range_meters":20000,"station_id":"ce4bha12rcd13ifvqee0","pricing_plan_id":"cebpf4jnsgd1na2vs0mg"},{"bike_id":"70ceb0df-d830-40f6-be39-bb1a7dbd5010","system_id":"levelo_inurba_marseille","lat":43.282889,"lon":5.350713,"is_reserved":false,"is_disabled":false,"rental_uris":{"android":"levelo://app?vid=70ceb0df-d830-40f6-be39-bb1a7dbd5010","ios":"levelo://app?vid=70ceb0df-d830-40f6-be39-bb1a7dbd5010"},"vehicle_type_id":"4","last_reported":1747768063,"current_range_meters":20000,"station_id":"ce4bhbp2rcd13ifvqerg","pricing_plan_id":"cebpf4jnsgd1na2vs0mg"},{"bike_id":"7fa4be75-d207-4b7d-86e6-882fd410f809","system_id":"levelo_inurba_marseille","lat":43.25497,"lon":5.37647,"is_reserved":false,"is_disabled":false,"rental_uris":{"android":"levelo://app?vid=7fa4be75-d207-4b7d-86e6-882fd410f809","ios":"levelo://app?vid=7fa4be75-d207-4b7d-86e6-882fd410f809"},"vehicle_type_id":"4","last_reported":1747768063,"current_range_meters":20000,"station_id":"ce4bhh12rcd13ifvqff0","pricing_plan_id":"cebpf4jnsgd1na2vs0mg"},{"bike_id":"dc61c065-6ed1-487e-9ecf-5a93a8f61ca7","system_id":"levelo_inurba_marseille","lat":43.23194,"lon":5.39995,"is_reserved":false,"is_disabled":false,"rental_uris":{"android":"levelo://app?vid=dc61c065-6ed1-487e-9ecf-5a93a8f61ca7","ios":"levelo://app?vid=dc61c065-6ed1-487e-9ecf-5a93a8f61ca7"},"vehicle_type_id":"4","last_reported":1747768063,"current_range_meters":20000,"station_id":"ce4bhn12rcd13ifvqgqg","pricing_plan_id":"cebpf4jnsgd1na2vs0mg"},{"bike_id":"48e0557d-98f8-452b-97c3-859599fa7cd4","system_id":"levelo_inurba_marseille","lat":43.24075,"lon":5.37762,"is_reserved":false,"is_disabled":false,"rental_uris":{"android":"levelo://app?vid=48e0557d-98f8-452b-97c3-859599fa7cd4","ios":"levelo://app?vid=48e0557d-98f8-452b-97c3-859599fa7cd4"},"vehicle_type_id":"4","last_reported":1747768063,"current_range_meters":20000,"station_id":"ce4bhnp2rcd13ifvqgvg","pricing_plan_id":"cebpf4jnsgd1na2vs0mg"},{"bike_id":"3870d19c-fd5b-475f-bc0e-e1adb882845c","system_id":"levelo_inurba_marseille","lat":43.29553,"lon":5.42277,"is_reserved":false,"is_disabled":false,"rental_uris":{"android":"levelo://app?vid=3870d19c-fd5b-475f-bc0e-e1adb882845c","ios":"levelo://app?vid=3870d19c-fd5b-475f-bc0e-e1adb882845c"},"vehicle_type_id":"4","last_reported":1747768063,"current_range_meters":20000,"station_id":"ce4bhph2rcd13ifvqhdg","pricing_plan_id":"cebpf4jnsgd1na2vs0mg"},{"bike_id":"ac2ec4a3-c1d4-430e-be22-d61702d23450","system_id":"levelo_inurba_marseille","lat":43.29802,"lon":5.39329,"is_reserved":false,"is_disabled":false,"rental_uris":{"android":"levelo://app?vid=ac2ec4a3-c1d4-430e-be22-d61702d23450","ios":"levelo://app?vid=ac2ec4a3-c1d4-430e-be22-d61702d23450"},"vehicle_type_id":"4","last_reported":1747768063,"current_range_meters":20000,"station_id":"chh1huq6cuj3fo74tm60","pricing_plan_id":"cebpf4jnsgd1na2vs0mg"},{"bike_id":"a1196188-2c7c-465c-999b-7edb1f0906f1","system_id":"levelo_inurba_marseille","lat":43.26962,"lon":5.42136,"is_reserved":false,"is_disabled":false,"rental_uris":{"android":"levelo://app?vid=a1196188-2c7c-465c-999b-7edb1f0906f1","ios":"levelo://app?vid=a1196188-2c7c-465c-999b-7edb1f0906f1"},"vehicle_type_id":"4","last_reported":1747768063,"current_range_meters":20400,"station_id":"","pricing_plan_id":"cebpf4jnsgd1na2vs0mg"},{"bike_id":"8201d4c3-98ac-4a7d-bcef-673d41c46f47","system_id":"levelo_inurba_marseille","lat":43.29268,"lon":5.38421,"is_reserved":false,"is_disabled":false,"rental_uris":{"android":"levelo://app?vid=8201d4c3-98ac-4a7d-bcef-673d41c46f47","ios":"levelo://app?vid=8201d4c3-98ac-4a7d-bcef-673d41c46f47"},"vehicle_type_id":"4","last_reported":1747768063,"current_range_meters":20400,"station_id":"ce4bh692rcd13ifvqea0","pricing_plan_id":"cebpf4jnsgd1na2vs0mg"},{"bike_id":"21c80388-5dc7-4904-b021-db79d4ddd3dc","system_id":"levelo_inurba_marseille","lat":43.27374,"lon":5.36243,"is_reserved":false,"is_disabled":false,"rental_uris":{"android":"levelo://app?vid=21c80388-5dc7-4904-b021-db79d4ddd3dc","ios":"levelo://app?vid=21c80388-5dc7-4904-b021-db79d4ddd3dc"},"vehicle_type_id":"4","last_reported":1747768063,"current_range_meters":20400,"station_id":"ce4bhbh2rcd13ifvqeo0","pricing_plan_id":"cebpf4jnsgd1na2vs0mg"},{"bike_id":"9234c733-3060-4063-80b3-a112e6686343","system_id":"levelo_inurba_marseille","lat":43.28267,"lon":5.35059,"is_reserved":false,"is_disabled":false,"rental_uris":{"android":"levelo://app?vid=9234c733-3060-4063-80b3-a112e6686343","ios":"levelo://app?vid=9234c733-3060-4063-80b3-a112e6686343"},"vehicle_type_id":"4","last_reported":1747768063,"current_range_meters":20400,"station_id":"ce4bhbp2rcd13ifvqerg","pricing_plan_id":"cebpf4jnsgd1na2vs0mg"},