{"last_updated":1750954419,"ttl":60,"version":"2.2","data":{"bikes":[{"bike_id":"3da29fb8-fc97-44c6-b9ac-31dd456b2fd4","system_id":"levelo_inurba_marseille","lat":43.33771,"lon":5.37424,"is_reserved":false,"is_disabled":true,"rental_uris":{"android":"levelo://app?vid=3da29fb8-fc97-44c6-b9ac-31dd456b2fd4","ios":"levelo://app?vid=3da29fb8-fc97-44c6-b9ac-31dd456b2fd4"},"vehicle_type_id":"4","last_reported":1750954419,"current_range_meters":0,"station_id":"","pricing_plan_id":"cebpf4jnsgd1na2vs0mg"},{"bike_id":"01861ad8-a8d7-4be6-816e-651927c87584","system_id":"levelo_inurba_marseille","lat":43.33751,"lon":5.37456,"is_reserved":false,"is_disabled":true,"rental_uris":{"android":"levelo://app?vid=01861ad8-a8d7-4be6-816e-651927c87584","ios":"levelo://app?vid=01861ad8-a8d7-4be6-816e-651927c87584"},"vehicle_type_id":"4","last_reported":1750954419,"current_range_meters":0,"station_id":"","pricing_plan_id":"cebpf4jnsgd1na2vs0mg"},{"bike_id":"a147e67d-e0b1-425e-bbda-ae9524df353e","system_id":"levelo_inurba_marseille","lat":43.337541,"lon":5.374577,"is_reserved":false,"is_disabled":true,"rental_uris":{"android":"levelo://app?vid=a147e67d-e0b1-425e-bbda-ae9524df353e","ios":"levelo://app?vid=a147e67d-e0b1-425e-bbda-ae9524df353e"},"vehicle_type_id":"4","last_reported":1750954419,"current_range_meters":0,"station_id":"","pricing_plan_id":"cebpf4jnsgd1na2vs0mg"},{"bike_id":"128de48f-b252-4b23-8dbb-c3ee928423f3","system_id":"levelo_inurba_marseille","lat":43.28645,"lon":5.360955,"is_reserved":false,"is_disabled":true,"rental_uris":{"android":"levelo://app?vid=128de48f-b252-4b23-8dbb-c3ee928423f3","ios":"levelo://app?vid=128de48f-b252-4b23-8dbb-c3ee928423f3"},"vehicle_type_id":"4","last_reported":1750954419,"current_range_meters":0,"station_id":"","pricing_plan_id":"cebpf4jnsgd1na2vs0mg"},{"bike_id":"be6544fb-6c1c-4292-b44a-7843b5c7fb9c","system_id":"levelo_inurba_marseille","lat":43.31647,"lon":5.41333,"is_reserved":false,"is_disabled":true,"rental_uris":{"android":"levelo://app?vid=be6544fb-6c1c-4292-b44a-7843b5c7fb9c","ios":"levelo://app?vid=be6544fb-6c1c-4292-b44a-7843b5c7fb9c"},"vehicle_type_id":"4","last_reported":1750954419,"current_range_meters":0,"station_id":"","pricing_plan_id":"cebpf4jnsgd1na2vs0mg"},{"bike_id":"4d064f95-6dcb-4234-9e98-7c70fbb74351","system_id":"levelo_inurba_marseille","lat":43.337444,"lon":5.374475,"is_reserved":false,"is_disabled":true,"rental_uris":{"android":"levelo://app?vid=4d064f95-6dcb-4234-9e98-7c70fbb74351","ios":"levelo://app?vid=4d064f95-6dcb-4234-9e98-7c70fbb74351"},"vehicle_type_id":"4","last_reported":1750954419,"current_range_meters":0,"station_id":"","pricing_plan_id":"cebpf4jnsgd1na2vs0mg"},{"bike_id":"06b961c7-f3ce-4c1c-a618-db74d23ebaea","system_id":"levelo_inurba_marseille","lat":43.28876,"lon":5.37864,"is_reserved":false,"is_disabled":true,"rental_uris":{"android":"levelo://app?vid=06b961c7-f3ce-4c1c-a618-db74d23ebaea","ios":"levelo://app?vid=06b961c7-f3ce-4c1c-a618-db74d23ebaea"},"vehicle_type_id":"4","last_reported":1750954419,"current_range_meters":0,"station_id":"","pricing_plan_id":"cebpf4jnsgd1na2vs0mg"},{"bike_id":"d6609b4f-333b-43c1-9ebe-8726f5e76e88","system_id":"levelo_inurba_marseille","lat":43.337444,"lon":5.374475,"is_reserved":false,"is_disabled":true,"rental_uris":{"android":"levelo://app?vid=d6609b4f-333b-43c1-9ebe-8726f5e76e88","ios":"levelo://app?vid=d6609b4f-333b-43c1-9ebe-8726f5e76e88"},"vehicle_type_id":"4","last_reported":1750954419,"current_range_meters":0,"station_id":"","pricing_plan_id":"cebpf4jnsgd1na2vs0mg"},{"bike_id":"14903f35-1eaf-4a5d-86c3-23007b361999","system_id":"levelo_inurba_marseille","lat":43.27064,"lon":5.42274,"is_reserved":false,"is_disabled":true,"rental_uris":{"android":"levelo://app?vid=14903f35-1eaf-4a5d-86c3-23007b361999","ios":"levelo://app?vid=14903f35-1eaf-4a5d-86c3-23007b361999"},"vehicle_type_id":"4","last_reported":1750954419,"current_range_meters":0,"station_id":"","pricing_plan_id":"cebpf4jnsgd1na2vs0mg"},{"bike_id":"3583f331-6c0b-49be-9913-9dde300034d9","system_id":"levelo_inurba_marseille","lat":43.246343,"lon":5.402013,"is_reserved":false,"is_disabled":true,"rental_uris":{"android":"levelo://app?vid=3583f331-6c0b-49be-9913-9dde300034d9","ios":"levelo://app?vid=3583f331-6c0b-49be-9913-9dde300034d9"},"vehicle_type_id":"4","last_reported":1750954419,"current_range_meters":0,"station_id":"","pricing_plan_id":"cebpf4jnsgd1na2vs0mg"},{"bike_id":"46d4a4b4-efbd-4651-8727-4fd42c7021df","system_id":"levelo_inurba_marseille","lat":43.286113,"lon":5.351119,"is_reserved":false,"is_disabled":true,"rental_uris":{"android":"levelo://app?vid=46d4a4b4-efbd-4651-8727-4fd42c7021df","ios":"levelo://app?vid=46d4a4b4-efbd-4651-8727-4fd42c7021df"},"vehicle_type_id":"4","last_reported":1750954419,"current_range_meters":0,"station_id":"","pricing_plan_id":"cebpf4jnsgd1na2vs0mg"},{"bike_id":"b17b6606-336a-4606-9b65-af139c49de26","system_id":"levelo_inurba_marseille","lat":43.25668,"lon":5.4274,"is_reserved":false,"is_disabled":true,"rental_uris":{"android":"levelo://app?vid=b17b6606-336a-4606-9b65-af139c49de26","ios":"levelo://app?vid=b17b6606-336a-4606-9b65-af139c49de26"},"vehicle_type_id":"4","last_reported":1750954419,"current_range_meters":0,"station_id":"","pricing_plan_id":"cebpf4jnsgd1na2vs0mg"},{"bike_id":"79bf4da0-05ec-4b61-b034-b3a8b163f2e8","system_id":"levelo_inurba_marseille","lat":43.30927,"lon":5.40842,"is_reserved":false,"is_disabled":true,"rental_uris":{"android":"levelo://app?vid=79bf4da0-05ec-4b61-b034-b3a8b163f2e8","ios":"levelo://app?vid=79bf4da0-05ec-4b61-b034-b3a8b163f2e8"},"vehicle_type_id":"4","last_reported":1750954419,"current_range_meters":0,"station_id":"","pricing_plan_id":"cebpf4jnsgd1na2vs0mg"},{"bike_id":"9d3724b1-0dc8-4689-9d6a-55005a9503cb","system_id":"levelo_inurba_marseille","lat":43.28606,"lon":5.42828,"is_reserved":false,"is_disabled":true,"rental_uris":{"android":"levelo://app?vid=9d3724b1-0dc8-4689-9d6a-55005a9503cb","ios":"levelo://app?vid=9d3724b1-0dc8-4689-9d6a-55005a9503cb"},"vehicle_type_id":"4","last_reported":1750954419,"current_range_meters":0,"station_id":"","pricing_plan_id":"cebpf4jnsgd1na2vs0mg"},{"bike_id":"37713beb-7bb4-477a-a259-f3c6e34f45ca","system_id":"levelo_inurba_marseille","lat":43.292175,"lon":5.360395,"is_reserved":false,"is_disabled":true,"rental_uris":{"android":"levelo://app?vid=37713beb-7bb4-477a-a259-f3c6e34f45ca","ios":"levelo://app?vid=37713beb-7bb4-477a-a259-f3c6e34f45ca"},"vehicle_type_id":"4","last_reported":1750954419,"current_range_meters":0,"station_id":"","pricing_plan_id":"cebpf4jnsgd1na2vs0mg"},{"bike_id":"d2efa476-5a17-4705-b8d6-6c781a6c2e2c","system_id":"levelo_inurba_marseille","lat":43.337444,"lon":5.374475,"is_reserved":false,"is_disabled":true,"rental_uris":{"android":"levelo://app?vid=d2efa476-5a17-4705-b8d6-6c781a6c2e2c","ios":"levelo://app?vid=d2efa476-5a17-4705-b8d6-6c781a6c2e2c"},"vehicle_type_id":"4","last_reported":1750954419,"current_range_meters":0,"station_id":"","pricing_plan_id":"cebpf4jnsgd1na2vs0mg"},{"bike_id":"7d5eaf5c-da59-4fff-9504-3130b1a592fb","system_id":"levelo_inurba_marseille","lat":43.29958,"lon":5.38505,"is_reserved":false,"is_disabled":true,"rental_uris":{"android":"levelo://app?vid=7d5eaf5c-da59-4fff-9504-3130b1a592fb","ios":"levelo://app?vid=7d5eaf5c-da59-4fff-9504-3130b1a592fb"},"vehicle_type_id":"4","last_reported":1750954419,"current_range_meters":0,"station_id":"ce4bgj92rcd13ifvqbd0","pricing_plan_id":"cebpf4jnsgd1na2vs0mg"},{"bike_id":"1d8a9373-87a7-49db-adc2-528936e75177","system_id":"levelo_inurba_marseille","lat":43.30653,"lon":5.40068,"is_reserved":false,"is_disabled":true,"rental_uris":{"android":"levelo://app?vid=1d8a9373-87a7-49db-adc2-528936e75177","ios":"levelo://app?vid=1d8a9373-87a7-49db-adc2-528936e75177"},"vehicle_type_id":"4","last_reported":1750954419,"current_range_meters":0,"station_id":"ce4bh112rcd13ifvqda0","pricing_plan_id":"cebpf4jnsgd1na2vs0mg"},{"bike_id":"01ad2112-1a6e-4e87-a406-3d7338c4ea8c","system_id":"levelo_inurba_marseille","lat":43.231525,"lon":5.437198,"is_reserved":false,"is_disabled":true,"rental_uris":{"android":"levelo://app?vid=01ad2112-1a6e-4e87-a406-3d7338c4ea8c","ios":"levelo://app?vid=01ad2112-1a6e-4e87-a406-3d7338c4ea8c"},"vehicle_type_id":"4","last_reported":1750954419,"current_range_meters":0,"station_id":"ce4bhmp2rcd13ifvqgog","pricing_plan_id":"cebpf4jnsgd1na2vs0mg"},{"bike_id":"37f0a76e-3343-4b41-a32f-cc88387b345b","system_id":"levelo_inurba_marseille","lat":43.30431,"lon":5.412722,"is_reserved":false,"is_disabled":true,"rental_uris":{"android":"levelo://app?vid=37f0a76e-3343-4b41-a32f-cc88387b345b","ios":"levelo://app?vid=37f0a76e-3343-4b41-a32f-cc88387b345b"},"vehicle_type_id":"4","last_reported":1750954419,"current_range_meters":0,"station_id":"ce4bhop2rcd13ifvqh8g","pricing_plan_id":"cebpf4jnsgd1na2vs0mg"},{"bike_id":"3f96b52d-e9fe-41f5-89e8-f487e766a984","system_id":"levelo_inurba_marseille","lat":43.31713,"lon":5.42408,"is_reserved":false,"is_disabled":true,"rental_uris":{"android":"levelo://app?vid=3f96b52d-e9fe-41f5-89e8-f487e766a984","ios":"levelo://app?vid=3f96b52d-e9fe-41f5-89e8-f487e766a984"},"vehicle_type_id":"4","last_reported":1750954419,"current_range_meters":0,"station_id":"ce4bhp92rcd13ifvqhbg","pricing_plan_id":"cebpf4jnsgd1na2vs0mg"},{"bike_id":"332ae6a6-158f-405b-85a5-76529195e56f","system_id":"levelo_inurba_marseille","lat":43.32052,"lon":5.41534,"is_reserved":false,"is_disabled":true,"rental_uris":{"android":"levelo://app?vid=332ae6a6-158f-405b-85a5-76529195e56f","ios":"levelo://app?vid=332ae6a6-158f-405b-85a5-76529195e56f"},"vehicle_type_id":"4","last_reported":1750954419,"current_range_meters":0,"station_id":"ce4bhq92rcd13ifvqhkg","pricing_plan_id":"cebpf4jnsgd1na2vs0mg"},{"bike_id":"69523e2c-588f-47d6-8721-954b8ffb060b","system_id":"levelo_inurba_marseille","lat":43.33724,"lon":5.3918,"is_reserved":false,"is_disabled":true,"rental_uris":{"android":"levelo://app?vid=69523e2c-588f-47d6-8721-954b8ffb060b","ios":"levelo://app?vid=69523e2c-588f-47d6-8721-954b8ffb060b"},"vehicle_type_id":"4","last_reported":1750954419,"current_range_meters":0,"station_id":"ce4bhr92rcd13ifvqhsg","pricing_plan_id":"cebpf4jnsgd1na2vs0mg"},{"bike_id":"5a3dab73-c126-4de6-a97f-f9ca71f0b35f","system_id":"levelo_inurba_marseille","lat":43.21745,"lon":5.34604,"is_reserved":false,"is_disabled":true,"rental_uris":{"android":"levelo://app?vid=5a3dab73-c126-4de6-a97f-f9ca71f0b35f","ios":"levelo://app?vid=5a3dab73-c126-4de6-a97f-f9ca71f0b35f"},"vehicle_type_id":"4","last_reported":1750954419,"current_range_meters":0,"station_id":"st_cvj6r9ubvosntc0bgbag","pricing_plan_id":"cebpf4jnsgd1na2vs0mg"},{"bike_id":"0e57fbc8-4ec8-45a3-9991-f8795a2a9183","system_id":"levelo_inurba_marseille","lat":43.295896,"lon":5.37515,"is_reserved":false,"is_disabled":true,"rental_uris":{"android":"levelo://app?vid=0e57fbc8-4ec8-45a3-9991-f8795a2a9183","ios":"levelo://app?vid=0e57fbc8-4ec8-45a3-9991-f8795a2a9183"},"vehicle_type_id":"4","last_reported":1750954419,"current_range_meters":400,"station_id":"","pricing_plan_id":"cebpf4jnsgd1na2vs0mg"},{"bike_id":"75b4dd3d-6c33-4cea-b284-21a35aac4b1f","system_id":"levelo_inurba_marseille","lat":43.29497,"lon":5.38646,"is_reserved":false,"is_disabled":true,"rental_uris":{"android":"levelo://app?vid=75b4dd3d-6c33-4cea-b284-21a35aac4b1f","ios":"levelo://app?vid=75b4dd3d-6c33-4cea-b284-21a35aac4b1f"},"vehicle_type_id":"4","last_reported":1750954419,"current_range_meters":400,"station_id":"","pricing_plan_id":"cebpf4jnsgd1na2vs0mg"},{"bike_id":"4340a4bf-488a-400c-8cb1-d87db14333f1","system_id":"levelo_inurba_marseille","lat":43.28694,"lon":5.39993,"is_reserved":false,"is_disabled":true,"rental_uris":{"android":"levelo://app?vid=4340a4bf-488a-400c-8cb1-d87db14333f1","ios":"levelo://app?vid=4340a4bf-488a-400c-8cb1-d87db14333f1"},"vehicle_type_id":"4","last_reported":1750954419,"current_range_meters":400,"station_id":"ce4bho92rcd13ifvqh3g","pricing_plan_id":"cebpf4jnsgd1na2vs0mg"},{"bike_id":"7f5ad457-092b-49ca-a329-26e8b5a40003","system_id":"levelo_inurba_marseille","lat":43.30353,"lon":5.41873,"is_reserved":false,"is_disabled":true,"rental_uris":{"android":"levelo://app?vid=7f5ad457-092b-49ca-a329-26e8b5a40003","ios":"levelo://app?vid=7f5ad457-092b-49ca-a329-26e8b5a40003"},"vehicle_type_id":"4","last_reported":1750954419,"current_range_meters":400,"station_id":"ce4bhop2rcd13ifvqh7g","pricing_plan_id":"cebpf4jnsgd1na2vs0mg"},{"bike_id":"4254448f-b812-4bf3-861f-a44da74ba820","system_id":"levelo_inurba_marseille","lat":43.2641,"lon":5.373601,"is_reserved":false,"is_disabled":true,"rental_uris":{"android":"levelo://app?vid=4254448f-b812-4bf3-861f-a44da74ba820","ios":"levelo://app?vid=4254448f-b812-4bf3-861f-a44da74ba820"},"vehicle_type_id":"4","last_reported":1750954419,"current_range_meters":800,"station_id":"","pricing_plan_id":"cebpf4jnsgd1na2vs0mg"},{"bike_id":"85162086-c7de-448d-be59-ef0b27a18410","system_id":"levelo_inurba_marseille","lat":43.29889,"lon":5.38092,"is_reserved":false,"is_disabled":true,"rental_uris":{"android":"levelo://app?vid=85162086-c7de-448d-be59-ef0b27a18410","ios":"levelo://app?vid=85162086-c7de-448d-be59-ef0b27a18410"},"vehicle_type_id":"4","last_reported":1750954419,"current_range_meters":800,"station_id":"","pricing_plan_id":"cebpf4jnsgd1na2vs0mg"},{"bike_id":"77a1c230-cdad-4fe2-8ee7-52f0b5ad7442","system_id":"levelo_inurba_marseille","lat":43.29892,"lon":5.38353,"is_reserved":false,"is_disabled":true,"rental_uris":{"android":"levelo://app?vid=77a1c230-cdad-4fe2-8ee7-52f0b5ad7442","ios":"levelo://app?vid=77a1c230-cdad-4fe2-8ee7-52f0b5ad7442"},"vehicle_type_id":"4","last_reported":1750954419,"current_range_meters":800,"station_id":"","pricing_plan_id":"cebpf4jnsgd1na2vs0mg"},{"bike_id":"8f46969c-8275-4804-9e97-0cac617123a6","system_id":"levelo_inurba_marseille","lat":43.23332,"lon":5.35772,"is_reserved":false,"is_disabled":true,"rental_uris":{"android":"levelo://app?vid=8f46969c-8275-4804-9e97-0cac617123a6","ios":"levelo://app?vid=8f46969c-8275-4804-9e97-0cac617123a6"},"vehicle_type_id":"4","last_reported":1750954419,"current_range_meters":1200,"station_id":"","pricing_plan_id":"cebpf4jnsgd1na2vs0mg"},{"bike_id":"a80973b8-f708-437c-b4c7-adc64b44507c","system_id":"levelo_inurba_marseille","lat":43.30531,"lon":5.3671,"is_reserved":false,"is_disabled":true,"rental_uris":{"android":"levelo://app?vid=a80973b8-f708-437c-b4c7-adc64b44507c","ios":"levelo://app?vid=a80973b8-f708-437c-b4c7-adc64b44507c"},"vehicle_type_id":"4","last_reported":1750954419,"current_range_meters":1200,"station_id":"ce4bgrp2rcd13ifvqc9g","pricing_plan_id":"cebpf4jnsgd1na2vs0mg"},{"bike_id":"3e231d82-0e48-41ae-8e49-27f91838e357","system_id":"levelo_inurba_marseille","lat":43.29876,"lon":5.39737,"is_reserved":false,"is_disabled":true,"rental_uris":{"android":"levelo://app?vid=3e231d82-0e48-41ae-8e49-27f91838e357","ios":"levelo://app?vid=3e231d82-0e48-41ae-8e49-27f91838e357"},"vehicle_type_id":"4","last_reported":1750954419,"current_range_meters":1200,"station_id":"ce4bh0h2rcd13ifvqd50","pricing_plan_id":"cebpf4jnsgd1na2vs0mg"},{"bike_id":"0bb59da5-2925-45b7-9ce0-7cf24404365d","system_id":"levelo_inurba_marseille","lat":43.29523,"lon":5.39029,"is_reserved":false,"is_disabled":true,"rental_uris":{"android":"levelo://app?vid=0bb59da5-2925-45b7-9ce0-7cf24404365d","ios":"levelo://app?vid=0bb59da5-2925-45b7-9ce0-7cf24404365d"},"vehicle_type_id":"4","last_reported":1750954419,"current_range_meters":1200,"station_id":"ce4bh3p2rcd13ifvqdp0","pricing_plan_id":"cebpf4jnsgd1na2vs0mg"},{"bike_id":"9456283d-54f5-4891-9a12-3537953ae0ec","system_id":"levelo_inurba_marseille","lat":43.2707,"lon":5.422728,"is_reserved":false,"is_disabled":true,"rental_uris":{"android":"levelo://app?vid=9456283d-54f5-4891-9a12-3537953ae0ec","ios":"levelo://app?vid=9456283d-54f5-4891-9a12-3537953ae0ec"},"vehicle_type_id":"4","last_reported":1750954419,"current_range_meters":1200,"station_id":"ce4bhk92rcd13ifvqgb0","pricing_plan_id":"cebpf4jnsgd1na2vs0mg"},{"bike_id":"8674682d-b247-4f02-9aa0-75952065c77a","system_id":"levelo_inurba_marseille","lat":43.26942,"lon":5.40246,"is_reserved":false,"is_disabled":true,"rental_uris":{"android":"levelo://app?vid=8674682d-b247-4f02-9aa0-75952065c77a","ios":"levelo://app?vid=8674682d-b247-4f02-9aa0-75952065c77a"},"vehicle_type_id":"4","last_reported":1750954419,"current_range_meters":1200,"station_id":"cjm6bp8fraef2m0cb0m0","pricing_plan_id":"cebpf4jnsgd1na2vs0mg"},{"bike_id":"f55dc1fa-6f98-499d-a253-0ec6e7a8f4da","system_id":"levelo_inurba_marseille","lat":43.22918,"lon":5.35392,"is_reserved":false,"is_disabled":true,"rental_uris":{"android":"levelo://app?vid=f55dc1fa-6f98-499d-a253-0ec6e7a8f4da","ios":"levelo://app?vid=f55dc1fa-6f98-499d-a253-0ec6e7a8f4da"},"vehicle_type_id":"4","last_reported":1750954419,"current_range_meters":1200,"station_id":"cpo3532slgdg3j2ikp40","pricing_plan_id":"cebpf4jnsgd1na2vs0mg"},{"bike_id":"9fdbc43a-911c-43a5-ac69-eb60676e0272","system_id":"levelo_inurba_marseille","lat":43.299535,"lon":5.385127,"is_reserved":false,"is_disabled":true,"rental_uris":{"android":"levelo://app?vid=9fdbc43a-911c-43a5-ac69-eb60676e0272","ios":"levelo://app?vid=9fdbc43a-911c-43a5-ac69-eb60676e0272"},"vehicle_type_id":"4","last_reported":1750954419,"current_range_meters":1600,"station_id":"ce4bgj92rcd13ifvqbd0","pricing_plan_id":"cebpf4jnsgd1na2vs0mg"},{"bike_id":"37b8d82d-44b4-46d0-9102-94065ec05d2f","system_id":"levelo_inurba_marseille","lat":43.30193,"lon":5.36609,"is_reserved":false,"is_disabled":true,"rental_uris":{"android":"levelo://app?vid=37b8d82d-44b4-46d0-9102-94065ec05d2f","ios":"levelo://app?vid=37b8d82d-44b4-46d0-9102-94065ec05d2f"},"vehicle_type_id":"4","last_reported":1750954419,"current_range_meters":1600,"station_id":"ce4bgrh2rcd13ifvqc8g","pricing_plan_id":"cebpf4jnsgd1na2vs0mg"},{"bike_id":"612ae59f-bcbd-466a-95d1-748c7a6491a5","system_id":"levelo_inurba_marseille","lat":43.2649,"lon":5.39567,"is_reserved":false,"is_disabled":true,"rental_uris":{"android":"levelo://app?vid=612ae59f-bcbd-466a-95d1-748c7a6491a5","ios":"levelo://app?vid=612ae59f-bcbd-466a-95d1-748c7a6491a5"},"vehicle_type_id":"4","last_reported":1750954419,"current_range_meters":1600,"station_id":"ce4bhi12rcd13ifvqfq0","pricing_plan_id":"cebpf4jnsgd1na2vs0mg"},{"bike_id":"805ef012-043b-4152-8c55-60c445f77468","system_id":"levelo_inurba_marseille","lat":43.250908,"lon":5.395353,"is_reserved":false,"is_disabled":true,"rental_uris":{"android":"levelo://app?vid=805ef012-043b-4152-8c55-60c445f77468","ios":"levelo://app?vid=805ef012-043b-4152-8c55-60c445f77468"},"vehicle_type_id":"4","last_reported":1750954419,"current_range_meters":2000,"station_id":"","pricing_plan_id":"cebpf4jnsgd1na2vs0mg"},{"bike_id":"cde5aba1-3748-4aba-badd-15d3765973e7","system_id":"levelo_inurba_marseille","lat":43.303162,"lon":5.368928,"is_reserved":false,"is_disabled":true,"rental_uris":{"android":"levelo://app?vid=cde5aba1-3748-4aba-badd-15d3765973e7","ios":"levelo://app?vid=cde5aba1-3748-4aba-badd-15d3765973e7"},"vehicle_type_id":"4","last_reported":1750954419,"current_range_meters":2000,"station_id":"ce4bgqh2rcd13ifvqc5g","pricing_plan_id":"cebpf4jnsgd1na2vs0mg"},{"bike_id":"63e99e59-f9f6-4ff8-9261-015edadd4bda","system_id":"levelo_inurba_marseille","lat":43.27938,"lon":5.4104,"is_reserved":false,"is_disabled":false,"rental_uris":{"android":"levelo://app?vid=63e99e59-f9f6-4ff8-9261-015edadd4bda","ios":"levelo://app?vid=63e99e59-f9f6-4ff8-9261-015edadd4bda"},"vehicle_type_id":"4","last_reported":1750954419,"current_range_meters":2800,"station_id":"ce4bhnp2rcd13ifvqh0g","pricing_plan_id":"cebpf4jnsgd1na2vs0mg"},{"bike_id":"63d0b5f2-66bb-4c6b-8e7a-63e8402a0672","system_id":"levelo_inurba_marseille","lat":43.30138,"lon":5.38771,"is_reserved":false,"is_disabled":false,"rental_uris":{"android":"levelo://app?vid=63d0b5f2-66bb-4c6b-8e7a-63e8402a0672","ios":"levelo://app?vid=63d0b5f2-66bb-4c6b-8e7a-63e8402a0672"},"vehicle_type_id":"4","last_reported":1750954419,"current_range_meters":3200,"station_id":"ce4bghh2rcd13ifvqb60","pricing_plan_id":"cebpf4jnsgd1na2vs0mg"},{"bike_id":"bd3f0cf6-880f-42eb-9f73-82cfbc7141f1","system_id":"levelo_inurba_marseille","lat":43.306437,"lon":5.375291,"is_reserved":false,"is_disabled":false,"rental_uris":{"android":"levelo://app?vid=bd3f0cf6-880f-42eb-9f73-82cfbc7141f1","ios":"levelo://app?vid=bd3f0cf6-880f-42eb-9f73-82cfbc7141f1"},"vehicle_type_id":"4","last_reported":1750954419,"current_range_meters":3200,"station_id":"ce4bgv92rcd13ifvqcq0","pricing_plan_id":"cebpf4jnsgd1na2vs0mg"},{"bike_id":"2ba7d719-40cd-4326-a0a3-d3d333c28c53","system_id":"levelo_inurba_marseille","lat":43.300943,"lon":5.390961,"is_reserved":false,"is_disabled":false,"rental_uris":{"android":"levelo://app?vid=2ba7d719-40cd-4326-a0a3-d3d333c28c53","ios":"levelo://app?vid=2ba7d719-40cd-4326-a0a3-d3d333c28c53"},"vehicle_type_id":"4","last_reported":1750954419,"current_range_meters":3600,"station_id":"ce4bgih2rcd13ifvqba0","pricing_plan_id":"cebpf4jnsgd1na2vs0mg"},{"bike_id":"75ac7eef-4b0c-4697-a1df-6021e35350da","system_id":"levelo_inurba_marseille","lat":43.29844,"lon":5.36276,"is_reserved":false,"is_disabled":false,"rental_uris":{"android":"levelo://app?vid=75ac7eef-4b0c-4697-a1df-6021e35350da","ios":"levelo://app?vid=75ac7eef-4b0c-4697-a1df-6021e35350da"},"vehicle_type_id":"4","last_reported":1750954419,"current_range_meters":3600,"station_id":"ce4bgpp2rcd13ifvqc3g","pricing_plan_id":"cebpf4jnsgd1na2vs0mg"},{"bike_id":"87f33f37-923c-4a7c-991d-ea6a7256e585","system_id":"levelo_inurba_marseille","lat":43.309273,"lon":5.40144,"is_reserved":false,"is_disabled":false,"rental_uris":{"android":"levelo://app?vid=87f33f37-923c-4a7c-991d-ea6a7256e585","ios":"levelo://app?vid=87f33f37-923c-4a7c-991d-ea6a7256e585"},"vehicle_type_id":"4","last_reported":1750954419,"current_range_meters":3600,"station_id":"ce4bgvp2rcd13ifvqct0","pricing_plan_id":"cebpf4jnsgd1na2vs0mg"},{"bike_id":"a0e53358-efd1-45b3-96cb-92d7333a033f","system_id":"levelo_inurba_marseille","lat":43.300839,"lon":5.390974,"is_reserved":false,"is_disabled":false,"rental_uris":{"android":"levelo://app?vid=a0e53358-efd1-45b3-96cb-92d7333a033f","ios":"levelo://app?vid=a0e53358-efd1-45b3-96cb-92d7333a033f"},"vehicle_type_id":"4","last_reported":1750954419,"current_range_meters":3600,"station_id":"ce4bh192rcd13ifvqdb0","pricing_plan_id":"cebpf4jnsgd1na2vs0mg"},{"bike_id":"7e728b9f-ff3a-46ca-a901-5d2674402cc2","system_id":"levelo_inurba_marseille","lat":43.2925,"lon":5.38457,"is_reserved":false,"is_disabled":false,"rental_uris":{"android":"levelo://app?vid=7e728b9f-ff3a-46ca-a901-5d2674402cc2","ios":"levelo://app?vid=7e728b9f-ff3a-46ca-a901-5d2674402cc2"},"vehicle_type_id":"4","last_reported":1750954419,"current_range_meters":3600,"station_id":"ce4bh692rcd13ifvqea0","pricing_plan_id":"cebpf4jnsgd1na2vs0mg"},{"bike_id":"2612038d-e53e-4f4f-b6e4-43c819a3336e","system_id":"levelo_inurba_marseille","lat":43.32045,"lon":5.41546,"is_reserved":false,"is_disabled":false,"rental_uris":{"android":"levelo://app?vid=2612038d-e53e-4f4f-b6e4-43c819a3336e","ios":"levelo://app?vid=2612038d-e53e-4f4f-b6e4-43c819a3336e"},"vehicle_type_id":"4","last_reported":1750954419,"current_range_meters":4400,"station_id":"ce4bhq92rcd13ifvqhkg","pricing_plan_id":"cebpf4jnsgd1na2vs0mg"},{"bike_id":"67a5051a-b32e-408a-8389-c22b54eb81f6","system_id":"levelo_inurba_marseille","lat":43.33007,"lon":5.45609,"is_reserved":false,"is_disabled":false,"rental_uris":{"android":"levelo://app?vid=67a5051a-b32e-408a-8389-c22b54eb81f6","ios":"levelo://app?vid=67a5051a-b32e-408a-8389-c22b54eb81f6"},"vehicle_type_id":"4","last_reported":1750954419,"current_range_meters":4800,"station_id":"","pricing_plan_id":"cebpf4jnsgd1na2vs0mg"},{"bike_id":"db16f4b1-8ab6-46e1-bb53-5b8fab69a4ac","system_id":"levelo_inurba_marseille","lat":43.28564,"lon":5.39507,"is_reserved":false,"is_disabled":false,"rental_uris":{"android":"levelo://app?vid=db16f4b1-8ab6-46e1-bb53-5b8fab69a4ac","ios":"levelo://app?vid=db16f4b1-8ab6-46e1-bb53-5b8fab69a4ac"},"vehicle_type_id":"4","last_reported":1750954419,"current_range_meters":5600,"station_id":"ce4bh292rcd13ifvqdg0","pricing_plan_id":"cebpf4jnsgd1na2vs0mg"},{"bike_id":"518376c6-f16b-425a-b44f-8c5581c1b640","system_id":"levelo_inurba_marseille","lat":43.284134,"lon":5.375045,"is_reserved":false,"is_disabled":false,"rental_uris":{"android":"levelo://app?vid=518376c6-f16b-425a-b44f-8c5581c1b640","ios":"levelo://app?vid=518376c6-f16b-425a-b44f-8c5581c1b640"},"vehicle_type_id":"4","last_reported":1750954419,"current_range_meters":6000,"station_id":"ce4bh3p2rcd13ifvqdq0","pricing_plan_id":"cebpf4jnsgd1na2vs0mg"},{"bike_id":"f49cb8fb-862e-4e20-a120-ce2c89ea7561","system_id":"levelo_inurba_marseille","lat":43.28413,"lon":5.37499,"is_reserved":false,"is_disabled":false,"rental_uris":{"android":"levelo://app?vid=f49cb8fb-862e-4e20-a120-ce2c89ea7561","ios":"levelo://app?vid=f49cb8fb-862e-4e20-a120-ce2c89ea7561"},"vehicle_type_id":"4","last_reported":1750954419,"current_range_meters":6400,"station_id":"ce4bh412rcd13ifvqds0","pricing_plan_id":"cebpf4jnsgd1na2vs0mg"},{"bike_id":"8995c3d3-6a6b-4229-854c-7a65fa53eeee","system_id":"levelo_inurba_marseille","lat":43.29038,"lon":5.35925,"is_reserved":false,"is_disabled":false,"rental_uris":{"android":"levelo://app?vid=8995c3d3-6a6b-4229-854c-7a65fa53eeee","ios":"levelo://app?vid=8995c3d3-6a6b-4229-854c-7a65fa53eeee"},"vehicle_type_id":"4","last_reported":1750954419,"current_range_meters":6400,"station_id":"ce4bha92rcd13ifvqeg0","pricing_plan_id":"cebpf4jnsgd1na2vs0mg"},{"bike_id":"1e533548-e7ee-4979-ab49-6e289dbf4c08","system_id":"levelo_inurba_marseille","lat":43.30137,"lon":5.38783,"is_reserved":false,"is_disabled":false,"rental_uris":{"android":"levelo://app?vid=1e533548-e7ee-4979-ab49-6e289dbf4c08","ios":"levelo://app?vid=1e533548-e7ee-4979-ab49-6e289dbf4c08"},"vehicle_type_id":"4","last_reported":1750954419,"current_range_meters":6800,"station_id":"ce4bghh2rcd13ifvqb60","pricing_plan_id":"cebpf4jnsgd1na2vs0mg"},{"bike_id":"d4b55109-35d8-48ef-adbe-adb9a79ace82","system_id":"levelo_inurba_marseille","lat":43.30803,"lon":5.38154,"is_reserved":false,"is_disabled":false,"rental_uris":{"android":"levelo://app?vid=d4b55109-35d8-48ef-adbe-adb9a79ace82","ios":"levelo://app?vid=d4b55109-35d8-48ef-adbe-adb9a79ace82"},"vehicle_type_id":"4","last_reported":1750954419,"current_range_meters":6800,"station_id":"ce4bgt12rcd13ifvqce0","pricing_plan_id":"cebpf4jnsgd1na2vs0mg"},{"bike_id":"2ec67c24-a90f-40eb-a5ba-51dc7cb5a583","system_id":"levelo_inurba_marseille","lat":43.26553,"lon":5.37284,"is_reserved":false,"is_disabled":false,"rental_uris":{"android":"levelo://app?vid=2ec67c24-a90f-40eb-a5ba-51dc7cb5a583","ios":"levelo://app?vid=2ec67c24-a90f-40eb-a5ba-51dc7cb5a583"},"vehicle_type_id":"4","last_reported":1750954419,"current_range_meters":6800,"station_id":"ce4bhg12rcd13ifvqf70","pricing_plan_id":"cebpf4jnsgd1na2vs0mg"},{"bike_id":"35b14479-4a4d-4383-83de-c7fea66894b3","system_id":"levelo_inurba_marseille","lat":43.29899,"lon":5.43678,"is_reserved":false,"is_disabled":false,"rental_uris":{"android":"levelo://app?vid=35b14479-4a4d-4383-83de-c7fea66894b3","ios":"levelo://app?vid=35b14479-4a4d-4383-83de-c7fea66894b3"},"vehicle_type_id":"4","last_reported":1750954419,"current_range_meters":6800,"station_id":"ce4bhpp2rcd13ifvqhfg","pricing_plan_id":"cebpf4jnsgd1na2vs0mg"},{"bike_id":"85aebb63-1277-49af-91e5-22f2d655e266","system_id":"levelo_inurba_marseille","lat":43.299001,"lon":5.436719,"is_reserved":false,"is_disabled":false,"rental_uris":{"android":"levelo://app?vid=85aebb63-1277-49af-91e5-22f2d655e266","ios":"levelo://app?vid=85aebb63-1277-49af-91e5-22f2d655e266"},"vehicle_type_id":"4","last_reported":1750954419,"current_range_meters":6800,"station_id":"ce4bhpp2rcd13ifvqhfg","pricing_plan_id":"cebpf4jnsgd1na2vs0mg"},{"bike_id":"75a83af6-c800-444b-886f-6318ab4d104d","system_id":"levelo_inurba_marseille","lat":43.28441,"lon":5.39205,"is_reserved":false,"is_disabled":false,"rental_uris":{"android":"levelo://app?vid=75a83af6-c800-444b-886f-6318ab4d104d","ios":"levelo://app?vid=75a83af6-c800-444b-886f-6318ab4d104d"},"vehicle_type_id":"4","last_reported":1750954419,"current_range_meters":7200,"station_id":"ce4bhoh2rcd13ifvqh5g","pricing_plan_id":"cebpf4jnsgd1na2vs0mg"},{"bike_id":"e31dc41a-74b1-4471-8bd1-334e677119d5","system_id":"levelo_inurba_marseille","lat":43.29447,"lon":5.43379,"is_reserved":false,"is_disabled":false,"rental_uris":{"android":"levelo://app?vid=e31dc41a-74b1-4471-8bd1-334e677119d5","ios":"levelo://app?vid=e31dc41a-74b1-4471-8bd1-334e677119d5"},"vehicle_type_id":"4","last_reported":1750954419,"current_range_meters":8000,"station_id":"","pricing_plan_id":"cebpf4jnsgd1na2vs0mg"},{"bike_id":"af112b62-19de-41d4-b8d7-e14d0172315d","system_id":"levelo_inurba_marseille","lat":43.326822,"lon":5.392738,"is_reserved":false,"is_disabled":false,"rental_uris":{"android":"levelo://app?vid=af112b62-19de-41d4-b8d7-e14d0172315d","ios":"levelo://app?vid=af112b62-19de-41d4-b8d7-e14d0172315d"},"vehicle_type_id":"4","last_reported":1750954419,"current_range_meters":8000,"station_id":"","pricing_plan_id":"cebpf4jnsgd1na2vs0mg"},{"bike_id":"187b38b2-efb7-47cf-8b82-656b91088717","system_id":"levelo_inurba_marseille","lat":43.28684,"lon":5.36678,"is_reserved":false,"is_disabled":false,"rental_uris":{"android":"levelo://app?vid=187b38b2-efb7-47cf-8b82-656b91088717","ios":"levelo://app?vid=187b38b2-efb7-47cf-8b82-656b91088717"},"vehicle_type_id":"4","last_reported":1750954419,"current_range_meters":8000,"station_id":"","pricing_plan_id":"cebpf4jnsgd1na2vs0mg"},{"bike_id":"74b464df-acdf-4bc0-9f08-ebfe0bdc3251","system_id":"levelo_inurba_marseille","lat":43.28716,"lon":5.37944,"is_reserved":false,"is_disabled":false,"rental_uris":{"android":"levelo://app?vid=74b464df-acdf-4bc0-9f08-ebfe0bdc3251","ios":"levelo://app?vid=74b464df-acdf-4bc0-9f08-ebfe0bdc3251"},"vehicle_type_id":"4","last_reported":1750954419,"current_range_meters":8000,"station_id":"ce4bh9p2rcd13ifvqec0","pricing_plan_id":"cebpf4jnsgd1na2vs0mg"},{"bike_id":"e97ae9e4-3092-4fb1-9b12-55c34be88d94","system_id":"levelo_inurba_marseille","lat":43.27834,"lon":5.39209,"is_reserved":false,"is_disabled":false,"rental_uris":{"android":"levelo://app?vid=e97ae9e4-3092-4fb1-9b12-55c34be88d94","ios":"levelo://app?vid=e97ae9e4-3092-4fb1-9b12-55c34be88d94"},"vehicle_type_id":"4","last_reported":1750954419,"current_range_meters":8000,"station_id":"ce4bhjp2rcd13ifvqga0","pricing_plan_id":"cebpf4jnsgd1na2vs0mg"},{"bike_id":"ea285955-8cb5-4314-8ba8-3614de87650f","system_id":"levelo_inurba_marseille","lat":43.28437,"lon":5.392,"is_reserved":false,"is_disabled":false,"rental_uris":{"android":"levelo://app?vid=ea285955-8cb5-4314-8ba8-3614de87650f","ios":"levelo://app?vid=ea285955-8cb5-4314-8ba8-3614de87650f"},"vehicle_type_id":"4","last_reported":1750954419,"current_range_meters":8000,"station_id":"ce4bhoh2rcd13ifvqh5g","pricing_plan_id":"cebpf4jnsgd1na2vs0mg"},{"bike_id":"5eee8925-0941-460b-a942-18fcb70bac7c","system_id":"levelo_inurba_marseille","lat":43.27235,"lon":5.40054,"is_reserved":false,"is_disabled":false,"rental_uris":{"android":"levelo://app?vid=5eee8925-0941-460b-a942-18fcb70bac7c","ios":"levelo://app?vid=5eee8925-0941-460b-a942-18fcb70bac7c"},"vehicle_type_id":"4","last_reported":1750954419,"current_range_meters":8400,"station_id":"","pricing_plan_id":"cebpf4jnsgd1na2vs0mg"},{"bike_id":"26a14eba-87a9-47b8-9607-30bd0042d428","system_id":"levelo_inurba_marseille","lat":43.3145,"lon":5.39442,"is_reserved":false,"is_disabled":false,"rental_uris":{"android":"levelo://app?vid=26a14eba-87a9-47b8-9607-30bd0042d428","ios":"levelo://app?vid=26a14eba-87a9-47b8-9607-30bd0042d428"},"vehicle_type_id":"4","last_reported":1750954419,"current_range_meters":8400,"station_id":"","pricing_plan_id":"cebpf4jnsgd1na2vs0mg"},{"bike_id":"9ce852fe-9449-4c16-b29b-642a7abdbbbf","system_id":"levelo_inurba_marseille","lat":43.27398,"lon":5.36214,"is_reserved":false,"is_disabled":false,"rental_uris":{"android":"levelo://app?vid=9ce852fe-9449-4c16-b29b-642a7abdbbbf","ios":"levelo://app?vid=9ce852fe-9449-4c16-b29b-642a7abdbbbf"},"vehicle_type_id":"4","last_reported":1750954419,"current_range_meters":8400,"station_id":"","pricing_plan_id":"cebpf4jnsgd1na2vs0mg"},{"bike_id":"0fd06934-a896-4acc-aa13-ebd38ecebdaa","system_id":"levelo_inurba_marseille","lat":43.27381,"lon":5.36248,"is_reserved":false,"is_disabled":false,"rental_uris":{"android":"levelo://app?vid=0fd06934-a896-4acc-aa13-ebd38ecebdaa","ios":"levelo://app?vid=0fd06934-a896-4acc-aa13-ebd38ecebdaa"},"vehicle_type_id":"4","last_reported":1750954419,"current_range_meters":8400,"station_id":"ce4bhbh2rcd13ifvqeo0","pricing_plan_id":"cebpf4jnsgd1na2vs0mg"},{"bike_id":"a7e0683e-fc3a-444e-bbdc-ea9dc2cbaba4","system_id":"levelo_inurba_marseille","lat":43.25111,"lon":5.40319,"is_reserved":false,"is_disabled":false,"rental_uris":{"android":"levelo://app?vid=a7e0683e-fc3a-444e-bbdc-ea9dc2cbaba4","ios":"levelo://app?vid=a7e0683e-fc3a-444e-bbdc-ea9dc2cbaba4"},"vehicle_type_id":"4","last_reported":1750954419,"current_range_meters":8400,"station_id":"ce4bhlh2rcd13ifvqgig","pricing_plan_id":"cebpf4jnsgd1na2vs0mg"},{"bike_id":"9a024e14-895a-433f-90ef-d2a67eb796cd","system_id":"levelo_inurba_marseille","lat":43.279962,"lon":5.400143,"is_reserved":false,"is_disabled":false,"rental_uris":{"android":"levelo://app?vid=9a024e14-895a-433f-90ef-d2a67eb796cd","ios":"levelo://app?vid=9a024e14-895a-433f-90ef-d2a67eb796cd"},"vehicle_type_id":"4","last_reported":1750954419,"current_range_meters":8400,"station_id":"ce4bho92rcd13ifvqh4g","pricing_plan_id":"cebpf4jnsgd1na2vs0mg"},{"bike_id":"a7251671-f4fd-4ca1-acac-59c442621b5e","system_id":"levelo_inurba_marseille","lat":43.231946,"lon":5.355528,"is_reserved":false,"is_disabled":false,"rental_uris":{"android":"levelo://app?vid=a7251671-f4fd-4ca1-acac-59c442621b5e","ios":"levelo://app?vid=a7251671-f4fd-4ca1-acac-59c442621b5e"},"vehicle_type_id":"4","last_reported":1750954419,"current_range_meters":8400,"station_id":"ce4bhu92rcd13ifvqi70","pricing_plan_id":"cebpf4jnsgd1na2vs0mg"},{"bike_id":"b045cd0f-169d-4341-84e0-a1ad3b5443a3","system_id":"levelo_inurba_marseille","lat":43.28631,"lon":5.35087,"is_reserved":false,"is_disabled":false,"rental_uris":{"android":"levelo://app?vid=b045cd0f-169d-4341-84e0-a1ad3b5443a3","ios":"levelo://app?vid=b045cd0f-169d-4341-84e0-a1ad3b5443a3"},"vehicle_type_id":"4","last_reported":1750954419,"current_range_meters":8800,"station_id":"ce4bhch2rcd13ifvqeug","pricing_plan_id":"cebpf4jnsgd1na2vs0mg"},{"bike_id":"08c78b6a-831e-45c0-8339-159dc1f2a433","system_id":"levelo_inurba_marseille","lat":43.27816,"lon":5.40709,"is_reserved":false,"is_disabled":false,"rental_uris":{"android":"levelo://app?vid=08c78b6a-831e-45c0-8339-159dc1f2a433","ios":"levelo://app?vid=08c78b6a-831e-45c0-8339-159dc1f2a433"},"vehicle_type_id":"4","last_reported":1750954419,"current_range_meters":8800,"station_id":"ce4bhnh2rcd13ifvqgtg","pricing_plan_id":"cebpf4jnsgd1na2vs0mg"},{"bike_id":"c62457bf-727e-486a-b221-beee912e9230","system_id":"levelo_inurba_marseille","lat":43.28424,"lon":5.34992,"is_reserved":false,"is_disabled":false,"rental_uris":{"android":"levelo://app?vid=c62457bf-727e-486a-b221-beee912e9230","ios":"levelo://app?vid=c62457bf-727e-486a-b221-beee912e9230"},"vehicle_type_id":"4","last_reported":1750954419,"current_range_meters":9200,"station_id":"ce4bhbh2rcd13ifvqepg","pricing_plan_id":"cebpf4jnsgd1na2vs0mg"},{"bike_id":"b257ff1f-afb5-4fdb-93f4-58be21a4d44b","system_id":"levelo_inurba_marseille","lat":43.265316,"lon":5.403496,"is_reserved":false,"is_disabled":false,"rental_uris":{"android":"levelo://app?vid=b257ff1f-afb5-4fdb-93f4-58be21a4d44b","ios":"levelo://app?vid=b257ff1f-afb5-4fdb-93f4-58be21a4d44b"},"vehicle_type_id":"4","last_reported":1750954419,"current_range_meters":9200,"station_id":"ce4bhdp2rcd13ifvqf20","pricing_plan_id":"cebpf4jnsgd1na2vs0mg"},{"bike_id":"e2f5b300-4a63-4778-aada-c29a8a0ea1e8","system_id":"levelo_inurba_marseille","lat":43.32776,"lon":5.39193,"is_reserved":false,"is_disabled":false,"rental_uris":{"android":"levelo://app?vid=e2f5b300-4a63-4778-aada-c29a8a0ea1e8","ios":"levelo://app?vid=e2f5b300-4a63-4778-aada-c29a8a0ea1e8"},"vehicle_type_id":"4","last_reported":1750954419,"current_range_meters":9600,"station_id":"","pricing_plan_id":"cebpf4jnsgd1na2vs0mg"},{"bike_id":"4d6658f4-b84c-4066-af22-3348974d22c3","system_id":"levelo_inurba_marseille","lat":43.31122,"lon":5.37745,"is_reserved":false,"is_disabled":false,"rental_uris":{"android":"levelo://app?vid=4d6658f4-b84c-4066-af22-3348974d22c3","ios":"levelo://app?vid=4d6658f4-b84c-4066-af22-3348974d22c3"},"vehicle_type_id":"4","last_reported":1750954419,"current_range_meters":9600,"station_id":"ce4bgt92rcd13ifvqcg0","pricing_plan_id":"cebpf4jnsgd1na2vs0mg"},{"bike_id":"b1e5ccfc-0c7b-43b5-8830-bff084ec37d6","system_id":"levelo_inurba_marseille","lat":43.28428,"lon":5.3498,"is_reserved":false,"is_disabled":false,"rental_uris":{"android":"levelo://app?vid=b1e5ccfc-0c7b-43b5-8830-bff084ec37d6","ios":"levelo://app?vid=b1e5ccfc-0c7b-43b5-8830-bff084ec37d6"},"vehicle_type_id":"4","last_reported":1750954419,"current_range_meters":9600,"station_id":"ce4bhbh2rcd13ifvqepg","pricing_plan_id":"cebpf4jnsgd1na2vs0mg"},{"bike_id":"307719d8-858f-4aa2-9777-bb1fd3e52674","system_id":"levelo_inurba_marseille","lat":43.26239,"lon":5.37266,"is_reserved":false,"is_disabled":false,"rental_uris":{"android":"levelo://app?vid=307719d8-858f-4aa2-9777-bb1fd3e52674","ios":"levelo://app?vid=307719d8-858f-4aa2-9777-bb1fd3e52674"},"vehicle_type_id":"4","last_reported":1750954419,"current_range_meters":10000,"station_id":"","pricing_plan_id":"cebpf4jnsgd1na2vs0mg"},{"bike_id":"ca975740-45d9-40a0-bbd1-87567337002a","system_id":"levelo_inurba_marseille","lat":43.27412,"lon":5.36195,"is_reserved":false,"is_disabled":false,"rental_uris":{"android":"levelo://app?vid=ca975740-45d9-40a0-bbd1-87567337002a","ios":"levelo://app?vid=ca975740-45d9-40a0-bbd1-87567337002a"},"vehicle_type_id":"4","last_reported":1750954419,"current_range_meters":10000,"station_id":"","pricing_plan_id":"cebpf4jnsgd1na2vs0mg"},{"bike_id":"c2e24164-a9b7-425d-a588-5325e191257c","system_id":"levelo_inurba_marseille","lat":43.273567,"lon":5.362414,"is_reserved":false,"is_disabled":false,"rental_uris":{"android":"levelo://app?vid=c2e24164-a9b7-425d-a588-5325e191257c","ios":"levelo://app?vid=c2e24164-a9b7-425d-a588-5325e191257c"},"vehicle_type_id":"4","last_reported":1750954419,"current_range_meters":10000,"station_id":"ce4bhbh2rcd13ifvqeo0","pricing_plan_id":"cebpf4jnsgd1na2vs0mg"},{"bike_id":"541e7df5-ad85-4271-902b-ff2f4ba41623","system_id":"levelo_inurba_marseille","lat":43.28404,"lon":5.34978,"is_reserved":false,"is_disabled":false,"rental_uris":{"android":"levelo://app?vid=541e7df5-ad85-4271-902b-ff2f4ba41623","ios":"levelo://app?vid=541e7df5-ad85-4271-902b-ff2f4ba41623"},"vehicle_type_id":"4","last_reported":1750954419,"current_range_meters":10000,"station_id":"ce4bhbh2rcd13ifvqepg","pricing_plan_id":"cebpf4jnsgd1na2vs0mg"},{"bike_id":"2e815af5-28ed-43ba-9f0a-c263ae1df39f","system_id":"levelo_inurba_marseille","lat":43.28618,"lon":5.35105,"is_reserved":false,"is_disabled":false,"rental_uris":{"android":"levelo://app?vid=2e815af5-28ed-43ba-9f0a-c263ae1df39f","ios":"levelo://app?vid=2e815af5-28ed-43ba-9f0a-c263ae1df39f"},"vehicle_type_id":"4","last_reported":1750954419,"current_range_meters":10000,"station_id":"ce4bhch2rcd13ifvqeug","pricing_plan_id":"cebpf4jnsgd1na2vs0mg"},{"bike_id":"f6ea66d9-a120-487c-a0ab-bdad67c4b5bb","system_id":"levelo_inurba_marseille","lat":43.21748,"lon":5.34604,"is_reserved":false,"is_disabled":false,"rental_uris":{"android":"levelo://app?vid=f6ea66d9-a120-487c-a0ab-bdad67c4b5bb","ios":"levelo://app?vid=f6ea66d9-a120-487c-a0ab-bdad67c4b5bb"},"vehicle_type_id":"4","last_reported":1750954419,"current_range_meters":10000,"station_id":"st_cvj6r9ubvosntc0bgbag","pricing_plan_id":"cebpf4jnsgd1na2vs0mg"},{"bike_id":"a9d25cad-d480-4c75-aec5-3969f1a4e6c7","system_id":"levelo_inurba_marseille","lat":43.32945,"lon":5.39057,"is_reserved":false,"is_disabled":false,"rental_uris":{"android":"levelo://app?vid=a9d25cad-d480-4c75-aec5-3969f1a4e6c7","ios":"levelo://app?vid=a9d25cad-d480-4c75-aec5-3969f1a4e6c7"},"vehicle_type_id":"4","last_reported":1750954419,"current_range_meters":10800,"station_id":"","pricing_plan_id":"cebpf4jnsgd1na2vs0mg"},{"bike_id":"efe335a6-a2d4-4e15-9f6b-b2f91855719b","system_id":"levelo_inurba_marseille","lat":43.28568,"lon":5.3949,"is_reserved":false,"is_disabled":false,"rental_uris":{"android":"levelo://app?vid=efe335a6-a2d4-4e15-9f6b-b2f91855719b","ios":"levelo://app?vid=efe335a6-a2d4-4e15-9f6b-b2f91855719b"},"vehicle_type_id":"4","last_reported":1750954419,"current_range_meters":10800,"station_id":"ce4bh292rcd13ifvqdg0","pricing_plan_id":"cebpf4jnsgd1na2vs0mg"},{"bike_id":"d9297bcb-258f-4cc8-965a-128f8c5dbf4f","system_id":"levelo_inurba_marseille","lat":43.28628,"lon":5.351,"is_reserved":false,"is_disabled":false,"rental_uris":{"android":"levelo://app?vid=d9297bcb-258f-4cc8-965a-128f8c5dbf4f","ios":"levelo://app?vid=d9297bcb-258f-4cc8-965a-128f8c5dbf4f"},"vehicle_type_id":"4","last_reported":1750954419,"current_range_meters":10800,"station_id":"ce4bhch2rcd13ifvqeug","pricing_plan_id":"cebpf4jnsgd1na2vs0mg"},{"bike_id":"39b9c7be-4144-420a-8ca3-599c35df38ed","system_id":"levelo_inurba_marseille","lat":43.23193,"lon":5.35547,"is_reserved":false,"is_disabled":false,"rental_uris":{"android":"levelo://app?vid=39b9c7be-4144-420a-8ca3-599c35df38ed","ios":"levelo://app?vid=39b9c7be-4144-420a-8ca3-599c35df38ed"},"vehicle_type_id":"4","last_reported":1750954419,"current_range_meters":10800,"station_id":"ce4bhu92rcd13ifvqi70","pricing_plan_id":"cebpf4jnsgd1na2vs0mg"},{"bike_id":"60a2bccc-20d3-46f0-b3e8-4c2ce7c48800","system_id":"levelo_inurba_marseille","lat":43.229248,"lon":5.353737,"is_reserved":false,"is_disabled":false,"rental_uris":{"android":"levelo://app?vid=60a2bccc-20d3-46f0-b3e8-4c2ce7c48800","ios":"levelo://app?vid=60a2bccc-20d3-46f0-b3e8-4c2ce7c48800"},"vehicle_type_id":"4","last_reported":1750954419,"current_range_meters":11200,"station_id":"","pricing_plan_id":"cebpf4jnsgd1na2vs0mg"},{"bike_id":"c37cbde7-1416-4344-9532-d787450f99c8","system_id":"levelo_inurba_marseille","lat":43.317274,"lon":5.423939,"is_reserved":false,"is_disabled":false,"rental_uris":{"android":"levelo://app?vid=c37cbde7-1416-4344-9532-d787450f99c8","ios":"levelo://app?vid=c37cbde7-1416-4344-9532-d787450f99c8"},"vehicle_type_id":"4","last_reported":1750954419,"current_range_meters":11200,"station_id":"ce4bhp92rcd13ifvqhbg","pricing_plan_id":"cebpf4jnsgd1na2vs0mg"},{"bike_id":"add6291a-dee0-4030-8588-25617391e274","system_id":"levelo_inurba_marseille","lat":43.33608,"lon":5.40993,"is_reserved":false,"is_disabled":false,"rental_uris":{"android":"levelo://app?vid=add6291a-dee0-4030-8588-25617391e274","ios":"levelo://app?vid=add6291a-dee0-4030-8588-25617391e274"},"vehicle_type_id":"4","last_reported":1750954419,"current_range_meters":11200,"station_id":"ce4bhqh2rcd13ifvqhmg","pricing_plan_id":"cebpf4jnsgd1na2vs0mg"},{"bike_id":"fe1e536f-d26d-4693-b98d-b56ff09e03eb","system_id":"levelo_inurba_marseille","lat":43.32371,"lon":5.367605,"is_reserved":false,"is_disabled":false,"rental_uris":{"android":"levelo://app?vid=fe1e536f-d26d-4693-b98d-b56ff09e03eb","ios":"levelo://app?vid=fe1e536f-d26d-4693-b98d-b56ff09e03eb"},"vehicle_type_id":"4","last_reported":1750954419,"current_range_meters":11200,"station_id":"ce4bhsh2rcd13ifvqi2g","pricing_plan_id":"cebpf4jnsgd1na2vs0mg"},{"bike_id":"f47876d7-9c85-474e-92c5-7a242e08b67c","system_id":"levelo_inurba_marseille","lat":43.30563,"lon":5.37539,"is_reserved":false,"is_disabled":false,"rental_uris":{"android":"levelo://app?vid=f47876d7-9c85-474e-92c5-7a242e08b67c","ios":"levelo://app?vid=f47876d7-9c85-474e-92c5-7a242e08b67c"},"vehicle_type_id":"4","last_reported":1750954419,"current_range_meters":11600,"station_id":"","pricing_plan_id":"cebpf4jnsgd1na2vs0mg"},{"bike_id":"eab1ef59-3d43-4430-8405-191164ff9149","system_id":"levelo_inurba_marseille","lat":43.26908,"lon":5.42102,"is_reserved":false,"is_disabled":false,"rental_uris":{"android":"levelo://app?vid=eab1ef59-3d43-4430-8405-191164ff9149","ios":"levelo://app?vid=eab1ef59-3d43-4430-8405-191164ff9149"},"vehicle_type_id":"4","last_reported":1750954419,"current_range_meters":11600,"station_id":"","pricing_plan_id":"cebpf4jnsgd1na2vs0mg"},{"bike_id":"55a4e06d-384b-42e9-a5c7-7c2276f13b7f","system_id":"levelo_inurba_marseille","lat":43.28329,"lon":5.34966,"is_reserved":false,"is_disabled":false,"rental_uris":{"android":"levelo://app?vid=55a4e06d-384b-42e9-a5c7-7c2276f13b7f","ios":"levelo://app?vid=55a4e06d-384b-42e9-a5c7-7c2276f13b7f"},"vehicle_type_id":"4","last_reported":1750954419,"current_range_meters":12000,"station_id":"","pricing_plan_id":"cebpf4jnsgd1na2vs0mg"},{"bike_id":"1f18a889-b6b6-4a29-9074-cabc0c430266","system_id":"levelo_inurba_marseille","lat":43.295331,"lon":5.374747,"is_reserved":false,"is_disabled":false,"rental_uris":{"android":"levelo://app?vid=1f18a889-b6b6-4a29-9074-cabc0c430266","ios":"levelo://app?vid=1f18a889-b6b6-4a29-9074-cabc0c430266"},"vehicle_type_id":"4","last_reported":1750954419,"current_range_meters":12000,"station_id":"","pricing_plan_id":"cebpf4jnsgd1na2vs0mg"},{"bike_id":"20e862bb-3fc5-44c7-9d80-0e8bcceac300","system_id":"levelo_inurba_marseille","lat":43.28416,"lon":5.34987,"is_reserved":false,"is_disabled":false,"rental_uris":{"android":"levelo://app?vid=20e862bb-3fc5-44c7-9d80-0e8bcceac300","ios":"levelo://app?vid=20e862bb-3fc5-44c7-9d80-0e8bcceac300"},"vehicle_type_id":"4","last_reported":1750954419,"current_range_meters":12000,"station_id":"ce4bhbh2rcd13ifvqepg","pricing_plan_id":"cebpf4jnsgd1na2vs0mg"},{"bike_id":"bb937fa4-01dd-4e61-98c6-7ee72abb7001","system_id":"levelo_inurba_marseille","lat":43.25104,"lon":5.40307,"is_reserved":false,"is_disabled":false,"rental_uris":{"android":"levelo://app?vid=bb937fa4-01dd-4e61-98c6-7ee72abb7001","ios":"levelo://app?vid=bb937fa4-01dd-4e61-98c6-7ee72abb7001"},"vehicle_type_id":"4","last_reported":1750954419,"current_range_meters":12000,"station_id":"ce4bhlh2rcd13ifvqgig","pricing_plan_id":"cebpf4jnsgd1na2vs0mg"},{"bike_id":"0934a484-143d-4add-9619-d24fbb3bbbb3","system_id":"levelo_inurba_marseille","lat":43.23151,"lon":5.43723,"is_reserved":false,"is_disabled":false,"rental_uris":{"android":"levelo://app?vid=0934a484-143d-4add-9619-d24fbb3bbbb3","ios":"levelo://app?vid=0934a484-143d-4add-9619-d24fbb3bbbb3"},"vehicle_type_id":"4","last_reported":1750954419,"current_range_meters":12000,"station_id":"ce4bhmp2rcd13ifvqgog","pricing_plan_id":"cebpf4jnsgd1na2vs0mg"},{"bike_id":"fce33d1a-bdd4-48e6-9054-13e5b400ab54","system_id":"levelo_inurba_marseille","lat":43.23192,"lon":5.35548,"is_reserved":false,"is_disabled":false,"rental_uris":{"android":"levelo://app?vid=fce33d1a-bdd4-48e6-9054-13e5b400ab54","ios":"levelo://app?vid=fce33d1a-bdd4-48e6-9054-13e5b400ab54"},"vehicle_type_id":"4","last_reported":1750954419,"current_range_meters":12000,"station_id":"ce4bhu92rcd13ifvqi70","pricing_plan_id":"cebpf4jnsgd1na2vs0mg"},{"bike_id":"b2f65b77-6c4d-463a-b12d-03ec0ed31397","system_id":"levelo_inurba_marseille","lat":43.21744,"lon":5.34591,"is_reserved":false,"is_disabled":false,"rental_uris":{"android":"levelo://app?vid=b2f65b77-6c4d-463a-b12d-03ec0ed31397","ios":"levelo://app?vid=b2f65b77-6c4d-463a-b12d-03ec0ed31397"},"vehicle_type_id":"4","last_reported":1750954419,"current_range_meters":12000,"station_id":"st_cvj6r9ubvosntc0bgbag","pricing_plan_id":"cebpf4jnsgd1na2vs0mg"},{"bike_id":"de0f7c2b-5974-4035-a240-8ed367c0e3f3","system_id":"levelo_inurba_marseille","lat":43.31967,"lon":5.37628,"is_reserved":false,"is_disabled":false,"rental_uris":{"android":"levelo://app?vid=de0f7c2b-5974-4035-a240-8ed367c0e3f3","ios":"levelo://app?vid=de0f7c2b-5974-4035-a240-8ed367c0e3f3"},"vehicle_type_id":"4","last_reported":1750954419,"current_range_meters":12400,"station_id":"","pricing_plan_id":"cebpf4jnsgd1na2vs0mg"},{"bike_id":"c38baf72-5417-43bd-8ad2-9f781cc6b81b","system_id":"levelo_inurba_marseille","lat":43.29077,"lon":5.3845,"is_reserved":false,"is_disabled":false,"rental_uris":{"android":"levelo://app?vid=c38baf72-5417-43bd-8ad2-9f781cc6b81b","ios":"levelo://app?vid=c38baf72-5417-43bd-8ad2-9f781cc6b81b"},"vehicle_type_id":"4","last_reported":1750954419,"current_range_meters":12400,"station_id":"","pricing_plan_id":"cebpf4jnsgd1na2vs0mg"},{"bike_id":"c6ec92c6-43f2-4719-a487-2ec2be786116","system_id":"levelo_inurba_marseille","lat":43.27621,"lon":5.36111,"is_reserved":false,"is_disabled":false,"rental_uris":{"android":"levelo://app?vid=c6ec92c6-43f2-4719-a487-2ec2be786116","ios":"levelo://app?vid=c6ec92c6-43f2-4719-a487-2ec2be786116"},"vehicle_type_id":"4","last_reported":1750954419,"current_range_meters":12400,"station_id":"ce4bgj92rcd13ifvqbe0","pricing_plan_id":"cebpf4jnsgd1na2vs0mg"},{"bike_id":"5d97ba86-e06d-4a4a-8b00-a18d8279549a","system_id":"levelo_inurba_marseille","lat":43.284238,"lon":5.349942,"is_reserved":false,"is_disabled":false,"rental_uris":{"android":"levelo://app?vid=5d97ba86-e06d-4a4a-8b00-a18d8279549a","ios":"levelo://app?vid=5d97ba86-e06d-4a4a-8b00-a18d8279549a"},"vehicle_type_id":"4","last_reported":1750954419,"current_range_meters":12400,"station_id":"ce4bhbh2rcd13ifvqepg","pricing_plan_id":"cebpf4jnsgd1na2vs0mg"},{"bike_id":"466d6a98-a18f-49c4-96c5-9b80965dc1d9","system_id":"levelo_inurba_marseille","lat":43.28407,"lon":5.34987,"is_reserved":false,"is_disabled":false,"rental_uris":{"android":"levelo://app?vid=466d6a98-a18f-49c4-96c5-9b80965dc1d9","ios":"levelo://app?vid=466d6a98-a18f-49c4-96c5-9b80965dc1d9"},"vehicle_type_id":"4","last_reported":1750954419,"current_range_meters":12400,"station_id":"ce4bhbh2rcd13ifvqepg","pricing_plan_id":"cebpf4jnsgd1na2vs0mg"},{"bike_id":"f248896a-0984-46ed-a93b-93ae7a25b573","system_id":"levelo_inurba_marseille","lat":43.284393,"lon":5.391928,"is_reserved":false,"is_disabled":false,"rental_uris":{"android":"levelo://app?vid=f248896a-0984-46ed-a93b-93ae7a25b573","ios":"levelo://app?vid=f248896a-0984-46ed-a93b-93ae7a25b573"},"vehicle_type_id":"4","last_reported":1750954419,"current_range_meters":12400,"station_id":"ce4bhoh2rcd13ifvqh5g","pricing_plan_id":"cebpf4jnsgd1na2vs0mg"},{"bike_id":"8d23cb97-ce39-4f24-bd0e-979f506c4b3d","system_id":"levelo_inurba_marseille","lat":43.284119,"lon":5.349717,"is_reserved":false,"is_disabled":false,"rental_uris":{"android":"levelo://app?vid=8d23cb97-ce39-4f24-bd0e-979f506c4b3d","ios":"levelo://app?vid=8d23cb97-ce39-4f24-bd0e-979f506c4b3d"},"vehicle_type_id":"4","last_reported":1750954419,"current_range_meters":12800,"station_id":"","pricing_plan_id":"cebpf4jnsgd1na2vs0mg"},{"bike_id":"790e9783-3dd5-42d1-8fef-4d46edd292e6","system_id":"levelo_inurba_marseille","lat":43.28406,"lon":5.3498,"is_reserved":false,"is_disabled":false,"rental_uris":{"android":"levelo://app?vid=790e9783-3dd5-42d1-8fef-4d46edd292e6","ios":"levelo://app?vid=790e9783-3dd5-42d1-8fef-4d46edd292e6"},"vehicle_type_id":"4","last_reported":1750954419,"current_range_meters":12800,"station_id":"ce4bhbh2rcd13ifvqepg","pricing_plan_id":"cebpf4jnsgd1na2vs0mg"},{"bike_id":"e4536d2c-61da-440a-b6bf-b1fb4ecd2273","system_id":"levelo_inurba_marseille","lat":43.28277,"lon":5.35073,"is_reserved":false,"is_disabled":false,"rental_uris":{"android":"levelo://app?vid=e4536d2c-61da-440a-b6bf-b1fb4ecd2273","ios":"levelo://app?vid=e4536d2c-61da-440a-b6bf-b1fb4ecd2273"},"vehicle_type_id":"4","last_reported":1750954419,"current_range_meters":12800,"station_id":"ce4bhbp2rcd13ifvqerg","pricing_plan_id":"cebpf4jnsgd1na2vs0mg"},{"bike_id":"37c34168-7374-4557-8fab-5904f531184a","system_id":"levelo_inurba_marseille","lat":43.2992,"lon":5.43646,"is_reserved":false,"is_disabled":false,"rental_uris":{"android":"levelo://app?vid=37c34168-7374-4557-8fab-5904f531184a","ios":"levelo://app?vid=37c34168-7374-4557-8fab-5904f531184a"},"vehicle_type_id":"4","last_reported":1750954419,"current_range_meters":12800,"station_id":"ce4bhpp2rcd13ifvqhfg","pricing_plan_id":"cebpf4jnsgd1na2vs0mg"},{"bike_id":"4b8da722-ee9e-48a4-a5e5-3a8a10364708","system_id":"levelo_inurba_marseille","lat":43.31244,"lon":5.37817,"is_reserved":false,"is_disabled":false,"rental_uris":{"android":"levelo://app?vid=4b8da722-ee9e-48a4-a5e5-3a8a10364708","ios":"levelo://app?vid=4b8da722-ee9e-48a4-a5e5-3a8a10364708"},"vehicle_type_id":"4","last_reported":1750954419,"current_range_meters":13600,"station_id":"","pricing_plan_id":"cebpf4jnsgd1na2vs0mg"},{"bike_id":"98179140-173e-4563-aedd-e7e82214edca","system_id":"levelo_inurba_marseille","lat":43.32352,"lon":5.3669,"is_reserved":false,"is_disabled":false,"rental_uris":{"android":"levelo://app?vid=98179140-173e-4563-aedd-e7e82214edca","ios":"levelo://app?vid=98179140-173e-4563-aedd-e7e82214edca"},"vehicle_type_id":"4","last_reported":1750954419,"current_range_meters":13600,"station_id":"","pricing_plan_id":"cebpf4jnsgd1na2vs0mg"},{"bike_id":"7f08ca0c-f070-435e-892f-213f96830235","system_id":"levelo_inurba_marseille","lat":43.273759,"lon":5.362599,"is_reserved":false,"is_disabled":false,"rental_uris":{"android":"levelo://app?vid=7f08ca0c-f070-435e-892f-213f96830235","ios":"levelo://app?vid=7f08ca0c-f070-435e-892f-213f96830235"},"vehicle_type_id":"4","last_reported":1750954419,"current_range_meters":13600,"station_id":"ce4bhbh2rcd13ifvqeo0","pricing_plan_id":"cebpf4jnsgd1na2vs0mg"},{"bike_id":"58a9d8b2-45d4-4787-ae68-1404a58184db","system_id":"levelo_inurba_marseille","lat":43.28413,"lon":5.34977,"is_reserved":false,"is_disabled":false,"rental_uris":{"android":"levelo://app?vid=58a9d8b2-45d4-4787-ae68-1404a58184db","ios":"levelo://app?vid=58a9d8b2-45d4-4787-ae68-1404a58184db"},"vehicle_type_id":"4","last_reported":1750954419,"current_range_meters":13600,"station_id":"ce4bhbh2rcd13ifvqepg","pricing_plan_id":"cebpf4jnsgd1na2vs0mg"},{"bike_id":"0433d07c-1684-4c8b-a727-7cbeba4c3cb1","system_id":"levelo_inurba_marseille","lat":43.28288,"lon":5.35068,"is_reserved":false,"is_disabled":false,"rental_uris":{"android":"levelo://app?vid=0433d07c-1684-4c8b-a727-7cbeba4c3cb1","ios":"levelo://app?vid=0433d07c-1684-4c8b-a727-7cbeba4c3cb1"},"vehicle_type_id":"4","last_reported":1750954419,"current_range_meters":13600,"station_id":"ce4bhbp2rcd13ifvqerg","pricing_plan_id":"cebpf4jnsgd1na2vs0mg"},{"bike_id":"d919eaf4-8625-441d-82a1-822c7d10bc4c","system_id":"levelo_inurba_marseille","lat":43.26556,"lon":5.37281,"is_reserved":false,"is_disabled":false,"rental_uris":{"android":"levelo://app?vid=d919eaf4-8625-441d-82a1-822c7d10bc4c","ios":"levelo://app?vid=d919eaf4-8625-441d-82a1-822c7d10bc4c"},"vehicle_type_id":"4","last_reported":1750954419,"current_range_meters":13600,"station_id":"ce4bhg12rcd13ifvqf70","pricing_plan_id":"cebpf4jnsgd1na2vs0mg"},{"bike_id":"3fda70df-e1b8-4091-b66f-211bb0339eb3","system_id":"levelo_inurba_marseille","lat":43.23192,"lon":5.35548,"is_reserved":false,"is_disabled":false,"rental_uris":{"android":"levelo://app?vid=3fda70df-e1b8-4091-b66f-211bb0339eb3","ios":"levelo://app?vid=3fda70df-e1b8-4091-b66f-211bb0339eb3"},"vehicle_type_id":"4","last_reported":1750954419,"current_range_meters":13600,"station_id":"ce4bhu92rcd13ifvqi70","pricing_plan_id":"cebpf4jnsgd1na2vs0mg"},{"bike_id":"85baa472-0dcc-431c-b769-f17532940231","system_id":"levelo_inurba_marseille","lat":43.24147,"lon":5.36424,"is_reserved":false,"is_disabled":false,"rental_uris":{"android":"levelo://app?vid=85baa472-0dcc-431c-b769-f17532940231","ios":"levelo://app?vid=85baa472-0dcc-431c-b769-f17532940231"},"vehicle_type_id":"4","last_reported":1750954419,"current_range_meters":13600,"station_id":"cpo36qri1sfpv3e86is0","pricing_plan_id":"cebpf4jnsgd1na2vs0mg"},{"bike_id":"c080e39a-1a38-491a-8eaa-f8195003b685","system_id":"levelo_inurba_marseille","lat":43.28672,"lon":5.35139,"is_reserved":false,"is_disabled":false,"rental_uris":{"android":"levelo://app?vid=c080e39a-1a38-491a-8eaa-f8195003b685","ios":"levelo://app?vid=c080e39a-1a38-491a-8eaa-f8195003b685"},"vehicle_type_id":"4","last_reported":1750954419,"current_range_meters":14000,"station_id":"","pricing_plan_id":"cebpf4jnsgd1na2vs0mg"},{"bike_id":"ef6d5a21-1f08-43d7-b584-b9a7d52ce4c8","system_id":"levelo_inurba_marseille","lat":43.28409,"lon":5.34979,"is_reserved":false,"is_disabled":false,"rental_uris":{"android":"levelo://app?vid=ef6d5a21-1f08-43d7-b584-b9a7d52ce4c8","ios":"levelo://app?vid=ef6d5a21-1f08-43d7-b584-b9a7d52ce4c8"},"vehicle_type_id":"4","last_reported":1750954419,"current_range_meters":14000,"station_id":"","pricing_plan_id":"cebpf4jnsgd1na2vs0mg"},{"bike_id":"f0d97247-cd3d-45ee-bb13-e52529849aa8","system_id":"levelo_inurba_marseille","lat":43.28422,"lon":5.37516,"is_reserved":false,"is_disabled":false,"rental_uris":{"android":"levelo://app?vid=f0d97247-cd3d-45ee-bb13-e52529849aa8","ios":"levelo://app?vid=f0d97247-cd3d-45ee-bb13-e52529849aa8"},"vehicle_type_id":"4","last_reported":1750954419,"current_range_meters":14000,"station_id":"ce4bh412rcd13ifvqds0","pricing_plan_id":"cebpf4jnsgd1na2vs0mg"},{"bike_id":"b1bc10bb-6dc2-401a-955a-0d8f83b7c4d8","system_id":"levelo_inurba_marseille","lat":43.27392,"lon":5.36245,"is_reserved":false,"is_disabled":false,"rental_uris":{"android":"levelo://app?vid=b1bc10bb-6dc2-401a-955a-0d8f83b7c4d8","ios":"levelo://app?vid=b1bc10bb-6dc2-401a-955a-0d8f83b7c4d8"},"vehicle_type_id":"4","last_reported":1750954419,"current_range_meters":14000,"station_id":"ce4bhbh2rcd13ifvqeo0","pricing_plan_id":"cebpf4jnsgd1na2vs0mg"},{"bike_id":"89e582db-02b5-42e6-9872-fe8503117adf","system_id":"levelo_inurba_marseille","lat":43.27377,"lon":5.36258,"is_reserved":false,"is_disabled":false,"rental_uris":{"android":"levelo://app?vid=89e582db-02b5-42e6-9872-fe8503117adf","ios":"levelo://app?vid=89e582db-02b5-42e6-9872-fe8503117adf"},"vehicle_type_id":"4","last_reported":1750954419,"current_range_meters":14000,"station_id":"ce4bhbh2rcd13ifvqeo0","pricing_plan_id":"cebpf4jnsgd1na2vs0mg"},{"bike_id":"5c63c08b-3b93-421b-905d-fb8163956050","system_id":"levelo_inurba_marseille","lat":43.282666,"lon":5.350578,"is_reserved":false,"is_disabled":false,"rental_uris":{"android":"levelo://app?vid=5c63c08b-3b93-421b-905d-fb8163956050","ios":"levelo://app?vid=5c63c08b-3b93-421b-905d-fb8163956050"},"vehicle_type_id":"4","last_reported":1750954419,"current_range_meters":14000,"station_id":"ce4bhbp2rcd13ifvqerg","pricing_plan_id":"cebpf4jnsgd1na2vs0mg"},{"bike_id":"815111af-68ba-4028-ad9a-be913bce4aab","system_id":"levelo_inurba_marseille","lat":43.23194,"lon":5.35555,"is_reserved":false,"is_disabled":false,"rental_uris":{"android":"levelo://app?vid=815111af-68ba-4028-ad9a-be913bce4aab","ios":"levelo://app?vid=815111af-68ba-4028-ad9a-be913bce4aab"},"vehicle_type_id":"4","last_reported":1750954419,"current_range_meters":14000,"station_id":"ce4bhu92rcd13ifvqi70","pricing_plan_id":"cebpf4jnsgd1na2vs0mg"},{"bike_id":"38ee6c99-ed1c-4320-bb3c-b1d717388b30","system_id":"levelo_inurba_marseille","lat":43.22929,"lon":5.35376,"is_reserved":false,"is_disabled":false,"rental_uris":{"android":"levelo://app?vid=38ee6c99-ed1c-4320-bb3c-b1d717388b30","ios":"levelo://app?vid=38ee6c99-ed1c-4320-bb3c-b1d717388b30"},"vehicle_type_id":"4","last_reported":1750954419,"current_range_meters":14000,"station_id":"cpo3532slgdg3j2ikp40","pricing_plan_id":"cebpf4jnsgd1na2vs0mg"},{"bike_id":"86ebd8a7-7d30-43b6-953e-6107b0f77710","system_id":"levelo_inurba_marseille","lat":43.3343,"lon":5.40068,"is_reserved":false,"is_disabled":false,"rental_uris":{"android":"levelo://app?vid=86ebd8a7-7d30-43b6-953e-6107b0f77710","ios":"levelo://app?vid=86ebd8a7-7d30-43b6-953e-6107b0f77710"},"vehicle_type_id":"4","last_reported":1750954419,"current_range_meters":14400,"station_id":"","pricing_plan_id":"cebpf4jnsgd1na2vs0mg"},{"bike_id":"bffda7a0-b393-4d53-9423-ad609346c252","system_id":"levelo_inurba_marseille","lat":43.28671,"lon":5.39039,"is_reserved":false,"is_disabled":false,"rental_uris":{"android":"levelo://app?vid=bffda7a0-b393-4d53-9423-ad609346c252","ios":"levelo://app?vid=bffda7a0-b393-4d53-9423-ad609346c252"},"vehicle_type_id":"4","last_reported":1750954419,"current_range_meters":14400,"station_id":"","pricing_plan_id":"cebpf4jnsgd1na2vs0mg"},{"bike_id":"d2541864-294e-4fa8-8ed4-da3902bb58d5","system_id":"levelo_inurba_marseille","lat":43.22932,"lon":5.35374,"is_reserved":false,"is_disabled":false,"rental_uris":{"android":"levelo://app?vid=d2541864-294e-4fa8-8ed4-da3902bb58d5","ios":"levelo://app?vid=d2541864-294e-4fa8-8ed4-da3902bb58d5"},"vehicle_type_id":"4","last_reported":1750954419,"current_range_meters":14400,"station_id":"cpo3532slgdg3j2ikp40","pricing_plan_id":"cebpf4jnsgd1na2vs0mg"},{"bike_id":"fd4a43c3-b2ac-4e28-8cec-b0d850bbaf4f","system_id":"levelo_inurba_marseille","lat":43.282616,"lon":5.350552,"is_reserved":false,"is_disabled":false,"rental_uris":{"android":"levelo://app?vid=fd4a43c3-b2ac-4e28-8cec-b0d850bbaf4f","ios":"levelo://app?vid=fd4a43c3-b2ac-4e28-8cec-b0d850bbaf4f"},"vehicle_type_id":"4","last_reported":1750954419,"current_range_meters":14800,"station_id":"","pricing_plan_id":"cebpf4jnsgd1na2vs0mg"},{"bike_id":"93228bf2-fa14-4f6d-8361-d65afbf34fed","system_id":"levelo_inurba_marseille","lat":43.282703,"lon":5.350586,"is_reserved":false,"is_disabled":false,"rental_uris":{"android":"levelo://app?vid=93228bf2-fa14-4f6d-8361-d65afbf34fed","ios":"levelo://app?vid=93228bf2-fa14-4f6d-8361-d65afbf34fed"},"vehicle_type_id":"4","last_reported":1750954419,"current_range_meters":14800,"station_id":"","pricing_plan_id":"cebpf4jnsgd1na2vs0mg"},{"bike_id":"d288e39d-247f-41bd-912f-845858f0a9f7","system_id":"levelo_inurba_marseille","lat":43.28927,"lon":5.383987,"is_reserved":false,"is_disabled":false,"rental_uris":{"android":"levelo://app?vid=d288e39d-247f-41bd-912f-845858f0a9f7","ios":"levelo://app?vid=d288e39d-247f-41bd-912f-845858f0a9f7"},"vehicle_type_id":"4","last_reported":1750954419,"current_range_meters":14800,"station_id":"","pricing_plan_id":"cebpf4jnsgd1na2vs0mg"},{"bike_id":"556dccec-0f45-4f44-9dc4-2cab879ff7ac","system_id":"levelo_inurba_marseille","lat":43.28031,"lon":5.36946,"is_reserved":false,"is_disabled":false,"rental_uris":{"android":"levelo://app?vid=556dccec-0f45-4f44-9dc4-2cab879ff7ac","ios":"levelo://app?vid=556dccec-0f45-4f44-9dc4-2cab879ff7ac"},"vehicle_type_id":"4","last_reported":1750954419,"current_range_meters":14800,"station_id":"ce4bha12rcd13ifvqef0","pricing_plan_id":"cebpf4jnsgd1na2vs0mg"},{"bike_id":"a569da79-0489-4883-a156-0e7e0c642f4d","system_id":"levelo_inurba_marseille","lat":43.28269,"lon":5.35083,"is_reserved":false,"is_disabled":false,"rental_uris":{"android":"levelo://app?vid=a569da79-0489-4883-a156-0e7e0c642f4d","ios":"levelo://app?vid=a569da79-0489-4883-a156-0e7e0c642f4d"},"vehicle_type_id":"4","last_reported":1750954419,"current_range_meters":14800,"station_id":"ce4bhbp2rcd13ifvqerg","pricing_plan_id":"cebpf4jnsgd1na2vs0mg"},{"bike_id":"215a31c0-4db0-4f34-9e3b-9886fde09f01","system_id":"levelo_inurba_marseille","lat":43.26209,"lon":5.37437,"is_reserved":false,"is_disabled":false,"rental_uris":{"android":"levelo://app?vid=215a31c0-4db0-4f34-9e3b-9886fde09f01","ios":"levelo://app?vid=215a31c0-4db0-4f34-9e3b-9886fde09f01"},"vehicle_type_id":"4","last_reported":1750954419,"current_range_meters":14800,"station_id":"ce4bhgp2rcd13ifvqfc0","pricing_plan_id":"cebpf4jnsgd1na2vs0mg"},{"bike_id":"699bf241-2bf4-4b54-8205-654526915b4a","system_id":"levelo_inurba_marseille","lat":43.240808,"lon":5.378062,"is_reserved":false,"is_disabled":false,"rental_uris":{"android":"levelo://app?vid=699bf241-2bf4-4b54-8205-654526915b4a","ios":"levelo://app?vid=699bf241-2bf4-4b54-8205-654526915b4a"},"vehicle_type_id":"4","last_reported":1750954419,"current_range_meters":15200,"station_id":"","pricing_plan_id":"cebpf4jnsgd1na2vs0mg"},{"bike_id":"33ff2acc-5b55-48de-9529-81b3c60dbff0","system_id":"levelo_inurba_marseille","lat":43.30906,"lon":5.373,"is_reserved":false,"is_disabled":false,"rental_uris":{"android":"levelo://app?vid=33ff2acc-5b55-48de-9529-81b3c60dbff0","ios":"levelo://app?vid=33ff2acc-5b55-48de-9529-81b3c60dbff0"},"vehicle_type_id":"4","last_reported":1750954419,"current_range_meters":15200,"station_id":"","pricing_plan_id":"cebpf4jnsgd1na2vs0mg"},{"bike_id":"410ba8b9-ed10-4e17-9ecd-4a1723bca903","system_id":"levelo_inurba_marseille","lat":43.28718,"lon":5.37945,"is_reserved":false,"is_disabled":false,"rental_uris":{"android":"levelo://app?vid=410ba8b9-ed10-4e17-9ecd-4a1723bca903","ios":"levelo://app?vid=410ba8b9-ed10-4e17-9ecd-4a1723bca903"},"vehicle_type_id":"4","last_reported":1750954419,"current_range_meters":15200,"station_id":"ce4bh9p2rcd13ifvqec0","pricing_plan_id":"cebpf4jnsgd1na2vs0mg"},{"bike_id":"fbc21918-e934-4498-8849-9b15a1d590bf","system_id":"levelo_inurba_marseille","lat":43.282618,"lon":5.350631,"is_reserved":false,"is_disabled":false,"rental_uris":{"android":"levelo://app?vid=fbc21918-e934-4498-8849-9b15a1d590bf","ios":"levelo://app?vid=fbc21918-e934-4498-8849-9b15a1d590bf"},"vehicle_type_id":"4","last_reported":1750954419,"current_range_meters":15200,"station_id":"ce4bhbp2rcd13ifvqerg","pricing_plan_id":"cebpf4jnsgd1na2vs0mg"},{"bike_id":"069769d6-ff22-4af5-b365-c4988cb7ba67","system_id":"levelo_inurba_marseille","lat":43.28631,"lon":5.35095,"is_reserved":false,"is_disabled":false,"rental_uris":{"android":"levelo://app?vid=069769d6-ff22-4af5-b365-c4988cb7ba67","ios":"levelo://app?vid=069769d6-ff22-4af5-b365-c4988cb7ba67"},"vehicle_type_id":"4","last_reported":1750954419,"current_range_meters":15200,"station_id":"ce4bhch2rcd13ifvqeug","pricing_plan_id":"cebpf4jnsgd1na2vs0mg"},{"bike_id":"2780b8c0-64f5-439b-a450-c62c0b90ed5f","system_id":"levelo_inurba_marseille","lat":43.22946,"lon":5.35385,"is_reserved":false,"is_disabled":false,"rental_uris":{"android":"levelo://app?vid=2780b8c0-64f5-439b-a450-c62c0b90ed5f","ios":"levelo://app?vid=2780b8c0-64f5-439b-a450-c62c0b90ed5f"},"vehicle_type_id":"4","last_reported":1750954419,"current_range_meters":15200,"station_id":"cpo3532slgdg3j2ikp40","pricing_plan_id":"cebpf4jnsgd1na2vs0mg"},{"bike_id":"dd150fcb-bb71-4369-a6fa-e7147de17916","system_id":"levelo_inurba_marseille","lat":43.22934,"lon":5.35373,"is_reserved":false,"is_disabled":false,"rental_uris":{"android":"levelo://app?vid=dd150fcb-bb71-4369-a6fa-e7147de17916","ios":"levelo://app?vid=dd150fcb-bb71-4369-a6fa-e7147de17916"},"vehicle_type_id":"4","last_reported":1750954419,"current_range_meters":15200,"station_id":"cpo3532slgdg3j2ikp40","pricing_plan_id":"cebpf4jnsgd1na2vs0mg"},{"bike_id":"3675c364-44b8-4d90-b7d6-eb217ac9cb50","system_id":"levelo_inurba_marseille","lat":43.31261,"lon":5.40172,"is_reserved":false,"is_disabled":false,"rental_uris":{"android":"levelo://app?vid=3675c364-44b8-4d90-b7d6-eb217ac9cb50","ios":"levelo://app?vid=3675c364-44b8-4d90-b7d6-eb217ac9cb50"},"vehicle_type_id":"4","last_reported":1750954419,"current_range_meters":16000,"station_id":"ce4bh092rcd13ifvqd30","pricing_plan_id":"cebpf4jnsgd1na2vs0mg"},{"bike_id":"7a6d7990-86a0-44ed-9847-a3f1e456c5af","system_id":"levelo_inurba_marseille","lat":43.28421,"lon":5.35011,"is_reserved":false,"is_disabled":false,"rental_uris":{"android":"levelo://app?vid=7a6d7990-86a0-44ed-9847-a3f1e456c5af","ios":"levelo://app?vid=7a6d7990-86a0-44ed-9847-a3f1e456c5af"},"vehicle_type_id":"4","last_reported":1750954419,"current_range_meters":16000,"station_id":"ce4bhbh2rcd13ifvqepg","pricing_plan_id":"cebpf4jnsgd1na2vs0mg"},{"bike_id":"8f243a9a-2870-4b63-a09d-6c83314a09d6","system_id":"levelo_inurba_marseille","lat":43.28619,"lon":5.35109,"is_reserved":false,"is_disabled":false,"rental_uris":{"android":"levelo://app?vid=8f243a9a-2870-4b63-a09d-6c83314a09d6","ios":"levelo://app?vid=8f243a9a-2870-4b63-a09d-6c83314a09d6"},"vehicle_type_id":"4","last_reported":1750954419,"current_range_meters":16000,"station_id":"ce4bhch2rcd13ifvqeug","pricing_plan_id":"cebpf4jnsgd1na2vs0mg"},{"bike_id":"1da34efb-8ed8-4ec9-9b0f-5e4f9d0e2e52","system_id":"levelo_inurba_marseille","lat":43.27919,"lon":5.39578,"is_reserved":false,"is_disabled":false,"rental_uris":{"android":"levelo://app?vid=1da34efb-8ed8-4ec9-9b0f-5e4f9d0e2e52","ios":"levelo://app?vid=1da34efb-8ed8-4ec9-9b0f-5e4f9d0e2e52"},"vehicle_type_id":"4","last_reported":1750954419,"current_range_meters":16000,"station_id":"ce4bhf92rcd13ifvqf40","pricing_plan_id":"cebpf4jnsgd1na2vs0mg"},{"bike_id":"1d9c6aa6-5deb-4e4d-8434-d4603c6ec7bd","system_id":"levelo_inurba_marseille","lat":43.23957,"lon":5.36638,"is_reserved":false,"is_disabled":false,"rental_uris":{"android":"levelo://app?vid=1d9c6aa6-5deb-4e4d-8434-d4603c6ec7bd","ios":"levelo://app?vid=1d9c6aa6-5deb-4e4d-8434-d4603c6ec7bd"},"vehicle_type_id":"4","last_reported":1750954419,"current_range_meters":16000,"station_id":"ce4bhi12rcd13ifvqfp0","pricing_plan_id":"cebpf4jnsgd1na2vs0mg"},{"bike_id":"ab875138-c754-4b3b-82d7-2da5a11b45cf","system_id":"levelo_inurba_marseille","lat":43.21744,"lon":5.34603,"is_reserved":false,"is_disabled":false,"rental_uris":{"android":"levelo://app?vid=ab875138-c754-4b3b-82d7-2da5a11b45cf","ios":"levelo://app?vid=ab875138-c754-4b3b-82d7-2da5a11b45cf"},"vehicle_type_id":"4","last_reported":1750954419,"current_range_meters":16000,"station_id":"st_cvj6r9ubvosntc0bgbag","pricing_plan_id":"cebpf4jnsgd1na2vs0mg"},{"bike_id":"d9cd390b-6824-4b80-9037-8f70b4b0d10b","system_id":"levelo_inurba_marseille","lat":43.29515,"lon":5.37488,"is_reserved":false,"is_disabled":false,"rental_uris":{"android":"levelo://app?vid=d9cd390b-6824-4b80-9037-8f70b4b0d10b","ios":"levelo://app?vid=d9cd390b-6824-4b80-9037-8f70b4b0d10b"},"vehicle_type_id":"4","last_reported":1750954419,"current_range_meters":16400,"station_id":"ce4bgkp2rcd13ifvqbmg","pricing_plan_id":"cebpf4jnsgd1na2vs0mg"},{"bike_id":"520b2c46-2bf1-4fd2-9fca-b32997429572","system_id":"levelo_inurba_marseille","lat":43.28409,"lon":5.34989,"is_reserved":false,"is_disabled":false,"rental_uris":{"android":"levelo://app?vid=520b2c46-2bf1-4fd2-9fca-b32997429572","ios":"levelo://app?vid=520b2c46-2bf1-4fd2-9fca-b32997429572"},"vehicle_type_id":"4","last_reported":1750954419,"current_range_meters":16400,"station_id":"ce4bhbh2rcd13ifvqepg","pricing_plan_id":"cebpf4jnsgd1na2vs0mg"},{"bike_id":"00dd56d8-e1b2-4672-bc22-05410cbb86ff","system_id":"levelo_inurba_marseille","lat":43.28275,"lon":5.35068,"is_reserved":false,"is_disabled":false,"rental_uris":{"android":"levelo://app?vid=00dd56d8-e1b2-4672-bc22-05410cbb86ff","ios":"levelo://app?vid=00dd56d8-e1b2-4672-bc22-05410cbb86ff"},"vehicle_type_id":"4","last_reported":1750954419,"current_range_meters":16400,"station_id":"ce4bhbp2rcd13ifvqerg","pricing_plan_id":"cebpf4jnsgd1na2vs0mg"},{"bike_id":"2ad8c985-d1ec-4ce0-85b0-a2f74863b534","system_id":"levelo_inurba_marseille","lat":43.262211,"lon":5.374372,"is_reserved":false,"is_disabled":false,"rental_uris":{"android":"levelo://app?vid=2ad8c985-d1ec-4ce0-85b0-a2f74863b534","ios":"levelo://app?vid=2ad8c985-d1ec-4ce0-85b0-a2f74863b534"},"vehicle_type_id":"4","last_reported":1750954419,"current_range_meters":16400,"station_id":"ce4bhgp2rcd13ifvqfc0","pricing_plan_id":"cebpf4jnsgd1na2vs0mg"},{"bike_id":"0888cab8-d7cf-4f4a-80ba-e27525df4df3","system_id":"levelo_inurba_marseille","lat":43.24069,"lon":5.37759,"is_reserved":false,"is_disabled":false,"rental_uris":{"android":"levelo://app?vid=0888cab8-d7cf-4f4a-80ba-e27525df4df3","ios":"levelo://app?vid=0888cab8-d7cf-4f4a-80ba-e27525df4df3"},"vehicle_type_id":"4","last_reported":1750954419,"current_range_meters":16400,"station_id":"ce4bhnp2rcd13ifvqgvg","pricing_plan_id":"cebpf4jnsgd1na2vs0mg"},{"bike_id":"348936c8-7c8d-4b8a-988e-b0a979920804","system_id":"levelo_inurba_marseille","lat":43.21187,"lon":5.35082,"is_reserved":false,"is_disabled":false,"rental_uris":{"android":"levelo://app?vid=348936c8-7c8d-4b8a-988e-b0a979920804","ios":"levelo://app?vid=348936c8-7c8d-4b8a-988e-b0a979920804"},"vehicle_type_id":"4","last_reported":1750954419,"current_range_meters":16400,"station_id":"st_cvj6sg6p6f1abm77japg","pricing_plan_id":"cebpf4jnsgd1na2vs0mg"},{"bike_id":"1d55f66e-dd62-48de-89a1-6b40fd865f1e","system_id":"levelo_inurba_marseille","lat":43.26204,"lon":5.37451,"is_reserved":false,"is_disabled":false,"rental_uris":{"android":"levelo://app?vid=1d55f66e-dd62-48de-89a1-6b40fd865f1e","ios":"levelo://app?vid=1d55f66e-dd62-48de-89a1-6b40fd865f1e"},"vehicle_type_id":"4","last_reported":1750954419,"current_range_meters":16800,"station_id":"ce4bhgp2rcd13ifvqfc0","pricing_plan_id":"cebpf4jnsgd1na2vs0mg"},{"bike_id":"f1ff4f78-6d1b-435f-8777-a24085f5b111","system_id":"levelo_inurba_marseille","lat":43.23183,"lon":5.35571,"is_reserved":false,"is_disabled":false,"rental_uris":{"android":"levelo://app?vid=f1ff4f78-6d1b-435f-8777-a24085f5b111","ios":"levelo://app?vid=f1ff4f78-6d1b-435f-8777-a24085f5b111"},"vehicle_type_id":"4","last_reported":1750954419,"current_range_meters":16800,"station_id":"ce4bhu92rcd13ifvqi70","pricing_plan_id":"cebpf4jnsgd1na2vs0mg"},{"bike_id":"56b6ebb9-e050-475a-bce8-6c9a6dcc2a70","system_id":"levelo_inurba_marseille","lat":43.21762,"lon":5.34533,"is_reserved":false,"is_disabled":false,"rental_uris":{"android":"levelo://app?vid=56b6ebb9-e050-475a-bce8-6c9a6dcc2a70","ios":"levelo://app?vid=56b6ebb9-e050-475a-bce8-6c9a6dcc2a70"},"vehicle_type_id":"4","last_reported":1750954419,"current_range_meters":17200,"station_id":"","pricing_plan_id":"cebpf4jnsgd1na2vs0mg"},{"bike_id":"267c6a25-7e47-4c01-b4ef-ca911ac39d33","system_id":"levelo_inurba_marseille","lat":43.29863,"lon":5.37648,"is_reserved":false,"is_disabled":false,"rental_uris":{"android":"levelo://app?vid=267c6a25-7e47-4c01-b4ef-ca911ac39d33","ios":"levelo://app?vid=267c6a25-7e47-4c01-b4ef-ca911ac39d33"},"vehicle_type_id":"4","last_reported":1750954419,"current_range_meters":17200,"station_id":"","pricing_plan_id":"cebpf4jnsgd1na2vs0mg"},{"bike_id":"9f355d63-90eb-4c58-8920-66e7e515e4f0","system_id":"levelo_inurba_marseille","lat":43.30149,"lon":5.3808,"is_reserved":false,"is_disabled":false,"rental_uris":{"android":"levelo://app?vid=9f355d63-90eb-4c58-8920-66e7e515e4f0","ios":"levelo://app?vid=9f355d63-90eb-4c58-8920-66e7e515e4f0"},"vehicle_type_id":"4","last_reported":1750954419,"current_range_meters":17200,"station_id":"ce4bgjp2rcd13ifvqbh0","pricing_plan_id":"cebpf4jnsgd1na2vs0mg"},{"bike_id":"4140af8e-f56a-43bc-ad17-15d420fc0abe","system_id":"levelo_inurba_marseille","lat":43.30125,"lon":5.39838,"is_reserved":false,"is_disabled":false,"rental_uris":{"android":"levelo://app?vid=4140af8e-f56a-43bc-ad17-15d420fc0abe","ios":"levelo://app?vid=4140af8e-f56a-43bc-ad17-15d420fc0abe"},"vehicle_type_id":"4","last_reported":1750954419,"current_range_meters":17200,"station_id":"ce4bh0h2rcd13ifvqd40","pricing_plan_id":"cebpf4jnsgd1na2vs0mg"},{"bike_id":"a670c232-602f-4de4-b4ed-4c22f0a7bbe5","system_id":"levelo_inurba_marseille","lat":43.262074,"lon":5.37446,"is_reserved":false,"is_disabled":false,"rental_uris":{"android":"levelo://app?vid=a670c232-602f-4de4-b4ed-4c22f0a7bbe5","ios":"levelo://app?vid=a670c232-602f-4de4-b4ed-4c22f0a7bbe5"},"vehicle_type_id":"4","last_reported":1750954419,"current_range_meters":17200,"station_id":"ce4bhgp2rcd13ifvqfc0","pricing_plan_id":"cebpf4jnsgd1na2vs0mg"},{"bike_id":"02f9ef03-5487-4eaf-936d-44039451fd6e","system_id":"levelo_inurba_marseille","lat":43.27379,"lon":5.36256,"is_reserved":false,"is_disabled":false,"rental_uris":{"android":"levelo://app?vid=02f9ef03-5487-4eaf-936d-44039451fd6e","ios":"levelo://app?vid=02f9ef03-5487-4eaf-936d-44039451fd6e"},"vehicle_type_id":"4","last_reported":1750954419,"current_range_meters":17600,"station_id":"ce4bhbh2rcd13ifvqeo0","pricing_plan_id":"cebpf4jnsgd1na2vs0mg"},{"bike_id":"c65c7bf3-5825-4298-ac27-d84f6583e13b","system_id":"levelo_inurba_marseille","lat":43.28443,"lon":5.34995,"is_reserved":false,"is_disabled":false,"rental_uris":{"android":"levelo://app?vid=c65c7bf3-5825-4298-ac27-d84f6583e13b","ios":"levelo://app?vid=c65c7bf3-5825-4298-ac27-d84f6583e13b"},"vehicle_type_id":"4","last_reported":1750954419,"current_range_meters":17600,"station_id":"ce4bhbh2rcd13ifvqepg","pricing_plan_id":"cebpf4jnsgd1na2vs0mg"},{"bike_id":"de9bfc90-1ea1-4e7a-a64b-3acd74367471","system_id":"levelo_inurba_marseille","lat":43.2842,"lon":5.34986,"is_reserved":false,"is_disabled":false,"rental_uris":{"android":"levelo://app?vid=de9bfc90-1ea1-4e7a-a64b-3acd74367471","ios":"levelo://app?vid=de9bfc90-1ea1-4e7a-a64b-3acd74367471"},"vehicle_type_id":"4","last_reported":1750954419,"current_range_meters":17600,"station_id":"ce4bhbh2rcd13ifvqepg","pricing_plan_id":"cebpf4jnsgd1na2vs0mg"},{"bike_id":"c9635733-c526-43dc-906b-ca6913b205f2","system_id":"levelo_inurba_marseille","lat":43.28267,"lon":5.35078,"is_reserved":false,"is_disabled":false,"rental_uris":{"android":"levelo://app?vid=c9635733-c526-43dc-906b-ca6913b205f2","ios":"levelo://app?vid=c9635733-c526-43dc-906b-ca6913b205f2"},"vehicle_type_id":"4","last_reported":1750954419,"current_range_meters":17600,"station_id":"ce4bhbp2rcd13ifvqerg","pricing_plan_id":"cebpf4jnsgd1na2vs0mg"},{"bike_id":"2f5f353a-db01-4e4c-b45d-7673fc3d4015","system_id":"levelo_inurba_marseille","lat":43.26188,"lon":5.374477,"is_reserved":false,"is_disabled":false,"rental_uris":{"android":"levelo://app?vid=2f5f353a-db01-4e4c-b45d-7673fc3d4015","ios":"levelo://app?vid=2f5f353a-db01-4e4c-b45d-7673fc3d4015"},"vehicle_type_id":"4","last_reported":1750954419,"current_range_meters":17600,"station_id":"ce4bhgp2rcd13ifvqfc0","pricing_plan_id":"cebpf4jnsgd1na2vs0mg"},{"bike_id":"163a5cb6-adba-459d-8d64-a4ea6d58c1bb","system_id":"levelo_inurba_marseille","lat":43.24166,"lon":5.36393,"is_reserved":false,"is_disabled":false,"rental_uris":{"android":"levelo://app?vid=163a5cb6-adba-459d-8d64-a4ea6d58c1bb","ios":"levelo://app?vid=163a5cb6-adba-459d-8d64-a4ea6d58c1bb"},"vehicle_type_id":"4","last_reported":1750954419,"current_range_meters":17600,"station_id":"cpo36qri1sfpv3e86is0","pricing_plan_id":"cebpf4jnsgd1na2vs0mg"},{"bike_id":"d565ec36-c103-42db-b30a-02c479395322","system_id":"levelo_inurba_marseille","lat":43.29597,"lon":5.42515,"is_reserved":false,"is_disabled":false,"rental_uris":{"android":"levelo://app?vid=d565ec36-c103-42db-b30a-02c479395322","ios":"levelo://app?vid=d565ec36-c103-42db-b30a-02c479395322"},"vehicle_type_id":"4","last_reported":1750954419,"current_range_meters":18000,"station_id":"","pricing_plan_id":"cebpf4jnsgd1na2vs0mg"},{"bike_id":"c41c5ed2-478a-4957-be7b-2c701f43e005","system_id":"levelo_inurba_marseille","lat":43.300965,"lon":5.391354,"is_reserved":false,"is_disabled":false,"rental_uris":{"android":"levelo://app?vid=c41c5ed2-478a-4957-be7b-2c701f43e005","ios":"levelo://app?vid=c41c5ed2-478a-4957-be7b-2c701f43e005"},"vehicle_type_id":"4","last_reported":1750954419,"current_range_meters":18000,"station_id":"ce4bh192rcd13ifvqdb0","pricing_plan_id":"cebpf4jnsgd1na2vs0mg"},{"bike_id":"8d78bf36-f1c3-41a4-95fd-e6d4a1c1d57c","system_id":"levelo_inurba_marseille","lat":43.2841,"lon":5.34993,"is_reserved":false,"is_disabled":false,"rental_uris":{"android":"levelo://app?vid=8d78bf36-f1c3-41a4-95fd-e6d4a1c1d57c","ios":"levelo://app?vid=8d78bf36-f1c3-41a4-95fd-e6d4a1c1d57c"},"vehicle_type_id":"4","last_reported":1750954419,"current_range_meters":18000,"station_id":"ce4bhbh2rcd13ifvqepg","pricing_plan_id":"cebpf4jnsgd1na2vs0mg"},{"bike_id":"e9a35c09-cfff-4cd4-800a-a859fcd116d2","system_id":"levelo_inurba_marseille","lat":43.28292,"lon":5.35082,"is_reserved":false,"is_disabled":false,"rental_uris":{"android":"levelo://app?vid=e9a35c09-cfff-4cd4-800a-a859fcd116d2","ios":"levelo://app?vid=e9a35c09-cfff-4cd4-800a-a859fcd116d2"},"vehicle_type_id":"4","last_reported":1750954419,"current_range_meters":18000,"station_id":"ce4bhbp2rcd13ifvqerg","pricing_plan_id":"cebpf4jnsgd1na2vs0mg"},{"bike_id":"40b19a43-7568-4070-8cfa-6d78b27578ba","system_id":"levelo_inurba_marseille","lat":43.254751,"lon":5.3765,"is_reserved":false,"is_disabled":false,"rental_uris":{"android":"levelo://app?vid=40b19a43-7568-4070-8cfa-6d78b27578ba","ios":"levelo://app?vid=40b19a43-7568-4070-8cfa-6d78b27578ba"},"vehicle_type_id":"4","last_reported":1750954419,"current_range_meters":18000,"station_id":"ce4bhh12rcd13ifvqff0","pricing_plan_id":"cebpf4jnsgd1na2vs0mg"},{"bike_id":"e9be96af-dab1-4335-aee6-b3386f57dfd9","system_id":"levelo_inurba_marseille","lat":43.23182,"lon":5.39976,"is_reserved":false,"is_disabled":false,"rental_uris":{"android":"levelo://app?vid=e9be96af-dab1-4335-aee6-b3386f57dfd9","ios":"levelo://app?vid=e9be96af-dab1-4335-aee6-b3386f57dfd9"},"vehicle_type_id":"4","last_reported":1750954419,"current_range_meters":18000,"station_id":"ce4bhn12rcd13ifvqgqg","pricing_plan_id":"cebpf4jnsgd1na2vs0mg"},{"bike_id":"86e429ed-dc8c-4b0b-8fce-b8315022d867","system_id":"levelo_inurba_marseille","lat":43.2749,"lon":5.4247,"is_reserved":false,"is_disabled":false,"rental_uris":{"android":"levelo://app?vid=86e429ed-dc8c-4b0b-8fce-b8315022d867","ios":"levelo://app?vid=86e429ed-dc8c-4b0b-8fce-b8315022d867"},"vehicle_type_id":"4","last_reported":1750954419,"current_range_meters":18000,"station_id":"ce4bhn92rcd13ifvqgrg","pricing_plan_id":"cebpf4jnsgd1na2vs0mg"},{"bike_id":"2cefe4c4-7926-46e5-9eb5-dc374030f814","system_id":"levelo_inurba_marseille","lat":43.21791,"lon":5.34554,"is_reserved":false,"is_disabled":false,"rental_uris":{"android":"levelo://app?vid=2cefe4c4-7926-46e5-9eb5-dc374030f814","ios":"levelo://app?vid=2cefe4c4-7926-46e5-9eb5-dc374030f814"},"vehicle_type_id":"4","last_reported":1750954419,"current_range_meters":18000,"station_id":"st_cvj6r9ubvosntc0bgbag","pricing_plan_id":"cebpf4jnsgd1na2vs0mg"},{"bike_id":"9d043ca6-e9d3-4bf0-a898-473de0644f93","system_id":"levelo_inurba_marseille","lat":43.21186,"lon":5.35065,"is_reserved":false,"is_disabled":false,"rental_uris":{"android":"levelo://app?vid=9d043ca6-e9d3-4bf0-a898-473de0644f93","ios":"levelo://app?vid=9d043ca6-e9d3-4bf0-a898-473de0644f93"},"vehicle_type_id":"4","last_reported":1750954419,"current_range_meters":18000,"station_id":"st_cvj6sg6p6f1abm77japg","pricing_plan_id":"cebpf4jnsgd1na2vs0mg"},{"bike_id":"87a67ae7-a5fc-4ca3-9d06-f3e42c54d7a3","system_id":"levelo_inurba_marseille","lat":43.282612,"lon":5.35072,"is_reserved":false,"is_disabled":false,"rental_uris":{"android":"levelo://app?vid=87a67ae7-a5fc-4ca3-9d06-f3e42c54d7a3","ios":"levelo://app?vid=87a67ae7-a5fc-4ca3-9d06-f3e42c54d7a3"},"vehicle_type_id":"4","last_reported":1750954419,"current_range_meters":18800,"station_id":"","pricing_plan_id":"cebpf4jnsgd1na2vs0mg"},{"bike_id":"390f06cf-4062-4f18-a3f7-33b865905733","system_id":"levelo_inurba_marseille","lat":43.250004,"lon":5.389368,"is_reserved":false,"is_disabled":false,"rental_uris":{"android":"levelo://app?vid=390f06cf-4062-4f18-a3f7-33b865905733","ios":"levelo://app?vid=390f06cf-4062-4f18-a3f7-33b865905733"},"vehicle_type_id":"4","last_reported":1750954419,"current_range_meters":18800,"station_id":"","pricing_plan_id":"cebpf4jnsgd1na2vs0mg"},{"bike_id":"a788843a-f92b-48da-8330-c14b3fe86254","system_id":"levelo_inurba_marseille","lat":43.28413,"lon":5.34974,"is_reserved":false,"is_disabled":false,"rental_uris":{"android":"levelo://app?vid=a788843a-f92b-48da-8330-c14b3fe86254","ios":"levelo://app?vid=a788843a-f92b-48da-8330-c14b3fe86254"},"vehicle_type_id":"4","last_reported":1750954419,"current_range_meters":18800,"station_id":"ce4bhbh2rcd13ifvqepg","pricing_plan_id":"cebpf4jnsgd1na2vs0mg"},{"bike_id":"ea9ac434-f5f0-463f-869d-742629fb9516","system_id":"levelo_inurba_marseille","lat":43.28266,"lon":5.35074,"is_reserved":false,"is_disabled":false,"rental_uris":{"android":"levelo://app?vid=ea9ac434-f5f0-463f-869d-742629fb9516","ios":"levelo://app?vid=ea9ac434-f5f0-463f-869d-742629fb9516"},"vehicle_type_id":"4","last_reported":1750954419,"current_range_meters":18800,"station_id":"ce4bhbp2rcd13ifvqerg","pricing_plan_id":"cebpf4jnsgd1na2vs0mg"},{"bike_id":"99dd48fd-b09e-4b76-b957-04244b2c9e97","system_id":"levelo_inurba_marseille","lat":43.28625,"lon":5.35094,"is_reserved":false,"is_disabled":false,"rental_uris":{"android":"levelo://app?vid=99dd48fd-b09e-4b76-b957-04244b2c9e97","ios":"levelo://app?vid=99dd48fd-b09e-4b76-b957-04244b2c9e97"},"vehicle_type_id":"4","last_reported":1750954419,"current_range_meters":18800,"station_id":"ce4bhch2rcd13ifvqeug","pricing_plan_id":"cebpf4jnsgd1na2vs0mg"},{"bike_id":"fbb8b41f-a3a6-49f0-9531-d2e8828e0724","system_id":"levelo_inurba_marseille","lat":43.24809,"lon":5.37458,"is_reserved":false,"is_disabled":false,"rental_uris":{"android":"levelo://app?vid=fbb8b41f-a3a6-49f0-9531-d2e8828e0724","ios":"levelo://app?vid=fbb8b41f-a3a6-49f0-9531-d2e8828e0724"},"vehicle_type_id":"4","last_reported":1750954419,"current_range_meters":18800,"station_id":"ce4bhgh2rcd13ifvqfb0","pricing_plan_id":"cebpf4jnsgd1na2vs0mg"},{"bike_id":"9d8c196d-82ac-45f6-892b-c9baada56e67","system_id":"levelo_inurba_marseille","lat":43.23188,"lon":5.3556,"is_reserved":false,"is_disabled":false,"rental_uris":{"android":"levelo://app?vid=9d8c196d-82ac-45f6-892b-c9baada56e67","ios":"levelo://app?vid=9d8c196d-82ac-45f6-892b-c9baada56e67"},"vehicle_type_id":"4","last_reported":1750954419,"current_range_meters":18800,"station_id":"ce4bhu92rcd13ifvqi70","pricing_plan_id":"cebpf4jnsgd1na2vs0mg"},{"bike_id":"904141fe-9e98-4493-afb6-75ac795528cf","system_id":"levelo_inurba_marseille","lat":43.217465,"lon":5.346108,"is_reserved":false,"is_disabled":false,"rental_uris":{"android":"levelo://app?vid=904141fe-9e98-4493-afb6-75ac795528cf","ios":"levelo://app?vid=904141fe-9e98-4493-afb6-75ac795528cf"},"vehicle_type_id":"4","last_reported":1750954419,"current_range_meters":18800,"station_id":"st_cvj6r9ubvosntc0bgbag","pricing_plan_id":"cebpf4jnsgd1na2vs0mg"},{"bike_id":"9a1f0e7d-ca49-4ed3-b199-274ca3fc3afe","system_id":"levelo_inurba_marseille","lat":43.27616,"lon":5.36117,"is_reserved":false,"is_disabled":false,"rental_uris":{"android":"levelo://app?vid=9a1f0e7d-ca49-4ed3-b199-274ca3fc3afe","ios":"levelo://app?vid=9a1f0e7d-ca49-4ed3-b199-274ca3fc3afe"},"vehicle_type_id":"4","last_reported":1750954419,"current_range_meters":19200,"station_id":"ce4bgj92rcd13ifvqbe0","pricing_plan_id":"cebpf4jnsgd1na2vs0mg"},{"bike_id":"d366d2a4-4f63-4bba-ae14-fa2f436823e3","system_id":"levelo_inurba_marseille","lat":43.31707,"lon":5.37743,"is_reserved":false,"is_disabled":false,"rental_uris":{"android":"levelo://app?vid=d366d2a4-4f63-4bba-ae14-fa2f436823e3","ios":"levelo://app?vid=d366d2a4-4f63-4bba-ae14-fa2f436823e3"},"vehicle_type_id":"4","last_reported":1750954419,"current_range_meters":19200,"station_id":"ce4bgth2rcd13ifvqch0","pricing_plan_id":"cebpf4jnsgd1na2vs0mg"},{"bike_id":"38da09bc-ef54-4ed2-a831-041c55df07e1","system_id":"levelo_inurba_marseille","lat":43.29522,"lon":5.39042,"is_reserved":false,"is_disabled":false,"rental_uris":{"android":"levelo://app?vid=38da09bc-ef54-4ed2-a831-041c55df07e1","ios":"levelo://app?vid=38da09bc-ef54-4ed2-a831-041c55df07e1"},"vehicle_type_id":"4","last_reported":1750954419,"current_range_meters":19200,"station_id":"ce4bh3p2rcd13ifvqdp0","pricing_plan_id":"cebpf4jnsgd1na2vs0mg"},{"bike_id":"81592f15-6026-468e-89ef-5174abc5da6f","system_id":"levelo_inurba_marseille","lat":43.23957,"lon":5.3664,"is_reserved":false,"is_disabled":false,"rental_uris":{"android":"levelo://app?vid=81592f15-6026-468e-89ef-5174abc5da6f","ios":"levelo://app?vid=81592f15-6026-468e-89ef-5174abc5da6f"},"vehicle_type_id":"4","last_reported":1750954419,"current_range_meters":19200,"station_id":"ce4bhi12rcd13ifvqfp0","pricing_plan_id":"cebpf4jnsgd1na2vs0mg"},{"bike_id":"5d4e8d83-41be-493f-98ec-37d4ba08767b","system_id":"levelo_inurba_marseille","lat":43.28151,"lon":5.42639,"is_reserved":false,"is_disabled":false,"rental_uris":{"android":"levelo://app?vid=5d4e8d83-41be-493f-98ec-37d4ba08767b","ios":"levelo://app?vid=5d4e8d83-41be-493f-98ec-37d4ba08767b"},"vehicle_type_id":"4","last_reported":1750954419,"current_range_meters":19200,"station_id":"ce4bhnh2rcd13ifvqgug","pricing_plan_id":"cebpf4jnsgd1na2vs0mg"},{"bike_id":"9ba863da-1f56-452a-934c-6476bb3b8659","system_id":"levelo_inurba_marseille","lat":43.23203,"lon":5.35571,"is_reserved":false,"is_disabled":false,"rental_uris":{"android":"levelo://app?vid=9ba863da-1f56-452a-934c-6476bb3b8659","ios":"levelo://app?vid=9ba863da-1f56-452a-934c-6476bb3b8659"},"vehicle_type_id":"4","last_reported":1750954419,"current_range_meters":19200,"station_id":"ce4bhu92rcd13ifvqi70","pricing_plan_id":"cebpf4jnsgd1na2vs0mg"},{"bike_id":"f83db3e5-e9b4-42d6-955f-a6c51d1bff22","system_id":"levelo_inurba_marseille","lat":43.24167,"lon":5.36408,"is_reserved":false,"is_disabled":false,"rental_uris":{"android":"levelo://app?vid=f83db3e5-e9b4-42d6-955f-a6c51d1bff22","ios":"levelo://app?vid=f83db3e5-e9b4-42d6-955f-a6c51d1bff22"},"vehicle_type_id":"4","last_reported":1750954419,"current_range_meters":19200,"station_id":"cpo36qri1sfpv3e86is0","pricing_plan_id":"cebpf4jnsgd1na2vs0mg"},{"bike_id":"facfcf93-ab85-4d16-b148-8bc9369e6f17","system_id":"levelo_inurba_marseille","lat":43.21186,"lon":5.3507,"is_reserved":false,"is_disabled":false,"rental_uris":{"android":"levelo://app?vid=facfcf93-ab85-4d16-b148-8bc9369e6f17","ios":"levelo://app?vid=facfcf93-ab85-4d16-b148-8bc9369e6f17"},"vehicle_type_id":"4","last_reported":1750954419,"current_range_meters":19200,"station_id":"st_cvj6sg6p6f1abm77japg","pricing_plan_id":"cebpf4jnsgd1na2vs0mg"},{"bike_id":"1c71de84-1f03-4be4-88bb-9f8e714f384e","system_id":"levelo_inurba_marseille","lat":43.28702,"lon":5.37375,"is_reserved":false,"is_disabled":false,"rental_uris":{"android":"levelo://app?vid=1c71de84-1f03-4be4-88bb-9f8e714f384e","ios":"levelo://app?vid=1c71de84-1f03-4be4-88bb-9f8e714f384e"},"vehicle_type_id":"4","last_reported":1750954419,"current_range_meters":19600,"station_id":"ce4bh3p2rcd13ifvqdq0","pricing_plan_id":"cebpf4jnsgd1na2vs0mg"},{"bike_id":"69802e75-63a3-4e6a-9a70-3d33eb6fd3e4","system_id":"levelo_inurba_marseille","lat":43.27376,"lon":5.3626,"is_reserved":false,"is_disabled":false,"rental_uris":{"android":"levelo://app?vid=69802e75-63a3-4e6a-9a70-3d33eb6fd3e4","ios":"levelo://app?vid=69802e75-63a3-4e6a-9a70-3d33eb6fd3e4"},"vehicle_type_id":"4","last_reported":1750954419,"current_range_meters":19600,"station_id":"ce4bhbh2rcd13ifvqeo0","pricing_plan_id":"cebpf4jnsgd1na2vs0mg"},{"bike_id":"6d437fe2-72e3-47bc-af5b-3a8bfd6b3b7e","system_id":"levelo_inurba_marseille","lat":43.28258,"lon":5.35079,"is_reserved":false,"is_disabled":false,"rental_uris":{"android":"levelo://app?vid=6d437fe2-72e3-47bc-af5b-3a8bfd6b3b7e","ios":"levelo://app?vid=6d437fe2-72e3-47bc-af5b-3a8bfd6b3b7e"},"vehicle_type_id":"4","last_reported":1750954419,"current_range_meters":19600,"station_id":"ce4bhbp2rcd13ifvqerg","pricing_plan_id":"cebpf4jnsgd1na2vs0mg"},{"bike_id":"92e793fc-df15-4f7a-9d88-c584e73eb3f8","system_id":"levelo_inurba_marseille","lat":43.28254,"lon":5.35083,"is_reserved":false,"is_disabled":false,"rental_uris":{"android":"levelo://app?vid=92e793fc-df15-4f7a-9d88-c584e73eb3f8","ios":"levelo://app?vid=92e793fc-df15-4f7a-9d88-c584e73eb3f8"},"vehicle_type_id":"4","last_reported":1750954419,"current_range_meters":19600,"station_id":"ce4bhbp2rcd13ifvqerg","pricing_plan_id":"cebpf4jnsgd1na2vs0mg"},{"bike_id":"78742448-7e40-40fc-be04-1e74352d5ce6","system_id":"levelo_inurba_marseille","lat":43.28263,"lon":5.35062,"is_reserved":false,"is_disabled":false,"rental_uris":{"android":"levelo://app?vid=78742448-7e40-40fc-be04-1e74352d5ce6","ios":"levelo://app?vid=78742448-7e40-40fc-be04-1e74352d5ce6"},"vehicle_type_id":"4","last_reported":1750954419,"current_range_meters":19600,"station_id":"ce4bhbp2rcd13ifvqerg","pricing_plan_id":"cebpf4jnsgd1na2vs0mg"},{"bike_id":"44cb1c52-31d2-45ec-b21d-d7a9b9744fe3","system_id":"levelo_inurba_marseille","lat":43.25499,"lon":5.37648,"is_reserved":false,"is_disabled":false,"rental_uris":{"android":"levelo://app?vid=44cb1c52-31d2-45ec-b21d-d7a9b9744fe3","ios":"levelo://app?vid=44cb1c52-31d2-45ec-b21d-d7a9b9744fe3"},"vehicle_type_id":"4","last_reported":1750954419,"current_range_meters":19600,"station_id":"ce4bhh12rcd13ifvqff0","pricing_plan_id":"cebpf4jnsgd1na2vs0mg"},{"bike_id":"998a721a-1ac1-4439-9667-23f8d6fa1c5f","system_id":"levelo_inurba_marseille","lat":43.24067,"lon":5.37757,"is_reserved":false,"is_disabled":false,"rental_uris":{"android":"levelo://app?vid=998a721a-1ac1-4439-9667-23f8d6fa1c5f","ios":"levelo://app?vid=998a721a-1ac1-4439-9667-23f8d6fa1c5f"},"vehicle_type_id":"4","last_reported":1750954419,"current_range_meters":19600,"station_id":"ce4bhnp2rcd13ifvqgvg","pricing_plan_id":"cebpf4jnsgd1na2vs0mg"},{"bike_id":"6a8c8d24-5e9b-46e4-b628-11dd28ad6646","system_id":"levelo_inurba_marseille","lat":43.30356,"lon":5.41882,"is_reserved":false,"is_disabled":false,"rental_uris":{"android":"levelo://app?vid=6a8c8d24-5e9b-46e4-b628-11dd28ad6646","ios":"levelo://app?vid=6a8c8d24-5e9b-46e4-b628-11dd28ad6646"},"vehicle_type_id":"4","last_reported":1750954419,"current_range_meters":19600,"station_id":"ce4bhop2rcd13ifvqh7g","pricing_plan_id":"cebpf4jnsgd1na2vs0mg"},{"bike_id":"34fc31a0-8f6a-432e-b956-22cad132f682","system_id":"levelo_inurba_marseille","lat":43.21754,"lon":5.346011,"is_reserved":false,"is_disabled":false,"rental_uris":{"android":"levelo://app?vid=34fc31a0-8f6a-432e-b956-22cad132f682","ios":"levelo://app?vid=34fc31a0-8f6a-432e-b956-22cad132f682"},"vehicle_type_id":"4","last_reported":1750954419,"current_range_meters":19600,"station_id":"st_cvj6r9ubvosntc0bgbag","pricing_plan_id":"cebpf4jnsgd1na2vs0mg"},{"bike_id":"f0057ca2-de2d-4464-8902-068dc3677e00","system_id":"levelo_inurba_marseille","lat":43.21192,"lon":5.35072,"is_reserved":false,"is_disabled":false,"rental_uris":{"android":"levelo://app?vid=f0057ca2-de2d-4464-8902-068dc3677e00","ios":"levelo://app?vid=f0057ca2-de2d-4464-8902-068dc3677e00"},"vehicle_type_id":"4","last_reported":1750954419,"current_range_meters":19600,"station_id":"st_cvj6sg6p6f1abm77japg","pricing_plan_id":"cebpf4jnsgd1na2vs0mg"},{"bike_id":"8d10d9e4-c549-4015-9567-ec9c23ecf0a7","system_id":"levelo_inurba_marseille","lat":43.29704,"lon":5.3661,"is_reserved":false,"is_disabled":false,"rental_uris":{"android":"levelo://app?vid=8d10d9e4-c549-4015-9567-ec9c23ecf0a7","ios":"levelo://app?vid=8d10d9e4-c549-4015-9567-ec9c23ecf0a7"},"vehicle_type_id":"4","last_reported":1750954419,"current_range_meters":20000,"station_id":"ce4bgn12rcd13ifvqbt0","pricing_plan_id":"cebpf4jnsgd1na2vs0mg"},{"bike_id":"2d0be916-0de3-4568-ac74-e2ea5792c87d","system_id":"levelo_inurba_marseille","lat":43.29621,"lon":5.3717,"is_reserved":false,"is_disabled":false,"rental_uris":{"android":"levelo://app?vid=2d0be916-0de3-4568-ac74-e2ea5792c87d","ios":"levelo://app?vid=2d0be916-0de3-4568-ac74-e2ea5792c87d"},"vehicle_type_id":"4","last_reported":1750954419,"current_range_meters":20000,"station_id":"ce4bgnh2rcd13ifvqc0g","pricing_plan_id":"cebpf4jnsgd1na2vs0mg"},{"bike_id":"f82a9808-3330-48c1-ba9b-51f6df457b2e","system_id":"levelo_inurba_marseille","lat":43.298568,"lon":5.383727,"is_reserved":false,"is_disabled":false,"rental_uris":{"android":"levelo://app?vid=f82a9808-3330-48c1-ba9b-51f6df457b2e","ios":"levelo://app?vid=f82a9808-3330-48c1-ba9b-51f6df457b2e"},"vehicle_type_id":"4","last_reported":1750954419,"current_range_meters":20000,"station_id":"ce4bgv12rcd13ifvqcp0","pricing_plan_id":"cebpf4jnsgd1na2vs0mg"},{"bike_id":"264b093a-318b-4a61-88cf-40a8ba7dd6dc","system_id":"levelo_inurba_marseille","lat":43.2842,"lon":5.34983,"is_reserved":false,"is_disabled":false,"rental_uris":{"android":"levelo://app?vid=264b093a-318b-4a61-88cf-40a8ba7dd6dc","ios":"levelo://app?vid=264b093a-318b-4a61-88cf-40a8ba7dd6dc"},"vehicle_type_id":"4","last_reported":1750954419,"current_range_meters":20000,"station_id":"ce4bhbh2rcd13ifvqepg","pricing_plan_id":"cebpf4jnsgd1na2vs0mg"},{"bike_id":"40f650c9-5344-4e4d-b167-1a164905047a","system_id":"levelo_inurba_marseille","lat":43.28424,"lon":5.34988,"is_reserved":false,"is_disabled":false,"rental_uris":{"android":"levelo://app?vid=40f650c9-5344-4e4d-b167-1a164905047a","ios":"levelo://app?vid=40f650c9-5344-4e4d-b167-1a164905047a"},"vehicle_type_id":"4","last_reported":1750954419,"current_range_meters":20000,"station_id":"ce4bhbh2rcd13ifvqepg","pricing_plan_id":"cebpf4jnsgd1na2vs0mg"},{"bike_id":"924292bf-ec0d-4d18-a17b-b5a02d9f2c0f","system_id":"levelo_inurba_marseille","lat":43.28259,"lon":5.35077,"is_reserved":false,"is_disabled":false,"rental_uris":{"android":"levelo://app?vid=924292bf-ec0d-4d18-a17b-b5a02d9f2c0f","ios":"levelo://app?vid=924292bf-ec0d-4d18-a17b-b5a02d9f2c0f"},"vehicle_type_id":"4","last_reported":1750954419,"current_range_meters":20000,"station_id":"ce4bhbp2rcd13ifvqerg","pricing_plan_id":"cebpf4jnsgd1na2vs0mg"},{"bike_id":"320078ed-b2ea-46fd-a50c-4411fc547b8e","system_id":"levelo_inurba_marseille","lat":43.28631,"lon":5.35094,"is_reserved":false,"is_disabled":false,"rental_uris":{"android":"levelo://app?vid=320078ed-b2ea-46fd-a50c-4411fc547b8e","ios":"levelo://app?vid=320078ed-b2ea-46fd-a50c-4411fc547b8e"},"vehicle_type_id":"4","last_reported":1750954419,"current_range_meters":20000,"station_id":"ce4bhch2rcd13ifvqeug","pricing_plan_id":"cebpf4jnsgd1na2vs0mg"},{"bike_id":"6012f948-3ff8-4f84-baac-b0c3fc8b4d1b","system_id":"levelo_inurba_marseille","lat":43.24801,"lon":5.37454,"is_reserved":false,"is_disabled":false,"rental_uris":{"android":"levelo://app?vid=6012f948-3ff8-4f84-baac-b0c3fc8b4d1b","ios":"levelo://app?vid=6012f948-3ff8-4f84-baac-b0c3fc8b4d1b"},"vehicle_type_id":"4","last_reported":1750954419,"current_range_meters":20000,"station_id":"ce4bhgh2rcd13ifvqfb0","pricing_plan_id":"cebpf4jnsgd1na2vs0mg"},{"bike_id":"935c8062-ae25-46e0-901d-4b81929b99b7","system_id":"levelo_inurba_marseille","lat":43.21744,"lon":5.34605,"is_reserved":false,"is_disabled":false,"rental_uris":{"android":"levelo://app?vid=935c8062-ae25-46e0-901d-4b81929b99b7","ios":"levelo://app?vid=935c8062-ae25-46e0-901d-4b81929b99b7"},"vehicle_type_id":"4","last_reported":1750954419,"current_range_meters":20000,"station_id":"st_cvj6r9ubvosntc0bgbag","pricing_plan_id":"cebpf4jnsgd1na2vs0mg"},{"bike_id":"17d7ab6e-b589-4b0d-8d49-f82a773dc15e","system_id":"levelo_inurba_marseille","lat":43.294647,"lon":5.374117,"is_reserved":false,"is_disabled":false,"rental_uris":{"android":"levelo://app?vid=17d7ab6e-b589-4b0d-8d49-f82a773dc15e","ios":"levelo://app?vid=17d7ab6e-b589-4b0d-8d49-f82a773dc15e"},"vehicle_type_id":"4","last_reported":1750954419,"current_range_meters":20400,"station_id":"","pricing_plan_id":"cebpf4jnsgd1na2vs0mg"},{"bike_id":"b7c41933-8717-42e4-830d-9e9b866694c8","system_id":"levelo_inurba_marseille","lat":43.291962,"lon":5.357967,"is_reserved":false,"is_disabled":false,"rental_uris":{"android":"levelo://app?vid=b7c41933-8717-42e4-830d-9e9b866694c8","ios":"levelo://app?vid=b7c41933-8717-42e4-830d-9e9b866694c8"},"vehicle_type_id":"4","last_reported":1750954419,"current_range_meters":20400,"station_id":"ce4bhb12rcd13ifvqel0","pricing_plan_id":"cebpf4jnsgd1na2vs0mg"},{"bike_id":"c3248012-484a-4941-8f7e-c8db11047399","system_id":"levelo_inurba_marseille","lat":43.284223,"lon":5.349909,"is_reserved":false,"is_disabled":false,"rental_uris":{"android":"levelo://app?vid=c3248012-484a-4941-8f7e-c8db11047399","ios":"levelo://app?vid=c3248012-484a-4941-8f7e-c8db11047399"},"vehicle_type_id":"4","last_reported":1750954419,"current_range_meters":20400,"station_id":"ce4bhbh2rcd13ifvqepg","pricing_plan_id":"cebpf4jnsgd1na2vs0mg"},{"bike_id":"0d4a94ab-3757-474f-9101-7fd169f750e9","system_id":"levelo_inurba_marseille","lat":43.284163,"lon":5.350059,"is_reserved":false,"is_disabled":false,"rental_uris":{"android":"levelo://app?vid=0d4a94ab-3757-474f-9101-7fd169f750e9","ios":"levelo://app?vid=0d4a94ab-3757-474f-9101-7fd169f750e9"},"vehicle_type_id":"4","last_reported":1750954419,"current_range_meters":20400,"station_id":"ce4bhbh2rcd13ifvqepg","pricing_plan_id":"cebpf4jnsgd1na2vs0mg"},