{"last_updated":1701540483,"ttl":30,"version":"2.2","data":{"bikes":[{"bike_id":"22014c9f-1261-4d26-bdea-13a6414ea53e","system_id":"levelo_inurba_marseille","lat":43.312239,"lon":5.368562,"is_reserved":false,"is_disabled":false,"rental_uris":{"android":"levelo://app?vid=22014c9f-1261-4d26-bdea-13a6414ea53e","ios":"levelo://app?vid=22014c9f-1261-4d26-bdea-13a6414ea53e"},"vehicle_type_id":"4","last_reported":1701540483,"current_range_meters":24800,"station_id":"ce4bgl92rcd13ifvqbq0","pricing_plan_id":"free"},{"bike_id":"ab1a45bc-5c86-4dc9-86c5-b3cdd9eb5b1a","system_id":"levelo_inurba_marseille","lat":43.31747,"lon":5.36879,"is_reserved":false,"is_disabled":false,"rental_uris":{"android":"levelo://app?vid=ab1a45bc-5c86-4dc9-86c5-b3cdd9eb5b1a","ios":"levelo://app?vid=ab1a45bc-5c86-4dc9-86c5-b3cdd9eb5b1a"},"vehicle_type_id":"4","last_reported":1701540483,"current_range_meters":0,"station_id":"","pricing_plan_id":"free"},{"bike_id":"61c37a7b-3a37-4b19-9022-a135487b8d21","system_id":"levelo_inurba_marseille","lat":43.30554,"lon":5.36527,"is_reserved":false,"is_disabled":false,"rental_uris":{"android":"levelo://app?vid=61c37a7b-3a37-4b19-9022-a135487b8d21","ios":"levelo://app?vid=61c37a7b-3a37-4b19-9022-a135487b8d21"},"vehicle_type_id":"4","last_reported":1701540483,"current_range_meters":0,"station_id":"ce4bgs12rcd13ifvqcag","pricing_plan_id":"free"},{"bike_id":"cfd3bb51-5657-4943-be4a-4ca2f802bb01","system_id":"levelo_inurba_marseille","lat":43.308165,"lon":5.376612,"is_reserved":false,"is_disabled":false,"rental_uris":{"android":"levelo://app?vid=cfd3bb51-5657-4943-be4a-4ca2f802bb01","ios":"levelo://app?vid=cfd3bb51-5657-4943-be4a-4ca2f802bb01"},"vehicle_type_id":"4","last_reported":1701540483,"current_range_meters":10000,"station_id":"ce4bgv92rcd13ifvqcq0","pricing_plan_id":"free"},{"bike_id":"932ee87f-8266-4bd5-baa3-3457b003e4d2","system_id":"levelo_inurba_marseille","lat":43.307945,"lon":5.376487,"is_reserved":false,"is_disabled":false,"rental_uris":{"android":"levelo://app?vid=932ee87f-8266-4bd5-baa3-3457b003e4d2","ios":"levelo://app?vid=932ee87f-8266-4bd5-baa3-3457b003e4d2"},"vehicle_type_id":"4","last_reported":1701540483,"current_range_meters":4800,"station_id":"ce4bgv92rcd13ifvqcq0","pricing_plan_id":"free"},{"bike_id":"f427a2c3-6e4a-446b-ae2f-9be8aa7f4122","system_id":"levelo_inurba_marseille","lat":43.31719,"lon":5.376813,"is_reserved":false,"is_disabled":false,"rental_uris":{"android":"levelo://app?vid=f427a2c3-6e4a-446b-ae2f-9be8aa7f4122","ios":"levelo://app?vid=f427a2c3-6e4a-446b-ae2f-9be8aa7f4122"},"vehicle_type_id":"4","last_reported":1701540483,"current_range_meters":0,"station_id":"","pricing_plan_id":"free"},{"bike_id":"e913f328-1e31-4c22-bd87-f809ea246de4","system_id":"levelo_inurba_marseille","lat":43.317168,"lon":5.376883,"is_reserved":false,"is_disabled":false,"rental_uris":{"android":"levelo://app?vid=e913f328-1e31-4c22-bd87-f809ea246de4","ios":"levelo://app?vid=e913f328-1e31-4c22-bd87-f809ea246de4"},"vehicle_type_id":"4","last_reported":1701540483,"current_range_meters":0,"station_id":"","pricing_plan_id":"free"},{"bike_id":"089aee73-351c-4c23-9e57-8b3af6f4f8d4","system_id":"levelo_inurba_marseille","lat":43.317075,"lon":5.377367,"is_reserved":false,"is_disabled":false,"rental_uris":{"android":"levelo://app?vid=089aee73-351c-4c23-9e57-8b3af6f4f8d4","ios":"levelo://app?vid=089aee73-351c-4c23-9e57-8b3af6f4f8d4"},"vehicle_type_id":"4","last_reported":1701540483,"current_range_meters":6400,"station_id":"ce4bgth2rcd13ifvqch0","pricing_plan_id":"free"},{"bike_id":"fb6fd937-527b-4585-9058-0dfdc6436ac8","system_id":"levelo_inurba_marseille","lat":43.31351,"lon":5.37909,"is_reserved":false,"is_disabled":false,"rental_uris":{"android":"levelo://app?vid=fb6fd937-527b-4585-9058-0dfdc6436ac8","ios":"levelo://app?vid=fb6fd937-527b-4585-9058-0dfdc6436ac8"},"vehicle_type_id":"4","last_reported":1701540483,"current_range_meters":20800,"station_id":"","pricing_plan_id":"free"},{"bike_id":"1c2d9ee4-8784-4b29-b7c6-88b68bec751f","system_id":"levelo_inurba_marseille","lat":43.31304,"lon":5.37934,"is_reserved":false,"is_disabled":false,"rental_uris":{"android":"levelo://app?vid=1c2d9ee4-8784-4b29-b7c6-88b68bec751f","ios":"levelo://app?vid=1c2d9ee4-8784-4b29-b7c6-88b68bec751f"},"vehicle_type_id":"4","last_reported":1701540483,"current_range_meters":26400,"station_id":"","pricing_plan_id":"free"},{"bike_id":"b2b29b62-c952-42eb-9515-e1218d3d6120","system_id":"levelo_inurba_marseille","lat":43.30304,"lon":5.368987,"is_reserved":false,"is_disabled":false,"rental_uris":{"android":"levelo://app?vid=b2b29b62-c952-42eb-9515-e1218d3d6120","ios":"levelo://app?vid=b2b29b62-c952-42eb-9515-e1218d3d6120"},"vehicle_type_id":"4","last_reported":1701540483,"current_range_meters":9600,"station_id":"ce4bgqh2rcd13ifvqc5g","pricing_plan_id":"free"},{"bike_id":"de471a2a-f1a0-40b8-bff3-4b37c6ca02b5","system_id":"levelo_inurba_marseille","lat":43.303046,"lon":5.368981,"is_reserved":false,"is_disabled":false,"rental_uris":{"android":"levelo://app?vid=de471a2a-f1a0-40b8-bff3-4b37c6ca02b5","ios":"levelo://app?vid=de471a2a-f1a0-40b8-bff3-4b37c6ca02b5"},"vehicle_type_id":"4","last_reported":1701540483,"current_range_meters":27200,"station_id":"ce4bgqh2rcd13ifvqc5g","pricing_plan_id":"free"},{"bike_id":"c65cb2bb-c360-401b-8135-55678085d744","system_id":"levelo_inurba_marseille","lat":43.30805,"lon":5.38141,"is_reserved":false,"is_disabled":false,"rental_uris":{"android":"levelo://app?vid=c65cb2bb-c360-401b-8135-55678085d744","ios":"levelo://app?vid=c65cb2bb-c360-401b-8135-55678085d744"},"vehicle_type_id":"4","last_reported":1701540483,"current_range_meters":24800,"station_id":"ce4bgt12rcd13ifvqce0","pricing_plan_id":"free"},{"bike_id":"8c6725c5-5ff6-4a6a-9768-66e32939cf43","system_id":"levelo_inurba_marseille","lat":43.32482,"lon":5.365692,"is_reserved":false,"is_disabled":false,"rental_uris":{"android":"levelo://app?vid=8c6725c5-5ff6-4a6a-9768-66e32939cf43","ios":"levelo://app?vid=8c6725c5-5ff6-4a6a-9768-66e32939cf43"},"vehicle_type_id":"4","last_reported":1701540483,"current_range_meters":25600,"station_id":"ce4bhs12rcd13ifvqhvg","pricing_plan_id":"free"},{"bike_id":"bc8eac31-4b5b-48b3-aa99-5c3fdd18d82e","system_id":"levelo_inurba_marseille","lat":43.324843,"lon":5.36565,"is_reserved":false,"is_disabled":false,"rental_uris":{"android":"levelo://app?vid=bc8eac31-4b5b-48b3-aa99-5c3fdd18d82e","ios":"levelo://app?vid=bc8eac31-4b5b-48b3-aa99-5c3fdd18d82e"},"vehicle_type_id":"4","last_reported":1701540483,"current_range_meters":17600,"station_id":"ce4bhs12rcd13ifvqhvg","pricing_plan_id":"free"},{"bike_id":"2275aca5-3158-4c2c-8022-ca5d2714bc86","system_id":"levelo_inurba_marseille","lat":43.319997,"lon":5.381594,"is_reserved":false,"is_disabled":false,"rental_uris":{"android":"levelo://app?vid=2275aca5-3158-4c2c-8022-ca5d2714bc86","ios":"levelo://app?vid=2275aca5-3158-4c2c-8022-ca5d2714bc86"},"vehicle_type_id":"4","last_reported":1701540483,"current_range_meters":14400,"station_id":"ce4bhr12rcd13ifvqhpg","pricing_plan_id":"free"},{"bike_id":"6bd3ebb1-6ff2-49f4-85c4-0a334e452c44","system_id":"levelo_inurba_marseille","lat":43.313571,"lon":5.384829,"is_reserved":false,"is_disabled":false,"rental_uris":{"android":"levelo://app?vid=6bd3ebb1-6ff2-49f4-85c4-0a334e452c44","ios":"levelo://app?vid=6bd3ebb1-6ff2-49f4-85c4-0a334e452c44"},"vehicle_type_id":"4","last_reported":1701540483,"current_range_meters":20800,"station_id":"ce4bgt92rcd13ifvqcf0","pricing_plan_id":"free"},{"bike_id":"bfc7fbc9-2fe1-4e61-843c-63a1f490d213","system_id":"levelo_inurba_marseille","lat":43.313571,"lon":5.384829,"is_reserved":false,"is_disabled":false,"rental_uris":{"android":"levelo://app?vid=bfc7fbc9-2fe1-4e61-843c-63a1f490d213","ios":"levelo://app?vid=bfc7fbc9-2fe1-4e61-843c-63a1f490d213"},"vehicle_type_id":"4","last_reported":1701540483,"current_range_meters":31200,"station_id":"ce4bgt92rcd13ifvqcf0","pricing_plan_id":"free"},{"bike_id":"8a510583-18a4-4241-8ed3-6a287c2d3c24","system_id":"levelo_inurba_marseille","lat":43.313571,"lon":5.384829,"is_reserved":false,"is_disabled":false,"rental_uris":{"android":"levelo://app?vid=8a510583-18a4-4241-8ed3-6a287c2d3c24","ios":"levelo://app?vid=8a510583-18a4-4241-8ed3-6a287c2d3c24"},"vehicle_type_id":"4","last_reported":1701540483,"current_range_meters":31600,"station_id":"ce4bgt92rcd13ifvqcf0","pricing_plan_id":"free"},{"bike_id":"9fdb7f97-586d-42d2-befd-15216ba2e422","system_id":"levelo_inurba_marseille","lat":43.31183,"lon":5.38523,"is_reserved":false,"is_disabled":false,"rental_uris":{"android":"levelo://app?vid=9fdb7f97-586d-42d2-befd-15216ba2e422","ios":"levelo://app?vid=9fdb7f97-586d-42d2-befd-15216ba2e422"},"vehicle_type_id":"4","last_reported":1701540483,"current_range_meters":800,"station_id":"","pricing_plan_id":"free"},{"bike_id":"d0b2bfe5-201d-48b8-b16f-7b06f09da3ec","system_id":"levelo_inurba_marseille","lat":43.299222,"lon":5.365554,"is_reserved":false,"is_disabled":false,"rental_uris":{"android":"levelo://app?vid=d0b2bfe5-201d-48b8-b16f-7b06f09da3ec","ios":"levelo://app?vid=d0b2bfe5-201d-48b8-b16f-7b06f09da3ec"},"vehicle_type_id":"4","last_reported":1701540483,"current_range_meters":4000,"station_id":"ce4bgm92rcd13ifvqbr0","pricing_plan_id":"free"},{"bike_id":"748d12ab-8e09-4ecd-b2d2-cbe0ea9624f6","system_id":"levelo_inurba_marseille","lat":43.29899,"lon":5.36738,"is_reserved":false,"is_disabled":false,"rental_uris":{"android":"levelo://app?vid=748d12ab-8e09-4ecd-b2d2-cbe0ea9624f6","ios":"levelo://app?vid=748d12ab-8e09-4ecd-b2d2-cbe0ea9624f6"},"vehicle_type_id":"4","last_reported":1701540483,"current_range_meters":5600,"station_id":"","pricing_plan_id":"free"},{"bike_id":"098b5622-989b-4e82-97c4-6e06107beb94","system_id":"levelo_inurba_marseille","lat":43.311722,"lon":5.387247,"is_reserved":false,"is_disabled":false,"rental_uris":{"android":"levelo://app?vid=098b5622-989b-4e82-97c4-6e06107beb94","ios":"levelo://app?vid=098b5622-989b-4e82-97c4-6e06107beb94"},"vehicle_type_id":"4","last_reported":1701540483,"current_range_meters":16000,"station_id":"ce4bgv12rcd13ifvqcp0","pricing_plan_id":"free"},{"bike_id":"621280b1-dd0a-4200-ab23-71fc4bde50f4","system_id":"levelo_inurba_marseille","lat":43.305364,"lon":5.384119,"is_reserved":false,"is_disabled":false,"rental_uris":{"android":"levelo://app?vid=621280b1-dd0a-4200-ab23-71fc4bde50f4","ios":"levelo://app?vid=621280b1-dd0a-4200-ab23-71fc4bde50f4"},"vehicle_type_id":"4","last_reported":1701540483,"current_range_meters":16800,"station_id":"ce4bgg92rcd13ifvqb30","pricing_plan_id":"free"},{"bike_id":"83d26727-0122-4ba7-9ca4-33e0b280c869","system_id":"levelo_inurba_marseille","lat":43.305364,"lon":5.384119,"is_reserved":false,"is_disabled":false,"rental_uris":{"android":"levelo://app?vid=83d26727-0122-4ba7-9ca4-33e0b280c869","ios":"levelo://app?vid=83d26727-0122-4ba7-9ca4-33e0b280c869"},"vehicle_type_id":"4","last_reported":1701540483,"current_range_meters":13200,"station_id":"ce4bgg92rcd13ifvqb30","pricing_plan_id":"free"},{"bike_id":"15f36451-8908-4046-95ab-b6ce1e093315","system_id":"levelo_inurba_marseille","lat":43.299243,"lon":5.37481,"is_reserved":false,"is_disabled":false,"rental_uris":{"android":"levelo://app?vid=15f36451-8908-4046-95ab-b6ce1e093315","ios":"levelo://app?vid=15f36451-8908-4046-95ab-b6ce1e093315"},"vehicle_type_id":"4","last_reported":1701540483,"current_range_meters":18400,"station_id":"ce4bgjh2rcd13ifvqbg0","pricing_plan_id":"free"},{"bike_id":"ee2df518-ddbe-499f-b9c7-1962e57d8bb9","system_id":"levelo_inurba_marseille","lat":43.297794,"lon":5.370888,"is_reserved":false,"is_disabled":false,"rental_uris":{"android":"levelo://app?vid=ee2df518-ddbe-499f-b9c7-1962e57d8bb9","ios":"levelo://app?vid=ee2df518-ddbe-499f-b9c7-1962e57d8bb9"},"vehicle_type_id":"4","last_reported":1701540483,"current_range_meters":14800,"station_id":"ce4bgop2rcd13ifvqc1g","pricing_plan_id":"free"},{"bike_id":"e43f8ab8-9dd7-4e00-9bb6-30c142fc90cb","system_id":"levelo_inurba_marseille","lat":43.322872,"lon":5.382756,"is_reserved":false,"is_disabled":false,"rental_uris":{"android":"levelo://app?vid=e43f8ab8-9dd7-4e00-9bb6-30c142fc90cb","ios":"levelo://app?vid=e43f8ab8-9dd7-4e00-9bb6-30c142fc90cb"},"vehicle_type_id":"4","last_reported":1701540483,"current_range_meters":27600,"station_id":"ce4bhr12rcd13ifvqhqg","pricing_plan_id":"free"},{"bike_id":"c0284961-478e-4ccd-b43e-321d6e4c5580","system_id":"levelo_inurba_marseille","lat":43.32829,"lon":5.36683,"is_reserved":false,"is_disabled":false,"rental_uris":{"android":"levelo://app?vid=c0284961-478e-4ccd-b43e-321d6e4c5580","ios":"levelo://app?vid=c0284961-478e-4ccd-b43e-321d6e4c5580"},"vehicle_type_id":"4","last_reported":1701540483,"current_range_meters":2000,"station_id":"ce4bhs92rcd13ifvqi0g","pricing_plan_id":"free"},{"bike_id":"3c6eacad-63e8-42f7-9988-09cf64b64dd8","system_id":"levelo_inurba_marseille","lat":43.32831,"lon":5.36677,"is_reserved":false,"is_disabled":false,"rental_uris":{"android":"levelo://app?vid=3c6eacad-63e8-42f7-9988-09cf64b64dd8","ios":"levelo://app?vid=3c6eacad-63e8-42f7-9988-09cf64b64dd8"},"vehicle_type_id":"4","last_reported":1701540483,"current_range_meters":6800,"station_id":"ce4bhs92rcd13ifvqi0g","pricing_plan_id":"free"},{"bike_id":"5c26bdfb-7b7c-43fb-8a01-250128a1a6f8","system_id":"levelo_inurba_marseille","lat":43.32834,"lon":5.36685,"is_reserved":false,"is_disabled":false,"rental_uris":{"android":"levelo://app?vid=5c26bdfb-7b7c-43fb-8a01-250128a1a6f8","ios":"levelo://app?vid=5c26bdfb-7b7c-43fb-8a01-250128a1a6f8"},"vehicle_type_id":"4","last_reported":1701540483,"current_range_meters":20800,"station_id":"ce4bhs92rcd13ifvqi0g","pricing_plan_id":"free"},{"bike_id":"863e68e6-f678-4404-9035-1f0c001016cb","system_id":"levelo_inurba_marseille","lat":43.32835,"lon":5.36691,"is_reserved":false,"is_disabled":false,"rental_uris":{"android":"levelo://app?vid=863e68e6-f678-4404-9035-1f0c001016cb","ios":"levelo://app?vid=863e68e6-f678-4404-9035-1f0c001016cb"},"vehicle_type_id":"4","last_reported":1701540483,"current_range_meters":18400,"station_id":"ce4bhs92rcd13ifvqi0g","pricing_plan_id":"free"},{"bike_id":"096bd108-6b00-4f50-9adf-9fa6348dcc48","system_id":"levelo_inurba_marseille","lat":43.296131,"lon":5.370791,"is_reserved":false,"is_disabled":false,"rental_uris":{"android":"levelo://app?vid=096bd108-6b00-4f50-9adf-9fa6348dcc48","ios":"levelo://app?vid=096bd108-6b00-4f50-9adf-9fa6348dcc48"},"vehicle_type_id":"4","last_reported":1701540483,"current_range_meters":28400,"station_id":"ce4bgnh2rcd13ifvqc0g","pricing_plan_id":"free"},{"bike_id":"eaa0e7e7-2390-47fa-909b-7b240952cbef","system_id":"levelo_inurba_marseille","lat":43.316499,"lon":5.389603,"is_reserved":false,"is_disabled":false,"rental_uris":{"android":"levelo://app?vid=eaa0e7e7-2390-47fa-909b-7b240952cbef","ios":"levelo://app?vid=eaa0e7e7-2390-47fa-909b-7b240952cbef"},"vehicle_type_id":"4","last_reported":1701540483,"current_range_meters":16400,"station_id":"","pricing_plan_id":"free"},{"bike_id":"1805977c-cb4d-4d8d-b7cf-1729f0973c3b","system_id":"levelo_inurba_marseille","lat":43.309589,"lon":5.390258,"is_reserved":false,"is_disabled":false,"rental_uris":{"android":"levelo://app?vid=1805977c-cb4d-4d8d-b7cf-1729f0973c3b","ios":"levelo://app?vid=1805977c-cb4d-4d8d-b7cf-1729f0973c3b"},"vehicle_type_id":"4","last_reported":1701540483,"current_range_meters":16000,"station_id":"ce4bgup2rcd13ifvqco0","pricing_plan_id":"free"},{"bike_id":"9852a39e-a48f-4892-a754-cf53c8e681db","system_id":"levelo_inurba_marseille","lat":43.317557,"lon":5.390173,"is_reserved":false,"is_disabled":false,"rental_uris":{"android":"levelo://app?vid=9852a39e-a48f-4892-a754-cf53c8e681db","ios":"levelo://app?vid=9852a39e-a48f-4892-a754-cf53c8e681db"},"vehicle_type_id":"4","last_reported":1701540483,"current_range_meters":27200,"station_id":"ce4bhqp2rcd13ifvqhng","pricing_plan_id":"free"},{"bike_id":"85031874-458f-4277-a224-971f5158b473","system_id":"levelo_inurba_marseille","lat":43.298037,"lon":5.381066,"is_reserved":false,"is_disabled":false,"rental_uris":{"android":"levelo://app?vid=85031874-458f-4277-a224-971f5158b473","ios":"levelo://app?vid=85031874-458f-4277-a224-971f5158b473"},"vehicle_type_id":"4","last_reported":1701540483,"current_range_meters":5600,"station_id":"ce4bgip2rcd13ifvqbb0","pricing_plan_id":"free"},{"bike_id":"1f2d39fb-0c2d-4b9d-8ccd-688994feb34e","system_id":"levelo_inurba_marseille","lat":43.304274,"lon":5.388873,"is_reserved":false,"is_disabled":false,"rental_uris":{"android":"levelo://app?vid=1f2d39fb-0c2d-4b9d-8ccd-688994feb34e","ios":"levelo://app?vid=1f2d39fb-0c2d-4b9d-8ccd-688994feb34e"},"vehicle_type_id":"4","last_reported":1701540483,"current_range_meters":28400,"station_id":"ce4bgk12rcd13ifvqbi0","pricing_plan_id":"free"},{"bike_id":"69106f84-af75-44d3-a9ca-94a643382795","system_id":"levelo_inurba_marseille","lat":43.304274,"lon":5.388873,"is_reserved":false,"is_disabled":false,"rental_uris":{"android":"levelo://app?vid=69106f84-af75-44d3-a9ca-94a643382795","ios":"levelo://app?vid=69106f84-af75-44d3-a9ca-94a643382795"},"vehicle_type_id":"4","last_reported":1701540483,"current_range_meters":1200,"station_id":"ce4bgk12rcd13ifvqbi0","pricing_plan_id":"free"},{"bike_id":"7eb8db17-f93e-4bdf-b62d-9e8a2cabb876","system_id":"levelo_inurba_marseille","lat":43.304278,"lon":5.388868,"is_reserved":false,"is_disabled":false,"rental_uris":{"android":"levelo://app?vid=7eb8db17-f93e-4bdf-b62d-9e8a2cabb876","ios":"levelo://app?vid=7eb8db17-f93e-4bdf-b62d-9e8a2cabb876"},"vehicle_type_id":"4","last_reported":1701540483,"current_range_meters":7600,"station_id":"ce4bgk12rcd13ifvqbi0","pricing_plan_id":"free"},{"bike_id":"0fc15c76-905c-4306-bea9-d07e7852774d","system_id":"levelo_inurba_marseille","lat":43.299717,"lon":5.384845,"is_reserved":false,"is_disabled":false,"rental_uris":{"android":"levelo://app?vid=0fc15c76-905c-4306-bea9-d07e7852774d","ios":"levelo://app?vid=0fc15c76-905c-4306-bea9-d07e7852774d"},"vehicle_type_id":"4","last_reported":1701540483,"current_range_meters":17200,"station_id":"ce4bgj92rcd13ifvqbd0","pricing_plan_id":"free"},{"bike_id":"fe0849ba-adbe-41f4-a965-502a894d4cac","system_id":"levelo_inurba_marseille","lat":43.299717,"lon":5.384845,"is_reserved":false,"is_disabled":false,"rental_uris":{"android":"levelo://app?vid=fe0849ba-adbe-41f4-a965-502a894d4cac","ios":"levelo://app?vid=fe0849ba-adbe-41f4-a965-502a894d4cac"},"vehicle_type_id":"4","last_reported":1701540483,"current_range_meters":10000,"station_id":"ce4bgj92rcd13ifvqbd0","pricing_plan_id":"free"},{"bike_id":"666d22d5-0b59-4a3e-84d2-84d1a7e36ef9","system_id":"levelo_inurba_marseille","lat":43.293259,"lon":5.371586,"is_reserved":false,"is_disabled":false,"rental_uris":{"android":"levelo://app?vid=666d22d5-0b59-4a3e-84d2-84d1a7e36ef9","ios":"levelo://app?vid=666d22d5-0b59-4a3e-84d2-84d1a7e36ef9"},"vehicle_type_id":"4","last_reported":1701540483,"current_range_meters":18800,"station_id":"ce4bgh92rcd13ifvqb40","pricing_plan_id":"free"},{"bike_id":"91b45649-64c5-41ff-8191-714c2970d778","system_id":"levelo_inurba_marseille","lat":43.30562,"lon":5.39318,"is_reserved":false,"is_disabled":false,"rental_uris":{"android":"levelo://app?vid=91b45649-64c5-41ff-8191-714c2970d778","ios":"levelo://app?vid=91b45649-64c5-41ff-8191-714c2970d778"},"vehicle_type_id":"4","last_reported":1701540483,"current_range_meters":22000,"station_id":"","pricing_plan_id":"free"},{"bike_id":"3bb64268-6250-4459-a236-021d29cfad52","system_id":"levelo_inurba_marseille","lat":43.293009,"lon":5.374584,"is_reserved":false,"is_disabled":false,"rental_uris":{"android":"levelo://app?vid=3bb64268-6250-4459-a236-021d29cfad52","ios":"levelo://app?vid=3bb64268-6250-4459-a236-021d29cfad52"},"vehicle_type_id":"4","last_reported":1701540483,"current_range_meters":16000,"station_id":"ce4bgi12rcd13ifvqb70","pricing_plan_id":"free"},{"bike_id":"8408745a-32dc-4db2-a242-3561de3087a8","system_id":"levelo_inurba_marseille","lat":43.29303,"lon":5.37437,"is_reserved":false,"is_disabled":false,"rental_uris":{"android":"levelo://app?vid=8408745a-32dc-4db2-a242-3561de3087a8","ios":"levelo://app?vid=8408745a-32dc-4db2-a242-3561de3087a8"},"vehicle_type_id":"4","last_reported":1701540483,"current_range_meters":19600,"station_id":"ce4bgi12rcd13ifvqb70","pricing_plan_id":"free"},{"bike_id":"400da92a-80aa-4bc5-8dcd-b5f9d3c9755f","system_id":"levelo_inurba_marseille","lat":43.2936,"lon":5.37835,"is_reserved":false,"is_disabled":false,"rental_uris":{"android":"levelo://app?vid=400da92a-80aa-4bc5-8dcd-b5f9d3c9755f","ios":"levelo://app?vid=400da92a-80aa-4bc5-8dcd-b5f9d3c9755f"},"vehicle_type_id":"4","last_reported":1701540483,"current_range_meters":2000,"station_id":"ce4bgjh2rcd13ifvqbf0","pricing_plan_id":"free"},{"bike_id":"b4717bea-3b01-4c14-9654-6c393964912b","system_id":"levelo_inurba_marseille","lat":43.300852,"lon":5.390859,"is_reserved":false,"is_disabled":false,"rental_uris":{"android":"levelo://app?vid=b4717bea-3b01-4c14-9654-6c393964912b","ios":"levelo://app?vid=b4717bea-3b01-4c14-9654-6c393964912b"},"vehicle_type_id":"4","last_reported":1701540483,"current_range_meters":1200,"station_id":"ce4bh192rcd13ifvqdb0","pricing_plan_id":"free"},{"bike_id":"0bb28378-28e8-4363-9e5c-61c14a60deb4","system_id":"levelo_inurba_marseille","lat":43.291675,"lon":5.371583,"is_reserved":false,"is_disabled":false,"rental_uris":{"android":"levelo://app?vid=0bb28378-28e8-4363-9e5c-61c14a60deb4","ios":"levelo://app?vid=0bb28378-28e8-4363-9e5c-61c14a60deb4"},"vehicle_type_id":"4","last_reported":1701540483,"current_range_meters":19600,"station_id":"ce4bha92rcd13ifvqeh0","pricing_plan_id":"free"},{"bike_id":"2a1a6f8d-026b-4045-a436-741d2b6d5658","system_id":"levelo_inurba_marseille","lat":43.291675,"lon":5.371583,"is_reserved":false,"is_disabled":false,"rental_uris":{"android":"levelo://app?vid=2a1a6f8d-026b-4045-a436-741d2b6d5658","ios":"levelo://app?vid=2a1a6f8d-026b-4045-a436-741d2b6d5658"},"vehicle_type_id":"4","last_reported":1701540483,"current_range_meters":18400,"station_id":"ce4bha92rcd13ifvqeh0","pricing_plan_id":"free"},{"bike_id":"fd0b2deb-1e69-4cca-95e9-365d71c6356c","system_id":"levelo_inurba_marseille","lat":43.298703,"lon":5.388917,"is_reserved":false,"is_disabled":false,"rental_uris":{"android":"levelo://app?vid=fd0b2deb-1e69-4cca-95e9-365d71c6356c","ios":"levelo://app?vid=fd0b2deb-1e69-4cca-95e9-365d71c6356c"},"vehicle_type_id":"4","last_reported":1701540483,"current_range_meters":29600,"station_id":"ce4bh392rcd13ifvqdl0","pricing_plan_id":"free"},{"bike_id":"1480c094-176e-4c94-bf32-425943209478","system_id":"levelo_inurba_marseille","lat":43.29873,"lon":5.389103,"is_reserved":false,"is_disabled":false,"rental_uris":{"android":"levelo://app?vid=1480c094-176e-4c94-bf32-425943209478","ios":"levelo://app?vid=1480c094-176e-4c94-bf32-425943209478"},"vehicle_type_id":"4","last_reported":1701540483,"current_range_meters":31200,"station_id":"ce4bh392rcd13ifvqdl0","pricing_plan_id":"free"},{"bike_id":"44583690-c936-4cf5-9d0d-a4994405d69a","system_id":"levelo_inurba_marseille","lat":43.309047,"lon":5.396551,"is_reserved":false,"is_disabled":false,"rental_uris":{"android":"levelo://app?vid=44583690-c936-4cf5-9d0d-a4994405d69a","ios":"levelo://app?vid=44583690-c936-4cf5-9d0d-a4994405d69a"},"vehicle_type_id":"4","last_reported":1701540483,"current_range_meters":27600,"station_id":"ce4bh012rcd13ifvqcv0","pricing_plan_id":"free"},{"bike_id":"85ce9072-c93a-47a4-9736-88da28577659","system_id":"levelo_inurba_marseille","lat":43.29529,"lon":5.385581,"is_reserved":false,"is_disabled":false,"rental_uris":{"android":"levelo://app?vid=85ce9072-c93a-47a4-9736-88da28577659","ios":"levelo://app?vid=85ce9072-c93a-47a4-9736-88da28577659"},"vehicle_type_id":"4","last_reported":1701540483,"current_range_meters":12800,"station_id":"ce4bgih2rcd13ifvqba0","pricing_plan_id":"free"},{"bike_id":"acec4065-d2ad-4bbb-857c-52fd8d910c6a","system_id":"levelo_inurba_marseille","lat":43.29529,"lon":5.385581,"is_reserved":false,"is_disabled":false,"rental_uris":{"android":"levelo://app?vid=acec4065-d2ad-4bbb-857c-52fd8d910c6a","ios":"levelo://app?vid=acec4065-d2ad-4bbb-857c-52fd8d910c6a"},"vehicle_type_id":"4","last_reported":1701540483,"current_range_meters":14000,"station_id":"ce4bgih2rcd13ifvqba0","pricing_plan_id":"free"},{"bike_id":"7df0ab74-7259-4c67-9c21-d5476d4c6219","system_id":"levelo_inurba_marseille","lat":43.29529,"lon":5.385581,"is_reserved":false,"is_disabled":false,"rental_uris":{"android":"levelo://app?vid=7df0ab74-7259-4c67-9c21-d5476d4c6219","ios":"levelo://app?vid=7df0ab74-7259-4c67-9c21-d5476d4c6219"},"vehicle_type_id":"4","last_reported":1701540483,"current_range_meters":22800,"station_id":"ce4bgih2rcd13ifvqba0","pricing_plan_id":"free"},{"bike_id":"5964a299-68eb-44c1-8d66-e4afd90ad262","system_id":"levelo_inurba_marseille","lat":43.29078,"lon":5.37195,"is_reserved":false,"is_disabled":false,"rental_uris":{"android":"levelo://app?vid=5964a299-68eb-44c1-8d66-e4afd90ad262","ios":"levelo://app?vid=5964a299-68eb-44c1-8d66-e4afd90ad262"},"vehicle_type_id":"4","last_reported":1701540483,"current_range_meters":0,"station_id":"ce4bh5p2rcd13ifvqe4g","pricing_plan_id":"free"},{"bike_id":"5b822219-5711-441d-a317-3183335752a3","system_id":"levelo_inurba_marseille","lat":43.29066,"lon":5.37164,"is_reserved":false,"is_disabled":false,"rental_uris":{"android":"levelo://app?vid=5b822219-5711-441d-a317-3183335752a3","ios":"levelo://app?vid=5b822219-5711-441d-a317-3183335752a3"},"vehicle_type_id":"4","last_reported":1701540483,"current_range_meters":24800,"station_id":"ce4bh5p2rcd13ifvqe4g","pricing_plan_id":"free"},{"bike_id":"8ed3ca95-2f7b-4d5a-bd42-8bf0ed0b7744","system_id":"levelo_inurba_marseille","lat":43.29146,"lon":5.37948,"is_reserved":false,"is_disabled":false,"rental_uris":{"android":"levelo://app?vid=8ed3ca95-2f7b-4d5a-bd42-8bf0ed0b7744","ios":"levelo://app?vid=8ed3ca95-2f7b-4d5a-bd42-8bf0ed0b7744"},"vehicle_type_id":"4","last_reported":1701540483,"current_range_meters":18000,"station_id":"","pricing_plan_id":"free"},{"bike_id":"861c7358-6511-4ef4-a692-996a24f4874a","system_id":"levelo_inurba_marseille","lat":43.29421,"lon":5.38623,"is_reserved":false,"is_disabled":false,"rental_uris":{"android":"levelo://app?vid=861c7358-6511-4ef4-a692-996a24f4874a","ios":"levelo://app?vid=861c7358-6511-4ef4-a692-996a24f4874a"},"vehicle_type_id":"4","last_reported":1701540483,"current_range_meters":0,"station_id":"ce4bh2h2rcd13ifvqdh0","pricing_plan_id":"free"},{"bike_id":"d24f9fe8-5db1-4d11-a4bb-9fd4ca808f82","system_id":"levelo_inurba_marseille","lat":43.292642,"lon":5.384254,"is_reserved":false,"is_disabled":false,"rental_uris":{"android":"levelo://app?vid=d24f9fe8-5db1-4d11-a4bb-9fd4ca808f82","ios":"levelo://app?vid=d24f9fe8-5db1-4d11-a4bb-9fd4ca808f82"},"vehicle_type_id":"4","last_reported":1701540483,"current_range_meters":4400,"station_id":"ce4bh692rcd13ifvqea0","pricing_plan_id":"free"},{"bike_id":"957f83b0-8c62-4531-a1ce-8d79f2b00e31","system_id":"levelo_inurba_marseille","lat":43.290104,"lon":5.356111,"is_reserved":false,"is_disabled":false,"rental_uris":{"android":"levelo://app?vid=957f83b0-8c62-4531-a1ce-8d79f2b00e31","ios":"levelo://app?vid=957f83b0-8c62-4531-a1ce-8d79f2b00e31"},"vehicle_type_id":"4","last_reported":1701540483,"current_range_meters":0,"station_id":"ce4bhb92rcd13ifvqen0","pricing_plan_id":"free"},{"bike_id":"7785b159-149f-4c48-a377-d11ef9c82922","system_id":"levelo_inurba_marseille","lat":43.330432,"lon":5.389202,"is_reserved":false,"is_disabled":false,"rental_uris":{"android":"levelo://app?vid=7785b159-149f-4c48-a377-d11ef9c82922","ios":"levelo://app?vid=7785b159-149f-4c48-a377-d11ef9c82922"},"vehicle_type_id":"4","last_reported":1701540483,"current_range_meters":6000,"station_id":"ce4bhr92rcd13ifvqhrg","pricing_plan_id":"free"},{"bike_id":"4f0e6178-ef0e-4df2-9c9a-afe2849a718b","system_id":"levelo_inurba_marseille","lat":43.295169,"lon":5.390426,"is_reserved":false,"is_disabled":false,"rental_uris":{"android":"levelo://app?vid=4f0e6178-ef0e-4df2-9c9a-afe2849a718b","ios":"levelo://app?vid=4f0e6178-ef0e-4df2-9c9a-afe2849a718b"},"vehicle_type_id":"4","last_reported":1701540483,"current_range_meters":4400,"station_id":"ce4bh3p2rcd13ifvqdp0","pricing_plan_id":"free"},{"bike_id":"b2831d7b-7db8-4310-bee2-2136723e8152","system_id":"levelo_inurba_marseille","lat":43.295169,"lon":5.390426,"is_reserved":false,"is_disabled":false,"rental_uris":{"android":"levelo://app?vid=b2831d7b-7db8-4310-bee2-2136723e8152","ios":"levelo://app?vid=b2831d7b-7db8-4310-bee2-2136723e8152"},"vehicle_type_id":"4","last_reported":1701540483,"current_range_meters":17200,"station_id":"ce4bh3p2rcd13ifvqdp0","pricing_plan_id":"free"},{"bike_id":"b38135b0-bb14-4c25-bf29-b49d406cc922","system_id":"levelo_inurba_marseille","lat":43.33056,"lon":5.39058,"is_reserved":false,"is_disabled":false,"rental_uris":{"android":"levelo://app?vid=b38135b0-bb14-4c25-bf29-b49d406cc922","ios":"levelo://app?vid=b38135b0-bb14-4c25-bf29-b49d406cc922"},"vehicle_type_id":"4","last_reported":1701540483,"current_range_meters":0,"station_id":"","pricing_plan_id":"free"},{"bike_id":"5c3b1d13-94ee-45bf-ae04-c78ee7d2fbc9","system_id":"levelo_inurba_marseille","lat":43.290094,"lon":5.381264,"is_reserved":false,"is_disabled":false,"rental_uris":{"android":"levelo://app?vid=5c3b1d13-94ee-45bf-ae04-c78ee7d2fbc9","ios":"levelo://app?vid=5c3b1d13-94ee-45bf-ae04-c78ee7d2fbc9"},"vehicle_type_id":"4","last_reported":1701540483,"current_range_meters":3200,"station_id":"ce4bh4p2rcd13ifvqe1g","pricing_plan_id":"free"},{"bike_id":"7b0dd814-04ae-478f-b950-ed0dab5d94c4","system_id":"levelo_inurba_marseille","lat":43.298681,"lon":5.397225,"is_reserved":false,"is_disabled":false,"rental_uris":{"android":"levelo://app?vid=7b0dd814-04ae-478f-b950-ed0dab5d94c4","ios":"levelo://app?vid=7b0dd814-04ae-478f-b950-ed0dab5d94c4"},"vehicle_type_id":"4","last_reported":1701540483,"current_range_meters":19600,"station_id":"ce4bh0h2rcd13ifvqd50","pricing_plan_id":"free"},{"bike_id":"b7b58883-4091-409f-9b7d-56380acab002","system_id":"levelo_inurba_marseille","lat":43.295196,"lon":5.39397,"is_reserved":false,"is_disabled":false,"rental_uris":{"android":"levelo://app?vid=b7b58883-4091-409f-9b7d-56380acab002","ios":"levelo://app?vid=b7b58883-4091-409f-9b7d-56380acab002"},"vehicle_type_id":"4","last_reported":1701540483,"current_range_meters":21200,"station_id":"ce4bh292rcd13ifvqdf0","pricing_plan_id":"free"},{"bike_id":"17b00e43-4f0d-4340-b338-b25ad043e772","system_id":"levelo_inurba_marseille","lat":43.286961,"lon":5.373785,"is_reserved":false,"is_disabled":false,"rental_uris":{"android":"levelo://app?vid=17b00e43-4f0d-4340-b338-b25ad043e772","ios":"levelo://app?vid=17b00e43-4f0d-4340-b338-b25ad043e772"},"vehicle_type_id":"4","last_reported":1701540483,"current_range_meters":13200,"station_id":"ce4bh3p2rcd13ifvqdq0","pricing_plan_id":"free"},{"bike_id":"a8e89090-16a0-4131-a0e9-1d555c536c89","system_id":"levelo_inurba_marseille","lat":43.302759,"lon":5.400793,"is_reserved":false,"is_disabled":false,"rental_uris":{"android":"levelo://app?vid=a8e89090-16a0-4131-a0e9-1d555c536c89","ios":"levelo://app?vid=a8e89090-16a0-4131-a0e9-1d555c536c89"},"vehicle_type_id":"4","last_reported":1701540483,"current_range_meters":5200,"station_id":"ce4bgvh2rcd13ifvqcs0","pricing_plan_id":"free"},{"bike_id":"7071b3dc-10e4-4d65-94c6-c594f93a9d40","system_id":"levelo_inurba_marseille","lat":43.287184,"lon":5.37937,"is_reserved":false,"is_disabled":false,"rental_uris":{"android":"levelo://app?vid=7071b3dc-10e4-4d65-94c6-c594f93a9d40","ios":"levelo://app?vid=7071b3dc-10e4-4d65-94c6-c594f93a9d40"},"vehicle_type_id":"4","last_reported":1701540483,"current_range_meters":8000,"station_id":"ce4bh9p2rcd13ifvqec0","pricing_plan_id":"free"},{"bike_id":"64fa1201-66ce-4117-9832-8ae725ccfa4c","system_id":"levelo_inurba_marseille","lat":43.287184,"lon":5.37937,"is_reserved":false,"is_disabled":false,"rental_uris":{"android":"levelo://app?vid=64fa1201-66ce-4117-9832-8ae725ccfa4c","ios":"levelo://app?vid=64fa1201-66ce-4117-9832-8ae725ccfa4c"},"vehicle_type_id":"4","last_reported":1701540483,"current_range_meters":1600,"station_id":"ce4bh9p2rcd13ifvqec0","pricing_plan_id":"free"},{"bike_id":"9249f067-fc87-4402-abb8-b4129f4fdbbc","system_id":"levelo_inurba_marseille","lat":43.287185,"lon":5.379373,"is_reserved":false,"is_disabled":false,"rental_uris":{"android":"levelo://app?vid=9249f067-fc87-4402-abb8-b4129f4fdbbc","ios":"levelo://app?vid=9249f067-fc87-4402-abb8-b4129f4fdbbc"},"vehicle_type_id":"4","last_reported":1701540483,"current_range_meters":25600,"station_id":"ce4bh9p2rcd13ifvqec0","pricing_plan_id":"free"},{"bike_id":"4983b109-20ab-4a1d-9adb-0958ff71114e","system_id":"levelo_inurba_marseille","lat":43.287185,"lon":5.379373,"is_reserved":false,"is_disabled":false,"rental_uris":{"android":"levelo://app?vid=4983b109-20ab-4a1d-9adb-0958ff71114e","ios":"levelo://app?vid=4983b109-20ab-4a1d-9adb-0958ff71114e"},"vehicle_type_id":"4","last_reported":1701540483,"current_range_meters":29600,"station_id":"ce4bh9p2rcd13ifvqec0","pricing_plan_id":"free"},{"bike_id":"e5988933-a6d8-4f4c-8e72-dd2551aa5f0c","system_id":"levelo_inurba_marseille","lat":43.294314,"lon":5.397498,"is_reserved":false,"is_disabled":false,"rental_uris":{"android":"levelo://app?vid=e5988933-a6d8-4f4c-8e72-dd2551aa5f0c","ios":"levelo://app?vid=e5988933-a6d8-4f4c-8e72-dd2551aa5f0c"},"vehicle_type_id":"4","last_reported":1701540483,"current_range_meters":7200,"station_id":"ce4bh3h2rcd13ifvqdo0","pricing_plan_id":"free"},{"bike_id":"81399bbb-4fe3-4dbb-9731-a5572b9d2fda","system_id":"levelo_inurba_marseille","lat":43.285856,"lon":5.350771,"is_reserved":false,"is_disabled":false,"rental_uris":{"android":"levelo://app?vid=81399bbb-4fe3-4dbb-9731-a5572b9d2fda","ios":"levelo://app?vid=81399bbb-4fe3-4dbb-9731-a5572b9d2fda"},"vehicle_type_id":"4","last_reported":1701540483,"current_range_meters":0,"station_id":"ce4bhch2rcd13ifvqeug","pricing_plan_id":"free"},{"bike_id":"6d6efcf1-6445-440a-85e1-a133d4e48359","system_id":"levelo_inurba_marseille","lat":43.283998,"lon":5.375062,"is_reserved":false,"is_disabled":false,"rental_uris":{"android":"levelo://app?vid=6d6efcf1-6445-440a-85e1-a133d4e48359","ios":"levelo://app?vid=6d6efcf1-6445-440a-85e1-a133d4e48359"},"vehicle_type_id":"4","last_reported":1701540483,"current_range_meters":27600,"station_id":"ce4bh412rcd13ifvqds0","pricing_plan_id":"free"},{"bike_id":"9105c7c5-3a02-4ae3-a5ad-040af55aca5b","system_id":"levelo_inurba_marseille","lat":43.283998,"lon":5.375062,"is_reserved":false,"is_disabled":false,"rental_uris":{"android":"levelo://app?vid=9105c7c5-3a02-4ae3-a5ad-040af55aca5b","ios":"levelo://app?vid=9105c7c5-3a02-4ae3-a5ad-040af55aca5b"},"vehicle_type_id":"4","last_reported":1701540483,"current_range_meters":7600,"station_id":"ce4bh412rcd13ifvqds0","pricing_plan_id":"free"},{"bike_id":"103de487-24a0-4434-a9da-970194329254","system_id":"levelo_inurba_marseille","lat":43.283998,"lon":5.375062,"is_reserved":false,"is_disabled":false,"rental_uris":{"android":"levelo://app?vid=103de487-24a0-4434-a9da-970194329254","ios":"levelo://app?vid=103de487-24a0-4434-a9da-970194329254"},"vehicle_type_id":"4","last_reported":1701540483,"current_range_meters":27600,"station_id":"ce4bh412rcd13ifvqds0","pricing_plan_id":"free"},{"bike_id":"3b7ba15b-8c65-4fcd-826d-b82c270ff007","system_id":"levelo_inurba_marseille","lat":43.283998,"lon":5.375062,"is_reserved":false,"is_disabled":false,"rental_uris":{"android":"levelo://app?vid=3b7ba15b-8c65-4fcd-826d-b82c270ff007","ios":"levelo://app?vid=3b7ba15b-8c65-4fcd-826d-b82c270ff007"},"vehicle_type_id":"4","last_reported":1701540483,"current_range_meters":0,"station_id":"ce4bh412rcd13ifvqds0","pricing_plan_id":"free"},{"bike_id":"6790ac9a-4a54-42db-a4c9-3a15d060c424","system_id":"levelo_inurba_marseille","lat":43.295713,"lon":5.399639,"is_reserved":false,"is_disabled":false,"rental_uris":{"android":"levelo://app?vid=6790ac9a-4a54-42db-a4c9-3a15d060c424","ios":"levelo://app?vid=6790ac9a-4a54-42db-a4c9-3a15d060c424"},"vehicle_type_id":"4","last_reported":1701540483,"current_range_meters":27600,"station_id":"ce4bh312rcd13ifvqdj0","pricing_plan_id":"free"},{"bike_id":"75ee5a35-25e5-4210-a426-2d92cbb1b782","system_id":"levelo_inurba_marseille","lat":43.333232,"lon":5.3961,"is_reserved":false,"is_disabled":false,"rental_uris":{"android":"levelo://app?vid=75ee5a35-25e5-4210-a426-2d92cbb1b782","ios":"levelo://app?vid=75ee5a35-25e5-4210-a426-2d92cbb1b782"},"vehicle_type_id":"4","last_reported":1701540483,"current_range_meters":0,"station_id":"","pricing_plan_id":"free"},{"bike_id":"f99fc4d8-709b-4cee-a32c-2cdd6f1e8b1e","system_id":"levelo_inurba_marseille","lat":43.33749,"lon":5.39111,"is_reserved":false,"is_disabled":false,"rental_uris":{"android":"levelo://app?vid=f99fc4d8-709b-4cee-a32c-2cdd6f1e8b1e","ios":"levelo://app?vid=f99fc4d8-709b-4cee-a32c-2cdd6f1e8b1e"},"vehicle_type_id":"4","last_reported":1701540483,"current_range_meters":24800,"station_id":"","pricing_plan_id":"free"},{"bike_id":"23a6e18e-5ad6-40cf-b6fb-7a4b1a6034c9","system_id":"levelo_inurba_marseille","lat":43.33717,"lon":5.391857,"is_reserved":false,"is_disabled":false,"rental_uris":{"android":"levelo://app?vid=23a6e18e-5ad6-40cf-b6fb-7a4b1a6034c9","ios":"levelo://app?vid=23a6e18e-5ad6-40cf-b6fb-7a4b1a6034c9"},"vehicle_type_id":"4","last_reported":1701540483,"current_range_meters":26000,"station_id":"ce4bhr92rcd13ifvqhsg","pricing_plan_id":"free"},{"bike_id":"2aac8364-b5c2-41f6-84b2-995ee3019b9d","system_id":"levelo_inurba_marseille","lat":43.288501,"lon":5.393087,"is_reserved":false,"is_disabled":false,"rental_uris":{"android":"levelo://app?vid=2aac8364-b5c2-41f6-84b2-995ee3019b9d","ios":"levelo://app?vid=2aac8364-b5c2-41f6-84b2-995ee3019b9d"},"vehicle_type_id":"4","last_reported":1701540483,"current_range_meters":2800,"station_id":"ce4bh2p2rcd13ifvqdi0","pricing_plan_id":"free"},{"bike_id":"60f09481-c736-4d14-a81f-f76b8a6cf897","system_id":"levelo_inurba_marseille","lat":43.289363,"lon":5.396322,"is_reserved":false,"is_disabled":false,"rental_uris":{"android":"levelo://app?vid=60f09481-c736-4d14-a81f-f76b8a6cf897","ios":"levelo://app?vid=60f09481-c736-4d14-a81f-f76b8a6cf897"},"vehicle_type_id":"4","last_reported":1701540483,"current_range_meters":2400,"station_id":"ce4bh3h2rcd13ifvqdn0","pricing_plan_id":"free"},{"bike_id":"c5416d86-186b-4a3e-97b8-d7bf95897f60","system_id":"levelo_inurba_marseille","lat":43.289363,"lon":5.396322,"is_reserved":false,"is_disabled":false,"rental_uris":{"android":"levelo://app?vid=c5416d86-186b-4a3e-97b8-d7bf95897f60","ios":"levelo://app?vid=c5416d86-186b-4a3e-97b8-d7bf95897f60"},"vehicle_type_id":"4","last_reported":1701540483,"current_range_meters":7600,"station_id":"ce4bh3h2rcd13ifvqdn0","pricing_plan_id":"free"},{"bike_id":"c3a31f62-35e7-4890-b220-a7697411565c","system_id":"levelo_inurba_marseille","lat":43.283502,"lon":5.386471,"is_reserved":false,"is_disabled":false,"rental_uris":{"android":"levelo://app?vid=c3a31f62-35e7-4890-b220-a7697411565c","ios":"levelo://app?vid=c3a31f62-35e7-4890-b220-a7697411565c"},"vehicle_type_id":"4","last_reported":1701540483,"current_range_meters":18000,"station_id":"ce4bh492rcd13ifvqdvg","pricing_plan_id":"free"},{"bike_id":"d67ab5db-34f4-4fed-88e8-e97a883b95a0","system_id":"levelo_inurba_marseille","lat":43.2828,"lon":5.3507,"is_reserved":false,"is_disabled":false,"rental_uris":{"android":"levelo://app?vid=d67ab5db-34f4-4fed-88e8-e97a883b95a0","ios":"levelo://app?vid=d67ab5db-34f4-4fed-88e8-e97a883b95a0"},"vehicle_type_id":"4","last_reported":1701540483,"current_range_meters":0,"station_id":"ce4bhbp2rcd13ifvqerg","pricing_plan_id":"free"},{"bike_id":"3ffe2381-791e-4dfc-ab55-b1a1afebe7c4","system_id":"levelo_inurba_marseille","lat":43.28039,"lon":5.369297,"is_reserved":false,"is_disabled":false,"rental_uris":{"android":"levelo://app?vid=3ffe2381-791e-4dfc-ab55-b1a1afebe7c4","ios":"levelo://app?vid=3ffe2381-791e-4dfc-ab55-b1a1afebe7c4"},"vehicle_type_id":"4","last_reported":1701540483,"current_range_meters":12400,"station_id":"ce4bha12rcd13ifvqef0","pricing_plan_id":"free"},{"bike_id":"abe974c0-c4c8-46da-96a9-0f706ed1a715","system_id":"levelo_inurba_marseille","lat":43.281044,"lon":5.378308,"is_reserved":false,"is_disabled":false,"rental_uris":{"android":"levelo://app?vid=abe974c0-c4c8-46da-96a9-0f706ed1a715","ios":"levelo://app?vid=abe974c0-c4c8-46da-96a9-0f706ed1a715"},"vehicle_type_id":"4","last_reported":1701540483,"current_range_meters":4400,"station_id":"ce4bha12rcd13ifvqee0","pricing_plan_id":"free"},{"bike_id":"be402108-49df-449c-af84-30ba731cc62f","system_id":"levelo_inurba_marseille","lat":43.2964,"lon":5.40595,"is_reserved":false,"is_disabled":false,"rental_uris":{"android":"levelo://app?vid=be402108-49df-449c-af84-30ba731cc62f","ios":"levelo://app?vid=be402108-49df-449c-af84-30ba731cc62f"},"vehicle_type_id":"4","last_reported":1701540483,"current_range_meters":10800,"station_id":"ce4bh0h2rcd13ifvqd60","pricing_plan_id":"free"},{"bike_id":"860e94fd-4fca-4304-826e-50d0d9c850f5","system_id":"levelo_inurba_marseille","lat":43.304188,"lon":5.412904,"is_reserved":false,"is_disabled":false,"rental_uris":{"android":"levelo://app?vid=860e94fd-4fca-4304-826e-50d0d9c850f5","ios":"levelo://app?vid=860e94fd-4fca-4304-826e-50d0d9c850f5"},"vehicle_type_id":"4","last_reported":1701540483,"current_range_meters":26000,"station_id":"ce4bhop2rcd13ifvqh8g","pricing_plan_id":"free"},{"bike_id":"71a02c85-c219-4535-9c48-f8f398135475","system_id":"levelo_inurba_marseille","lat":43.28698,"lon":5.3998,"is_reserved":false,"is_disabled":false,"rental_uris":{"android":"levelo://app?vid=71a02c85-c219-4535-9c48-f8f398135475","ios":"levelo://app?vid=71a02c85-c219-4535-9c48-f8f398135475"},"vehicle_type_id":"4","last_reported":1701540483,"current_range_meters":0,"station_id":"","pricing_plan_id":"free"},{"bike_id":"a86b05ec-d6e9-4108-9eb9-985025562aa2","system_id":"levelo_inurba_marseille","lat":43.299579,"lon":5.413255,"is_reserved":false,"is_disabled":false,"rental_uris":{"android":"levelo://app?vid=a86b05ec-d6e9-4108-9eb9-985025562aa2","ios":"levelo://app?vid=a86b05ec-d6e9-4108-9eb9-985025562aa2"},"vehicle_type_id":"4","last_reported":1701540483,"current_range_meters":26800,"station_id":"ce4bhp12rcd13ifvqh9g","pricing_plan_id":"free"},{"bike_id":"79bef162-5c7c-4d39-b39b-7e934257755a","system_id":"levelo_inurba_marseille","lat":43.32541,"lon":5.414384,"is_reserved":false,"is_disabled":false,"rental_uris":{"android":"levelo://app?vid=79bef162-5c7c-4d39-b39b-7e934257755a","ios":"levelo://app?vid=79bef162-5c7c-4d39-b39b-7e934257755a"},"vehicle_type_id":"4","last_reported":1701540483,"current_range_meters":6800,"station_id":"ce4bhq12rcd13ifvqhhg","pricing_plan_id":"free"},{"bike_id":"e5cfeb43-44c4-48ef-a2cc-43adc794b053","system_id":"levelo_inurba_marseille","lat":43.276188,"lon":5.36105,"is_reserved":false,"is_disabled":false,"rental_uris":{"android":"levelo://app?vid=e5cfeb43-44c4-48ef-a2cc-43adc794b053","ios":"levelo://app?vid=e5cfeb43-44c4-48ef-a2cc-43adc794b053"},"vehicle_type_id":"4","last_reported":1701540483,"current_range_meters":20000,"station_id":"ce4bgj92rcd13ifvqbe0","pricing_plan_id":"free"},{"bike_id":"1e6c48f0-3fb9-4d72-8f3e-ffd81e386925","system_id":"levelo_inurba_marseille","lat":43.27611,"lon":5.36108,"is_reserved":false,"is_disabled":false,"rental_uris":{"android":"levelo://app?vid=1e6c48f0-3fb9-4d72-8f3e-ffd81e386925","ios":"levelo://app?vid=1e6c48f0-3fb9-4d72-8f3e-ffd81e386925"},"vehicle_type_id":"4","last_reported":1701540483,"current_range_meters":1600,"station_id":"ce4bgj92rcd13ifvqbe0","pricing_plan_id":"free"},{"bike_id":"451e5711-912b-4e6f-ba92-14f20d0093e3","system_id":"levelo_inurba_marseille","lat":43.336964,"lon":5.40656,"is_reserved":false,"is_disabled":false,"rental_uris":{"android":"levelo://app?vid=451e5711-912b-4e6f-ba92-14f20d0093e3","ios":"levelo://app?vid=451e5711-912b-4e6f-ba92-14f20d0093e3"},"vehicle_type_id":"4","last_reported":1701540483,"current_range_meters":19200,"station_id":"","pricing_plan_id":"free"},{"bike_id":"bcdb50df-13be-4393-adc8-1a79a4e56c43","system_id":"levelo_inurba_marseille","lat":43.28619,"lon":5.40406,"is_reserved":false,"is_disabled":false,"rental_uris":{"android":"levelo://app?vid=bcdb50df-13be-4393-adc8-1a79a4e56c43","ios":"levelo://app?vid=bcdb50df-13be-4393-adc8-1a79a4e56c43"},"vehicle_type_id":"4","last_reported":1701540483,"current_range_meters":0,"station_id":"","pricing_plan_id":"free"},{"bike_id":"337ccd09-5f47-43be-ac45-b1b9be115ce4","system_id":"levelo_inurba_marseille","lat":43.280784,"lon":5.396622,"is_reserved":false,"is_disabled":false,"rental_uris":{"android":"levelo://app?vid=337ccd09-5f47-43be-ac45-b1b9be115ce4","ios":"levelo://app?vid=337ccd09-5f47-43be-ac45-b1b9be115ce4"},"vehicle_type_id":"4","last_reported":1701540483,"current_range_meters":2000,"station_id":"ce4bho12rcd13ifvqh2g","pricing_plan_id":"free"},{"bike_id":"9855990a-9d93-42de-8c7a-c7ee1d9cd063","system_id":"levelo_inurba_marseille","lat":43.278401,"lon":5.392152,"is_reserved":false,"is_disabled":false,"rental_uris":{"android":"levelo://app?vid=9855990a-9d93-42de-8c7a-c7ee1d9cd063","ios":"levelo://app?vid=9855990a-9d93-42de-8c7a-c7ee1d9cd063"},"vehicle_type_id":"4","last_reported":1701540483,"current_range_meters":6400,"station_id":"ce4bhjp2rcd13ifvqga0","pricing_plan_id":"free"},{"bike_id":"dd1614ba-585e-450a-834b-1c03d5d026e1","system_id":"levelo_inurba_marseille","lat":43.273613,"lon":5.362705,"is_reserved":false,"is_disabled":false,"rental_uris":{"android":"levelo://app?vid=dd1614ba-585e-450a-834b-1c03d5d026e1","ios":"levelo://app?vid=dd1614ba-585e-450a-834b-1c03d5d026e1"},"vehicle_type_id":"4","last_reported":1701540483,"current_range_meters":31600,"station_id":"ce4bhbh2rcd13ifvqeo0","pricing_plan_id":"free"},{"bike_id":"6c6dfa43-2cc5-48c4-9b7a-5ea1c94db2ec","system_id":"levelo_inurba_marseille","lat":43.273609,"lon":5.362708,"is_reserved":false,"is_disabled":false,"rental_uris":{"android":"levelo://app?vid=6c6dfa43-2cc5-48c4-9b7a-5ea1c94db2ec","ios":"levelo://app?vid=6c6dfa43-2cc5-48c4-9b7a-5ea1c94db2ec"},"vehicle_type_id":"4","last_reported":1701540483,"current_range_meters":30400,"station_id":"ce4bhbh2rcd13ifvqeo0","pricing_plan_id":"free"},{"bike_id":"4f44e41c-5d5f-40b0-808d-6fe2cbe6b56b","system_id":"levelo_inurba_marseille","lat":43.33612,"lon":5.410321,"is_reserved":false,"is_disabled":false,"rental_uris":{"android":"levelo://app?vid=4f44e41c-5d5f-40b0-808d-6fe2cbe6b56b","ios":"levelo://app?vid=4f44e41c-5d5f-40b0-808d-6fe2cbe6b56b"},"vehicle_type_id":"4","last_reported":1701540483,"current_range_meters":30800,"station_id":"ce4bhqh2rcd13ifvqhmg","pricing_plan_id":"free"},{"bike_id":"c1cad434-c030-4ec2-a9f5-f7ba562c8337","system_id":"levelo_inurba_marseille","lat":43.336134,"lon":5.410341,"is_reserved":false,"is_disabled":false,"rental_uris":{"android":"levelo://app?vid=c1cad434-c030-4ec2-a9f5-f7ba562c8337","ios":"levelo://app?vid=c1cad434-c030-4ec2-a9f5-f7ba562c8337"},"vehicle_type_id":"4","last_reported":1701540483,"current_range_meters":24800,"station_id":"ce4bhqh2rcd13ifvqhmg","pricing_plan_id":"free"},{"bike_id":"b479fcc3-0a05-4ccb-ba48-fc63c4e9d231","system_id":"levelo_inurba_marseille","lat":43.336134,"lon":5.410341,"is_reserved":false,"is_disabled":false,"rental_uris":{"android":"levelo://app?vid=b479fcc3-0a05-4ccb-ba48-fc63c4e9d231","ios":"levelo://app?vid=b479fcc3-0a05-4ccb-ba48-fc63c4e9d231"},"vehicle_type_id":"4","last_reported":1701540483,"current_range_meters":16000,"station_id":"ce4bhqh2rcd13ifvqhmg","pricing_plan_id":"free"},{"bike_id":"7a497553-d9f0-4bef-bb1d-4bc900d88ef4","system_id":"levelo_inurba_marseille","lat":43.33627,"lon":5.41026,"is_reserved":false,"is_disabled":false,"rental_uris":{"android":"levelo://app?vid=7a497553-d9f0-4bef-bb1d-4bc900d88ef4","ios":"levelo://app?vid=7a497553-d9f0-4bef-bb1d-4bc900d88ef4"},"vehicle_type_id":"4","last_reported":1701540483,"current_range_meters":3200,"station_id":"ce4bhqh2rcd13ifvqhmg","pricing_plan_id":"free"},{"bike_id":"75269014-fd84-4a1f-9fa5-95a0080041c8","system_id":"levelo_inurba_marseille","lat":43.310785,"lon":5.424305,"is_reserved":false,"is_disabled":false,"rental_uris":{"android":"levelo://app?vid=75269014-fd84-4a1f-9fa5-95a0080041c8","ios":"levelo://app?vid=75269014-fd84-4a1f-9fa5-95a0080041c8"},"vehicle_type_id":"4","last_reported":1701540483,"current_range_meters":28400,"station_id":"ce4bhp92rcd13ifvqhag","pricing_plan_id":"free"},{"bike_id":"910fd3aa-d2e0-4553-894a-6161d41c7fcd","system_id":"levelo_inurba_marseille","lat":43.27609,"lon":5.39475,"is_reserved":false,"is_disabled":false,"rental_uris":{"android":"levelo://app?vid=910fd3aa-d2e0-4553-894a-6161d41c7fcd","ios":"levelo://app?vid=910fd3aa-d2e0-4553-894a-6161d41c7fcd"},"vehicle_type_id":"4","last_reported":1701540483,"current_range_meters":17600,"station_id":"","pricing_plan_id":"free"},{"bike_id":"da7f7625-db63-42fe-a02c-753cd5ff3678","system_id":"levelo_inurba_marseille","lat":43.340804,"lon":5.410219,"is_reserved":false,"is_disabled":false,"rental_uris":{"android":"levelo://app?vid=da7f7625-db63-42fe-a02c-753cd5ff3678","ios":"levelo://app?vid=da7f7625-db63-42fe-a02c-753cd5ff3678"},"vehicle_type_id":"4","last_reported":1701540483,"current_range_meters":14000,"station_id":"ce4bhqh2rcd13ifvqhlg","pricing_plan_id":"free"},{"bike_id":"ac66a036-a10d-4f8c-83e4-715d71e292f8","system_id":"levelo_inurba_marseille","lat":43.295523,"lon":5.422926,"is_reserved":false,"is_disabled":false,"rental_uris":{"android":"levelo://app?vid=ac66a036-a10d-4f8c-83e4-715d71e292f8","ios":"levelo://app?vid=ac66a036-a10d-4f8c-83e4-715d71e292f8"},"vehicle_type_id":"4","last_reported":1701540483,"current_range_meters":30800,"station_id":"ce4bhph2rcd13ifvqhdg","pricing_plan_id":"free"},{"bike_id":"95685763-623c-4a3e-8903-f00a16384f53","system_id":"levelo_inurba_marseille","lat":43.269467,"lon":5.386439,"is_reserved":false,"is_disabled":false,"rental_uris":{"android":"levelo://app?vid=95685763-623c-4a3e-8903-f00a16384f53","ios":"levelo://app?vid=95685763-623c-4a3e-8903-f00a16384f53"},"vehicle_type_id":"4","last_reported":1701540483,"current_range_meters":12400,"station_id":"ce4bhh92rcd13ifvqfh0","pricing_plan_id":"free"},{"bike_id":"45ca89f9-3042-4d03-89e3-bb8495c4f33a","system_id":"levelo_inurba_marseille","lat":43.27996,"lon":5.416624,"is_reserved":false,"is_disabled":false,"rental_uris":{"android":"levelo://app?vid=45ca89f9-3042-4d03-89e3-bb8495c4f33a","ios":"levelo://app?vid=45ca89f9-3042-4d03-89e3-bb8495c4f33a"},"vehicle_type_id":"4","last_reported":1701540483,"current_range_meters":11600,"station_id":"ce4bho12rcd13ifvqh1g","pricing_plan_id":"free"},{"bike_id":"8eda48c5-3daa-4792-abe6-995254c5aa9b","system_id":"levelo_inurba_marseille","lat":43.27996,"lon":5.416624,"is_reserved":false,"is_disabled":false,"rental_uris":{"android":"levelo://app?vid=8eda48c5-3daa-4792-abe6-995254c5aa9b","ios":"levelo://app?vid=8eda48c5-3daa-4792-abe6-995254c5aa9b"},"vehicle_type_id":"4","last_reported":1701540483,"current_range_meters":22000,"station_id":"ce4bho12rcd13ifvqh1g","pricing_plan_id":"free"},{"bike_id":"12090fa8-005f-497d-b441-ae58c816e8cf","system_id":"levelo_inurba_marseille","lat":43.27996,"lon":5.416624,"is_reserved":false,"is_disabled":false,"rental_uris":{"android":"levelo://app?vid=12090fa8-005f-497d-b441-ae58c816e8cf","ios":"levelo://app?vid=12090fa8-005f-497d-b441-ae58c816e8cf"},"vehicle_type_id":"4","last_reported":1701540483,"current_range_meters":21200,"station_id":"ce4bho12rcd13ifvqh1g","pricing_plan_id":"free"},{"bike_id":"7f836f53-943f-483d-b774-3da943f05524","system_id":"levelo_inurba_marseille","lat":43.308051,"lon":5.43527,"is_reserved":false,"is_disabled":false,"rental_uris":{"android":"levelo://app?vid=7f836f53-943f-483d-b774-3da943f05524","ios":"levelo://app?vid=7f836f53-943f-483d-b774-3da943f05524"},"vehicle_type_id":"4","last_reported":1701540483,"current_range_meters":20000,"station_id":"ce4bhph2rcd13ifvqheg","pricing_plan_id":"free"},{"bike_id":"b7a296d9-a920-4574-840a-43d292645f9a","system_id":"levelo_inurba_marseille","lat":43.265569,"lon":5.390047,"is_reserved":false,"is_disabled":false,"rental_uris":{"android":"levelo://app?vid=b7a296d9-a920-4574-840a-43d292645f9a","ios":"levelo://app?vid=b7a296d9-a920-4574-840a-43d292645f9a"},"vehicle_type_id":"4","last_reported":1701540483,"current_range_meters":0,"station_id":"ce4bhe12rcd13ifvqf30","pricing_plan_id":"free"},{"bike_id":"d59ed76b-448b-461b-bd29-0950456c9979","system_id":"levelo_inurba_marseille","lat":43.271368,"lon":5.40928,"is_reserved":false,"is_disabled":false,"rental_uris":{"android":"levelo://app?vid=d59ed76b-448b-461b-bd29-0950456c9979","ios":"levelo://app?vid=d59ed76b-448b-461b-bd29-0950456c9979"},"vehicle_type_id":"4","last_reported":1701540483,"current_range_meters":29600,"station_id":"ce4bhl12rcd13ifvqgf0","pricing_plan_id":"free"},{"bike_id":"42c2f902-b92f-4293-bd7f-ace0b830882b","system_id":"levelo_inurba_marseille","lat":43.281548,"lon":5.42643,"is_reserved":false,"is_disabled":false,"rental_uris":{"android":"levelo://app?vid=42c2f902-b92f-4293-bd7f-ace0b830882b","ios":"levelo://app?vid=42c2f902-b92f-4293-bd7f-ace0b830882b"},"vehicle_type_id":"4","last_reported":1701540483,"current_range_meters":0,"station_id":"ce4bhnh2rcd13ifvqgug","pricing_plan_id":"free"},{"bike_id":"17af9e80-8bc8-42cb-91c0-1cc66c74fe88","system_id":"levelo_inurba_marseille","lat":43.2607,"lon":5.393983,"is_reserved":false,"is_disabled":false,"rental_uris":{"android":"levelo://app?vid=17af9e80-8bc8-42cb-91c0-1cc66c74fe88","ios":"levelo://app?vid=17af9e80-8bc8-42cb-91c0-1cc66c74fe88"},"vehicle_type_id":"4","last_reported":1701540483,"current_range_meters":16000,"station_id":"ce4bhh92rcd13ifvqfj0","pricing_plan_id":"free"},{"bike_id":"aae89ef0-82b9-4330-b64e-eaeb9e0441da","system_id":"levelo_inurba_marseille","lat":43.2607,"lon":5.393983,"is_reserved":false,"is_disabled":false,"rental_uris":{"android":"levelo://app?vid=aae89ef0-82b9-4330-b64e-eaeb9e0441da","ios":"levelo://app?vid=aae89ef0-82b9-4330-b64e-eaeb9e0441da"},"vehicle_type_id":"4","last_reported":1701540483,"current_range_meters":9200,"station_id":"ce4bhh92rcd13ifvqfj0","pricing_plan_id":"free"},{"bike_id":"d83e48ac-2a86-45c4-af3a-74f38c183d44","system_id":"levelo_inurba_marseille","lat":43.258224,"lon":5.394369,"is_reserved":false,"is_disabled":false,"rental_uris":{"android":"levelo://app?vid=d83e48ac-2a86-45c4-af3a-74f38c183d44","ios":"levelo://app?vid=d83e48ac-2a86-45c4-af3a-74f38c183d44"},"vehicle_type_id":"4","last_reported":1701540483,"current_range_meters":14800,"station_id":"ce4bhip2rcd13ifvqft0","pricing_plan_id":"free"},{"bike_id":"b19339bd-8b27-48d6-889b-67fd9c72d504","system_id":"levelo_inurba_marseille","lat":43.270721,"lon":5.422764,"is_reserved":false,"is_disabled":false,"rental_uris":{"android":"levelo://app?vid=b19339bd-8b27-48d6-889b-67fd9c72d504","ios":"levelo://app?vid=b19339bd-8b27-48d6-889b-67fd9c72d504"},"vehicle_type_id":"4","last_reported":1701540483,"current_range_meters":14000,"station_id":"ce4bhk92rcd13ifvqgb0","pricing_plan_id":"free"},{"bike_id":"1058092d-5c89-4a10-9402-b6ed81d5deeb","system_id":"levelo_inurba_marseille","lat":43.270721,"lon":5.422764,"is_reserved":false,"is_disabled":false,"rental_uris":{"android":"levelo://app?vid=1058092d-5c89-4a10-9402-b6ed81d5deeb","ios":"levelo://app?vid=1058092d-5c89-4a10-9402-b6ed81d5deeb"},"vehicle_type_id":"4","last_reported":1701540483,"current_range_meters":15200,"station_id":"ce4bhk92rcd13ifvqgb0","pricing_plan_id":"free"},{"bike_id":"a6061481-cefc-434f-a572-37ede54c03ff","system_id":"levelo_inurba_marseille","lat":43.258658,"lon":5.398935,"is_reserved":false,"is_disabled":false,"rental_uris":{"android":"levelo://app?vid=a6061481-cefc-434f-a572-37ede54c03ff","ios":"levelo://app?vid=a6061481-cefc-434f-a572-37ede54c03ff"},"vehicle_type_id":"4","last_reported":1701540483,"current_range_meters":6000,"station_id":"ce4bhl92rcd13ifvqghg","pricing_plan_id":"free"},{"bike_id":"03945b3a-8057-4edc-9a91-0cdfb9e645e9","system_id":"levelo_inurba_marseille","lat":43.258658,"lon":5.398935,"is_reserved":false,"is_disabled":false,"rental_uris":{"android":"levelo://app?vid=03945b3a-8057-4edc-9a91-0cdfb9e645e9","ios":"levelo://app?vid=03945b3a-8057-4edc-9a91-0cdfb9e645e9"},"vehicle_type_id":"4","last_reported":1701540483,"current_range_meters":13600,"station_id":"ce4bhl92rcd13ifvqghg","pricing_plan_id":"free"},{"bike_id":"96d45f6e-eabf-4278-be04-044b4f37b395","system_id":"levelo_inurba_marseille","lat":43.258658,"lon":5.398935,"is_reserved":false,"is_disabled":false,"rental_uris":{"android":"levelo://app?vid=96d45f6e-eabf-4278-be04-044b4f37b395","ios":"levelo://app?vid=96d45f6e-eabf-4278-be04-044b4f37b395"},"vehicle_type_id":"4","last_reported":1701540483,"current_range_meters":27200,"station_id":"ce4bhl92rcd13ifvqghg","pricing_plan_id":"free"},{"bike_id":"bdc72d7c-9d46-4016-8a92-851cd50823f9","system_id":"levelo_inurba_marseille","lat":43.259009,"lon":5.40929,"is_reserved":false,"is_disabled":false,"rental_uris":{"android":"levelo://app?vid=bdc72d7c-9d46-4016-8a92-851cd50823f9","ios":"levelo://app?vid=bdc72d7c-9d46-4016-8a92-851cd50823f9"},"vehicle_type_id":"4","last_reported":1701540483,"current_range_meters":27600,"station_id":"ce4bhm92rcd13ifvqglg","pricing_plan_id":"free"},{"bike_id":"8b461cd2-ef6a-465d-beba-fe65f8253827","system_id":"levelo_inurba_marseille","lat":43.25712,"lon":5.41121,"is_reserved":false,"is_disabled":false,"rental_uris":{"android":"levelo://app?vid=8b461cd2-ef6a-465d-beba-fe65f8253827","ios":"levelo://app?vid=8b461cd2-ef6a-465d-beba-fe65f8253827"},"vehicle_type_id":"4","last_reported":1701540483,"current_range_meters":11200,"station_id":"ce4bhkp2rcd13ifvqgd0","pricing_plan_id":"free"},{"bike_id":"c2c54c96-8911-41ce-9741-6ecbcb115f60","system_id":"levelo_inurba_marseille","lat":43.250009,"lon":5.389195,"is_reserved":false,"is_disabled":false,"rental_uris":{"android":"levelo://app?vid=c2c54c96-8911-41ce-9741-6ecbcb115f60","ios":"levelo://app?vid=c2c54c96-8911-41ce-9741-6ecbcb115f60"},"vehicle_type_id":"4","last_reported":1701540483,"current_range_meters":31600,"station_id":"ce4bhgp2rcd13ifvqfd0","pricing_plan_id":"free"},{"bike_id":"8d7a849d-d75b-49e8-8a06-ba3e35d09f67","system_id":"levelo_inurba_marseille","lat":43.2479,"lon":5.374457,"is_reserved":false,"is_disabled":false,"rental_uris":{"android":"levelo://app?vid=8d7a849d-d75b-49e8-8a06-ba3e35d09f67","ios":"levelo://app?vid=8d7a849d-d75b-49e8-8a06-ba3e35d09f67"},"vehicle_type_id":"4","last_reported":1701540483,"current_range_meters":11600,"station_id":"ce4bhgh2rcd13ifvqfb0","pricing_plan_id":"free"},{"bike_id":"e7f63749-ec04-4f3b-aaee-eccd6688f4d2","system_id":"levelo_inurba_marseille","lat":43.24671,"lon":5.38155,"is_reserved":false,"is_disabled":false,"rental_uris":{"android":"levelo://app?vid=e7f63749-ec04-4f3b-aaee-eccd6688f4d2","ios":"levelo://app?vid=e7f63749-ec04-4f3b-aaee-eccd6688f4d2"},"vehicle_type_id":"4","last_reported":1701540483,"current_range_meters":11200,"station_id":"ce4bhih2rcd13ifvqfr0","pricing_plan_id":"free"},{"bike_id":"52748dec-6a2b-4e48-a00a-d0dbf38ea35e","system_id":"levelo_inurba_marseille","lat":43.24693,"lon":5.382096,"is_reserved":false,"is_disabled":false,"rental_uris":{"android":"levelo://app?vid=52748dec-6a2b-4e48-a00a-d0dbf38ea35e","ios":"levelo://app?vid=52748dec-6a2b-4e48-a00a-d0dbf38ea35e"},"vehicle_type_id":"4","last_reported":1701540483,"current_range_meters":14800,"station_id":"ce4bhih2rcd13ifvqfr0","pricing_plan_id":"free"},{"bike_id":"003e078d-7fce-40f0-94a9-6c10ca3ae848","system_id":"levelo_inurba_marseille","lat":43.24693,"lon":5.382096,"is_reserved":false,"is_disabled":false,"rental_uris":{"android":"levelo://app?vid=003e078d-7fce-40f0-94a9-6c10ca3ae848","ios":"levelo://app?vid=003e078d-7fce-40f0-94a9-6c10ca3ae848"},"vehicle_type_id":"4","last_reported":1701540483,"current_range_meters":12000,"station_id":"ce4bhih2rcd13ifvqfr0","pricing_plan_id":"free"},{"bike_id":"95654d96-f5a8-4bc4-8912-51a33939e6bd","system_id":"levelo_inurba_marseille","lat":43.24666,"lon":5.3817,"is_reserved":false,"is_disabled":false,"rental_uris":{"android":"levelo://app?vid=95654d96-f5a8-4bc4-8912-51a33939e6bd","ios":"levelo://app?vid=95654d96-f5a8-4bc4-8912-51a33939e6bd"},"vehicle_type_id":"4","last_reported":1701540483,"current_range_meters":0,"station_id":"ce4bhih2rcd13ifvqfr0","pricing_plan_id":"free"},{"bike_id":"8c1e3f91-0625-4f6f-ad01-1f5fb2757871","system_id":"levelo_inurba_marseille","lat":43.25102,"lon":5.403214,"is_reserved":false,"is_disabled":false,"rental_uris":{"android":"levelo://app?vid=8c1e3f91-0625-4f6f-ad01-1f5fb2757871","ios":"levelo://app?vid=8c1e3f91-0625-4f6f-ad01-1f5fb2757871"},"vehicle_type_id":"4","last_reported":1701540483,"current_range_meters":31600,"station_id":"ce4bhlh2rcd13ifvqgig","pricing_plan_id":"free"},{"bike_id":"2cd8b1f6-a549-4014-98c0-f9642fecf11a","system_id":"levelo_inurba_marseille","lat":43.25102,"lon":5.403214,"is_reserved":false,"is_disabled":false,"rental_uris":{"android":"levelo://app?vid=2cd8b1f6-a549-4014-98c0-f9642fecf11a","ios":"levelo://app?vid=2cd8b1f6-a549-4014-98c0-f9642fecf11a"},"vehicle_type_id":"4","last_reported":1701540483,"current_range_meters":15200,"station_id":"ce4bhlh2rcd13ifvqgig","pricing_plan_id":"free"},{"bike_id":"bb520e6a-c991-494d-a369-164b85e1bcba","system_id":"levelo_inurba_marseille","lat":43.25102,"lon":5.403214,"is_reserved":false,"is_disabled":false,"rental_uris":{"android":"levelo://app?vid=bb520e6a-c991-494d-a369-164b85e1bcba","ios":"levelo://app?vid=bb520e6a-c991-494d-a369-164b85e1bcba"},"vehicle_type_id":"4","last_reported":1701540483,"current_range_meters":14800,"station_id":"ce4bhlh2rcd13ifvqgig","pricing_plan_id":"free"},{"bike_id":"55aef649-cb82-488f-a60c-f93cbbae28ff","system_id":"levelo_inurba_marseille","lat":43.25102,"lon":5.403214,"is_reserved":false,"is_disabled":false,"rental_uris":{"android":"levelo://app?vid=55aef649-cb82-488f-a60c-f93cbbae28ff","ios":"levelo://app?vid=55aef649-cb82-488f-a60c-f93cbbae28ff"},"vehicle_type_id":"4","last_reported":1701540483,"current_range_meters":17200,"station_id":"ce4bhlh2rcd13ifvqgig","pricing_plan_id":"free"},{"bike_id":"27036a54-dc63-4fa5-b6ae-081f9e58f542","system_id":"levelo_inurba_marseille","lat":43.246467,"lon":5.388984,"is_reserved":false,"is_disabled":false,"rental_uris":{"android":"levelo://app?vid=27036a54-dc63-4fa5-b6ae-081f9e58f542","ios":"levelo://app?vid=27036a54-dc63-4fa5-b6ae-081f9e58f542"},"vehicle_type_id":"4","last_reported":1701540483,"current_range_meters":25600,"station_id":"ce4bhg12rcd13ifvqf60","pricing_plan_id":"free"},{"bike_id":"0c65e446-c621-47d9-ae6b-c2fe97147a5a","system_id":"levelo_inurba_marseille","lat":43.243884,"lon":5.370736,"is_reserved":false,"is_disabled":false,"rental_uris":{"android":"levelo://app?vid=0c65e446-c621-47d9-ae6b-c2fe97147a5a","ios":"levelo://app?vid=0c65e446-c621-47d9-ae6b-c2fe97147a5a"},"vehicle_type_id":"4","last_reported":1701540483,"current_range_meters":12400,"station_id":"ce4bhhh2rcd13ifvqfk0","pricing_plan_id":"free"},{"bike_id":"5e2525d2-97ba-4430-9d59-e21eba679f8b","system_id":"levelo_inurba_marseille","lat":43.243884,"lon":5.370737,"is_reserved":false,"is_disabled":false,"rental_uris":{"android":"levelo://app?vid=5e2525d2-97ba-4430-9d59-e21eba679f8b","ios":"levelo://app?vid=5e2525d2-97ba-4430-9d59-e21eba679f8b"},"vehicle_type_id":"4","last_reported":1701540483,"current_range_meters":28400,"station_id":"ce4bhhh2rcd13ifvqfk0","pricing_plan_id":"free"},{"bike_id":"61a9e6b0-f435-4470-83bd-a67a85c1a979","system_id":"levelo_inurba_marseille","lat":43.243884,"lon":5.370736,"is_reserved":false,"is_disabled":false,"rental_uris":{"android":"levelo://app?vid=61a9e6b0-f435-4470-83bd-a67a85c1a979","ios":"levelo://app?vid=61a9e6b0-f435-4470-83bd-a67a85c1a979"},"vehicle_type_id":"4","last_reported":1701540483,"current_range_meters":13200,"station_id":"ce4bhhh2rcd13ifvqfk0","pricing_plan_id":"free"},{"bike_id":"d01d6e75-71cc-424f-abc9-83946ce074e9","system_id":"levelo_inurba_marseille","lat":43.245581,"lon":5.395069,"is_reserved":false,"is_disabled":false,"rental_uris":{"android":"levelo://app?vid=d01d6e75-71cc-424f-abc9-83946ce074e9","ios":"levelo://app?vid=d01d6e75-71cc-424f-abc9-83946ce074e9"},"vehicle_type_id":"4","last_reported":1701540483,"current_range_meters":10000,"station_id":"ce4bhlp2rcd13ifvqgjg","pricing_plan_id":"free"},{"bike_id":"ada0aadf-ed1c-44ae-be81-695ed7b96fa8","system_id":"levelo_inurba_marseille","lat":43.240623,"lon":5.377642,"is_reserved":false,"is_disabled":false,"rental_uris":{"android":"levelo://app?vid=ada0aadf-ed1c-44ae-be81-695ed7b96fa8","ios":"levelo://app?vid=ada0aadf-ed1c-44ae-be81-695ed7b96fa8"},"vehicle_type_id":"4","last_reported":1701540483,"current_range_meters":8400,"station_id":"ce4bhnp2rcd13ifvqgvg","pricing_plan_id":"free"},{"bike_id":"54ac5bc5-2832-4694-927f-e59c90385069","system_id":"levelo_inurba_marseille","lat":43.239588,"lon":5.366238,"is_reserved":false,"is_disabled":false,"rental_uris":{"android":"levelo://app?vid=54ac5bc5-2832-4694-927f-e59c90385069","ios":"levelo://app?vid=54ac5bc5-2832-4694-927f-e59c90385069"},"vehicle_type_id":"4","last_reported":1701540483,"current_range_meters":19600,"station_id":"ce4bhi12rcd13ifvqfp0","pricing_plan_id":"free"},{"bike_id":"a6178867-d14e-4b77-a9e0-b0541c52b406","system_id":"levelo_inurba_marseille","lat":43.239588,"lon":5.366238,"is_reserved":false,"is_disabled":false,"rental_uris":{"android":"levelo://app?vid=a6178867-d14e-4b77-a9e0-b0541c52b406","ios":"levelo://app?vid=a6178867-d14e-4b77-a9e0-b0541c52b406"},"vehicle_type_id":"4","last_reported":1701540483,"current_range_meters":7600,"station_id":"ce4bhi12rcd13ifvqfp0","pricing_plan_id":"free"},{"bike_id":"253842fc-929c-41d1-9477-59c41002129c","system_id":"levelo_inurba_marseille","lat":43.239588,"lon":5.366238,"is_reserved":false,"is_disabled":false,"rental_uris":{"android":"levelo://app?vid=253842fc-929c-41d1-9477-59c41002129c","ios":"levelo://app?vid=253842fc-929c-41d1-9477-59c41002129c"},"vehicle_type_id":"4","last_reported":1701540483,"current_range_meters":31600,"station_id":"ce4bhi12rcd13ifvqfp0","pricing_plan_id":"free"},{"bike_id":"cbdc48ab-3827-42d6-a340-83fab12ae087","system_id":"levelo_inurba_marseille","lat":43.23965,"lon":5.3663,"is_reserved":false,"is_disabled":false,"rental_uris":{"android":"levelo://app?vid=cbdc48ab-3827-42d6-a340-83fab12ae087","ios":"levelo://app?vid=cbdc48ab-3827-42d6-a340-83fab12ae087"},"vehicle_type_id":"4","last_reported":1701540483,"current_range_meters":2000,"station_id":"ce4bhi12rcd13ifvqfp0","pricing_plan_id":"free"},{"bike_id":"3452a94e-ff8d-4ec6-81ce-87de2d2f7901","system_id":"levelo_inurba_marseille","lat":43.2396,"lon":5.36631,"is_reserved":false,"is_disabled":false,"rental_uris":{"android":"levelo://app?vid=3452a94e-ff8d-4ec6-81ce-87de2d2f7901","ios":"levelo://app?vid=3452a94e-ff8d-4ec6-81ce-87de2d2f7901"},"vehicle_type_id":"4","last_reported":1701540483,"current_range_meters":14000,"station_id":"ce4bhi12rcd13ifvqfp0","pricing_plan_id":"free"},{"bike_id":"b101f295-ac85-402a-8afe-c635c176f114","system_id":"levelo_inurba_marseille","lat":43.28527,"lon":5.46058,"is_reserved":false,"is_disabled":false,"rental_uris":{"android":"levelo://app?vid=b101f295-ac85-402a-8afe-c635c176f114","ios":"levelo://app?vid=b101f295-ac85-402a-8afe-c635c176f114"},"vehicle_type_id":"4","last_reported":1701540483,"current_range_meters":22800,"station_id":"","pricing_plan_id":"free"},{"bike_id":"e1e0ee00-25b6-4b3e-9528-4dc4d90295d8","system_id":"levelo_inurba_marseille","lat":43.231923,"lon":5.355545,"is_reserved":false,"is_disabled":false,"rental_uris":{"android":"levelo://app?vid=e1e0ee00-25b6-4b3e-9528-4dc4d90295d8","ios":"levelo://app?vid=e1e0ee00-25b6-4b3e-9528-4dc4d90295d8"},"vehicle_type_id":"4","last_reported":1701540483,"current_range_meters":9600,"station_id":"ce4bhu92rcd13ifvqi70","pricing_plan_id":"free"},{"bike_id":"4506c45e-2d09-462d-97b5-d051c36d1044","system_id":"levelo_inurba_marseille","lat":43.231919,"lon":5.355532,"is_reserved":false,"is_disabled":false,"rental_uris":{"android":"levelo://app?vid=4506c45e-2d09-462d-97b5-d051c36d1044","ios":"levelo://app?vid=4506c45e-2d09-462d-97b5-d051c36d1044"},"vehicle_type_id":"4","last_reported":1701540483,"current_range_meters":15600,"station_id":"ce4bhu92rcd13ifvqi70","pricing_plan_id":"free"},{"bike_id":"cf3102c4-88e0-4a41-86b7-69a76932d3e6","system_id":"levelo_inurba_marseille","lat":43.231923,"lon":5.355545,"is_reserved":false,"is_disabled":false,"rental_uris":{"android":"levelo://app?vid=cf3102c4-88e0-4a41-86b7-69a76932d3e6","ios":"levelo://app?vid=cf3102c4-88e0-4a41-86b7-69a76932d3e6"},"vehicle_type_id":"4","last_reported":1701540483,"current_range_meters":31600,"station_id":"ce4bhu92rcd13ifvqi70","pricing_plan_id":"free"},{"bike_id":"2b04708e-eed8-4471-916a-9fdeea01eec7","system_id":"levelo_inurba_marseille","lat":43.231923,"lon":5.355545,"is_reserved":false,"is_disabled":false,"rental_uris":{"android":"levelo://app?vid=2b04708e-eed8-4471-916a-9fdeea01eec7","ios":"levelo://app?vid=2b04708e-eed8-4471-916a-9fdeea01eec7"},"vehicle_type_id":"4","last_reported":1701540483,"current_range_meters":13600,"station_id":"ce4bhu92rcd13ifvqi70","pricing_plan_id":"free"},{"bike_id":"4dae0f2e-3beb-46e8-877b-0143e05c3e8e","system_id":"levelo_inurba_marseille","lat":43.231919,"lon":5.355532,"is_reserved":false,"is_disabled":false,"rental_uris":{"android":"levelo://app?vid=4dae0f2e-3beb-46e8-877b-0143e05c3e8e","ios":"levelo://app?vid=4dae0f2e-3beb-46e8-877b-0143e05c3e8e"},"vehicle_type_id":"4","last_reported":1701540483,"current_range_meters":0,"station_id":"ce4bhu92rcd13ifvqi70","pricing_plan_id":"free"},{"bike_id":"b8f295a9-10f8-4746-b4a0-4491480d1fc4","system_id":"levelo_inurba_marseille","lat":43.231919,"lon":5.355532,"is_reserved":false,"is_disabled":false,"rental_uris":{"android":"levelo://app?vid=b8f295a9-10f8-4746-b4a0-4491480d1fc4","ios":"levelo://app?vid=b8f295a9-10f8-4746-b4a0-4491480d1fc4"},"vehicle_type_id":"4","last_reported":1701540483,"current_range_meters":24000,"station_id":"ce4bhu92rcd13ifvqi70","pricing_plan_id":"free"},{"bike_id":"6382809b-45d0-4ad2-8be7-697249f82077","system_id":"levelo_inurba_marseille","lat":43.231919,"lon":5.355532,"is_reserved":false,"is_disabled":false,"rental_uris":{"android":"levelo://app?vid=6382809b-45d0-4ad2-8be7-697249f82077","ios":"levelo://app?vid=6382809b-45d0-4ad2-8be7-697249f82077"},"vehicle_type_id":"4","last_reported":1701540483,"current_range_meters":32000,"station_id":"ce4bhu92rcd13ifvqi70","pricing_plan_id":"free"},{"bike_id":"4e176977-ccb9-4a01-b3da-279fd61eadf6","system_id":"levelo_inurba_marseille","lat":43.231919,"lon":5.355532,"is_reserved":false,"is_disabled":false,"rental_uris":{"android":"levelo://app?vid=4e176977-ccb9-4a01-b3da-279fd61eadf6","ios":"levelo://app?vid=4e176977-ccb9-4a01-b3da-279fd61eadf6"},"vehicle_type_id":"4","last_reported":1701540483,"current_range_meters":22400,"station_id":"ce4bhu92rcd13ifvqi70","pricing_plan_id":"free"},{"bike_id":"6462fbc5-ceb8-47e3-b56d-fc1e69bef19f","system_id":"levelo_inurba_marseille","lat":43.231919,"lon":5.355532,"is_reserved":false,"is_disabled":false,"rental_uris":{"android":"levelo://app?vid=6462fbc5-ceb8-47e3-b56d-fc1e69bef19f","ios":"levelo://app?vid=6462fbc5-ceb8-47e3-b56d-fc1e69bef19f"},"vehicle_type_id":"4","last_reported":1701540483,"current_range_meters":29600,"station_id":"ce4bhu92rcd13ifvqi70","pricing_plan_id":"free"},{"bike_id":"9e01ee59-41e6-425c-ae1f-3e33312fefcd","system_id":"levelo_inurba_marseille","lat":43.231923,"lon":5.355545,"is_reserved":false,"is_disabled":false,"rental_uris":{"android":"levelo://app?vid=9e01ee59-41e6-425c-ae1f-3e33312fefcd","ios":"levelo://app?vid=9e01ee59-41e6-425c-ae1f-3e33312fefcd"},"vehicle_type_id":"4","last_reported":1701540483,"current_range_meters":20400,"station_id":"ce4bhu92rcd13ifvqi70","pricing_plan_id":"free"},{"bike_id":"177a82e2-68da-4975-a68b-b32649f3d1f2","system_id":"levelo_inurba_marseille","lat":43.231923,"lon":5.355545,"is_reserved":false,"is_disabled":false,"rental_uris":{"android":"levelo://app?vid=177a82e2-68da-4975-a68b-b32649f3d1f2","ios":"levelo://app?vid=177a82e2-68da-4975-a68b-b32649f3d1f2"},"vehicle_type_id":"4","last_reported":1701540483,"current_range_meters":13600,"station_id":"ce4bhu92rcd13ifvqi70","pricing_plan_id":"free"},{"bike_id":"88cf855f-bb31-40e0-8afc-686df3c193ab","system_id":"levelo_inurba_marseille","lat":43.231794,"lon":5.400052,"is_reserved":false,"is_disabled":false,"rental_uris":{"android":"levelo://app?vid=88cf855f-bb31-40e0-8afc-686df3c193ab","ios":"levelo://app?vid=88cf855f-bb31-40e0-8afc-686df3c193ab"},"vehicle_type_id":"4","last_reported":1701540483,"current_range_meters":29200,"station_id":"ce4bhn12rcd13ifvqgqg","pricing_plan_id":"free"},{"bike_id":"a926f4bb-1e59-4822-80ea-1d5ff6f2a5c5","system_id":"levelo_inurba_marseille","lat":43.23194,"lon":5.399805,"is_reserved":false,"is_disabled":false,"rental_uris":{"android":"levelo://app?vid=a926f4bb-1e59-4822-80ea-1d5ff6f2a5c5","ios":"levelo://app?vid=a926f4bb-1e59-4822-80ea-1d5ff6f2a5c5"},"vehicle_type_id":"4","last_reported":1701540483,"current_range_meters":18400,"station_id":"ce4bhn12rcd13ifvqgqg","pricing_plan_id":"free"},{"bike_id":"d0b35396-6769-42d4-8160-8b44cb829902","system_id":"levelo_inurba_marseille","lat":43.23193,"lon":5.39983,"is_reserved":false,"is_disabled":false,"rental_uris":{"android":"levelo://app?vid=d0b35396-6769-42d4-8160-8b44cb829902","ios":"levelo://app?vid=d0b35396-6769-42d4-8160-8b44cb829902"},"vehicle_type_id":"4","last_reported":1701540483,"current_range_meters":31200,"station_id":"ce4bhn12rcd13ifvqgqg","pricing_plan_id":"free"},{"bike_id":"6bd9f065-50d9-4657-9ca0-a006f413d305","system_id":"levelo_inurba_marseille","lat":43.231794,"lon":5.400052,"is_reserved":false,"is_disabled":false,"rental_uris":{"android":"levelo://app?vid=6bd9f065-50d9-4657-9ca0-a006f413d305","ios":"levelo://app?vid=6bd9f065-50d9-4657-9ca0-a006f413d305"},"vehicle_type_id":"4","last_reported":1701540483,"current_range_meters":31600,"station_id":"ce4bhn12rcd13ifvqgqg","pricing_plan_id":"free"},{"bike_id":"22bd98e3-c33f-4c44-ae2b-f96729d36f4f","system_id":"levelo_inurba_marseille","lat":43.231793,"lon":5.400044,"is_reserved":false,"is_disabled":false,"rental_uris":{"android":"levelo://app?vid=22bd98e3-c33f-4c44-ae2b-f96729d36f4f","ios":"levelo://app?vid=22bd98e3-c33f-4c44-ae2b-f96729d36f4f"},"vehicle_type_id":"4","last_reported":1701540483,"current_range_meters":30800,"station_id":"ce4bhn12rcd13ifvqgqg","pricing_plan_id":"free"},{"bike_id":"31da5d2d-7edc-4805-9248-23c1f459adf0","system_id":"levelo_inurba_marseille","lat":43.23188,"lon":5.39985,"is_reserved":false,"is_disabled":false,"rental_uris":{"android":"levelo://app?vid=31da5d2d-7edc-4805-9248-23c1f459adf0","ios":"levelo://app?vid=31da5d2d-7edc-4805-9248-23c1f459adf0"},"vehicle_type_id":"4","last_reported":1701540483,"current_range_meters":6000,"station_id":"ce4bhn12rcd13ifvqgqg","pricing_plan_id":"free"},{"bike_id":"457c552c-8af5-4b7b-9f6b-8c901265a623","system_id":"levelo_inurba_marseille","lat":43.23188,"lon":5.39989,"is_reserved":false,"is_disabled":false,"rental_uris":{"android":"levelo://app?vid=457c552c-8af5-4b7b-9f6b-8c901265a623","ios":"levelo://app?vid=457c552c-8af5-4b7b-9f6b-8c901265a623"},"vehicle_type_id":"4","last_reported":1701540483,"current_range_meters":31200,"station_id":"ce4bhn12rcd13ifvqgqg","pricing_plan_id":"free"},{"bike_id":"6c2dc1c9-372c-445d-814a-4d69ce499bdb","system_id":"levelo_inurba_marseille","lat":43.23187,"lon":5.39988,"is_reserved":false,"is_disabled":false,"rental_uris":{"android":"levelo://app?vid=6c2dc1c9-372c-445d-814a-4d69ce499bdb","ios":"levelo://app?vid=6c2dc1c9-372c-445d-814a-4d69ce499bdb"},"vehicle_type_id":"4","last_reported":1701540483,"current_range_meters":0,"station_id":"ce4bhn12rcd13ifvqgqg","pricing_plan_id":"free"},{"bike_id":"83862a0a-d647-45eb-9884-693fce6366ab","system_id":"levelo_inurba_marseille","lat":43.23186,"lon":5.39986,"is_reserved":false,"is_disabled":false,"rental_uris":{"android":"levelo://app?vid=83862a0a-d647-45eb-9884-693fce6366ab","ios":"levelo://app?vid=83862a0a-d647-45eb-9884-693fce6366ab"},"vehicle_type_id":"4","last_reported":1701540483,"current_range_meters":18000,"station_id":"ce4bhn12rcd13ifvqgqg","pricing_plan_id":"free"},{"bike_id":"27852c29-47dc-4826-817e-c88bd3a0386e","system_id":"levelo_inurba_marseille","lat":43.23184,"lon":5.39993,"is_reserved":false,"is_disabled":false,"rental_uris":{"android":"levelo://app?vid=27852c29-47dc-4826-817e-c88bd3a0386e","ios":"levelo://app?vid=27852c29-47dc-4826-817e-c88bd3a0386e"},"vehicle_type_id":"4","last_reported":1701540483,"current_range_meters":21600,"station_id":"ce4bhn12rcd13ifvqgqg","pricing_plan_id":"free"},{"bike_id":"b2dc27fe-d3dd-4dd0-b015-108c88d15d4b","system_id":"levelo_inurba_marseille","lat":43.23181,"lon":5.39984,"is_reserved":false,"is_disabled":false,"rental_uris":{"android":"levelo://app?vid=b2dc27fe-d3dd-4dd0-b015-108c88d15d4b","ios":"levelo://app?vid=b2dc27fe-d3dd-4dd0-b015-108c88d15d4b"},"vehicle_type_id":"4","last_reported":1701540483,"current_range_meters":14800,"station_id":"ce4bhn12rcd13ifvqgqg","pricing_plan_id":"free"},{"bike_id":"e47e98e0-4256-4c41-ae86-e531a41b9213","system_id":"levelo_inurba_marseille","lat":43.231794,"lon":5.400052,"is_reserved":false,"is_disabled":false,"rental_uris":{"android":"levelo://app?vid=e47e98e0-4256-4c41-ae86-e531a41b9213","ios":"levelo://app?vid=e47e98e0-4256-4c41-ae86-e531a41b9213"},"vehicle_type_id":"4","last_reported":1701540483,"current_range_meters":26800,"station_id":"ce4bhn12rcd13ifvqgqg","pricing_plan_id":"free"},{"bike_id":"77b1a551-da7f-429a-980e-bfc6767a5958","system_id":"levelo_inurba_marseille","lat":43.231794,"lon":5.400052,"is_reserved":false,"is_disabled":false,"rental_uris":{"android":"levelo://app?vid=77b1a551-da7f-429a-980e-bfc6767a5958","ios":"levelo://app?vid=77b1a551-da7f-429a-980e-bfc6767a5958"},"vehicle_type_id":"4","last_reported":1701540483,"current_range_meters":31600,"station_id":"ce4bhn12rcd13ifvqgqg","pricing_plan_id":"free"},{"bike_id":"f50c292b-cc74-4220-88ff-ce7e4d6e67ca","system_id":"levelo_inurba_marseille","lat":43.231562,"lon":5.436933,"is_reserved":false,"is_disabled":false,"rental_uris":{"android":"levelo://app?vid=f50c292b-cc74-4220-88ff-ce7e4d6e67ca","ios":"levelo://app?vid=f50c292b-cc74-4220-88ff-ce7e4d6e67ca"},"vehicle_type_id":"4","last_reported":1701540483,"current_range_meters":30400,"station_id":"ce4bhmp2rcd13ifvqgog","pricing_plan_id":"free"},{"bike_id":"cbdd057e-fe24-488c-9d67-9b0a90dfa6d5","system_id":"levelo_inurba_marseille","lat":43.231562,"lon":5.436933,"is_reserved":false,"is_disabled":false,"rental_uris":{"android":"levelo://app?vid=cbdd057e-fe24-488c-9d67-9b0a90dfa6d5","ios":"levelo://app?vid=cbdd057e-fe24-488c-9d67-9b0a90dfa6d5"},"vehicle_type_id":"4","last_reported":1701540483,"current_range_meters":16800,"station_id":"ce4bhmp2rcd13ifvqgog","pricing_plan_id":"free"}]}}