{"last_updated":1746188371,"ttl":60,"version":"2.2","data":{"bikes":[{"bike_id":"587033e8-9114-4237-990e-deafe4f5ad79","system_id":"levelo_inurba_marseille","lat":43.24258,"lon":5.37012,"is_reserved":false,"is_disabled":true,"rental_uris":{"android":"levelo://app?vid=587033e8-9114-4237-990e-deafe4f5ad79","ios":"levelo://app?vid=587033e8-9114-4237-990e-deafe4f5ad79"},"vehicle_type_id":"4","last_reported":1746188371,"current_range_meters":0,"station_id":"","pricing_plan_id":"cebpf4jnsgd1na2vs0mg"},{"bike_id":"76c1809e-b03a-4489-8d04-2161a1946c9d","system_id":"levelo_inurba_marseille","lat":43.27961,"lon":5.37159,"is_reserved":false,"is_disabled":true,"rental_uris":{"android":"levelo://app?vid=76c1809e-b03a-4489-8d04-2161a1946c9d","ios":"levelo://app?vid=76c1809e-b03a-4489-8d04-2161a1946c9d"},"vehicle_type_id":"4","last_reported":1746188371,"current_range_meters":0,"station_id":"","pricing_plan_id":"cebpf4jnsgd1na2vs0mg"},{"bike_id":"98e592b3-5fa3-4a83-b8d7-4600d55d353f","system_id":"levelo_inurba_marseille","lat":43.2463,"lon":5.43641,"is_reserved":false,"is_disabled":true,"rental_uris":{"android":"levelo://app?vid=98e592b3-5fa3-4a83-b8d7-4600d55d353f","ios":"levelo://app?vid=98e592b3-5fa3-4a83-b8d7-4600d55d353f"},"vehicle_type_id":"4","last_reported":1746188371,"current_range_meters":0,"station_id":"","pricing_plan_id":"cebpf4jnsgd1na2vs0mg"},{"bike_id":"27c926f4-2e8c-4fe5-8d0a-ce234b43b164","system_id":"levelo_inurba_marseille","lat":43.27882,"lon":5.38797,"is_reserved":false,"is_disabled":true,"rental_uris":{"android":"levelo://app?vid=27c926f4-2e8c-4fe5-8d0a-ce234b43b164","ios":"levelo://app?vid=27c926f4-2e8c-4fe5-8d0a-ce234b43b164"},"vehicle_type_id":"4","last_reported":1746188371,"current_range_meters":0,"station_id":"","pricing_plan_id":"cebpf4jnsgd1na2vs0mg"},{"bike_id":"de5e8179-b7d9-445c-86ef-4f3f2bda04a1","system_id":"levelo_inurba_marseille","lat":43.278427,"lon":5.387441,"is_reserved":false,"is_disabled":true,"rental_uris":{"android":"levelo://app?vid=de5e8179-b7d9-445c-86ef-4f3f2bda04a1","ios":"levelo://app?vid=de5e8179-b7d9-445c-86ef-4f3f2bda04a1"},"vehicle_type_id":"4","last_reported":1746188371,"current_range_meters":0,"station_id":"","pricing_plan_id":"cebpf4jnsgd1na2vs0mg"},{"bike_id":"eefa78c8-4f9d-4d38-a7d3-c880870c89cc","system_id":"levelo_inurba_marseille","lat":43.281267,"lon":5.398716,"is_reserved":false,"is_disabled":true,"rental_uris":{"android":"levelo://app?vid=eefa78c8-4f9d-4d38-a7d3-c880870c89cc","ios":"levelo://app?vid=eefa78c8-4f9d-4d38-a7d3-c880870c89cc"},"vehicle_type_id":"4","last_reported":1746188371,"current_range_meters":0,"station_id":"","pricing_plan_id":"cebpf4jnsgd1na2vs0mg"},{"bike_id":"e93b949e-1738-47f2-ad13-8f512df2ffaf","system_id":"levelo_inurba_marseille","lat":43.2815,"lon":5.44355,"is_reserved":false,"is_disabled":true,"rental_uris":{"android":"levelo://app?vid=e93b949e-1738-47f2-ad13-8f512df2ffaf","ios":"levelo://app?vid=e93b949e-1738-47f2-ad13-8f512df2ffaf"},"vehicle_type_id":"4","last_reported":1746188371,"current_range_meters":0,"station_id":"","pricing_plan_id":"cebpf4jnsgd1na2vs0mg"},{"bike_id":"c58754be-1482-41a4-8c24-0f9a5cf69c11","system_id":"levelo_inurba_marseille","lat":43.29597,"lon":5.38102,"is_reserved":false,"is_disabled":true,"rental_uris":{"android":"levelo://app?vid=c58754be-1482-41a4-8c24-0f9a5cf69c11","ios":"levelo://app?vid=c58754be-1482-41a4-8c24-0f9a5cf69c11"},"vehicle_type_id":"4","last_reported":1746188371,"current_range_meters":0,"station_id":"ce4bgl12rcd13ifvqbo0","pricing_plan_id":"cebpf4jnsgd1na2vs0mg"},{"bike_id":"cd91d8bc-2ef4-4312-a1b2-87d2ce8b9df0","system_id":"levelo_inurba_marseille","lat":43.30332,"lon":5.40434,"is_reserved":false,"is_disabled":true,"rental_uris":{"android":"levelo://app?vid=cd91d8bc-2ef4-4312-a1b2-87d2ce8b9df0","ios":"levelo://app?vid=cd91d8bc-2ef4-4312-a1b2-87d2ce8b9df0"},"vehicle_type_id":"4","last_reported":1746188371,"current_range_meters":0,"station_id":"ce4bh012rcd13ifvqd10","pricing_plan_id":"cebpf4jnsgd1na2vs0mg"},{"bike_id":"b5c2c7aa-01dc-4667-b3a6-6222629f95ad","system_id":"levelo_inurba_marseille","lat":43.30205,"lon":5.3947,"is_reserved":false,"is_disabled":true,"rental_uris":{"android":"levelo://app?vid=b5c2c7aa-01dc-4667-b3a6-6222629f95ad","ios":"levelo://app?vid=b5c2c7aa-01dc-4667-b3a6-6222629f95ad"},"vehicle_type_id":"4","last_reported":1746188371,"current_range_meters":0,"station_id":"ce4bh0p2rcd13ifvqd70","pricing_plan_id":"cebpf4jnsgd1na2vs0mg"},{"bike_id":"dd1c8be3-444f-4d29-899c-8e60530f4904","system_id":"levelo_inurba_marseille","lat":43.27376,"lon":5.36252,"is_reserved":false,"is_disabled":true,"rental_uris":{"android":"levelo://app?vid=dd1c8be3-444f-4d29-899c-8e60530f4904","ios":"levelo://app?vid=dd1c8be3-444f-4d29-899c-8e60530f4904"},"vehicle_type_id":"4","last_reported":1746188371,"current_range_meters":0,"station_id":"ce4bhbh2rcd13ifvqeo0","pricing_plan_id":"cebpf4jnsgd1na2vs0mg"},{"bike_id":"654dcfea-18a4-46df-a261-42db2a1ada75","system_id":"levelo_inurba_marseille","lat":43.26188,"lon":5.37446,"is_reserved":false,"is_disabled":true,"rental_uris":{"android":"levelo://app?vid=654dcfea-18a4-46df-a261-42db2a1ada75","ios":"levelo://app?vid=654dcfea-18a4-46df-a261-42db2a1ada75"},"vehicle_type_id":"4","last_reported":1746188371,"current_range_meters":0,"station_id":"ce4bhgp2rcd13ifvqfc0","pricing_plan_id":"cebpf4jnsgd1na2vs0mg"},{"bike_id":"b43e030e-65ed-420d-9b84-158874303d7b","system_id":"levelo_inurba_marseille","lat":43.261922,"lon":5.374513,"is_reserved":false,"is_disabled":true,"rental_uris":{"android":"levelo://app?vid=b43e030e-65ed-420d-9b84-158874303d7b","ios":"levelo://app?vid=b43e030e-65ed-420d-9b84-158874303d7b"},"vehicle_type_id":"4","last_reported":1746188371,"current_range_meters":0,"station_id":"ce4bhgp2rcd13ifvqfc0","pricing_plan_id":"cebpf4jnsgd1na2vs0mg"},{"bike_id":"07c8d622-354b-4b5b-8838-0f4d992f0b03","system_id":"levelo_inurba_marseille","lat":43.2396,"lon":5.36605,"is_reserved":false,"is_disabled":true,"rental_uris":{"android":"levelo://app?vid=07c8d622-354b-4b5b-8838-0f4d992f0b03","ios":"levelo://app?vid=07c8d622-354b-4b5b-8838-0f4d992f0b03"},"vehicle_type_id":"4","last_reported":1746188371,"current_range_meters":0,"station_id":"ce4bhi12rcd13ifvqfp0","pricing_plan_id":"cebpf4jnsgd1na2vs0mg"},{"bike_id":"2c009e43-69ae-4b2d-95cb-7f3a2d533a0a","system_id":"levelo_inurba_marseille","lat":43.2594,"lon":5.40907,"is_reserved":false,"is_disabled":true,"rental_uris":{"android":"levelo://app?vid=2c009e43-69ae-4b2d-95cb-7f3a2d533a0a","ios":"levelo://app?vid=2c009e43-69ae-4b2d-95cb-7f3a2d533a0a"},"vehicle_type_id":"4","last_reported":1746188371,"current_range_meters":0,"station_id":"ce4bhm92rcd13ifvqglg","pricing_plan_id":"cebpf4jnsgd1na2vs0mg"},{"bike_id":"08bfe957-8bc5-4e9f-9f98-fcd1370e43af","system_id":"levelo_inurba_marseille","lat":43.259135,"lon":5.408847,"is_reserved":false,"is_disabled":true,"rental_uris":{"android":"levelo://app?vid=08bfe957-8bc5-4e9f-9f98-fcd1370e43af","ios":"levelo://app?vid=08bfe957-8bc5-4e9f-9f98-fcd1370e43af"},"vehicle_type_id":"4","last_reported":1746188371,"current_range_meters":0,"station_id":"ce4bhm92rcd13ifvqglg","pricing_plan_id":"cebpf4jnsgd1na2vs0mg"},{"bike_id":"b893615c-4f96-4566-b671-9345f8c789fa","system_id":"levelo_inurba_marseille","lat":43.2315,"lon":5.43696,"is_reserved":false,"is_disabled":true,"rental_uris":{"android":"levelo://app?vid=b893615c-4f96-4566-b671-9345f8c789fa","ios":"levelo://app?vid=b893615c-4f96-4566-b671-9345f8c789fa"},"vehicle_type_id":"4","last_reported":1746188371,"current_range_meters":0,"station_id":"ce4bhmp2rcd13ifvqgog","pricing_plan_id":"cebpf4jnsgd1na2vs0mg"},{"bike_id":"e336b0c2-a2be-4eca-b6c2-a513a8ae7843","system_id":"levelo_inurba_marseille","lat":43.21751,"lon":5.34605,"is_reserved":false,"is_disabled":true,"rental_uris":{"android":"levelo://app?vid=e336b0c2-a2be-4eca-b6c2-a513a8ae7843","ios":"levelo://app?vid=e336b0c2-a2be-4eca-b6c2-a513a8ae7843"},"vehicle_type_id":"4","last_reported":1746188371,"current_range_meters":0,"station_id":"st_cvj6r9ubvosntc0bgbag","pricing_plan_id":"cebpf4jnsgd1na2vs0mg"},{"bike_id":"3590e1cc-ac70-44cb-bb81-9feab4e63c21","system_id":"levelo_inurba_marseille","lat":43.21188,"lon":5.3508,"is_reserved":false,"is_disabled":true,"rental_uris":{"android":"levelo://app?vid=3590e1cc-ac70-44cb-bb81-9feab4e63c21","ios":"levelo://app?vid=3590e1cc-ac70-44cb-bb81-9feab4e63c21"},"vehicle_type_id":"4","last_reported":1746188371,"current_range_meters":0,"station_id":"st_cvj6sg6p6f1abm77japg","pricing_plan_id":"cebpf4jnsgd1na2vs0mg"},{"bike_id":"a7da839c-8cd7-4858-8d63-a5c3fb97170a","system_id":"levelo_inurba_marseille","lat":43.25648,"lon":5.41107,"is_reserved":false,"is_disabled":true,"rental_uris":{"android":"levelo://app?vid=a7da839c-8cd7-4858-8d63-a5c3fb97170a","ios":"levelo://app?vid=a7da839c-8cd7-4858-8d63-a5c3fb97170a"},"vehicle_type_id":"4","last_reported":1746188371,"current_range_meters":400,"station_id":"","pricing_plan_id":"cebpf4jnsgd1na2vs0mg"},{"bike_id":"1bf998a7-577d-4cbb-80bc-81f2d7627870","system_id":"levelo_inurba_marseille","lat":43.28573,"lon":5.39487,"is_reserved":false,"is_disabled":true,"rental_uris":{"android":"levelo://app?vid=1bf998a7-577d-4cbb-80bc-81f2d7627870","ios":"levelo://app?vid=1bf998a7-577d-4cbb-80bc-81f2d7627870"},"vehicle_type_id":"4","last_reported":1746188371,"current_range_meters":400,"station_id":"ce4bh292rcd13ifvqdg0","pricing_plan_id":"cebpf4jnsgd1na2vs0mg"},{"bike_id":"7f6def72-6831-4ddf-a179-6cf08c5e78b6","system_id":"levelo_inurba_marseille","lat":43.29568,"lon":5.39967,"is_reserved":false,"is_disabled":true,"rental_uris":{"android":"levelo://app?vid=7f6def72-6831-4ddf-a179-6cf08c5e78b6","ios":"levelo://app?vid=7f6def72-6831-4ddf-a179-6cf08c5e78b6"},"vehicle_type_id":"4","last_reported":1746188371,"current_range_meters":800,"station_id":"ce4bh312rcd13ifvqdj0","pricing_plan_id":"cebpf4jnsgd1na2vs0mg"},{"bike_id":"44b2764c-1c1e-4e64-ac73-f1001437e629","system_id":"levelo_inurba_marseille","lat":43.31169,"lon":5.38713,"is_reserved":false,"is_disabled":true,"rental_uris":{"android":"levelo://app?vid=44b2764c-1c1e-4e64-ac73-f1001437e629","ios":"levelo://app?vid=44b2764c-1c1e-4e64-ac73-f1001437e629"},"vehicle_type_id":"4","last_reported":1746188371,"current_range_meters":1200,"station_id":"ce4bgv12rcd13ifvqcp0","pricing_plan_id":"cebpf4jnsgd1na2vs0mg"},{"bike_id":"5f8f527a-52a1-4849-af0b-cd14d71f5e6a","system_id":"levelo_inurba_marseille","lat":43.29098,"lon":5.38131,"is_reserved":false,"is_disabled":true,"rental_uris":{"android":"levelo://app?vid=5f8f527a-52a1-4849-af0b-cd14d71f5e6a","ios":"levelo://app?vid=5f8f527a-52a1-4849-af0b-cd14d71f5e6a"},"vehicle_type_id":"4","last_reported":1746188371,"current_range_meters":1200,"station_id":"ce4bh512rcd13ifvqe2g","pricing_plan_id":"cebpf4jnsgd1na2vs0mg"},{"bike_id":"a9271c4c-cb08-419c-89df-c865809695a8","system_id":"levelo_inurba_marseille","lat":43.21742,"lon":5.34605,"is_reserved":false,"is_disabled":true,"rental_uris":{"android":"levelo://app?vid=a9271c4c-cb08-419c-89df-c865809695a8","ios":"levelo://app?vid=a9271c4c-cb08-419c-89df-c865809695a8"},"vehicle_type_id":"4","last_reported":1746188371,"current_range_meters":1200,"station_id":"st_cvj6r9ubvosntc0bgbag","pricing_plan_id":"cebpf4jnsgd1na2vs0mg"},{"bike_id":"4138fd27-aa4f-4275-86c4-e0c6347cd4de","system_id":"levelo_inurba_marseille","lat":43.30465,"lon":5.37897,"is_reserved":false,"is_disabled":true,"rental_uris":{"android":"levelo://app?vid=4138fd27-aa4f-4275-86c4-e0c6347cd4de","ios":"levelo://app?vid=4138fd27-aa4f-4275-86c4-e0c6347cd4de"},"vehicle_type_id":"4","last_reported":1746188371,"current_range_meters":1600,"station_id":"ce4bgup2rcd13ifvqcn0","pricing_plan_id":"cebpf4jnsgd1na2vs0mg"},{"bike_id":"1a08eb07-e73a-44ed-9eaf-83a81b1e75f2","system_id":"levelo_inurba_marseille","lat":43.292727,"lon":5.408722,"is_reserved":false,"is_disabled":true,"rental_uris":{"android":"levelo://app?vid=1a08eb07-e73a-44ed-9eaf-83a81b1e75f2","ios":"levelo://app?vid=1a08eb07-e73a-44ed-9eaf-83a81b1e75f2"},"vehicle_type_id":"4","last_reported":1746188371,"current_range_meters":1600,"station_id":"ce4bh192rcd13ifvqdc0","pricing_plan_id":"cebpf4jnsgd1na2vs0mg"},{"bike_id":"8a75a680-d037-4ac4-a573-c3ac4f889daf","system_id":"levelo_inurba_marseille","lat":43.24066,"lon":5.37756,"is_reserved":false,"is_disabled":true,"rental_uris":{"android":"levelo://app?vid=8a75a680-d037-4ac4-a573-c3ac4f889daf","ios":"levelo://app?vid=8a75a680-d037-4ac4-a573-c3ac4f889daf"},"vehicle_type_id":"4","last_reported":1746188371,"current_range_meters":1600,"station_id":"ce4bhnp2rcd13ifvqgvg","pricing_plan_id":"cebpf4jnsgd1na2vs0mg"},{"bike_id":"7f770ba9-2e48-47c9-8bb4-942855273bad","system_id":"levelo_inurba_marseille","lat":43.25342,"lon":5.4242,"is_reserved":false,"is_disabled":true,"rental_uris":{"android":"levelo://app?vid=7f770ba9-2e48-47c9-8bb4-942855273bad","ios":"levelo://app?vid=7f770ba9-2e48-47c9-8bb4-942855273bad"},"vehicle_type_id":"4","last_reported":1746188371,"current_range_meters":2000,"station_id":"","pricing_plan_id":"cebpf4jnsgd1na2vs0mg"},{"bike_id":"1cb49c60-08a0-4771-b02e-c00d1d696980","system_id":"levelo_inurba_marseille","lat":43.28407,"lon":5.37504,"is_reserved":false,"is_disabled":true,"rental_uris":{"android":"levelo://app?vid=1cb49c60-08a0-4771-b02e-c00d1d696980","ios":"levelo://app?vid=1cb49c60-08a0-4771-b02e-c00d1d696980"},"vehicle_type_id":"4","last_reported":1746188371,"current_range_meters":2000,"station_id":"ce4bh412rcd13ifvqds0","pricing_plan_id":"cebpf4jnsgd1na2vs0mg"},{"bike_id":"f6460c83-494e-4cfb-8ce9-66e2f31af3c1","system_id":"levelo_inurba_marseille","lat":43.2903,"lon":5.38142,"is_reserved":false,"is_disabled":true,"rental_uris":{"android":"levelo://app?vid=f6460c83-494e-4cfb-8ce9-66e2f31af3c1","ios":"levelo://app?vid=f6460c83-494e-4cfb-8ce9-66e2f31af3c1"},"vehicle_type_id":"4","last_reported":1746188371,"current_range_meters":2000,"station_id":"ce4bh4p2rcd13ifvqe1g","pricing_plan_id":"cebpf4jnsgd1na2vs0mg"},{"bike_id":"b8039930-18f8-4ea8-a3cb-acaca005da40","system_id":"levelo_inurba_marseille","lat":43.29273,"lon":5.36846,"is_reserved":false,"is_disabled":true,"rental_uris":{"android":"levelo://app?vid=b8039930-18f8-4ea8-a3cb-acaca005da40","ios":"levelo://app?vid=b8039930-18f8-4ea8-a3cb-acaca005da40"},"vehicle_type_id":"4","last_reported":1746188371,"current_range_meters":2000,"station_id":"ce4bhbp2rcd13ifvqesg","pricing_plan_id":"cebpf4jnsgd1na2vs0mg"},{"bike_id":"55d95711-9d9f-4e1a-b91e-ff4f90f98f77","system_id":"levelo_inurba_marseille","lat":43.23149,"lon":5.43708,"is_reserved":false,"is_disabled":true,"rental_uris":{"android":"levelo://app?vid=55d95711-9d9f-4e1a-b91e-ff4f90f98f77","ios":"levelo://app?vid=55d95711-9d9f-4e1a-b91e-ff4f90f98f77"},"vehicle_type_id":"4","last_reported":1746188371,"current_range_meters":2000,"station_id":"ce4bhmp2rcd13ifvqgog","pricing_plan_id":"cebpf4jnsgd1na2vs0mg"},{"bike_id":"00e37bb1-e78c-46cf-baba-ba4b4e1fc4da","system_id":"levelo_inurba_marseille","lat":43.274923,"lon":5.42466,"is_reserved":false,"is_disabled":true,"rental_uris":{"android":"levelo://app?vid=00e37bb1-e78c-46cf-baba-ba4b4e1fc4da","ios":"levelo://app?vid=00e37bb1-e78c-46cf-baba-ba4b4e1fc4da"},"vehicle_type_id":"4","last_reported":1746188371,"current_range_meters":2000,"station_id":"ce4bhn92rcd13ifvqgrg","pricing_plan_id":"cebpf4jnsgd1na2vs0mg"},{"bike_id":"dbe9c794-c57e-4ee5-9f41-62e2054188c5","system_id":"levelo_inurba_marseille","lat":43.26223,"lon":5.40461,"is_reserved":false,"is_disabled":false,"rental_uris":{"android":"levelo://app?vid=dbe9c794-c57e-4ee5-9f41-62e2054188c5","ios":"levelo://app?vid=dbe9c794-c57e-4ee5-9f41-62e2054188c5"},"vehicle_type_id":"4","last_reported":1746188371,"current_range_meters":2800,"station_id":"ce4bhmh2rcd13ifvqgmg","pricing_plan_id":"cebpf4jnsgd1na2vs0mg"},{"bike_id":"21798bcf-a208-4929-9407-718ea62d765a","system_id":"levelo_inurba_marseille","lat":43.24163,"lon":5.36392,"is_reserved":false,"is_disabled":false,"rental_uris":{"android":"levelo://app?vid=21798bcf-a208-4929-9407-718ea62d765a","ios":"levelo://app?vid=21798bcf-a208-4929-9407-718ea62d765a"},"vehicle_type_id":"4","last_reported":1746188371,"current_range_meters":2800,"station_id":"cpo36qri1sfpv3e86is0","pricing_plan_id":"cebpf4jnsgd1na2vs0mg"},{"bike_id":"6f97b282-771f-44f0-993e-52e829df2851","system_id":"levelo_inurba_marseille","lat":43.21191,"lon":5.35064,"is_reserved":false,"is_disabled":false,"rental_uris":{"android":"levelo://app?vid=6f97b282-771f-44f0-993e-52e829df2851","ios":"levelo://app?vid=6f97b282-771f-44f0-993e-52e829df2851"},"vehicle_type_id":"4","last_reported":1746188371,"current_range_meters":2800,"station_id":"st_cvj6sg6p6f1abm77japg","pricing_plan_id":"cebpf4jnsgd1na2vs0mg"},{"bike_id":"71e0130f-6a86-4133-9e48-cd0c914c8323","system_id":"levelo_inurba_marseille","lat":43.29867,"lon":5.39731,"is_reserved":false,"is_disabled":false,"rental_uris":{"android":"levelo://app?vid=71e0130f-6a86-4133-9e48-cd0c914c8323","ios":"levelo://app?vid=71e0130f-6a86-4133-9e48-cd0c914c8323"},"vehicle_type_id":"4","last_reported":1746188371,"current_range_meters":3200,"station_id":"ce4bh0h2rcd13ifvqd50","pricing_plan_id":"cebpf4jnsgd1na2vs0mg"},{"bike_id":"215bdf6f-59e9-4581-ab6a-3306c221d929","system_id":"levelo_inurba_marseille","lat":43.2458,"lon":5.39845,"is_reserved":false,"is_disabled":false,"rental_uris":{"android":"levelo://app?vid=215bdf6f-59e9-4581-ab6a-3306c221d929","ios":"levelo://app?vid=215bdf6f-59e9-4581-ab6a-3306c221d929"},"vehicle_type_id":"4","last_reported":1746188371,"current_range_meters":3600,"station_id":"","pricing_plan_id":"cebpf4jnsgd1na2vs0mg"},{"bike_id":"f78e6e2a-8107-47fb-b969-25345ac001d6","system_id":"levelo_inurba_marseille","lat":43.300366,"lon":5.378299,"is_reserved":false,"is_disabled":false,"rental_uris":{"android":"levelo://app?vid=f78e6e2a-8107-47fb-b969-25345ac001d6","ios":"levelo://app?vid=f78e6e2a-8107-47fb-b969-25345ac001d6"},"vehicle_type_id":"4","last_reported":1746188371,"current_range_meters":3600,"station_id":"","pricing_plan_id":"cebpf4jnsgd1na2vs0mg"},{"bike_id":"5c55498b-3b6b-4a9c-a345-51acfa33f636","system_id":"levelo_inurba_marseille","lat":43.28445,"lon":5.39203,"is_reserved":false,"is_disabled":false,"rental_uris":{"android":"levelo://app?vid=5c55498b-3b6b-4a9c-a345-51acfa33f636","ios":"levelo://app?vid=5c55498b-3b6b-4a9c-a345-51acfa33f636"},"vehicle_type_id":"4","last_reported":1746188371,"current_range_meters":3600,"station_id":"ce4bhoh2rcd13ifvqh5g","pricing_plan_id":"cebpf4jnsgd1na2vs0mg"},{"bike_id":"2e57813a-2aba-41ed-bf41-c957e0c19e3a","system_id":"levelo_inurba_marseille","lat":43.30951,"lon":5.40128,"is_reserved":false,"is_disabled":false,"rental_uris":{"android":"levelo://app?vid=2e57813a-2aba-41ed-bf41-c957e0c19e3a","ios":"levelo://app?vid=2e57813a-2aba-41ed-bf41-c957e0c19e3a"},"vehicle_type_id":"4","last_reported":1746188371,"current_range_meters":4000,"station_id":"ce4bgvp2rcd13ifvqct0","pricing_plan_id":"cebpf4jnsgd1na2vs0mg"},{"bike_id":"dd475b39-8673-42e6-8c8f-76a37e258196","system_id":"levelo_inurba_marseille","lat":43.28932,"lon":5.39626,"is_reserved":false,"is_disabled":false,"rental_uris":{"android":"levelo://app?vid=dd475b39-8673-42e6-8c8f-76a37e258196","ios":"levelo://app?vid=dd475b39-8673-42e6-8c8f-76a37e258196"},"vehicle_type_id":"4","last_reported":1746188371,"current_range_meters":4000,"station_id":"ce4bh3h2rcd13ifvqdn0","pricing_plan_id":"cebpf4jnsgd1na2vs0mg"},{"bike_id":"41649255-c38b-42cb-ae7f-67f2787c354c","system_id":"levelo_inurba_marseille","lat":43.237721,"lon":5.435726,"is_reserved":false,"is_disabled":false,"rental_uris":{"android":"levelo://app?vid=41649255-c38b-42cb-ae7f-67f2787c354c","ios":"levelo://app?vid=41649255-c38b-42cb-ae7f-67f2787c354c"},"vehicle_type_id":"4","last_reported":1746188371,"current_range_meters":4400,"station_id":"","pricing_plan_id":"cebpf4jnsgd1na2vs0mg"},{"bike_id":"24a79968-9835-4705-8342-f9ca42690c77","system_id":"levelo_inurba_marseille","lat":43.29804,"lon":5.38088,"is_reserved":false,"is_disabled":false,"rental_uris":{"android":"levelo://app?vid=24a79968-9835-4705-8342-f9ca42690c77","ios":"levelo://app?vid=24a79968-9835-4705-8342-f9ca42690c77"},"vehicle_type_id":"4","last_reported":1746188371,"current_range_meters":4400,"station_id":"ce4bgip2rcd13ifvqbb0","pricing_plan_id":"cebpf4jnsgd1na2vs0mg"},{"bike_id":"5b3f402d-c181-4719-b9cd-9a1ba53148fd","system_id":"levelo_inurba_marseille","lat":43.308034,"lon":5.381628,"is_reserved":false,"is_disabled":false,"rental_uris":{"android":"levelo://app?vid=5b3f402d-c181-4719-b9cd-9a1ba53148fd","ios":"levelo://app?vid=5b3f402d-c181-4719-b9cd-9a1ba53148fd"},"vehicle_type_id":"4","last_reported":1746188371,"current_range_meters":4400,"station_id":"ce4bgt12rcd13ifvqce0","pricing_plan_id":"cebpf4jnsgd1na2vs0mg"},{"bike_id":"b3c7304d-bb15-46ab-9b44-6e988667e3e9","system_id":"levelo_inurba_marseille","lat":43.392017,"lon":4.816587,"is_reserved":false,"is_disabled":false,"rental_uris":{"android":"levelo://app?vid=b3c7304d-bb15-46ab-9b44-6e988667e3e9","ios":"levelo://app?vid=b3c7304d-bb15-46ab-9b44-6e988667e3e9"},"vehicle_type_id":"4","last_reported":1746188371,"current_range_meters":4400,"station_id":"ce4bhbh2rcd13ifvqeo0","pricing_plan_id":"cebpf4jnsgd1na2vs0mg"},{"bike_id":"c1be471c-d0ed-4128-8fd6-4c4c2a451444","system_id":"levelo_inurba_marseille","lat":43.231966,"lon":5.355536,"is_reserved":false,"is_disabled":false,"rental_uris":{"android":"levelo://app?vid=c1be471c-d0ed-4128-8fd6-4c4c2a451444","ios":"levelo://app?vid=c1be471c-d0ed-4128-8fd6-4c4c2a451444"},"vehicle_type_id":"4","last_reported":1746188371,"current_range_meters":4400,"station_id":"ce4bhu92rcd13ifvqi70","pricing_plan_id":"cebpf4jnsgd1na2vs0mg"},{"bike_id":"c972b844-ed00-430c-a152-6bb874c9695b","system_id":"levelo_inurba_marseille","lat":43.29967,"lon":5.38494,"is_reserved":false,"is_disabled":false,"rental_uris":{"android":"levelo://app?vid=c972b844-ed00-430c-a152-6bb874c9695b","ios":"levelo://app?vid=c972b844-ed00-430c-a152-6bb874c9695b"},"vehicle_type_id":"4","last_reported":1746188371,"current_range_meters":4800,"station_id":"ce4bgj92rcd13ifvqbd0","pricing_plan_id":"cebpf4jnsgd1na2vs0mg"},{"bike_id":"bbcf8e48-d727-4f74-8067-8e64b9daf383","system_id":"levelo_inurba_marseille","lat":43.28699,"lon":5.39989,"is_reserved":false,"is_disabled":false,"rental_uris":{"android":"levelo://app?vid=bbcf8e48-d727-4f74-8067-8e64b9daf383","ios":"levelo://app?vid=bbcf8e48-d727-4f74-8067-8e64b9daf383"},"vehicle_type_id":"4","last_reported":1746188371,"current_range_meters":4800,"station_id":"ce4bho92rcd13ifvqh3g","pricing_plan_id":"cebpf4jnsgd1na2vs0mg"},{"bike_id":"69d41eaf-9e3d-4415-b318-376e5f535842","system_id":"levelo_inurba_marseille","lat":43.24545,"lon":5.39527,"is_reserved":false,"is_disabled":false,"rental_uris":{"android":"levelo://app?vid=69d41eaf-9e3d-4415-b318-376e5f535842","ios":"levelo://app?vid=69d41eaf-9e3d-4415-b318-376e5f535842"},"vehicle_type_id":"4","last_reported":1746188371,"current_range_meters":5600,"station_id":"ce4bhlp2rcd13ifvqgjg","pricing_plan_id":"cebpf4jnsgd1na2vs0mg"},{"bike_id":"ae095adf-8a4f-47d0-b81a-5922acdc309c","system_id":"levelo_inurba_marseille","lat":43.25105,"lon":5.40323,"is_reserved":false,"is_disabled":false,"rental_uris":{"android":"levelo://app?vid=ae095adf-8a4f-47d0-b81a-5922acdc309c","ios":"levelo://app?vid=ae095adf-8a4f-47d0-b81a-5922acdc309c"},"vehicle_type_id":"4","last_reported":1746188371,"current_range_meters":6400,"station_id":"ce4bhlh2rcd13ifvqgig","pricing_plan_id":"cebpf4jnsgd1na2vs0mg"},{"bike_id":"51ef9827-05d4-4f72-abc3-c6fec8c5a095","system_id":"levelo_inurba_marseille","lat":43.23153,"lon":5.43711,"is_reserved":false,"is_disabled":false,"rental_uris":{"android":"levelo://app?vid=51ef9827-05d4-4f72-abc3-c6fec8c5a095","ios":"levelo://app?vid=51ef9827-05d4-4f72-abc3-c6fec8c5a095"},"vehicle_type_id":"4","last_reported":1746188371,"current_range_meters":6400,"station_id":"ce4bhmp2rcd13ifvqgog","pricing_plan_id":"cebpf4jnsgd1na2vs0mg"},{"bike_id":"e28cb673-0d0c-4506-9d7e-8c215d7ae7bb","system_id":"levelo_inurba_marseille","lat":43.23058,"lon":5.35492,"is_reserved":false,"is_disabled":false,"rental_uris":{"android":"levelo://app?vid=e28cb673-0d0c-4506-9d7e-8c215d7ae7bb","ios":"levelo://app?vid=e28cb673-0d0c-4506-9d7e-8c215d7ae7bb"},"vehicle_type_id":"4","last_reported":1746188371,"current_range_meters":6400,"station_id":"cpo3342slgdg3j2ifvpg","pricing_plan_id":"cebpf4jnsgd1na2vs0mg"},{"bike_id":"7d735df7-0dec-455e-9189-cae815260d34","system_id":"levelo_inurba_marseille","lat":43.23068,"lon":5.35487,"is_reserved":false,"is_disabled":false,"rental_uris":{"android":"levelo://app?vid=7d735df7-0dec-455e-9189-cae815260d34","ios":"levelo://app?vid=7d735df7-0dec-455e-9189-cae815260d34"},"vehicle_type_id":"4","last_reported":1746188371,"current_range_meters":6400,"station_id":"cpo3342slgdg3j2ifvpg","pricing_plan_id":"cebpf4jnsgd1na2vs0mg"},{"bike_id":"71ee7904-1889-466d-aca3-021d20ba194a","system_id":"levelo_inurba_marseille","lat":43.21194,"lon":5.35071,"is_reserved":false,"is_disabled":false,"rental_uris":{"android":"levelo://app?vid=71ee7904-1889-466d-aca3-021d20ba194a","ios":"levelo://app?vid=71ee7904-1889-466d-aca3-021d20ba194a"},"vehicle_type_id":"4","last_reported":1746188371,"current_range_meters":6400,"station_id":"st_cvj6sg6p6f1abm77japg","pricing_plan_id":"cebpf4jnsgd1na2vs0mg"},{"bike_id":"c46ec625-73f4-456a-98aa-ec07273ab2a6","system_id":"levelo_inurba_marseille","lat":43.309479,"lon":5.390364,"is_reserved":false,"is_disabled":false,"rental_uris":{"android":"levelo://app?vid=c46ec625-73f4-456a-98aa-ec07273ab2a6","ios":"levelo://app?vid=c46ec625-73f4-456a-98aa-ec07273ab2a6"},"vehicle_type_id":"4","last_reported":1746188371,"current_range_meters":6800,"station_id":"ce4bgup2rcd13ifvqco0","pricing_plan_id":"cebpf4jnsgd1na2vs0mg"},{"bike_id":"cd97db15-ed22-429a-b582-2425c57cf80c","system_id":"levelo_inurba_marseille","lat":43.24389,"lon":5.37057,"is_reserved":false,"is_disabled":false,"rental_uris":{"android":"levelo://app?vid=cd97db15-ed22-429a-b582-2425c57cf80c","ios":"levelo://app?vid=cd97db15-ed22-429a-b582-2425c57cf80c"},"vehicle_type_id":"4","last_reported":1746188371,"current_range_meters":6800,"station_id":"ce4bhhh2rcd13ifvqfk0","pricing_plan_id":"cebpf4jnsgd1na2vs0mg"},{"bike_id":"31affc6b-1721-4b21-99de-3810a8b5ee41","system_id":"levelo_inurba_marseille","lat":43.275,"lon":5.42442,"is_reserved":false,"is_disabled":false,"rental_uris":{"android":"levelo://app?vid=31affc6b-1721-4b21-99de-3810a8b5ee41","ios":"levelo://app?vid=31affc6b-1721-4b21-99de-3810a8b5ee41"},"vehicle_type_id":"4","last_reported":1746188371,"current_range_meters":6800,"station_id":"ce4bhn92rcd13ifvqgrg","pricing_plan_id":"cebpf4jnsgd1na2vs0mg"},{"bike_id":"a1b163cf-98c1-438e-9cfd-ec44bacbc6dd","system_id":"levelo_inurba_marseille","lat":43.27495,"lon":5.42451,"is_reserved":false,"is_disabled":false,"rental_uris":{"android":"levelo://app?vid=a1b163cf-98c1-438e-9cfd-ec44bacbc6dd","ios":"levelo://app?vid=a1b163cf-98c1-438e-9cfd-ec44bacbc6dd"},"vehicle_type_id":"4","last_reported":1746188371,"current_range_meters":6800,"station_id":"ce4bhn92rcd13ifvqgrg","pricing_plan_id":"cebpf4jnsgd1na2vs0mg"},{"bike_id":"ea826c38-6da0-40ce-afe4-c8830a3096e8","system_id":"levelo_inurba_marseille","lat":43.28001,"lon":5.40015,"is_reserved":false,"is_disabled":false,"rental_uris":{"android":"levelo://app?vid=ea826c38-6da0-40ce-afe4-c8830a3096e8","ios":"levelo://app?vid=ea826c38-6da0-40ce-afe4-c8830a3096e8"},"vehicle_type_id":"4","last_reported":1746188371,"current_range_meters":6800,"station_id":"ce4bho92rcd13ifvqh4g","pricing_plan_id":"cebpf4jnsgd1na2vs0mg"},{"bike_id":"b6d26b44-1d95-49a4-bc31-d2f5b25035cc","system_id":"levelo_inurba_marseille","lat":43.28441,"lon":5.39192,"is_reserved":false,"is_disabled":false,"rental_uris":{"android":"levelo://app?vid=b6d26b44-1d95-49a4-bc31-d2f5b25035cc","ios":"levelo://app?vid=b6d26b44-1d95-49a4-bc31-d2f5b25035cc"},"vehicle_type_id":"4","last_reported":1746188371,"current_range_meters":6800,"station_id":"ce4bhoh2rcd13ifvqh5g","pricing_plan_id":"cebpf4jnsgd1na2vs0mg"},{"bike_id":"6fee5570-7adf-4f83-8ed3-cdb56c265712","system_id":"levelo_inurba_marseille","lat":43.32541,"lon":5.41442,"is_reserved":false,"is_disabled":false,"rental_uris":{"android":"levelo://app?vid=6fee5570-7adf-4f83-8ed3-cdb56c265712","ios":"levelo://app?vid=6fee5570-7adf-4f83-8ed3-cdb56c265712"},"vehicle_type_id":"4","last_reported":1746188371,"current_range_meters":6800,"station_id":"ce4bhq12rcd13ifvqhhg","pricing_plan_id":"cebpf4jnsgd1na2vs0mg"},{"bike_id":"fa4707dd-4ab8-4249-a5fe-9acaf623b85e","system_id":"levelo_inurba_marseille","lat":43.21196,"lon":5.35057,"is_reserved":false,"is_disabled":false,"rental_uris":{"android":"levelo://app?vid=fa4707dd-4ab8-4249-a5fe-9acaf623b85e","ios":"levelo://app?vid=fa4707dd-4ab8-4249-a5fe-9acaf623b85e"},"vehicle_type_id":"4","last_reported":1746188371,"current_range_meters":6800,"station_id":"st_cvj6sg6p6f1abm77japg","pricing_plan_id":"cebpf4jnsgd1na2vs0mg"},{"bike_id":"5cda05c5-33c9-4109-89c1-36d218dc0d5f","system_id":"levelo_inurba_marseille","lat":43.31708,"lon":5.40434,"is_reserved":false,"is_disabled":false,"rental_uris":{"android":"levelo://app?vid=5cda05c5-33c9-4109-89c1-36d218dc0d5f","ios":"levelo://app?vid=5cda05c5-33c9-4109-89c1-36d218dc0d5f"},"vehicle_type_id":"4","last_reported":1746188371,"current_range_meters":7200,"station_id":"ce4bh012rcd13ifvqd00","pricing_plan_id":"cebpf4jnsgd1na2vs0mg"},{"bike_id":"c390fbe7-ea96-4ecf-afd2-8aafd2c87ca5","system_id":"levelo_inurba_marseille","lat":43.27378,"lon":5.36257,"is_reserved":false,"is_disabled":false,"rental_uris":{"android":"levelo://app?vid=c390fbe7-ea96-4ecf-afd2-8aafd2c87ca5","ios":"levelo://app?vid=c390fbe7-ea96-4ecf-afd2-8aafd2c87ca5"},"vehicle_type_id":"4","last_reported":1746188371,"current_range_meters":7200,"station_id":"ce4bhbh2rcd13ifvqeo0","pricing_plan_id":"cebpf4jnsgd1na2vs0mg"},{"bike_id":"c5ce55a5-b26f-4535-b3b2-a97f7899fc2d","system_id":"levelo_inurba_marseille","lat":43.28615,"lon":5.35106,"is_reserved":false,"is_disabled":false,"rental_uris":{"android":"levelo://app?vid=c5ce55a5-b26f-4535-b3b2-a97f7899fc2d","ios":"levelo://app?vid=c5ce55a5-b26f-4535-b3b2-a97f7899fc2d"},"vehicle_type_id":"4","last_reported":1746188371,"current_range_meters":7200,"station_id":"ce4bhch2rcd13ifvqeug","pricing_plan_id":"cebpf4jnsgd1na2vs0mg"},{"bike_id":"c12919d0-6756-4845-be15-a5ae5c6330a0","system_id":"levelo_inurba_marseille","lat":43.26574,"lon":5.39027,"is_reserved":false,"is_disabled":false,"rental_uris":{"android":"levelo://app?vid=c12919d0-6756-4845-be15-a5ae5c6330a0","ios":"levelo://app?vid=c12919d0-6756-4845-be15-a5ae5c6330a0"},"vehicle_type_id":"4","last_reported":1746188371,"current_range_meters":7200,"station_id":"ce4bhe12rcd13ifvqf30","pricing_plan_id":"cebpf4jnsgd1na2vs0mg"},{"bike_id":"8ae4aa03-b6d9-419a-918d-94ceca4e1dc5","system_id":"levelo_inurba_marseille","lat":43.23065,"lon":5.3549,"is_reserved":false,"is_disabled":false,"rental_uris":{"android":"levelo://app?vid=8ae4aa03-b6d9-419a-918d-94ceca4e1dc5","ios":"levelo://app?vid=8ae4aa03-b6d9-419a-918d-94ceca4e1dc5"},"vehicle_type_id":"4","last_reported":1746188371,"current_range_meters":7200,"station_id":"cpo3342slgdg3j2ifvpg","pricing_plan_id":"cebpf4jnsgd1na2vs0mg"},{"bike_id":"2dd4ab21-8e2f-4f66-aa12-755ffae213e1","system_id":"levelo_inurba_marseille","lat":43.30194,"lon":5.36629,"is_reserved":false,"is_disabled":false,"rental_uris":{"android":"levelo://app?vid=2dd4ab21-8e2f-4f66-aa12-755ffae213e1","ios":"levelo://app?vid=2dd4ab21-8e2f-4f66-aa12-755ffae213e1"},"vehicle_type_id":"4","last_reported":1746188371,"current_range_meters":8000,"station_id":"ce4bgrh2rcd13ifvqc8g","pricing_plan_id":"cebpf4jnsgd1na2vs0mg"},{"bike_id":"e0c69642-153a-4cdf-94dd-e50d7657b75d","system_id":"levelo_inurba_marseille","lat":43.31697,"lon":5.4047,"is_reserved":false,"is_disabled":false,"rental_uris":{"android":"levelo://app?vid=e0c69642-153a-4cdf-94dd-e50d7657b75d","ios":"levelo://app?vid=e0c69642-153a-4cdf-94dd-e50d7657b75d"},"vehicle_type_id":"4","last_reported":1746188371,"current_range_meters":8000,"station_id":"ce4bh012rcd13ifvqd00","pricing_plan_id":"cebpf4jnsgd1na2vs0mg"},{"bike_id":"0691bfd5-746c-47ef-97b5-a3fd614887a7","system_id":"levelo_inurba_marseille","lat":43.27367,"lon":5.36256,"is_reserved":false,"is_disabled":false,"rental_uris":{"android":"levelo://app?vid=0691bfd5-746c-47ef-97b5-a3fd614887a7","ios":"levelo://app?vid=0691bfd5-746c-47ef-97b5-a3fd614887a7"},"vehicle_type_id":"4","last_reported":1746188371,"current_range_meters":8000,"station_id":"ce4bhbh2rcd13ifvqeo0","pricing_plan_id":"cebpf4jnsgd1na2vs0mg"},{"bike_id":"25390774-3972-4705-85f6-32df24dd9188","system_id":"levelo_inurba_marseille","lat":43.27845,"lon":5.39214,"is_reserved":false,"is_disabled":false,"rental_uris":{"android":"levelo://app?vid=25390774-3972-4705-85f6-32df24dd9188","ios":"levelo://app?vid=25390774-3972-4705-85f6-32df24dd9188"},"vehicle_type_id":"4","last_reported":1746188371,"current_range_meters":8000,"station_id":"ce4bhjp2rcd13ifvqga0","pricing_plan_id":"cebpf4jnsgd1na2vs0mg"},{"bike_id":"1e578374-1b0a-4b52-bbcd-93409279b6f0","system_id":"levelo_inurba_marseille","lat":43.25086,"lon":5.39523,"is_reserved":false,"is_disabled":false,"rental_uris":{"android":"levelo://app?vid=1e578374-1b0a-4b52-bbcd-93409279b6f0","ios":"levelo://app?vid=1e578374-1b0a-4b52-bbcd-93409279b6f0"},"vehicle_type_id":"4","last_reported":1746188371,"current_range_meters":8000,"station_id":"ce4bhm12rcd13ifvqgkg","pricing_plan_id":"cebpf4jnsgd1na2vs0mg"},{"bike_id":"7971fe93-5f1d-4a59-8508-b415e64fcb18","system_id":"levelo_inurba_marseille","lat":43.30947,"lon":5.37376,"is_reserved":false,"is_disabled":false,"rental_uris":{"android":"levelo://app?vid=7971fe93-5f1d-4a59-8508-b415e64fcb18","ios":"levelo://app?vid=7971fe93-5f1d-4a59-8508-b415e64fcb18"},"vehicle_type_id":"4","last_reported":1746188371,"current_range_meters":8400,"station_id":"","pricing_plan_id":"cebpf4jnsgd1na2vs0mg"},{"bike_id":"77046790-5a1f-40e3-8b93-d1d5fa61338c","system_id":"levelo_inurba_marseille","lat":43.26569,"lon":5.39014,"is_reserved":false,"is_disabled":false,"rental_uris":{"android":"levelo://app?vid=77046790-5a1f-40e3-8b93-d1d5fa61338c","ios":"levelo://app?vid=77046790-5a1f-40e3-8b93-d1d5fa61338c"},"vehicle_type_id":"4","last_reported":1746188371,"current_range_meters":8400,"station_id":"ce4bhe12rcd13ifvqf30","pricing_plan_id":"cebpf4jnsgd1na2vs0mg"},{"bike_id":"56275e03-7077-4804-ad61-d3e75f0b9949","system_id":"levelo_inurba_marseille","lat":43.2658,"lon":5.39029,"is_reserved":false,"is_disabled":false,"rental_uris":{"android":"levelo://app?vid=56275e03-7077-4804-ad61-d3e75f0b9949","ios":"levelo://app?vid=56275e03-7077-4804-ad61-d3e75f0b9949"},"vehicle_type_id":"4","last_reported":1746188371,"current_range_meters":8400,"station_id":"ce4bhe12rcd13ifvqf30","pricing_plan_id":"cebpf4jnsgd1na2vs0mg"},{"bike_id":"f9c0266f-b574-4452-843a-ec7d2c9ce369","system_id":"levelo_inurba_marseille","lat":43.27495,"lon":5.42451,"is_reserved":false,"is_disabled":false,"rental_uris":{"android":"levelo://app?vid=f9c0266f-b574-4452-843a-ec7d2c9ce369","ios":"levelo://app?vid=f9c0266f-b574-4452-843a-ec7d2c9ce369"},"vehicle_type_id":"4","last_reported":1746188371,"current_range_meters":8400,"station_id":"ce4bhn92rcd13ifvqgrg","pricing_plan_id":"cebpf4jnsgd1na2vs0mg"},{"bike_id":"0904a3c6-ea4e-49d9-ab08-0e7ce3444dac","system_id":"levelo_inurba_marseille","lat":43.28441,"lon":5.39209,"is_reserved":false,"is_disabled":false,"rental_uris":{"android":"levelo://app?vid=0904a3c6-ea4e-49d9-ab08-0e7ce3444dac","ios":"levelo://app?vid=0904a3c6-ea4e-49d9-ab08-0e7ce3444dac"},"vehicle_type_id":"4","last_reported":1746188371,"current_range_meters":8400,"station_id":"ce4bhoh2rcd13ifvqh5g","pricing_plan_id":"cebpf4jnsgd1na2vs0mg"},{"bike_id":"0d6c5100-7db5-44d0-b9d6-cf2b96014798","system_id":"levelo_inurba_marseille","lat":43.310041,"lon":5.375224,"is_reserved":false,"is_disabled":false,"rental_uris":{"android":"levelo://app?vid=0d6c5100-7db5-44d0-b9d6-cf2b96014798","ios":"levelo://app?vid=0d6c5100-7db5-44d0-b9d6-cf2b96014798"},"vehicle_type_id":"4","last_reported":1746188371,"current_range_meters":8800,"station_id":"","pricing_plan_id":"cebpf4jnsgd1na2vs0mg"},{"bike_id":"ba1291bf-568d-477b-8e17-c284858000b8","system_id":"levelo_inurba_marseille","lat":43.33074,"lon":5.39287,"is_reserved":false,"is_disabled":false,"rental_uris":{"android":"levelo://app?vid=ba1291bf-568d-477b-8e17-c284858000b8","ios":"levelo://app?vid=ba1291bf-568d-477b-8e17-c284858000b8"},"vehicle_type_id":"4","last_reported":1746188371,"current_range_meters":8800,"station_id":"","pricing_plan_id":"cebpf4jnsgd1na2vs0mg"},{"bike_id":"8fd4e8f0-3faf-4984-9623-cd70d8264b38","system_id":"levelo_inurba_marseille","lat":43.28277,"lon":5.35083,"is_reserved":false,"is_disabled":false,"rental_uris":{"android":"levelo://app?vid=8fd4e8f0-3faf-4984-9623-cd70d8264b38","ios":"levelo://app?vid=8fd4e8f0-3faf-4984-9623-cd70d8264b38"},"vehicle_type_id":"4","last_reported":1746188371,"current_range_meters":8800,"station_id":"ce4bhbp2rcd13ifvqerg","pricing_plan_id":"cebpf4jnsgd1na2vs0mg"},{"bike_id":"22662aee-2738-4e12-819f-a976efff14e8","system_id":"levelo_inurba_marseille","lat":43.24387,"lon":5.37058,"is_reserved":false,"is_disabled":false,"rental_uris":{"android":"levelo://app?vid=22662aee-2738-4e12-819f-a976efff14e8","ios":"levelo://app?vid=22662aee-2738-4e12-819f-a976efff14e8"},"vehicle_type_id":"4","last_reported":1746188371,"current_range_meters":8800,"station_id":"ce4bhhh2rcd13ifvqfk0","pricing_plan_id":"cebpf4jnsgd1na2vs0mg"},{"bike_id":"8fcf65fa-e503-4289-858f-113d6c6cf489","system_id":"levelo_inurba_marseille","lat":43.25716,"lon":5.4111,"is_reserved":false,"is_disabled":false,"rental_uris":{"android":"levelo://app?vid=8fcf65fa-e503-4289-858f-113d6c6cf489","ios":"levelo://app?vid=8fcf65fa-e503-4289-858f-113d6c6cf489"},"vehicle_type_id":"4","last_reported":1746188371,"current_range_meters":8800,"station_id":"ce4bhkp2rcd13ifvqgd0","pricing_plan_id":"cebpf4jnsgd1na2vs0mg"},{"bike_id":"daf5ff31-0a9d-4d99-9bf1-dd325ff6390e","system_id":"levelo_inurba_marseille","lat":43.23151,"lon":5.43723,"is_reserved":false,"is_disabled":false,"rental_uris":{"android":"levelo://app?vid=daf5ff31-0a9d-4d99-9bf1-dd325ff6390e","ios":"levelo://app?vid=daf5ff31-0a9d-4d99-9bf1-dd325ff6390e"},"vehicle_type_id":"4","last_reported":1746188371,"current_range_meters":8800,"station_id":"ce4bhmp2rcd13ifvqgog","pricing_plan_id":"cebpf4jnsgd1na2vs0mg"},{"bike_id":"764eb6c7-3f09-4a5b-9177-6996568add94","system_id":"levelo_inurba_marseille","lat":43.24158,"lon":5.39723,"is_reserved":false,"is_disabled":false,"rental_uris":{"android":"levelo://app?vid=764eb6c7-3f09-4a5b-9177-6996568add94","ios":"levelo://app?vid=764eb6c7-3f09-4a5b-9177-6996568add94"},"vehicle_type_id":"4","last_reported":1746188371,"current_range_meters":8800,"station_id":"ce4bhn12rcd13ifvqgpg","pricing_plan_id":"cebpf4jnsgd1na2vs0mg"},{"bike_id":"018cc1d9-7624-4895-8e2d-82cb167ca9e1","system_id":"levelo_inurba_marseille","lat":43.27501,"lon":5.42443,"is_reserved":false,"is_disabled":false,"rental_uris":{"android":"levelo://app?vid=018cc1d9-7624-4895-8e2d-82cb167ca9e1","ios":"levelo://app?vid=018cc1d9-7624-4895-8e2d-82cb167ca9e1"},"vehicle_type_id":"4","last_reported":1746188371,"current_range_meters":8800,"station_id":"ce4bhn92rcd13ifvqgrg","pricing_plan_id":"cebpf4jnsgd1na2vs0mg"},{"bike_id":"80460b32-4eda-4a80-8b64-808dfbfbc11b","system_id":"levelo_inurba_marseille","lat":43.31086,"lon":5.42436,"is_reserved":false,"is_disabled":false,"rental_uris":{"android":"levelo://app?vid=80460b32-4eda-4a80-8b64-808dfbfbc11b","ios":"levelo://app?vid=80460b32-4eda-4a80-8b64-808dfbfbc11b"},"vehicle_type_id":"4","last_reported":1746188371,"current_range_meters":8800,"station_id":"ce4bhp92rcd13ifvqhag","pricing_plan_id":"cebpf4jnsgd1na2vs0mg"},{"bike_id":"0af4aa0d-0584-4252-95d9-41890d2e4e0d","system_id":"levelo_inurba_marseille","lat":43.29892,"lon":5.43656,"is_reserved":false,"is_disabled":false,"rental_uris":{"android":"levelo://app?vid=0af4aa0d-0584-4252-95d9-41890d2e4e0d","ios":"levelo://app?vid=0af4aa0d-0584-4252-95d9-41890d2e4e0d"},"vehicle_type_id":"4","last_reported":1746188371,"current_range_meters":8800,"station_id":"ce4bhpp2rcd13ifvqhfg","pricing_plan_id":"cebpf4jnsgd1na2vs0mg"},{"bike_id":"4a6851f9-34fb-48f6-8387-4b9c13325bed","system_id":"levelo_inurba_marseille","lat":43.3211,"lon":5.3676,"is_reserved":false,"is_disabled":false,"rental_uris":{"android":"levelo://app?vid=4a6851f9-34fb-48f6-8387-4b9c13325bed","ios":"levelo://app?vid=4a6851f9-34fb-48f6-8387-4b9c13325bed"},"vehicle_type_id":"4","last_reported":1746188371,"current_range_meters":8800,"station_id":"ce4bhrh2rcd13ifvqhug","pricing_plan_id":"cebpf4jnsgd1na2vs0mg"},{"bike_id":"5b2024e1-777c-413c-bbea-159f957dc0f5","system_id":"levelo_inurba_marseille","lat":43.24651,"lon":5.38888,"is_reserved":false,"is_disabled":false,"rental_uris":{"android":"levelo://app?vid=5b2024e1-777c-413c-bbea-159f957dc0f5","ios":"levelo://app?vid=5b2024e1-777c-413c-bbea-159f957dc0f5"},"vehicle_type_id":"4","last_reported":1746188371,"current_range_meters":9200,"station_id":"ce4bhg12rcd13ifvqf60","pricing_plan_id":"cebpf4jnsgd1na2vs0mg"},{"bike_id":"81a52a5f-39d5-42de-8313-5dcfa2339738","system_id":"levelo_inurba_marseille","lat":43.23154,"lon":5.43687,"is_reserved":false,"is_disabled":false,"rental_uris":{"android":"levelo://app?vid=81a52a5f-39d5-42de-8313-5dcfa2339738","ios":"levelo://app?vid=81a52a5f-39d5-42de-8313-5dcfa2339738"},"vehicle_type_id":"4","last_reported":1746188371,"current_range_meters":9200,"station_id":"ce4bhmp2rcd13ifvqgog","pricing_plan_id":"cebpf4jnsgd1na2vs0mg"},{"bike_id":"eba1c9e4-2b73-4afc-be17-d17beee4ed4a","system_id":"levelo_inurba_marseille","lat":43.31083,"lon":5.42424,"is_reserved":false,"is_disabled":false,"rental_uris":{"android":"levelo://app?vid=eba1c9e4-2b73-4afc-be17-d17beee4ed4a","ios":"levelo://app?vid=eba1c9e4-2b73-4afc-be17-d17beee4ed4a"},"vehicle_type_id":"4","last_reported":1746188371,"current_range_meters":9200,"station_id":"ce4bhp92rcd13ifvqhag","pricing_plan_id":"cebpf4jnsgd1na2vs0mg"},{"bike_id":"5dc9e231-558a-4b44-b6a3-30c60f9ea3d7","system_id":"levelo_inurba_marseille","lat":43.24167,"lon":5.36391,"is_reserved":false,"is_disabled":false,"rental_uris":{"android":"levelo://app?vid=5dc9e231-558a-4b44-b6a3-30c60f9ea3d7","ios":"levelo://app?vid=5dc9e231-558a-4b44-b6a3-30c60f9ea3d7"},"vehicle_type_id":"4","last_reported":1746188371,"current_range_meters":9200,"station_id":"cpo36qri1sfpv3e86is0","pricing_plan_id":"cebpf4jnsgd1na2vs0mg"},{"bike_id":"7b2d4b7c-df93-497d-97ad-cf73d08a27cc","system_id":"levelo_inurba_marseille","lat":43.21742,"lon":5.34606,"is_reserved":false,"is_disabled":false,"rental_uris":{"android":"levelo://app?vid=7b2d4b7c-df93-497d-97ad-cf73d08a27cc","ios":"levelo://app?vid=7b2d4b7c-df93-497d-97ad-cf73d08a27cc"},"vehicle_type_id":"4","last_reported":1746188371,"current_range_meters":9200,"station_id":"st_cvj6r9ubvosntc0bgbag","pricing_plan_id":"cebpf4jnsgd1na2vs0mg"},{"bike_id":"ee8ad5f2-39aa-4dba-9418-f9c8e27745ce","system_id":"levelo_inurba_marseille","lat":43.309279,"lon":5.401375,"is_reserved":false,"is_disabled":false,"rental_uris":{"android":"levelo://app?vid=ee8ad5f2-39aa-4dba-9418-f9c8e27745ce","ios":"levelo://app?vid=ee8ad5f2-39aa-4dba-9418-f9c8e27745ce"},"vehicle_type_id":"4","last_reported":1746188371,"current_range_meters":9600,"station_id":"ce4bgvp2rcd13ifvqct0","pricing_plan_id":"cebpf4jnsgd1na2vs0mg"},{"bike_id":"6af9f2b6-6bb6-414e-9861-1baa1d3faff2","system_id":"levelo_inurba_marseille","lat":43.26551,"lon":5.37279,"is_reserved":false,"is_disabled":false,"rental_uris":{"android":"levelo://app?vid=6af9f2b6-6bb6-414e-9861-1baa1d3faff2","ios":"levelo://app?vid=6af9f2b6-6bb6-414e-9861-1baa1d3faff2"},"vehicle_type_id":"4","last_reported":1746188371,"current_range_meters":9600,"station_id":"ce4bhg12rcd13ifvqf70","pricing_plan_id":"cebpf4jnsgd1na2vs0mg"},{"bike_id":"151d1cb6-57b5-4fce-9cc5-e7737dc41522","system_id":"levelo_inurba_marseille","lat":43.31994,"lon":5.38158,"is_reserved":false,"is_disabled":false,"rental_uris":{"android":"levelo://app?vid=151d1cb6-57b5-4fce-9cc5-e7737dc41522","ios":"levelo://app?vid=151d1cb6-57b5-4fce-9cc5-e7737dc41522"},"vehicle_type_id":"4","last_reported":1746188371,"current_range_meters":9600,"station_id":"ce4bhr12rcd13ifvqhpg","pricing_plan_id":"cebpf4jnsgd1na2vs0mg"},{"bike_id":"4d26488b-492e-4e59-bba3-51ef6d15885b","system_id":"levelo_inurba_marseille","lat":43.21744,"lon":5.34603,"is_reserved":false,"is_disabled":false,"rental_uris":{"android":"levelo://app?vid=4d26488b-492e-4e59-bba3-51ef6d15885b","ios":"levelo://app?vid=4d26488b-492e-4e59-bba3-51ef6d15885b"},"vehicle_type_id":"4","last_reported":1746188371,"current_range_meters":9600,"station_id":"st_cvj6r9ubvosntc0bgbag","pricing_plan_id":"cebpf4jnsgd1na2vs0mg"},{"bike_id":"045b2767-67d3-41b7-8618-6d27646a5585","system_id":"levelo_inurba_marseille","lat":43.314613,"lon":5.384273,"is_reserved":false,"is_disabled":false,"rental_uris":{"android":"levelo://app?vid=045b2767-67d3-41b7-8618-6d27646a5585","ios":"levelo://app?vid=045b2767-67d3-41b7-8618-6d27646a5585"},"vehicle_type_id":"4","last_reported":1746188371,"current_range_meters":10000,"station_id":"","pricing_plan_id":"cebpf4jnsgd1na2vs0mg"},{"bike_id":"baa36d50-3536-497e-b657-4ecdb5217c3b","system_id":"levelo_inurba_marseille","lat":43.26211,"lon":5.3744,"is_reserved":false,"is_disabled":false,"rental_uris":{"android":"levelo://app?vid=baa36d50-3536-497e-b657-4ecdb5217c3b","ios":"levelo://app?vid=baa36d50-3536-497e-b657-4ecdb5217c3b"},"vehicle_type_id":"4","last_reported":1746188371,"current_range_meters":10000,"station_id":"ce4bhgp2rcd13ifvqfc0","pricing_plan_id":"cebpf4jnsgd1na2vs0mg"},{"bike_id":"cfd9d347-ec3c-4047-abbd-ec7a19b6697b","system_id":"levelo_inurba_marseille","lat":43.32337,"lon":5.40617,"is_reserved":false,"is_disabled":false,"rental_uris":{"android":"levelo://app?vid=cfd9d347-ec3c-4047-abbd-ec7a19b6697b","ios":"levelo://app?vid=cfd9d347-ec3c-4047-abbd-ec7a19b6697b"},"vehicle_type_id":"4","last_reported":1746188371,"current_range_meters":10000,"station_id":"ce4bhq92rcd13ifvqhjg","pricing_plan_id":"cebpf4jnsgd1na2vs0mg"},{"bike_id":"fd2c3c67-23a6-4380-b7ca-8f23c8f78921","system_id":"levelo_inurba_marseille","lat":43.3236,"lon":5.3674,"is_reserved":false,"is_disabled":false,"rental_uris":{"android":"levelo://app?vid=fd2c3c67-23a6-4380-b7ca-8f23c8f78921","ios":"levelo://app?vid=fd2c3c67-23a6-4380-b7ca-8f23c8f78921"},"vehicle_type_id":"4","last_reported":1746188371,"current_range_meters":10000,"station_id":"ce4bhsh2rcd13ifvqi2g","pricing_plan_id":"cebpf4jnsgd1na2vs0mg"},{"bike_id":"7bd7c79e-5190-4568-b102-e02604e33904","system_id":"levelo_inurba_marseille","lat":43.33052,"lon":5.39318,"is_reserved":false,"is_disabled":false,"rental_uris":{"android":"levelo://app?vid=7bd7c79e-5190-4568-b102-e02604e33904","ios":"levelo://app?vid=7bd7c79e-5190-4568-b102-e02604e33904"},"vehicle_type_id":"4","last_reported":1746188371,"current_range_meters":10800,"station_id":"","pricing_plan_id":"cebpf4jnsgd1na2vs0mg"},{"bike_id":"0da7974b-2287-4bdf-b5f5-e21ade6a4593","system_id":"levelo_inurba_marseille","lat":43.24802,"lon":5.37453,"is_reserved":false,"is_disabled":false,"rental_uris":{"android":"levelo://app?vid=0da7974b-2287-4bdf-b5f5-e21ade6a4593","ios":"levelo://app?vid=0da7974b-2287-4bdf-b5f5-e21ade6a4593"},"vehicle_type_id":"4","last_reported":1746188371,"current_range_meters":10800,"station_id":"ce4bhgh2rcd13ifvqfb0","pricing_plan_id":"cebpf4jnsgd1na2vs0mg"},{"bike_id":"0f79c627-5360-417f-9f42-42a69bba19c7","system_id":"levelo_inurba_marseille","lat":43.24397,"lon":5.37061,"is_reserved":false,"is_disabled":false,"rental_uris":{"android":"levelo://app?vid=0f79c627-5360-417f-9f42-42a69bba19c7","ios":"levelo://app?vid=0f79c627-5360-417f-9f42-42a69bba19c7"},"vehicle_type_id":"4","last_reported":1746188371,"current_range_meters":10800,"station_id":"ce4bhhh2rcd13ifvqfk0","pricing_plan_id":"cebpf4jnsgd1na2vs0mg"},{"bike_id":"965ccc04-7cb4-4614-b28e-44bfa6c63fa5","system_id":"levelo_inurba_marseille","lat":43.27492,"lon":5.42452,"is_reserved":false,"is_disabled":false,"rental_uris":{"android":"levelo://app?vid=965ccc04-7cb4-4614-b28e-44bfa6c63fa5","ios":"levelo://app?vid=965ccc04-7cb4-4614-b28e-44bfa6c63fa5"},"vehicle_type_id":"4","last_reported":1746188371,"current_range_meters":10800,"station_id":"ce4bhn92rcd13ifvqgrg","pricing_plan_id":"cebpf4jnsgd1na2vs0mg"},{"bike_id":"5b7ea2f0-bb3d-4600-971a-6ffdd147db1d","system_id":"levelo_inurba_marseille","lat":43.28157,"lon":5.4265,"is_reserved":false,"is_disabled":false,"rental_uris":{"android":"levelo://app?vid=5b7ea2f0-bb3d-4600-971a-6ffdd147db1d","ios":"levelo://app?vid=5b7ea2f0-bb3d-4600-971a-6ffdd147db1d"},"vehicle_type_id":"4","last_reported":1746188371,"current_range_meters":10800,"station_id":"ce4bhnh2rcd13ifvqgug","pricing_plan_id":"cebpf4jnsgd1na2vs0mg"},{"bike_id":"09e7f123-d853-49cd-94e0-92f4fea320bc","system_id":"levelo_inurba_marseille","lat":43.28405,"lon":5.34968,"is_reserved":false,"is_disabled":false,"rental_uris":{"android":"levelo://app?vid=09e7f123-d853-49cd-94e0-92f4fea320bc","ios":"levelo://app?vid=09e7f123-d853-49cd-94e0-92f4fea320bc"},"vehicle_type_id":"4","last_reported":1746188371,"current_range_meters":11200,"station_id":"ce4bhbh2rcd13ifvqepg","pricing_plan_id":"cebpf4jnsgd1na2vs0mg"},{"bike_id":"ca325a6d-2f28-482c-ad3d-b0fbd23367b0","system_id":"levelo_inurba_marseille","lat":43.2842,"lon":5.34994,"is_reserved":false,"is_disabled":false,"rental_uris":{"android":"levelo://app?vid=ca325a6d-2f28-482c-ad3d-b0fbd23367b0","ios":"levelo://app?vid=ca325a6d-2f28-482c-ad3d-b0fbd23367b0"},"vehicle_type_id":"4","last_reported":1746188371,"current_range_meters":11200,"station_id":"ce4bhbh2rcd13ifvqepg","pricing_plan_id":"cebpf4jnsgd1na2vs0mg"},{"bike_id":"e0f3b5eb-8ae7-4191-866a-9e363c67cd24","system_id":"levelo_inurba_marseille","lat":43.26679,"lon":5.38274,"is_reserved":false,"is_disabled":false,"rental_uris":{"android":"levelo://app?vid=e0f3b5eb-8ae7-4191-866a-9e363c67cd24","ios":"levelo://app?vid=e0f3b5eb-8ae7-4191-866a-9e363c67cd24"},"vehicle_type_id":"4","last_reported":1746188371,"current_range_meters":11200,"station_id":"ce4bhg92rcd13ifvqf90","pricing_plan_id":"cebpf4jnsgd1na2vs0mg"},{"bike_id":"02b1847c-6973-4e2e-8dec-b749adb69f4c","system_id":"levelo_inurba_marseille","lat":43.26789,"lon":5.39419,"is_reserved":false,"is_disabled":false,"rental_uris":{"android":"levelo://app?vid=02b1847c-6973-4e2e-8dec-b749adb69f4c","ios":"levelo://app?vid=02b1847c-6973-4e2e-8dec-b749adb69f4c"},"vehicle_type_id":"4","last_reported":1746188371,"current_range_meters":11200,"station_id":"ce4bhh12rcd13ifvqfg0","pricing_plan_id":"cebpf4jnsgd1na2vs0mg"},{"bike_id":"4cc2b011-81f2-4910-af9d-0052ec928815","system_id":"levelo_inurba_marseille","lat":43.3037,"lon":5.42486,"is_reserved":false,"is_disabled":false,"rental_uris":{"android":"levelo://app?vid=4cc2b011-81f2-4910-af9d-0052ec928815","ios":"levelo://app?vid=4cc2b011-81f2-4910-af9d-0052ec928815"},"vehicle_type_id":"4","last_reported":1746188371,"current_range_meters":11200,"station_id":"ce4bhoh2rcd13ifvqh6g","pricing_plan_id":"cebpf4jnsgd1na2vs0mg"},{"bike_id":"b76f5f4b-eb05-43ee-acf7-c7e63865aee0","system_id":"levelo_inurba_marseille","lat":43.23189,"lon":5.35558,"is_reserved":false,"is_disabled":false,"rental_uris":{"android":"levelo://app?vid=b76f5f4b-eb05-43ee-acf7-c7e63865aee0","ios":"levelo://app?vid=b76f5f4b-eb05-43ee-acf7-c7e63865aee0"},"vehicle_type_id":"4","last_reported":1746188371,"current_range_meters":11200,"station_id":"ce4bhu92rcd13ifvqi70","pricing_plan_id":"cebpf4jnsgd1na2vs0mg"},{"bike_id":"7ab002d3-a0b6-4860-8d70-de4fa3d2c1d8","system_id":"levelo_inurba_marseille","lat":43.31123,"lon":5.37774,"is_reserved":false,"is_disabled":false,"rental_uris":{"android":"levelo://app?vid=7ab002d3-a0b6-4860-8d70-de4fa3d2c1d8","ios":"levelo://app?vid=7ab002d3-a0b6-4860-8d70-de4fa3d2c1d8"},"vehicle_type_id":"4","last_reported":1746188371,"current_range_meters":11600,"station_id":"ce4bgt92rcd13ifvqcg0","pricing_plan_id":"cebpf4jnsgd1na2vs0mg"},{"bike_id":"b65cefd3-55dd-425d-96b9-4ebbce1f94d9","system_id":"levelo_inurba_marseille","lat":43.23057,"lon":5.35495,"is_reserved":false,"is_disabled":false,"rental_uris":{"android":"levelo://app?vid=b65cefd3-55dd-425d-96b9-4ebbce1f94d9","ios":"levelo://app?vid=b65cefd3-55dd-425d-96b9-4ebbce1f94d9"},"vehicle_type_id":"4","last_reported":1746188371,"current_range_meters":11600,"station_id":"cpo3342slgdg3j2ifvpg","pricing_plan_id":"cebpf4jnsgd1na2vs0mg"},{"bike_id":"11ffd5c2-a01f-499a-9850-be3eb482ff10","system_id":"levelo_inurba_marseille","lat":43.26201,"lon":5.37449,"is_reserved":false,"is_disabled":false,"rental_uris":{"android":"levelo://app?vid=11ffd5c2-a01f-499a-9850-be3eb482ff10","ios":"levelo://app?vid=11ffd5c2-a01f-499a-9850-be3eb482ff10"},"vehicle_type_id":"4","last_reported":1746188371,"current_range_meters":12000,"station_id":"ce4bhgp2rcd13ifvqfc0","pricing_plan_id":"cebpf4jnsgd1na2vs0mg"},{"bike_id":"eaf5be1e-86fb-4a63-8ebe-037cd6dcf356","system_id":"levelo_inurba_marseille","lat":43.24388,"lon":5.3706,"is_reserved":false,"is_disabled":false,"rental_uris":{"android":"levelo://app?vid=eaf5be1e-86fb-4a63-8ebe-037cd6dcf356","ios":"levelo://app?vid=eaf5be1e-86fb-4a63-8ebe-037cd6dcf356"},"vehicle_type_id":"4","last_reported":1746188371,"current_range_meters":12000,"station_id":"ce4bhhh2rcd13ifvqfk0","pricing_plan_id":"cebpf4jnsgd1na2vs0mg"},{"bike_id":"6d74a9f5-3f03-4e8e-aa3b-29a84082925f","system_id":"levelo_inurba_marseille","lat":43.22933,"lon":5.35375,"is_reserved":false,"is_disabled":false,"rental_uris":{"android":"levelo://app?vid=6d74a9f5-3f03-4e8e-aa3b-29a84082925f","ios":"levelo://app?vid=6d74a9f5-3f03-4e8e-aa3b-29a84082925f"},"vehicle_type_id":"4","last_reported":1746188371,"current_range_meters":12000,"station_id":"cpo3532slgdg3j2ikp40","pricing_plan_id":"cebpf4jnsgd1na2vs0mg"},{"bike_id":"84aae430-d727-4921-b8e7-d963a3401d68","system_id":"levelo_inurba_marseille","lat":43.21186,"lon":5.35056,"is_reserved":false,"is_disabled":false,"rental_uris":{"android":"levelo://app?vid=84aae430-d727-4921-b8e7-d963a3401d68","ios":"levelo://app?vid=84aae430-d727-4921-b8e7-d963a3401d68"},"vehicle_type_id":"4","last_reported":1746188371,"current_range_meters":12000,"station_id":"st_cvj6sg6p6f1abm77japg","pricing_plan_id":"cebpf4jnsgd1na2vs0mg"},{"bike_id":"bf9e2432-185b-43cf-b2df-4e1b860b1c6d","system_id":"levelo_inurba_marseille","lat":43.21191,"lon":5.35067,"is_reserved":false,"is_disabled":false,"rental_uris":{"android":"levelo://app?vid=bf9e2432-185b-43cf-b2df-4e1b860b1c6d","ios":"levelo://app?vid=bf9e2432-185b-43cf-b2df-4e1b860b1c6d"},"vehicle_type_id":"4","last_reported":1746188371,"current_range_meters":12000,"station_id":"st_cvj6sg6p6f1abm77japg","pricing_plan_id":"cebpf4jnsgd1na2vs0mg"},{"bike_id":"5f58e901-3896-4d53-b990-4bbb3dcc13a2","system_id":"levelo_inurba_marseille","lat":43.26217,"lon":5.40474,"is_reserved":false,"is_disabled":false,"rental_uris":{"android":"levelo://app?vid=5f58e901-3896-4d53-b990-4bbb3dcc13a2","ios":"levelo://app?vid=5f58e901-3896-4d53-b990-4bbb3dcc13a2"},"vehicle_type_id":"4","last_reported":1746188371,"current_range_meters":12400,"station_id":"ce4bhmh2rcd13ifvqgmg","pricing_plan_id":"cebpf4jnsgd1na2vs0mg"},{"bike_id":"bf0ded13-567f-4376-9241-fab3660dc401","system_id":"levelo_inurba_marseille","lat":43.23145,"lon":5.43712,"is_reserved":false,"is_disabled":false,"rental_uris":{"android":"levelo://app?vid=bf0ded13-567f-4376-9241-fab3660dc401","ios":"levelo://app?vid=bf0ded13-567f-4376-9241-fab3660dc401"},"vehicle_type_id":"4","last_reported":1746188371,"current_range_meters":12400,"station_id":"ce4bhmp2rcd13ifvqgog","pricing_plan_id":"cebpf4jnsgd1na2vs0mg"},{"bike_id":"03f5b910-d1d5-49c8-a7a4-67a333daaa2e","system_id":"levelo_inurba_marseille","lat":43.32536,"lon":5.41432,"is_reserved":false,"is_disabled":false,"rental_uris":{"android":"levelo://app?vid=03f5b910-d1d5-49c8-a7a4-67a333daaa2e","ios":"levelo://app?vid=03f5b910-d1d5-49c8-a7a4-67a333daaa2e"},"vehicle_type_id":"4","last_reported":1746188371,"current_range_meters":12400,"station_id":"ce4bhq12rcd13ifvqhhg","pricing_plan_id":"cebpf4jnsgd1na2vs0mg"},{"bike_id":"d61f70ef-9976-4d2f-87d3-5af19117be4b","system_id":"levelo_inurba_marseille","lat":43.31221,"lon":5.36842,"is_reserved":false,"is_disabled":false,"rental_uris":{"android":"levelo://app?vid=d61f70ef-9976-4d2f-87d3-5af19117be4b","ios":"levelo://app?vid=d61f70ef-9976-4d2f-87d3-5af19117be4b"},"vehicle_type_id":"4","last_reported":1746188371,"current_range_meters":12800,"station_id":"ce4bgl92rcd13ifvqbq0","pricing_plan_id":"cebpf4jnsgd1na2vs0mg"},{"bike_id":"1f31594f-9482-47e8-9238-3497a08b33a5","system_id":"levelo_inurba_marseille","lat":43.26188,"lon":5.37952,"is_reserved":false,"is_disabled":false,"rental_uris":{"android":"levelo://app?vid=1f31594f-9482-47e8-9238-3497a08b33a5","ios":"levelo://app?vid=1f31594f-9482-47e8-9238-3497a08b33a5"},"vehicle_type_id":"4","last_reported":1746188371,"current_range_meters":12800,"station_id":"ce4bhjp2rcd13ifvqg90","pricing_plan_id":"cebpf4jnsgd1na2vs0mg"},{"bike_id":"dbea7e60-3091-4bd7-941f-a79605dd43ad","system_id":"levelo_inurba_marseille","lat":43.23157,"lon":5.43694,"is_reserved":false,"is_disabled":false,"rental_uris":{"android":"levelo://app?vid=dbea7e60-3091-4bd7-941f-a79605dd43ad","ios":"levelo://app?vid=dbea7e60-3091-4bd7-941f-a79605dd43ad"},"vehicle_type_id":"4","last_reported":1746188371,"current_range_meters":12800,"station_id":"ce4bhmp2rcd13ifvqgog","pricing_plan_id":"cebpf4jnsgd1na2vs0mg"},{"bike_id":"8a987022-ada8-4674-bb07-7bfea665d82e","system_id":"levelo_inurba_marseille","lat":43.2808,"lon":5.39666,"is_reserved":false,"is_disabled":false,"rental_uris":{"android":"levelo://app?vid=8a987022-ada8-4674-bb07-7bfea665d82e","ios":"levelo://app?vid=8a987022-ada8-4674-bb07-7bfea665d82e"},"vehicle_type_id":"4","last_reported":1746188371,"current_range_meters":12800,"station_id":"ce4bho12rcd13ifvqh2g","pricing_plan_id":"cebpf4jnsgd1na2vs0mg"},{"bike_id":"6c4d3694-1c4e-4614-8440-dd00a9b9bee1","system_id":"levelo_inurba_marseille","lat":43.312277,"lon":5.36867,"is_reserved":false,"is_disabled":false,"rental_uris":{"android":"levelo://app?vid=6c4d3694-1c4e-4614-8440-dd00a9b9bee1","ios":"levelo://app?vid=6c4d3694-1c4e-4614-8440-dd00a9b9bee1"},"vehicle_type_id":"4","last_reported":1746188371,"current_range_meters":13600,"station_id":"ce4bgl92rcd13ifvqbq0","pricing_plan_id":"cebpf4jnsgd1na2vs0mg"},{"bike_id":"28053fa8-fbd4-41f7-bc6e-55d01871e2f8","system_id":"levelo_inurba_marseille","lat":43.26564,"lon":5.3728,"is_reserved":false,"is_disabled":false,"rental_uris":{"android":"levelo://app?vid=28053fa8-fbd4-41f7-bc6e-55d01871e2f8","ios":"levelo://app?vid=28053fa8-fbd4-41f7-bc6e-55d01871e2f8"},"vehicle_type_id":"4","last_reported":1746188371,"current_range_meters":13600,"station_id":"ce4bhg12rcd13ifvqf70","pricing_plan_id":"cebpf4jnsgd1na2vs0mg"},{"bike_id":"9c8d80bc-f83e-453b-ae0e-d27d54474f28","system_id":"levelo_inurba_marseille","lat":43.28414,"lon":5.3499,"is_reserved":false,"is_disabled":false,"rental_uris":{"android":"levelo://app?vid=9c8d80bc-f83e-453b-ae0e-d27d54474f28","ios":"levelo://app?vid=9c8d80bc-f83e-453b-ae0e-d27d54474f28"},"vehicle_type_id":"4","last_reported":1746188371,"current_range_meters":14000,"station_id":"ce4bhbh2rcd13ifvqepg","pricing_plan_id":"cebpf4jnsgd1na2vs0mg"},{"bike_id":"32c53011-ecd2-4ccf-9bdb-c6fe7f1a7344","system_id":"levelo_inurba_marseille","lat":43.231551,"lon":5.437102,"is_reserved":false,"is_disabled":false,"rental_uris":{"android":"levelo://app?vid=32c53011-ecd2-4ccf-9bdb-c6fe7f1a7344","ios":"levelo://app?vid=32c53011-ecd2-4ccf-9bdb-c6fe7f1a7344"},"vehicle_type_id":"4","last_reported":1746188371,"current_range_meters":14000,"station_id":"ce4bhmp2rcd13ifvqgog","pricing_plan_id":"cebpf4jnsgd1na2vs0mg"},{"bike_id":"00e66528-d941-4c40-89b5-cba3fcddc0ff","system_id":"levelo_inurba_marseille","lat":43.21204,"lon":5.35069,"is_reserved":false,"is_disabled":false,"rental_uris":{"android":"levelo://app?vid=00e66528-d941-4c40-89b5-cba3fcddc0ff","ios":"levelo://app?vid=00e66528-d941-4c40-89b5-cba3fcddc0ff"},"vehicle_type_id":"4","last_reported":1746188371,"current_range_meters":14000,"station_id":"st_cvj6sg6p6f1abm77japg","pricing_plan_id":"cebpf4jnsgd1na2vs0mg"},{"bike_id":"25a0b2c9-a57b-4ea1-8e29-e45d6e443f3a","system_id":"levelo_inurba_marseille","lat":43.24804,"lon":5.374574,"is_reserved":false,"is_disabled":false,"rental_uris":{"android":"levelo://app?vid=25a0b2c9-a57b-4ea1-8e29-e45d6e443f3a","ios":"levelo://app?vid=25a0b2c9-a57b-4ea1-8e29-e45d6e443f3a"},"vehicle_type_id":"4","last_reported":1746188371,"current_range_meters":14400,"station_id":"ce4bhgh2rcd13ifvqfb0","pricing_plan_id":"cebpf4jnsgd1na2vs0mg"},{"bike_id":"dfe19062-ede2-4502-b5d6-013f98d95c75","system_id":"levelo_inurba_marseille","lat":43.26214,"lon":5.37442,"is_reserved":false,"is_disabled":false,"rental_uris":{"android":"levelo://app?vid=dfe19062-ede2-4502-b5d6-013f98d95c75","ios":"levelo://app?vid=dfe19062-ede2-4502-b5d6-013f98d95c75"},"vehicle_type_id":"4","last_reported":1746188371,"current_range_meters":14400,"station_id":"ce4bhgp2rcd13ifvqfc0","pricing_plan_id":"cebpf4jnsgd1na2vs0mg"},{"bike_id":"14c0f2cf-c5f2-47ac-b1ea-6ddcf51b0859","system_id":"levelo_inurba_marseille","lat":43.27494,"lon":5.4244,"is_reserved":false,"is_disabled":false,"rental_uris":{"android":"levelo://app?vid=14c0f2cf-c5f2-47ac-b1ea-6ddcf51b0859","ios":"levelo://app?vid=14c0f2cf-c5f2-47ac-b1ea-6ddcf51b0859"},"vehicle_type_id":"4","last_reported":1746188371,"current_range_meters":14400,"station_id":"ce4bhn92rcd13ifvqgrg","pricing_plan_id":"cebpf4jnsgd1na2vs0mg"},{"bike_id":"0bd7e1fc-3ab3-4175-841d-d9356a4e8863","system_id":"levelo_inurba_marseille","lat":43.31882,"lon":5.40739,"is_reserved":false,"is_disabled":false,"rental_uris":{"android":"levelo://app?vid=0bd7e1fc-3ab3-4175-841d-d9356a4e8863","ios":"levelo://app?vid=0bd7e1fc-3ab3-4175-841d-d9356a4e8863"},"vehicle_type_id":"4","last_reported":1746188371,"current_range_meters":14400,"station_id":"ce4bhq12rcd13ifvqhig","pricing_plan_id":"cebpf4jnsgd1na2vs0mg"},{"bike_id":"2e8b8fcb-9635-4926-829b-3b7be054388b","system_id":"levelo_inurba_marseille","lat":43.29596,"lon":5.381,"is_reserved":false,"is_disabled":false,"rental_uris":{"android":"levelo://app?vid=2e8b8fcb-9635-4926-829b-3b7be054388b","ios":"levelo://app?vid=2e8b8fcb-9635-4926-829b-3b7be054388b"},"vehicle_type_id":"4","last_reported":1746188371,"current_range_meters":14800,"station_id":"ce4bgl12rcd13ifvqbo0","pricing_plan_id":"cebpf4jnsgd1na2vs0mg"},{"bike_id":"3a443883-e121-4f82-a564-71a374b7df46","system_id":"levelo_inurba_marseille","lat":43.3078,"lon":5.37656,"is_reserved":false,"is_disabled":false,"rental_uris":{"android":"levelo://app?vid=3a443883-e121-4f82-a564-71a374b7df46","ios":"levelo://app?vid=3a443883-e121-4f82-a564-71a374b7df46"},"vehicle_type_id":"4","last_reported":1746188371,"current_range_meters":14800,"station_id":"ce4bgv92rcd13ifvqcq0","pricing_plan_id":"cebpf4jnsgd1na2vs0mg"},{"bike_id":"c3745e2a-77e8-4880-a0e6-0813e5b087d1","system_id":"levelo_inurba_marseille","lat":43.292664,"lon":5.384411,"is_reserved":false,"is_disabled":false,"rental_uris":{"android":"levelo://app?vid=c3745e2a-77e8-4880-a0e6-0813e5b087d1","ios":"levelo://app?vid=c3745e2a-77e8-4880-a0e6-0813e5b087d1"},"vehicle_type_id":"4","last_reported":1746188371,"current_range_meters":14800,"station_id":"ce4bh692rcd13ifvqea0","pricing_plan_id":"cebpf4jnsgd1na2vs0mg"},{"bike_id":"b29e94fe-3de4-4533-9604-22b70ee636e6","system_id":"levelo_inurba_marseille","lat":43.26678,"lon":5.38263,"is_reserved":false,"is_disabled":false,"rental_uris":{"android":"levelo://app?vid=b29e94fe-3de4-4533-9604-22b70ee636e6","ios":"levelo://app?vid=b29e94fe-3de4-4533-9604-22b70ee636e6"},"vehicle_type_id":"4","last_reported":1746188371,"current_range_meters":14800,"station_id":"ce4bhg92rcd13ifvqf90","pricing_plan_id":"cebpf4jnsgd1na2vs0mg"},{"bike_id":"5ce5a92f-2072-4e8c-8483-5f453ebe476a","system_id":"levelo_inurba_marseille","lat":43.23141,"lon":5.43708,"is_reserved":false,"is_disabled":false,"rental_uris":{"android":"levelo://app?vid=5ce5a92f-2072-4e8c-8483-5f453ebe476a","ios":"levelo://app?vid=5ce5a92f-2072-4e8c-8483-5f453ebe476a"},"vehicle_type_id":"4","last_reported":1746188371,"current_range_meters":14800,"station_id":"ce4bhmp2rcd13ifvqgog","pricing_plan_id":"cebpf4jnsgd1na2vs0mg"},{"bike_id":"5779d105-094b-4ec4-b217-7f01d7fd6044","system_id":"levelo_inurba_marseille","lat":43.23159,"lon":5.43703,"is_reserved":false,"is_disabled":false,"rental_uris":{"android":"levelo://app?vid=5779d105-094b-4ec4-b217-7f01d7fd6044","ios":"levelo://app?vid=5779d105-094b-4ec4-b217-7f01d7fd6044"},"vehicle_type_id":"4","last_reported":1746188371,"current_range_meters":14800,"station_id":"ce4bhmp2rcd13ifvqgog","pricing_plan_id":"cebpf4jnsgd1na2vs0mg"},{"bike_id":"e73cc175-f48d-4744-a583-e1d1caced8cf","system_id":"levelo_inurba_marseille","lat":43.31714,"lon":5.43711,"is_reserved":false,"is_disabled":false,"rental_uris":{"android":"levelo://app?vid=e73cc175-f48d-4744-a583-e1d1caced8cf","ios":"levelo://app?vid=e73cc175-f48d-4744-a583-e1d1caced8cf"},"vehicle_type_id":"4","last_reported":1746188371,"current_range_meters":14800,"station_id":"ce4bhp92rcd13ifvqhcg","pricing_plan_id":"cebpf4jnsgd1na2vs0mg"},{"bike_id":"6a569d46-1977-4f97-a74f-bb8a54e59a4c","system_id":"levelo_inurba_marseille","lat":43.23191,"lon":5.35551,"is_reserved":false,"is_disabled":false,"rental_uris":{"android":"levelo://app?vid=6a569d46-1977-4f97-a74f-bb8a54e59a4c","ios":"levelo://app?vid=6a569d46-1977-4f97-a74f-bb8a54e59a4c"},"vehicle_type_id":"4","last_reported":1746188371,"current_range_meters":15200,"station_id":"ce4bhu92rcd13ifvqi70","pricing_plan_id":"cebpf4jnsgd1na2vs0mg"},{"bike_id":"22ecf1aa-07eb-4e00-acac-2c6c14f33488","system_id":"levelo_inurba_marseille","lat":43.30303,"lon":5.36893,"is_reserved":false,"is_disabled":false,"rental_uris":{"android":"levelo://app?vid=22ecf1aa-07eb-4e00-acac-2c6c14f33488","ios":"levelo://app?vid=22ecf1aa-07eb-4e00-acac-2c6c14f33488"},"vehicle_type_id":"4","last_reported":1746188371,"current_range_meters":16000,"station_id":"ce4bgqh2rcd13ifvqc5g","pricing_plan_id":"cebpf4jnsgd1na2vs0mg"},{"bike_id":"b5292b26-1dd2-45e7-ab7d-00bf4e1b0db6","system_id":"levelo_inurba_marseille","lat":43.28412,"lon":5.34991,"is_reserved":false,"is_disabled":false,"rental_uris":{"android":"levelo://app?vid=b5292b26-1dd2-45e7-ab7d-00bf4e1b0db6","ios":"levelo://app?vid=b5292b26-1dd2-45e7-ab7d-00bf4e1b0db6"},"vehicle_type_id":"4","last_reported":1746188371,"current_range_meters":16000,"station_id":"ce4bhbh2rcd13ifvqepg","pricing_plan_id":"cebpf4jnsgd1na2vs0mg"},{"bike_id":"4c8c6d67-3f58-4735-b43b-62155c77f8a1","system_id":"levelo_inurba_marseille","lat":43.27173,"lon":5.40975,"is_reserved":false,"is_disabled":false,"rental_uris":{"android":"levelo://app?vid=4c8c6d67-3f58-4735-b43b-62155c77f8a1","ios":"levelo://app?vid=4c8c6d67-3f58-4735-b43b-62155c77f8a1"},"vehicle_type_id":"4","last_reported":1746188371,"current_range_meters":16000,"station_id":"ce4bhl12rcd13ifvqgf0","pricing_plan_id":"cebpf4jnsgd1na2vs0mg"},{"bike_id":"a044694a-fae5-4f02-9645-1957935f2f28","system_id":"levelo_inurba_marseille","lat":43.22921,"lon":5.35409,"is_reserved":false,"is_disabled":false,"rental_uris":{"android":"levelo://app?vid=a044694a-fae5-4f02-9645-1957935f2f28","ios":"levelo://app?vid=a044694a-fae5-4f02-9645-1957935f2f28"},"vehicle_type_id":"4","last_reported":1746188371,"current_range_meters":16000,"station_id":"cpo3532slgdg3j2ikp40","pricing_plan_id":"cebpf4jnsgd1na2vs0mg"},{"bike_id":"0a71c29b-4424-43a7-ba11-c6b428687da5","system_id":"levelo_inurba_marseille","lat":43.2175,"lon":5.34608,"is_reserved":false,"is_disabled":false,"rental_uris":{"android":"levelo://app?vid=0a71c29b-4424-43a7-ba11-c6b428687da5","ios":"levelo://app?vid=0a71c29b-4424-43a7-ba11-c6b428687da5"},"vehicle_type_id":"4","last_reported":1746188371,"current_range_meters":16000,"station_id":"st_cvj6r9ubvosntc0bgbag","pricing_plan_id":"cebpf4jnsgd1na2vs0mg"},{"bike_id":"98bfa440-d2f8-45f3-8138-1e51e964d54f","system_id":"levelo_inurba_marseille","lat":43.2952,"lon":5.38526,"is_reserved":false,"is_disabled":false,"rental_uris":{"android":"levelo://app?vid=98bfa440-d2f8-45f3-8138-1e51e964d54f","ios":"levelo://app?vid=98bfa440-d2f8-45f3-8138-1e51e964d54f"},"vehicle_type_id":"4","last_reported":1746188371,"current_range_meters":16400,"station_id":"ce4bgih2rcd13ifvqba0","pricing_plan_id":"cebpf4jnsgd1na2vs0mg"},{"bike_id":"968cc4bc-c67e-43fc-9db6-b721b082d551","system_id":"levelo_inurba_marseille","lat":43.29597,"lon":5.38102,"is_reserved":false,"is_disabled":false,"rental_uris":{"android":"levelo://app?vid=968cc4bc-c67e-43fc-9db6-b721b082d551","ios":"levelo://app?vid=968cc4bc-c67e-43fc-9db6-b721b082d551"},"vehicle_type_id":"4","last_reported":1746188371,"current_range_meters":16400,"station_id":"ce4bgl12rcd13ifvqbo0","pricing_plan_id":"cebpf4jnsgd1na2vs0mg"},{"bike_id":"40d7ff48-3bf4-4e3f-8a82-6f7f532a13fb","system_id":"levelo_inurba_marseille","lat":43.28272,"lon":5.35068,"is_reserved":false,"is_disabled":false,"rental_uris":{"android":"levelo://app?vid=40d7ff48-3bf4-4e3f-8a82-6f7f532a13fb","ios":"levelo://app?vid=40d7ff48-3bf4-4e3f-8a82-6f7f532a13fb"},"vehicle_type_id":"4","last_reported":1746188371,"current_range_meters":16400,"station_id":"ce4bhbp2rcd13ifvqerg","pricing_plan_id":"cebpf4jnsgd1na2vs0mg"},{"bike_id":"5c626234-c239-44a3-ae7a-42b7fd85e9d7","system_id":"levelo_inurba_marseille","lat":43.255,"lon":5.37645,"is_reserved":false,"is_disabled":false,"rental_uris":{"android":"levelo://app?vid=5c626234-c239-44a3-ae7a-42b7fd85e9d7","ios":"levelo://app?vid=5c626234-c239-44a3-ae7a-42b7fd85e9d7"},"vehicle_type_id":"4","last_reported":1746188371,"current_range_meters":16400,"station_id":"ce4bhh12rcd13ifvqff0","pricing_plan_id":"cebpf4jnsgd1na2vs0mg"},{"bike_id":"fb80c1da-d845-467b-9c3b-2f591f4d56ae","system_id":"levelo_inurba_marseille","lat":43.319954,"lon":5.381744,"is_reserved":false,"is_disabled":false,"rental_uris":{"android":"levelo://app?vid=fb80c1da-d845-467b-9c3b-2f591f4d56ae","ios":"levelo://app?vid=fb80c1da-d845-467b-9c3b-2f591f4d56ae"},"vehicle_type_id":"4","last_reported":1746188371,"current_range_meters":16400,"station_id":"ce4bhr12rcd13ifvqhpg","pricing_plan_id":"cebpf4jnsgd1na2vs0mg"},{"bike_id":"92c9c34a-2661-40c7-b42b-42a1687057dd","system_id":"levelo_inurba_marseille","lat":43.211942,"lon":5.350712,"is_reserved":false,"is_disabled":false,"rental_uris":{"android":"levelo://app?vid=92c9c34a-2661-40c7-b42b-42a1687057dd","ios":"levelo://app?vid=92c9c34a-2661-40c7-b42b-42a1687057dd"},"vehicle_type_id":"4","last_reported":1746188371,"current_range_meters":16400,"station_id":"st_cvj6sg6p6f1abm77japg","pricing_plan_id":"cebpf4jnsgd1na2vs0mg"},{"bike_id":"606118d3-fbc3-46d2-9186-85db9f0d665b","system_id":"levelo_inurba_marseille","lat":43.23064,"lon":5.3549,"is_reserved":false,"is_disabled":false,"rental_uris":{"android":"levelo://app?vid=606118d3-fbc3-46d2-9186-85db9f0d665b","ios":"levelo://app?vid=606118d3-fbc3-46d2-9186-85db9f0d665b"},"vehicle_type_id":"4","last_reported":1746188371,"current_range_meters":16800,"station_id":"cpo3342slgdg3j2ifvpg","pricing_plan_id":"cebpf4jnsgd1na2vs0mg"},{"bike_id":"f48144f4-84af-4394-8050-35df888a4f30","system_id":"levelo_inurba_marseille","lat":43.27942,"lon":5.41048,"is_reserved":false,"is_disabled":false,"rental_uris":{"android":"levelo://app?vid=f48144f4-84af-4394-8050-35df888a4f30","ios":"levelo://app?vid=f48144f4-84af-4394-8050-35df888a4f30"},"vehicle_type_id":"4","last_reported":1746188371,"current_range_meters":17200,"station_id":"ce4bhnp2rcd13ifvqh0g","pricing_plan_id":"cebpf4jnsgd1na2vs0mg"},{"bike_id":"4d4424ce-2d54-4c7d-9bfd-da65dd0eda9e","system_id":"levelo_inurba_marseille","lat":43.22937,"lon":5.35367,"is_reserved":false,"is_disabled":false,"rental_uris":{"android":"levelo://app?vid=4d4424ce-2d54-4c7d-9bfd-da65dd0eda9e","ios":"levelo://app?vid=4d4424ce-2d54-4c7d-9bfd-da65dd0eda9e"},"vehicle_type_id":"4","last_reported":1746188371,"current_range_meters":17200,"station_id":"cpo3532slgdg3j2ikp40","pricing_plan_id":"cebpf4jnsgd1na2vs0mg"},{"bike_id":"647c8c44-4942-4484-93e2-bbc486cafff0","system_id":"levelo_inurba_marseille","lat":43.21185,"lon":5.35078,"is_reserved":false,"is_disabled":false,"rental_uris":{"android":"levelo://app?vid=647c8c44-4942-4484-93e2-bbc486cafff0","ios":"levelo://app?vid=647c8c44-4942-4484-93e2-bbc486cafff0"},"vehicle_type_id":"4","last_reported":1746188371,"current_range_meters":17200,"station_id":"st_cvj6sg6p6f1abm77japg","pricing_plan_id":"cebpf4jnsgd1na2vs0mg"},{"bike_id":"93649171-4459-4782-b5fe-da9af4a333dc","system_id":"levelo_inurba_marseille","lat":43.23729,"lon":5.40378,"is_reserved":false,"is_disabled":false,"rental_uris":{"android":"levelo://app?vid=93649171-4459-4782-b5fe-da9af4a333dc","ios":"levelo://app?vid=93649171-4459-4782-b5fe-da9af4a333dc"},"vehicle_type_id":"4","last_reported":1746188371,"current_range_meters":17600,"station_id":"","pricing_plan_id":"cebpf4jnsgd1na2vs0mg"},{"bike_id":"c9ca4a1b-e833-4605-bb02-9a646039811f","system_id":"levelo_inurba_marseille","lat":43.28413,"lon":5.34988,"is_reserved":false,"is_disabled":false,"rental_uris":{"android":"levelo://app?vid=c9ca4a1b-e833-4605-bb02-9a646039811f","ios":"levelo://app?vid=c9ca4a1b-e833-4605-bb02-9a646039811f"},"vehicle_type_id":"4","last_reported":1746188371,"current_range_meters":17600,"station_id":"ce4bhbh2rcd13ifvqepg","pricing_plan_id":"cebpf4jnsgd1na2vs0mg"},{"bike_id":"8dbab95a-dc66-4cee-9b9f-aedb2f3c3ffc","system_id":"levelo_inurba_marseille","lat":43.21192,"lon":5.35057,"is_reserved":false,"is_disabled":false,"rental_uris":{"android":"levelo://app?vid=8dbab95a-dc66-4cee-9b9f-aedb2f3c3ffc","ios":"levelo://app?vid=8dbab95a-dc66-4cee-9b9f-aedb2f3c3ffc"},"vehicle_type_id":"4","last_reported":1746188371,"current_range_meters":17600,"station_id":"st_cvj6sg6p6f1abm77japg","pricing_plan_id":"cebpf4jnsgd1na2vs0mg"},{"bike_id":"346a931f-fb11-435d-9a93-3ff02636a665","system_id":"levelo_inurba_marseille","lat":43.27424,"lon":5.39424,"is_reserved":false,"is_disabled":false,"rental_uris":{"android":"levelo://app?vid=346a931f-fb11-435d-9a93-3ff02636a665","ios":"levelo://app?vid=346a931f-fb11-435d-9a93-3ff02636a665"},"vehicle_type_id":"4","last_reported":1746188371,"current_range_meters":18000,"station_id":"ce4bhdp2rcd13ifvqf20","pricing_plan_id":"cebpf4jnsgd1na2vs0mg"},{"bike_id":"e170287a-737c-440e-8689-dc4f8b75dc04","system_id":"levelo_inurba_marseille","lat":43.2797,"lon":5.38737,"is_reserved":false,"is_disabled":false,"rental_uris":{"android":"levelo://app?vid=e170287a-737c-440e-8689-dc4f8b75dc04","ios":"levelo://app?vid=e170287a-737c-440e-8689-dc4f8b75dc04"},"vehicle_type_id":"4","last_reported":1746188371,"current_range_meters":18000,"station_id":"ce4bhg12rcd13ifvqf80","pricing_plan_id":"cebpf4jnsgd1na2vs0mg"},{"bike_id":"93a4b852-d8c9-4f3f-9d44-bb989b0f7e8a","system_id":"levelo_inurba_marseille","lat":43.21739,"lon":5.34601,"is_reserved":false,"is_disabled":false,"rental_uris":{"android":"levelo://app?vid=93a4b852-d8c9-4f3f-9d44-bb989b0f7e8a","ios":"levelo://app?vid=93a4b852-d8c9-4f3f-9d44-bb989b0f7e8a"},"vehicle_type_id":"4","last_reported":1746188371,"current_range_meters":18000,"station_id":"st_cvj6r9ubvosntc0bgbag","pricing_plan_id":"cebpf4jnsgd1na2vs0mg"},{"bike_id":"efaf1b5c-26d3-40d3-92e9-7f3883b8db84","system_id":"levelo_inurba_marseille","lat":43.31717,"lon":5.37658,"is_reserved":false,"is_disabled":false,"rental_uris":{"android":"levelo://app?vid=efaf1b5c-26d3-40d3-92e9-7f3883b8db84","ios":"levelo://app?vid=efaf1b5c-26d3-40d3-92e9-7f3883b8db84"},"vehicle_type_id":"4","last_reported":1746188371,"current_range_meters":18800,"station_id":"","pricing_plan_id":"cebpf4jnsgd1na2vs0mg"},{"bike_id":"407509f9-0b48-49ce-a50c-de6a55f22c09","system_id":"levelo_inurba_marseille","lat":43.29029,"lon":5.38651,"is_reserved":false,"is_disabled":false,"rental_uris":{"android":"levelo://app?vid=407509f9-0b48-49ce-a50c-de6a55f22c09","ios":"levelo://app?vid=407509f9-0b48-49ce-a50c-de6a55f22c09"},"vehicle_type_id":"4","last_reported":1746188371,"current_range_meters":18800,"station_id":"ce4bh4p2rcd13ifvqe0g","pricing_plan_id":"cebpf4jnsgd1na2vs0mg"},{"bike_id":"97bcd5f3-03f6-4a23-943c-99cbbe59aa23","system_id":"levelo_inurba_marseille","lat":43.2737,"lon":5.3626,"is_reserved":false,"is_disabled":false,"rental_uris":{"android":"levelo://app?vid=97bcd5f3-03f6-4a23-943c-99cbbe59aa23","ios":"levelo://app?vid=97bcd5f3-03f6-4a23-943c-99cbbe59aa23"},"vehicle_type_id":"4","last_reported":1746188371,"current_range_meters":18800,"station_id":"ce4bhbh2rcd13ifvqeo0","pricing_plan_id":"cebpf4jnsgd1na2vs0mg"},{"bike_id":"f1ff5e86-e202-4a49-bc2b-640923a5d6ec","system_id":"levelo_inurba_marseille","lat":43.26214,"lon":5.37442,"is_reserved":false,"is_disabled":false,"rental_uris":{"android":"levelo://app?vid=f1ff5e86-e202-4a49-bc2b-640923a5d6ec","ios":"levelo://app?vid=f1ff5e86-e202-4a49-bc2b-640923a5d6ec"},"vehicle_type_id":"4","last_reported":1746188371,"current_range_meters":18800,"station_id":"ce4bhgp2rcd13ifvqfc0","pricing_plan_id":"cebpf4jnsgd1na2vs0mg"},{"bike_id":"412f3949-657c-418e-9dae-55fe8e3ca88b","system_id":"levelo_inurba_marseille","lat":43.25491,"lon":5.37651,"is_reserved":false,"is_disabled":false,"rental_uris":{"android":"levelo://app?vid=412f3949-657c-418e-9dae-55fe8e3ca88b","ios":"levelo://app?vid=412f3949-657c-418e-9dae-55fe8e3ca88b"},"vehicle_type_id":"4","last_reported":1746188371,"current_range_meters":18800,"station_id":"ce4bhh12rcd13ifvqff0","pricing_plan_id":"cebpf4jnsgd1na2vs0mg"},{"bike_id":"98a60320-23b3-406a-8503-d474904d9258","system_id":"levelo_inurba_marseille","lat":43.23961,"lon":5.36625,"is_reserved":false,"is_disabled":false,"rental_uris":{"android":"levelo://app?vid=98a60320-23b3-406a-8503-d474904d9258","ios":"levelo://app?vid=98a60320-23b3-406a-8503-d474904d9258"},"vehicle_type_id":"4","last_reported":1746188371,"current_range_meters":18800,"station_id":"ce4bhi12rcd13ifvqfp0","pricing_plan_id":"cebpf4jnsgd1na2vs0mg"},{"bike_id":"2afed2f6-a87f-4b65-a935-9e364956a28c","system_id":"levelo_inurba_marseille","lat":43.26227,"lon":5.4045,"is_reserved":false,"is_disabled":false,"rental_uris":{"android":"levelo://app?vid=2afed2f6-a87f-4b65-a935-9e364956a28c","ios":"levelo://app?vid=2afed2f6-a87f-4b65-a935-9e364956a28c"},"vehicle_type_id":"4","last_reported":1746188371,"current_range_meters":18800,"station_id":"ce4bhmh2rcd13ifvqgmg","pricing_plan_id":"cebpf4jnsgd1na2vs0mg"},{"bike_id":"cdc90c95-dfab-4b2e-b2e5-ac4b5cef3062","system_id":"levelo_inurba_marseille","lat":43.33725,"lon":5.39188,"is_reserved":false,"is_disabled":false,"rental_uris":{"android":"levelo://app?vid=cdc90c95-dfab-4b2e-b2e5-ac4b5cef3062","ios":"levelo://app?vid=cdc90c95-dfab-4b2e-b2e5-ac4b5cef3062"},"vehicle_type_id":"4","last_reported":1746188371,"current_range_meters":18800,"station_id":"ce4bhr92rcd13ifvqhsg","pricing_plan_id":"cebpf4jnsgd1na2vs0mg"},{"bike_id":"0b53c3dc-588d-44e2-a493-5d152abcf2e4","system_id":"levelo_inurba_marseille","lat":43.21189,"lon":5.35078,"is_reserved":false,"is_disabled":false,"rental_uris":{"android":"levelo://app?vid=0b53c3dc-588d-44e2-a493-5d152abcf2e4","ios":"levelo://app?vid=0b53c3dc-588d-44e2-a493-5d152abcf2e4"},"vehicle_type_id":"4","last_reported":1746188371,"current_range_meters":18800,"station_id":"st_cvj6sg6p6f1abm77japg","pricing_plan_id":"cebpf4jnsgd1na2vs0mg"},{"bike_id":"8358e3d0-6639-4ac2-ba04-8477e18cc50d","system_id":"levelo_inurba_marseille","lat":43.33186,"lon":5.38594,"is_reserved":false,"is_disabled":false,"rental_uris":{"android":"levelo://app?vid=8358e3d0-6639-4ac2-ba04-8477e18cc50d","ios":"levelo://app?vid=8358e3d0-6639-4ac2-ba04-8477e18cc50d"},"vehicle_type_id":"4","last_reported":1746188371,"current_range_meters":19200,"station_id":"","pricing_plan_id":"cebpf4jnsgd1na2vs0mg"},{"bike_id":"d9b8f328-8f22-41c6-8629-a608af7f900d","system_id":"levelo_inurba_marseille","lat":43.28668,"lon":5.38664,"is_reserved":false,"is_disabled":false,"rental_uris":{"android":"levelo://app?vid=d9b8f328-8f22-41c6-8629-a608af7f900d","ios":"levelo://app?vid=d9b8f328-8f22-41c6-8629-a608af7f900d"},"vehicle_type_id":"4","last_reported":1746188371,"current_range_meters":19200,"station_id":"ce4bh492rcd13ifvqdug","pricing_plan_id":"cebpf4jnsgd1na2vs0mg"},{"bike_id":"48952d64-f7cd-447e-a3db-ed0ce79099cf","system_id":"levelo_inurba_marseille","lat":43.24388,"lon":5.37055,"is_reserved":false,"is_disabled":false,"rental_uris":{"android":"levelo://app?vid=48952d64-f7cd-447e-a3db-ed0ce79099cf","ios":"levelo://app?vid=48952d64-f7cd-447e-a3db-ed0ce79099cf"},"vehicle_type_id":"4","last_reported":1746188371,"current_range_meters":19200,"station_id":"ce4bhhh2rcd13ifvqfk0","pricing_plan_id":"cebpf4jnsgd1na2vs0mg"},{"bike_id":"663fb05e-f624-49ee-b2ea-1f9f36edaa84","system_id":"levelo_inurba_marseille","lat":43.27497,"lon":5.42456,"is_reserved":false,"is_disabled":false,"rental_uris":{"android":"levelo://app?vid=663fb05e-f624-49ee-b2ea-1f9f36edaa84","ios":"levelo://app?vid=663fb05e-f624-49ee-b2ea-1f9f36edaa84"},"vehicle_type_id":"4","last_reported":1746188371,"current_range_meters":19200,"station_id":"ce4bhn92rcd13ifvqgrg","pricing_plan_id":"cebpf4jnsgd1na2vs0mg"},{"bike_id":"259b104b-2df2-4305-be70-885ea23b6dc6","system_id":"levelo_inurba_marseille","lat":43.22934,"lon":5.35369,"is_reserved":false,"is_disabled":false,"rental_uris":{"android":"levelo://app?vid=259b104b-2df2-4305-be70-885ea23b6dc6","ios":"levelo://app?vid=259b104b-2df2-4305-be70-885ea23b6dc6"},"vehicle_type_id":"4","last_reported":1746188371,"current_range_meters":19200,"station_id":"cpo3532slgdg3j2ikp40","pricing_plan_id":"cebpf4jnsgd1na2vs0mg"},{"bike_id":"34e27a80-9291-4708-84ca-cf9b2634175e","system_id":"levelo_inurba_marseille","lat":43.217433,"lon":5.346022,"is_reserved":false,"is_disabled":false,"rental_uris":{"android":"levelo://app?vid=34e27a80-9291-4708-84ca-cf9b2634175e","ios":"levelo://app?vid=34e27a80-9291-4708-84ca-cf9b2634175e"},"vehicle_type_id":"4","last_reported":1746188371,"current_range_meters":19200,"station_id":"st_cvj6r9ubvosntc0bgbag","pricing_plan_id":"cebpf4jnsgd1na2vs0mg"},{"bike_id":"b0fd6d4a-638b-4775-93fb-730cf3e435a4","system_id":"levelo_inurba_marseille","lat":43.28409,"lon":5.34985,"is_reserved":false,"is_disabled":false,"rental_uris":{"android":"levelo://app?vid=b0fd6d4a-638b-4775-93fb-730cf3e435a4","ios":"levelo://app?vid=b0fd6d4a-638b-4775-93fb-730cf3e435a4"},"vehicle_type_id":"4","last_reported":1746188371,"current_range_meters":19600,"station_id":"ce4bhbh2rcd13ifvqepg","pricing_plan_id":"cebpf4jnsgd1na2vs0mg"},{"bike_id":"4be155e9-a84a-4a03-90ec-e70b4dd78fdf","system_id":"levelo_inurba_marseille","lat":43.23193,"lon":5.35553,"is_reserved":false,"is_disabled":false,"rental_uris":{"android":"levelo://app?vid=4be155e9-a84a-4a03-90ec-e70b4dd78fdf","ios":"levelo://app?vid=4be155e9-a84a-4a03-90ec-e70b4dd78fdf"},"vehicle_type_id":"4","last_reported":1746188371,"current_range_meters":19600,"station_id":"ce4bhu92rcd13ifvqi70","pricing_plan_id":"cebpf4jnsgd1na2vs0mg"},{"bike_id":"5aaa0796-22cb-4134-8a3c-e3f47465c117","system_id":"levelo_inurba_marseille","lat":43.33165,"lon":5.39564,"is_reserved":false,"is_disabled":false,"rental_uris":{"android":"levelo://app?vid=5aaa0796-22cb-4134-8a3c-e3f47465c117","ios":"levelo://app?vid=5aaa0796-22cb-4134-8a3c-e3f47465c117"},"vehicle_type_id":"4","last_reported":1746188371,"current_range_meters":20000,"station_id":"","pricing_plan_id":"cebpf4jnsgd1na2vs0mg"},{"bike_id":"3d50fdd5-5085-4237-a766-a2e4c18102bf","system_id":"levelo_inurba_marseille","lat":43.29603,"lon":5.38106,"is_reserved":false,"is_disabled":false,"rental_uris":{"android":"levelo://app?vid=3d50fdd5-5085-4237-a766-a2e4c18102bf","ios":"levelo://app?vid=3d50fdd5-5085-4237-a766-a2e4c18102bf"},"vehicle_type_id":"4","last_reported":1746188371,"current_range_meters":20000,"station_id":"ce4bgl12rcd13ifvqbo0","pricing_plan_id":"cebpf4jnsgd1na2vs0mg"},{"bike_id":"bc02c704-1f3a-4970-82a0-40d53ec58a95","system_id":"levelo_inurba_marseille","lat":43.22936,"lon":5.35385,"is_reserved":false,"is_disabled":false,"rental_uris":{"android":"levelo://app?vid=bc02c704-1f3a-4970-82a0-40d53ec58a95","ios":"levelo://app?vid=bc02c704-1f3a-4970-82a0-40d53ec58a95"},"vehicle_type_id":"4","last_reported":1746188371,"current_range_meters":20000,"station_id":"cpo3532slgdg3j2ikp40","pricing_plan_id":"cebpf4jnsgd1na2vs0mg"},{"bike_id":"62c2076b-7d64-467b-8df2-5e817741f650","system_id":"levelo_inurba_marseille","lat":43.22937,"lon":5.35392,"is_reserved":false,"is_disabled":false,"rental_uris":{"android":"levelo://app?vid=62c2076b-7d64-467b-8df2-5e817741f650","ios":"levelo://app?vid=62c2076b-7d64-467b-8df2-5e817741f650"},"vehicle_type_id":"4","last_reported":1746188371,"current_range_meters":20000,"station_id":"cpo3532slgdg3j2ikp40","pricing_plan_id":"cebpf4jnsgd1na2vs0mg"},{"bike_id":"72accc23-dced-424c-b834-2ab972b49116","system_id":"levelo_inurba_marseille","lat":43.21179,"lon":5.350798,"is_reserved":false,"is_disabled":false,"rental_uris":{"android":"levelo://app?vid=72accc23-dced-424c-b834-2ab972b49116","ios":"levelo://app?vid=72accc23-dced-424c-b834-2ab972b49116"},"vehicle_type_id":"4","last_reported":1746188371,"current_range_meters":20000,"station_id":"st_cvj6sg6p6f1abm77japg","pricing_plan_id":"cebpf4jnsgd1na2vs0mg"},{"bike_id":"fbf470e0-6cc5-44c4-9db1-e3c9ca5d8935","system_id":"levelo_inurba_marseille","lat":43.21186,"lon":5.35072,"is_reserved":false,"is_disabled":false,"rental_uris":{"android":"levelo://app?vid=fbf470e0-6cc5-44c4-9db1-e3c9ca5d8935","ios":"levelo://app?vid=fbf470e0-6cc5-44c4-9db1-e3c9ca5d8935"},"vehicle_type_id":"4","last_reported":1746188371,"current_range_meters":20000,"station_id":"st_cvj6sg6p6f1abm77japg","pricing_plan_id":"cebpf4jnsgd1na2vs0mg"},{"bike_id":"e0ceefc0-61c9-406f-91eb-ef69db9dbe42","system_id":"levelo_inurba_marseille","lat":43.26118,"lon":5.41472,"is_reserved":false,"is_disabled":false,"rental_uris":{"android":"levelo://app?vid=e0ceefc0-61c9-406f-91eb-ef69db9dbe42","ios":"levelo://app?vid=e0ceefc0-61c9-406f-91eb-ef69db9dbe42"},"vehicle_type_id":"4","last_reported":1746188371,"current_range_meters":20400,"station_id":"","pricing_plan_id":"cebpf4jnsgd1na2vs0mg"},{"bike_id":"82231c38-838c-446e-acd6-f2fd5f2ad85f","system_id":"levelo_inurba_marseille","lat":43.29803,"lon":5.38105,"is_reserved":false,"is_disabled":false,"rental_uris":{"android":"levelo://app?vid=82231c38-838c-446e-acd6-f2fd5f2ad85f","ios":"levelo://app?vid=82231c38-838c-446e-acd6-f2fd5f2ad85f"},"vehicle_type_id":"4","last_reported":1746188371,"current_range_meters":20400,"station_id":"ce4bgip2rcd13ifvqbb0","pricing_plan_id":"cebpf4jnsgd1na2vs0mg"},{"bike_id":"19ed0385-08e1-4f82-80ce-b747895bd3eb","system_id":"levelo_inurba_marseille","lat":43.29902,"lon":5.38133,"is_reserved":false,"is_disabled":false,"rental_uris":{"android":"levelo://app?vid=19ed0385-08e1-4f82-80ce-b747895bd3eb","ios":"levelo://app?vid=19ed0385-08e1-4f82-80ce-b747895bd3eb"},"vehicle_type_id":"4","last_reported":1746188371,"current_range_meters":20400,"station_id":"ce4bgj12rcd13ifvqbc0","pricing_plan_id":"cebpf4jnsgd1na2vs0mg"},{"bike_id":"4420d27c-e257-489b-ae45-fdea9de2f47a","system_id":"levelo_inurba_marseille","lat":43.31225,"lon":5.3686,"is_reserved":false,"is_disabled":false,"rental_uris":{"android":"levelo://app?vid=4420d27c-e257-489b-ae45-fdea9de2f47a","ios":"levelo://app?vid=4420d27c-e257-489b-ae45-fdea9de2f47a"},"vehicle_type_id":"4","last_reported":1746188371,"current_range_meters":20400,"station_id":"ce4bgl92rcd13ifvqbq0","pricing_plan_id":"cebpf4jnsgd1na2vs0mg"},{"bike_id":"9f6bc2a9-95fd-49ff-8fa8-bd3fa5571498","system_id":"levelo_inurba_marseille","lat":43.30931,"lon":5.40136,"is_reserved":false,"is_disabled":false,"rental_uris":{"android":"levelo://app?vid=9f6bc2a9-95fd-49ff-8fa8-bd3fa5571498","ios":"levelo://app?vid=9f6bc2a9-95fd-49ff-8fa8-bd3fa5571498"},"vehicle_type_id":"4","last_reported":1746188371,"current_range_meters":20400,"station_id":"ce4bgvp2rcd13ifvqct0","pricing_plan_id":"cebpf4jnsgd1na2vs0mg"},{"bike_id":"d4a68adb-1c58-40c4-948b-5030d56b0223","system_id":"levelo_inurba_marseille","lat":43.32104,"lon":5.36787,"is_reserved":false,"is_disabled":false,"rental_uris":{"android":"levelo://app?vid=d4a68adb-1c58-40c4-948b-5030d56b0223","ios":"levelo://app?vid=d4a68adb-1c58-40c4-948b-5030d56b0223"},"vehicle_type_id":"4","last_reported":1746188371,"current_range_meters":20400,"station_id":"ce4bhrh2rcd13ifvqhug","pricing_plan_id":"cebpf4jnsgd1na2vs0mg"},{"bike_id":"e35f572d-fc98-4676-a2c2-b6fab78a24cc","system_id":"levelo_inurba_marseille","lat":43.21751,"lon":5.34611,"is_reserved":false,"is_disabled":false,"rental_uris":{"android":"levelo://app?vid=e35f572d-fc98-4676-a2c2-b6fab78a24cc","ios":"levelo://app?vid=e35f572d-fc98-4676-a2c2-b6fab78a24cc"},"vehicle_type_id":"4","last_reported":1746188371,"current_range_meters":20400,"station_id":"st_cvj6r9ubvosntc0bgbag","pricing_plan_id":"cebpf4jnsgd1na2vs0mg"},{"bike_id":"6b23f713-b40b-4120-939a-56f2686fa649","system_id":"levelo_inurba_marseille","lat":43.31376,"lon":5.3674,"is_reserved":false,"is_disabled":false,"rental_uris":{"android":"levelo://app?vid=6b23f713-b40b-4120-939a-56f2686fa649","ios":"levelo://app?vid=6b23f713-b40b-4120-939a-56f2686fa649"},"vehicle_type_id":"4","last_reported":1746188371,"current_range_meters":20800,"station_id":"ce4bgr92rcd13ifvqc6g","pricing_plan_id":"cebpf4jnsgd1na2vs0mg"},{"bike_id":"5128d486-bf52-4be6-9262-7a263bb397ff","system_id":"levelo_inurba_marseille","lat":43.282714,"lon":5.35062,"is_reserved":false,"is_disabled":false,"rental_uris":{"android":"levelo://app?vid=5128d486-bf52-4be6-9262-7a263bb397ff","ios":"levelo://app?vid=5128d486-bf52-4be6-9262-7a263bb397ff"},"vehicle_type_id":"4","last_reported":1746188371,"current_range_meters":20800,"station_id":"ce4bhbp2rcd13ifvqerg","pricing_plan_id":"cebpf4jnsgd1na2vs0mg"},{"bike_id":"cb33bfca-5b50-4581-b3d4-527a5c15a6b8","system_id":"levelo_inurba_marseille","lat":43.26677,"lon":5.38266,"is_reserved":false,"is_disabled":false,"rental_uris":{"android":"levelo://app?vid=cb33bfca-5b50-4581-b3d4-527a5c15a6b8","ios":"levelo://app?vid=cb33bfca-5b50-4581-b3d4-527a5c15a6b8"},"vehicle_type_id":"4","last_reported":1746188371,"current_range_meters":20800,"station_id":"ce4bhg92rcd13ifvqf90","pricing_plan_id":"cebpf4jnsgd1na2vs0mg"},{"bike_id":"cf3d802f-8eb3-475f-bb33-636f04359a7d","system_id":"levelo_inurba_marseille","lat":43.24801,"lon":5.37457,"is_reserved":false,"is_disabled":false,"rental_uris":{"android":"levelo://app?vid=cf3d802f-8eb3-475f-bb33-636f04359a7d","ios":"levelo://app?vid=cf3d802f-8eb3-475f-bb33-636f04359a7d"},"vehicle_type_id":"4","last_reported":1746188371,"current_range_meters":20800,"station_id":"ce4bhgh2rcd13ifvqfb0","pricing_plan_id":"cebpf4jnsgd1na2vs0mg"},{"bike_id":"baf4561c-9bda-477a-8871-110377773ec1","system_id":"levelo_inurba_marseille","lat":43.29557,"lon":5.42287,"is_reserved":false,"is_disabled":false,"rental_uris":{"android":"levelo://app?vid=baf4561c-9bda-477a-8871-110377773ec1","ios":"levelo://app?vid=baf4561c-9bda-477a-8871-110377773ec1"},"vehicle_type_id":"4","last_reported":1746188371,"current_range_meters":20800,"station_id":"ce4bhph2rcd13ifvqhdg","pricing_plan_id":"cebpf4jnsgd1na2vs0mg"},{"bike_id":"92ebbd39-dd2e-4a43-919f-56c4d6179ab8","system_id":"levelo_inurba_marseille","lat":43.25505,"lon":5.37652,"is_reserved":false,"is_disabled":false,"rental_uris":{"android":"levelo://app?vid=92ebbd39-dd2e-4a43-919f-56c4d6179ab8","ios":"levelo://app?vid=92ebbd39-dd2e-4a43-919f-56c4d6179ab8"},"vehicle_type_id":"4","last_reported":1746188371,"current_range_meters":21600,"station_id":"ce4bhh12rcd13ifvqff0","pricing_plan_id":"cebpf4jnsgd1na2vs0mg"},{"bike_id":"87709792-cd8e-4ccc-978c-ae24e3d00e9a","system_id":"levelo_inurba_marseille","lat":43.260546,"lon":5.394028,"is_reserved":false,"is_disabled":false,"rental_uris":{"android":"levelo://app?vid=87709792-cd8e-4ccc-978c-ae24e3d00e9a","ios":"levelo://app?vid=87709792-cd8e-4ccc-978c-ae24e3d00e9a"},"vehicle_type_id":"4","last_reported":1746188371,"current_range_meters":21600,"station_id":"ce4bhh92rcd13ifvqfj0","pricing_plan_id":"cebpf4jnsgd1na2vs0mg"},{"bike_id":"86fe9f15-c6b9-4d23-b0b5-1048dca65bbc","system_id":"levelo_inurba_marseille","lat":43.29515,"lon":5.37494,"is_reserved":false,"is_disabled":false,"rental_uris":{"android":"levelo://app?vid=86fe9f15-c6b9-4d23-b0b5-1048dca65bbc","ios":"levelo://app?vid=86fe9f15-c6b9-4d23-b0b5-1048dca65bbc"},"vehicle_type_id":"4","last_reported":1746188371,"current_range_meters":22000,"station_id":"ce4bgkp2rcd13ifvqbmg","pricing_plan_id":"cebpf4jnsgd1na2vs0mg"},{"bike_id":"d253196c-166d-4ec8-98c8-bd627ab5536d","system_id":"levelo_inurba_marseille","lat":43.29527,"lon":5.37508,"is_reserved":false,"is_disabled":false,"rental_uris":{"android":"levelo://app?vid=d253196c-166d-4ec8-98c8-bd627ab5536d","ios":"levelo://app?vid=d253196c-166d-4ec8-98c8-bd627ab5536d"},"vehicle_type_id":"4","last_reported":1746188371,"current_range_meters":22000,"station_id":"ce4bgkp2rcd13ifvqbmg","pricing_plan_id":"cebpf4jnsgd1na2vs0mg"},{"bike_id":"f54706a9-63d9-49a5-8ff8-4d494c1630f2","system_id":"levelo_inurba_marseille","lat":43.254973,"lon":5.376463,"is_reserved":false,"is_disabled":false,"rental_uris":{"android":"levelo://app?vid=f54706a9-63d9-49a5-8ff8-4d494c1630f2","ios":"levelo://app?vid=f54706a9-63d9-49a5-8ff8-4d494c1630f2"},"vehicle_type_id":"4","last_reported":1746188371,"current_range_meters":22000,"station_id":"ce4bhh12rcd13ifvqff0","pricing_plan_id":"cebpf4jnsgd1na2vs0mg"},{"bike_id":"ddde4e4e-0688-492b-ba36-454b77dfb229","system_id":"levelo_inurba_marseille","lat":43.24386,"lon":5.37053,"is_reserved":false,"is_disabled":false,"rental_uris":{"android":"levelo://app?vid=ddde4e4e-0688-492b-ba36-454b77dfb229","ios":"levelo://app?vid=ddde4e4e-0688-492b-ba36-454b77dfb229"},"vehicle_type_id":"4","last_reported":1746188371,"current_range_meters":22000,"station_id":"ce4bhhh2rcd13ifvqfk0","pricing_plan_id":"cebpf4jnsgd1na2vs0mg"},{"bike_id":"ce3ce2e7-adfc-44ca-af4a-7c0f1566aed2","system_id":"levelo_inurba_marseille","lat":43.22496,"lon":5.34778,"is_reserved":false,"is_disabled":false,"rental_uris":{"android":"levelo://app?vid=ce3ce2e7-adfc-44ca-af4a-7c0f1566aed2","ios":"levelo://app?vid=ce3ce2e7-adfc-44ca-af4a-7c0f1566aed2"},"vehicle_type_id":"4","last_reported":1746188371,"current_range_meters":22000,"station_id":"st_cvj5dfep6f1abm77gieg","pricing_plan_id":"cebpf4jnsgd1na2vs0mg"},{"bike_id":"85944703-522b-4d2b-8090-3bc4e4483b7e","system_id":"levelo_inurba_marseille","lat":43.21749,"lon":5.34601,"is_reserved":false,"is_disabled":false,"rental_uris":{"android":"levelo://app?vid=85944703-522b-4d2b-8090-3bc4e4483b7e","ios":"levelo://app?vid=85944703-522b-4d2b-8090-3bc4e4483b7e"},"vehicle_type_id":"4","last_reported":1746188371,"current_range_meters":22000,"station_id":"st_cvj6r9ubvosntc0bgbag","pricing_plan_id":"cebpf4jnsgd1na2vs0mg"},{"bike_id":"59ebcfb5-b574-4e56-9ef9-776e3e082c49","system_id":"levelo_inurba_marseille","lat":43.29526,"lon":5.39051,"is_reserved":false,"is_disabled":false,"rental_uris":{"android":"levelo://app?vid=59ebcfb5-b574-4e56-9ef9-776e3e082c49","ios":"levelo://app?vid=59ebcfb5-b574-4e56-9ef9-776e3e082c49"},"vehicle_type_id":"4","last_reported":1746188371,"current_range_meters":22400,"station_id":"ce4bh3p2rcd13ifvqdp0","pricing_plan_id":"cebpf4jnsgd1na2vs0mg"},{"bike_id":"d4c2bef7-4024-4421-b25e-d42a9ecc8139","system_id":"levelo_inurba_marseille","lat":43.286203,"lon":5.350973,"is_reserved":false,"is_disabled":false,"rental_uris":{"android":"levelo://app?vid=d4c2bef7-4024-4421-b25e-d42a9ecc8139","ios":"levelo://app?vid=d4c2bef7-4024-4421-b25e-d42a9ecc8139"},"vehicle_type_id":"4","last_reported":1746188371,"current_range_meters":22400,"station_id":"ce4bhch2rcd13ifvqeug","pricing_plan_id":"cebpf4jnsgd1na2vs0mg"},{"bike_id":"945430c8-5f62-4d67-93e4-f93a8e5052d9","system_id":"levelo_inurba_marseille","lat":43.30803,"lon":5.43525,"is_reserved":false,"is_disabled":false,"rental_uris":{"android":"levelo://app?vid=945430c8-5f62-4d67-93e4-f93a8e5052d9","ios":"levelo://app?vid=945430c8-5f62-4d67-93e4-f93a8e5052d9"},"vehicle_type_id":"4","last_reported":1746188371,"current_range_meters":22400,"station_id":"ce4bhph2rcd13ifvqheg","pricing_plan_id":"cebpf4jnsgd1na2vs0mg"},{"bike_id":"a113c56b-2266-4103-9869-4b9a9fb1a3d2","system_id":"levelo_inurba_marseille","lat":43.325423,"lon":5.414305,"is_reserved":false,"is_disabled":false,"rental_uris":{"android":"levelo://app?vid=a113c56b-2266-4103-9869-4b9a9fb1a3d2","ios":"levelo://app?vid=a113c56b-2266-4103-9869-4b9a9fb1a3d2"},"vehicle_type_id":"4","last_reported":1746188371,"current_range_meters":22400,"station_id":"ce4bhq12rcd13ifvqhhg","pricing_plan_id":"cebpf4jnsgd1na2vs0mg"},{"bike_id":"f87ee1f8-d148-48a0-8570-76d3b308852a","system_id":"levelo_inurba_marseille","lat":43.30949,"lon":5.39031,"is_reserved":false,"is_disabled":false,"rental_uris":{"android":"levelo://app?vid=f87ee1f8-d148-48a0-8570-76d3b308852a","ios":"levelo://app?vid=f87ee1f8-d148-48a0-8570-76d3b308852a"},"vehicle_type_id":"4","last_reported":1746188371,"current_range_meters":22800,"station_id":"ce4bgup2rcd13ifvqco0","pricing_plan_id":"cebpf4jnsgd1na2vs0mg"},{"bike_id":"6bf8f76c-aafa-40ce-8993-ede174be59a7","system_id":"levelo_inurba_marseille","lat":43.30938,"lon":5.40177,"is_reserved":false,"is_disabled":false,"rental_uris":{"android":"levelo://app?vid=6bf8f76c-aafa-40ce-8993-ede174be59a7","ios":"levelo://app?vid=6bf8f76c-aafa-40ce-8993-ede174be59a7"},"vehicle_type_id":"4","last_reported":1746188371,"current_range_meters":22800,"station_id":"ce4bgvp2rcd13ifvqct0","pricing_plan_id":"cebpf4jnsgd1na2vs0mg"},{"bike_id":"31c99700-c557-4b69-aae2-b2b2564d43aa","system_id":"levelo_inurba_marseille","lat":43.31688,"lon":5.40474,"is_reserved":false,"is_disabled":false,"rental_uris":{"android":"levelo://app?vid=31c99700-c557-4b69-aae2-b2b2564d43aa","ios":"levelo://app?vid=31c99700-c557-4b69-aae2-b2b2564d43aa"},"vehicle_type_id":"4","last_reported":1746188371,"current_range_meters":22800,"station_id":"ce4bh012rcd13ifvqd00","pricing_plan_id":"cebpf4jnsgd1na2vs0mg"},{"bike_id":"fb970dc0-2974-4aad-b2a9-f4298230f16a","system_id":"levelo_inurba_marseille","lat":43.23156,"lon":5.43697,"is_reserved":false,"is_disabled":false,"rental_uris":{"android":"levelo://app?vid=fb970dc0-2974-4aad-b2a9-f4298230f16a","ios":"levelo://app?vid=fb970dc0-2974-4aad-b2a9-f4298230f16a"},"vehicle_type_id":"4","last_reported":1746188371,"current_range_meters":22800,"station_id":"ce4bhmp2rcd13ifvqgog","pricing_plan_id":"cebpf4jnsgd1na2vs0mg"},{"bike_id":"5e291053-dfbf-43dc-9058-2c7b2dfcab52","system_id":"levelo_inurba_marseille","lat":43.231911,"lon":5.399911,"is_reserved":false,"is_disabled":false,"rental_uris":{"android":"levelo://app?vid=5e291053-dfbf-43dc-9058-2c7b2dfcab52","ios":"levelo://app?vid=5e291053-dfbf-43dc-9058-2c7b2dfcab52"},"vehicle_type_id":"4","last_reported":1746188371,"current_range_meters":22800,"station_id":"ce4bhn12rcd13ifvqgqg","pricing_plan_id":"cebpf4jnsgd1na2vs0mg"},{"bike_id":"f0066606-2406-44ef-a2b2-556c2201f2bd","system_id":"levelo_inurba_marseille","lat":43.32549,"lon":5.41454,"is_reserved":false,"is_disabled":false,"rental_uris":{"android":"levelo://app?vid=f0066606-2406-44ef-a2b2-556c2201f2bd","ios":"levelo://app?vid=f0066606-2406-44ef-a2b2-556c2201f2bd"},"vehicle_type_id":"4","last_reported":1746188371,"current_range_meters":22800,"station_id":"ce4bhq12rcd13ifvqhhg","pricing_plan_id":"cebpf4jnsgd1na2vs0mg"},{"bike_id":"e81fefa1-1b1d-4666-b39e-c8443f31b7b6","system_id":"levelo_inurba_marseille","lat":43.28609,"lon":5.37063,"is_reserved":false,"is_disabled":false,"rental_uris":{"android":"levelo://app?vid=e81fefa1-1b1d-4666-b39e-c8443f31b7b6","ios":"levelo://app?vid=e81fefa1-1b1d-4666-b39e-c8443f31b7b6"},