{"last_updated":1751955436,"ttl":60,"version":"2.2","data":{"bikes":[{"bike_id":"3da29fb8-fc97-44c6-b9ac-31dd456b2fd4","system_id":"levelo_inurba_marseille","lat":43.33771,"lon":5.37424,"is_reserved":false,"is_disabled":true,"rental_uris":{"android":"levelo://app?vid=3da29fb8-fc97-44c6-b9ac-31dd456b2fd4","ios":"levelo://app?vid=3da29fb8-fc97-44c6-b9ac-31dd456b2fd4"},"vehicle_type_id":"4","last_reported":1751955436,"current_range_meters":0,"station_id":"","pricing_plan_id":"cebpf4jnsgd1na2vs0mg"},{"bike_id":"01861ad8-a8d7-4be6-816e-651927c87584","system_id":"levelo_inurba_marseille","lat":43.33751,"lon":5.37456,"is_reserved":false,"is_disabled":true,"rental_uris":{"android":"levelo://app?vid=01861ad8-a8d7-4be6-816e-651927c87584","ios":"levelo://app?vid=01861ad8-a8d7-4be6-816e-651927c87584"},"vehicle_type_id":"4","last_reported":1751955436,"current_range_meters":0,"station_id":"","pricing_plan_id":"cebpf4jnsgd1na2vs0mg"},{"bike_id":"95c194a9-5cae-4867-bc56-f8781828dc70","system_id":"levelo_inurba_marseille","lat":43.337444,"lon":5.374475,"is_reserved":false,"is_disabled":true,"rental_uris":{"android":"levelo://app?vid=95c194a9-5cae-4867-bc56-f8781828dc70","ios":"levelo://app?vid=95c194a9-5cae-4867-bc56-f8781828dc70"},"vehicle_type_id":"4","last_reported":1751955436,"current_range_meters":0,"station_id":"","pricing_plan_id":"cebpf4jnsgd1na2vs0mg"},{"bike_id":"f0a19a9e-f150-4c1e-bcc6-db3195370cac","system_id":"levelo_inurba_marseille","lat":43.326651,"lon":5.430658,"is_reserved":false,"is_disabled":true,"rental_uris":{"android":"levelo://app?vid=f0a19a9e-f150-4c1e-bcc6-db3195370cac","ios":"levelo://app?vid=f0a19a9e-f150-4c1e-bcc6-db3195370cac"},"vehicle_type_id":"4","last_reported":1751955436,"current_range_meters":0,"station_id":"","pricing_plan_id":"cebpf4jnsgd1na2vs0mg"},{"bike_id":"c7eb67b5-220f-4c33-9ed3-2a9bba3d601b","system_id":"levelo_inurba_marseille","lat":43.30035,"lon":5.40125,"is_reserved":false,"is_disabled":true,"rental_uris":{"android":"levelo://app?vid=c7eb67b5-220f-4c33-9ed3-2a9bba3d601b","ios":"levelo://app?vid=c7eb67b5-220f-4c33-9ed3-2a9bba3d601b"},"vehicle_type_id":"4","last_reported":1751955436,"current_range_meters":0,"station_id":"","pricing_plan_id":"cebpf4jnsgd1na2vs0mg"},{"bike_id":"ca634930-ae50-473a-8ca8-a0b3db987762","system_id":"levelo_inurba_marseille","lat":43.29387,"lon":5.37395,"is_reserved":false,"is_disabled":true,"rental_uris":{"android":"levelo://app?vid=ca634930-ae50-473a-8ca8-a0b3db987762","ios":"levelo://app?vid=ca634930-ae50-473a-8ca8-a0b3db987762"},"vehicle_type_id":"4","last_reported":1751955436,"current_range_meters":0,"station_id":"","pricing_plan_id":"cebpf4jnsgd1na2vs0mg"},{"bike_id":"36fc43ff-930e-421b-9c9a-ac8fb9d1625b","system_id":"levelo_inurba_marseille","lat":43.29255,"lon":5.4059,"is_reserved":false,"is_disabled":true,"rental_uris":{"android":"levelo://app?vid=36fc43ff-930e-421b-9c9a-ac8fb9d1625b","ios":"levelo://app?vid=36fc43ff-930e-421b-9c9a-ac8fb9d1625b"},"vehicle_type_id":"4","last_reported":1751955436,"current_range_meters":0,"station_id":"","pricing_plan_id":"cebpf4jnsgd1na2vs0mg"},{"bike_id":"573a928a-27e4-4c41-92dd-ed057948734b","system_id":"levelo_inurba_marseille","lat":43.31927,"lon":5.37383,"is_reserved":false,"is_disabled":true,"rental_uris":{"android":"levelo://app?vid=573a928a-27e4-4c41-92dd-ed057948734b","ios":"levelo://app?vid=573a928a-27e4-4c41-92dd-ed057948734b"},"vehicle_type_id":"4","last_reported":1751955436,"current_range_meters":0,"station_id":"","pricing_plan_id":"cebpf4jnsgd1na2vs0mg"},{"bike_id":"c32a44ab-b078-4729-9be5-e0735978229d","system_id":"levelo_inurba_marseille","lat":43.21231,"lon":5.35075,"is_reserved":false,"is_disabled":true,"rental_uris":{"android":"levelo://app?vid=c32a44ab-b078-4729-9be5-e0735978229d","ios":"levelo://app?vid=c32a44ab-b078-4729-9be5-e0735978229d"},"vehicle_type_id":"4","last_reported":1751955436,"current_range_meters":0,"station_id":"","pricing_plan_id":"cebpf4jnsgd1na2vs0mg"},{"bike_id":"24cb9089-93ac-4b36-9d4e-b77f1a42140d","system_id":"levelo_inurba_marseille","lat":43.309055,"lon":5.36851,"is_reserved":false,"is_disabled":true,"rental_uris":{"android":"levelo://app?vid=24cb9089-93ac-4b36-9d4e-b77f1a42140d","ios":"levelo://app?vid=24cb9089-93ac-4b36-9d4e-b77f1a42140d"},"vehicle_type_id":"4","last_reported":1751955436,"current_range_meters":0,"station_id":"ce4bgn92rcd13ifvqbvg","pricing_plan_id":"cebpf4jnsgd1na2vs0mg"},{"bike_id":"4d2426fd-ed83-4b3b-9946-e5d612afc6f9","system_id":"levelo_inurba_marseille","lat":43.306371,"lon":5.400669,"is_reserved":false,"is_disabled":true,"rental_uris":{"android":"levelo://app?vid=4d2426fd-ed83-4b3b-9946-e5d612afc6f9","ios":"levelo://app?vid=4d2426fd-ed83-4b3b-9946-e5d612afc6f9"},"vehicle_type_id":"4","last_reported":1751955436,"current_range_meters":0,"station_id":"ce4bh112rcd13ifvqda0","pricing_plan_id":"cebpf4jnsgd1na2vs0mg"},{"bike_id":"2c2465f6-20de-4b0a-912b-589d59e56f74","system_id":"levelo_inurba_marseille","lat":43.29577,"lon":5.399545,"is_reserved":false,"is_disabled":true,"rental_uris":{"android":"levelo://app?vid=2c2465f6-20de-4b0a-912b-589d59e56f74","ios":"levelo://app?vid=2c2465f6-20de-4b0a-912b-589d59e56f74"},"vehicle_type_id":"4","last_reported":1751955436,"current_range_meters":0,"station_id":"ce4bh312rcd13ifvqdj0","pricing_plan_id":"cebpf4jnsgd1na2vs0mg"},{"bike_id":"ca7709a9-0fca-4961-8291-63bfe8fcda8d","system_id":"levelo_inurba_marseille","lat":43.286998,"lon":5.399909,"is_reserved":false,"is_disabled":true,"rental_uris":{"android":"levelo://app?vid=ca7709a9-0fca-4961-8291-63bfe8fcda8d","ios":"levelo://app?vid=ca7709a9-0fca-4961-8291-63bfe8fcda8d"},"vehicle_type_id":"4","last_reported":1751955436,"current_range_meters":0,"station_id":"ce4bh3h2rcd13ifvqdn0","pricing_plan_id":"cebpf4jnsgd1na2vs0mg"},{"bike_id":"1c8acbb1-d8ac-4adc-b44b-2be51efa2522","system_id":"levelo_inurba_marseille","lat":43.26949,"lon":5.38629,"is_reserved":false,"is_disabled":true,"rental_uris":{"android":"levelo://app?vid=1c8acbb1-d8ac-4adc-b44b-2be51efa2522","ios":"levelo://app?vid=1c8acbb1-d8ac-4adc-b44b-2be51efa2522"},"vehicle_type_id":"4","last_reported":1751955436,"current_range_meters":0,"station_id":"ce4bhh92rcd13ifvqfh0","pricing_plan_id":"cebpf4jnsgd1na2vs0mg"},{"bike_id":"3d508917-55ee-42b6-894b-89c2a444dc06","system_id":"levelo_inurba_marseille","lat":43.22505,"lon":5.34779,"is_reserved":false,"is_disabled":true,"rental_uris":{"android":"levelo://app?vid=3d508917-55ee-42b6-894b-89c2a444dc06","ios":"levelo://app?vid=3d508917-55ee-42b6-894b-89c2a444dc06"},"vehicle_type_id":"4","last_reported":1751955436,"current_range_meters":0,"station_id":"st_cvj5dfep6f1abm77gieg","pricing_plan_id":"cebpf4jnsgd1na2vs0mg"},{"bike_id":"e86ba8c9-208d-482c-a826-4c100938472a","system_id":"levelo_inurba_marseille","lat":43.21204,"lon":5.35072,"is_reserved":false,"is_disabled":true,"rental_uris":{"android":"levelo://app?vid=e86ba8c9-208d-482c-a826-4c100938472a","ios":"levelo://app?vid=e86ba8c9-208d-482c-a826-4c100938472a"},"vehicle_type_id":"4","last_reported":1751955436,"current_range_meters":0,"station_id":"st_cvj6sg6p6f1abm77japg","pricing_plan_id":"cebpf4jnsgd1na2vs0mg"},{"bike_id":"d2866ccd-e3dd-415c-9c91-4093a42f7191","system_id":"levelo_inurba_marseille","lat":43.32343,"lon":5.36738,"is_reserved":false,"is_disabled":true,"rental_uris":{"android":"levelo://app?vid=d2866ccd-e3dd-415c-9c91-4093a42f7191","ios":"levelo://app?vid=d2866ccd-e3dd-415c-9c91-4093a42f7191"},"vehicle_type_id":"4","last_reported":1751955436,"current_range_meters":400,"station_id":"ce4bhsh2rcd13ifvqi2g","pricing_plan_id":"cebpf4jnsgd1na2vs0mg"},{"bike_id":"a23562a3-0a2c-460b-be41-1e099f3c189d","system_id":"levelo_inurba_marseille","lat":43.266755,"lon":5.382677,"is_reserved":false,"is_disabled":true,"rental_uris":{"android":"levelo://app?vid=a23562a3-0a2c-460b-be41-1e099f3c189d","ios":"levelo://app?vid=a23562a3-0a2c-460b-be41-1e099f3c189d"},"vehicle_type_id":"4","last_reported":1751955436,"current_range_meters":800,"station_id":"ce4bhg92rcd13ifvqf90","pricing_plan_id":"cebpf4jnsgd1na2vs0mg"},{"bike_id":"5e9a6c40-d590-4971-8cd5-7777a8d9b728","system_id":"levelo_inurba_marseille","lat":43.27972,"lon":5.38738,"is_reserved":false,"is_disabled":true,"rental_uris":{"android":"levelo://app?vid=5e9a6c40-d590-4971-8cd5-7777a8d9b728","ios":"levelo://app?vid=5e9a6c40-d590-4971-8cd5-7777a8d9b728"},"vehicle_type_id":"4","last_reported":1751955436,"current_range_meters":1200,"station_id":"ce4bhg12rcd13ifvqf80","pricing_plan_id":"cebpf4jnsgd1na2vs0mg"},{"bike_id":"32f0b4a1-eb3b-4764-b87b-72cc56773da8","system_id":"levelo_inurba_marseille","lat":43.26552,"lon":5.39013,"is_reserved":false,"is_disabled":true,"rental_uris":{"android":"levelo://app?vid=32f0b4a1-eb3b-4764-b87b-72cc56773da8","ios":"levelo://app?vid=32f0b4a1-eb3b-4764-b87b-72cc56773da8"},"vehicle_type_id":"4","last_reported":1751955436,"current_range_meters":1600,"station_id":"ce4bhe12rcd13ifvqf30","pricing_plan_id":"cebpf4jnsgd1na2vs0mg"},{"bike_id":"0dd49749-32fd-452f-9988-5c946fff0a67","system_id":"levelo_inurba_marseille","lat":43.24548,"lon":5.39522,"is_reserved":false,"is_disabled":false,"rental_uris":{"android":"levelo://app?vid=0dd49749-32fd-452f-9988-5c946fff0a67","ios":"levelo://app?vid=0dd49749-32fd-452f-9988-5c946fff0a67"},"vehicle_type_id":"4","last_reported":1751955436,"current_range_meters":2800,"station_id":"ce4bhlp2rcd13ifvqgjg","pricing_plan_id":"cebpf4jnsgd1na2vs0mg"},{"bike_id":"faa485fb-48cc-4e3d-aab8-c3dd15cbc9b2","system_id":"levelo_inurba_marseille","lat":43.279913,"lon":5.40014,"is_reserved":false,"is_disabled":false,"rental_uris":{"android":"levelo://app?vid=faa485fb-48cc-4e3d-aab8-c3dd15cbc9b2","ios":"levelo://app?vid=faa485fb-48cc-4e3d-aab8-c3dd15cbc9b2"},"vehicle_type_id":"4","last_reported":1751955436,"current_range_meters":3200,"station_id":"ce4bho92rcd13ifvqh4g","pricing_plan_id":"cebpf4jnsgd1na2vs0mg"},{"bike_id":"ed290504-6948-4f69-8584-2e2b0286febf","system_id":"levelo_inurba_marseille","lat":43.211996,"lon":5.350825,"is_reserved":false,"is_disabled":false,"rental_uris":{"android":"levelo://app?vid=ed290504-6948-4f69-8584-2e2b0286febf","ios":"levelo://app?vid=ed290504-6948-4f69-8584-2e2b0286febf"},"vehicle_type_id":"4","last_reported":1751955436,"current_range_meters":3200,"station_id":"st_cvj6sg6p6f1abm77japg","pricing_plan_id":"cebpf4jnsgd1na2vs0mg"},{"bike_id":"acdafa95-7c75-48aa-ab44-0dde49345d81","system_id":"levelo_inurba_marseille","lat":43.292291,"lon":5.360511,"is_reserved":false,"is_disabled":false,"rental_uris":{"android":"levelo://app?vid=acdafa95-7c75-48aa-ab44-0dde49345d81","ios":"levelo://app?vid=acdafa95-7c75-48aa-ab44-0dde49345d81"},"vehicle_type_id":"4","last_reported":1751955436,"current_range_meters":3600,"station_id":"","pricing_plan_id":"cebpf4jnsgd1na2vs0mg"},{"bike_id":"a7753154-ad7f-4eb5-b7b3-df27edf18a53","system_id":"levelo_inurba_marseille","lat":43.22501,"lon":5.34763,"is_reserved":false,"is_disabled":false,"rental_uris":{"android":"levelo://app?vid=a7753154-ad7f-4eb5-b7b3-df27edf18a53","ios":"levelo://app?vid=a7753154-ad7f-4eb5-b7b3-df27edf18a53"},"vehicle_type_id":"4","last_reported":1751955436,"current_range_meters":3600,"station_id":"st_cvj5dfep6f1abm77gieg","pricing_plan_id":"cebpf4jnsgd1na2vs0mg"},{"bike_id":"3b638e02-6a55-403d-b500-cc62d0041fbc","system_id":"levelo_inurba_marseille","lat":43.265764,"lon":5.39006,"is_reserved":false,"is_disabled":false,"rental_uris":{"android":"levelo://app?vid=3b638e02-6a55-403d-b500-cc62d0041fbc","ios":"levelo://app?vid=3b638e02-6a55-403d-b500-cc62d0041fbc"},"vehicle_type_id":"4","last_reported":1751955436,"current_range_meters":4000,"station_id":"","pricing_plan_id":"cebpf4jnsgd1na2vs0mg"},{"bike_id":"71e58a67-8342-4dd2-84ab-8b7866263f42","system_id":"levelo_inurba_marseille","lat":43.30707,"lon":5.40151,"is_reserved":false,"is_disabled":false,"rental_uris":{"android":"levelo://app?vid=71e58a67-8342-4dd2-84ab-8b7866263f42","ios":"levelo://app?vid=71e58a67-8342-4dd2-84ab-8b7866263f42"},"vehicle_type_id":"4","last_reported":1751955436,"current_range_meters":4400,"station_id":"","pricing_plan_id":"cebpf4jnsgd1na2vs0mg"},{"bike_id":"09855549-958b-471d-95ab-dccd6cf16634","system_id":"levelo_inurba_marseille","lat":43.29036,"lon":5.3999,"is_reserved":false,"is_disabled":false,"rental_uris":{"android":"levelo://app?vid=09855549-958b-471d-95ab-dccd6cf16634","ios":"levelo://app?vid=09855549-958b-471d-95ab-dccd6cf16634"},"vehicle_type_id":"4","last_reported":1751955436,"current_range_meters":4400,"station_id":"ce4bh392rcd13ifvqdm0","pricing_plan_id":"cebpf4jnsgd1na2vs0mg"},{"bike_id":"2a644680-a682-4a1f-8cbd-3d0fb57685b4","system_id":"levelo_inurba_marseille","lat":43.217624,"lon":5.345969,"is_reserved":false,"is_disabled":false,"rental_uris":{"android":"levelo://app?vid=2a644680-a682-4a1f-8cbd-3d0fb57685b4","ios":"levelo://app?vid=2a644680-a682-4a1f-8cbd-3d0fb57685b4"},"vehicle_type_id":"4","last_reported":1751955436,"current_range_meters":4400,"station_id":"st_cvj6r9ubvosntc0bgbag","pricing_plan_id":"cebpf4jnsgd1na2vs0mg"},{"bike_id":"de3c7479-ad03-448f-a78e-88898eddd51a","system_id":"levelo_inurba_marseille","lat":43.32947,"lon":5.39706,"is_reserved":false,"is_disabled":false,"rental_uris":{"android":"levelo://app?vid=de3c7479-ad03-448f-a78e-88898eddd51a","ios":"levelo://app?vid=de3c7479-ad03-448f-a78e-88898eddd51a"},"vehicle_type_id":"4","last_reported":1751955436,"current_range_meters":4800,"station_id":"","pricing_plan_id":"cebpf4jnsgd1na2vs0mg"},{"bike_id":"03f05df5-c950-4441-bec3-830a0f64cff3","system_id":"levelo_inurba_marseille","lat":43.33759,"lon":5.37473,"is_reserved":false,"is_disabled":false,"rental_uris":{"android":"levelo://app?vid=03f05df5-c950-4441-bec3-830a0f64cff3","ios":"levelo://app?vid=03f05df5-c950-4441-bec3-830a0f64cff3"},"vehicle_type_id":"4","last_reported":1751955436,"current_range_meters":4800,"station_id":"","pricing_plan_id":"cebpf4jnsgd1na2vs0mg"},{"bike_id":"ff6969fc-5512-4edf-a61d-6936ccb9a278","system_id":"levelo_inurba_marseille","lat":43.330142,"lon":5.36378,"is_reserved":false,"is_disabled":false,"rental_uris":{"android":"levelo://app?vid=ff6969fc-5512-4edf-a61d-6936ccb9a278","ios":"levelo://app?vid=ff6969fc-5512-4edf-a61d-6936ccb9a278"},"vehicle_type_id":"4","last_reported":1751955436,"current_range_meters":4800,"station_id":"","pricing_plan_id":"cebpf4jnsgd1na2vs0mg"},{"bike_id":"287007d4-847b-4ce9-99ed-e915364d2e0e","system_id":"levelo_inurba_marseille","lat":43.29983,"lon":5.37173,"is_reserved":false,"is_disabled":false,"rental_uris":{"android":"levelo://app?vid=287007d4-847b-4ce9-99ed-e915364d2e0e","ios":"levelo://app?vid=287007d4-847b-4ce9-99ed-e915364d2e0e"},"vehicle_type_id":"4","last_reported":1751955436,"current_range_meters":5600,"station_id":"ce4bgr92rcd13ifvqc7g","pricing_plan_id":"cebpf4jnsgd1na2vs0mg"},{"bike_id":"5cb91a3e-99d7-4006-ace2-7ed6ee9805b2","system_id":"levelo_inurba_marseille","lat":43.31114,"lon":5.37792,"is_reserved":false,"is_disabled":false,"rental_uris":{"android":"levelo://app?vid=5cb91a3e-99d7-4006-ace2-7ed6ee9805b2","ios":"levelo://app?vid=5cb91a3e-99d7-4006-ace2-7ed6ee9805b2"},"vehicle_type_id":"4","last_reported":1751955436,"current_range_meters":5600,"station_id":"ce4bgt92rcd13ifvqcg0","pricing_plan_id":"cebpf4jnsgd1na2vs0mg"},{"bike_id":"d6bffe1f-2ba2-4014-af91-704ed862a47b","system_id":"levelo_inurba_marseille","lat":43.23154,"lon":5.43709,"is_reserved":false,"is_disabled":false,"rental_uris":{"android":"levelo://app?vid=d6bffe1f-2ba2-4014-af91-704ed862a47b","ios":"levelo://app?vid=d6bffe1f-2ba2-4014-af91-704ed862a47b"},"vehicle_type_id":"4","last_reported":1751955436,"current_range_meters":5600,"station_id":"ce4bhmp2rcd13ifvqgog","pricing_plan_id":"cebpf4jnsgd1na2vs0mg"},{"bike_id":"98b2e04d-5909-45ee-9489-f310dd194fa8","system_id":"levelo_inurba_marseille","lat":43.24192,"lon":5.39724,"is_reserved":false,"is_disabled":false,"rental_uris":{"android":"levelo://app?vid=98b2e04d-5909-45ee-9489-f310dd194fa8","ios":"levelo://app?vid=98b2e04d-5909-45ee-9489-f310dd194fa8"},"vehicle_type_id":"4","last_reported":1751955436,"current_range_meters":6000,"station_id":"ce4bhn12rcd13ifvqgpg","pricing_plan_id":"cebpf4jnsgd1na2vs0mg"},{"bike_id":"a294b0b6-ba57-4fb6-9d5e-ba37c6554be0","system_id":"levelo_inurba_marseille","lat":43.27944,"lon":5.41055,"is_reserved":false,"is_disabled":false,"rental_uris":{"android":"levelo://app?vid=a294b0b6-ba57-4fb6-9d5e-ba37c6554be0","ios":"levelo://app?vid=a294b0b6-ba57-4fb6-9d5e-ba37c6554be0"},"vehicle_type_id":"4","last_reported":1751955436,"current_range_meters":6000,"station_id":"ce4bhnp2rcd13ifvqh0g","pricing_plan_id":"cebpf4jnsgd1na2vs0mg"},{"bike_id":"9fad2be4-df56-45e6-aa5e-5cb71b401896","system_id":"levelo_inurba_marseille","lat":43.25721,"lon":5.41115,"is_reserved":false,"is_disabled":false,"rental_uris":{"android":"levelo://app?vid=9fad2be4-df56-45e6-aa5e-5cb71b401896","ios":"levelo://app?vid=9fad2be4-df56-45e6-aa5e-5cb71b401896"},"vehicle_type_id":"4","last_reported":1751955436,"current_range_meters":6400,"station_id":"ce4bhkp2rcd13ifvqgd0","pricing_plan_id":"cebpf4jnsgd1na2vs0mg"},{"bike_id":"bd1874bf-e30a-482e-a165-63d599b3ee06","system_id":"levelo_inurba_marseille","lat":43.31491,"lon":5.3976,"is_reserved":false,"is_disabled":false,"rental_uris":{"android":"levelo://app?vid=bd1874bf-e30a-482e-a165-63d599b3ee06","ios":"levelo://app?vid=bd1874bf-e30a-482e-a165-63d599b3ee06"},"vehicle_type_id":"4","last_reported":1751955436,"current_range_meters":6800,"station_id":"","pricing_plan_id":"cebpf4jnsgd1na2vs0mg"},{"bike_id":"bc7f8f89-0b66-4ecc-8221-fe052996486f","system_id":"levelo_inurba_marseille","lat":43.30896,"lon":5.39654,"is_reserved":false,"is_disabled":false,"rental_uris":{"android":"levelo://app?vid=bc7f8f89-0b66-4ecc-8221-fe052996486f","ios":"levelo://app?vid=bc7f8f89-0b66-4ecc-8221-fe052996486f"},"vehicle_type_id":"4","last_reported":1751955436,"current_range_meters":6800,"station_id":"ce4bh012rcd13ifvqcv0","pricing_plan_id":"cebpf4jnsgd1na2vs0mg"},{"bike_id":"0f3507d3-e887-456b-9348-7a718d0f1a44","system_id":"levelo_inurba_marseille","lat":43.2931,"lon":5.37455,"is_reserved":false,"is_disabled":false,"rental_uris":{"android":"levelo://app?vid=0f3507d3-e887-456b-9348-7a718d0f1a44","ios":"levelo://app?vid=0f3507d3-e887-456b-9348-7a718d0f1a44"},"vehicle_type_id":"4","last_reported":1751955436,"current_range_meters":7200,"station_id":"ce4bgi12rcd13ifvqb70","pricing_plan_id":"cebpf4jnsgd1na2vs0mg"},{"bike_id":"3a889e74-d00f-4bfd-8949-05a663984217","system_id":"levelo_inurba_marseille","lat":43.3108,"lon":5.38361,"is_reserved":false,"is_disabled":false,"rental_uris":{"android":"levelo://app?vid=3a889e74-d00f-4bfd-8949-05a663984217","ios":"levelo://app?vid=3a889e74-d00f-4bfd-8949-05a663984217"},"vehicle_type_id":"4","last_reported":1751955436,"current_range_meters":7200,"station_id":"ce4bgv92rcd13ifvqcr0","pricing_plan_id":"cebpf4jnsgd1na2vs0mg"},{"bike_id":"7b527f00-f6ea-4963-b59d-8da04a2feedb","system_id":"levelo_inurba_marseille","lat":43.32078,"lon":5.40142,"is_reserved":false,"is_disabled":false,"rental_uris":{"android":"levelo://app?vid=7b527f00-f6ea-4963-b59d-8da04a2feedb","ios":"levelo://app?vid=7b527f00-f6ea-4963-b59d-8da04a2feedb"},"vehicle_type_id":"4","last_reported":1751955436,"current_range_meters":8000,"station_id":"","pricing_plan_id":"cebpf4jnsgd1na2vs0mg"},{"bike_id":"88ea42cb-cf0f-4e4a-8442-732645bc4ba5","system_id":"levelo_inurba_marseille","lat":43.310829,"lon":5.367178,"is_reserved":false,"is_disabled":false,"rental_uris":{"android":"levelo://app?vid=88ea42cb-cf0f-4e4a-8442-732645bc4ba5","ios":"levelo://app?vid=88ea42cb-cf0f-4e4a-8442-732645bc4ba5"},"vehicle_type_id":"4","last_reported":1751955436,"current_range_meters":8000,"station_id":"","pricing_plan_id":"cebpf4jnsgd1na2vs0mg"},{"bike_id":"942832cc-ae37-449c-9727-8f5d7c66ceb2","system_id":"levelo_inurba_marseille","lat":43.29945,"lon":5.38534,"is_reserved":false,"is_disabled":false,"rental_uris":{"android":"levelo://app?vid=942832cc-ae37-449c-9727-8f5d7c66ceb2","ios":"levelo://app?vid=942832cc-ae37-449c-9727-8f5d7c66ceb2"},"vehicle_type_id":"4","last_reported":1751955436,"current_range_meters":8000,"station_id":"ce4bgj92rcd13ifvqbd0","pricing_plan_id":"cebpf4jnsgd1na2vs0mg"},{"bike_id":"558c27cf-0296-44ad-81a4-527b14fd9bdb","system_id":"levelo_inurba_marseille","lat":43.3135,"lon":5.36723,"is_reserved":false,"is_disabled":false,"rental_uris":{"android":"levelo://app?vid=558c27cf-0296-44ad-81a4-527b14fd9bdb","ios":"levelo://app?vid=558c27cf-0296-44ad-81a4-527b14fd9bdb"},"vehicle_type_id":"4","last_reported":1751955436,"current_range_meters":8000,"station_id":"ce4bgr92rcd13ifvqc6g","pricing_plan_id":"cebpf4jnsgd1na2vs0mg"},{"bike_id":"8fc98a4d-507f-4c89-b470-5690859d623b","system_id":"levelo_inurba_marseille","lat":43.31123,"lon":5.37774,"is_reserved":false,"is_disabled":false,"rental_uris":{"android":"levelo://app?vid=8fc98a4d-507f-4c89-b470-5690859d623b","ios":"levelo://app?vid=8fc98a4d-507f-4c89-b470-5690859d623b"},"vehicle_type_id":"4","last_reported":1751955436,"current_range_meters":8000,"station_id":"ce4bgt92rcd13ifvqcg0","pricing_plan_id":"cebpf4jnsgd1na2vs0mg"},{"bike_id":"6883b381-1ba7-4e68-92c8-065fa1398dcb","system_id":"levelo_inurba_marseille","lat":43.30943,"lon":5.40158,"is_reserved":false,"is_disabled":true,"rental_uris":{"android":"levelo://app?vid=6883b381-1ba7-4e68-92c8-065fa1398dcb","ios":"levelo://app?vid=6883b381-1ba7-4e68-92c8-065fa1398dcb"},"vehicle_type_id":"4","last_reported":1751955436,"current_range_meters":8000,"station_id":"ce4bgvp2rcd13ifvqct0","pricing_plan_id":"cebpf4jnsgd1na2vs0mg"},{"bike_id":"98f46642-8fdc-43be-8379-a5bf33d8441b","system_id":"levelo_inurba_marseille","lat":43.211903,"lon":5.350734,"is_reserved":false,"is_disabled":false,"rental_uris":{"android":"levelo://app?vid=98f46642-8fdc-43be-8379-a5bf33d8441b","ios":"levelo://app?vid=98f46642-8fdc-43be-8379-a5bf33d8441b"},"vehicle_type_id":"4","last_reported":1751955436,"current_range_meters":8000,"station_id":"st_cvj6sg6p6f1abm77japg","pricing_plan_id":"cebpf4jnsgd1na2vs0mg"},{"bike_id":"3b22f952-d0bc-4c00-8fd3-7e27b88aea23","system_id":"levelo_inurba_marseille","lat":43.29659,"lon":5.36245,"is_reserved":false,"is_disabled":false,"rental_uris":{"android":"levelo://app?vid=3b22f952-d0bc-4c00-8fd3-7e27b88aea23","ios":"levelo://app?vid=3b22f952-d0bc-4c00-8fd3-7e27b88aea23"},"vehicle_type_id":"4","last_reported":1751955436,"current_range_meters":8400,"station_id":"","pricing_plan_id":"cebpf4jnsgd1na2vs0mg"},{"bike_id":"cd94d16b-574a-4ac5-b90f-98300d9c6af6","system_id":"levelo_inurba_marseille","lat":43.28938,"lon":5.39624,"is_reserved":false,"is_disabled":false,"rental_uris":{"android":"levelo://app?vid=cd94d16b-574a-4ac5-b90f-98300d9c6af6","ios":"levelo://app?vid=cd94d16b-574a-4ac5-b90f-98300d9c6af6"},"vehicle_type_id":"4","last_reported":1751955436,"current_range_meters":8400,"station_id":"ce4bh3h2rcd13ifvqdn0","pricing_plan_id":"cebpf4jnsgd1na2vs0mg"},{"bike_id":"6bff5dd0-cbe0-4a6b-b636-68a10a73f715","system_id":"levelo_inurba_marseille","lat":43.30722,"lon":5.40136,"is_reserved":false,"is_disabled":false,"rental_uris":{"android":"levelo://app?vid=6bff5dd0-cbe0-4a6b-b636-68a10a73f715","ios":"levelo://app?vid=6bff5dd0-cbe0-4a6b-b636-68a10a73f715"},"vehicle_type_id":"4","last_reported":1751955436,"current_range_meters":8800,"station_id":"","pricing_plan_id":"cebpf4jnsgd1na2vs0mg"},{"bike_id":"37f2becd-23f9-4f13-a711-38b8024eeec7","system_id":"levelo_inurba_marseille","lat":43.33768,"lon":5.37516,"is_reserved":false,"is_disabled":false,"rental_uris":{"android":"levelo://app?vid=37f2becd-23f9-4f13-a711-38b8024eeec7","ios":"levelo://app?vid=37f2becd-23f9-4f13-a711-38b8024eeec7"},"vehicle_type_id":"4","last_reported":1751955436,"current_range_meters":9200,"station_id":"","pricing_plan_id":"cebpf4jnsgd1na2vs0mg"},{"bike_id":"eb6a4062-20f5-4181-b4bd-bff4bfaa3cb2","system_id":"levelo_inurba_marseille","lat":43.30147,"lon":5.38076,"is_reserved":false,"is_disabled":false,"rental_uris":{"android":"levelo://app?vid=eb6a4062-20f5-4181-b4bd-bff4bfaa3cb2","ios":"levelo://app?vid=eb6a4062-20f5-4181-b4bd-bff4bfaa3cb2"},"vehicle_type_id":"4","last_reported":1751955436,"current_range_meters":9200,"station_id":"ce4bgjp2rcd13ifvqbh0","pricing_plan_id":"cebpf4jnsgd1na2vs0mg"},{"bike_id":"bff287d5-0c9a-4575-8cd6-c178d6ab245e","system_id":"levelo_inurba_marseille","lat":43.3059,"lon":5.37207,"is_reserved":false,"is_disabled":false,"rental_uris":{"android":"levelo://app?vid=bff287d5-0c9a-4575-8cd6-c178d6ab245e","ios":"levelo://app?vid=bff287d5-0c9a-4575-8cd6-c178d6ab245e"},"vehicle_type_id":"4","last_reported":1751955436,"current_range_meters":9200,"station_id":"ce4bgqh2rcd13ifvqc4g","pricing_plan_id":"cebpf4jnsgd1na2vs0mg"},{"bike_id":"a3f02b73-bc13-41f0-9c51-3104a0ca89c5","system_id":"levelo_inurba_marseille","lat":43.3039,"lon":5.42483,"is_reserved":false,"is_disabled":false,"rental_uris":{"android":"levelo://app?vid=a3f02b73-bc13-41f0-9c51-3104a0ca89c5","ios":"levelo://app?vid=a3f02b73-bc13-41f0-9c51-3104a0ca89c5"},"vehicle_type_id":"4","last_reported":1751955436,"current_range_meters":9200,"station_id":"ce4bhoh2rcd13ifvqh6g","pricing_plan_id":"cebpf4jnsgd1na2vs0mg"},{"bike_id":"b755e147-6701-4807-9c00-428b66716ba7","system_id":"levelo_inurba_marseille","lat":43.29536,"lon":5.38542,"is_reserved":false,"is_disabled":false,"rental_uris":{"android":"levelo://app?vid=b755e147-6701-4807-9c00-428b66716ba7","ios":"levelo://app?vid=b755e147-6701-4807-9c00-428b66716ba7"},"vehicle_type_id":"4","last_reported":1751955436,"current_range_meters":9600,"station_id":"ce4bgih2rcd13ifvqba0","pricing_plan_id":"cebpf4jnsgd1na2vs0mg"},{"bike_id":"357e91cd-3680-4f42-86a8-1f528264694b","system_id":"levelo_inurba_marseille","lat":43.303201,"lon":5.404444,"is_reserved":false,"is_disabled":false,"rental_uris":{"android":"levelo://app?vid=357e91cd-3680-4f42-86a8-1f528264694b","ios":"levelo://app?vid=357e91cd-3680-4f42-86a8-1f528264694b"},"vehicle_type_id":"4","last_reported":1751955436,"current_range_meters":9600,"station_id":"ce4bh012rcd13ifvqd10","pricing_plan_id":"cebpf4jnsgd1na2vs0mg"},{"bike_id":"be35a21f-4ea0-4cb8-9207-5788dd123425","system_id":"levelo_inurba_marseille","lat":43.25529,"lon":5.37644,"is_reserved":false,"is_disabled":false,"rental_uris":{"android":"levelo://app?vid=be35a21f-4ea0-4cb8-9207-5788dd123425","ios":"levelo://app?vid=be35a21f-4ea0-4cb8-9207-5788dd123425"},"vehicle_type_id":"4","last_reported":1751955436,"current_range_meters":9600,"station_id":"ce4bhh12rcd13ifvqff0","pricing_plan_id":"cebpf4jnsgd1na2vs0mg"},{"bike_id":"608bac89-0c16-45d5-9fbe-13e016f70edc","system_id":"levelo_inurba_marseille","lat":43.321024,"lon":5.367871,"is_reserved":false,"is_disabled":false,"rental_uris":{"android":"levelo://app?vid=608bac89-0c16-45d5-9fbe-13e016f70edc","ios":"levelo://app?vid=608bac89-0c16-45d5-9fbe-13e016f70edc"},"vehicle_type_id":"4","last_reported":1751955436,"current_range_meters":9600,"station_id":"ce4bhrh2rcd13ifvqhug","pricing_plan_id":"cebpf4jnsgd1na2vs0mg"},{"bike_id":"2c423baa-ecca-420a-87d7-ad0b7e0b9ebb","system_id":"levelo_inurba_marseille","lat":43.28042,"lon":5.3536,"is_reserved":false,"is_disabled":false,"rental_uris":{"android":"levelo://app?vid=2c423baa-ecca-420a-87d7-ad0b7e0b9ebb","ios":"levelo://app?vid=2c423baa-ecca-420a-87d7-ad0b7e0b9ebb"},"vehicle_type_id":"4","last_reported":1751955436,"current_range_meters":10000,"station_id":"","pricing_plan_id":"cebpf4jnsgd1na2vs0mg"},{"bike_id":"79222bb8-8f87-4c17-9ab8-2e1dc43e2b10","system_id":"levelo_inurba_marseille","lat":43.30153,"lon":5.38089,"is_reserved":false,"is_disabled":false,"rental_uris":{"android":"levelo://app?vid=79222bb8-8f87-4c17-9ab8-2e1dc43e2b10","ios":"levelo://app?vid=79222bb8-8f87-4c17-9ab8-2e1dc43e2b10"},"vehicle_type_id":"4","last_reported":1751955436,"current_range_meters":10000,"station_id":"ce4bgjp2rcd13ifvqbh0","pricing_plan_id":"cebpf4jnsgd1na2vs0mg"},{"bike_id":"942a983a-7094-47d3-97b7-ba4ab853d965","system_id":"levelo_inurba_marseille","lat":43.270735,"lon":5.422746,"is_reserved":false,"is_disabled":false,"rental_uris":{"android":"levelo://app?vid=942a983a-7094-47d3-97b7-ba4ab853d965","ios":"levelo://app?vid=942a983a-7094-47d3-97b7-ba4ab853d965"},"vehicle_type_id":"4","last_reported":1751955436,"current_range_meters":10000,"station_id":"ce4bhk92rcd13ifvqgb0","pricing_plan_id":"cebpf4jnsgd1na2vs0mg"},{"bike_id":"d2abbea5-d25e-4b8f-a9ce-3eaea508c786","system_id":"levelo_inurba_marseille","lat":43.241805,"lon":5.3972,"is_reserved":false,"is_disabled":false,"rental_uris":{"android":"levelo://app?vid=d2abbea5-d25e-4b8f-a9ce-3eaea508c786","ios":"levelo://app?vid=d2abbea5-d25e-4b8f-a9ce-3eaea508c786"},"vehicle_type_id":"4","last_reported":1751955436,"current_range_meters":10000,"station_id":"ce4bhn12rcd13ifvqgpg","pricing_plan_id":"cebpf4jnsgd1na2vs0mg"},{"bike_id":"218d1f16-f8a8-4528-8407-4c84f38a7294","system_id":"levelo_inurba_marseille","lat":43.31094,"lon":5.42428,"is_reserved":false,"is_disabled":false,"rental_uris":{"android":"levelo://app?vid=218d1f16-f8a8-4528-8407-4c84f38a7294","ios":"levelo://app?vid=218d1f16-f8a8-4528-8407-4c84f38a7294"},"vehicle_type_id":"4","last_reported":1751955436,"current_range_meters":10000,"station_id":"ce4bhp92rcd13ifvqhag","pricing_plan_id":"cebpf4jnsgd1na2vs0mg"},{"bike_id":"a31d7b1d-f875-4f27-b8f6-640a4ac62493","system_id":"levelo_inurba_marseille","lat":43.33729,"lon":5.3919,"is_reserved":false,"is_disabled":false,"rental_uris":{"android":"levelo://app?vid=a31d7b1d-f875-4f27-b8f6-640a4ac62493","ios":"levelo://app?vid=a31d7b1d-f875-4f27-b8f6-640a4ac62493"},"vehicle_type_id":"4","last_reported":1751955436,"current_range_meters":10000,"station_id":"ce4bhr92rcd13ifvqhsg","pricing_plan_id":"cebpf4jnsgd1na2vs0mg"},{"bike_id":"29102da4-02a2-4f9c-99ed-89cdef887179","system_id":"levelo_inurba_marseille","lat":43.22503,"lon":5.34761,"is_reserved":false,"is_disabled":false,"rental_uris":{"android":"levelo://app?vid=29102da4-02a2-4f9c-99ed-89cdef887179","ios":"levelo://app?vid=29102da4-02a2-4f9c-99ed-89cdef887179"},"vehicle_type_id":"4","last_reported":1751955436,"current_range_meters":10000,"station_id":"st_cvj5dfep6f1abm77gieg","pricing_plan_id":"cebpf4jnsgd1na2vs0mg"},{"bike_id":"20c0674d-b5fd-4e8e-88c4-fe181160a0e2","system_id":"levelo_inurba_marseille","lat":43.21748,"lon":5.34601,"is_reserved":false,"is_disabled":false,"rental_uris":{"android":"levelo://app?vid=20c0674d-b5fd-4e8e-88c4-fe181160a0e2","ios":"levelo://app?vid=20c0674d-b5fd-4e8e-88c4-fe181160a0e2"},"vehicle_type_id":"4","last_reported":1751955436,"current_range_meters":10000,"station_id":"st_cvj6r9ubvosntc0bgbag","pricing_plan_id":"cebpf4jnsgd1na2vs0mg"},{"bike_id":"a70cfab5-f447-4d61-b80a-343a49825360","system_id":"levelo_inurba_marseille","lat":43.31751,"lon":5.37773,"is_reserved":false,"is_disabled":false,"rental_uris":{"android":"levelo://app?vid=a70cfab5-f447-4d61-b80a-343a49825360","ios":"levelo://app?vid=a70cfab5-f447-4d61-b80a-343a49825360"},"vehicle_type_id":"4","last_reported":1751955436,"current_range_meters":10800,"station_id":"","pricing_plan_id":"cebpf4jnsgd1na2vs0mg"},{"bike_id":"a84a7c3c-b0f6-4dcd-941b-3fd0cb556e2f","system_id":"levelo_inurba_marseille","lat":43.31376,"lon":5.38512,"is_reserved":false,"is_disabled":false,"rental_uris":{"android":"levelo://app?vid=a84a7c3c-b0f6-4dcd-941b-3fd0cb556e2f","ios":"levelo://app?vid=a84a7c3c-b0f6-4dcd-941b-3fd0cb556e2f"},"vehicle_type_id":"4","last_reported":1751955436,"current_range_meters":10800,"station_id":"ce4bgt92rcd13ifvqcf0","pricing_plan_id":"cebpf4jnsgd1na2vs0mg"},{"bike_id":"98129c23-1a98-4c0b-92a1-e936795f161f","system_id":"levelo_inurba_marseille","lat":43.29037,"lon":5.39963,"is_reserved":false,"is_disabled":false,"rental_uris":{"android":"levelo://app?vid=98129c23-1a98-4c0b-92a1-e936795f161f","ios":"levelo://app?vid=98129c23-1a98-4c0b-92a1-e936795f161f"},"vehicle_type_id":"4","last_reported":1751955436,"current_range_meters":10800,"station_id":"ce4bh392rcd13ifvqdm0","pricing_plan_id":"cebpf4jnsgd1na2vs0mg"},{"bike_id":"9a835e01-725b-41f5-8a1c-1a4de65a16a4","system_id":"levelo_inurba_marseille","lat":43.28036,"lon":5.36942,"is_reserved":false,"is_disabled":false,"rental_uris":{"android":"levelo://app?vid=9a835e01-725b-41f5-8a1c-1a4de65a16a4","ios":"levelo://app?vid=9a835e01-725b-41f5-8a1c-1a4de65a16a4"},"vehicle_type_id":"4","last_reported":1751955436,"current_range_meters":10800,"station_id":"ce4bha12rcd13ifvqef0","pricing_plan_id":"cebpf4jnsgd1na2vs0mg"},{"bike_id":"32a758da-865f-4b7a-8eed-09ec90404d75","system_id":"levelo_inurba_marseille","lat":43.3136,"lon":5.36694,"is_reserved":false,"is_disabled":false,"rental_uris":{"android":"levelo://app?vid=32a758da-865f-4b7a-8eed-09ec90404d75","ios":"levelo://app?vid=32a758da-865f-4b7a-8eed-09ec90404d75"},"vehicle_type_id":"4","last_reported":1751955436,"current_range_meters":11200,"station_id":"ce4bgr92rcd13ifvqc6g","pricing_plan_id":"cebpf4jnsgd1na2vs0mg"},{"bike_id":"002f2ba8-82ee-4831-bc18-f0b75d723675","system_id":"levelo_inurba_marseille","lat":43.287255,"lon":5.399943,"is_reserved":false,"is_disabled":false,"rental_uris":{"android":"levelo://app?vid=002f2ba8-82ee-4831-bc18-f0b75d723675","ios":"levelo://app?vid=002f2ba8-82ee-4831-bc18-f0b75d723675"},"vehicle_type_id":"4","last_reported":1751955436,"current_range_meters":11200,"station_id":"ce4bho92rcd13ifvqh3g","pricing_plan_id":"cebpf4jnsgd1na2vs0mg"},{"bike_id":"520db1de-894b-49d4-b9f4-553feb163659","system_id":"levelo_inurba_marseille","lat":43.32339,"lon":5.40626,"is_reserved":false,"is_disabled":false,"rental_uris":{"android":"levelo://app?vid=520db1de-894b-49d4-b9f4-553feb163659","ios":"levelo://app?vid=520db1de-894b-49d4-b9f4-553feb163659"},"vehicle_type_id":"4","last_reported":1751955436,"current_range_meters":11200,"station_id":"ce4bhq92rcd13ifvqhjg","pricing_plan_id":"cebpf4jnsgd1na2vs0mg"},{"bike_id":"072aef18-8c4c-41ca-9032-1b5fba7539b3","system_id":"levelo_inurba_marseille","lat":43.31992,"lon":5.36752,"is_reserved":false,"is_disabled":false,"rental_uris":{"android":"levelo://app?vid=072aef18-8c4c-41ca-9032-1b5fba7539b3","ios":"levelo://app?vid=072aef18-8c4c-41ca-9032-1b5fba7539b3"},"vehicle_type_id":"4","last_reported":1751955436,"current_range_meters":11200,"station_id":"ce4bhrh2rcd13ifvqhug","pricing_plan_id":"cebpf4jnsgd1na2vs0mg"},{"bike_id":"3940df16-67e4-48d2-ba98-0b9c909004b3","system_id":"levelo_inurba_marseille","lat":43.3149,"lon":5.39778,"is_reserved":false,"is_disabled":false,"rental_uris":{"android":"levelo://app?vid=3940df16-67e4-48d2-ba98-0b9c909004b3","ios":"levelo://app?vid=3940df16-67e4-48d2-ba98-0b9c909004b3"},"vehicle_type_id":"4","last_reported":1751955436,"current_range_meters":11600,"station_id":"","pricing_plan_id":"cebpf4jnsgd1na2vs0mg"},{"bike_id":"b260b628-14ee-4f8d-a7bb-2148a7e59e67","system_id":"levelo_inurba_marseille","lat":43.30608,"lon":5.37235,"is_reserved":false,"is_disabled":false,"rental_uris":{"android":"levelo://app?vid=b260b628-14ee-4f8d-a7bb-2148a7e59e67","ios":"levelo://app?vid=b260b628-14ee-4f8d-a7bb-2148a7e59e67"},"vehicle_type_id":"4","last_reported":1751955436,"current_range_meters":11600,"station_id":"ce4bgqh2rcd13ifvqc4g","pricing_plan_id":"cebpf4jnsgd1na2vs0mg"},{"bike_id":"82f40aca-214c-480a-99d7-4df294448107","system_id":"levelo_inurba_marseille","lat":43.2553,"lon":5.37656,"is_reserved":false,"is_disabled":false,"rental_uris":{"android":"levelo://app?vid=82f40aca-214c-480a-99d7-4df294448107","ios":"levelo://app?vid=82f40aca-214c-480a-99d7-4df294448107"},"vehicle_type_id":"4","last_reported":1751955436,"current_range_meters":11600,"station_id":"ce4bhh12rcd13ifvqff0","pricing_plan_id":"cebpf4jnsgd1na2vs0mg"},{"bike_id":"e79346c8-86fc-4daa-86ef-e1e68b65043e","system_id":"levelo_inurba_marseille","lat":43.24068,"lon":5.37795,"is_reserved":false,"is_disabled":false,"rental_uris":{"android":"levelo://app?vid=e79346c8-86fc-4daa-86ef-e1e68b65043e","ios":"levelo://app?vid=e79346c8-86fc-4daa-86ef-e1e68b65043e"},"vehicle_type_id":"4","last_reported":1751955436,"current_range_meters":11600,"station_id":"ce4bhnp2rcd13ifvqgvg","pricing_plan_id":"cebpf4jnsgd1na2vs0mg"},{"bike_id":"4cc495d5-e597-4967-9c52-2a54104880ee","system_id":"levelo_inurba_marseille","lat":43.229361,"lon":5.353823,"is_reserved":false,"is_disabled":false,"rental_uris":{"android":"levelo://app?vid=4cc495d5-e597-4967-9c52-2a54104880ee","ios":"levelo://app?vid=4cc495d5-e597-4967-9c52-2a54104880ee"},"vehicle_type_id":"4","last_reported":1751955436,"current_range_meters":11600,"station_id":"cpo3532slgdg3j2ikp40","pricing_plan_id":"cebpf4jnsgd1na2vs0mg"},{"bike_id":"b842a834-2fa4-472d-835b-013e3f131ad8","system_id":"levelo_inurba_marseille","lat":43.25016,"lon":5.38923,"is_reserved":false,"is_disabled":false,"rental_uris":{"android":"levelo://app?vid=b842a834-2fa4-472d-835b-013e3f131ad8","ios":"levelo://app?vid=b842a834-2fa4-472d-835b-013e3f131ad8"},"vehicle_type_id":"4","last_reported":1751955436,"current_range_meters":12000,"station_id":"ce4bhgp2rcd13ifvqfd0","pricing_plan_id":"cebpf4jnsgd1na2vs0mg"},{"bike_id":"c2ee7d66-374b-44cd-b9d7-9ad64301293b","system_id":"levelo_inurba_marseille","lat":43.22505,"lon":5.34772,"is_reserved":false,"is_disabled":false,"rental_uris":{"android":"levelo://app?vid=c2ee7d66-374b-44cd-b9d7-9ad64301293b","ios":"levelo://app?vid=c2ee7d66-374b-44cd-b9d7-9ad64301293b"},"vehicle_type_id":"4","last_reported":1751955436,"current_range_meters":12000,"station_id":"st_cvj5dfep6f1abm77gieg","pricing_plan_id":"cebpf4jnsgd1na2vs0mg"},{"bike_id":"67f94500-6ad6-40b7-80db-92434fb96541","system_id":"levelo_inurba_marseille","lat":43.3088,"lon":5.3964,"is_reserved":false,"is_disabled":false,"rental_uris":{"android":"levelo://app?vid=67f94500-6ad6-40b7-80db-92434fb96541","ios":"levelo://app?vid=67f94500-6ad6-40b7-80db-92434fb96541"},"vehicle_type_id":"4","last_reported":1751955436,"current_range_meters":12400,"station_id":"ce4bh012rcd13ifvqcv0","pricing_plan_id":"cebpf4jnsgd1na2vs0mg"},{"bike_id":"8bc4b403-5e61-4dfc-9fa1-d8a42826b87a","system_id":"levelo_inurba_marseille","lat":43.303225,"lon":5.40447,"is_reserved":false,"is_disabled":false,"rental_uris":{"android":"levelo://app?vid=8bc4b403-5e61-4dfc-9fa1-d8a42826b87a","ios":"levelo://app?vid=8bc4b403-5e61-4dfc-9fa1-d8a42826b87a"},"vehicle_type_id":"4","last_reported":1751955436,"current_range_meters":12400,"station_id":"ce4bh012rcd13ifvqd10","pricing_plan_id":"cebpf4jnsgd1na2vs0mg"},{"bike_id":"4d472495-e430-4d4b-ae51-feb032fc7fdd","system_id":"levelo_inurba_marseille","lat":43.29079,"lon":5.37149,"is_reserved":false,"is_disabled":false,"rental_uris":{"android":"levelo://app?vid=4d472495-e430-4d4b-ae51-feb032fc7fdd","ios":"levelo://app?vid=4d472495-e430-4d4b-ae51-feb032fc7fdd"},"vehicle_type_id":"4","last_reported":1751955436,"current_range_meters":12400,"station_id":"ce4bh5p2rcd13ifvqe4g","pricing_plan_id":"cebpf4jnsgd1na2vs0mg"},{"bike_id":"4c4d4b94-5832-431b-a6a4-1addce77dff7","system_id":"levelo_inurba_marseille","lat":43.24406,"lon":5.37044,"is_reserved":false,"is_disabled":false,"rental_uris":{"android":"levelo://app?vid=4c4d4b94-5832-431b-a6a4-1addce77dff7","ios":"levelo://app?vid=4c4d4b94-5832-431b-a6a4-1addce77dff7"},"vehicle_type_id":"4","last_reported":1751955436,"current_range_meters":12400,"station_id":"ce4bhhh2rcd13ifvqfk0","pricing_plan_id":"cebpf4jnsgd1na2vs0mg"},{"bike_id":"2090512e-543d-4a55-b888-2423e2f84234","system_id":"levelo_inurba_marseille","lat":43.24085,"lon":5.37721,"is_reserved":false,"is_disabled":false,"rental_uris":{"android":"levelo://app?vid=2090512e-543d-4a55-b888-2423e2f84234","ios":"levelo://app?vid=2090512e-543d-4a55-b888-2423e2f84234"},"vehicle_type_id":"4","last_reported":1751955436,"current_range_meters":12400,"station_id":"ce4bhnp2rcd13ifvqgvg","pricing_plan_id":"cebpf4jnsgd1na2vs0mg"},{"bike_id":"bc6e3149-4a9d-4e0d-a6ae-1da46fa9ab56","system_id":"levelo_inurba_marseille","lat":43.32659,"lon":5.40995,"is_reserved":false,"is_disabled":false,"rental_uris":{"android":"levelo://app?vid=bc6e3149-4a9d-4e0d-a6ae-1da46fa9ab56","ios":"levelo://app?vid=bc6e3149-4a9d-4e0d-a6ae-1da46fa9ab56"},"vehicle_type_id":"4","last_reported":1751955436,"current_range_meters":12400,"station_id":"ce4bhpp2rcd13ifvqhgg","pricing_plan_id":"cebpf4jnsgd1na2vs0mg"},{"bike_id":"9bfc7d3d-4e60-4f8a-9c32-ef3d0e77ec5b","system_id":"levelo_inurba_marseille","lat":43.211942,"lon":5.350739,"is_reserved":false,"is_disabled":false,"rental_uris":{"android":"levelo://app?vid=9bfc7d3d-4e60-4f8a-9c32-ef3d0e77ec5b","ios":"levelo://app?vid=9bfc7d3d-4e60-4f8a-9c32-ef3d0e77ec5b"},"vehicle_type_id":"4","last_reported":1751955436,"current_range_meters":12400,"station_id":"st_cvj6sg6p6f1abm77japg","pricing_plan_id":"cebpf4jnsgd1na2vs0mg"},{"bike_id":"ae063a66-86c8-4dbf-85fb-211b53656a78","system_id":"levelo_inurba_marseille","lat":43.30786,"lon":5.37651,"is_reserved":false,"is_disabled":false,"rental_uris":{"android":"levelo://app?vid=ae063a66-86c8-4dbf-85fb-211b53656a78","ios":"levelo://app?vid=ae063a66-86c8-4dbf-85fb-211b53656a78"},"vehicle_type_id":"4","last_reported":1751955436,"current_range_meters":12800,"station_id":"ce4bgv92rcd13ifvqcq0","pricing_plan_id":"cebpf4jnsgd1na2vs0mg"},{"bike_id":"bac13eb2-75b6-43a2-8750-65111fd6394f","system_id":"levelo_inurba_marseille","lat":43.321,"lon":5.367616,"is_reserved":false,"is_disabled":false,"rental_uris":{"android":"levelo://app?vid=bac13eb2-75b6-43a2-8750-65111fd6394f","ios":"levelo://app?vid=bac13eb2-75b6-43a2-8750-65111fd6394f"},"vehicle_type_id":"4","last_reported":1751955436,"current_range_meters":12800,"station_id":"ce4bhrh2rcd13ifvqhug","pricing_plan_id":"cebpf4jnsgd1na2vs0mg"},{"bike_id":"c7ac2c6f-0af8-4ed6-b7b9-2a662853575a","system_id":"levelo_inurba_marseille","lat":43.30617,"lon":5.37223,"is_reserved":false,"is_disabled":false,"rental_uris":{"android":"levelo://app?vid=c7ac2c6f-0af8-4ed6-b7b9-2a662853575a","ios":"levelo://app?vid=c7ac2c6f-0af8-4ed6-b7b9-2a662853575a"},"vehicle_type_id":"4","last_reported":1751955436,"current_range_meters":13600,"station_id":"ce4bgqh2rcd13ifvqc4g","pricing_plan_id":"cebpf4jnsgd1na2vs0mg"},{"bike_id":"09dc1f42-e661-4e5c-8d03-24fc62d8a8a0","system_id":"levelo_inurba_marseille","lat":43.251078,"lon":5.403284,"is_reserved":false,"is_disabled":false,"rental_uris":{"android":"levelo://app?vid=09dc1f42-e661-4e5c-8d03-24fc62d8a8a0","ios":"levelo://app?vid=09dc1f42-e661-4e5c-8d03-24fc62d8a8a0"},"vehicle_type_id":"4","last_reported":1751955436,"current_range_meters":13600,"station_id":"ce4bhlh2rcd13ifvqgig","pricing_plan_id":"cebpf4jnsgd1na2vs0mg"},{"bike_id":"cc6ff4bb-5e7c-4300-b646-1ab807e54573","system_id":"levelo_inurba_marseille","lat":43.25922,"lon":5.40909,"is_reserved":false,"is_disabled":false,"rental_uris":{"android":"levelo://app?vid=cc6ff4bb-5e7c-4300-b646-1ab807e54573","ios":"levelo://app?vid=cc6ff4bb-5e7c-4300-b646-1ab807e54573"},"vehicle_type_id":"4","last_reported":1751955436,"current_range_meters":13600,"station_id":"ce4bhm92rcd13ifvqglg","pricing_plan_id":"cebpf4jnsgd1na2vs0mg"},{"bike_id":"386f78c8-c5d2-4a60-91a0-e89087189dc8","system_id":"levelo_inurba_marseille","lat":43.25935,"lon":5.40911,"is_reserved":false,"is_disabled":false,"rental_uris":{"android":"levelo://app?vid=386f78c8-c5d2-4a60-91a0-e89087189dc8","ios":"levelo://app?vid=386f78c8-c5d2-4a60-91a0-e89087189dc8"},"vehicle_type_id":"4","last_reported":1751955436,"current_range_meters":13600,"station_id":"ce4bhm92rcd13ifvqglg","pricing_plan_id":"cebpf4jnsgd1na2vs0mg"},{"bike_id":"2acdb97e-7ea7-4c87-9236-5d0e97f4bb9f","system_id":"levelo_inurba_marseille","lat":43.28735,"lon":5.39995,"is_reserved":false,"is_disabled":false,"rental_uris":{"android":"levelo://app?vid=2acdb97e-7ea7-4c87-9236-5d0e97f4bb9f","ios":"levelo://app?vid=2acdb97e-7ea7-4c87-9236-5d0e97f4bb9f"},"vehicle_type_id":"4","last_reported":1751955436,"current_range_meters":13600,"station_id":"ce4bho92rcd13ifvqh3g","pricing_plan_id":"cebpf4jnsgd1na2vs0mg"},{"bike_id":"e54a69bc-634c-4579-91a1-2ea1e7521c68","system_id":"levelo_inurba_marseille","lat":43.3009,"lon":5.372458,"is_reserved":false,"is_disabled":false,"rental_uris":{"android":"levelo://app?vid=e54a69bc-634c-4579-91a1-2ea1e7521c68","ios":"levelo://app?vid=e54a69bc-634c-4579-91a1-2ea1e7521c68"},"vehicle_type_id":"4","last_reported":1751955436,"current_range_meters":14000,"station_id":"","pricing_plan_id":"cebpf4jnsgd1na2vs0mg"},{"bike_id":"6ffc31bf-be63-440b-8353-4ff83386083b","system_id":"levelo_inurba_marseille","lat":43.29839,"lon":5.36401,"is_reserved":false,"is_disabled":false,"rental_uris":{"android":"levelo://app?vid=6ffc31bf-be63-440b-8353-4ff83386083b","ios":"levelo://app?vid=6ffc31bf-be63-440b-8353-4ff83386083b"},"vehicle_type_id":"4","last_reported":1751955436,"current_range_meters":14000,"station_id":"","pricing_plan_id":"cebpf4jnsgd1na2vs0mg"},{"bike_id":"ef37d4e2-0ac0-46be-951e-4995a78ba684","system_id":"levelo_inurba_marseille","lat":43.25508,"lon":5.37648,"is_reserved":false,"is_disabled":false,"rental_uris":{"android":"levelo://app?vid=ef37d4e2-0ac0-46be-951e-4995a78ba684","ios":"levelo://app?vid=ef37d4e2-0ac0-46be-951e-4995a78ba684"},"vehicle_type_id":"4","last_reported":1751955436,"current_range_meters":14000,"station_id":"ce4bhh12rcd13ifvqff0","pricing_plan_id":"cebpf4jnsgd1na2vs0mg"},{"bike_id":"4cea337e-c79d-499b-a1c7-82b06fe891cc","system_id":"levelo_inurba_marseille","lat":43.27206,"lon":5.3919,"is_reserved":false,"is_disabled":false,"rental_uris":{"android":"levelo://app?vid=4cea337e-c79d-499b-a1c7-82b06fe891cc","ios":"levelo://app?vid=4cea337e-c79d-499b-a1c7-82b06fe891cc"},"vehicle_type_id":"4","last_reported":1751955436,"current_range_meters":14000,"station_id":"ce4bhhp2rcd13ifvqfm0","pricing_plan_id":"cebpf4jnsgd1na2vs0mg"},{"bike_id":"2fe78b45-c18f-4d39-81db-0f452e878cba","system_id":"levelo_inurba_marseille","lat":43.30385,"lon":5.42491,"is_reserved":false,"is_disabled":false,"rental_uris":{"android":"levelo://app?vid=2fe78b45-c18f-4d39-81db-0f452e878cba","ios":"levelo://app?vid=2fe78b45-c18f-4d39-81db-0f452e878cba"},"vehicle_type_id":"4","last_reported":1751955436,"current_range_meters":14000,"station_id":"ce4bhoh2rcd13ifvqh6g","pricing_plan_id":"cebpf4jnsgd1na2vs0mg"},{"bike_id":"64b4fa4f-0779-4ed7-89cb-2e78d143f36e","system_id":"levelo_inurba_marseille","lat":43.21773,"lon":5.34576,"is_reserved":false,"is_disabled":false,"rental_uris":{"android":"levelo://app?vid=64b4fa4f-0779-4ed7-89cb-2e78d143f36e","ios":"levelo://app?vid=64b4fa4f-0779-4ed7-89cb-2e78d143f36e"},"vehicle_type_id":"4","last_reported":1751955436,"current_range_meters":14000,"station_id":"st_cvj6r9ubvosntc0bgbag","pricing_plan_id":"cebpf4jnsgd1na2vs0mg"},{"bike_id":"427cea64-fc3b-46a4-bd25-2bad84cd1642","system_id":"levelo_inurba_marseille","lat":43.21198,"lon":5.35062,"is_reserved":false,"is_disabled":false,"rental_uris":{"android":"levelo://app?vid=427cea64-fc3b-46a4-bd25-2bad84cd1642","ios":"levelo://app?vid=427cea64-fc3b-46a4-bd25-2bad84cd1642"},"vehicle_type_id":"4","last_reported":1751955436,"current_range_meters":14000,"station_id":"st_cvj6sg6p6f1abm77japg","pricing_plan_id":"cebpf4jnsgd1na2vs0mg"},{"bike_id":"888522e3-39b6-4ff3-ad74-ff6c6f771157","system_id":"levelo_inurba_marseille","lat":43.294992,"lon":5.402671,"is_reserved":false,"is_disabled":false,"rental_uris":{"android":"levelo://app?vid=888522e3-39b6-4ff3-ad74-ff6c6f771157","ios":"levelo://app?vid=888522e3-39b6-4ff3-ad74-ff6c6f771157"},"vehicle_type_id":"4","last_reported":1751955436,"current_range_meters":14400,"station_id":"","pricing_plan_id":"cebpf4jnsgd1na2vs0mg"},{"bike_id":"5564b255-061f-4143-b6a7-2760f2362f32","system_id":"levelo_inurba_marseille","lat":43.31365,"lon":5.36697,"is_reserved":false,"is_disabled":false,"rental_uris":{"android":"levelo://app?vid=5564b255-061f-4143-b6a7-2760f2362f32","ios":"levelo://app?vid=5564b255-061f-4143-b6a7-2760f2362f32"},"vehicle_type_id":"4","last_reported":1751955436,"current_range_meters":14400,"station_id":"ce4bgr92rcd13ifvqc6g","pricing_plan_id":"cebpf4jnsgd1na2vs0mg"},{"bike_id":"af1983df-4d92-46c3-b4e0-e3fa0798038a","system_id":"levelo_inurba_marseille","lat":43.3088,"lon":5.39666,"is_reserved":false,"is_disabled":false,"rental_uris":{"android":"levelo://app?vid=af1983df-4d92-46c3-b4e0-e3fa0798038a","ios":"levelo://app?vid=af1983df-4d92-46c3-b4e0-e3fa0798038a"},"vehicle_type_id":"4","last_reported":1751955436,"current_range_meters":14400,"station_id":"ce4bh012rcd13ifvqcv0","pricing_plan_id":"cebpf4jnsgd1na2vs0mg"},{"bike_id":"a11f7711-06b5-48d4-ad64-228f8a05b25d","system_id":"levelo_inurba_marseille","lat":43.26677,"lon":5.38263,"is_reserved":false,"is_disabled":false,"rental_uris":{"android":"levelo://app?vid=a11f7711-06b5-48d4-ad64-228f8a05b25d","ios":"levelo://app?vid=a11f7711-06b5-48d4-ad64-228f8a05b25d"},"vehicle_type_id":"4","last_reported":1751955436,"current_range_meters":14400,"station_id":"ce4bhg92rcd13ifvqf90","pricing_plan_id":"cebpf4jnsgd1na2vs0mg"},{"bike_id":"bcbe3056-9c38-4ff8-b15c-86a1f9a52cd9","system_id":"levelo_inurba_marseille","lat":43.31193,"lon":5.40172,"is_reserved":false,"is_disabled":false,"rental_uris":{"android":"levelo://app?vid=bcbe3056-9c38-4ff8-b15c-86a1f9a52cd9","ios":"levelo://app?vid=bcbe3056-9c38-4ff8-b15c-86a1f9a52cd9"},"vehicle_type_id":"4","last_reported":1751955436,"current_range_meters":14800,"station_id":"","pricing_plan_id":"cebpf4jnsgd1na2vs0mg"},{"bike_id":"6a3a3e65-1839-43d5-b574-3a73e4e32dac","system_id":"levelo_inurba_marseille","lat":43.32321,"lon":5.3887,"is_reserved":false,"is_disabled":false,"rental_uris":{"android":"levelo://app?vid=6a3a3e65-1839-43d5-b574-3a73e4e32dac","ios":"levelo://app?vid=6a3a3e65-1839-43d5-b574-3a73e4e32dac"},"vehicle_type_id":"4","last_reported":1751955436,"current_range_meters":14800,"station_id":"","pricing_plan_id":"cebpf4jnsgd1na2vs0mg"},{"bike_id":"2cb90f74-9a4c-4f60-8a3d-7b65faf8b5c3","system_id":"levelo_inurba_marseille","lat":43.26932,"lon":5.38921,"is_reserved":false,"is_disabled":false,"rental_uris":{"android":"levelo://app?vid=2cb90f74-9a4c-4f60-8a3d-7b65faf8b5c3","ios":"levelo://app?vid=2cb90f74-9a4c-4f60-8a3d-7b65faf8b5c3"},"vehicle_type_id":"4","last_reported":1751955436,"current_range_meters":14800,"station_id":"ce4bhhh2rcd13ifvqfl0","pricing_plan_id":"cebpf4jnsgd1na2vs0mg"},{"bike_id":"8c0e056d-abd2-464e-b3a5-fd410fb97ce4","system_id":"levelo_inurba_marseille","lat":43.30377,"lon":5.42481,"is_reserved":false,"is_disabled":false,"rental_uris":{"android":"levelo://app?vid=8c0e056d-abd2-464e-b3a5-fd410fb97ce4","ios":"levelo://app?vid=8c0e056d-abd2-464e-b3a5-fd410fb97ce4"},"vehicle_type_id":"4","last_reported":1751955436,"current_range_meters":14800,"station_id":"ce4bhoh2rcd13ifvqh6g","pricing_plan_id":"cebpf4jnsgd1na2vs0mg"},{"bike_id":"d5ef770d-9759-47e3-b3a5-7d2785ef76db","system_id":"levelo_inurba_marseille","lat":43.32929,"lon":5.39031,"is_reserved":false,"is_disabled":false,"rental_uris":{"android":"levelo://app?vid=d5ef770d-9759-47e3-b3a5-7d2785ef76db","ios":"levelo://app?vid=d5ef770d-9759-47e3-b3a5-7d2785ef76db"},"vehicle_type_id":"4","last_reported":1751955436,"current_range_meters":15200,"station_id":"","pricing_plan_id":"cebpf4jnsgd1na2vs0mg"},{"bike_id":"efb8b9c0-5496-4b3b-85de-f7ecb423ccf4","system_id":"levelo_inurba_marseille","lat":43.306553,"lon":5.393058,"is_reserved":false,"is_disabled":false,"rental_uris":{"android":"levelo://app?vid=efb8b9c0-5496-4b3b-85de-f7ecb423ccf4","ios":"levelo://app?vid=efb8b9c0-5496-4b3b-85de-f7ecb423ccf4"},"vehicle_type_id":"4","last_reported":1751955436,"current_range_meters":15200,"station_id":"","pricing_plan_id":"cebpf4jnsgd1na2vs0mg"},{"bike_id":"fb15c0f6-ecb9-493e-8832-bf0fae689b68","system_id":"levelo_inurba_marseille","lat":43.31111,"lon":5.37838,"is_reserved":false,"is_disabled":false,"rental_uris":{"android":"levelo://app?vid=fb15c0f6-ecb9-493e-8832-bf0fae689b68","ios":"levelo://app?vid=fb15c0f6-ecb9-493e-8832-bf0fae689b68"},"vehicle_type_id":"4","last_reported":1751955436,"current_range_meters":15200,"station_id":"ce4bgt12rcd13ifvqcd0","pricing_plan_id":"cebpf4jnsgd1na2vs0mg"},{"bike_id":"084f14d4-0bc9-446c-902e-a4f3b90135fe","system_id":"levelo_inurba_marseille","lat":43.32456,"lon":5.42876,"is_reserved":false,"is_disabled":false,"rental_uris":{"android":"levelo://app?vid=084f14d4-0bc9-446c-902e-a4f3b90135fe","ios":"levelo://app?vid=084f14d4-0bc9-446c-902e-a4f3b90135fe"},"vehicle_type_id":"4","last_reported":1751955436,"current_range_meters":16000,"station_id":"","pricing_plan_id":"cebpf4jnsgd1na2vs0mg"},{"bike_id":"9db15efa-62b5-43dc-beab-14a16c0840b9","system_id":"levelo_inurba_marseille","lat":43.304524,"lon":5.415534,"is_reserved":false,"is_disabled":false,"rental_uris":{"android":"levelo://app?vid=9db15efa-62b5-43dc-beab-14a16c0840b9","ios":"levelo://app?vid=9db15efa-62b5-43dc-beab-14a16c0840b9"},"vehicle_type_id":"4","last_reported":1751955436,"current_range_meters":16000,"station_id":"","pricing_plan_id":"cebpf4jnsgd1na2vs0mg"},{"bike_id":"13c84df3-55fc-4465-b582-17389625d267","system_id":"levelo_inurba_marseille","lat":43.26043,"lon":5.41734,"is_reserved":false,"is_disabled":false,"rental_uris":{"android":"levelo://app?vid=13c84df3-55fc-4465-b582-17389625d267","ios":"levelo://app?vid=13c84df3-55fc-4465-b582-17389625d267"},"vehicle_type_id":"4","last_reported":1751955436,"current_range_meters":16000,"station_id":"","pricing_plan_id":"cebpf4jnsgd1na2vs0mg"},{"bike_id":"356fe65c-c3d7-4d21-ba73-ad6b5da3c949","system_id":"levelo_inurba_marseille","lat":43.30164,"lon":5.38068,"is_reserved":false,"is_disabled":false,"rental_uris":{"android":"levelo://app?vid=356fe65c-c3d7-4d21-ba73-ad6b5da3c949","ios":"levelo://app?vid=356fe65c-c3d7-4d21-ba73-ad6b5da3c949"},"vehicle_type_id":"4","last_reported":1751955436,"current_range_meters":16000,"station_id":"ce4bgjp2rcd13ifvqbh0","pricing_plan_id":"cebpf4jnsgd1na2vs0mg"},{"bike_id":"d869e6f9-631d-418c-8f9a-c600b764e755","system_id":"levelo_inurba_marseille","lat":43.28501,"lon":5.38551,"is_reserved":false,"is_disabled":false,"rental_uris":{"android":"levelo://app?vid=d869e6f9-631d-418c-8f9a-c600b764e755","ios":"levelo://app?vid=d869e6f9-631d-418c-8f9a-c600b764e755"},"vehicle_type_id":"4","last_reported":1751955436,"current_range_meters":16000,"station_id":"ce4bh8p2rcd13ifvqeb0","pricing_plan_id":"cebpf4jnsgd1na2vs0mg"},{"bike_id":"51890362-46b0-4ee7-9f02-afbf036d064e","system_id":"levelo_inurba_marseille","lat":43.21193,"lon":5.35076,"is_reserved":false,"is_disabled":false,"rental_uris":{"android":"levelo://app?vid=51890362-46b0-4ee7-9f02-afbf036d064e","ios":"levelo://app?vid=51890362-46b0-4ee7-9f02-afbf036d064e"},"vehicle_type_id":"4","last_reported":1751955436,"current_range_meters":16000,"station_id":"st_cvj6sg6p6f1abm77japg","pricing_plan_id":"cebpf4jnsgd1na2vs0mg"},{"bike_id":"f5c5d48c-b7cf-48a8-84f0-a80044871d04","system_id":"levelo_inurba_marseille","lat":43.264907,"lon":5.395394,"is_reserved":false,"is_disabled":false,"rental_uris":{"android":"levelo://app?vid=f5c5d48c-b7cf-48a8-84f0-a80044871d04","ios":"levelo://app?vid=f5c5d48c-b7cf-48a8-84f0-a80044871d04"},"vehicle_type_id":"4","last_reported":1751955436,"current_range_meters":16400,"station_id":"","pricing_plan_id":"cebpf4jnsgd1na2vs0mg"},{"bike_id":"d78487cb-fa92-4db1-b4fa-56250fd7e81f","system_id":"levelo_inurba_marseille","lat":43.248821,"lon":5.393155,"is_reserved":false,"is_disabled":false,"rental_uris":{"android":"levelo://app?vid=d78487cb-fa92-4db1-b4fa-56250fd7e81f","ios":"levelo://app?vid=d78487cb-fa92-4db1-b4fa-56250fd7e81f"},"vehicle_type_id":"4","last_reported":1751955436,"current_range_meters":16400,"station_id":"","pricing_plan_id":"cebpf4jnsgd1na2vs0mg"},{"bike_id":"afd2c671-b274-4716-95f7-9abfdfc6dc55","system_id":"levelo_inurba_marseille","lat":43.31425,"lon":5.37513,"is_reserved":false,"is_disabled":false,"rental_uris":{"android":"levelo://app?vid=afd2c671-b274-4716-95f7-9abfdfc6dc55","ios":"levelo://app?vid=afd2c671-b274-4716-95f7-9abfdfc6dc55"},"vehicle_type_id":"4","last_reported":1751955436,"current_range_meters":16400,"station_id":"","pricing_plan_id":"cebpf4jnsgd1na2vs0mg"},{"bike_id":"87c2d236-4978-4760-be77-27d7f5a212e4","system_id":"levelo_inurba_marseille","lat":43.29644,"lon":5.36205,"is_reserved":false,"is_disabled":false,"rental_uris":{"android":"levelo://app?vid=87c2d236-4978-4760-be77-27d7f5a212e4","ios":"levelo://app?vid=87c2d236-4978-4760-be77-27d7f5a212e4"},"vehicle_type_id":"4","last_reported":1751955436,"current_range_meters":16400,"station_id":"","pricing_plan_id":"cebpf4jnsgd1na2vs0mg"},{"bike_id":"f55e4238-4a40-432c-9ed1-3a649d4698bf","system_id":"levelo_inurba_marseille","lat":43.31349,"lon":5.36718,"is_reserved":false,"is_disabled":false,"rental_uris":{"android":"levelo://app?vid=f55e4238-4a40-432c-9ed1-3a649d4698bf","ios":"levelo://app?vid=f55e4238-4a40-432c-9ed1-3a649d4698bf"},"vehicle_type_id":"4","last_reported":1751955436,"current_range_meters":16400,"station_id":"ce4bgr92rcd13ifvqc6g","pricing_plan_id":"cebpf4jnsgd1na2vs0mg"},{"bike_id":"b59b5bba-4c71-445b-9615-8695ec711d08","system_id":"levelo_inurba_marseille","lat":43.30556,"lon":5.36553,"is_reserved":false,"is_disabled":false,"rental_uris":{"android":"levelo://app?vid=b59b5bba-4c71-445b-9615-8695ec711d08","ios":"levelo://app?vid=b59b5bba-4c71-445b-9615-8695ec711d08"},"vehicle_type_id":"4","last_reported":1751955436,"current_range_meters":16400,"station_id":"ce4bgs12rcd13ifvqcag","pricing_plan_id":"cebpf4jnsgd1na2vs0mg"},{"bike_id":"4286ff59-2bc5-4090-a86c-8916e2e28188","system_id":"levelo_inurba_marseille","lat":43.289429,"lon":5.396292,"is_reserved":false,"is_disabled":false,"rental_uris":{"android":"levelo://app?vid=4286ff59-2bc5-4090-a86c-8916e2e28188","ios":"levelo://app?vid=4286ff59-2bc5-4090-a86c-8916e2e28188"},"vehicle_type_id":"4","last_reported":1751955436,"current_range_meters":16400,"station_id":"ce4bh3h2rcd13ifvqdn0","pricing_plan_id":"cebpf4jnsgd1na2vs0mg"},{"bike_id":"6649721b-1a91-4e50-b39b-63f5e7e53122","system_id":"levelo_inurba_marseille","lat":43.3231,"lon":5.40716,"is_reserved":false,"is_disabled":false,"rental_uris":{"android":"levelo://app?vid=6649721b-1a91-4e50-b39b-63f5e7e53122","ios":"levelo://app?vid=6649721b-1a91-4e50-b39b-63f5e7e53122"},"vehicle_type_id":"4","last_reported":1751955436,"current_range_meters":16400,"station_id":"ce4bhq92rcd13ifvqhjg","pricing_plan_id":"cebpf4jnsgd1na2vs0mg"},{"bike_id":"c1f60715-855e-4c44-99fc-f230041385ee","system_id":"levelo_inurba_marseille","lat":43.30736,"lon":5.42433,"is_reserved":false,"is_disabled":false,"rental_uris":{"android":"levelo://app?vid=c1f60715-855e-4c44-99fc-f230041385ee","ios":"levelo://app?vid=c1f60715-855e-4c44-99fc-f230041385ee"},"vehicle_type_id":"4","last_reported":1751955436,"current_range_meters":16400,"station_id":"st_cvj6ca6bvosntc0bfgr0","pricing_plan_id":"cebpf4jnsgd1na2vs0mg"},{"bike_id":"13aeacd5-5f92-40eb-9a02-92e9ec7a5e20","system_id":"levelo_inurba_marseille","lat":43.30549,"lon":5.36703,"is_reserved":false,"is_disabled":false,"rental_uris":{"android":"levelo://app?vid=13aeacd5-5f92-40eb-9a02-92e9ec7a5e20","ios":"levelo://app?vid=13aeacd5-5f92-40eb-9a02-92e9ec7a5e20"},"vehicle_type_id":"4","last_reported":1751955436,"current_range_meters":16800,"station_id":"ce4bgrp2rcd13ifvqc9g","pricing_plan_id":"cebpf4jnsgd1na2vs0mg"},{"bike_id":"111cad53-4c1d-4254-97f4-ee6f00ad1981","system_id":"levelo_inurba_marseille","lat":43.28937,"lon":5.39644,"is_reserved":false,"is_disabled":false,"rental_uris":{"android":"levelo://app?vid=111cad53-4c1d-4254-97f4-ee6f00ad1981","ios":"levelo://app?vid=111cad53-4c1d-4254-97f4-ee6f00ad1981"},"vehicle_type_id":"4","last_reported":1751955436,"current_range_meters":16800,"station_id":"ce4bh3h2rcd13ifvqdn0","pricing_plan_id":"cebpf4jnsgd1na2vs0mg"},{"bike_id":"50a98b63-cdb9-4c32-9cf1-8fa1faa113b9","system_id":"levelo_inurba_marseille","lat":43.25724,"lon":5.41113,"is_reserved":false,"is_disabled":false,"rental_uris":{"android":"levelo://app?vid=50a98b63-cdb9-4c32-9cf1-8fa1faa113b9","ios":"levelo://app?vid=50a98b63-cdb9-4c32-9cf1-8fa1faa113b9"},"vehicle_type_id":"4","last_reported":1751955436,"current_range_meters":16800,"station_id":"ce4bhkp2rcd13ifvqgd0","pricing_plan_id":"cebpf4jnsgd1na2vs0mg"},{"bike_id":"72d7b71d-d2fd-4b28-98cf-acdfa50fa372","system_id":"levelo_inurba_marseille","lat":43.307288,"lon":5.424365,"is_reserved":false,"is_disabled":false,"rental_uris":{"android":"levelo://app?vid=72d7b71d-d2fd-4b28-98cf-acdfa50fa372","ios":"levelo://app?vid=72d7b71d-d2fd-4b28-98cf-acdfa50fa372"},"vehicle_type_id":"4","last_reported":1751955436,"current_range_meters":16800,"station_id":"st_cvj6ca6bvosntc0bfgr0","pricing_plan_id":"cebpf4jnsgd1na2vs0mg"},{"bike_id":"a14dd95c-fe0e-42c3-8b46-3c57ee8a13d8","system_id":"levelo_inurba_marseille","lat":43.30137,"lon":5.37401,"is_reserved":false,"is_disabled":false,"rental_uris":{"android":"levelo://app?vid=a14dd95c-fe0e-42c3-8b46-3c57ee8a13d8","ios":"levelo://app?vid=a14dd95c-fe0e-42c3-8b46-3c57ee8a13d8"},"vehicle_type_id":"4","last_reported":1751955436,"current_range_meters":17200,"station_id":"ce4bgs92rcd13ifvqcc0","pricing_plan_id":"cebpf4jnsgd1na2vs0mg"},{"bike_id":"13644c56-40c2-4601-be4f-62fbade2142e","system_id":"levelo_inurba_marseille","lat":43.28939,"lon":5.3963,"is_reserved":false,"is_disabled":false,"rental_uris":{"android":"levelo://app?vid=13644c56-40c2-4601-be4f-62fbade2142e","ios":"levelo://app?vid=13644c56-40c2-4601-be4f-62fbade2142e"},"vehicle_type_id":"4","last_reported":1751955436,"current_range_meters":17200,"station_id":"ce4bh3h2rcd13ifvqdn0","pricing_plan_id":"cebpf4jnsgd1na2vs0mg"},{"bike_id":"d6f4e7bc-0d9e-433a-a3cf-359de038a766","system_id":"levelo_inurba_marseille","lat":43.27176,"lon":5.40998,"is_reserved":false,"is_disabled":false,"rental_uris":{"android":"levelo://app?vid=d6f4e7bc-0d9e-433a-a3cf-359de038a766","ios":"levelo://app?vid=d6f4e7bc-0d9e-433a-a3cf-359de038a766"},"vehicle_type_id":"4","last_reported":1751955436,"current_range_meters":17200,"station_id":"ce4bhl12rcd13ifvqgf0","pricing_plan_id":"cebpf4jnsgd1na2vs0mg"},{"bike_id":"0184a4d1-2dda-4a48-8767-14d4cd757c90","system_id":"levelo_inurba_marseille","lat":43.28723,"lon":5.39951,"is_reserved":false,"is_disabled":false,"rental_uris":{"android":"levelo://app?vid=0184a4d1-2dda-4a48-8767-14d4cd757c90","ios":"levelo://app?vid=0184a4d1-2dda-4a48-8767-14d4cd757c90"},"vehicle_type_id":"4","last_reported":1751955436,"current_range_meters":17200,"station_id":"ce4bho92rcd13ifvqh3g","pricing_plan_id":"cebpf4jnsgd1na2vs0mg"},{"bike_id":"e543f7b7-b3ba-459f-a37f-031fd2aac180","system_id":"levelo_inurba_marseille","lat":43.28444,"lon":5.39195,"is_reserved":false,"is_disabled":false,"rental_uris":{"android":"levelo://app?vid=e543f7b7-b3ba-459f-a37f-031fd2aac180","ios":"levelo://app?vid=e543f7b7-b3ba-459f-a37f-031fd2aac180"},"vehicle_type_id":"4","last_reported":1751955436,"current_range_meters":17200,"station_id":"ce4bhoh2rcd13ifvqh5g","pricing_plan_id":"cebpf4jnsgd1na2vs0mg"},{"bike_id":"a43b396d-9e6b-4b09-97b6-3bca14469477","system_id":"levelo_inurba_marseille","lat":43.273333,"lon":5.415361,"is_reserved":false,"is_disabled":false,"rental_uris":{"android":"levelo://app?vid=a43b396d-9e6b-4b09-97b6-3bca14469477","ios":"levelo://app?vid=a43b396d-9e6b-4b09-97b6-3bca14469477"},"vehicle_type_id":"4","last_reported":1751955436,"current_range_meters":17600,"station_id":"","pricing_plan_id":"cebpf4jnsgd1na2vs0mg"},{"bike_id":"5c8d2bc5-8e1b-41b5-979c-6e8f4511b318","system_id":"levelo_inurba_marseille","lat":43.29039,"lon":5.39994,"is_reserved":false,"is_disabled":false,"rental_uris":{"android":"levelo://app?vid=5c8d2bc5-8e1b-41b5-979c-6e8f4511b318","ios":"levelo://app?vid=5c8d2bc5-8e1b-41b5-979c-6e8f4511b318"},"vehicle_type_id":"4","last_reported":1751955436,"current_range_meters":17600,"station_id":"ce4bh392rcd13ifvqdm0","pricing_plan_id":"cebpf4jnsgd1na2vs0mg"},{"bike_id":"ea7df389-5dc0-4c58-88fe-80a5af035925","system_id":"levelo_inurba_marseille","lat":43.298402,"lon":5.364286,"is_reserved":false,"is_disabled":false,"rental_uris":{"android":"levelo://app?vid=ea7df389-5dc0-4c58-88fe-80a5af035925","ios":"levelo://app?vid=ea7df389-5dc0-4c58-88fe-80a5af035925"},"vehicle_type_id":"4","last_reported":1751955436,"current_range_meters":18000,"station_id":"","pricing_plan_id":"cebpf4jnsgd1na2vs0mg"},{"bike_id":"41b9f038-a0e9-4cd0-a7bd-13aaeef9c6c3","system_id":"levelo_inurba_marseille","lat":43.28484,"lon":5.3857,"is_reserved":false,"is_disabled":false,"rental_uris":{"android":"levelo://app?vid=41b9f038-a0e9-4cd0-a7bd-13aaeef9c6c3","ios":"levelo://app?vid=41b9f038-a0e9-4cd0-a7bd-13aaeef9c6c3"},"vehicle_type_id":"4","last_reported":1751955436,"current_range_meters":18000,"station_id":"ce4bh8p2rcd13ifvqeb0","pricing_plan_id":"cebpf4jnsgd1na2vs0mg"},{"bike_id":"94e835ab-51bf-4e08-aac8-3196f327f440","system_id":"levelo_inurba_marseille","lat":43.25526,"lon":5.37628,"is_reserved":false,"is_disabled":false,"rental_uris":{"android":"levelo://app?vid=94e835ab-51bf-4e08-aac8-3196f327f440","ios":"levelo://app?vid=94e835ab-51bf-4e08-aac8-3196f327f440"},"vehicle_type_id":"4","last_reported":1751955436,"current_range_meters":18000,"station_id":"ce4bhh12rcd13ifvqff0","pricing_plan_id":"cebpf4jnsgd1na2vs0mg"},{"bike_id":"56cb5a5d-cbee-4d6a-979e-4b924ffca4cd","system_id":"levelo_inurba_marseille","lat":43.28717,"lon":5.39989,"is_reserved":false,"is_disabled":false,"rental_uris":{"android":"levelo://app?vid=56cb5a5d-cbee-4d6a-979e-4b924ffca4cd","ios":"levelo://app?vid=56cb5a5d-cbee-4d6a-979e-4b924ffca4cd"},"vehicle_type_id":"4","last_reported":1751955436,"current_range_meters":18000,"station_id":"ce4bho92rcd13ifvqh3g","pricing_plan_id":"cebpf4jnsgd1na2vs0mg"},{"bike_id":"45b31e0b-1887-4def-b5f9-d8cd58c4e399","system_id":"levelo_inurba_marseille","lat":43.32356,"lon":5.38877,"is_reserved":false,"is_disabled":false,"rental_uris":{"android":"levelo://app?vid=45b31e0b-1887-4def-b5f9-d8cd58c4e399","ios":"levelo://app?vid=45b31e0b-1887-4def-b5f9-d8cd58c4e399"},"vehicle_type_id":"4","last_reported":1751955436,"current_range_meters":18000,"station_id":"ce4bhqp2rcd13ifvqhog","pricing_plan_id":"cebpf4jnsgd1na2vs0mg"},{"bike_id":"c9e033e9-72ba-4cb7-88e1-1e50fbc3f796","system_id":"levelo_inurba_marseille","lat":43.303179,"lon":5.40446,"is_reserved":false,"is_disabled":false,"rental_uris":{"android":"levelo://app?vid=c9e033e9-72ba-4cb7-88e1-1e50fbc3f796","ios":"levelo://app?vid=c9e033e9-72ba-4cb7-88e1-1e50fbc3f796"},"vehicle_type_id":"4","last_reported":1751955436,"current_range_meters":18800,"station_id":"ce4bh012rcd13ifvqd10","pricing_plan_id":"cebpf4jnsgd1na2vs0mg"},{"bike_id":"9d8046c7-a025-470e-8df4-66676c49a259","system_id":"levelo_inurba_marseille","lat":43.28866,"lon":5.39334,"is_reserved":false,"is_disabled":false,"rental_uris":{"android":"levelo://app?vid=9d8046c7-a025-470e-8df4-66676c49a259","ios":"levelo://app?vid=9d8046c7-a025-470e-8df4-66676c49a259"},"vehicle_type_id":"4","last_reported":1751955436,"current_range_meters":18800,"station_id":"ce4bh2p2rcd13ifvqdi0","pricing_plan_id":"cebpf4jnsgd1na2vs0mg"},{"bike_id":"6e0cb045-7a78-4a10-92d3-cbf7399a39df","system_id":"levelo_inurba_marseille","lat":43.26959,"lon":5.38654,"is_reserved":false,"is_disabled":false,"rental_uris":{"android":"levelo://app?vid=6e0cb045-7a78-4a10-92d3-cbf7399a39df","ios":"levelo://app?vid=6e0cb045-7a78-4a10-92d3-cbf7399a39df"},"vehicle_type_id":"4","last_reported":1751955436,"current_range_meters":18800,"station_id":"ce4bhh92rcd13ifvqfh0","pricing_plan_id":"cebpf4jnsgd1na2vs0mg"},{"bike_id":"533874ce-3879-4efa-a214-6ba7be8bdc8c","system_id":"levelo_inurba_marseille","lat":43.24188,"lon":5.3972,"is_reserved":false,"is_disabled":false,"rental_uris":{"android":"levelo://app?vid=533874ce-3879-4efa-a214-6ba7be8bdc8c","ios":"levelo://app?vid=533874ce-3879-4efa-a214-6ba7be8bdc8c"},"vehicle_type_id":"4","last_reported":1751955436,"current_range_meters":18800,"station_id":"ce4bhn12rcd13ifvqgpg","pricing_plan_id":"cebpf4jnsgd1na2vs0mg"},{"bike_id":"34dc5752-3635-466c-9426-3989e4d6fdf1","system_id":"levelo_inurba_marseille","lat":43.28708,"lon":5.399916,"is_reserved":false,"is_disabled":false,"rental_uris":{"android":"levelo://app?vid=34dc5752-3635-466c-9426-3989e4d6fdf1","ios":"levelo://app?vid=34dc5752-3635-466c-9426-3989e4d6fdf1"},"vehicle_type_id":"4","last_reported":1751955436,"current_range_meters":18800,"station_id":"ce4bho92rcd13ifvqh3g","pricing_plan_id":"cebpf4jnsgd1na2vs0mg"},{"bike_id":"d969e04a-6b2d-4377-91fe-736573bff1c0","system_id":"levelo_inurba_marseille","lat":43.29557,"lon":5.42287,"is_reserved":false,"is_disabled":false,"rental_uris":{"android":"levelo://app?vid=d969e04a-6b2d-4377-91fe-736573bff1c0","ios":"levelo://app?vid=d969e04a-6b2d-4377-91fe-736573bff1c0"},"vehicle_type_id":"4","last_reported":1751955436,"current_range_meters":18800,"station_id":"ce4bhph2rcd13ifvqhdg","pricing_plan_id":"cebpf4jnsgd1na2vs0mg"},{"bike_id":"b287377f-3d0b-47ac-86fe-9e0dfc1563de","system_id":"levelo_inurba_marseille","lat":43.22509,"lon":5.34764,"is_reserved":false,"is_disabled":false,"rental_uris":{"android":"levelo://app?vid=b287377f-3d0b-47ac-86fe-9e0dfc1563de","ios":"levelo://app?vid=b287377f-3d0b-47ac-86fe-9e0dfc1563de"},"vehicle_type_id":"4","last_reported":1751955436,"current_range_meters":18800,"station_id":"st_cvj5dfep6f1abm77gieg","pricing_plan_id":"cebpf4jnsgd1na2vs0mg"},{"bike_id":"80de278f-531e-4d60-b542-60c5a2e4fcc8","system_id":"levelo_inurba_marseille","lat":43.30486,"lon":5.37896,"is_reserved":false,"is_disabled":false,"rental_uris":{"android":"levelo://app?vid=80de278f-531e-4d60-b542-60c5a2e4fcc8","ios":"levelo://app?vid=80de278f-531e-4d60-b542-60c5a2e4fcc8"},"vehicle_type_id":"4","last_reported":1751955436,"current_range_meters":19200,"station_id":"ce4bgup2rcd13ifvqcn0","pricing_plan_id":"cebpf4jnsgd1na2vs0mg"},{"bike_id":"a3fdcdf8-b5b2-4037-91ca-fbaa718d041a","system_id":"levelo_inurba_marseille","lat":43.30477,"lon":5.37898,"is_reserved":false,"is_disabled":false,"rental_uris":{"android":"levelo://app?vid=a3fdcdf8-b5b2-4037-91ca-fbaa718d041a","ios":"levelo://app?vid=a3fdcdf8-b5b2-4037-91ca-fbaa718d041a"},"vehicle_type_id":"4","last_reported":1751955436,"current_range_meters":19200,"station_id":"ce4bgup2rcd13ifvqcn0","pricing_plan_id":"cebpf4jnsgd1na2vs0mg"},{"bike_id":"32c4f519-6b24-46e1-8922-f8282082f3b4","system_id":"levelo_inurba_marseille","lat":43.28682,"lon":5.38664,"is_reserved":false,"is_disabled":false,"rental_uris":{"android":"levelo://app?vid=32c4f519-6b24-46e1-8922-f8282082f3b4","ios":"levelo://app?vid=32c4f519-6b24-46e1-8922-f8282082f3b4"},"vehicle_type_id":"4","last_reported":1751955436,"current_range_meters":19200,"station_id":"ce4bh492rcd13ifvqdug","pricing_plan_id":"cebpf4jnsgd1na2vs0mg"},{"bike_id":"95b813eb-45a3-4702-91bd-2207615b8867","system_id":"levelo_inurba_marseille","lat":43.27569,"lon":5.38418,"is_reserved":false,"is_disabled":false,"rental_uris":{"android":"levelo://app?vid=95b813eb-45a3-4702-91bd-2207615b8867","ios":"levelo://app?vid=95b813eb-45a3-4702-91bd-2207615b8867"},"vehicle_type_id":"4","last_reported":1751955436,"current_range_meters":19200,"station_id":"ce4bhh92rcd13ifvqfi0","pricing_plan_id":"cebpf4jnsgd1na2vs0mg"},{"bike_id":"6f95aa3d-16f6-4202-bc85-2719195ddcb9","system_id":"levelo_inurba_marseille","lat":43.23194,"lon":5.39985,"is_reserved":false,"is_disabled":false,"rental_uris":{"android":"levelo://app?vid=6f95aa3d-16f6-4202-bc85-2719195ddcb9","ios":"levelo://app?vid=6f95aa3d-16f6-4202-bc85-2719195ddcb9"},"vehicle_type_id":"4","last_reported":1751955436,"current_range_meters":19200,"station_id":"ce4bhn12rcd13ifvqgqg","pricing_plan_id":"cebpf4jnsgd1na2vs0mg"},{"bike_id":"935e1669-ea5b-46a6-b957-0275ec0ee8ca","system_id":"levelo_inurba_marseille","lat":43.307312,"lon":5.42442,"is_reserved":false,"is_disabled":false,"rental_uris":{"android":"levelo://app?vid=935e1669-ea5b-46a6-b957-0275ec0ee8ca","ios":"levelo://app?vid=935e1669-ea5b-46a6-b957-0275ec0ee8ca"},"vehicle_type_id":"4","last_reported":1751955436,"current_range_meters":19200,"station_id":"st_cvj6ca6bvosntc0bfgr0","pricing_plan_id":"cebpf4jnsgd1na2vs0mg"},{"bike_id":"d0f90c24-dd03-411b-9731-55305f76b7c8","system_id":"levelo_inurba_marseille","lat":43.211958,"lon":5.350755,"is_reserved":false,"is_disabled":false,"rental_uris":{"android":"levelo://app?vid=d0f90c24-dd03-411b-9731-55305f76b7c8","ios":"levelo://app?vid=d0f90c24-dd03-411b-9731-55305f76b7c8"},"vehicle_type_id":"4","last_reported":1751955436,"current_range_meters":19200,"station_id":"st_cvj6sg6p6f1abm77japg","pricing_plan_id":"cebpf4jnsgd1na2vs0mg"},{"bike_id":"e4793d5e-b4cd-4c12-b9d4-446cb97752b9","system_id":"levelo_inurba_marseille","lat":43.292745,"lon":5.39054,"is_reserved":false,"is_disabled":false,"rental_uris":{"android":"levelo://app?vid=e4793d5e-b4cd-4c12-b9d4-446cb97752b9","ios":"levelo://app?vid=e4793d5e-b4cd-4c12-b9d4-446cb97752b9"},"vehicle_type_id":"4","last_reported":1751955436,"current_range_meters":19600,"station_id":"","pricing_plan_id":"cebpf4jnsgd1na2vs0mg"},{"bike_id":"51f0e6bb-8e86-4a89-9f43-3305d7779a76","system_id":"levelo_inurba_marseille","lat":43.2884,"lon":5.3937,"is_reserved":false,"is_disabled":false,"rental_uris":{"android":"levelo://app?vid=51f0e6bb-8e86-4a89-9f43-3305d7779a76","ios":"levelo://app?vid=51f0e6bb-8e86-4a89-9f43-3305d7779a76"},"vehicle_type_id":"4","last_reported":1751955436,"current_range_meters":19600,"station_id":"","pricing_plan_id":"cebpf4jnsgd1na2vs0mg"},{"bike_id":"e08d045d-0d4b-4fc7-8045-6dac0459fd0a","system_id":"levelo_inurba_marseille","lat":43.2853,"lon":5.38601,"is_reserved":false,"is_disabled":false,"rental_uris":{"android":"levelo://app?vid=e08d045d-0d4b-4fc7-8045-6dac0459fd0a","ios":"levelo://app?vid=e08d045d-0d4b-4fc7-8045-6dac0459fd0a"},"vehicle_type_id":"4","last_reported":1751955436,"current_range_meters":19600,"station_id":"","pricing_plan_id":"cebpf4jnsgd1na2vs0mg"},{"bike_id":"a5f26d1d-2497-4649-a4f2-88c926c7a084","system_id":"levelo_inurba_marseille","lat":43.30532,"lon":5.36545,"is_reserved":false,"is_disabled":false,"rental_uris":{"android":"levelo://app?vid=a5f26d1d-2497-4649-a4f2-88c926c7a084","ios":"levelo://app?vid=a5f26d1d-2497-4649-a4f2-88c926c7a084"},"vehicle_type_id":"4","last_reported":1751955436,"current_range_meters":19600,"station_id":"ce4bgs12rcd13ifvqcag","pricing_plan_id":"cebpf4jnsgd1na2vs0mg"},{"bike_id":"68ca4934-ee5a-42df-9082-329da060cc60","system_id":"levelo_inurba_marseille","lat":43.308048,"lon":5.381583,"is_reserved":false,"is_disabled":false,"rental_uris":{"android":"levelo://app?vid=68ca4934-ee5a-42df-9082-329da060cc60","ios":"levelo://app?vid=68ca4934-ee5a-42df-9082-329da060cc60"},"vehicle_type_id":"4","last_reported":1751955436,"current_range_meters":19600,"station_id":"ce4bgt12rcd13ifvqce0","pricing_plan_id":"cebpf4jnsgd1na2vs0mg"},{"bike_id":"c2b72fe0-bae6-4c7b-ad48-9e771b203dc8","system_id":"levelo_inurba_marseille","lat":43.31356,"lon":5.38455,"is_reserved":false,"is_disabled":false,"rental_uris":{"android":"levelo://app?vid=c2b72fe0-bae6-4c7b-ad48-9e771b203dc8","ios":"levelo://app?vid=c2b72fe0-bae6-4c7b-ad48-9e771b203dc8"},"vehicle_type_id":"4","last_reported":1751955436,"current_range_meters":19600,"station_id":"ce4bgt92rcd13ifvqcf0","pricing_plan_id":"cebpf4jnsgd1na2vs0mg"},{"bike_id":"8af3bab5-67ca-4001-a1bb-3e99bc14c96c","system_id":"levelo_inurba_marseille","lat":43.22945,"lon":5.35381,"is_reserved":false,"is_disabled":false,"rental_uris":{"android":"levelo://app?vid=8af3bab5-67ca-4001-a1bb-3e99bc14c96c","ios":"levelo://app?vid=8af3bab5-67ca-4001-a1bb-3e99bc14c96c"},"vehicle_type_id":"4","last_reported":1751955436,"current_range_meters":19600,"station_id":"cpo3532slgdg3j2ikp40","pricing_plan_id":"cebpf4jnsgd1na2vs0mg"},{"bike_id":"1e91cee9-7d4a-458c-9805-68ef6c30eb40","system_id":"levelo_inurba_marseille","lat":43.217491,"lon":5.346004,"is_reserved":false,"is_disabled":false,"rental_uris":{"android":"levelo://app?vid=1e91cee9-7d4a-458c-9805-68ef6c30eb40","ios":"levelo://app?vid=1e91cee9-7d4a-458c-9805-68ef6c30eb40"},"vehicle_type_id":"4","last_reported":1751955436,"current_range_meters":19600,"station_id":"st_cvj6r9ubvosntc0bgbag","pricing_plan_id":"cebpf4jnsgd1na2vs0mg"},{"bike_id":"15d1de49-23f6-461f-a54a-6e8a70eb14ae","system_id":"levelo_inurba_marseille","lat":43.30645,"lon":5.38025,"is_reserved":false,"is_disabled":false,"rental_uris":{"android":"levelo://app?vid=15d1de49-23f6-461f-a54a-6e8a70eb14ae","ios":"levelo://app?vid=15d1de49-23f6-461f-a54a-6e8a70eb14ae"},"vehicle_type_id":"4","last_reported":1751955436,"current_range_meters":20000,"station_id":"","pricing_plan_id":"cebpf4jnsgd1na2vs0mg"},{"bike_id":"5e4b110f-4f34-4a9e-a5f5-7ace7520bbd5","system_id":"levelo_inurba_marseille","lat":43.29676,"lon":5.37424,"is_reserved":false,"is_disabled":false,"rental_uris":{"android":"levelo://app?vid=5e4b110f-4f34-4a9e-a5f5-7ace7520bbd5","ios":"levelo://app?vid=5e4b110f-4f34-4a9e-a5f5-7ace7520bbd5"},"vehicle_type_id":"4","last_reported":1751955436,"current_range_meters":20000,"station_id":"","pricing_plan_id":"cebpf4jnsgd1na2vs0mg"},{"bike_id":"f5c16f07-bc6f-4121-91a7-5ad90eec4f34","system_id":"levelo_inurba_marseille","lat":43.312069,"lon":5.373209,"is_reserved":false,"is_disabled":false,"rental_uris":{"android":"levelo://app?vid=f5c16f07-bc6f-4121-91a7-5ad90eec4f34","ios":"levelo://app?vid=f5c16f07-bc6f-4121-91a7-5ad90eec4f34"},"vehicle_type_id":"4","last_reported":1751955436,"current_range_meters":20000,"station_id":"","pricing_plan_id":"cebpf4jnsgd1na2vs0mg"},{"bike_id":"8af96a2a-f34c-40b3-9977-e5776ddd9013","system_id":"levelo_inurba_marseille","lat":43.290409,"lon":5.399653,"is_reserved":false,"is_disabled":false,"rental_uris":{"android":"levelo://app?vid=8af96a2a-f34c-40b3-9977-e5776ddd9013","ios":"levelo://app?vid=8af96a2a-f34c-40b3-9977-e5776ddd9013"},"vehicle_type_id":"4","last_reported":1751955436,"current_range_meters":20000,"station_id":"ce4bh392rcd13ifvqdm0","pricing_plan_id":"cebpf4jnsgd1na2vs0mg"},{"bike_id":"2e4d3ade-770f-4470-89a2-165e1e4adb24","system_id":"levelo_inurba_marseille","lat":43.26207,"lon":5.37935,"is_reserved":false,"is_disabled":false,"rental_uris":{"android":"levelo://app?vid=2e4d3ade-770f-4470-89a2-165e1e4adb24","ios":"levelo://app?vid=2e4d3ade-770f-4470-89a2-165e1e4adb24"},"vehicle_type_id":"4","last_reported":1751955436,"current_range_meters":20000,"station_id":"ce4bhjp2rcd13ifvqg90","pricing_plan_id":"cebpf4jnsgd1na2vs0mg"},{"bike_id":"8fb5b1f9-46f3-4b81-a979-82dee99d5243","system_id":"levelo_inurba_marseille","lat":43.25924,"lon":5.40895,"is_reserved":false,"is_disabled":false,"rental_uris":{"android":"levelo://app?vid=8fb5b1f9-46f3-4b81-a979-82dee99d5243","ios":"levelo://app?vid=8fb5b1f9-46f3-4b81-a979-82dee99d5243"},"vehicle_type_id":"4","last_reported":1751955436,"current_range_meters":20000,"station_id":"ce4bhm92rcd13ifvqglg","pricing_plan_id":"cebpf4jnsgd1na2vs0mg"},{"bike_id":"ffea99c2-2d85-4c76-8297-6c3905754209","system_id":"levelo_inurba_marseille","lat":43.324743,"lon":5.365597,"is_reserved":false,"is_disabled":false,"rental_uris":{"android":"levelo://app?vid=ffea99c2-2d85-4c76-8297-6c3905754209","ios":"levelo://app?vid=ffea99c2-2d85-4c76-8297-6c3905754209"},"vehicle_type_id":"4","last_reported":1751955436,"current_range_meters":20000,"station_id":"ce4bhs12rcd13ifvqhvg","pricing_plan_id":"cebpf4jnsgd1na2vs0mg"},{"bike_id":"7f0c405c-cebd-402f-b8ba-98e46b99f50b","system_id":"levelo_inurba_marseille","lat":43.21195,"lon":5.35073,"is_reserved":false,"is_disabled":false,"rental_uris":{"android":"levelo://app?vid=7f0c405c-cebd-402f-b8ba-98e46b99f50b","ios":"levelo://app?vid=7f0c405c-cebd-402f-b8ba-98e46b99f50b"},"vehicle_type_id":"4","last_reported":1751955436,"current_range_meters":20000,"station_id":"st_cvj6sg6p6f1abm77japg","pricing_plan_id":"cebpf4jnsgd1na2vs0mg"},{"bike_id":"b757ffbb-2b71-4330-9f60-5f8a9d46d16e","system_id":"levelo_inurba_marseille","lat":43.296739,"lon":5.371039,"is_reserved":false,"is_disabled":false,"rental_uris":{"android":"levelo://app?vid=b757ffbb-2b71-4330-9f60-5f8a9d46d16e","ios":"levelo://app?vid=b757ffbb-2b71-4330-9f60-5f8a9d46d16e"},"vehicle_type_id":"4","last_reported":1751955436,"current_range_meters":20400,"station_id":"","pricing_plan_id":"cebpf4jnsgd1na2vs0mg"},{"bike_id":"6f46f84a-b007-442d-a820-0abc1a532207","system_id":"levelo_inurba_marseille","lat":43.24692,"lon":5.38912,"is_reserved":false,"is_disabled":false,"rental_uris":{"android":"levelo://app?vid=6f46f84a-b007-442d-a820-0abc1a532207","ios":"levelo://app?vid=6f46f84a-b007-442d-a820-0abc1a532207"},"vehicle_type_id":"4","last_reported":1751955436,"current_range_meters":20400,"station_id":"","pricing_plan_id":"cebpf4jnsgd1na2vs0mg"},{"bike_id":"06feb6af-5eb5-49ba-8d41-8d2f4dbe1ee1","system_id":"levelo_inurba_marseille","lat":43.2994,"lon":5.36562,"is_reserved":false,"is_disabled":false,"rental_uris":{"android":"levelo://app?vid=06feb6af-5eb5-49ba-8d41-8d2f4dbe1ee1","ios":"levelo://app?vid=06feb6af-5eb5-49ba-8d41-8d2f4dbe1ee1"},"vehicle_type_id":"4","last_reported":1751955436,"current_range_meters":20400,"station_id":"","pricing_plan_id":"cebpf4jnsgd1na2vs0mg"},{"bike_id":"4d204027-e58f-4770-9c2e-43b395582ed1","system_id":"levelo_inurba_marseille","lat":43.30927,"lon":5.40183,"is_reserved":false,"is_disabled":false,"rental_uris":{"android":"levelo://app?vid=4d204027-e58f-4770-9c2e-43b395582ed1","ios":"levelo://app?vid=4d204027-e58f-4770-9c2e-43b395582ed1"},"vehicle_type_id":"4","last_reported":1751955436,"current_range_meters":20400,"station_id":"ce4bgvp2rcd13ifvqct0","pricing_plan_id":"cebpf4jnsgd1na2vs0mg"},{"bike_id":"b0bc1f15-cea6-4065-bdcc-f30da33bb1a8","system_id":"levelo_inurba_marseille","lat":43.26213,"lon":5.37445,"is_reserved":false,"is_disabled":false,"rental_uris":{"android":"levelo://app?vid=b0bc1f15-cea6-4065-bdcc-f30da33bb1a8","ios":"levelo://app?vid=b0bc1f15-cea6-4065-bdcc-f30da33bb1a8"},"vehicle_type_id":"4","last_reported":1751955436,"current_range_meters":20400,"station_id":"ce4bhgp2rcd13ifvqfc0","pricing_plan_id":"cebpf4jnsgd1na2vs0mg"},{"bike_id":"1d6241b6-88bf-405a-83a9-613804a1ea0b","system_id":"levelo_inurba_marseille","lat":43.241694,"lon":5.397543,"is_reserved":false,"is_disabled":false,"rental_uris":{"android":"levelo://app?vid=1d6241b6-88bf-405a-83a9-613804a1ea0b","ios":"levelo://app?vid=1d6241b6-88bf-405a-83a9-613804a1ea0b"},"vehicle_type_id":"4","last_reported":1751955436,"current_range_meters":20400,"station_id":"ce4bhn12rcd13ifvqgpg","pricing_plan_id":"cebpf4jnsgd1na2vs0mg"},{"bike_id":"fb4122cd-0277-4297-8cd5-1b777b465e3e","system_id":"levelo_inurba_marseille","lat":43.240839,"lon":5.377635,"is_reserved":false,"is_disabled":false,"rental_uris":{"android":"levelo://app?vid=fb4122cd-0277-4297-8cd5-1b777b465e3e","ios":"levelo://app?vid=fb4122cd-0277-4297-8cd5-1b777b465e3e"},"vehicle_type_id":"4","last_reported":1751955436,"current_range_meters":20400,"station_id":"ce4bhnp2rcd13ifvqgvg","pricing_plan_id":"cebpf4jnsgd1na2vs0mg"},{"bike_id":"56eb3fdf-ea87-4fcf-85df-3680fa66363e","system_id":"levelo_inurba_marseille","lat":43.22509,"lon":5.34758,"is_reserved":false,"is_disabled":false,"rental_uris":{"android":"levelo://app?vid=56eb3fdf-ea87-4fcf-85df-3680fa66363e","ios":"levelo://app?vid=56eb3fdf-ea87-4fcf-85df-3680fa66363e"},"vehicle_type_id":"4","last_reported":1751955436,"current_range_meters":20400,"station_id":"st_cvj5dfep6f1abm77gieg","pricing_plan_id":"cebpf4jnsgd1na2vs0mg"},{"bike_id":"2ccfe1cc-e47f-422c-9ac9-8526f3582d76","system_id":"levelo_inurba_marseille","lat":43.3169,"lon":5.40475,"is_reserved":false,"is_disabled":false,"rental_uris":{"android":"levelo://app?vid=2ccfe1cc-e47f-422c-9ac9-8526f3582d76","ios":"levelo://app?vid=2ccfe1cc-e47f-422c-9ac9-8526f3582d76"},"vehicle_type_id":"4","last_reported":1751955436,"current_range_meters":20800,"station_id":"ce4bh012rcd13ifvqd00","pricing_plan_id":"cebpf4jnsgd1na2vs0mg"},{"bike_id":"0244d2df-71a6-4240-a272-ef5fb647f140","system_id":"levelo_inurba_marseille","lat":43.27324,"lon":5.39078,"is_reserved":false,"is_disabled":false,"rental_uris":{"android":"levelo://app?vid=0244d2df-71a6-4240-a272-ef5fb647f140","ios":"levelo://app?vid=0244d2df-71a6-4240-a272-ef5fb647f140"},"vehicle_type_id":"4","last_reported":1751955436,"current_range_meters":20800,"station_id":"ce4bhgp2rcd13ifvqfe0","pricing_plan_id":"cebpf4jnsgd1na2vs0mg"},{"bike_id":"0b211bf3-9f44-4390-8da6-cbf33516988d","system_id":"levelo_inurba_marseille","lat":43.2781,"lon":5.40726,"is_reserved":false,"is_disabled":false,"rental_uris":{"android":"levelo://app?vid=0b211bf3-9f44-4390-8da6-cbf33516988d","ios":"levelo://app?vid=0b211bf3-9f44-4390-8da6-cbf33516988d"},"vehicle_type_id":"4","last_reported":1751955436,"current_range_meters":20800,"station_id":"ce4bhnh2rcd13ifvqgtg","pricing_plan_id":"cebpf4jnsgd1na2vs0mg"},{"bike_id":"b6d9b946-f66a-4c6f-96e5-5d23e176360c","system_id":"levelo_inurba_marseille","lat":43.31315,"lon":5.38172,"is_reserved":false,"is_disabled":false,"rental_uris":{"android":"levelo://app?vid=b6d9b946-f66a-4c6f-96e5-5d23e176360c","ios":"levelo://app?vid=b6d9b946-f66a-4c6f-96e5-5d23e176360c"},"vehicle_type_id":"4","last_reported":1751955436,"current_range_meters":21600,"station_id":"","pricing_plan_id":"cebpf4jnsgd1na2vs0mg"},{"bike_id":"b2caa530-bb19-4cc6-a6bd-61e3e1d7432e","system_id":"levelo_inurba_marseille","lat":43.33763,"lon":5.37461,"is_reserved":false,"is_disabled":false,"rental_uris":{"android":"levelo://app?vid=b2caa530-bb19-4cc6-a6bd-61e3e1d7432e","ios":"levelo://app?vid=b2caa530-bb19-4cc6-a6bd-61e3e1d7432e"},"vehicle_type_id":"4","last_reported":1751955436,"current_range_meters":21600,"station_id":"","pricing_plan_id":"cebpf4jnsgd1na2vs0mg"},{"bike_id":"b4a97a51-0113-4ea9-bc38-b7f9c41c48f3","system_id":"levelo_inurba_marseille","lat":43.28668,"lon":5.36354,"is_reserved":false,"is_disabled":false,"rental_uris":{"android":"levelo://app?vid=b4a97a51-0113-4ea9-bc38-b7f9c41c48f3","ios":"levelo://app?vid=b4a97a51-0113-4ea9-bc38-b7f9c41c48f3"},"vehicle_type_id":"4","last_reported":1751955436,"current_range_meters":21600,"station_id":"ce4bhah2rcd13ifvqej0","pricing_plan_id":"cebpf4jnsgd1na2vs0mg"},{"bike_id":"cf75e0dd-a47e-440a-b8e9-ec884ad93d29","system_id":"levelo_inurba_marseille","lat":43.26567,"lon":5.39013,"is_reserved":false,"is_disabled":false,"rental_uris":{"android":"levelo://app?vid=cf75e0dd-a47e-440a-b8e9-ec884ad93d29","ios":"levelo://app?vid=cf75e0dd-a47e-440a-b8e9-ec884ad93d29"},"vehicle_type_id":"4","last_reported":1751955436,"current_range_meters":21600,"station_id":"ce4bhe12rcd13ifvqf30","pricing_plan_id":"cebpf4jnsgd1na2vs0mg"},{"bike_id":"cfadcf42-1dd0-4d71-9c6f-9bfc68f545ae","system_id":"levelo_inurba_marseille","lat":43.25123,"lon":5.40333,"is_reserved":false,"is_disabled":false,"rental_uris":{"android":"levelo://app?vid=cfadcf42-1dd0-4d71-9c6f-9bfc68f545ae","ios":"levelo://app?vid=cfadcf42-1dd0-4d71-9c6f-9bfc68f545ae"},"vehicle_type_id":"4","last_reported":1751955436,"current_range_meters":21600,"station_id":"ce4bhlh2rcd13ifvqgig","pricing_plan_id":"cebpf4jnsgd1na2vs0mg"},{"bike_id":"56c9bd01-00d3-420a-9935-0c6c3a7869e3","system_id":"levelo_inurba_marseille","lat":43.241775,"lon":5.397266,"is_reserved":false,"is_disabled":false,"rental_uris":{"android":"levelo://app?vid=56c9bd01-00d3-420a-9935-0c6c3a7869e3","ios":"levelo://app?vid=56c9bd01-00d3-420a-9935-0c6c3a7869e3"},"vehicle_type_id":"4","last_reported":1751955436,"current_range_meters":21600,"station_id":"ce4bhn12rcd13ifvqgpg","pricing_plan_id":"cebpf4jnsgd1na2vs0mg"},{"bike_id":"320f2a33-deaa-4e0a-a3d5-c39ce8ad680a","system_id":"levelo_inurba_marseille","lat":43.31564,"lon":5.37441,"is_reserved":false,"is_disabled":false,"rental_uris":{"android":"levelo://app?vid=320f2a33-deaa-4e0a-a3d5-c39ce8ad680a","ios":"levelo://app?vid=320f2a33-deaa-4e0a-a3d5-c39ce8ad680a"},"vehicle_type_id":"4","last_reported":1751955436,"current_range_meters":22000,"station_id":"","pricing_plan_id":"cebpf4jnsgd1na2vs0mg"},{"bike_id":"3e5ae229-a7f4-4369-b174-15a8529b0b50","system_id":"levelo_inurba_marseille","lat":43.286914,"lon":5.383103,"is_reserved":false,"is_disabled":false,"rental_uris":{"android":"levelo://app?vid=3e5ae229-a7f4-4369-b174-15a8529b0b50","ios":"levelo://app?vid=3e5ae229-a7f4-4369-b174-15a8529b0b50"},"vehicle_type_id":"4","last_reported":1751955436,"current_range_meters":22000,"station_id":"","pricing_plan_id":"cebpf4jnsgd1na2vs0mg"},{"bike_id":"82831a06-c670-48f5-aed0-740cfceb51ca","system_id":"levelo_inurba_marseille","lat":43.29803,"lon":5.37278,"is_reserved":false,"is_disabled":false,"rental_uris":{"android":"levelo://app?vid=82831a06-c670-48f5-aed0-740cfceb51ca","ios":"levelo://app?vid=82831a06-c670-48f5-aed0-740cfceb51ca"},"vehicle_type_id":"4","last_reported":1751955436,"current_range_meters":22000,"station_id":"","pricing_plan_id":"cebpf4jnsgd1na2vs0mg"},{"bike_id":"d947deeb-ac61-498e-9688-1c66dfbeb541","system_id":"levelo_inurba_marseille","lat":43.231856,"lon":5.399879,"is_reserved":false,"is_disabled":false,"rental_uris":{"android":"levelo://app?vid=d947deeb-ac61-498e-9688-1c66dfbeb541","ios":"levelo://app?vid=d947deeb-ac61-498e-9688-1c66dfbeb541"},"vehicle_type_id":"4","last_reported":1751955436,"current_range_meters":22000,"station_id":"ce4bhn12rcd13ifvqgqg","pricing_plan_id":"cebpf4jnsgd1na2vs0mg"},{"bike_id":"697d5fc4-b988-4a4e-8323-c1ce5ed61a61","system_id":"levelo_inurba_marseille","lat":43.21197,"lon":5.350754,"is_reserved":false,"is_disabled":false,"rental_uris":{"android":"levelo://app?vid=697d5fc4-b988-4a4e-8323-c1ce5ed61a61","ios":"levelo://app?vid=697d5fc4-b988-4a4e-8323-c1ce5ed61a61"},"vehicle_type_id":"4","last_reported":1751955436,"current_range_meters":22000,"station_id":"st_cvj6sg6p6f1abm77japg","pricing_plan_id":"cebpf4jnsgd1na2vs0mg"},{"bike_id":"5a5872c6-a97c-4e06-96d5-1828b33141df","system_id":"levelo_inurba_marseille","lat":43.31314,"lon":5.36865,"is_reserved":false,"is_disabled":false,"rental_uris":{"android":"levelo://app?vid=5a5872c6-a97c-4e06-96d5-1828b33141df","ios":"levelo://app?vid=5a5872c6-a97c-4e06-96d5-1828b33141df"},"vehicle_type_id":"4","last_reported":1751955436,"current_range_meters":22400,"station_id":"","pricing_plan_id":"cebpf4jnsgd1na2vs0mg"},{"bike_id":"688c9340-f1b0-43e5-aedc-c889c4eb2713","system_id":"levelo_inurba_marseille","lat":43.30489,"lon":5.37908,"is_reserved":false,"is_disabled":false,"rental_uris":{"android":"levelo://app?vid=688c9340-f1b0-43e5-aedc-c889c4eb2713","ios":"levelo://app?vid=688c9340-f1b0-43e5-aedc-c889c4eb2713"},"vehicle_type_id":"4","last_reported":1751955436,"current_range_meters":22400,"station_id":"ce4bgup2rcd13ifvqcn0","pricing_plan_id":"cebpf4jnsgd1na2vs0mg"},{"bike_id":"eadbf524-e453-42ce-9a76-fe11c9e01fe2","system_id":"levelo_inurba_marseille","lat":43.29191,"lon":5.39301,"is_reserved":false,"is_disabled":false,"rental_uris":{"android":"levelo://app?vid=eadbf524-e453-42ce-9a76-fe11c9e01fe2","ios":"levelo://app?vid=eadbf524-e453-42ce-9a76-fe11c9e01fe2"},"vehicle_type_id":"4","last_reported":1751955436,"current_range_meters":22400,"station_id":"ce4bh192rcd13ifvqdd0","pricing_plan_id":"cebpf4jnsgd1na2vs0mg"},{"bike_id":"fce80abe-354f-42d1-86cc-83f99a894e38","system_id":"levelo_inurba_marseille","lat":43.23156,"lon":5.43703,"is_reserved":false,"is_disabled":false,"rental_uris":{"android":"levelo://app?vid=fce80abe-354f-42d1-86cc-83f99a894e38","ios":"levelo://app?vid=fce80abe-354f-42d1-86cc-83f99a894e38"},"vehicle_type_id":"4","last_reported":1751955436,"current_range_meters":22400,"station_id":"ce4bhmp2rcd13ifvqgog","pricing_plan_id":"cebpf4jnsgd1na2vs0mg"},{"bike_id":"b28aa0a0-791c-4a08-9a16-c7bf6ea0ed5a","system_id":"levelo_inurba_marseille","lat":43.22483,"lon":5.34747,"is_reserved":false,"is_disabled":false,"rental_uris":{"android":"levelo://app?vid=b28aa0a0-791c-4a08-9a16-c7bf6ea0ed5a","ios":"levelo://app?vid=b28aa0a0-791c-4a08-9a16-c7bf6ea0ed5a"},"vehicle_type_id":"4","last_reported":1751955436,"current_range_meters":22400,"station_id":"st_cvj5dfep6f1abm77gieg","pricing_plan_id":"cebpf4jnsgd1na2vs0mg"},{"bike_id":"fd2095ad-cce6-410f-b9a7-c1db2c6b3d52","system_id":"levelo_inurba_marseille","lat":43.27635,"lon":5.36562,"is_reserved":false,"is_disabled":false,"rental_uris":{"android":"levelo://app?vid=fd2095ad-cce6-410f-b9a7-c1db2c6b3d52","ios":"levelo://app?vid=fd2095ad-cce6-410f-b9a7-c1db2c6b3d52"},"vehicle_type_id":"4","last_reported":1751955436,"current_range_meters":22800,"station_id":"","pricing_plan_id":"cebpf4jnsgd1na2vs0mg"},{"bike_id":"73f4f398-9923-4407-ace0-d3b62115565d","system_id":"levelo_inurba_marseille","lat":43.28949,"lon":5.366414,"is_reserved":false,"is_disabled":false,"rental_uris":{"android":"levelo://app?vid=73f4f398-9923-4407-ace0-d3b62115565d","ios":"levelo://app?vid=73f4f398-9923-4407-ace0-d3b62115565d"},"vehicle_type_id":"4","last_reported":1751955436,"current_range_meters":22800,"station_id":"ce4bhap2rcd13ifvqek0","pricing_plan_id":"cebpf4jnsgd1na2vs0mg"},{"bike_id":"38b37532-f4c9-43c1-a8fb-9e99f29744c0","system_id":"levelo_inurba_marseille","lat":43.279114,"lon":5.380011,"is_reserved":false,"is_disabled":false,"rental_uris":{"android":"levelo://app?vid=38b37532-f4c9-43c1-a8fb-9e99f29744c0","ios":"levelo://app?vid=38b37532-f4c9-43c1-a8fb-9e99f29744c0"},"vehicle_type_id":"4","last_reported":1751955436,"current_range_meters":22800,"station_id":"ce4bhf92rcd13ifvqf50","pricing_plan_id":"cebpf4jnsgd1na2vs0mg"},{"bike_id":"266df3b8-00d5-4034-a2ae-976152e70090","system_id":"levelo_inurba_marseille","lat":43.2407,"lon":5.37755,"is_reserved":false,"is_disabled":false,"rental_uris":{"android":"levelo://app?vid=266df3b8-00d5-4034-a2ae-976152e70090","ios":"levelo://app?vid=266df3b8-00d5-4034-a2ae-976152e70090"},"vehicle_type_id":"4","last_reported":1751955436,"current_range_meters":22800,"station_id":"ce4bhnp2rcd13ifvqgvg","pricing_plan_id":"cebpf4jnsgd1na2vs0mg"},{"bike_id":"9dba086c-d439-40c2-a2ea-92d5c27553cf","system_id":"levelo_inurba_marseille","lat":43.31995,"lon":5.38119,"is_reserved":false,"is_disabled":false,"rental_uris":{"android":"levelo://app?vid=9dba086c-d439-40c2-a2ea-92d5c27553cf","ios":"levelo://app?vid=9dba086c-d439-40c2-a2ea-92d5c27553cf"},"vehicle_type_id":"4","last_reported":1751955436,"current_range_meters":22800,"station_id":"ce4bhr12rcd13ifvqhpg","pricing_plan_id":"cebpf4jnsgd1na2vs0mg"},{"bike_id":"999f2a33-af15-4ca0-853a-d2550f2d6574","system_id":"levelo_inurba_marseille","lat":43.23438,"lon":5.35921,"is_reserved":false,"is_disabled":false,"rental_uris":{"android":"levelo://app?vid=999f2a33-af15-4ca0-853a-d2550f2d6574","ios":"levelo://app?vid=999f2a33-af15-4ca0-853a-d2550f2d6574"},"vehicle_type_id":"4","last_reported":1751955436,"current_range_meters":23200,"station_id":"","pricing_plan_id":"cebpf4jnsgd1na2vs0mg"},{"bike_id":"b0b14fd8-78fe-4c71-8173-5876ab3071ba","system_id":"levelo_inurba_marseille","lat":43.26781,"lon":5.42055,"is_reserved":false,"is_disabled":false,"rental_uris":{"android":"levelo://app?vid=b0b14fd8-78fe-4c71-8173-5876ab3071ba","ios":"levelo://app?vid=b0b14fd8-78fe-4c71-8173-5876ab3071ba"},"vehicle_type_id":"4","last_reported":1751955436,"current_range_meters":23200,"station_id":"","pricing_plan_id":"cebpf4jnsgd1na2vs0mg"},{"bike_id":"24e6a998-c0ce-4663-a8f0-26705af34ead","system_id":"levelo_inurba_marseille","lat":43.231182,"lon":5.363191,"is_reserved":false,"is_disabled":false,"rental_uris":{"android":"levelo://app?vid=24e6a998-c0ce-4663-a8f0-26705af34ead","ios":"levelo://app?vid=24e6a998-c0ce-4663-a8f0-26705af34ead"},"vehicle_type_id":"4","last_reported":1751955436,"current_range_meters":23200,"station_id":"","pricing_plan_id":"cebpf4jnsgd1na2vs0mg"},{"bike_id":"41e50321-db49-439e-8eef-a769f030c4b0","system_id":"levelo_inurba_marseille","lat":43.30536,"lon":5.36714,"is_reserved":false,"is_disabled":false,"rental_uris":{"android":"levelo://app?vid=41e50321-db49-439e-8eef-a769f030c4b0","ios":"levelo://app?vid=41e50321-db49-439e-8eef-a769f030c4b0"},"vehicle_type_id":"4","last_reported":1751955436,"current_range_meters":23200,"station_id":"ce4bgrp2rcd13ifvqc9g","pricing_plan_id":"cebpf4jnsgd1na2vs0mg"},{"bike_id":"d6c0cfce-2432-4ea4-8ade-0d46d91985ad","system_id":"levelo_inurba_marseille","lat":43.26568,"lon":5.39017,"is_reserved":false,"is_disabled":false,"rental_uris":{"android":"levelo://app?vid=d6c0cfce-2432-4ea4-8ade-0d46d91985ad","ios":"levelo://app?vid=d6c0cfce-2432-4ea4-8ade-0d46d91985ad"},"vehicle_type_id":"4","last_reported":1751955436,"current_range_meters":23200,"station_id":"ce4bhe12rcd13ifvqf30","pricing_plan_id":"cebpf4jnsgd1na2vs0mg"},{"bike_id":"626740e7-53d3-4acc-ad77-a942d4685808","system_id":"levelo_inurba_marseille","lat":43.27957,"lon":5.38702,"is_reserved":false,"is_disabled":false,"rental_uris":{"android":"levelo://app?vid=626740e7-53d3-4acc-ad77-a942d4685808","ios":"levelo://app?vid=626740e7-53d3-4acc-ad77-a942d4685808"},"vehicle_type_id":"4","last_reported":1751955436,"current_range_meters":23200,"station_id":"ce4bhg12rcd13ifvqf80","pricing_plan_id":"cebpf4jnsgd1na2vs0mg"},{"bike_id":"c6618bbf-3e24-4aa7-87cb-00392ec9dec1","system_id":"levelo_inurba_marseille","lat":43.28079,"lon":5.3966,"is_reserved":false,"is_disabled":false,"rental_uris":{"android":"levelo://app?vid=c6618bbf-3e24-4aa7-87cb-00392ec9dec1","ios":"levelo://app?vid=c6618bbf-3e24-4aa7-87cb-00392ec9dec1"},"vehicle_type_id":"4","last_reported":1751955436,"current_range_meters":23200,"station_id":"ce4bho12rcd13ifvqh2g","pricing_plan_id":"cebpf4jnsgd1na2vs0mg"},{"bike_id":"779e1734-651e-4c56-840c-6d2319b7cadb","system_id":"levelo_inurba_marseille","lat":43.323641,"lon":5.367579,"is_reserved":false,"is_disabled":false,"rental_uris":{"android":"levelo://app?vid=779e1734-651e-4c56-840c-6d2319b7cadb","ios":"levelo://app?vid=779e1734-651e-4c56-840c-6d2319b7cadb"},"vehicle_type_id":"4","last_reported":1751955436,"current_range_meters":23200,"station_id":"ce4bhsh2rcd13ifvqi2g","pricing_plan_id":"cebpf4jnsgd1na2vs0mg"},{"bike_id":"efe3ca83-178b-4ee1-aaef-f0644ff1a0e7","system_id":"levelo_inurba_marseille","lat":43.30492,"lon":5.36671,"is_reserved":false,"is_disabled":false,"rental_uris":{"android":"levelo://app?vid=efe3ca83-178b-4ee1-aaef-f0644ff1a0e7","ios":"levelo://app?vid=efe3ca83-178b-4ee1-aaef-f0644ff1a0e7"},"vehicle_type_id":"4","last_reported":1751955436,"current_range_meters":24000,"station_id":"","pricing_plan_id":"cebpf4jnsgd1na2vs0mg"},{"bike_id":"093c6075-fb95-4ea5-ae3c-9ebd2aedeaa8","system_id":"levelo_inurba_marseille","lat":43.31394,"lon":5.36679,"is_reserved":false,"is_disabled":false,"rental_uris":{"android":"levelo://app?vid=093c6075-fb95-4ea5-ae3c-9ebd2aedeaa8","ios":"levelo://app?vid=093c6075-fb95-4ea5-ae3c-9ebd2aedeaa8"},"vehicle_type_id":"4","last_reported":1751955436,"current_range_meters":24000,"station_id":"ce4bgr92rcd13ifvqc6g","pricing_plan_id":"cebpf4jnsgd1na2vs0mg"},{"bike_id":"b6b60340-c6d3-4b40-b12e-da9a0f0a7d3d","system_id":"levelo_inurba_marseille","lat":43.31072,"lon":5.38344,"is_reserved":false,"is_disabled":false,"rental_uris":{"android":"levelo://app?vid=b6b60340-c6d3-4b40-b12e-da9a0f0a7d3d","ios":"levelo://app?vid=b6b60340-c6d3-4b40-b12e-da9a0f0a7d3d"},"vehicle_type_id":"4","last_reported":1751955436,"current_range_meters":24000,"station_id":"ce4bgv92rcd13ifvqcr0","pricing_plan_id":"cebpf4jnsgd1na2vs0mg"},{"bike_id":"f093648c-2d90-4297-8340-63ca90ab5afb","system_id":"levelo_inurba_marseille","lat":43.29278,"lon":5.4012,"is_reserved":false,"is_disabled":false,"rental_uris":{"android":"levelo://app?vid=f093648c-2d90-4297-8340-63ca90ab5afb","ios":"levelo://app?vid=f093648c-2d90-4297-8340-63ca90ab5afb"},"vehicle_type_id":"4","last_reported":1751955436,"current_range_meters":24000,"station_id":"ce4bh312rcd13ifvqdk0","pricing_plan_id":"cebpf4jnsgd1na2vs0mg"},{"bike_id":"61d4b071-bbb3-4234-992a-05940746145a","system_id":"levelo_inurba_marseille","lat":43.29034,"lon":5.39969,"is_reserved":false,"is_disabled":false,"rental_uris":{"android":"levelo://app?vid=61d4b071-bbb3-4234-992a-05940746145a","ios":"levelo://app?vid=61d4b071-bbb3-4234-992a-05940746145a"},"vehicle_type_id":"4","last_reported":1751955436,"current_range_meters":24000,"station_id":"ce4bh392rcd13ifvqdm0","pricing_plan_id":"cebpf4jnsgd1na2vs0mg"},