{"last_updated":1717621657,"ttl":30,"version":"2.2","data":{"bikes":[{"bike_id":"a2b4433a-c93f-47bf-a36c-b3a18ca93878","system_id":"levelo_inurba_marseille","lat":43.312239,"lon":5.368562,"is_reserved":false,"is_disabled":false,"rental_uris":{"android":"levelo://app?vid=a2b4433a-c93f-47bf-a36c-b3a18ca93878","ios":"levelo://app?vid=a2b4433a-c93f-47bf-a36c-b3a18ca93878"},"vehicle_type_id":"4","last_reported":1717621657,"current_range_meters":9200,"station_id":"ce4bgl92rcd13ifvqbq0","pricing_plan_id":"cebpf4jnsgd1na2vs0mg"},{"bike_id":"a9976196-6a8d-45d6-951e-b6230e79f7ec","system_id":"levelo_inurba_marseille","lat":43.309076,"lon":5.368465,"is_reserved":false,"is_disabled":false,"rental_uris":{"android":"levelo://app?vid=a9976196-6a8d-45d6-951e-b6230e79f7ec","ios":"levelo://app?vid=a9976196-6a8d-45d6-951e-b6230e79f7ec"},"vehicle_type_id":"4","last_reported":1717621657,"current_range_meters":0,"station_id":"ce4bgn92rcd13ifvqbvg","pricing_plan_id":"cebpf4jnsgd1na2vs0mg"},{"bike_id":"5a6f45d3-0df9-455c-824a-fe3de43b7b51","system_id":"levelo_inurba_marseille","lat":43.314811,"lon":5.373103,"is_reserved":false,"is_disabled":false,"rental_uris":{"android":"levelo://app?vid=5a6f45d3-0df9-455c-824a-fe3de43b7b51","ios":"levelo://app?vid=5a6f45d3-0df9-455c-824a-fe3de43b7b51"},"vehicle_type_id":"4","last_reported":1717621657,"current_range_meters":18400,"station_id":"ce4bgt12rcd13ifvqcd0","pricing_plan_id":"cebpf4jnsgd1na2vs0mg"},{"bike_id":"80722a53-f412-4e5e-ba8b-c7e88573a08e","system_id":"levelo_inurba_marseille","lat":43.314811,"lon":5.373103,"is_reserved":false,"is_disabled":false,"rental_uris":{"android":"levelo://app?vid=80722a53-f412-4e5e-ba8b-c7e88573a08e","ios":"levelo://app?vid=80722a53-f412-4e5e-ba8b-c7e88573a08e"},"vehicle_type_id":"4","last_reported":1717621657,"current_range_meters":20800,"station_id":"ce4bgt12rcd13ifvqcd0","pricing_plan_id":"cebpf4jnsgd1na2vs0mg"},{"bike_id":"e8486014-12ff-4773-92aa-06e18bf03406","system_id":"levelo_inurba_marseille","lat":43.314811,"lon":5.373103,"is_reserved":false,"is_disabled":false,"rental_uris":{"android":"levelo://app?vid=e8486014-12ff-4773-92aa-06e18bf03406","ios":"levelo://app?vid=e8486014-12ff-4773-92aa-06e18bf03406"},"vehicle_type_id":"4","last_reported":1717621657,"current_range_meters":3600,"station_id":"ce4bgt12rcd13ifvqcd0","pricing_plan_id":"cebpf4jnsgd1na2vs0mg"},{"bike_id":"440cccc1-047b-438b-902c-42b5fa3f0ef3","system_id":"levelo_inurba_marseille","lat":43.314811,"lon":5.373104,"is_reserved":false,"is_disabled":false,"rental_uris":{"android":"levelo://app?vid=440cccc1-047b-438b-902c-42b5fa3f0ef3","ios":"levelo://app?vid=440cccc1-047b-438b-902c-42b5fa3f0ef3"},"vehicle_type_id":"4","last_reported":1717621657,"current_range_meters":10800,"station_id":"ce4bgt12rcd13ifvqcd0","pricing_plan_id":"cebpf4jnsgd1na2vs0mg"},{"bike_id":"54fd7f8b-1448-49e4-9e47-306f52021b99","system_id":"levelo_inurba_marseille","lat":43.31497,"lon":5.37313,"is_reserved":false,"is_disabled":false,"rental_uris":{"android":"levelo://app?vid=54fd7f8b-1448-49e4-9e47-306f52021b99","ios":"levelo://app?vid=54fd7f8b-1448-49e4-9e47-306f52021b99"},"vehicle_type_id":"4","last_reported":1717621657,"current_range_meters":0,"station_id":"ce4bgt12rcd13ifvqcd0","pricing_plan_id":"cebpf4jnsgd1na2vs0mg"},{"bike_id":"3852dd7b-707b-4858-98d4-7499590656c2","system_id":"levelo_inurba_marseille","lat":43.30887,"lon":5.3719,"is_reserved":false,"is_disabled":false,"rental_uris":{"android":"levelo://app?vid=3852dd7b-707b-4858-98d4-7499590656c2","ios":"levelo://app?vid=3852dd7b-707b-4858-98d4-7499590656c2"},"vehicle_type_id":"4","last_reported":1717621657,"current_range_meters":6000,"station_id":"ce4bguh2rcd13ifvqckg","pricing_plan_id":"cebpf4jnsgd1na2vs0mg"},{"bike_id":"c4df676b-4714-4b30-b956-d897135df9d7","system_id":"levelo_inurba_marseille","lat":43.309034,"lon":5.371783,"is_reserved":false,"is_disabled":false,"rental_uris":{"android":"levelo://app?vid=c4df676b-4714-4b30-b956-d897135df9d7","ios":"levelo://app?vid=c4df676b-4714-4b30-b956-d897135df9d7"},"vehicle_type_id":"4","last_reported":1717621657,"current_range_meters":17600,"station_id":"ce4bguh2rcd13ifvqckg","pricing_plan_id":"cebpf4jnsgd1na2vs0mg"},{"bike_id":"19d91229-05e7-4e02-ace4-7c7621ecc49c","system_id":"levelo_inurba_marseille","lat":43.31572,"lon":5.37432,"is_reserved":false,"is_disabled":false,"rental_uris":{"android":"levelo://app?vid=19d91229-05e7-4e02-ace4-7c7621ecc49c","ios":"levelo://app?vid=19d91229-05e7-4e02-ace4-7c7621ecc49c"},"vehicle_type_id":"4","last_reported":1717621657,"current_range_meters":5200,"station_id":"","pricing_plan_id":"cebpf4jnsgd1na2vs0mg"},{"bike_id":"21073a1f-cd8b-4ce8-a186-35152ebaf081","system_id":"levelo_inurba_marseille","lat":43.30533,"lon":5.36705,"is_reserved":false,"is_disabled":false,"rental_uris":{"android":"levelo://app?vid=21073a1f-cd8b-4ce8-a186-35152ebaf081","ios":"levelo://app?vid=21073a1f-cd8b-4ce8-a186-35152ebaf081"},"vehicle_type_id":"4","last_reported":1717621657,"current_range_meters":15600,"station_id":"ce4bgrp2rcd13ifvqc9g","pricing_plan_id":"cebpf4jnsgd1na2vs0mg"},{"bike_id":"3ca28871-f452-4b09-aba2-5bb109f46998","system_id":"levelo_inurba_marseille","lat":43.306102,"lon":5.372147,"is_reserved":false,"is_disabled":false,"rental_uris":{"android":"levelo://app?vid=3ca28871-f452-4b09-aba2-5bb109f46998","ios":"levelo://app?vid=3ca28871-f452-4b09-aba2-5bb109f46998"},"vehicle_type_id":"4","last_reported":1717621657,"current_range_meters":0,"station_id":"ce4bgqh2rcd13ifvqc4g","pricing_plan_id":"cebpf4jnsgd1na2vs0mg"},{"bike_id":"8b1e9964-fd98-4da8-9d72-f6a53ce354f7","system_id":"levelo_inurba_marseille","lat":43.305989,"lon":5.37225,"is_reserved":false,"is_disabled":false,"rental_uris":{"android":"levelo://app?vid=8b1e9964-fd98-4da8-9d72-f6a53ce354f7","ios":"levelo://app?vid=8b1e9964-fd98-4da8-9d72-f6a53ce354f7"},"vehicle_type_id":"4","last_reported":1717621657,"current_range_meters":26800,"station_id":"ce4bgqh2rcd13ifvqc4g","pricing_plan_id":"cebpf4jnsgd1na2vs0mg"},{"bike_id":"31337110-fe45-4d18-a6b1-0d1d1c4f6278","system_id":"levelo_inurba_marseille","lat":43.305989,"lon":5.37225,"is_reserved":false,"is_disabled":false,"rental_uris":{"android":"levelo://app?vid=31337110-fe45-4d18-a6b1-0d1d1c4f6278","ios":"levelo://app?vid=31337110-fe45-4d18-a6b1-0d1d1c4f6278"},"vehicle_type_id":"4","last_reported":1717621657,"current_range_meters":26000,"station_id":"ce4bgqh2rcd13ifvqc4g","pricing_plan_id":"cebpf4jnsgd1na2vs0mg"},{"bike_id":"60430027-01c5-4efc-a97e-593443dfb1a5","system_id":"levelo_inurba_marseille","lat":43.30603,"lon":5.37225,"is_reserved":false,"is_disabled":false,"rental_uris":{"android":"levelo://app?vid=60430027-01c5-4efc-a97e-593443dfb1a5","ios":"levelo://app?vid=60430027-01c5-4efc-a97e-593443dfb1a5"},"vehicle_type_id":"4","last_reported":1717621657,"current_range_meters":16000,"station_id":"ce4bgqh2rcd13ifvqc4g","pricing_plan_id":"cebpf4jnsgd1na2vs0mg"},{"bike_id":"1174479a-8341-4710-bafa-fd61541ad89a","system_id":"levelo_inurba_marseille","lat":43.305989,"lon":5.37225,"is_reserved":false,"is_disabled":false,"rental_uris":{"android":"levelo://app?vid=1174479a-8341-4710-bafa-fd61541ad89a","ios":"levelo://app?vid=1174479a-8341-4710-bafa-fd61541ad89a"},"vehicle_type_id":"4","last_reported":1717621657,"current_range_meters":12800,"station_id":"ce4bgqh2rcd13ifvqc4g","pricing_plan_id":"cebpf4jnsgd1na2vs0mg"},{"bike_id":"ef90bd4b-5702-4a76-a071-0530132e346a","system_id":"levelo_inurba_marseille","lat":43.31115,"lon":5.37769,"is_reserved":false,"is_disabled":false,"rental_uris":{"android":"levelo://app?vid=ef90bd4b-5702-4a76-a071-0530132e346a","ios":"levelo://app?vid=ef90bd4b-5702-4a76-a071-0530132e346a"},"vehicle_type_id":"4","last_reported":1717621657,"current_range_meters":2800,"station_id":"ce4bgt92rcd13ifvqcg0","pricing_plan_id":"cebpf4jnsgd1na2vs0mg"},{"bike_id":"4150f4c8-0dfa-4ad3-ad5b-11a881d0054a","system_id":"levelo_inurba_marseille","lat":43.311125,"lon":5.377624,"is_reserved":false,"is_disabled":false,"rental_uris":{"android":"levelo://app?vid=4150f4c8-0dfa-4ad3-ad5b-11a881d0054a","ios":"levelo://app?vid=4150f4c8-0dfa-4ad3-ad5b-11a881d0054a"},"vehicle_type_id":"4","last_reported":1717621657,"current_range_meters":26400,"station_id":"ce4bgt92rcd13ifvqcg0","pricing_plan_id":"cebpf4jnsgd1na2vs0mg"},{"bike_id":"b6df039e-d559-4b16-a175-2a8c6af0a09c","system_id":"levelo_inurba_marseille","lat":43.311131,"lon":5.377651,"is_reserved":false,"is_disabled":false,"rental_uris":{"android":"levelo://app?vid=b6df039e-d559-4b16-a175-2a8c6af0a09c","ios":"levelo://app?vid=b6df039e-d559-4b16-a175-2a8c6af0a09c"},"vehicle_type_id":"4","last_reported":1717621657,"current_range_meters":13600,"station_id":"ce4bgt92rcd13ifvqcg0","pricing_plan_id":"cebpf4jnsgd1na2vs0mg"},{"bike_id":"30a9aa8c-1827-4af4-a0fc-1ffcc82f4dd3","system_id":"levelo_inurba_marseille","lat":43.31118,"lon":5.37778,"is_reserved":false,"is_disabled":false,"rental_uris":{"android":"levelo://app?vid=30a9aa8c-1827-4af4-a0fc-1ffcc82f4dd3","ios":"levelo://app?vid=30a9aa8c-1827-4af4-a0fc-1ffcc82f4dd3"},"vehicle_type_id":"4","last_reported":1717621657,"current_range_meters":16800,"station_id":"ce4bgt92rcd13ifvqcg0","pricing_plan_id":"cebpf4jnsgd1na2vs0mg"},{"bike_id":"60483125-ec16-4b52-8a85-4e9e91305588","system_id":"levelo_inurba_marseille","lat":43.31117,"lon":5.3778,"is_reserved":false,"is_disabled":false,"rental_uris":{"android":"levelo://app?vid=60483125-ec16-4b52-8a85-4e9e91305588","ios":"levelo://app?vid=60483125-ec16-4b52-8a85-4e9e91305588"},"vehicle_type_id":"4","last_reported":1717621657,"current_range_meters":14000,"station_id":"ce4bgt92rcd13ifvqcg0","pricing_plan_id":"cebpf4jnsgd1na2vs0mg"},{"bike_id":"5ef00ee6-a047-46fa-999e-3b3182004a23","system_id":"levelo_inurba_marseille","lat":43.307945,"lon":5.376487,"is_reserved":false,"is_disabled":false,"rental_uris":{"android":"levelo://app?vid=5ef00ee6-a047-46fa-999e-3b3182004a23","ios":"levelo://app?vid=5ef00ee6-a047-46fa-999e-3b3182004a23"},"vehicle_type_id":"4","last_reported":1717621657,"current_range_meters":7600,"station_id":"ce4bgv92rcd13ifvqcq0","pricing_plan_id":"cebpf4jnsgd1na2vs0mg"},{"bike_id":"3926aa11-212d-4e71-92e8-5ca4b186bd2e","system_id":"levelo_inurba_marseille","lat":43.307945,"lon":5.376487,"is_reserved":false,"is_disabled":false,"rental_uris":{"android":"levelo://app?vid=3926aa11-212d-4e71-92e8-5ca4b186bd2e","ios":"levelo://app?vid=3926aa11-212d-4e71-92e8-5ca4b186bd2e"},"vehicle_type_id":"4","last_reported":1717621657,"current_range_meters":5600,"station_id":"ce4bgv92rcd13ifvqcq0","pricing_plan_id":"cebpf4jnsgd1na2vs0mg"},{"bike_id":"bc01b7bc-9e5f-4bec-8249-6df84fbcf9db","system_id":"levelo_inurba_marseille","lat":43.307945,"lon":5.376487,"is_reserved":false,"is_disabled":false,"rental_uris":{"android":"levelo://app?vid=bc01b7bc-9e5f-4bec-8249-6df84fbcf9db","ios":"levelo://app?vid=bc01b7bc-9e5f-4bec-8249-6df84fbcf9db"},"vehicle_type_id":"4","last_reported":1717621657,"current_range_meters":29200,"station_id":"ce4bgv92rcd13ifvqcq0","pricing_plan_id":"cebpf4jnsgd1na2vs0mg"},{"bike_id":"b331fd2d-9518-40fd-9968-4cd3e9e695d7","system_id":"levelo_inurba_marseille","lat":43.307945,"lon":5.376487,"is_reserved":false,"is_disabled":false,"rental_uris":{"android":"levelo://app?vid=b331fd2d-9518-40fd-9968-4cd3e9e695d7","ios":"levelo://app?vid=b331fd2d-9518-40fd-9968-4cd3e9e695d7"},"vehicle_type_id":"4","last_reported":1717621657,"current_range_meters":31200,"station_id":"ce4bgv92rcd13ifvqcq0","pricing_plan_id":"cebpf4jnsgd1na2vs0mg"},{"bike_id":"6a9412cd-5d0c-47ec-9a3c-01e8d9b2c766","system_id":"levelo_inurba_marseille","lat":43.307945,"lon":5.376487,"is_reserved":false,"is_disabled":false,"rental_uris":{"android":"levelo://app?vid=6a9412cd-5d0c-47ec-9a3c-01e8d9b2c766","ios":"levelo://app?vid=6a9412cd-5d0c-47ec-9a3c-01e8d9b2c766"},"vehicle_type_id":"4","last_reported":1717621657,"current_range_meters":31200,"station_id":"ce4bgv92rcd13ifvqcq0","pricing_plan_id":"cebpf4jnsgd1na2vs0mg"},{"bike_id":"785183f8-2c93-4f34-8b1c-dd894a4c7c68","system_id":"levelo_inurba_marseille","lat":43.307945,"lon":5.376487,"is_reserved":false,"is_disabled":false,"rental_uris":{"android":"levelo://app?vid=785183f8-2c93-4f34-8b1c-dd894a4c7c68","ios":"levelo://app?vid=785183f8-2c93-4f34-8b1c-dd894a4c7c68"},"vehicle_type_id":"4","last_reported":1717621657,"current_range_meters":26400,"station_id":"ce4bgv92rcd13ifvqcq0","pricing_plan_id":"cebpf4jnsgd1na2vs0mg"},{"bike_id":"064bb7df-bf07-4a63-8449-12ca5b4c8a8e","system_id":"levelo_inurba_marseille","lat":43.307945,"lon":5.376487,"is_reserved":false,"is_disabled":false,"rental_uris":{"android":"levelo://app?vid=064bb7df-bf07-4a63-8449-12ca5b4c8a8e","ios":"levelo://app?vid=064bb7df-bf07-4a63-8449-12ca5b4c8a8e"},"vehicle_type_id":"4","last_reported":1717621657,"current_range_meters":22400,"station_id":"ce4bgv92rcd13ifvqcq0","pricing_plan_id":"cebpf4jnsgd1na2vs0mg"},{"bike_id":"d8906e7d-5bcd-420a-9af1-098e12984e36","system_id":"levelo_inurba_marseille","lat":43.307945,"lon":5.376487,"is_reserved":false,"is_disabled":false,"rental_uris":{"android":"levelo://app?vid=d8906e7d-5bcd-420a-9af1-098e12984e36","ios":"levelo://app?vid=d8906e7d-5bcd-420a-9af1-098e12984e36"},"vehicle_type_id":"4","last_reported":1717621657,"current_range_meters":7200,"station_id":"ce4bgv92rcd13ifvqcq0","pricing_plan_id":"cebpf4jnsgd1na2vs0mg"},{"bike_id":"dacc96cb-5f6c-439b-9a53-e9450c4f312f","system_id":"levelo_inurba_marseille","lat":43.307945,"lon":5.376487,"is_reserved":false,"is_disabled":false,"rental_uris":{"android":"levelo://app?vid=dacc96cb-5f6c-439b-9a53-e9450c4f312f","ios":"levelo://app?vid=dacc96cb-5f6c-439b-9a53-e9450c4f312f"},"vehicle_type_id":"4","last_reported":1717621657,"current_range_meters":9200,"station_id":"ce4bgv92rcd13ifvqcq0","pricing_plan_id":"cebpf4jnsgd1na2vs0mg"},{"bike_id":"ac0425ae-edd9-4dd8-84a8-51563198dc11","system_id":"levelo_inurba_marseille","lat":43.317075,"lon":5.377367,"is_reserved":false,"is_disabled":false,"rental_uris":{"android":"levelo://app?vid=ac0425ae-edd9-4dd8-84a8-51563198dc11","ios":"levelo://app?vid=ac0425ae-edd9-4dd8-84a8-51563198dc11"},"vehicle_type_id":"4","last_reported":1717621657,"current_range_meters":10400,"station_id":"ce4bgth2rcd13ifvqch0","pricing_plan_id":"cebpf4jnsgd1na2vs0mg"},{"bike_id":"15910e77-e4de-4856-8699-a4395ae8219e","system_id":"levelo_inurba_marseille","lat":43.303046,"lon":5.368981,"is_reserved":false,"is_disabled":false,"rental_uris":{"android":"levelo://app?vid=15910e77-e4de-4856-8699-a4395ae8219e","ios":"levelo://app?vid=15910e77-e4de-4856-8699-a4395ae8219e"},"vehicle_type_id":"4","last_reported":1717621657,"current_range_meters":5200,"station_id":"ce4bgqh2rcd13ifvqc5g","pricing_plan_id":"cebpf4jnsgd1na2vs0mg"},{"bike_id":"74da898d-415a-4521-9572-db0d661dea07","system_id":"levelo_inurba_marseille","lat":43.315289,"lon":5.380349,"is_reserved":false,"is_disabled":false,"rental_uris":{"android":"levelo://app?vid=74da898d-415a-4521-9572-db0d661dea07","ios":"levelo://app?vid=74da898d-415a-4521-9572-db0d661dea07"},"vehicle_type_id":"4","last_reported":1717621657,"current_range_meters":31200,"station_id":"ce4bhsp2rcd13ifvqi50","pricing_plan_id":"cebpf4jnsgd1na2vs0mg"},{"bike_id":"c8c7bd3e-98a0-4b22-961a-01db41d59cd6","system_id":"levelo_inurba_marseille","lat":43.315293,"lon":5.380349,"is_reserved":false,"is_disabled":false,"rental_uris":{"android":"levelo://app?vid=c8c7bd3e-98a0-4b22-961a-01db41d59cd6","ios":"levelo://app?vid=c8c7bd3e-98a0-4b22-961a-01db41d59cd6"},"vehicle_type_id":"4","last_reported":1717621657,"current_range_meters":10000,"station_id":"ce4bhsp2rcd13ifvqi50","pricing_plan_id":"cebpf4jnsgd1na2vs0mg"},{"bike_id":"a0feb078-5fb5-492e-9339-45f80d532253","system_id":"levelo_inurba_marseille","lat":43.308012,"lon":5.381511,"is_reserved":false,"is_disabled":false,"rental_uris":{"android":"levelo://app?vid=a0feb078-5fb5-492e-9339-45f80d532253","ios":"levelo://app?vid=a0feb078-5fb5-492e-9339-45f80d532253"},"vehicle_type_id":"4","last_reported":1717621657,"current_range_meters":18400,"station_id":"ce4bgt12rcd13ifvqce0","pricing_plan_id":"cebpf4jnsgd1na2vs0mg"},{"bike_id":"92939f24-cec5-4f3f-ac61-fad38fa7b8d3","system_id":"levelo_inurba_marseille","lat":43.308012,"lon":5.381511,"is_reserved":false,"is_disabled":false,"rental_uris":{"android":"levelo://app?vid=92939f24-cec5-4f3f-ac61-fad38fa7b8d3","ios":"levelo://app?vid=92939f24-cec5-4f3f-ac61-fad38fa7b8d3"},"vehicle_type_id":"4","last_reported":1717621657,"current_range_meters":9600,"station_id":"ce4bgt12rcd13ifvqce0","pricing_plan_id":"cebpf4jnsgd1na2vs0mg"},{"bike_id":"2ee7d019-54c6-49d3-9ddc-d21560268437","system_id":"levelo_inurba_marseille","lat":43.308063,"lon":5.381616,"is_reserved":false,"is_disabled":false,"rental_uris":{"android":"levelo://app?vid=2ee7d019-54c6-49d3-9ddc-d21560268437","ios":"levelo://app?vid=2ee7d019-54c6-49d3-9ddc-d21560268437"},"vehicle_type_id":"4","last_reported":1717621657,"current_range_meters":2400,"station_id":"ce4bgt12rcd13ifvqce0","pricing_plan_id":"cebpf4jnsgd1na2vs0mg"},{"bike_id":"87930f8a-257e-4e26-aa52-aca594ed7879","system_id":"levelo_inurba_marseille","lat":43.308012,"lon":5.381511,"is_reserved":false,"is_disabled":false,"rental_uris":{"android":"levelo://app?vid=87930f8a-257e-4e26-aa52-aca594ed7879","ios":"levelo://app?vid=87930f8a-257e-4e26-aa52-aca594ed7879"},"vehicle_type_id":"4","last_reported":1717621657,"current_range_meters":6800,"station_id":"ce4bgt12rcd13ifvqce0","pricing_plan_id":"cebpf4jnsgd1na2vs0mg"},{"bike_id":"03625dd3-5e5f-4683-8bc0-39ee2186cd6b","system_id":"levelo_inurba_marseille","lat":43.308012,"lon":5.381511,"is_reserved":false,"is_disabled":false,"rental_uris":{"android":"levelo://app?vid=03625dd3-5e5f-4683-8bc0-39ee2186cd6b","ios":"levelo://app?vid=03625dd3-5e5f-4683-8bc0-39ee2186cd6b"},"vehicle_type_id":"4","last_reported":1717621657,"current_range_meters":23600,"station_id":"ce4bgt12rcd13ifvqce0","pricing_plan_id":"cebpf4jnsgd1na2vs0mg"},{"bike_id":"08f380e3-c045-4084-b41e-eeaf59f44581","system_id":"levelo_inurba_marseille","lat":43.308012,"lon":5.381511,"is_reserved":false,"is_disabled":false,"rental_uris":{"android":"levelo://app?vid=08f380e3-c045-4084-b41e-eeaf59f44581","ios":"levelo://app?vid=08f380e3-c045-4084-b41e-eeaf59f44581"},"vehicle_type_id":"4","last_reported":1717621657,"current_range_meters":15600,"station_id":"ce4bgt12rcd13ifvqce0","pricing_plan_id":"cebpf4jnsgd1na2vs0mg"},{"bike_id":"1aacd71c-846f-4a36-a447-d583352add96","system_id":"levelo_inurba_marseille","lat":43.30796,"lon":5.38157,"is_reserved":false,"is_disabled":false,"rental_uris":{"android":"levelo://app?vid=1aacd71c-846f-4a36-a447-d583352add96","ios":"levelo://app?vid=1aacd71c-846f-4a36-a447-d583352add96"},"vehicle_type_id":"4","last_reported":1717621657,"current_range_meters":24800,"station_id":"ce4bgt12rcd13ifvqce0","pricing_plan_id":"cebpf4jnsgd1na2vs0mg"},{"bike_id":"998dc0d0-4356-4a2e-9009-f7fc8bd68622","system_id":"levelo_inurba_marseille","lat":43.308012,"lon":5.381511,"is_reserved":false,"is_disabled":false,"rental_uris":{"android":"levelo://app?vid=998dc0d0-4356-4a2e-9009-f7fc8bd68622","ios":"levelo://app?vid=998dc0d0-4356-4a2e-9009-f7fc8bd68622"},"vehicle_type_id":"4","last_reported":1717621657,"current_range_meters":5200,"station_id":"ce4bgt12rcd13ifvqce0","pricing_plan_id":"cebpf4jnsgd1na2vs0mg"},{"bike_id":"002b3250-dbda-49ca-89ca-921def12b805","system_id":"levelo_inurba_marseille","lat":43.308012,"lon":5.381511,"is_reserved":false,"is_disabled":false,"rental_uris":{"android":"levelo://app?vid=002b3250-dbda-49ca-89ca-921def12b805","ios":"levelo://app?vid=002b3250-dbda-49ca-89ca-921def12b805"},"vehicle_type_id":"4","last_reported":1717621657,"current_range_meters":7600,"station_id":"ce4bgt12rcd13ifvqce0","pricing_plan_id":"cebpf4jnsgd1na2vs0mg"},{"bike_id":"6b1ddafc-a817-4b94-989a-5072fe3f204b","system_id":"levelo_inurba_marseille","lat":43.308012,"lon":5.381511,"is_reserved":false,"is_disabled":false,"rental_uris":{"android":"levelo://app?vid=6b1ddafc-a817-4b94-989a-5072fe3f204b","ios":"levelo://app?vid=6b1ddafc-a817-4b94-989a-5072fe3f204b"},"vehicle_type_id":"4","last_reported":1717621657,"current_range_meters":24800,"station_id":"ce4bgt12rcd13ifvqce0","pricing_plan_id":"cebpf4jnsgd1na2vs0mg"},{"bike_id":"859e149a-28ed-47f2-8b43-aa3b6d220ae8","system_id":"levelo_inurba_marseille","lat":43.308012,"lon":5.381511,"is_reserved":false,"is_disabled":false,"rental_uris":{"android":"levelo://app?vid=859e149a-28ed-47f2-8b43-aa3b6d220ae8","ios":"levelo://app?vid=859e149a-28ed-47f2-8b43-aa3b6d220ae8"},"vehicle_type_id":"4","last_reported":1717621657,"current_range_meters":20400,"station_id":"ce4bgt12rcd13ifvqce0","pricing_plan_id":"cebpf4jnsgd1na2vs0mg"},{"bike_id":"2ed0284d-a67b-4069-87a2-7462232e30ff","system_id":"levelo_inurba_marseille","lat":43.308012,"lon":5.381511,"is_reserved":false,"is_disabled":false,"rental_uris":{"android":"levelo://app?vid=2ed0284d-a67b-4069-87a2-7462232e30ff","ios":"levelo://app?vid=2ed0284d-a67b-4069-87a2-7462232e30ff"},"vehicle_type_id":"4","last_reported":1717621657,"current_range_meters":2400,"station_id":"ce4bgt12rcd13ifvqce0","pricing_plan_id":"cebpf4jnsgd1na2vs0mg"},{"bike_id":"9799c6c2-c24c-4ac8-b29b-2a876292a058","system_id":"levelo_inurba_marseille","lat":43.308012,"lon":5.381511,"is_reserved":false,"is_disabled":false,"rental_uris":{"android":"levelo://app?vid=9799c6c2-c24c-4ac8-b29b-2a876292a058","ios":"levelo://app?vid=9799c6c2-c24c-4ac8-b29b-2a876292a058"},"vehicle_type_id":"4","last_reported":1717621657,"current_range_meters":15200,"station_id":"ce4bgt12rcd13ifvqce0","pricing_plan_id":"cebpf4jnsgd1na2vs0mg"},{"bike_id":"a9da963e-e882-46d6-83f6-f5c087cf86ad","system_id":"levelo_inurba_marseille","lat":43.304606,"lon":5.379026,"is_reserved":false,"is_disabled":false,"rental_uris":{"android":"levelo://app?vid=a9da963e-e882-46d6-83f6-f5c087cf86ad","ios":"levelo://app?vid=a9da963e-e882-46d6-83f6-f5c087cf86ad"},"vehicle_type_id":"4","last_reported":1717621657,"current_range_meters":20000,"station_id":"ce4bgup2rcd13ifvqcn0","pricing_plan_id":"cebpf4jnsgd1na2vs0mg"},{"bike_id":"03b7753a-df92-489d-aefe-2f8ba0a37b2e","system_id":"levelo_inurba_marseille","lat":43.324771,"lon":5.36557,"is_reserved":false,"is_disabled":false,"rental_uris":{"android":"levelo://app?vid=03b7753a-df92-489d-aefe-2f8ba0a37b2e","ios":"levelo://app?vid=03b7753a-df92-489d-aefe-2f8ba0a37b2e"},"vehicle_type_id":"4","last_reported":1717621657,"current_range_meters":3600,"station_id":"ce4bhs12rcd13ifvqhvg","pricing_plan_id":"cebpf4jnsgd1na2vs0mg"},{"bike_id":"3c3f000b-4ee3-4766-b865-cd5d0e604b06","system_id":"levelo_inurba_marseille","lat":43.324771,"lon":5.36557,"is_reserved":false,"is_disabled":false,"rental_uris":{"android":"levelo://app?vid=3c3f000b-4ee3-4766-b865-cd5d0e604b06","ios":"levelo://app?vid=3c3f000b-4ee3-4766-b865-cd5d0e604b06"},"vehicle_type_id":"4","last_reported":1717621657,"current_range_meters":14000,"station_id":"ce4bhs12rcd13ifvqhvg","pricing_plan_id":"cebpf4jnsgd1na2vs0mg"},{"bike_id":"b7fa8f81-5e5b-4808-8507-f7586caf403a","system_id":"levelo_inurba_marseille","lat":43.3108,"lon":5.3835,"is_reserved":false,"is_disabled":false,"rental_uris":{"android":"levelo://app?vid=b7fa8f81-5e5b-4808-8507-f7586caf403a","ios":"levelo://app?vid=b7fa8f81-5e5b-4808-8507-f7586caf403a"},"vehicle_type_id":"4","last_reported":1717621657,"current_range_meters":0,"station_id":"ce4bgv92rcd13ifvqcr0","pricing_plan_id":"cebpf4jnsgd1na2vs0mg"},{"bike_id":"569c08aa-f880-4b72-b1b6-ae22baaf0e5f","system_id":"levelo_inurba_marseille","lat":43.310804,"lon":5.38359,"is_reserved":false,"is_disabled":false,"rental_uris":{"android":"levelo://app?vid=569c08aa-f880-4b72-b1b6-ae22baaf0e5f","ios":"levelo://app?vid=569c08aa-f880-4b72-b1b6-ae22baaf0e5f"},"vehicle_type_id":"4","last_reported":1717621657,"current_range_meters":24800,"station_id":"ce4bgv92rcd13ifvqcr0","pricing_plan_id":"cebpf4jnsgd1na2vs0mg"},{"bike_id":"2c0d4cfc-83ee-419b-b6fa-5edf123d6d28","system_id":"levelo_inurba_marseille","lat":43.310804,"lon":5.38359,"is_reserved":false,"is_disabled":false,"rental_uris":{"android":"levelo://app?vid=2c0d4cfc-83ee-419b-b6fa-5edf123d6d28","ios":"levelo://app?vid=2c0d4cfc-83ee-419b-b6fa-5edf123d6d28"},"vehicle_type_id":"4","last_reported":1717621657,"current_range_meters":6400,"station_id":"ce4bgv92rcd13ifvqcr0","pricing_plan_id":"cebpf4jnsgd1na2vs0mg"},{"bike_id":"2b17ee5f-957f-412a-8df7-98c904592a7c","system_id":"levelo_inurba_marseille","lat":43.30284,"lon":5.37689,"is_reserved":false,"is_disabled":false,"rental_uris":{"android":"levelo://app?vid=2b17ee5f-957f-412a-8df7-98c904592a7c","ios":"levelo://app?vid=2b17ee5f-957f-412a-8df7-98c904592a7c"},"vehicle_type_id":"4","last_reported":1717621657,"current_range_meters":0,"station_id":"ce4bguh2rcd13ifvqcj0","pricing_plan_id":"cebpf4jnsgd1na2vs0mg"},{"bike_id":"f23f6729-8c86-48dd-89a8-cf58459e65a7","system_id":"levelo_inurba_marseille","lat":43.310804,"lon":5.38359,"is_reserved":false,"is_disabled":false,"rental_uris":{"android":"levelo://app?vid=f23f6729-8c86-48dd-89a8-cf58459e65a7","ios":"levelo://app?vid=f23f6729-8c86-48dd-89a8-cf58459e65a7"},"vehicle_type_id":"4","last_reported":1717621657,"current_range_meters":18400,"station_id":"ce4bgv92rcd13ifvqcr0","pricing_plan_id":"cebpf4jnsgd1na2vs0mg"},{"bike_id":"b8f21a67-2898-4aa3-8507-f25e4081d878","system_id":"levelo_inurba_marseille","lat":43.310804,"lon":5.38359,"is_reserved":false,"is_disabled":false,"rental_uris":{"android":"levelo://app?vid=b8f21a67-2898-4aa3-8507-f25e4081d878","ios":"levelo://app?vid=b8f21a67-2898-4aa3-8507-f25e4081d878"},"vehicle_type_id":"4","last_reported":1717621657,"current_range_meters":29200,"station_id":"ce4bgv92rcd13ifvqcr0","pricing_plan_id":"cebpf4jnsgd1na2vs0mg"},{"bike_id":"f429d4be-3e33-44ab-98b7-13997040413a","system_id":"levelo_inurba_marseille","lat":43.30143,"lon":5.37413,"is_reserved":false,"is_disabled":false,"rental_uris":{"android":"levelo://app?vid=f429d4be-3e33-44ab-98b7-13997040413a","ios":"levelo://app?vid=f429d4be-3e33-44ab-98b7-13997040413a"},"vehicle_type_id":"4","last_reported":1717621657,"current_range_meters":16800,"station_id":"ce4bgs92rcd13ifvqcc0","pricing_plan_id":"cebpf4jnsgd1na2vs0mg"},{"bike_id":"bf889b79-eeb5-4f78-bea7-298187369439","system_id":"levelo_inurba_marseille","lat":43.301429,"lon":5.37413,"is_reserved":false,"is_disabled":false,"rental_uris":{"android":"levelo://app?vid=bf889b79-eeb5-4f78-bea7-298187369439","ios":"levelo://app?vid=bf889b79-eeb5-4f78-bea7-298187369439"},"vehicle_type_id":"4","last_reported":1717621657,"current_range_meters":400,"station_id":"ce4bgs92rcd13ifvqcc0","pricing_plan_id":"cebpf4jnsgd1na2vs0mg"},{"bike_id":"71755a22-e7dd-48d5-a7ba-147a02c92c29","system_id":"levelo_inurba_marseille","lat":43.301429,"lon":5.37413,"is_reserved":false,"is_disabled":false,"rental_uris":{"android":"levelo://app?vid=71755a22-e7dd-48d5-a7ba-147a02c92c29","ios":"levelo://app?vid=71755a22-e7dd-48d5-a7ba-147a02c92c29"},"vehicle_type_id":"4","last_reported":1717621657,"current_range_meters":4400,"station_id":"ce4bgs92rcd13ifvqcc0","pricing_plan_id":"cebpf4jnsgd1na2vs0mg"},{"bike_id":"66568d27-c5bc-4880-a34c-cd55f7dc7d91","system_id":"levelo_inurba_marseille","lat":43.302784,"lon":5.377158,"is_reserved":false,"is_disabled":false,"rental_uris":{"android":"levelo://app?vid=66568d27-c5bc-4880-a34c-cd55f7dc7d91","ios":"levelo://app?vid=66568d27-c5bc-4880-a34c-cd55f7dc7d91"},"vehicle_type_id":"4","last_reported":1717621657,"current_range_meters":16400,"station_id":"ce4bguh2rcd13ifvqcj0","pricing_plan_id":"cebpf4jnsgd1na2vs0mg"},{"bike_id":"4d691500-8fff-4b66-a151-07613f4b52a0","system_id":"levelo_inurba_marseille","lat":43.302784,"lon":5.377158,"is_reserved":false,"is_disabled":false,"rental_uris":{"android":"levelo://app?vid=4d691500-8fff-4b66-a151-07613f4b52a0","ios":"levelo://app?vid=4d691500-8fff-4b66-a151-07613f4b52a0"},"vehicle_type_id":"4","last_reported":1717621657,"current_range_meters":30000,"station_id":"ce4bguh2rcd13ifvqcj0","pricing_plan_id":"cebpf4jnsgd1na2vs0mg"},{"bike_id":"7b69f5fa-df6e-4676-9a70-c12ddc514d70","system_id":"levelo_inurba_marseille","lat":43.30255,"lon":5.37732,"is_reserved":false,"is_disabled":false,"rental_uris":{"android":"levelo://app?vid=7b69f5fa-df6e-4676-9a70-c12ddc514d70","ios":"levelo://app?vid=7b69f5fa-df6e-4676-9a70-c12ddc514d70"},"vehicle_type_id":"4","last_reported":1717621657,"current_range_meters":12000,"station_id":"ce4bguh2rcd13ifvqcj0","pricing_plan_id":"cebpf4jnsgd1na2vs0mg"},{"bike_id":"4022a4f5-39a2-4e92-9263-b490d67dda0f","system_id":"levelo_inurba_marseille","lat":43.319935,"lon":5.381699,"is_reserved":false,"is_disabled":false,"rental_uris":{"android":"levelo://app?vid=4022a4f5-39a2-4e92-9263-b490d67dda0f","ios":"levelo://app?vid=4022a4f5-39a2-4e92-9263-b490d67dda0f"},"vehicle_type_id":"4","last_reported":1717621657,"current_range_meters":8400,"station_id":"ce4bhr12rcd13ifvqhpg","pricing_plan_id":"cebpf4jnsgd1na2vs0mg"},{"bike_id":"7f38d5a9-4c42-4d5b-97db-6be940f2659e","system_id":"levelo_inurba_marseille","lat":43.319935,"lon":5.381699,"is_reserved":false,"is_disabled":false,"rental_uris":{"android":"levelo://app?vid=7f38d5a9-4c42-4d5b-97db-6be940f2659e","ios":"levelo://app?vid=7f38d5a9-4c42-4d5b-97db-6be940f2659e"},"vehicle_type_id":"4","last_reported":1717621657,"current_range_meters":0,"station_id":"ce4bhr12rcd13ifvqhpg","pricing_plan_id":"cebpf4jnsgd1na2vs0mg"},{"bike_id":"60f50dd9-9f70-46ef-a380-1a985824a0d4","system_id":"levelo_inurba_marseille","lat":43.31373,"lon":5.38491,"is_reserved":false,"is_disabled":false,"rental_uris":{"android":"levelo://app?vid=60f50dd9-9f70-46ef-a380-1a985824a0d4","ios":"levelo://app?vid=60f50dd9-9f70-46ef-a380-1a985824a0d4"},"vehicle_type_id":"4","last_reported":1717621657,"current_range_meters":0,"station_id":"ce4bgt92rcd13ifvqcf0","pricing_plan_id":"cebpf4jnsgd1na2vs0mg"},{"bike_id":"db28ae38-f162-424c-941e-fe290f1a72af","system_id":"levelo_inurba_marseille","lat":43.313571,"lon":5.384829,"is_reserved":false,"is_disabled":false,"rental_uris":{"android":"levelo://app?vid=db28ae38-f162-424c-941e-fe290f1a72af","ios":"levelo://app?vid=db28ae38-f162-424c-941e-fe290f1a72af"},"vehicle_type_id":"4","last_reported":1717621657,"current_range_meters":28400,"station_id":"ce4bgt92rcd13ifvqcf0","pricing_plan_id":"cebpf4jnsgd1na2vs0mg"},{"bike_id":"078725a7-042a-4617-919c-966b235d0477","system_id":"levelo_inurba_marseille","lat":43.299724,"lon":5.371829,"is_reserved":false,"is_disabled":false,"rental_uris":{"android":"levelo://app?vid=078725a7-042a-4617-919c-966b235d0477","ios":"levelo://app?vid=078725a7-042a-4617-919c-966b235d0477"},"vehicle_type_id":"4","last_reported":1717621657,"current_range_meters":16000,"station_id":"ce4bgr92rcd13ifvqc7g","pricing_plan_id":"cebpf4jnsgd1na2vs0mg"},{"bike_id":"b75d746f-e72a-4996-afad-a59f94a86e9f","system_id":"levelo_inurba_marseille","lat":43.299222,"lon":5.365554,"is_reserved":false,"is_disabled":false,"rental_uris":{"android":"levelo://app?vid=b75d746f-e72a-4996-afad-a59f94a86e9f","ios":"levelo://app?vid=b75d746f-e72a-4996-afad-a59f94a86e9f"},"vehicle_type_id":"4","last_reported":1717621657,"current_range_meters":23200,"station_id":"ce4bgm92rcd13ifvqbr0","pricing_plan_id":"cebpf4jnsgd1na2vs0mg"},{"bike_id":"26387676-d524-4162-a40c-bf1ab4fefbad","system_id":"levelo_inurba_marseille","lat":43.29971,"lon":5.37176,"is_reserved":false,"is_disabled":false,"rental_uris":{"android":"levelo://app?vid=26387676-d524-4162-a40c-bf1ab4fefbad","ios":"levelo://app?vid=26387676-d524-4162-a40c-bf1ab4fefbad"},"vehicle_type_id":"4","last_reported":1717621657,"current_range_meters":9600,"station_id":"ce4bgr92rcd13ifvqc7g","pricing_plan_id":"cebpf4jnsgd1na2vs0mg"},{"bike_id":"ec28aa12-6016-437b-af92-e9f0a3a8ca85","system_id":"levelo_inurba_marseille","lat":43.313571,"lon":5.384829,"is_reserved":false,"is_disabled":false,"rental_uris":{"android":"levelo://app?vid=ec28aa12-6016-437b-af92-e9f0a3a8ca85","ios":"levelo://app?vid=ec28aa12-6016-437b-af92-e9f0a3a8ca85"},"vehicle_type_id":"4","last_reported":1717621657,"current_range_meters":0,"station_id":"ce4bgt92rcd13ifvqcf0","pricing_plan_id":"cebpf4jnsgd1na2vs0mg"},{"bike_id":"5ebfdd82-8435-4868-b3b7-db3887383a60","system_id":"levelo_inurba_marseille","lat":43.29854,"lon":5.36285,"is_reserved":false,"is_disabled":false,"rental_uris":{"android":"levelo://app?vid=5ebfdd82-8435-4868-b3b7-db3887383a60","ios":"levelo://app?vid=5ebfdd82-8435-4868-b3b7-db3887383a60"},"vehicle_type_id":"4","last_reported":1717621657,"current_range_meters":0,"station_id":"ce4bgpp2rcd13ifvqc3g","pricing_plan_id":"cebpf4jnsgd1na2vs0mg"},{"bike_id":"eb8358ca-8129-440f-acba-4ef95cee0c01","system_id":"levelo_inurba_marseille","lat":43.29852,"lon":5.36286,"is_reserved":false,"is_disabled":false,"rental_uris":{"android":"levelo://app?vid=eb8358ca-8129-440f-acba-4ef95cee0c01","ios":"levelo://app?vid=eb8358ca-8129-440f-acba-4ef95cee0c01"},"vehicle_type_id":"4","last_reported":1717621657,"current_range_meters":0,"station_id":"ce4bgpp2rcd13ifvqc3g","pricing_plan_id":"cebpf4jnsgd1na2vs0mg"},{"bike_id":"4c082d1a-070a-4f97-8ece-029ef8566b4e","system_id":"levelo_inurba_marseille","lat":43.30539,"lon":5.38418,"is_reserved":false,"is_disabled":false,"rental_uris":{"android":"levelo://app?vid=4c082d1a-070a-4f97-8ece-029ef8566b4e","ios":"levelo://app?vid=4c082d1a-070a-4f97-8ece-029ef8566b4e"},"vehicle_type_id":"4","last_reported":1717621657,"current_range_meters":16400,"station_id":"ce4bgg92rcd13ifvqb30","pricing_plan_id":"cebpf4jnsgd1na2vs0mg"},{"bike_id":"6368fba0-548f-4b3e-a3de-7feb3a1c51d7","system_id":"levelo_inurba_marseille","lat":43.305364,"lon":5.384119,"is_reserved":false,"is_disabled":false,"rental_uris":{"android":"levelo://app?vid=6368fba0-548f-4b3e-a3de-7feb3a1c51d7","ios":"levelo://app?vid=6368fba0-548f-4b3e-a3de-7feb3a1c51d7"},"vehicle_type_id":"4","last_reported":1717621657,"current_range_meters":26400,"station_id":"ce4bgg92rcd13ifvqb30","pricing_plan_id":"cebpf4jnsgd1na2vs0mg"},{"bike_id":"b99a2ee8-3714-425b-8e34-227f77afab18","system_id":"levelo_inurba_marseille","lat":43.305465,"lon":5.38426,"is_reserved":false,"is_disabled":false,"rental_uris":{"android":"levelo://app?vid=b99a2ee8-3714-425b-8e34-227f77afab18","ios":"levelo://app?vid=b99a2ee8-3714-425b-8e34-227f77afab18"},"vehicle_type_id":"4","last_reported":1717621657,"current_range_meters":8800,"station_id":"ce4bgg92rcd13ifvqb30","pricing_plan_id":"cebpf4jnsgd1na2vs0mg"},{"bike_id":"0bd56887-b09d-4deb-bd22-e0ae63831ef6","system_id":"levelo_inurba_marseille","lat":43.30549,"lon":5.38429,"is_reserved":false,"is_disabled":false,"rental_uris":{"android":"levelo://app?vid=0bd56887-b09d-4deb-bd22-e0ae63831ef6","ios":"levelo://app?vid=0bd56887-b09d-4deb-bd22-e0ae63831ef6"},"vehicle_type_id":"4","last_reported":1717621657,"current_range_meters":8400,"station_id":"ce4bgg92rcd13ifvqb30","pricing_plan_id":"cebpf4jnsgd1na2vs0mg"},{"bike_id":"750bd5f4-b1cb-4e9c-9bff-92ff5b4ac424","system_id":"levelo_inurba_marseille","lat":43.298433,"lon":5.362774,"is_reserved":false,"is_disabled":false,"rental_uris":{"android":"levelo://app?vid=750bd5f4-b1cb-4e9c-9bff-92ff5b4ac424","ios":"levelo://app?vid=750bd5f4-b1cb-4e9c-9bff-92ff5b4ac424"},"vehicle_type_id":"4","last_reported":1717621657,"current_range_meters":22000,"station_id":"ce4bgpp2rcd13ifvqc3g","pricing_plan_id":"cebpf4jnsgd1na2vs0mg"},{"bike_id":"7e8a9f06-f2cd-4e52-aded-da3e9b3fa4f7","system_id":"levelo_inurba_marseille","lat":43.305368,"lon":5.3842,"is_reserved":false,"is_disabled":false,"rental_uris":{"android":"levelo://app?vid=7e8a9f06-f2cd-4e52-aded-da3e9b3fa4f7","ios":"levelo://app?vid=7e8a9f06-f2cd-4e52-aded-da3e9b3fa4f7"},"vehicle_type_id":"4","last_reported":1717621657,"current_range_meters":0,"station_id":"ce4bgg92rcd13ifvqb30","pricing_plan_id":"cebpf4jnsgd1na2vs0mg"},{"bike_id":"c4187267-39cc-4c03-ae06-5c8c6a878282","system_id":"levelo_inurba_marseille","lat":43.305364,"lon":5.384119,"is_reserved":false,"is_disabled":false,"rental_uris":{"android":"levelo://app?vid=c4187267-39cc-4c03-ae06-5c8c6a878282","ios":"levelo://app?vid=c4187267-39cc-4c03-ae06-5c8c6a878282"},"vehicle_type_id":"4","last_reported":1717621657,"current_range_meters":4800,"station_id":"ce4bgg92rcd13ifvqb30","pricing_plan_id":"cebpf4jnsgd1na2vs0mg"},{"bike_id":"be679425-1cd4-43ec-8d82-951d437b7ab9","system_id":"levelo_inurba_marseille","lat":43.305364,"lon":5.384119,"is_reserved":false,"is_disabled":false,"rental_uris":{"android":"levelo://app?vid=be679425-1cd4-43ec-8d82-951d437b7ab9","ios":"levelo://app?vid=be679425-1cd4-43ec-8d82-951d437b7ab9"},"vehicle_type_id":"4","last_reported":1717621657,"current_range_meters":20000,"station_id":"ce4bgg92rcd13ifvqb30","pricing_plan_id":"cebpf4jnsgd1na2vs0mg"},{"bike_id":"650d43ec-3f89-4e92-9e10-67c8c30ebf63","system_id":"levelo_inurba_marseille","lat":43.299243,"lon":5.374807,"is_reserved":false,"is_disabled":false,"rental_uris":{"android":"levelo://app?vid=650d43ec-3f89-4e92-9e10-67c8c30ebf63","ios":"levelo://app?vid=650d43ec-3f89-4e92-9e10-67c8c30ebf63"},"vehicle_type_id":"4","last_reported":1717621657,"current_range_meters":12800,"station_id":"ce4bgjh2rcd13ifvqbg0","pricing_plan_id":"cebpf4jnsgd1na2vs0mg"},{"bike_id":"442cc88e-35c2-4092-b35c-8d7dab092b13","system_id":"levelo_inurba_marseille","lat":43.305377,"lon":5.384303,"is_reserved":false,"is_disabled":false,"rental_uris":{"android":"levelo://app?vid=442cc88e-35c2-4092-b35c-8d7dab092b13","ios":"levelo://app?vid=442cc88e-35c2-4092-b35c-8d7dab092b13"},"vehicle_type_id":"4","last_reported":1717621657,"current_range_meters":28000,"station_id":"ce4bgg92rcd13ifvqb30","pricing_plan_id":"cebpf4jnsgd1na2vs0mg"},{"bike_id":"1e42208b-cb08-450c-9f95-4e832daf2870","system_id":"levelo_inurba_marseille","lat":43.305364,"lon":5.384119,"is_reserved":false,"is_disabled":false,"rental_uris":{"android":"levelo://app?vid=1e42208b-cb08-450c-9f95-4e832daf2870","ios":"levelo://app?vid=1e42208b-cb08-450c-9f95-4e832daf2870"},"vehicle_type_id":"4","last_reported":1717621657,"current_range_meters":12400,"station_id":"ce4bgg92rcd13ifvqb30","pricing_plan_id":"cebpf4jnsgd1na2vs0mg"},{"bike_id":"1adeb738-4e23-4cd4-a7ce-3cda0f1e6176","system_id":"levelo_inurba_marseille","lat":43.298433,"lon":5.362774,"is_reserved":false,"is_disabled":false,"rental_uris":{"android":"levelo://app?vid=1adeb738-4e23-4cd4-a7ce-3cda0f1e6176","ios":"levelo://app?vid=1adeb738-4e23-4cd4-a7ce-3cda0f1e6176"},"vehicle_type_id":"4","last_reported":1717621657,"current_range_meters":16800,"station_id":"ce4bgpp2rcd13ifvqc3g","pricing_plan_id":"cebpf4jnsgd1na2vs0mg"},{"bike_id":"0dacfdf9-249f-44b5-87ed-d59d160b6698","system_id":"levelo_inurba_marseille","lat":43.311703,"lon":5.387063,"is_reserved":false,"is_disabled":false,"rental_uris":{"android":"levelo://app?vid=0dacfdf9-249f-44b5-87ed-d59d160b6698","ios":"levelo://app?vid=0dacfdf9-249f-44b5-87ed-d59d160b6698"},"vehicle_type_id":"4","last_reported":1717621657,"current_range_meters":0,"station_id":"ce4bgv12rcd13ifvqcp0","pricing_plan_id":"cebpf4jnsgd1na2vs0mg"},{"bike_id":"a9fddae9-f849-45ea-85f6-61d4b4494ce7","system_id":"levelo_inurba_marseille","lat":43.311855,"lon":5.387082,"is_reserved":false,"is_disabled":false,"rental_uris":{"android":"levelo://app?vid=a9fddae9-f849-45ea-85f6-61d4b4494ce7","ios":"levelo://app?vid=a9fddae9-f849-45ea-85f6-61d4b4494ce7"},"vehicle_type_id":"4","last_reported":1717621657,"current_range_meters":0,"station_id":"ce4bgv12rcd13ifvqcp0","pricing_plan_id":"cebpf4jnsgd1na2vs0mg"},{"bike_id":"9b22b4a2-5d64-4ba6-ba30-1fb0bab5bceb","system_id":"levelo_inurba_marseille","lat":43.31173,"lon":5.387205,"is_reserved":false,"is_disabled":false,"rental_uris":{"android":"levelo://app?vid=9b22b4a2-5d64-4ba6-ba30-1fb0bab5bceb","ios":"levelo://app?vid=9b22b4a2-5d64-4ba6-ba30-1fb0bab5bceb"},"vehicle_type_id":"4","last_reported":1717621657,"current_range_meters":23600,"station_id":"ce4bgv12rcd13ifvqcp0","pricing_plan_id":"cebpf4jnsgd1na2vs0mg"},{"bike_id":"5fb54028-cb1c-421f-890f-368c25bf1108","system_id":"levelo_inurba_marseille","lat":43.299243,"lon":5.37481,"is_reserved":false,"is_disabled":false,"rental_uris":{"android":"levelo://app?vid=5fb54028-cb1c-421f-890f-368c25bf1108","ios":"levelo://app?vid=5fb54028-cb1c-421f-890f-368c25bf1108"},"vehicle_type_id":"4","last_reported":1717621657,"current_range_meters":11200,"station_id":"ce4bgjh2rcd13ifvqbg0","pricing_plan_id":"cebpf4jnsgd1na2vs0mg"},{"bike_id":"6eabf6c3-cab9-46af-a7be-e401ab418c7a","system_id":"levelo_inurba_marseille","lat":43.31167,"lon":5.38725,"is_reserved":false,"is_disabled":false,"rental_uris":{"android":"levelo://app?vid=6eabf6c3-cab9-46af-a7be-e401ab418c7a","ios":"levelo://app?vid=6eabf6c3-cab9-46af-a7be-e401ab418c7a"},"vehicle_type_id":"4","last_reported":1717621657,"current_range_meters":9200,"station_id":"ce4bgv12rcd13ifvqcp0","pricing_plan_id":"cebpf4jnsgd1na2vs0mg"},{"bike_id":"0df7fe76-35f3-40b5-b65d-b2b7ed0916fb","system_id":"levelo_inurba_marseille","lat":43.299243,"lon":5.37481,"is_reserved":false,"is_disabled":false,"rental_uris":{"android":"levelo://app?vid=0df7fe76-35f3-40b5-b65d-b2b7ed0916fb","ios":"levelo://app?vid=0df7fe76-35f3-40b5-b65d-b2b7ed0916fb"},"vehicle_type_id":"4","last_reported":1717621657,"current_range_meters":28000,"station_id":"ce4bgjh2rcd13ifvqbg0","pricing_plan_id":"cebpf4jnsgd1na2vs0mg"},{"bike_id":"9d4dcaaa-c193-4a51-a896-5430ab942429","system_id":"levelo_inurba_marseille","lat":43.297794,"lon":5.370888,"is_reserved":false,"is_disabled":false,"rental_uris":{"android":"levelo://app?vid=9d4dcaaa-c193-4a51-a896-5430ab942429","ios":"levelo://app?vid=9d4dcaaa-c193-4a51-a896-5430ab942429"},"vehicle_type_id":"4","last_reported":1717621657,"current_range_meters":16400,"station_id":"ce4bgop2rcd13ifvqc1g","pricing_plan_id":"cebpf4jnsgd1na2vs0mg"},{"bike_id":"967731c2-b580-4644-a4ed-61c3382566c5","system_id":"levelo_inurba_marseille","lat":43.32292,"lon":5.38254,"is_reserved":false,"is_disabled":false,"rental_uris":{"android":"levelo://app?vid=967731c2-b580-4644-a4ed-61c3382566c5","ios":"levelo://app?vid=967731c2-b580-4644-a4ed-61c3382566c5"},"vehicle_type_id":"4","last_reported":1717621657,"current_range_meters":1200,"station_id":"ce4bhr12rcd13ifvqhqg","pricing_plan_id":"cebpf4jnsgd1na2vs0mg"},{"bike_id":"3bc8a8cb-a7ec-466e-98f7-16712543e8d8","system_id":"levelo_inurba_marseille","lat":43.322872,"lon":5.382756,"is_reserved":false,"is_disabled":false,"rental_uris":{"android":"levelo://app?vid=3bc8a8cb-a7ec-466e-98f7-16712543e8d8","ios":"levelo://app?vid=3bc8a8cb-a7ec-466e-98f7-16712543e8d8"},"vehicle_type_id":"4","last_reported":1717621657,"current_range_meters":18400,"station_id":"ce4bhr12rcd13ifvqhqg","pricing_plan_id":"cebpf4jnsgd1na2vs0mg"},{"bike_id":"130e65f6-46f7-459a-817e-92610534b0db","system_id":"levelo_inurba_marseille","lat":43.32294,"lon":5.38285,"is_reserved":false,"is_disabled":false,"rental_uris":{"android":"levelo://app?vid=130e65f6-46f7-459a-817e-92610534b0db","ios":"levelo://app?vid=130e65f6-46f7-459a-817e-92610534b0db"},"vehicle_type_id":"4","last_reported":1717621657,"current_range_meters":12400,"station_id":"ce4bhr12rcd13ifvqhqg","pricing_plan_id":"cebpf4jnsgd1na2vs0mg"},{"bike_id":"77f6069b-3c42-40bf-bb77-e908208bbe78","system_id":"levelo_inurba_marseille","lat":43.29727,"lon":5.36494,"is_reserved":false,"is_disabled":false,"rental_uris":{"android":"levelo://app?vid=77f6069b-3c42-40bf-bb77-e908208bbe78","ios":"levelo://app?vid=77f6069b-3c42-40bf-bb77-e908208bbe78"},"vehicle_type_id":"4","last_reported":1717621657,"current_range_meters":3600,"station_id":"","pricing_plan_id":"cebpf4jnsgd1na2vs0mg"},{"bike_id":"b872c82b-d408-4690-b2d0-9ee8a6f55c32","system_id":"levelo_inurba_marseille","lat":43.297081,"lon":5.366207,"is_reserved":false,"is_disabled":false,"rental_uris":{"android":"levelo://app?vid=b872c82b-d408-4690-b2d0-9ee8a6f55c32","ios":"levelo://app?vid=b872c82b-d408-4690-b2d0-9ee8a6f55c32"},"vehicle_type_id":"4","last_reported":1717621657,"current_range_meters":0,"station_id":"ce4bgn12rcd13ifvqbt0","pricing_plan_id":"cebpf4jnsgd1na2vs0mg"},{"bike_id":"5dc3d715-5344-4b71-a75a-9a3178edf301","system_id":"levelo_inurba_marseille","lat":43.297163,"lon":5.365866,"is_reserved":false,"is_disabled":false,"rental_uris":{"android":"levelo://app?vid=5dc3d715-5344-4b71-a75a-9a3178edf301","ios":"levelo://app?vid=5dc3d715-5344-4b71-a75a-9a3178edf301"},"vehicle_type_id":"4","last_reported":1717621657,"current_range_meters":25200,"station_id":"ce4bgn12rcd13ifvqbt0","pricing_plan_id":"cebpf4jnsgd1na2vs0mg"},{"bike_id":"5e2e46f5-071d-429f-815c-313a6c9e802c","system_id":"levelo_inurba_marseille","lat":43.297163,"lon":5.365866,"is_reserved":false,"is_disabled":false,"rental_uris":{"android":"levelo://app?vid=5e2e46f5-071d-429f-815c-313a6c9e802c","ios":"levelo://app?vid=5e2e46f5-071d-429f-815c-313a6c9e802c"},"vehicle_type_id":"4","last_reported":1717621657,"current_range_meters":4400,"station_id":"ce4bgn12rcd13ifvqbt0","pricing_plan_id":"cebpf4jnsgd1na2vs0mg"},{"bike_id":"6da01f48-0931-447e-bc7c-6b0ed2073baf","system_id":"levelo_inurba_marseille","lat":43.29573,"lon":5.367355,"is_reserved":false,"is_disabled":false,"rental_uris":{"android":"levelo://app?vid=6da01f48-0931-447e-bc7c-6b0ed2073baf","ios":"levelo://app?vid=6da01f48-0931-447e-bc7c-6b0ed2073baf"},"vehicle_type_id":"4","last_reported":1717621657,"current_range_meters":0,"station_id":"ce4bgph2rcd13ifvqc2g","pricing_plan_id":"cebpf4jnsgd1na2vs0mg"},{"bike_id":"28b46a0d-e5ef-4085-9c37-8979c84d74aa","system_id":"levelo_inurba_marseille","lat":43.296935,"lon":5.376544,"is_reserved":false,"is_disabled":false,"rental_uris":{"android":"levelo://app?vid=28b46a0d-e5ef-4085-9c37-8979c84d74aa","ios":"levelo://app?vid=28b46a0d-e5ef-4085-9c37-8979c84d74aa"},"vehicle_type_id":"4","last_reported":1717621657,"current_range_meters":6800,"station_id":"ce4bgkh2rcd13ifvqbl0","pricing_plan_id":"cebpf4jnsgd1na2vs0mg"},{"bike_id":"0630808b-b6d9-4138-8f3d-e0a6375eb3c1","system_id":"levelo_inurba_marseille","lat":43.321312,"lon":5.387434,"is_reserved":false,"is_disabled":false,"rental_uris":{"android":"levelo://app?vid=0630808b-b6d9-4138-8f3d-e0a6375eb3c1","ios":"levelo://app?vid=0630808b-b6d9-4138-8f3d-e0a6375eb3c1"},"vehicle_type_id":"4","last_reported":1717621657,"current_range_meters":6800,"station_id":"","pricing_plan_id":"cebpf4jnsgd1na2vs0mg"},{"bike_id":"ad430bd5-8df7-4677-8b19-2c920911580b","system_id":"levelo_inurba_marseille","lat":43.309589,"lon":5.390314,"is_reserved":false,"is_disabled":false,"rental_uris":{"android":"levelo://app?vid=ad430bd5-8df7-4677-8b19-2c920911580b","ios":"levelo://app?vid=ad430bd5-8df7-4677-8b19-2c920911580b"},"vehicle_type_id":"4","last_reported":1717621657,"current_range_meters":0,"station_id":"ce4bgup2rcd13ifvqco0","pricing_plan_id":"cebpf4jnsgd1na2vs0mg"},{"bike_id":"b1fe3217-f367-40ef-81a0-7ef955874820","system_id":"levelo_inurba_marseille","lat":43.309589,"lon":5.390258,"is_reserved":false,"is_disabled":false,"rental_uris":{"android":"levelo://app?vid=b1fe3217-f367-40ef-81a0-7ef955874820","ios":"levelo://app?vid=b1fe3217-f367-40ef-81a0-7ef955874820"},"vehicle_type_id":"4","last_reported":1717621657,"current_range_meters":22800,"station_id":"ce4bgup2rcd13ifvqco0","pricing_plan_id":"cebpf4jnsgd1na2vs0mg"},{"bike_id":"8e4a3c26-30bb-4d20-a9a1-32e63ba9e19a","system_id":"levelo_inurba_marseille","lat":43.296921,"lon":5.376579,"is_reserved":false,"is_disabled":false,"rental_uris":{"android":"levelo://app?vid=8e4a3c26-30bb-4d20-a9a1-32e63ba9e19a","ios":"levelo://app?vid=8e4a3c26-30bb-4d20-a9a1-32e63ba9e19a"},"vehicle_type_id":"4","last_reported":1717621657,"current_range_meters":9200,"station_id":"ce4bgkh2rcd13ifvqbl0","pricing_plan_id":"cebpf4jnsgd1na2vs0mg"},{"bike_id":"54c07c80-17b7-477b-9cd1-a7eb1bec1316","system_id":"levelo_inurba_marseille","lat":43.299028,"lon":5.381509,"is_reserved":false,"is_disabled":false,"rental_uris":{"android":"levelo://app?vid=54c07c80-17b7-477b-9cd1-a7eb1bec1316","ios":"levelo://app?vid=54c07c80-17b7-477b-9cd1-a7eb1bec1316"},"vehicle_type_id":"4","last_reported":1717621657,"current_range_meters":26400,"station_id":"ce4bgj12rcd13ifvqbc0","pricing_plan_id":"cebpf4jnsgd1na2vs0mg"},{"bike_id":"ea5f8593-1055-4985-8e81-f73b88784240","system_id":"levelo_inurba_marseille","lat":43.317557,"lon":5.390173,"is_reserved":false,"is_disabled":false,"rental_uris":{"android":"levelo://app?vid=ea5f8593-1055-4985-8e81-f73b88784240","ios":"levelo://app?vid=ea5f8593-1055-4985-8e81-f73b88784240"},"vehicle_type_id":"4","last_reported":1717621657,"current_range_meters":20800,"station_id":"ce4bhqp2rcd13ifvqhng","pricing_plan_id":"cebpf4jnsgd1na2vs0mg"},{"bike_id":"c44f6618-1174-48e0-bcb9-248d5bf5d1f4","system_id":"levelo_inurba_marseille","lat":43.317557,"lon":5.390173,"is_reserved":false,"is_disabled":false,"rental_uris":{"android":"levelo://app?vid=c44f6618-1174-48e0-bcb9-248d5bf5d1f4","ios":"levelo://app?vid=c44f6618-1174-48e0-bcb9-248d5bf5d1f4"},"vehicle_type_id":"4","last_reported":1717621657,"current_range_meters":7200,"station_id":"ce4bhqp2rcd13ifvqhng","pricing_plan_id":"cebpf4jnsgd1na2vs0mg"},{"bike_id":"def7450d-72e0-40f6-ac46-99da19bd711e","system_id":"levelo_inurba_marseille","lat":43.31759,"lon":5.39015,"is_reserved":false,"is_disabled":false,"rental_uris":{"android":"levelo://app?vid=def7450d-72e0-40f6-ac46-99da19bd711e","ios":"levelo://app?vid=def7450d-72e0-40f6-ac46-99da19bd711e"},"vehicle_type_id":"4","last_reported":1717621657,"current_range_meters":0,"station_id":"ce4bhqp2rcd13ifvqhng","pricing_plan_id":"cebpf4jnsgd1na2vs0mg"},{"bike_id":"00984ae1-5fb3-4296-bbcc-bd2f040cc401","system_id":"levelo_inurba_marseille","lat":43.317557,"lon":5.390173,"is_reserved":false,"is_disabled":false,"rental_uris":{"android":"levelo://app?vid=00984ae1-5fb3-4296-bbcc-bd2f040cc401","ios":"levelo://app?vid=00984ae1-5fb3-4296-bbcc-bd2f040cc401"},"vehicle_type_id":"4","last_reported":1717621657,"current_range_meters":13600,"station_id":"ce4bhqp2rcd13ifvqhng","pricing_plan_id":"cebpf4jnsgd1na2vs0mg"},{"bike_id":"b039b626-b56e-4e5f-a981-0eb12099baa4","system_id":"levelo_inurba_marseille","lat":43.304274,"lon":5.388873,"is_reserved":false,"is_disabled":false,"rental_uris":{"android":"levelo://app?vid=b039b626-b56e-4e5f-a981-0eb12099baa4","ios":"levelo://app?vid=b039b626-b56e-4e5f-a981-0eb12099baa4"},"vehicle_type_id":"4","last_reported":1717621657,"current_range_meters":20000,"station_id":"ce4bgk12rcd13ifvqbi0","pricing_plan_id":"cebpf4jnsgd1na2vs0mg"},{"bike_id":"4093954c-cccf-4b69-9490-53d0d9f94ded","system_id":"levelo_inurba_marseille","lat":43.304274,"lon":5.388873,"is_reserved":false,"is_disabled":false,"rental_uris":{"android":"levelo://app?vid=4093954c-cccf-4b69-9490-53d0d9f94ded","ios":"levelo://app?vid=4093954c-cccf-4b69-9490-53d0d9f94ded"},"vehicle_type_id":"4","last_reported":1717621657,"current_range_meters":22000,"station_id":"ce4bgk12rcd13ifvqbi0","pricing_plan_id":"cebpf4jnsgd1na2vs0mg"},{"bike_id":"5649a969-b1a8-4737-9f40-0a035c013e1d","system_id":"levelo_inurba_marseille","lat":43.298037,"lon":5.381066,"is_reserved":false,"is_disabled":false,"rental_uris":{"android":"levelo://app?vid=5649a969-b1a8-4737-9f40-0a035c013e1d","ios":"levelo://app?vid=5649a969-b1a8-4737-9f40-0a035c013e1d"},"vehicle_type_id":"4","last_reported":1717621657,"current_range_meters":3200,"station_id":"ce4bgip2rcd13ifvqbb0","pricing_plan_id":"cebpf4jnsgd1na2vs0mg"},{"bike_id":"8ebd2119-9dd1-48a3-99a7-949846858fc5","system_id":"levelo_inurba_marseille","lat":43.304274,"lon":5.388873,"is_reserved":false,"is_disabled":false,"rental_uris":{"android":"levelo://app?vid=8ebd2119-9dd1-48a3-99a7-949846858fc5","ios":"levelo://app?vid=8ebd2119-9dd1-48a3-99a7-949846858fc5"},"vehicle_type_id":"4","last_reported":1717621657,"current_range_meters":18000,"station_id":"ce4bgk12rcd13ifvqbi0","pricing_plan_id":"cebpf4jnsgd1na2vs0mg"},{"bike_id":"66fee8ee-a980-4067-81c1-6604a15264f1","system_id":"levelo_inurba_marseille","lat":43.304278,"lon":5.388868,"is_reserved":false,"is_disabled":false,"rental_uris":{"android":"levelo://app?vid=66fee8ee-a980-4067-81c1-6604a15264f1","ios":"levelo://app?vid=66fee8ee-a980-4067-81c1-6604a15264f1"},"vehicle_type_id":"4","last_reported":1717621657,"current_range_meters":11200,"station_id":"ce4bgk12rcd13ifvqbi0","pricing_plan_id":"cebpf4jnsgd1na2vs0mg"},{"bike_id":"64c5a08d-143c-457e-b560-9a86b339f423","system_id":"levelo_inurba_marseille","lat":43.304274,"lon":5.388873,"is_reserved":false,"is_disabled":false,"rental_uris":{"android":"levelo://app?vid=64c5a08d-143c-457e-b560-9a86b339f423","ios":"levelo://app?vid=64c5a08d-143c-457e-b560-9a86b339f423"},"vehicle_type_id":"4","last_reported":1717621657,"current_range_meters":3200,"station_id":"ce4bgk12rcd13ifvqbi0","pricing_plan_id":"cebpf4jnsgd1na2vs0mg"},{"bike_id":"e1e4e689-7595-408f-9b16-ddf5c2eb77a1","system_id":"levelo_inurba_marseille","lat":43.304274,"lon":5.388873,"is_reserved":false,"is_disabled":false,"rental_uris":{"android":"levelo://app?vid=e1e4e689-7595-408f-9b16-ddf5c2eb77a1","ios":"levelo://app?vid=e1e4e689-7595-408f-9b16-ddf5c2eb77a1"},"vehicle_type_id":"4","last_reported":1717621657,"current_range_meters":0,"station_id":"ce4bgk12rcd13ifvqbi0","pricing_plan_id":"cebpf4jnsgd1na2vs0mg"},{"bike_id":"8fa16cbe-3d4c-4ab6-a0f5-6fb8056ce142","system_id":"levelo_inurba_marseille","lat":43.304274,"lon":5.388873,"is_reserved":false,"is_disabled":false,"rental_uris":{"android":"levelo://app?vid=8fa16cbe-3d4c-4ab6-a0f5-6fb8056ce142","ios":"levelo://app?vid=8fa16cbe-3d4c-4ab6-a0f5-6fb8056ce142"},"vehicle_type_id":"4","last_reported":1717621657,"current_range_meters":3200,"station_id":"ce4bgk12rcd13ifvqbi0","pricing_plan_id":"cebpf4jnsgd1na2vs0mg"},{"bike_id":"20eac9a2-a72c-45a0-9c70-e7a194afa0c4","system_id":"levelo_inurba_marseille","lat":43.304274,"lon":5.388873,"is_reserved":false,"is_disabled":false,"rental_uris":{"android":"levelo://app?vid=20eac9a2-a72c-45a0-9c70-e7a194afa0c4","ios":"levelo://app?vid=20eac9a2-a72c-45a0-9c70-e7a194afa0c4"},"vehicle_type_id":"4","last_reported":1717621657,"current_range_meters":8800,"station_id":"ce4bgk12rcd13ifvqbi0","pricing_plan_id":"cebpf4jnsgd1na2vs0mg"},{"bike_id":"940ad99c-c731-445c-a8b9-f8b505647e01","system_id":"levelo_inurba_marseille","lat":43.304274,"lon":5.388873,"is_reserved":false,"is_disabled":false,"rental_uris":{"android":"levelo://app?vid=940ad99c-c731-445c-a8b9-f8b505647e01","ios":"levelo://app?vid=940ad99c-c731-445c-a8b9-f8b505647e01"},"vehicle_type_id":"4","last_reported":1717621657,"current_range_meters":16800,"station_id":"ce4bgk12rcd13ifvqbi0","pricing_plan_id":"cebpf4jnsgd1na2vs0mg"},{"bike_id":"c01ab16a-2331-471a-b0cc-ea37608297e3","system_id":"levelo_inurba_marseille","lat":43.304278,"lon":5.388868,"is_reserved":false,"is_disabled":false,"rental_uris":{"android":"levelo://app?vid=c01ab16a-2331-471a-b0cc-ea37608297e3","ios":"levelo://app?vid=c01ab16a-2331-471a-b0cc-ea37608297e3"},"vehicle_type_id":"4","last_reported":1717621657,"current_range_meters":2800,"station_id":"ce4bgk12rcd13ifvqbi0","pricing_plan_id":"cebpf4jnsgd1na2vs0mg"},{"bike_id":"8f30147e-a7cf-4cb1-aefc-a7b71e68dead","system_id":"levelo_inurba_marseille","lat":43.304274,"lon":5.388873,"is_reserved":false,"is_disabled":false,"rental_uris":{"android":"levelo://app?vid=8f30147e-a7cf-4cb1-aefc-a7b71e68dead","ios":"levelo://app?vid=8f30147e-a7cf-4cb1-aefc-a7b71e68dead"},"vehicle_type_id":"4","last_reported":1717621657,"current_range_meters":27200,"station_id":"ce4bgk12rcd13ifvqbi0","pricing_plan_id":"cebpf4jnsgd1na2vs0mg"},{"bike_id":"f571b9a5-535b-4216-af55-91fa971a2ef6","system_id":"levelo_inurba_marseille","lat":43.3044,"lon":5.38904,"is_reserved":false,"is_disabled":false,"rental_uris":{"android":"levelo://app?vid=f571b9a5-535b-4216-af55-91fa971a2ef6","ios":"levelo://app?vid=f571b9a5-535b-4216-af55-91fa971a2ef6"},"vehicle_type_id":"4","last_reported":1717621657,"current_range_meters":27600,"station_id":"ce4bgk12rcd13ifvqbi0","pricing_plan_id":"cebpf4jnsgd1na2vs0mg"},{"bike_id":"639eb9d2-fc7b-4cb4-bf52-e41e490c95cd","system_id":"levelo_inurba_marseille","lat":43.296277,"lon":5.377108,"is_reserved":false,"is_disabled":false,"rental_uris":{"android":"levelo://app?vid=639eb9d2-fc7b-4cb4-bf52-e41e490c95cd","ios":"levelo://app?vid=639eb9d2-fc7b-4cb4-bf52-e41e490c95cd"},"vehicle_type_id":"4","last_reported":1717621657,"current_range_meters":0,"station_id":"ce4bgi92rcd13ifvqb90","pricing_plan_id":"cebpf4jnsgd1na2vs0mg"},{"bike_id":"c8664751-cbc1-4430-b8ff-6cf69bed398a","system_id":"levelo_inurba_marseille","lat":43.299707,"lon":5.384859,"is_reserved":false,"is_disabled":false,"rental_uris":{"android":"levelo://app?vid=c8664751-cbc1-4430-b8ff-6cf69bed398a","ios":"levelo://app?vid=c8664751-cbc1-4430-b8ff-6cf69bed398a"},"vehicle_type_id":"4","last_reported":1717621657,"current_range_meters":4400,"station_id":"ce4bgj92rcd13ifvqbd0","pricing_plan_id":"cebpf4jnsgd1na2vs0mg"},{"bike_id":"f3f672d8-531e-47c1-a3ef-cd90ecb34e9b","system_id":"levelo_inurba_marseille","lat":43.299717,"lon":5.384845,"is_reserved":false,"is_disabled":false,"rental_uris":{"android":"levelo://app?vid=f3f672d8-531e-47c1-a3ef-cd90ecb34e9b","ios":"levelo://app?vid=f3f672d8-531e-47c1-a3ef-cd90ecb34e9b"},"vehicle_type_id":"4","last_reported":1717621657,"current_range_meters":0,"station_id":"ce4bgj92rcd13ifvqbd0","pricing_plan_id":"cebpf4jnsgd1na2vs0mg"},{"bike_id":"8b2332cf-e3aa-439f-a353-c01116b3f783","system_id":"levelo_inurba_marseille","lat":43.32367,"lon":5.388836,"is_reserved":false,"is_disabled":false,"rental_uris":{"android":"levelo://app?vid=8b2332cf-e3aa-439f-a353-c01116b3f783","ios":"levelo://app?vid=8b2332cf-e3aa-439f-a353-c01116b3f783"},"vehicle_type_id":"4","last_reported":1717621657,"current_range_meters":0,"station_id":"ce4bhqp2rcd13ifvqhog","pricing_plan_id":"cebpf4jnsgd1na2vs0mg"},{"bike_id":"b0ec1ea6-d01b-4ef9-9459-39fff1bb5baa","system_id":"levelo_inurba_marseille","lat":43.32367,"lon":5.388836,"is_reserved":false,"is_disabled":false,"rental_uris":{"android":"levelo://app?vid=b0ec1ea6-d01b-4ef9-9459-39fff1bb5baa","ios":"levelo://app?vid=b0ec1ea6-d01b-4ef9-9459-39fff1bb5baa"},"vehicle_type_id":"4","last_reported":1717621657,"current_range_meters":17600,"station_id":"ce4bhqp2rcd13ifvqhog","pricing_plan_id":"cebpf4jnsgd1na2vs0mg"},{"bike_id":"cd4f2c30-6a3e-445d-ad60-9c4115ab446a","system_id":"levelo_inurba_marseille","lat":43.32365,"lon":5.38886,"is_reserved":false,"is_disabled":false,"rental_uris":{"android":"levelo://app?vid=cd4f2c30-6a3e-445d-ad60-9c4115ab446a","ios":"levelo://app?vid=cd4f2c30-6a3e-445d-ad60-9c4115ab446a"},"vehicle_type_id":"4","last_reported":1717621657,"current_range_meters":0,"station_id":"ce4bhqp2rcd13ifvqhog","pricing_plan_id":"cebpf4jnsgd1na2vs0mg"},{"bike_id":"1846509c-a74f-4471-9e20-62b62a9966cb","system_id":"levelo_inurba_marseille","lat":43.32367,"lon":5.388836,"is_reserved":false,"is_disabled":false,"rental_uris":{"android":"levelo://app?vid=1846509c-a74f-4471-9e20-62b62a9966cb","ios":"levelo://app?vid=1846509c-a74f-4471-9e20-62b62a9966cb"},"vehicle_type_id":"4","last_reported":1717621657,"current_range_meters":19600,"station_id":"ce4bhqp2rcd13ifvqhog","pricing_plan_id":"cebpf4jnsgd1na2vs0mg"},{"bike_id":"3b80fea2-af8e-47ce-9f75-726cb6c20f1a","system_id":"levelo_inurba_marseille","lat":43.32367,"lon":5.38887,"is_reserved":false,"is_disabled":false,"rental_uris":{"android":"levelo://app?vid=3b80fea2-af8e-47ce-9f75-726cb6c20f1a","ios":"levelo://app?vid=3b80fea2-af8e-47ce-9f75-726cb6c20f1a"},"vehicle_type_id":"4","last_reported":1717621657,"current_range_meters":6000,"station_id":"ce4bhqp2rcd13ifvqhog","pricing_plan_id":"cebpf4jnsgd1na2vs0mg"},{"bike_id":"298536c6-5fca-44e6-94de-3140806fbd58","system_id":"levelo_inurba_marseille","lat":43.29602,"lon":5.381084,"is_reserved":false,"is_disabled":false,"rental_uris":{"android":"levelo://app?vid=298536c6-5fca-44e6-94de-3140806fbd58","ios":"levelo://app?vid=298536c6-5fca-44e6-94de-3140806fbd58"},"vehicle_type_id":"4","last_reported":1717621657,"current_range_meters":2000,"station_id":"ce4bgl12rcd13ifvqbo0","pricing_plan_id":"cebpf4jnsgd1na2vs0mg"},{"bike_id":"3992fa0d-5603-45b4-8c81-8dbab45cb0b9","system_id":"levelo_inurba_marseille","lat":43.29602,"lon":5.381084,"is_reserved":false,"is_disabled":false,"rental_uris":{"android":"levelo://app?vid=3992fa0d-5603-45b4-8c81-8dbab45cb0b9","ios":"levelo://app?vid=3992fa0d-5603-45b4-8c81-8dbab45cb0b9"},"vehicle_type_id":"4","last_reported":1717621657,"current_range_meters":400,"station_id":"ce4bgl12rcd13ifvqbo0","pricing_plan_id":"cebpf4jnsgd1na2vs0mg"},{"bike_id":"bdcdb8b2-b5e4-4d07-8aad-ac136fb0dba1","system_id":"levelo_inurba_marseille","lat":43.29602,"lon":5.381084,"is_reserved":false,"is_disabled":false,"rental_uris":{"android":"levelo://app?vid=bdcdb8b2-b5e4-4d07-8aad-ac136fb0dba1","ios":"levelo://app?vid=bdcdb8b2-b5e4-4d07-8aad-ac136fb0dba1"},"vehicle_type_id":"4","last_reported":1717621657,"current_range_meters":31600,"station_id":"ce4bgl12rcd13ifvqbo0","pricing_plan_id":"cebpf4jnsgd1na2vs0mg"},{"bike_id":"04fd6788-a83d-4588-80e9-296617f3dbfa","system_id":"levelo_inurba_marseille","lat":43.292749,"lon":5.368402,"is_reserved":false,"is_disabled":false,"rental_uris":{"android":"levelo://app?vid=04fd6788-a83d-4588-80e9-296617f3dbfa","ios":"levelo://app?vid=04fd6788-a83d-4588-80e9-296617f3dbfa"},"vehicle_type_id":"4","last_reported":1717621657,"current_range_meters":5600,"station_id":"ce4bhbp2rcd13ifvqesg","pricing_plan_id":"cebpf4jnsgd1na2vs0mg"},{"bike_id":"0c3960b2-26a1-4f24-ad43-6960f1802382","system_id":"levelo_inurba_marseille","lat":43.305994,"lon":5.393687,"is_reserved":false,"is_disabled":false,"rental_uris":{"android":"levelo://app?vid=0c3960b2-26a1-4f24-ad43-6960f1802382","ios":"levelo://app?vid=0c3960b2-26a1-4f24-ad43-6960f1802382"},"vehicle_type_id":"4","last_reported":1717621657,"current_range_meters":31200,"station_id":"ce4bh0p2rcd13ifvqd80","pricing_plan_id":"cebpf4jnsgd1na2vs0mg"},{"bike_id":"061f6b97-d1e7-4bb5-81c2-0124702f9ed0","system_id":"levelo_inurba_marseille","lat":43.292985,"lon":5.374445,"is_reserved":false,"is_disabled":false,"rental_uris":{"android":"levelo://app?vid=061f6b97-d1e7-4bb5-81c2-0124702f9ed0","ios":"levelo://app?vid=061f6b97-d1e7-4bb5-81c2-0124702f9ed0"},"vehicle_type_id":"4","last_reported":1717621657,"current_range_meters":0,"station_id":"ce4bgi12rcd13ifvqb70","pricing_plan_id":"cebpf4jnsgd1na2vs0mg"},{"bike_id":"6b2bb9cc-fdaf-43e2-93c7-fff4b02dbafe","system_id":"levelo_inurba_marseille","lat":43.305994,"lon":5.393687,"is_reserved":false,"is_disabled":false,"rental_uris":{"android":"levelo://app?vid=6b2bb9cc-fdaf-43e2-93c7-fff4b02dbafe","ios":"levelo://app?vid=6b2bb9cc-fdaf-43e2-93c7-fff4b02dbafe"},"vehicle_type_id":"4","last_reported":1717621657,"current_range_meters":31600,"station_id":"ce4bh0p2rcd13ifvqd80","pricing_plan_id":"cebpf4jnsgd1na2vs0mg"},{"bike_id":"3e71809c-c7c4-4f04-bd68-3be6c75db6b4","system_id":"levelo_inurba_marseille","lat":43.305994,"lon":5.393687,"is_reserved":false,"is_disabled":false,"rental_uris":{"android":"levelo://app?vid=3e71809c-c7c4-4f04-bd68-3be6c75db6b4","ios":"levelo://app?vid=3e71809c-c7c4-4f04-bd68-3be6c75db6b4"},"vehicle_type_id":"4","last_reported":1717621657,"current_range_meters":4800,"station_id":"ce4bh0p2rcd13ifvqd80","pricing_plan_id":"cebpf4jnsgd1na2vs0mg"},{"bike_id":"f9f8292f-eb44-4da0-84d2-1ab03836925f","system_id":"levelo_inurba_marseille","lat":43.30303,"lon":5.39198,"is_reserved":false,"is_disabled":false,"rental_uris":{"android":"levelo://app?vid=f9f8292f-eb44-4da0-84d2-1ab03836925f","ios":"levelo://app?vid=f9f8292f-eb44-4da0-84d2-1ab03836925f"},"vehicle_type_id":"4","last_reported":1717621657,"current_range_meters":0,"station_id":"ce4bgkh2rcd13ifvqbk0","pricing_plan_id":"cebpf4jnsgd1na2vs0mg"},{"bike_id":"53cb1d0d-9f76-475e-8a12-d85c1b7b7987","system_id":"levelo_inurba_marseille","lat":43.293009,"lon":5.374584,"is_reserved":false,"is_disabled":false,"rental_uris":{"android":"levelo://app?vid=53cb1d0d-9f76-475e-8a12-d85c1b7b7987","ios":"levelo://app?vid=53cb1d0d-9f76-475e-8a12-d85c1b7b7987"},"vehicle_type_id":"4","last_reported":1717621657,"current_range_meters":26800,"station_id":"ce4bgi12rcd13ifvqb70","pricing_plan_id":"cebpf4jnsgd1na2vs0mg"},{"bike_id":"2e5b0753-0339-43f0-93d7-35087f28b97d","system_id":"levelo_inurba_marseille","lat":43.29286,"lon":5.37485,"is_reserved":false,"is_disabled":false,"rental_uris":{"android":"levelo://app?vid=2e5b0753-0339-43f0-93d7-35087f28b97d","ios":"levelo://app?vid=2e5b0753-0339-43f0-93d7-35087f28b97d"},"vehicle_type_id":"4","last_reported":1717621657,"current_range_meters":16400,"station_id":"","pricing_plan_id":"cebpf4jnsgd1na2vs0mg"},{"bike_id":"74c16061-1640-4504-ae2a-764214e12916","system_id":"levelo_inurba_marseille","lat":43.30298,"lon":5.39206,"is_reserved":false,"is_disabled":false,"rental_uris":{"android":"levelo://app?vid=74c16061-1640-4504-ae2a-764214e12916","ios":"levelo://app?vid=74c16061-1640-4504-ae2a-764214e12916"},"vehicle_type_id":"4","last_reported":1717621657,"current_range_meters":13600,"station_id":"ce4bgkh2rcd13ifvqbk0","pricing_plan_id":"cebpf4jnsgd1na2vs0mg"},{"bike_id":"9a6f53d3-41f2-45d8-badd-1d9300c0dc76","system_id":"levelo_inurba_marseille","lat":43.30292,"lon":5.39202,"is_reserved":false,"is_disabled":false,"rental_uris":{"android":"levelo://app?vid=9a6f53d3-41f2-45d8-badd-1d9300c0dc76","ios":"levelo://app?vid=9a6f53d3-41f2-45d8-badd-1d9300c0dc76"},"vehicle_type_id":"4","last_reported":1717621657,"current_range_meters":1600,"station_id":"ce4bgkh2rcd13ifvqbk0","pricing_plan_id":"cebpf4jnsgd1na2vs0mg"},{"bike_id":"99800cd3-4f01-4897-bb80-b091eb532edd","system_id":"levelo_inurba_marseille","lat":43.303002,"lon":5.392142,"is_reserved":false,"is_disabled":false,"rental_uris":{"android":"levelo://app?vid=99800cd3-4f01-4897-bb80-b091eb532edd","ios":"levelo://app?vid=99800cd3-4f01-4897-bb80-b091eb532edd"},"vehicle_type_id":"4","last_reported":1717621657,"current_range_meters":20800,"station_id":"ce4bgkh2rcd13ifvqbk0","pricing_plan_id":"cebpf4jnsgd1na2vs0mg"},{"bike_id":"c5999d6f-7a6b-4899-84d1-4a01532353ac","system_id":"levelo_inurba_marseille","lat":43.30294,"lon":5.39207,"is_reserved":false,"is_disabled":false,"rental_uris":{"android":"levelo://app?vid=c5999d6f-7a6b-4899-84d1-4a01532353ac","ios":"levelo://app?vid=c5999d6f-7a6b-4899-84d1-4a01532353ac"},"vehicle_type_id":"4","last_reported":1717621657,"current_range_meters":26800,"station_id":"ce4bgkh2rcd13ifvqbk0","pricing_plan_id":"cebpf4jnsgd1na2vs0mg"},{"bike_id":"85f9f8c4-c26b-451a-aac0-c0f9b3234142","system_id":"levelo_inurba_marseille","lat":43.303083,"lon":5.39218,"is_reserved":false,"is_disabled":false,"rental_uris":{"android":"levelo://app?vid=85f9f8c4-c26b-451a-aac0-c0f9b3234142","ios":"levelo://app?vid=85f9f8c4-c26b-451a-aac0-c0f9b3234142"},"vehicle_type_id":"4","last_reported":1717621657,"current_range_meters":20000,"station_id":"ce4bgkh2rcd13ifvqbk0","pricing_plan_id":"cebpf4jnsgd1na2vs0mg"},{"bike_id":"e16242c0-c1a7-4268-89cf-1802bff95911","system_id":"levelo_inurba_marseille","lat":43.30304,"lon":5.39218,"is_reserved":false,"is_disabled":false,"rental_uris":{"android":"levelo://app?vid=e16242c0-c1a7-4268-89cf-1802bff95911","ios":"levelo://app?vid=e16242c0-c1a7-4268-89cf-1802bff95911"},"vehicle_type_id":"4","last_reported":1717621657,"current_range_meters":15600,"station_id":"ce4bgkh2rcd13ifvqbk0","pricing_plan_id":"cebpf4jnsgd1na2vs0mg"},{"bike_id":"8ef708bc-735a-41b4-8ca9-3869d7d69a5c","system_id":"levelo_inurba_marseille","lat":43.30085,"lon":5.390856,"is_reserved":false,"is_disabled":false,"rental_uris":{"android":"levelo://app?vid=8ef708bc-735a-41b4-8ca9-3869d7d69a5c","ios":"levelo://app?vid=8ef708bc-735a-41b4-8ca9-3869d7d69a5c"},"vehicle_type_id":"4","last_reported":1717621657,"current_range_meters":22400,"station_id":"ce4bh192rcd13ifvqdb0","pricing_plan_id":"cebpf4jnsgd1na2vs0mg"},{"bike_id":"84489e72-85e8-47cd-8767-bfd3ce74f872","system_id":"levelo_inurba_marseille","lat":43.30337,"lon":5.39252,"is_reserved":false,"is_disabled":false,"rental_uris":{"android":"levelo://app?vid=84489e72-85e8-47cd-8767-bfd3ce74f872","ios":"levelo://app?vid=84489e72-85e8-47cd-8767-bfd3ce74f872"},"vehicle_type_id":"4","last_reported":1717621657,"current_range_meters":400,"station_id":"","pricing_plan_id":"cebpf4jnsgd1na2vs0mg"},{"bike_id":"dd82ae59-482b-479c-a7dc-a59b64b768fe","system_id":"levelo_inurba_marseille","lat":43.293679,"lon":5.378537,"is_reserved":false,"is_disabled":false,"rental_uris":{"android":"levelo://app?vid=dd82ae59-482b-479c-a7dc-a59b64b768fe","ios":"levelo://app?vid=dd82ae59-482b-479c-a7dc-a59b64b768fe"},"vehicle_type_id":"4","last_reported":1717621657,"current_range_meters":400,"station_id":"ce4bgjh2rcd13ifvqbf0","pricing_plan_id":"cebpf4jnsgd1na2vs0mg"},{"bike_id":"427d301d-0446-4940-93fd-4ab9cb8e1d65","system_id":"levelo_inurba_marseille","lat":43.302992,"lon":5.392136,"is_reserved":false,"is_disabled":false,"rental_uris":{"android":"levelo://app?vid=427d301d-0446-4940-93fd-4ab9cb8e1d65","ios":"levelo://app?vid=427d301d-0446-4940-93fd-4ab9cb8e1d65"},"vehicle_type_id":"4","last_reported":1717621657,"current_range_meters":26800,"station_id":"ce4bgkh2rcd13ifvqbk0","pricing_plan_id":"cebpf4jnsgd1na2vs0mg"},{"bike_id":"b2fc4ef3-834b-4d75-8dfd-90505cfa7485","system_id":"levelo_inurba_marseille","lat":43.298764,"lon":5.388973,"is_reserved":false,"is_disabled":false,"rental_uris":{"android":"levelo://app?vid=b2fc4ef3-834b-4d75-8dfd-90505cfa7485","ios":"levelo://app?vid=b2fc4ef3-834b-4d75-8dfd-90505cfa7485"},"vehicle_type_id":"4","last_reported":1717621657,"current_range_meters":20800,"station_id":"ce4bh392rcd13ifvqdl0","pricing_plan_id":"cebpf4jnsgd1na2vs0mg"},{"bike_id":"76415297-90e6-4740-813c-1176f625c1a3","system_id":"levelo_inurba_marseille","lat":43.298764,"lon":5.388973,"is_reserved":false,"is_disabled":false,"rental_uris":{"android":"levelo://app?vid=76415297-90e6-4740-813c-1176f625c1a3","ios":"levelo://app?vid=76415297-90e6-4740-813c-1176f625c1a3"},"vehicle_type_id":"4","last_reported":1717621657,"current_range_meters":2400,"station_id":"ce4bh392rcd13ifvqdl0","pricing_plan_id":"cebpf4jnsgd1na2vs0mg"},{"bike_id":"a3ac4d13-89f1-4dbe-840a-31f7d806e65f","system_id":"levelo_inurba_marseille","lat":43.298764,"lon":5.388973,"is_reserved":false,"is_disabled":false,"rental_uris":{"android":"levelo://app?vid=a3ac4d13-89f1-4dbe-840a-31f7d806e65f","ios":"levelo://app?vid=a3ac4d13-89f1-4dbe-840a-31f7d806e65f"},"vehicle_type_id":"4","last_reported":1717621657,"current_range_meters":14000,"station_id":"ce4bh392rcd13ifvqdl0","pricing_plan_id":"cebpf4jnsgd1na2vs0mg"},{"bike_id":"1fa3e984-5368-4bfe-ad33-34999080e91d","system_id":"levelo_inurba_marseille","lat":43.298764,"lon":5.388973,"is_reserved":false,"is_disabled":false,"rental_uris":{"android":"levelo://app?vid=1fa3e984-5368-4bfe-ad33-34999080e91d","ios":"levelo://app?vid=1fa3e984-5368-4bfe-ad33-34999080e91d"},"vehicle_type_id":"4","last_reported":1717621657,"current_range_meters":16000,"station_id":"ce4bh392rcd13ifvqdl0","pricing_plan_id":"cebpf4jnsgd1na2vs0mg"},{"bike_id":"1426ee9d-b737-4c63-a98e-22f10f0366f2","system_id":"levelo_inurba_marseille","lat":43.298764,"lon":5.388973,"is_reserved":false,"is_disabled":false,"rental_uris":{"android":"levelo://app?vid=1426ee9d-b737-4c63-a98e-22f10f0366f2","ios":"levelo://app?vid=1426ee9d-b737-4c63-a98e-22f10f0366f2"},"vehicle_type_id":"4","last_reported":1717621657,"current_range_meters":10800,"station_id":"ce4bh392rcd13ifvqdl0","pricing_plan_id":"cebpf4jnsgd1na2vs0mg"},{"bike_id":"6efb266d-0029-4869-a315-0ab42f66dd05","system_id":"levelo_inurba_marseille","lat":43.30085,"lon":5.390856,"is_reserved":false,"is_disabled":false,"rental_uris":{"android":"levelo://app?vid=6efb266d-0029-4869-a315-0ab42f66dd05","ios":"levelo://app?vid=6efb266d-0029-4869-a315-0ab42f66dd05"},"vehicle_type_id":"4","last_reported":1717621657,"current_range_meters":11600,"station_id":"ce4bh192rcd13ifvqdb0","pricing_plan_id":"cebpf4jnsgd1na2vs0mg"},{"bike_id":"ec03b25b-0d23-44e2-bc69-56ad579b4205","system_id":"levelo_inurba_marseille","lat":43.298764,"lon":5.388973,"is_reserved":false,"is_disabled":false,"rental_uris":{"android":"levelo://app?vid=ec03b25b-0d23-44e2-bc69-56ad579b4205","ios":"levelo://app?vid=ec03b25b-0d23-44e2-bc69-56ad579b4205"},"vehicle_type_id":"4","last_reported":1717621657,"current_range_meters":15200,"station_id":"ce4bh392rcd13ifvqdl0","pricing_plan_id":"cebpf4jnsgd1na2vs0mg"},{"bike_id":"832b065e-7a37-4b56-926d-12ece093a763","system_id":"levelo_inurba_marseille","lat":43.30888,"lon":5.39625,"is_reserved":false,"is_disabled":false,"rental_uris":{"android":"levelo://app?vid=832b065e-7a37-4b56-926d-12ece093a763","ios":"levelo://app?vid=832b065e-7a37-4b56-926d-12ece093a763"},"vehicle_type_id":"4","last_reported":1717621657,"current_range_meters":0,"station_id":"ce4bh012rcd13ifvqcv0","pricing_plan_id":"cebpf4jnsgd1na2vs0mg"},{"bike_id":"404b2b49-3e3c-4623-a20d-d6d316c72eec","system_id":"levelo_inurba_marseille","lat":43.308893,"lon":5.396253,"is_reserved":false,"is_disabled":false,"rental_uris":{"android":"levelo://app?vid=404b2b49-3e3c-4623-a20d-d6d316c72eec","ios":"levelo://app?vid=404b2b49-3e3c-4623-a20d-d6d316c72eec"},"vehicle_type_id":"4","last_reported":1717621657,"current_range_meters":0,"station_id":"ce4bh012rcd13ifvqcv0","pricing_plan_id":"cebpf4jnsgd1na2vs0mg"},{"bike_id":"6635d04e-5aaa-4060-8ca1-73b0aa7fcf94","system_id":"levelo_inurba_marseille","lat":43.309038,"lon":5.396546,"is_reserved":false,"is_disabled":false,"rental_uris":{"android":"levelo://app?vid=6635d04e-5aaa-4060-8ca1-73b0aa7fcf94","ios":"levelo://app?vid=6635d04e-5aaa-4060-8ca1-73b0aa7fcf94"},"vehicle_type_id":"4","last_reported":1717621657,"current_range_meters":24800,"station_id":"ce4bh012rcd13ifvqcv0","pricing_plan_id":"cebpf4jnsgd1na2vs0mg"},{"bike_id":"47feab68-61cb-43f0-a353-553040c489d8","system_id":"levelo_inurba_marseille","lat":43.313291,"lon":5.396838,"is_reserved":false,"is_disabled":false,"rental_uris":{"android":"levelo://app?vid=47feab68-61cb-43f0-a353-553040c489d8","ios":"levelo://app?vid=47feab68-61cb-43f0-a353-553040c489d8"},"vehicle_type_id":"4","last_reported":1717621657,"current_range_meters":26400,"station_id":"ce4bgvp2rcd13ifvqcu0","pricing_plan_id":"cebpf4jnsgd1na2vs0mg"},{"bike_id":"4d3c82a3-c6c6-4d5c-a61a-301f82f9bcdc","system_id":"levelo_inurba_marseille","lat":43.313291,"lon":5.396838,"is_reserved":false,"is_disabled":false,"rental_uris":{"android":"levelo://app?vid=4d3c82a3-c6c6-4d5c-a61a-301f82f9bcdc","ios":"levelo://app?vid=4d3c82a3-c6c6-4d5c-a61a-301f82f9bcdc"},"vehicle_type_id":"4","last_reported":1717621657,"current_range_meters":28000,"station_id":"ce4bgvp2rcd13ifvqcu0","pricing_plan_id":"cebpf4jnsgd1na2vs0mg"},{"bike_id":"02d8997d-9947-4d2b-8b09-2e1f1a4077c0","system_id":"levelo_inurba_marseille","lat":43.30886,"lon":5.39638,"is_reserved":false,"is_disabled":false,"rental_uris":{"android":"levelo://app?vid=02d8997d-9947-4d2b-8b09-2e1f1a4077c0","ios":"levelo://app?vid=02d8997d-9947-4d2b-8b09-2e1f1a4077c0"},"vehicle_type_id":"4","last_reported":1717621657,"current_range_meters":0,"station_id":"ce4bh012rcd13ifvqcv0","pricing_plan_id":"cebpf4jnsgd1na2vs0mg"},{"bike_id":"15afc11a-fa88-4d89-bc33-fcb7489213cb","system_id":"levelo_inurba_marseille","lat":43.313319,"lon":5.396864,"is_reserved":false,"is_disabled":false,"rental_uris":{"android":"levelo://app?vid=15afc11a-fa88-4d89-bc33-fcb7489213cb","ios":"levelo://app?vid=15afc11a-fa88-4d89-bc33-fcb7489213cb"},"vehicle_type_id":"4","last_reported":1717621657,"current_range_meters":19200,"station_id":"ce4bgvp2rcd13ifvqcu0","pricing_plan_id":"cebpf4jnsgd1na2vs0mg"},{"bike_id":"2cb31789-cc2e-4336-b2fe-ca5a5ff74a97","system_id":"levelo_inurba_marseille","lat":43.313291,"lon":5.396838,"is_reserved":false,"is_disabled":false,"rental_uris":{"android":"levelo://app?vid=2cb31789-cc2e-4336-b2fe-ca5a5ff74a97","ios":"levelo://app?vid=2cb31789-cc2e-4336-b2fe-ca5a5ff74a97"},"vehicle_type_id":"4","last_reported":1717621657,"current_range_meters":6800,"station_id":"ce4bgvp2rcd13ifvqcu0","pricing_plan_id":"cebpf4jnsgd1na2vs0mg"},{"bike_id":"eef03f50-fc5d-4e7a-bb9b-f9707f400632","system_id":"levelo_inurba_marseille","lat":43.313291,"lon":5.396838,"is_reserved":false,"is_disabled":false,"rental_uris":{"android":"levelo://app?vid=eef03f50-fc5d-4e7a-bb9b-f9707f400632","ios":"levelo://app?vid=eef03f50-fc5d-4e7a-bb9b-f9707f400632"},"vehicle_type_id":"4","last_reported":1717621657,"current_range_meters":27600,"station_id":"ce4bgvp2rcd13ifvqcu0","pricing_plan_id":"cebpf4jnsgd1na2vs0mg"},{"bike_id":"e3f28264-29b6-4e99-87b8-0edfb06b718f","system_id":"levelo_inurba_marseille","lat":43.308934,"lon":5.396434,"is_reserved":false,"is_disabled":false,"rental_uris":{"android":"levelo://app?vid=e3f28264-29b6-4e99-87b8-0edfb06b718f","ios":"levelo://app?vid=e3f28264-29b6-4e99-87b8-0edfb06b718f"},"vehicle_type_id":"4","last_reported":1717621657,"current_range_meters":1600,"station_id":"","pricing_plan_id":"cebpf4jnsgd1na2vs0mg"},{"bike_id":"b9c73206-8690-41eb-8160-c907ecb2332c","system_id":"levelo_inurba_marseille","lat":43.313291,"lon":5.396838,"is_reserved":false,"is_disabled":false,"rental_uris":{"android":"levelo://app?vid=b9c73206-8690-41eb-8160-c907ecb2332c","ios":"levelo://app?vid=b9c73206-8690-41eb-8160-c907ecb2332c"},"vehicle_type_id":"4","last_reported":1717621657,"current_range_meters":24800,"station_id":"ce4bgvp2rcd13ifvqcu0","pricing_plan_id":"cebpf4jnsgd1na2vs0mg"},{"bike_id":"fa70ec1d-ff9a-4115-bcce-ec83afc1064b","system_id":"levelo_inurba_marseille","lat":43.313291,"lon":5.396838,"is_reserved":false,"is_disabled":false,"rental_uris":{"android":"levelo://app?vid=fa70ec1d-ff9a-4115-bcce-ec83afc1064b","ios":"levelo://app?vid=fa70ec1d-ff9a-4115-bcce-ec83afc1064b"},"vehicle_type_id":"4","last_reported":1717621657,"current_range_meters":10400,"station_id":"ce4bgvp2rcd13ifvqcu0","pricing_plan_id":"cebpf4jnsgd1na2vs0mg"},{"bike_id":"6dab6527-7644-44e1-afdf-af29337a75fd","system_id":"levelo_inurba_marseille","lat":43.308838,"lon":5.39644,"is_reserved":false,"is_disabled":false,"rental_uris":{"android":"levelo://app?vid=6dab6527-7644-44e1-afdf-af29337a75fd","ios":"levelo://app?vid=6dab6527-7644-44e1-afdf-af29337a75fd"},"vehicle_type_id":"4","last_reported":1717621657,"current_range_meters":0,"station_id":"ce4bh012rcd13ifvqcv0","pricing_plan_id":"cebpf4jnsgd1na2vs0mg"},{"bike_id":"105471be-57ba-4e75-a6df-5a56e0a86040","system_id":"levelo_inurba_marseille","lat":43.3089,"lon":5.39646,"is_reserved":false,"is_disabled":false,"rental_uris":{"android":"levelo://app?vid=105471be-57ba-4e75-a6df-5a56e0a86040","ios":"levelo://app?vid=105471be-57ba-4e75-a6df-5a56e0a86040"},"vehicle_type_id":"4","last_reported":1717621657,"current_range_meters":0,"station_id":"ce4bh012rcd13ifvqcv0","pricing_plan_id":"cebpf4jnsgd1na2vs0mg"},{"bike_id":"f420d5c4-8e16-4d7c-ae72-17a5a40ca267","system_id":"levelo_inurba_marseille","lat":43.313291,"lon":5.396838,"is_reserved":false,"is_disabled":false,"rental_uris":{"android":"levelo://app?vid=f420d5c4-8e16-4d7c-ae72-17a5a40ca267","ios":"levelo://app?vid=f420d5c4-8e16-4d7c-ae72-17a5a40ca267"},"vehicle_type_id":"4","last_reported":1717621657,"current_range_meters":6800,"station_id":"ce4bgvp2rcd13ifvqcu0","pricing_plan_id":"cebpf4jnsgd1na2vs0mg"},{"bike_id":"11b863b0-a931-4849-8181-0fd3ed1bf9f0","system_id":"levelo_inurba_marseille","lat":43.30888,"lon":5.39648,"is_reserved":false,"is_disabled":false,"rental_uris":{"android":"levelo://app?vid=11b863b0-a931-4849-8181-0fd3ed1bf9f0","ios":"levelo://app?vid=11b863b0-a931-4849-8181-0fd3ed1bf9f0"},"vehicle_type_id":"4","last_reported":1717621657,"current_range_meters":16800,"station_id":"ce4bh012rcd13ifvqcv0","pricing_plan_id":"cebpf4jnsgd1na2vs0mg"},{"bike_id":"4195e2df-097b-4e1a-a273-aa874b1ec6ba","system_id":"levelo_inurba_marseille","lat":43.31326,"lon":5.39695,"is_reserved":false,"is_disabled":false,"rental_uris":{"android":"levelo://app?vid=4195e2df-097b-4e1a-a273-aa874b1ec6ba","ios":"levelo://app?vid=4195e2df-097b-4e1a-a273-aa874b1ec6ba"},"vehicle_type_id":"4","last_reported":1717621657,"current_range_meters":8000,"station_id":"ce4bgvp2rcd13ifvqcu0","pricing_plan_id":"cebpf4jnsgd1na2vs0mg"},{"bike_id":"45ec48c6-026a-430c-be77-42929a691a29","system_id":"levelo_inurba_marseille","lat":43.313291,"lon":5.396838,"is_reserved":false,"is_disabled":false,"rental_uris":{"android":"levelo://app?vid=45ec48c6-026a-430c-be77-42929a691a29","ios":"levelo://app?vid=45ec48c6-026a-430c-be77-42929a691a29"},"vehicle_type_id":"4","last_reported":1717621657,"current_range_meters":28000,"station_id":"ce4bgvp2rcd13ifvqcu0","pricing_plan_id":"cebpf4jnsgd1na2vs0mg"},{"bike_id":"0b504bf2-6dea-4f65-86a3-8a3eabb69ca0","system_id":"levelo_inurba_marseille","lat":43.313291,"lon":5.396838,"is_reserved":false,"is_disabled":false,"rental_uris":{"android":"levelo://app?vid=0b504bf2-6dea-4f65-86a3-8a3eabb69ca0","ios":"levelo://app?vid=0b504bf2-6dea-4f65-86a3-8a3eabb69ca0"},"vehicle_type_id":"4","last_reported":1717621657,"current_range_meters":28800,"station_id":"ce4bgvp2rcd13ifvqcu0","pricing_plan_id":"cebpf4jnsgd1na2vs0mg"},{"bike_id":"bf0a685e-18c9-4b38-9b5d-029442732afb","system_id":"levelo_inurba_marseille","lat":43.31329,"lon":5.39698,"is_reserved":false,"is_disabled":false,"rental_uris":{"android":"levelo://app?vid=bf0a685e-18c9-4b38-9b5d-029442732afb","ios":"levelo://app?vid=bf0a685e-18c9-4b38-9b5d-029442732afb"},"vehicle_type_id":"4","last_reported":1717621657,"current_range_meters":31200,"station_id":"ce4bgvp2rcd13ifvqcu0","pricing_plan_id":"cebpf4jnsgd1na2vs0mg"},{"bike_id":"2640fd05-81ce-4efe-b7b7-5b7632b41e51","system_id":"levelo_inurba_marseille","lat":43.31334,"lon":5.39701,"is_reserved":false,"is_disabled":false,"rental_uris":{"android":"levelo://app?vid=2640fd05-81ce-4efe-b7b7-5b7632b41e51","ios":"levelo://app?vid=2640fd05-81ce-4efe-b7b7-5b7632b41e51"},"vehicle_type_id":"4","last_reported":1717621657,"current_range_meters":31200,"station_id":"ce4bgvp2rcd13ifvqcu0","pricing_plan_id":"cebpf4jnsgd1na2vs0mg"},{"bike_id":"280aad66-1ea9-44f0-a8f0-8a0f546eb208","system_id":"levelo_inurba_marseille","lat":43.309038,"lon":5.396546,"is_reserved":false,"is_disabled":false,"rental_uris":{"android":"levelo://app?vid=280aad66-1ea9-44f0-a8f0-8a0f546eb208","ios":"levelo://app?vid=280aad66-1ea9-44f0-a8f0-8a0f546eb208"},"vehicle_type_id":"4","last_reported":1717621657,"current_range_meters":0,"station_id":"ce4bh012rcd13ifvqcv0","pricing_plan_id":"cebpf4jnsgd1na2vs0mg"},{"bike_id":"08a2592f-2ef3-480a-aae2-84b2055c46b6","system_id":"levelo_inurba_marseille","lat":43.313291,"lon":5.396838,"is_reserved":false,"is_disabled":false,"rental_uris":{"android":"levelo://app?vid=08a2592f-2ef3-480a-aae2-84b2055c46b6","ios":"levelo://app?vid=08a2592f-2ef3-480a-aae2-84b2055c46b6"},"vehicle_type_id":"4","last_reported":1717621657,"current_range_meters":31200,"station_id":"ce4bgvp2rcd13ifvqcu0","pricing_plan_id":"cebpf4jnsgd1na2vs0mg"},{"bike_id":"0e2cbbb4-6bb9-4b69-b57a-f344c763fd5a","system_id":"levelo_inurba_marseille","lat":43.309047,"lon":5.396551,"is_reserved":false,"is_disabled":false,"rental_uris":{"android":"levelo://app?vid=0e2cbbb4-6bb9-4b69-b57a-f344c763fd5a","ios":"levelo://app?vid=0e2cbbb4-6bb9-4b69-b57a-f344c763fd5a"},"vehicle_type_id":"4","last_reported":1717621657,"current_range_meters":29200,"station_id":"ce4bh012rcd13ifvqcv0","pricing_plan_id":"cebpf4jnsgd1na2vs0mg"},{"bike_id":"5ba3b16b-6cc0-4c7a-ad04-7a76c400253f","system_id":"levelo_inurba_marseille","lat":43.29529,"lon":5.385581,"is_reserved":false,"is_disabled":false,"rental_uris":{"android":"levelo://app?vid=5ba3b16b-6cc0-4c7a-ad04-7a76c400253f","ios":"levelo://app?vid=5ba3b16b-6cc0-4c7a-ad04-7a76c400253f"},"vehicle_type_id":"4","last_reported":1717621657,"current_range_meters":16400,"station_id":"ce4bgih2rcd13ifvqba0","pricing_plan_id":"cebpf4jnsgd1na2vs0mg"},{"bike_id":"6c543194-12aa-4da1-b239-f75ddffe7516","system_id":"levelo_inurba_marseille","lat":43.309047,"lon":5.396551,"is_reserved":false,"is_disabled":false,"rental_uris":{"android":"levelo://app?vid=6c543194-12aa-4da1-b239-f75ddffe7516","ios":"levelo://app?vid=6c543194-12aa-4da1-b239-f75ddffe7516"},"vehicle_type_id":"4","last_reported":1717621657,"current_range_meters":28800,"station_id":"ce4bh012rcd13ifvqcv0","pricing_plan_id":"cebpf4jnsgd1na2vs0mg"},{"bike_id":"1f65496e-a000-4392-a210-623162e2ed69","system_id":"levelo_inurba_marseille","lat":43.30885,"lon":5.3966,"is_reserved":false,"is_disabled":false,"rental_uris":{"android":"levelo://app?vid=1f65496e-a000-4392-a210-623162e2ed69","ios":"levelo://app?vid=1f65496e-a000-4392-a210-623162e2ed69"},"vehicle_type_id":"4","last_reported":1717621657,"current_range_meters":4000,"station_id":"ce4bh012rcd13ifvqcv0","pricing_plan_id":"cebpf4jnsgd1na2vs0mg"},{"bike_id":"1a828761-0e80-4ee0-b41e-a8490367e1c0","system_id":"levelo_inurba_marseille","lat":43.309038,"lon":5.396546,"is_reserved":false,"is_disabled":false,"rental_uris":{"android":"levelo://app?vid=1a828761-0e80-4ee0-b41e-a8490367e1c0","ios":"levelo://app?vid=1a828761-0e80-4ee0-b41e-a8490367e1c0"},"vehicle_type_id":"4","last_reported":1717621657,"current_range_meters":28400,"station_id":"ce4bh012rcd13ifvqcv0","pricing_plan_id":"cebpf4jnsgd1na2vs0mg"},{"bike_id":"96fd2eb0-e933-4d40-a1f8-69d48c555f2a","system_id":"levelo_inurba_marseille","lat":43.290779,"lon":5.371482,"is_reserved":false,"is_disabled":false,"rental_uris":{"android":"levelo://app?vid=96fd2eb0-e933-4d40-a1f8-69d48c555f2a","ios":"levelo://app?vid=96fd2eb0-e933-4d40-a1f8-69d48c555f2a"},"vehicle_type_id":"4","last_reported":1717621657,"current_range_meters":28800,"station_id":"ce4bh5p2rcd13ifvqe4g","pricing_plan_id":"cebpf4jnsgd1na2vs0mg"},{"bike_id":"9f16fcde-9ee6-48d2-b779-d15f0549d754","system_id":"levelo_inurba_marseille","lat":43.290779,"lon":5.371482,"is_reserved":false,"is_disabled":false,"rental_uris":{"android":"levelo://app?vid=9f16fcde-9ee6-48d2-b779-d15f0549d754","ios":"levelo://app?vid=9f16fcde-9ee6-48d2-b779-d15f0549d754"},"vehicle_type_id":"4","last_reported":1717621657,"current_range_meters":3600,"station_id":"ce4bh5p2rcd13ifvqe4g","pricing_plan_id":"cebpf4jnsgd1na2vs0mg"},{"bike_id":"5ef9cb1e-017c-4051-88ac-e5497d49a848","system_id":"levelo_inurba_marseille","lat":43.290779,"lon":5.371482,"is_reserved":false,"is_disabled":false,"rental_uris":{"android":"levelo://app?vid=5ef9cb1e-017c-4051-88ac-e5497d49a848","ios":"levelo://app?vid=5ef9cb1e-017c-4051-88ac-e5497d49a848"},"vehicle_type_id":"4","last_reported":1717621657,"current_range_meters":25200,"station_id":"ce4bh5p2rcd13ifvqe4g","pricing_plan_id":"cebpf4jnsgd1na2vs0mg"},{"bike_id":"fe6efebf-db15-4a46-9ccc-37e628546c67","system_id":"levelo_inurba_marseille","lat":43.302008,"lon":5.394694,"is_reserved":false,"is_disabled":false,"rental_uris":{"android":"levelo://app?vid=fe6efebf-db15-4a46-9ccc-37e628546c67","ios":"levelo://app?vid=fe6efebf-db15-4a46-9ccc-37e628546c67"},"vehicle_type_id":"4","last_reported":1717621657,"current_range_meters":24000,"station_id":"ce4bh0p2rcd13ifvqd70","pricing_plan_id":"cebpf4jnsgd1na2vs0mg"},{"bike_id":"31989bf2-92b9-44ec-9be1-4092d76ab2e9","system_id":"levelo_inurba_marseille","lat":43.302008,"lon":5.394694,"is_reserved":false,"is_disabled":false,"rental_uris":{"android":"levelo://app?vid=31989bf2-92b9-44ec-9be1-4092d76ab2e9","ios":"levelo://app?vid=31989bf2-92b9-44ec-9be1-4092d76ab2e9"},"vehicle_type_id":"4","last_reported":1717621657,"current_range_meters":13200,"station_id":"ce4bh0p2rcd13ifvqd70","pricing_plan_id":"cebpf4jnsgd1na2vs0mg"},{"bike_id":"d772ce84-7f63-4ea0-a3f9-6abb8b432def","system_id":"levelo_inurba_marseille","lat":43.302008,"lon":5.394694,"is_reserved":false,"is_disabled":false,"rental_uris":{"android":"levelo://app?vid=d772ce84-7f63-4ea0-a3f9-6abb8b432def","ios":"levelo://app?vid=d772ce84-7f63-4ea0-a3f9-6abb8b432def"},"vehicle_type_id":"4","last_reported":1717621657,"current_range_meters":15600,"station_id":"ce4bh0p2rcd13ifvqd70","pricing_plan_id":"cebpf4jnsgd1na2vs0mg"},{"bike_id":"e4256bb2-66c0-467b-98b0-e968954a9467","system_id":"levelo_inurba_marseille","lat":43.302008,"lon":5.394694,"is_reserved":false,"is_disabled":false,"rental_uris":{"android":"levelo://app?vid=e4256bb2-66c0-467b-98b0-e968954a9467","ios":"levelo://app?vid=e4256bb2-66c0-467b-98b0-e968954a9467"},"vehicle_type_id":"4","last_reported":1717621657,"current_range_meters":26000,"station_id":"ce4bh0p2rcd13ifvqd70","pricing_plan_id":"cebpf4jnsgd1na2vs0mg"},{"bike_id":"1dcfc70d-b37f-4a64-ac41-9ef697cd81b1","system_id":"levelo_inurba_marseille","lat":43.302008,"lon":5.394694,"is_reserved":false,"is_disabled":false,"rental_uris":{"android":"levelo://app?vid=1dcfc70d-b37f-4a64-ac41-9ef697cd81b1","ios":"levelo://app?vid=1dcfc70d-b37f-4a64-ac41-9ef697cd81b1"},"vehicle_type_id":"4","last_reported":1717621657,"current_range_meters":17600,"station_id":"ce4bh0p2rcd13ifvqd70","pricing_plan_id":"cebpf4jnsgd1na2vs0mg"},{"bike_id":"a9492aff-187d-4d8b-adb1-feb76ba54010","system_id":"levelo_inurba_marseille","lat":43.28983,"lon":5.36672,"is_reserved":false,"is_disabled":false,"rental_uris":{"android":"levelo://app?vid=a9492aff-187d-4d8b-adb1-feb76ba54010","ios":"levelo://app?vid=a9492aff-187d-4d8b-adb1-feb76ba54010"},"vehicle_type_id":"4","last_reported":1717621657,"current_range_meters":13600,"station_id":"","pricing_plan_id":"cebpf4jnsgd1na2vs0mg"},{"bike_id":"189c6d70-1d91-4a4b-b277-4254c341b4ac","system_id":"levelo_inurba_marseille","lat":43.290631,"lon":5.359244,"is_reserved":false,"is_disabled":false,"rental_uris":{"android":"levelo://app?vid=189c6d70-1d91-4a4b-b277-4254c341b4ac","ios":"levelo://app?vid=189c6d70-1d91-4a4b-b277-4254c341b4ac"},"vehicle_type_id":"4","last_reported":1717621657,"current_range_meters":9600,"station_id":"ce4bha92rcd13ifvqeg0","pricing_plan_id":"cebpf4jnsgd1na2vs0mg"},{"bike_id":"e18a0f6b-163e-47f0-a7de-04a94f15f9d2","system_id":"levelo_inurba_marseille","lat":43.290327,"lon":5.375711,"is_reserved":false,"is_disabled":false,"rental_uris":{"android":"levelo://app?vid=e18a0f6b-163e-47f0-a7de-04a94f15f9d2","ios":"levelo://app?vid=e18a0f6b-163e-47f0-a7de-04a94f15f9d2"},"vehicle_type_id":"4","last_reported":1717621657,"current_range_meters":25200,"station_id":"ce4bh692rcd13ifvqe90","pricing_plan_id":"cebpf4jnsgd1na2vs0mg"},{"bike_id":"bb98027a-1eb1-454a-9a2f-06c7ef004fc5","system_id":"levelo_inurba_marseille","lat":43.294162,"lon":5.386292,"is_reserved":false,"is_disabled":false,"rental_uris":{"android":"levelo://app?vid=bb98027a-1eb1-454a-9a2f-06c7ef004fc5","ios":"levelo://app?vid=bb98027a-1eb1-454a-9a2f-06c7ef004fc5"},"vehicle_type_id":"4","last_reported":1717621657,"current_range_meters":20000,"station_id":"ce4bh2h2rcd13ifvqdh0","pricing_plan_id":"cebpf4jnsgd1na2vs0mg"},{"bike_id":"79244e2b-a2f5-4163-8e76-88349560f31b","system_id":"levelo_inurba_marseille","lat":43.294162,"lon":5.386292,"is_reserved":false,"is_disabled":false,"rental_uris":{"android":"levelo://app?vid=79244e2b-a2f5-4163-8e76-88349560f31b","ios":"levelo://app?vid=79244e2b-a2f5-4163-8e76-88349560f31b"},"vehicle_type_id":"4","last_reported":1717621657,"current_range_meters":1200,"station_id":"ce4bh2h2rcd13ifvqdh0","pricing_plan_id":"cebpf4jnsgd1na2vs0mg"},{"bike_id":"886e7237-a799-4faa-a02f-fcefdc831f71","system_id":"levelo_inurba_marseille","lat":43.294153,"lon":5.386305,"is_reserved":false,"is_disabled":false,"rental_uris":{"android":"levelo://app?vid=886e7237-a799-4faa-a02f-fcefdc831f71","ios":"levelo://app?vid=886e7237-a799-4faa-a02f-fcefdc831f71"},"vehicle_type_id":"4","last_reported":1717621657,"current_range_meters":0,"station_id":"ce4bh2h2rcd13ifvqdh0","pricing_plan_id":"cebpf4jnsgd1na2vs0mg"},{"bike_id":"07423fdf-1a8f-4d0f-b39c-bd35569fb56d","system_id":"levelo_inurba_marseille","lat":43.289184,"lon":5.366408,"is_reserved":false,"is_disabled":false,"rental_uris":{"android":"levelo://app?vid=07423fdf-1a8f-4d0f-b39c-bd35569fb56d","ios":"levelo://app?vid=07423fdf-1a8f-4d0f-b39c-bd35569fb56d"},"vehicle_type_id":"4","last_reported":1717621657,"current_range_meters":0,"station_id":"ce4bhap2rcd13ifvqek0","pricing_plan_id":"cebpf4jnsgd1na2vs0mg"},{"bike_id":"86648492-6489-46bf-82f1-e56357a329bc","system_id":"levelo_inurba_marseille","lat":43.289184,"lon":5.366408,"is_reserved":false,"is_disabled":false,"rental_uris":{"android":"levelo://app?vid=86648492-6489-46bf-82f1-e56357a329bc","ios":"levelo://app?vid=86648492-6489-46bf-82f1-e56357a329bc"},"vehicle_type_id":"4","last_reported":1717621657,"current_range_meters":0,"station_id":"ce4bhap2rcd13ifvqek0","pricing_plan_id":"cebpf4jnsgd1na2vs0mg"},{"bike_id":"d509d752-69a4-419b-95fe-3cd5f0548f55","system_id":"levelo_inurba_marseille","lat":43.289468,"lon":5.363719,"is_reserved":false,"is_disabled":false,"rental_uris":{"android":"levelo://app?vid=d509d752-69a4-419b-95fe-3cd5f0548f55","ios":"levelo://app?vid=d509d752-69a4-419b-95fe-3cd5f0548f55"},"vehicle_type_id":"4","last_reported":1717621657,"current_range_meters":6800,"station_id":"ce4bhc92rcd13ifvqetg","pricing_plan_id":"cebpf4jnsgd1na2vs0mg"},{"bike_id":"068b3b6a-d7d6-4650-b58e-329086cf8b78","system_id":"levelo_inurba_marseille","lat":43.292644,"lon":5.384257,"is_reserved":false,"is_disabled":false,"rental_uris":{"android":"levelo://app?vid=068b3b6a-d7d6-4650-b58e-329086cf8b78","ios":"levelo://app?vid=068b3b6a-d7d6-4650-b58e-329086cf8b78"},"vehicle_type_id":"4","last_reported":1717621657,"current_range_meters":3600,"station_id":"ce4bh692rcd13ifvqea0","pricing_plan_id":"cebpf4jnsgd1na2vs0mg"},{"bike_id":"af0eb770-ae64-4af1-91da-507cdd0f3f21","system_id":"levelo_inurba_marseille","lat":43.297815,"lon":5.393548,"is_reserved":false,"is_disabled":false,"rental_uris":{"android":"levelo://app?vid=af0eb770-ae64-4af1-91da-507cdd0f3f21","ios":"levelo://app?vid=af0eb770-ae64-4af1-91da-507cdd0f3f21"},"vehicle_type_id":"4","last_reported":1717621657,"current_range_meters":0,"station_id":"chh1huq6cuj3fo74tm60","pricing_plan_id":"cebpf4jnsgd1na2vs0mg"},{"bike_id":"e1a64ee0-8a03-4c38-9edd-477df486fa42","system_id":"levelo_inurba_marseille","lat":43.304274,"lon":5.397513,"is_reserved":false,"is_disabled":false,"rental_uris":{"android":"levelo://app?vid=e1a64ee0-8a03-4c38-9edd-477df486fa42","ios":"levelo://app?vid=e1a64ee0-8a03-4c38-9edd-477df486fa42"},"vehicle_type_id":"4","last_reported":1717621657,"current_range_meters":18800,"station_id":"ce4bh092rcd13ifvqd20","pricing_plan_id":"cebpf4jnsgd1na2vs0mg"},{"bike_id":"a978aeb5-e38c-4317-80c1-54ee9f75eed4","system_id":"levelo_inurba_marseille","lat":43.29106,"lon":5.38048,"is_reserved":false,"is_disabled":false,"rental_uris":{"android":"levelo://app?vid=a978aeb5-e38c-4317-80c1-54ee9f75eed4","ios":"levelo://app?vid=a978aeb5-e38c-4317-80c1-54ee9f75eed4"},"vehicle_type_id":"4","last_reported":1717621657,"current_range_meters":0,"station_id":"","pricing_plan_id":"cebpf4jnsgd1na2vs0mg"},{"bike_id":"6c982d92-a7c5-4df4-9bdd-c927bdcc4f0a","system_id":"levelo_inurba_marseille","lat":43.28972,"lon":5.37604,"is_reserved":false,"is_disabled":false,"rental_uris":{"android":"levelo://app?vid=6c982d92-a7c5-4df4-9bdd-c927bdcc4f0a","ios":"levelo://app?vid=6c982d92-a7c5-4df4-9bdd-c927bdcc4f0a"},"vehicle_type_id":"4","last_reported":1717621657,"current_range_meters":2400,"station_id":"ce4bhf92rcd13ifvqf50","pricing_plan_id":"cebpf4jnsgd1na2vs0mg"},{"bike_id":"b8ba811d-670a-4f8b-9d14-9949d8effdbb","system_id":"levelo_inurba_marseille","lat":43.290103,"lon":5.356114,"is_reserved":false,"is_disabled":false,"rental_uris":{"android":"levelo://app?vid=b8ba811d-670a-4f8b-9d14-9949d8effdbb","ios":"levelo://app?vid=b8ba811d-670a-4f8b-9d14-9949d8effdbb"},"vehicle_type_id":"4","last_reported":1717621657,"current_range_meters":0,"station_id":"ce4bhb92rcd13ifvqen0","pricing_plan_id":"cebpf4jnsgd1na2vs0mg"},{"bike_id":"46cd2ce3-d68b-49dd-aa13-ddb836999377","system_id":"levelo_inurba_marseille","lat":43.29801,"lon":5.3934,"is_reserved":false,"is_disabled":false,"rental_uris":{"android":"levelo://app?vid=46cd2ce3-d68b-49dd-aa13-ddb836999377","ios":"levelo://app?vid=46cd2ce3-d68b-49dd-aa13-ddb836999377"},"vehicle_type_id":"4","last_reported":1717621657,"current_range_meters":20000,"station_id":"chh1huq6cuj3fo74tm60","pricing_plan_id":"cebpf4jnsgd1na2vs0mg"},{"bike_id":"1d5b9532-2442-42da-b8a5-24368a7d04a3","system_id":"levelo_inurba_marseille","lat":43.29793,"lon":5.39341,"is_reserved":false,"is_disabled":false,"rental_uris":{"android":"levelo://app?vid=1d5b9532-2442-42da-b8a5-24368a7d04a3","ios":"levelo://app?vid=1d5b9532-2442-42da-b8a5-24368a7d04a3"},"vehicle_type_id":"4","last_reported":1717621657,"current_range_meters":17200,"station_id":"chh1huq6cuj3fo74tm60","pricing_plan_id":"cebpf4jnsgd1na2vs0mg"},{"bike_id":"0de6c102-5f3c-4782-9c25-62cf3ce6dbff","system_id":"levelo_inurba_marseille","lat":43.2979,"lon":5.39339,"is_reserved":false,"is_disabled":false,"rental_uris":{"android":"levelo://app?vid=0de6c102-5f3c-4782-9c25-62cf3ce6dbff","ios":"levelo://app?vid=0de6c102-5f3c-4782-9c25-62cf3ce6dbff"},"vehicle_type_id":"4","last_reported":1717621657,"current_range_meters":14800,"station_id":"chh1huq6cuj3fo74tm60","pricing_plan_id":"cebpf4jnsgd1na2vs0mg"},{"bike_id":"df8beee0-398e-4e4e-9191-2ee1612dfc6b","system_id":"levelo_inurba_marseille","lat":43.29788,"lon":5.39338,"is_reserved":false,"is_disabled":false,"rental_uris":{"android":"levelo://app?vid=df8beee0-398e-4e4e-9191-2ee1612dfc6b","ios":"levelo://app?vid=df8beee0-398e-4e4e-9191-2ee1612dfc6b"},"vehicle_type_id":"4","last_reported":1717621657,"current_range_meters":27600,"station_id":"chh1huq6cuj3fo74tm60","pricing_plan_id":"cebpf4jnsgd1na2vs0mg"},{"bike_id":"3b7dbeec-16e5-4f8e-91a7-1a3a0fa7cf5e","system_id":"levelo_inurba_marseille","lat":43.295169,"lon":5.390426,"is_reserved":false,"is_disabled":false,"rental_uris":{"android":"levelo://app?vid=3b7dbeec-16e5-4f8e-91a7-1a3a0fa7cf5e","ios":"levelo://app?vid=3b7dbeec-16e5-4f8e-91a7-1a3a0fa7cf5e"},"vehicle_type_id":"4","last_reported":1717621657,"current_range_meters":23200,"station_id":"ce4bh3p2rcd13ifvqdp0","pricing_plan_id":"cebpf4jnsgd1na2vs0mg"},{"bike_id":"aa9e95ec-b0d3-4411-a37c-355300469347","system_id":"levelo_inurba_marseille","lat":43.295169,"lon":5.390426,"is_reserved":false,"is_disabled":false,"rental_uris":{"android":"levelo://app?vid=aa9e95ec-b0d3-4411-a37c-355300469347","ios":"levelo://app?vid=aa9e95ec-b0d3-4411-a37c-355300469347"},"vehicle_type_id":"4","last_reported":1717621657,"current_range_meters":9200,"station_id":"ce4bh3p2rcd13ifvqdp0","pricing_plan_id":"cebpf4jnsgd1na2vs0mg"},{"bike_id":"73cd8b2c-a6d7-45c7-b056-5a37f7f73504","system_id":"levelo_inurba_marseille","lat":43.297815,"lon":5.393548,"is_reserved":false,"is_disabled":false,"rental_uris":{"android":"levelo://app?vid=73cd8b2c-a6d7-45c7-b056-5a37f7f73504","ios":"levelo://app?vid=73cd8b2c-a6d7-45c7-b056-5a37f7f73504"},"vehicle_type_id":"4","last_reported":1717621657,"current_range_meters":24400,"station_id":"chh1huq6cuj3fo74tm60","pricing_plan_id":"cebpf4jnsgd1na2vs0mg"},{"bike_id":"b8822303-381b-43e9-8dcc-f15f80acd6ba","system_id":"levelo_inurba_marseille","lat":43.295169,"lon":5.390426,"is_reserved":false,"is_disabled":false,"rental_uris":{"android":"levelo://app?vid=b8822303-381b-43e9-8dcc-f15f80acd6ba","ios":"levelo://app?vid=b8822303-381b-43e9-8dcc-f15f80acd6ba"},"vehicle_type_id":"4","last_reported":1717621657,"current_range_meters":13600,"station_id":"ce4bh3p2rcd13ifvqdp0","pricing_plan_id":"cebpf4jnsgd1na2vs0mg"},{"bike_id":"251d311b-c1f9-4800-b2a6-20563beb717a","system_id":"levelo_inurba_marseille","lat":43.33026,"lon":5.39034,"is_reserved":false,"is_disabled":false,"rental_uris":{"android":"levelo://app?vid=251d311b-c1f9-4800-b2a6-20563beb717a","ios":"levelo://app?vid=251d311b-c1f9-4800-b2a6-20563beb717a"},"vehicle_type_id":"4","last_reported":1717621657,"current_range_meters":5200,"station_id":"ce4bhr92rcd13ifvqhrg","pricing_plan_id":"cebpf4jnsgd1na2vs0mg"},{"bike_id":"72c2816f-df41-4e44-aec5-2d25bb9fd371","system_id":"levelo_inurba_marseille","lat":43.295169,"lon":5.390426,"is_reserved":false,"is_disabled":false,"rental_uris":{"android":"levelo://app?vid=72c2816f-df41-4e44-aec5-2d25bb9fd371","ios":"levelo://app?vid=72c2816f-df41-4e44-aec5-2d25bb9fd371"},