{"last_updated":1773736719,"ttl":60,"version":"2.2","data":{"bikes":[{"bike_id":"ccb54f6f-537f-4ee3-8bf1-50606846f171","system_id":"levelo_inurba_marseille","lat":43.28716,"lon":5.35204,"is_reserved":false,"is_disabled":false,"rental_uris":{"android":"levelo://app?vid=ccb54f6f-537f-4ee3-8bf1-50606846f171","ios":"levelo://app?vid=ccb54f6f-537f-4ee3-8bf1-50606846f171"},"vehicle_type_id":"4","last_reported":1773736720,"current_range_meters":2800,"station_id":"","pricing_plan_id":"cebpf4jnsgd1na2vs0mg"},{"bike_id":"b50a2122-1199-42ae-991c-eb622a3b1e41","system_id":"levelo_inurba_marseille","lat":43.30296,"lon":5.37757,"is_reserved":false,"is_disabled":false,"rental_uris":{"android":"levelo://app?vid=b50a2122-1199-42ae-991c-eb622a3b1e41","ios":"levelo://app?vid=b50a2122-1199-42ae-991c-eb622a3b1e41"},"vehicle_type_id":"4","last_reported":1773736720,"current_range_meters":2800,"station_id":"ce4bguh2rcd13ifvqcj0","pricing_plan_id":"cebpf4jnsgd1na2vs0mg"},{"bike_id":"415744e2-3d23-4a24-9ecb-c86bceed8775","system_id":"levelo_inurba_marseille","lat":43.30923,"lon":5.36853,"is_reserved":false,"is_disabled":false,"rental_uris":{"android":"levelo://app?vid=415744e2-3d23-4a24-9ecb-c86bceed8775","ios":"levelo://app?vid=415744e2-3d23-4a24-9ecb-c86bceed8775"},"vehicle_type_id":"4","last_reported":1773736720,"current_range_meters":2800,"station_id":"ce4bgn92rcd13ifvqbvg","pricing_plan_id":"cebpf4jnsgd1na2vs0mg"},{"bike_id":"c1bf3ef1-963d-4207-8611-d7e29cc6c1d1","system_id":"levelo_inurba_marseille","lat":43.28185,"lon":5.42629,"is_reserved":false,"is_disabled":false,"rental_uris":{"android":"levelo://app?vid=c1bf3ef1-963d-4207-8611-d7e29cc6c1d1","ios":"levelo://app?vid=c1bf3ef1-963d-4207-8611-d7e29cc6c1d1"},"vehicle_type_id":"4","last_reported":1773736720,"current_range_meters":2800,"station_id":"ce4bhnh2rcd13ifvqgug","pricing_plan_id":"cebpf4jnsgd1na2vs0mg"},{"bike_id":"33090029-f845-49b7-8206-25ff29ffa267","system_id":"levelo_inurba_marseille","lat":43.3149,"lon":5.37302,"is_reserved":false,"is_disabled":false,"rental_uris":{"android":"levelo://app?vid=33090029-f845-49b7-8206-25ff29ffa267","ios":"levelo://app?vid=33090029-f845-49b7-8206-25ff29ffa267"},"vehicle_type_id":"4","last_reported":1773736720,"current_range_meters":2800,"station_id":"ce4bgt12rcd13ifvqcd0","pricing_plan_id":"cebpf4jnsgd1na2vs0mg"},{"bike_id":"89b66626-d3e2-4fcb-8827-e983bb24dcc4","system_id":"levelo_inurba_marseille","lat":43.26201,"lon":5.37456,"is_reserved":false,"is_disabled":false,"rental_uris":{"android":"levelo://app?vid=89b66626-d3e2-4fcb-8827-e983bb24dcc4","ios":"levelo://app?vid=89b66626-d3e2-4fcb-8827-e983bb24dcc4"},"vehicle_type_id":"4","last_reported":1773736720,"current_range_meters":2800,"station_id":"ce4bhgp2rcd13ifvqfc0","pricing_plan_id":"cebpf4jnsgd1na2vs0mg"},{"bike_id":"5c6bcaf2-3895-415c-b8c2-27c24d5ead77","system_id":"levelo_inurba_marseille","lat":43.22556,"lon":5.41637,"is_reserved":false,"is_disabled":false,"rental_uris":{"android":"levelo://app?vid=5c6bcaf2-3895-415c-b8c2-27c24d5ead77","ios":"levelo://app?vid=5c6bcaf2-3895-415c-b8c2-27c24d5ead77"},"vehicle_type_id":"4","last_reported":1773736720,"current_range_meters":2800,"station_id":"st_d2o4gvlbi1j2169b742g","pricing_plan_id":"cebpf4jnsgd1na2vs0mg"},{"bike_id":"ae806b6c-66e4-4515-a066-3b4cbcb9edbc","system_id":"levelo_inurba_marseille","lat":43.30128,"lon":5.37434,"is_reserved":false,"is_disabled":false,"rental_uris":{"android":"levelo://app?vid=ae806b6c-66e4-4515-a066-3b4cbcb9edbc","ios":"levelo://app?vid=ae806b6c-66e4-4515-a066-3b4cbcb9edbc"},"vehicle_type_id":"4","last_reported":1773736720,"current_range_meters":2800,"station_id":"ce4bgs92rcd13ifvqcc0","pricing_plan_id":"cebpf4jnsgd1na2vs0mg"},{"bike_id":"a7ba0513-7d22-4071-8468-781b36233f26","system_id":"levelo_inurba_marseille","lat":43.25122,"lon":5.40316,"is_reserved":false,"is_disabled":false,"rental_uris":{"android":"levelo://app?vid=a7ba0513-7d22-4071-8468-781b36233f26","ios":"levelo://app?vid=a7ba0513-7d22-4071-8468-781b36233f26"},"vehicle_type_id":"4","last_reported":1773736720,"current_range_meters":2800,"station_id":"ce4bhlh2rcd13ifvqgig","pricing_plan_id":"cebpf4jnsgd1na2vs0mg"},{"bike_id":"70a703d4-7cac-4823-8d30-c354371318c4","system_id":"levelo_inurba_marseille","lat":43.29058,"lon":5.39899,"is_reserved":false,"is_disabled":false,"rental_uris":{"android":"levelo://app?vid=70a703d4-7cac-4823-8d30-c354371318c4","ios":"levelo://app?vid=70a703d4-7cac-4823-8d30-c354371318c4"},"vehicle_type_id":"4","last_reported":1773736720,"current_range_meters":2800,"station_id":"","pricing_plan_id":"cebpf4jnsgd1na2vs0mg"},{"bike_id":"b5dadc59-b5bb-4d77-855b-bbc0f972ff44","system_id":"levelo_inurba_marseille","lat":43.31319,"lon":5.36731,"is_reserved":false,"is_disabled":false,"rental_uris":{"android":"levelo://app?vid=b5dadc59-b5bb-4d77-855b-bbc0f972ff44","ios":"levelo://app?vid=b5dadc59-b5bb-4d77-855b-bbc0f972ff44"},"vehicle_type_id":"4","last_reported":1773736720,"current_range_meters":2800,"station_id":"ce4bgr92rcd13ifvqc6g","pricing_plan_id":"cebpf4jnsgd1na2vs0mg"},{"bike_id":"a8c11763-251e-4b93-9a01-e0a3db398ee7","system_id":"levelo_inurba_marseille","lat":43.27997,"lon":5.41652,"is_reserved":false,"is_disabled":false,"rental_uris":{"android":"levelo://app?vid=a8c11763-251e-4b93-9a01-e0a3db398ee7","ios":"levelo://app?vid=a8c11763-251e-4b93-9a01-e0a3db398ee7"},"vehicle_type_id":"4","last_reported":1773736720,"current_range_meters":3200,"station_id":"ce4bho12rcd13ifvqh1g","pricing_plan_id":"cebpf4jnsgd1na2vs0mg"},{"bike_id":"6f1681e6-745f-4763-a26a-a8cfdac1adae","system_id":"levelo_inurba_marseille","lat":43.30316,"lon":5.36905,"is_reserved":false,"is_disabled":true,"rental_uris":{"android":"levelo://app?vid=6f1681e6-745f-4763-a26a-a8cfdac1adae","ios":"levelo://app?vid=6f1681e6-745f-4763-a26a-a8cfdac1adae"},"vehicle_type_id":"4","last_reported":1773736720,"current_range_meters":3200,"station_id":"ce4bgqh2rcd13ifvqc5g","pricing_plan_id":"cebpf4jnsgd1na2vs0mg"},{"bike_id":"edc00b3c-c00b-4310-bd30-5c9391f86fcc","system_id":"levelo_inurba_marseille","lat":43.31221,"lon":5.36862,"is_reserved":false,"is_disabled":false,"rental_uris":{"android":"levelo://app?vid=edc00b3c-c00b-4310-bd30-5c9391f86fcc","ios":"levelo://app?vid=edc00b3c-c00b-4310-bd30-5c9391f86fcc"},"vehicle_type_id":"4","last_reported":1773736720,"current_range_meters":3200,"station_id":"ce4bgl92rcd13ifvqbq0","pricing_plan_id":"cebpf4jnsgd1na2vs0mg"},{"bike_id":"915f7b51-d924-41b5-99d9-3399b366f61e","system_id":"levelo_inurba_marseille","lat":43.24664,"lon":5.38172,"is_reserved":false,"is_disabled":false,"rental_uris":{"android":"levelo://app?vid=915f7b51-d924-41b5-99d9-3399b366f61e","ios":"levelo://app?vid=915f7b51-d924-41b5-99d9-3399b366f61e"},"vehicle_type_id":"4","last_reported":1773736720,"current_range_meters":3200,"station_id":"ce4bhih2rcd13ifvqfr0","pricing_plan_id":"cebpf4jnsgd1na2vs0mg"},{"bike_id":"8054e11e-3c19-4ee8-8c35-72eb111ec099","system_id":"levelo_inurba_marseille","lat":43.31314,"lon":5.36736,"is_reserved":false,"is_disabled":false,"rental_uris":{"android":"levelo://app?vid=8054e11e-3c19-4ee8-8c35-72eb111ec099","ios":"levelo://app?vid=8054e11e-3c19-4ee8-8c35-72eb111ec099"},"vehicle_type_id":"4","last_reported":1773736720,"current_range_meters":3200,"station_id":"ce4bgr92rcd13ifvqc6g","pricing_plan_id":"cebpf4jnsgd1na2vs0mg"},{"bike_id":"6684ef43-aed7-4c02-8193-b5dcc2905571","system_id":"levelo_inurba_marseille","lat":43.25337,"lon":5.42174,"is_reserved":false,"is_disabled":false,"rental_uris":{"android":"levelo://app?vid=6684ef43-aed7-4c02-8193-b5dcc2905571","ios":"levelo://app?vid=6684ef43-aed7-4c02-8193-b5dcc2905571"},"vehicle_type_id":"4","last_reported":1773736720,"current_range_meters":3200,"station_id":"st_d2m65c5bi1j21697t3ng","pricing_plan_id":"cebpf4jnsgd1na2vs0mg"},{"bike_id":"1a12a819-e92c-4e36-be39-a035974bb250","system_id":"levelo_inurba_marseille","lat":43.29593,"lon":5.38098,"is_reserved":false,"is_disabled":false,"rental_uris":{"android":"levelo://app?vid=1a12a819-e92c-4e36-be39-a035974bb250","ios":"levelo://app?vid=1a12a819-e92c-4e36-be39-a035974bb250"},"vehicle_type_id":"4","last_reported":1773736720,"current_range_meters":3200,"station_id":"ce4bgl12rcd13ifvqbo0","pricing_plan_id":"cebpf4jnsgd1na2vs0mg"},{"bike_id":"d54d234b-4c0e-4709-9cbc-01a6630187cd","system_id":"levelo_inurba_marseille","lat":43.2936,"lon":5.37838,"is_reserved":false,"is_disabled":false,"rental_uris":{"android":"levelo://app?vid=d54d234b-4c0e-4709-9cbc-01a6630187cd","ios":"levelo://app?vid=d54d234b-4c0e-4709-9cbc-01a6630187cd"},"vehicle_type_id":"4","last_reported":1773736720,"current_range_meters":3200,"station_id":"ce4bgjh2rcd13ifvqbf0","pricing_plan_id":"cebpf4jnsgd1na2vs0mg"},{"bike_id":"4b338ce8-5a1d-45ae-98e5-89395f01eed6","system_id":"levelo_inurba_marseille","lat":43.2839,"lon":5.3729,"is_reserved":false,"is_disabled":true,"rental_uris":{"android":"levelo://app?vid=4b338ce8-5a1d-45ae-98e5-89395f01eed6","ios":"levelo://app?vid=4b338ce8-5a1d-45ae-98e5-89395f01eed6"},"vehicle_type_id":"4","last_reported":1773736720,"current_range_meters":3200,"station_id":"ce4bh412rcd13ifvqds0","pricing_plan_id":"cebpf4jnsgd1na2vs0mg"},{"bike_id":"2be48d0d-c988-40d6-948e-4adda5345ace","system_id":"levelo_inurba_marseille","lat":43.29803,"lon":5.4274,"is_reserved":false,"is_disabled":false,"rental_uris":{"android":"levelo://app?vid=2be48d0d-c988-40d6-948e-4adda5345ace","ios":"levelo://app?vid=2be48d0d-c988-40d6-948e-4adda5345ace"},"vehicle_type_id":"4","last_reported":1773736720,"current_range_meters":3200,"station_id":"","pricing_plan_id":"cebpf4jnsgd1na2vs0mg"},{"bike_id":"c8431d5e-fe62-4c51-a67e-06bd269df984","system_id":"levelo_inurba_marseille","lat":43.3364,"lon":5.3742,"is_reserved":false,"is_disabled":false,"rental_uris":{"android":"levelo://app?vid=c8431d5e-fe62-4c51-a67e-06bd269df984","ios":"levelo://app?vid=c8431d5e-fe62-4c51-a67e-06bd269df984"},"vehicle_type_id":"4","last_reported":1773736720,"current_range_meters":3200,"station_id":"","pricing_plan_id":"cebpf4jnsgd1na2vs0mg"},{"bike_id":"54f901ca-07ac-4629-af59-d05f7f5805a5","system_id":"levelo_inurba_marseille","lat":43.32477,"lon":5.36579,"is_reserved":false,"is_disabled":false,"rental_uris":{"android":"levelo://app?vid=54f901ca-07ac-4629-af59-d05f7f5805a5","ios":"levelo://app?vid=54f901ca-07ac-4629-af59-d05f7f5805a5"},"vehicle_type_id":"4","last_reported":1773736720,"current_range_meters":3200,"station_id":"ce4bhs12rcd13ifvqhvg","pricing_plan_id":"cebpf4jnsgd1na2vs0mg"},{"bike_id":"73806190-d7df-4322-93c0-d6bee78abccb","system_id":"levelo_inurba_marseille","lat":43.2742,"lon":5.39022,"is_reserved":false,"is_disabled":false,"rental_uris":{"android":"levelo://app?vid=73806190-d7df-4322-93c0-d6bee78abccb","ios":"levelo://app?vid=73806190-d7df-4322-93c0-d6bee78abccb"},"vehicle_type_id":"4","last_reported":1773736720,"current_range_meters":3200,"station_id":"","pricing_plan_id":"cebpf4jnsgd1na2vs0mg"},{"bike_id":"90897449-b93d-4840-8c36-04ab5adfd586","system_id":"levelo_inurba_marseille","lat":43.3014,"lon":5.38774,"is_reserved":false,"is_disabled":false,"rental_uris":{"android":"levelo://app?vid=90897449-b93d-4840-8c36-04ab5adfd586","ios":"levelo://app?vid=90897449-b93d-4840-8c36-04ab5adfd586"},"vehicle_type_id":"4","last_reported":1773736720,"current_range_meters":3200,"station_id":"ce4bghh2rcd13ifvqb60","pricing_plan_id":"cebpf4jnsgd1na2vs0mg"},{"bike_id":"a57fd276-80d6-4f2f-8fbc-0c5a46f65dce","system_id":"levelo_inurba_marseille","lat":43.30954,"lon":5.36799,"is_reserved":false,"is_disabled":false,"rental_uris":{"android":"levelo://app?vid=a57fd276-80d6-4f2f-8fbc-0c5a46f65dce","ios":"levelo://app?vid=a57fd276-80d6-4f2f-8fbc-0c5a46f65dce"},"vehicle_type_id":"4","last_reported":1773736720,"current_range_meters":3200,"station_id":"","pricing_plan_id":"cebpf4jnsgd1na2vs0mg"},{"bike_id":"60dbfdfe-0973-48f8-a6c3-6d193fbf6dd8","system_id":"levelo_inurba_marseille","lat":43.29031,"lon":5.39979,"is_reserved":false,"is_disabled":false,"rental_uris":{"android":"levelo://app?vid=60dbfdfe-0973-48f8-a6c3-6d193fbf6dd8","ios":"levelo://app?vid=60dbfdfe-0973-48f8-a6c3-6d193fbf6dd8"},"vehicle_type_id":"4","last_reported":1773736720,"current_range_meters":3200,"station_id":"ce4bh392rcd13ifvqdm0","pricing_plan_id":"cebpf4jnsgd1na2vs0mg"},{"bike_id":"4fb702b1-5215-4524-9260-909a50753239","system_id":"levelo_inurba_marseille","lat":43.21776,"lon":5.34626,"is_reserved":false,"is_disabled":false,"rental_uris":{"android":"levelo://app?vid=4fb702b1-5215-4524-9260-909a50753239","ios":"levelo://app?vid=4fb702b1-5215-4524-9260-909a50753239"},"vehicle_type_id":"4","last_reported":1773736720,"current_range_meters":3200,"station_id":"st_cvj6r9ubvosntc0bgbag","pricing_plan_id":"cebpf4jnsgd1na2vs0mg"},{"bike_id":"d547436b-3891-4b02-8326-2855b253c681","system_id":"levelo_inurba_marseille","lat":43.32428,"lon":5.36556,"is_reserved":false,"is_disabled":false,"rental_uris":{"android":"levelo://app?vid=d547436b-3891-4b02-8326-2855b253c681","ios":"levelo://app?vid=d547436b-3891-4b02-8326-2855b253c681"},"vehicle_type_id":"4","last_reported":1773736720,"current_range_meters":3200,"station_id":"ce4bhs12rcd13ifvqhvg","pricing_plan_id":"cebpf4jnsgd1na2vs0mg"},{"bike_id":"8981a264-bb51-4ae3-ad85-aacf4ed53951","system_id":"levelo_inurba_marseille","lat":43.27908,"lon":5.42852,"is_reserved":false,"is_disabled":false,"rental_uris":{"android":"levelo://app?vid=8981a264-bb51-4ae3-ad85-aacf4ed53951","ios":"levelo://app?vid=8981a264-bb51-4ae3-ad85-aacf4ed53951"},"vehicle_type_id":"4","last_reported":1773736720,"current_range_meters":3200,"station_id":"","pricing_plan_id":"cebpf4jnsgd1na2vs0mg"},{"bike_id":"bb16aae8-6e92-476a-8466-22984fcc8951","system_id":"levelo_inurba_marseille","lat":43.24081,"lon":5.37779,"is_reserved":false,"is_disabled":false,"rental_uris":{"android":"levelo://app?vid=bb16aae8-6e92-476a-8466-22984fcc8951","ios":"levelo://app?vid=bb16aae8-6e92-476a-8466-22984fcc8951"},"vehicle_type_id":"4","last_reported":1773736720,"current_range_meters":3200,"station_id":"ce4bhnp2rcd13ifvqgvg","pricing_plan_id":"cebpf4jnsgd1na2vs0mg"},{"bike_id":"4b66d87f-df59-44c5-bb47-d7e0503e1b42","system_id":"levelo_inurba_marseille","lat":43.21749,"lon":5.34608,"is_reserved":false,"is_disabled":false,"rental_uris":{"android":"levelo://app?vid=4b66d87f-df59-44c5-bb47-d7e0503e1b42","ios":"levelo://app?vid=4b66d87f-df59-44c5-bb47-d7e0503e1b42"},"vehicle_type_id":"4","last_reported":1773736720,"current_range_meters":3200,"station_id":"st_cvj6r9ubvosntc0bgbag","pricing_plan_id":"cebpf4jnsgd1na2vs0mg"},{"bike_id":"11809b0a-813e-423a-a613-252792f9918c","system_id":"levelo_inurba_marseille","lat":43.29233,"lon":5.36043,"is_reserved":false,"is_disabled":false,"rental_uris":{"android":"levelo://app?vid=11809b0a-813e-423a-a613-252792f9918c","ios":"levelo://app?vid=11809b0a-813e-423a-a613-252792f9918c"},"vehicle_type_id":"4","last_reported":1773736720,"current_range_meters":3200,"station_id":"ce4bhbh2rcd13ifvqeqg","pricing_plan_id":"cebpf4jnsgd1na2vs0mg"},{"bike_id":"62cd73fb-4b2c-4c00-b508-01a2ef547a0b","system_id":"levelo_inurba_marseille","lat":43.30633,"lon":5.40096,"is_reserved":false,"is_disabled":false,"rental_uris":{"android":"levelo://app?vid=62cd73fb-4b2c-4c00-b508-01a2ef547a0b","ios":"levelo://app?vid=62cd73fb-4b2c-4c00-b508-01a2ef547a0b"},"vehicle_type_id":"4","last_reported":1773736720,"current_range_meters":3200,"station_id":"ce4bh112rcd13ifvqda0","pricing_plan_id":"cebpf4jnsgd1na2vs0mg"},{"bike_id":"2778616b-557d-4bc9-baa4-30bd01142988","system_id":"levelo_inurba_marseille","lat":43.24076,"lon":5.37752,"is_reserved":false,"is_disabled":false,"rental_uris":{"android":"levelo://app?vid=2778616b-557d-4bc9-baa4-30bd01142988","ios":"levelo://app?vid=2778616b-557d-4bc9-baa4-30bd01142988"},"vehicle_type_id":"4","last_reported":1773736720,"current_range_meters":3600,"station_id":"ce4bhnp2rcd13ifvqgvg","pricing_plan_id":"cebpf4jnsgd1na2vs0mg"},{"bike_id":"9f96e3e5-0df4-4f85-8707-d098d0747392","system_id":"levelo_inurba_marseille","lat":43.25339,"lon":5.42168,"is_reserved":false,"is_disabled":false,"rental_uris":{"android":"levelo://app?vid=9f96e3e5-0df4-4f85-8707-d098d0747392","ios":"levelo://app?vid=9f96e3e5-0df4-4f85-8707-d098d0747392"},"vehicle_type_id":"4","last_reported":1773736720,"current_range_meters":3600,"station_id":"st_d2m65c5bi1j21697t3ng","pricing_plan_id":"cebpf4jnsgd1na2vs0mg"},{"bike_id":"e6c6b737-ab6b-45b6-a5b4-6b360d4e07c3","system_id":"levelo_inurba_marseille","lat":43.305445,"lon":5.365494,"is_reserved":false,"is_disabled":false,"rental_uris":{"android":"levelo://app?vid=e6c6b737-ab6b-45b6-a5b4-6b360d4e07c3","ios":"levelo://app?vid=e6c6b737-ab6b-45b6-a5b4-6b360d4e07c3"},"vehicle_type_id":"4","last_reported":1773736720,"current_range_meters":3600,"station_id":"ce4bgs12rcd13ifvqcag","pricing_plan_id":"cebpf4jnsgd1na2vs0mg"},{"bike_id":"8431c0ae-c291-4e69-8c30-9ab81ad19a14","system_id":"levelo_inurba_marseille","lat":43.26545,"lon":5.37331,"is_reserved":false,"is_disabled":false,"rental_uris":{"android":"levelo://app?vid=8431c0ae-c291-4e69-8c30-9ab81ad19a14","ios":"levelo://app?vid=8431c0ae-c291-4e69-8c30-9ab81ad19a14"},"vehicle_type_id":"4","last_reported":1773736720,"current_range_meters":3600,"station_id":"ce4bhg12rcd13ifvqf70","pricing_plan_id":"cebpf4jnsgd1na2vs0mg"},{"bike_id":"af47a171-5c09-412b-a149-ec232fd39d5f","system_id":"levelo_inurba_marseille","lat":43.29879,"lon":5.39743,"is_reserved":false,"is_disabled":true,"rental_uris":{"android":"levelo://app?vid=af47a171-5c09-412b-a149-ec232fd39d5f","ios":"levelo://app?vid=af47a171-5c09-412b-a149-ec232fd39d5f"},"vehicle_type_id":"4","last_reported":1773736720,"current_range_meters":3600,"station_id":"ce4bh0h2rcd13ifvqd50","pricing_plan_id":"cebpf4jnsgd1na2vs0mg"},{"bike_id":"ff6903f8-7d6d-4329-9980-dd36491025a5","system_id":"levelo_inurba_marseille","lat":43.28473,"lon":5.48392,"is_reserved":false,"is_disabled":false,"rental_uris":{"android":"levelo://app?vid=ff6903f8-7d6d-4329-9980-dd36491025a5","ios":"levelo://app?vid=ff6903f8-7d6d-4329-9980-dd36491025a5"},"vehicle_type_id":"4","last_reported":1773736720,"current_range_meters":3600,"station_id":"st_d3svhcjqgbts73a3dn0g","pricing_plan_id":"cebpf4jnsgd1na2vs0mg"},{"bike_id":"10f7e370-e7c3-4a36-ad20-288403740b0a","system_id":"levelo_inurba_marseille","lat":43.27947,"lon":5.41041,"is_reserved":false,"is_disabled":false,"rental_uris":{"android":"levelo://app?vid=10f7e370-e7c3-4a36-ad20-288403740b0a","ios":"levelo://app?vid=10f7e370-e7c3-4a36-ad20-288403740b0a"},"vehicle_type_id":"4","last_reported":1773736720,"current_range_meters":3600,"station_id":"ce4bhnp2rcd13ifvqh0g","pricing_plan_id":"cebpf4jnsgd1na2vs0mg"},{"bike_id":"a64c7316-4124-45b6-aec3-937069d4f72f","system_id":"levelo_inurba_marseille","lat":43.2176,"lon":5.34604,"is_reserved":false,"is_disabled":false,"rental_uris":{"android":"levelo://app?vid=a64c7316-4124-45b6-aec3-937069d4f72f","ios":"levelo://app?vid=a64c7316-4124-45b6-aec3-937069d4f72f"},"vehicle_type_id":"4","last_reported":1773736720,"current_range_meters":3600,"station_id":"st_cvj6r9ubvosntc0bgbag","pricing_plan_id":"cebpf4jnsgd1na2vs0mg"},{"bike_id":"7077099d-bec4-45e6-9cb2-740f7185bcfe","system_id":"levelo_inurba_marseille","lat":43.31073,"lon":5.37163,"is_reserved":false,"is_disabled":false,"rental_uris":{"android":"levelo://app?vid=7077099d-bec4-45e6-9cb2-740f7185bcfe","ios":"levelo://app?vid=7077099d-bec4-45e6-9cb2-740f7185bcfe"},"vehicle_type_id":"4","last_reported":1773736720,"current_range_meters":3600,"station_id":"st_d4kl2rp97mjs73e7tdfg","pricing_plan_id":"cebpf4jnsgd1na2vs0mg"},{"bike_id":"367d1ebd-1fe7-4381-bb25-dac6bfe4a266","system_id":"levelo_inurba_marseille","lat":43.25337,"lon":5.42183,"is_reserved":false,"is_disabled":false,"rental_uris":{"android":"levelo://app?vid=367d1ebd-1fe7-4381-bb25-dac6bfe4a266","ios":"levelo://app?vid=367d1ebd-1fe7-4381-bb25-dac6bfe4a266"},"vehicle_type_id":"4","last_reported":1773736720,"current_range_meters":3600,"station_id":"st_d2m65c5bi1j21697t3ng","pricing_plan_id":"cebpf4jnsgd1na2vs0mg"},{"bike_id":"ef275710-a738-4425-a373-87c195840051","system_id":"levelo_inurba_marseille","lat":43.3073,"lon":5.4245,"is_reserved":false,"is_disabled":false,"rental_uris":{"android":"levelo://app?vid=ef275710-a738-4425-a373-87c195840051","ios":"levelo://app?vid=ef275710-a738-4425-a373-87c195840051"},"vehicle_type_id":"4","last_reported":1773736720,"current_range_meters":3600,"station_id":"st_cvj6ca6bvosntc0bfgr0","pricing_plan_id":"cebpf4jnsgd1na2vs0mg"},{"bike_id":"f241c30b-2b1a-4f86-a532-796da72b8ac2","system_id":"levelo_inurba_marseille","lat":43.21215,"lon":5.3506,"is_reserved":false,"is_disabled":false,"rental_uris":{"android":"levelo://app?vid=f241c30b-2b1a-4f86-a532-796da72b8ac2","ios":"levelo://app?vid=f241c30b-2b1a-4f86-a532-796da72b8ac2"},"vehicle_type_id":"4","last_reported":1773736720,"current_range_meters":3600,"station_id":"st_cvj6sg6p6f1abm77japg","pricing_plan_id":"cebpf4jnsgd1na2vs0mg"},{"bike_id":"41a475e8-8f60-49e5-932c-2037737c2411","system_id":"levelo_inurba_marseille","lat":43.3354,"lon":5.37467,"is_reserved":false,"is_disabled":false,"rental_uris":{"android":"levelo://app?vid=41a475e8-8f60-49e5-932c-2037737c2411","ios":"levelo://app?vid=41a475e8-8f60-49e5-932c-2037737c2411"},"vehicle_type_id":"4","last_reported":1773736720,"current_range_meters":3600,"station_id":"st_d46tts09ee8s73dlu43g","pricing_plan_id":"cebpf4jnsgd1na2vs0mg"},{"bike_id":"ca5af02f-49f7-48db-a0c5-85c6fd8e11c9","system_id":"levelo_inurba_marseille","lat":43.25004,"lon":5.38919,"is_reserved":false,"is_disabled":true,"rental_uris":{"android":"levelo://app?vid=ca5af02f-49f7-48db-a0c5-85c6fd8e11c9","ios":"levelo://app?vid=ca5af02f-49f7-48db-a0c5-85c6fd8e11c9"},"vehicle_type_id":"4","last_reported":1773736720,"current_range_meters":3600,"station_id":"ce4bhgp2rcd13ifvqfd0","pricing_plan_id":"cebpf4jnsgd1na2vs0mg"},{"bike_id":"7d5e5488-b062-4979-8056-f7926cc5db5b","system_id":"levelo_inurba_marseille","lat":43.28478,"lon":5.48388,"is_reserved":false,"is_disabled":false,"rental_uris":{"android":"levelo://app?vid=7d5e5488-b062-4979-8056-f7926cc5db5b","ios":"levelo://app?vid=7d5e5488-b062-4979-8056-f7926cc5db5b"},"vehicle_type_id":"4","last_reported":1773736720,"current_range_meters":3600,"station_id":"","pricing_plan_id":"cebpf4jnsgd1na2vs0mg"},{"bike_id":"c6d69b4d-4c87-44fe-a02d-92b1370b69aa","system_id":"levelo_inurba_marseille","lat":43.22538,"lon":5.41667,"is_reserved":false,"is_disabled":false,"rental_uris":{"android":"levelo://app?vid=c6d69b4d-4c87-44fe-a02d-92b1370b69aa","ios":"levelo://app?vid=c6d69b4d-4c87-44fe-a02d-92b1370b69aa"},"vehicle_type_id":"4","last_reported":1773736720,"current_range_meters":4000,"station_id":"st_d2o4gvlbi1j2169b742g","pricing_plan_id":"cebpf4jnsgd1na2vs0mg"},{"bike_id":"a3eb6664-f79f-4fcc-a176-332c8301346f","system_id":"levelo_inurba_marseille","lat":43.28407,"lon":5.34992,"is_reserved":false,"is_disabled":true,"rental_uris":{"android":"levelo://app?vid=a3eb6664-f79f-4fcc-a176-332c8301346f","ios":"levelo://app?vid=a3eb6664-f79f-4fcc-a176-332c8301346f"},"vehicle_type_id":"4","last_reported":1773736720,"current_range_meters":4000,"station_id":"ce4bhbh2rcd13ifvqepg","pricing_plan_id":"cebpf4jnsgd1na2vs0mg"},{"bike_id":"6bf65720-8266-4d1b-8965-d8f376442203","system_id":"levelo_inurba_marseille","lat":43.25352,"lon":5.42189,"is_reserved":false,"is_disabled":false,"rental_uris":{"android":"levelo://app?vid=6bf65720-8266-4d1b-8965-d8f376442203","ios":"levelo://app?vid=6bf65720-8266-4d1b-8965-d8f376442203"},"vehicle_type_id":"4","last_reported":1773736720,"current_range_meters":4000,"station_id":"st_d2m65c5bi1j21697t3ng","pricing_plan_id":"cebpf4jnsgd1na2vs0mg"},{"bike_id":"d4b5048e-20dc-4034-b8ef-ae6b0d7e5f6f","system_id":"levelo_inurba_marseille","lat":43.26944,"lon":5.38917,"is_reserved":false,"is_disabled":false,"rental_uris":{"android":"levelo://app?vid=d4b5048e-20dc-4034-b8ef-ae6b0d7e5f6f","ios":"levelo://app?vid=d4b5048e-20dc-4034-b8ef-ae6b0d7e5f6f"},"vehicle_type_id":"4","last_reported":1773736720,"current_range_meters":4000,"station_id":"ce4bhhh2rcd13ifvqfl0","pricing_plan_id":"cebpf4jnsgd1na2vs0mg"},{"bike_id":"688ef283-2fd6-4a66-8ae0-5e83790858d3","system_id":"levelo_inurba_marseille","lat":43.32371,"lon":5.36732,"is_reserved":false,"is_disabled":false,"rental_uris":{"android":"levelo://app?vid=688ef283-2fd6-4a66-8ae0-5e83790858d3","ios":"levelo://app?vid=688ef283-2fd6-4a66-8ae0-5e83790858d3"},"vehicle_type_id":"4","last_reported":1773736720,"current_range_meters":4000,"station_id":"ce4bhsh2rcd13ifvqi2g","pricing_plan_id":"cebpf4jnsgd1na2vs0mg"},{"bike_id":"a8261f75-c49a-4d8a-8d78-59cefb23f437","system_id":"levelo_inurba_marseille","lat":43.29858,"lon":5.36283,"is_reserved":false,"is_disabled":true,"rental_uris":{"android":"levelo://app?vid=a8261f75-c49a-4d8a-8d78-59cefb23f437","ios":"levelo://app?vid=a8261f75-c49a-4d8a-8d78-59cefb23f437"},"vehicle_type_id":"4","last_reported":1773736720,"current_range_meters":4000,"station_id":"ce4bgpp2rcd13ifvqc3g","pricing_plan_id":"cebpf4jnsgd1na2vs0mg"},{"bike_id":"b3fb0cd9-0d50-4402-b1d7-e0ca7cbbf02f","system_id":"levelo_inurba_marseille","lat":43.22556,"lon":5.41638,"is_reserved":false,"is_disabled":false,"rental_uris":{"android":"levelo://app?vid=b3fb0cd9-0d50-4402-b1d7-e0ca7cbbf02f","ios":"levelo://app?vid=b3fb0cd9-0d50-4402-b1d7-e0ca7cbbf02f"},"vehicle_type_id":"4","last_reported":1773736720,"current_range_meters":4000,"station_id":"st_d2o4gvlbi1j2169b742g","pricing_plan_id":"cebpf4jnsgd1na2vs0mg"},{"bike_id":"e7d20ce8-61ee-4df3-9ba4-585a7648c721","system_id":"levelo_inurba_marseille","lat":43.24654,"lon":5.43172,"is_reserved":false,"is_disabled":false,"rental_uris":{"android":"levelo://app?vid=e7d20ce8-61ee-4df3-9ba4-585a7648c721","ios":"levelo://app?vid=e7d20ce8-61ee-4df3-9ba4-585a7648c721"},"vehicle_type_id":"4","last_reported":1773736720,"current_range_meters":4000,"station_id":"","pricing_plan_id":"cebpf4jnsgd1na2vs0mg"},{"bike_id":"879a873f-004f-4af1-a55c-41f0a4bec7bc","system_id":"levelo_inurba_marseille","lat":43.21188,"lon":5.35071,"is_reserved":false,"is_disabled":false,"rental_uris":{"android":"levelo://app?vid=879a873f-004f-4af1-a55c-41f0a4bec7bc","ios":"levelo://app?vid=879a873f-004f-4af1-a55c-41f0a4bec7bc"},"vehicle_type_id":"4","last_reported":1773736720,"current_range_meters":4000,"station_id":"st_cvj6sg6p6f1abm77japg","pricing_plan_id":"cebpf4jnsgd1na2vs0mg"},{"bike_id":"15123d39-1cc0-4deb-a6b5-664429b0831a","system_id":"levelo_inurba_marseille","lat":43.30942,"lon":5.39067,"is_reserved":false,"is_disabled":false,"rental_uris":{"android":"levelo://app?vid=15123d39-1cc0-4deb-a6b5-664429b0831a","ios":"levelo://app?vid=15123d39-1cc0-4deb-a6b5-664429b0831a"},"vehicle_type_id":"4","last_reported":1773736720,"current_range_meters":4000,"station_id":"ce4bgup2rcd13ifvqco0","pricing_plan_id":"cebpf4jnsgd1na2vs0mg"},{"bike_id":"7e6e160f-9921-46f6-9c5b-904dcc455c1a","system_id":"levelo_inurba_marseille","lat":43.2862,"lon":5.35102,"is_reserved":false,"is_disabled":false,"rental_uris":{"android":"levelo://app?vid=7e6e160f-9921-46f6-9c5b-904dcc455c1a","ios":"levelo://app?vid=7e6e160f-9921-46f6-9c5b-904dcc455c1a"},"vehicle_type_id":"4","last_reported":1773736720,"current_range_meters":4000,"station_id":"ce4bhch2rcd13ifvqeug","pricing_plan_id":"cebpf4jnsgd1na2vs0mg"},{"bike_id":"91f440a2-b37f-4186-bada-b6ca9b83b739","system_id":"levelo_inurba_marseille","lat":43.23924,"lon":5.37432,"is_reserved":false,"is_disabled":false,"rental_uris":{"android":"levelo://app?vid=91f440a2-b37f-4186-bada-b6ca9b83b739","ios":"levelo://app?vid=91f440a2-b37f-4186-bada-b6ca9b83b739"},"vehicle_type_id":"4","last_reported":1773736720,"current_range_meters":4000,"station_id":"","pricing_plan_id":"cebpf4jnsgd1na2vs0mg"},{"bike_id":"564a88f4-5344-43c8-98e1-6f87d139c4b6","system_id":"levelo_inurba_marseille","lat":43.29782,"lon":5.37101,"is_reserved":false,"is_disabled":false,"rental_uris":{"android":"levelo://app?vid=564a88f4-5344-43c8-98e1-6f87d139c4b6","ios":"levelo://app?vid=564a88f4-5344-43c8-98e1-6f87d139c4b6"},"vehicle_type_id":"4","last_reported":1773736720,"current_range_meters":4000,"station_id":"ce4bgop2rcd13ifvqc1g","pricing_plan_id":"cebpf4jnsgd1na2vs0mg"},{"bike_id":"31ea9810-9eb2-41cb-b7bd-0c70e7fa28f0","system_id":"levelo_inurba_marseille","lat":43.303014,"lon":5.392153,"is_reserved":false,"is_disabled":false,"rental_uris":{"android":"levelo://app?vid=31ea9810-9eb2-41cb-b7bd-0c70e7fa28f0","ios":"levelo://app?vid=31ea9810-9eb2-41cb-b7bd-0c70e7fa28f0"},"vehicle_type_id":"4","last_reported":1773736720,"current_range_meters":4000,"station_id":"ce4bgkh2rcd13ifvqbk0","pricing_plan_id":"cebpf4jnsgd1na2vs0mg"},{"bike_id":"c0f01887-55aa-435d-adce-7fd93459d4e8","system_id":"levelo_inurba_marseille","lat":43.27213,"lon":5.39188,"is_reserved":false,"is_disabled":false,"rental_uris":{"android":"levelo://app?vid=c0f01887-55aa-435d-adce-7fd93459d4e8","ios":"levelo://app?vid=c0f01887-55aa-435d-adce-7fd93459d4e8"},"vehicle_type_id":"4","last_reported":1773736720,"current_range_meters":4400,"station_id":"ce4bhhp2rcd13ifvqfm0","pricing_plan_id":"cebpf4jnsgd1na2vs0mg"},{"bike_id":"15c6f95a-b983-4283-9be7-875f500d7490","system_id":"levelo_inurba_marseille","lat":43.27347,"lon":5.39118,"is_reserved":false,"is_disabled":false,"rental_uris":{"android":"levelo://app?vid=15c6f95a-b983-4283-9be7-875f500d7490","ios":"levelo://app?vid=15c6f95a-b983-4283-9be7-875f500d7490"},"vehicle_type_id":"4","last_reported":1773736720,"current_range_meters":4400,"station_id":"","pricing_plan_id":"cebpf4jnsgd1na2vs0mg"},{"bike_id":"7e4878ae-c376-48c8-ad77-0c9152653552","system_id":"levelo_inurba_marseille","lat":43.27477,"lon":5.41631,"is_reserved":false,"is_disabled":false,"rental_uris":{"android":"levelo://app?vid=7e4878ae-c376-48c8-ad77-0c9152653552","ios":"levelo://app?vid=7e4878ae-c376-48c8-ad77-0c9152653552"},"vehicle_type_id":"4","last_reported":1773736720,"current_range_meters":4400,"station_id":"st_d6im8g6chgec73a5pndg","pricing_plan_id":"cebpf4jnsgd1na2vs0mg"},{"bike_id":"ed60e467-e558-456d-9605-a03788e04763","system_id":"levelo_inurba_marseille","lat":43.3055,"lon":5.36676,"is_reserved":false,"is_disabled":false,"rental_uris":{"android":"levelo://app?vid=ed60e467-e558-456d-9605-a03788e04763","ios":"levelo://app?vid=ed60e467-e558-456d-9605-a03788e04763"},"vehicle_type_id":"4","last_reported":1773736720,"current_range_meters":4400,"station_id":"ce4bgrp2rcd13ifvqc9g","pricing_plan_id":"cebpf4jnsgd1na2vs0mg"},{"bike_id":"f9957fdd-b7fb-4862-b889-704cc630d45b","system_id":"levelo_inurba_marseille","lat":43.3025,"lon":5.400792,"is_reserved":false,"is_disabled":false,"rental_uris":{"android":"levelo://app?vid=f9957fdd-b7fb-4862-b889-704cc630d45b","ios":"levelo://app?vid=f9957fdd-b7fb-4862-b889-704cc630d45b"},"vehicle_type_id":"4","last_reported":1773736720,"current_range_meters":4400,"station_id":"","pricing_plan_id":"cebpf4jnsgd1na2vs0mg"},{"bike_id":"c9af8554-fed4-4024-9d57-0ddcddacc047","system_id":"levelo_inurba_marseille","lat":43.32496,"lon":5.38281,"is_reserved":false,"is_disabled":false,"rental_uris":{"android":"levelo://app?vid=c9af8554-fed4-4024-9d57-0ddcddacc047","ios":"levelo://app?vid=c9af8554-fed4-4024-9d57-0ddcddacc047"},"vehicle_type_id":"4","last_reported":1773736720,"current_range_meters":4400,"station_id":"st_d4asgbiv49dc73anf9m0","pricing_plan_id":"cebpf4jnsgd1na2vs0mg"},{"bike_id":"890c613a-e9be-4323-9388-08af8a305acb","system_id":"levelo_inurba_marseille","lat":43.31369,"lon":5.36705,"is_reserved":false,"is_disabled":false,"rental_uris":{"android":"levelo://app?vid=890c613a-e9be-4323-9388-08af8a305acb","ios":"levelo://app?vid=890c613a-e9be-4323-9388-08af8a305acb"},"vehicle_type_id":"4","last_reported":1773736720,"current_range_meters":4800,"station_id":"ce4bgr92rcd13ifvqc6g","pricing_plan_id":"cebpf4jnsgd1na2vs0mg"},{"bike_id":"20d965c2-9356-4a2d-b2d1-b586da5c97e8","system_id":"levelo_inurba_marseille","lat":43.28125,"lon":5.4063,"is_reserved":false,"is_disabled":true,"rental_uris":{"android":"levelo://app?vid=20d965c2-9356-4a2d-b2d1-b586da5c97e8","ios":"levelo://app?vid=20d965c2-9356-4a2d-b2d1-b586da5c97e8"},"vehicle_type_id":"4","last_reported":1773736720,"current_range_meters":4800,"station_id":"","pricing_plan_id":"cebpf4jnsgd1na2vs0mg"},{"bike_id":"87cf2c9e-dd79-479c-9e15-2f0aaae6b8ee","system_id":"levelo_inurba_marseille","lat":43.31442,"lon":5.37337,"is_reserved":false,"is_disabled":false,"rental_uris":{"android":"levelo://app?vid=87cf2c9e-dd79-479c-9e15-2f0aaae6b8ee","ios":"levelo://app?vid=87cf2c9e-dd79-479c-9e15-2f0aaae6b8ee"},"vehicle_type_id":"4","last_reported":1773736720,"current_range_meters":4800,"station_id":"ce4bgt12rcd13ifvqcd0","pricing_plan_id":"cebpf4jnsgd1na2vs0mg"},{"bike_id":"20dd7d86-c4dc-4d33-83b0-519cc08235a3","system_id":"levelo_inurba_marseille","lat":43.26228,"lon":5.37446,"is_reserved":false,"is_disabled":false,"rental_uris":{"android":"levelo://app?vid=20dd7d86-c4dc-4d33-83b0-519cc08235a3","ios":"levelo://app?vid=20dd7d86-c4dc-4d33-83b0-519cc08235a3"},"vehicle_type_id":"4","last_reported":1773736720,"current_range_meters":4800,"station_id":"","pricing_plan_id":"cebpf4jnsgd1na2vs0mg"},{"bike_id":"5ceea874-16bc-4dc6-9858-1b3ce34dfda6","system_id":"levelo_inurba_marseille","lat":43.28465,"lon":5.48399,"is_reserved":false,"is_disabled":false,"rental_uris":{"android":"levelo://app?vid=5ceea874-16bc-4dc6-9858-1b3ce34dfda6","ios":"levelo://app?vid=5ceea874-16bc-4dc6-9858-1b3ce34dfda6"},"vehicle_type_id":"4","last_reported":1773736720,"current_range_meters":4800,"station_id":"st_d3svhcjqgbts73a3dn0g","pricing_plan_id":"cebpf4jnsgd1na2vs0mg"},{"bike_id":"5c13d3bc-3946-4016-b223-a96c424763ee","system_id":"levelo_inurba_marseille","lat":43.24158,"lon":5.36405,"is_reserved":false,"is_disabled":false,"rental_uris":{"android":"levelo://app?vid=5c13d3bc-3946-4016-b223-a96c424763ee","ios":"levelo://app?vid=5c13d3bc-3946-4016-b223-a96c424763ee"},"vehicle_type_id":"4","last_reported":1773736720,"current_range_meters":4800,"station_id":"cpo36qri1sfpv3e86is0","pricing_plan_id":"cebpf4jnsgd1na2vs0mg"},{"bike_id":"be47a9f2-05c1-4195-9b42-dbba1a529d20","system_id":"levelo_inurba_marseille","lat":43.26683,"lon":5.38272,"is_reserved":false,"is_disabled":false,"rental_uris":{"android":"levelo://app?vid=be47a9f2-05c1-4195-9b42-dbba1a529d20","ios":"levelo://app?vid=be47a9f2-05c1-4195-9b42-dbba1a529d20"},"vehicle_type_id":"4","last_reported":1773736720,"current_range_meters":4800,"station_id":"ce4bhg92rcd13ifvqf90","pricing_plan_id":"cebpf4jnsgd1na2vs0mg"},{"bike_id":"ef4b7d1c-7fa0-4aee-96b8-99a11afc7233","system_id":"levelo_inurba_marseille","lat":43.26955,"lon":5.38634,"is_reserved":false,"is_disabled":false,"rental_uris":{"android":"levelo://app?vid=ef4b7d1c-7fa0-4aee-96b8-99a11afc7233","ios":"levelo://app?vid=ef4b7d1c-7fa0-4aee-96b8-99a11afc7233"},"vehicle_type_id":"4","last_reported":1773736720,"current_range_meters":4800,"station_id":"ce4bhh92rcd13ifvqfh0","pricing_plan_id":"cebpf4jnsgd1na2vs0mg"},{"bike_id":"26202659-445f-404d-b446-d181a4a7df71","system_id":"levelo_inurba_marseille","lat":43.33555,"lon":5.3743,"is_reserved":false,"is_disabled":false,"rental_uris":{"android":"levelo://app?vid=26202659-445f-404d-b446-d181a4a7df71","ios":"levelo://app?vid=26202659-445f-404d-b446-d181a4a7df71"},"vehicle_type_id":"4","last_reported":1773736720,"current_range_meters":4800,"station_id":"st_d46tts09ee8s73dlu43g","pricing_plan_id":"cebpf4jnsgd1na2vs0mg"},{"bike_id":"d06b1804-70fd-40ad-8edd-a00949173812","system_id":"levelo_inurba_marseille","lat":43.23176,"lon":5.39996,"is_reserved":false,"is_disabled":false,"rental_uris":{"android":"levelo://app?vid=d06b1804-70fd-40ad-8edd-a00949173812","ios":"levelo://app?vid=d06b1804-70fd-40ad-8edd-a00949173812"},"vehicle_type_id":"4","last_reported":1773736720,"current_range_meters":4800,"station_id":"ce4bhn12rcd13ifvqgqg","pricing_plan_id":"cebpf4jnsgd1na2vs0mg"},{"bike_id":"e4279bf3-49d9-4ff4-9d9d-ce4672d67b33","system_id":"levelo_inurba_marseille","lat":43.23789,"lon":5.36634,"is_reserved":false,"is_disabled":false,"rental_uris":{"android":"levelo://app?vid=e4279bf3-49d9-4ff4-9d9d-ce4672d67b33","ios":"levelo://app?vid=e4279bf3-49d9-4ff4-9d9d-ce4672d67b33"},"vehicle_type_id":"4","last_reported":1773736720,"current_range_meters":4800,"station_id":"st_d3nk18o9ro0c73en2l3g","pricing_plan_id":"cebpf4jnsgd1na2vs0mg"},{"bike_id":"d89134ff-a044-45c7-94db-9ed2eccb039f","system_id":"levelo_inurba_marseille","lat":43.3135,"lon":5.38497,"is_reserved":false,"is_disabled":true,"rental_uris":{"android":"levelo://app?vid=d89134ff-a044-45c7-94db-9ed2eccb039f","ios":"levelo://app?vid=d89134ff-a044-45c7-94db-9ed2eccb039f"},"vehicle_type_id":"4","last_reported":1773736720,"current_range_meters":4800,"station_id":"ce4bgt92rcd13ifvqcf0","pricing_plan_id":"cebpf4jnsgd1na2vs0mg"},{"bike_id":"5247c951-a74f-455c-8348-09a4b4062d01","system_id":"levelo_inurba_marseille","lat":43.21764,"lon":5.34591,"is_reserved":false,"is_disabled":false,"rental_uris":{"android":"levelo://app?vid=5247c951-a74f-455c-8348-09a4b4062d01","ios":"levelo://app?vid=5247c951-a74f-455c-8348-09a4b4062d01"},"vehicle_type_id":"4","last_reported":1773736720,"current_range_meters":4800,"station_id":"st_cvj6r9ubvosntc0bgbag","pricing_plan_id":"cebpf4jnsgd1na2vs0mg"},{"bike_id":"2d475c7c-0764-4ac9-8950-41d5059b573b","system_id":"levelo_inurba_marseille","lat":43.28478,"lon":5.48407,"is_reserved":false,"is_disabled":false,"rental_uris":{"android":"levelo://app?vid=2d475c7c-0764-4ac9-8950-41d5059b573b","ios":"levelo://app?vid=2d475c7c-0764-4ac9-8950-41d5059b573b"},"vehicle_type_id":"4","last_reported":1773736720,"current_range_meters":5600,"station_id":"","pricing_plan_id":"cebpf4jnsgd1na2vs0mg"},{"bike_id":"796ed888-5e80-4248-a7be-20570706635d","system_id":"levelo_inurba_marseille","lat":43.23783,"lon":5.36633,"is_reserved":false,"is_disabled":false,"rental_uris":{"android":"levelo://app?vid=796ed888-5e80-4248-a7be-20570706635d","ios":"levelo://app?vid=796ed888-5e80-4248-a7be-20570706635d"},"vehicle_type_id":"4","last_reported":1773736720,"current_range_meters":5600,"station_id":"st_d3nk18o9ro0c73en2l3g","pricing_plan_id":"cebpf4jnsgd1na2vs0mg"},{"bike_id":"0f53d472-bee4-40de-8ab2-7656a789b4f7","system_id":"levelo_inurba_marseille","lat":43.22459,"lon":5.34904,"is_reserved":false,"is_disabled":false,"rental_uris":{"android":"levelo://app?vid=0f53d472-bee4-40de-8ab2-7656a789b4f7","ios":"levelo://app?vid=0f53d472-bee4-40de-8ab2-7656a789b4f7"},"vehicle_type_id":"4","last_reported":1773736720,"current_range_meters":5600,"station_id":"","pricing_plan_id":"cebpf4jnsgd1na2vs0mg"},{"bike_id":"79b4ca63-8f66-406b-afa0-4b593053abe9","system_id":"levelo_inurba_marseille","lat":43.27205,"lon":5.39183,"is_reserved":false,"is_disabled":false,"rental_uris":{"android":"levelo://app?vid=79b4ca63-8f66-406b-afa0-4b593053abe9","ios":"levelo://app?vid=79b4ca63-8f66-406b-afa0-4b593053abe9"},"vehicle_type_id":"4","last_reported":1773736720,"current_range_meters":5600,"station_id":"ce4bhhp2rcd13ifvqfm0","pricing_plan_id":"cebpf4jnsgd1na2vs0mg"},{"bike_id":"7bb87e61-8780-47d7-9b94-82614dc0f909","system_id":"levelo_inurba_marseille","lat":43.27213,"lon":5.39212,"is_reserved":false,"is_disabled":false,"rental_uris":{"android":"levelo://app?vid=7bb87e61-8780-47d7-9b94-82614dc0f909","ios":"levelo://app?vid=7bb87e61-8780-47d7-9b94-82614dc0f909"},"vehicle_type_id":"4","last_reported":1773736720,"current_range_meters":5600,"station_id":"ce4bhhp2rcd13ifvqfm0","pricing_plan_id":"cebpf4jnsgd1na2vs0mg"},{"bike_id":"3b2d3b2b-9e7f-43fe-b40c-4cc1b73a89cf","system_id":"levelo_inurba_marseille","lat":43.28326,"lon":5.38047,"is_reserved":false,"is_disabled":true,"rental_uris":{"android":"levelo://app?vid=3b2d3b2b-9e7f-43fe-b40c-4cc1b73a89cf","ios":"levelo://app?vid=3b2d3b2b-9e7f-43fe-b40c-4cc1b73a89cf"},"vehicle_type_id":"4","last_reported":1773736720,"current_range_meters":5600,"station_id":"ce4bh412rcd13ifvqdr0","pricing_plan_id":"cebpf4jnsgd1na2vs0mg"},{"bike_id":"5c26df43-1e37-4b56-b0df-ea8817bbb052","system_id":"levelo_inurba_marseille","lat":43.24077,"lon":5.37765,"is_reserved":false,"is_disabled":false,"rental_uris":{"android":"levelo://app?vid=5c26df43-1e37-4b56-b0df-ea8817bbb052","ios":"levelo://app?vid=5c26df43-1e37-4b56-b0df-ea8817bbb052"},"vehicle_type_id":"4","last_reported":1773736720,"current_range_meters":5600,"station_id":"ce4bhnp2rcd13ifvqgvg","pricing_plan_id":"cebpf4jnsgd1na2vs0mg"},{"bike_id":"cf7e06e7-174f-44ce-bebf-7de04dbdbc0d","system_id":"levelo_inurba_marseille","lat":43.3034,"lon":5.36901,"is_reserved":false,"is_disabled":true,"rental_uris":{"android":"levelo://app?vid=cf7e06e7-174f-44ce-bebf-7de04dbdbc0d","ios":"levelo://app?vid=cf7e06e7-174f-44ce-bebf-7de04dbdbc0d"},"vehicle_type_id":"4","last_reported":1773736720,"current_range_meters":6000,"station_id":"ce4bgqh2rcd13ifvqc5g","pricing_plan_id":"cebpf4jnsgd1na2vs0mg"},{"bike_id":"04ded61b-4df6-4cf9-a244-145e54ca2cfd","system_id":"levelo_inurba_marseille","lat":43.27212,"lon":5.39182,"is_reserved":false,"is_disabled":false,"rental_uris":{"android":"levelo://app?vid=04ded61b-4df6-4cf9-a244-145e54ca2cfd","ios":"levelo://app?vid=04ded61b-4df6-4cf9-a244-145e54ca2cfd"},"vehicle_type_id":"4","last_reported":1773736720,"current_range_meters":6000,"station_id":"ce4bhhp2rcd13ifvqfm0","pricing_plan_id":"cebpf4jnsgd1na2vs0mg"},{"bike_id":"669ffa05-b133-4a48-b375-59f6e2de05f6","system_id":"levelo_inurba_marseille","lat":43.31755,"lon":5.39028,"is_reserved":false,"is_disabled":false,"rental_uris":{"android":"levelo://app?vid=669ffa05-b133-4a48-b375-59f6e2de05f6","ios":"levelo://app?vid=669ffa05-b133-4a48-b375-59f6e2de05f6"},"vehicle_type_id":"4","last_reported":1773736720,"current_range_meters":6000,"station_id":"ce4bhqp2rcd13ifvqhng","pricing_plan_id":"cebpf4jnsgd1na2vs0mg"},{"bike_id":"54e1430e-f603-4f12-94e1-97898e39d9f4","system_id":"levelo_inurba_marseille","lat":43.31042,"lon":5.37141,"is_reserved":false,"is_disabled":false,"rental_uris":{"android":"levelo://app?vid=54e1430e-f603-4f12-94e1-97898e39d9f4","ios":"levelo://app?vid=54e1430e-f603-4f12-94e1-97898e39d9f4"},"vehicle_type_id":"4","last_reported":1773736720,"current_range_meters":6000,"station_id":"st_d4kl2rp97mjs73e7tdfg","pricing_plan_id":"cebpf4jnsgd1na2vs0mg"},{"bike_id":"4ca2074d-5be8-4f09-a2f9-0200664389f9","system_id":"levelo_inurba_marseille","lat":43.30731,"lon":5.4244,"is_reserved":false,"is_disabled":false,"rental_uris":{"android":"levelo://app?vid=4ca2074d-5be8-4f09-a2f9-0200664389f9","ios":"levelo://app?vid=4ca2074d-5be8-4f09-a2f9-0200664389f9"},"vehicle_type_id":"4","last_reported":1773736720,"current_range_meters":6000,"station_id":"st_cvj6ca6bvosntc0bfgr0","pricing_plan_id":"cebpf4jnsgd1na2vs0mg"},{"bike_id":"7fbc82da-1717-40f5-8e22-a284df5edd5a","system_id":"levelo_inurba_marseille","lat":43.24635,"lon":5.43164,"is_reserved":false,"is_disabled":false,"rental_uris":{"android":"levelo://app?vid=7fbc82da-1717-40f5-8e22-a284df5edd5a","ios":"levelo://app?vid=7fbc82da-1717-40f5-8e22-a284df5edd5a"},"vehicle_type_id":"4","last_reported":1773736720,"current_range_meters":6000,"station_id":"","pricing_plan_id":"cebpf4jnsgd1na2vs0mg"},{"bike_id":"55ad6576-3c79-4a6b-881b-323a7e8b70a1","system_id":"levelo_inurba_marseille","lat":43.24998,"lon":5.38944,"is_reserved":false,"is_disabled":false,"rental_uris":{"android":"levelo://app?vid=55ad6576-3c79-4a6b-881b-323a7e8b70a1","ios":"levelo://app?vid=55ad6576-3c79-4a6b-881b-323a7e8b70a1"},"vehicle_type_id":"4","last_reported":1773736720,"current_range_meters":6400,"station_id":"ce4bhgp2rcd13ifvqfd0","pricing_plan_id":"cebpf4jnsgd1na2vs0mg"},{"bike_id":"fcc16676-bdcc-453d-943e-a6082336e83f","system_id":"levelo_inurba_marseille","lat":43.2982,"lon":5.44056,"is_reserved":false,"is_disabled":false,"rental_uris":{"android":"levelo://app?vid=fcc16676-bdcc-453d-943e-a6082336e83f","ios":"levelo://app?vid=fcc16676-bdcc-453d-943e-a6082336e83f"},"vehicle_type_id":"4","last_reported":1773736720,"current_range_meters":6400,"station_id":"st_d3jp68qikq2c7381ktn0","pricing_plan_id":"cebpf4jnsgd1na2vs0mg"},{"bike_id":"1c80d65f-5a5b-4286-b809-cfa0b084b10b","system_id":"levelo_inurba_marseille","lat":43.25936,"lon":5.40917,"is_reserved":false,"is_disabled":false,"rental_uris":{"android":"levelo://app?vid=1c80d65f-5a5b-4286-b809-cfa0b084b10b","ios":"levelo://app?vid=1c80d65f-5a5b-4286-b809-cfa0b084b10b"},"vehicle_type_id":"4","last_reported":1773736720,"current_range_meters":6400,"station_id":"ce4bhm92rcd13ifvqglg","pricing_plan_id":"cebpf4jnsgd1na2vs0mg"},{"bike_id":"fd9a5b71-46a3-4dd8-b128-378e96626279","system_id":"levelo_inurba_marseille","lat":43.29707,"lon":5.37695,"is_reserved":false,"is_disabled":false,"rental_uris":{"android":"levelo://app?vid=fd9a5b71-46a3-4dd8-b128-378e96626279","ios":"levelo://app?vid=fd9a5b71-46a3-4dd8-b128-378e96626279"},"vehicle_type_id":"4","last_reported":1773736720,"current_range_meters":6400,"station_id":"ce4bgkh2rcd13ifvqbl0","pricing_plan_id":"cebpf4jnsgd1na2vs0mg"},{"bike_id":"b5a6141d-ba50-4acc-8bdc-bdaeedf60276","system_id":"levelo_inurba_marseille","lat":43.29586,"lon":5.37524,"is_reserved":false,"is_disabled":true,"rental_uris":{"android":"levelo://app?vid=b5a6141d-ba50-4acc-8bdc-bdaeedf60276","ios":"levelo://app?vid=b5a6141d-ba50-4acc-8bdc-bdaeedf60276"},"vehicle_type_id":"4","last_reported":1773736720,"current_range_meters":6400,"station_id":"ce4bgh92rcd13ifvqb50","pricing_plan_id":"cebpf4jnsgd1na2vs0mg"},{"bike_id":"4c3d3553-54d0-46a3-acda-d420768e23c3","system_id":"levelo_inurba_marseille","lat":43.27368,"lon":5.36249,"is_reserved":false,"is_disabled":false,"rental_uris":{"android":"levelo://app?vid=4c3d3553-54d0-46a3-acda-d420768e23c3","ios":"levelo://app?vid=4c3d3553-54d0-46a3-acda-d420768e23c3"},"vehicle_type_id":"4","last_reported":1773736720,"current_range_meters":6400,"station_id":"ce4bhbh2rcd13ifvqeo0","pricing_plan_id":"cebpf4jnsgd1na2vs0mg"},{"bike_id":"69d2e5d2-aab9-4fc9-a42e-b520c7e8b4f1","system_id":"levelo_inurba_marseille","lat":43.23054,"lon":5.355,"is_reserved":false,"is_disabled":false,"rental_uris":{"android":"levelo://app?vid=69d2e5d2-aab9-4fc9-a42e-b520c7e8b4f1","ios":"levelo://app?vid=69d2e5d2-aab9-4fc9-a42e-b520c7e8b4f1"},"vehicle_type_id":"4","last_reported":1773736720,"current_range_meters":6400,"station_id":"cpo3342slgdg3j2ifvpg","pricing_plan_id":"cebpf4jnsgd1na2vs0mg"},{"bike_id":"ea24069c-7553-4425-b417-bc62f63f830e","system_id":"levelo_inurba_marseille","lat":43.291673,"lon":5.371591,"is_reserved":false,"is_disabled":false,"rental_uris":{"android":"levelo://app?vid=ea24069c-7553-4425-b417-bc62f63f830e","ios":"levelo://app?vid=ea24069c-7553-4425-b417-bc62f63f830e"},"vehicle_type_id":"4","last_reported":1773736720,"current_range_meters":6400,"station_id":"ce4bha92rcd13ifvqeh0","pricing_plan_id":"cebpf4jnsgd1na2vs0mg"},{"bike_id":"feaf2e83-6bc7-46d3-b8dc-e52b9fc8cf3e","system_id":"levelo_inurba_marseille","lat":43.22559,"lon":5.41633,"is_reserved":false,"is_disabled":false,"rental_uris":{"android":"levelo://app?vid=feaf2e83-6bc7-46d3-b8dc-e52b9fc8cf3e","ios":"levelo://app?vid=feaf2e83-6bc7-46d3-b8dc-e52b9fc8cf3e"},"vehicle_type_id":"4","last_reported":1773736720,"current_range_meters":6800,"station_id":"st_d2o4gvlbi1j2169b742g","pricing_plan_id":"cebpf4jnsgd1na2vs0mg"},{"bike_id":"08889860-c3d9-415f-ada2-b4f20b226c04","system_id":"levelo_inurba_marseille","lat":43.27317,"lon":5.39096,"is_reserved":false,"is_disabled":true,"rental_uris":{"android":"levelo://app?vid=08889860-c3d9-415f-ada2-b4f20b226c04","ios":"levelo://app?vid=08889860-c3d9-415f-ada2-b4f20b226c04"},"vehicle_type_id":"4","last_reported":1773736720,"current_range_meters":6800,"station_id":"ce4bhgp2rcd13ifvqfe0","pricing_plan_id":"cebpf4jnsgd1na2vs0mg"},{"bike_id":"f803c02c-554b-4f64-96b4-17007b8a80b5","system_id":"levelo_inurba_marseille","lat":43.29293,"lon":5.37468,"is_reserved":false,"is_disabled":false,"rental_uris":{"android":"levelo://app?vid=f803c02c-554b-4f64-96b4-17007b8a80b5","ios":"levelo://app?vid=f803c02c-554b-4f64-96b4-17007b8a80b5"},"vehicle_type_id":"4","last_reported":1773736720,"current_range_meters":6800,"station_id":"ce4bgi12rcd13ifvqb70","pricing_plan_id":"cebpf4jnsgd1na2vs0mg"},{"bike_id":"9da98388-0ed0-480b-8c9f-dc260996f4e2","system_id":"levelo_inurba_marseille","lat":43.29361,"lon":5.37842,"is_reserved":false,"is_disabled":false,"rental_uris":{"android":"levelo://app?vid=9da98388-0ed0-480b-8c9f-dc260996f4e2","ios":"levelo://app?vid=9da98388-0ed0-480b-8c9f-dc260996f4e2"},"vehicle_type_id":"4","last_reported":1773736720,"current_range_meters":6800,"station_id":"ce4bgjh2rcd13ifvqbf0","pricing_plan_id":"cebpf4jnsgd1na2vs0mg"},{"bike_id":"afcb47bf-c8e9-4aa0-96ab-ab46297762c7","system_id":"levelo_inurba_marseille","lat":43.29608,"lon":5.36746,"is_reserved":false,"is_disabled":false,"rental_uris":{"android":"levelo://app?vid=afcb47bf-c8e9-4aa0-96ab-ab46297762c7","ios":"levelo://app?vid=afcb47bf-c8e9-4aa0-96ab-ab46297762c7"},"vehicle_type_id":"4","last_reported":1773736720,"current_range_meters":6800,"station_id":"ce4bgph2rcd13ifvqc2g","pricing_plan_id":"cebpf4jnsgd1na2vs0mg"},{"bike_id":"48b0a0ee-66dd-4111-9104-dbb86de2afae","system_id":"levelo_inurba_marseille","lat":43.28939,"lon":5.36642,"is_reserved":false,"is_disabled":false,"rental_uris":{"android":"levelo://app?vid=48b0a0ee-66dd-4111-9104-dbb86de2afae","ios":"levelo://app?vid=48b0a0ee-66dd-4111-9104-dbb86de2afae"},"vehicle_type_id":"4","last_reported":1773736720,"current_range_meters":6800,"station_id":"ce4bhap2rcd13ifvqek0","pricing_plan_id":"cebpf4jnsgd1na2vs0mg"},{"bike_id":"37968066-0b78-49a9-89f8-964d9774907e","system_id":"levelo_inurba_marseille","lat":43.26545,"lon":5.37323,"is_reserved":false,"is_disabled":false,"rental_uris":{"android":"levelo://app?vid=37968066-0b78-49a9-89f8-964d9774907e","ios":"levelo://app?vid=37968066-0b78-49a9-89f8-964d9774907e"},"vehicle_type_id":"4","last_reported":1773736720,"current_range_meters":6800,"station_id":"ce4bhg12rcd13ifvqf70","pricing_plan_id":"cebpf4jnsgd1na2vs0mg"},{"bike_id":"6d37c527-9581-4465-863a-1310a73e6cc4","system_id":"levelo_inurba_marseille","lat":43.309223,"lon":5.368273,"is_reserved":false,"is_disabled":false,"rental_uris":{"android":"levelo://app?vid=6d37c527-9581-4465-863a-1310a73e6cc4","ios":"levelo://app?vid=6d37c527-9581-4465-863a-1310a73e6cc4"},"vehicle_type_id":"4","last_reported":1773736720,"current_range_meters":6800,"station_id":"ce4bgn92rcd13ifvqbvg","pricing_plan_id":"cebpf4jnsgd1na2vs0mg"},{"bike_id":"88858f89-fe21-45f8-acbb-9ce67472ddb3","system_id":"levelo_inurba_marseille","lat":43.22928,"lon":5.35381,"is_reserved":false,"is_disabled":false,"rental_uris":{"android":"levelo://app?vid=88858f89-fe21-45f8-acbb-9ce67472ddb3","ios":"levelo://app?vid=88858f89-fe21-45f8-acbb-9ce67472ddb3"},"vehicle_type_id":"4","last_reported":1773736720,"current_range_meters":6800,"station_id":"cpo3532slgdg3j2ikp40","pricing_plan_id":"cebpf4jnsgd1na2vs0mg"},{"bike_id":"b3e3399c-3837-42b8-afac-39674642005e","system_id":"levelo_inurba_marseille","lat":43.29808,"lon":5.42734,"is_reserved":false,"is_disabled":false,"rental_uris":{"android":"levelo://app?vid=b3e3399c-3837-42b8-afac-39674642005e","ios":"levelo://app?vid=b3e3399c-3837-42b8-afac-39674642005e"},"vehicle_type_id":"4","last_reported":1773736720,"current_range_meters":6800,"station_id":"","pricing_plan_id":"cebpf4jnsgd1na2vs0mg"},{"bike_id":"e4b515b3-5a64-4f24-8a63-3407e3500a15","system_id":"levelo_inurba_marseille","lat":43.24274,"lon":5.40258,"is_reserved":false,"is_disabled":false,"rental_uris":{"android":"levelo://app?vid=e4b515b3-5a64-4f24-8a63-3407e3500a15","ios":"levelo://app?vid=e4b515b3-5a64-4f24-8a63-3407e3500a15"},"vehicle_type_id":"4","last_reported":1773736720,"current_range_meters":6800,"station_id":"","pricing_plan_id":"cebpf4jnsgd1na2vs0mg"},{"bike_id":"86468a89-08b3-45ed-8698-6f1196abab3e","system_id":"levelo_inurba_marseille","lat":43.27449,"lon":5.39405,"is_reserved":false,"is_disabled":false,"rental_uris":{"android":"levelo://app?vid=86468a89-08b3-45ed-8698-6f1196abab3e","ios":"levelo://app?vid=86468a89-08b3-45ed-8698-6f1196abab3e"},"vehicle_type_id":"4","last_reported":1773736720,"current_range_meters":6800,"station_id":"ce4bhdp2rcd13ifvqf20","pricing_plan_id":"cebpf4jnsgd1na2vs0mg"},{"bike_id":"99b3399f-a7f1-46ba-9d8d-17a6644bc2b4","system_id":"levelo_inurba_marseille","lat":43.21776,"lon":5.34594,"is_reserved":false,"is_disabled":false,"rental_uris":{"android":"levelo://app?vid=99b3399f-a7f1-46ba-9d8d-17a6644bc2b4","ios":"levelo://app?vid=99b3399f-a7f1-46ba-9d8d-17a6644bc2b4"},"vehicle_type_id":"4","last_reported":1773736720,"current_range_meters":6800,"station_id":"st_cvj6r9ubvosntc0bgbag","pricing_plan_id":"cebpf4jnsgd1na2vs0mg"},{"bike_id":"782c800d-d317-4441-ad4b-531163641a8a","system_id":"levelo_inurba_marseille","lat":43.26697,"lon":5.38268,"is_reserved":false,"is_disabled":false,"rental_uris":{"android":"levelo://app?vid=782c800d-d317-4441-ad4b-531163641a8a","ios":"levelo://app?vid=782c800d-d317-4441-ad4b-531163641a8a"},"vehicle_type_id":"4","last_reported":1773736720,"current_range_meters":7200,"station_id":"ce4bhg92rcd13ifvqf90","pricing_plan_id":"cebpf4jnsgd1na2vs0mg"},{"bike_id":"5546bd0f-7ced-4964-ba48-a430fa2adf47","system_id":"levelo_inurba_marseille","lat":43.21742,"lon":5.34613,"is_reserved":false,"is_disabled":true,"rental_uris":{"android":"levelo://app?vid=5546bd0f-7ced-4964-ba48-a430fa2adf47","ios":"levelo://app?vid=5546bd0f-7ced-4964-ba48-a430fa2adf47"},"vehicle_type_id":"4","last_reported":1773736720,"current_range_meters":7200,"station_id":"st_cvj6r9ubvosntc0bgbag","pricing_plan_id":"cebpf4jnsgd1na2vs0mg"},{"bike_id":"9ffcd30b-650f-4436-9b49-3da9737f924f","system_id":"levelo_inurba_marseille","lat":43.3104,"lon":5.37167,"is_reserved":false,"is_disabled":false,"rental_uris":{"android":"levelo://app?vid=9ffcd30b-650f-4436-9b49-3da9737f924f","ios":"levelo://app?vid=9ffcd30b-650f-4436-9b49-3da9737f924f"},"vehicle_type_id":"4","last_reported":1773736720,"current_range_meters":7200,"station_id":"st_d4kl2rp97mjs73e7tdfg","pricing_plan_id":"cebpf4jnsgd1na2vs0mg"},{"bike_id":"c0ddb57f-e5f5-4ce0-b6c4-75fd2010b9ba","system_id":"levelo_inurba_marseille","lat":43.27521,"lon":5.41588,"is_reserved":false,"is_disabled":false,"rental_uris":{"android":"levelo://app?vid=c0ddb57f-e5f5-4ce0-b6c4-75fd2010b9ba","ios":"levelo://app?vid=c0ddb57f-e5f5-4ce0-b6c4-75fd2010b9ba"},"vehicle_type_id":"4","last_reported":1773736720,"current_range_meters":7200,"station_id":"st_d6im8g6chgec73a5pndg","pricing_plan_id":"cebpf4jnsgd1na2vs0mg"},{"bike_id":"8cb2a7a3-90e1-4b31-8c3b-89053d13e1d9","system_id":"levelo_inurba_marseille","lat":43.23194,"lon":5.35552,"is_reserved":false,"is_disabled":false,"rental_uris":{"android":"levelo://app?vid=8cb2a7a3-90e1-4b31-8c3b-89053d13e1d9","ios":"levelo://app?vid=8cb2a7a3-90e1-4b31-8c3b-89053d13e1d9"},"vehicle_type_id":"4","last_reported":1773736720,"current_range_meters":7200,"station_id":"ce4bhu92rcd13ifvqi70","pricing_plan_id":"cebpf4jnsgd1na2vs0mg"},{"bike_id":"695035b3-b646-4849-9dd1-6c9f4bdd04fd","system_id":"levelo_inurba_marseille","lat":43.28712,"lon":5.37948,"is_reserved":false,"is_disabled":false,"rental_uris":{"android":"levelo://app?vid=695035b3-b646-4849-9dd1-6c9f4bdd04fd","ios":"levelo://app?vid=695035b3-b646-4849-9dd1-6c9f4bdd04fd"},"vehicle_type_id":"4","last_reported":1773736720,"current_range_meters":7200,"station_id":"ce4bh9p2rcd13ifvqec0","pricing_plan_id":"cebpf4jnsgd1na2vs0mg"},{"bike_id":"a8db8879-4c09-4224-b628-25d7b9ae7e53","system_id":"levelo_inurba_marseille","lat":43.29088,"lon":5.38151,"is_reserved":false,"is_disabled":false,"rental_uris":{"android":"levelo://app?vid=a8db8879-4c09-4224-b628-25d7b9ae7e53","ios":"levelo://app?vid=a8db8879-4c09-4224-b628-25d7b9ae7e53"},"vehicle_type_id":"4","last_reported":1773736720,"current_range_meters":7200,"station_id":"ce4bh512rcd13ifvqe2g","pricing_plan_id":"cebpf4jnsgd1na2vs0mg"},{"bike_id":"9b44eabc-9473-4aeb-8589-934e8f4a2c0e","system_id":"levelo_inurba_marseille","lat":43.22929,"lon":5.35381,"is_reserved":false,"is_disabled":false,"rental_uris":{"android":"levelo://app?vid=9b44eabc-9473-4aeb-8589-934e8f4a2c0e","ios":"levelo://app?vid=9b44eabc-9473-4aeb-8589-934e8f4a2c0e"},"vehicle_type_id":"4","last_reported":1773736720,"current_range_meters":7200,"station_id":"cpo3532slgdg3j2ikp40","pricing_plan_id":"cebpf4jnsgd1na2vs0mg"},{"bike_id":"3dad20a7-e396-4101-adc6-30f4c7f64d56","system_id":"levelo_inurba_marseille","lat":43.25007,"lon":5.38928,"is_reserved":false,"is_disabled":false,"rental_uris":{"android":"levelo://app?vid=3dad20a7-e396-4101-adc6-30f4c7f64d56","ios":"levelo://app?vid=3dad20a7-e396-4101-adc6-30f4c7f64d56"},"vehicle_type_id":"4","last_reported":1773736720,"current_range_meters":7200,"station_id":"ce4bhgp2rcd13ifvqfd0","pricing_plan_id":"cebpf4jnsgd1na2vs0mg"},{"bike_id":"c6bad372-41ad-42c1-be12-31c25e37b1de","system_id":"levelo_inurba_marseille","lat":43.30136,"lon":5.38116,"is_reserved":false,"is_disabled":true,"rental_uris":{"android":"levelo://app?vid=c6bad372-41ad-42c1-be12-31c25e37b1de","ios":"levelo://app?vid=c6bad372-41ad-42c1-be12-31c25e37b1de"},"vehicle_type_id":"4","last_reported":1773736720,"current_range_meters":7200,"station_id":"ce4bgjp2rcd13ifvqbh0","pricing_plan_id":"cebpf4jnsgd1na2vs0mg"},{"bike_id":"d6f4fcc9-529e-44c9-8ab1-66a46ec0a2d7","system_id":"levelo_inurba_marseille","lat":43.29658,"lon":5.37461,"is_reserved":false,"is_disabled":false,"rental_uris":{"android":"levelo://app?vid=d6f4fcc9-529e-44c9-8ab1-66a46ec0a2d7","ios":"levelo://app?vid=d6f4fcc9-529e-44c9-8ab1-66a46ec0a2d7"},"vehicle_type_id":"4","last_reported":1773736720,"current_range_meters":7200,"station_id":"","pricing_plan_id":"cebpf4jnsgd1na2vs0mg"},{"bike_id":"75056a4b-7dce-4842-b5f6-e3da4f22a752","system_id":"levelo_inurba_marseille","lat":43.21758,"lon":5.34599,"is_reserved":false,"is_disabled":false,"rental_uris":{"android":"levelo://app?vid=75056a4b-7dce-4842-b5f6-e3da4f22a752","ios":"levelo://app?vid=75056a4b-7dce-4842-b5f6-e3da4f22a752"},"vehicle_type_id":"4","last_reported":1773736720,"current_range_meters":7200,"station_id":"st_cvj6r9ubvosntc0bgbag","pricing_plan_id":"cebpf4jnsgd1na2vs0mg"},{"bike_id":"faa8d18a-3767-4f17-b9c5-3e2ab989e6d0","system_id":"levelo_inurba_marseille","lat":43.25101,"lon":5.39514,"is_reserved":false,"is_disabled":false,"rental_uris":{"android":"levelo://app?vid=faa8d18a-3767-4f17-b9c5-3e2ab989e6d0","ios":"levelo://app?vid=faa8d18a-3767-4f17-b9c5-3e2ab989e6d0"},"vehicle_type_id":"4","last_reported":1773736720,"current_range_meters":7200,"station_id":"ce4bhm12rcd13ifvqgkg","pricing_plan_id":"cebpf4jnsgd1na2vs0mg"},{"bike_id":"c71f4782-0741-46e4-b227-7a9169091013","system_id":"levelo_inurba_marseille","lat":43.30149,"lon":5.37415,"is_reserved":false,"is_disabled":false,"rental_uris":{"android":"levelo://app?vid=c71f4782-0741-46e4-b227-7a9169091013","ios":"levelo://app?vid=c71f4782-0741-46e4-b227-7a9169091013"},"vehicle_type_id":"4","last_reported":1773736720,"current_range_meters":7200,"station_id":"ce4bgs92rcd13ifvqcc0","pricing_plan_id":"cebpf4jnsgd1na2vs0mg"},{"bike_id":"4edc1e69-f919-4c2f-a6b8-66257e87a54f","system_id":"levelo_inurba_marseille","lat":43.28475,"lon":5.48402,"is_reserved":false,"is_disabled":false,"rental_uris":{"android":"levelo://app?vid=4edc1e69-f919-4c2f-a6b8-66257e87a54f","ios":"levelo://app?vid=4edc1e69-f919-4c2f-a6b8-66257e87a54f"},"vehicle_type_id":"4","last_reported":1773736720,"current_range_meters":7200,"station_id":"","pricing_plan_id":"cebpf4jnsgd1na2vs0mg"},{"bike_id":"e2e30a9f-c391-4f7f-a537-0960123dfc91","system_id":"levelo_inurba_marseille","lat":43.23763,"lon":5.36629,"is_reserved":false,"is_disabled":false,"rental_uris":{"android":"levelo://app?vid=e2e30a9f-c391-4f7f-a537-0960123dfc91","ios":"levelo://app?vid=e2e30a9f-c391-4f7f-a537-0960123dfc91"},"vehicle_type_id":"4","last_reported":1773736720,"current_range_meters":7200,"station_id":"st_d3nk18o9ro0c73en2l3g","pricing_plan_id":"cebpf4jnsgd1na2vs0mg"},{"bike_id":"41b7b418-9b4f-4bf0-a387-6295ab4a59a6","system_id":"levelo_inurba_marseille","lat":43.25838,"lon":5.39428,"is_reserved":false,"is_disabled":false,"rental_uris":{"android":"levelo://app?vid=41b7b418-9b4f-4bf0-a387-6295ab4a59a6","ios":"levelo://app?vid=41b7b418-9b4f-4bf0-a387-6295ab4a59a6"},"vehicle_type_id":"4","last_reported":1773736720,"current_range_meters":7200,"station_id":"ce4bhip2rcd13ifvqft0","pricing_plan_id":"cebpf4jnsgd1na2vs0mg"},{"bike_id":"c1eea61c-2c2d-4242-99bc-a9326ae8dbbf","system_id":"levelo_inurba_marseille","lat":43.28606,"lon":5.39881,"is_reserved":false,"is_disabled":false,"rental_uris":{"android":"levelo://app?vid=c1eea61c-2c2d-4242-99bc-a9326ae8dbbf","ios":"levelo://app?vid=c1eea61c-2c2d-4242-99bc-a9326ae8dbbf"},"vehicle_type_id":"4","last_reported":1773736720,"current_range_meters":7200,"station_id":"st_d4a7ka997mjs738ck50g","pricing_plan_id":"cebpf4jnsgd1na2vs0mg"},{"bike_id":"a320105b-be49-49a0-bf35-282eea3a67a2","system_id":"levelo_inurba_marseille","lat":43.312322,"lon":5.368193,"is_reserved":false,"is_disabled":false,"rental_uris":{"android":"levelo://app?vid=a320105b-be49-49a0-bf35-282eea3a67a2","ios":"levelo://app?vid=a320105b-be49-49a0-bf35-282eea3a67a2"},"vehicle_type_id":"4","last_reported":1773736720,"current_range_meters":8000,"station_id":"ce4bgl92rcd13ifvqbq0","pricing_plan_id":"cebpf4jnsgd1na2vs0mg"},{"bike_id":"70fdc065-93d6-4dd2-977b-71ec2a296371","system_id":"levelo_inurba_marseille","lat":43.21745,"lon":5.34595,"is_reserved":false,"is_disabled":false,"rental_uris":{"android":"levelo://app?vid=70fdc065-93d6-4dd2-977b-71ec2a296371","ios":"levelo://app?vid=70fdc065-93d6-4dd2-977b-71ec2a296371"},"vehicle_type_id":"4","last_reported":1773736720,"current_range_meters":8000,"station_id":"st_cvj6r9ubvosntc0bgbag","pricing_plan_id":"cebpf4jnsgd1na2vs0mg"},{"bike_id":"03812eec-b185-465c-8c48-7984e651c3d0","system_id":"levelo_inurba_marseille","lat":43.33021,"lon":5.39004,"is_reserved":false,"is_disabled":false,"rental_uris":{"android":"levelo://app?vid=03812eec-b185-465c-8c48-7984e651c3d0","ios":"levelo://app?vid=03812eec-b185-465c-8c48-7984e651c3d0"},"vehicle_type_id":"4","last_reported":1773736720,"current_range_meters":8000,"station_id":"ce4bhr92rcd13ifvqhrg","pricing_plan_id":"cebpf4jnsgd1na2vs0mg"},{"bike_id":"57f59ea7-9661-484b-ab62-8930e39b76a3","system_id":"levelo_inurba_marseille","lat":43.23795,"lon":5.36634,"is_reserved":false,"is_disabled":false,"rental_uris":{"android":"levelo://app?vid=57f59ea7-9661-484b-ab62-8930e39b76a3","ios":"levelo://app?vid=57f59ea7-9661-484b-ab62-8930e39b76a3"},"vehicle_type_id":"4","last_reported":1773736720,"current_range_meters":8000,"station_id":"st_d3nk18o9ro0c73en2l3g","pricing_plan_id":"cebpf4jnsgd1na2vs0mg"},{"bike_id":"7786c34f-602b-4e9d-a8ca-1802c760d6b9","system_id":"levelo_inurba_marseille","lat":43.27209,"lon":5.39188,"is_reserved":false,"is_disabled":false,"rental_uris":{"android":"levelo://app?vid=7786c34f-602b-4e9d-a8ca-1802c760d6b9","ios":"levelo://app?vid=7786c34f-602b-4e9d-a8ca-1802c760d6b9"},"vehicle_type_id":"4","last_reported":1773736720,"current_range_meters":8000,"station_id":"ce4bhhp2rcd13ifvqfm0","pricing_plan_id":"cebpf4jnsgd1na2vs0mg"},{"bike_id":"4eeecf6d-6108-42a0-b77f-fc0c0b55b73c","system_id":"levelo_inurba_marseille","lat":43.29914,"lon":5.37448,"is_reserved":false,"is_disabled":true,"rental_uris":{"android":"levelo://app?vid=4eeecf6d-6108-42a0-b77f-fc0c0b55b73c","ios":"levelo://app?vid=4eeecf6d-6108-42a0-b77f-fc0c0b55b73c"},"vehicle_type_id":"4","last_reported":1773736720,"current_range_meters":8000,"station_id":"ce4bgjh2rcd13ifvqbg0","pricing_plan_id":"cebpf4jnsgd1na2vs0mg"},{"bike_id":"010a9f6e-3baf-4328-b2cc-6d9ecc86357b","system_id":"levelo_inurba_marseille","lat":43.31497,"lon":5.37305,"is_reserved":false,"is_disabled":true,"rental_uris":{"android":"levelo://app?vid=010a9f6e-3baf-4328-b2cc-6d9ecc86357b","ios":"levelo://app?vid=010a9f6e-3baf-4328-b2cc-6d9ecc86357b"},"vehicle_type_id":"4","last_reported":1773736720,"current_range_meters":8000,"station_id":"ce4bgt12rcd13ifvqcd0","pricing_plan_id":"cebpf4jnsgd1na2vs0mg"},{"bike_id":"b21e3be4-c7ed-41ef-8b12-6d82d73722e2","system_id":"levelo_inurba_marseille","lat":43.24793,"lon":5.37459,"is_reserved":false,"is_disabled":false,"rental_uris":{"android":"levelo://app?vid=b21e3be4-c7ed-41ef-8b12-6d82d73722e2","ios":"levelo://app?vid=b21e3be4-c7ed-41ef-8b12-6d82d73722e2"},"vehicle_type_id":"4","last_reported":1773736720,"current_range_meters":8000,"station_id":"ce4bhgh2rcd13ifvqfb0","pricing_plan_id":"cebpf4jnsgd1na2vs0mg"},{"bike_id":"53336338-5141-44ec-bb59-6df2460b79a8","system_id":"levelo_inurba_marseille","lat":43.30196,"lon":5.39475,"is_reserved":false,"is_disabled":true,"rental_uris":{"android":"levelo://app?vid=53336338-5141-44ec-bb59-6df2460b79a8","ios":"levelo://app?vid=53336338-5141-44ec-bb59-6df2460b79a8"},"vehicle_type_id":"4","last_reported":1773736720,"current_range_meters":8000,"station_id":"ce4bh0p2rcd13ifvqd70","pricing_plan_id":"cebpf4jnsgd1na2vs0mg"},{"bike_id":"fea3358b-abc0-4f17-856a-4131c4d369d6","system_id":"levelo_inurba_marseille","lat":43.26227,"lon":5.40437,"is_reserved":false,"is_disabled":false,"rental_uris":{"android":"levelo://app?vid=fea3358b-abc0-4f17-856a-4131c4d369d6","ios":"levelo://app?vid=fea3358b-abc0-4f17-856a-4131c4d369d6"},"vehicle_type_id":"4","last_reported":1773736720,"current_range_meters":8000,"station_id":"ce4bhmh2rcd13ifvqgmg","pricing_plan_id":"cebpf4jnsgd1na2vs0mg"},{"bike_id":"6f83eb31-b48e-41cc-86f8-dc0cead3d767","system_id":"levelo_inurba_marseille","lat":43.21192,"lon":5.35071,"is_reserved":false,"is_disabled":false,"rental_uris":{"android":"levelo://app?vid=6f83eb31-b48e-41cc-86f8-dc0cead3d767","ios":"levelo://app?vid=6f83eb31-b48e-41cc-86f8-dc0cead3d767"},"vehicle_type_id":"4","last_reported":1773736720,"current_range_meters":8000,"station_id":"st_cvj6sg6p6f1abm77japg","pricing_plan_id":"cebpf4jnsgd1na2vs0mg"},{"bike_id":"a9bf5289-9f8f-47c7-87e4-10466567bbec","system_id":"levelo_inurba_marseille","lat":43.28887,"lon":5.36543,"is_reserved":false,"is_disabled":false,"rental_uris":{"android":"levelo://app?vid=a9bf5289-9f8f-47c7-87e4-10466567bbec","ios":"levelo://app?vid=a9bf5289-9f8f-47c7-87e4-10466567bbec"},"vehicle_type_id":"4","last_reported":1773736720,"current_range_meters":8000,"station_id":"","pricing_plan_id":"cebpf4jnsgd1na2vs0mg"},{"bike_id":"a650f10d-9ab2-42e1-a1ec-b23d66310508","system_id":"levelo_inurba_marseille","lat":43.27349,"lon":5.42395,"is_reserved":false,"is_disabled":true,"rental_uris":{"android":"levelo://app?vid=a650f10d-9ab2-42e1-a1ec-b23d66310508","ios":"levelo://app?vid=a650f10d-9ab2-42e1-a1ec-b23d66310508"},"vehicle_type_id":"4","last_reported":1773736720,"current_range_meters":8000,"station_id":"","pricing_plan_id":"cebpf4jnsgd1na2vs0mg"},{"bike_id":"99ba46b4-4c6f-44d5-9c27-ad82efd84c9b","system_id":"levelo_inurba_marseille","lat":43.21233,"lon":5.35045,"is_reserved":false,"is_disabled":false,"rental_uris":{"android":"levelo://app?vid=99ba46b4-4c6f-44d5-9c27-ad82efd84c9b","ios":"levelo://app?vid=99ba46b4-4c6f-44d5-9c27-ad82efd84c9b"},"vehicle_type_id":"4","last_reported":1773736720,"current_range_meters":8000,"station_id":"","pricing_plan_id":"cebpf4jnsgd1na2vs0mg"},{"bike_id":"37b76a4a-4617-40ad-8663-848e6cf36fa3","system_id":"levelo_inurba_marseille","lat":43.31525,"lon":5.36789,"is_reserved":false,"is_disabled":false,"rental_uris":{"android":"levelo://app?vid=37b76a4a-4617-40ad-8663-848e6cf36fa3","ios":"levelo://app?vid=37b76a4a-4617-40ad-8663-848e6cf36fa3"},"vehicle_type_id":"4","last_reported":1773736720,"current_range_meters":8000,"station_id":"","pricing_plan_id":"cebpf4jnsgd1na2vs0mg"},{"bike_id":"947e1acd-8816-4ff5-9c35-e02eb3948228","system_id":"levelo_inurba_marseille","lat":43.29937,"lon":5.43814,"is_reserved":false,"is_disabled":false,"rental_uris":{"android":"levelo://app?vid=947e1acd-8816-4ff5-9c35-e02eb3948228","ios":"levelo://app?vid=947e1acd-8816-4ff5-9c35-e02eb3948228"},"vehicle_type_id":"4","last_reported":1773736720,"current_range_meters":8000,"station_id":"","pricing_plan_id":"cebpf4jnsgd1na2vs0mg"},{"bike_id":"16620fe6-35b6-48b6-8112-64755f0f3ce8","system_id":"levelo_inurba_marseille","lat":43.31354,"lon":5.36755,"is_reserved":false,"is_disabled":false,"rental_uris":{"android":"levelo://app?vid=16620fe6-35b6-48b6-8112-64755f0f3ce8","ios":"levelo://app?vid=16620fe6-35b6-48b6-8112-64755f0f3ce8"},"vehicle_type_id":"4","last_reported":1773736720,"current_range_meters":8000,"station_id":"ce4bgr92rcd13ifvqc6g","pricing_plan_id":"cebpf4jnsgd1na2vs0mg"},{"bike_id":"f778a61e-237d-44eb-aaac-657b6db8c9e6","system_id":"levelo_inurba_marseille","lat":43.26229,"lon":5.40444,"is_reserved":false,"is_disabled":false,"rental_uris":{"android":"levelo://app?vid=f778a61e-237d-44eb-aaac-657b6db8c9e6","ios":"levelo://app?vid=f778a61e-237d-44eb-aaac-657b6db8c9e6"},"vehicle_type_id":"4","last_reported":1773736720,"current_range_meters":8000,"station_id":"ce4bhmh2rcd13ifvqgmg","pricing_plan_id":"cebpf4jnsgd1na2vs0mg"},{"bike_id":"36bcefea-1744-478b-a4f4-a282d99e8251","system_id":"levelo_inurba_marseille","lat":43.24538,"lon":5.39529,"is_reserved":false,"is_disabled":true,"rental_uris":{"android":"levelo://app?vid=36bcefea-1744-478b-a4f4-a282d99e8251","ios":"levelo://app?vid=36bcefea-1744-478b-a4f4-a282d99e8251"},"vehicle_type_id":"4","last_reported":1773736720,"current_range_meters":8000,"station_id":"ce4bhlp2rcd13ifvqgjg","pricing_plan_id":"cebpf4jnsgd1na2vs0mg"},{"bike_id":"6c7da26a-6e3c-4915-81a4-435886bc144f","system_id":"levelo_inurba_marseille","lat":43.23198,"lon":5.35564,"is_reserved":false,"is_disabled":false,"rental_uris":{"android":"levelo://app?vid=6c7da26a-6e3c-4915-81a4-435886bc144f","ios":"levelo://app?vid=6c7da26a-6e3c-4915-81a4-435886bc144f"},"vehicle_type_id":"4","last_reported":1773736720,"current_range_meters":8000,"station_id":"ce4bhu92rcd13ifvqi70","pricing_plan_id":"cebpf4jnsgd1na2vs0mg"},{"bike_id":"3a2c16fa-f087-430f-a626-5009aeb4e722","system_id":"levelo_inurba_marseille","lat":43.27494,"lon":5.41603,"is_reserved":false,"is_disabled":true,"rental_uris":{"android":"levelo://app?vid=3a2c16fa-f087-430f-a626-5009aeb4e722","ios":"levelo://app?vid=3a2c16fa-f087-430f-a626-5009aeb4e722"},"vehicle_type_id":"4","last_reported":1773736720,"current_range_meters":8000,"station_id":"st_d6im8g6chgec73a5pndg","pricing_plan_id":"cebpf4jnsgd1na2vs0mg"},{"bike_id":"7d5b3664-02ce-4451-b3f2-afda1ab3ce3d","system_id":"levelo_inurba_marseille","lat":43.33553,"lon":5.37472,"is_reserved":false,"is_disabled":false,"rental_uris":{"android":"levelo://app?vid=7d5b3664-02ce-4451-b3f2-afda1ab3ce3d","ios":"levelo://app?vid=7d5b3664-02ce-4451-b3f2-afda1ab3ce3d"},"vehicle_type_id":"4","last_reported":1773736720,"current_range_meters":8000,"station_id":"st_d46tts09ee8s73dlu43g","pricing_plan_id":"cebpf4jnsgd1na2vs0mg"},{"bike_id":"f6c860f4-9c2e-4a13-b509-50fb1709859b","system_id":"levelo_inurba_marseille","lat":43.21192,"lon":5.35071,"is_reserved":false,"is_disabled":false,"rental_uris":{"android":"levelo://app?vid=f6c860f4-9c2e-4a13-b509-50fb1709859b","ios":"levelo://app?vid=f6c860f4-9c2e-4a13-b509-50fb1709859b"},"vehicle_type_id":"4","last_reported":1773736720,"current_range_meters":8400,"station_id":"st_cvj6sg6p6f1abm77japg","pricing_plan_id":"cebpf4jnsgd1na2vs0mg"},{"bike_id":"86f3c3e6-1877-45e4-95fe-47aa36990f39","system_id":"levelo_inurba_marseille","lat":43.31071,"lon":5.37145,"is_reserved":false,"is_disabled":false,"rental_uris":{"android":"levelo://app?vid=86f3c3e6-1877-45e4-95fe-47aa36990f39","ios":"levelo://app?vid=86f3c3e6-1877-45e4-95fe-47aa36990f39"},"vehicle_type_id":"4","last_reported":1773736720,"current_range_meters":8400,"station_id":"st_d4kl2rp97mjs73e7tdfg","pricing_plan_id":"cebpf4jnsgd1na2vs0mg"},{"bike_id":"a198b19a-147f-4fb3-822c-608a1d587cb8","system_id":"levelo_inurba_marseille","lat":43.21751,"lon":5.34613,"is_reserved":false,"is_disabled":false,"rental_uris":{"android":"levelo://app?vid=a198b19a-147f-4fb3-822c-608a1d587cb8","ios":"levelo://app?vid=a198b19a-147f-4fb3-822c-608a1d587cb8"},"vehicle_type_id":"4","last_reported":1773736720,"current_range_meters":8400,"station_id":"st_cvj6r9ubvosntc0bgbag","pricing_plan_id":"cebpf4jnsgd1na2vs0mg"},{"bike_id":"a18b068d-ee72-4ec9-8811-6eb4a904a5af","system_id":"levelo_inurba_marseille","lat":43.27388,"lon":5.36281,"is_reserved":false,"is_disabled":false,"rental_uris":{"android":"levelo://app?vid=a18b068d-ee72-4ec9-8811-6eb4a904a5af","ios":"levelo://app?vid=a18b068d-ee72-4ec9-8811-6eb4a904a5af"},"vehicle_type_id":"4","last_reported":1773736720,"current_range_meters":8400,"station_id":"ce4bhbh2rcd13ifvqeo0","pricing_plan_id":"cebpf4jnsgd1na2vs0mg"},{"bike_id":"85926107-e597-45a0-9a31-957d3d5f535c","system_id":"levelo_inurba_marseille","lat":43.29201,"lon":5.35801,"is_reserved":false,"is_disabled":false,"rental_uris":{"android":"levelo://app?vid=85926107-e597-45a0-9a31-957d3d5f535c","ios":"levelo://app?vid=85926107-e597-45a0-9a31-957d3d5f535c"},"vehicle_type_id":"4","last_reported":1773736720,"current_range_meters":8400,"station_id":"ce4bhb12rcd13ifvqel0","pricing_plan_id":"cebpf4jnsgd1na2vs0mg"},{"bike_id":"94cc2d3f-4d25-4f4c-851a-fdc8f513cd52","system_id":"levelo_inurba_marseille","lat":43.24054,"lon":5.37763,"is_reserved":false,"is_disabled":false,"rental_uris":{"android":"levelo://app?vid=94cc2d3f-4d25-4f4c-851a-fdc8f513cd52","ios":"levelo://app?vid=94cc2d3f-4d25-4f4c-851a-fdc8f513cd52"},"vehicle_type_id":"4","last_reported":1773736720,"current_range_meters":8400,"station_id":"ce4bhnp2rcd13ifvqgvg","pricing_plan_id":"cebpf4jnsgd1na2vs0mg"},{"bike_id":"9985140f-fed1-4163-9957-5fc76200bd08","system_id":"levelo_inurba_marseille","lat":43.30168,"lon":5.3807,"is_reserved":false,"is_disabled":true,"rental_uris":{"android":"levelo://app?vid=9985140f-fed1-4163-9957-5fc76200bd08","ios":"levelo://app?vid=9985140f-fed1-4163-9957-5fc76200bd08"},"vehicle_type_id":"4","last_reported":1773736720,"current_range_meters":8400,"station_id":"ce4bgjp2rcd13ifvqbh0","pricing_plan_id":"cebpf4jnsgd1na2vs0mg"},{"bike_id":"019469e2-77a8-4d0c-9467-93ec69d40b64","system_id":"levelo_inurba_marseille","lat":43.33606,"lon":5.41028,"is_reserved":false,"is_disabled":false,"rental_uris":{"android":"levelo://app?vid=019469e2-77a8-4d0c-9467-93ec69d40b64","ios":"levelo://app?vid=019469e2-77a8-4d0c-9467-93ec69d40b64"},"vehicle_type_id":"4","last_reported":1773736720,"current_range_meters":8400,"station_id":"ce4bhqh2rcd13ifvqhmg","pricing_plan_id":"cebpf4jnsgd1na2vs0mg"},{"bike_id":"caf2acf5-e04b-4323-bdbb-72fd6015a9d1","system_id":"levelo_inurba_marseille","lat":43.25336,"lon":5.42178,"is_reserved":false,"is_disabled":false,"rental_uris":{"android":"levelo://app?vid=caf2acf5-e04b-4323-bdbb-72fd6015a9d1","ios":"levelo://app?vid=caf2acf5-e04b-4323-bdbb-72fd6015a9d1"},"vehicle_type_id":"4","last_reported":1773736720,"current_range_meters":8400,"station_id":"st_d2m65c5bi1j21697t3ng","pricing_plan_id":"cebpf4jnsgd1na2vs0mg"},{"bike_id":"1f5bfe55-41d9-43f3-a84f-b130fbed01d6","system_id":"levelo_inurba_marseille","lat":43.21197,"lon":5.35082,"is_reserved":false,"is_disabled":false,"rental_uris":{"android":"levelo://app?vid=1f5bfe55-41d9-43f3-a84f-b130fbed01d6","ios":"levelo://app?vid=1f5bfe55-41d9-43f3-a84f-b130fbed01d6"},"vehicle_type_id":"4","last_reported":1773736720,"current_range_meters":8400,"station_id":"st_cvj6sg6p6f1abm77japg","pricing_plan_id":"cebpf4jnsgd1na2vs0mg"},{"bike_id":"f740cb29-e33e-448a-8ce5-5886eb74e940","system_id":"levelo_inurba_marseille","lat":43.26208,"lon":5.3745,"is_reserved":false,"is_disabled":false,"rental_uris":{"android":"levelo://app?vid=f740cb29-e33e-448a-8ce5-5886eb74e940","ios":"levelo://app?vid=f740cb29-e33e-448a-8ce5-5886eb74e940"},"vehicle_type_id":"4","last_reported":1773736720,"current_range_meters":8400,"station_id":"ce4bhgp2rcd13ifvqfc0","pricing_plan_id":"cebpf4jnsgd1na2vs0mg"},{"bike_id":"a2cdbaf8-da8c-4ca1-8f7a-3609363ed87c","system_id":"levelo_inurba_marseille","lat":43.3013,"lon":5.37402,"is_reserved":false,"is_disabled":false,"rental_uris":{"android":"levelo://app?vid=a2cdbaf8-da8c-4ca1-8f7a-3609363ed87c","ios":"levelo://app?vid=a2cdbaf8-da8c-4ca1-8f7a-3609363ed87c"},"vehicle_type_id":"4","last_reported":1773736720,"current_range_meters":8400,"station_id":"ce4bgs92rcd13ifvqcc0","pricing_plan_id":"cebpf4jnsgd1na2vs0mg"},{"bike_id":"5efbfe77-f336-4734-90ae-6b59653d3d20","system_id":"levelo_inurba_marseille","lat":43.26565,"lon":5.39016,"is_reserved":false,"is_disabled":true,"rental_uris":{"android":"levelo://app?vid=5efbfe77-f336-4734-90ae-6b59653d3d20","ios":"levelo://app?vid=5efbfe77-f336-4734-90ae-6b59653d3d20"},"vehicle_type_id":"4","last_reported":1773736720,"current_range_meters":8400,"station_id":"ce4bhe12rcd13ifvqf30","pricing_plan_id":"cebpf4jnsgd1na2vs0mg"},{"bike_id":"811cb60e-c2e0-4eff-a720-ab1d90d9f80a","system_id":"levelo_inurba_marseille","lat":43.23379,"lon":5.41262,"is_reserved":false,"is_disabled":false,"rental_uris":{"android":"levelo://app?vid=811cb60e-c2e0-4eff-a720-ab1d90d9f80a","ios":"levelo://app?vid=811cb60e-c2e0-4eff-a720-ab1d90d9f80a"},"vehicle_type_id":"4","last_reported":1773736720,"current_range_meters":8400,"station_id":"","pricing_plan_id":"cebpf4jnsgd1na2vs0mg"},{"bike_id":"40cd171a-e402-4f10-b08f-706999b5ff3e","system_id":"levelo_inurba_marseille","lat":43.3266,"lon":5.40994,"is_reserved":false,"is_disabled":false,"rental_uris":{"android":"levelo://app?vid=40cd171a-e402-4f10-b08f-706999b5ff3e","ios":"levelo://app?vid=40cd171a-e402-4f10-b08f-706999b5ff3e"},"vehicle_type_id":"4","last_reported":1773736720,"current_range_meters":8400,"station_id":"ce4bhpp2rcd13ifvqhgg","pricing_plan_id":"cebpf4jnsgd1na2vs0mg"},{"bike_id":"c2c7c530-5d90-493e-bc68-4654d00e1dc7","system_id":"levelo_inurba_marseille","lat":43.25208,"lon":5.40628,"is_reserved":false,"is_disabled":false,"rental_uris":{"android":"levelo://app?vid=c2c7c530-5d90-493e-bc68-4654d00e1dc7","ios":"levelo://app?vid=c2c7c530-5d90-493e-bc68-4654d00e1dc7"},"vehicle_type_id":"4","last_reported":1773736720,"current_range_meters":8400,"station_id":"","pricing_plan_id":"cebpf4jnsgd1na2vs0mg"},{"bike_id":"1f30759f-6331-4ddd-bc9a-6b33c2e8e2e5","system_id":"levelo_inurba_marseille","lat":43.21767,"lon":5.34649,"is_reserved":false,"is_disabled":false,"rental_uris":{"android":"levelo://app?vid=1f30759f-6331-4ddd-bc9a-6b33c2e8e2e5","ios":"levelo://app?vid=1f30759f-6331-4ddd-bc9a-6b33c2e8e2e5"},"vehicle_type_id":"4","last_reported":1773736720,"current_range_meters":8800,"station_id":"st_cvj6r9ubvosntc0bgbag","pricing_plan_id":"cebpf4jnsgd1na2vs0mg"},{"bike_id":"5b850e72-3067-4acb-9f55-9862cd5907ed","system_id":"levelo_inurba_marseille","lat":43.24398,"lon":5.37058,"is_reserved":false,"is_disabled":false,"rental_uris":{"android":"levelo://app?vid=5b850e72-3067-4acb-9f55-9862cd5907ed","ios":"levelo://app?vid=5b850e72-3067-4acb-9f55-9862cd5907ed"},"vehicle_type_id":"4","last_reported":1773736720,"current_range_meters":8800,"station_id":"ce4bhhh2rcd13ifvqfk0","pricing_plan_id":"cebpf4jnsgd1na2vs0mg"},{"bike_id":"458f604b-e062-47bf-ac14-a001a31d10d8","system_id":"levelo_inurba_marseille","lat":43.28459,"lon":5.48408,"is_reserved":false,"is_disabled":false,"rental_uris":{"android":"levelo://app?vid=458f604b-e062-47bf-ac14-a001a31d10d8","ios":"levelo://app?vid=458f604b-e062-47bf-ac14-a001a31d10d8"},"vehicle_type_id":"4","last_reported":1773736720,"current_range_meters":8800,"station_id":"","pricing_plan_id":"cebpf4jnsgd1na2vs0mg"},{"bike_id":"84d8a32b-d716-45ee-becd-1ea30631e0d6","system_id":"levelo_inurba_marseille","lat":43.27995,"lon":5.40013,"is_reserved":false,"is_disabled":true,"rental_uris":{"android":"levelo://app?vid=84d8a32b-d716-45ee-becd-1ea30631e0d6","ios":"levelo://app?vid=84d8a32b-d716-45ee-becd-1ea30631e0d6"},"vehicle_type_id":"4","last_reported":1773736720,"current_range_meters":8800,"station_id":"ce4bho92rcd13ifvqh4g","pricing_plan_id":"cebpf4jnsgd1na2vs0mg"},{"bike_id":"a172fb4c-0d89-4238-b899-c9d8e15b8540","system_id":"levelo_inurba_marseille","lat":43.21758,"lon":5.34609,"is_reserved":false,"is_disabled":false,"rental_uris":{"android":"levelo://app?vid=a172fb4c-0d89-4238-b899-c9d8e15b8540","ios":"levelo://app?vid=a172fb4c-0d89-4238-b899-c9d8e15b8540"},"vehicle_type_id":"4","last_reported":1773736720,"current_range_meters":8800,"station_id":"st_cvj6r9ubvosntc0bgbag","pricing_plan_id":"cebpf4jnsgd1na2vs0mg"},{"bike_id":"ada84d11-d901-46af-bdef-9b39560712d8","system_id":"levelo_inurba_marseille","lat":43.29199,"lon":5.35808,"is_reserved":false,"is_disabled":false,"rental_uris":{"android":"levelo://app?vid=ada84d11-d901-46af-bdef-9b39560712d8","ios":"levelo://app?vid=ada84d11-d901-46af-bdef-9b39560712d8"},"vehicle_type_id":"4","last_reported":1773736720,"current_range_meters":8800,"station_id":"ce4bhb12rcd13ifvqel0","pricing_plan_id":"cebpf4jnsgd1na2vs0mg"},{"bike_id":"46911b88-a85c-4ffe-bd44-0c2161fc0c11","system_id":"levelo_inurba_marseille","lat":43.2782,"lon":5.40705,"is_reserved":false,"is_disabled":false,"rental_uris":{"android":"levelo://app?vid=46911b88-a85c-4ffe-bd44-0c2161fc0c11","ios":"levelo://app?vid=46911b88-a85c-4ffe-bd44-0c2161fc0c11"},"vehicle_type_id":"4","last_reported":1773736720,"current_range_meters":8800,"station_id":"ce4bhnh2rcd13ifvqgtg","pricing_plan_id":"cebpf4jnsgd1na2vs0mg"},{"bike_id":"febfa025-f350-4e1e-85a2-b93fed08c843","system_id":"levelo_inurba_marseille","lat":43.30945,"lon":5.39032,"is_reserved":false,"is_disabled":false,"rental_uris":{"android":"levelo://app?vid=febfa025-f350-4e1e-85a2-b93fed08c843","ios":"levelo://app?vid=febfa025-f350-4e1e-85a2-b93fed08c843"},"vehicle_type_id":"4","last_reported":1773736720,"current_range_meters":8800,"station_id":"ce4bgup2rcd13ifvqco0","pricing_plan_id":"cebpf4jnsgd1na2vs0mg"},{"bike_id":"e19bbcec-af9d-483d-ac29-18df3b9c0ab9","system_id":"levelo_inurba_marseille","lat":43.28477,"lon":5.48398,"is_reserved":false,"is_disabled":false,"rental_uris":{"android":"levelo://app?vid=e19bbcec-af9d-483d-ac29-18df3b9c0ab9","ios":"levelo://app?vid=e19bbcec-af9d-483d-ac29-18df3b9c0ab9"},"vehicle_type_id":"4","last_reported":1773736720,"current_range_meters":8800,"station_id":"st_d3svhcjqgbts73a3dn0g","pricing_plan_id":"cebpf4jnsgd1na2vs0mg"},{"bike_id":"3a9bfa46-8ac9-44e1-bc55-99c4bde65c1d","system_id":"levelo_inurba_marseille","lat":43.27053,"lon":5.42273,"is_reserved":false,"is_disabled":false,"rental_uris":{"android":"levelo://app?vid=3a9bfa46-8ac9-44e1-bc55-99c4bde65c1d","ios":"levelo://app?vid=3a9bfa46-8ac9-44e1-bc55-99c4bde65c1d"},"vehicle_type_id":"4","last_reported":1773736720,"current_range_meters":8800,"station_id":"ce4bhk92rcd13ifvqgb0","pricing_plan_id":"cebpf4jnsgd1na2vs0mg"},{"bike_id":"7e372e61-a4a4-4320-b78e-0115edf72ed5","system_id":"levelo_inurba_marseille","lat":43.24166,"lon":5.36405,"is_reserved":false,"is_disabled":true,"rental_uris":{"android":"levelo://app?vid=7e372e61-a4a4-4320-b78e-0115edf72ed5","ios":"levelo://app?vid=7e372e61-a4a4-4320-b78e-0115edf72ed5"},"vehicle_type_id":"4","last_reported":1773736720,"current_range_meters":8800,"station_id":"cpo36qri1sfpv3e86is0","pricing_plan_id":"cebpf4jnsgd1na2vs0mg"},{"bike_id":"f7cad0dd-4929-454b-8848-7575c69435e1","system_id":"levelo_inurba_marseille","lat":43.25868,"lon":5.39907,"is_reserved":false,"is_disabled":true,"rental_uris":{"android":"levelo://app?vid=f7cad0dd-4929-454b-8848-7575c69435e1","ios":"levelo://app?vid=f7cad0dd-4929-454b-8848-7575c69435e1"},"vehicle_type_id":"4","last_reported":1773736720,"current_range_meters":8800,"station_id":"ce4bhl92rcd13ifvqghg","pricing_plan_id":"cebpf4jnsgd1na2vs0mg"},{"bike_id":"cc5fc361-e677-4693-8a3b-54577a2e489f","system_id":"levelo_inurba_marseille","lat":43.30545,"lon":5.36532,"is_reserved":false,"is_disabled":false,"rental_uris":{"android":"levelo://app?vid=cc5fc361-e677-4693-8a3b-54577a2e489f","ios":"levelo://app?vid=cc5fc361-e677-4693-8a3b-54577a2e489f"},"vehicle_type_id":"4","last_reported":1773736720,"current_range_meters":8800,"station_id":"ce4bgs12rcd13ifvqcag","pricing_plan_id":"cebpf4jnsgd1na2vs0mg"},{"bike_id":"b9ef10fd-0204-4e5f-bc92-673f50a6fcb4","system_id":"levelo_inurba_marseille","lat":43.2119,"lon":5.35073,"is_reserved":false,"is_disabled":false,"rental_uris":{"android":"levelo://app?vid=b9ef10fd-0204-4e5f-bc92-673f50a6fcb4","ios":"levelo://app?vid=b9ef10fd-0204-4e5f-bc92-673f50a6fcb4"},"vehicle_type_id":"4","last_reported":1773736720,"current_range_meters":8800,"station_id":"","pricing_plan_id":"cebpf4jnsgd1na2vs0mg"},{"bike_id":"fedd208b-765e-4da1-9fcc-65999b120e19","system_id":"levelo_inurba_marseille","lat":43.24392,"lon":5.37064,"is_reserved":false,"is_disabled":false,"rental_uris":{"android":"levelo://app?vid=fedd208b-765e-4da1-9fcc-65999b120e19","ios":"levelo://app?vid=fedd208b-765e-4da1-9fcc-65999b120e19"},"vehicle_type_id":"4","last_reported":1773736720,"current_range_meters":8800,"station_id":"ce4bhhh2rcd13ifvqfk0","pricing_plan_id":"cebpf4jnsgd1na2vs0mg"},{"bike_id":"6aa823cd-4931-4f3f-9262-0dcb3ae7b7e9","system_id":"levelo_inurba_marseille","lat":43.24804,"lon":5.37465,"is_reserved":false,"is_disabled":false,"rental_uris":{"android":"levelo://app?vid=6aa823cd-4931-4f3f-9262-0dcb3ae7b7e9","ios":"levelo://app?vid=6aa823cd-4931-4f3f-9262-0dcb3ae7b7e9"},"vehicle_type_id":"4","last_reported":1773736720,"current_range_meters":8800,"station_id":"ce4bhgh2rcd13ifvqfb0","pricing_plan_id":"cebpf4jnsgd1na2vs0mg"},{"bike_id":"80db3609-75ad-4c89-b2ce-16c9992dcab3","system_id":"levelo_inurba_marseille","lat":43.2292,"lon":5.35375,"is_reserved":false,"is_disabled":false,"rental_uris":{"android":"levelo://app?vid=80db3609-75ad-4c89-b2ce-16c9992dcab3","ios":"levelo://app?vid=80db3609-75ad-4c89-b2ce-16c9992dcab3"},"vehicle_type_id":"4","last_reported":1773736720,"current_range_meters":8800,"station_id":"cpo3532slgdg3j2ikp40","pricing_plan_id":"cebpf4jnsgd1na2vs0mg"},{"bike_id":"c35776a3-1ecf-486f-b6de-0c7c3e2f2dd1","system_id":"levelo_inurba_marseille","lat":43.30717,"lon":5.42438,"is_reserved":false,"is_disabled":false,"rental_uris":{"android":"levelo://app?vid=c35776a3-1ecf-486f-b6de-0c7c3e2f2dd1","ios":"levelo://app?vid=c35776a3-1ecf-486f-b6de-0c7c3e2f2dd1"},"vehicle_type_id":"4","last_reported":1773736720,"current_range_meters":8800,"station_id":"st_cvj6ca6bvosntc0bfgr0","pricing_plan_id":"cebpf4jnsgd1na2vs0mg"},{"bike_id":"5bf9d925-50f0-421e-9e6f-cbea6f0e7005","system_id":"levelo_inurba_marseille","lat":43.33736,"lon":5.39197,"is_reserved":false,"is_disabled":false,"rental_uris":{"android":"levelo://app?vid=5bf9d925-50f0-421e-9e6f-cbea6f0e7005","ios":"levelo://app?vid=5bf9d925-50f0-421e-9e6f-cbea6f0e7005"},"vehicle_type_id":"4","last_reported":1773736720,"current_range_meters":8800,"station_id":"ce4bhr92rcd13ifvqhsg","pricing_plan_id":"cebpf4jnsgd1na2vs0mg"},{"bike_id":"f8a00c49-c93d-41ce-9f11-d81257ca6394","system_id":"levelo_inurba_marseille","lat":43.22936,"lon":5.35378,"is_reserved":false,"is_disabled":false,"rental_uris":{"android":"levelo://app?vid=f8a00c49-c93d-41ce-9f11-d81257ca6394","ios":"levelo://app?vid=f8a00c49-c93d-41ce-9f11-d81257ca6394"},"vehicle_type_id":"4","last_reported":1773736720,"current_range_meters":8800,"station_id":"cpo3532slgdg3j2ikp40","pricing_plan_id":"cebpf4jnsgd1na2vs0mg"},{"bike_id":"b9f2e5d5-d6ac-4c0d-86f2-4fe1a54ef3b3","system_id":"levelo_inurba_marseille","lat":43.32101,"lon":5.36786,"is_reserved":false,"is_disabled":false,"rental_uris":{"android":"levelo://app?vid=b9f2e5d5-d6ac-4c0d-86f2-4fe1a54ef3b3","ios":"levelo://app?vid=b9f2e5d5-d6ac-4c0d-86f2-4fe1a54ef3b3"},"vehicle_type_id":"4","last_reported":1773736720,"current_range_meters":8800,"station_id":"ce4bhrh2rcd13ifvqhug","pricing_plan_id":"cebpf4jnsgd1na2vs0mg"},{"bike_id":"1fa31361-dec7-4560-8527-d475bfd1b7fb","system_id":"levelo_inurba_marseille","lat":43.30745,"lon":5.42459,"is_reserved":false,"is_disabled":false,"rental_uris":{"android":"levelo://app?vid=1fa31361-dec7-4560-8527-d475bfd1b7fb","ios":"levelo://app?vid=1fa31361-dec7-4560-8527-d475bfd1b7fb"},"vehicle_type_id":"4","last_reported":1773736720,"current_range_meters":8800,"station_id":"st_cvj6ca6bvosntc0bfgr0","pricing_plan_id":"cebpf4jnsgd1na2vs0mg"},{"bike_id":"6f568347-95ec-46ad-ae93-40cdbcc0e587","system_id":"levelo_inurba_marseille","lat":43.29105,"lon":5.38125,"is_reserved":false,"is_disabled":false,"rental_uris":{"android":"levelo://app?vid=6f568347-95ec-46ad-ae93-40cdbcc0e587","ios":"levelo://app?vid=6f568347-95ec-46ad-ae93-40cdbcc0e587"},"vehicle_type_id":"4","last_reported":1773736720,"current_range_meters":9200,"station_id":"ce4bh512rcd13ifvqe2g","pricing_plan_id":"cebpf4jnsgd1na2vs0mg"},{"bike_id":"8611a375-7312-462c-a106-d1da01d8cd25","system_id":"levelo_inurba_marseille","lat":43.30151,"lon":5.38093,"is_reserved":false,"is_disabled":false,"rental_uris":{"android":"levelo://app?vid=8611a375-7312-462c-a106-d1da01d8cd25","ios":"levelo://app?vid=8611a375-7312-462c-a106-d1da01d8cd25"},"vehicle_type_id":"4","last_reported":1773736720,"current_range_meters":9200,"station_id":"ce4bgjp2rcd13ifvqbh0","pricing_plan_id":"cebpf4jnsgd1na2vs0mg"},{"bike_id":"e58d955a-2716-4c0b-872f-aff8fc00a1eb","system_id":"levelo_inurba_marseille","lat":43.2593,"lon":5.40909,"is_reserved":false,"is_disabled":false,"rental_uris":{"android":"levelo://app?vid=e58d955a-2716-4c0b-872f-aff8fc00a1eb","ios":"levelo://app?vid=e58d955a-2716-4c0b-872f-aff8fc00a1eb"},"vehicle_type_id":"4","last_reported":1773736720,"current_range_meters":9200,"station_id":"ce4bhm92rcd13ifvqglg","pricing_plan_id":"cebpf4jnsgd1na2vs0mg"},{"bike_id":"8db965e7-51b6-419b-a2fc-615dc14bbde5","system_id":"levelo_inurba_marseille","lat":43.28261,"lon":5.35086,"is_reserved":false,"is_disabled":false,"rental_uris":{"android":"levelo://app?vid=8db965e7-51b6-419b-a2fc-615dc14bbde5","ios":"levelo://app?vid=8db965e7-51b6-419b-a2fc-615dc14bbde5"},"vehicle_type_id":"4","last_reported":1773736720,"current_range_meters":9200,"station_id":"ce4bhbp2rcd13ifvqerg","pricing_plan_id":"cebpf4jnsgd1na2vs0mg"},{"bike_id":"6ac9fba9-cbd8-4e41-8d10-8d9aa767f584","system_id":"levelo_inurba_marseille","lat":43.27656,"lon":5.38929,"is_reserved":false,"is_disabled":true,"rental_uris":{"android":"levelo://app?vid=6ac9fba9-cbd8-4e41-8d10-8d9aa767f584","ios":"levelo://app?vid=6ac9fba9-cbd8-4e41-8d10-8d9aa767f584"},"vehicle_type_id":"4","last_reported":1773736720,"current_range_meters":9200,"station_id":"ce4bhi12rcd13ifvqfo0","pricing_plan_id":"cebpf4jnsgd1na2vs0mg"},{"bike_id":"7de93edb-7e27-48f4-8967-3bca4db9d272","system_id":"levelo_inurba_marseille","lat":43.28167,"lon":5.42643,"is_reserved":false,"is_disabled":false,"rental_uris":{"android":"levelo://app?vid=7de93edb-7e27-48f4-8967-3bca4db9d272","ios":"levelo://app?vid=7de93edb-7e27-48f4-8967-3bca4db9d272"},"vehicle_type_id":"4","last_reported":1773736720,"current_range_meters":9200,"station_id":"ce4bhnh2rcd13ifvqgug","pricing_plan_id":"cebpf4jnsgd1na2vs0mg"},{"bike_id":"73f59619-b8fb-4247-8fd5-e2dcc21c22ed","system_id":"levelo_inurba_marseille","lat":43.30536,"lon":5.36524,"is_reserved":false,"is_disabled":false,"rental_uris":{"android":"levelo://app?vid=73f59619-b8fb-4247-8fd5-e2dcc21c22ed","ios":"levelo://app?vid=73f59619-b8fb-4247-8fd5-e2dcc21c22ed"},"vehicle_type_id":"4","last_reported":1773736720,"current_range_meters":9200,"station_id":"ce4bgs12rcd13ifvqcag","pricing_plan_id":"cebpf4jnsgd1na2vs0mg"},{"bike_id":"dd035d7c-e62a-46ea-8fa5-0126c99796f9","system_id":"levelo_inurba_marseille","lat":43.30464,"lon":5.37907,"is_reserved":false,"is_disabled":false,"rental_uris":{"android":"levelo://app?vid=dd035d7c-e62a-46ea-8fa5-0126c99796f9","ios":"levelo://app?vid=dd035d7c-e62a-46ea-8fa5-0126c99796f9"},"vehicle_type_id":"4","last_reported":1773736720,"current_range_meters":9200,"station_id":"","pricing_plan_id":"cebpf4jnsgd1na2vs0mg"},{"bike_id":"e563383a-8a89-4304-b11f-18268886193e","system_id":"levelo_inurba_marseille","lat":43.2559,"lon":5.38238,"is_reserved":false,"is_disabled":false,"rental_uris":{"android":"levelo://app?vid=e563383a-8a89-4304-b11f-18268886193e","ios":"levelo://app?vid=e563383a-8a89-4304-b11f-18268886193e"},"vehicle_type_id":"4","last_reported":1773736720,"current_range_meters":9200,"station_id":"ce4bhih2rcd13ifvqfs0","pricing_plan_id":"cebpf4jnsgd1na2vs0mg"},{"bike_id":"cc897b25-9ddc-4b12-bd8a-bfb7db8696bd","system_id":"levelo_inurba_marseille","lat":43.2455,"lon":5.39538,"is_reserved":false,"is_disabled":false,"rental_uris":{"android":"levelo://app?vid=cc897b25-9ddc-4b12-bd8a-bfb7db8696bd","ios":"levelo://app?vid=cc897b25-9ddc-4b12-bd8a-bfb7db8696bd"},"vehicle_type_id":"4","last_reported":1773736720,"current_range_meters":9200,"station_id":"ce4bhlp2rcd13ifvqgjg","pricing_plan_id":"cebpf4jnsgd1na2vs0mg"},{"bike_id":"f0a5fedf-bcef-42eb-a048-e260fe29ba5c","system_id":"levelo_inurba_marseille","lat":43.29949,"lon":5.38521,"is_reserved":false,"is_disabled":false,"rental_uris":{"android":"levelo://app?vid=f0a5fedf-bcef-42eb-a048-e260fe29ba5c","ios":"levelo://app?vid=f0a5fedf-bcef-42eb-a048-e260fe29ba5c"},"vehicle_type_id":"4","last_reported":1773736720,"current_range_meters":9200,"station_id":"ce4bgj92rcd13ifvqbd0","pricing_plan_id":"cebpf4jnsgd1na2vs0mg"},{"bike_id":"a6f19a37-9329-4bf9-92ee-9819dc70cf13","system_id":"levelo_inurba_marseille","lat":43.24172,"lon":5.39743,"is_reserved":false,"is_disabled":false,"rental_uris":{"android":"levelo://app?vid=a6f19a37-9329-4bf9-92ee-9819dc70cf13","ios":"levelo://app?vid=a6f19a37-9329-4bf9-92ee-9819dc70cf13"},"vehicle_type_id":"4","last_reported":1773736720,"current_range_meters":9200,"station_id":"ce4bhn12rcd13ifvqgpg","pricing_plan_id":"cebpf4jnsgd1na2vs0mg"},{"bike_id":"d6134452-175b-4fbd-a098-a4203d039d6a","system_id":"levelo_inurba_marseille","lat":43.25502,"lon":5.3765,"is_reserved":false,"is_disabled":false,"rental_uris":{"android":"levelo://app?vid=d6134452-175b-4fbd-a098-a4203d039d6a","ios":"levelo://app?vid=d6134452-175b-4fbd-a098-a4203d039d6a"},"vehicle_type_id":"4","last_reported":1773736720,"current_range_meters":9200,"station_id":"ce4bhh12rcd13ifvqff0","pricing_plan_id":"cebpf4jnsgd1na2vs0mg"},{"bike_id":"77c6e61f-d9f3-469d-b918-ce8a6e142321","system_id":"levelo_inurba_marseille","lat":43.28999,"lon":5.37841,"is_reserved":false,"is_disabled":false,"rental_uris":{"android":"levelo://app?vid=77c6e61f-d9f3-469d-b918-ce8a6e142321","ios":"levelo://app?vid=77c6e61f-d9f3-469d-b918-ce8a6e142321"},"vehicle_type_id":"4","last_reported":1773736720,"current_range_meters":9200,"station_id":"ce4bh9p2rcd13ifvqed0","pricing_plan_id":"cebpf4jnsgd1na2vs0mg"},{"bike_id":"5c905397-02bb-4489-bc2a-606670e3b8c3","system_id":"levelo_inurba_marseille","lat":43.27174,"lon":5.40999,"is_reserved":false,"is_disabled":false,"rental_uris":{"android":"levelo://app?vid=5c905397-02bb-4489-bc2a-606670e3b8c3","ios":"levelo://app?vid=5c905397-02bb-4489-bc2a-606670e3b8c3"},"vehicle_type_id":"4","last_reported":1773736720,"current_range_meters":9200,"station_id":"ce4bhl12rcd13ifvqgf0","pricing_plan_id":"cebpf4jnsgd1na2vs0mg"},{"bike_id":"2e152780-0c5b-4bb2-b8e8-f7095ec5460a","system_id":"levelo_inurba_marseille","lat":43.287122,"lon":5.400025,"is_reserved":false,"is_disabled":true,"rental_uris":{"android":"levelo://app?vid=2e152780-0c5b-4bb2-b8e8-f7095ec5460a","ios":"levelo://app?vid=2e152780-0c5b-4bb2-b8e8-f7095ec5460a"},"vehicle_type_id":"4","last_reported":1773736720,"current_range_meters":9200,"station_id":"st_d4a7ka997mjs738ck50g","pricing_plan_id":"cebpf4jnsgd1na2vs0mg"},{"bike_id":"d028e4a4-7e69-4ca0-b42c-3a8774b6d06c","system_id":"levelo_inurba_marseille","lat":43.2871,"lon":5.37932,"is_reserved":false,"is_disabled":false,"rental_uris":{"android":"levelo://app?vid=d028e4a4-7e69-4ca0-b42c-3a8774b6d06c","ios":"levelo://app?vid=d028e4a4-7e69-4ca0-b42c-3a8774b6d06c"},"vehicle_type_id":"4","last_reported":1773736720,"current_range_meters":9200,"station_id":"ce4bh9p2rcd13ifvqec0","pricing_plan_id":"cebpf4jnsgd1na2vs0mg"},{"bike_id":"8a4a129c-900f-4987-8e43-faa3977d59f0","system_id":"levelo_inurba_marseille","lat":43.26547,"lon":5.37291,"is_reserved":false,"is_disabled":false,"rental_uris":{"android":"levelo://app?vid=8a4a129c-900f-4987-8e43-faa3977d59f0","ios":"levelo://app?vid=8a4a129c-900f-4987-8e43-faa3977d59f0"},"vehicle_type_id":"4","last_reported":1773736720,"current_range_meters":9200,"station_id":"ce4bhg12rcd13ifvqf70","pricing_plan_id":"cebpf4jnsgd1na2vs0mg"},{"bike_id":"246e3596-e11c-4e26-8b5b-7a43df4564eb","system_id":"levelo_inurba_marseille","lat":43.28611,"lon":5.37062,"is_reserved":false,"is_disabled":false,"rental_uris":{"android":"levelo://app?vid=246e3596-e11c-4e26-8b5b-7a43df4564eb","ios":"levelo://app?vid=246e3596-e11c-4e26-8b5b-7a43df4564eb"},"vehicle_type_id":"4","last_reported":1773736720,"current_range_meters":9200,"station_id":"ce4bht12rcd13ifvqi60","pricing_plan_id":"cebpf4jnsgd1na2vs0mg"},{"bike_id":"0922850f-97f4-4d5f-9c96-79b1b2616092","system_id":"levelo_inurba_marseille","lat":43.29584,"lon":5.37524,"is_reserved":false,"is_disabled":false,"rental_uris":{"android":"levelo://app?vid=0922850f-97f4-4d5f-9c96-79b1b2616092","ios":"levelo://app?vid=0922850f-97f4-4d5f-9c96-79b1b2616092"},"vehicle_type_id":"4","last_reported":1773736720,"current_range_meters":9200,"station_id":"ce4bgh92rcd13ifvqb50","pricing_plan_id":"cebpf4jnsgd1na2vs0mg"},{"bike_id":"0ebe125c-0403-4c11-9dc0-82c2407d44ea","system_id":"levelo_inurba_marseille","lat":43.24072,"lon":5.37781,"is_reserved":false,"is_disabled":false,"rental_uris":{"android":"levelo://app?vid=0ebe125c-0403-4c11-9dc0-82c2407d44ea","ios":"levelo://app?vid=0ebe125c-0403-4c11-9dc0-82c2407d44ea"},"vehicle_type_id":"4","last_reported":1773736720,"current_range_meters":9200,"station_id":"ce4bhnp2rcd13ifvqgvg","pricing_plan_id":"cebpf4jnsgd1na2vs0mg"},{"bike_id":"8c19bd6a-7d9e-49f1-b314-dab36390047b","system_id":"levelo_inurba_marseille","lat":43.302728,"lon":5.390397,"is_reserved":false,"is_disabled":false,"rental_uris":{"android":"levelo://app?vid=8c19bd6a-7d9e-49f1-b314-dab36390047b","ios":"levelo://app?vid=8c19bd6a-7d9e-49f1-b314-dab36390047b"},"vehicle_type_id":"4","last_reported":1773736720,"current_range_meters":9600,"station_id":"ce4bgkh2rcd13ifvqbk0","pricing_plan_id":"cebpf4jnsgd1na2vs0mg"},{"bike_id":"765f2213-11e2-4fd3-9c20-1f933c90dcb5","system_id":"levelo_inurba_marseille","lat":43.30139,"lon":5.38083,"is_reserved":false,"is_disabled":false,"rental_uris":{"android":"levelo://app?vid=765f2213-11e2-4fd3-9c20-1f933c90dcb5","ios":"levelo://app?vid=765f2213-11e2-4fd3-9c20-1f933c90dcb5"},"vehicle_type_id":"4","last_reported":1773736720,"current_range_meters":9600,"station_id":"ce4bgjp2rcd13ifvqbh0","pricing_plan_id":"cebpf4jnsgd1na2vs0mg"},{"bike_id":"9a01ef4e-41b8-4c32-a1bc-678657b841e3","system_id":"levelo_inurba_marseille","lat":43.24391,"lon":5.3705,"is_reserved":false,"is_disabled":false,"rental_uris":{"android":"levelo://app?vid=9a01ef4e-41b8-4c32-a1bc-678657b841e3","ios":"levelo://app?vid=9a01ef4e-41b8-4c32-a1bc-678657b841e3"},"vehicle_type_id":"4","last_reported":1773736720,"current_range_meters":9600,"station_id":"ce4bhhh2rcd13ifvqfk0","pricing_plan_id":"cebpf4jnsgd1na2vs0mg"},{"bike_id":"145cf909-0a6f-49d8-9ad7-e55b549465ae","system_id":"levelo_inurba_marseille","lat":43.25611,"lon":5.38564,"is_reserved":false,"is_disabled":false,"rental_uris":{"android":"levelo://app?vid=145cf909-0a6f-49d8-9ad7-e55b549465ae","ios":"levelo://app?vid=145cf909-0a6f-49d8-9ad7-e55b549465ae"},"vehicle_type_id":"4","last_reported":1773736720,"current_range_meters":9600,"station_id":"","pricing_plan_id":"cebpf4jnsgd1na2vs0mg"},{"bike_id":"bf249f81-2ef0-45f9-a595-8436dd14fe0c","system_id":"levelo_inurba_marseille","lat":43.32099,"lon":5.36777,"is_reserved":false,"is_disabled":false,"rental_uris":{"android":"levelo://app?vid=bf249f81-2ef0-45f9-a595-8436dd14fe0c","ios":"levelo://app?vid=bf249f81-2ef0-45f9-a595-8436dd14fe0c"},"vehicle_type_id":"4","last_reported":1773736720,"current_range_meters":9600,"station_id":"ce4bhrh2rcd13ifvqhug","pricing_plan_id":"cebpf4jnsgd1na2vs0mg"},