{"last_updated":1746177028,"ttl":60,"version":"2.2","data":{"bikes":[{"bike_id":"71c8ef7d-4ba7-4150-b6bd-231804473b4e","system_id":"levelo_inurba_marseille","lat":43.29579,"lon":5.36747,"is_reserved":false,"is_disabled":false,"rental_uris":{"android":"levelo://app?vid=71c8ef7d-4ba7-4150-b6bd-231804473b4e","ios":"levelo://app?vid=71c8ef7d-4ba7-4150-b6bd-231804473b4e"},"vehicle_type_id":"4","last_reported":1746177028,"current_range_meters":2000,"station_id":"ce4bgph2rcd13ifvqc2g","pricing_plan_id":"cebpf4jnsgd1na2vs0mg"},{"bike_id":"a2c6ce6a-9af5-46ed-b040-b37a5a34c32f","system_id":"levelo_inurba_marseille","lat":43.26216,"lon":5.37441,"is_reserved":false,"is_disabled":false,"rental_uris":{"android":"levelo://app?vid=a2c6ce6a-9af5-46ed-b040-b37a5a34c32f","ios":"levelo://app?vid=a2c6ce6a-9af5-46ed-b040-b37a5a34c32f"},"vehicle_type_id":"4","last_reported":1746177028,"current_range_meters":2800,"station_id":"ce4bhgp2rcd13ifvqfc0","pricing_plan_id":"cebpf4jnsgd1na2vs0mg"},{"bike_id":"493fa56f-3575-4b9e-8eba-c8769e91c018","system_id":"levelo_inurba_marseille","lat":43.29847,"lon":5.36278,"is_reserved":false,"is_disabled":false,"rental_uris":{"android":"levelo://app?vid=493fa56f-3575-4b9e-8eba-c8769e91c018","ios":"levelo://app?vid=493fa56f-3575-4b9e-8eba-c8769e91c018"},"vehicle_type_id":"4","last_reported":1746177028,"current_range_meters":2800,"station_id":"ce4bgpp2rcd13ifvqc3g","pricing_plan_id":"cebpf4jnsgd1na2vs0mg"},{"bike_id":"59c1508c-834b-4467-b38c-28e473fa3755","system_id":"levelo_inurba_marseille","lat":43.254961,"lon":5.376461,"is_reserved":false,"is_disabled":false,"rental_uris":{"android":"levelo://app?vid=59c1508c-834b-4467-b38c-28e473fa3755","ios":"levelo://app?vid=59c1508c-834b-4467-b38c-28e473fa3755"},"vehicle_type_id":"4","last_reported":1746177028,"current_range_meters":2800,"station_id":"ce4bhh12rcd13ifvqff0","pricing_plan_id":"cebpf4jnsgd1na2vs0mg"},{"bike_id":"ce88056b-8341-45ff-a5d5-a16d594f6280","system_id":"levelo_inurba_marseille","lat":43.26678,"lon":5.38265,"is_reserved":false,"is_disabled":false,"rental_uris":{"android":"levelo://app?vid=ce88056b-8341-45ff-a5d5-a16d594f6280","ios":"levelo://app?vid=ce88056b-8341-45ff-a5d5-a16d594f6280"},"vehicle_type_id":"4","last_reported":1746177028,"current_range_meters":3200,"station_id":"ce4bhg92rcd13ifvqf90","pricing_plan_id":"cebpf4jnsgd1na2vs0mg"},{"bike_id":"7f770ba9-2e48-47c9-8bb4-942855273bad","system_id":"levelo_inurba_marseille","lat":43.253072,"lon":5.424018,"is_reserved":false,"is_disabled":true,"rental_uris":{"android":"levelo://app?vid=7f770ba9-2e48-47c9-8bb4-942855273bad","ios":"levelo://app?vid=7f770ba9-2e48-47c9-8bb4-942855273bad"},"vehicle_type_id":"4","last_reported":1746177028,"current_range_meters":3200,"station_id":"","pricing_plan_id":"cebpf4jnsgd1na2vs0mg"},{"bike_id":"640ea5b1-a8f8-477c-a02d-f2351d65b61a","system_id":"levelo_inurba_marseille","lat":43.29708,"lon":5.37703,"is_reserved":false,"is_disabled":false,"rental_uris":{"android":"levelo://app?vid=640ea5b1-a8f8-477c-a02d-f2351d65b61a","ios":"levelo://app?vid=640ea5b1-a8f8-477c-a02d-f2351d65b61a"},"vehicle_type_id":"4","last_reported":1746177028,"current_range_meters":2800,"station_id":"ce4bgkh2rcd13ifvqbl0","pricing_plan_id":"cebpf4jnsgd1na2vs0mg"},{"bike_id":"6d78de6c-9f6b-4f77-a334-0bba5249c7b5","system_id":"levelo_inurba_marseille","lat":43.28671,"lon":5.38669,"is_reserved":false,"is_disabled":false,"rental_uris":{"android":"levelo://app?vid=6d78de6c-9f6b-4f77-a334-0bba5249c7b5","ios":"levelo://app?vid=6d78de6c-9f6b-4f77-a334-0bba5249c7b5"},"vehicle_type_id":"4","last_reported":1746177028,"current_range_meters":3200,"station_id":"","pricing_plan_id":"cebpf4jnsgd1na2vs0mg"},{"bike_id":"d057817a-8e34-48f4-afef-54e9da574d53","system_id":"levelo_inurba_marseille","lat":43.23183,"lon":5.39989,"is_reserved":false,"is_disabled":false,"rental_uris":{"android":"levelo://app?vid=d057817a-8e34-48f4-afef-54e9da574d53","ios":"levelo://app?vid=d057817a-8e34-48f4-afef-54e9da574d53"},"vehicle_type_id":"4","last_reported":1746177028,"current_range_meters":3200,"station_id":"ce4bhn12rcd13ifvqgqg","pricing_plan_id":"cebpf4jnsgd1na2vs0mg"},{"bike_id":"8f01ddc4-f908-44d5-9f28-ffbda00058a8","system_id":"levelo_inurba_marseille","lat":43.23129,"lon":5.43704,"is_reserved":false,"is_disabled":false,"rental_uris":{"android":"levelo://app?vid=8f01ddc4-f908-44d5-9f28-ffbda00058a8","ios":"levelo://app?vid=8f01ddc4-f908-44d5-9f28-ffbda00058a8"},"vehicle_type_id":"4","last_reported":1746177028,"current_range_meters":3600,"station_id":"ce4bhmp2rcd13ifvqgog","pricing_plan_id":"cebpf4jnsgd1na2vs0mg"},{"bike_id":"125db9b6-3e16-48ff-916a-b074e281a7d3","system_id":"levelo_inurba_marseille","lat":43.28603,"lon":5.37053,"is_reserved":false,"is_disabled":false,"rental_uris":{"android":"levelo://app?vid=125db9b6-3e16-48ff-916a-b074e281a7d3","ios":"levelo://app?vid=125db9b6-3e16-48ff-916a-b074e281a7d3"},"vehicle_type_id":"4","last_reported":1746177028,"current_range_meters":3600,"station_id":"ce4bht12rcd13ifvqi60","pricing_plan_id":"cebpf4jnsgd1na2vs0mg"},{"bike_id":"4af62b9a-7259-45f3-b15a-51fcc63c51c5","system_id":"levelo_inurba_marseille","lat":43.25718,"lon":5.41106,"is_reserved":false,"is_disabled":false,"rental_uris":{"android":"levelo://app?vid=4af62b9a-7259-45f3-b15a-51fcc63c51c5","ios":"levelo://app?vid=4af62b9a-7259-45f3-b15a-51fcc63c51c5"},"vehicle_type_id":"4","last_reported":1746177028,"current_range_meters":4400,"station_id":"ce4bhkp2rcd13ifvqgd0","pricing_plan_id":"cebpf4jnsgd1na2vs0mg"},{"bike_id":"85b30800-0f86-47ea-b140-e4e6111ad48d","system_id":"levelo_inurba_marseille","lat":43.30305,"lon":5.36883,"is_reserved":false,"is_disabled":false,"rental_uris":{"android":"levelo://app?vid=85b30800-0f86-47ea-b140-e4e6111ad48d","ios":"levelo://app?vid=85b30800-0f86-47ea-b140-e4e6111ad48d"},"vehicle_type_id":"4","last_reported":1746177028,"current_range_meters":4400,"station_id":"ce4bgqh2rcd13ifvqc5g","pricing_plan_id":"cebpf4jnsgd1na2vs0mg"},{"bike_id":"215bdf6f-59e9-4581-ab6a-3306c221d929","system_id":"levelo_inurba_marseille","lat":43.24594,"lon":5.39765,"is_reserved":false,"is_disabled":false,"rental_uris":{"android":"levelo://app?vid=215bdf6f-59e9-4581-ab6a-3306c221d929","ios":"levelo://app?vid=215bdf6f-59e9-4581-ab6a-3306c221d929"},"vehicle_type_id":"4","last_reported":1746177028,"current_range_meters":4400,"station_id":"","pricing_plan_id":"cebpf4jnsgd1na2vs0mg"},{"bike_id":"f78e6e2a-8107-47fb-b969-25345ac001d6","system_id":"levelo_inurba_marseille","lat":43.3004,"lon":5.37842,"is_reserved":false,"is_disabled":false,"rental_uris":{"android":"levelo://app?vid=f78e6e2a-8107-47fb-b969-25345ac001d6","ios":"levelo://app?vid=f78e6e2a-8107-47fb-b969-25345ac001d6"},"vehicle_type_id":"4","last_reported":1746177028,"current_range_meters":4400,"station_id":"","pricing_plan_id":"cebpf4jnsgd1na2vs0mg"},{"bike_id":"0f683dc3-4553-4628-87ea-6e7dc6c36a6f","system_id":"levelo_inurba_marseille","lat":43.296358,"lon":5.405993,"is_reserved":false,"is_disabled":true,"rental_uris":{"android":"levelo://app?vid=0f683dc3-4553-4628-87ea-6e7dc6c36a6f","ios":"levelo://app?vid=0f683dc3-4553-4628-87ea-6e7dc6c36a6f"},"vehicle_type_id":"4","last_reported":1746177028,"current_range_meters":4400,"station_id":"ce4bh0h2rcd13ifvqd60","pricing_plan_id":"cebpf4jnsgd1na2vs0mg"},{"bike_id":"0840f843-3a67-4e05-a048-29d3d9d53dba","system_id":"levelo_inurba_marseille","lat":43.25711,"lon":5.41109,"is_reserved":false,"is_disabled":false,"rental_uris":{"android":"levelo://app?vid=0840f843-3a67-4e05-a048-29d3d9d53dba","ios":"levelo://app?vid=0840f843-3a67-4e05-a048-29d3d9d53dba"},"vehicle_type_id":"4","last_reported":1746177028,"current_range_meters":4800,"station_id":"ce4bhkp2rcd13ifvqgd0","pricing_plan_id":"cebpf4jnsgd1na2vs0mg"},{"bike_id":"2c8c19ce-4310-4c02-9b49-4530fa198159","system_id":"levelo_inurba_marseille","lat":43.27499,"lon":5.42448,"is_reserved":false,"is_disabled":false,"rental_uris":{"android":"levelo://app?vid=2c8c19ce-4310-4c02-9b49-4530fa198159","ios":"levelo://app?vid=2c8c19ce-4310-4c02-9b49-4530fa198159"},"vehicle_type_id":"4","last_reported":1746177028,"current_range_meters":4800,"station_id":"ce4bhn92rcd13ifvqgrg","pricing_plan_id":"cebpf4jnsgd1na2vs0mg"},{"bike_id":"1c6c1e7b-75d7-43c7-af44-a8419ffd41f9","system_id":"levelo_inurba_marseille","lat":43.225039,"lon":5.347852,"is_reserved":false,"is_disabled":false,"rental_uris":{"android":"levelo://app?vid=1c6c1e7b-75d7-43c7-af44-a8419ffd41f9","ios":"levelo://app?vid=1c6c1e7b-75d7-43c7-af44-a8419ffd41f9"},"vehicle_type_id":"4","last_reported":1746177028,"current_range_meters":4800,"station_id":"","pricing_plan_id":"cebpf4jnsgd1na2vs0mg"},{"bike_id":"890c6157-f34a-4c87-8def-23d20864770e","system_id":"levelo_inurba_marseille","lat":43.23181,"lon":5.39994,"is_reserved":false,"is_disabled":false,"rental_uris":{"android":"levelo://app?vid=890c6157-f34a-4c87-8def-23d20864770e","ios":"levelo://app?vid=890c6157-f34a-4c87-8def-23d20864770e"},"vehicle_type_id":"4","last_reported":1746177028,"current_range_meters":4800,"station_id":"ce4bhn12rcd13ifvqgqg","pricing_plan_id":"cebpf4jnsgd1na2vs0mg"},{"bike_id":"010767ff-62e4-41b9-85a2-d298318bb86a","system_id":"levelo_inurba_marseille","lat":43.23149,"lon":5.43719,"is_reserved":false,"is_disabled":false,"rental_uris":{"android":"levelo://app?vid=010767ff-62e4-41b9-85a2-d298318bb86a","ios":"levelo://app?vid=010767ff-62e4-41b9-85a2-d298318bb86a"},"vehicle_type_id":"4","last_reported":1746177028,"current_range_meters":4800,"station_id":"ce4bhmp2rcd13ifvqgog","pricing_plan_id":"cebpf4jnsgd1na2vs0mg"},{"bike_id":"b8fe2199-3c60-49a5-a8f5-3aa316c18c3c","system_id":"levelo_inurba_marseille","lat":43.28422,"lon":5.34975,"is_reserved":false,"is_disabled":false,"rental_uris":{"android":"levelo://app?vid=b8fe2199-3c60-49a5-a8f5-3aa316c18c3c","ios":"levelo://app?vid=b8fe2199-3c60-49a5-a8f5-3aa316c18c3c"},"vehicle_type_id":"4","last_reported":1746177028,"current_range_meters":5600,"station_id":"ce4bhbh2rcd13ifvqepg","pricing_plan_id":"cebpf4jnsgd1na2vs0mg"},{"bike_id":"41649255-c38b-42cb-ae7f-67f2787c354c","system_id":"levelo_inurba_marseille","lat":43.23749,"lon":5.43566,"is_reserved":false,"is_disabled":false,"rental_uris":{"android":"levelo://app?vid=41649255-c38b-42cb-ae7f-67f2787c354c","ios":"levelo://app?vid=41649255-c38b-42cb-ae7f-67f2787c354c"},"vehicle_type_id":"4","last_reported":1746177028,"current_range_meters":5600,"station_id":"","pricing_plan_id":"cebpf4jnsgd1na2vs0mg"},{"bike_id":"695a7055-559b-4703-b1b0-c26816b46d0d","system_id":"levelo_inurba_marseille","lat":43.24179,"lon":5.39735,"is_reserved":false,"is_disabled":false,"rental_uris":{"android":"levelo://app?vid=695a7055-559b-4703-b1b0-c26816b46d0d","ios":"levelo://app?vid=695a7055-559b-4703-b1b0-c26816b46d0d"},"vehicle_type_id":"4","last_reported":1746177028,"current_range_meters":6000,"station_id":"ce4bhn12rcd13ifvqgpg","pricing_plan_id":"cebpf4jnsgd1na2vs0mg"},{"bike_id":"fee7396b-8d6a-4ad5-8af7-947693171efd","system_id":"levelo_inurba_marseille","lat":43.27078,"lon":5.42271,"is_reserved":false,"is_disabled":false,"rental_uris":{"android":"levelo://app?vid=fee7396b-8d6a-4ad5-8af7-947693171efd","ios":"levelo://app?vid=fee7396b-8d6a-4ad5-8af7-947693171efd"},"vehicle_type_id":"4","last_reported":1746177028,"current_range_meters":6000,"station_id":"ce4bhk92rcd13ifvqgb0","pricing_plan_id":"cebpf4jnsgd1na2vs0mg"},{"bike_id":"4a8a7dd0-e125-4deb-9a7f-f542f7261f54","system_id":"levelo_inurba_marseille","lat":43.24547,"lon":5.39523,"is_reserved":false,"is_disabled":false,"rental_uris":{"android":"levelo://app?vid=4a8a7dd0-e125-4deb-9a7f-f542f7261f54","ios":"levelo://app?vid=4a8a7dd0-e125-4deb-9a7f-f542f7261f54"},"vehicle_type_id":"4","last_reported":1746177028,"current_range_meters":6400,"station_id":"ce4bhlp2rcd13ifvqgjg","pricing_plan_id":"cebpf4jnsgd1na2vs0mg"},{"bike_id":"c13630b8-7748-4e76-993e-90d7b7c7f346","system_id":"levelo_inurba_marseille","lat":43.2315,"lon":5.43709,"is_reserved":false,"is_disabled":false,"rental_uris":{"android":"levelo://app?vid=c13630b8-7748-4e76-993e-90d7b7c7f346","ios":"levelo://app?vid=c13630b8-7748-4e76-993e-90d7b7c7f346"},"vehicle_type_id":"4","last_reported":1746177028,"current_range_meters":6400,"station_id":"ce4bhmp2rcd13ifvqgog","pricing_plan_id":"cebpf4jnsgd1na2vs0mg"},{"bike_id":"a2e12e81-c55f-4b91-a82a-3e66ee589d3a","system_id":"levelo_inurba_marseille","lat":43.28349,"lon":5.38112,"is_reserved":false,"is_disabled":false,"rental_uris":{"android":"levelo://app?vid=a2e12e81-c55f-4b91-a82a-3e66ee589d3a","ios":"levelo://app?vid=a2e12e81-c55f-4b91-a82a-3e66ee589d3a"},"vehicle_type_id":"4","last_reported":1746177028,"current_range_meters":6400,"station_id":"ce4bh412rcd13ifvqdr0","pricing_plan_id":"cebpf4jnsgd1na2vs0mg"},{"bike_id":"d32a3551-002a-4a77-8f89-9ddaeb56de6c","system_id":"levelo_inurba_marseille","lat":43.295294,"lon":5.385388,"is_reserved":false,"is_disabled":false,"rental_uris":{"android":"levelo://app?vid=d32a3551-002a-4a77-8f89-9ddaeb56de6c","ios":"levelo://app?vid=d32a3551-002a-4a77-8f89-9ddaeb56de6c"},"vehicle_type_id":"4","last_reported":1746177028,"current_range_meters":6800,"station_id":"ce4bgih2rcd13ifvqba0","pricing_plan_id":"cebpf4jnsgd1na2vs0mg"},{"bike_id":"6e961214-9790-457f-9ea4-373e8e7d17a6","system_id":"levelo_inurba_marseille","lat":43.28148,"lon":5.44349,"is_reserved":false,"is_disabled":false,"rental_uris":{"android":"levelo://app?vid=6e961214-9790-457f-9ea4-373e8e7d17a6","ios":"levelo://app?vid=6e961214-9790-457f-9ea4-373e8e7d17a6"},"vehicle_type_id":"4","last_reported":1746177028,"current_range_meters":6800,"station_id":"","pricing_plan_id":"cebpf4jnsgd1na2vs0mg"},{"bike_id":"648c8471-16fa-4b2b-8c80-f2a16a52c590","system_id":"levelo_inurba_marseille","lat":43.29613,"lon":5.377,"is_reserved":false,"is_disabled":false,"rental_uris":{"android":"levelo://app?vid=648c8471-16fa-4b2b-8c80-f2a16a52c590","ios":"levelo://app?vid=648c8471-16fa-4b2b-8c80-f2a16a52c590"},"vehicle_type_id":"4","last_reported":1746177028,"current_range_meters":6800,"station_id":"ce4bgi92rcd13ifvqb90","pricing_plan_id":"cebpf4jnsgd1na2vs0mg"},{"bike_id":"b3d61b17-3443-4115-b07b-6242b696f36d","system_id":"levelo_inurba_marseille","lat":43.21751,"lon":5.34603,"is_reserved":false,"is_disabled":false,"rental_uris":{"android":"levelo://app?vid=b3d61b17-3443-4115-b07b-6242b696f36d","ios":"levelo://app?vid=b3d61b17-3443-4115-b07b-6242b696f36d"},"vehicle_type_id":"4","last_reported":1746177028,"current_range_meters":6800,"station_id":"st_cvj6r9ubvosntc0bgbag","pricing_plan_id":"cebpf4jnsgd1na2vs0mg"},{"bike_id":"92c9c34a-2661-40c7-b42b-42a1687057dd","system_id":"levelo_inurba_marseille","lat":43.211968,"lon":5.350651,"is_reserved":false,"is_disabled":true,"rental_uris":{"android":"levelo://app?vid=92c9c34a-2661-40c7-b42b-42a1687057dd","ios":"levelo://app?vid=92c9c34a-2661-40c7-b42b-42a1687057dd"},"vehicle_type_id":"4","last_reported":1746177028,"current_range_meters":7200,"station_id":"st_cvj6sg6p6f1abm77japg","pricing_plan_id":"cebpf4jnsgd1na2vs0mg"},{"bike_id":"51ef9827-05d4-4f72-abc3-c6fec8c5a095","system_id":"levelo_inurba_marseille","lat":43.23136,"lon":5.43713,"is_reserved":false,"is_disabled":false,"rental_uris":{"android":"levelo://app?vid=51ef9827-05d4-4f72-abc3-c6fec8c5a095","ios":"levelo://app?vid=51ef9827-05d4-4f72-abc3-c6fec8c5a095"},"vehicle_type_id":"4","last_reported":1746177028,"current_range_meters":7200,"station_id":"ce4bhmp2rcd13ifvqgog","pricing_plan_id":"cebpf4jnsgd1na2vs0mg"},{"bike_id":"72ba09f8-e0ce-484e-b18f-f57ad6b20afd","system_id":"levelo_inurba_marseille","lat":43.29047,"lon":5.3995,"is_reserved":false,"is_disabled":false,"rental_uris":{"android":"levelo://app?vid=72ba09f8-e0ce-484e-b18f-f57ad6b20afd","ios":"levelo://app?vid=72ba09f8-e0ce-484e-b18f-f57ad6b20afd"},"vehicle_type_id":"4","last_reported":1746177028,"current_range_meters":7200,"station_id":"ce4bh392rcd13ifvqdm0","pricing_plan_id":"cebpf4jnsgd1na2vs0mg"},{"bike_id":"30821ba0-afd2-474c-bc47-c64d6d2ee5dd","system_id":"levelo_inurba_marseille","lat":43.30184,"lon":5.36622,"is_reserved":false,"is_disabled":false,"rental_uris":{"android":"levelo://app?vid=30821ba0-afd2-474c-bc47-c64d6d2ee5dd","ios":"levelo://app?vid=30821ba0-afd2-474c-bc47-c64d6d2ee5dd"},"vehicle_type_id":"4","last_reported":1746177028,"current_range_meters":6800,"station_id":"ce4bgrh2rcd13ifvqc8g","pricing_plan_id":"cebpf4jnsgd1na2vs0mg"},{"bike_id":"1cb9e0cd-3f69-4b9d-b8bd-a052e1d0e048","system_id":"levelo_inurba_marseille","lat":43.29873,"lon":5.39718,"is_reserved":false,"is_disabled":false,"rental_uris":{"android":"levelo://app?vid=1cb9e0cd-3f69-4b9d-b8bd-a052e1d0e048","ios":"levelo://app?vid=1cb9e0cd-3f69-4b9d-b8bd-a052e1d0e048"},"vehicle_type_id":"4","last_reported":1746177028,"current_range_meters":7200,"station_id":"ce4bh0h2rcd13ifvqd50","pricing_plan_id":"cebpf4jnsgd1na2vs0mg"},{"bike_id":"7cf2f118-55e2-491b-8e28-9d73e3c903a4","system_id":"levelo_inurba_marseille","lat":43.27501,"lon":5.42446,"is_reserved":false,"is_disabled":false,"rental_uris":{"android":"levelo://app?vid=7cf2f118-55e2-491b-8e28-9d73e3c903a4","ios":"levelo://app?vid=7cf2f118-55e2-491b-8e28-9d73e3c903a4"},"vehicle_type_id":"4","last_reported":1746177028,"current_range_meters":7200,"station_id":"ce4bhn92rcd13ifvqgrg","pricing_plan_id":"cebpf4jnsgd1na2vs0mg"},{"bike_id":"44137701-96fd-466c-876b-72e95bfc3ab1","system_id":"levelo_inurba_marseille","lat":43.28146,"lon":5.42648,"is_reserved":false,"is_disabled":false,"rental_uris":{"android":"levelo://app?vid=44137701-96fd-466c-876b-72e95bfc3ab1","ios":"levelo://app?vid=44137701-96fd-466c-876b-72e95bfc3ab1"},"vehicle_type_id":"4","last_reported":1746177028,"current_range_meters":7200,"station_id":"ce4bhnh2rcd13ifvqgug","pricing_plan_id":"cebpf4jnsgd1na2vs0mg"},{"bike_id":"c15ef4a0-b9a3-475a-a31c-a1d478086df5","system_id":"levelo_inurba_marseille","lat":43.217427,"lon":5.346054,"is_reserved":false,"is_disabled":false,"rental_uris":{"android":"levelo://app?vid=c15ef4a0-b9a3-475a-a31c-a1d478086df5","ios":"levelo://app?vid=c15ef4a0-b9a3-475a-a31c-a1d478086df5"},"vehicle_type_id":"4","last_reported":1746177028,"current_range_meters":7200,"station_id":"st_cvj6r9ubvosntc0bgbag","pricing_plan_id":"cebpf4jnsgd1na2vs0mg"},{"bike_id":"db745dc5-0303-42bb-b118-6d446aa9c3ea","system_id":"levelo_inurba_marseille","lat":43.30413,"lon":5.39747,"is_reserved":false,"is_disabled":false,"rental_uris":{"android":"levelo://app?vid=db745dc5-0303-42bb-b118-6d446aa9c3ea","ios":"levelo://app?vid=db745dc5-0303-42bb-b118-6d446aa9c3ea"},"vehicle_type_id":"4","last_reported":1746177028,"current_range_meters":8000,"station_id":"ce4bh092rcd13ifvqd20","pricing_plan_id":"cebpf4jnsgd1na2vs0mg"},{"bike_id":"4e947be1-09f8-45f8-9abd-2c6f103dbc27","system_id":"levelo_inurba_marseille","lat":43.2961,"lon":5.37706,"is_reserved":false,"is_disabled":false,"rental_uris":{"android":"levelo://app?vid=4e947be1-09f8-45f8-9abd-2c6f103dbc27","ios":"levelo://app?vid=4e947be1-09f8-45f8-9abd-2c6f103dbc27"},"vehicle_type_id":"4","last_reported":1746177028,"current_range_meters":8000,"station_id":"ce4bgi92rcd13ifvqb90","pricing_plan_id":"cebpf4jnsgd1na2vs0mg"},{"bike_id":"5cda05c5-33c9-4109-89c1-36d218dc0d5f","system_id":"levelo_inurba_marseille","lat":43.31684,"lon":5.40468,"is_reserved":false,"is_disabled":false,"rental_uris":{"android":"levelo://app?vid=5cda05c5-33c9-4109-89c1-36d218dc0d5f","ios":"levelo://app?vid=5cda05c5-33c9-4109-89c1-36d218dc0d5f"},"vehicle_type_id":"4","last_reported":1746177028,"current_range_meters":8000,"station_id":"ce4bh012rcd13ifvqd00","pricing_plan_id":"cebpf4jnsgd1na2vs0mg"},{"bike_id":"30a08134-0276-4ae3-85ce-969fdf6f0c54","system_id":"levelo_inurba_marseille","lat":43.30376,"lon":5.42489,"is_reserved":false,"is_disabled":false,"rental_uris":{"android":"levelo://app?vid=30a08134-0276-4ae3-85ce-969fdf6f0c54","ios":"levelo://app?vid=30a08134-0276-4ae3-85ce-969fdf6f0c54"},"vehicle_type_id":"4","last_reported":1746177028,"current_range_meters":8400,"station_id":"ce4bhoh2rcd13ifvqh6g","pricing_plan_id":"cebpf4jnsgd1na2vs0mg"},{"bike_id":"e0c69642-153a-4cdf-94dd-e50d7657b75d","system_id":"levelo_inurba_marseille","lat":43.31725,"lon":5.40434,"is_reserved":false,"is_disabled":false,"rental_uris":{"android":"levelo://app?vid=e0c69642-153a-4cdf-94dd-e50d7657b75d","ios":"levelo://app?vid=e0c69642-153a-4cdf-94dd-e50d7657b75d"},"vehicle_type_id":"4","last_reported":1746177028,"current_range_meters":8400,"station_id":"","pricing_plan_id":"cebpf4jnsgd1na2vs0mg"},{"bike_id":"8fcf65fa-e503-4289-858f-113d6c6cf489","system_id":"levelo_inurba_marseille","lat":43.2572,"lon":5.411,"is_reserved":false,"is_disabled":false,"rental_uris":{"android":"levelo://app?vid=8fcf65fa-e503-4289-858f-113d6c6cf489","ios":"levelo://app?vid=8fcf65fa-e503-4289-858f-113d6c6cf489"},"vehicle_type_id":"4","last_reported":1746177028,"current_range_meters":8400,"station_id":"ce4bhkp2rcd13ifvqgd0","pricing_plan_id":"cebpf4jnsgd1na2vs0mg"},{"bike_id":"7971fe93-5f1d-4a59-8508-b415e64fcb18","system_id":"levelo_inurba_marseille","lat":43.30938,"lon":5.37375,"is_reserved":false,"is_disabled":false,"rental_uris":{"android":"levelo://app?vid=7971fe93-5f1d-4a59-8508-b415e64fcb18","ios":"levelo://app?vid=7971fe93-5f1d-4a59-8508-b415e64fcb18"},"vehicle_type_id":"4","last_reported":1746177028,"current_range_meters":8400,"station_id":"","pricing_plan_id":"cebpf4jnsgd1na2vs0mg"},{"bike_id":"f86d1595-bc23-43f0-b70b-4aabc8d8fddc","system_id":"levelo_inurba_marseille","lat":43.3361,"lon":5.41016,"is_reserved":false,"is_disabled":false,"rental_uris":{"android":"levelo://app?vid=f86d1595-bc23-43f0-b70b-4aabc8d8fddc","ios":"levelo://app?vid=f86d1595-bc23-43f0-b70b-4aabc8d8fddc"},"vehicle_type_id":"4","last_reported":1746177028,"current_range_meters":8800,"station_id":"ce4bhqh2rcd13ifvqhmg","pricing_plan_id":"cebpf4jnsgd1na2vs0mg"},{"bike_id":"4e06d3e6-2b20-4e7b-aea6-0ad1ac5e1edf","system_id":"levelo_inurba_marseille","lat":43.32529,"lon":5.41462,"is_reserved":false,"is_disabled":false,"rental_uris":{"android":"levelo://app?vid=4e06d3e6-2b20-4e7b-aea6-0ad1ac5e1edf","ios":"levelo://app?vid=4e06d3e6-2b20-4e7b-aea6-0ad1ac5e1edf"},"vehicle_type_id":"4","last_reported":1746177028,"current_range_meters":8800,"station_id":"ce4bhq12rcd13ifvqhhg","pricing_plan_id":"cebpf4jnsgd1na2vs0mg"},{"bike_id":"f3d36354-fb65-4d90-83eb-303e5363ade6","system_id":"levelo_inurba_marseille","lat":43.31275,"lon":5.40169,"is_reserved":false,"is_disabled":false,"rental_uris":{"android":"levelo://app?vid=f3d36354-fb65-4d90-83eb-303e5363ade6","ios":"levelo://app?vid=f3d36354-fb65-4d90-83eb-303e5363ade6"},"vehicle_type_id":"4","last_reported":1746177028,"current_range_meters":8800,"station_id":"ce4bh092rcd13ifvqd30","pricing_plan_id":"cebpf4jnsgd1na2vs0mg"},{"bike_id":"70f78dbe-5db2-4ee8-a022-23c3fe40e114","system_id":"levelo_inurba_marseille","lat":43.29092,"lon":5.3813,"is_reserved":false,"is_disabled":false,"rental_uris":{"android":"levelo://app?vid=70f78dbe-5db2-4ee8-a022-23c3fe40e114","ios":"levelo://app?vid=70f78dbe-5db2-4ee8-a022-23c3fe40e114"},"vehicle_type_id":"4","last_reported":1746177028,"current_range_meters":8800,"station_id":"ce4bh512rcd13ifvqe2g","pricing_plan_id":"cebpf4jnsgd1na2vs0mg"},{"bike_id":"6daead5e-31f4-4d29-947a-3637787fbd2f","system_id":"levelo_inurba_marseille","lat":43.29965,"lon":5.37177,"is_reserved":false,"is_disabled":false,"rental_uris":{"android":"levelo://app?vid=6daead5e-31f4-4d29-947a-3637787fbd2f","ios":"levelo://app?vid=6daead5e-31f4-4d29-947a-3637787fbd2f"},"vehicle_type_id":"4","last_reported":1746177028,"current_range_meters":8800,"station_id":"ce4bgr92rcd13ifvqc7g","pricing_plan_id":"cebpf4jnsgd1na2vs0mg"},{"bike_id":"20677bec-f723-4a98-9582-28d71c43bf6e","system_id":"levelo_inurba_marseille","lat":43.23146,"lon":5.43699,"is_reserved":false,"is_disabled":false,"rental_uris":{"android":"levelo://app?vid=20677bec-f723-4a98-9582-28d71c43bf6e","ios":"levelo://app?vid=20677bec-f723-4a98-9582-28d71c43bf6e"},"vehicle_type_id":"4","last_reported":1746177028,"current_range_meters":8800,"station_id":"ce4bhmp2rcd13ifvqgog","pricing_plan_id":"cebpf4jnsgd1na2vs0mg"},{"bike_id":"4367e6f6-4d53-4f1e-ae7c-7896edff19f2","system_id":"levelo_inurba_marseille","lat":43.27204,"lon":5.39187,"is_reserved":false,"is_disabled":false,"rental_uris":{"android":"levelo://app?vid=4367e6f6-4d53-4f1e-ae7c-7896edff19f2","ios":"levelo://app?vid=4367e6f6-4d53-4f1e-ae7c-7896edff19f2"},"vehicle_type_id":"4","last_reported":1746177028,"current_range_meters":8800,"station_id":"ce4bhhp2rcd13ifvqfm0","pricing_plan_id":"cebpf4jnsgd1na2vs0mg"},{"bike_id":"0275921f-ce6e-42c6-b9cc-724455ffabca","system_id":"levelo_inurba_marseille","lat":43.25737,"lon":5.41105,"is_reserved":false,"is_disabled":false,"rental_uris":{"android":"levelo://app?vid=0275921f-ce6e-42c6-b9cc-724455ffabca","ios":"levelo://app?vid=0275921f-ce6e-42c6-b9cc-724455ffabca"},"vehicle_type_id":"4","last_reported":1746177028,"current_range_meters":8800,"station_id":"ce4bhkp2rcd13ifvqgd0","pricing_plan_id":"cebpf4jnsgd1na2vs0mg"},{"bike_id":"0d6c5100-7db5-44d0-b9d6-cf2b96014798","system_id":"levelo_inurba_marseille","lat":43.310082,"lon":5.375224,"is_reserved":false,"is_disabled":false,"rental_uris":{"android":"levelo://app?vid=0d6c5100-7db5-44d0-b9d6-cf2b96014798","ios":"levelo://app?vid=0d6c5100-7db5-44d0-b9d6-cf2b96014798"},"vehicle_type_id":"4","last_reported":1746177028,"current_range_meters":9200,"station_id":"","pricing_plan_id":"cebpf4jnsgd1na2vs0mg"},{"bike_id":"4a6851f9-34fb-48f6-8387-4b9c13325bed","system_id":"levelo_inurba_marseille","lat":43.32103,"lon":5.36754,"is_reserved":false,"is_disabled":false,"rental_uris":{"android":"levelo://app?vid=4a6851f9-34fb-48f6-8387-4b9c13325bed","ios":"levelo://app?vid=4a6851f9-34fb-48f6-8387-4b9c13325bed"},"vehicle_type_id":"4","last_reported":1746177028,"current_range_meters":9200,"station_id":"ce4bhrh2rcd13ifvqhug","pricing_plan_id":"cebpf4jnsgd1na2vs0mg"},{"bike_id":"5c89fd98-7d91-4774-8238-2ccff253cc4f","system_id":"levelo_inurba_marseille","lat":43.30453,"lon":5.37913,"is_reserved":false,"is_disabled":false,"rental_uris":{"android":"levelo://app?vid=5c89fd98-7d91-4774-8238-2ccff253cc4f","ios":"levelo://app?vid=5c89fd98-7d91-4774-8238-2ccff253cc4f"},"vehicle_type_id":"4","last_reported":1746177028,"current_range_meters":9200,"station_id":"ce4bgup2rcd13ifvqcn0","pricing_plan_id":"cebpf4jnsgd1na2vs0mg"},{"bike_id":"1a4c2432-5068-4d23-98d3-58366576f115","system_id":"levelo_inurba_marseille","lat":43.31364,"lon":5.36699,"is_reserved":false,"is_disabled":false,"rental_uris":{"android":"levelo://app?vid=1a4c2432-5068-4d23-98d3-58366576f115","ios":"levelo://app?vid=1a4c2432-5068-4d23-98d3-58366576f115"},"vehicle_type_id":"4","last_reported":1746177028,"current_range_meters":9200,"station_id":"ce4bgr92rcd13ifvqc6g","pricing_plan_id":"cebpf4jnsgd1na2vs0mg"},{"bike_id":"973a7657-e77d-445d-aae5-0e110dcc78f8","system_id":"levelo_inurba_marseille","lat":43.29261,"lon":5.37613,"is_reserved":false,"is_disabled":false,"rental_uris":{"android":"levelo://app?vid=973a7657-e77d-445d-aae5-0e110dcc78f8","ios":"levelo://app?vid=973a7657-e77d-445d-aae5-0e110dcc78f8"},"vehicle_type_id":"4","last_reported":1746177028,"current_range_meters":9200,"station_id":"ce4bgi12rcd13ifvqb80","pricing_plan_id":"cebpf4jnsgd1na2vs0mg"},{"bike_id":"3b46d97b-0e10-4f03-bdac-0554e8b3aa2a","system_id":"levelo_inurba_marseille","lat":43.30951,"lon":5.39025,"is_reserved":false,"is_disabled":false,"rental_uris":{"android":"levelo://app?vid=3b46d97b-0e10-4f03-bdac-0554e8b3aa2a","ios":"levelo://app?vid=3b46d97b-0e10-4f03-bdac-0554e8b3aa2a"},"vehicle_type_id":"4","last_reported":1746177028,"current_range_meters":8800,"station_id":"ce4bgup2rcd13ifvqco0","pricing_plan_id":"cebpf4jnsgd1na2vs0mg"},{"bike_id":"4eae7e87-4727-4c61-9dbc-e39473a0163d","system_id":"levelo_inurba_marseille","lat":43.29192,"lon":5.39323,"is_reserved":false,"is_disabled":false,"rental_uris":{"android":"levelo://app?vid=4eae7e87-4727-4c61-9dbc-e39473a0163d","ios":"levelo://app?vid=4eae7e87-4727-4c61-9dbc-e39473a0163d"},"vehicle_type_id":"4","last_reported":1746177028,"current_range_meters":8800,"station_id":"ce4bh192rcd13ifvqdd0","pricing_plan_id":"cebpf4jnsgd1na2vs0mg"},{"bike_id":"32a5b9b2-5177-4b5f-91eb-6f7b00e0f325","system_id":"levelo_inurba_marseille","lat":43.26241,"lon":5.38776,"is_reserved":false,"is_disabled":false,"rental_uris":{"android":"levelo://app?vid=32a5b9b2-5177-4b5f-91eb-6f7b00e0f325","ios":"levelo://app?vid=32a5b9b2-5177-4b5f-91eb-6f7b00e0f325"},"vehicle_type_id":"4","last_reported":1746177028,"current_range_meters":9600,"station_id":"","pricing_plan_id":"cebpf4jnsgd1na2vs0mg"},{"bike_id":"ad39198a-662a-445c-b332-22321ac2536b","system_id":"levelo_inurba_marseille","lat":43.29732,"lon":5.3768,"is_reserved":false,"is_disabled":false,"rental_uris":{"android":"levelo://app?vid=ad39198a-662a-445c-b332-22321ac2536b","ios":"levelo://app?vid=ad39198a-662a-445c-b332-22321ac2536b"},"vehicle_type_id":"4","last_reported":1746177028,"current_range_meters":9600,"station_id":"ce4bgkh2rcd13ifvqbl0","pricing_plan_id":"cebpf4jnsgd1na2vs0mg"},{"bike_id":"ba1291bf-568d-477b-8e17-c284858000b8","system_id":"levelo_inurba_marseille","lat":43.31198,"lon":5.3679,"is_reserved":false,"is_disabled":false,"rental_uris":{"android":"levelo://app?vid=ba1291bf-568d-477b-8e17-c284858000b8","ios":"levelo://app?vid=ba1291bf-568d-477b-8e17-c284858000b8"},"vehicle_type_id":"4","last_reported":1746177028,"current_range_meters":9600,"station_id":"","pricing_plan_id":"cebpf4jnsgd1na2vs0mg"},{"bike_id":"abac597f-a666-47d3-8b92-2ce3b5279149","system_id":"levelo_inurba_marseille","lat":43.28614,"lon":5.35113,"is_reserved":false,"is_disabled":false,"rental_uris":{"android":"levelo://app?vid=abac597f-a666-47d3-8b92-2ce3b5279149","ios":"levelo://app?vid=abac597f-a666-47d3-8b92-2ce3b5279149"},"vehicle_type_id":"4","last_reported":1746177028,"current_range_meters":9600,"station_id":"ce4bhch2rcd13ifvqeug","pricing_plan_id":"cebpf4jnsgd1na2vs0mg"},{"bike_id":"0713ce9c-dc26-49f7-9624-db2430fa8417","system_id":"levelo_inurba_marseille","lat":43.29418,"lon":5.38617,"is_reserved":false,"is_disabled":false,"rental_uris":{"android":"levelo://app?vid=0713ce9c-dc26-49f7-9624-db2430fa8417","ios":"levelo://app?vid=0713ce9c-dc26-49f7-9624-db2430fa8417"},"vehicle_type_id":"4","last_reported":1746177028,"current_range_meters":9600,"station_id":"ce4bh2h2rcd13ifvqdh0","pricing_plan_id":"cebpf4jnsgd1na2vs0mg"},{"bike_id":"5e783dca-e9bd-4f97-a67f-f3c52ee23fb9","system_id":"levelo_inurba_marseille","lat":43.296214,"lon":5.377067,"is_reserved":false,"is_disabled":true,"rental_uris":{"android":"levelo://app?vid=5e783dca-e9bd-4f97-a67f-f3c52ee23fb9","ios":"levelo://app?vid=5e783dca-e9bd-4f97-a67f-f3c52ee23fb9"},"vehicle_type_id":"4","last_reported":1746177028,"current_range_meters":10000,"station_id":"","pricing_plan_id":"cebpf4jnsgd1na2vs0mg"},{"bike_id":"fd07a340-a32b-44cc-824b-9474cc171177","system_id":"levelo_inurba_marseille","lat":43.28167,"lon":5.42643,"is_reserved":false,"is_disabled":false,"rental_uris":{"android":"levelo://app?vid=fd07a340-a32b-44cc-824b-9474cc171177","ios":"levelo://app?vid=fd07a340-a32b-44cc-824b-9474cc171177"},"vehicle_type_id":"4","last_reported":1746177028,"current_range_meters":10000,"station_id":"ce4bhnh2rcd13ifvqgug","pricing_plan_id":"cebpf4jnsgd1na2vs0mg"},{"bike_id":"3f8bea75-f1b7-42a9-9ff5-4986c0552272","system_id":"levelo_inurba_marseille","lat":43.217442,"lon":5.346019,"is_reserved":false,"is_disabled":true,"rental_uris":{"android":"levelo://app?vid=3f8bea75-f1b7-42a9-9ff5-4986c0552272","ios":"levelo://app?vid=3f8bea75-f1b7-42a9-9ff5-4986c0552272"},"vehicle_type_id":"4","last_reported":1746177028,"current_range_meters":10000,"station_id":"st_cvj6r9ubvosntc0bgbag","pricing_plan_id":"cebpf4jnsgd1na2vs0mg"},{"bike_id":"d5ed7a16-1d5d-407a-9cf6-8907665227a2","system_id":"levelo_inurba_marseille","lat":43.28418,"lon":5.3499,"is_reserved":false,"is_disabled":false,"rental_uris":{"android":"levelo://app?vid=d5ed7a16-1d5d-407a-9cf6-8907665227a2","ios":"levelo://app?vid=d5ed7a16-1d5d-407a-9cf6-8907665227a2"},"vehicle_type_id":"4","last_reported":1746177028,"current_range_meters":10000,"station_id":"ce4bhbh2rcd13ifvqepg","pricing_plan_id":"cebpf4jnsgd1na2vs0mg"},{"bike_id":"0eee99d2-4943-44a3-9a80-b576afb7402e","system_id":"levelo_inurba_marseille","lat":43.30537,"lon":5.36561,"is_reserved":false,"is_disabled":false,"rental_uris":{"android":"levelo://app?vid=0eee99d2-4943-44a3-9a80-b576afb7402e","ios":"levelo://app?vid=0eee99d2-4943-44a3-9a80-b576afb7402e"},"vehicle_type_id":"4","last_reported":1746177028,"current_range_meters":10000,"station_id":"ce4bgs12rcd13ifvqcag","pricing_plan_id":"cebpf4jnsgd1na2vs0mg"},{"bike_id":"045b2767-67d3-41b7-8618-6d27646a5585","system_id":"levelo_inurba_marseille","lat":43.315882,"lon":5.387729,"is_reserved":false,"is_disabled":false,"rental_uris":{"android":"levelo://app?vid=045b2767-67d3-41b7-8618-6d27646a5585","ios":"levelo://app?vid=045b2767-67d3-41b7-8618-6d27646a5585"},"vehicle_type_id":"4","last_reported":1746177028,"current_range_meters":10800,"station_id":"","pricing_plan_id":"cebpf4jnsgd1na2vs0mg"},{"bike_id":"09e7f123-d853-49cd-94e0-92f4fea320bc","system_id":"levelo_inurba_marseille","lat":43.28418,"lon":5.34975,"is_reserved":false,"is_disabled":false,"rental_uris":{"android":"levelo://app?vid=09e7f123-d853-49cd-94e0-92f4fea320bc","ios":"levelo://app?vid=09e7f123-d853-49cd-94e0-92f4fea320bc"},"vehicle_type_id":"4","last_reported":1746177028,"current_range_meters":10800,"station_id":"ce4bhbh2rcd13ifvqepg","pricing_plan_id":"cebpf4jnsgd1na2vs0mg"},{"bike_id":"5403f7a6-ce83-448f-85ac-571349d0f1f3","system_id":"levelo_inurba_marseille","lat":43.30418,"lon":5.41279,"is_reserved":false,"is_disabled":false,"rental_uris":{"android":"levelo://app?vid=5403f7a6-ce83-448f-85ac-571349d0f1f3","ios":"levelo://app?vid=5403f7a6-ce83-448f-85ac-571349d0f1f3"},"vehicle_type_id":"4","last_reported":1746177028,"current_range_meters":11200,"station_id":"ce4bhop2rcd13ifvqh8g","pricing_plan_id":"cebpf4jnsgd1na2vs0mg"},{"bike_id":"df869c6e-30aa-4a10-bddb-7cd36ccc4eae","system_id":"levelo_inurba_marseille","lat":43.29893,"lon":5.43655,"is_reserved":false,"is_disabled":true,"rental_uris":{"android":"levelo://app?vid=df869c6e-30aa-4a10-bddb-7cd36ccc4eae","ios":"levelo://app?vid=df869c6e-30aa-4a10-bddb-7cd36ccc4eae"},"vehicle_type_id":"4","last_reported":1746177028,"current_range_meters":11200,"station_id":"ce4bhpp2rcd13ifvqhfg","pricing_plan_id":"cebpf4jnsgd1na2vs0mg"},{"bike_id":"1a0e246c-0b4d-40a0-aa58-252264c4f7ad","system_id":"levelo_inurba_marseille","lat":43.276233,"lon":5.361047,"is_reserved":false,"is_disabled":false,"rental_uris":{"android":"levelo://app?vid=1a0e246c-0b4d-40a0-aa58-252264c4f7ad","ios":"levelo://app?vid=1a0e246c-0b4d-40a0-aa58-252264c4f7ad"},"vehicle_type_id":"4","last_reported":1746177028,"current_range_meters":10800,"station_id":"ce4bgj92rcd13ifvqbe0","pricing_plan_id":"cebpf4jnsgd1na2vs0mg"},{"bike_id":"bb05900d-7f91-4586-9deb-3614eae24ce6","system_id":"levelo_inurba_marseille","lat":43.291966,"lon":5.392961,"is_reserved":false,"is_disabled":true,"rental_uris":{"android":"levelo://app?vid=bb05900d-7f91-4586-9deb-3614eae24ce6","ios":"levelo://app?vid=bb05900d-7f91-4586-9deb-3614eae24ce6"},"vehicle_type_id":"4","last_reported":1746177028,"current_range_meters":11200,"station_id":"","pricing_plan_id":"cebpf4jnsgd1na2vs0mg"},{"bike_id":"879b61a1-8db3-40d3-a097-41eb20cba322","system_id":"levelo_inurba_marseille","lat":43.29267,"lon":5.36851,"is_reserved":false,"is_disabled":false,"rental_uris":{"android":"levelo://app?vid=879b61a1-8db3-40d3-a097-41eb20cba322","ios":"levelo://app?vid=879b61a1-8db3-40d3-a097-41eb20cba322"},"vehicle_type_id":"4","last_reported":1746177028,"current_range_meters":11200,"station_id":"ce4bhbp2rcd13ifvqesg","pricing_plan_id":"cebpf4jnsgd1na2vs0mg"},{"bike_id":"4cc2b011-81f2-4910-af9d-0052ec928815","system_id":"levelo_inurba_marseille","lat":43.303893,"lon":5.424903,"is_reserved":false,"is_disabled":false,"rental_uris":{"android":"levelo://app?vid=4cc2b011-81f2-4910-af9d-0052ec928815","ios":"levelo://app?vid=4cc2b011-81f2-4910-af9d-0052ec928815"},"vehicle_type_id":"4","last_reported":1746177028,"current_range_meters":11200,"station_id":"ce4bhoh2rcd13ifvqh6g","pricing_plan_id":"cebpf4jnsgd1na2vs0mg"},{"bike_id":"fee5575d-7303-4f1e-b2ff-70ac5c56d8a8","system_id":"levelo_inurba_marseille","lat":43.26927,"lon":5.38913,"is_reserved":false,"is_disabled":false,"rental_uris":{"android":"levelo://app?vid=fee5575d-7303-4f1e-b2ff-70ac5c56d8a8","ios":"levelo://app?vid=fee5575d-7303-4f1e-b2ff-70ac5c56d8a8"},"vehicle_type_id":"4","last_reported":1746177028,"current_range_meters":11200,"station_id":"ce4bhhh2rcd13ifvqfl0","pricing_plan_id":"cebpf4jnsgd1na2vs0mg"},{"bike_id":"720317cb-a772-45b3-864e-f069575ffef3","system_id":"levelo_inurba_marseille","lat":43.26955,"lon":5.38633,"is_reserved":false,"is_disabled":false,"rental_uris":{"android":"levelo://app?vid=720317cb-a772-45b3-864e-f069575ffef3","ios":"levelo://app?vid=720317cb-a772-45b3-864e-f069575ffef3"},"vehicle_type_id":"4","last_reported":1746177028,"current_range_meters":11200,"station_id":"ce4bhh92rcd13ifvqfh0","pricing_plan_id":"cebpf4jnsgd1na2vs0mg"},{"bike_id":"dbea7e60-3091-4bd7-941f-a79605dd43ad","system_id":"levelo_inurba_marseille","lat":43.23148,"lon":5.43698,"is_reserved":false,"is_disabled":false,"rental_uris":{"android":"levelo://app?vid=dbea7e60-3091-4bd7-941f-a79605dd43ad","ios":"levelo://app?vid=dbea7e60-3091-4bd7-941f-a79605dd43ad"},"vehicle_type_id":"4","last_reported":1746177028,"current_range_meters":11600,"station_id":"ce4bhmp2rcd13ifvqgog","pricing_plan_id":"cebpf4jnsgd1na2vs0mg"},{"bike_id":"ea01c771-e99a-448b-ab88-aa2baa525916","system_id":"levelo_inurba_marseille","lat":43.30588,"lon":5.39352,"is_reserved":false,"is_disabled":false,"rental_uris":{"android":"levelo://app?vid=ea01c771-e99a-448b-ab88-aa2baa525916","ios":"levelo://app?vid=ea01c771-e99a-448b-ab88-aa2baa525916"},"vehicle_type_id":"4","last_reported":1746177028,"current_range_meters":11600,"station_id":"ce4bh0p2rcd13ifvqd80","pricing_plan_id":"cebpf4jnsgd1na2vs0mg"},{"bike_id":"b0bc2427-6b0a-44ef-ae17-e02b21e38daa","system_id":"levelo_inurba_marseille","lat":43.30147,"lon":5.3808,"is_reserved":false,"is_disabled":false,"rental_uris":{"android":"levelo://app?vid=b0bc2427-6b0a-44ef-ae17-e02b21e38daa","ios":"levelo://app?vid=b0bc2427-6b0a-44ef-ae17-e02b21e38daa"},"vehicle_type_id":"4","last_reported":1746177028,"current_range_meters":11200,"station_id":"ce4bgjp2rcd13ifvqbh0","pricing_plan_id":"cebpf4jnsgd1na2vs0mg"},{"bike_id":"b3a950d6-27a1-4962-b3d3-6c35f584a539","system_id":"levelo_inurba_marseille","lat":43.27496,"lon":5.42454,"is_reserved":false,"is_disabled":false,"rental_uris":{"android":"levelo://app?vid=b3a950d6-27a1-4962-b3d3-6c35f584a539","ios":"levelo://app?vid=b3a950d6-27a1-4962-b3d3-6c35f584a539"},"vehicle_type_id":"4","last_reported":1746177028,"current_range_meters":11600,"station_id":"ce4bhn92rcd13ifvqgrg","pricing_plan_id":"cebpf4jnsgd1na2vs0mg"},{"bike_id":"bf0ded13-567f-4376-9241-fab3660dc401","system_id":"levelo_inurba_marseille","lat":43.231444,"lon":5.437136,"is_reserved":false,"is_disabled":false,"rental_uris":{"android":"levelo://app?vid=bf0ded13-567f-4376-9241-fab3660dc401","ios":"levelo://app?vid=bf0ded13-567f-4376-9241-fab3660dc401"},"vehicle_type_id":"4","last_reported":1746177028,"current_range_meters":11600,"station_id":"ce4bhmp2rcd13ifvqgog","pricing_plan_id":"cebpf4jnsgd1na2vs0mg"},{"bike_id":"bed0a728-57c9-4c1f-bf24-0f5df6d0f813","system_id":"levelo_inurba_marseille","lat":43.29518,"lon":5.38555,"is_reserved":false,"is_disabled":false,"rental_uris":{"android":"levelo://app?vid=bed0a728-57c9-4c1f-bf24-0f5df6d0f813","ios":"levelo://app?vid=bed0a728-57c9-4c1f-bf24-0f5df6d0f813"},"vehicle_type_id":"4","last_reported":1746177028,"current_range_meters":11600,"station_id":"ce4bgih2rcd13ifvqba0","pricing_plan_id":"cebpf4jnsgd1na2vs0mg"},{"bike_id":"8baa568c-2742-4860-ac53-ec1174af04ca","system_id":"levelo_inurba_marseille","lat":43.30472,"lon":5.37897,"is_reserved":false,"is_disabled":false,"rental_uris":{"android":"levelo://app?vid=8baa568c-2742-4860-ac53-ec1174af04ca","ios":"levelo://app?vid=8baa568c-2742-4860-ac53-ec1174af04ca"},"vehicle_type_id":"4","last_reported":1746177028,"current_range_meters":11600,"station_id":"ce4bgup2rcd13ifvqcn0","pricing_plan_id":"cebpf4jnsgd1na2vs0mg"},{"bike_id":"0c9a8767-a71f-4ef0-b390-c3b7e9c632a8","system_id":"levelo_inurba_marseille","lat":43.21191,"lon":5.35076,"is_reserved":false,"is_disabled":true,"rental_uris":{"android":"levelo://app?vid=0c9a8767-a71f-4ef0-b390-c3b7e9c632a8","ios":"levelo://app?vid=0c9a8767-a71f-4ef0-b390-c3b7e9c632a8"},"vehicle_type_id":"4","last_reported":1746177028,"current_range_meters":12000,"station_id":"st_cvj6sg6p6f1abm77japg","pricing_plan_id":"cebpf4jnsgd1na2vs0mg"},{"bike_id":"6ef6f1b2-11d4-4345-a866-b32bfb9a961d","system_id":"levelo_inurba_marseille","lat":43.290039,"lon":5.356031,"is_reserved":false,"is_disabled":false,"rental_uris":{"android":"levelo://app?vid=6ef6f1b2-11d4-4345-a866-b32bfb9a961d","ios":"levelo://app?vid=6ef6f1b2-11d4-4345-a866-b32bfb9a961d"},"vehicle_type_id":"4","last_reported":1746177028,"current_range_meters":12000,"station_id":"ce4bhb92rcd13ifvqen0","pricing_plan_id":"cebpf4jnsgd1na2vs0mg"},{"bike_id":"8a0058ae-d47a-4696-afcc-53a66a14ba3f","system_id":"levelo_inurba_marseille","lat":43.298979,"lon":5.436634,"is_reserved":false,"is_disabled":false,"rental_uris":{"android":"levelo://app?vid=8a0058ae-d47a-4696-afcc-53a66a14ba3f","ios":"levelo://app?vid=8a0058ae-d47a-4696-afcc-53a66a14ba3f"},"vehicle_type_id":"4","last_reported":1746177028,"current_range_meters":12400,"station_id":"ce4bhpp2rcd13ifvqhfg","pricing_plan_id":"cebpf4jnsgd1na2vs0mg"},{"bike_id":"5779d105-094b-4ec4-b217-7f01d7fd6044","system_id":"levelo_inurba_marseille","lat":43.23155,"lon":5.43704,"is_reserved":false,"is_disabled":false,"rental_uris":{"android":"levelo://app?vid=5779d105-094b-4ec4-b217-7f01d7fd6044","ios":"levelo://app?vid=5779d105-094b-4ec4-b217-7f01d7fd6044"},"vehicle_type_id":"4","last_reported":1746177028,"current_range_meters":12400,"station_id":"ce4bhmp2rcd13ifvqgog","pricing_plan_id":"cebpf4jnsgd1na2vs0mg"},{"bike_id":"f9eae9cb-3e30-4f98-9b5d-ec7d6955b1e9","system_id":"levelo_inurba_marseille","lat":43.31709,"lon":5.4045,"is_reserved":false,"is_disabled":false,"rental_uris":{"android":"levelo://app?vid=f9eae9cb-3e30-4f98-9b5d-ec7d6955b1e9","ios":"levelo://app?vid=f9eae9cb-3e30-4f98-9b5d-ec7d6955b1e9"},"vehicle_type_id":"4","last_reported":1746177028,"current_range_meters":12400,"station_id":"ce4bh012rcd13ifvqd00","pricing_plan_id":"cebpf4jnsgd1na2vs0mg"},{"bike_id":"ac132c29-f819-4d62-974c-5c055342f4f0","system_id":"levelo_inurba_marseille","lat":43.21771,"lon":5.34583,"is_reserved":false,"is_disabled":true,"rental_uris":{"android":"levelo://app?vid=ac132c29-f819-4d62-974c-5c055342f4f0","ios":"levelo://app?vid=ac132c29-f819-4d62-974c-5c055342f4f0"},"vehicle_type_id":"4","last_reported":1746177028,"current_range_meters":12800,"station_id":"st_cvj6r9ubvosntc0bgbag","pricing_plan_id":"cebpf4jnsgd1na2vs0mg"},{"bike_id":"5ce5a92f-2072-4e8c-8483-5f453ebe476a","system_id":"levelo_inurba_marseille","lat":43.23163,"lon":5.43691,"is_reserved":false,"is_disabled":false,"rental_uris":{"android":"levelo://app?vid=5ce5a92f-2072-4e8c-8483-5f453ebe476a","ios":"levelo://app?vid=5ce5a92f-2072-4e8c-8483-5f453ebe476a"},"vehicle_type_id":"4","last_reported":1746177028,"current_range_meters":12800,"station_id":"ce4bhmp2rcd13ifvqgog","pricing_plan_id":"cebpf4jnsgd1na2vs0mg"},{"bike_id":"aaa7361e-2aed-4ab5-b86b-b5d18c767d33","system_id":"levelo_inurba_marseille","lat":43.299357,"lon":5.394959,"is_reserved":false,"is_disabled":true,"rental_uris":{"android":"levelo://app?vid=aaa7361e-2aed-4ab5-b86b-b5d18c767d33","ios":"levelo://app?vid=aaa7361e-2aed-4ab5-b86b-b5d18c767d33"},"vehicle_type_id":"4","last_reported":1746177028,"current_range_meters":12800,"station_id":"","pricing_plan_id":"cebpf4jnsgd1na2vs0mg"},{"bike_id":"43ad117d-8a47-47bc-a08e-ddf7b33a74c8","system_id":"levelo_inurba_marseille","lat":43.32316,"lon":5.36716,"is_reserved":false,"is_disabled":false,"rental_uris":{"android":"levelo://app?vid=43ad117d-8a47-47bc-a08e-ddf7b33a74c8","ios":"levelo://app?vid=43ad117d-8a47-47bc-a08e-ddf7b33a74c8"},"vehicle_type_id":"4","last_reported":1746177028,"current_range_meters":12800,"station_id":"ce4bhsh2rcd13ifvqi2g","pricing_plan_id":"cebpf4jnsgd1na2vs0mg"},{"bike_id":"7bd7c79e-5190-4568-b102-e02604e33904","system_id":"levelo_inurba_marseille","lat":43.29546,"lon":5.39387,"is_reserved":false,"is_disabled":false,"rental_uris":{"android":"levelo://app?vid=7bd7c79e-5190-4568-b102-e02604e33904","ios":"levelo://app?vid=7bd7c79e-5190-4568-b102-e02604e33904"},"vehicle_type_id":"4","last_reported":1746177028,"current_range_meters":12800,"station_id":"","pricing_plan_id":"cebpf4jnsgd1na2vs0mg"},{"bike_id":"9043f584-538a-49df-827f-5cd3640cf829","system_id":"levelo_inurba_marseille","lat":43.23186,"lon":5.39982,"is_reserved":false,"is_disabled":false,"rental_uris":{"android":"levelo://app?vid=9043f584-538a-49df-827f-5cd3640cf829","ios":"levelo://app?vid=9043f584-538a-49df-827f-5cd3640cf829"},"vehicle_type_id":"4","last_reported":1746177028,"current_range_meters":12800,"station_id":"ce4bhn12rcd13ifvqgqg","pricing_plan_id":"cebpf4jnsgd1na2vs0mg"},{"bike_id":"6f56ecb2-620e-4176-bc24-85528e81f60f","system_id":"levelo_inurba_marseille","lat":43.30882,"lon":5.3719,"is_reserved":false,"is_disabled":false,"rental_uris":{"android":"levelo://app?vid=6f56ecb2-620e-4176-bc24-85528e81f60f","ios":"levelo://app?vid=6f56ecb2-620e-4176-bc24-85528e81f60f"},"vehicle_type_id":"4","last_reported":1746177028,"current_range_meters":13600,"station_id":"ce4bguh2rcd13ifvqckg","pricing_plan_id":"cebpf4jnsgd1na2vs0mg"},{"bike_id":"8a53bf42-acb8-4be5-ad1b-38650f6ba791","system_id":"levelo_inurba_marseille","lat":43.299486,"lon":5.365474,"is_reserved":false,"is_disabled":true,"rental_uris":{"android":"levelo://app?vid=8a53bf42-acb8-4be5-ad1b-38650f6ba791","ios":"levelo://app?vid=8a53bf42-acb8-4be5-ad1b-38650f6ba791"},"vehicle_type_id":"4","last_reported":1746177028,"current_range_meters":13600,"station_id":"ce4bgm92rcd13ifvqbr0","pricing_plan_id":"cebpf4jnsgd1na2vs0mg"},{"bike_id":"d660e045-839a-415d-9393-6c7d65a69491","system_id":"levelo_inurba_marseille","lat":43.30144,"lon":5.3742,"is_reserved":false,"is_disabled":false,"rental_uris":{"android":"levelo://app?vid=d660e045-839a-415d-9393-6c7d65a69491","ios":"levelo://app?vid=d660e045-839a-415d-9393-6c7d65a69491"},"vehicle_type_id":"4","last_reported":1746177028,"current_range_meters":13600,"station_id":"ce4bgs92rcd13ifvqcc0","pricing_plan_id":"cebpf4jnsgd1na2vs0mg"},{"bike_id":"03f5b910-d1d5-49c8-a7a4-67a333daaa2e","system_id":"levelo_inurba_marseille","lat":43.32534,"lon":5.41467,"is_reserved":false,"is_disabled":false,"rental_uris":{"android":"levelo://app?vid=03f5b910-d1d5-49c8-a7a4-67a333daaa2e","ios":"levelo://app?vid=03f5b910-d1d5-49c8-a7a4-67a333daaa2e"},"vehicle_type_id":"4","last_reported":1746177028,"current_range_meters":13600,"station_id":"ce4bhq12rcd13ifvqhhg","pricing_plan_id":"cebpf4jnsgd1na2vs0mg"},{"bike_id":"40173561-0ced-45e6-a199-579f250dbca5","system_id":"levelo_inurba_marseille","lat":43.267,"lon":5.38265,"is_reserved":false,"is_disabled":true,"rental_uris":{"android":"levelo://app?vid=40173561-0ced-45e6-a199-579f250dbca5","ios":"levelo://app?vid=40173561-0ced-45e6-a199-579f250dbca5"},"vehicle_type_id":"4","last_reported":1746177028,"current_range_meters":13600,"station_id":"ce4bhg92rcd13ifvqf90","pricing_plan_id":"cebpf4jnsgd1na2vs0mg"},{"bike_id":"58ab4ed0-a69d-4f56-9f56-2c2bfa67cab2","system_id":"levelo_inurba_marseille","lat":43.28152,"lon":5.42639,"is_reserved":false,"is_disabled":false,"rental_uris":{"android":"levelo://app?vid=58ab4ed0-a69d-4f56-9f56-2c2bfa67cab2","ios":"levelo://app?vid=58ab4ed0-a69d-4f56-9f56-2c2bfa67cab2"},"vehicle_type_id":"4","last_reported":1746177028,"current_range_meters":14000,"station_id":"ce4bhnh2rcd13ifvqgug","pricing_plan_id":"cebpf4jnsgd1na2vs0mg"},{"bike_id":"8a98d962-578d-444b-a5bb-91a62b69d98d","system_id":"levelo_inurba_marseille","lat":43.21193,"lon":5.35067,"is_reserved":false,"is_disabled":true,"rental_uris":{"android":"levelo://app?vid=8a98d962-578d-444b-a5bb-91a62b69d98d","ios":"levelo://app?vid=8a98d962-578d-444b-a5bb-91a62b69d98d"},"vehicle_type_id":"4","last_reported":1746177028,"current_range_meters":14000,"station_id":"st_cvj6sg6p6f1abm77japg","pricing_plan_id":"cebpf4jnsgd1na2vs0mg"},{"bike_id":"5b4f384c-25ea-4475-b32a-f322b34637e6","system_id":"levelo_inurba_marseille","lat":43.29845,"lon":5.36271,"is_reserved":false,"is_disabled":false,"rental_uris":{"android":"levelo://app?vid=5b4f384c-25ea-4475-b32a-f322b34637e6","ios":"levelo://app?vid=5b4f384c-25ea-4475-b32a-f322b34637e6"},"vehicle_type_id":"4","last_reported":1746177028,"current_range_meters":14000,"station_id":"ce4bgpp2rcd13ifvqc3g","pricing_plan_id":"cebpf4jnsgd1na2vs0mg"},{"bike_id":"af395964-959a-441d-90af-aecc818ec8c6","system_id":"levelo_inurba_marseille","lat":43.23062,"lon":5.35487,"is_reserved":false,"is_disabled":false,"rental_uris":{"android":"levelo://app?vid=af395964-959a-441d-90af-aecc818ec8c6","ios":"levelo://app?vid=af395964-959a-441d-90af-aecc818ec8c6"},"vehicle_type_id":"4","last_reported":1746177028,"current_range_meters":14000,"station_id":"cpo3342slgdg3j2ifvpg","pricing_plan_id":"cebpf4jnsgd1na2vs0mg"},{"bike_id":"5b91057a-8b2e-4c76-ab2a-a07382ccf275","system_id":"levelo_inurba_marseille","lat":43.27175,"lon":5.409774,"is_reserved":false,"is_disabled":false,"rental_uris":{"android":"levelo://app?vid=5b91057a-8b2e-4c76-ab2a-a07382ccf275","ios":"levelo://app?vid=5b91057a-8b2e-4c76-ab2a-a07382ccf275"},"vehicle_type_id":"4","last_reported":1746177028,"current_range_meters":14000,"station_id":"ce4bhl12rcd13ifvqgf0","pricing_plan_id":"cebpf4jnsgd1na2vs0mg"},{"bike_id":"e4da426b-6c34-4ab8-9a0e-3778b90ffe11","system_id":"levelo_inurba_marseille","lat":43.29957,"lon":5.37177,"is_reserved":false,"is_disabled":false,"rental_uris":{"android":"levelo://app?vid=e4da426b-6c34-4ab8-9a0e-3778b90ffe11","ios":"levelo://app?vid=e4da426b-6c34-4ab8-9a0e-3778b90ffe11"},"vehicle_type_id":"4","last_reported":1746177028,"current_range_meters":14400,"station_id":"ce4bgr92rcd13ifvqc7g","pricing_plan_id":"cebpf4jnsgd1na2vs0mg"},{"bike_id":"09115db0-8d62-4fce-8261-a87e15dcf489","system_id":"levelo_inurba_marseille","lat":43.308984,"lon":5.396348,"is_reserved":false,"is_disabled":false,"rental_uris":{"android":"levelo://app?vid=09115db0-8d62-4fce-8261-a87e15dcf489","ios":"levelo://app?vid=09115db0-8d62-4fce-8261-a87e15dcf489"},"vehicle_type_id":"4","last_reported":1746177028,"current_range_meters":14400,"station_id":"ce4bh012rcd13ifvqcv0","pricing_plan_id":"cebpf4jnsgd1na2vs0mg"},{"bike_id":"cdffe8fb-5e87-4eea-9d91-cbcec8c875bd","system_id":"levelo_inurba_marseille","lat":43.274948,"lon":5.424528,"is_reserved":false,"is_disabled":true,"rental_uris":{"android":"levelo://app?vid=cdffe8fb-5e87-4eea-9d91-cbcec8c875bd","ios":"levelo://app?vid=cdffe8fb-5e87-4eea-9d91-cbcec8c875bd"},"vehicle_type_id":"4","last_reported":1746177028,"current_range_meters":14400,"station_id":"ce4bhn92rcd13ifvqgrg","pricing_plan_id":"cebpf4jnsgd1na2vs0mg"},{"bike_id":"924ebe6f-d3da-412d-b51d-9e4065478efe","system_id":"levelo_inurba_marseille","lat":43.32547,"lon":5.41492,"is_reserved":false,"is_disabled":false,"rental_uris":{"android":"levelo://app?vid=924ebe6f-d3da-412d-b51d-9e4065478efe","ios":"levelo://app?vid=924ebe6f-d3da-412d-b51d-9e4065478efe"},"vehicle_type_id":"4","last_reported":1746177028,"current_range_meters":14800,"station_id":"","pricing_plan_id":"cebpf4jnsgd1na2vs0mg"},{"bike_id":"43570242-c8cc-43fc-a26a-28bd415865fa","system_id":"levelo_inurba_marseille","lat":43.32464,"lon":5.36541,"is_reserved":false,"is_disabled":false,"rental_uris":{"android":"levelo://app?vid=43570242-c8cc-43fc-a26a-28bd415865fa","ios":"levelo://app?vid=43570242-c8cc-43fc-a26a-28bd415865fa"},"vehicle_type_id":"4","last_reported":1746177028,"current_range_meters":14800,"station_id":"ce4bhs12rcd13ifvqhvg","pricing_plan_id":"cebpf4jnsgd1na2vs0mg"},{"bike_id":"d6ee4a04-5055-4807-9928-3aad407ba984","system_id":"levelo_inurba_marseille","lat":43.28263,"lon":5.35064,"is_reserved":false,"is_disabled":false,"rental_uris":{"android":"levelo://app?vid=d6ee4a04-5055-4807-9928-3aad407ba984","ios":"levelo://app?vid=d6ee4a04-5055-4807-9928-3aad407ba984"},"vehicle_type_id":"4","last_reported":1746177028,"current_range_meters":14800,"station_id":"ce4bhbp2rcd13ifvqerg","pricing_plan_id":"cebpf4jnsgd1na2vs0mg"},{"bike_id":"a9960abe-c106-4119-9876-82478185e949","system_id":"levelo_inurba_marseille","lat":43.23164,"lon":5.43716,"is_reserved":false,"is_disabled":false,"rental_uris":{"android":"levelo://app?vid=a9960abe-c106-4119-9876-82478185e949","ios":"levelo://app?vid=a9960abe-c106-4119-9876-82478185e949"},"vehicle_type_id":"4","last_reported":1746177028,"current_range_meters":15200,"station_id":"ce4bhmp2rcd13ifvqgog","pricing_plan_id":"cebpf4jnsgd1na2vs0mg"},{"bike_id":"7512aee9-4fed-428c-81c8-bc4bbc83f5ae","system_id":"levelo_inurba_marseille","lat":43.27206,"lon":5.39193,"is_reserved":false,"is_disabled":true,"rental_uris":{"android":"levelo://app?vid=7512aee9-4fed-428c-81c8-bc4bbc83f5ae","ios":"levelo://app?vid=7512aee9-4fed-428c-81c8-bc4bbc83f5ae"},"vehicle_type_id":"4","last_reported":1746177028,"current_range_meters":16000,"station_id":"ce4bhhp2rcd13ifvqfm0","pricing_plan_id":"cebpf4jnsgd1na2vs0mg"},{"bike_id":"36bdbfab-7ee6-4d1d-aeec-1052e197ac06","system_id":"levelo_inurba_marseille","lat":43.312178,"lon":5.368519,"is_reserved":false,"is_disabled":false,"rental_uris":{"android":"levelo://app?vid=36bdbfab-7ee6-4d1d-aeec-1052e197ac06","ios":"levelo://app?vid=36bdbfab-7ee6-4d1d-aeec-1052e197ac06"},"vehicle_type_id":"4","last_reported":1746177028,"current_range_meters":16000,"station_id":"ce4bgl92rcd13ifvqbq0","pricing_plan_id":"cebpf4jnsgd1na2vs0mg"},{"bike_id":"da658829-0fa2-41f3-ad48-9d30aae08333","system_id":"levelo_inurba_marseille","lat":43.30571,"lon":5.39914,"is_reserved":false,"is_disabled":false,"rental_uris":{"android":"levelo://app?vid=da658829-0fa2-41f3-ad48-9d30aae08333","ios":"levelo://app?vid=da658829-0fa2-41f3-ad48-9d30aae08333"},"vehicle_type_id":"4","last_reported":1746177028,"current_range_meters":16000,"station_id":"","pricing_plan_id":"cebpf4jnsgd1na2vs0mg"},{"bike_id":"89b81589-8611-4d99-b503-943f267f9a35","system_id":"levelo_inurba_marseille","lat":43.24175,"lon":5.36401,"is_reserved":false,"is_disabled":false,"rental_uris":{"android":"levelo://app?vid=89b81589-8611-4d99-b503-943f267f9a35","ios":"levelo://app?vid=89b81589-8611-4d99-b503-943f267f9a35"},"vehicle_type_id":"4","last_reported":1746177028,"current_range_meters":16000,"station_id":"cpo36qri1sfpv3e86is0","pricing_plan_id":"cebpf4jnsgd1na2vs0mg"},{"bike_id":"686a819b-705b-4f81-8282-62a0ddb96c64","system_id":"levelo_inurba_marseille","lat":43.29522,"lon":5.37497,"is_reserved":false,"is_disabled":false,"rental_uris":{"android":"levelo://app?vid=686a819b-705b-4f81-8282-62a0ddb96c64","ios":"levelo://app?vid=686a819b-705b-4f81-8282-62a0ddb96c64"},"vehicle_type_id":"4","last_reported":1746177028,"current_range_meters":15200,"station_id":"ce4bgkp2rcd13ifvqbmg","pricing_plan_id":"cebpf4jnsgd1na2vs0mg"},{"bike_id":"fc4c4e12-8bd1-4978-b004-eee184fc087d","system_id":"levelo_inurba_marseille","lat":43.31735,"lon":5.4045,"is_reserved":false,"is_disabled":false,"rental_uris":{"android":"levelo://app?vid=fc4c4e12-8bd1-4978-b004-eee184fc087d","ios":"levelo://app?vid=fc4c4e12-8bd1-4978-b004-eee184fc087d"},"vehicle_type_id":"4","last_reported":1746177028,"current_range_meters":16000,"station_id":"","pricing_plan_id":"cebpf4jnsgd1na2vs0mg"},{"bike_id":"4509a37f-4983-432f-ae08-5c718d59797c","system_id":"levelo_inurba_marseille","lat":43.27493,"lon":5.424545,"is_reserved":false,"is_disabled":false,"rental_uris":{"android":"levelo://app?vid=4509a37f-4983-432f-ae08-5c718d59797c","ios":"levelo://app?vid=4509a37f-4983-432f-ae08-5c718d59797c"},"vehicle_type_id":"4","last_reported":1746177028,"current_range_meters":16000,"station_id":"ce4bhn92rcd13ifvqgrg","pricing_plan_id":"cebpf4jnsgd1na2vs0mg"},{"bike_id":"084a009c-112b-438e-9a8c-3b0512f6bc40","system_id":"levelo_inurba_marseille","lat":43.23181,"lon":5.39992,"is_reserved":false,"is_disabled":false,"rental_uris":{"android":"levelo://app?vid=084a009c-112b-438e-9a8c-3b0512f6bc40","ios":"levelo://app?vid=084a009c-112b-438e-9a8c-3b0512f6bc40"},"vehicle_type_id":"4","last_reported":1746177028,"current_range_meters":15200,"station_id":"ce4bhn12rcd13ifvqgqg","pricing_plan_id":"cebpf4jnsgd1na2vs0mg"},{"bike_id":"733c7236-2378-4f40-9443-245b71b023fe","system_id":"levelo_inurba_marseille","lat":43.28038,"lon":5.36945,"is_reserved":false,"is_disabled":false,"rental_uris":{"android":"levelo://app?vid=733c7236-2378-4f40-9443-245b71b023fe","ios":"levelo://app?vid=733c7236-2378-4f40-9443-245b71b023fe"},"vehicle_type_id":"4","last_reported":1746177028,"current_range_meters":16400,"station_id":"ce4bha12rcd13ifvqef0","pricing_plan_id":"cebpf4jnsgd1na2vs0mg"},{"bike_id":"5f8d22d5-1fca-4434-b8ab-7ea497fa7347","system_id":"levelo_inurba_marseille","lat":43.29265,"lon":5.3763,"is_reserved":false,"is_disabled":false,"rental_uris":{"android":"levelo://app?vid=5f8d22d5-1fca-4434-b8ab-7ea497fa7347","ios":"levelo://app?vid=5f8d22d5-1fca-4434-b8ab-7ea497fa7347"},"vehicle_type_id":"4","last_reported":1746177028,"current_range_meters":16400,"station_id":"ce4bgi12rcd13ifvqb80","pricing_plan_id":"cebpf4jnsgd1na2vs0mg"},{"bike_id":"fcf6e1dd-6b6b-4d18-beff-3c0a79411dd8","system_id":"levelo_inurba_marseille","lat":43.30311,"lon":5.36906,"is_reserved":false,"is_disabled":false,"rental_uris":{"android":"levelo://app?vid=fcf6e1dd-6b6b-4d18-beff-3c0a79411dd8","ios":"levelo://app?vid=fcf6e1dd-6b6b-4d18-beff-3c0a79411dd8"},"vehicle_type_id":"4","last_reported":1746177028,"current_range_meters":16800,"station_id":"ce4bgqh2rcd13ifvqc5g","pricing_plan_id":"cebpf4jnsgd1na2vs0mg"},{"bike_id":"f451153b-ef9f-4f9d-afc0-4e912b0e1f6f","system_id":"levelo_inurba_marseille","lat":43.31366,"lon":5.36694,"is_reserved":false,"is_disabled":false,"rental_uris":{"android":"levelo://app?vid=f451153b-ef9f-4f9d-afc0-4e912b0e1f6f","ios":"levelo://app?vid=f451153b-ef9f-4f9d-afc0-4e912b0e1f6f"},"vehicle_type_id":"4","last_reported":1746177028,"current_range_meters":16800,"station_id":"ce4bgr92rcd13ifvqc6g","pricing_plan_id":"cebpf4jnsgd1na2vs0mg"},{"bike_id":"14498fc5-0949-4dab-96dd-86f8d2d8b6ad","system_id":"levelo_inurba_marseille","lat":43.31078,"lon":5.42434,"is_reserved":false,"is_disabled":true,"rental_uris":{"android":"levelo://app?vid=14498fc5-0949-4dab-96dd-86f8d2d8b6ad","ios":"levelo://app?vid=14498fc5-0949-4dab-96dd-86f8d2d8b6ad"},"vehicle_type_id":"4","last_reported":1746177028,"current_range_meters":16800,"station_id":"ce4bhp92rcd13ifvqhag","pricing_plan_id":"cebpf4jnsgd1na2vs0mg"},{"bike_id":"5916836b-80c1-40c5-ba23-5868ad20c803","system_id":"levelo_inurba_marseille","lat":43.29623,"lon":5.3772,"is_reserved":false,"is_disabled":false,"rental_uris":{"android":"levelo://app?vid=5916836b-80c1-40c5-ba23-5868ad20c803","ios":"levelo://app?vid=5916836b-80c1-40c5-ba23-5868ad20c803"},"vehicle_type_id":"4","last_reported":1746177028,"current_range_meters":16800,"station_id":"ce4bgi92rcd13ifvqb90","pricing_plan_id":"cebpf4jnsgd1na2vs0mg"},{"bike_id":"5fd15870-1b92-4efa-95ea-745f6d882214","system_id":"levelo_inurba_marseille","lat":43.32555,"lon":5.41457,"is_reserved":false,"is_disabled":false,"rental_uris":{"android":"levelo://app?vid=5fd15870-1b92-4efa-95ea-745f6d882214","ios":"levelo://app?vid=5fd15870-1b92-4efa-95ea-745f6d882214"},"vehicle_type_id":"4","last_reported":1746177028,"current_range_meters":16800,"station_id":"ce4bhq12rcd13ifvqhhg","pricing_plan_id":"cebpf4jnsgd1na2vs0mg"},{"bike_id":"68d9e7b7-7c55-4cb2-851e-ccf1e1c10c57","system_id":"levelo_inurba_marseille","lat":43.2407,"lon":5.37751,"is_reserved":false,"is_disabled":false,"rental_uris":{"android":"levelo://app?vid=68d9e7b7-7c55-4cb2-851e-ccf1e1c10c57","ios":"levelo://app?vid=68d9e7b7-7c55-4cb2-851e-ccf1e1c10c57"},"vehicle_type_id":"4","last_reported":1746177028,"current_range_meters":17200,"station_id":"ce4bhnp2rcd13ifvqgvg","pricing_plan_id":"cebpf4jnsgd1na2vs0mg"},{"bike_id":"52bb5d51-9e98-4d69-9661-fed9214e0aa1","system_id":"levelo_inurba_marseille","lat":43.295246,"lon":5.393993,"is_reserved":false,"is_disabled":false,"rental_uris":{"android":"levelo://app?vid=52bb5d51-9e98-4d69-9661-fed9214e0aa1","ios":"levelo://app?vid=52bb5d51-9e98-4d69-9661-fed9214e0aa1"},"vehicle_type_id":"4","last_reported":1746177028,"current_range_meters":17200,"station_id":"ce4bh692rcd13ifvqea0","pricing_plan_id":"cebpf4jnsgd1na2vs0mg"},{"bike_id":"f9e4a43d-b1b8-4145-a5d0-f79fbc51d511","system_id":"levelo_inurba_marseille","lat":43.30536,"lon":5.36697,"is_reserved":false,"is_disabled":false,"rental_uris":{"android":"levelo://app?vid=f9e4a43d-b1b8-4145-a5d0-f79fbc51d511","ios":"levelo://app?vid=f9e4a43d-b1b8-4145-a5d0-f79fbc51d511"},"vehicle_type_id":"4","last_reported":1746177028,"current_range_meters":17200,"station_id":"ce4bgrp2rcd13ifvqc9g","pricing_plan_id":"cebpf4jnsgd1na2vs0mg"},{"bike_id":"0da46702-9d01-40fb-a0b1-5e5ad7a17608","system_id":"levelo_inurba_marseille","lat":43.29552,"lon":5.37492,"is_reserved":false,"is_disabled":false,"rental_uris":{"android":"levelo://app?vid=0da46702-9d01-40fb-a0b1-5e5ad7a17608","ios":"levelo://app?vid=0da46702-9d01-40fb-a0b1-5e5ad7a17608"},"vehicle_type_id":"4","last_reported":1746177028,"current_range_meters":17200,"station_id":"ce4bgkp2rcd13ifvqbmg","pricing_plan_id":"cebpf4jnsgd1na2vs0mg"},{"bike_id":"dfab6cb6-055a-44f0-9d77-f6da3af09402","system_id":"levelo_inurba_marseille","lat":43.28708,"lon":5.39999,"is_reserved":false,"is_disabled":false,"rental_uris":{"android":"levelo://app?vid=dfab6cb6-055a-44f0-9d77-f6da3af09402","ios":"levelo://app?vid=dfab6cb6-055a-44f0-9d77-f6da3af09402"},"vehicle_type_id":"4","last_reported":1746177028,"current_range_meters":17200,"station_id":"ce4bho92rcd13ifvqh3g","pricing_plan_id":"cebpf4jnsgd1na2vs0mg"},{"bike_id":"4198766f-a32d-498f-9900-25ef521fe079","system_id":"levelo_inurba_marseille","lat":43.27175,"lon":5.40995,"is_reserved":false,"is_disabled":false,"rental_uris":{"android":"levelo://app?vid=4198766f-a32d-498f-9900-25ef521fe079","ios":"levelo://app?vid=4198766f-a32d-498f-9900-25ef521fe079"},"vehicle_type_id":"4","last_reported":1746177028,"current_range_meters":17600,"station_id":"ce4bhl12rcd13ifvqgf0","pricing_plan_id":"cebpf4jnsgd1na2vs0mg"},{"bike_id":"83082c89-a42d-4211-ae04-830cf570252d","system_id":"levelo_inurba_marseille","lat":43.28264,"lon":5.35059,"is_reserved":false,"is_disabled":false,"rental_uris":{"android":"levelo://app?vid=83082c89-a42d-4211-ae04-830cf570252d","ios":"levelo://app?vid=83082c89-a42d-4211-ae04-830cf570252d"},"vehicle_type_id":"4","last_reported":1746177028,"current_range_meters":17600,"station_id":"ce4bhbp2rcd13ifvqerg","pricing_plan_id":"cebpf4jnsgd1na2vs0mg"},{"bike_id":"5cc38a9f-104a-4323-9d00-4133183d29b6","system_id":"levelo_inurba_marseille","lat":43.28608,"lon":5.391317,"is_reserved":false,"is_disabled":false,"rental_uris":{"android":"levelo://app?vid=5cc38a9f-104a-4323-9d00-4133183d29b6","ios":"levelo://app?vid=5cc38a9f-104a-4323-9d00-4133183d29b6"},"vehicle_type_id":"4","last_reported":1746177028,"current_range_meters":17600,"station_id":"ce4bh2p2rcd13ifvqdi0","pricing_plan_id":"cebpf4jnsgd1na2vs0mg"},{"bike_id":"07f160e1-6eeb-45e8-aa54-ee5121cd58a0","system_id":"levelo_inurba_marseille","lat":43.31495,"lon":5.37304,"is_reserved":false,"is_disabled":false,"rental_uris":{"android":"levelo://app?vid=07f160e1-6eeb-45e8-aa54-ee5121cd58a0","ios":"levelo://app?vid=07f160e1-6eeb-45e8-aa54-ee5121cd58a0"},"vehicle_type_id":"4","last_reported":1746177028,"current_range_meters":17600,"station_id":"ce4bgt12rcd13ifvqcd0","pricing_plan_id":"cebpf4jnsgd1na2vs0mg"},{"bike_id":"e3ab53ea-9d4b-43ab-befe-62153a15b856","system_id":"levelo_inurba_marseille","lat":43.33609,"lon":5.41007,"is_reserved":false,"is_disabled":false,"rental_uris":{"android":"levelo://app?vid=e3ab53ea-9d4b-43ab-befe-62153a15b856","ios":"levelo://app?vid=e3ab53ea-9d4b-43ab-befe-62153a15b856"},"vehicle_type_id":"4","last_reported":1746177028,"current_range_meters":17600,"station_id":"ce4bhqh2rcd13ifvqhmg","pricing_plan_id":"cebpf4jnsgd1na2vs0mg"},{"bike_id":"121322ff-1b29-4a85-88c0-1ab0c6c2dfb6","system_id":"levelo_inurba_marseille","lat":43.32465,"lon":5.36542,"is_reserved":false,"is_disabled":false,"rental_uris":{"android":"levelo://app?vid=121322ff-1b29-4a85-88c0-1ab0c6c2dfb6","ios":"levelo://app?vid=121322ff-1b29-4a85-88c0-1ab0c6c2dfb6"},"vehicle_type_id":"4","last_reported":1746177028,"current_range_meters":17600,"station_id":"ce4bhs12rcd13ifvqhvg","pricing_plan_id":"cebpf4jnsgd1na2vs0mg"},{"bike_id":"2554bc59-cc99-4f8e-97ae-1ab72154807a","system_id":"levelo_inurba_marseille","lat":43.282562,"lon":5.350573,"is_reserved":false,"is_disabled":false,"rental_uris":{"android":"levelo://app?vid=2554bc59-cc99-4f8e-97ae-1ab72154807a","ios":"levelo://app?vid=2554bc59-cc99-4f8e-97ae-1ab72154807a"},"vehicle_type_id":"4","last_reported":1746177028,"current_range_meters":18000,"station_id":"ce4bhbp2rcd13ifvqerg","pricing_plan_id":"cebpf4jnsgd1na2vs0mg"},{"bike_id":"724656bd-3273-4135-851a-cd600b9a313d","system_id":"levelo_inurba_marseille","lat":43.28037,"lon":5.36951,"is_reserved":false,"is_disabled":false,"rental_uris":{"android":"levelo://app?vid=724656bd-3273-4135-851a-cd600b9a313d","ios":"levelo://app?vid=724656bd-3273-4135-851a-cd600b9a313d"},"vehicle_type_id":"4","last_reported":1746177028,"current_range_meters":18000,"station_id":"ce4bha12rcd13ifvqef0","pricing_plan_id":"cebpf4jnsgd1na2vs0mg"},{"bike_id":"02f9e63b-769e-4fb4-9d2d-e5e51ef26cd2","system_id":"levelo_inurba_marseille","lat":43.24063,"lon":5.37771,"is_reserved":false,"is_disabled":false,"rental_uris":{"android":"levelo://app?vid=02f9e63b-769e-4fb4-9d2d-e5e51ef26cd2","ios":"levelo://app?vid=02f9e63b-769e-4fb4-9d2d-e5e51ef26cd2"},"vehicle_type_id":"4","last_reported":1746177028,"current_range_meters":18000,"station_id":"ce4bhnp2rcd13ifvqgvg","pricing_plan_id":"cebpf4jnsgd1na2vs0mg"},{"bike_id":"93649171-4459-4782-b5fe-da9af4a333dc","system_id":"levelo_inurba_marseille","lat":43.23599,"lon":5.40342,"is_reserved":false,"is_disabled":false,"rental_uris":{"android":"levelo://app?vid=93649171-4459-4782-b5fe-da9af4a333dc","ios":"levelo://app?vid=93649171-4459-4782-b5fe-da9af4a333dc"},"vehicle_type_id":"4","last_reported":1746177028,"current_range_meters":18000,"station_id":"","pricing_plan_id":"cebpf4jnsgd1na2vs0mg"},{"bike_id":"99a1ca1a-6617-4055-895d-cc0d7a60909a","system_id":"levelo_inurba_marseille","lat":43.258313,"lon":5.39432,"is_reserved":false,"is_disabled":false,"rental_uris":{"android":"levelo://app?vid=99a1ca1a-6617-4055-895d-cc0d7a60909a","ios":"levelo://app?vid=99a1ca1a-6617-4055-895d-cc0d7a60909a"},"vehicle_type_id":"4","last_reported":1746177028,"current_range_meters":17200,"station_id":"ce4bhip2rcd13ifvqft0","pricing_plan_id":"cebpf4jnsgd1na2vs0mg"},{"bike_id":"eb8959cd-b002-41ac-9086-13f67f9a0bf4","system_id":"levelo_inurba_marseille","lat":43.25916,"lon":5.40918,"is_reserved":false,"is_disabled":false,"rental_uris":{"android":"levelo://app?vid=eb8959cd-b002-41ac-9086-13f67f9a0bf4","ios":"levelo://app?vid=eb8959cd-b002-41ac-9086-13f67f9a0bf4"},"vehicle_type_id":"4","last_reported":1746177028,"current_range_meters":18000,"station_id":"ce4bhm92rcd13ifvqglg","pricing_plan_id":"cebpf4jnsgd1na2vs0mg"},{"bike_id":"71d5507a-48c1-4c12-947e-20cb64d39bc9","system_id":"levelo_inurba_marseille","lat":43.29366,"lon":5.37844,"is_reserved":false,"is_disabled":false,"rental_uris":{"android":"levelo://app?vid=71d5507a-48c1-4c12-947e-20cb64d39bc9","ios":"levelo://app?vid=71d5507a-48c1-4c12-947e-20cb64d39bc9"},"vehicle_type_id":"4","last_reported":1746177028,"current_range_meters":18800,"station_id":"ce4bgjh2rcd13ifvqbf0","pricing_plan_id":"cebpf4jnsgd1na2vs0mg"},{"bike_id":"05a849e2-6707-41cc-9043-aff49de54929","system_id":"levelo_inurba_marseille","lat":43.27497,"lon":5.42444,"is_reserved":false,"is_disabled":false,"rental_uris":{"android":"levelo://app?vid=05a849e2-6707-41cc-9043-aff49de54929","ios":"levelo://app?vid=05a849e2-6707-41cc-9043-aff49de54929"},"vehicle_type_id":"4","last_reported":1746177028,"current_range_meters":18800,"station_id":"ce4bhn92rcd13ifvqgrg","pricing_plan_id":"cebpf4jnsgd1na2vs0mg"},{"bike_id":"b51f957b-b6bc-4e6d-be6f-3d28e8153b30","system_id":"levelo_inurba_marseille","lat":43.30945,"lon":5.39025,"is_reserved":false,"is_disabled":false,"rental_uris":{"android":"levelo://app?vid=b51f957b-b6bc-4e6d-be6f-3d28e8153b30","ios":"levelo://app?vid=b51f957b-b6bc-4e6d-be6f-3d28e8153b30"},"vehicle_type_id":"4","last_reported":1746177028,"current_range_meters":18800,"station_id":"ce4bgup2rcd13ifvqco0","pricing_plan_id":"cebpf4jnsgd1na2vs0mg"},{"bike_id":"e0a11da1-d03c-4b6c-8c29-656c296ba0ff","system_id":"levelo_inurba_marseille","lat":43.27823,"lon":5.39216,"is_reserved":false,"is_disabled":false,"rental_uris":{"android":"levelo://app?vid=e0a11da1-d03c-4b6c-8c29-656c296ba0ff","ios":"levelo://app?vid=e0a11da1-d03c-4b6c-8c29-656c296ba0ff"},"vehicle_type_id":"4","last_reported":1746177028,"current_range_meters":18800,"station_id":"ce4bhjp2rcd13ifvqga0","pricing_plan_id":"cebpf4jnsgd1na2vs0mg"},{"bike_id":"efaf1b5c-26d3-40d3-92e9-7f3883b8db84","system_id":"levelo_inurba_marseille","lat":43.31715,"lon":5.37682,"is_reserved":false,"is_disabled":false,"rental_uris":{"android":"levelo://app?vid=efaf1b5c-26d3-40d3-92e9-7f3883b8db84","ios":"levelo://app?vid=efaf1b5c-26d3-40d3-92e9-7f3883b8db84"},"vehicle_type_id":"4","last_reported":1746177028,"current_range_meters":18800,"station_id":"ce4bgth2rcd13ifvqch0","pricing_plan_id":"cebpf4jnsgd1na2vs0mg"},{"bike_id":"dba9ba17-e428-4ea5-8f87-68d0e015019e","system_id":"levelo_inurba_marseille","lat":43.295282,"lon":5.38542,"is_reserved":false,"is_disabled":false,"rental_uris":{"android":"levelo://app?vid=dba9ba17-e428-4ea5-8f87-68d0e015019e","ios":"levelo://app?vid=dba9ba17-e428-4ea5-8f87-68d0e015019e"},"vehicle_type_id":"4","last_reported":1746177028,"current_range_meters":18800,"station_id":"ce4bgih2rcd13ifvqba0","pricing_plan_id":"cebpf4jnsgd1na2vs0mg"},{"bike_id":"72accc23-dced-424c-b834-2ab972b49116","system_id":"levelo_inurba_marseille","lat":43.211941,"lon":5.350713,"is_reserved":false,"is_disabled":true,"rental_uris":{"android":"levelo://app?vid=72accc23-dced-424c-b834-2ab972b49116","ios":"levelo://app?vid=72accc23-dced-424c-b834-2ab972b49116"},"vehicle_type_id":"4","last_reported":1746177028,"current_range_meters":19200,"station_id":"","pricing_plan_id":"cebpf4jnsgd1na2vs0mg"},{"bike_id":"ab67c3c4-aa68-4dbd-a0fd-9183be392656","system_id":"levelo_inurba_marseille","lat":43.22502,"lon":5.34784,"is_reserved":false,"is_disabled":false,"rental_uris":{"android":"levelo://app?vid=ab67c3c4-aa68-4dbd-a0fd-9183be392656","ios":"levelo://app?vid=ab67c3c4-aa68-4dbd-a0fd-9183be392656"},"vehicle_type_id":"4","last_reported":1746177028,"current_range_meters":19200,"station_id":"","pricing_plan_id":"cebpf4jnsgd1na2vs0mg"},{"bike_id":"ad6fdfc9-e239-49ec-94be-8050edfbc0f8","system_id":"levelo_inurba_marseille","lat":43.25113,"lon":5.40317,"is_reserved":false,"is_disabled":false,"rental_uris":{"android":"levelo://app?vid=ad6fdfc9-e239-49ec-94be-8050edfbc0f8","ios":"levelo://app?vid=ad6fdfc9-e239-49ec-94be-8050edfbc0f8"},"vehicle_type_id":"4","last_reported":1746177028,"current_range_meters":19200,"station_id":"ce4bhlh2rcd13ifvqgig","pricing_plan_id":"cebpf4jnsgd1na2vs0mg"},{"bike_id":"c069ce18-79b3-4478-8c0f-3948d9aedd09","system_id":"levelo_inurba_marseille","lat":43.29274,"lon":5.36846,"is_reserved":false,"is_disabled":false,"rental_uris":{"android":"levelo://app?vid=c069ce18-79b3-4478-8c0f-3948d9aedd09","ios":"levelo://app?vid=c069ce18-79b3-4478-8c0f-3948d9aedd09"},"vehicle_type_id":"4","last_reported":1746177028,"current_range_meters":19200,"station_id":"ce4bhbp2rcd13ifvqesg","pricing_plan_id":"cebpf4jnsgd1na2vs0mg"},{"bike_id":"e096251f-6366-4ffe-b17b-c66bdf0d0283","system_id":"levelo_inurba_marseille","lat":43.29513,"lon":5.39021,"is_reserved":false,"is_disabled":false,"rental_uris":{"android":"levelo://app?vid=e096251f-6366-4ffe-b17b-c66bdf0d0283","ios":"levelo://app?vid=e096251f-6366-4ffe-b17b-c66bdf0d0283"},"vehicle_type_id":"4","last_reported":1746177028,"current_range_meters":19200,"station_id":"ce4bh3p2rcd13ifvqdp0","pricing_plan_id":"cebpf4jnsgd1na2vs0mg"},{"bike_id":"0aec488f-6526-445c-8df9-e8b13a4a63c7","system_id":"levelo_inurba_marseille","lat":43.26193,"lon":5.37449,"is_reserved":false,"is_disabled":false,"rental_uris":{"android":"levelo://app?vid=0aec488f-6526-445c-8df9-e8b13a4a63c7","ios":"levelo://app?vid=0aec488f-6526-445c-8df9-e8b13a4a63c7"},"vehicle_type_id":"4","last_reported":1746177028,"current_range_meters":19600,"station_id":"ce4bhgp2rcd13ifvqfc0","pricing_plan_id":"cebpf4jnsgd1na2vs0mg"},{"bike_id":"8d98f797-09b2-464c-bda2-6594a6df8caa","system_id":"levelo_inurba_marseille","lat":43.27372,"lon":5.3627,"is_reserved":false,"is_disabled":false,"rental_uris":{"android":"levelo://app?vid=8d98f797-09b2-464c-bda2-6594a6df8caa","ios":"levelo://app?vid=8d98f797-09b2-464c-bda2-6594a6df8caa"},"vehicle_type_id":"4","last_reported":1746177028,"current_range_meters":19600,"station_id":"ce4bhbh2rcd13ifvqeo0","pricing_plan_id":"cebpf4jnsgd1na2vs0mg"},{"bike_id":"4cb2b56b-a1e2-438e-b725-89e4eb8b110b","system_id":"levelo_inurba_marseille","lat":43.23955,"lon":5.36661,"is_reserved":false,"is_disabled":false,"rental_uris":{"android":"levelo://app?vid=4cb2b56b-a1e2-438e-b725-89e4eb8b110b","ios":"levelo://app?vid=4cb2b56b-a1e2-438e-b725-89e4eb8b110b"},"vehicle_type_id":"4","last_reported":1746177028,"current_range_meters":20000,"station_id":"ce4bhi12rcd13ifvqfp0","pricing_plan_id":"cebpf4jnsgd1na2vs0mg"},{"bike_id":"2560132a-5276-428e-8a01-c93c27a667b0","system_id":"levelo_inurba_marseille","lat":43.23174,"lon":5.39981,"is_reserved":false,"is_disabled":false,"rental_uris":{"android":"levelo://app?vid=2560132a-5276-428e-8a01-c93c27a667b0","ios":"levelo://app?vid=2560132a-5276-428e-8a01-c93c27a667b0"},"vehicle_type_id":"4","last_reported":1746177028,"current_range_meters":20000,"station_id":"ce4bhn12rcd13ifvqgqg","pricing_plan_id":"cebpf4jnsgd1na2vs0mg"},{"bike_id":"7d1a9982-56f7-4afa-9eb5-6a3308abcc10","system_id":"levelo_inurba_marseille","lat":43.31726,"lon":5.40451,"is_reserved":false,"is_disabled":false,"rental_uris":{"android":"levelo://app?vid=7d1a9982-56f7-4afa-9eb5-6a3308abcc10","ios":"levelo://app?vid=7d1a9982-56f7-4afa-9eb5-6a3308abcc10"},"vehicle_type_id":"4","last_reported":1746177028,"current_range_meters":20000,"station_id":"","pricing_plan_id":"cebpf4jnsgd1na2vs0mg"},{"bike_id":"ca224a88-d49d-40bb-8b9c-50e440e5545b","system_id":"levelo_inurba_marseille","lat":43.28348,"lon":5.38102,"is_reserved":false,"is_disabled":false,"rental_uris":{"android":"levelo://app?vid=ca224a88-d49d-40bb-8b9c-50e440e5545b","ios":"levelo://app?vid=ca224a88-d49d-40bb-8b9c-50e440e5545b"},"vehicle_type_id":"4","last_reported":1746177028,"current_range_meters":20000,"station_id":"ce4bh412rcd13ifvqdr0","pricing_plan_id":"cebpf4jnsgd1na2vs0mg"},{"bike_id":"fb970dc0-2974-4aad-b2a9-f4298230f16a","system_id":"levelo_inurba_marseille","lat":43.2315,"lon":5.43705,"is_reserved":false,"is_disabled":false,"rental_uris":{"android":"levelo://app?vid=fb970dc0-2974-4aad-b2a9-f4298230f16a","ios":"levelo://app?vid=fb970dc0-2974-4aad-b2a9-f4298230f16a"},"vehicle_type_id":"4","last_reported":1746177028,"current_range_meters":20400,"station_id":"ce4bhmp2rcd13ifvqgog","pricing_plan_id":"cebpf4jnsgd1na2vs0mg"},{"bike_id":"80ea70ea-3289-4a9c-a4f0-785ac48fd438","system_id":"levelo_inurba_marseille","lat":43.29506,"lon":5.37512,"is_reserved":false,"is_disabled":false,"rental_uris":{"android":"levelo://app?vid=80ea70ea-3289-4a9c-a4f0-785ac48fd438","ios":"levelo://app?vid=80ea70ea-3289-4a9c-a4f0-785ac48fd438"},"vehicle_type_id":"4","last_reported":1746177028,"current_range_meters":20400,"station_id":"ce4bgkp2rcd13ifvqbmg","pricing_plan_id":"cebpf4jnsgd1na2vs0mg"},{"bike_id":"0be1bdc9-48c9-46f9-9d2a-c37a7132c02f","system_id":"levelo_inurba_marseille","lat":43.25084,"lon":5.3953,"is_reserved":false,"is_disabled":false,"rental_uris":{"android":"levelo://app?vid=0be1bdc9-48c9-46f9-9d2a-c37a7132c02f","ios":"levelo://app?vid=0be1bdc9-48c9-46f9-9d2a-c37a7132c02f"},"vehicle_type_id":"4","last_reported":1746177028,"current_range_meters":20400,"station_id":"ce4bhm12rcd13ifvqgkg","pricing_plan_id":"cebpf4jnsgd1na2vs0mg"},{"bike_id":"fd83b218-4b48-42ed-8eb2-460c741f0d43","system_id":"levelo_inurba_marseille","lat":43.29837,"lon":5.36276,"is_reserved":false,"is_disabled":false,"rental_uris":{"android":"levelo://app?vid=fd83b218-4b48-42ed-8eb2-460c741f0d43","ios":"levelo://app?vid=fd83b218-4b48-42ed-8eb2-460c741f0d43"},"vehicle_type_id":"4","last_reported":1746177028,"current_range_meters":20400,"station_id":"ce4bgpp2rcd13ifvqc3g","pricing_plan_id":"cebpf4jnsgd1na2vs0mg"},{"bike_id":"bc8a5da5-6ddc-4873-83ce-d7ba240ecae6","system_id":"levelo_inurba_marseille","lat":43.29708,"lon":5.376903,"is_reserved":false,"is_disabled":false,"rental_uris":{"android":"levelo://app?vid=bc8a5da5-6ddc-4873-83ce-d7ba240ecae6","ios":"levelo://app?vid=bc8a5da5-6ddc-4873-83ce-d7ba240ecae6"},"vehicle_type_id":"4","last_reported":1746177028,"current_range_meters":20400,"station_id":"ce4bgkh2rcd13ifvqbl0","pricing_plan_id":"cebpf4jnsgd1na2vs0mg"},{"bike_id":"d0617977-0668-4911-bc65-ef0d939950c5","system_id":"levelo_inurba_marseille","lat":43.28268,"lon":5.3506,"is_reserved":false,"is_disabled":false,"rental_uris":{"android":"levelo://app?vid=d0617977-0668-4911-bc65-ef0d939950c5","ios":"levelo://app?vid=d0617977-0668-4911-bc65-ef0d939950c5"},"vehicle_type_id":"4","last_reported":1746177028,"current_range_meters":20400,"station_id":"ce4bhbp2rcd13ifvqerg","pricing_plan_id":"cebpf4jnsgd1na2vs0mg"},{"bike_id":"fe583f86-fecd-41c3-bd8b-8ba8ebc7db3d","system_id":"levelo_inurba_marseille","lat":43.24082,"lon":5.37741,"is_reserved":false,"is_disabled":false,"rental_uris":{"android":"levelo://app?vid=fe583f86-fecd-41c3-bd8b-8ba8ebc7db3d","ios":"levelo://app?vid=fe583f86-fecd-41c3-bd8b-8ba8ebc7db3d"},"vehicle_type_id":"4","last_reported":1746177028,"current_range_meters":20400,"station_id":"ce4bhnp2rcd13ifvqgvg","pricing_plan_id":"cebpf4jnsgd1na2vs0mg"},{"bike_id":"0006e8d5-2d35-4992-8071-d1f67d32343a","system_id":"levelo_inurba_marseille","lat":43.30478,"lon":5.37895,"is_reserved":false,"is_disabled":false,"rental_uris":{"android":"levelo://app?vid=0006e8d5-2d35-4992-8071-d1f67d32343a","ios":"levelo://app?vid=0006e8d5-2d35-4992-8071-d1f67d32343a"},"vehicle_type_id":"4","last_reported":1746177028,"current_range_meters":20400,"station_id":"ce4bgup2rcd13ifvqcn0","pricing_plan_id":"cebpf4jnsgd1na2vs0mg"},{"bike_id":"5aaa0796-22cb-4134-8a3c-e3f47465c117","system_id":"levelo_inurba_marseille","lat":43.29556,"lon":5.39378,"is_reserved":false,"is_disabled":false,"rental_uris":{"android":"levelo://app?vid=5aaa0796-22cb-4134-8a3c-e3f47465c117","ios":"levelo://app?vid=5aaa0796-22cb-4134-8a3c-e3f47465c117"},"vehicle_type_id":"4","last_reported":1746177028,"current_range_meters":20800,"station_id":"","pricing_plan_id":"cebpf4jnsgd1na2vs0mg"},{"bike_id":"bf91ae32-1ceb-403c-9518-e11bb8446e69","system_id":"levelo_inurba_marseille","lat":43.28256,"lon":5.35061,"is_reserved":false,"is_disabled":false,"rental_uris":{"android":"levelo://app?vid=bf91ae32-1ceb-403c-9518-e11bb8446e69","ios":"levelo://app?vid=bf91ae32-1ceb-403c-9518-e11bb8446e69"},"vehicle_type_id":"4","last_reported":1746177028,"current_range_meters":20800,"station_id":"ce4bhbp2rcd13ifvqerg","pricing_plan_id":"cebpf4jnsgd1na2vs0mg"},{"bike_id":"a3d02754-1035-4a04-b340-c9237d4b162e","system_id":"levelo_inurba_marseille","lat":43.27318,"lon":5.39099,"is_reserved":false,"is_disabled":false,"rental_uris":{"android":"levelo://app?vid=a3d02754-1035-4a04-b340-c9237d4b162e","ios":"levelo://app?vid=a3d02754-1035-4a04-b340-c9237d4b162e"},"vehicle_type_id":"4","last_reported":1746177028,"current_range_meters":20800,"station_id":"ce4bhgp2rcd13ifvqfe0","pricing_plan_id":"cebpf4jnsgd1na2vs0mg"},{"bike_id":"d4a68adb-1c58-40c4-948b-5030d56b0223","system_id":"levelo_inurba_marseille","lat":43.32116,"lon":5.36763,"is_reserved":false,"is_disabled":false,"rental_uris":{"android":"levelo://app?vid=d4a68adb-1c58-40c4-948b-5030d56b0223","ios":"levelo://app?vid=d4a68adb-1c58-40c4-948b-5030d56b0223"},"vehicle_type_id":"4","last_reported":1746177028,"current_range_meters":20800,"station_id":"ce4bhrh2rcd13ifvqhug","pricing_plan_id":"cebpf4jnsgd1na2vs0mg"},{"bike_id":"baf4561c-9bda-477a-8871-110377773ec1","system_id":"levelo_inurba_marseille","lat":43.281595,"lon":5.42631,"is_reserved":false,"is_disabled":false,"rental_uris":{"android":"levelo://app?vid=baf4561c-9bda-477a-8871-110377773ec1","ios":"levelo://app?vid=baf4561c-9bda-477a-8871-110377773ec1"},"vehicle_type_id":"4","last_reported":1746177028,"current_range_meters":21600,"station_id":"ce4bhnh2rcd13ifvqgug","pricing_plan_id":"cebpf4jnsgd1na2vs0mg"},{"bike_id":"e0ceefc0-61c9-406f-91eb-ef69db9dbe42","system_id":"levelo_inurba_marseille","lat":43.2612,"lon":5.41463,"is_reserved":false,"is_disabled":false,"rental_uris":{"android":"levelo://app?vid=e0ceefc0-61c9-406f-91eb-ef69db9dbe42","ios":"levelo://app?vid=e0ceefc0-61c9-406f-91eb-ef69db9dbe42"},"vehicle_type_id":"4","last_reported":1746177028,"current_range_meters":21600,"station_id":"","pricing_plan_id":"cebpf4jnsgd1na2vs0mg"},{"bike_id":"e42d68f1-33c5-414b-bb74-da59eb1f85d9","system_id":"levelo_inurba_marseille","lat":43.2797,"lon":5.38734,"is_reserved":false,"is_disabled":false,"rental_uris":{"android":"levelo://app?vid=e42d68f1-33c5-414b-bb74-da59eb1f85d9","ios":"levelo://app?vid=e42d68f1-33c5-414b-bb74-da59eb1f85d9"},"vehicle_type_id":"4","last_reported":1746177028,"current_range_meters":21600,"station_id":"ce4bhg12rcd13ifvqf80","pricing_plan_id":"cebpf4jnsgd1na2vs0mg"},{"bike_id":"e35f572d-fc98-4676-a2c2-b6fab78a24cc","system_id":"levelo_inurba_marseille","lat":43.21749,"lon":5.34606,"is_reserved":false,"is_disabled":false,"rental_uris":{"android":"levelo://app?vid=e35f572d-fc98-4676-a2c2-b6fab78a24cc","ios":"levelo://app?vid=e35f572d-fc98-4676-a2c2-b6fab78a24cc"},"vehicle_type_id":"4","last_reported":1746177028,"current_range_meters":21600,"station_id":"st_cvj6r9ubvosntc0bgbag","pricing_plan_id":"cebpf4jnsgd1na2vs0mg"},{"bike_id":"5e02dcd3-0b36-4496-85c5-af240a1e0adb","system_id":"levelo_inurba_marseille","lat":43.28608,"lon":5.35107,"is_reserved":false,"is_disabled":false,"rental_uris":{"android":"levelo://app?vid=5e02dcd3-0b36-4496-85c5-af240a1e0adb","ios":"levelo://app?vid=5e02dcd3-0b36-4496-85c5-af240a1e0adb"},"vehicle_type_id":"4","last_reported":1746177028,"current_range_meters":21600,"station_id":"ce4bhch2rcd13ifvqeug","pricing_plan_id":"cebpf4jnsgd1na2vs0mg"},{"bike_id":"6d36d6b5-6623-400a-b18e-5bed36f0f54a","system_id":"levelo_inurba_marseille","lat":43.29557,"lon":5.42291,"is_reserved":false,"is_disabled":false,"rental_uris":{"android":"levelo://app?vid=6d36d6b5-6623-400a-b18e-5bed36f0f54a","ios":"levelo://app?vid=6d36d6b5-6623-400a-b18e-5bed36f0f54a"},"vehicle_type_id":"4","last_reported":1746177028,"current_range_meters":20800,"station_id":"ce4bhph2rcd13ifvqhdg","pricing_plan_id":"cebpf4jnsgd1na2vs0mg"},{"bike_id":"ae2052b1-2d27-459c-9815-d524ef6e261c","system_id":"levelo_inurba_marseille","lat":43.28948,"lon":5.36403,"is_reserved":false,"is_disabled":false,"rental_uris":{"android":"levelo://app?vid=ae2052b1-2d27-459c-9815-d524ef6e261c","ios":"levelo://app?vid=ae2052b1-2d27-459c-9815-d524ef6e261c"},"vehicle_type_id":"4","last_reported":1746177028,"current_range_meters":20800,"station_id":"ce4bhc92rcd13ifvqetg","pricing_plan_id":"cebpf4jnsgd1na2vs0mg"},{"bike_id":"2fa0606e-0900-48b7-a24b-51cd6082d20a","system_id":"levelo_inurba_marseille","lat":43.23968,"lon":5.36631,"is_reserved":false,"is_disabled":false,"rental_uris":{"android":"levelo://app?vid=2fa0606e-0900-48b7-a24b-51cd6082d20a","ios":"levelo://app?vid=2fa0606e-0900-48b7-a24b-51cd6082d20a"},"vehicle_type_id":"4","last_reported":1746177028,"current_range_meters":21600,"station_id":"ce4bhi12rcd13ifvqfp0","pricing_plan_id":"cebpf4jnsgd1na2vs0mg"},{"bike_id":"a966bfc7-a30e-4ad3-a6db-ba93c79ad273","system_id":"levelo_inurba_marseille","lat":43.31327,"lon":5.39694,"is_reserved":false,"is_disabled":false,"rental_uris":{"android":"levelo://app?vid=a966bfc7-a30e-4ad3-a6db-ba93c79ad273","ios":"levelo://app?vid=a966bfc7-a30e-4ad3-a6db-ba93c79ad273"},"vehicle_type_id":"4","last_reported":1746177028,"current_range_meters":21600,"station_id":"ce4bgvp2rcd13ifvqcu0","pricing_plan_id":"cebpf4jnsgd1na2vs0mg"},{"bike_id":"6ca88b8d-a671-43ed-966a-07b7e6d6703d","system_id":"levelo_inurba_marseille","lat":43.30883,"lon":5.37193,"is_reserved":false,"is_disabled":false,"rental_uris":{"android":"levelo://app?vid=6ca88b8d-a671-43ed-966a-07b7e6d6703d","ios":"levelo://app?vid=6ca88b8d-a671-43ed-966a-07b7e6d6703d"},"vehicle_type_id":"4","last_reported":1746177028,"current_range_meters":21600,"station_id":"ce4bguh2rcd13ifvqckg","pricing_plan_id":"cebpf4jnsgd1na2vs0mg"},{"bike_id":"dfe261a3-e4cf-4332-badf-f1dd348d92fe","system_id":"levelo_inurba_marseille","lat":43.29269,"lon":5.37632,"is_reserved":false,"is_disabled":false,"rental_uris":{"android":"levelo://app?vid=dfe261a3-e4cf-4332-badf-f1dd348d92fe","ios":"levelo://app?vid=dfe261a3-e4cf-4332-badf-f1dd348d92fe"},"vehicle_type_id":"4","last_reported":1746177028,"current_range_meters":21600,"station_id":"ce4bgi12rcd13ifvqb80","pricing_plan_id":"cebpf4jnsgd1na2vs0mg"},{"bike_id":"f1094f93-fd43-4c0c-8aa6-ebefd9701c01","system_id":"levelo_inurba_marseille","lat":43.30301,"lon":5.37698,"is_reserved":false,"is_disabled":false,"rental_uris":{"android":"levelo://app?vid=f1094f93-fd43-4c0c-8aa6-ebefd9701c01","ios":"levelo://app?vid=f1094f93-fd43-4c0c-8aa6-ebefd9701c01"},"vehicle_type_id":"4","last_reported":1746177028,"current_range_meters":21600,"station_id":"ce4bguh2rcd13ifvqcj0","pricing_plan_id":"cebpf4jnsgd1na2vs0mg"},{"bike_id":"4bd5d598-beef-4914-8a09-5882dc6565dd","system_id":"levelo_inurba_marseille","lat":43.28263,"lon":5.3506,"is_reserved":false,"is_disabled":false,"rental_uris":{"android":"levelo://app?vid=4bd5d598-beef-4914-8a09-5882dc6565dd","ios":"levelo://app?vid=4bd5d598-beef-4914-8a09-5882dc6565dd"},"vehicle_type_id":"4","last_reported":1746177028,"current_range_meters":18800,"station_id":"ce4bhbp2rcd13ifvqerg","pricing_plan_id":"cebpf4jnsgd1na2vs0mg"},{"bike_id":"db532f4f-1f07-4067-95dc-12227f679d64","system_id":"levelo_inurba_marseille","lat":43.309295,"lon":5.367244,"is_reserved":false,"is_disabled":false,"rental_uris":{"android":"levelo://app?vid=db532f4f-1f07-4067-95dc-12227f679d64","ios":"levelo://app?vid=db532f4f-1f07-4067-95dc-12227f679d64"},"vehicle_type_id":"4","last_reported":1746177028,"current_range_meters":22000,"station_id":"","pricing_plan_id":"cebpf4jnsgd1na2vs0mg"},{"bike_id":"5a23dc68-1089-41bd-a6b5-d16093232ac0","system_id":"levelo_inurba_marseille","lat":43.30902,"lon":5.36845,"is_reserved":false,"is_disabled":false,"rental_uris":{"android":"levelo://app?vid=5a23dc68-1089-41bd-a6b5-d16093232ac0","ios":"levelo://app?vid=5a23dc68-1089-41bd-a6b5-d16093232ac0"},"vehicle_type_id":"4","last_reported":1746177028,"current_range_meters":22000,"station_id":"ce4bgn92rcd13ifvqbvg","pricing_plan_id":"cebpf4jnsgd1na2vs0mg"},{"bike_id":"1c79dc1c-0be3-4ce7-8f51-a28694a017bd","system_id":"levelo_inurba_marseille","lat":43.21748,"lon":5.346,"is_reserved":false,"is_disabled":false,"rental_uris":{"android":"levelo://app?vid=1c79dc1c-0be3-4ce7-8f51-a28694a017bd","ios":"levelo://app?vid=1c79dc1c-0be3-4ce7-8f51-a28694a017bd"},"vehicle_type_id":"4","last_reported":1746177028,"current_range_meters":22400,"station_id":"st_cvj6r9ubvosntc0bgbag","pricing_plan_id":"cebpf4jnsgd1na2vs0mg"},{"bike_id":"562eabbf-7382-4be2-a968-6a24d64bc7f3","system_id":"levelo_inurba_marseille","lat":43.270687,"lon":5.422723,"is_reserved":false,"is_disabled":false,"rental_uris":{"android":"levelo://app?vid=562eabbf-7382-4be2-a968-6a24d64bc7f3","ios":"levelo://app?vid=562eabbf-7382-4be2-a968-6a24d64bc7f3"},"vehicle_type_id":"4","last_reported":1746177028,"current_range_meters":22400,"station_id":"ce4bhk92rcd13ifvqgb0","pricing_plan_id":"cebpf4jnsgd1na2vs0mg"},{"bike_id":"b32f4313-0328-4175-a7c4-365f0b3de7c2","system_id":"levelo_inurba_marseille","lat":43.28682,"lon":5.38666,"is_reserved":false,"is_disabled":false,"rental_uris":{"android":"levelo://app?vid=b32f4313-0328-4175-a7c4-365f0b3de7c2","ios":"levelo://app?vid=b32f4313-0328-4175-a7c4-365f0b3de7c2"},"vehicle_type_id":"4","last_reported":1746177028,"current_range_meters":22400,"station_id":"ce4bh492rcd13ifvqdug","pricing_plan_id":"cebpf4jnsgd1na2vs0mg"},{"bike_id":"d3b1021a-8bdb-46a7-8c5a-b68b2f75cb3a","system_id":"levelo_inurba_marseille","lat":43.23184,"lon":5.39981,"is_reserved":false,"is_disabled":false,"rental_uris":{"android":"levelo://app?vid=d3b1021a-8bdb-46a7-8c5a-b68b2f75cb3a","ios":"levelo://app?vid=d3b1021a-8bdb-46a7-8c5a-b68b2f75cb3a"},"vehicle_type_id":"4","last_reported":1746177028,"current_range_meters":22000,"station_id":"ce4bhn12rcd13ifvqgqg","pricing_plan_id":"cebpf4jnsgd1na2vs0mg"},{"bike_id":"008c013b-64b5-4db3-9c52-b2056c53ccb9","system_id":"levelo_inurba_marseille","lat":43.29263,"lon":5.37611,"is_reserved":false,"is_disabled":false,"rental_uris":{"android":"levelo://app?vid=008c013b-64b5-4db3-9c52-b2056c53ccb9","ios":"levelo://app?vid=008c013b-64b5-4db3-9c52-b2056c53ccb9"},"vehicle_type_id":"4","last_reported":1746177028,"current_range_meters":22400,"station_id":"ce4bgi12rcd13ifvqb80","pricing_plan_id":"cebpf4jnsgd1na2vs0mg"},{"bike_id":"f33b8cfa-1134-4bb3-ad4e-97c8a68d196e","system_id":"levelo_inurba_marseille","lat":43.29909,"lon":5.43666,"is_reserved":false,"is_disabled":false,"rental_uris":{"android":"levelo://app?vid=f33b8cfa-1134-4bb3-ad4e-97c8a68d196e","ios":"levelo://app?vid=f33b8cfa-1134-4bb3-ad4e-97c8a68d196e"},"vehicle_type_id":"4","last_reported":1746177028,"current_range_meters":22400,"station_id":"ce4bhpp2rcd13ifvqhfg","pricing_plan_id":"cebpf4jnsgd1na2vs0mg"},{"bike_id":"2d819c4e-a519-4daa-90d7-4637bce79740","system_id":"levelo_inurba_marseille","lat":43.30507,"lon":5.36719,"is_reserved":false,"is_disabled":false,"rental_uris":{"android":"levelo://app?vid=2d819c4e-a519-4daa-90d7-4637bce79740","ios":"levelo://app?vid=2d819c4e-a519-4daa-90d7-4637bce79740"},"vehicle_type_id":"4","last_reported":1746177028,"current_range_meters":22800,"station_id":"ce4bgrp2rcd13ifvqc9g","pricing_plan_id":"cebpf4jnsgd1na2vs0mg"},{"bike_id":"68dac166-ed34-4403-8bff-73a4a79a4cc4","system_id":"levelo_inurba_marseille","lat":43.24173,"lon":5.39722,"is_reserved":false,"is_disabled":false,"rental_uris":{"android":"levelo://app?vid=68dac166-ed34-4403-8bff-73a4a79a4cc4","ios":"levelo://app?vid=68dac166-ed34-4403-8bff-73a4a79a4cc4"},"vehicle_type_id":"4","last_reported":1746177028,"current_range_meters":22800,"station_id":"ce4bhn12rcd13ifvqgpg","pricing_plan_id":"cebpf4jnsgd1na2vs0mg"},{"bike_id":"b09c937e-91d8-45df-8c1c-d4e5f3491013","system_id":"levelo_inurba_marseille","lat":43.295288,"lon":5.38541,"is_reserved":false,"is_disabled":false,"rental_uris":{"android":"levelo://app?vid=b09c937e-91d8-45df-8c1c-d4e5f3491013","ios":"levelo://app?vid=b09c937e-91d8-45df-8c1c-d4e5f3491013"},"vehicle_type_id":"4","last_reported":1746177028,"current_range_meters":22800,"station_id":"ce4bgih2rcd13ifvqba0","pricing_plan_id":"cebpf4jnsgd1na2vs0mg"},{"bike_id":"7c36b157-8dff-4277-96f5-e8c109553fec","system_id":"levelo_inurba_marseille","lat":43.29536,"lon":5.37504,"is_reserved":false,"is_disabled":true,"rental_uris":{"android":"levelo://app?vid=7c36b157-8dff-4277-96f5-e8c109553fec","ios":"levelo://app?vid=7c36b157-8dff-4277-96f5-e8c109553fec"},"vehicle_type_id":"4","last_reported":1746177028,"current_range_meters":22800,"station_id":"ce4bgkp2rcd13ifvqbmg","pricing_plan_id":"cebpf4jnsgd1na2vs0mg"},{"bike_id":"51223260-107f-4169-8ff7-7d92715fca87","system_id":"levelo_inurba_marseille","lat":43.28154,"lon":5.4262,"is_reserved":false,"is_disabled":false,"rental_uris":{"android":"levelo://app?vid=51223260-107f-4169-8ff7-7d92715fca87","ios":"levelo://app?vid=51223260-107f-4169-8ff7-7d92715fca87"},"vehicle_type_id":"4","last_reported":1746177028,"current_range_meters":22800,"station_id":"ce4bhnh2rcd13ifvqgug","pricing_plan_id":"cebpf4jnsgd1na2vs0mg"},{"bike_id":"e9d35ebe-8a8e-45e7-9447-fd658a09a5f4","system_id":"levelo_inurba_marseille","lat":43.305532,"lon":5.367066,"is_reserved":false,"is_disabled":false,"rental_uris":{"android":"levelo://app?vid=e9d35ebe-8a8e-45e7-9447-fd658a09a5f4","ios":"levelo://app?vid=e9d35ebe-8a8e-45e7-9447-fd658a09a5f4"},"vehicle_type_id":"4","last_reported":1746177028,"current_range_meters":22800,"station_id":"ce4bgrp2rcd13ifvqc9g","pricing_plan_id":"cebpf4jnsgd1na2vs0mg"},{"bike_id":"61d7efae-8860-4fd1-a1bd-79c76c509b24","system_id":"levelo_inurba_marseille","lat":43.295286,"lon":5.385439,"is_reserved":false,"is_disabled":false,"rental_uris":{"android":"levelo://app?vid=61d7efae-8860-4fd1-a1bd-79c76c509b24","ios":"levelo://app?vid=61d7efae-8860-4fd1-a1bd-79c76c509b24"},"vehicle_type_id":"4","last_reported":1746177028,"current_range_meters":22800,"station_id":"ce4bgih2rcd13ifvqba0","pricing_plan_id":"cebpf4jnsgd1na2vs0mg"},{"bike_id":"2858f131-2e6d-4d46-af3a-4d8fabeb6445","system_id":"levelo_inurba_marseille","lat":43.23179,"lon":5.3998,"is_reserved":false,"is_disabled":false,"rental_uris":{"android":"levelo://app?vid=2858f131-2e6d-4d46-af3a-4d8fabeb6445","ios":"levelo://app?vid=2858f131-2e6d-4d46-af3a-4d8fabeb6445"},"vehicle_type_id":"4","last_reported":1746177028,"current_range_meters":23200,"station_id":"ce4bhn12rcd13ifvqgqg","pricing_plan_id":"cebpf4jnsgd1na2vs0mg"},{"bike_id":"6e5978d6-de64-47c0-99f8-b5d78d75c802","system_id":"levelo_inurba_marseille","lat":43.30563,"lon":5.36515,"is_reserved":false,"is_disabled":false,"rental_uris":{"android":"levelo://app?vid=6e5978d6-de64-47c0-99f8-b5d78d75c802","ios":"levelo://app?vid=6e5978d6-de64-47c0-99f8-b5d78d75c802"},"vehicle_type_id":"4","last_reported":1746177028,"current_range_meters":23200,"station_id":"ce4bgs12rcd13ifvqcag","pricing_plan_id":"cebpf4jnsgd1na2vs0mg"},{"bike_id":"31c99700-c557-4b69-aae2-b2b2564d43aa","system_id":"levelo_inurba_marseille","lat":43.31714,"lon":5.40436,"is_reserved":false,"is_disabled":false,"rental_uris":{"android":"levelo://app?vid=31c99700-c557-4b69-aae2-b2b2564d43aa","ios":"levelo://app?vid=31c99700-c557-4b69-aae2-b2b2564d43aa"},"vehicle_type_id":"4","last_reported":1746177028,"current_range_meters":23200,"station_id":"ce4bh012rcd13ifvqd00","pricing_plan_id":"cebpf4jnsgd1na2vs0mg"},{"bike_id":"a7b35c25-4ec6-40d9-9a8d-c46927e486df","system_id":"levelo_inurba_marseille","lat":43.29294,"lon":5.37176,"is_reserved":false,"is_disabled":true,"rental_uris":{"android":"levelo://app?vid=a7b35c25-4ec6-40d9-9a8d-c46927e486df","ios":"levelo://app?vid=a7b35c25-4ec6-40d9-9a8d-c46927e486df"},"vehicle_type_id":"4","last_reported":1746177028,"current_range_meters":23200,"station_id":"ce4bgh92rcd13ifvqb40","pricing_plan_id":"cebpf4jnsgd1na2vs0mg"},{"bike_id":"08fa8c3b-2967-464c-a9bb-79b2ebbafd9f","system_id":"levelo_inurba_marseille","lat":43.26227,"lon":5.40452,"is_reserved":false,"is_disabled":false,"rental_uris":{"android":"levelo://app?vid=08fa8c3b-2967-464c-a9bb-79b2ebbafd9f","ios":"levelo://app?vid=08fa8c3b-2967-464c-a9bb-79b2ebbafd9f"},"vehicle_type_id":"4","last_reported":1746177028,"current_range_meters":23200,"station_id":"ce4bhmh2rcd13ifvqgmg","pricing_plan_id":"cebpf4jnsgd1na2vs0mg"},{"bike_id":"bbd177a6-0aa1-4f10-93e8-09f022cfb46b","system_id":"levelo_inurba_marseille","lat":43.30249,"lon":5.40047,"is_reserved":false,"is_disabled":false,"rental_uris":{"android":"levelo://app?vid=bbd177a6-0aa1-4f10-93e8-09f022cfb46b","ios":"levelo://app?vid=bbd177a6-0aa1-4f10-93e8-09f022cfb46b"},"vehicle_type_id":"4","last_reported":1746177028,"current_range_meters":23200,"station_id":"ce4bgvh2rcd13ifvqcs0","pricing_plan_id":"cebpf4jnsgd1na2vs0mg"},{"bike_id":"bcae2b09-2774-4605-b53d-67897fadc9d5","system_id":"levelo_inurba_marseille","lat":43.23971,"lon":5.36625,"is_reserved":false,"is_disabled":false,"rental_uris":{"android":"levelo://app?vid=bcae2b09-2774-4605-b53d-67897fadc9d5","ios":"levelo://app?vid=bcae2b09-2774-4605-b53d-67897fadc9d5"},"vehicle_type_id":"4","last_reported":1746177028,"current_range_meters":23200,"station_id":"","pricing_plan_id":"cebpf4jnsgd1na2vs0mg"},{"bike_id":"b4c5fa3f-21e4-45ac-874c-a536ce7e90eb","system_id":"levelo_inurba_marseille","lat":43.30277,"lon":5.37705,"is_reserved":false,"is_disabled":false,"rental_uris":{"android":"levelo://app?vid=b4c5fa3f-21e4-45ac-874c-a536ce7e90eb","ios":"levelo://app?vid=b4c5fa3f-21e4-45ac-874c-a536ce7e90eb"},"vehicle_type_id":"4","last_reported":1746177028,"current_range_meters":24000,"station_id":"ce4bguh2rcd13ifvqcj0","pricing_plan_id":"cebpf4jnsgd1na2vs0mg"},{"bike_id":"5e291053-dfbf-43dc-9058-2c7b2dfcab52","system_id":"levelo_inurba_marseille","lat":43.23221,"lon":5.39975,"is_reserved":false,"is_disabled":false,"rental_uris":{"android":"levelo://app?vid=5e291053-dfbf-43dc-9058-2c7b2dfcab52","ios":"levelo://app?vid=5e291053-dfbf-43dc-9058-2c7b2dfcab52"},"vehicle_type_id":"4","last_reported":1746177028,"current_range_meters":24000,"station_id":"ce4bhn12rcd13ifvqgqg","pricing_plan_id":"cebpf4jnsgd1na2vs0mg"},{"bike_id":"776b1c04-a75a-4391-9b90-31767f11ae36","system_id":"levelo_inurba_marseille","lat":43.23178,"lon":5.39992,"is_reserved":false,"is_disabled":false,"rental_uris":{"android":"levelo://app?vid=776b1c04-a75a-4391-9b90-31767f11ae36","ios":"levelo://app?vid=776b1c04-a75a-4391-9b90-31767f11ae36"},"vehicle_type_id":"4","last_reported":1746177028,"current_range_meters":24000,"station_id":"ce4bhn12rcd13ifvqgqg","pricing_plan_id":"cebpf4jnsgd1na2vs0mg"},{"bike_id":"a27cebee-4316-4011-88c3-9c7b44d63ce1","system_id":"levelo_inurba_marseille","lat":43.27508,"lon":5.42441,"is_reserved":false,"is_disabled":true,"rental_uris":{"android":"levelo://app?vid=a27cebee-4316-4011-88c3-9c7b44d63ce1","ios":"levelo://app?vid=a27cebee-4316-4011-88c3-9c7b44d63ce1"},"vehicle_type_id":"4","last_reported":1746177028,"current_range_meters":24000,"station_id":"ce4bhn92rcd13ifvqgrg","pricing_plan_id":"cebpf4jnsgd1na2vs0mg"},{"bike_id":"11cdb95c-996a-413c-9a5f-8f58dee7317d","system_id":"levelo_inurba_marseille","lat":43.29043,"lon":5.39956,"is_reserved":false,"is_disabled":false,"rental_uris":{"android":"levelo://app?vid=11cdb95c-996a-413c-9a5f-8f58dee7317d","ios":"levelo://app?vid=11cdb95c-996a-413c-9a5f-8f58dee7317d"},"vehicle_type_id":"4","last_reported":1746177028,"current_range_meters":24400,"station_id":"","pricing_plan_id":"cebpf4jnsgd1na2vs0mg"},{"bike_id":"424d80c6-cfbe-43a0-bc57-d6937517b556","system_id":"levelo_inurba_marseille","lat":43.27967,"lon":5.38747,"is_reserved":false,"is_disabled":false,"rental_uris":{"android":"levelo://app?vid=424d80c6-cfbe-43a0-bc57-d6937517b556","ios":"levelo://app?vid=424d80c6-cfbe-43a0-bc57-d6937517b556"},"vehicle_type_id":"4","last_reported":1746177028,"current_range_meters":24400,"station_id":"ce4bhg12rcd13ifvqf80","pricing_plan_id":"cebpf4jnsgd1na2vs0mg"},{"bike_id":"cacdacb6-fc13-4777-a608-68ce432ef351","system_id":"levelo_inurba_marseille","lat":43.30429,"lon":5.39743,"is_reserved":false,"is_disabled":false,"rental_uris":{"android":"levelo://app?vid=cacdacb6-fc13-4777-a608-68ce432ef351","ios":"levelo://app?vid=cacdacb6-fc13-4777-a608-68ce432ef351"},"vehicle_type_id":"4","last_reported":1746177028,"current_range_meters":24400,"station_id":"ce4bh092rcd13ifvqd20","pricing_plan_id":"cebpf4jnsgd1na2vs0mg"},