{"last_updated":1713380693,"ttl":30,"version":"2.2","data":{"bikes":[{"bike_id":"5a413864-b38f-439f-9800-5ffd7661ef26","system_id":"levelo_inurba_marseille","lat":43.313391,"lon":5.36706,"is_reserved":false,"is_disabled":false,"rental_uris":{"android":"levelo://app?vid=5a413864-b38f-439f-9800-5ffd7661ef26","ios":"levelo://app?vid=5a413864-b38f-439f-9800-5ffd7661ef26"},"vehicle_type_id":"4","last_reported":1713380693,"current_range_meters":0,"station_id":"ce4bgr92rcd13ifvqc6g","pricing_plan_id":"cebpf4jnsgd1na2vs0mg"},{"bike_id":"ed648ae6-6414-4429-9340-96a2a67432ca","system_id":"levelo_inurba_marseille","lat":43.313391,"lon":5.36706,"is_reserved":false,"is_disabled":false,"rental_uris":{"android":"levelo://app?vid=ed648ae6-6414-4429-9340-96a2a67432ca","ios":"levelo://app?vid=ed648ae6-6414-4429-9340-96a2a67432ca"},"vehicle_type_id":"4","last_reported":1713380693,"current_range_meters":27200,"station_id":"ce4bgr92rcd13ifvqc6g","pricing_plan_id":"cebpf4jnsgd1na2vs0mg"},{"bike_id":"93fe1c2b-c031-4c8d-9b07-769fdaf358d0","system_id":"levelo_inurba_marseille","lat":43.312239,"lon":5.368562,"is_reserved":false,"is_disabled":false,"rental_uris":{"android":"levelo://app?vid=93fe1c2b-c031-4c8d-9b07-769fdaf358d0","ios":"levelo://app?vid=93fe1c2b-c031-4c8d-9b07-769fdaf358d0"},"vehicle_type_id":"4","last_reported":1713380693,"current_range_meters":2000,"station_id":"ce4bgl92rcd13ifvqbq0","pricing_plan_id":"cebpf4jnsgd1na2vs0mg"},{"bike_id":"d14bf3ed-1118-4fb3-bed2-8a74855b6886","system_id":"levelo_inurba_marseille","lat":43.309076,"lon":5.368465,"is_reserved":false,"is_disabled":false,"rental_uris":{"android":"levelo://app?vid=d14bf3ed-1118-4fb3-bed2-8a74855b6886","ios":"levelo://app?vid=d14bf3ed-1118-4fb3-bed2-8a74855b6886"},"vehicle_type_id":"4","last_reported":1713380693,"current_range_meters":16000,"station_id":"ce4bgn92rcd13ifvqbvg","pricing_plan_id":"cebpf4jnsgd1na2vs0mg"},{"bike_id":"7a76ac97-9ab4-48ee-a466-9be8d7b9f7b6","system_id":"levelo_inurba_marseille","lat":43.31339,"lon":5.37282,"is_reserved":false,"is_disabled":false,"rental_uris":{"android":"levelo://app?vid=7a76ac97-9ab4-48ee-a466-9be8d7b9f7b6","ios":"levelo://app?vid=7a76ac97-9ab4-48ee-a466-9be8d7b9f7b6"},"vehicle_type_id":"4","last_reported":1713380693,"current_range_meters":14800,"station_id":"","pricing_plan_id":"cebpf4jnsgd1na2vs0mg"},{"bike_id":"88942454-f750-4c16-af42-b5c7174c17e9","system_id":"levelo_inurba_marseille","lat":43.294314,"lon":5.397498,"is_reserved":false,"is_disabled":false,"rental_uris":{"android":"levelo://app?vid=88942454-f750-4c16-af42-b5c7174c17e9","ios":"levelo://app?vid=88942454-f750-4c16-af42-b5c7174c17e9"},"vehicle_type_id":"4","last_reported":1713380693,"current_range_meters":12800,"station_id":"ce4bh3h2rcd13ifvqdo0","pricing_plan_id":"cebpf4jnsgd1na2vs0mg"},{"bike_id":"462733d1-e63d-42ba-bbe0-8a73e4478310","system_id":"levelo_inurba_marseille","lat":43.314811,"lon":5.373103,"is_reserved":false,"is_disabled":false,"rental_uris":{"android":"levelo://app?vid=462733d1-e63d-42ba-bbe0-8a73e4478310","ios":"levelo://app?vid=462733d1-e63d-42ba-bbe0-8a73e4478310"},"vehicle_type_id":"4","last_reported":1713380693,"current_range_meters":15200,"station_id":"ce4bgt12rcd13ifvqcd0","pricing_plan_id":"cebpf4jnsgd1na2vs0mg"},{"bike_id":"ae4c4659-2a6f-4bf0-8ee6-1106cd12db1a","system_id":"levelo_inurba_marseille","lat":43.309034,"lon":5.371783,"is_reserved":false,"is_disabled":false,"rental_uris":{"android":"levelo://app?vid=ae4c4659-2a6f-4bf0-8ee6-1106cd12db1a","ios":"levelo://app?vid=ae4c4659-2a6f-4bf0-8ee6-1106cd12db1a"},"vehicle_type_id":"4","last_reported":1713380693,"current_range_meters":28800,"station_id":"ce4bguh2rcd13ifvqckg","pricing_plan_id":"cebpf4jnsgd1na2vs0mg"},{"bike_id":"3900f449-eb82-4e6c-8070-7ed591ef9754","system_id":"levelo_inurba_marseille","lat":43.30537,"lon":5.367345,"is_reserved":false,"is_disabled":false,"rental_uris":{"android":"levelo://app?vid=3900f449-eb82-4e6c-8070-7ed591ef9754","ios":"levelo://app?vid=3900f449-eb82-4e6c-8070-7ed591ef9754"},"vehicle_type_id":"4","last_reported":1713380693,"current_range_meters":14000,"station_id":"ce4bgrp2rcd13ifvqc9g","pricing_plan_id":"cebpf4jnsgd1na2vs0mg"},{"bike_id":"52f22b5a-486d-4c62-a4ac-137bfb2f235e","system_id":"levelo_inurba_marseille","lat":43.30554,"lon":5.36534,"is_reserved":false,"is_disabled":false,"rental_uris":{"android":"levelo://app?vid=52f22b5a-486d-4c62-a4ac-137bfb2f235e","ios":"levelo://app?vid=52f22b5a-486d-4c62-a4ac-137bfb2f235e"},"vehicle_type_id":"4","last_reported":1713380693,"current_range_meters":28800,"station_id":"","pricing_plan_id":"cebpf4jnsgd1na2vs0mg"},{"bike_id":"0c756623-1c96-4377-af8b-b9ec2a455414","system_id":"levelo_inurba_marseille","lat":43.305989,"lon":5.37225,"is_reserved":false,"is_disabled":false,"rental_uris":{"android":"levelo://app?vid=0c756623-1c96-4377-af8b-b9ec2a455414","ios":"levelo://app?vid=0c756623-1c96-4377-af8b-b9ec2a455414"},"vehicle_type_id":"4","last_reported":1713380693,"current_range_meters":20400,"station_id":"ce4bgqh2rcd13ifvqc4g","pricing_plan_id":"cebpf4jnsgd1na2vs0mg"},{"bike_id":"b32cd1f0-9d32-4d04-9aab-dc79dcdcf347","system_id":"levelo_inurba_marseille","lat":43.311125,"lon":5.377624,"is_reserved":false,"is_disabled":false,"rental_uris":{"android":"levelo://app?vid=b32cd1f0-9d32-4d04-9aab-dc79dcdcf347","ios":"levelo://app?vid=b32cd1f0-9d32-4d04-9aab-dc79dcdcf347"},"vehicle_type_id":"4","last_reported":1713380693,"current_range_meters":1600,"station_id":"ce4bgt92rcd13ifvqcg0","pricing_plan_id":"cebpf4jnsgd1na2vs0mg"},{"bike_id":"71b65339-6b13-4e47-9e85-3cfcd095267f","system_id":"levelo_inurba_marseille","lat":43.311125,"lon":5.377624,"is_reserved":false,"is_disabled":false,"rental_uris":{"android":"levelo://app?vid=71b65339-6b13-4e47-9e85-3cfcd095267f","ios":"levelo://app?vid=71b65339-6b13-4e47-9e85-3cfcd095267f"},"vehicle_type_id":"4","last_reported":1713380693,"current_range_meters":4400,"station_id":"ce4bgt92rcd13ifvqcg0","pricing_plan_id":"cebpf4jnsgd1na2vs0mg"},{"bike_id":"8cd28707-e8cf-46d7-80cc-a309603c9931","system_id":"levelo_inurba_marseille","lat":43.311125,"lon":5.377624,"is_reserved":false,"is_disabled":false,"rental_uris":{"android":"levelo://app?vid=8cd28707-e8cf-46d7-80cc-a309603c9931","ios":"levelo://app?vid=8cd28707-e8cf-46d7-80cc-a309603c9931"},"vehicle_type_id":"4","last_reported":1713380693,"current_range_meters":0,"station_id":"ce4bgt92rcd13ifvqcg0","pricing_plan_id":"cebpf4jnsgd1na2vs0mg"},{"bike_id":"38c3a9aa-a319-4559-8849-56585697adb0","system_id":"levelo_inurba_marseille","lat":43.311125,"lon":5.377624,"is_reserved":false,"is_disabled":false,"rental_uris":{"android":"levelo://app?vid=38c3a9aa-a319-4559-8849-56585697adb0","ios":"levelo://app?vid=38c3a9aa-a319-4559-8849-56585697adb0"},"vehicle_type_id":"4","last_reported":1713380693,"current_range_meters":16800,"station_id":"ce4bgt92rcd13ifvqcg0","pricing_plan_id":"cebpf4jnsgd1na2vs0mg"},{"bike_id":"fdefc2a4-a85e-4bc3-9d7d-1efb3e181a89","system_id":"levelo_inurba_marseille","lat":43.311125,"lon":5.377624,"is_reserved":false,"is_disabled":false,"rental_uris":{"android":"levelo://app?vid=fdefc2a4-a85e-4bc3-9d7d-1efb3e181a89","ios":"levelo://app?vid=fdefc2a4-a85e-4bc3-9d7d-1efb3e181a89"},"vehicle_type_id":"4","last_reported":1713380693,"current_range_meters":22400,"station_id":"ce4bgt92rcd13ifvqcg0","pricing_plan_id":"cebpf4jnsgd1na2vs0mg"},{"bike_id":"894b6731-0d45-4ce5-aadb-37025b76f227","system_id":"levelo_inurba_marseille","lat":43.311125,"lon":5.377624,"is_reserved":false,"is_disabled":false,"rental_uris":{"android":"levelo://app?vid=894b6731-0d45-4ce5-aadb-37025b76f227","ios":"levelo://app?vid=894b6731-0d45-4ce5-aadb-37025b76f227"},"vehicle_type_id":"4","last_reported":1713380693,"current_range_meters":10000,"station_id":"ce4bgt92rcd13ifvqcg0","pricing_plan_id":"cebpf4jnsgd1na2vs0mg"},{"bike_id":"a3eb548a-92e3-4cd3-bcb8-960ee4bb2519","system_id":"levelo_inurba_marseille","lat":43.309589,"lon":5.390258,"is_reserved":false,"is_disabled":false,"rental_uris":{"android":"levelo://app?vid=a3eb548a-92e3-4cd3-bcb8-960ee4bb2519","ios":"levelo://app?vid=a3eb548a-92e3-4cd3-bcb8-960ee4bb2519"},"vehicle_type_id":"4","last_reported":1713380693,"current_range_meters":3600,"station_id":"ce4bgup2rcd13ifvqco0","pricing_plan_id":"cebpf4jnsgd1na2vs0mg"},{"bike_id":"1dad58b6-6bd8-4e57-96b6-6b86481d7c16","system_id":"levelo_inurba_marseille","lat":43.307945,"lon":5.376487,"is_reserved":false,"is_disabled":false,"rental_uris":{"android":"levelo://app?vid=1dad58b6-6bd8-4e57-96b6-6b86481d7c16","ios":"levelo://app?vid=1dad58b6-6bd8-4e57-96b6-6b86481d7c16"},"vehicle_type_id":"4","last_reported":1713380693,"current_range_meters":1600,"station_id":"ce4bgv92rcd13ifvqcq0","pricing_plan_id":"cebpf4jnsgd1na2vs0mg"},{"bike_id":"8e1342a2-de23-4fa6-a10f-010afc912687","system_id":"levelo_inurba_marseille","lat":43.317075,"lon":5.377367,"is_reserved":false,"is_disabled":false,"rental_uris":{"android":"levelo://app?vid=8e1342a2-de23-4fa6-a10f-010afc912687","ios":"levelo://app?vid=8e1342a2-de23-4fa6-a10f-010afc912687"},"vehicle_type_id":"4","last_reported":1713380693,"current_range_meters":10800,"station_id":"ce4bgth2rcd13ifvqch0","pricing_plan_id":"cebpf4jnsgd1na2vs0mg"},{"bike_id":"4c1d3d42-2aa7-4df6-adf6-5165eefcd157","system_id":"levelo_inurba_marseille","lat":43.317075,"lon":5.377367,"is_reserved":false,"is_disabled":false,"rental_uris":{"android":"levelo://app?vid=4c1d3d42-2aa7-4df6-adf6-5165eefcd157","ios":"levelo://app?vid=4c1d3d42-2aa7-4df6-adf6-5165eefcd157"},"vehicle_type_id":"4","last_reported":1713380693,"current_range_meters":1200,"station_id":"ce4bgth2rcd13ifvqch0","pricing_plan_id":"cebpf4jnsgd1na2vs0mg"},{"bike_id":"bee8e9da-0701-47bf-afcd-9c04190ff22c","system_id":"levelo_inurba_marseille","lat":43.317075,"lon":5.377367,"is_reserved":false,"is_disabled":false,"rental_uris":{"android":"levelo://app?vid=bee8e9da-0701-47bf-afcd-9c04190ff22c","ios":"levelo://app?vid=bee8e9da-0701-47bf-afcd-9c04190ff22c"},"vehicle_type_id":"4","last_reported":1713380693,"current_range_meters":6000,"station_id":"ce4bgth2rcd13ifvqch0","pricing_plan_id":"cebpf4jnsgd1na2vs0mg"},{"bike_id":"3f350930-79cf-4efb-8f63-802deeb75a8f","system_id":"levelo_inurba_marseille","lat":43.317075,"lon":5.377367,"is_reserved":false,"is_disabled":false,"rental_uris":{"android":"levelo://app?vid=3f350930-79cf-4efb-8f63-802deeb75a8f","ios":"levelo://app?vid=3f350930-79cf-4efb-8f63-802deeb75a8f"},"vehicle_type_id":"4","last_reported":1713380693,"current_range_meters":2000,"station_id":"ce4bgth2rcd13ifvqch0","pricing_plan_id":"cebpf4jnsgd1na2vs0mg"},{"bike_id":"e00f5c9c-82f1-4595-be09-fbbeee63189b","system_id":"levelo_inurba_marseille","lat":43.317075,"lon":5.377367,"is_reserved":false,"is_disabled":false,"rental_uris":{"android":"levelo://app?vid=e00f5c9c-82f1-4595-be09-fbbeee63189b","ios":"levelo://app?vid=e00f5c9c-82f1-4595-be09-fbbeee63189b"},"vehicle_type_id":"4","last_reported":1713380693,"current_range_meters":31200,"station_id":"ce4bgth2rcd13ifvqch0","pricing_plan_id":"cebpf4jnsgd1na2vs0mg"},{"bike_id":"e07c981e-638b-4ba6-ac96-fe5ee9e5a164","system_id":"levelo_inurba_marseille","lat":43.317075,"lon":5.377367,"is_reserved":false,"is_disabled":false,"rental_uris":{"android":"levelo://app?vid=e07c981e-638b-4ba6-ac96-fe5ee9e5a164","ios":"levelo://app?vid=e07c981e-638b-4ba6-ac96-fe5ee9e5a164"},"vehicle_type_id":"4","last_reported":1713380693,"current_range_meters":31200,"station_id":"ce4bgth2rcd13ifvqch0","pricing_plan_id":"cebpf4jnsgd1na2vs0mg"},{"bike_id":"d31a6f2a-0a05-43be-b5f1-fbc34dfe1f30","system_id":"levelo_inurba_marseille","lat":43.317075,"lon":5.377367,"is_reserved":false,"is_disabled":false,"rental_uris":{"android":"levelo://app?vid=d31a6f2a-0a05-43be-b5f1-fbc34dfe1f30","ios":"levelo://app?vid=d31a6f2a-0a05-43be-b5f1-fbc34dfe1f30"},"vehicle_type_id":"4","last_reported":1713380693,"current_range_meters":4400,"station_id":"ce4bgth2rcd13ifvqch0","pricing_plan_id":"cebpf4jnsgd1na2vs0mg"},{"bike_id":"af121c7d-0da1-405c-8b31-1d7369540008","system_id":"levelo_inurba_marseille","lat":43.31286,"lon":5.37936,"is_reserved":false,"is_disabled":false,"rental_uris":{"android":"levelo://app?vid=af121c7d-0da1-405c-8b31-1d7369540008","ios":"levelo://app?vid=af121c7d-0da1-405c-8b31-1d7369540008"},"vehicle_type_id":"4","last_reported":1713380693,"current_range_meters":20800,"station_id":"","pricing_plan_id":"cebpf4jnsgd1na2vs0mg"},{"bike_id":"1318186f-a486-4651-8972-8d8dc1a08d29","system_id":"levelo_inurba_marseille","lat":43.303662,"lon":5.369025,"is_reserved":false,"is_disabled":false,"rental_uris":{"android":"levelo://app?vid=1318186f-a486-4651-8972-8d8dc1a08d29","ios":"levelo://app?vid=1318186f-a486-4651-8972-8d8dc1a08d29"},"vehicle_type_id":"4","last_reported":1713380693,"current_range_meters":0,"station_id":"","pricing_plan_id":"cebpf4jnsgd1na2vs0mg"},{"bike_id":"f893864d-c028-4d04-b328-ef404905347f","system_id":"levelo_inurba_marseille","lat":43.308012,"lon":5.381511,"is_reserved":false,"is_disabled":false,"rental_uris":{"android":"levelo://app?vid=f893864d-c028-4d04-b328-ef404905347f","ios":"levelo://app?vid=f893864d-c028-4d04-b328-ef404905347f"},"vehicle_type_id":"4","last_reported":1713380693,"current_range_meters":8000,"station_id":"ce4bgt12rcd13ifvqce0","pricing_plan_id":"cebpf4jnsgd1na2vs0mg"},{"bike_id":"2a66eb3f-0f91-40aa-8f69-acee2753c0c7","system_id":"levelo_inurba_marseille","lat":43.30807,"lon":5.38163,"is_reserved":false,"is_disabled":false,"rental_uris":{"android":"levelo://app?vid=2a66eb3f-0f91-40aa-8f69-acee2753c0c7","ios":"levelo://app?vid=2a66eb3f-0f91-40aa-8f69-acee2753c0c7"},"vehicle_type_id":"4","last_reported":1713380693,"current_range_meters":0,"station_id":"ce4bgt12rcd13ifvqce0","pricing_plan_id":"cebpf4jnsgd1na2vs0mg"},{"bike_id":"3e372cd6-c094-4a02-8cbf-59eb15fa0a24","system_id":"levelo_inurba_marseille","lat":43.304606,"lon":5.379026,"is_reserved":false,"is_disabled":false,"rental_uris":{"android":"levelo://app?vid=3e372cd6-c094-4a02-8cbf-59eb15fa0a24","ios":"levelo://app?vid=3e372cd6-c094-4a02-8cbf-59eb15fa0a24"},"vehicle_type_id":"4","last_reported":1713380693,"current_range_meters":20000,"station_id":"ce4bgup2rcd13ifvqcn0","pricing_plan_id":"cebpf4jnsgd1na2vs0mg"},{"bike_id":"bdd5fc7e-d9fd-4a61-a4e9-353797c4a696","system_id":"levelo_inurba_marseille","lat":43.324771,"lon":5.36557,"is_reserved":false,"is_disabled":false,"rental_uris":{"android":"levelo://app?vid=bdd5fc7e-d9fd-4a61-a4e9-353797c4a696","ios":"levelo://app?vid=bdd5fc7e-d9fd-4a61-a4e9-353797c4a696"},"vehicle_type_id":"4","last_reported":1713380693,"current_range_meters":14800,"station_id":"ce4bhs12rcd13ifvqhvg","pricing_plan_id":"cebpf4jnsgd1na2vs0mg"},{"bike_id":"2361f870-47a0-4ae4-a065-afb3cf02f8b1","system_id":"levelo_inurba_marseille","lat":43.324771,"lon":5.36557,"is_reserved":false,"is_disabled":false,"rental_uris":{"android":"levelo://app?vid=2361f870-47a0-4ae4-a065-afb3cf02f8b1","ios":"levelo://app?vid=2361f870-47a0-4ae4-a065-afb3cf02f8b1"},"vehicle_type_id":"4","last_reported":1713380693,"current_range_meters":18000,"station_id":"ce4bhs12rcd13ifvqhvg","pricing_plan_id":"cebpf4jnsgd1na2vs0mg"},{"bike_id":"732115dd-fc36-4cea-9cd6-0e4cc350a9d7","system_id":"levelo_inurba_marseille","lat":43.324771,"lon":5.36557,"is_reserved":false,"is_disabled":false,"rental_uris":{"android":"levelo://app?vid=732115dd-fc36-4cea-9cd6-0e4cc350a9d7","ios":"levelo://app?vid=732115dd-fc36-4cea-9cd6-0e4cc350a9d7"},"vehicle_type_id":"4","last_reported":1713380693,"current_range_meters":21200,"station_id":"ce4bhs12rcd13ifvqhvg","pricing_plan_id":"cebpf4jnsgd1na2vs0mg"},{"bike_id":"9650e995-0d72-455f-838e-dca00d5136ce","system_id":"levelo_inurba_marseille","lat":43.324771,"lon":5.36557,"is_reserved":false,"is_disabled":false,"rental_uris":{"android":"levelo://app?vid=9650e995-0d72-455f-838e-dca00d5136ce","ios":"levelo://app?vid=9650e995-0d72-455f-838e-dca00d5136ce"},"vehicle_type_id":"4","last_reported":1713380693,"current_range_meters":24400,"station_id":"ce4bhs12rcd13ifvqhvg","pricing_plan_id":"cebpf4jnsgd1na2vs0mg"},{"bike_id":"bada93fb-f3e7-4072-b03f-debca43b0142","system_id":"levelo_inurba_marseille","lat":43.32484,"lon":5.3657,"is_reserved":false,"is_disabled":false,"rental_uris":{"android":"levelo://app?vid=bada93fb-f3e7-4072-b03f-debca43b0142","ios":"levelo://app?vid=bada93fb-f3e7-4072-b03f-debca43b0142"},"vehicle_type_id":"4","last_reported":1713380693,"current_range_meters":800,"station_id":"ce4bhs12rcd13ifvqhvg","pricing_plan_id":"cebpf4jnsgd1na2vs0mg"},{"bike_id":"6850d3ac-6118-46b8-87a3-283cb8f13775","system_id":"levelo_inurba_marseille","lat":43.324771,"lon":5.36557,"is_reserved":false,"is_disabled":false,"rental_uris":{"android":"levelo://app?vid=6850d3ac-6118-46b8-87a3-283cb8f13775","ios":"levelo://app?vid=6850d3ac-6118-46b8-87a3-283cb8f13775"},"vehicle_type_id":"4","last_reported":1713380693,"current_range_meters":9600,"station_id":"ce4bhs12rcd13ifvqhvg","pricing_plan_id":"cebpf4jnsgd1na2vs0mg"},{"bike_id":"a51b9dbd-b6b4-4e62-aede-beb536c98b5a","system_id":"levelo_inurba_marseille","lat":43.3249,"lon":5.36568,"is_reserved":false,"is_disabled":false,"rental_uris":{"android":"levelo://app?vid=a51b9dbd-b6b4-4e62-aede-beb536c98b5a","ios":"levelo://app?vid=a51b9dbd-b6b4-4e62-aede-beb536c98b5a"},"vehicle_type_id":"4","last_reported":1713380693,"current_range_meters":6400,"station_id":"ce4bhs12rcd13ifvqhvg","pricing_plan_id":"cebpf4jnsgd1na2vs0mg"},{"bike_id":"d986bd22-f831-4a7d-a74f-59573012fbf0","system_id":"levelo_inurba_marseille","lat":43.310804,"lon":5.38359,"is_reserved":false,"is_disabled":false,"rental_uris":{"android":"levelo://app?vid=d986bd22-f831-4a7d-a74f-59573012fbf0","ios":"levelo://app?vid=d986bd22-f831-4a7d-a74f-59573012fbf0"},"vehicle_type_id":"4","last_reported":1713380693,"current_range_meters":11600,"station_id":"ce4bgv92rcd13ifvqcr0","pricing_plan_id":"cebpf4jnsgd1na2vs0mg"},{"bike_id":"b3ae159d-fc5d-4a6a-86c3-9b134c2ded57","system_id":"levelo_inurba_marseille","lat":43.310804,"lon":5.38359,"is_reserved":false,"is_disabled":false,"rental_uris":{"android":"levelo://app?vid=b3ae159d-fc5d-4a6a-86c3-9b134c2ded57","ios":"levelo://app?vid=b3ae159d-fc5d-4a6a-86c3-9b134c2ded57"},"vehicle_type_id":"4","last_reported":1713380693,"current_range_meters":24000,"station_id":"ce4bgv92rcd13ifvqcr0","pricing_plan_id":"cebpf4jnsgd1na2vs0mg"},{"bike_id":"b8feb9d2-3951-40e7-a9aa-7b5fd456b9c5","system_id":"levelo_inurba_marseille","lat":43.310804,"lon":5.38359,"is_reserved":false,"is_disabled":false,"rental_uris":{"android":"levelo://app?vid=b8feb9d2-3951-40e7-a9aa-7b5fd456b9c5","ios":"levelo://app?vid=b8feb9d2-3951-40e7-a9aa-7b5fd456b9c5"},"vehicle_type_id":"4","last_reported":1713380693,"current_range_meters":10000,"station_id":"ce4bgv92rcd13ifvqcr0","pricing_plan_id":"cebpf4jnsgd1na2vs0mg"},{"bike_id":"5fb6f8e8-e8c5-4f26-af96-7c1712dee3f4","system_id":"levelo_inurba_marseille","lat":43.310804,"lon":5.38359,"is_reserved":false,"is_disabled":false,"rental_uris":{"android":"levelo://app?vid=5fb6f8e8-e8c5-4f26-af96-7c1712dee3f4","ios":"levelo://app?vid=5fb6f8e8-e8c5-4f26-af96-7c1712dee3f4"},"vehicle_type_id":"4","last_reported":1713380693,"current_range_meters":20800,"station_id":"ce4bgv92rcd13ifvqcr0","pricing_plan_id":"cebpf4jnsgd1na2vs0mg"},{"bike_id":"588e26b7-e7e1-49e0-a639-6a9c8b9b2e1b","system_id":"levelo_inurba_marseille","lat":43.30143,"lon":5.37413,"is_reserved":false,"is_disabled":false,"rental_uris":{"android":"levelo://app?vid=588e26b7-e7e1-49e0-a639-6a9c8b9b2e1b","ios":"levelo://app?vid=588e26b7-e7e1-49e0-a639-6a9c8b9b2e1b"},"vehicle_type_id":"4","last_reported":1713380693,"current_range_meters":28400,"station_id":"ce4bgs92rcd13ifvqcc0","pricing_plan_id":"cebpf4jnsgd1na2vs0mg"},{"bike_id":"ca365dd5-3241-4125-b242-5fcd3f7dfb4b","system_id":"levelo_inurba_marseille","lat":43.30143,"lon":5.37413,"is_reserved":false,"is_disabled":false,"rental_uris":{"android":"levelo://app?vid=ca365dd5-3241-4125-b242-5fcd3f7dfb4b","ios":"levelo://app?vid=ca365dd5-3241-4125-b242-5fcd3f7dfb4b"},"vehicle_type_id":"4","last_reported":1713380693,"current_range_meters":31200,"station_id":"ce4bgs92rcd13ifvqcc0","pricing_plan_id":"cebpf4jnsgd1na2vs0mg"},{"bike_id":"5e0422c4-4db2-4cd5-8ec6-f1a5f73617e2","system_id":"levelo_inurba_marseille","lat":43.3056,"lon":5.38146,"is_reserved":false,"is_disabled":false,"rental_uris":{"android":"levelo://app?vid=5e0422c4-4db2-4cd5-8ec6-f1a5f73617e2","ios":"levelo://app?vid=5e0422c4-4db2-4cd5-8ec6-f1a5f73617e2"},"vehicle_type_id":"4","last_reported":1713380693,"current_range_meters":18000,"station_id":"","pricing_plan_id":"cebpf4jnsgd1na2vs0mg"},{"bike_id":"334e3407-4f9b-4b57-a5ef-39033f25d948","system_id":"levelo_inurba_marseille","lat":43.319935,"lon":5.381699,"is_reserved":false,"is_disabled":false,"rental_uris":{"android":"levelo://app?vid=334e3407-4f9b-4b57-a5ef-39033f25d948","ios":"levelo://app?vid=334e3407-4f9b-4b57-a5ef-39033f25d948"},"vehicle_type_id":"4","last_reported":1713380693,"current_range_meters":20400,"station_id":"ce4bhr12rcd13ifvqhpg","pricing_plan_id":"cebpf4jnsgd1na2vs0mg"},{"bike_id":"d212c281-3522-420a-b06f-b80966290c73","system_id":"levelo_inurba_marseille","lat":43.319935,"lon":5.381699,"is_reserved":false,"is_disabled":false,"rental_uris":{"android":"levelo://app?vid=d212c281-3522-420a-b06f-b80966290c73","ios":"levelo://app?vid=d212c281-3522-420a-b06f-b80966290c73"},"vehicle_type_id":"4","last_reported":1713380693,"current_range_meters":24000,"station_id":"ce4bhr12rcd13ifvqhpg","pricing_plan_id":"cebpf4jnsgd1na2vs0mg"},{"bike_id":"daa56114-b9d2-4cb0-a61b-57407ec02a89","system_id":"levelo_inurba_marseille","lat":43.31998,"lon":5.38147,"is_reserved":false,"is_disabled":false,"rental_uris":{"android":"levelo://app?vid=daa56114-b9d2-4cb0-a61b-57407ec02a89","ios":"levelo://app?vid=daa56114-b9d2-4cb0-a61b-57407ec02a89"},"vehicle_type_id":"4","last_reported":1713380693,"current_range_meters":0,"station_id":"ce4bhr12rcd13ifvqhpg","pricing_plan_id":"cebpf4jnsgd1na2vs0mg"},{"bike_id":"b81b1e3e-2172-4dfd-8720-aafb0057bf12","system_id":"levelo_inurba_marseille","lat":43.319935,"lon":5.381699,"is_reserved":false,"is_disabled":false,"rental_uris":{"android":"levelo://app?vid=b81b1e3e-2172-4dfd-8720-aafb0057bf12","ios":"levelo://app?vid=b81b1e3e-2172-4dfd-8720-aafb0057bf12"},"vehicle_type_id":"4","last_reported":1713380693,"current_range_meters":9200,"station_id":"ce4bhr12rcd13ifvqhpg","pricing_plan_id":"cebpf4jnsgd1na2vs0mg"},{"bike_id":"eb084826-c14b-4714-abc5-e75cc896773b","system_id":"levelo_inurba_marseille","lat":43.319935,"lon":5.381699,"is_reserved":false,"is_disabled":false,"rental_uris":{"android":"levelo://app?vid=eb084826-c14b-4714-abc5-e75cc896773b","ios":"levelo://app?vid=eb084826-c14b-4714-abc5-e75cc896773b"},"vehicle_type_id":"4","last_reported":1713380693,"current_range_meters":9600,"station_id":"ce4bhr12rcd13ifvqhpg","pricing_plan_id":"cebpf4jnsgd1na2vs0mg"},{"bike_id":"ce7fa476-bb4f-43d3-8318-023d7f9567ab","system_id":"levelo_inurba_marseille","lat":43.319935,"lon":5.381699,"is_reserved":false,"is_disabled":false,"rental_uris":{"android":"levelo://app?vid=ce7fa476-bb4f-43d3-8318-023d7f9567ab","ios":"levelo://app?vid=ce7fa476-bb4f-43d3-8318-023d7f9567ab"},"vehicle_type_id":"4","last_reported":1713380693,"current_range_meters":19200,"station_id":"ce4bhr12rcd13ifvqhpg","pricing_plan_id":"cebpf4jnsgd1na2vs0mg"},{"bike_id":"f020809e-e197-4eb4-9e13-8310c8f35000","system_id":"levelo_inurba_marseille","lat":43.31997,"lon":5.381623,"is_reserved":false,"is_disabled":false,"rental_uris":{"android":"levelo://app?vid=f020809e-e197-4eb4-9e13-8310c8f35000","ios":"levelo://app?vid=f020809e-e197-4eb4-9e13-8310c8f35000"},"vehicle_type_id":"4","last_reported":1713380693,"current_range_meters":9600,"station_id":"ce4bhr12rcd13ifvqhpg","pricing_plan_id":"cebpf4jnsgd1na2vs0mg"},{"bike_id":"8ce762a3-5d5b-4cf2-afa1-d3fa5bbc8b07","system_id":"levelo_inurba_marseille","lat":43.32004,"lon":5.38156,"is_reserved":false,"is_disabled":false,"rental_uris":{"android":"levelo://app?vid=8ce762a3-5d5b-4cf2-afa1-d3fa5bbc8b07","ios":"levelo://app?vid=8ce762a3-5d5b-4cf2-afa1-d3fa5bbc8b07"},"vehicle_type_id":"4","last_reported":1713380693,"current_range_meters":8800,"station_id":"ce4bhr12rcd13ifvqhpg","pricing_plan_id":"cebpf4jnsgd1na2vs0mg"},{"bike_id":"8608e23e-7f9a-414f-ad7e-86dba4433338","system_id":"levelo_inurba_marseille","lat":43.319935,"lon":5.381699,"is_reserved":false,"is_disabled":false,"rental_uris":{"android":"levelo://app?vid=8608e23e-7f9a-414f-ad7e-86dba4433338","ios":"levelo://app?vid=8608e23e-7f9a-414f-ad7e-86dba4433338"},"vehicle_type_id":"4","last_reported":1713380693,"current_range_meters":9200,"station_id":"ce4bhr12rcd13ifvqhpg","pricing_plan_id":"cebpf4jnsgd1na2vs0mg"},{"bike_id":"592f0002-f51e-454a-948b-76b054acb9a8","system_id":"levelo_inurba_marseille","lat":43.319935,"lon":5.381699,"is_reserved":false,"is_disabled":false,"rental_uris":{"android":"levelo://app?vid=592f0002-f51e-454a-948b-76b054acb9a8","ios":"levelo://app?vid=592f0002-f51e-454a-948b-76b054acb9a8"},"vehicle_type_id":"4","last_reported":1713380693,"current_range_meters":14800,"station_id":"ce4bhr12rcd13ifvqhpg","pricing_plan_id":"cebpf4jnsgd1na2vs0mg"},{"bike_id":"f1a17ac3-bf0f-4378-ae6f-719bc9a96880","system_id":"levelo_inurba_marseille","lat":43.319935,"lon":5.381699,"is_reserved":false,"is_disabled":false,"rental_uris":{"android":"levelo://app?vid=f1a17ac3-bf0f-4378-ae6f-719bc9a96880","ios":"levelo://app?vid=f1a17ac3-bf0f-4378-ae6f-719bc9a96880"},"vehicle_type_id":"4","last_reported":1713380693,"current_range_meters":1600,"station_id":"ce4bhr12rcd13ifvqhpg","pricing_plan_id":"cebpf4jnsgd1na2vs0mg"},{"bike_id":"fc2df9fc-0879-4333-955e-d7f8d52b1a38","system_id":"levelo_inurba_marseille","lat":43.319935,"lon":5.381699,"is_reserved":false,"is_disabled":false,"rental_uris":{"android":"levelo://app?vid=fc2df9fc-0879-4333-955e-d7f8d52b1a38","ios":"levelo://app?vid=fc2df9fc-0879-4333-955e-d7f8d52b1a38"},"vehicle_type_id":"4","last_reported":1713380693,"current_range_meters":800,"station_id":"ce4bhr12rcd13ifvqhpg","pricing_plan_id":"cebpf4jnsgd1na2vs0mg"},{"bike_id":"adf50a5b-35e4-45f1-85fd-e7fc3d5109b2","system_id":"levelo_inurba_marseille","lat":43.313785,"lon":5.384772,"is_reserved":false,"is_disabled":false,"rental_uris":{"android":"levelo://app?vid=adf50a5b-35e4-45f1-85fd-e7fc3d5109b2","ios":"levelo://app?vid=adf50a5b-35e4-45f1-85fd-e7fc3d5109b2"},"vehicle_type_id":"4","last_reported":1713380693,"current_range_meters":4400,"station_id":"ce4bgt92rcd13ifvqcf0","pricing_plan_id":"cebpf4jnsgd1na2vs0mg"},{"bike_id":"6c2262bb-e098-4f24-9b3e-b97fd52d928e","system_id":"levelo_inurba_marseille","lat":43.313571,"lon":5.384829,"is_reserved":false,"is_disabled":false,"rental_uris":{"android":"levelo://app?vid=6c2262bb-e098-4f24-9b3e-b97fd52d928e","ios":"levelo://app?vid=6c2262bb-e098-4f24-9b3e-b97fd52d928e"},"vehicle_type_id":"4","last_reported":1713380693,"current_range_meters":0,"station_id":"ce4bgt92rcd13ifvqcf0","pricing_plan_id":"cebpf4jnsgd1na2vs0mg"},{"bike_id":"31c80c5a-4be4-4f32-8bab-da5fc90b6d3a","system_id":"levelo_inurba_marseille","lat":43.313571,"lon":5.384829,"is_reserved":false,"is_disabled":false,"rental_uris":{"android":"levelo://app?vid=31c80c5a-4be4-4f32-8bab-da5fc90b6d3a","ios":"levelo://app?vid=31c80c5a-4be4-4f32-8bab-da5fc90b6d3a"},"vehicle_type_id":"4","last_reported":1713380693,"current_range_meters":6000,"station_id":"ce4bgt92rcd13ifvqcf0","pricing_plan_id":"cebpf4jnsgd1na2vs0mg"},{"bike_id":"3efafc78-abec-43f0-9659-df20b378bc3a","system_id":"levelo_inurba_marseille","lat":43.31363,"lon":5.3849,"is_reserved":false,"is_disabled":false,"rental_uris":{"android":"levelo://app?vid=3efafc78-abec-43f0-9659-df20b378bc3a","ios":"levelo://app?vid=3efafc78-abec-43f0-9659-df20b378bc3a"},"vehicle_type_id":"4","last_reported":1713380693,"current_range_meters":0,"station_id":"ce4bgt92rcd13ifvqcf0","pricing_plan_id":"cebpf4jnsgd1na2vs0mg"},{"bike_id":"5ac5f449-9014-472c-ac12-78aaf85c03fc","system_id":"levelo_inurba_marseille","lat":43.313571,"lon":5.384829,"is_reserved":false,"is_disabled":false,"rental_uris":{"android":"levelo://app?vid=5ac5f449-9014-472c-ac12-78aaf85c03fc","ios":"levelo://app?vid=5ac5f449-9014-472c-ac12-78aaf85c03fc"},"vehicle_type_id":"4","last_reported":1713380693,"current_range_meters":16000,"station_id":"ce4bgt92rcd13ifvqcf0","pricing_plan_id":"cebpf4jnsgd1na2vs0mg"},{"bike_id":"36026620-3f87-4254-a55f-0087de766662","system_id":"levelo_inurba_marseille","lat":43.299724,"lon":5.371829,"is_reserved":false,"is_disabled":false,"rental_uris":{"android":"levelo://app?vid=36026620-3f87-4254-a55f-0087de766662","ios":"levelo://app?vid=36026620-3f87-4254-a55f-0087de766662"},"vehicle_type_id":"4","last_reported":1713380693,"current_range_meters":19200,"station_id":"ce4bgr92rcd13ifvqc7g","pricing_plan_id":"cebpf4jnsgd1na2vs0mg"},{"bike_id":"3753b1ce-a44d-42b8-9ac1-d5fa7c6eb3ec","system_id":"levelo_inurba_marseille","lat":43.299724,"lon":5.371829,"is_reserved":false,"is_disabled":false,"rental_uris":{"android":"levelo://app?vid=3753b1ce-a44d-42b8-9ac1-d5fa7c6eb3ec","ios":"levelo://app?vid=3753b1ce-a44d-42b8-9ac1-d5fa7c6eb3ec"},"vehicle_type_id":"4","last_reported":1713380693,"current_range_meters":26400,"station_id":"ce4bgr92rcd13ifvqc7g","pricing_plan_id":"cebpf4jnsgd1na2vs0mg"},{"bike_id":"fbb25730-9fbe-4b2a-b1b7-ef4f3a30bff8","system_id":"levelo_inurba_marseille","lat":43.299222,"lon":5.365554,"is_reserved":false,"is_disabled":false,"rental_uris":{"android":"levelo://app?vid=fbb25730-9fbe-4b2a-b1b7-ef4f3a30bff8","ios":"levelo://app?vid=fbb25730-9fbe-4b2a-b1b7-ef4f3a30bff8"},"vehicle_type_id":"4","last_reported":1713380693,"current_range_meters":31200,"station_id":"ce4bgm92rcd13ifvqbr0","pricing_plan_id":"cebpf4jnsgd1na2vs0mg"},{"bike_id":"c37d48bd-8a4b-4775-ad97-50492cb3347e","system_id":"levelo_inurba_marseille","lat":43.299724,"lon":5.371829,"is_reserved":false,"is_disabled":false,"rental_uris":{"android":"levelo://app?vid=c37d48bd-8a4b-4775-ad97-50492cb3347e","ios":"levelo://app?vid=c37d48bd-8a4b-4775-ad97-50492cb3347e"},"vehicle_type_id":"4","last_reported":1713380693,"current_range_meters":18800,"station_id":"ce4bgr92rcd13ifvqc7g","pricing_plan_id":"cebpf4jnsgd1na2vs0mg"},{"bike_id":"0cfc62e7-2ad7-435e-9f4e-5576818400a0","system_id":"levelo_inurba_marseille","lat":43.30211,"lon":5.37986,"is_reserved":false,"is_disabled":false,"rental_uris":{"android":"levelo://app?vid=0cfc62e7-2ad7-435e-9f4e-5576818400a0","ios":"levelo://app?vid=0cfc62e7-2ad7-435e-9f4e-5576818400a0"},"vehicle_type_id":"4","last_reported":1713380693,"current_range_meters":18000,"station_id":"","pricing_plan_id":"cebpf4jnsgd1na2vs0mg"},{"bike_id":"79b1484c-7ca2-4a8d-b15b-2987062d3cb2","system_id":"levelo_inurba_marseille","lat":43.300151,"lon":5.376564,"is_reserved":false,"is_disabled":false,"rental_uris":{"android":"levelo://app?vid=79b1484c-7ca2-4a8d-b15b-2987062d3cb2","ios":"levelo://app?vid=79b1484c-7ca2-4a8d-b15b-2987062d3cb2"},"vehicle_type_id":"4","last_reported":1713380693,"current_range_meters":24400,"station_id":"","pricing_plan_id":"cebpf4jnsgd1na2vs0mg"},{"bike_id":"45a1e597-dfc5-4023-bb81-8736fd7f17a5","system_id":"levelo_inurba_marseille","lat":43.29853,"lon":5.36293,"is_reserved":false,"is_disabled":false,"rental_uris":{"android":"levelo://app?vid=45a1e597-dfc5-4023-bb81-8736fd7f17a5","ios":"levelo://app?vid=45a1e597-dfc5-4023-bb81-8736fd7f17a5"},"vehicle_type_id":"4","last_reported":1713380693,"current_range_meters":8400,"station_id":"ce4bgpp2rcd13ifvqc3g","pricing_plan_id":"cebpf4jnsgd1na2vs0mg"},{"bike_id":"e130b02e-3c4d-460e-b9c4-20980ae89568","system_id":"levelo_inurba_marseille","lat":43.305538,"lon":5.384308,"is_reserved":false,"is_disabled":false,"rental_uris":{"android":"levelo://app?vid=e130b02e-3c4d-460e-b9c4-20980ae89568","ios":"levelo://app?vid=e130b02e-3c4d-460e-b9c4-20980ae89568"},"vehicle_type_id":"4","last_reported":1713380693,"current_range_meters":0,"station_id":"ce4bgg92rcd13ifvqb30","pricing_plan_id":"cebpf4jnsgd1na2vs0mg"},{"bike_id":"1c9a971a-fd86-4d46-87e5-1b416e9795ac","system_id":"levelo_inurba_marseille","lat":43.299243,"lon":5.37481,"is_reserved":false,"is_disabled":false,"rental_uris":{"android":"levelo://app?vid=1c9a971a-fd86-4d46-87e5-1b416e9795ac","ios":"levelo://app?vid=1c9a971a-fd86-4d46-87e5-1b416e9795ac"},"vehicle_type_id":"4","last_reported":1713380693,"current_range_meters":20800,"station_id":"ce4bgjh2rcd13ifvqbg0","pricing_plan_id":"cebpf4jnsgd1na2vs0mg"},{"bike_id":"ba8bbd23-458a-4976-81e0-a020172b283c","system_id":"levelo_inurba_marseille","lat":43.311722,"lon":5.387247,"is_reserved":false,"is_disabled":false,"rental_uris":{"android":"levelo://app?vid=ba8bbd23-458a-4976-81e0-a020172b283c","ios":"levelo://app?vid=ba8bbd23-458a-4976-81e0-a020172b283c"},"vehicle_type_id":"4","last_reported":1713380693,"current_range_meters":12000,"station_id":"ce4bgv12rcd13ifvqcp0","pricing_plan_id":"cebpf4jnsgd1na2vs0mg"},{"bike_id":"3de02f77-f3c0-476d-a4d4-fbecd456b2ad","system_id":"levelo_inurba_marseille","lat":43.311722,"lon":5.387247,"is_reserved":false,"is_disabled":false,"rental_uris":{"android":"levelo://app?vid=3de02f77-f3c0-476d-a4d4-fbecd456b2ad","ios":"levelo://app?vid=3de02f77-f3c0-476d-a4d4-fbecd456b2ad"},"vehicle_type_id":"4","last_reported":1713380693,"current_range_meters":0,"station_id":"ce4bgv12rcd13ifvqcp0","pricing_plan_id":"cebpf4jnsgd1na2vs0mg"},{"bike_id":"2d4dffc1-d210-4e46-8538-df7acbc5d313","system_id":"levelo_inurba_marseille","lat":43.311687,"lon":5.387287,"is_reserved":false,"is_disabled":false,"rental_uris":{"android":"levelo://app?vid=2d4dffc1-d210-4e46-8538-df7acbc5d313","ios":"levelo://app?vid=2d4dffc1-d210-4e46-8538-df7acbc5d313"},"vehicle_type_id":"4","last_reported":1713380693,"current_range_meters":18400,"station_id":"ce4bgv12rcd13ifvqcp0","pricing_plan_id":"cebpf4jnsgd1na2vs0mg"},{"bike_id":"c8bbca9e-9d39-4506-9be0-b7c8e2295e3d","system_id":"levelo_inurba_marseille","lat":43.311722,"lon":5.387247,"is_reserved":false,"is_disabled":false,"rental_uris":{"android":"levelo://app?vid=c8bbca9e-9d39-4506-9be0-b7c8e2295e3d","ios":"levelo://app?vid=c8bbca9e-9d39-4506-9be0-b7c8e2295e3d"},"vehicle_type_id":"4","last_reported":1713380693,"current_range_meters":18400,"station_id":"ce4bgv12rcd13ifvqcp0","pricing_plan_id":"cebpf4jnsgd1na2vs0mg"},{"bike_id":"77bf658f-f395-4124-9987-d428c4bd1da5","system_id":"levelo_inurba_marseille","lat":43.297774,"lon":5.370875,"is_reserved":false,"is_disabled":false,"rental_uris":{"android":"levelo://app?vid=77bf658f-f395-4124-9987-d428c4bd1da5","ios":"levelo://app?vid=77bf658f-f395-4124-9987-d428c4bd1da5"},"vehicle_type_id":"4","last_reported":1713380693,"current_range_meters":23200,"station_id":"ce4bgop2rcd13ifvqc1g","pricing_plan_id":"cebpf4jnsgd1na2vs0mg"},{"bike_id":"7d61ec06-9395-4362-b671-e7b8489f284d","system_id":"levelo_inurba_marseille","lat":43.297794,"lon":5.370888,"is_reserved":false,"is_disabled":false,"rental_uris":{"android":"levelo://app?vid=7d61ec06-9395-4362-b671-e7b8489f284d","ios":"levelo://app?vid=7d61ec06-9395-4362-b671-e7b8489f284d"},"vehicle_type_id":"4","last_reported":1713380693,"current_range_meters":18800,"station_id":"ce4bgop2rcd13ifvqc1g","pricing_plan_id":"cebpf4jnsgd1na2vs0mg"},{"bike_id":"df0f8dc8-fb2a-453d-8b11-20734b527d7d","system_id":"levelo_inurba_marseille","lat":43.27618,"lon":5.361009,"is_reserved":false,"is_disabled":false,"rental_uris":{"android":"levelo://app?vid=df0f8dc8-fb2a-453d-8b11-20734b527d7d","ios":"levelo://app?vid=df0f8dc8-fb2a-453d-8b11-20734b527d7d"},"vehicle_type_id":"4","last_reported":1713380693,"current_range_meters":0,"station_id":"ce4bgj92rcd13ifvqbe0","pricing_plan_id":"cebpf4jnsgd1na2vs0mg"},{"bike_id":"7d5fd475-d045-43ea-a449-bbf319400056","system_id":"levelo_inurba_marseille","lat":43.30221,"lon":5.38199,"is_reserved":false,"is_disabled":false,"rental_uris":{"android":"levelo://app?vid=7d5fd475-d045-43ea-a449-bbf319400056","ios":"levelo://app?vid=7d5fd475-d045-43ea-a449-bbf319400056"},"vehicle_type_id":"4","last_reported":1713380693,"current_range_meters":7200,"station_id":"","pricing_plan_id":"cebpf4jnsgd1na2vs0mg"},{"bike_id":"b3a857fb-6d35-4a10-b4f8-94592f0bbb24","system_id":"levelo_inurba_marseille","lat":43.297794,"lon":5.370888,"is_reserved":false,"is_disabled":false,"rental_uris":{"android":"levelo://app?vid=b3a857fb-6d35-4a10-b4f8-94592f0bbb24","ios":"levelo://app?vid=b3a857fb-6d35-4a10-b4f8-94592f0bbb24"},"vehicle_type_id":"4","last_reported":1713380693,"current_range_meters":8000,"station_id":"ce4bgop2rcd13ifvqc1g","pricing_plan_id":"cebpf4jnsgd1na2vs0mg"},{"bike_id":"e6ab72cf-f560-4717-91c1-42b63f3ee6c8","system_id":"levelo_inurba_marseille","lat":43.322872,"lon":5.382756,"is_reserved":false,"is_disabled":false,"rental_uris":{"android":"levelo://app?vid=e6ab72cf-f560-4717-91c1-42b63f3ee6c8","ios":"levelo://app?vid=e6ab72cf-f560-4717-91c1-42b63f3ee6c8"},"vehicle_type_id":"4","last_reported":1713380693,"current_range_meters":21200,"station_id":"ce4bhr12rcd13ifvqhqg","pricing_plan_id":"cebpf4jnsgd1na2vs0mg"},{"bike_id":"50c48fd1-1d17-430a-a7e2-4475109305e2","system_id":"levelo_inurba_marseille","lat":43.322872,"lon":5.382756,"is_reserved":false,"is_disabled":false,"rental_uris":{"android":"levelo://app?vid=50c48fd1-1d17-430a-a7e2-4475109305e2","ios":"levelo://app?vid=50c48fd1-1d17-430a-a7e2-4475109305e2"},"vehicle_type_id":"4","last_reported":1713380693,"current_range_meters":20000,"station_id":"ce4bhr12rcd13ifvqhqg","pricing_plan_id":"cebpf4jnsgd1na2vs0mg"},{"bike_id":"6c4d1a0b-97b3-4e86-87c5-6e727d67c919","system_id":"levelo_inurba_marseille","lat":43.322872,"lon":5.382756,"is_reserved":false,"is_disabled":false,"rental_uris":{"android":"levelo://app?vid=6c4d1a0b-97b3-4e86-87c5-6e727d67c919","ios":"levelo://app?vid=6c4d1a0b-97b3-4e86-87c5-6e727d67c919"},"vehicle_type_id":"4","last_reported":1713380693,"current_range_meters":30800,"station_id":"ce4bhr12rcd13ifvqhqg","pricing_plan_id":"cebpf4jnsgd1na2vs0mg"},{"bike_id":"53f5718e-9a19-47d1-a5f4-af5afcfa1676","system_id":"levelo_inurba_marseille","lat":43.297794,"lon":5.370888,"is_reserved":false,"is_disabled":false,"rental_uris":{"android":"levelo://app?vid=53f5718e-9a19-47d1-a5f4-af5afcfa1676","ios":"levelo://app?vid=53f5718e-9a19-47d1-a5f4-af5afcfa1676"},"vehicle_type_id":"4","last_reported":1713380693,"current_range_meters":5600,"station_id":"ce4bgop2rcd13ifvqc1g","pricing_plan_id":"cebpf4jnsgd1na2vs0mg"},{"bike_id":"cd97d608-1f2b-4521-b814-7007f99b3edf","system_id":"levelo_inurba_marseille","lat":43.297163,"lon":5.365866,"is_reserved":false,"is_disabled":false,"rental_uris":{"android":"levelo://app?vid=cd97d608-1f2b-4521-b814-7007f99b3edf","ios":"levelo://app?vid=cd97d608-1f2b-4521-b814-7007f99b3edf"},"vehicle_type_id":"4","last_reported":1713380693,"current_range_meters":9200,"station_id":"ce4bgn12rcd13ifvqbt0","pricing_plan_id":"cebpf4jnsgd1na2vs0mg"},{"bike_id":"4bbfab95-47ae-4772-8347-39314e34cf26","system_id":"levelo_inurba_marseille","lat":43.2968,"lon":5.37291,"is_reserved":false,"is_disabled":false,"rental_uris":{"android":"levelo://app?vid=4bbfab95-47ae-4772-8347-39314e34cf26","ios":"levelo://app?vid=4bbfab95-47ae-4772-8347-39314e34cf26"},"vehicle_type_id":"4","last_reported":1713380693,"current_range_meters":23200,"station_id":"ce4bgk12rcd13ifvqbj0","pricing_plan_id":"cebpf4jnsgd1na2vs0mg"},{"bike_id":"7266e7a7-5e08-49b2-afe6-14a6a03e209b","system_id":"levelo_inurba_marseille","lat":43.29626,"lon":5.37105,"is_reserved":false,"is_disabled":false,"rental_uris":{"android":"levelo://app?vid=7266e7a7-5e08-49b2-afe6-14a6a03e209b","ios":"levelo://app?vid=7266e7a7-5e08-49b2-afe6-14a6a03e209b"},"vehicle_type_id":"4","last_reported":1713380693,"current_range_meters":21200,"station_id":"","pricing_plan_id":"cebpf4jnsgd1na2vs0mg"},{"bike_id":"b1390a59-7c49-42d9-ab0a-a50c1ac59020","system_id":"levelo_inurba_marseille","lat":43.296131,"lon":5.370791,"is_reserved":false,"is_disabled":false,"rental_uris":{"android":"levelo://app?vid=b1390a59-7c49-42d9-ab0a-a50c1ac59020","ios":"levelo://app?vid=b1390a59-7c49-42d9-ab0a-a50c1ac59020"},"vehicle_type_id":"4","last_reported":1713380693,"current_range_meters":20000,"station_id":"ce4bgnh2rcd13ifvqc0g","pricing_plan_id":"cebpf4jnsgd1na2vs0mg"},{"bike_id":"998d6181-4f74-477b-913c-f392b0590e58","system_id":"levelo_inurba_marseille","lat":43.296131,"lon":5.370773,"is_reserved":false,"is_disabled":false,"rental_uris":{"android":"levelo://app?vid=998d6181-4f74-477b-913c-f392b0590e58","ios":"levelo://app?vid=998d6181-4f74-477b-913c-f392b0590e58"},"vehicle_type_id":"4","last_reported":1713380693,"current_range_meters":17600,"station_id":"ce4bgnh2rcd13ifvqc0g","pricing_plan_id":"cebpf4jnsgd1na2vs0mg"},{"bike_id":"bfdeaaba-fe35-46de-b925-88b134a23a26","system_id":"levelo_inurba_marseille","lat":43.29901,"lon":5.38109,"is_reserved":false,"is_disabled":false,"rental_uris":{"android":"levelo://app?vid=bfdeaaba-fe35-46de-b925-88b134a23a26","ios":"levelo://app?vid=bfdeaaba-fe35-46de-b925-88b134a23a26"},"vehicle_type_id":"4","last_reported":1713380693,"current_range_meters":20400,"station_id":"ce4bgj12rcd13ifvqbc0","pricing_plan_id":"cebpf4jnsgd1na2vs0mg"},{"bike_id":"42548b2b-4ba4-4ef0-8cab-10bbc204402f","system_id":"levelo_inurba_marseille","lat":43.296921,"lon":5.376579,"is_reserved":false,"is_disabled":false,"rental_uris":{"android":"levelo://app?vid=42548b2b-4ba4-4ef0-8cab-10bbc204402f","ios":"levelo://app?vid=42548b2b-4ba4-4ef0-8cab-10bbc204402f"},"vehicle_type_id":"4","last_reported":1713380693,"current_range_meters":2800,"station_id":"ce4bgkh2rcd13ifvqbl0","pricing_plan_id":"cebpf4jnsgd1na2vs0mg"},{"bike_id":"cb918a48-0ef9-4bde-bc52-6f2cf8148377","system_id":"levelo_inurba_marseille","lat":43.299243,"lon":5.37481,"is_reserved":false,"is_disabled":false,"rental_uris":{"android":"levelo://app?vid=cb918a48-0ef9-4bde-bc52-6f2cf8148377","ios":"levelo://app?vid=cb918a48-0ef9-4bde-bc52-6f2cf8148377"},"vehicle_type_id":"4","last_reported":1713380693,"current_range_meters":31200,"station_id":"ce4bgjh2rcd13ifvqbg0","pricing_plan_id":"cebpf4jnsgd1na2vs0mg"},{"bike_id":"7bee203a-ac66-4fa1-849d-cdef31128d58","system_id":"levelo_inurba_marseille","lat":43.317557,"lon":5.390173,"is_reserved":false,"is_disabled":false,"rental_uris":{"android":"levelo://app?vid=7bee203a-ac66-4fa1-849d-cdef31128d58","ios":"levelo://app?vid=7bee203a-ac66-4fa1-849d-cdef31128d58"},"vehicle_type_id":"4","last_reported":1713380693,"current_range_meters":31200,"station_id":"ce4bhqp2rcd13ifvqhng","pricing_plan_id":"cebpf4jnsgd1na2vs0mg"},{"bike_id":"e6245ced-6502-4282-bc2f-4c0ec54f7906","system_id":"levelo_inurba_marseille","lat":43.317557,"lon":5.390173,"is_reserved":false,"is_disabled":false,"rental_uris":{"android":"levelo://app?vid=e6245ced-6502-4282-bc2f-4c0ec54f7906","ios":"levelo://app?vid=e6245ced-6502-4282-bc2f-4c0ec54f7906"},"vehicle_type_id":"4","last_reported":1713380693,"current_range_meters":26800,"station_id":"ce4bhqp2rcd13ifvqhng","pricing_plan_id":"cebpf4jnsgd1na2vs0mg"},{"bike_id":"4eb574d4-43ac-46fe-ac30-8c2643c65202","system_id":"levelo_inurba_marseille","lat":43.304274,"lon":5.388873,"is_reserved":false,"is_disabled":false,"rental_uris":{"android":"levelo://app?vid=4eb574d4-43ac-46fe-ac30-8c2643c65202","ios":"levelo://app?vid=4eb574d4-43ac-46fe-ac30-8c2643c65202"},"vehicle_type_id":"4","last_reported":1713380693,"current_range_meters":1200,"station_id":"ce4bgk12rcd13ifvqbi0","pricing_plan_id":"cebpf4jnsgd1na2vs0mg"},{"bike_id":"ca76400c-bbda-4410-a857-4dd106a92764","system_id":"levelo_inurba_marseille","lat":43.309589,"lon":5.390258,"is_reserved":false,"is_disabled":false,"rental_uris":{"android":"levelo://app?vid=ca76400c-bbda-4410-a857-4dd106a92764","ios":"levelo://app?vid=ca76400c-bbda-4410-a857-4dd106a92764"},"vehicle_type_id":"4","last_reported":1713380693,"current_range_meters":0,"station_id":"ce4bgup2rcd13ifvqco0","pricing_plan_id":"cebpf4jnsgd1na2vs0mg"},{"bike_id":"0c3cfe5e-261f-4601-8198-1831e1da2ebe","system_id":"levelo_inurba_marseille","lat":43.298037,"lon":5.381066,"is_reserved":false,"is_disabled":false,"rental_uris":{"android":"levelo://app?vid=0c3cfe5e-261f-4601-8198-1831e1da2ebe","ios":"levelo://app?vid=0c3cfe5e-261f-4601-8198-1831e1da2ebe"},"vehicle_type_id":"4","last_reported":1713380693,"current_range_meters":15600,"station_id":"ce4bgip2rcd13ifvqbb0","pricing_plan_id":"cebpf4jnsgd1na2vs0mg"},{"bike_id":"6ec7930d-785a-4594-a640-c139529df637","system_id":"levelo_inurba_marseille","lat":43.298037,"lon":5.381066,"is_reserved":false,"is_disabled":false,"rental_uris":{"android":"levelo://app?vid=6ec7930d-785a-4594-a640-c139529df637","ios":"levelo://app?vid=6ec7930d-785a-4594-a640-c139529df637"},"vehicle_type_id":"4","last_reported":1713380693,"current_range_meters":24400,"station_id":"ce4bgip2rcd13ifvqbb0","pricing_plan_id":"cebpf4jnsgd1na2vs0mg"},{"bike_id":"370ecb1a-bd4a-475c-bfe7-216c39b8012a","system_id":"levelo_inurba_marseille","lat":43.295748,"lon":5.37522,"is_reserved":false,"is_disabled":false,"rental_uris":{"android":"levelo://app?vid=370ecb1a-bd4a-475c-bfe7-216c39b8012a","ios":"levelo://app?vid=370ecb1a-bd4a-475c-bfe7-216c39b8012a"},"vehicle_type_id":"4","last_reported":1713380693,"current_range_meters":8400,"station_id":"ce4bgh92rcd13ifvqb50","pricing_plan_id":"cebpf4jnsgd1na2vs0mg"},{"bike_id":"a46ebb96-4362-463c-a268-0c360253d0d9","system_id":"levelo_inurba_marseille","lat":43.295748,"lon":5.37522,"is_reserved":false,"is_disabled":false,"rental_uris":{"android":"levelo://app?vid=a46ebb96-4362-463c-a268-0c360253d0d9","ios":"levelo://app?vid=a46ebb96-4362-463c-a268-0c360253d0d9"},"vehicle_type_id":"4","last_reported":1713380693,"current_range_meters":6400,"station_id":"ce4bgh92rcd13ifvqb50","pricing_plan_id":"cebpf4jnsgd1na2vs0mg"},{"bike_id":"f107b5c4-fd2d-47d1-92f4-c9b431aa32a0","system_id":"levelo_inurba_marseille","lat":43.304278,"lon":5.388868,"is_reserved":false,"is_disabled":false,"rental_uris":{"android":"levelo://app?vid=f107b5c4-fd2d-47d1-92f4-c9b431aa32a0","ios":"levelo://app?vid=f107b5c4-fd2d-47d1-92f4-c9b431aa32a0"},"vehicle_type_id":"4","last_reported":1713380693,"current_range_meters":9600,"station_id":"ce4bgk12rcd13ifvqbi0","pricing_plan_id":"cebpf4jnsgd1na2vs0mg"},{"bike_id":"6e9ebeeb-83e9-49af-8c54-454c0028baed","system_id":"levelo_inurba_marseille","lat":43.298037,"lon":5.381066,"is_reserved":false,"is_disabled":false,"rental_uris":{"android":"levelo://app?vid=6e9ebeeb-83e9-49af-8c54-454c0028baed","ios":"levelo://app?vid=6e9ebeeb-83e9-49af-8c54-454c0028baed"},"vehicle_type_id":"4","last_reported":1713380693,"current_range_meters":2000,"station_id":"ce4bgip2rcd13ifvqbb0","pricing_plan_id":"cebpf4jnsgd1na2vs0mg"},{"bike_id":"83fe6de2-b3aa-4bfe-af95-bbb490ecf35e","system_id":"levelo_inurba_marseille","lat":43.295748,"lon":5.37522,"is_reserved":false,"is_disabled":false,"rental_uris":{"android":"levelo://app?vid=83fe6de2-b3aa-4bfe-af95-bbb490ecf35e","ios":"levelo://app?vid=83fe6de2-b3aa-4bfe-af95-bbb490ecf35e"},"vehicle_type_id":"4","last_reported":1713380693,"current_range_meters":23600,"station_id":"ce4bgh92rcd13ifvqb50","pricing_plan_id":"cebpf4jnsgd1na2vs0mg"},{"bike_id":"d410cfa7-a5de-4b2d-8c02-4e9c77bb2e3d","system_id":"levelo_inurba_marseille","lat":43.304278,"lon":5.388868,"is_reserved":false,"is_disabled":false,"rental_uris":{"android":"levelo://app?vid=d410cfa7-a5de-4b2d-8c02-4e9c77bb2e3d","ios":"levelo://app?vid=d410cfa7-a5de-4b2d-8c02-4e9c77bb2e3d"},"vehicle_type_id":"4","last_reported":1713380693,"current_range_meters":28400,"station_id":"ce4bgk12rcd13ifvqbi0","pricing_plan_id":"cebpf4jnsgd1na2vs0mg"},{"bike_id":"a10b7363-a038-45f3-845c-80e8e7f27639","system_id":"levelo_inurba_marseille","lat":43.295511,"lon":5.422926,"is_reserved":false,"is_disabled":false,"rental_uris":{"android":"levelo://app?vid=a10b7363-a038-45f3-845c-80e8e7f27639","ios":"levelo://app?vid=a10b7363-a038-45f3-845c-80e8e7f27639"},"vehicle_type_id":"4","last_reported":1713380693,"current_range_meters":400,"station_id":"ce4bhph2rcd13ifvqhdg","pricing_plan_id":"cebpf4jnsgd1na2vs0mg"},{"bike_id":"d22ceeaf-0a05-4ff1-855b-73063c67aad6","system_id":"levelo_inurba_marseille","lat":43.304278,"lon":5.388868,"is_reserved":false,"is_disabled":false,"rental_uris":{"android":"levelo://app?vid=d22ceeaf-0a05-4ff1-855b-73063c67aad6","ios":"levelo://app?vid=d22ceeaf-0a05-4ff1-855b-73063c67aad6"},"vehicle_type_id":"4","last_reported":1713380693,"current_range_meters":10800,"station_id":"ce4bgk12rcd13ifvqbi0","pricing_plan_id":"cebpf4jnsgd1na2vs0mg"},{"bike_id":"e20e9618-0bc3-44de-a5b4-361471979bc0","system_id":"levelo_inurba_marseille","lat":43.296263,"lon":5.377094,"is_reserved":false,"is_disabled":false,"rental_uris":{"android":"levelo://app?vid=e20e9618-0bc3-44de-a5b4-361471979bc0","ios":"levelo://app?vid=e20e9618-0bc3-44de-a5b4-361471979bc0"},"vehicle_type_id":"4","last_reported":1713380693,"current_range_meters":20000,"station_id":"ce4bgi92rcd13ifvqb90","pricing_plan_id":"cebpf4jnsgd1na2vs0mg"},{"bike_id":"6fb0334f-ae04-4729-a916-023c41bc27bb","system_id":"levelo_inurba_marseille","lat":43.304278,"lon":5.388868,"is_reserved":false,"is_disabled":false,"rental_uris":{"android":"levelo://app?vid=6fb0334f-ae04-4729-a916-023c41bc27bb","ios":"levelo://app?vid=6fb0334f-ae04-4729-a916-023c41bc27bb"},"vehicle_type_id":"4","last_reported":1713380693,"current_range_meters":0,"station_id":"ce4bgk12rcd13ifvqbi0","pricing_plan_id":"cebpf4jnsgd1na2vs0mg"},{"bike_id":"b140bfe3-9ed5-4ac2-92e2-e9b7fa2a2123","system_id":"levelo_inurba_marseille","lat":43.298037,"lon":5.381066,"is_reserved":false,"is_disabled":false,"rental_uris":{"android":"levelo://app?vid=b140bfe3-9ed5-4ac2-92e2-e9b7fa2a2123","ios":"levelo://app?vid=b140bfe3-9ed5-4ac2-92e2-e9b7fa2a2123"},"vehicle_type_id":"4","last_reported":1713380693,"current_range_meters":4800,"station_id":"ce4bgip2rcd13ifvqbb0","pricing_plan_id":"cebpf4jnsgd1na2vs0mg"},{"bike_id":"1609b739-13c5-407d-8c5d-4931ed2016a4","system_id":"levelo_inurba_marseille","lat":43.304274,"lon":5.388873,"is_reserved":false,"is_disabled":false,"rental_uris":{"android":"levelo://app?vid=1609b739-13c5-407d-8c5d-4931ed2016a4","ios":"levelo://app?vid=1609b739-13c5-407d-8c5d-4931ed2016a4"},"vehicle_type_id":"4","last_reported":1713380693,"current_range_meters":0,"station_id":"ce4bgk12rcd13ifvqbi0","pricing_plan_id":"cebpf4jnsgd1na2vs0mg"},{"bike_id":"90376083-1b66-41e0-8815-30466fce7973","system_id":"levelo_inurba_marseille","lat":43.290104,"lon":5.356111,"is_reserved":false,"is_disabled":false,"rental_uris":{"android":"levelo://app?vid=90376083-1b66-41e0-8815-30466fce7973","ios":"levelo://app?vid=90376083-1b66-41e0-8815-30466fce7973"},"vehicle_type_id":"4","last_reported":1713380693,"current_range_meters":3200,"station_id":"ce4bhb92rcd13ifvqen0","pricing_plan_id":"cebpf4jnsgd1na2vs0mg"},{"bike_id":"0d2f4beb-8816-4062-a2a7-67e518ff79b1","system_id":"levelo_inurba_marseille","lat":43.295279,"lon":5.375048,"is_reserved":false,"is_disabled":false,"rental_uris":{"android":"levelo://app?vid=0d2f4beb-8816-4062-a2a7-67e518ff79b1","ios":"levelo://app?vid=0d2f4beb-8816-4062-a2a7-67e518ff79b1"},"vehicle_type_id":"4","last_reported":1713380693,"current_range_meters":2400,"station_id":"ce4bgkp2rcd13ifvqbmg","pricing_plan_id":"cebpf4jnsgd1na2vs0mg"},{"bike_id":"ead65bf2-e6bf-49fe-a77a-0df4fe687527","system_id":"levelo_inurba_marseille","lat":43.299707,"lon":5.384859,"is_reserved":false,"is_disabled":false,"rental_uris":{"android":"levelo://app?vid=ead65bf2-e6bf-49fe-a77a-0df4fe687527","ios":"levelo://app?vid=ead65bf2-e6bf-49fe-a77a-0df4fe687527"},"vehicle_type_id":"4","last_reported":1713380693,"current_range_meters":3200,"station_id":"ce4bgj92rcd13ifvqbd0","pricing_plan_id":"cebpf4jnsgd1na2vs0mg"},{"bike_id":"6b883f03-c5f0-453c-a3cc-78fadaa20f31","system_id":"levelo_inurba_marseille","lat":43.299717,"lon":5.384845,"is_reserved":false,"is_disabled":false,"rental_uris":{"android":"levelo://app?vid=6b883f03-c5f0-453c-a3cc-78fadaa20f31","ios":"levelo://app?vid=6b883f03-c5f0-453c-a3cc-78fadaa20f31"},"vehicle_type_id":"4","last_reported":1713380693,"current_range_meters":0,"station_id":"ce4bgj92rcd13ifvqbd0","pricing_plan_id":"cebpf4jnsgd1na2vs0mg"},{"bike_id":"f932dc2e-825a-4488-bcd9-01f9481858b6","system_id":"levelo_inurba_marseille","lat":43.29962,"lon":5.38496,"is_reserved":false,"is_disabled":false,"rental_uris":{"android":"levelo://app?vid=f932dc2e-825a-4488-bcd9-01f9481858b6","ios":"levelo://app?vid=f932dc2e-825a-4488-bcd9-01f9481858b6"},"vehicle_type_id":"4","last_reported":1713380693,"current_range_meters":10000,"station_id":"ce4bgj92rcd13ifvqbd0","pricing_plan_id":"cebpf4jnsgd1na2vs0mg"},{"bike_id":"2baaaeb2-4429-4dff-8f88-23b375940693","system_id":"levelo_inurba_marseille","lat":43.299724,"lon":5.384848,"is_reserved":false,"is_disabled":false,"rental_uris":{"android":"levelo://app?vid=2baaaeb2-4429-4dff-8f88-23b375940693","ios":"levelo://app?vid=2baaaeb2-4429-4dff-8f88-23b375940693"},"vehicle_type_id":"4","last_reported":1713380693,"current_range_meters":2400,"station_id":"ce4bgj92rcd13ifvqbd0","pricing_plan_id":"cebpf4jnsgd1na2vs0mg"},{"bike_id":"5303ce99-67c8-4736-8ea4-1998b03f936e","system_id":"levelo_inurba_marseille","lat":43.29963,"lon":5.38501,"is_reserved":false,"is_disabled":false,"rental_uris":{"android":"levelo://app?vid=5303ce99-67c8-4736-8ea4-1998b03f936e","ios":"levelo://app?vid=5303ce99-67c8-4736-8ea4-1998b03f936e"},"vehicle_type_id":"4","last_reported":1713380693,"current_range_meters":18400,"station_id":"ce4bgj92rcd13ifvqbd0","pricing_plan_id":"cebpf4jnsgd1na2vs0mg"},{"bike_id":"62e85d36-3072-4269-8b55-c89b8f683d84","system_id":"levelo_inurba_marseille","lat":43.304274,"lon":5.388873,"is_reserved":false,"is_disabled":false,"rental_uris":{"android":"levelo://app?vid=62e85d36-3072-4269-8b55-c89b8f683d84","ios":"levelo://app?vid=62e85d36-3072-4269-8b55-c89b8f683d84"},"vehicle_type_id":"4","last_reported":1713380693,"current_range_meters":1600,"station_id":"ce4bgk12rcd13ifvqbi0","pricing_plan_id":"cebpf4jnsgd1na2vs0mg"},{"bike_id":"55a9ebd5-07d7-4be7-be09-b32d16ca5fad","system_id":"levelo_inurba_marseille","lat":43.299413,"lon":5.385063,"is_reserved":false,"is_disabled":false,"rental_uris":{"android":"levelo://app?vid=55a9ebd5-07d7-4be7-be09-b32d16ca5fad","ios":"levelo://app?vid=55a9ebd5-07d7-4be7-be09-b32d16ca5fad"},"vehicle_type_id":"4","last_reported":1713380693,"current_range_meters":16800,"station_id":"ce4bgj92rcd13ifvqbd0","pricing_plan_id":"cebpf4jnsgd1na2vs0mg"},{"bike_id":"567908ff-af7a-470f-a67e-14cb4efdd25b","system_id":"levelo_inurba_marseille","lat":43.32367,"lon":5.388836,"is_reserved":false,"is_disabled":false,"rental_uris":{"android":"levelo://app?vid=567908ff-af7a-470f-a67e-14cb4efdd25b","ios":"levelo://app?vid=567908ff-af7a-470f-a67e-14cb4efdd25b"},"vehicle_type_id":"4","last_reported":1713380693,"current_range_meters":0,"station_id":"ce4bhqp2rcd13ifvqhog","pricing_plan_id":"cebpf4jnsgd1na2vs0mg"},{"bike_id":"47cea0d7-d32f-4905-99ee-66d9522440d5","system_id":"levelo_inurba_marseille","lat":43.32367,"lon":5.388836,"is_reserved":false,"is_disabled":false,"rental_uris":{"android":"levelo://app?vid=47cea0d7-d32f-4905-99ee-66d9522440d5","ios":"levelo://app?vid=47cea0d7-d32f-4905-99ee-66d9522440d5"},"vehicle_type_id":"4","last_reported":1713380693,"current_range_meters":15200,"station_id":"ce4bhqp2rcd13ifvqhog","pricing_plan_id":"cebpf4jnsgd1na2vs0mg"},{"bike_id":"2507d039-283c-4515-bced-f26a28c54abf","system_id":"levelo_inurba_marseille","lat":43.32367,"lon":5.388836,"is_reserved":false,"is_disabled":false,"rental_uris":{"android":"levelo://app?vid=2507d039-283c-4515-bced-f26a28c54abf","ios":"levelo://app?vid=2507d039-283c-4515-bced-f26a28c54abf"},"vehicle_type_id":"4","last_reported":1713380693,"current_range_meters":22800,"station_id":"ce4bhqp2rcd13ifvqhog","pricing_plan_id":"cebpf4jnsgd1na2vs0mg"},{"bike_id":"6d45cb45-8444-4195-aa54-f0879a755417","system_id":"levelo_inurba_marseille","lat":43.29602,"lon":5.381084,"is_reserved":false,"is_disabled":false,"rental_uris":{"android":"levelo://app?vid=6d45cb45-8444-4195-aa54-f0879a755417","ios":"levelo://app?vid=6d45cb45-8444-4195-aa54-f0879a755417"},"vehicle_type_id":"4","last_reported":1713380693,"current_range_meters":27600,"station_id":"ce4bgl12rcd13ifvqbo0","pricing_plan_id":"cebpf4jnsgd1na2vs0mg"},{"bike_id":"a2c1f7eb-e7be-475b-9ad0-938202868bba","system_id":"levelo_inurba_marseille","lat":43.29602,"lon":5.381084,"is_reserved":false,"is_disabled":false,"rental_uris":{"android":"levelo://app?vid=a2c1f7eb-e7be-475b-9ad0-938202868bba","ios":"levelo://app?vid=a2c1f7eb-e7be-475b-9ad0-938202868bba"},"vehicle_type_id":"4","last_reported":1713380693,"current_range_meters":10800,"station_id":"ce4bgl12rcd13ifvqbo0","pricing_plan_id":"cebpf4jnsgd1na2vs0mg"},{"bike_id":"b3d7bad1-191a-4e8c-ac2e-d079e0025f0b","system_id":"levelo_inurba_marseille","lat":43.29599,"lon":5.38095,"is_reserved":false,"is_disabled":false,"rental_uris":{"android":"levelo://app?vid=b3d7bad1-191a-4e8c-ac2e-d079e0025f0b","ios":"levelo://app?vid=b3d7bad1-191a-4e8c-ac2e-d079e0025f0b"},"vehicle_type_id":"4","last_reported":1713380693,"current_range_meters":15600,"station_id":"ce4bgl12rcd13ifvqbo0","pricing_plan_id":"cebpf4jnsgd1na2vs0mg"},{"bike_id":"bee95e8b-ea2b-40f5-9674-70164f89c1b1","system_id":"levelo_inurba_marseille","lat":43.29603,"lon":5.38107,"is_reserved":false,"is_disabled":false,"rental_uris":{"android":"levelo://app?vid=bee95e8b-ea2b-40f5-9674-70164f89c1b1","ios":"levelo://app?vid=bee95e8b-ea2b-40f5-9674-70164f89c1b1"},"vehicle_type_id":"4","last_reported":1713380693,"current_range_meters":0,"station_id":"ce4bgl12rcd13ifvqbo0","pricing_plan_id":"cebpf4jnsgd1na2vs0mg"},{"bike_id":"82af7f51-ae40-476e-8ce0-8e533c1df6fb","system_id":"levelo_inurba_marseille","lat":43.29601,"lon":5.38103,"is_reserved":false,"is_disabled":false,"rental_uris":{"android":"levelo://app?vid=82af7f51-ae40-476e-8ce0-8e533c1df6fb","ios":"levelo://app?vid=82af7f51-ae40-476e-8ce0-8e533c1df6fb"},"vehicle_type_id":"4","last_reported":1713380693,"current_range_meters":0,"station_id":"ce4bgl12rcd13ifvqbo0","pricing_plan_id":"cebpf4jnsgd1na2vs0mg"},{"bike_id":"94d5ee86-2da4-4c2f-8c1e-3aeabf9a39e6","system_id":"levelo_inurba_marseille","lat":43.297163,"lon":5.365866,"is_reserved":false,"is_disabled":false,"rental_uris":{"android":"levelo://app?vid=94d5ee86-2da4-4c2f-8c1e-3aeabf9a39e6","ios":"levelo://app?vid=94d5ee86-2da4-4c2f-8c1e-3aeabf9a39e6"},"vehicle_type_id":"4","last_reported":1713380693,"current_range_meters":27600,"station_id":"ce4bgn12rcd13ifvqbt0","pricing_plan_id":"cebpf4jnsgd1na2vs0mg"},{"bike_id":"c7dee089-83fa-4b61-b886-5de977427e84","system_id":"levelo_inurba_marseille","lat":43.299724,"lon":5.371829,"is_reserved":false,"is_disabled":false,"rental_uris":{"android":"levelo://app?vid=c7dee089-83fa-4b61-b886-5de977427e84","ios":"levelo://app?vid=c7dee089-83fa-4b61-b886-5de977427e84"},"vehicle_type_id":"4","last_reported":1713380693,"current_range_meters":3200,"station_id":"ce4bgr92rcd13ifvqc7g","pricing_plan_id":"cebpf4jnsgd1na2vs0mg"},{"bike_id":"6fde745e-4adf-493a-91bc-e7c4ab0e4ef5","system_id":"levelo_inurba_marseille","lat":43.29602,"lon":5.381084,"is_reserved":false,"is_disabled":false,"rental_uris":{"android":"levelo://app?vid=6fde745e-4adf-493a-91bc-e7c4ab0e4ef5","ios":"levelo://app?vid=6fde745e-4adf-493a-91bc-e7c4ab0e4ef5"},"vehicle_type_id":"4","last_reported":1713380693,"current_range_meters":12000,"station_id":"ce4bgl12rcd13ifvqbo0","pricing_plan_id":"cebpf4jnsgd1na2vs0mg"},{"bike_id":"672391c7-d7ed-4ba6-970c-25129cc93e2c","system_id":"levelo_inurba_marseille","lat":43.293122,"lon":5.371788,"is_reserved":false,"is_disabled":false,"rental_uris":{"android":"levelo://app?vid=672391c7-d7ed-4ba6-970c-25129cc93e2c","ios":"levelo://app?vid=672391c7-d7ed-4ba6-970c-25129cc93e2c"},"vehicle_type_id":"4","last_reported":1713380693,"current_range_meters":4400,"station_id":"ce4bgh92rcd13ifvqb40","pricing_plan_id":"cebpf4jnsgd1na2vs0mg"},{"bike_id":"f7db7842-2fc7-4cdc-84af-d2b4c261897e","system_id":"levelo_inurba_marseille","lat":43.292749,"lon":5.368398,"is_reserved":false,"is_disabled":false,"rental_uris":{"android":"levelo://app?vid=f7db7842-2fc7-4cdc-84af-d2b4c261897e","ios":"levelo://app?vid=f7db7842-2fc7-4cdc-84af-d2b4c261897e"},"vehicle_type_id":"4","last_reported":1713380693,"current_range_meters":2800,"station_id":"ce4bhbp2rcd13ifvqesg","pricing_plan_id":"cebpf4jnsgd1na2vs0mg"},{"bike_id":"d567a949-b003-4531-ab8e-5bb7d8041a8a","system_id":"levelo_inurba_marseille","lat":43.29309,"lon":5.37178,"is_reserved":false,"is_disabled":false,"rental_uris":{"android":"levelo://app?vid=d567a949-b003-4531-ab8e-5bb7d8041a8a","ios":"levelo://app?vid=d567a949-b003-4531-ab8e-5bb7d8041a8a"},"vehicle_type_id":"4","last_reported":1713380693,"current_range_meters":22800,"station_id":"ce4bgh92rcd13ifvqb40","pricing_plan_id":"cebpf4jnsgd1na2vs0mg"},{"bike_id":"cf161567-63de-4f4e-aef8-9133aa88c086","system_id":"levelo_inurba_marseille","lat":43.293249,"lon":5.371578,"is_reserved":false,"is_disabled":false,"rental_uris":{"android":"levelo://app?vid=cf161567-63de-4f4e-aef8-9133aa88c086","ios":"levelo://app?vid=cf161567-63de-4f4e-aef8-9133aa88c086"},"vehicle_type_id":"4","last_reported":1713380693,"current_range_meters":8800,"station_id":"ce4bgh92rcd13ifvqb40","pricing_plan_id":"cebpf4jnsgd1na2vs0mg"},{"bike_id":"166b2780-898c-4651-be25-61411444b34b","system_id":"levelo_inurba_marseille","lat":43.29308,"lon":5.37181,"is_reserved":false,"is_disabled":false,"rental_uris":{"android":"levelo://app?vid=166b2780-898c-4651-be25-61411444b34b","ios":"levelo://app?vid=166b2780-898c-4651-be25-61411444b34b"},"vehicle_type_id":"4","last_reported":1713380693,"current_range_meters":9600,"station_id":"ce4bgh92rcd13ifvqb40","pricing_plan_id":"cebpf4jnsgd1na2vs0mg"},{"bike_id":"d3d3c584-0adf-4643-abac-120d6d0063bb","system_id":"levelo_inurba_marseille","lat":43.29306,"lon":5.371793,"is_reserved":false,"is_disabled":false,"rental_uris":{"android":"levelo://app?vid=d3d3c584-0adf-4643-abac-120d6d0063bb","ios":"levelo://app?vid=d3d3c584-0adf-4643-abac-120d6d0063bb"},"vehicle_type_id":"4","last_reported":1713380693,"current_range_meters":25600,"station_id":"ce4bgh92rcd13ifvqb40","pricing_plan_id":"cebpf4jnsgd1na2vs0mg"},{"bike_id":"c5fbdaae-981b-488a-9b2c-824dcb8c69f1","system_id":"levelo_inurba_marseille","lat":43.29303,"lon":5.37179,"is_reserved":false,"is_disabled":false,"rental_uris":{"android":"levelo://app?vid=c5fbdaae-981b-488a-9b2c-824dcb8c69f1","ios":"levelo://app?vid=c5fbdaae-981b-488a-9b2c-824dcb8c69f1"},"vehicle_type_id":"4","last_reported":1713380693,"current_range_meters":3600,"station_id":"ce4bgh92rcd13ifvqb40","pricing_plan_id":"cebpf4jnsgd1na2vs0mg"},{"bike_id":"d1817761-3716-40a7-be7a-181171cf46af","system_id":"levelo_inurba_marseille","lat":43.292749,"lon":5.368398,"is_reserved":false,"is_disabled":false,"rental_uris":{"android":"levelo://app?vid=d1817761-3716-40a7-be7a-181171cf46af","ios":"levelo://app?vid=d1817761-3716-40a7-be7a-181171cf46af"},"vehicle_type_id":"4","last_reported":1713380693,"current_range_meters":27600,"station_id":"ce4bhbp2rcd13ifvqesg","pricing_plan_id":"cebpf4jnsgd1na2vs0mg"},{"bike_id":"9592a2db-fcee-4f72-8b20-f7fbd94979ee","system_id":"levelo_inurba_marseille","lat":43.293169,"lon":5.373273,"is_reserved":false,"is_disabled":false,"rental_uris":{"android":"levelo://app?vid=9592a2db-fcee-4f72-8b20-f7fbd94979ee","ios":"levelo://app?vid=9592a2db-fcee-4f72-8b20-f7fbd94979ee"},"vehicle_type_id":"4","last_reported":1713380693,"current_range_meters":13600,"station_id":"ce4bgh92rcd13ifvqb40","pricing_plan_id":"cebpf4jnsgd1na2vs0mg"},{"bike_id":"381fee93-7b95-4fa2-9a9b-2649b2cfaa57","system_id":"levelo_inurba_marseille","lat":43.295279,"lon":5.375048,"is_reserved":false,"is_disabled":false,"rental_uris":{"android":"levelo://app?vid=381fee93-7b95-4fa2-9a9b-2649b2cfaa57","ios":"levelo://app?vid=381fee93-7b95-4fa2-9a9b-2649b2cfaa57"},"vehicle_type_id":"4","last_reported":1713380693,"current_range_meters":1200,"station_id":"ce4bgkp2rcd13ifvqbmg","pricing_plan_id":"cebpf4jnsgd1na2vs0mg"},{"bike_id":"d1c046c9-165b-4e7d-af07-f2513eae4bc8","system_id":"levelo_inurba_marseille","lat":43.29309,"lon":5.37454,"is_reserved":false,"is_disabled":false,"rental_uris":{"android":"levelo://app?vid=d1c046c9-165b-4e7d-af07-f2513eae4bc8","ios":"levelo://app?vid=d1c046c9-165b-4e7d-af07-f2513eae4bc8"},"vehicle_type_id":"4","last_reported":1713380693,"current_range_meters":4400,"station_id":"ce4bgi12rcd13ifvqb70","pricing_plan_id":"cebpf4jnsgd1na2vs0mg"},{"bike_id":"0de88bf9-7b7e-46b0-8a62-9d7f847170eb","system_id":"levelo_inurba_marseille","lat":43.293009,"lon":5.374584,"is_reserved":false,"is_disabled":false,"rental_uris":{"android":"levelo://app?vid=0de88bf9-7b7e-46b0-8a62-9d7f847170eb","ios":"levelo://app?vid=0de88bf9-7b7e-46b0-8a62-9d7f847170eb"},"vehicle_type_id":"4","last_reported":1713380693,"current_range_meters":16400,"station_id":"ce4bgi12rcd13ifvqb70","pricing_plan_id":"cebpf4jnsgd1na2vs0mg"},{"bike_id":"10e8b3f5-26c3-44df-b546-59f3f174a900","system_id":"levelo_inurba_marseille","lat":43.293009,"lon":5.374584,"is_reserved":false,"is_disabled":false,"rental_uris":{"android":"levelo://app?vid=10e8b3f5-26c3-44df-b546-59f3f174a900","ios":"levelo://app?vid=10e8b3f5-26c3-44df-b546-59f3f174a900"},"vehicle_type_id":"4","last_reported":1713380693,"current_range_meters":4000,"station_id":"ce4bgi12rcd13ifvqb70","pricing_plan_id":"cebpf4jnsgd1na2vs0mg"},{"bike_id":"d5d75c9e-7bc2-49d5-bb4c-70b3d68aa9e2","system_id":"levelo_inurba_marseille","lat":43.293009,"lon":5.374584,"is_reserved":false,"is_disabled":false,"rental_uris":{"android":"levelo://app?vid=d5d75c9e-7bc2-49d5-bb4c-70b3d68aa9e2","ios":"levelo://app?vid=d5d75c9e-7bc2-49d5-bb4c-70b3d68aa9e2"},"vehicle_type_id":"4","last_reported":1713380693,"current_range_meters":5200,"station_id":"ce4bgi12rcd13ifvqb70","pricing_plan_id":"cebpf4jnsgd1na2vs0mg"},{"bike_id":"97ce2ceb-5f6d-4262-9107-b020d8936f0c","system_id":"levelo_inurba_marseille","lat":43.293009,"lon":5.374584,"is_reserved":false,"is_disabled":false,"rental_uris":{"android":"levelo://app?vid=97ce2ceb-5f6d-4262-9107-b020d8936f0c","ios":"levelo://app?vid=97ce2ceb-5f6d-4262-9107-b020d8936f0c"},"vehicle_type_id":"4","last_reported":1713380693,"current_range_meters":4400,"station_id":"ce4bgi12rcd13ifvqb70","pricing_plan_id":"cebpf4jnsgd1na2vs0mg"},{"bike_id":"109b7a92-3416-4fd8-9d94-ec965e2410ec","system_id":"levelo_inurba_marseille","lat":43.305994,"lon":5.393687,"is_reserved":false,"is_disabled":false,"rental_uris":{"android":"levelo://app?vid=109b7a92-3416-4fd8-9d94-ec965e2410ec","ios":"levelo://app?vid=109b7a92-3416-4fd8-9d94-ec965e2410ec"},"vehicle_type_id":"4","last_reported":1713380693,"current_range_meters":18000,"station_id":"ce4bh0p2rcd13ifvqd80","pricing_plan_id":"cebpf4jnsgd1na2vs0mg"},{"bike_id":"0e89aa03-555d-4b86-b633-a70c83207c6f","system_id":"levelo_inurba_marseille","lat":43.29529,"lon":5.385581,"is_reserved":false,"is_disabled":false,"rental_uris":{"android":"levelo://app?vid=0e89aa03-555d-4b86-b633-a70c83207c6f","ios":"levelo://app?vid=0e89aa03-555d-4b86-b633-a70c83207c6f"},"vehicle_type_id":"4","last_reported":1713380693,"current_range_meters":17600,"station_id":"ce4bgih2rcd13ifvqba0","pricing_plan_id":"cebpf4jnsgd1na2vs0mg"},{"bike_id":"90dbc564-6b0a-4ed1-9732-bcb6dfd03288","system_id":"levelo_inurba_marseille","lat":43.293009,"lon":5.374584,"is_reserved":false,"is_disabled":false,"rental_uris":{"android":"levelo://app?vid=90dbc564-6b0a-4ed1-9732-bcb6dfd03288","ios":"levelo://app?vid=90dbc564-6b0a-4ed1-9732-bcb6dfd03288"},"vehicle_type_id":"4","last_reported":1713380693,"current_range_meters":25600,"station_id":"ce4bgi12rcd13ifvqb70","pricing_plan_id":"cebpf4jnsgd1na2vs0mg"},{"bike_id":"48feea3c-f9d8-4cdf-b080-6188723d9c89","system_id":"levelo_inurba_marseille","lat":43.293009,"lon":5.374584,"is_reserved":false,"is_disabled":false,"rental_uris":{"android":"levelo://app?vid=48feea3c-f9d8-4cdf-b080-6188723d9c89","ios":"levelo://app?vid=48feea3c-f9d8-4cdf-b080-6188723d9c89"},"vehicle_type_id":"4","last_reported":1713380693,"current_range_meters":0,"station_id":"ce4bgi12rcd13ifvqb70","pricing_plan_id":"cebpf4jnsgd1na2vs0mg"},{"bike_id":"689f18cc-c6f0-408b-a8e9-3ee0d082b7e3","system_id":"levelo_inurba_marseille","lat":43.303002,"lon":5.392142,"is_reserved":false,"is_disabled":false,"rental_uris":{"android":"levelo://app?vid=689f18cc-c6f0-408b-a8e9-3ee0d082b7e3","ios":"levelo://app?vid=689f18cc-c6f0-408b-a8e9-3ee0d082b7e3"},"vehicle_type_id":"4","last_reported":1713380693,"current_range_meters":3600,"station_id":"ce4bgkh2rcd13ifvqbk0","pricing_plan_id":"cebpf4jnsgd1na2vs0mg"},{"bike_id":"66bd2622-6d89-4e5b-a2b9-feab15c3a5da","system_id":"levelo_inurba_marseille","lat":43.303002,"lon":5.392142,"is_reserved":false,"is_disabled":false,"rental_uris":{"android":"levelo://app?vid=66bd2622-6d89-4e5b-a2b9-feab15c3a5da","ios":"levelo://app?vid=66bd2622-6d89-4e5b-a2b9-feab15c3a5da"},"vehicle_type_id":"4","last_reported":1713380693,"current_range_meters":21200,"station_id":"ce4bgkh2rcd13ifvqbk0","pricing_plan_id":"cebpf4jnsgd1na2vs0mg"},{"bike_id":"1c7cd1b3-5140-48ae-9d5f-240a3e2b118b","system_id":"levelo_inurba_marseille","lat":43.302992,"lon":5.392136,"is_reserved":false,"is_disabled":false,"rental_uris":{"android":"levelo://app?vid=1c7cd1b3-5140-48ae-9d5f-240a3e2b118b","ios":"levelo://app?vid=1c7cd1b3-5140-48ae-9d5f-240a3e2b118b"},"vehicle_type_id":"4","last_reported":1713380693,"current_range_meters":20800,"station_id":"ce4bgkh2rcd13ifvqbk0","pricing_plan_id":"cebpf4jnsgd1na2vs0mg"},{"bike_id":"22ed2f28-0b01-4ba9-94d6-6ed74a460de9","system_id":"levelo_inurba_marseille","lat":43.302992,"lon":5.392136,"is_reserved":false,"is_disabled":false,"rental_uris":{"android":"levelo://app?vid=22ed2f28-0b01-4ba9-94d6-6ed74a460de9","ios":"levelo://app?vid=22ed2f28-0b01-4ba9-94d6-6ed74a460de9"},"vehicle_type_id":"4","last_reported":1713380693,"current_range_meters":0,"station_id":"ce4bgkh2rcd13ifvqbk0","pricing_plan_id":"cebpf4jnsgd1na2vs0mg"},{"bike_id":"a82429c4-d956-4d13-b7e4-c143bc5360d0","system_id":"levelo_inurba_marseille","lat":43.293796,"lon":5.37857,"is_reserved":false,"is_disabled":false,"rental_uris":{"android":"levelo://app?vid=a82429c4-d956-4d13-b7e4-c143bc5360d0","ios":"levelo://app?vid=a82429c4-d956-4d13-b7e4-c143bc5360d0"},"vehicle_type_id":"4","last_reported":1713380693,"current_range_meters":28800,"station_id":"ce4bgjh2rcd13ifvqbf0","pricing_plan_id":"cebpf4jnsgd1na2vs0mg"},{"bike_id":"4bd694e3-a87c-4484-8251-07a88cb05dc8","system_id":"levelo_inurba_marseille","lat":43.292749,"lon":5.368398,"is_reserved":false,"is_disabled":false,"rental_uris":{"android":"levelo://app?vid=4bd694e3-a87c-4484-8251-07a88cb05dc8","ios":"levelo://app?vid=4bd694e3-a87c-4484-8251-07a88cb05dc8"},"vehicle_type_id":"4","last_reported":1713380693,"current_range_meters":14000,"station_id":"ce4bhbp2rcd13ifvqesg","pricing_plan_id":"cebpf4jnsgd1na2vs0mg"},{"bike_id":"21f342c6-38d6-478c-9746-3d2de0743754","system_id":"levelo_inurba_marseille","lat":43.30085,"lon":5.390856,"is_reserved":false,"is_disabled":false,"rental_uris":{"android":"levelo://app?vid=21f342c6-38d6-478c-9746-3d2de0743754","ios":"levelo://app?vid=21f342c6-38d6-478c-9746-3d2de0743754"},"vehicle_type_id":"4","last_reported":1713380693,"current_range_meters":6000,"station_id":"ce4bh192rcd13ifvqdb0","pricing_plan_id":"cebpf4jnsgd1na2vs0mg"},{"bike_id":"42c72979-5639-4401-be32-082f09d1f914","system_id":"levelo_inurba_marseille","lat":43.292311,"lon":5.360731,"is_reserved":false,"is_disabled":false,"rental_uris":{"android":"levelo://app?vid=42c72979-5639-4401-be32-082f09d1f914","ios":"levelo://app?vid=42c72979-5639-4401-be32-082f09d1f914"},"vehicle_type_id":"4","last_reported":1713380693,"current_range_meters":6000,"station_id":"ce4bhbh2rcd13ifvqeqg","pricing_plan_id":"cebpf4jnsgd1na2vs0mg"},{"bike_id":"e245b515-d6ec-4b84-a370-024fb02939cc","system_id":"levelo_inurba_marseille","lat":43.29225,"lon":5.36062,"is_reserved":false,"is_disabled":false,"rental_uris":{"android":"levelo://app?vid=e245b515-d6ec-4b84-a370-024fb02939cc","ios":"levelo://app?vid=e245b515-d6ec-4b84-a370-024fb02939cc"},"vehicle_type_id":"4","last_reported":1713380693,"current_range_meters":28400,"station_id":"ce4bhbh2rcd13ifvqeqg","pricing_plan_id":"cebpf4jnsgd1na2vs0mg"},{"bike_id":"0f388a68-1825-4022-a9d8-3d258f15019a","system_id":"levelo_inurba_marseille","lat":43.300852,"lon":5.390859,"is_reserved":false,"is_disabled":false,"rental_uris":{"android":"levelo://app?vid=0f388a68-1825-4022-a9d8-3d258f15019a","ios":"levelo://app?vid=0f388a68-1825-4022-a9d8-3d258f15019a"},"vehicle_type_id":"4","last_reported":1713380693,"current_range_meters":8400,"station_id":"ce4bh192rcd13ifvqdb0","pricing_plan_id":"cebpf4jnsgd1na2vs0mg"},{"bike_id":"6950751d-def0-4ac5-bce0-5f9fe9b8eb84","system_id":"levelo_inurba_marseille","lat":43.29223,"lon":5.36059,"is_reserved":false,"is_disabled":false,"rental_uris":{"android":"levelo://app?vid=6950751d-def0-4ac5-bce0-5f9fe9b8eb84","ios":"levelo://app?vid=6950751d-def0-4ac5-bce0-5f9fe9b8eb84"},"vehicle_type_id":"4","last_reported":1713380693,"current_range_meters":15200,"station_id":"ce4bhbh2rcd13ifvqeqg","pricing_plan_id":"cebpf4jnsgd1na2vs0mg"},{"bike_id":"2eb1fd04-97b6-481a-a8ed-ea4b0ba02e53","system_id":"levelo_inurba_marseille","lat":43.300852,"lon":5.390859,"is_reserved":false,"is_disabled":false,"rental_uris":{"android":"levelo://app?vid=2eb1fd04-97b6-481a-a8ed-ea4b0ba02e53","ios":"levelo://app?vid=2eb1fd04-97b6-481a-a8ed-ea4b0ba02e53"},"vehicle_type_id":"4","last_reported":1713380693,"current_range_meters":2800,"station_id":"ce4bh192rcd13ifvqdb0","pricing_plan_id":"cebpf4jnsgd1na2vs0mg"},{"bike_id":"eab5e4c7-57a9-4dc5-89e0-22cf996e5ad6","system_id":"levelo_inurba_marseille","lat":43.298764,"lon":5.388973,"is_reserved":false,"is_disabled":false,"rental_uris":{"android":"levelo://app?vid=eab5e4c7-57a9-4dc5-89e0-22cf996e5ad6","ios":"levelo://app?vid=eab5e4c7-57a9-4dc5-89e0-22cf996e5ad6"},"vehicle_type_id":"4","last_reported":1713380693,"current_range_meters":5600,"station_id":"ce4bh392rcd13ifvqdl0","pricing_plan_id":"cebpf4jnsgd1na2vs0mg"},{"bike_id":"02869303-044f-416e-b123-85611ac2c876","system_id":"levelo_inurba_marseille","lat":43.291675,"lon":5.371583,"is_reserved":false,"is_disabled":false,"rental_uris":{"android":"levelo://app?vid=02869303-044f-416e-b123-85611ac2c876","ios":"levelo://app?vid=02869303-044f-416e-b123-85611ac2c876"},"vehicle_type_id":"4","last_reported":1713380693,"current_range_meters":0,"station_id":"ce4bha92rcd13ifvqeh0","pricing_plan_id":"cebpf4jnsgd1na2vs0mg"},{"bike_id":"fb08ffd4-954e-404c-9d80-b5af432a6dca","system_id":"levelo_inurba_marseille","lat":43.291671,"lon":5.371575,"is_reserved":false,"is_disabled":false,"rental_uris":{"android":"levelo://app?vid=fb08ffd4-954e-404c-9d80-b5af432a6dca","ios":"levelo://app?vid=fb08ffd4-954e-404c-9d80-b5af432a6dca"},"vehicle_type_id":"4","last_reported":1713380693,"current_range_meters":10800,"station_id":"ce4bha92rcd13ifvqeh0","pricing_plan_id":"cebpf4jnsgd1na2vs0mg"},{"bike_id":"325e3f17-b0b5-4939-a7f5-2454f45be2ff","system_id":"levelo_inurba_marseille","lat":43.29168,"lon":5.37157,"is_reserved":false,"is_disabled":false,"rental_uris":{"android":"levelo://app?vid=325e3f17-b0b5-4939-a7f5-2454f45be2ff","ios":"levelo://app?vid=325e3f17-b0b5-4939-a7f5-2454f45be2ff"},"vehicle_type_id":"4","last_reported":1713380693,"current_range_meters":9600,"station_id":"ce4bha92rcd13ifvqeh0","pricing_plan_id":"cebpf4jnsgd1na2vs0mg"},{"bike_id":"37e86748-ea34-49a8-b41b-d792e0f10caf","system_id":"levelo_inurba_marseille","lat":43.291624,"lon":5.371339,"is_reserved":false,"is_disabled":false,"rental_uris":{"android":"levelo://app?vid=37e86748-ea34-49a8-b41b-d792e0f10caf","ios":"levelo://app?vid=37e86748-ea34-49a8-b41b-d792e0f10caf"},"vehicle_type_id":"4","last_reported":1713380693,"current_range_meters":29200,"station_id":"ce4bha92rcd13ifvqeh0","pricing_plan_id":"cebpf4jnsgd1na2vs0mg"},{"bike_id":"ae9e5a96-7883-4efc-ad35-8b9f7c722353","system_id":"levelo_inurba_marseille","lat":43.29879,"lon":5.38918,"is_reserved":false,"is_disabled":false,"rental_uris":{"android":"levelo://app?vid=ae9e5a96-7883-4efc-ad35-8b9f7c722353","ios":"levelo://app?vid=ae9e5a96-7883-4efc-ad35-8b9f7c722353"},"vehicle_type_id":"4","last_reported":1713380693,"current_range_meters":0,"station_id":"ce4bh392rcd13ifvqdl0","pricing_plan_id":"cebpf4jnsgd1na2vs0mg"},{"bike_id":"8b349343-c6dd-496f-90ad-25acd9f687f4","system_id":"levelo_inurba_marseille","lat":43.291404,"lon":5.369975,"is_reserved":false,"is_disabled":false,"rental_uris":{"android":"levelo://app?vid=8b349343-c6dd-496f-90ad-25acd9f687f4","ios":"levelo://app?vid=8b349343-c6dd-496f-90ad-25acd9f687f4"},"vehicle_type_id":"4","last_reported":1713380693,"current_range_meters":14000,"station_id":"ce4bha92rcd13ifvqeh0","pricing_plan_id":"cebpf4jnsgd1na2vs0mg"},{"bike_id":"7c1e9111-d718-48e3-a8a3-6847d7e2f5b4","system_id":"levelo_inurba_marseille","lat":43.29529,"lon":5.385581,"is_reserved":false,"is_disabled":false,"rental_uris":{"android":"levelo://app?vid=7c1e9111-d718-48e3-a8a3-6847d7e2f5b4","ios":"levelo://app?vid=7c1e9111-d718-48e3-a8a3-6847d7e2f5b4"},"vehicle_type_id":"4","last_reported":1713380693,"current_range_meters":9200,"station_id":"ce4bgih2rcd13ifvqba0","pricing_plan_id":"cebpf4jnsgd1na2vs0mg"},{"bike_id":"403c3eb4-f29e-458b-aa8b-0bcd36f03df8","system_id":"levelo_inurba_marseille","lat":43.309038,"lon":5.396546,"is_reserved":false,"is_disabled":false,"rental_uris":{"android":"levelo://app?vid=403c3eb4-f29e-458b-aa8b-0bcd36f03df8","ios":"levelo://app?vid=403c3eb4-f29e-458b-aa8b-0bcd36f03df8"},"vehicle_type_id":"4","last_reported":1713380693,"current_range_meters":15200,"station_id":"ce4bh012rcd13ifvqcv0","pricing_plan_id":"cebpf4jnsgd1na2vs0mg"},{"bike_id":"57e2721c-d1a6-4596-9f5e-aa32afa21f10","system_id":"levelo_inurba_marseille","lat":43.309038,"lon":5.396546,"is_reserved":false,"is_disabled":false,"rental_uris":{"android":"levelo://app?vid=57e2721c-d1a6-4596-9f5e-aa32afa21f10","ios":"levelo://app?vid=57e2721c-d1a6-4596-9f5e-aa32afa21f10"},"vehicle_type_id":"4","last_reported":1713380693,"current_range_meters":13600,"station_id":"ce4bh012rcd13ifvqcv0","pricing_plan_id":"cebpf4jnsgd1na2vs0mg"},{"bike_id":"3964d1cc-c736-40a1-97dd-7344ddf29ac3","system_id":"levelo_inurba_marseille","lat":43.309047,"lon":5.396551,"is_reserved":false,"is_disabled":false,"rental_uris":{"android":"levelo://app?vid=3964d1cc-c736-40a1-97dd-7344ddf29ac3","ios":"levelo://app?vid=3964d1cc-c736-40a1-97dd-7344ddf29ac3"},"vehicle_type_id":"4","last_reported":1713380693,"current_range_meters":2800,"station_id":"ce4bh012rcd13ifvqcv0","pricing_plan_id":"cebpf4jnsgd1na2vs0mg"},{"bike_id":"9fa474a5-81bf-4bb5-803b-50c696430964","system_id":"levelo_inurba_marseille","lat":43.309038,"lon":5.396546,"is_reserved":false,"is_disabled":false,"rental_uris":{"android":"levelo://app?vid=9fa474a5-81bf-4bb5-803b-50c696430964","ios":"levelo://app?vid=9fa474a5-81bf-4bb5-803b-50c696430964"},"vehicle_type_id":"4","last_reported":1713380693,"current_range_meters":12800,"station_id":"ce4bh012rcd13ifvqcv0","pricing_plan_id":"cebpf4jnsgd1na2vs0mg"},{"bike_id":"da500d4a-67a6-4a23-9db0-3a795bfcdeb4","system_id":"levelo_inurba_marseille","lat":43.309038,"lon":5.396546,"is_reserved":false,"is_disabled":false,"rental_uris":{"android":"levelo://app?vid=da500d4a-67a6-4a23-9db0-3a795bfcdeb4","ios":"levelo://app?vid=da500d4a-67a6-4a23-9db0-3a795bfcdeb4"},"vehicle_type_id":"4","last_reported":1713380693,"current_range_meters":13600,"station_id":"ce4bh012rcd13ifvqcv0","pricing_plan_id":"cebpf4jnsgd1na2vs0mg"},{"bike_id":"268a4c5a-7ac6-48b5-8c49-8f3d9014bbb2","system_id":"levelo_inurba_marseille","lat":43.309047,"lon":5.396551,"is_reserved":false,"is_disabled":false,"rental_uris":{"android":"levelo://app?vid=268a4c5a-7ac6-48b5-8c49-8f3d9014bbb2","ios":"levelo://app?vid=268a4c5a-7ac6-48b5-8c49-8f3d9014bbb2"},"vehicle_type_id":"4","last_reported":1713380693,"current_range_meters":23200,"station_id":"ce4bh012rcd13ifvqcv0","pricing_plan_id":"cebpf4jnsgd1na2vs0mg"},{"bike_id":"802b576a-8419-404c-a30c-ac5216bf02fe","system_id":"levelo_inurba_marseille","lat":43.309038,"lon":5.396546,"is_reserved":false,"is_disabled":false,"rental_uris":{"android":"levelo://app?vid=802b576a-8419-404c-a30c-ac5216bf02fe","ios":"levelo://app?vid=802b576a-8419-404c-a30c-ac5216bf02fe"},"vehicle_type_id":"4","last_reported":1713380693,"current_range_meters":8000,"station_id":"ce4bh012rcd13ifvqcv0","pricing_plan_id":"cebpf4jnsgd1na2vs0mg"},{"bike_id":"5ea9212a-6de5-4678-8f98-03a2c985c350","system_id":"levelo_inurba_marseille","lat":43.290779,"lon":5.371482,"is_reserved":false,"is_disabled":false,"rental_uris":{"android":"levelo://app?vid=5ea9212a-6de5-4678-8f98-03a2c985c350","ios":"levelo://app?vid=5ea9212a-6de5-4678-8f98-03a2c985c350"},"vehicle_type_id":"4","last_reported":1713380693,"current_range_meters":14800,"station_id":"ce4bh5p2rcd13ifvqe4g","pricing_plan_id":"cebpf4jnsgd1na2vs0mg"},{"bike_id":"d5d7a9f7-f60d-425d-b674-c8ec490ae6ee","system_id":"levelo_inurba_marseille","lat":43.290779,"lon":5.371482,"is_reserved":false,"is_disabled":false,"rental_uris":{"android":"levelo://app?vid=d5d7a9f7-f60d-425d-b674-c8ec490ae6ee","ios":"levelo://app?vid=d5d7a9f7-f60d-425d-b674-c8ec490ae6ee"},"vehicle_type_id":"4","last_reported":1713380693,"current_range_meters":1200,"station_id":"ce4bh5p2rcd13ifvqe4g","pricing_plan_id":"cebpf4jnsgd1na2vs0mg"},{"bike_id":"f0d35847-9d5d-44d1-8728-a7b8550e0eaa","system_id":"levelo_inurba_marseille","lat":43.309047,"lon":5.396551,"is_reserved":false,"is_disabled":false,"rental_uris":{"android":"levelo://app?vid=f0d35847-9d5d-44d1-8728-a7b8550e0eaa","ios":"levelo://app?vid=f0d35847-9d5d-44d1-8728-a7b8550e0eaa"},"vehicle_type_id":"4","last_reported":1713380693,"current_range_meters":14000,"station_id":"ce4bh012rcd13ifvqcv0","pricing_plan_id":"cebpf4jnsgd1na2vs0mg"},{"bike_id":"ac4a952a-4e5e-42e8-851b-9053c0596115","system_id":"levelo_inurba_marseille","lat":43.302008,"lon":5.394694,"is_reserved":false,"is_disabled":false,"rental_uris":{"android":"levelo://app?vid=ac4a952a-4e5e-42e8-851b-9053c0596115","ios":"levelo://app?vid=ac4a952a-4e5e-42e8-851b-9053c0596115"},"vehicle_type_id":"4","last_reported":1713380693,"current_range_meters":0,"station_id":"ce4bh0p2rcd13ifvqd70","pricing_plan_id":"cebpf4jnsgd1na2vs0mg"},{"bike_id":"2afcf7bf-a146-4549-aceb-716998525c6f","system_id":"levelo_inurba_marseille","lat":43.290631,"lon":5.359244,"is_reserved":false,"is_disabled":false,"rental_uris":{"android":"levelo://app?vid=2afcf7bf-a146-4549-aceb-716998525c6f","ios":"levelo://app?vid=2afcf7bf-a146-4549-aceb-716998525c6f"},"vehicle_type_id":"4","last_reported":1713380693,"current_range_meters":18000,"station_id":"ce4bha92rcd13ifvqeg0","pricing_plan_id":"cebpf4jnsgd1na2vs0mg"},{"bike_id":"d4c31041-a05a-4f6b-ad35-7a1b4ff0ffb6","system_id":"levelo_inurba_marseille","lat":43.290631,"lon":5.359244,"is_reserved":false,"is_disabled":false,"rental_uris":{"android":"levelo://app?vid=d4c31041-a05a-4f6b-ad35-7a1b4ff0ffb6","ios":"levelo://app?vid=d4c31041-a05a-4f6b-ad35-7a1b4ff0ffb6"},"vehicle_type_id":"4","last_reported":1713380693,"current_range_meters":25600,"station_id":"ce4bha92rcd13ifvqeg0","pricing_plan_id":"cebpf4jnsgd1na2vs0mg"},{"bike_id":"1233a182-f6d1-46b2-8f49-e4dd613afbcf","system_id":"levelo_inurba_marseille","lat":43.290631,"lon":5.359244,"is_reserved":false,"is_disabled":false,"rental_uris":{"android":"levelo://app?vid=1233a182-f6d1-46b2-8f49-e4dd613afbcf","ios":"levelo://app?vid=1233a182-f6d1-46b2-8f49-e4dd613afbcf"},"vehicle_type_id":"4","last_reported":1713380693,"current_range_meters":20800,"station_id":"ce4bha92rcd13ifvqeg0","pricing_plan_id":"cebpf4jnsgd1na2vs0mg"},{"bike_id":"4ba94595-f668-448c-bd35-db6056a87456","system_id":"levelo_inurba_marseille","lat":43.294153,"lon":5.386305,"is_reserved":false,"is_disabled":false,"rental_uris":{"android":"levelo://app?vid=4ba94595-f668-448c-bd35-db6056a87456","ios":"levelo://app?vid=4ba94595-f668-448c-bd35-db6056a87456"},"vehicle_type_id":"4","last_reported":1713380693,"current_range_meters":17600,"station_id":"ce4bh2h2rcd13ifvqdh0","pricing_plan_id":"cebpf4jnsgd1na2vs0mg"},{"bike_id":"3fd25a8e-8b65-4a12-9259-4f4c99f3fe28","system_id":"levelo_inurba_marseille","lat":43.294226,"lon":5.386106,"is_reserved":false,"is_disabled":false,"rental_uris":{"android":"levelo://app?vid=3fd25a8e-8b65-4a12-9259-4f4c99f3fe28","ios":"levelo://app?vid=3fd25a8e-8b65-4a12-9259-4f4c99f3fe28"},"vehicle_type_id":"4","last_reported":1713380693,"current_range_meters":0,"station_id":"ce4bh2h2rcd13ifvqdh0","pricing_plan_id":"cebpf4jnsgd1na2vs0mg"},{"bike_id":"bf8f0ad8-6ec9-4d96-9725-a8fa9ee0b8be","system_id":"levelo_inurba_marseille","lat":43.29422,"lon":5.38619,"is_reserved":false,"is_disabled":false,"rental_uris":{"android":"levelo://app?vid=bf8f0ad8-6ec9-4d96-9725-a8fa9ee0b8be","ios":"levelo://app?vid=bf8f0ad8-6ec9-4d96-9725-a8fa9ee0b8be"},"vehicle_type_id":"4","last_reported":1713380693,"current_range_meters":0,"station_id":"ce4bh2h2rcd13ifvqdh0","pricing_plan_id":"cebpf4jnsgd1na2vs0mg"},{"bike_id":"10ca34e2-6414-4f67-a9b7-a92bd66de464","system_id":"levelo_inurba_marseille","lat":43.29422,"lon":5.38621,"is_reserved":false,"is_disabled":false,"rental_uris":{"android":"levelo://app?vid=10ca34e2-6414-4f67-a9b7-a92bd66de464","ios":"levelo://app?vid=10ca34e2-6414-4f67-a9b7-a92bd66de464"},"vehicle_type_id":"4","last_reported":1713380693,"current_range_meters":0,"station_id":"ce4bh2h2rcd13ifvqdh0","pricing_plan_id":"cebpf4jnsgd1na2vs0mg"},{"bike_id":"89493f6c-b8de-472f-b1d4-7f64368c38f8","system_id":"levelo_inurba_marseille","lat":43.294222,"lon":5.386243,"is_reserved":false,"is_disabled":false,"rental_uris":{"android":"levelo://app?vid=89493f6c-b8de-472f-b1d4-7f64368c38f8","ios":"levelo://app?vid=89493f6c-b8de-472f-b1d4-7f64368c38f8"},"vehicle_type_id":"4","last_reported":1713380693,"current_range_meters":0,"station_id":"ce4bh2h2rcd13ifvqdh0","pricing_plan_id":"cebpf4jnsgd1na2vs0mg"},{"bike_id":"99bc846b-8c30-4459-b29e-4c7bbe1c99d3","system_id":"levelo_inurba_marseille","lat":43.290319,"lon":5.375732,"is_reserved":false,"is_disabled":false,"rental_uris":{"android":"levelo://app?vid=99bc846b-8c30-4459-b29e-4c7bbe1c99d3","ios":"levelo://app?vid=99bc846b-8c30-4459-b29e-4c7bbe1c99d3"},"vehicle_type_id":"4","last_reported":1713380693,"current_range_meters":4400,"station_id":"ce4bh692rcd13ifvqe90","pricing_plan_id":"cebpf4jnsgd1na2vs0mg"},{"bike_id":"6bfc8841-3306-4c40-b436-08646f1dca5c","system_id":"levelo_inurba_marseille","lat":43.294162,"lon":5.386292,"is_reserved":false,"is_disabled":false,"rental_uris":{"android":"levelo://app?vid=6bfc8841-3306-4c40-b436-08646f1dca5c","ios":"levelo://app?vid=6bfc8841-3306-4c40-b436-08646f1dca5c"},"vehicle_type_id":"4","last_reported":1713380693,"current_range_meters":9200,"station_id":"ce4bh2h2rcd13ifvqdh0","pricing_plan_id":"cebpf4jnsgd1na2vs0mg"},{"bike_id":"8aa6b02b-9038-4163-9b53-da4dd85aee83","system_id":"levelo_inurba_marseille","lat":43.294153,"lon":5.386305,"is_reserved":false,"is_disabled":false,"rental_uris":{"android":"levelo://app?vid=8aa6b02b-9038-4163-9b53-da4dd85aee83","ios":"levelo://app?vid=8aa6b02b-9038-4163-9b53-da4dd85aee83"},"vehicle_type_id":"4","last_reported":1713380693,"current_range_meters":15200,"station_id":"ce4bh2h2rcd13ifvqdh0","pricing_plan_id":"cebpf4jnsgd1na2vs0mg"},{"bike_id":"c8db8a0f-d547-4ada-b4c5-a78fcb310b3b","system_id":"levelo_inurba_marseille","lat":43.309371,"lon":5.401449,"is_reserved":false,"is_disabled":false,"rental_uris":{"android":"levelo://app?vid=c8db8a0f-d547-4ada-b4c5-a78fcb310b3b","ios":"levelo://app?vid=c8db8a0f-d547-4ada-b4c5-a78fcb310b3b"},"vehicle_type_id":"4","last_reported":1713380693,"current_range_meters":15600,"station_id":"ce4bgvp2rcd13ifvqct0","pricing_plan_id":"cebpf4jnsgd1na2vs0mg"},{"bike_id":"bf9b0ab3-6806-4932-8c6d-0644e4c7e292","system_id":"levelo_inurba_marseille","lat":43.29414,"lon":5.38618,"is_reserved":false,"is_disabled":false,"rental_uris":{"android":"levelo://app?vid=bf9b0ab3-6806-4932-8c6d-0644e4c7e292","ios":"levelo://app?vid=bf9b0ab3-6806-4932-8c6d-0644e4c7e292"},"vehicle_type_id":"4","last_reported":1713380693,"current_range_meters":0,"station_id":"ce4bh2h2rcd13ifvqdh0","pricing_plan_id":"cebpf4jnsgd1na2vs0mg"},{"bike_id":"ff465917-1769-4734-8432-ad627a2762c0","system_id":"levelo_inurba_marseille","lat":43.294162,"lon":5.386292,"is_reserved":false,"is_disabled":false,"rental_uris":{"android":"levelo://app?vid=ff465917-1769-4734-8432-ad627a2762c0","ios":"levelo://app?vid=ff465917-1769-4734-8432-ad627a2762c0"},"vehicle_type_id":"4","last_reported":1713380693,"current_range_meters":7200,"station_id":"ce4bh2h2rcd13ifvqdh0","pricing_plan_id":"cebpf4jnsgd1na2vs0mg"},{"bike_id":"16d0f967-ef2c-4eb7-b7f4-1d9d0b9814bc","system_id":"levelo_inurba_marseille","lat":43.28943,"lon":5.36638,"is_reserved":false,"is_disabled":false,"rental_uris":{"android":"levelo://app?vid=16d0f967-ef2c-4eb7-b7f4-1d9d0b9814bc","ios":"levelo://app?vid=16d0f967-ef2c-4eb7-b7f4-1d9d0b9814bc"},"vehicle_type_id":"4","last_reported":1713380693,"current_range_meters":26000,"station_id":"ce4bhap2rcd13ifvqek0","pricing_plan_id":"cebpf4jnsgd1na2vs0mg"},{"bike_id":"4ea1c8a3-46b7-43a6-a011-13f3ab3e1319","system_id":"levelo_inurba_marseille","lat":43.290319,"lon":5.375732,"is_reserved":false,"is_disabled":false,"rental_uris":{"android":"levelo://app?vid=4ea1c8a3-46b7-43a6-a011-13f3ab3e1319","ios":"levelo://app?vid=4ea1c8a3-46b7-43a6-a011-13f3ab3e1319"},"vehicle_type_id":"4","last_reported":1713380693,"current_range_meters":0,"station_id":"ce4bh692rcd13ifvqe90","pricing_plan_id":"cebpf4jnsgd1na2vs0mg"},{"bike_id":"23ff9eb8-15c8-443b-b74d-247a9d383ea5","system_id":"levelo_inurba_marseille","lat":43.289468,"lon":5.363719,"is_reserved":false,"is_disabled":false,"rental_uris":{"android":"levelo://app?vid=23ff9eb8-15c8-443b-b74d-247a9d383ea5","ios":"levelo://app?vid=23ff9eb8-15c8-443b-b74d-247a9d383ea5"},"vehicle_type_id":"4","last_reported":1713380693,"current_range_meters":26400,"station_id":"ce4bhc92rcd13ifvqetg","pricing_plan_id":"cebpf4jnsgd1na2vs0mg"},{"bike_id":"2b97d499-3f64-4fd6-acea-9633b82cc13b","system_id":"levelo_inurba_marseille","lat":43.28941,"lon":5.36633,"is_reserved":false,"is_disabled":false,"rental_uris":{"android":"levelo://app?vid=2b97d499-3f64-4fd6-acea-9633b82cc13b","ios":"levelo://app?vid=2b97d499-3f64-4fd6-acea-9633b82cc13b"},"vehicle_type_id":"4","last_reported":1713380693,"current_range_meters":6400,"station_id":"ce4bhap2rcd13ifvqek0","pricing_plan_id":"cebpf4jnsgd1na2vs0mg"},{"bike_id":"95cb39e1-d9bb-428f-bba3-03cefd0c5d79","system_id":"levelo_inurba_marseille","lat":43.289468,"lon":5.363719,"is_reserved":false,"is_disabled":false,"rental_uris":{"android":"levelo://app?vid=95cb39e1-d9bb-428f-bba3-03cefd0c5d79","ios":"levelo://app?vid=95cb39e1-d9bb-428f-bba3-03cefd0c5d79"},"vehicle_type_id":"4","last_reported":1713380693,"current_range_meters":5200,"station_id":"ce4bhc92rcd13ifvqetg","pricing_plan_id":"cebpf4jnsgd1na2vs0mg"},{"bike_id":"784050fd-731a-4690-b744-c5a0e6e0c0ed","system_id":"levelo_inurba_marseille","lat":43.291675,"lon":5.371583,"is_reserved":false,"is_disabled":false,"rental_uris":{"android":"levelo://app?vid=784050fd-731a-4690-b744-c5a0e6e0c0ed","ios":"levelo://app?vid=784050fd-731a-4690-b744-c5a0e6e0c0ed"},"vehicle_type_id":"4","last_reported":1713380693,"current_range_meters":28000,"station_id":"ce4bha92rcd13ifvqeh0","pricing_plan_id":"cebpf4jnsgd1na2vs0mg"},{"bike_id":"9418439b-0c8d-4355-8ffa-cf52f4bcaadc","system_id":"levelo_inurba_marseille","lat":43.28936,"lon":5.36641,"is_reserved":false,"is_disabled":false,"rental_uris":{"android":"levelo://app?vid=9418439b-0c8d-4355-8ffa-cf52f4bcaadc","ios":"levelo://app?vid=9418439b-0c8d-4355-8ffa-cf52f4bcaadc"},"vehicle_type_id":"4","last_reported":1713380693,"current_range_meters":20400,"station_id":"ce4bhap2rcd13ifvqek0","pricing_plan_id":"cebpf4jnsgd1na2vs0mg"},{"bike_id":"559b6df3-4100-4c86-b9be-bd15ddd08c5e","system_id":"levelo_inurba_marseille","lat":43.289468,"lon":5.363719,"is_reserved":false,"is_disabled":false,"rental_uris":{"android":"levelo://app?vid=559b6df3-4100-4c86-b9be-bd15ddd08c5e","ios":"levelo://app?vid=559b6df3-4100-4c86-b9be-bd15ddd08c5e"},"vehicle_type_id":"4","last_reported":1713380693,"current_range_meters":14800,"station_id":"ce4bhc92rcd13ifvqetg","pricing_plan_id":"cebpf4jnsgd1na2vs0mg"},{"bike_id":"81a2b8de-b334-4545-ac04-924c49f718fb","system_id":"levelo_inurba_marseille","lat":43.28935,"lon":5.36638,"is_reserved":false,"is_disabled":false,"rental_uris":{"android":"levelo://app?vid=81a2b8de-b334-4545-ac04-924c49f718fb","ios":"levelo://app?vid=81a2b8de-b334-4545-ac04-924c49f718fb"},"vehicle_type_id":"4","last_reported":1713380693,"current_range_meters":4000,"station_id":"ce4bhap2rcd13ifvqek0","pricing_plan_id":"cebpf4jnsgd1na2vs0mg"},{"bike_id":"09ac2558-3618-433a-a899-1e8eada84244","system_id":"levelo_inurba_marseille","lat":43.28934,"lon":5.36632,"is_reserved":false,"is_disabled":false,"rental_uris":{"android":"levelo://app?vid=09ac2558-3618-433a-a899-1e8eada84244","ios":"levelo://app?vid=09ac2558-3618-433a-a899-1e8eada84244"},"vehicle_type_id":"4","last_reported":1713380693,"current_range_meters":8800,"station_id":"ce4bhap2rcd13ifvqek0","pricing_plan_id":"cebpf4jnsgd1na2vs0mg"},{"bike_id":"7e4fda34-2702-4bf8-95e2-e8f056a3a534","system_id":"levelo_inurba_marseille","lat":43.289324,"lon":5.366457,"is_reserved":false,"is_disabled":false,"rental_uris":{"android":"levelo://app?vid=7e4fda34-2702-4bf8-95e2-e8f056a3a534","ios":"levelo://app?vid=7e4fda34-2702-4bf8-95e2-e8f056a3a534"},"vehicle_type_id":"4","last_reported":1713380693,"current_range_meters":14000,"station_id":"ce4bhap2rcd13ifvqek0","pricing_plan_id":"cebpf4jnsgd1na2vs0mg"},{"bike_id":"95ffa579-88c5-4395-a2dc-fc1cd417692c","system_id":"levelo_inurba_marseille","lat":43.289468,"lon":5.363719,"is_reserved":false,"is_disabled":false,"rental_uris":{"android":"levelo://app?vid=95ffa579-88c5-4395-a2dc-fc1cd417692c","ios":"levelo://app?vid=95ffa579-88c5-4395-a2dc-fc1cd417692c"},"vehicle_type_id":"4","last_reported":1713380693,"current_range_meters":6000,"station_id":"ce4bhc92rcd13ifvqetg","pricing_plan_id":"cebpf4jnsgd1na2vs0mg"},{"bike_id":"9bed4170-e232-40cc-998b-d36bc4690307","system_id":"levelo_inurba_marseille","lat":43.289468,"lon":5.363719,"is_reserved":false,"is_disabled":false,"rental_uris":{"android":"levelo://app?vid=9bed4170-e232-40cc-998b-d36bc4690307","ios":"levelo://app?vid=9bed4170-e232-40cc-998b-d36bc4690307"},"vehicle_type_id":"4","last_reported":1713380693,"current_range_meters":6000,"station_id":"ce4bhc92rcd13ifvqetg","pricing_plan_id":"cebpf4jnsgd1na2vs0mg"},{"bike_id":"faacbda4-6100-4a8a-9d8f-ec69e29fd160","system_id":"levelo_inurba_marseille","lat":43.302896,"lon":5.396283,"is_reserved":false,"is_disabled":false,"rental_uris":{"android":"levelo://app?vid=faacbda4-6100-4a8a-9d8f-ec69e29fd160","ios":"levelo://app?vid=faacbda4-6100-4a8a-9d8f-ec69e29fd160"},"vehicle_type_id":"4","last_reported":1713380693,"current_range_meters":0,"station_id":"ce4bh0h2rcd13ifvqd40","pricing_plan_id":"cebpf4jnsgd1na2vs0mg"},{"bike_id":"5f154c1f-dfc9-40c2-9b64-658b0e6283f6","system_id":"levelo_inurba_marseille","lat":43.292537,"lon":5.384066,"is_reserved":false,"is_disabled":false,"rental_uris":{"android":"levelo://app?vid=5f154c1f-dfc9-40c2-9b64-658b0e6283f6","ios":"levelo://app?vid=5f154c1f-dfc9-40c2-9b64-658b0e6283f6"},"vehicle_type_id":"4","last_reported":1713380693,"current_range_meters":22400,"station_id":"ce4bh692rcd13ifvqea0","pricing_plan_id":"cebpf4jnsgd1na2vs0mg"},{"bike_id":"d4318754-5642-4282-9aef-38ef159615a7","system_id":"levelo_inurba_marseille","lat":43.292644,"lon":5.384257,"is_reserved":false,"is_disabled":false,"rental_uris":{"android":"levelo://app?vid=d4318754-5642-4282-9aef-38ef159615a7","ios":"levelo://app?vid=d4318754-5642-4282-9aef-38ef159615a7"},"vehicle_type_id":"4","last_reported":1713380693,"current_range_meters":10400,"station_id":"ce4bh692rcd13ifvqea0","pricing_plan_id":"cebpf4jnsgd1na2vs0mg"},{"bike_id":"39dbce54-fe83-401b-97ac-747b00fc4eb0","system_id":"levelo_inurba_marseille","lat":43.2927,"lon":5.384482,"is_reserved":false,"is_disabled":false,"rental_uris":{"android":"levelo://app?vid=39dbce54-fe83-401b-97ac-747b00fc4eb0","ios":"levelo://app?vid=39dbce54-fe83-401b-97ac-747b00fc4eb0"},"vehicle_type_id":"4","last_reported":1713380693,"current_range_meters":10800,"station_id":"ce4bh692rcd13ifvqea0","pricing_plan_id":"cebpf4jnsgd1na2vs0mg"},{"bike_id":"94ba9f28-afc3-49aa-890f-00cc8a9e4217","system_id":"levelo_inurba_marseille","lat":43.292644,"lon":5.384257,"is_reserved":false,"is_disabled":false,"rental_uris":{"android":"levelo://app?vid=94ba9f28-afc3-49aa-890f-00cc8a9e4217","ios":"levelo://app?vid=94ba9f28-afc3-49aa-890f-00cc8a9e4217"},"vehicle_type_id":"4","last_reported":1713380693,"current_range_meters":24800,"station_id":"ce4bh692rcd13ifvqea0","pricing_plan_id":"cebpf4jnsgd1na2vs0mg"},{"bike_id":"5212267f-49b7-41cc-84c1-bac005d02823","system_id":"levelo_inurba_marseille","lat":43.292644,"lon":5.384257,"is_reserved":false,"is_disabled":false,"rental_uris":{"android":"levelo://app?vid=5212267f-49b7-41cc-84c1-bac005d02823","ios":"levelo://app?vid=5212267f-49b7-41cc-84c1-bac005d02823"},"vehicle_type_id":"4","last_reported":1713380693,"current_range_meters":14800,"station_id":"ce4bh692rcd13ifvqea0","pricing_plan_id":"cebpf4jnsgd1na2vs0mg"},{"bike_id":"b996beeb-5824-4d7e-b2f3-4b697ffa36a7","system_id":"levelo_inurba_marseille","lat":43.292644,"lon":5.384257,"is_reserved":false,"is_disabled":false,"rental_uris":{"android":"levelo://app?vid=b996beeb-5824-4d7e-b2f3-4b697ffa36a7","ios":"levelo://app?vid=b996beeb-5824-4d7e-b2f3-4b697ffa36a7"},"vehicle_type_id":"4","last_reported":1713380693,"current_range_meters":4000,"station_id":"ce4bh692rcd13ifvqea0","pricing_plan_id":"cebpf4jnsgd1na2vs0mg"},{"bike_id":"4eaa0dee-336c-49da-9ee5-553f4f01cd5c","system_id":"levelo_inurba_marseille","lat":43.29269,"lon":5.38451,"is_reserved":false,"is_disabled":false,"rental_uris":{"android":"levelo://app?vid=4eaa0dee-336c-49da-9ee5-553f4f01cd5c","ios":"levelo://app?vid=4eaa0dee-336c-49da-9ee5-553f4f01cd5c"},"vehicle_type_id":"4","last_reported":1713380693,"current_range_meters":16000,"station_id":"ce4bh692rcd13ifvqea0","pricing_plan_id":"cebpf4jnsgd1na2vs0mg"},{"bike_id":"cd79a716-f2f2-4163-9774-92902ce48ebc","system_id":"levelo_inurba_marseille","lat":43.292644,"lon":5.384257,"is_reserved":false,"is_disabled":false,"rental_uris":{"android":"levelo://app?vid=cd79a716-f2f2-4163-9774-92902ce48ebc","ios":"levelo://app?vid=cd79a716-f2f2-4163-9774-92902ce48ebc"},"vehicle_type_id":"4","last_reported":1713380693,"current_range_meters":21200,"station_id":"ce4bh692rcd13ifvqea0","pricing_plan_id":"cebpf4jnsgd1na2vs0mg"},{"bike_id":"02733c52-7559-4ea7-bea5-29f82710ed73","system_id":"levelo_inurba_marseille","lat":43.29269,"lon":5.38452,"is_reserved":false,"is_disabled":false,"rental_uris":{"android":"levelo://app?vid=02733c52-7559-4ea7-bea5-29f82710ed73","ios":"levelo://app?vid=02733c52-7559-4ea7-bea5-29f82710ed73"},"vehicle_type_id":"4","last_reported":1713380693,"current_range_meters":0,"station_id":"ce4bh692rcd13ifvqea0","pricing_plan_id":"cebpf4jnsgd1na2vs0mg"},{"bike_id":"2d157adf-81e2-4e7c-8c6a-75cabf1c8e2f","system_id":"levelo_inurba_marseille","lat":43.292642,"lon":5.384254,"is_reserved":false,"is_disabled":false,"rental_uris":{"android":"levelo://app?vid=2d157adf-81e2-4e7c-8c6a-75cabf1c8e2f","ios":"levelo://app?vid=2d157adf-81e2-4e7c-8c6a-75cabf1c8e2f"},"vehicle_type_id":"4","last_reported":1713380693,"current_range_meters":18000,"station_id":"ce4bh692rcd13ifvqea0","pricing_plan_id":"cebpf4jnsgd1na2vs0mg"},{"bike_id":"e1a18b28-f2ce-49e3-988b-0da4d34b66b6","system_id":"levelo_inurba_marseille","lat":43.292644,"lon":5.384257,"is_reserved":false,"is_disabled":false,"rental_uris":{"android":"levelo://app?vid=e1a18b28-f2ce-49e3-988b-0da4d34b66b6","ios":"levelo://app?vid=e1a18b28-f2ce-49e3-988b-0da4d34b66b6"},