{"last_updated":1703002113,"ttl":30,"version":"2.2","data":{"bikes":[{"bike_id":"74fb97d5-e48e-4bc2-9e93-0787df9de4ea","system_id":"levelo_inurba_marseille","lat":43.312239,"lon":5.368562,"is_reserved":false,"is_disabled":false,"rental_uris":{"android":"levelo://app?vid=74fb97d5-e48e-4bc2-9e93-0787df9de4ea","ios":"levelo://app?vid=74fb97d5-e48e-4bc2-9e93-0787df9de4ea"},"vehicle_type_id":"4","last_reported":1703002113,"current_range_meters":17200,"station_id":"ce4bgl92rcd13ifvqbq0","pricing_plan_id":"free"},{"bike_id":"f1f00f3f-7c0a-49f6-a7c8-d789b9288b11","system_id":"levelo_inurba_marseille","lat":43.309076,"lon":5.368465,"is_reserved":false,"is_disabled":false,"rental_uris":{"android":"levelo://app?vid=f1f00f3f-7c0a-49f6-a7c8-d789b9288b11","ios":"levelo://app?vid=f1f00f3f-7c0a-49f6-a7c8-d789b9288b11"},"vehicle_type_id":"4","last_reported":1703002113,"current_range_meters":13600,"station_id":"ce4bgn92rcd13ifvqbvg","pricing_plan_id":"free"},{"bike_id":"68755632-6045-4e31-8251-eb246576e8f7","system_id":"levelo_inurba_marseille","lat":43.308985,"lon":5.368507,"is_reserved":false,"is_disabled":false,"rental_uris":{"android":"levelo://app?vid=68755632-6045-4e31-8251-eb246576e8f7","ios":"levelo://app?vid=68755632-6045-4e31-8251-eb246576e8f7"},"vehicle_type_id":"4","last_reported":1703002113,"current_range_meters":17600,"station_id":"ce4bgn92rcd13ifvqbvg","pricing_plan_id":"free"},{"bike_id":"2c8b9970-32e3-4398-8f3c-0b6c9b1c957c","system_id":"levelo_inurba_marseille","lat":43.309039,"lon":5.371797,"is_reserved":false,"is_disabled":false,"rental_uris":{"android":"levelo://app?vid=2c8b9970-32e3-4398-8f3c-0b6c9b1c957c","ios":"levelo://app?vid=2c8b9970-32e3-4398-8f3c-0b6c9b1c957c"},"vehicle_type_id":"4","last_reported":1703002113,"current_range_meters":13200,"station_id":"ce4bguh2rcd13ifvqckg","pricing_plan_id":"free"},{"bike_id":"bd8c3752-f3c4-493e-9d25-08cba5842efc","system_id":"levelo_inurba_marseille","lat":43.309039,"lon":5.371797,"is_reserved":false,"is_disabled":false,"rental_uris":{"android":"levelo://app?vid=bd8c3752-f3c4-493e-9d25-08cba5842efc","ios":"levelo://app?vid=bd8c3752-f3c4-493e-9d25-08cba5842efc"},"vehicle_type_id":"4","last_reported":1703002113,"current_range_meters":31600,"station_id":"ce4bguh2rcd13ifvqckg","pricing_plan_id":"free"},{"bike_id":"574c5893-0279-4d65-9c48-693bafd7fac9","system_id":"levelo_inurba_marseille","lat":43.309039,"lon":5.371797,"is_reserved":false,"is_disabled":false,"rental_uris":{"android":"levelo://app?vid=574c5893-0279-4d65-9c48-693bafd7fac9","ios":"levelo://app?vid=574c5893-0279-4d65-9c48-693bafd7fac9"},"vehicle_type_id":"4","last_reported":1703002113,"current_range_meters":30000,"station_id":"ce4bguh2rcd13ifvqckg","pricing_plan_id":"free"},{"bike_id":"3de6a2c0-32c4-46fd-a747-63f28d27606d","system_id":"levelo_inurba_marseille","lat":43.309039,"lon":5.371797,"is_reserved":false,"is_disabled":false,"rental_uris":{"android":"levelo://app?vid=3de6a2c0-32c4-46fd-a747-63f28d27606d","ios":"levelo://app?vid=3de6a2c0-32c4-46fd-a747-63f28d27606d"},"vehicle_type_id":"4","last_reported":1703002113,"current_range_meters":5200,"station_id":"ce4bguh2rcd13ifvqckg","pricing_plan_id":"free"},{"bike_id":"dc439ef5-ce3f-49be-a56c-a94f48fddff6","system_id":"levelo_inurba_marseille","lat":43.305706,"lon":5.365654,"is_reserved":false,"is_disabled":false,"rental_uris":{"android":"levelo://app?vid=dc439ef5-ce3f-49be-a56c-a94f48fddff6","ios":"levelo://app?vid=dc439ef5-ce3f-49be-a56c-a94f48fddff6"},"vehicle_type_id":"4","last_reported":1703002113,"current_range_meters":19600,"station_id":"ce4bgs12rcd13ifvqcag","pricing_plan_id":"free"},{"bike_id":"a8a33ab4-2bc3-475d-8933-ea0d2bf74b49","system_id":"levelo_inurba_marseille","lat":43.305714,"lon":5.365633,"is_reserved":false,"is_disabled":false,"rental_uris":{"android":"levelo://app?vid=a8a33ab4-2bc3-475d-8933-ea0d2bf74b49","ios":"levelo://app?vid=a8a33ab4-2bc3-475d-8933-ea0d2bf74b49"},"vehicle_type_id":"4","last_reported":1703002113,"current_range_meters":12800,"station_id":"ce4bgs12rcd13ifvqcag","pricing_plan_id":"free"},{"bike_id":"ef654af0-4965-4832-9831-2e8e5b6af509","system_id":"levelo_inurba_marseille","lat":43.305332,"lon":5.365376,"is_reserved":false,"is_disabled":false,"rental_uris":{"android":"levelo://app?vid=ef654af0-4965-4832-9831-2e8e5b6af509","ios":"levelo://app?vid=ef654af0-4965-4832-9831-2e8e5b6af509"},"vehicle_type_id":"4","last_reported":1703002113,"current_range_meters":0,"station_id":"ce4bgs12rcd13ifvqcag","pricing_plan_id":"free"},{"bike_id":"605dbafd-f05e-4dbe-8c90-c5a6addb7acb","system_id":"levelo_inurba_marseille","lat":43.305989,"lon":5.37225,"is_reserved":false,"is_disabled":false,"rental_uris":{"android":"levelo://app?vid=605dbafd-f05e-4dbe-8c90-c5a6addb7acb","ios":"levelo://app?vid=605dbafd-f05e-4dbe-8c90-c5a6addb7acb"},"vehicle_type_id":"4","last_reported":1703002113,"current_range_meters":22400,"station_id":"ce4bgqh2rcd13ifvqc4g","pricing_plan_id":"free"},{"bike_id":"283e6b3e-1ad1-49e9-9053-e95a39e7d688","system_id":"levelo_inurba_marseille","lat":43.305989,"lon":5.37225,"is_reserved":false,"is_disabled":false,"rental_uris":{"android":"levelo://app?vid=283e6b3e-1ad1-49e9-9053-e95a39e7d688","ios":"levelo://app?vid=283e6b3e-1ad1-49e9-9053-e95a39e7d688"},"vehicle_type_id":"4","last_reported":1703002113,"current_range_meters":2400,"station_id":"ce4bgqh2rcd13ifvqc4g","pricing_plan_id":"free"},{"bike_id":"1c666575-43f8-4218-9879-290f8c7f3cf7","system_id":"levelo_inurba_marseille","lat":43.305989,"lon":5.37225,"is_reserved":false,"is_disabled":false,"rental_uris":{"android":"levelo://app?vid=1c666575-43f8-4218-9879-290f8c7f3cf7","ios":"levelo://app?vid=1c666575-43f8-4218-9879-290f8c7f3cf7"},"vehicle_type_id":"4","last_reported":1703002113,"current_range_meters":19200,"station_id":"ce4bgqh2rcd13ifvqc4g","pricing_plan_id":"free"},{"bike_id":"8d6cb720-708b-4d35-adbb-9126e86b6bc5","system_id":"levelo_inurba_marseille","lat":43.305989,"lon":5.37225,"is_reserved":false,"is_disabled":false,"rental_uris":{"android":"levelo://app?vid=8d6cb720-708b-4d35-adbb-9126e86b6bc5","ios":"levelo://app?vid=8d6cb720-708b-4d35-adbb-9126e86b6bc5"},"vehicle_type_id":"4","last_reported":1703002113,"current_range_meters":29600,"station_id":"ce4bgqh2rcd13ifvqc4g","pricing_plan_id":"free"},{"bike_id":"2dbecc21-23bb-4db1-b7f5-a0a8fe4c6cf4","system_id":"levelo_inurba_marseille","lat":43.305989,"lon":5.37225,"is_reserved":false,"is_disabled":false,"rental_uris":{"android":"levelo://app?vid=2dbecc21-23bb-4db1-b7f5-a0a8fe4c6cf4","ios":"levelo://app?vid=2dbecc21-23bb-4db1-b7f5-a0a8fe4c6cf4"},"vehicle_type_id":"4","last_reported":1703002113,"current_range_meters":16800,"station_id":"ce4bgqh2rcd13ifvqc4g","pricing_plan_id":"free"},{"bike_id":"9178c72a-98dc-4fe7-90af-aea0718461d5","system_id":"levelo_inurba_marseille","lat":43.311125,"lon":5.377624,"is_reserved":false,"is_disabled":false,"rental_uris":{"android":"levelo://app?vid=9178c72a-98dc-4fe7-90af-aea0718461d5","ios":"levelo://app?vid=9178c72a-98dc-4fe7-90af-aea0718461d5"},"vehicle_type_id":"4","last_reported":1703002113,"current_range_meters":15200,"station_id":"ce4bgt92rcd13ifvqcg0","pricing_plan_id":"free"},{"bike_id":"547a561f-58f7-495e-a952-8d191eb5607b","system_id":"levelo_inurba_marseille","lat":43.311125,"lon":5.377624,"is_reserved":false,"is_disabled":false,"rental_uris":{"android":"levelo://app?vid=547a561f-58f7-495e-a952-8d191eb5607b","ios":"levelo://app?vid=547a561f-58f7-495e-a952-8d191eb5607b"},"vehicle_type_id":"4","last_reported":1703002113,"current_range_meters":28800,"station_id":"ce4bgt92rcd13ifvqcg0","pricing_plan_id":"free"},{"bike_id":"70b0cda6-c80d-4457-b8a9-9ba26aff909d","system_id":"levelo_inurba_marseille","lat":43.317075,"lon":5.377367,"is_reserved":false,"is_disabled":false,"rental_uris":{"android":"levelo://app?vid=70b0cda6-c80d-4457-b8a9-9ba26aff909d","ios":"levelo://app?vid=70b0cda6-c80d-4457-b8a9-9ba26aff909d"},"vehicle_type_id":"4","last_reported":1703002113,"current_range_meters":26400,"station_id":"ce4bgth2rcd13ifvqch0","pricing_plan_id":"free"},{"bike_id":"434ac7bc-c4ee-4178-8066-57cd65d9dfc7","system_id":"levelo_inurba_marseille","lat":43.3137,"lon":5.37981,"is_reserved":false,"is_disabled":false,"rental_uris":{"android":"levelo://app?vid=434ac7bc-c4ee-4178-8066-57cd65d9dfc7","ios":"levelo://app?vid=434ac7bc-c4ee-4178-8066-57cd65d9dfc7"},"vehicle_type_id":"4","last_reported":1703002113,"current_range_meters":3200,"station_id":"","pricing_plan_id":"free"},{"bike_id":"b8da0a26-8f85-4988-badb-8ea3ef26e952","system_id":"levelo_inurba_marseille","lat":43.304605,"lon":5.379019,"is_reserved":false,"is_disabled":false,"rental_uris":{"android":"levelo://app?vid=b8da0a26-8f85-4988-badb-8ea3ef26e952","ios":"levelo://app?vid=b8da0a26-8f85-4988-badb-8ea3ef26e952"},"vehicle_type_id":"4","last_reported":1703002113,"current_range_meters":31200,"station_id":"ce4bgup2rcd13ifvqcn0","pricing_plan_id":"free"},{"bike_id":"07d83efb-1f2b-4d1f-bd37-91582f830a2b","system_id":"levelo_inurba_marseille","lat":43.30465,"lon":5.37911,"is_reserved":false,"is_disabled":false,"rental_uris":{"android":"levelo://app?vid=07d83efb-1f2b-4d1f-bd37-91582f830a2b","ios":"levelo://app?vid=07d83efb-1f2b-4d1f-bd37-91582f830a2b"},"vehicle_type_id":"4","last_reported":1703002113,"current_range_meters":19200,"station_id":"ce4bgup2rcd13ifvqcn0","pricing_plan_id":"free"},{"bike_id":"bd6e1505-63a8-481a-aa6f-5c5fd413ec75","system_id":"levelo_inurba_marseille","lat":43.304627,"lon":5.379085,"is_reserved":false,"is_disabled":false,"rental_uris":{"android":"levelo://app?vid=bd6e1505-63a8-481a-aa6f-5c5fd413ec75","ios":"levelo://app?vid=bd6e1505-63a8-481a-aa6f-5c5fd413ec75"},"vehicle_type_id":"4","last_reported":1703002113,"current_range_meters":12800,"station_id":"ce4bgup2rcd13ifvqcn0","pricing_plan_id":"free"},{"bike_id":"6e6fd519-4908-4585-bb9f-3911fd50c973","system_id":"levelo_inurba_marseille","lat":43.304606,"lon":5.379026,"is_reserved":false,"is_disabled":false,"rental_uris":{"android":"levelo://app?vid=6e6fd519-4908-4585-bb9f-3911fd50c973","ios":"levelo://app?vid=6e6fd519-4908-4585-bb9f-3911fd50c973"},"vehicle_type_id":"4","last_reported":1703002113,"current_range_meters":24400,"station_id":"ce4bgup2rcd13ifvqcn0","pricing_plan_id":"free"},{"bike_id":"009c10db-dd1a-44ab-879d-b7fb5ba83910","system_id":"levelo_inurba_marseille","lat":43.304583,"lon":5.379109,"is_reserved":false,"is_disabled":false,"rental_uris":{"android":"levelo://app?vid=009c10db-dd1a-44ab-879d-b7fb5ba83910","ios":"levelo://app?vid=009c10db-dd1a-44ab-879d-b7fb5ba83910"},"vehicle_type_id":"4","last_reported":1703002113,"current_range_meters":28400,"station_id":"ce4bgup2rcd13ifvqcn0","pricing_plan_id":"free"},{"bike_id":"8d7aae60-5605-4bdc-b1a2-393c308275ba","system_id":"levelo_inurba_marseille","lat":43.304575,"lon":5.379116,"is_reserved":false,"is_disabled":false,"rental_uris":{"android":"levelo://app?vid=8d7aae60-5605-4bdc-b1a2-393c308275ba","ios":"levelo://app?vid=8d7aae60-5605-4bdc-b1a2-393c308275ba"},"vehicle_type_id":"4","last_reported":1703002113,"current_range_meters":24800,"station_id":"ce4bgup2rcd13ifvqcn0","pricing_plan_id":"free"},{"bike_id":"89bf2b26-9ef3-489c-995e-74185656296a","system_id":"levelo_inurba_marseille","lat":43.304568,"lon":5.379115,"is_reserved":false,"is_disabled":false,"rental_uris":{"android":"levelo://app?vid=89bf2b26-9ef3-489c-995e-74185656296a","ios":"levelo://app?vid=89bf2b26-9ef3-489c-995e-74185656296a"},"vehicle_type_id":"4","last_reported":1703002113,"current_range_meters":30000,"station_id":"ce4bgup2rcd13ifvqcn0","pricing_plan_id":"free"},{"bike_id":"1d6e6b64-658d-4df1-a41e-77394fdcc6b6","system_id":"levelo_inurba_marseille","lat":43.304561,"lon":5.379113,"is_reserved":false,"is_disabled":false,"rental_uris":{"android":"levelo://app?vid=1d6e6b64-658d-4df1-a41e-77394fdcc6b6","ios":"levelo://app?vid=1d6e6b64-658d-4df1-a41e-77394fdcc6b6"},"vehicle_type_id":"4","last_reported":1703002113,"current_range_meters":30000,"station_id":"ce4bgup2rcd13ifvqcn0","pricing_plan_id":"free"},{"bike_id":"77940674-195c-4815-b86e-ca9615d81338","system_id":"levelo_inurba_marseille","lat":43.304606,"lon":5.379026,"is_reserved":false,"is_disabled":false,"rental_uris":{"android":"levelo://app?vid=77940674-195c-4815-b86e-ca9615d81338","ios":"levelo://app?vid=77940674-195c-4815-b86e-ca9615d81338"},"vehicle_type_id":"4","last_reported":1703002113,"current_range_meters":30400,"station_id":"ce4bgup2rcd13ifvqcn0","pricing_plan_id":"free"},{"bike_id":"73daa15e-e206-4b60-b578-9ab179a5516b","system_id":"levelo_inurba_marseille","lat":43.304606,"lon":5.379026,"is_reserved":false,"is_disabled":false,"rental_uris":{"android":"levelo://app?vid=73daa15e-e206-4b60-b578-9ab179a5516b","ios":"levelo://app?vid=73daa15e-e206-4b60-b578-9ab179a5516b"},"vehicle_type_id":"4","last_reported":1703002113,"current_range_meters":29200,"station_id":"ce4bgup2rcd13ifvqcn0","pricing_plan_id":"free"},{"bike_id":"4daa3660-7732-4627-a146-273c417e882f","system_id":"levelo_inurba_marseille","lat":43.304517,"lon":5.379137,"is_reserved":false,"is_disabled":false,"rental_uris":{"android":"levelo://app?vid=4daa3660-7732-4627-a146-273c417e882f","ios":"levelo://app?vid=4daa3660-7732-4627-a146-273c417e882f"},"vehicle_type_id":"4","last_reported":1703002113,"current_range_meters":30000,"station_id":"","pricing_plan_id":"free"},{"bike_id":"c63bdf75-3e12-4473-a91e-52fb33d95305","system_id":"levelo_inurba_marseille","lat":43.302784,"lon":5.377158,"is_reserved":false,"is_disabled":false,"rental_uris":{"android":"levelo://app?vid=c63bdf75-3e12-4473-a91e-52fb33d95305","ios":"levelo://app?vid=c63bdf75-3e12-4473-a91e-52fb33d95305"},"vehicle_type_id":"4","last_reported":1703002113,"current_range_meters":0,"station_id":"ce4bguh2rcd13ifvqcj0","pricing_plan_id":"free"},{"bike_id":"c582e439-1f38-4de1-922e-177bc12ebda1","system_id":"levelo_inurba_marseille","lat":43.319935,"lon":5.381699,"is_reserved":false,"is_disabled":false,"rental_uris":{"android":"levelo://app?vid=c582e439-1f38-4de1-922e-177bc12ebda1","ios":"levelo://app?vid=c582e439-1f38-4de1-922e-177bc12ebda1"},"vehicle_type_id":"4","last_reported":1703002113,"current_range_meters":31200,"station_id":"ce4bhr12rcd13ifvqhpg","pricing_plan_id":"free"},{"bike_id":"ef83e805-f503-42db-8aec-547ee1af2ead","system_id":"levelo_inurba_marseille","lat":43.319935,"lon":5.381699,"is_reserved":false,"is_disabled":false,"rental_uris":{"android":"levelo://app?vid=ef83e805-f503-42db-8aec-547ee1af2ead","ios":"levelo://app?vid=ef83e805-f503-42db-8aec-547ee1af2ead"},"vehicle_type_id":"4","last_reported":1703002113,"current_range_meters":6000,"station_id":"ce4bhr12rcd13ifvqhpg","pricing_plan_id":"free"},{"bike_id":"9ba98b26-e12e-48fb-a575-24e5c6bef54e","system_id":"levelo_inurba_marseille","lat":43.31359,"lon":5.38493,"is_reserved":false,"is_disabled":false,"rental_uris":{"android":"levelo://app?vid=9ba98b26-e12e-48fb-a575-24e5c6bef54e","ios":"levelo://app?vid=9ba98b26-e12e-48fb-a575-24e5c6bef54e"},"vehicle_type_id":"4","last_reported":1703002113,"current_range_meters":25200,"station_id":"ce4bgt92rcd13ifvqcf0","pricing_plan_id":"free"},{"bike_id":"1f9ee468-6986-488d-837b-9248feb85cf8","system_id":"levelo_inurba_marseille","lat":43.3136,"lon":5.38493,"is_reserved":false,"is_disabled":false,"rental_uris":{"android":"levelo://app?vid=1f9ee468-6986-488d-837b-9248feb85cf8","ios":"levelo://app?vid=1f9ee468-6986-488d-837b-9248feb85cf8"},"vehicle_type_id":"4","last_reported":1703002113,"current_range_meters":7200,"station_id":"ce4bgt92rcd13ifvqcf0","pricing_plan_id":"free"},{"bike_id":"69e0ced4-eefa-405c-abee-d717eb332685","system_id":"levelo_inurba_marseille","lat":43.299724,"lon":5.371829,"is_reserved":false,"is_disabled":false,"rental_uris":{"android":"levelo://app?vid=69e0ced4-eefa-405c-abee-d717eb332685","ios":"levelo://app?vid=69e0ced4-eefa-405c-abee-d717eb332685"},"vehicle_type_id":"4","last_reported":1703002113,"current_range_meters":20000,"station_id":"ce4bgr92rcd13ifvqc7g","pricing_plan_id":"free"},{"bike_id":"04d92e91-b945-4a61-bf1e-29163527674c","system_id":"levelo_inurba_marseille","lat":43.31369,"lon":5.38495,"is_reserved":false,"is_disabled":false,"rental_uris":{"android":"levelo://app?vid=04d92e91-b945-4a61-bf1e-29163527674c","ios":"levelo://app?vid=04d92e91-b945-4a61-bf1e-29163527674c"},"vehicle_type_id":"4","last_reported":1703002113,"current_range_meters":4400,"station_id":"ce4bgt92rcd13ifvqcf0","pricing_plan_id":"free"},{"bike_id":"8fae39fe-f351-4775-bf17-ce9800288018","system_id":"levelo_inurba_marseille","lat":43.313571,"lon":5.384829,"is_reserved":false,"is_disabled":false,"rental_uris":{"android":"levelo://app?vid=8fae39fe-f351-4775-bf17-ce9800288018","ios":"levelo://app?vid=8fae39fe-f351-4775-bf17-ce9800288018"},"vehicle_type_id":"4","last_reported":1703002113,"current_range_meters":31200,"station_id":"ce4bgt92rcd13ifvqcf0","pricing_plan_id":"free"},{"bike_id":"b94bc742-e48d-40ea-9ed4-e39890955bc0","system_id":"levelo_inurba_marseille","lat":43.31359,"lon":5.38497,"is_reserved":false,"is_disabled":false,"rental_uris":{"android":"levelo://app?vid=b94bc742-e48d-40ea-9ed4-e39890955bc0","ios":"levelo://app?vid=b94bc742-e48d-40ea-9ed4-e39890955bc0"},"vehicle_type_id":"4","last_reported":1703002113,"current_range_meters":26800,"station_id":"ce4bgt92rcd13ifvqcf0","pricing_plan_id":"free"},{"bike_id":"1d405565-81fe-483d-b06d-9ddd014114e3","system_id":"levelo_inurba_marseille","lat":43.313571,"lon":5.384829,"is_reserved":false,"is_disabled":false,"rental_uris":{"android":"levelo://app?vid=1d405565-81fe-483d-b06d-9ddd014114e3","ios":"levelo://app?vid=1d405565-81fe-483d-b06d-9ddd014114e3"},"vehicle_type_id":"4","last_reported":1703002113,"current_range_meters":30800,"station_id":"ce4bgt92rcd13ifvqcf0","pricing_plan_id":"free"},{"bike_id":"01ee7429-cfde-4b62-856f-75cf388216af","system_id":"levelo_inurba_marseille","lat":43.313571,"lon":5.384829,"is_reserved":false,"is_disabled":false,"rental_uris":{"android":"levelo://app?vid=01ee7429-cfde-4b62-856f-75cf388216af","ios":"levelo://app?vid=01ee7429-cfde-4b62-856f-75cf388216af"},"vehicle_type_id":"4","last_reported":1703002113,"current_range_meters":28000,"station_id":"ce4bgt92rcd13ifvqcf0","pricing_plan_id":"free"},{"bike_id":"8fc63f90-e42f-45a5-8ef8-f3e9aca8ac5d","system_id":"levelo_inurba_marseille","lat":43.313571,"lon":5.384829,"is_reserved":false,"is_disabled":false,"rental_uris":{"android":"levelo://app?vid=8fc63f90-e42f-45a5-8ef8-f3e9aca8ac5d","ios":"levelo://app?vid=8fc63f90-e42f-45a5-8ef8-f3e9aca8ac5d"},"vehicle_type_id":"4","last_reported":1703002113,"current_range_meters":25200,"station_id":"ce4bgt92rcd13ifvqcf0","pricing_plan_id":"free"},{"bike_id":"49e6fbff-48ad-4699-b140-c3ec3f3115ad","system_id":"levelo_inurba_marseille","lat":43.313571,"lon":5.384829,"is_reserved":false,"is_disabled":false,"rental_uris":{"android":"levelo://app?vid=49e6fbff-48ad-4699-b140-c3ec3f3115ad","ios":"levelo://app?vid=49e6fbff-48ad-4699-b140-c3ec3f3115ad"},"vehicle_type_id":"4","last_reported":1703002113,"current_range_meters":26000,"station_id":"ce4bgt92rcd13ifvqcf0","pricing_plan_id":"free"},{"bike_id":"93e3f275-51de-4ff5-beb2-171840114c6c","system_id":"levelo_inurba_marseille","lat":43.313571,"lon":5.384829,"is_reserved":false,"is_disabled":false,"rental_uris":{"android":"levelo://app?vid=93e3f275-51de-4ff5-beb2-171840114c6c","ios":"levelo://app?vid=93e3f275-51de-4ff5-beb2-171840114c6c"},"vehicle_type_id":"4","last_reported":1703002113,"current_range_meters":21200,"station_id":"ce4bgt92rcd13ifvqcf0","pricing_plan_id":"free"},{"bike_id":"9d72f84c-e239-4de9-a8d1-b1964ce4b190","system_id":"levelo_inurba_marseille","lat":43.313571,"lon":5.384829,"is_reserved":false,"is_disabled":false,"rental_uris":{"android":"levelo://app?vid=9d72f84c-e239-4de9-a8d1-b1964ce4b190","ios":"levelo://app?vid=9d72f84c-e239-4de9-a8d1-b1964ce4b190"},"vehicle_type_id":"4","last_reported":1703002113,"current_range_meters":29600,"station_id":"ce4bgt92rcd13ifvqcf0","pricing_plan_id":"free"},{"bike_id":"c5fb8244-5d1c-40fe-a905-e86a9cae7cc9","system_id":"levelo_inurba_marseille","lat":43.298433,"lon":5.362774,"is_reserved":false,"is_disabled":false,"rental_uris":{"android":"levelo://app?vid=c5fb8244-5d1c-40fe-a905-e86a9cae7cc9","ios":"levelo://app?vid=c5fb8244-5d1c-40fe-a905-e86a9cae7cc9"},"vehicle_type_id":"4","last_reported":1703002113,"current_range_meters":9600,"station_id":"ce4bgpp2rcd13ifvqc3g","pricing_plan_id":"free"},{"bike_id":"ca0834b0-077b-48e5-8d61-d563b65c06e3","system_id":"levelo_inurba_marseille","lat":43.305476,"lon":5.384555,"is_reserved":false,"is_disabled":false,"rental_uris":{"android":"levelo://app?vid=ca0834b0-077b-48e5-8d61-d563b65c06e3","ios":"levelo://app?vid=ca0834b0-077b-48e5-8d61-d563b65c06e3"},"vehicle_type_id":"4","last_reported":1703002113,"current_range_meters":2800,"station_id":"ce4bgg92rcd13ifvqb30","pricing_plan_id":"free"},{"bike_id":"a2a821e1-a4d1-4cf4-b600-769148036426","system_id":"levelo_inurba_marseille","lat":43.311722,"lon":5.387247,"is_reserved":false,"is_disabled":false,"rental_uris":{"android":"levelo://app?vid=a2a821e1-a4d1-4cf4-b600-769148036426","ios":"levelo://app?vid=a2a821e1-a4d1-4cf4-b600-769148036426"},"vehicle_type_id":"4","last_reported":1703002113,"current_range_meters":26400,"station_id":"ce4bgv12rcd13ifvqcp0","pricing_plan_id":"free"},{"bike_id":"72f28f83-54c3-4d39-8de3-38341b3abd79","system_id":"levelo_inurba_marseille","lat":43.311722,"lon":5.387247,"is_reserved":false,"is_disabled":false,"rental_uris":{"android":"levelo://app?vid=72f28f83-54c3-4d39-8de3-38341b3abd79","ios":"levelo://app?vid=72f28f83-54c3-4d39-8de3-38341b3abd79"},"vehicle_type_id":"4","last_reported":1703002113,"current_range_meters":20800,"station_id":"ce4bgv12rcd13ifvqcp0","pricing_plan_id":"free"},{"bike_id":"c4636140-4ccd-4421-8271-ee54effef5fd","system_id":"levelo_inurba_marseille","lat":43.311722,"lon":5.387247,"is_reserved":false,"is_disabled":false,"rental_uris":{"android":"levelo://app?vid=c4636140-4ccd-4421-8271-ee54effef5fd","ios":"levelo://app?vid=c4636140-4ccd-4421-8271-ee54effef5fd"},"vehicle_type_id":"4","last_reported":1703002113,"current_range_meters":26000,"station_id":"ce4bgv12rcd13ifvqcp0","pricing_plan_id":"free"},{"bike_id":"594bea8f-7f4a-4609-8e99-e95c0d89ceda","system_id":"levelo_inurba_marseille","lat":43.311722,"lon":5.387247,"is_reserved":false,"is_disabled":false,"rental_uris":{"android":"levelo://app?vid=594bea8f-7f4a-4609-8e99-e95c0d89ceda","ios":"levelo://app?vid=594bea8f-7f4a-4609-8e99-e95c0d89ceda"},"vehicle_type_id":"4","last_reported":1703002113,"current_range_meters":0,"station_id":"ce4bgv12rcd13ifvqcp0","pricing_plan_id":"free"},{"bike_id":"65b8a907-9c66-4690-8361-70f4b576d052","system_id":"levelo_inurba_marseille","lat":43.297815,"lon":5.37107,"is_reserved":false,"is_disabled":false,"rental_uris":{"android":"levelo://app?vid=65b8a907-9c66-4690-8361-70f4b576d052","ios":"levelo://app?vid=65b8a907-9c66-4690-8361-70f4b576d052"},"vehicle_type_id":"4","last_reported":1703002113,"current_range_meters":0,"station_id":"ce4bgop2rcd13ifvqc1g","pricing_plan_id":"free"},{"bike_id":"873a287b-4e8b-4542-834f-91bce629838e","system_id":"levelo_inurba_marseille","lat":43.322872,"lon":5.382756,"is_reserved":false,"is_disabled":false,"rental_uris":{"android":"levelo://app?vid=873a287b-4e8b-4542-834f-91bce629838e","ios":"levelo://app?vid=873a287b-4e8b-4542-834f-91bce629838e"},"vehicle_type_id":"4","last_reported":1703002113,"current_range_meters":21200,"station_id":"ce4bhr12rcd13ifvqhqg","pricing_plan_id":"free"},{"bike_id":"d83fbae2-5f8f-42f4-8ccf-5b712fffb999","system_id":"levelo_inurba_marseille","lat":43.328371,"lon":5.366909,"is_reserved":false,"is_disabled":false,"rental_uris":{"android":"levelo://app?vid=d83fbae2-5f8f-42f4-8ccf-5b712fffb999","ios":"levelo://app?vid=d83fbae2-5f8f-42f4-8ccf-5b712fffb999"},"vehicle_type_id":"4","last_reported":1703002113,"current_range_meters":26400,"station_id":"ce4bhs92rcd13ifvqi0g","pricing_plan_id":"free"},{"bike_id":"c8424476-1741-492e-b741-5c71a811eabd","system_id":"levelo_inurba_marseille","lat":43.296131,"lon":5.370791,"is_reserved":false,"is_disabled":false,"rental_uris":{"android":"levelo://app?vid=c8424476-1741-492e-b741-5c71a811eabd","ios":"levelo://app?vid=c8424476-1741-492e-b741-5c71a811eabd"},"vehicle_type_id":"4","last_reported":1703002113,"current_range_meters":1600,"station_id":"ce4bgnh2rcd13ifvqc0g","pricing_plan_id":"free"},{"bike_id":"d3e60311-8d70-455a-bc4a-599fe55b7793","system_id":"levelo_inurba_marseille","lat":43.296921,"lon":5.376579,"is_reserved":false,"is_disabled":false,"rental_uris":{"android":"levelo://app?vid=d3e60311-8d70-455a-bc4a-599fe55b7793","ios":"levelo://app?vid=d3e60311-8d70-455a-bc4a-599fe55b7793"},"vehicle_type_id":"4","last_reported":1703002113,"current_range_meters":1200,"station_id":"ce4bgkh2rcd13ifvqbl0","pricing_plan_id":"free"},{"bike_id":"0de983ae-c3ae-481f-ab2d-c77ae83bcbb4","system_id":"levelo_inurba_marseille","lat":43.296921,"lon":5.376579,"is_reserved":false,"is_disabled":false,"rental_uris":{"android":"levelo://app?vid=0de983ae-c3ae-481f-ab2d-c77ae83bcbb4","ios":"levelo://app?vid=0de983ae-c3ae-481f-ab2d-c77ae83bcbb4"},"vehicle_type_id":"4","last_reported":1703002113,"current_range_meters":16800,"station_id":"ce4bgkh2rcd13ifvqbl0","pricing_plan_id":"free"},{"bike_id":"1fe36ba2-e11d-4834-a191-a46b0cfd110c","system_id":"levelo_inurba_marseille","lat":43.299028,"lon":5.381509,"is_reserved":false,"is_disabled":false,"rental_uris":{"android":"levelo://app?vid=1fe36ba2-e11d-4834-a191-a46b0cfd110c","ios":"levelo://app?vid=1fe36ba2-e11d-4834-a191-a46b0cfd110c"},"vehicle_type_id":"4","last_reported":1703002113,"current_range_meters":20000,"station_id":"ce4bgj12rcd13ifvqbc0","pricing_plan_id":"free"},{"bike_id":"a3317528-e9f5-4c10-8a7e-8457600057e1","system_id":"levelo_inurba_marseille","lat":43.299028,"lon":5.381509,"is_reserved":false,"is_disabled":false,"rental_uris":{"android":"levelo://app?vid=a3317528-e9f5-4c10-8a7e-8457600057e1","ios":"levelo://app?vid=a3317528-e9f5-4c10-8a7e-8457600057e1"},"vehicle_type_id":"4","last_reported":1703002113,"current_range_meters":31200,"station_id":"ce4bgj12rcd13ifvqbc0","pricing_plan_id":"free"},{"bike_id":"a4a7be2b-6935-42fc-807c-e0f9ca289e8a","system_id":"levelo_inurba_marseille","lat":43.317557,"lon":5.390173,"is_reserved":false,"is_disabled":false,"rental_uris":{"android":"levelo://app?vid=a4a7be2b-6935-42fc-807c-e0f9ca289e8a","ios":"levelo://app?vid=a4a7be2b-6935-42fc-807c-e0f9ca289e8a"},"vehicle_type_id":"4","last_reported":1703002113,"current_range_meters":28000,"station_id":"ce4bhqp2rcd13ifvqhng","pricing_plan_id":"free"},{"bike_id":"16add7a7-e139-49ef-9c2c-0df2b639abbd","system_id":"levelo_inurba_marseille","lat":43.31755,"lon":5.39021,"is_reserved":false,"is_disabled":false,"rental_uris":{"android":"levelo://app?vid=16add7a7-e139-49ef-9c2c-0df2b639abbd","ios":"levelo://app?vid=16add7a7-e139-49ef-9c2c-0df2b639abbd"},"vehicle_type_id":"4","last_reported":1703002113,"current_range_meters":20000,"station_id":"ce4bhqp2rcd13ifvqhng","pricing_plan_id":"free"},{"bike_id":"40554fe8-87bf-41d5-b75a-7fd0e2ec929c","system_id":"levelo_inurba_marseille","lat":43.317557,"lon":5.390173,"is_reserved":false,"is_disabled":false,"rental_uris":{"android":"levelo://app?vid=40554fe8-87bf-41d5-b75a-7fd0e2ec929c","ios":"levelo://app?vid=40554fe8-87bf-41d5-b75a-7fd0e2ec929c"},"vehicle_type_id":"4","last_reported":1703002113,"current_range_meters":31200,"station_id":"ce4bhqp2rcd13ifvqhng","pricing_plan_id":"free"},{"bike_id":"0aa51df8-3434-434f-9edb-f980cb204e82","system_id":"levelo_inurba_marseille","lat":43.298037,"lon":5.381066,"is_reserved":false,"is_disabled":false,"rental_uris":{"android":"levelo://app?vid=0aa51df8-3434-434f-9edb-f980cb204e82","ios":"levelo://app?vid=0aa51df8-3434-434f-9edb-f980cb204e82"},"vehicle_type_id":"4","last_reported":1703002113,"current_range_meters":24000,"station_id":"ce4bgip2rcd13ifvqbb0","pricing_plan_id":"free"},{"bike_id":"9d8b54c1-ee49-4dec-b81e-5353067f45eb","system_id":"levelo_inurba_marseille","lat":43.30427,"lon":5.388915,"is_reserved":false,"is_disabled":false,"rental_uris":{"android":"levelo://app?vid=9d8b54c1-ee49-4dec-b81e-5353067f45eb","ios":"levelo://app?vid=9d8b54c1-ee49-4dec-b81e-5353067f45eb"},"vehicle_type_id":"4","last_reported":1703002113,"current_range_meters":14400,"station_id":"","pricing_plan_id":"free"},{"bike_id":"ada8a492-ae9b-4acc-bb12-6e61c655b970","system_id":"levelo_inurba_marseille","lat":43.296277,"lon":5.377108,"is_reserved":false,"is_disabled":false,"rental_uris":{"android":"levelo://app?vid=ada8a492-ae9b-4acc-bb12-6e61c655b970","ios":"levelo://app?vid=ada8a492-ae9b-4acc-bb12-6e61c655b970"},"vehicle_type_id":"4","last_reported":1703002113,"current_range_meters":23600,"station_id":"ce4bgi92rcd13ifvqb90","pricing_plan_id":"free"},{"bike_id":"a5ee0bac-2ed7-42ea-9ec5-f6e5bfd0bd63","system_id":"levelo_inurba_marseille","lat":43.296277,"lon":5.377108,"is_reserved":false,"is_disabled":false,"rental_uris":{"android":"levelo://app?vid=a5ee0bac-2ed7-42ea-9ec5-f6e5bfd0bd63","ios":"levelo://app?vid=a5ee0bac-2ed7-42ea-9ec5-f6e5bfd0bd63"},"vehicle_type_id":"4","last_reported":1703002113,"current_range_meters":10800,"station_id":"ce4bgi92rcd13ifvqb90","pricing_plan_id":"free"},{"bike_id":"6f9f7bbb-0622-4034-88b9-17b58bae6a79","system_id":"levelo_inurba_marseille","lat":43.296263,"lon":5.377094,"is_reserved":false,"is_disabled":false,"rental_uris":{"android":"levelo://app?vid=6f9f7bbb-0622-4034-88b9-17b58bae6a79","ios":"levelo://app?vid=6f9f7bbb-0622-4034-88b9-17b58bae6a79"},"vehicle_type_id":"4","last_reported":1703002113,"current_range_meters":11600,"station_id":"ce4bgi92rcd13ifvqb90","pricing_plan_id":"free"},{"bike_id":"fd49dae2-12e4-4df1-a98d-cfe0aec4056e","system_id":"levelo_inurba_marseille","lat":43.296263,"lon":5.377094,"is_reserved":false,"is_disabled":false,"rental_uris":{"android":"levelo://app?vid=fd49dae2-12e4-4df1-a98d-cfe0aec4056e","ios":"levelo://app?vid=fd49dae2-12e4-4df1-a98d-cfe0aec4056e"},"vehicle_type_id":"4","last_reported":1703002113,"current_range_meters":26800,"station_id":"ce4bgi92rcd13ifvqb90","pricing_plan_id":"free"},{"bike_id":"f7b5215d-ea30-40f0-b36e-e80a655e5f7b","system_id":"levelo_inurba_marseille","lat":43.299707,"lon":5.384859,"is_reserved":false,"is_disabled":false,"rental_uris":{"android":"levelo://app?vid=f7b5215d-ea30-40f0-b36e-e80a655e5f7b","ios":"levelo://app?vid=f7b5215d-ea30-40f0-b36e-e80a655e5f7b"},"vehicle_type_id":"4","last_reported":1703002113,"current_range_meters":22000,"station_id":"ce4bgj92rcd13ifvqbd0","pricing_plan_id":"free"},{"bike_id":"1f7a29e1-9185-45cb-b10b-6c631b401331","system_id":"levelo_inurba_marseille","lat":43.299717,"lon":5.384845,"is_reserved":false,"is_disabled":false,"rental_uris":{"android":"levelo://app?vid=1f7a29e1-9185-45cb-b10b-6c631b401331","ios":"levelo://app?vid=1f7a29e1-9185-45cb-b10b-6c631b401331"},"vehicle_type_id":"4","last_reported":1703002113,"current_range_meters":11600,"station_id":"ce4bgj92rcd13ifvqbd0","pricing_plan_id":"free"},{"bike_id":"8ea06a0b-2c4f-4d7e-aecc-0c905ab0f778","system_id":"levelo_inurba_marseille","lat":43.299707,"lon":5.384859,"is_reserved":false,"is_disabled":false,"rental_uris":{"android":"levelo://app?vid=8ea06a0b-2c4f-4d7e-aecc-0c905ab0f778","ios":"levelo://app?vid=8ea06a0b-2c4f-4d7e-aecc-0c905ab0f778"},"vehicle_type_id":"4","last_reported":1703002113,"current_range_meters":16800,"station_id":"ce4bgj92rcd13ifvqbd0","pricing_plan_id":"free"},{"bike_id":"7c4915ea-86c8-40cb-9c78-762c1ce09719","system_id":"levelo_inurba_marseille","lat":43.299717,"lon":5.384845,"is_reserved":false,"is_disabled":false,"rental_uris":{"android":"levelo://app?vid=7c4915ea-86c8-40cb-9c78-762c1ce09719","ios":"levelo://app?vid=7c4915ea-86c8-40cb-9c78-762c1ce09719"},"vehicle_type_id":"4","last_reported":1703002113,"current_range_meters":0,"station_id":"ce4bgj92rcd13ifvqbd0","pricing_plan_id":"free"},{"bike_id":"f6c944ac-76c5-4af7-bad2-2080808a45f4","system_id":"levelo_inurba_marseille","lat":43.32367,"lon":5.388836,"is_reserved":false,"is_disabled":false,"rental_uris":{"android":"levelo://app?vid=f6c944ac-76c5-4af7-bad2-2080808a45f4","ios":"levelo://app?vid=f6c944ac-76c5-4af7-bad2-2080808a45f4"},"vehicle_type_id":"4","last_reported":1703002113,"current_range_meters":3200,"station_id":"ce4bhqp2rcd13ifvqhog","pricing_plan_id":"free"},{"bike_id":"70fda661-87d6-419e-9b40-f9c4076436b5","system_id":"levelo_inurba_marseille","lat":43.32367,"lon":5.388836,"is_reserved":false,"is_disabled":false,"rental_uris":{"android":"levelo://app?vid=70fda661-87d6-419e-9b40-f9c4076436b5","ios":"levelo://app?vid=70fda661-87d6-419e-9b40-f9c4076436b5"},"vehicle_type_id":"4","last_reported":1703002113,"current_range_meters":0,"station_id":"ce4bhqp2rcd13ifvqhog","pricing_plan_id":"free"},{"bike_id":"7c41f5ec-a3b4-477f-9b08-6bb21212d518","system_id":"levelo_inurba_marseille","lat":43.292749,"lon":5.368402,"is_reserved":false,"is_disabled":false,"rental_uris":{"android":"levelo://app?vid=7c41f5ec-a3b4-477f-9b08-6bb21212d518","ios":"levelo://app?vid=7c41f5ec-a3b4-477f-9b08-6bb21212d518"},"vehicle_type_id":"4","last_reported":1703002113,"current_range_meters":18000,"station_id":"ce4bhbp2rcd13ifvqesg","pricing_plan_id":"free"},{"bike_id":"1361e9c1-77b2-402e-8948-3d3ab70c7586","system_id":"levelo_inurba_marseille","lat":43.303002,"lon":5.392142,"is_reserved":false,"is_disabled":false,"rental_uris":{"android":"levelo://app?vid=1361e9c1-77b2-402e-8948-3d3ab70c7586","ios":"levelo://app?vid=1361e9c1-77b2-402e-8948-3d3ab70c7586"},"vehicle_type_id":"4","last_reported":1703002113,"current_range_meters":1200,"station_id":"ce4bgkh2rcd13ifvqbk0","pricing_plan_id":"free"},{"bike_id":"c6c2e409-89ef-45ee-a14f-3a31d87f8c47","system_id":"levelo_inurba_marseille","lat":43.300961,"lon":5.390836,"is_reserved":false,"is_disabled":false,"rental_uris":{"android":"levelo://app?vid=c6c2e409-89ef-45ee-a14f-3a31d87f8c47","ios":"levelo://app?vid=c6c2e409-89ef-45ee-a14f-3a31d87f8c47"},"vehicle_type_id":"4","last_reported":1703002113,"current_range_meters":28400,"station_id":"","pricing_plan_id":"free"},{"bike_id":"7e8b3985-76c9-4896-a9ed-80d83c5668ed","system_id":"levelo_inurba_marseille","lat":43.292702,"lon":5.376258,"is_reserved":false,"is_disabled":false,"rental_uris":{"android":"levelo://app?vid=7e8b3985-76c9-4896-a9ed-80d83c5668ed","ios":"levelo://app?vid=7e8b3985-76c9-4896-a9ed-80d83c5668ed"},"vehicle_type_id":"4","last_reported":1703002113,"current_range_meters":22800,"station_id":"","pricing_plan_id":"free"},{"bike_id":"67dbc710-e248-4701-92da-b94e6f063a32","system_id":"levelo_inurba_marseille","lat":43.32289,"lon":5.39245,"is_reserved":false,"is_disabled":false,"rental_uris":{"android":"levelo://app?vid=67dbc710-e248-4701-92da-b94e6f063a32","ios":"levelo://app?vid=67dbc710-e248-4701-92da-b94e6f063a32"},"vehicle_type_id":"4","last_reported":1703002113,"current_range_meters":10400,"station_id":"","pricing_plan_id":"free"},{"bike_id":"330d9fd6-43e4-4f18-95ac-153f103dac5e","system_id":"levelo_inurba_marseille","lat":43.29865,"lon":5.38916,"is_reserved":false,"is_disabled":false,"rental_uris":{"android":"levelo://app?vid=330d9fd6-43e4-4f18-95ac-153f103dac5e","ios":"levelo://app?vid=330d9fd6-43e4-4f18-95ac-153f103dac5e"},"vehicle_type_id":"4","last_reported":1703002113,"current_range_meters":4000,"station_id":"","pricing_plan_id":"free"},{"bike_id":"47b34ba6-0910-4f25-8e5a-48ca477dc76b","system_id":"levelo_inurba_marseille","lat":43.313291,"lon":5.396838,"is_reserved":false,"is_disabled":false,"rental_uris":{"android":"levelo://app?vid=47b34ba6-0910-4f25-8e5a-48ca477dc76b","ios":"levelo://app?vid=47b34ba6-0910-4f25-8e5a-48ca477dc76b"},"vehicle_type_id":"4","last_reported":1703002113,"current_range_meters":21600,"station_id":"ce4bgvp2rcd13ifvqcu0","pricing_plan_id":"free"},{"bike_id":"123f6846-4316-4d20-a0b1-d9640ea3a43d","system_id":"levelo_inurba_marseille","lat":43.313291,"lon":5.396838,"is_reserved":false,"is_disabled":false,"rental_uris":{"android":"levelo://app?vid=123f6846-4316-4d20-a0b1-d9640ea3a43d","ios":"levelo://app?vid=123f6846-4316-4d20-a0b1-d9640ea3a43d"},"vehicle_type_id":"4","last_reported":1703002113,"current_range_meters":25200,"station_id":"ce4bgvp2rcd13ifvqcu0","pricing_plan_id":"free"},{"bike_id":"f925f995-8e4b-477f-858c-d24087d3e77a","system_id":"levelo_inurba_marseille","lat":43.309038,"lon":5.396546,"is_reserved":false,"is_disabled":false,"rental_uris":{"android":"levelo://app?vid=f925f995-8e4b-477f-858c-d24087d3e77a","ios":"levelo://app?vid=f925f995-8e4b-477f-858c-d24087d3e77a"},"vehicle_type_id":"4","last_reported":1703002113,"current_range_meters":7200,"station_id":"ce4bh012rcd13ifvqcv0","pricing_plan_id":"free"},{"bike_id":"82e94292-8b75-4f6c-93e2-0c45f497d1d3","system_id":"levelo_inurba_marseille","lat":43.309047,"lon":5.396551,"is_reserved":false,"is_disabled":false,"rental_uris":{"android":"levelo://app?vid=82e94292-8b75-4f6c-93e2-0c45f497d1d3","ios":"levelo://app?vid=82e94292-8b75-4f6c-93e2-0c45f497d1d3"},"vehicle_type_id":"4","last_reported":1703002113,"current_range_meters":11200,"station_id":"ce4bh012rcd13ifvqcv0","pricing_plan_id":"free"},{"bike_id":"dcbbacc9-4927-4ed2-96b5-8ed7f906d88b","system_id":"levelo_inurba_marseille","lat":43.309038,"lon":5.396546,"is_reserved":false,"is_disabled":false,"rental_uris":{"android":"levelo://app?vid=dcbbacc9-4927-4ed2-96b5-8ed7f906d88b","ios":"levelo://app?vid=dcbbacc9-4927-4ed2-96b5-8ed7f906d88b"},"vehicle_type_id":"4","last_reported":1703002113,"current_range_meters":8800,"station_id":"ce4bh012rcd13ifvqcv0","pricing_plan_id":"free"},{"bike_id":"73175121-27dd-4558-a2d4-aa3d6d88ec50","system_id":"levelo_inurba_marseille","lat":43.29529,"lon":5.385581,"is_reserved":false,"is_disabled":false,"rental_uris":{"android":"levelo://app?vid=73175121-27dd-4558-a2d4-aa3d6d88ec50","ios":"levelo://app?vid=73175121-27dd-4558-a2d4-aa3d6d88ec50"},"vehicle_type_id":"4","last_reported":1703002113,"current_range_meters":29600,"station_id":"ce4bgih2rcd13ifvqba0","pricing_plan_id":"free"},{"bike_id":"ce615f8a-ec4b-4473-8828-242175f00462","system_id":"levelo_inurba_marseille","lat":43.291376,"lon":5.377706,"is_reserved":false,"is_disabled":false,"rental_uris":{"android":"levelo://app?vid=ce615f8a-ec4b-4473-8828-242175f00462","ios":"levelo://app?vid=ce615f8a-ec4b-4473-8828-242175f00462"},"vehicle_type_id":"4","last_reported":1703002113,"current_range_meters":23200,"station_id":"","pricing_plan_id":"free"},{"bike_id":"e68f8454-9a1d-4b94-aa53-e2a67df054ea","system_id":"levelo_inurba_marseille","lat":43.2903,"lon":5.37564,"is_reserved":false,"is_disabled":false,"rental_uris":{"android":"levelo://app?vid=e68f8454-9a1d-4b94-aa53-e2a67df054ea","ios":"levelo://app?vid=e68f8454-9a1d-4b94-aa53-e2a67df054ea"},"vehicle_type_id":"4","last_reported":1703002113,"current_range_meters":15200,"station_id":"ce4bh692rcd13ifvqe90","pricing_plan_id":"free"},{"bike_id":"8675e57f-d99b-449d-ada8-89414c628e30","system_id":"levelo_inurba_marseille","lat":43.292642,"lon":5.384254,"is_reserved":false,"is_disabled":false,"rental_uris":{"android":"levelo://app?vid=8675e57f-d99b-449d-ada8-89414c628e30","ios":"levelo://app?vid=8675e57f-d99b-449d-ada8-89414c628e30"},"vehicle_type_id":"4","last_reported":1703002113,"current_range_meters":6800,"station_id":"ce4bh692rcd13ifvqea0","pricing_plan_id":"free"},{"bike_id":"c7e356b6-8a66-4845-90bd-eca358e1816e","system_id":"levelo_inurba_marseille","lat":43.304274,"lon":5.397513,"is_reserved":false,"is_disabled":false,"rental_uris":{"android":"levelo://app?vid=c7e356b6-8a66-4845-90bd-eca358e1816e","ios":"levelo://app?vid=c7e356b6-8a66-4845-90bd-eca358e1816e"},"vehicle_type_id":"4","last_reported":1703002113,"current_range_meters":23600,"station_id":"ce4bh092rcd13ifvqd20","pricing_plan_id":"free"},{"bike_id":"3f1e78ea-a0c4-4da2-9617-e85d04f6d642","system_id":"levelo_inurba_marseille","lat":43.30429,"lon":5.39748,"is_reserved":false,"is_disabled":false,"rental_uris":{"android":"levelo://app?vid=3f1e78ea-a0c4-4da2-9617-e85d04f6d642","ios":"levelo://app?vid=3f1e78ea-a0c4-4da2-9617-e85d04f6d642"},"vehicle_type_id":"4","last_reported":1703002113,"current_range_meters":14000,"station_id":"ce4bh092rcd13ifvqd20","pricing_plan_id":"free"},{"bike_id":"392c3b66-454e-4f4c-bb8f-8e9a56a411de","system_id":"levelo_inurba_marseille","lat":43.292642,"lon":5.384254,"is_reserved":false,"is_disabled":false,"rental_uris":{"android":"levelo://app?vid=392c3b66-454e-4f4c-bb8f-8e9a56a411de","ios":"levelo://app?vid=392c3b66-454e-4f4c-bb8f-8e9a56a411de"},"vehicle_type_id":"4","last_reported":1703002113,"current_range_meters":22000,"station_id":"ce4bh692rcd13ifvqea0","pricing_plan_id":"free"},{"bike_id":"2fb71484-fd85-4cf1-841b-c6fa44a405e2","system_id":"levelo_inurba_marseille","lat":43.330442,"lon":5.389148,"is_reserved":false,"is_disabled":false,"rental_uris":{"android":"levelo://app?vid=2fb71484-fd85-4cf1-841b-c6fa44a405e2","ios":"levelo://app?vid=2fb71484-fd85-4cf1-841b-c6fa44a405e2"},"vehicle_type_id":"4","last_reported":1703002113,"current_range_meters":2400,"station_id":"ce4bhr92rcd13ifvqhrg","pricing_plan_id":"free"},{"bike_id":"f5371324-d9ad-414a-875e-71119fff89cf","system_id":"levelo_inurba_marseille","lat":43.330442,"lon":5.389148,"is_reserved":false,"is_disabled":false,"rental_uris":{"android":"levelo://app?vid=f5371324-d9ad-414a-875e-71119fff89cf","ios":"levelo://app?vid=f5371324-d9ad-414a-875e-71119fff89cf"},"vehicle_type_id":"4","last_reported":1703002113,"current_range_meters":3200,"station_id":"ce4bhr92rcd13ifvqhrg","pricing_plan_id":"free"},{"bike_id":"f9de8fb0-d0f9-4855-8451-afff0b454db2","system_id":"levelo_inurba_marseille","lat":43.330442,"lon":5.389148,"is_reserved":false,"is_disabled":false,"rental_uris":{"android":"levelo://app?vid=f9de8fb0-d0f9-4855-8451-afff0b454db2","ios":"levelo://app?vid=f9de8fb0-d0f9-4855-8451-afff0b454db2"},"vehicle_type_id":"4","last_reported":1703002113,"current_range_meters":5600,"station_id":"ce4bhr92rcd13ifvqhrg","pricing_plan_id":"free"},{"bike_id":"e88e7559-6e4c-4e60-a754-7e28728fa106","system_id":"levelo_inurba_marseille","lat":43.290103,"lon":5.356114,"is_reserved":false,"is_disabled":false,"rental_uris":{"android":"levelo://app?vid=e88e7559-6e4c-4e60-a754-7e28728fa106","ios":"levelo://app?vid=e88e7559-6e4c-4e60-a754-7e28728fa106"},"vehicle_type_id":"4","last_reported":1703002113,"current_range_meters":15200,"station_id":"ce4bhb92rcd13ifvqen0","pricing_plan_id":"free"},{"bike_id":"0f86e27b-a96a-4829-8e9b-5a507c07a26c","system_id":"levelo_inurba_marseille","lat":43.290995,"lon":5.381361,"is_reserved":false,"is_disabled":false,"rental_uris":{"android":"levelo://app?vid=0f86e27b-a96a-4829-8e9b-5a507c07a26c","ios":"levelo://app?vid=0f86e27b-a96a-4829-8e9b-5a507c07a26c"},"vehicle_type_id":"4","last_reported":1703002113,"current_range_meters":26800,"station_id":"ce4bh512rcd13ifvqe2g","pricing_plan_id":"free"},{"bike_id":"45e34f60-303e-4800-ba58-f28ea7180026","system_id":"levelo_inurba_marseille","lat":43.297814,"lon":5.393513,"is_reserved":false,"is_disabled":false,"rental_uris":{"android":"levelo://app?vid=45e34f60-303e-4800-ba58-f28ea7180026","ios":"levelo://app?vid=45e34f60-303e-4800-ba58-f28ea7180026"},"vehicle_type_id":"4","last_reported":1703002113,"current_range_meters":13200,"station_id":"chh1huq6cuj3fo74tm60","pricing_plan_id":"free"},{"bike_id":"0ed13e98-2480-42ce-8f13-97223e0222aa","system_id":"levelo_inurba_marseille","lat":43.29531,"lon":5.39032,"is_reserved":false,"is_disabled":false,"rental_uris":{"android":"levelo://app?vid=0ed13e98-2480-42ce-8f13-97223e0222aa","ios":"levelo://app?vid=0ed13e98-2480-42ce-8f13-97223e0222aa"},"vehicle_type_id":"4","last_reported":1703002113,"current_range_meters":0,"station_id":"ce4bh3p2rcd13ifvqdp0","pricing_plan_id":"free"},{"bike_id":"ea101e0b-0b6c-4667-a02b-ab5668341eaf","system_id":"levelo_inurba_marseille","lat":43.297815,"lon":5.393548,"is_reserved":false,"is_disabled":false,"rental_uris":{"android":"levelo://app?vid=ea101e0b-0b6c-4667-a02b-ab5668341eaf","ios":"levelo://app?vid=ea101e0b-0b6c-4667-a02b-ab5668341eaf"},"vehicle_type_id":"4","last_reported":1703002113,"current_range_meters":1600,"station_id":"chh1huq6cuj3fo74tm60","pricing_plan_id":"free"},{"bike_id":"fa7a06fd-f29f-4958-af33-00c272ed41be","system_id":"levelo_inurba_marseille","lat":43.295169,"lon":5.390426,"is_reserved":false,"is_disabled":false,"rental_uris":{"android":"levelo://app?vid=fa7a06fd-f29f-4958-af33-00c272ed41be","ios":"levelo://app?vid=fa7a06fd-f29f-4958-af33-00c272ed41be"},"vehicle_type_id":"4","last_reported":1703002113,"current_range_meters":24400,"station_id":"ce4bh3p2rcd13ifvqdp0","pricing_plan_id":"free"},{"bike_id":"550a1fe3-b7c4-4a57-aabd-dd907350cdc2","system_id":"levelo_inurba_marseille","lat":43.290624,"lon":5.359245,"is_reserved":false,"is_disabled":false,"rental_uris":{"android":"levelo://app?vid=550a1fe3-b7c4-4a57-aabd-dd907350cdc2","ios":"levelo://app?vid=550a1fe3-b7c4-4a57-aabd-dd907350cdc2"},"vehicle_type_id":"4","last_reported":1703002113,"current_range_meters":29600,"station_id":"ce4bha92rcd13ifvqeg0","pricing_plan_id":"free"},{"bike_id":"69e781f2-d1f0-46d5-9252-e9fd5d4a632d","system_id":"levelo_inurba_marseille","lat":43.312609,"lon":5.401662,"is_reserved":false,"is_disabled":false,"rental_uris":{"android":"levelo://app?vid=69e781f2-d1f0-46d5-9252-e9fd5d4a632d","ios":"levelo://app?vid=69e781f2-d1f0-46d5-9252-e9fd5d4a632d"},"vehicle_type_id":"4","last_reported":1703002113,"current_range_meters":24800,"station_id":"ce4bh092rcd13ifvqd30","pricing_plan_id":"free"},{"bike_id":"e791843b-8588-4eeb-b51b-4572595ab71d","system_id":"levelo_inurba_marseille","lat":43.309371,"lon":5.401449,"is_reserved":false,"is_disabled":false,"rental_uris":{"android":"levelo://app?vid=e791843b-8588-4eeb-b51b-4572595ab71d","ios":"levelo://app?vid=e791843b-8588-4eeb-b51b-4572595ab71d"},"vehicle_type_id":"4","last_reported":1703002113,"current_range_meters":26000,"station_id":"ce4bgvp2rcd13ifvqct0","pricing_plan_id":"free"},{"bike_id":"e828a695-26ca-4a05-b321-9e28e26d4bf0","system_id":"levelo_inurba_marseille","lat":43.312609,"lon":5.401662,"is_reserved":false,"is_disabled":false,"rental_uris":{"android":"levelo://app?vid=e828a695-26ca-4a05-b321-9e28e26d4bf0","ios":"levelo://app?vid=e828a695-26ca-4a05-b321-9e28e26d4bf0"},"vehicle_type_id":"4","last_reported":1703002113,"current_range_meters":24000,"station_id":"ce4bh092rcd13ifvqd30","pricing_plan_id":"free"},{"bike_id":"14b71ffc-e72c-4b3b-9cc2-c3794d6ca383","system_id":"levelo_inurba_marseille","lat":43.295713,"lon":5.399639,"is_reserved":false,"is_disabled":false,"rental_uris":{"android":"levelo://app?vid=14b71ffc-e72c-4b3b-9cc2-c3794d6ca383","ios":"levelo://app?vid=14b71ffc-e72c-4b3b-9cc2-c3794d6ca383"},"vehicle_type_id":"4","last_reported":1703002113,"current_range_meters":24800,"station_id":"ce4bh312rcd13ifvqdj0","pricing_plan_id":"free"},{"bike_id":"8102491b-434b-406b-8447-78840bb0a20c","system_id":"levelo_inurba_marseille","lat":43.312609,"lon":5.401662,"is_reserved":false,"is_disabled":false,"rental_uris":{"android":"levelo://app?vid=8102491b-434b-406b-8447-78840bb0a20c","ios":"levelo://app?vid=8102491b-434b-406b-8447-78840bb0a20c"},"vehicle_type_id":"4","last_reported":1703002113,"current_range_meters":15600,"station_id":"ce4bh092rcd13ifvqd30","pricing_plan_id":"free"},{"bike_id":"1b661c53-839b-4f41-8d7f-0614e8dd80e1","system_id":"levelo_inurba_marseille","lat":43.33756,"lon":5.37473,"is_reserved":false,"is_disabled":false,"rental_uris":{"android":"levelo://app?vid=1b661c53-839b-4f41-8d7f-0614e8dd80e1","ios":"levelo://app?vid=1b661c53-839b-4f41-8d7f-0614e8dd80e1"},"vehicle_type_id":"4","last_reported":1703002113,"current_range_meters":28000,"station_id":"","pricing_plan_id":"free"},{"bike_id":"8e9dea96-ca18-4dad-84fc-08cc8a644f8d","system_id":"levelo_inurba_marseille","lat":43.301117,"lon":5.398795,"is_reserved":false,"is_disabled":false,"rental_uris":{"android":"levelo://app?vid=8e9dea96-ca18-4dad-84fc-08cc8a644f8d","ios":"levelo://app?vid=8e9dea96-ca18-4dad-84fc-08cc8a644f8d"},"vehicle_type_id":"4","last_reported":1703002113,"current_range_meters":21200,"station_id":"ce4bh0h2rcd13ifvqd40","pricing_plan_id":"free"},{"bike_id":"c3c3cbbb-aa08-4874-94d9-d40777882ceb","system_id":"levelo_inurba_marseille","lat":43.337675,"lon":5.374391,"is_reserved":false,"is_disabled":false,"rental_uris":{"android":"levelo://app?vid=c3c3cbbb-aa08-4874-94d9-d40777882ceb","ios":"levelo://app?vid=c3c3cbbb-aa08-4874-94d9-d40777882ceb"},"vehicle_type_id":"4","last_reported":1703002113,"current_range_meters":8400,"station_id":"","pricing_plan_id":"free"},{"bike_id":"187a5928-1dea-4a55-a57b-8dc0877abe4d","system_id":"levelo_inurba_marseille","lat":43.30133,"lon":5.39866,"is_reserved":false,"is_disabled":false,"rental_uris":{"android":"levelo://app?vid=187a5928-1dea-4a55-a57b-8dc0877abe4d","ios":"levelo://app?vid=187a5928-1dea-4a55-a57b-8dc0877abe4d"},"vehicle_type_id":"4","last_reported":1703002113,"current_range_meters":0,"station_id":"ce4bh0h2rcd13ifvqd40","pricing_plan_id":"free"},{"bike_id":"458e0024-9a7f-42ce-b4a3-43271724918d","system_id":"levelo_inurba_marseille","lat":43.298681,"lon":5.397225,"is_reserved":false,"is_disabled":false,"rental_uris":{"android":"levelo://app?vid=458e0024-9a7f-42ce-b4a3-43271724918d","ios":"levelo://app?vid=458e0024-9a7f-42ce-b4a3-43271724918d"},"vehicle_type_id":"4","last_reported":1703002113,"current_range_meters":19600,"station_id":"ce4bh0h2rcd13ifvqd50","pricing_plan_id":"free"},{"bike_id":"93d30713-557d-45af-8c33-57028ae5b14b","system_id":"levelo_inurba_marseille","lat":43.298681,"lon":5.397225,"is_reserved":false,"is_disabled":false,"rental_uris":{"android":"levelo://app?vid=93d30713-557d-45af-8c33-57028ae5b14b","ios":"levelo://app?vid=93d30713-557d-45af-8c33-57028ae5b14b"},"vehicle_type_id":"4","last_reported":1703002113,"current_range_meters":30000,"station_id":"ce4bh0h2rcd13ifvqd50","pricing_plan_id":"free"},{"bike_id":"e26f62a6-5d94-4798-81ca-e0057a1be715","system_id":"levelo_inurba_marseille","lat":43.28702,"lon":5.373926,"is_reserved":false,"is_disabled":false,"rental_uris":{"android":"levelo://app?vid=e26f62a6-5d94-4798-81ca-e0057a1be715","ios":"levelo://app?vid=e26f62a6-5d94-4798-81ca-e0057a1be715"},"vehicle_type_id":"4","last_reported":1703002113,"current_range_meters":26800,"station_id":"","pricing_plan_id":"free"},{"bike_id":"2ca43e63-9b75-44a4-9dad-386058213e98","system_id":"levelo_inurba_marseille","lat":43.286591,"lon":5.363346,"is_reserved":false,"is_disabled":false,"rental_uris":{"android":"levelo://app?vid=2ca43e63-9b75-44a4-9dad-386058213e98","ios":"levelo://app?vid=2ca43e63-9b75-44a4-9dad-386058213e98"},"vehicle_type_id":"4","last_reported":1703002113,"current_range_meters":16400,"station_id":"ce4bhah2rcd13ifvqej0","pricing_plan_id":"free"},{"bike_id":"b508b9c8-f608-4cb9-b4ae-e6ac28bd0212","system_id":"levelo_inurba_marseille","lat":43.298681,"lon":5.397225,"is_reserved":false,"is_disabled":false,"rental_uris":{"android":"levelo://app?vid=b508b9c8-f608-4cb9-b4ae-e6ac28bd0212","ios":"levelo://app?vid=b508b9c8-f608-4cb9-b4ae-e6ac28bd0212"},"vehicle_type_id":"4","last_reported":1703002113,"current_range_meters":5200,"station_id":"ce4bh0h2rcd13ifvqd50","pricing_plan_id":"free"},{"bike_id":"03050f1b-bec1-4395-a81c-dbe3669f08a5","system_id":"levelo_inurba_marseille","lat":43.290247,"lon":5.38639,"is_reserved":false,"is_disabled":false,"rental_uris":{"android":"levelo://app?vid=03050f1b-bec1-4395-a81c-dbe3669f08a5","ios":"levelo://app?vid=03050f1b-bec1-4395-a81c-dbe3669f08a5"},"vehicle_type_id":"4","last_reported":1703002113,"current_range_meters":30000,"station_id":"","pricing_plan_id":"free"},{"bike_id":"c9f071c9-d5f1-4951-a2a5-9f161f9bbeec","system_id":"levelo_inurba_marseille","lat":43.286039,"lon":5.370681,"is_reserved":false,"is_disabled":false,"rental_uris":{"android":"levelo://app?vid=c9f071c9-d5f1-4951-a2a5-9f161f9bbeec","ios":"levelo://app?vid=c9f071c9-d5f1-4951-a2a5-9f161f9bbeec"},"vehicle_type_id":"4","last_reported":1703002113,"current_range_meters":14400,"station_id":"ce4bht12rcd13ifvqi60","pricing_plan_id":"free"},{"bike_id":"63de2d2a-7450-4c08-aed5-1966740cfb62","system_id":"levelo_inurba_marseille","lat":43.286039,"lon":5.370681,"is_reserved":false,"is_disabled":false,"rental_uris":{"android":"levelo://app?vid=63de2d2a-7450-4c08-aed5-1966740cfb62","ios":"levelo://app?vid=63de2d2a-7450-4c08-aed5-1966740cfb62"},"vehicle_type_id":"4","last_reported":1703002113,"current_range_meters":7200,"station_id":"ce4bht12rcd13ifvqi60","pricing_plan_id":"free"},{"bike_id":"a843da3f-fa5e-4f2c-82e2-814cb5290722","system_id":"levelo_inurba_marseille","lat":43.286039,"lon":5.370681,"is_reserved":false,"is_disabled":false,"rental_uris":{"android":"levelo://app?vid=a843da3f-fa5e-4f2c-82e2-814cb5290722","ios":"levelo://app?vid=a843da3f-fa5e-4f2c-82e2-814cb5290722"},"vehicle_type_id":"4","last_reported":1703002113,"current_range_meters":15600,"station_id":"ce4bht12rcd13ifvqi60","pricing_plan_id":"free"},{"bike_id":"fac2debd-ec8b-44ae-9dd9-0d2d51553318","system_id":"levelo_inurba_marseille","lat":43.286039,"lon":5.370681,"is_reserved":false,"is_disabled":false,"rental_uris":{"android":"levelo://app?vid=fac2debd-ec8b-44ae-9dd9-0d2d51553318","ios":"levelo://app?vid=fac2debd-ec8b-44ae-9dd9-0d2d51553318"},"vehicle_type_id":"4","last_reported":1703002113,"current_range_meters":7200,"station_id":"ce4bht12rcd13ifvqi60","pricing_plan_id":"free"},{"bike_id":"edc97ede-d518-443b-9359-0f155f013c36","system_id":"levelo_inurba_marseille","lat":43.294314,"lon":5.397498,"is_reserved":false,"is_disabled":false,"rental_uris":{"android":"levelo://app?vid=edc97ede-d518-443b-9359-0f155f013c36","ios":"levelo://app?vid=edc97ede-d518-443b-9359-0f155f013c36"},"vehicle_type_id":"4","last_reported":1703002113,"current_range_meters":6800,"station_id":"ce4bh3h2rcd13ifvqdo0","pricing_plan_id":"free"},{"bike_id":"e80e736b-994e-49b9-bc5a-1f1a3a25ab10","system_id":"levelo_inurba_marseille","lat":43.294314,"lon":5.397498,"is_reserved":false,"is_disabled":false,"rental_uris":{"android":"levelo://app?vid=e80e736b-994e-49b9-bc5a-1f1a3a25ab10","ios":"levelo://app?vid=e80e736b-994e-49b9-bc5a-1f1a3a25ab10"},"vehicle_type_id":"4","last_reported":1703002113,"current_range_meters":18400,"station_id":"ce4bh3h2rcd13ifvqdo0","pricing_plan_id":"free"},{"bike_id":"8538e6dd-dbef-4a5a-a119-9a857fd021ad","system_id":"levelo_inurba_marseille","lat":43.33218,"lon":5.397067,"is_reserved":false,"is_disabled":false,"rental_uris":{"android":"levelo://app?vid=8538e6dd-dbef-4a5a-a119-9a857fd021ad","ios":"levelo://app?vid=8538e6dd-dbef-4a5a-a119-9a857fd021ad"},"vehicle_type_id":"4","last_reported":1703002113,"current_range_meters":800,"station_id":"","pricing_plan_id":"free"},{"bike_id":"6c08e750-d28b-4df6-b13b-282bf9ce24b4","system_id":"levelo_inurba_marseille","lat":43.295713,"lon":5.399639,"is_reserved":false,"is_disabled":false,"rental_uris":{"android":"levelo://app?vid=6c08e750-d28b-4df6-b13b-282bf9ce24b4","ios":"levelo://app?vid=6c08e750-d28b-4df6-b13b-282bf9ce24b4"},"vehicle_type_id":"4","last_reported":1703002113,"current_range_meters":21600,"station_id":"ce4bh312rcd13ifvqdj0","pricing_plan_id":"free"},{"bike_id":"37e1620b-15f5-4f96-8945-b3bc60271de4","system_id":"levelo_inurba_marseille","lat":43.295713,"lon":5.399639,"is_reserved":false,"is_disabled":false,"rental_uris":{"android":"levelo://app?vid=37e1620b-15f5-4f96-8945-b3bc60271de4","ios":"levelo://app?vid=37e1620b-15f5-4f96-8945-b3bc60271de4"},"vehicle_type_id":"4","last_reported":1703002113,"current_range_meters":22000,"station_id":"ce4bh312rcd13ifvqdj0","pricing_plan_id":"free"},{"bike_id":"ea03fc0f-bfcc-4c7f-9b81-e206e4f776de","system_id":"levelo_inurba_marseille","lat":43.295713,"lon":5.399639,"is_reserved":false,"is_disabled":false,"rental_uris":{"android":"levelo://app?vid=ea03fc0f-bfcc-4c7f-9b81-e206e4f776de","ios":"levelo://app?vid=ea03fc0f-bfcc-4c7f-9b81-e206e4f776de"},"vehicle_type_id":"4","last_reported":1703002113,"current_range_meters":10000,"station_id":"ce4bh312rcd13ifvqdj0","pricing_plan_id":"free"},{"bike_id":"24d3e989-6bbc-4f15-b96c-c29e9a9ed29a","system_id":"levelo_inurba_marseille","lat":43.283882,"lon":5.38102,"is_reserved":false,"is_disabled":false,"rental_uris":{"android":"levelo://app?vid=24d3e989-6bbc-4f15-b96c-c29e9a9ed29a","ios":"levelo://app?vid=24d3e989-6bbc-4f15-b96c-c29e9a9ed29a"},"vehicle_type_id":"4","last_reported":1703002113,"current_range_meters":17600,"station_id":"","pricing_plan_id":"free"},{"bike_id":"5453960e-798b-4500-afa8-58022c9a5333","system_id":"levelo_inurba_marseille","lat":43.297946,"lon":5.404063,"is_reserved":false,"is_disabled":false,"rental_uris":{"android":"levelo://app?vid=5453960e-798b-4500-afa8-58022c9a5333","ios":"levelo://app?vid=5453960e-798b-4500-afa8-58022c9a5333"},"vehicle_type_id":"4","last_reported":1703002113,"current_range_meters":26400,"station_id":"ce4bh112rcd13ifvqd90","pricing_plan_id":"free"},{"bike_id":"d7a47847-bc8d-4503-8fca-0db88f8f0b2e","system_id":"levelo_inurba_marseille","lat":43.283494,"lon":5.380945,"is_reserved":false,"is_disabled":false,"rental_uris":{"android":"levelo://app?vid=d7a47847-bc8d-4503-8fca-0db88f8f0b2e","ios":"levelo://app?vid=d7a47847-bc8d-4503-8fca-0db88f8f0b2e"},"vehicle_type_id":"4","last_reported":1703002113,"current_range_meters":0,"station_id":"ce4bh412rcd13ifvqdr0","pricing_plan_id":"free"},{"bike_id":"f5332b34-8259-4323-952e-7bd465eb247c","system_id":"levelo_inurba_marseille","lat":43.29795,"lon":5.404086,"is_reserved":false,"is_disabled":false,"rental_uris":{"android":"levelo://app?vid=f5332b34-8259-4323-952e-7bd465eb247c","ios":"levelo://app?vid=f5332b34-8259-4323-952e-7bd465eb247c"},"vehicle_type_id":"4","last_reported":1703002113,"current_range_meters":0,"station_id":"ce4bh112rcd13ifvqd90","pricing_plan_id":"free"},{"bike_id":"5178db48-063c-4966-a066-3cbdfc30577b","system_id":"levelo_inurba_marseille","lat":43.288501,"lon":5.393087,"is_reserved":false,"is_disabled":false,"rental_uris":{"android":"levelo://app?vid=5178db48-063c-4966-a066-3cbdfc30577b","ios":"levelo://app?vid=5178db48-063c-4966-a066-3cbdfc30577b"},"vehicle_type_id":"4","last_reported":1703002113,"current_range_meters":12400,"station_id":"ce4bh2p2rcd13ifvqdi0","pricing_plan_id":"free"},{"bike_id":"646c44f2-96eb-4901-9ea6-797a742ba819","system_id":"levelo_inurba_marseille","lat":43.283498,"lon":5.380948,"is_reserved":false,"is_disabled":false,"rental_uris":{"android":"levelo://app?vid=646c44f2-96eb-4901-9ea6-797a742ba819","ios":"levelo://app?vid=646c44f2-96eb-4901-9ea6-797a742ba819"},"vehicle_type_id":"4","last_reported":1703002113,"current_range_meters":27200,"station_id":"ce4bh412rcd13ifvqdr0","pricing_plan_id":"free"},{"bike_id":"35e5c977-c3ec-4302-85e4-7f44ba15ca6f","system_id":"levelo_inurba_marseille","lat":43.306412,"lon":5.401035,"is_reserved":false,"is_disabled":false,"rental_uris":{"android":"levelo://app?vid=35e5c977-c3ec-4302-85e4-7f44ba15ca6f","ios":"levelo://app?vid=35e5c977-c3ec-4302-85e4-7f44ba15ca6f"},"vehicle_type_id":"4","last_reported":1703002113,"current_range_meters":22800,"station_id":"ce4bh112rcd13ifvqda0","pricing_plan_id":"free"},{"bike_id":"6070f4b5-d1af-4054-bcd1-4d7aebd55190","system_id":"levelo_inurba_marseille","lat":43.292724,"lon":5.401131,"is_reserved":false,"is_disabled":false,"rental_uris":{"android":"levelo://app?vid=6070f4b5-d1af-4054-bcd1-4d7aebd55190","ios":"levelo://app?vid=6070f4b5-d1af-4054-bcd1-4d7aebd55190"},"vehicle_type_id":"4","last_reported":1703002113,"current_range_meters":15200,"station_id":"ce4bh312rcd13ifvqdk0","pricing_plan_id":"free"},{"bike_id":"7fc18599-21c9-4fcf-ba4e-dfddc7823c86","system_id":"levelo_inurba_marseille","lat":43.282754,"lon":5.350519,"is_reserved":false,"is_disabled":false,"rental_uris":{"android":"levelo://app?vid=7fc18599-21c9-4fcf-ba4e-dfddc7823c86","ios":"levelo://app?vid=7fc18599-21c9-4fcf-ba4e-dfddc7823c86"},"vehicle_type_id":"4","last_reported":1703002113,"current_range_meters":27600,"station_id":"ce4bhbp2rcd13ifvqerg","pricing_plan_id":"free"},{"bike_id":"58a07dc8-75a0-4157-8e2c-3c75b258a399","system_id":"levelo_inurba_marseille","lat":43.283502,"lon":5.386471,"is_reserved":false,"is_disabled":false,"rental_uris":{"android":"levelo://app?vid=58a07dc8-75a0-4157-8e2c-3c75b258a399","ios":"levelo://app?vid=58a07dc8-75a0-4157-8e2c-3c75b258a399"},"vehicle_type_id":"4","last_reported":1703002113,"current_range_meters":31200,"station_id":"ce4bh492rcd13ifvqdvg","pricing_plan_id":"free"},{"bike_id":"7aecbcde-a0be-4ee7-9fb3-c08e2ed7a241","system_id":"levelo_inurba_marseille","lat":43.280382,"lon":5.369291,"is_reserved":false,"is_disabled":false,"rental_uris":{"android":"levelo://app?vid=7aecbcde-a0be-4ee7-9fb3-c08e2ed7a241","ios":"levelo://app?vid=7aecbcde-a0be-4ee7-9fb3-c08e2ed7a241"},"vehicle_type_id":"4","last_reported":1703002113,"current_range_meters":27600,"station_id":"ce4bha12rcd13ifvqef0","pricing_plan_id":"free"},{"bike_id":"8ec468d5-61a6-4b79-a83d-17fe0281c3d7","system_id":"levelo_inurba_marseille","lat":43.296263,"lon":5.40601,"is_reserved":false,"is_disabled":false,"rental_uris":{"android":"levelo://app?vid=8ec468d5-61a6-4b79-a83d-17fe0281c3d7","ios":"levelo://app?vid=8ec468d5-61a6-4b79-a83d-17fe0281c3d7"},"vehicle_type_id":"4","last_reported":1703002113,"current_range_meters":25200,"station_id":"ce4bh0h2rcd13ifvqd60","pricing_plan_id":"free"},{"bike_id":"87069636-b222-4cb9-90de-a29b1c9cf405","system_id":"levelo_inurba_marseille","lat":43.296263,"lon":5.40601,"is_reserved":false,"is_disabled":false,"rental_uris":{"android":"levelo://app?vid=87069636-b222-4cb9-90de-a29b1c9cf405","ios":"levelo://app?vid=87069636-b222-4cb9-90de-a29b1c9cf405"},"vehicle_type_id":"4","last_reported":1703002113,"current_range_meters":9600,"station_id":"ce4bh0h2rcd13ifvqd60","pricing_plan_id":"free"},{"bike_id":"be7ed5c3-8519-46a5-bab2-60e422239ae0","system_id":"levelo_inurba_marseille","lat":43.281044,"lon":5.378308,"is_reserved":false,"is_disabled":false,"rental_uris":{"android":"levelo://app?vid=be7ed5c3-8519-46a5-bab2-60e422239ae0","ios":"levelo://app?vid=be7ed5c3-8519-46a5-bab2-60e422239ae0"},"vehicle_type_id":"4","last_reported":1703002113,"current_range_meters":22800,"station_id":"ce4bha12rcd13ifvqee0","pricing_plan_id":"free"},{"bike_id":"21bab086-6c94-4c83-8ac8-e65ea9aa5f61","system_id":"levelo_inurba_marseille","lat":43.296263,"lon":5.40601,"is_reserved":false,"is_disabled":false,"rental_uris":{"android":"levelo://app?vid=21bab086-6c94-4c83-8ac8-e65ea9aa5f61","ios":"levelo://app?vid=21bab086-6c94-4c83-8ac8-e65ea9aa5f61"},"vehicle_type_id":"4","last_reported":1703002113,"current_range_meters":6000,"station_id":"ce4bh0h2rcd13ifvqd60","pricing_plan_id":"free"},{"bike_id":"274bd324-dd58-4c87-a0be-932df48b9467","system_id":"levelo_inurba_marseille","lat":43.296263,"lon":5.40601,"is_reserved":false,"is_disabled":false,"rental_uris":{"android":"levelo://app?vid=274bd324-dd58-4c87-a0be-932df48b9467","ios":"levelo://app?vid=274bd324-dd58-4c87-a0be-932df48b9467"},"vehicle_type_id":"4","last_reported":1703002113,"current_range_meters":17600,"station_id":"ce4bh0h2rcd13ifvqd60","pricing_plan_id":"free"},{"bike_id":"cfc9b73d-f013-462b-a110-2b369aa80ede","system_id":"levelo_inurba_marseille","lat":43.281044,"lon":5.378308,"is_reserved":false,"is_disabled":false,"rental_uris":{"android":"levelo://app?vid=cfc9b73d-f013-462b-a110-2b369aa80ede","ios":"levelo://app?vid=cfc9b73d-f013-462b-a110-2b369aa80ede"},"vehicle_type_id":"4","last_reported":1703002113,"current_range_meters":14800,"station_id":"ce4bha12rcd13ifvqee0","pricing_plan_id":"free"},{"bike_id":"fadd8973-e132-4204-aeed-f9a44f2ca7cc","system_id":"levelo_inurba_marseille","lat":43.304188,"lon":5.412904,"is_reserved":false,"is_disabled":false,"rental_uris":{"android":"levelo://app?vid=fadd8973-e132-4204-aeed-f9a44f2ca7cc","ios":"levelo://app?vid=fadd8973-e132-4204-aeed-f9a44f2ca7cc"},"vehicle_type_id":"4","last_reported":1703002113,"current_range_meters":25200,"station_id":"ce4bhop2rcd13ifvqh8g","pricing_plan_id":"free"},{"bike_id":"5a19dc98-4b6a-4cac-8617-bec854bef98e","system_id":"levelo_inurba_marseille","lat":43.304188,"lon":5.412904,"is_reserved":false,"is_disabled":false,"rental_uris":{"android":"levelo://app?vid=5a19dc98-4b6a-4cac-8617-bec854bef98e","ios":"levelo://app?vid=5a19dc98-4b6a-4cac-8617-bec854bef98e"},"vehicle_type_id":"4","last_reported":1703002113,"current_range_meters":31200,"station_id":"ce4bhop2rcd13ifvqh8g","pricing_plan_id":"free"},{"bike_id":"746f53b1-38a5-4472-b00a-71a684776d07","system_id":"levelo_inurba_marseille","lat":43.304188,"lon":5.412904,"is_reserved":false,"is_disabled":false,"rental_uris":{"android":"levelo://app?vid=746f53b1-38a5-4472-b00a-71a684776d07","ios":"levelo://app?vid=746f53b1-38a5-4472-b00a-71a684776d07"},"vehicle_type_id":"4","last_reported":1703002113,"current_range_meters":16400,"station_id":"ce4bhop2rcd13ifvqh8g","pricing_plan_id":"free"},{"bike_id":"a759ec18-11ba-4226-9eb8-ea7c783731d0","system_id":"levelo_inurba_marseille","lat":43.287154,"lon":5.399979,"is_reserved":false,"is_disabled":false,"rental_uris":{"android":"levelo://app?vid=a759ec18-11ba-4226-9eb8-ea7c783731d0","ios":"levelo://app?vid=a759ec18-11ba-4226-9eb8-ea7c783731d0"},"vehicle_type_id":"4","last_reported":1703002113,"current_range_meters":0,"station_id":"ce4bho92rcd13ifvqh3g","pricing_plan_id":"free"},{"bike_id":"4045c651-a76f-4f34-936a-ba13b6567b65","system_id":"levelo_inurba_marseille","lat":43.298768,"lon":5.43643,"is_reserved":false,"is_disabled":false,"rental_uris":{"android":"levelo://app?vid=4045c651-a76f-4f34-936a-ba13b6567b65","ios":"levelo://app?vid=4045c651-a76f-4f34-936a-ba13b6567b65"},"vehicle_type_id":"4","last_reported":1703002113,"current_range_meters":9200,"station_id":"ce4bhpp2rcd13ifvqhfg","pricing_plan_id":"free"},{"bike_id":"cb0668d4-d46c-4efe-a7e0-185ebe495ab4","system_id":"levelo_inurba_marseille","lat":43.280467,"lon":5.389102,"is_reserved":false,"is_disabled":false,"rental_uris":{"android":"levelo://app?vid=cb0668d4-d46c-4efe-a7e0-185ebe495ab4","ios":"levelo://app?vid=cb0668d4-d46c-4efe-a7e0-185ebe495ab4"},"vehicle_type_id":"4","last_reported":1703002113,"current_range_meters":11600,"station_id":"","pricing_plan_id":"free"},{"bike_id":"d9a874bd-8750-4ef6-94b0-0e3146c050bc","system_id":"levelo_inurba_marseille","lat":43.292571,"lon":5.409107,"is_reserved":false,"is_disabled":false,"rental_uris":{"android":"levelo://app?vid=d9a874bd-8750-4ef6-94b0-0e3146c050bc","ios":"levelo://app?vid=d9a874bd-8750-4ef6-94b0-0e3146c050bc"},"vehicle_type_id":"4","last_reported":1703002113,"current_range_meters":28800,"station_id":"ce4bh192rcd13ifvqdc0","pricing_plan_id":"free"},{"bike_id":"f5185d0c-e303-433f-aa68-caa9e4db66c6","system_id":"levelo_inurba_marseille","lat":43.292571,"lon":5.409107,"is_reserved":false,"is_disabled":false,"rental_uris":{"android":"levelo://app?vid=f5185d0c-e303-433f-aa68-caa9e4db66c6","ios":"levelo://app?vid=f5185d0c-e303-433f-aa68-caa9e4db66c6"},"vehicle_type_id":"4","last_reported":1703002113,"current_range_meters":17200,"station_id":"ce4bh192rcd13ifvqdc0","pricing_plan_id":"free"},{"bike_id":"0b458c03-8f85-4706-88fd-1bf6c9d3633d","system_id":"levelo_inurba_marseille","lat":43.27618,"lon":5.361009,"is_reserved":false,"is_disabled":false,"rental_uris":{"android":"levelo://app?vid=0b458c03-8f85-4706-88fd-1bf6c9d3633d","ios":"levelo://app?vid=0b458c03-8f85-4706-88fd-1bf6c9d3633d"},"vehicle_type_id":"4","last_reported":1703002113,"current_range_meters":23600,"station_id":"ce4bgj92rcd13ifvqbe0","pricing_plan_id":"free"},{"bike_id":"7715fc6b-2369-4502-9d17-1745a03f87d3","system_id":"levelo_inurba_marseille","lat":43.27618,"lon":5.361009,"is_reserved":false,"is_disabled":false,"rental_uris":{"android":"levelo://app?vid=7715fc6b-2369-4502-9d17-1745a03f87d3","ios":"levelo://app?vid=7715fc6b-2369-4502-9d17-1745a03f87d3"},"vehicle_type_id":"4","last_reported":1703002113,"current_range_meters":23600,"station_id":"ce4bgj92rcd13ifvqbe0","pricing_plan_id":"free"},{"bike_id":"fbd8f1f5-b27b-420f-b06b-7480c09d4009","system_id":"levelo_inurba_marseille","lat":43.27618,"lon":5.361009,"is_reserved":false,"is_disabled":false,"rental_uris":{"android":"levelo://app?vid=fbd8f1f5-b27b-420f-b06b-7480c09d4009","ios":"levelo://app?vid=fbd8f1f5-b27b-420f-b06b-7480c09d4009"},"vehicle_type_id":"4","last_reported":1703002113,"current_range_meters":16000,"station_id":"ce4bgj92rcd13ifvqbe0","pricing_plan_id":"free"},{"bike_id":"abcd89b4-7147-4d3b-9dc0-a88555d38998","system_id":"levelo_inurba_marseille","lat":43.276179,"lon":5.361009,"is_reserved":false,"is_disabled":false,"rental_uris":{"android":"levelo://app?vid=abcd89b4-7147-4d3b-9dc0-a88555d38998","ios":"levelo://app?vid=abcd89b4-7147-4d3b-9dc0-a88555d38998"},"vehicle_type_id":"4","last_reported":1703002113,"current_range_meters":27600,"station_id":"ce4bgj92rcd13ifvqbe0","pricing_plan_id":"free"},{"bike_id":"35cfe3d6-3136-42c6-b92d-6a013b524182","system_id":"levelo_inurba_marseille","lat":43.280784,"lon":5.396622,"is_reserved":false,"is_disabled":false,"rental_uris":{"android":"levelo://app?vid=35cfe3d6-3136-42c6-b92d-6a013b524182","ios":"levelo://app?vid=35cfe3d6-3136-42c6-b92d-6a013b524182"},"vehicle_type_id":"4","last_reported":1703002113,"current_range_meters":30000,"station_id":"ce4bho12rcd13ifvqh2g","pricing_plan_id":"free"},{"bike_id":"a63a9a8c-d8f2-4ab6-af75-824df4a268f7","system_id":"levelo_inurba_marseille","lat":43.303837,"lon":5.418724,"is_reserved":false,"is_disabled":false,"rental_uris":{"android":"levelo://app?vid=a63a9a8c-d8f2-4ab6-af75-824df4a268f7","ios":"levelo://app?vid=a63a9a8c-d8f2-4ab6-af75-824df4a268f7"},"vehicle_type_id":"4","last_reported":1703002113,"current_range_meters":5200,"station_id":"ce4bhop2rcd13ifvqh7g","pricing_plan_id":"free"},{"bike_id":"af3237b9-73d0-4fe3-9e27-bb58d3771da2","system_id":"levelo_inurba_marseille","lat":43.278399,"lon":5.392139,"is_reserved":false,"is_disabled":false,"rental_uris":{"android":"levelo://app?vid=af3237b9-73d0-4fe3-9e27-bb58d3771da2","ios":"levelo://app?vid=af3237b9-73d0-4fe3-9e27-bb58d3771da2"},"vehicle_type_id":"4","last_reported":1703002113,"current_range_meters":8800,"station_id":"ce4bhjp2rcd13ifvqga0","pricing_plan_id":"free"},{"bike_id":"9d7100e1-eab9-40ba-9afc-3a26104171a0","system_id":"levelo_inurba_marseille","lat":43.275625,"lon":5.384392,"is_reserved":false,"is_disabled":false,"rental_uris":{"android":"levelo://app?vid=9d7100e1-eab9-40ba-9afc-3a26104171a0","ios":"levelo://app?vid=9d7100e1-eab9-40ba-9afc-3a26104171a0"},"vehicle_type_id":"4","last_reported":1703002113,"current_range_meters":14400,"station_id":"ce4bhh92rcd13ifvqfi0","pricing_plan_id":"free"},{"bike_id":"b1019c3d-f2c7-4d72-bed3-e230c97ca767","system_id":"levelo_inurba_marseille","lat":43.273613,"lon":5.362705,"is_reserved":false,"is_disabled":false,"rental_uris":{"android":"levelo://app?vid=b1019c3d-f2c7-4d72-bed3-e230c97ca767","ios":"levelo://app?vid=b1019c3d-f2c7-4d72-bed3-e230c97ca767"},"vehicle_type_id":"4","last_reported":1703002113,"current_range_meters":23200,"station_id":"ce4bhbh2rcd13ifvqeo0","pricing_plan_id":"free"},{"bike_id":"f0ace959-3d66-4b48-b9e7-7264ccb1baee","system_id":"levelo_inurba_marseille","lat":43.273609,"lon":5.362708,"is_reserved":false,"is_disabled":false,"rental_uris":{"android":"levelo://app?vid=f0ace959-3d66-4b48-b9e7-7264ccb1baee","ios":"levelo://app?vid=f0ace959-3d66-4b48-b9e7-7264ccb1baee"},"vehicle_type_id":"4","last_reported":1703002113,"current_range_meters":23600,"station_id":"ce4bhbh2rcd13ifvqeo0","pricing_plan_id":"free"},{"bike_id":"86608ab6-186f-4bc9-85e9-e71e29c33ba7","system_id":"levelo_inurba_marseille","lat":43.273609,"lon":5.362708,"is_reserved":false,"is_disabled":false,"rental_uris":{"android":"levelo://app?vid=86608ab6-186f-4bc9-85e9-e71e29c33ba7","ios":"levelo://app?vid=86608ab6-186f-4bc9-85e9-e71e29c33ba7"},"vehicle_type_id":"4","last_reported":1703002113,"current_range_meters":24400,"station_id":"ce4bhbh2rcd13ifvqeo0","pricing_plan_id":"free"},{"bike_id":"6241efcf-dd86-45c2-8b8d-d8b3e617977c","system_id":"levelo_inurba_marseille","lat":43.273613,"lon":5.362705,"is_reserved":false,"is_disabled":false,"rental_uris":{"android":"levelo://app?vid=6241efcf-dd86-45c2-8b8d-d8b3e617977c","ios":"levelo://app?vid=6241efcf-dd86-45c2-8b8d-d8b3e617977c"},"vehicle_type_id":"4","last_reported":1703002113,"current_range_meters":30400,"station_id":"ce4bhbh2rcd13ifvqeo0","pricing_plan_id":"free"},{"bike_id":"8e9a41b8-4e6e-46b7-b983-f3e97a79b636","system_id":"levelo_inurba_marseille","lat":43.273609,"lon":5.362708,"is_reserved":false,"is_disabled":false,"rental_uris":{"android":"levelo://app?vid=8e9a41b8-4e6e-46b7-b983-f3e97a79b636","ios":"levelo://app?vid=8e9a41b8-4e6e-46b7-b983-f3e97a79b636"},"vehicle_type_id":"4","last_reported":1703002113,"current_range_meters":31200,"station_id":"ce4bhbh2rcd13ifvqeo0","pricing_plan_id":"free"},{"bike_id":"1ea0657b-6909-49a0-a79c-f4137dd20e6e","system_id":"levelo_inurba_marseille","lat":43.276769,"lon":5.388787,"is_reserved":false,"is_disabled":false,"rental_uris":{"android":"levelo://app?vid=1ea0657b-6909-49a0-a79c-f4137dd20e6e","ios":"levelo://app?vid=1ea0657b-6909-49a0-a79c-f4137dd20e6e"},"vehicle_type_id":"4","last_reported":1703002113,"current_range_meters":16800,"station_id":"ce4bhi12rcd13ifvqfo0","pricing_plan_id":"free"},{"bike_id":"be5e51c5-a185-4f50-83c9-54fc1dd1bedb","system_id":"levelo_inurba_marseille","lat":43.276769,"lon":5.388787,"is_reserved":false,"is_disabled":false,"rental_uris":{"android":"levelo://app?vid=be5e51c5-a185-4f50-83c9-54fc1dd1bedb","ios":"levelo://app?vid=be5e51c5-a185-4f50-83c9-54fc1dd1bedb"},"vehicle_type_id":"4","last_reported":1703002113,"current_range_meters":18400,"station_id":"ce4bhi12rcd13ifvqfo0","pricing_plan_id":"free"},{"bike_id":"5b20525d-cf3e-4f3c-80c5-7a7e29cd1627","system_id":"levelo_inurba_marseille","lat":43.336148,"lon":5.410349,"is_reserved":false,"is_disabled":false,"rental_uris":{"android":"levelo://app?vid=5b20525d-cf3e-4f3c-80c5-7a7e29cd1627","ios":"levelo://app?vid=5b20525d-cf3e-4f3c-80c5-7a7e29cd1627"},"vehicle_type_id":"4","last_reported":1703002113,"current_range_meters":12800,"station_id":"ce4bhqh2rcd13ifvqhmg","pricing_plan_id":"free"},{"bike_id":"0c1d2b31-e0a4-4859-8383-7fab65849463","system_id":"levelo_inurba_marseille","lat":43.276771,"lon":5.388799,"is_reserved":false,"is_disabled":false,"rental_uris":{"android":"levelo://app?vid=0c1d2b31-e0a4-4859-8383-7fab65849463","ios":"levelo://app?vid=0c1d2b31-e0a4-4859-8383-7fab65849463"},"vehicle_type_id":"4","last_reported":1703002113,"current_range_meters":18000,"station_id":"ce4bhi12rcd13ifvqfo0","pricing_plan_id":"free"},{"bike_id":"94caef83-52d6-479b-b617-82a8de5de65c","system_id":"levelo_inurba_marseille","lat":43.279975,"lon":5.40009,"is_reserved":false,"is_disabled":false,"rental_uris":{"android":"levelo://app?vid=94caef83-52d6-479b-b617-82a8de5de65c","ios":"levelo://app?vid=94caef83-52d6-479b-b617-82a8de5de65c"},"vehicle_type_id":"4","last_reported":1703002113,"current_range_meters":26000,"station_id":"ce4bho92rcd13ifvqh4g","pricing_plan_id":"free"},{"bike_id":"6aeb72c6-7795-421e-8c99-8e89a08bfac6","system_id":"levelo_inurba_marseille","lat":43.317121,"lon":5.423936,"is_reserved":false,"is_disabled":false,"rental_uris":{"android":"levelo://app?vid=6aeb72c6-7795-421e-8c99-8e89a08bfac6","ios":"levelo://app?vid=6aeb72c6-7795-421e-8c99-8e89a08bfac6"},"vehicle_type_id":"4","last_reported":1703002113,"current_range_meters":30400,"station_id":"ce4bhp92rcd13ifvqhbg","pricing_plan_id":"free"},{"bike_id":"974dc7db-ff3c-4554-8964-132f9db52d9b","system_id":"levelo_inurba_marseille","lat":43.276092,"lon":5.395289,"is_reserved":false,"is_disabled":false,"rental_uris":{"android":"levelo://app?vid=974dc7db-ff3c-4554-8964-132f9db52d9b","ios":"levelo://app?vid=974dc7db-ff3c-4554-8964-132f9db52d9b"},"vehicle_type_id":"4","last_reported":1703002113,"current_range_meters":6800,"station_id":"","pricing_plan_id":"free"},{"bike_id":"b7db8b4c-abe2-412f-afc4-f18f52eef905","system_id":"levelo_inurba_marseille","lat":43.274099,"lon":5.394019,"is_reserved":false,"is_disabled":false,"rental_uris":{"android":"levelo://app?vid=b7db8b4c-abe2-412f-afc4-f18f52eef905","ios":"levelo://app?vid=b7db8b4c-abe2-412f-afc4-f18f52eef905"},"vehicle_type_id":"4","last_reported":1703002113,"current_range_meters":4000,"station_id":"ce4bhdp2rcd13ifvqf20","pricing_plan_id":"free"},{"bike_id":"4281b71e-3e90-4c9c-80cf-45d58661e496","system_id":"levelo_inurba_marseille","lat":43.295511,"lon":5.422926,"is_reserved":false,"is_disabled":false,"rental_uris":{"android":"levelo://app?vid=4281b71e-3e90-4c9c-80cf-45d58661e496","ios":"levelo://app?vid=4281b71e-3e90-4c9c-80cf-45d58661e496"},"vehicle_type_id":"4","last_reported":1703002113,"current_range_meters":17200,"station_id":"ce4bhph2rcd13ifvqhdg","pricing_plan_id":"free"},{"bike_id":"1aaeade2-16f7-4c2d-b598-dfecd6c04985","system_id":"levelo_inurba_marseille","lat":43.29551,"lon":5.42287,"is_reserved":false,"is_disabled":false,"rental_uris":{"android":"levelo://app?vid=1aaeade2-16f7-4c2d-b598-dfecd6c04985","ios":"levelo://app?vid=1aaeade2-16f7-4c2d-b598-dfecd6c04985"},"vehicle_type_id":"4","last_reported":1703002113,"current_range_meters":18400,"station_id":"ce4bhph2rcd13ifvqhdg","pricing_plan_id":"free"},{"bike_id":"ca314493-3848-477b-95b3-e1722a7aef04","system_id":"levelo_inurba_marseille","lat":43.295165,"lon":5.422679,"is_reserved":false,"is_disabled":false,"rental_uris":{"android":"levelo://app?vid=ca314493-3848-477b-95b3-e1722a7aef04","ios":"levelo://app?vid=ca314493-3848-477b-95b3-e1722a7aef04"},"vehicle_type_id":"4","last_reported":1703002113,"current_range_meters":15200,"station_id":"ce4bhph2rcd13ifvqhdg","pricing_plan_id":"free"},{"bike_id":"0e8b4699-138e-4c17-b0c2-7e73491bd2a7","system_id":"levelo_inurba_marseille","lat":43.272116,"lon":5.391763,"is_reserved":false,"is_disabled":false,"rental_uris":{"android":"levelo://app?vid=0e8b4699-138e-4c17-b0c2-7e73491bd2a7","ios":"levelo://app?vid=0e8b4699-138e-4c17-b0c2-7e73491bd2a7"},"vehicle_type_id":"4","last_reported":1703002113,"current_range_meters":12000,"station_id":"ce4bhhp2rcd13ifvqfm0","pricing_plan_id":"free"},{"bike_id":"6bd4cd83-0831-4333-9537-f3fe769eef27","system_id":"levelo_inurba_marseille","lat":43.279465,"lon":5.410561,"is_reserved":false,"is_disabled":false,"rental_uris":{"android":"levelo://app?vid=6bd4cd83-0831-4333-9537-f3fe769eef27","ios":"levelo://app?vid=6bd4cd83-0831-4333-9537-f3fe769eef27"},"vehicle_type_id":"4","last_reported":1703002113,"current_range_meters":12800,"station_id":"ce4bhnp2rcd13ifvqh0g","pricing_plan_id":"free"},{"bike_id":"69140aec-dfc8-4c8a-9c13-10ca82595aaf","system_id":"levelo_inurba_marseille","lat":43.269319,"lon":5.389397,"is_reserved":false,"is_disabled":false,"rental_uris":{"android":"levelo://app?vid=69140aec-dfc8-4c8a-9c13-10ca82595aaf","ios":"levelo://app?vid=69140aec-dfc8-4c8a-9c13-10ca82595aaf"},"vehicle_type_id":"4","last_reported":1703002113,"current_range_meters":26400,"station_id":"ce4bhhh2rcd13ifvqfl0","pricing_plan_id":"free"},{"bike_id":"4774dae8-a828-40c6-84a1-807298e2d18e","system_id":"levelo_inurba_marseille","lat":43.265615,"lon":5.3729,"is_reserved":false,"is_disabled":false,"rental_uris":{"android":"levelo://app?vid=4774dae8-a828-40c6-84a1-807298e2d18e","ios":"levelo://app?vid=4774dae8-a828-40c6-84a1-807298e2d18e"},"vehicle_type_id":"4","last_reported":1703002113,"current_range_meters":7600,"station_id":"ce4bhg12rcd13ifvqf70","pricing_plan_id":"free"},{"bike_id":"cc8e63d9-ffe3-4618-8120-8ecbe3fb6f53","system_id":"levelo_inurba_marseille","lat":43.265714,"lon":5.372891,"is_reserved":false,"is_disabled":false,"rental_uris":{"android":"levelo://app?vid=cc8e63d9-ffe3-4618-8120-8ecbe3fb6f53","ios":"levelo://app?vid=cc8e63d9-ffe3-4618-8120-8ecbe3fb6f53"},"vehicle_type_id":"4","last_reported":1703002113,"current_range_meters":22400,"station_id":"ce4bhg12rcd13ifvqf70","pricing_plan_id":"free"},{"bike_id":"001547d6-a6b3-49f2-a794-8e54024133f5","system_id":"levelo_inurba_marseille","lat":43.26681,"lon":5.382694,"is_reserved":false,"is_disabled":false,"rental_uris":{"android":"levelo://app?vid=001547d6-a6b3-49f2-a794-8e54024133f5","ios":"levelo://app?vid=001547d6-a6b3-49f2-a794-8e54024133f5"},"vehicle_type_id":"4","last_reported":1703002113,"current_range_meters":24400,"station_id":"ce4bhg92rcd13ifvqf90","pricing_plan_id":"free"},{"bike_id":"342ed4d3-b3fc-46ec-beb3-7eeed5bdec10","system_id":"levelo_inurba_marseille","lat":43.272124,"lon":5.391768,"is_reserved":false,"is_disabled":false,"rental_uris":{"android":"levelo://app?vid=342ed4d3-b3fc-46ec-beb3-7eeed5bdec10","ios":"levelo://app?vid=342ed4d3-b3fc-46ec-beb3-7eeed5bdec10"},"vehicle_type_id":"4","last_reported":1703002113,"current_range_meters":29600,"station_id":"ce4bhhp2rcd13ifvqfm0","pricing_plan_id":"free"},{"bike_id":"831a400e-979e-486f-9cf7-7ed039485034","system_id":"levelo_inurba_marseille","lat":43.27997,"lon":5.41663,"is_reserved":false,"is_disabled":false,"rental_uris":{"android":"levelo://app?vid=831a400e-979e-486f-9cf7-7ed039485034","ios":"levelo://app?vid=831a400e-979e-486f-9cf7-7ed039485034"},"vehicle_type_id":"4","last_reported":1703002113,"current_range_meters":15200,"station_id":"ce4bho12rcd13ifvqh1g","pricing_plan_id":"free"},{"bike_id":"0e6ca65e-7f8e-4cc8-9d21-ff6a59a1b732","system_id":"levelo_inurba_marseille","lat":43.308051,"lon":5.43527,"is_reserved":false,"is_disabled":false,"rental_uris":{"android":"levelo://app?vid=0e6ca65e-7f8e-4cc8-9d21-ff6a59a1b732","ios":"levelo://app?vid=0e6ca65e-7f8e-4cc8-9d21-ff6a59a1b732"},"vehicle_type_id":"4","last_reported":1703002113,"current_range_meters":30000,"station_id":"ce4bhph2rcd13ifvqheg","pricing_plan_id":"free"},{"bike_id":"8a80415f-c97a-4218-a2ef-b79455f4bc69","system_id":"levelo_inurba_marseille","lat":43.308051,"lon":5.43527,"is_reserved":false,"is_disabled":false,"rental_uris":{"android":"levelo://app?vid=8a80415f-c97a-4218-a2ef-b79455f4bc69","ios":"levelo://app?vid=8a80415f-c97a-4218-a2ef-b79455f4bc69"},"vehicle_type_id":"4","last_reported":1703002113,"current_range_meters":28800,"station_id":"ce4bhph2rcd13ifvqheg","pricing_plan_id":"free"},{"bike_id":"676bddf4-51e3-40fe-a75d-b81ed8f0e32d","system_id":"levelo_inurba_marseille","lat":43.26942,"lon":5.40254,"is_reserved":false,"is_disabled":false,"rental_uris":{"android":"levelo://app?vid=676bddf4-51e3-40fe-a75d-b81ed8f0e32d","ios":"levelo://app?vid=676bddf4-51e3-40fe-a75d-b81ed8f0e32d"},"vehicle_type_id":"4","last_reported":1703002113,"current_range_meters":0,"station_id":"cjm6bp8fraef2m0cb0m0","pricing_plan_id":"free"},{"bike_id":"ebb88aaf-8182-40e3-b0ea-34668a0d19cd","system_id":"levelo_inurba_marseille","lat":43.261782,"lon":5.374515,"is_reserved":false,"is_disabled":false,"rental_uris":{"android":"levelo://app?vid=ebb88aaf-8182-40e3-b0ea-34668a0d19cd","ios":"levelo://app?vid=ebb88aaf-8182-40e3-b0ea-34668a0d19cd"},"vehicle_type_id":"4","last_reported":1703002113,"current_range_meters":14000,"station_id":"ce4bhgp2rcd13ifvqfc0","pricing_plan_id":"free"},{"bike_id":"010dbe0f-15a3-4d8b-ad0b-30fd9fddffb8","system_id":"levelo_inurba_marseille","lat":43.261782,"lon":5.374515,"is_reserved":false,"is_disabled":false,"rental_uris":{"android":"levelo://app?vid=010dbe0f-15a3-4d8b-ad0b-30fd9fddffb8","ios":"levelo://app?vid=010dbe0f-15a3-4d8b-ad0b-30fd9fddffb8"},"vehicle_type_id":"4","last_reported":1703002113,"current_range_meters":16400,"station_id":"ce4bhgp2rcd13ifvqfc0","pricing_plan_id":"free"},{"bike_id":"42f702f8-a022-4eff-b415-e38929309b2a","system_id":"levelo_inurba_marseille","lat":43.317104,"lon":5.436818,"is_reserved":false,"is_disabled":false,"rental_uris":{"android":"levelo://app?vid=42f702f8-a022-4eff-b415-e38929309b2a","ios":"levelo://app?vid=42f702f8-a022-4eff-b415-e38929309b2a"},"vehicle_type_id":"4","last_reported":1703002113,"current_range_meters":12400,"station_id":"ce4bhp92rcd13ifvqhcg","pricing_plan_id":"free"},{"bike_id":"a6262b82-7ee3-4cfa-a558-92927ff8f7ae","system_id":"levelo_inurba_marseille","lat":43.317104,"lon":5.436818,"is_reserved":false,"is_disabled":false,"rental_uris":{"android":"levelo://app?vid=a6262b82-7ee3-4cfa-a558-92927ff8f7ae","ios":"levelo://app?vid=a6262b82-7ee3-4cfa-a558-92927ff8f7ae"},"vehicle_type_id":"4","last_reported":1703002113,"current_range_meters":16800,"station_id":"ce4bhp92rcd13ifvqhcg","pricing_plan_id":"free"},{"bike_id":"4732d4c6-9be5-492e-a781-27fae3bae1dc","system_id":"levelo_inurba_marseille","lat":43.26202,"lon":5.379299,"is_reserved":false,"is_disabled":false,"rental_uris":{"android":"levelo://app?vid=4732d4c6-9be5-492e-a781-27fae3bae1dc","ios":"levelo://app?vid=4732d4c6-9be5-492e-a781-27fae3bae1dc"},"vehicle_type_id":"4","last_reported":1703002113,"current_range_meters":30000,"station_id":"ce4bhjp2rcd13ifvqg90","pricing_plan_id":"free"},{"bike_id":"423fdb36-96ca-410e-86ba-1f528a1cf66f","system_id":"levelo_inurba_marseille","lat":43.271368,"lon":5.40928,"is_reserved":false,"is_disabled":false,"rental_uris":{"android":"levelo://app?vid=423fdb36-96ca-410e-86ba-1f528a1cf66f","ios":"levelo://app?vid=423fdb36-96ca-410e-86ba-1f528a1cf66f"},"vehicle_type_id":"4","last_reported":1703002113,"current_range_meters":24800,"station_id":"ce4bhl12rcd13ifvqgf0","pricing_plan_id":"free"},{"bike_id":"7025b7aa-66d1-48a6-86d9-45ec1cfd2ec2","system_id":"levelo_inurba_marseille","lat":43.271368,"lon":5.40928,"is_reserved":false,"is_disabled":false,"rental_uris":{"android":"levelo://app?vid=7025b7aa-66d1-48a6-86d9-45ec1cfd2ec2","ios":"levelo://app?vid=7025b7aa-66d1-48a6-86d9-45ec1cfd2ec2"},"vehicle_type_id":"4","last_reported":1703002113,"current_range_meters":24800,"station_id":"ce4bhl12rcd13ifvqgf0","pricing_plan_id":"free"},{"bike_id":"8f7008c7-e274-4fa7-a5ea-b7294cae5575","system_id":"levelo_inurba_marseille","lat":43.2651,"lon":5.39469,"is_reserved":false,"is_disabled":false,"rental_uris":{"android":"levelo://app?vid=8f7008c7-e274-4fa7-a5ea-b7294cae5575","ios":"levelo://app?vid=8f7008c7-e274-4fa7-a5ea-b7294cae5575"},"vehicle_type_id":"4","last_reported":1703002113,"current_range_meters":23600,"station_id":"ce4bhi12rcd13ifvqfq0","pricing_plan_id":"free"},{"bike_id":"0b2d531b-008c-4b9b-86be-64151de97dc3","system_id":"levelo_inurba_marseille","lat":43.2651,"lon":5.39469,"is_reserved":false,"is_disabled":false,"rental_uris":{"android":"levelo://app?vid=0b2d531b-008c-4b9b-86be-64151de97dc3","ios":"levelo://app?vid=0b2d531b-008c-4b9b-86be-64151de97dc3"},"vehicle_type_id":"4","last_reported":1703002113,"current_range_meters":31200,"station_id":"ce4bhi12rcd13ifvqfq0","pricing_plan_id":"free"},{"bike_id":"b93e24e6-6e46-4c67-b9f1-6931297b2ca5","system_id":"levelo_inurba_marseille","lat":43.281548,"lon":5.42643,"is_reserved":false,"is_disabled":false,"rental_uris":{"android":"levelo://app?vid=b93e24e6-6e46-4c67-b9f1-6931297b2ca5","ios":"levelo://app?vid=b93e24e6-6e46-4c67-b9f1-6931297b2ca5"},"vehicle_type_id":"4","last_reported":1703002113,"current_range_meters":13200,"station_id":"ce4bhnh2rcd13ifvqgug","pricing_plan_id":"free"},{"bike_id":"97fc91b2-db1c-4776-99db-6402a02a914e","system_id":"levelo_inurba_marseille","lat":43.258303,"lon":5.394392,"is_reserved":false,"is_disabled":false,"rental_uris":{"android":"levelo://app?vid=97fc91b2-db1c-4776-99db-6402a02a914e","ios":"levelo://app?vid=97fc91b2-db1c-4776-99db-6402a02a914e"},"vehicle_type_id":"4","last_reported":1703002113,"current_range_meters":0,"station_id":"ce4bhh92rcd13ifvqfj0","pricing_plan_id":"free"},{"bike_id":"bcbda9c3-a81e-4a2f-b56f-6f567aec50ee","system_id":"levelo_inurba_marseille","lat":43.2558,"lon":5.38229,"is_reserved":false,"is_disabled":false,"rental_uris":{"android":"levelo://app?vid=bcbda9c3-a81e-4a2f-b56f-6f567aec50ee","ios":"levelo://app?vid=bcbda9c3-a81e-4a2f-b56f-6f567aec50ee"},"vehicle_type_id":"4","last_reported":1703002113,"current_range_meters":26800,"station_id":"ce4bhih2rcd13ifvqfs0","pricing_plan_id":"free"},{"bike_id":"345fd984-4001-4c8e-be48-95aae0b7be8f","system_id":"levelo_inurba_marseille","lat":43.2558,"lon":5.38234,"is_reserved":false,"is_disabled":false,"rental_uris":{"android":"levelo://app?vid=345fd984-4001-4c8e-be48-95aae0b7be8f","ios":"levelo://app?vid=345fd984-4001-4c8e-be48-95aae0b7be8f"},"vehicle_type_id":"4","last_reported":1703002113,"current_range_meters":24800,"station_id":"ce4bhih2rcd13ifvqfs0","pricing_plan_id":"free"},{"bike_id":"70ce655b-2807-4ab3-b7b7-3a41f20e18c9","system_id":"levelo_inurba_marseille","lat":43.25579,"lon":5.38228,"is_reserved":false,"is_disabled":false,"rental_uris":{"android":"levelo://app?vid=70ce655b-2807-4ab3-b7b7-3a41f20e18c9","ios":"levelo://app?vid=70ce655b-2807-4ab3-b7b7-3a41f20e18c9"},"vehicle_type_id":"4","last_reported":1703002113,"current_range_meters":10000,"station_id":"ce4bhih2rcd13ifvqfs0","pricing_plan_id":"free"},{"bike_id":"6ce15dbd-8e19-409f-af0e-d49451c89a86","system_id":"levelo_inurba_marseille","lat":43.258224,"lon":5.394369,"is_reserved":false,"is_disabled":false,"rental_uris":{"android":"levelo://app?vid=6ce15dbd-8e19-409f-af0e-d49451c89a86","ios":"levelo://app?vid=6ce15dbd-8e19-409f-af0e-d49451c89a86"},"vehicle_type_id":"4","last_reported":1703002113,"current_range_meters":15600,"station_id":"ce4bhip2rcd13ifvqft0","pricing_plan_id":"free"},{"bike_id":"d36ee179-632a-4ac6-9dc6-181ee3ec5266","system_id":"levelo_inurba_marseille","lat":43.25498,"lon":5.3765,"is_reserved":false,"is_disabled":false,"rental_uris":{"android":"levelo://app?vid=d36ee179-632a-4ac6-9dc6-181ee3ec5266","ios":"levelo://app?vid=d36ee179-632a-4ac6-9dc6-181ee3ec5266"},"vehicle_type_id":"4","last_reported":1703002113,"current_range_meters":31200,"station_id":"ce4bhh12rcd13ifvqff0","pricing_plan_id":"free"},{"bike_id":"4076eee6-3d53-43fb-a0d2-c580f839d0da","system_id":"levelo_inurba_marseille","lat":43.254947,"lon":5.376454,"is_reserved":false,"is_disabled":false,"rental_uris":{"android":"levelo://app?vid=4076eee6-3d53-43fb-a0d2-c580f839d0da","ios":"levelo://app?vid=4076eee6-3d53-43fb-a0d2-c580f839d0da"},"vehicle_type_id":"4","last_reported":1703002113,"current_range_meters":25200,"station_id":"ce4bhh12rcd13ifvqff0","pricing_plan_id":"free"},{"bike_id":"1bdaae64-8f18-44a1-9302-8926b93aefe4","system_id":"levelo_inurba_marseille","lat":43.254947,"lon":5.376454,"is_reserved":false,"is_disabled":false,"rental_uris":{"android":"levelo://app?vid=1bdaae64-8f18-44a1-9302-8926b93aefe4","ios":"levelo://app?vid=1bdaae64-8f18-44a1-9302-8926b93aefe4"},"vehicle_type_id":"4","last_reported":1703002113,"current_range_meters":4000,"station_id":"ce4bhh12rcd13ifvqff0","pricing_plan_id":"free"},{"bike_id":"4a762271-1773-4590-a6ad-4000d66d6bb8","system_id":"levelo_inurba_marseille","lat":43.258658,"lon":5.398935,"is_reserved":false,"is_disabled":false,"rental_uris":{"android":"levelo://app?vid=4a762271-1773-4590-a6ad-4000d66d6bb8","ios":"levelo://app?vid=4a762271-1773-4590-a6ad-4000d66d6bb8"},"vehicle_type_id":"4","last_reported":1703002113,"current_range_meters":30000,"station_id":"ce4bhl92rcd13ifvqghg","pricing_plan_id":"free"},{"bike_id":"60b344d5-32ce-4073-afd5-1f49cc6ae09f","system_id":"levelo_inurba_marseille","lat":43.259013,"lon":5.409301,"is_reserved":false,"is_disabled":false,"rental_uris":{"android":"levelo://app?vid=60b344d5-32ce-4073-afd5-1f49cc6ae09f","ios":"levelo://app?vid=60b344d5-32ce-4073-afd5-1f49cc6ae09f"},"vehicle_type_id":"4","last_reported":1703002113,"current_range_meters":22800,"station_id":"ce4bhm92rcd13ifvqglg","pricing_plan_id":"free"},{"bike_id":"9bd45a3f-5586-42ef-8f75-4d415330b956","system_id":"levelo_inurba_marseille","lat":43.250966,"lon":5.395186,"is_reserved":false,"is_disabled":false,"rental_uris":{"android":"levelo://app?vid=9bd45a3f-5586-42ef-8f75-4d415330b956","ios":"levelo://app?vid=9bd45a3f-5586-42ef-8f75-4d415330b956"},"vehicle_type_id":"4","last_reported":1703002113,"current_range_meters":28000,"station_id":"ce4bhm12rcd13ifvqgkg","pricing_plan_id":"free"},{"bike_id":"b80082e0-7813-4363-b269-063be113db6c","system_id":"levelo_inurba_marseille","lat":43.26949,"lon":5.40262,"is_reserved":false,"is_disabled":false,"rental_uris":{"android":"levelo://app?vid=b80082e0-7813-4363-b269-063be113db6c","ios":"levelo://app?vid=b80082e0-7813-4363-b269-063be113db6c"},"vehicle_type_id":"4","last_reported":1703002113,"current_range_meters":12000,"station_id":"cjm6bp8fraef2m0cb0m0","pricing_plan_id":"free"},{"bike_id":"df0097ff-8019-424b-bb8e-3d519d31aeb1","system_id":"levelo_inurba_marseille","lat":43.250009,"lon":5.389195,"is_reserved":false,"is_disabled":false,"rental_uris":{"android":"levelo://app?vid=df0097ff-8019-424b-bb8e-3d519d31aeb1","ios":"levelo://app?vid=df0097ff-8019-424b-bb8e-3d519d31aeb1"},"vehicle_type_id":"4","last_reported":1703002113,"current_range_meters":31200,"station_id":"ce4bhgp2rcd13ifvqfd0","pricing_plan_id":"free"},{"bike_id":"027868e8-852a-4086-b9e0-509b491e4ad8","system_id":"levelo_inurba_marseille","lat":43.250023,"lon":5.38919,"is_reserved":false,"is_disabled":false,"rental_uris":{"android":"levelo://app?vid=027868e8-852a-4086-b9e0-509b491e4ad8","ios":"levelo://app?vid=027868e8-852a-4086-b9e0-509b491e4ad8"},"vehicle_type_id":"4","last_reported":1703002113,"current_range_meters":4000,"station_id":"ce4bhgp2rcd13ifvqfd0","pricing_plan_id":"free"},{"bike_id":"a5dd03d2-66f3-4d3d-8e37-653a3145df34","system_id":"levelo_inurba_marseille","lat":43.250023,"lon":5.38919,"is_reserved":false,"is_disabled":false,"rental_uris":{"android":"levelo://app?vid=a5dd03d2-66f3-4d3d-8e37-653a3145df34","ios":"levelo://app?vid=a5dd03d2-66f3-4d3d-8e37-653a3145df34"},"vehicle_type_id":"4","last_reported":1703002113,"current_range_meters":30000,"station_id":"ce4bhgp2rcd13ifvqfd0","pricing_plan_id":"free"},{"bike_id":"d6e292e6-9e15-48e2-8cf7-2b2d6bdd7044","system_id":"levelo_inurba_marseille","lat":43.24994,"lon":5.38934,"is_reserved":false,"is_disabled":false,"rental_uris":{"android":"levelo://app?vid=d6e292e6-9e15-48e2-8cf7-2b2d6bdd7044","ios":"levelo://app?vid=d6e292e6-9e15-48e2-8cf7-2b2d6bdd7044"},"vehicle_type_id":"4","last_reported":1703002113,"current_range_meters":6800,"station_id":"ce4bhgp2rcd13ifvqfd0","pricing_plan_id":"free"},{"bike_id":"74e1c439-a766-471f-983a-3f6c300234b1","system_id":"levelo_inurba_marseille","lat":43.2479,"lon":5.374457,"is_reserved":false,"is_disabled":false,"rental_uris":{"android":"levelo://app?vid=74e1c439-a766-471f-983a-3f6c300234b1","ios":"levelo://app?vid=74e1c439-a766-471f-983a-3f6c300234b1"},"vehicle_type_id":"4","last_reported":1703002113,"current_range_meters":26800,"station_id":"ce4bhgh2rcd13ifvqfb0","pricing_plan_id":"free"},{"bike_id":"834c1e95-8009-41d1-b089-1af4e01bc18e","system_id":"levelo_inurba_marseille","lat":43.250966,"lon":5.395186,"is_reserved":false,"is_disabled":false,"rental_uris":{"android":"levelo://app?vid=834c1e95-8009-41d1-b089-1af4e01bc18e","ios":"levelo://app?vid=834c1e95-8009-41d1-b089-1af4e01bc18e"},"vehicle_type_id":"4","last_reported":1703002113,"current_range_meters":18400,"station_id":"ce4bhm12rcd13ifvqgkg","pricing_plan_id":"free"},{"bike_id":"44e6f2df-6369-48dd-849f-53b6d004e6dc","system_id":"levelo_inurba_marseille","lat":43.250966,"lon":5.395186,"is_reserved":false,"is_disabled":false,"rental_uris":{"android":"levelo://app?vid=44e6f2df-6369-48dd-849f-53b6d004e6dc","ios":"levelo://app?vid=44e6f2df-6369-48dd-849f-53b6d004e6dc"},"vehicle_type_id":"4","last_reported":1703002113,"current_range_meters":31600,"station_id":"ce4bhm12rcd13ifvqgkg","pricing_plan_id":"free"},{"bike_id":"899e3e19-1e90-4d71-9a0b-b95b6b95ecad","system_id":"levelo_inurba_marseille","lat":43.250966,"lon":5.395186,"is_reserved":false,"is_disabled":false,"rental_uris":{"android":"levelo://app?vid=899e3e19-1e90-4d71-9a0b-b95b6b95ecad","ios":"levelo://app?vid=899e3e19-1e90-4d71-9a0b-b95b6b95ecad"},"vehicle_type_id":"4","last_reported":1703002113,"current_range_meters":18000,"station_id":"ce4bhm12rcd13ifvqgkg","pricing_plan_id":"free"},{"bike_id":"6e44d394-80cc-4dee-bfb9-2229be4ccef9","system_id":"levelo_inurba_marseille","lat":43.24668,"lon":5.38154,"is_reserved":false,"is_disabled":false,"rental_uris":{"android":"levelo://app?vid=6e44d394-80cc-4dee-bfb9-2229be4ccef9","ios":"levelo://app?vid=6e44d394-80cc-4dee-bfb9-2229be4ccef9"},"vehicle_type_id":"4","last_reported":1703002113,"current_range_meters":21200,"station_id":"ce4bhih2rcd13ifvqfr0","pricing_plan_id":"free"},{"bike_id":"80ed8e44-0075-4bf1-bb3e-e35522289d96","system_id":"levelo_inurba_marseille","lat":43.24668,"lon":5.38165,"is_reserved":false,"is_disabled":false,"rental_uris":{"android":"levelo://app?vid=80ed8e44-0075-4bf1-bb3e-e35522289d96","ios":"levelo://app?vid=80ed8e44-0075-4bf1-bb3e-e35522289d96"},"vehicle_type_id":"4","last_reported":1703002113,"current_range_meters":27200,"station_id":"ce4bhih2rcd13ifvqfr0","pricing_plan_id":"free"},{"bike_id":"e8a45abc-dcb8-45cf-aec5-308e62b8b754","system_id":"levelo_inurba_marseille","lat":43.24668,"lon":5.38167,"is_reserved":false,"is_disabled":false,"rental_uris":{"android":"levelo://app?vid=e8a45abc-dcb8-45cf-aec5-308e62b8b754","ios":"levelo://app?vid=e8a45abc-dcb8-45cf-aec5-308e62b8b754"},"vehicle_type_id":"4","last_reported":1703002113,"current_range_meters":28400,"station_id":"ce4bhih2rcd13ifvqfr0","pricing_plan_id":"free"},{"bike_id":"ae9b5b5e-cf78-484c-9d38-af25bd58ad2e","system_id":"levelo_inurba_marseille","lat":43.24693,"lon":5.382096,"is_reserved":false,"is_disabled":false,"rental_uris":{"android":"levelo://app?vid=ae9b5b5e-cf78-484c-9d38-af25bd58ad2e","ios":"levelo://app?vid=ae9b5b5e-cf78-484c-9d38-af25bd58ad2e"},"vehicle_type_id":"4","last_reported":1703002113,"current_range_meters":20800,"station_id":"ce4bhih2rcd13ifvqfr0","pricing_plan_id":"free"},{"bike_id":"5ce82e5f-b214-481d-b21a-59b1325e55f3","system_id":"levelo_inurba_marseille","lat":43.24664,"lon":5.38166,"is_reserved":false,"is_disabled":false,"rental_uris":{"android":"levelo://app?vid=5ce82e5f-b214-481d-b21a-59b1325e55f3","ios":"levelo://app?vid=5ce82e5f-b214-481d-b21a-59b1325e55f3"},"vehicle_type_id":"4","last_reported":1703002113,"current_range_meters":27600,"station_id":"ce4bhih2rcd13ifvqfr0","pricing_plan_id":"free"},{"bike_id":"49f74512-a43d-4984-bde1-6f1e82a55aac","system_id":"levelo_inurba_marseille","lat":43.24659,"lon":5.38166,"is_reserved":false,"is_disabled":false,"rental_uris":{"android":"levelo://app?vid=49f74512-a43d-4984-bde1-6f1e82a55aac","ios":"levelo://app?vid=49f74512-a43d-4984-bde1-6f1e82a55aac"},"vehicle_type_id":"4","last_reported":1703002113,"current_range_meters":13600,"station_id":"ce4bhih2rcd13ifvqfr0","pricing_plan_id":"free"},{"bike_id":"193f4956-6ecb-495f-880a-f15714376bba","system_id":"levelo_inurba_marseille","lat":43.246461,"lon":5.389014,"is_reserved":false,"is_disabled":false,"rental_uris":{"android":"levelo://app?vid=193f4956-6ecb-495f-880a-f15714376bba","ios":"levelo://app?vid=193f4956-6ecb-495f-880a-f15714376bba"},"vehicle_type_id":"4","last_reported":1703002113,"current_range_meters":30000,"station_id":"ce4bhg12rcd13ifvqf60","pricing_plan_id":"free"},{"bike_id":"466df657-c085-4167-8993-c65f9abe63d8","system_id":"levelo_inurba_marseille","lat":43.241782,"lon":5.397264,"is_reserved":false,"is_disabled":false,"rental_uris":{"android":"levelo://app?vid=466df657-c085-4167-8993-c65f9abe63d8","ios":"levelo://app?vid=466df657-c085-4167-8993-c65f9abe63d8"},"vehicle_type_id":"4","last_reported":1703002113,"current_range_meters":26000,"station_id":"ce4bhn12rcd13ifvqgpg","pricing_plan_id":"free"},{"bike_id":"e6bb7b5f-a79e-4ebc-86c4-6d2598d47f38","system_id":"levelo_inurba_marseille","lat":43.24181,"lon":5.39732,"is_reserved":false,"is_disabled":false,"rental_uris":{"android":"levelo://app?vid=e6bb7b5f-a79e-4ebc-86c4-6d2598d47f38","ios":"levelo://app?vid=e6bb7b5f-a79e-4ebc-86c4-6d2598d47f38"},"vehicle_type_id":"4","last_reported":1703002113,"current_range_meters":18800,"station_id":"ce4bhn12rcd13ifvqgpg","pricing_plan_id":"free"},{"bike_id":"b0a3c100-372a-4af7-9d22-b500f647a1d7","system_id":"levelo_inurba_marseille","lat":43.241782,"lon":5.397261,"is_reserved":false,"is_disabled":false,"rental_uris":{"android":"levelo://app?vid=b0a3c100-372a-4af7-9d22-b500f647a1d7","ios":"levelo://app?vid=b0a3c100-372a-4af7-9d22-b500f647a1d7"},