{"last_updated":1758615245,"ttl":60,"version":"2.2","data":{"bikes":[{"bike_id":"94b0e687-6d1a-4a51-86bb-f03fcbed6738","system_id":"levelo_inurba_marseille","lat":43.30276,"lon":5.37715,"is_reserved":false,"is_disabled":false,"rental_uris":{"android":"levelo://app?vid=94b0e687-6d1a-4a51-86bb-f03fcbed6738","ios":"levelo://app?vid=94b0e687-6d1a-4a51-86bb-f03fcbed6738"},"vehicle_type_id":"4","last_reported":1758615246,"current_range_meters":2800,"station_id":"ce4bguh2rcd13ifvqcj0","pricing_plan_id":"cebpf4jnsgd1na2vs0mg"},{"bike_id":"3db05dd3-0d66-4fdb-94de-5bd4574dab07","system_id":"levelo_inurba_marseille","lat":43.274896,"lon":5.424558,"is_reserved":false,"is_disabled":false,"rental_uris":{"android":"levelo://app?vid=3db05dd3-0d66-4fdb-94de-5bd4574dab07","ios":"levelo://app?vid=3db05dd3-0d66-4fdb-94de-5bd4574dab07"},"vehicle_type_id":"4","last_reported":1758615246,"current_range_meters":2800,"station_id":"ce4bhn92rcd13ifvqgrg","pricing_plan_id":"cebpf4jnsgd1na2vs0mg"},{"bike_id":"db121f25-605d-4214-9bd3-9aa57581e3a1","system_id":"levelo_inurba_marseille","lat":43.3122,"lon":5.36846,"is_reserved":false,"is_disabled":false,"rental_uris":{"android":"levelo://app?vid=db121f25-605d-4214-9bd3-9aa57581e3a1","ios":"levelo://app?vid=db121f25-605d-4214-9bd3-9aa57581e3a1"},"vehicle_type_id":"4","last_reported":1758615246,"current_range_meters":2800,"station_id":"ce4bgl92rcd13ifvqbq0","pricing_plan_id":"cebpf4jnsgd1na2vs0mg"},{"bike_id":"0336a85b-19b4-4a92-8142-94b260587564","system_id":"levelo_inurba_marseille","lat":43.23151,"lon":5.43704,"is_reserved":false,"is_disabled":false,"rental_uris":{"android":"levelo://app?vid=0336a85b-19b4-4a92-8142-94b260587564","ios":"levelo://app?vid=0336a85b-19b4-4a92-8142-94b260587564"},"vehicle_type_id":"4","last_reported":1758615246,"current_range_meters":2800,"station_id":"ce4bhmp2rcd13ifvqgog","pricing_plan_id":"cebpf4jnsgd1na2vs0mg"},{"bike_id":"906223e0-7f0b-4506-8707-36d1364f6232","system_id":"levelo_inurba_marseille","lat":43.29468,"lon":5.37422,"is_reserved":false,"is_disabled":false,"rental_uris":{"android":"levelo://app?vid=906223e0-7f0b-4506-8707-36d1364f6232","ios":"levelo://app?vid=906223e0-7f0b-4506-8707-36d1364f6232"},"vehicle_type_id":"4","last_reported":1758615246,"current_range_meters":3200,"station_id":"","pricing_plan_id":"cebpf4jnsgd1na2vs0mg"},{"bike_id":"0ad5c6a5-8b05-4faa-8590-609348c11288","system_id":"levelo_inurba_marseille","lat":43.27822,"lon":5.40699,"is_reserved":false,"is_disabled":true,"rental_uris":{"android":"levelo://app?vid=0ad5c6a5-8b05-4faa-8590-609348c11288","ios":"levelo://app?vid=0ad5c6a5-8b05-4faa-8590-609348c11288"},"vehicle_type_id":"4","last_reported":1758615246,"current_range_meters":3600,"station_id":"ce4bhnh2rcd13ifvqgtg","pricing_plan_id":"cebpf4jnsgd1na2vs0mg"},{"bike_id":"671c0879-8e4e-4fcd-8f9b-2555c3d87a37","system_id":"levelo_inurba_marseille","lat":43.29258,"lon":5.3844,"is_reserved":false,"is_disabled":false,"rental_uris":{"android":"levelo://app?vid=671c0879-8e4e-4fcd-8f9b-2555c3d87a37","ios":"levelo://app?vid=671c0879-8e4e-4fcd-8f9b-2555c3d87a37"},"vehicle_type_id":"4","last_reported":1758615246,"current_range_meters":3600,"station_id":"ce4bh692rcd13ifvqea0","pricing_plan_id":"cebpf4jnsgd1na2vs0mg"},{"bike_id":"c4b31d7d-778c-44b2-88ee-d60c602e08a2","system_id":"levelo_inurba_marseille","lat":43.27555,"lon":5.38428,"is_reserved":false,"is_disabled":false,"rental_uris":{"android":"levelo://app?vid=c4b31d7d-778c-44b2-88ee-d60c602e08a2","ios":"levelo://app?vid=c4b31d7d-778c-44b2-88ee-d60c602e08a2"},"vehicle_type_id":"4","last_reported":1758615246,"current_range_meters":3600,"station_id":"ce4bhh92rcd13ifvqfi0","pricing_plan_id":"cebpf4jnsgd1na2vs0mg"},{"bike_id":"4db3cb5f-b5c4-47a2-bcab-61d689052960","system_id":"levelo_inurba_marseille","lat":43.3127,"lon":5.40185,"is_reserved":false,"is_disabled":false,"rental_uris":{"android":"levelo://app?vid=4db3cb5f-b5c4-47a2-bcab-61d689052960","ios":"levelo://app?vid=4db3cb5f-b5c4-47a2-bcab-61d689052960"},"vehicle_type_id":"4","last_reported":1758615246,"current_range_meters":3200,"station_id":"ce4bh092rcd13ifvqd30","pricing_plan_id":"cebpf4jnsgd1na2vs0mg"},{"bike_id":"8f1e9e6a-c7b6-4d60-a17d-b7b4deeb0c49","system_id":"levelo_inurba_marseille","lat":43.33603,"lon":5.41035,"is_reserved":false,"is_disabled":false,"rental_uris":{"android":"levelo://app?vid=8f1e9e6a-c7b6-4d60-a17d-b7b4deeb0c49","ios":"levelo://app?vid=8f1e9e6a-c7b6-4d60-a17d-b7b4deeb0c49"},"vehicle_type_id":"4","last_reported":1758615246,"current_range_meters":3600,"station_id":"ce4bhqh2rcd13ifvqhmg","pricing_plan_id":"cebpf4jnsgd1na2vs0mg"},{"bike_id":"55d1bc08-fd54-4a82-afc7-2adcaa7b1c4e","system_id":"levelo_inurba_marseille","lat":43.300404,"lon":5.376985,"is_reserved":false,"is_disabled":false,"rental_uris":{"android":"levelo://app?vid=55d1bc08-fd54-4a82-afc7-2adcaa7b1c4e","ios":"levelo://app?vid=55d1bc08-fd54-4a82-afc7-2adcaa7b1c4e"},"vehicle_type_id":"4","last_reported":1758615246,"current_range_meters":3600,"station_id":"","pricing_plan_id":"cebpf4jnsgd1na2vs0mg"},{"bike_id":"9eda223c-aef7-43be-8f8e-4fd6e9e47dcf","system_id":"levelo_inurba_marseille","lat":43.26565,"lon":5.39019,"is_reserved":false,"is_disabled":false,"rental_uris":{"android":"levelo://app?vid=9eda223c-aef7-43be-8f8e-4fd6e9e47dcf","ios":"levelo://app?vid=9eda223c-aef7-43be-8f8e-4fd6e9e47dcf"},"vehicle_type_id":"4","last_reported":1758615246,"current_range_meters":4000,"station_id":"ce4bhe12rcd13ifvqf30","pricing_plan_id":"cebpf4jnsgd1na2vs0mg"},{"bike_id":"68adab37-f5ad-4072-b58a-fe6c68285ca6","system_id":"levelo_inurba_marseille","lat":43.306186,"lon":5.376551,"is_reserved":false,"is_disabled":false,"rental_uris":{"android":"levelo://app?vid=68adab37-f5ad-4072-b58a-fe6c68285ca6","ios":"levelo://app?vid=68adab37-f5ad-4072-b58a-fe6c68285ca6"},"vehicle_type_id":"4","last_reported":1758615246,"current_range_meters":4000,"station_id":"","pricing_plan_id":"cebpf4jnsgd1na2vs0mg"},{"bike_id":"5d1c6234-1316-419c-aceb-ce27d9ca573e","system_id":"levelo_inurba_marseille","lat":43.26553,"lon":5.37289,"is_reserved":false,"is_disabled":false,"rental_uris":{"android":"levelo://app?vid=5d1c6234-1316-419c-aceb-ce27d9ca573e","ios":"levelo://app?vid=5d1c6234-1316-419c-aceb-ce27d9ca573e"},"vehicle_type_id":"4","last_reported":1758615246,"current_range_meters":4000,"station_id":"ce4bhg12rcd13ifvqf70","pricing_plan_id":"cebpf4jnsgd1na2vs0mg"},{"bike_id":"93721e99-a22b-4a7b-a13e-017d0b728d5b","system_id":"levelo_inurba_marseille","lat":43.30101,"lon":5.39084,"is_reserved":false,"is_disabled":true,"rental_uris":{"android":"levelo://app?vid=93721e99-a22b-4a7b-a13e-017d0b728d5b","ios":"levelo://app?vid=93721e99-a22b-4a7b-a13e-017d0b728d5b"},"vehicle_type_id":"4","last_reported":1758615246,"current_range_meters":4400,"station_id":"ce4bh192rcd13ifvqdb0","pricing_plan_id":"cebpf4jnsgd1na2vs0mg"},{"bike_id":"fe122450-553e-46b9-836e-37905fef0640","system_id":"levelo_inurba_marseille","lat":43.29255,"lon":5.38433,"is_reserved":false,"is_disabled":true,"rental_uris":{"android":"levelo://app?vid=fe122450-553e-46b9-836e-37905fef0640","ios":"levelo://app?vid=fe122450-553e-46b9-836e-37905fef0640"},"vehicle_type_id":"4","last_reported":1758615246,"current_range_meters":4400,"station_id":"ce4bh692rcd13ifvqea0","pricing_plan_id":"cebpf4jnsgd1na2vs0mg"},{"bike_id":"101c93ff-e319-416b-bb37-99f65b91063b","system_id":"levelo_inurba_marseille","lat":43.29028,"lon":5.37561,"is_reserved":false,"is_disabled":false,"rental_uris":{"android":"levelo://app?vid=101c93ff-e319-416b-bb37-99f65b91063b","ios":"levelo://app?vid=101c93ff-e319-416b-bb37-99f65b91063b"},"vehicle_type_id":"4","last_reported":1758615246,"current_range_meters":4400,"station_id":"ce4bh692rcd13ifvqe90","pricing_plan_id":"cebpf4jnsgd1na2vs0mg"},{"bike_id":"115312ae-a27c-480c-a681-7dc447082124","system_id":"levelo_inurba_marseille","lat":43.28148,"lon":5.42648,"is_reserved":false,"is_disabled":false,"rental_uris":{"android":"levelo://app?vid=115312ae-a27c-480c-a681-7dc447082124","ios":"levelo://app?vid=115312ae-a27c-480c-a681-7dc447082124"},"vehicle_type_id":"4","last_reported":1758615246,"current_range_meters":4400,"station_id":"ce4bhnh2rcd13ifvqgug","pricing_plan_id":"cebpf4jnsgd1na2vs0mg"},{"bike_id":"0dbc7da0-0362-4020-94e8-7c158950cbc3","system_id":"levelo_inurba_marseille","lat":43.27051,"lon":5.40287,"is_reserved":false,"is_disabled":true,"rental_uris":{"android":"levelo://app?vid=0dbc7da0-0362-4020-94e8-7c158950cbc3","ios":"levelo://app?vid=0dbc7da0-0362-4020-94e8-7c158950cbc3"},"vehicle_type_id":"4","last_reported":1758615246,"current_range_meters":4800,"station_id":"ce4bhk92rcd13ifvqgc0","pricing_plan_id":"cebpf4jnsgd1na2vs0mg"},{"bike_id":"db101e5b-7eae-41ac-95d5-5d272868c585","system_id":"levelo_inurba_marseille","lat":43.26782,"lon":5.3941,"is_reserved":false,"is_disabled":false,"rental_uris":{"android":"levelo://app?vid=db101e5b-7eae-41ac-95d5-5d272868c585","ios":"levelo://app?vid=db101e5b-7eae-41ac-95d5-5d272868c585"},"vehicle_type_id":"4","last_reported":1758615246,"current_range_meters":4800,"station_id":"ce4bhh12rcd13ifvqfg0","pricing_plan_id":"cebpf4jnsgd1na2vs0mg"},{"bike_id":"54502de0-09ba-43cd-a1f2-9f84e6e6c1cb","system_id":"levelo_inurba_marseille","lat":43.290149,"lon":5.381283,"is_reserved":false,"is_disabled":false,"rental_uris":{"android":"levelo://app?vid=54502de0-09ba-43cd-a1f2-9f84e6e6c1cb","ios":"levelo://app?vid=54502de0-09ba-43cd-a1f2-9f84e6e6c1cb"},"vehicle_type_id":"4","last_reported":1758615246,"current_range_meters":4800,"station_id":"","pricing_plan_id":"cebpf4jnsgd1na2vs0mg"},{"bike_id":"922e7484-6e53-4b8d-8a95-cf9f5390d601","system_id":"levelo_inurba_marseille","lat":43.21174,"lon":5.35087,"is_reserved":false,"is_disabled":false,"rental_uris":{"android":"levelo://app?vid=922e7484-6e53-4b8d-8a95-cf9f5390d601","ios":"levelo://app?vid=922e7484-6e53-4b8d-8a95-cf9f5390d601"},"vehicle_type_id":"4","last_reported":1758615246,"current_range_meters":4800,"station_id":"st_cvj6sg6p6f1abm77japg","pricing_plan_id":"cebpf4jnsgd1na2vs0mg"},{"bike_id":"4a498133-cf43-4960-83f4-1ceb0f52b205","system_id":"levelo_inurba_marseille","lat":43.30536,"lon":5.36715,"is_reserved":false,"is_disabled":false,"rental_uris":{"android":"levelo://app?vid=4a498133-cf43-4960-83f4-1ceb0f52b205","ios":"levelo://app?vid=4a498133-cf43-4960-83f4-1ceb0f52b205"},"vehicle_type_id":"4","last_reported":1758615246,"current_range_meters":4800,"station_id":"ce4bgrp2rcd13ifvqc9g","pricing_plan_id":"cebpf4jnsgd1na2vs0mg"},{"bike_id":"1b790372-5d34-489f-a29a-5f2319ad70e0","system_id":"levelo_inurba_marseille","lat":43.28261,"lon":5.35048,"is_reserved":false,"is_disabled":true,"rental_uris":{"android":"levelo://app?vid=1b790372-5d34-489f-a29a-5f2319ad70e0","ios":"levelo://app?vid=1b790372-5d34-489f-a29a-5f2319ad70e0"},"vehicle_type_id":"4","last_reported":1758615246,"current_range_meters":4800,"station_id":"ce4bhbp2rcd13ifvqerg","pricing_plan_id":"cebpf4jnsgd1na2vs0mg"},{"bike_id":"bf309d67-c7b8-4a41-adcc-0770bf322e3c","system_id":"levelo_inurba_marseille","lat":43.30948,"lon":5.39032,"is_reserved":false,"is_disabled":false,"rental_uris":{"android":"levelo://app?vid=bf309d67-c7b8-4a41-adcc-0770bf322e3c","ios":"levelo://app?vid=bf309d67-c7b8-4a41-adcc-0770bf322e3c"},"vehicle_type_id":"4","last_reported":1758615246,"current_range_meters":4800,"station_id":"ce4bgup2rcd13ifvqco0","pricing_plan_id":"cebpf4jnsgd1na2vs0mg"},{"bike_id":"8b299234-7b2e-4628-8452-8e11b3b5858d","system_id":"levelo_inurba_marseille","lat":43.296254,"lon":5.37719,"is_reserved":false,"is_disabled":false,"rental_uris":{"android":"levelo://app?vid=8b299234-7b2e-4628-8452-8e11b3b5858d","ios":"levelo://app?vid=8b299234-7b2e-4628-8452-8e11b3b5858d"},"vehicle_type_id":"4","last_reported":1758615246,"current_range_meters":5600,"station_id":"ce4bgi92rcd13ifvqb90","pricing_plan_id":"cebpf4jnsgd1na2vs0mg"},{"bike_id":"eb113fbb-4b29-4829-9bcb-1ae3bf4ce73c","system_id":"levelo_inurba_marseille","lat":43.28699,"lon":5.37389,"is_reserved":false,"is_disabled":false,"rental_uris":{"android":"levelo://app?vid=eb113fbb-4b29-4829-9bcb-1ae3bf4ce73c","ios":"levelo://app?vid=eb113fbb-4b29-4829-9bcb-1ae3bf4ce73c"},"vehicle_type_id":"4","last_reported":1758615246,"current_range_meters":5600,"station_id":"ce4bh3p2rcd13ifvqdq0","pricing_plan_id":"cebpf4jnsgd1na2vs0mg"},{"bike_id":"2fd44255-3b74-4ddc-8ed2-6e10fa21a0d0","system_id":"levelo_inurba_marseille","lat":43.33599,"lon":5.41027,"is_reserved":false,"is_disabled":false,"rental_uris":{"android":"levelo://app?vid=2fd44255-3b74-4ddc-8ed2-6e10fa21a0d0","ios":"levelo://app?vid=2fd44255-3b74-4ddc-8ed2-6e10fa21a0d0"},"vehicle_type_id":"4","last_reported":1758615246,"current_range_meters":5600,"station_id":"ce4bhqh2rcd13ifvqhmg","pricing_plan_id":"cebpf4jnsgd1na2vs0mg"},{"bike_id":"655fc4ce-694c-4fdd-9b0e-3524c244b365","system_id":"levelo_inurba_marseille","lat":43.31366,"lon":5.36697,"is_reserved":false,"is_disabled":false,"rental_uris":{"android":"levelo://app?vid=655fc4ce-694c-4fdd-9b0e-3524c244b365","ios":"levelo://app?vid=655fc4ce-694c-4fdd-9b0e-3524c244b365"},"vehicle_type_id":"4","last_reported":1758615246,"current_range_meters":5600,"station_id":"ce4bgr92rcd13ifvqc6g","pricing_plan_id":"cebpf4jnsgd1na2vs0mg"},{"bike_id":"63b333a7-d794-4844-a68e-01e04b1837d6","system_id":"levelo_inurba_marseille","lat":43.29977,"lon":5.38475,"is_reserved":false,"is_disabled":false,"rental_uris":{"android":"levelo://app?vid=63b333a7-d794-4844-a68e-01e04b1837d6","ios":"levelo://app?vid=63b333a7-d794-4844-a68e-01e04b1837d6"},"vehicle_type_id":"4","last_reported":1758615246,"current_range_meters":5600,"station_id":"ce4bgj92rcd13ifvqbd0","pricing_plan_id":"cebpf4jnsgd1na2vs0mg"},{"bike_id":"65ca3a15-42e3-4886-9549-63bd132dcd9e","system_id":"levelo_inurba_marseille","lat":43.30271,"lon":5.37708,"is_reserved":false,"is_disabled":false,"rental_uris":{"android":"levelo://app?vid=65ca3a15-42e3-4886-9549-63bd132dcd9e","ios":"levelo://app?vid=65ca3a15-42e3-4886-9549-63bd132dcd9e"},"vehicle_type_id":"4","last_reported":1758615246,"current_range_meters":6000,"station_id":"ce4bguh2rcd13ifvqcj0","pricing_plan_id":"cebpf4jnsgd1na2vs0mg"},{"bike_id":"7cc3eb70-c188-4d07-bd7a-1eda1774f982","system_id":"levelo_inurba_marseille","lat":43.28994,"lon":5.35619,"is_reserved":false,"is_disabled":false,"rental_uris":{"android":"levelo://app?vid=7cc3eb70-c188-4d07-bd7a-1eda1774f982","ios":"levelo://app?vid=7cc3eb70-c188-4d07-bd7a-1eda1774f982"},"vehicle_type_id":"4","last_reported":1758615246,"current_range_meters":6000,"station_id":"ce4bhb92rcd13ifvqen0","pricing_plan_id":"cebpf4jnsgd1na2vs0mg"},{"bike_id":"6879ec0a-e194-4bc4-b3e4-088550b1183a","system_id":"levelo_inurba_marseille","lat":43.30955,"lon":5.39045,"is_reserved":false,"is_disabled":false,"rental_uris":{"android":"levelo://app?vid=6879ec0a-e194-4bc4-b3e4-088550b1183a","ios":"levelo://app?vid=6879ec0a-e194-4bc4-b3e4-088550b1183a"},"vehicle_type_id":"4","last_reported":1758615246,"current_range_meters":6000,"station_id":"ce4bgup2rcd13ifvqco0","pricing_plan_id":"cebpf4jnsgd1na2vs0mg"},{"bike_id":"cfc38369-77ec-4ba3-b3d0-e4f9373adbe7","system_id":"levelo_inurba_marseille","lat":43.2315,"lon":5.43713,"is_reserved":false,"is_disabled":false,"rental_uris":{"android":"levelo://app?vid=cfc38369-77ec-4ba3-b3d0-e4f9373adbe7","ios":"levelo://app?vid=cfc38369-77ec-4ba3-b3d0-e4f9373adbe7"},"vehicle_type_id":"4","last_reported":1758615246,"current_range_meters":6000,"station_id":"ce4bhmp2rcd13ifvqgog","pricing_plan_id":"cebpf4jnsgd1na2vs0mg"},{"bike_id":"822a41c4-eb3c-491f-a392-2ad22e81489c","system_id":"levelo_inurba_marseille","lat":43.27494,"lon":5.42452,"is_reserved":false,"is_disabled":false,"rental_uris":{"android":"levelo://app?vid=822a41c4-eb3c-491f-a392-2ad22e81489c","ios":"levelo://app?vid=822a41c4-eb3c-491f-a392-2ad22e81489c"},"vehicle_type_id":"4","last_reported":1758615246,"current_range_meters":6400,"station_id":"ce4bhn92rcd13ifvqgrg","pricing_plan_id":"cebpf4jnsgd1na2vs0mg"},{"bike_id":"2fa8036e-c54e-4cf7-a5eb-b3edadb77256","system_id":"levelo_inurba_marseille","lat":43.29711,"lon":5.3769,"is_reserved":false,"is_disabled":false,"rental_uris":{"android":"levelo://app?vid=2fa8036e-c54e-4cf7-a5eb-b3edadb77256","ios":"levelo://app?vid=2fa8036e-c54e-4cf7-a5eb-b3edadb77256"},"vehicle_type_id":"4","last_reported":1758615246,"current_range_meters":6400,"station_id":"ce4bgkh2rcd13ifvqbl0","pricing_plan_id":"cebpf4jnsgd1na2vs0mg"},{"bike_id":"34e41d84-c218-450d-aa5a-7f2f4f8a3b48","system_id":"levelo_inurba_marseille","lat":43.23153,"lon":5.43719,"is_reserved":false,"is_disabled":false,"rental_uris":{"android":"levelo://app?vid=34e41d84-c218-450d-aa5a-7f2f4f8a3b48","ios":"levelo://app?vid=34e41d84-c218-450d-aa5a-7f2f4f8a3b48"},"vehicle_type_id":"4","last_reported":1758615246,"current_range_meters":6400,"station_id":"ce4bhmp2rcd13ifvqgog","pricing_plan_id":"cebpf4jnsgd1na2vs0mg"},{"bike_id":"5fafbbc6-b8c6-42a0-91c5-a2230a090df9","system_id":"levelo_inurba_marseille","lat":43.33615,"lon":5.41013,"is_reserved":false,"is_disabled":false,"rental_uris":{"android":"levelo://app?vid=5fafbbc6-b8c6-42a0-91c5-a2230a090df9","ios":"levelo://app?vid=5fafbbc6-b8c6-42a0-91c5-a2230a090df9"},"vehicle_type_id":"4","last_reported":1758615246,"current_range_meters":6400,"station_id":"ce4bhqh2rcd13ifvqhmg","pricing_plan_id":"cebpf4jnsgd1na2vs0mg"},{"bike_id":"9176512c-2cc1-4df2-a8e0-6be514fbcdbf","system_id":"levelo_inurba_marseille","lat":43.33748,"lon":5.37465,"is_reserved":false,"is_disabled":false,"rental_uris":{"android":"levelo://app?vid=9176512c-2cc1-4df2-a8e0-6be514fbcdbf","ios":"levelo://app?vid=9176512c-2cc1-4df2-a8e0-6be514fbcdbf"},"vehicle_type_id":"4","last_reported":1758615246,"current_range_meters":6400,"station_id":"","pricing_plan_id":"cebpf4jnsgd1na2vs0mg"},{"bike_id":"c6700079-fa26-4098-bca4-aaeb91fd24d1","system_id":"levelo_inurba_marseille","lat":43.23154,"lon":5.4372,"is_reserved":false,"is_disabled":false,"rental_uris":{"android":"levelo://app?vid=c6700079-fa26-4098-bca4-aaeb91fd24d1","ios":"levelo://app?vid=c6700079-fa26-4098-bca4-aaeb91fd24d1"},"vehicle_type_id":"4","last_reported":1758615246,"current_range_meters":6400,"station_id":"ce4bhmp2rcd13ifvqgog","pricing_plan_id":"cebpf4jnsgd1na2vs0mg"},{"bike_id":"438ead59-de14-4fa0-a61d-03a70a4122ae","system_id":"levelo_inurba_marseille","lat":43.97285,"lon":4.89134,"is_reserved":false,"is_disabled":true,"rental_uris":{"android":"levelo://app?vid=438ead59-de14-4fa0-a61d-03a70a4122ae","ios":"levelo://app?vid=438ead59-de14-4fa0-a61d-03a70a4122ae"},"vehicle_type_id":"4","last_reported":1758615246,"current_range_meters":6400,"station_id":"","pricing_plan_id":"cebpf4jnsgd1na2vs0mg"},{"bike_id":"698a1659-1be4-4464-8e40-0054e6845364","system_id":"levelo_inurba_marseille","lat":43.29402,"lon":5.40364,"is_reserved":false,"is_disabled":false,"rental_uris":{"android":"levelo://app?vid=698a1659-1be4-4464-8e40-0054e6845364","ios":"levelo://app?vid=698a1659-1be4-4464-8e40-0054e6845364"},"vehicle_type_id":"4","last_reported":1758615246,"current_range_meters":6800,"station_id":"","pricing_plan_id":"cebpf4jnsgd1na2vs0mg"},{"bike_id":"1f0a64d3-32b0-44c7-8005-0b9465e27f16","system_id":"levelo_inurba_marseille","lat":43.27492,"lon":5.42458,"is_reserved":false,"is_disabled":false,"rental_uris":{"android":"levelo://app?vid=1f0a64d3-32b0-44c7-8005-0b9465e27f16","ios":"levelo://app?vid=1f0a64d3-32b0-44c7-8005-0b9465e27f16"},"vehicle_type_id":"4","last_reported":1758615246,"current_range_meters":6800,"station_id":"ce4bhn92rcd13ifvqgrg","pricing_plan_id":"cebpf4jnsgd1na2vs0mg"},{"bike_id":"576c8529-9281-4705-9304-44e27bd78ac5","system_id":"levelo_inurba_marseille","lat":43.287175,"lon":5.379439,"is_reserved":false,"is_disabled":false,"rental_uris":{"android":"levelo://app?vid=576c8529-9281-4705-9304-44e27bd78ac5","ios":"levelo://app?vid=576c8529-9281-4705-9304-44e27bd78ac5"},"vehicle_type_id":"4","last_reported":1758615246,"current_range_meters":6800,"station_id":"ce4bh412rcd13ifvqdr0","pricing_plan_id":"cebpf4jnsgd1na2vs0mg"},{"bike_id":"806509f8-41c7-4511-9650-06bb160342f0","system_id":"levelo_inurba_marseille","lat":43.30541,"lon":5.36714,"is_reserved":false,"is_disabled":false,"rental_uris":{"android":"levelo://app?vid=806509f8-41c7-4511-9650-06bb160342f0","ios":"levelo://app?vid=806509f8-41c7-4511-9650-06bb160342f0"},"vehicle_type_id":"4","last_reported":1758615246,"current_range_meters":6800,"station_id":"ce4bgrp2rcd13ifvqc9g","pricing_plan_id":"cebpf4jnsgd1na2vs0mg"},{"bike_id":"cf15f0ab-4027-43c7-82dc-a40724160eb1","system_id":"levelo_inurba_marseille","lat":43.21754,"lon":5.345956,"is_reserved":false,"is_disabled":false,"rental_uris":{"android":"levelo://app?vid=cf15f0ab-4027-43c7-82dc-a40724160eb1","ios":"levelo://app?vid=cf15f0ab-4027-43c7-82dc-a40724160eb1"},"vehicle_type_id":"4","last_reported":1758615246,"current_range_meters":6800,"station_id":"st_cvj6r9ubvosntc0bgbag","pricing_plan_id":"cebpf4jnsgd1na2vs0mg"},{"bike_id":"0094702c-7828-4296-ac91-dae23f931def","system_id":"levelo_inurba_marseille","lat":43.251,"lon":5.40336,"is_reserved":false,"is_disabled":true,"rental_uris":{"android":"levelo://app?vid=0094702c-7828-4296-ac91-dae23f931def","ios":"levelo://app?vid=0094702c-7828-4296-ac91-dae23f931def"},"vehicle_type_id":"4","last_reported":1758615246,"current_range_meters":6800,"station_id":"","pricing_plan_id":"cebpf4jnsgd1na2vs0mg"},{"bike_id":"bbd5c0fe-85dc-4136-b17c-3a50046129df","system_id":"levelo_inurba_marseille","lat":43.29166,"lon":5.37169,"is_reserved":false,"is_disabled":false,"rental_uris":{"android":"levelo://app?vid=bbd5c0fe-85dc-4136-b17c-3a50046129df","ios":"levelo://app?vid=bbd5c0fe-85dc-4136-b17c-3a50046129df"},"vehicle_type_id":"4","last_reported":1758615246,"current_range_meters":6800,"station_id":"ce4bha92rcd13ifvqeh0","pricing_plan_id":"cebpf4jnsgd1na2vs0mg"},{"bike_id":"2289a0ff-9c3e-4f79-ad38-4b41158d6057","system_id":"levelo_inurba_marseille","lat":43.29882,"lon":5.37911,"is_reserved":false,"is_disabled":false,"rental_uris":{"android":"levelo://app?vid=2289a0ff-9c3e-4f79-ad38-4b41158d6057","ios":"levelo://app?vid=2289a0ff-9c3e-4f79-ad38-4b41158d6057"},"vehicle_type_id":"4","last_reported":1758615246,"current_range_meters":6800,"station_id":"","pricing_plan_id":"cebpf4jnsgd1na2vs0mg"},{"bike_id":"df1d17d6-886a-4741-a167-63a3f5e8a5dd","system_id":"levelo_inurba_marseille","lat":43.24055,"lon":5.37702,"is_reserved":false,"is_disabled":false,"rental_uris":{"android":"levelo://app?vid=df1d17d6-886a-4741-a167-63a3f5e8a5dd","ios":"levelo://app?vid=df1d17d6-886a-4741-a167-63a3f5e8a5dd"},"vehicle_type_id":"4","last_reported":1758615246,"current_range_meters":6800,"station_id":"ce4bhnp2rcd13ifvqgvg","pricing_plan_id":"cebpf4jnsgd1na2vs0mg"},{"bike_id":"589b56fc-edee-4378-b101-fb2683d988b2","system_id":"levelo_inurba_marseille","lat":43.305423,"lon":5.365351,"is_reserved":false,"is_disabled":false,"rental_uris":{"android":"levelo://app?vid=589b56fc-edee-4378-b101-fb2683d988b2","ios":"levelo://app?vid=589b56fc-edee-4378-b101-fb2683d988b2"},"vehicle_type_id":"4","last_reported":1758615246,"current_range_meters":6800,"station_id":"ce4bgs12rcd13ifvqcag","pricing_plan_id":"cebpf4jnsgd1na2vs0mg"},{"bike_id":"87828865-c641-4a92-96cc-2a9d2b51cfba","system_id":"levelo_inurba_marseille","lat":43.2175,"lon":5.34598,"is_reserved":false,"is_disabled":false,"rental_uris":{"android":"levelo://app?vid=87828865-c641-4a92-96cc-2a9d2b51cfba","ios":"levelo://app?vid=87828865-c641-4a92-96cc-2a9d2b51cfba"},"vehicle_type_id":"4","last_reported":1758615246,"current_range_meters":7200,"station_id":"","pricing_plan_id":"cebpf4jnsgd1na2vs0mg"},{"bike_id":"59362b21-e7ae-4d89-a581-7623f0cabe74","system_id":"levelo_inurba_marseille","lat":43.28998,"lon":5.35623,"is_reserved":false,"is_disabled":true,"rental_uris":{"android":"levelo://app?vid=59362b21-e7ae-4d89-a581-7623f0cabe74","ios":"levelo://app?vid=59362b21-e7ae-4d89-a581-7623f0cabe74"},"vehicle_type_id":"4","last_reported":1758615246,"current_range_meters":7200,"station_id":"ce4bhb92rcd13ifvqen0","pricing_plan_id":"cebpf4jnsgd1na2vs0mg"},{"bike_id":"acecff87-34f9-4548-9b3a-c1133544a12e","system_id":"levelo_inurba_marseille","lat":43.32034,"lon":5.41558,"is_reserved":false,"is_disabled":false,"rental_uris":{"android":"levelo://app?vid=acecff87-34f9-4548-9b3a-c1133544a12e","ios":"levelo://app?vid=acecff87-34f9-4548-9b3a-c1133544a12e"},"vehicle_type_id":"4","last_reported":1758615246,"current_range_meters":7200,"station_id":"ce4bhq92rcd13ifvqhkg","pricing_plan_id":"cebpf4jnsgd1na2vs0mg"},{"bike_id":"8d74e51c-cff0-443f-a53a-1bac4fc3bd4f","system_id":"levelo_inurba_marseille","lat":43.24084,"lon":5.37752,"is_reserved":false,"is_disabled":false,"rental_uris":{"android":"levelo://app?vid=8d74e51c-cff0-443f-a53a-1bac4fc3bd4f","ios":"levelo://app?vid=8d74e51c-cff0-443f-a53a-1bac4fc3bd4f"},"vehicle_type_id":"4","last_reported":1758615246,"current_range_meters":7200,"station_id":"ce4bhnp2rcd13ifvqgvg","pricing_plan_id":"cebpf4jnsgd1na2vs0mg"},{"bike_id":"dffcd7d6-2272-4dd2-af06-3b8e777e47da","system_id":"levelo_inurba_marseille","lat":43.310848,"lon":5.42439,"is_reserved":false,"is_disabled":false,"rental_uris":{"android":"levelo://app?vid=dffcd7d6-2272-4dd2-af06-3b8e777e47da","ios":"levelo://app?vid=dffcd7d6-2272-4dd2-af06-3b8e777e47da"},"vehicle_type_id":"4","last_reported":1758615246,"current_range_meters":7200,"station_id":"ce4bhp92rcd13ifvqhag","pricing_plan_id":"cebpf4jnsgd1na2vs0mg"},{"bike_id":"7eeba4e4-b501-4b5e-a922-0ff3a9e986a6","system_id":"levelo_inurba_marseille","lat":43.23188,"lon":5.35561,"is_reserved":false,"is_disabled":false,"rental_uris":{"android":"levelo://app?vid=7eeba4e4-b501-4b5e-a922-0ff3a9e986a6","ios":"levelo://app?vid=7eeba4e4-b501-4b5e-a922-0ff3a9e986a6"},"vehicle_type_id":"4","last_reported":1758615246,"current_range_meters":7200,"station_id":"ce4bhu92rcd13ifvqi70","pricing_plan_id":"cebpf4jnsgd1na2vs0mg"},{"bike_id":"5fe80ac4-45af-476a-b67c-ac38094bc356","system_id":"levelo_inurba_marseille","lat":43.30893,"lon":5.36866,"is_reserved":false,"is_disabled":false,"rental_uris":{"android":"levelo://app?vid=5fe80ac4-45af-476a-b67c-ac38094bc356","ios":"levelo://app?vid=5fe80ac4-45af-476a-b67c-ac38094bc356"},"vehicle_type_id":"4","last_reported":1758615246,"current_range_meters":7200,"station_id":"ce4bgn92rcd13ifvqbvg","pricing_plan_id":"cebpf4jnsgd1na2vs0mg"},{"bike_id":"0ca405c5-50f7-42f0-ad59-fa4f401dba3d","system_id":"levelo_inurba_marseille","lat":43.246706,"lon":5.381825,"is_reserved":false,"is_disabled":false,"rental_uris":{"android":"levelo://app?vid=0ca405c5-50f7-42f0-ad59-fa4f401dba3d","ios":"levelo://app?vid=0ca405c5-50f7-42f0-ad59-fa4f401dba3d"},"vehicle_type_id":"4","last_reported":1758615246,"current_range_meters":8000,"station_id":"ce4bhih2rcd13ifvqfr0","pricing_plan_id":"cebpf4jnsgd1na2vs0mg"},{"bike_id":"002f9227-4304-45fb-9001-8e868cef61ac","system_id":"levelo_inurba_marseille","lat":43.30903,"lon":5.36847,"is_reserved":false,"is_disabled":false,"rental_uris":{"android":"levelo://app?vid=002f9227-4304-45fb-9001-8e868cef61ac","ios":"levelo://app?vid=002f9227-4304-45fb-9001-8e868cef61ac"},"vehicle_type_id":"4","last_reported":1758615246,"current_range_meters":8000,"station_id":"ce4bgn92rcd13ifvqbvg","pricing_plan_id":"cebpf4jnsgd1na2vs0mg"},{"bike_id":"41e03531-d926-4714-9cb0-33d759375f30","system_id":"levelo_inurba_marseille","lat":43.31231,"lon":5.36883,"is_reserved":false,"is_disabled":false,"rental_uris":{"android":"levelo://app?vid=41e03531-d926-4714-9cb0-33d759375f30","ios":"levelo://app?vid=41e03531-d926-4714-9cb0-33d759375f30"},"vehicle_type_id":"4","last_reported":1758615246,"current_range_meters":8000,"station_id":"ce4bgl92rcd13ifvqbq0","pricing_plan_id":"cebpf4jnsgd1na2vs0mg"},{"bike_id":"612f5b6d-7a42-49d4-a4a9-cd0d60040cb3","system_id":"levelo_inurba_marseille","lat":43.31646,"lon":5.39016,"is_reserved":false,"is_disabled":false,"rental_uris":{"android":"levelo://app?vid=612f5b6d-7a42-49d4-a4a9-cd0d60040cb3","ios":"levelo://app?vid=612f5b6d-7a42-49d4-a4a9-cd0d60040cb3"},"vehicle_type_id":"4","last_reported":1758615246,"current_range_meters":8000,"station_id":"","pricing_plan_id":"cebpf4jnsgd1na2vs0mg"},{"bike_id":"3b92f048-064a-4a34-882a-88e003767df8","system_id":"levelo_inurba_marseille","lat":43.23959,"lon":5.36642,"is_reserved":false,"is_disabled":false,"rental_uris":{"android":"levelo://app?vid=3b92f048-064a-4a34-882a-88e003767df8","ios":"levelo://app?vid=3b92f048-064a-4a34-882a-88e003767df8"},"vehicle_type_id":"4","last_reported":1758615246,"current_range_meters":8400,"station_id":"ce4bhi12rcd13ifvqfp0","pricing_plan_id":"cebpf4jnsgd1na2vs0mg"},{"bike_id":"699f58bc-09c0-4eba-872f-d2db81069998","system_id":"levelo_inurba_marseille","lat":43.30947,"lon":5.39025,"is_reserved":false,"is_disabled":false,"rental_uris":{"android":"levelo://app?vid=699f58bc-09c0-4eba-872f-d2db81069998","ios":"levelo://app?vid=699f58bc-09c0-4eba-872f-d2db81069998"},"vehicle_type_id":"4","last_reported":1758615246,"current_range_meters":8400,"station_id":"ce4bgup2rcd13ifvqco0","pricing_plan_id":"cebpf4jnsgd1na2vs0mg"},{"bike_id":"6414353a-880f-4adf-bdf0-d475b007165d","system_id":"levelo_inurba_marseille","lat":43.29263,"lon":5.38436,"is_reserved":false,"is_disabled":false,"rental_uris":{"android":"levelo://app?vid=6414353a-880f-4adf-bdf0-d475b007165d","ios":"levelo://app?vid=6414353a-880f-4adf-bdf0-d475b007165d"},"vehicle_type_id":"4","last_reported":1758615246,"current_range_meters":8400,"station_id":"ce4bh692rcd13ifvqea0","pricing_plan_id":"cebpf4jnsgd1na2vs0mg"},{"bike_id":"b759e45b-40e6-452f-b37e-6a40e5876838","system_id":"levelo_inurba_marseille","lat":43.23133,"lon":5.43726,"is_reserved":false,"is_disabled":false,"rental_uris":{"android":"levelo://app?vid=b759e45b-40e6-452f-b37e-6a40e5876838","ios":"levelo://app?vid=b759e45b-40e6-452f-b37e-6a40e5876838"},"vehicle_type_id":"4","last_reported":1758615246,"current_range_meters":8400,"station_id":"ce4bhmp2rcd13ifvqgog","pricing_plan_id":"cebpf4jnsgd1na2vs0mg"},{"bike_id":"c3cafe8e-8846-4e03-bc52-99432d97b7f8","system_id":"levelo_inurba_marseille","lat":43.24164,"lon":5.36403,"is_reserved":false,"is_disabled":false,"rental_uris":{"android":"levelo://app?vid=c3cafe8e-8846-4e03-bc52-99432d97b7f8","ios":"levelo://app?vid=c3cafe8e-8846-4e03-bc52-99432d97b7f8"},"vehicle_type_id":"4","last_reported":1758615246,"current_range_meters":8400,"station_id":"cpo36qri1sfpv3e86is0","pricing_plan_id":"cebpf4jnsgd1na2vs0mg"},{"bike_id":"e111295c-a37a-4430-9923-ce146479ffdd","system_id":"levelo_inurba_marseille","lat":43.27312,"lon":5.39152,"is_reserved":false,"is_disabled":false,"rental_uris":{"android":"levelo://app?vid=e111295c-a37a-4430-9923-ce146479ffdd","ios":"levelo://app?vid=e111295c-a37a-4430-9923-ce146479ffdd"},"vehicle_type_id":"4","last_reported":1758615246,"current_range_meters":8400,"station_id":"","pricing_plan_id":"cebpf4jnsgd1na2vs0mg"},{"bike_id":"7a9d054a-33d2-4ab9-8282-d7fe3644a2a9","system_id":"levelo_inurba_marseille","lat":43.33618,"lon":5.41035,"is_reserved":false,"is_disabled":false,"rental_uris":{"android":"levelo://app?vid=7a9d054a-33d2-4ab9-8282-d7fe3644a2a9","ios":"levelo://app?vid=7a9d054a-33d2-4ab9-8282-d7fe3644a2a9"},"vehicle_type_id":"4","last_reported":1758615246,"current_range_meters":8400,"station_id":"ce4bhqh2rcd13ifvqhmg","pricing_plan_id":"cebpf4jnsgd1na2vs0mg"},{"bike_id":"0e1a2d28-0af9-4351-a50d-3ec6fc0ccf15","system_id":"levelo_inurba_marseille","lat":43.295013,"lon":5.38534,"is_reserved":false,"is_disabled":false,"rental_uris":{"android":"levelo://app?vid=0e1a2d28-0af9-4351-a50d-3ec6fc0ccf15","ios":"levelo://app?vid=0e1a2d28-0af9-4351-a50d-3ec6fc0ccf15"},"vehicle_type_id":"4","last_reported":1758615246,"current_range_meters":8800,"station_id":"ce4bgih2rcd13ifvqba0","pricing_plan_id":"cebpf4jnsgd1na2vs0mg"},{"bike_id":"a15e48c8-16c3-437e-a237-62b9e19d84cb","system_id":"levelo_inurba_marseille","lat":43.21768,"lon":5.34605,"is_reserved":false,"is_disabled":false,"rental_uris":{"android":"levelo://app?vid=a15e48c8-16c3-437e-a237-62b9e19d84cb","ios":"levelo://app?vid=a15e48c8-16c3-437e-a237-62b9e19d84cb"},"vehicle_type_id":"4","last_reported":1758615246,"current_range_meters":8800,"station_id":"st_cvj6r9ubvosntc0bgbag","pricing_plan_id":"cebpf4jnsgd1na2vs0mg"},{"bike_id":"3d3e0dd4-c107-4713-8610-b5f847c4f7ed","system_id":"levelo_inurba_marseille","lat":43.292725,"lon":5.368428,"is_reserved":false,"is_disabled":false,"rental_uris":{"android":"levelo://app?vid=3d3e0dd4-c107-4713-8610-b5f847c4f7ed","ios":"levelo://app?vid=3d3e0dd4-c107-4713-8610-b5f847c4f7ed"},"vehicle_type_id":"4","last_reported":1758615246,"current_range_meters":8800,"station_id":"ce4bhbp2rcd13ifvqesg","pricing_plan_id":"cebpf4jnsgd1na2vs0mg"},{"bike_id":"7ed3e504-3bf5-49f4-9c8d-1bd65653f9f8","system_id":"levelo_inurba_marseille","lat":43.31223,"lon":5.36858,"is_reserved":false,"is_disabled":false,"rental_uris":{"android":"levelo://app?vid=7ed3e504-3bf5-49f4-9c8d-1bd65653f9f8","ios":"levelo://app?vid=7ed3e504-3bf5-49f4-9c8d-1bd65653f9f8"},"vehicle_type_id":"4","last_reported":1758615246,"current_range_meters":8800,"station_id":"ce4bgl92rcd13ifvqbq0","pricing_plan_id":"cebpf4jnsgd1na2vs0mg"},{"bike_id":"c07e2816-467a-4d5b-aab2-f49fd8a4f6dc","system_id":"levelo_inurba_marseille","lat":43.23967,"lon":5.36654,"is_reserved":false,"is_disabled":false,"rental_uris":{"android":"levelo://app?vid=c07e2816-467a-4d5b-aab2-f49fd8a4f6dc","ios":"levelo://app?vid=c07e2816-467a-4d5b-aab2-f49fd8a4f6dc"},"vehicle_type_id":"4","last_reported":1758615246,"current_range_meters":8800,"station_id":"ce4bhi12rcd13ifvqfp0","pricing_plan_id":"cebpf4jnsgd1na2vs0mg"},{"bike_id":"d601c5ac-9f40-4413-b704-6528d37b20d6","system_id":"levelo_inurba_marseille","lat":43.29558,"lon":5.38174,"is_reserved":false,"is_disabled":true,"rental_uris":{"android":"levelo://app?vid=d601c5ac-9f40-4413-b704-6528d37b20d6","ios":"levelo://app?vid=d601c5ac-9f40-4413-b704-6528d37b20d6"},"vehicle_type_id":"4","last_reported":1758615246,"current_range_meters":8800,"station_id":"","pricing_plan_id":"cebpf4jnsgd1na2vs0mg"},{"bike_id":"a16efe13-3bc8-496d-a108-6a48964c1eed","system_id":"levelo_inurba_marseille","lat":43.31464,"lon":5.37292,"is_reserved":false,"is_disabled":false,"rental_uris":{"android":"levelo://app?vid=a16efe13-3bc8-496d-a108-6a48964c1eed","ios":"levelo://app?vid=a16efe13-3bc8-496d-a108-6a48964c1eed"},"vehicle_type_id":"4","last_reported":1758615246,"current_range_meters":8800,"station_id":"ce4bgt12rcd13ifvqcd0","pricing_plan_id":"cebpf4jnsgd1na2vs0mg"},{"bike_id":"c4f95835-6d9e-444c-b66e-44b7aa2606a9","system_id":"levelo_inurba_marseille","lat":43.24174,"lon":5.39725,"is_reserved":false,"is_disabled":false,"rental_uris":{"android":"levelo://app?vid=c4f95835-6d9e-444c-b66e-44b7aa2606a9","ios":"levelo://app?vid=c4f95835-6d9e-444c-b66e-44b7aa2606a9"},"vehicle_type_id":"4","last_reported":1758615246,"current_range_meters":9200,"station_id":"ce4bhn12rcd13ifvqgpg","pricing_plan_id":"cebpf4jnsgd1na2vs0mg"},{"bike_id":"49d9eb13-9c16-42a5-8b0a-553a0ab4ac5f","system_id":"levelo_inurba_marseille","lat":43.33584,"lon":5.41026,"is_reserved":false,"is_disabled":false,"rental_uris":{"android":"levelo://app?vid=49d9eb13-9c16-42a5-8b0a-553a0ab4ac5f","ios":"levelo://app?vid=49d9eb13-9c16-42a5-8b0a-553a0ab4ac5f"},"vehicle_type_id":"4","last_reported":1758615246,"current_range_meters":9200,"station_id":"ce4bhqh2rcd13ifvqhmg","pricing_plan_id":"cebpf4jnsgd1na2vs0mg"},{"bike_id":"90e14a2d-1c9e-457a-a1d7-7257e3270581","system_id":"levelo_inurba_marseille","lat":43.27994,"lon":5.41662,"is_reserved":false,"is_disabled":true,"rental_uris":{"android":"levelo://app?vid=90e14a2d-1c9e-457a-a1d7-7257e3270581","ios":"levelo://app?vid=90e14a2d-1c9e-457a-a1d7-7257e3270581"},"vehicle_type_id":"4","last_reported":1758615246,"current_range_meters":9200,"station_id":"ce4bho12rcd13ifvqh1g","pricing_plan_id":"cebpf4jnsgd1na2vs0mg"},{"bike_id":"ac75801b-074e-44a0-b8d4-768ce10fd207","system_id":"levelo_inurba_marseille","lat":43.28152,"lon":5.42648,"is_reserved":false,"is_disabled":false,"rental_uris":{"android":"levelo://app?vid=ac75801b-074e-44a0-b8d4-768ce10fd207","ios":"levelo://app?vid=ac75801b-074e-44a0-b8d4-768ce10fd207"},"vehicle_type_id":"4","last_reported":1758615246,"current_range_meters":9600,"station_id":"ce4bhnh2rcd13ifvqgug","pricing_plan_id":"cebpf4jnsgd1na2vs0mg"},{"bike_id":"b6477e8f-50a7-487a-89c9-a942112f8d49","system_id":"levelo_inurba_marseille","lat":43.324779,"lon":5.365655,"is_reserved":false,"is_disabled":false,"rental_uris":{"android":"levelo://app?vid=b6477e8f-50a7-487a-89c9-a942112f8d49","ios":"levelo://app?vid=b6477e8f-50a7-487a-89c9-a942112f8d49"},"vehicle_type_id":"4","last_reported":1758615246,"current_range_meters":9600,"station_id":"ce4bhs12rcd13ifvqhvg","pricing_plan_id":"cebpf4jnsgd1na2vs0mg"},{"bike_id":"2027eb0b-28d1-4d48-84d2-390e5a89aebc","system_id":"levelo_inurba_marseille","lat":43.25583,"lon":5.38229,"is_reserved":false,"is_disabled":false,"rental_uris":{"android":"levelo://app?vid=2027eb0b-28d1-4d48-84d2-390e5a89aebc","ios":"levelo://app?vid=2027eb0b-28d1-4d48-84d2-390e5a89aebc"},"vehicle_type_id":"4","last_reported":1758615246,"current_range_meters":9600,"station_id":"ce4bhih2rcd13ifvqfs0","pricing_plan_id":"cebpf4jnsgd1na2vs0mg"},{"bike_id":"a9b49971-595a-40d1-baec-db18a5eefdb9","system_id":"levelo_inurba_marseille","lat":43.255,"lon":5.37657,"is_reserved":false,"is_disabled":false,"rental_uris":{"android":"levelo://app?vid=a9b49971-595a-40d1-baec-db18a5eefdb9","ios":"levelo://app?vid=a9b49971-595a-40d1-baec-db18a5eefdb9"},"vehicle_type_id":"4","last_reported":1758615246,"current_range_meters":9600,"station_id":"ce4bhh12rcd13ifvqff0","pricing_plan_id":"cebpf4jnsgd1na2vs0mg"},{"bike_id":"077b0979-ea65-4a34-a2e4-b0ddc8f8ff5d","system_id":"levelo_inurba_marseille","lat":43.24688,"lon":5.38139,"is_reserved":false,"is_disabled":false,"rental_uris":{"android":"levelo://app?vid=077b0979-ea65-4a34-a2e4-b0ddc8f8ff5d","ios":"levelo://app?vid=077b0979-ea65-4a34-a2e4-b0ddc8f8ff5d"},"vehicle_type_id":"4","last_reported":1758615246,"current_range_meters":9600,"station_id":"ce4bhih2rcd13ifvqfr0","pricing_plan_id":"cebpf4jnsgd1na2vs0mg"},{"bike_id":"c940dacc-3f29-417b-a827-68d907097050","system_id":"levelo_inurba_marseille","lat":43.274966,"lon":5.424505,"is_reserved":false,"is_disabled":false,"rental_uris":{"android":"levelo://app?vid=c940dacc-3f29-417b-a827-68d907097050","ios":"levelo://app?vid=c940dacc-3f29-417b-a827-68d907097050"},"vehicle_type_id":"4","last_reported":1758615246,"current_range_meters":9600,"station_id":"ce4bhn92rcd13ifvqgrg","pricing_plan_id":"cebpf4jnsgd1na2vs0mg"},{"bike_id":"9f50c3ed-18ab-4841-b2de-1fe469f49da2","system_id":"levelo_inurba_marseille","lat":43.27497,"lon":5.42463,"is_reserved":false,"is_disabled":false,"rental_uris":{"android":"levelo://app?vid=9f50c3ed-18ab-4841-b2de-1fe469f49da2","ios":"levelo://app?vid=9f50c3ed-18ab-4841-b2de-1fe469f49da2"},"vehicle_type_id":"4","last_reported":1758615246,"current_range_meters":10000,"station_id":"ce4bhn92rcd13ifvqgrg","pricing_plan_id":"cebpf4jnsgd1na2vs0mg"},{"bike_id":"759e47b9-2553-49c5-b2a0-35471b025155","system_id":"levelo_inurba_marseille","lat":43.30591,"lon":5.3934,"is_reserved":false,"is_disabled":false,"rental_uris":{"android":"levelo://app?vid=759e47b9-2553-49c5-b2a0-35471b025155","ios":"levelo://app?vid=759e47b9-2553-49c5-b2a0-35471b025155"},"vehicle_type_id":"4","last_reported":1758615246,"current_range_meters":10000,"station_id":"ce4bh0p2rcd13ifvqd80","pricing_plan_id":"cebpf4jnsgd1na2vs0mg"},{"bike_id":"5c0e13b0-dc88-4dad-ae05-eebf1d40089f","system_id":"levelo_inurba_marseille","lat":43.29261,"lon":5.36849,"is_reserved":false,"is_disabled":false,"rental_uris":{"android":"levelo://app?vid=5c0e13b0-dc88-4dad-ae05-eebf1d40089f","ios":"levelo://app?vid=5c0e13b0-dc88-4dad-ae05-eebf1d40089f"},"vehicle_type_id":"4","last_reported":1758615246,"current_range_meters":10000,"station_id":"ce4bhbp2rcd13ifvqesg","pricing_plan_id":"cebpf4jnsgd1na2vs0mg"},{"bike_id":"99742242-65b4-4e57-be4f-fce52b84fb5d","system_id":"levelo_inurba_marseille","lat":43.27199,"lon":5.39186,"is_reserved":false,"is_disabled":false,"rental_uris":{"android":"levelo://app?vid=99742242-65b4-4e57-be4f-fce52b84fb5d","ios":"levelo://app?vid=99742242-65b4-4e57-be4f-fce52b84fb5d"},"vehicle_type_id":"4","last_reported":1758615246,"current_range_meters":10000,"station_id":"ce4bhhp2rcd13ifvqfm0","pricing_plan_id":"cebpf4jnsgd1na2vs0mg"},{"bike_id":"0b2230e3-adb9-421c-91b1-c113eb397705","system_id":"levelo_inurba_marseille","lat":43.289043,"lon":5.376519,"is_reserved":false,"is_disabled":false,"rental_uris":{"android":"levelo://app?vid=0b2230e3-adb9-421c-91b1-c113eb397705","ios":"levelo://app?vid=0b2230e3-adb9-421c-91b1-c113eb397705"},"vehicle_type_id":"4","last_reported":1758615246,"current_range_meters":10000,"station_id":"","pricing_plan_id":"cebpf4jnsgd1na2vs0mg"},{"bike_id":"889d2300-c498-423c-8ceb-b16ea2c56fdb","system_id":"levelo_inurba_marseille","lat":43.30947,"lon":5.39047,"is_reserved":false,"is_disabled":false,"rental_uris":{"android":"levelo://app?vid=889d2300-c498-423c-8ceb-b16ea2c56fdb","ios":"levelo://app?vid=889d2300-c498-423c-8ceb-b16ea2c56fdb"},"vehicle_type_id":"4","last_reported":1758615246,"current_range_meters":10000,"station_id":"ce4bgup2rcd13ifvqco0","pricing_plan_id":"cebpf4jnsgd1na2vs0mg"},{"bike_id":"77eeb9b5-0e68-4a7b-b5d1-530ce6c04cd4","system_id":"levelo_inurba_marseille","lat":43.229314,"lon":5.353789,"is_reserved":false,"is_disabled":false,"rental_uris":{"android":"levelo://app?vid=77eeb9b5-0e68-4a7b-b5d1-530ce6c04cd4","ios":"levelo://app?vid=77eeb9b5-0e68-4a7b-b5d1-530ce6c04cd4"},"vehicle_type_id":"4","last_reported":1758615246,"current_range_meters":10000,"station_id":"cpo3532slgdg3j2ikp40","pricing_plan_id":"cebpf4jnsgd1na2vs0mg"},{"bike_id":"e84ff79d-aac3-4ed9-a19c-3a72c7a6a43f","system_id":"levelo_inurba_marseille","lat":43.30639,"lon":5.40089,"is_reserved":false,"is_disabled":false,"rental_uris":{"android":"levelo://app?vid=e84ff79d-aac3-4ed9-a19c-3a72c7a6a43f","ios":"levelo://app?vid=e84ff79d-aac3-4ed9-a19c-3a72c7a6a43f"},"vehicle_type_id":"4","last_reported":1758615246,"current_range_meters":10000,"station_id":"ce4bh112rcd13ifvqda0","pricing_plan_id":"cebpf4jnsgd1na2vs0mg"},{"bike_id":"1952dd18-18e3-4b05-9c4f-5cb0c95711c3","system_id":"levelo_inurba_marseille","lat":43.26949,"lon":5.38633,"is_reserved":false,"is_disabled":false,"rental_uris":{"android":"levelo://app?vid=1952dd18-18e3-4b05-9c4f-5cb0c95711c3","ios":"levelo://app?vid=1952dd18-18e3-4b05-9c4f-5cb0c95711c3"},"vehicle_type_id":"4","last_reported":1758615246,"current_range_meters":9600,"station_id":"ce4bhh92rcd13ifvqfh0","pricing_plan_id":"cebpf4jnsgd1na2vs0mg"},{"bike_id":"bd7adc2d-f310-4fc5-83f3-ec6141af50ba","system_id":"levelo_inurba_marseille","lat":43.2558,"lon":5.38232,"is_reserved":false,"is_disabled":false,"rental_uris":{"android":"levelo://app?vid=bd7adc2d-f310-4fc5-83f3-ec6141af50ba","ios":"levelo://app?vid=bd7adc2d-f310-4fc5-83f3-ec6141af50ba"},"vehicle_type_id":"4","last_reported":1758615246,"current_range_meters":9600,"station_id":"ce4bhih2rcd13ifvqfs0","pricing_plan_id":"cebpf4jnsgd1na2vs0mg"},{"bike_id":"7c38e5fe-83be-4350-b891-723f5765c44d","system_id":"levelo_inurba_marseille","lat":43.24069,"lon":5.37731,"is_reserved":false,"is_disabled":false,"rental_uris":{"android":"levelo://app?vid=7c38e5fe-83be-4350-b891-723f5765c44d","ios":"levelo://app?vid=7c38e5fe-83be-4350-b891-723f5765c44d"},"vehicle_type_id":"4","last_reported":1758615246,"current_range_meters":10800,"station_id":"ce4bhnp2rcd13ifvqgvg","pricing_plan_id":"cebpf4jnsgd1na2vs0mg"},{"bike_id":"8d5a9e5a-2243-417e-9398-58e31878a41d","system_id":"levelo_inurba_marseille","lat":43.246366,"lon":5.431462,"is_reserved":false,"is_disabled":false,"rental_uris":{"android":"levelo://app?vid=8d5a9e5a-2243-417e-9398-58e31878a41d","ios":"levelo://app?vid=8d5a9e5a-2243-417e-9398-58e31878a41d"},"vehicle_type_id":"4","last_reported":1758615246,"current_range_meters":10800,"station_id":"st_d2m6c4gdas8pm72e190g","pricing_plan_id":"cebpf4jnsgd1na2vs0mg"},{"bike_id":"b068394a-dffe-46d7-a813-403ed0bc334a","system_id":"levelo_inurba_marseille","lat":43.2804,"lon":5.36951,"is_reserved":false,"is_disabled":false,"rental_uris":{"android":"levelo://app?vid=b068394a-dffe-46d7-a813-403ed0bc334a","ios":"levelo://app?vid=b068394a-dffe-46d7-a813-403ed0bc334a"},"vehicle_type_id":"4","last_reported":1758615246,"current_range_meters":10000,"station_id":"ce4bha12rcd13ifvqef0","pricing_plan_id":"cebpf4jnsgd1na2vs0mg"},{"bike_id":"6a75a1c3-85b4-4cea-bedf-ea10431ba81e","system_id":"levelo_inurba_marseille","lat":43.30555,"lon":5.36585,"is_reserved":false,"is_disabled":false,"rental_uris":{"android":"levelo://app?vid=6a75a1c3-85b4-4cea-bedf-ea10431ba81e","ios":"levelo://app?vid=6a75a1c3-85b4-4cea-bedf-ea10431ba81e"},"vehicle_type_id":"4","last_reported":1758615246,"current_range_meters":10800,"station_id":"ce4bgs12rcd13ifvqcag","pricing_plan_id":"cebpf4jnsgd1na2vs0mg"},{"bike_id":"dd83bee8-c803-47e8-91dd-afab74068a08","system_id":"levelo_inurba_marseille","lat":43.24067,"lon":5.37766,"is_reserved":false,"is_disabled":false,"rental_uris":{"android":"levelo://app?vid=dd83bee8-c803-47e8-91dd-afab74068a08","ios":"levelo://app?vid=dd83bee8-c803-47e8-91dd-afab74068a08"},"vehicle_type_id":"4","last_reported":1758615246,"current_range_meters":10800,"station_id":"ce4bhnp2rcd13ifvqgvg","pricing_plan_id":"cebpf4jnsgd1na2vs0mg"},{"bike_id":"1a64bb03-8096-447f-83ab-2ae830b955ff","system_id":"levelo_inurba_marseille","lat":43.25492,"lon":5.37647,"is_reserved":false,"is_disabled":false,"rental_uris":{"android":"levelo://app?vid=1a64bb03-8096-447f-83ab-2ae830b955ff","ios":"levelo://app?vid=1a64bb03-8096-447f-83ab-2ae830b955ff"},"vehicle_type_id":"4","last_reported":1758615246,"current_range_meters":10800,"station_id":"ce4bhh12rcd13ifvqff0","pricing_plan_id":"cebpf4jnsgd1na2vs0mg"},{"bike_id":"b0cf2af9-c8f7-4165-98a7-6358a8f914d1","system_id":"levelo_inurba_marseille","lat":43.27065,"lon":5.42277,"is_reserved":false,"is_disabled":false,"rental_uris":{"android":"levelo://app?vid=b0cf2af9-c8f7-4165-98a7-6358a8f914d1","ios":"levelo://app?vid=b0cf2af9-c8f7-4165-98a7-6358a8f914d1"},"vehicle_type_id":"4","last_reported":1758615246,"current_range_meters":11200,"station_id":"ce4bhk92rcd13ifvqgb0","pricing_plan_id":"cebpf4jnsgd1na2vs0mg"},{"bike_id":"eb14e0c2-3194-45ec-8471-2fc50af87dad","system_id":"levelo_inurba_marseille","lat":43.22941,"lon":5.35382,"is_reserved":false,"is_disabled":false,"rental_uris":{"android":"levelo://app?vid=eb14e0c2-3194-45ec-8471-2fc50af87dad","ios":"levelo://app?vid=eb14e0c2-3194-45ec-8471-2fc50af87dad"},"vehicle_type_id":"4","last_reported":1758615246,"current_range_meters":11200,"station_id":"cpo3532slgdg3j2ikp40","pricing_plan_id":"cebpf4jnsgd1na2vs0mg"},{"bike_id":"d6892ced-68b2-4c0a-8b78-e0080257d6fa","system_id":"levelo_inurba_marseille","lat":43.31205,"lon":5.36861,"is_reserved":false,"is_disabled":true,"rental_uris":{"android":"levelo://app?vid=d6892ced-68b2-4c0a-8b78-e0080257d6fa","ios":"levelo://app?vid=d6892ced-68b2-4c0a-8b78-e0080257d6fa"},"vehicle_type_id":"4","last_reported":1758615246,"current_range_meters":11200,"station_id":"ce4bgl92rcd13ifvqbq0","pricing_plan_id":"cebpf4jnsgd1na2vs0mg"},{"bike_id":"26c4aa5e-f212-4ff4-96cd-cb76adfbcd3f","system_id":"levelo_inurba_marseille","lat":43.30949,"lon":5.39027,"is_reserved":false,"is_disabled":false,"rental_uris":{"android":"levelo://app?vid=26c4aa5e-f212-4ff4-96cd-cb76adfbcd3f","ios":"levelo://app?vid=26c4aa5e-f212-4ff4-96cd-cb76adfbcd3f"},"vehicle_type_id":"4","last_reported":1758615246,"current_range_meters":11200,"station_id":"ce4bgup2rcd13ifvqco0","pricing_plan_id":"cebpf4jnsgd1na2vs0mg"},{"bike_id":"1efddf8d-578f-4e4c-8c3f-e3a8bd592ba4","system_id":"levelo_inurba_marseille","lat":43.29574,"lon":5.37409,"is_reserved":false,"is_disabled":false,"rental_uris":{"android":"levelo://app?vid=1efddf8d-578f-4e4c-8c3f-e3a8bd592ba4","ios":"levelo://app?vid=1efddf8d-578f-4e4c-8c3f-e3a8bd592ba4"},"vehicle_type_id":"4","last_reported":1758615246,"current_range_meters":11200,"station_id":"","pricing_plan_id":"cebpf4jnsgd1na2vs0mg"},{"bike_id":"ef75d15d-c28a-4fe7-853a-ed887e41d629","system_id":"levelo_inurba_marseille","lat":43.21755,"lon":5.34597,"is_reserved":false,"is_disabled":false,"rental_uris":{"android":"levelo://app?vid=ef75d15d-c28a-4fe7-853a-ed887e41d629","ios":"levelo://app?vid=ef75d15d-c28a-4fe7-853a-ed887e41d629"},"vehicle_type_id":"4","last_reported":1758615246,"current_range_meters":11200,"station_id":"st_cvj6r9ubvosntc0bgbag","pricing_plan_id":"cebpf4jnsgd1na2vs0mg"},{"bike_id":"950521fc-7bb0-460c-8673-46223633df4e","system_id":"levelo_inurba_marseille","lat":43.24183,"lon":5.39729,"is_reserved":false,"is_disabled":false,"rental_uris":{"android":"levelo://app?vid=950521fc-7bb0-460c-8673-46223633df4e","ios":"levelo://app?vid=950521fc-7bb0-460c-8673-46223633df4e"},"vehicle_type_id":"4","last_reported":1758615246,"current_range_meters":11200,"station_id":"ce4bhn12rcd13ifvqgpg","pricing_plan_id":"cebpf4jnsgd1na2vs0mg"},{"bike_id":"94d430e6-52b3-4d21-80c9-c6dd4519a8fb","system_id":"levelo_inurba_marseille","lat":43.317742,"lon":5.382902,"is_reserved":false,"is_disabled":false,"rental_uris":{"android":"levelo://app?vid=94d430e6-52b3-4d21-80c9-c6dd4519a8fb","ios":"levelo://app?vid=94d430e6-52b3-4d21-80c9-c6dd4519a8fb"},"vehicle_type_id":"4","last_reported":1758615246,"current_range_meters":11200,"station_id":"","pricing_plan_id":"cebpf4jnsgd1na2vs0mg"},{"bike_id":"4bd99102-57b6-4acf-a1f9-d448906c94db","system_id":"levelo_inurba_marseille","lat":43.24163,"lon":5.36405,"is_reserved":false,"is_disabled":false,"rental_uris":{"android":"levelo://app?vid=4bd99102-57b6-4acf-a1f9-d448906c94db","ios":"levelo://app?vid=4bd99102-57b6-4acf-a1f9-d448906c94db"},"vehicle_type_id":"4","last_reported":1758615246,"current_range_meters":11200,"station_id":"cpo36qri1sfpv3e86is0","pricing_plan_id":"cebpf4jnsgd1na2vs0mg"},{"bike_id":"f14f0085-2f3a-4298-b969-55075656919b","system_id":"levelo_inurba_marseille","lat":43.30464,"lon":5.379115,"is_reserved":false,"is_disabled":false,"rental_uris":{"android":"levelo://app?vid=f14f0085-2f3a-4298-b969-55075656919b","ios":"levelo://app?vid=f14f0085-2f3a-4298-b969-55075656919b"},"vehicle_type_id":"4","last_reported":1758615246,"current_range_meters":11200,"station_id":"ce4bgup2rcd13ifvqcn0","pricing_plan_id":"cebpf4jnsgd1na2vs0mg"},{"bike_id":"3f83ed9f-4667-4663-946c-86cb861e5a4a","system_id":"levelo_inurba_marseille","lat":43.276732,"lon":5.388793,"is_reserved":false,"is_disabled":false,"rental_uris":{"android":"levelo://app?vid=3f83ed9f-4667-4663-946c-86cb861e5a4a","ios":"levelo://app?vid=3f83ed9f-4667-4663-946c-86cb861e5a4a"},"vehicle_type_id":"4","last_reported":1758615246,"current_range_meters":11200,"station_id":"ce4bhi12rcd13ifvqfo0","pricing_plan_id":"cebpf4jnsgd1na2vs0mg"},{"bike_id":"e928cb80-192e-403c-981a-31571abb9cb0","system_id":"levelo_inurba_marseille","lat":43.23185,"lon":5.39993,"is_reserved":false,"is_disabled":true,"rental_uris":{"android":"levelo://app?vid=e928cb80-192e-403c-981a-31571abb9cb0","ios":"levelo://app?vid=e928cb80-192e-403c-981a-31571abb9cb0"},"vehicle_type_id":"4","last_reported":1758615246,"current_range_meters":11200,"station_id":"ce4bhn12rcd13ifvqgqg","pricing_plan_id":"cebpf4jnsgd1na2vs0mg"},{"bike_id":"156ba3ee-2d05-4060-9b3c-44e608592be0","system_id":"levelo_inurba_marseille","lat":43.27988,"lon":5.41669,"is_reserved":false,"is_disabled":true,"rental_uris":{"android":"levelo://app?vid=156ba3ee-2d05-4060-9b3c-44e608592be0","ios":"levelo://app?vid=156ba3ee-2d05-4060-9b3c-44e608592be0"},"vehicle_type_id":"4","last_reported":1758615246,"current_range_meters":11200,"station_id":"ce4bho12rcd13ifvqh1g","pricing_plan_id":"cebpf4jnsgd1na2vs0mg"},{"bike_id":"0c5cb4d4-10f9-4d24-a31a-ec9e49576f88","system_id":"levelo_inurba_marseille","lat":43.34141,"lon":5.4091,"is_reserved":false,"is_disabled":false,"rental_uris":{"android":"levelo://app?vid=0c5cb4d4-10f9-4d24-a31a-ec9e49576f88","ios":"levelo://app?vid=0c5cb4d4-10f9-4d24-a31a-ec9e49576f88"},"vehicle_type_id":"4","last_reported":1758615246,"current_range_meters":11200,"station_id":"ce4bhqh2rcd13ifvqhlg","pricing_plan_id":"cebpf4jnsgd1na2vs0mg"},{"bike_id":"76ddf0ec-5630-4145-87a4-c2dd11d6c324","system_id":"levelo_inurba_marseille","lat":43.33603,"lon":5.41017,"is_reserved":false,"is_disabled":false,"rental_uris":{"android":"levelo://app?vid=76ddf0ec-5630-4145-87a4-c2dd11d6c324","ios":"levelo://app?vid=76ddf0ec-5630-4145-87a4-c2dd11d6c324"},"vehicle_type_id":"4","last_reported":1758615246,"current_range_meters":11600,"station_id":"ce4bhqh2rcd13ifvqhmg","pricing_plan_id":"cebpf4jnsgd1na2vs0mg"},{"bike_id":"179c2da0-9622-4d46-84da-655b5c3140eb","system_id":"levelo_inurba_marseille","lat":43.24808,"lon":5.37448,"is_reserved":false,"is_disabled":false,"rental_uris":{"android":"levelo://app?vid=179c2da0-9622-4d46-84da-655b5c3140eb","ios":"levelo://app?vid=179c2da0-9622-4d46-84da-655b5c3140eb"},"vehicle_type_id":"4","last_reported":1758615246,"current_range_meters":11200,"station_id":"ce4bhgh2rcd13ifvqfb0","pricing_plan_id":"cebpf4jnsgd1na2vs0mg"},{"bike_id":"05ffe9a6-4a01-4566-a6c5-04b47ca5b439","system_id":"levelo_inurba_marseille","lat":43.24058,"lon":5.37769,"is_reserved":false,"is_disabled":false,"rental_uris":{"android":"levelo://app?vid=05ffe9a6-4a01-4566-a6c5-04b47ca5b439","ios":"levelo://app?vid=05ffe9a6-4a01-4566-a6c5-04b47ca5b439"},"vehicle_type_id":"4","last_reported":1758615246,"current_range_meters":11600,"station_id":"ce4bhnp2rcd13ifvqgvg","pricing_plan_id":"cebpf4jnsgd1na2vs0mg"},{"bike_id":"9e7d6631-1c0e-4489-81a5-3e779f770555","system_id":"levelo_inurba_marseille","lat":43.24538,"lon":5.39543,"is_reserved":false,"is_disabled":false,"rental_uris":{"android":"levelo://app?vid=9e7d6631-1c0e-4489-81a5-3e779f770555","ios":"levelo://app?vid=9e7d6631-1c0e-4489-81a5-3e779f770555"},"vehicle_type_id":"4","last_reported":1758615246,"current_range_meters":11600,"station_id":"ce4bhlp2rcd13ifvqgjg","pricing_plan_id":"cebpf4jnsgd1na2vs0mg"},{"bike_id":"959bed30-47d2-4ed6-9ad2-1c97b2140ca1","system_id":"levelo_inurba_marseille","lat":43.29798,"lon":5.40391,"is_reserved":false,"is_disabled":false,"rental_uris":{"android":"levelo://app?vid=959bed30-47d2-4ed6-9ad2-1c97b2140ca1","ios":"levelo://app?vid=959bed30-47d2-4ed6-9ad2-1c97b2140ca1"},"vehicle_type_id":"4","last_reported":1758615246,"current_range_meters":11200,"station_id":"ce4bh112rcd13ifvqd90","pricing_plan_id":"cebpf4jnsgd1na2vs0mg"},{"bike_id":"443760b4-4ede-4666-8804-a655094e3946","system_id":"levelo_inurba_marseille","lat":43.30919,"lon":5.36844,"is_reserved":false,"is_disabled":false,"rental_uris":{"android":"levelo://app?vid=443760b4-4ede-4666-8804-a655094e3946","ios":"levelo://app?vid=443760b4-4ede-4666-8804-a655094e3946"},"vehicle_type_id":"4","last_reported":1758615246,"current_range_meters":12000,"station_id":"ce4bgn92rcd13ifvqbvg","pricing_plan_id":"cebpf4jnsgd1na2vs0mg"},{"bike_id":"0ceafd37-2aa0-4518-a2ed-2ee38ccb4b03","system_id":"levelo_inurba_marseille","lat":43.24084,"lon":5.3776,"is_reserved":false,"is_disabled":false,"rental_uris":{"android":"levelo://app?vid=0ceafd37-2aa0-4518-a2ed-2ee38ccb4b03","ios":"levelo://app?vid=0ceafd37-2aa0-4518-a2ed-2ee38ccb4b03"},"vehicle_type_id":"4","last_reported":1758615246,"current_range_meters":12000,"station_id":"ce4bhnp2rcd13ifvqgvg","pricing_plan_id":"cebpf4jnsgd1na2vs0mg"},{"bike_id":"8d243e83-cc74-44d3-bf18-f20421549672","system_id":"levelo_inurba_marseille","lat":43.28924,"lon":5.3593,"is_reserved":false,"is_disabled":false,"rental_uris":{"android":"levelo://app?vid=8d243e83-cc74-44d3-bf18-f20421549672","ios":"levelo://app?vid=8d243e83-cc74-44d3-bf18-f20421549672"},"vehicle_type_id":"4","last_reported":1758615246,"current_range_meters":12000,"station_id":"","pricing_plan_id":"cebpf4jnsgd1na2vs0mg"},{"bike_id":"3e3ba3cd-76c3-46ee-bff9-2058f4b7ffb5","system_id":"levelo_inurba_marseille","lat":43.231576,"lon":5.437076,"is_reserved":false,"is_disabled":false,"rental_uris":{"android":"levelo://app?vid=3e3ba3cd-76c3-46ee-bff9-2058f4b7ffb5","ios":"levelo://app?vid=3e3ba3cd-76c3-46ee-bff9-2058f4b7ffb5"},"vehicle_type_id":"4","last_reported":1758615246,"current_range_meters":12400,"station_id":"ce4bhmp2rcd13ifvqgog","pricing_plan_id":"cebpf4jnsgd1na2vs0mg"},{"bike_id":"49c500af-f486-4f4a-a798-d3d69187ff2d","system_id":"levelo_inurba_marseille","lat":43.33614,"lon":5.41031,"is_reserved":false,"is_disabled":false,"rental_uris":{"android":"levelo://app?vid=49c500af-f486-4f4a-a798-d3d69187ff2d","ios":"levelo://app?vid=49c500af-f486-4f4a-a798-d3d69187ff2d"},"vehicle_type_id":"4","last_reported":1758615246,"current_range_meters":12400,"station_id":"ce4bhqh2rcd13ifvqhmg","pricing_plan_id":"cebpf4jnsgd1na2vs0mg"},{"bike_id":"fde80fe6-a410-4cd8-97a2-bdd5aec0719f","system_id":"levelo_inurba_marseille","lat":43.30461,"lon":5.37915,"is_reserved":false,"is_disabled":false,"rental_uris":{"android":"levelo://app?vid=fde80fe6-a410-4cd8-97a2-bdd5aec0719f","ios":"levelo://app?vid=fde80fe6-a410-4cd8-97a2-bdd5aec0719f"},"vehicle_type_id":"4","last_reported":1758615246,"current_range_meters":12000,"station_id":"ce4bgup2rcd13ifvqcn0","pricing_plan_id":"cebpf4jnsgd1na2vs0mg"},{"bike_id":"5337dcdc-c6f5-44ae-a466-a1ebe14dfbb3","system_id":"levelo_inurba_marseille","lat":43.24167,"lon":5.36411,"is_reserved":false,"is_disabled":false,"rental_uris":{"android":"levelo://app?vid=5337dcdc-c6f5-44ae-a466-a1ebe14dfbb3","ios":"levelo://app?vid=5337dcdc-c6f5-44ae-a466-a1ebe14dfbb3"},"vehicle_type_id":"4","last_reported":1758615246,"current_range_meters":12400,"station_id":"cpo36qri1sfpv3e86is0","pricing_plan_id":"cebpf4jnsgd1na2vs0mg"},{"bike_id":"51a9c263-d6ee-4c02-8240-84e51c074158","system_id":"levelo_inurba_marseille","lat":43.31712,"lon":5.43704,"is_reserved":false,"is_disabled":false,"rental_uris":{"android":"levelo://app?vid=51a9c263-d6ee-4c02-8240-84e51c074158","ios":"levelo://app?vid=51a9c263-d6ee-4c02-8240-84e51c074158"},"vehicle_type_id":"4","last_reported":1758615246,"current_range_meters":12400,"station_id":"ce4bhp92rcd13ifvqhcg","pricing_plan_id":"cebpf4jnsgd1na2vs0mg"},{"bike_id":"74d5a24c-31a6-4998-8c06-6659dcc917b3","system_id":"levelo_inurba_marseille","lat":43.31682,"lon":5.40473,"is_reserved":false,"is_disabled":false,"rental_uris":{"android":"levelo://app?vid=74d5a24c-31a6-4998-8c06-6659dcc917b3","ios":"levelo://app?vid=74d5a24c-31a6-4998-8c06-6659dcc917b3"},"vehicle_type_id":"4","last_reported":1758615246,"current_range_meters":12400,"station_id":"ce4bh012rcd13ifvqd00","pricing_plan_id":"cebpf4jnsgd1na2vs0mg"},{"bike_id":"84ed6c5f-ee83-4d29-9c03-bc2c90d6c59c","system_id":"levelo_inurba_marseille","lat":43.30528,"lon":5.36712,"is_reserved":false,"is_disabled":false,"rental_uris":{"android":"levelo://app?vid=84ed6c5f-ee83-4d29-9c03-bc2c90d6c59c","ios":"levelo://app?vid=84ed6c5f-ee83-4d29-9c03-bc2c90d6c59c"},"vehicle_type_id":"4","last_reported":1758615246,"current_range_meters":12800,"station_id":"ce4bgrp2rcd13ifvqc9g","pricing_plan_id":"cebpf4jnsgd1na2vs0mg"},{"bike_id":"c6cf202a-f9b1-4c55-b394-d944d9234113","system_id":"levelo_inurba_marseille","lat":43.3248,"lon":5.3656,"is_reserved":false,"is_disabled":false,"rental_uris":{"android":"levelo://app?vid=c6cf202a-f9b1-4c55-b394-d944d9234113","ios":"levelo://app?vid=c6cf202a-f9b1-4c55-b394-d944d9234113"},"vehicle_type_id":"4","last_reported":1758615246,"current_range_meters":12800,"station_id":"ce4bhs12rcd13ifvqhvg","pricing_plan_id":"cebpf4jnsgd1na2vs0mg"},{"bike_id":"a51c1eba-2cde-42a2-bfdf-e10d83bc36a0","system_id":"levelo_inurba_marseille","lat":43.24386,"lon":5.37054,"is_reserved":false,"is_disabled":false,"rental_uris":{"android":"levelo://app?vid=a51c1eba-2cde-42a2-bfdf-e10d83bc36a0","ios":"levelo://app?vid=a51c1eba-2cde-42a2-bfdf-e10d83bc36a0"},"vehicle_type_id":"4","last_reported":1758615246,"current_range_meters":12800,"station_id":"ce4bhhh2rcd13ifvqfk0","pricing_plan_id":"cebpf4jnsgd1na2vs0mg"},{"bike_id":"3849678d-c4df-46f2-b1e1-e10cbd009054","system_id":"levelo_inurba_marseille","lat":43.25114,"lon":5.40315,"is_reserved":false,"is_disabled":false,"rental_uris":{"android":"levelo://app?vid=3849678d-c4df-46f2-b1e1-e10cbd009054","ios":"levelo://app?vid=3849678d-c4df-46f2-b1e1-e10cbd009054"},"vehicle_type_id":"4","last_reported":1758615246,"current_range_meters":12800,"station_id":"ce4bhlh2rcd13ifvqgig","pricing_plan_id":"cebpf4jnsgd1na2vs0mg"},{"bike_id":"afb79e5d-408e-4ac5-94ba-12634eb1377b","system_id":"levelo_inurba_marseille","lat":43.29232,"lon":5.36047,"is_reserved":false,"is_disabled":false,"rental_uris":{"android":"levelo://app?vid=afb79e5d-408e-4ac5-94ba-12634eb1377b","ios":"levelo://app?vid=afb79e5d-408e-4ac5-94ba-12634eb1377b"},"vehicle_type_id":"4","last_reported":1758615246,"current_range_meters":12800,"station_id":"ce4bhbh2rcd13ifvqeqg","pricing_plan_id":"cebpf4jnsgd1na2vs0mg"},{"bike_id":"23a104e0-8f24-4f5d-99b9-13d88742e65c","system_id":"levelo_inurba_marseille","lat":43.26198,"lon":5.37934,"is_reserved":false,"is_disabled":false,"rental_uris":{"android":"levelo://app?vid=23a104e0-8f24-4f5d-99b9-13d88742e65c","ios":"levelo://app?vid=23a104e0-8f24-4f5d-99b9-13d88742e65c"},"vehicle_type_id":"4","last_reported":1758615246,"current_range_meters":13600,"station_id":"ce4bhjp2rcd13ifvqg90","pricing_plan_id":"cebpf4jnsgd1na2vs0mg"},{"bike_id":"ddfb50f5-9d4d-4dc8-9814-65e6ca0416b9","system_id":"levelo_inurba_marseille","lat":43.305973,"lon":5.372282,"is_reserved":false,"is_disabled":false,"rental_uris":{"android":"levelo://app?vid=ddfb50f5-9d4d-4dc8-9814-65e6ca0416b9","ios":"levelo://app?vid=ddfb50f5-9d4d-4dc8-9814-65e6ca0416b9"},"vehicle_type_id":"4","last_reported":1758615246,"current_range_meters":13600,"station_id":"ce4bgqh2rcd13ifvqc4g","pricing_plan_id":"cebpf4jnsgd1na2vs0mg"},{"bike_id":"e2aa3b3d-b912-4d15-bf11-f88c7c49b203","system_id":"levelo_inurba_marseille","lat":43.293726,"lon":5.378764,"is_reserved":false,"is_disabled":false,"rental_uris":{"android":"levelo://app?vid=e2aa3b3d-b912-4d15-bf11-f88c7c49b203","ios":"levelo://app?vid=e2aa3b3d-b912-4d15-bf11-f88c7c49b203"},"vehicle_type_id":"4","last_reported":1758615246,"current_range_meters":13600,"station_id":"ce4bgjh2rcd13ifvqbf0","pricing_plan_id":"cebpf4jnsgd1na2vs0mg"},{"bike_id":"eba01587-aeed-4123-b2ce-9abc98879f91","system_id":"levelo_inurba_marseille","lat":43.27085,"lon":5.42296,"is_reserved":false,"is_disabled":false,"rental_uris":{"android":"levelo://app?vid=eba01587-aeed-4123-b2ce-9abc98879f91","ios":"levelo://app?vid=eba01587-aeed-4123-b2ce-9abc98879f91"},"vehicle_type_id":"4","last_reported":1758615246,"current_range_meters":14000,"station_id":"ce4bhk92rcd13ifvqgb0","pricing_plan_id":"cebpf4jnsgd1na2vs0mg"},{"bike_id":"68b259be-b663-46e6-a023-34585e7624d2","system_id":"levelo_inurba_marseille","lat":43.24165,"lon":5.36393,"is_reserved":false,"is_disabled":false,"rental_uris":{"android":"levelo://app?vid=68b259be-b663-46e6-a023-34585e7624d2","ios":"levelo://app?vid=68b259be-b663-46e6-a023-34585e7624d2"},"vehicle_type_id":"4","last_reported":1758615246,"current_range_meters":14000,"station_id":"cpo36qri1sfpv3e86is0","pricing_plan_id":"cebpf4jnsgd1na2vs0mg"},{"bike_id":"c8a40297-3031-42d7-9046-86d186c76d67","system_id":"levelo_inurba_marseille","lat":43.27509,"lon":5.4239,"is_reserved":false,"is_disabled":false,"rental_uris":{"android":"levelo://app?vid=c8a40297-3031-42d7-9046-86d186c76d67","ios":"levelo://app?vid=c8a40297-3031-42d7-9046-86d186c76d67"},"vehicle_type_id":"4","last_reported":1758615246,"current_range_meters":14000,"station_id":"","pricing_plan_id":"cebpf4jnsgd1na2vs0mg"},{"bike_id":"6d37a9bc-58da-48d0-af29-c0508dfff581","system_id":"levelo_inurba_marseille","lat":43.259317,"lon":5.40915,"is_reserved":false,"is_disabled":false,"rental_uris":{"android":"levelo://app?vid=6d37a9bc-58da-48d0-af29-c0508dfff581","ios":"levelo://app?vid=6d37a9bc-58da-48d0-af29-c0508dfff581"},"vehicle_type_id":"4","last_reported":1758615246,"current_range_meters":14000,"station_id":"ce4bhm92rcd13ifvqglg","pricing_plan_id":"cebpf4jnsgd1na2vs0mg"},{"bike_id":"2a2f1ce0-5eb2-4ab6-a692-64d9649dcb94","system_id":"levelo_inurba_marseille","lat":43.22556,"lon":5.41663,"is_reserved":false,"is_disabled":false,"rental_uris":{"android":"levelo://app?vid=2a2f1ce0-5eb2-4ab6-a692-64d9649dcb94","ios":"levelo://app?vid=2a2f1ce0-5eb2-4ab6-a692-64d9649dcb94"},"vehicle_type_id":"4","last_reported":1758615246,"current_range_meters":14000,"station_id":"st_d2o4gvlbi1j2169b742g","pricing_plan_id":"cebpf4jnsgd1na2vs0mg"},{"bike_id":"3a2f0200-19f6-4563-8356-bbb5c698396a","system_id":"levelo_inurba_marseille","lat":43.21751,"lon":5.34599,"is_reserved":false,"is_disabled":false,"rental_uris":{"android":"levelo://app?vid=3a2f0200-19f6-4563-8356-bbb5c698396a","ios":"levelo://app?vid=3a2f0200-19f6-4563-8356-bbb5c698396a"},"vehicle_type_id":"4","last_reported":1758615246,"current_range_meters":14000,"station_id":"st_cvj6r9ubvosntc0bgbag","pricing_plan_id":"cebpf4jnsgd1na2vs0mg"},{"bike_id":"a9e8148d-f40f-4a94-8904-f2a4c028bab5","system_id":"levelo_inurba_marseille","lat":43.29501,"lon":5.37511,"is_reserved":false,"is_disabled":false,"rental_uris":{"android":"levelo://app?vid=a9e8148d-f40f-4a94-8904-f2a4c028bab5","ios":"levelo://app?vid=a9e8148d-f40f-4a94-8904-f2a4c028bab5"},"vehicle_type_id":"4","last_reported":1758615246,"current_range_meters":13600,"station_id":"ce4bgkp2rcd13ifvqbmg","pricing_plan_id":"cebpf4jnsgd1na2vs0mg"},{"bike_id":"358ffd8f-ecf7-4e5e-a5d3-f96c86573e30","system_id":"levelo_inurba_marseille","lat":43.291732,"lon":5.37167,"is_reserved":false,"is_disabled":false,"rental_uris":{"android":"levelo://app?vid=358ffd8f-ecf7-4e5e-a5d3-f96c86573e30","ios":"levelo://app?vid=358ffd8f-ecf7-4e5e-a5d3-f96c86573e30"},"vehicle_type_id":"4","last_reported":1758615246,"current_range_meters":14000,"station_id":"ce4bha92rcd13ifvqeh0","pricing_plan_id":"cebpf4jnsgd1na2vs0mg"},{"bike_id":"4d207a2b-f95a-4992-97ed-0b1a2979fd2c","system_id":"levelo_inurba_marseille","lat":43.30468,"lon":5.37913,"is_reserved":false,"is_disabled":false,"rental_uris":{"android":"levelo://app?vid=4d207a2b-f95a-4992-97ed-0b1a2979fd2c","ios":"levelo://app?vid=4d207a2b-f95a-4992-97ed-0b1a2979fd2c"},"vehicle_type_id":"4","last_reported":1758615246,"current_range_meters":14000,"station_id":"ce4bgup2rcd13ifvqcn0","pricing_plan_id":"cebpf4jnsgd1na2vs0mg"},{"bike_id":"4620b491-f668-485e-9c4b-8506a6d8453e","system_id":"levelo_inurba_marseille","lat":43.24078,"lon":5.37758,"is_reserved":false,"is_disabled":false,"rental_uris":{"android":"levelo://app?vid=4620b491-f668-485e-9c4b-8506a6d8453e","ios":"levelo://app?vid=4620b491-f668-485e-9c4b-8506a6d8453e"},"vehicle_type_id":"4","last_reported":1758615246,"current_range_meters":14400,"station_id":"ce4bhnp2rcd13ifvqgvg","pricing_plan_id":"cebpf4jnsgd1na2vs0mg"},{"bike_id":"36f59c8d-fcf6-4ab2-8f57-cf61bb820dbb","system_id":"levelo_inurba_marseille","lat":43.25931,"lon":5.40877,"is_reserved":false,"is_disabled":false,"rental_uris":{"android":"levelo://app?vid=36f59c8d-fcf6-4ab2-8f57-cf61bb820dbb","ios":"levelo://app?vid=36f59c8d-fcf6-4ab2-8f57-cf61bb820dbb"},"vehicle_type_id":"4","last_reported":1758615246,"current_range_meters":14400,"station_id":"ce4bhm92rcd13ifvqglg","pricing_plan_id":"cebpf4jnsgd1na2vs0mg"},{"bike_id":"dc197fdc-095c-430c-a704-d92f3afd312b","system_id":"levelo_inurba_marseille","lat":43.30175,"lon":5.36612,"is_reserved":false,"is_disabled":false,"rental_uris":{"android":"levelo://app?vid=dc197fdc-095c-430c-a704-d92f3afd312b","ios":"levelo://app?vid=dc197fdc-095c-430c-a704-d92f3afd312b"},"vehicle_type_id":"4","last_reported":1758615246,"current_range_meters":14000,"station_id":"ce4bgrh2rcd13ifvqc8g","pricing_plan_id":"cebpf4jnsgd1na2vs0mg"},{"bike_id":"0d93d80f-23fc-4b4f-918d-28fde704208b","system_id":"levelo_inurba_marseille","lat":43.241662,"lon":5.36422,"is_reserved":false,"is_disabled":false,"rental_uris":{"android":"levelo://app?vid=0d93d80f-23fc-4b4f-918d-28fde704208b","ios":"levelo://app?vid=0d93d80f-23fc-4b4f-918d-28fde704208b"},"vehicle_type_id":"4","last_reported":1758615246,"current_range_meters":14400,"station_id":"cpo36qri1sfpv3e86is0","pricing_plan_id":"cebpf4jnsgd1na2vs0mg"},{"bike_id":"5b56ae56-3f83-4f3a-bf98-57685dc316b9","system_id":"levelo_inurba_marseille","lat":43.324788,"lon":5.365573,"is_reserved":false,"is_disabled":false,"rental_uris":{"android":"levelo://app?vid=5b56ae56-3f83-4f3a-bf98-57685dc316b9","ios":"levelo://app?vid=5b56ae56-3f83-4f3a-bf98-57685dc316b9"},"vehicle_type_id":"4","last_reported":1758615246,"current_range_meters":14400,"station_id":"ce4bhs12rcd13ifvqhvg","pricing_plan_id":"cebpf4jnsgd1na2vs0mg"},{"bike_id":"2b67db15-7655-47ef-9970-1458dc27236e","system_id":"levelo_inurba_marseille","lat":43.27302,"lon":5.39067,"is_reserved":false,"is_disabled":false,"rental_uris":{"android":"levelo://app?vid=2b67db15-7655-47ef-9970-1458dc27236e","ios":"levelo://app?vid=2b67db15-7655-47ef-9970-1458dc27236e"},"vehicle_type_id":"4","last_reported":1758615246,"current_range_meters":14400,"station_id":"ce4bhgp2rcd13ifvqfe0","pricing_plan_id":"cebpf4jnsgd1na2vs0mg"},{"bike_id":"30bb83fe-1759-4439-94c7-873da2c2a5e5","system_id":"levelo_inurba_marseille","lat":43.23141,"lon":5.43726,"is_reserved":false,"is_disabled":false,"rental_uris":{"android":"levelo://app?vid=30bb83fe-1759-4439-94c7-873da2c2a5e5","ios":"levelo://app?vid=30bb83fe-1759-4439-94c7-873da2c2a5e5"},"vehicle_type_id":"4","last_reported":1758615246,"current_range_meters":14400,"station_id":"ce4bhmp2rcd13ifvqgog","pricing_plan_id":"cebpf4jnsgd1na2vs0mg"},{"bike_id":"fc1f83dd-d545-44aa-9d9a-0e874d5785f5","system_id":"levelo_inurba_marseille","lat":43.26551,"lon":5.37287,"is_reserved":false,"is_disabled":false,"rental_uris":{"android":"levelo://app?vid=fc1f83dd-d545-44aa-9d9a-0e874d5785f5","ios":"levelo://app?vid=fc1f83dd-d545-44aa-9d9a-0e874d5785f5"},"vehicle_type_id":"4","last_reported":1758615246,"current_range_meters":14400,"station_id":"","pricing_plan_id":"cebpf4jnsgd1na2vs0mg"},{"bike_id":"94d9d4ec-1bba-4f57-b944-dd1f823fcaeb","system_id":"levelo_inurba_marseille","lat":43.290414,"lon":5.399728,"is_reserved":false,"is_disabled":false,"rental_uris":{"android":"levelo://app?vid=94d9d4ec-1bba-4f57-b944-dd1f823fcaeb","ios":"levelo://app?vid=94d9d4ec-1bba-4f57-b944-dd1f823fcaeb"},"vehicle_type_id":"4","last_reported":1758615246,"current_range_meters":14400,"station_id":"ce4bh392rcd13ifvqdm0","pricing_plan_id":"cebpf4jnsgd1na2vs0mg"},{"bike_id":"723cb045-22d5-41e7-9e37-726f3eb8c03f","system_id":"levelo_inurba_marseille","lat":43.3014,"lon":5.37428,"is_reserved":false,"is_disabled":false,"rental_uris":{"android":"levelo://app?vid=723cb045-22d5-41e7-9e37-726f3eb8c03f","ios":"levelo://app?vid=723cb045-22d5-41e7-9e37-726f3eb8c03f"},"vehicle_type_id":"4","last_reported":1758615246,"current_range_meters":14800,"station_id":"ce4bgs92rcd13ifvqcc0","pricing_plan_id":"cebpf4jnsgd1na2vs0mg"},{"bike_id":"5923b342-719e-4cbf-b408-19b6a9d906d5","system_id":"levelo_inurba_marseille","lat":43.24998,"lon":5.38922,"is_reserved":false,"is_disabled":false,"rental_uris":{"android":"levelo://app?vid=5923b342-719e-4cbf-b408-19b6a9d906d5","ios":"levelo://app?vid=5923b342-719e-4cbf-b408-19b6a9d906d5"},"vehicle_type_id":"4","last_reported":1758615246,"current_range_meters":14800,"station_id":"ce4bhgp2rcd13ifvqfd0","pricing_plan_id":"cebpf4jnsgd1na2vs0mg"},{"bike_id":"2db17ebf-30c0-4484-b4df-5e514cd2afe3","system_id":"levelo_inurba_marseille","lat":43.23958,"lon":5.36629,"is_reserved":false,"is_disabled":false,"rental_uris":{"android":"levelo://app?vid=2db17ebf-30c0-4484-b4df-5e514cd2afe3","ios":"levelo://app?vid=2db17ebf-30c0-4484-b4df-5e514cd2afe3"},"vehicle_type_id":"4","last_reported":1758615246,"current_range_meters":14800,"station_id":"ce4bhi12rcd13ifvqfp0","pricing_plan_id":"cebpf4jnsgd1na2vs0mg"},{"bike_id":"5b1a36c8-304b-48bf-aa9d-28113bdf9ed6","system_id":"levelo_inurba_marseille","lat":43.3037,"lon":5.42483,"is_reserved":false,"is_disabled":false,"rental_uris":{"android":"levelo://app?vid=5b1a36c8-304b-48bf-aa9d-28113bdf9ed6","ios":"levelo://app?vid=5b1a36c8-304b-48bf-aa9d-28113bdf9ed6"},"vehicle_type_id":"4","last_reported":1758615246,"current_range_meters":14800,"station_id":"ce4bhoh2rcd13ifvqh6g","pricing_plan_id":"cebpf4jnsgd1na2vs0mg"},{"bike_id":"dbda0f9b-f10d-4368-94b9-da813112fe99","system_id":"levelo_inurba_marseille","lat":43.33612,"lon":5.4103,"is_reserved":false,"is_disabled":false,"rental_uris":{"android":"levelo://app?vid=dbda0f9b-f10d-4368-94b9-da813112fe99","ios":"levelo://app?vid=dbda0f9b-f10d-4368-94b9-da813112fe99"},"vehicle_type_id":"4","last_reported":1758615246,"current_range_meters":14800,"station_id":"ce4bhqh2rcd13ifvqhmg","pricing_plan_id":"cebpf4jnsgd1na2vs0mg"},{"bike_id":"e19dc2ef-7663-4a34-9840-315ac2ee5776","system_id":"levelo_inurba_marseille","lat":43.32497,"lon":5.36492,"is_reserved":false,"is_disabled":false,"rental_uris":{"android":"levelo://app?vid=e19dc2ef-7663-4a34-9840-315ac2ee5776","ios":"levelo://app?vid=e19dc2ef-7663-4a34-9840-315ac2ee5776"},"vehicle_type_id":"4","last_reported":1758615246,"current_range_meters":14800,"station_id":"ce4bhs12rcd13ifvqhvg","pricing_plan_id":"cebpf4jnsgd1na2vs0mg"},{"bike_id":"7c0482c3-9253-4d1b-b4f3-be55cdb7721d","system_id":"levelo_inurba_marseille","lat":43.33757,"lon":5.37466,"is_reserved":false,"is_disabled":false,"rental_uris":{"android":"levelo://app?vid=7c0482c3-9253-4d1b-b4f3-be55cdb7721d","ios":"levelo://app?vid=7c0482c3-9253-4d1b-b4f3-be55cdb7721d"},"vehicle_type_id":"4","last_reported":1758615246,"current_range_meters":15200,"station_id":"","pricing_plan_id":"cebpf4jnsgd1na2vs0mg"},{"bike_id":"ed883389-1672-49b0-a5c4-8def0ee0fc42","system_id":"levelo_inurba_marseille","lat":43.27489,"lon":5.4246,"is_reserved":false,"is_disabled":false,"rental_uris":{"android":"levelo://app?vid=ed883389-1672-49b0-a5c4-8def0ee0fc42","ios":"levelo://app?vid=ed883389-1672-49b0-a5c4-8def0ee0fc42"},"vehicle_type_id":"4","last_reported":1758615246,"current_range_meters":15200,"station_id":"ce4bhn92rcd13ifvqgrg","pricing_plan_id":"cebpf4jnsgd1na2vs0mg"},{"bike_id":"6ac17a81-0487-4557-9f83-8f554f6e083e","system_id":"levelo_inurba_marseille","lat":43.32017,"lon":5.37166,"is_reserved":false,"is_disabled":false,"rental_uris":{"android":"levelo://app?vid=6ac17a81-0487-4557-9f83-8f554f6e083e","ios":"levelo://app?vid=6ac17a81-0487-4557-9f83-8f554f6e083e"},"vehicle_type_id":"4","last_reported":1758615246,"current_range_meters":15200,"station_id":"","pricing_plan_id":"cebpf4jnsgd1na2vs0mg"},{"bike_id":"f80f318c-9dd2-4c2c-b730-86c451cb981c","system_id":"levelo_inurba_marseille","lat":43.3014,"lon":5.37414,"is_reserved":false,"is_disabled":false,"rental_uris":{"android":"levelo://app?vid=f80f318c-9dd2-4c2c-b730-86c451cb981c","ios":"levelo://app?vid=f80f318c-9dd2-4c2c-b730-86c451cb981c"},"vehicle_type_id":"4","last_reported":1758615246,"current_range_meters":15200,"station_id":"ce4bgs92rcd13ifvqcc0","pricing_plan_id":"cebpf4jnsgd1na2vs0mg"},{"bike_id":"2d4e9e1d-14dc-44bb-8381-dfef8e19a136","system_id":"levelo_inurba_marseille","lat":43.25102,"lon":5.40324,"is_reserved":false,"is_disabled":true,"rental_uris":{"android":"levelo://app?vid=2d4e9e1d-14dc-44bb-8381-dfef8e19a136","ios":"levelo://app?vid=2d4e9e1d-14dc-44bb-8381-dfef8e19a136"},"vehicle_type_id":"4","last_reported":1758615246,"current_range_meters":15200,"station_id":"ce4bhlh2rcd13ifvqgig","pricing_plan_id":"cebpf4jnsgd1na2vs0mg"},{"bike_id":"a1e06df0-87b9-409a-9b1e-f1bc83ecc770","system_id":"levelo_inurba_marseille","lat":43.28113,"lon":5.4048,"is_reserved":false,"is_disabled":false,"rental_uris":{"android":"levelo://app?vid=a1e06df0-87b9-409a-9b1e-f1bc83ecc770","ios":"levelo://app?vid=a1e06df0-87b9-409a-9b1e-f1bc83ecc770"},"vehicle_type_id":"4","last_reported":1758615246,"current_range_meters":15200,"station_id":"","pricing_plan_id":"cebpf4jnsgd1na2vs0mg"},{"bike_id":"43d57fd4-047e-4ac8-97e5-ec9b96239472","system_id":"levelo_inurba_marseille","lat":43.33231,"lon":5.39821,"is_reserved":false,"is_disabled":false,"rental_uris":{"android":"levelo://app?vid=43d57fd4-047e-4ac8-97e5-ec9b96239472","ios":"levelo://app?vid=43d57fd4-047e-4ac8-97e5-ec9b96239472"},"vehicle_type_id":"4","last_reported":1758615246,"current_range_meters":15200,"station_id":"","pricing_plan_id":"cebpf4jnsgd1na2vs0mg"},{"bike_id":"63974245-7963-411e-90b4-62ad8fe49585","system_id":"levelo_inurba_marseille","lat":43.25937,"lon":5.4091,"is_reserved":false,"is_disabled":false,"rental_uris":{"android":"levelo://app?vid=63974245-7963-411e-90b4-62ad8fe49585","ios":"levelo://app?vid=63974245-7963-411e-90b4-62ad8fe49585"},"vehicle_type_id":"4","last_reported":1758615246,"current_range_meters":16000,"station_id":"ce4bhm92rcd13ifvqglg","pricing_plan_id":"cebpf4jnsgd1na2vs0mg"},{"bike_id":"b0b4631e-3fe3-47ae-a1f2-5862ae6a4392","system_id":"levelo_inurba_marseille","lat":43.30246,"lon":5.40056,"is_reserved":false,"is_disabled":true,"rental_uris":{"android":"levelo://app?vid=b0b4631e-3fe3-47ae-a1f2-5862ae6a4392","ios":"levelo://app?vid=b0b4631e-3fe3-47ae-a1f2-5862ae6a4392"},"vehicle_type_id":"4","last_reported":1758615246,"current_range_meters":16000,"station_id":"ce4bgvh2rcd13ifvqcs0","pricing_plan_id":"cebpf4jnsgd1na2vs0mg"},{"bike_id":"06a24bce-028d-4b4a-b4a3-d45296145db5","system_id":"levelo_inurba_marseille","lat":43.28425,"lon":5.34991,"is_reserved":false,"is_disabled":true,"rental_uris":{"android":"levelo://app?vid=06a24bce-028d-4b4a-b4a3-d45296145db5","ios":"levelo://app?vid=06a24bce-028d-4b4a-b4a3-d45296145db5"},"vehicle_type_id":"4","last_reported":1758615246,"current_range_meters":16000,"station_id":"ce4bhch2rcd13ifvqeug","pricing_plan_id":"cebpf4jnsgd1na2vs0mg"},{"bike_id":"8ec75b03-7872-4f1a-b0a8-f1f6268f3e53","system_id":"levelo_inurba_marseille","lat":43.33596,"lon":5.41007,"is_reserved":false,"is_disabled":false,"rental_uris":{"android":"levelo://app?vid=8ec75b03-7872-4f1a-b0a8-f1f6268f3e53","ios":"levelo://app?vid=8ec75b03-7872-4f1a-b0a8-f1f6268f3e53"},"vehicle_type_id":"4","last_reported":1758615246,"current_range_meters":16000,"station_id":"ce4bhqh2rcd13ifvqhmg","pricing_plan_id":"cebpf4jnsgd1na2vs0mg"},{"bike_id":"1964a7c4-f341-4518-b3f3-4cff78a650f1","system_id":"levelo_inurba_marseille","lat":43.324829,"lon":5.365646,"is_reserved":false,"is_disabled":false,"rental_uris":{"android":"levelo://app?vid=1964a7c4-f341-4518-b3f3-4cff78a650f1","ios":"levelo://app?vid=1964a7c4-f341-4518-b3f3-4cff78a650f1"},"vehicle_type_id":"4","last_reported":1758615246,"current_range_meters":16000,"station_id":"ce4bhs12rcd13ifvqhvg","pricing_plan_id":"cebpf4jnsgd1na2vs0mg"},{"bike_id":"9d56f894-604b-49ac-b458-16330ec8d3aa","system_id":"levelo_inurba_marseille","lat":43.31358,"lon":5.38479,"is_reserved":false,"is_disabled":false,"rental_uris":{"android":"levelo://app?vid=9d56f894-604b-49ac-b458-16330ec8d3aa","ios":"levelo://app?vid=9d56f894-604b-49ac-b458-16330ec8d3aa"},"vehicle_type_id":"4","last_reported":1758615246,"current_range_meters":16000,"station_id":"ce4bgt92rcd13ifvqcf0","pricing_plan_id":"cebpf4jnsgd1na2vs0mg"},{"bike_id":"a91749b4-aaae-4e4f-8268-4431e262dabf","system_id":"levelo_inurba_marseille","lat":43.24176,"lon":5.39729,"is_reserved":false,"is_disabled":false,"rental_uris":{"android":"levelo://app?vid=a91749b4-aaae-4e4f-8268-4431e262dabf","ios":"levelo://app?vid=a91749b4-aaae-4e4f-8268-4431e262dabf"},"vehicle_type_id":"4","last_reported":1758615246,"current_range_meters":16400,"station_id":"ce4bhn12rcd13ifvqgpg","pricing_plan_id":"cebpf4jnsgd1na2vs0mg"},{"bike_id":"adc9b767-fa5a-487c-b17d-fb3c376c3f08","system_id":"levelo_inurba_marseille","lat":43.313462,"lon":5.38508,"is_reserved":false,"is_disabled":false,"rental_uris":{"android":"levelo://app?vid=adc9b767-fa5a-487c-b17d-fb3c376c3f08","ios":"levelo://app?vid=adc9b767-fa5a-487c-b17d-fb3c376c3f08"},"vehicle_type_id":"4","last_reported":1758615246,"current_range_meters":16400,"station_id":"","pricing_plan_id":"cebpf4jnsgd1na2vs0mg"},{"bike_id":"8f63bb28-daf3-434a-b520-4ffc9e66dc1c","system_id":"levelo_inurba_marseille","lat":43.25573,"lon":5.41203,"is_reserved":false,"is_disabled":false,"rental_uris":{"android":"levelo://app?vid=8f63bb28-daf3-434a-b520-4ffc9e66dc1c","ios":"levelo://app?vid=8f63bb28-daf3-434a-b520-4ffc9e66dc1c"},"vehicle_type_id":"4","last_reported":1758615246,"current_range_meters":16400,"station_id":"","pricing_plan_id":"cebpf4jnsgd1na2vs0mg"},{"bike_id":"a57ec678-3f9e-4769-a06b-b0e36f8205fe","system_id":"levelo_inurba_marseille","lat":43.23182,"lon":5.40003,"is_reserved":false,"is_disabled":false,"rental_uris":{"android":"levelo://app?vid=a57ec678-3f9e-4769-a06b-b0e36f8205fe","ios":"levelo://app?vid=a57ec678-3f9e-4769-a06b-b0e36f8205fe"},"vehicle_type_id":"4","last_reported":1758615246,"current_range_meters":16400,"station_id":"ce4bhn12rcd13ifvqgqg","pricing_plan_id":"cebpf4jnsgd1na2vs0mg"},{"bike_id":"487ff905-c3d9-46a9-b748-757208ea915d","system_id":"levelo_inurba_marseille","lat":43.25913,"lon":5.40888,"is_reserved":false,"is_disabled":false,"rental_uris":{"android":"levelo://app?vid=487ff905-c3d9-46a9-b748-757208ea915d","ios":"levelo://app?vid=487ff905-c3d9-46a9-b748-757208ea915d"},"vehicle_type_id":"4","last_reported":1758615246,"current_range_meters":16400,"station_id":"ce4bhm92rcd13ifvqglg","pricing_plan_id":"cebpf4jnsgd1na2vs0mg"},{"bike_id":"e9638fde-8983-417b-8ae5-bdb795e2ca9c","system_id":"levelo_inurba_marseille","lat":43.31321,"lon":5.39698,"is_reserved":false,"is_disabled":false,"rental_uris":{"android":"levelo://app?vid=e9638fde-8983-417b-8ae5-bdb795e2ca9c","ios":"levelo://app?vid=e9638fde-8983-417b-8ae5-bdb795e2ca9c"},"vehicle_type_id":"4","last_reported":1758615246,"current_range_meters":16000,"station_id":"ce4bgvp2rcd13ifvqcu0","pricing_plan_id":"cebpf4jnsgd1na2vs0mg"},{"bike_id":"9bfad9f8-d51a-4453-9f16-44d0f30b6792","system_id":"levelo_inurba_marseille","lat":43.25932,"lon":5.40886,"is_reserved":false,"is_disabled":false,"rental_uris":{"android":"levelo://app?vid=9bfad9f8-d51a-4453-9f16-44d0f30b6792","ios":"levelo://app?vid=9bfad9f8-d51a-4453-9f16-44d0f30b6792"},"vehicle_type_id":"4","last_reported":1758615246,"current_range_meters":16400,"station_id":"ce4bhm92rcd13ifvqglg","pricing_plan_id":"cebpf4jnsgd1na2vs0mg"},{"bike_id":"40c2e43a-5bdf-4547-8ec8-e597e1f26a1d","system_id":"levelo_inurba_marseille","lat":43.24079,"lon":5.37756,"is_reserved":false,"is_disabled":false,"rental_uris":{"android":"levelo://app?vid=40c2e43a-5bdf-4547-8ec8-e597e1f26a1d","ios":"levelo://app?vid=40c2e43a-5bdf-4547-8ec8-e597e1f26a1d"},"vehicle_type_id":"4","last_reported":1758615246,"current_range_meters":16400,"station_id":"ce4bhnp2rcd13ifvqgvg","pricing_plan_id":"cebpf4jnsgd1na2vs0mg"},{"bike_id":"fba19968-2566-4703-a008-8eddd0622987","system_id":"levelo_inurba_marseille","lat":43.32476,"lon":5.36562,"is_reserved":false,"is_disabled":false,"rental_uris":{"android":"levelo://app?vid=fba19968-2566-4703-a008-8eddd0622987","ios":"levelo://app?vid=fba19968-2566-4703-a008-8eddd0622987"},"vehicle_type_id":"4","last_reported":1758615246,"current_range_meters":16400,"station_id":"ce4bhs12rcd13ifvqhvg","pricing_plan_id":"cebpf4jnsgd1na2vs0mg"},{"bike_id":"4cda0f58-582d-4211-8845-5819bc5d15b0","system_id":"levelo_inurba_marseille","lat":43.2466,"lon":5.38165,"is_reserved":false,"is_disabled":false,"rental_uris":{"android":"levelo://app?vid=4cda0f58-582d-4211-8845-5819bc5d15b0","ios":"levelo://app?vid=4cda0f58-582d-4211-8845-5819bc5d15b0"},"vehicle_type_id":"4","last_reported":1758615246,"current_range_meters":16400,"station_id":"ce4bhih2rcd13ifvqfr0","pricing_plan_id":"cebpf4jnsgd1na2vs0mg"},{"bike_id":"47fe8ecd-0327-4d83-b8c0-ab7264c95b0b","system_id":"levelo_inurba_marseille","lat":43.245466,"lon":5.395183,"is_reserved":false,"is_disabled":false,"rental_uris":{"android":"levelo://app?vid=47fe8ecd-0327-4d83-b8c0-ab7264c95b0b","ios":"levelo://app?vid=47fe8ecd-0327-4d83-b8c0-ab7264c95b0b"},"vehicle_type_id":"4","last_reported":1758615246,"current_range_meters":16800,"station_id":"ce4bhlp2rcd13ifvqgjg","pricing_plan_id":"cebpf4jnsgd1na2vs0mg"},{"bike_id":"2a52b0bb-783a-489f-a7b9-793ba892f121","system_id":"levelo_inurba_marseille","lat":43.25343,"lon":5.42177,"is_reserved":false,"is_disabled":false,"rental_uris":{"android":"levelo://app?vid=2a52b0bb-783a-489f-a7b9-793ba892f121","ios":"levelo://app?vid=2a52b0bb-783a-489f-a7b9-793ba892f121"},"vehicle_type_id":"4","last_reported":1758615246,"current_range_meters":16800,"station_id":"st_d2m65c5bi1j21697t3ng","pricing_plan_id":"cebpf4jnsgd1na2vs0mg"},{"bike_id":"dddca5ef-4a33-499b-936a-6d8e6136a417","system_id":"levelo_inurba_marseille","lat":43.22931,"lon":5.35383,"is_reserved":false,"is_disabled":false,"rental_uris":{"android":"levelo://app?vid=dddca5ef-4a33-499b-936a-6d8e6136a417","ios":"levelo://app?vid=dddca5ef-4a33-499b-936a-6d8e6136a417"},"vehicle_type_id":"4","last_reported":1758615246,"current_range_meters":16800,"station_id":"cpo3532slgdg3j2ikp40","pricing_plan_id":"cebpf4jnsgd1na2vs0mg"},{"bike_id":"48aa74d7-4d44-41fb-87de-62544294d64a","system_id":"levelo_inurba_marseille","lat":43.24657,"lon":5.38851,"is_reserved":false,"is_disabled":false,"rental_uris":{"android":"levelo://app?vid=48aa74d7-4d44-41fb-87de-62544294d64a","ios":"levelo://app?vid=48aa74d7-4d44-41fb-87de-62544294d64a"},"vehicle_type_id":"4","last_reported":1758615246,"current_range_meters":16800,"station_id":"ce4bhg12rcd13ifvqf60","pricing_plan_id":"cebpf4jnsgd1na2vs0mg"},{"bike_id":"8552fe36-10d8-46fd-997b-c97d2970480a","system_id":"levelo_inurba_marseille","lat":43.32359,"lon":5.3675,"is_reserved":false,"is_disabled":false,"rental_uris":{"android":"levelo://app?vid=8552fe36-10d8-46fd-997b-c97d2970480a","ios":"levelo://app?vid=8552fe36-10d8-46fd-997b-c97d2970480a"},"vehicle_type_id":"4","last_reported":1758615246,"current_range_meters":16800,"station_id":"ce4bhsh2rcd13ifvqi2g","pricing_plan_id":"cebpf4jnsgd1na2vs0mg"},{"bike_id":"2b5cf6d2-5cda-4640-9461-0ca51ece55aa","system_id":"levelo_inurba_marseille","lat":43.31489,"lon":5.37299,"is_reserved":false,"is_disabled":false,"rental_uris":{"android":"levelo://app?vid=2b5cf6d2-5cda-4640-9461-0ca51ece55aa","ios":"levelo://app?vid=2b5cf6d2-5cda-4640-9461-0ca51ece55aa"},"vehicle_type_id":"4","last_reported":1758615246,"current_range_meters":17200,"station_id":"ce4bgt12rcd13ifvqcd0","pricing_plan_id":"cebpf4jnsgd1na2vs0mg"},{"bike_id":"4c0b651b-953c-4759-a0f7-0074f59a45eb","system_id":"levelo_inurba_marseille","lat":43.25771,"lon":5.3927,"is_reserved":false,"is_disabled":false,"rental_uris":{"android":"levelo://app?vid=4c0b651b-953c-4759-a0f7-0074f59a45eb","ios":"levelo://app?vid=4c0b651b-953c-4759-a0f7-0074f59a45eb"},"vehicle_type_id":"4","last_reported":1758615246,"current_range_meters":17200,"station_id":"","pricing_plan_id":"cebpf4jnsgd1na2vs0mg"},{"bike_id":"9144210b-381c-444a-97eb-dd02e6ae8af1","system_id":"levelo_inurba_marseille","lat":43.30249,"lon":5.40059,"is_reserved":false,"is_disabled":true,"rental_uris":{"android":"levelo://app?vid=9144210b-381c-444a-97eb-dd02e6ae8af1","ios":"levelo://app?vid=9144210b-381c-444a-97eb-dd02e6ae8af1"},"vehicle_type_id":"4","last_reported":1758615246,"current_range_meters":17200,"station_id":"ce4bgvh2rcd13ifvqcs0","pricing_plan_id":"cebpf4jnsgd1na2vs0mg"},{"bike_id":"3c0fa725-f739-4599-965d-e73d3e7b2c8f","system_id":"levelo_inurba_marseille","lat":43.32367,"lon":5.36761,"is_reserved":false,"is_disabled":false,"rental_uris":{"android":"levelo://app?vid=3c0fa725-f739-4599-965d-e73d3e7b2c8f","ios":"levelo://app?vid=3c0fa725-f739-4599-965d-e73d3e7b2c8f"},"vehicle_type_id":"4","last_reported":1758615246,"current_range_meters":17200,"station_id":"ce4bhsh2rcd13ifvqi2g","pricing_plan_id":"cebpf4jnsgd1na2vs0mg"},{"bike_id":"c3e6cc38-8443-41f0-8b93-3da119df4b84","system_id":"levelo_inurba_marseille","lat":43.25926,"lon":5.40887,"is_reserved":false,"is_disabled":false,"rental_uris":{"android":"levelo://app?vid=c3e6cc38-8443-41f0-8b93-3da119df4b84","ios":"levelo://app?vid=c3e6cc38-8443-41f0-8b93-3da119df4b84"},"vehicle_type_id":"4","last_reported":1758615246,"current_range_meters":17200,"station_id":"ce4bhm92rcd13ifvqglg","pricing_plan_id":"cebpf4jnsgd1na2vs0mg"},{"bike_id":"c8f3c8da-edc9-4118-a2a2-80f74b9d6e48","system_id":"levelo_inurba_marseille","lat":43.25087,"lon":5.39527,"is_reserved":false,"is_disabled":false,"rental_uris":{"android":"levelo://app?vid=c8f3c8da-edc9-4118-a2a2-80f74b9d6e48","ios":"levelo://app?vid=c8f3c8da-edc9-4118-a2a2-80f74b9d6e48"},"vehicle_type_id":"4","last_reported":1758615246,"current_range_meters":17200,"station_id":"ce4bhm12rcd13ifvqgkg","pricing_plan_id":"cebpf4jnsgd1na2vs0mg"},{"bike_id":"902a85b4-786a-4a10-b45c-52ec35967b94","system_id":"levelo_inurba_marseille","lat":43.240751,"lon":5.377593,"is_reserved":false,"is_disabled":false,"rental_uris":{"android":"levelo://app?vid=902a85b4-786a-4a10-b45c-52ec35967b94","ios":"levelo://app?vid=902a85b4-786a-4a10-b45c-52ec35967b94"},"vehicle_type_id":"4","last_reported":1758615246,"current_range_meters":17600,"station_id":"ce4bhnp2rcd13ifvqgvg","pricing_plan_id":"cebpf4jnsgd1na2vs0mg"},{"bike_id":"1e510568-ae85-4f49-9652-f32a1fad29d3","system_id":"levelo_inurba_marseille","lat":43.292657,"lon":5.376232,"is_reserved":false,"is_disabled":false,"rental_uris":{"android":"levelo://app?vid=1e510568-ae85-4f49-9652-f32a1fad29d3","ios":"levelo://app?vid=1e510568-ae85-4f49-9652-f32a1fad29d3"},"vehicle_type_id":"4","last_reported":1758615246,"current_range_meters":17600,"station_id":"ce4bgi12rcd13ifvqb80","pricing_plan_id":"cebpf4jnsgd1na2vs0mg"},{"bike_id":"ce503b47-64ba-420a-bc2e-5b9d3694509f","system_id":"levelo_inurba_marseille","lat":43.306027,"lon":5.372283,"is_reserved":false,"is_disabled":false,"rental_uris":{"android":"levelo://app?vid=ce503b47-64ba-420a-bc2e-5b9d3694509f","ios":"levelo://app?vid=ce503b47-64ba-420a-bc2e-5b9d3694509f"},"vehicle_type_id":"4","last_reported":1758615246,"current_range_meters":17600,"station_id":"ce4bgqh2rcd13ifvqc4g","pricing_plan_id":"cebpf4jnsgd1na2vs0mg"},{"bike_id":"1cd420c9-83fb-4bc1-b7d7-4ff4e3fc796c","system_id":"levelo_inurba_marseille","lat":43.32111,"lon":5.36773,"is_reserved":false,"is_disabled":false,"rental_uris":{"android":"levelo://app?vid=1cd420c9-83fb-4bc1-b7d7-4ff4e3fc796c","ios":"levelo://app?vid=1cd420c9-83fb-4bc1-b7d7-4ff4e3fc796c"},"vehicle_type_id":"4","last_reported":1758615246,"current_range_meters":17600,"station_id":"ce4bhrh2rcd13ifvqhug","pricing_plan_id":"cebpf4jnsgd1na2vs0mg"},{"bike_id":"6c41d28e-416f-4e0f-9225-67b7d4f9bf5b","system_id":"levelo_inurba_marseille","lat":43.28657,"lon":5.36351,"is_reserved":false,"is_disabled":false,"rental_uris":{"android":"levelo://app?vid=6c41d28e-416f-4e0f-9225-67b7d4f9bf5b","ios":"levelo://app?vid=6c41d28e-416f-4e0f-9225-67b7d4f9bf5b"},"vehicle_type_id":"4","last_reported":1758615246,"current_range_meters":17600,"station_id":"ce4bhah2rcd13ifvqej0","pricing_plan_id":"cebpf4jnsgd1na2vs0mg"},{"bike_id":"eb3f0bc2-178d-43d9-bfbb-3d3bbceb177a","system_id":"levelo_inurba_marseille","lat":43.2749,"lon":5.42453,"is_reserved":false,"is_disabled":false,"rental_uris":{"android":"levelo://app?vid=eb3f0bc2-178d-43d9-bfbb-3d3bbceb177a","ios":"levelo://app?vid=eb3f0bc2-178d-43d9-bfbb-3d3bbceb177a"},"vehicle_type_id":"4","last_reported":1758615246,"current_range_meters":17600,"station_id":"ce4bhn92rcd13ifvqgrg","pricing_plan_id":"cebpf4jnsgd1na2vs0mg"},{"bike_id":"9feb0e0f-24fa-4463-b0f3-30472830c043","system_id":"levelo_inurba_marseille","lat":43.31757,"lon":5.39002,"is_reserved":false,"is_disabled":false,"rental_uris":{"android":"levelo://app?vid=9feb0e0f-24fa-4463-b0f3-30472830c043","ios":"levelo://app?vid=9feb0e0f-24fa-4463-b0f3-30472830c043"},"vehicle_type_id":"4","last_reported":1758615246,"current_range_meters":18000,"station_id":"ce4bhqp2rcd13ifvqhng","pricing_plan_id":"cebpf4jnsgd1na2vs0mg"},{"bike_id":"d357d2f0-6140-4621-9e4f-aa5ee387565d","system_id":"levelo_inurba_marseille","lat":43.27185,"lon":5.40984,"is_reserved":false,"is_disabled":false,"rental_uris":{"android":"levelo://app?vid=d357d2f0-6140-4621-9e4f-aa5ee387565d","ios":"levelo://app?vid=d357d2f0-6140-4621-9e4f-aa5ee387565d"},"vehicle_type_id":"4","last_reported":1758615246,"current_range_meters":17600,"station_id":"ce4bhl12rcd13ifvqgf0","pricing_plan_id":"cebpf4jnsgd1na2vs0mg"},{"bike_id":"e688bc1c-0263-4a47-a830-254b589086aa","system_id":"levelo_inurba_marseille","lat":43.30945,"lon":5.36846,"is_reserved":false,"is_disabled":false,"rental_uris":{"android":"levelo://app?vid=e688bc1c-0263-4a47-a830-254b589086aa","ios":"levelo://app?vid=e688bc1c-0263-4a47-a830-254b589086aa"},"vehicle_type_id":"4","last_reported":1758615246,"current_range_meters":18000,"station_id":"ce4bgn92rcd13ifvqbvg","pricing_plan_id":"cebpf4jnsgd1na2vs0mg"},{"bike_id":"a60abba9-f9b8-477b-8786-175fc2b6218b","system_id":"levelo_inurba_marseille","lat":43.30869,"lon":5.37187,"is_reserved":false,"is_disabled":false,"rental_uris":{"android":"levelo://app?vid=a60abba9-f9b8-477b-8786-175fc2b6218b","ios":"levelo://app?vid=a60abba9-f9b8-477b-8786-175fc2b6218b"},"vehicle_type_id":"4","last_reported":1758615246,"current_range_meters":18000,"station_id":"ce4bguh2rcd13ifvqckg","pricing_plan_id":"cebpf4jnsgd1na2vs0mg"},{"bike_id":"c1c74484-e513-4fa6-a940-fe3ff10f6868","system_id":"levelo_inurba_marseille","lat":43.29378,"lon":5.378403,"is_reserved":false,"is_disabled":false,"rental_uris":{"android":"levelo://app?vid=c1c74484-e513-4fa6-a940-fe3ff10f6868","ios":"levelo://app?vid=c1c74484-e513-4fa6-a940-fe3ff10f6868"},"vehicle_type_id":"4","last_reported":1758615246,"current_range_meters":18000,"station_id":"ce4bgjh2rcd13ifvqbf0","pricing_plan_id":"cebpf4jnsgd1na2vs0mg"},{"bike_id":"c7784061-4436-4bdc-8dba-c84d605f6073","system_id":"levelo_inurba_marseille","lat":43.33602,"lon":5.40982,"is_reserved":false,"is_disabled":false,"rental_uris":{"android":"levelo://app?vid=c7784061-4436-4bdc-8dba-c84d605f6073","ios":"levelo://app?vid=c7784061-4436-4bdc-8dba-c84d605f6073"},"vehicle_type_id":"4","last_reported":1758615246,"current_range_meters":18000,"station_id":"ce4bhqh2rcd13ifvqhmg","pricing_plan_id":"cebpf4jnsgd1na2vs0mg"},{"bike_id":"95092148-5f75-4663-be7d-7c8aa2863391","system_id":"levelo_inurba_marseille","lat":43.24167,"lon":5.36406,"is_reserved":false,"is_disabled":false,"rental_uris":{"android":"levelo://app?vid=95092148-5f75-4663-be7d-7c8aa2863391","ios":"levelo://app?vid=95092148-5f75-4663-be7d-7c8aa2863391"},"vehicle_type_id":"4","last_reported":1758615246,"current_range_meters":18000,"station_id":"cpo36qri1sfpv3e86is0","pricing_plan_id":"cebpf4jnsgd1na2vs0mg"},{"bike_id":"15f0126c-7e31-410d-8d88-412d27fe5839","system_id":"levelo_inurba_marseille","lat":43.28268,"lon":5.35059,"is_reserved":false,"is_disabled":false,"rental_uris":{"android":"levelo://app?vid=15f0126c-7e31-410d-8d88-412d27fe5839","ios":"levelo://app?vid=15f0126c-7e31-410d-8d88-412d27fe5839"},"vehicle_type_id":"4","last_reported":1758615246,"current_range_meters":18000,"station_id":"ce4bhbp2rcd13ifvqerg","pricing_plan_id":"cebpf4jnsgd1na2vs0mg"},{"bike_id":"58cfdea1-6418-4c9f-95fe-481270bef5e4","system_id":"levelo_inurba_marseille","lat":43.30941,"lon":5.39079,"is_reserved":false,"is_disabled":false,"rental_uris":{"android":"levelo://app?vid=58cfdea1-6418-4c9f-95fe-481270bef5e4","ios":"levelo://app?vid=58cfdea1-6418-4c9f-95fe-481270bef5e4"},"vehicle_type_id":"4","last_reported":1758615246,"current_range_meters":18000,"station_id":"ce4bgup2rcd13ifvqco0","pricing_plan_id":"cebpf4jnsgd1na2vs0mg"},{"bike_id":"7121bf68-87a3-4f1d-9d04-d948e1ae2479","system_id":"levelo_inurba_marseille","lat":43.31678,"lon":5.40416,"is_reserved":false,"is_disabled":false,"rental_uris":{"android":"levelo://app?vid=7121bf68-87a3-4f1d-9d04-d948e1ae2479","ios":"levelo://app?vid=7121bf68-87a3-4f1d-9d04-d948e1ae2479"},"vehicle_type_id":"4","last_reported":1758615246,"current_range_meters":18000,"station_id":"ce4bh012rcd13ifvqd00","pricing_plan_id":"cebpf4jnsgd1na2vs0mg"},{"bike_id":"b5097eea-9912-4be2-9cf9-14c224c5fab6","system_id":"levelo_inurba_marseille","lat":43.232025,"lon":5.35557,"is_reserved":false,"is_disabled":false,"rental_uris":{"android":"levelo://app?vid=b5097eea-9912-4be2-9cf9-14c224c5fab6","ios":"levelo://app?vid=b5097eea-9912-4be2-9cf9-14c224c5fab6"},"vehicle_type_id":"4","last_reported":1758615246,"current_range_meters":18800,"station_id":"ce4bhu92rcd13ifvqi70","pricing_plan_id":"cebpf4jnsgd1na2vs0mg"},{"bike_id":"e34a534e-40a2-424f-9a9f-8dd078555d70","system_id":"levelo_inurba_marseille","lat":43.31352,"lon":5.36711,"is_reserved":false,"is_disabled":false,"rental_uris":{"android":"levelo://app?vid=e34a534e-40a2-424f-9a9f-8dd078555d70","ios":"levelo://app?vid=e34a534e-40a2-424f-9a9f-8dd078555d70"},"vehicle_type_id":"4","last_reported":1758615246,"current_range_meters":18800,"station_id":"ce4bgr92rcd13ifvqc6g","pricing_plan_id":"cebpf4jnsgd1na2vs0mg"},{"bike_id":"aa7fb19a-dee8-4dc4-bf16-e94fc02d332a","system_id":"levelo_inurba_marseille","lat":43.30141,"lon":5.37412,"is_reserved":false,"is_disabled":false,"rental_uris":{"android":"levelo://app?vid=aa7fb19a-dee8-4dc4-bf16-e94fc02d332a","ios":"levelo://app?vid=aa7fb19a-dee8-4dc4-bf16-e94fc02d332a"},"vehicle_type_id":"4","last_reported":1758615246,"current_range_meters":18800,"station_id":"ce4bgs92rcd13ifvqcc0","pricing_plan_id":"cebpf4jnsgd1na2vs0mg"},{"bike_id":"72ca9785-3eaa-429a-adce-ef30ae6246ca","system_id":"levelo_inurba_marseille","lat":43.25924,"lon":5.40869,"is_reserved":false,"is_disabled":false,"rental_uris":{"android":"levelo://app?vid=72ca9785-3eaa-429a-adce-ef30ae6246ca","ios":"levelo://app?vid=72ca9785-3eaa-429a-adce-ef30ae6246ca"},"vehicle_type_id":"4","last_reported":1758615246,"current_range_meters":18800,"station_id":"ce4bhm92rcd13ifvqglg","pricing_plan_id":"cebpf4jnsgd1na2vs0mg"},{"bike_id":"b13bfc12-70f3-4ab9-b931-21a876be1571","system_id":"levelo_inurba_marseille","lat":43.297399,"lon":5.376833,"is_reserved":false,"is_disabled":true,"rental_uris":{"android":"levelo://app?vid=b13bfc12-70f3-4ab9-b931-21a876be1571","ios":"levelo://app?vid=b13bfc12-70f3-4ab9-b931-21a876be1571"},"vehicle_type_id":"4","last_reported":1758615246,"current_range_meters":19200,"station_id":"ce4bgkh2rcd13ifvqbl0","pricing_plan_id":"cebpf4jnsgd1na2vs0mg"},{"bike_id":"c0e68bf7-21fd-4165-bde1-3bbbb2dc294b","system_id":"levelo_inurba_marseille","lat":43.29516,"lon":5.37515,"is_reserved":false,"is_disabled":true,"rental_uris":{"android":"levelo://app?vid=c0e68bf7-21fd-4165-bde1-3bbbb2dc294b","ios":"levelo://app?vid=c0e68bf7-21fd-4165-bde1-3bbbb2dc294b"},"vehicle_type_id":"4","last_reported":1758615246,"current_range_meters":19200,"station_id":"ce4bgkp2rcd13ifvqbmg","pricing_plan_id":"cebpf4jnsgd1na2vs0mg"},{"bike_id":"33c3bc37-b0fb-4bbc-94c6-23e7c0c2d46f","system_id":"levelo_inurba_marseille","lat":43.31353,"lon":5.36707,"is_reserved":false,"is_disabled":false,"rental_uris":{"android":"levelo://app?vid=33c3bc37-b0fb-4bbc-94c6-23e7c0c2d46f","ios":"levelo://app?vid=33c3bc37-b0fb-4bbc-94c6-23e7c0c2d46f"},"vehicle_type_id":"4","last_reported":1758615246,"current_range_meters":19200,"station_id":"ce4bgr92rcd13ifvqc6g","pricing_plan_id":"cebpf4jnsgd1na2vs0mg"},{"bike_id":"76d79070-defb-41bb-86d9-c3b7353b1cdb","system_id":"levelo_inurba_marseille","lat":43.30477,"lon":5.37907,"is_reserved":false,"is_disabled":true,"rental_uris":{"android":"levelo://app?vid=76d79070-defb-41bb-86d9-c3b7353b1cdb","ios":"levelo://app?vid=76d79070-defb-41bb-86d9-c3b7353b1cdb"},"vehicle_type_id":"4","last_reported":1758615246,"current_range_meters":19200,"station_id":"ce4bgup2rcd13ifvqcn0","pricing_plan_id":"cebpf4jnsgd1na2vs0mg"},{"bike_id":"4d637955-b609-4761-88df-b35dc67e02ea","system_id":"levelo_inurba_marseille","lat":43.29911,"lon":5.37467,"is_reserved":false,"is_disabled":false,"rental_uris":{"android":"levelo://app?vid=4d637955-b609-4761-88df-b35dc67e02ea","ios":"levelo://app?vid=4d637955-b609-4761-88df-b35dc67e02ea"},