{"last_updated":1741177078,"ttl":60,"version":"2.2","data":{"bikes":[{"bike_id":"511d8bfb-54fb-4e3b-8b58-cd0179111dc0","system_id":"levelo_inurba_marseille","lat":43.2525,"lon":5.40317,"is_reserved":false,"is_disabled":true,"rental_uris":{"android":"levelo://app?vid=511d8bfb-54fb-4e3b-8b58-cd0179111dc0","ios":"levelo://app?vid=511d8bfb-54fb-4e3b-8b58-cd0179111dc0"},"vehicle_type_id":"4","last_reported":1741177079,"current_range_meters":0,"station_id":"","pricing_plan_id":"cebpf4jnsgd1na2vs0mg"},{"bike_id":"c13f884d-6fd8-4a40-a8e5-ae56bf400a54","system_id":"levelo_inurba_marseille","lat":43.26859,"lon":5.39361,"is_reserved":false,"is_disabled":true,"rental_uris":{"android":"levelo://app?vid=c13f884d-6fd8-4a40-a8e5-ae56bf400a54","ios":"levelo://app?vid=c13f884d-6fd8-4a40-a8e5-ae56bf400a54"},"vehicle_type_id":"4","last_reported":1741177079,"current_range_meters":0,"station_id":"","pricing_plan_id":"cebpf4jnsgd1na2vs0mg"},{"bike_id":"32eedba3-a6ce-422e-9217-1ff102f53094","system_id":"levelo_inurba_marseille","lat":43.30142,"lon":5.3742,"is_reserved":false,"is_disabled":true,"rental_uris":{"android":"levelo://app?vid=32eedba3-a6ce-422e-9217-1ff102f53094","ios":"levelo://app?vid=32eedba3-a6ce-422e-9217-1ff102f53094"},"vehicle_type_id":"4","last_reported":1741177079,"current_range_meters":0,"station_id":"ce4bgs92rcd13ifvqcc0","pricing_plan_id":"cebpf4jnsgd1na2vs0mg"},{"bike_id":"e0cc20c2-ac86-48eb-bba5-08003d5e10de","system_id":"levelo_inurba_marseille","lat":43.30946,"lon":5.39019,"is_reserved":false,"is_disabled":true,"rental_uris":{"android":"levelo://app?vid=e0cc20c2-ac86-48eb-bba5-08003d5e10de","ios":"levelo://app?vid=e0cc20c2-ac86-48eb-bba5-08003d5e10de"},"vehicle_type_id":"4","last_reported":1741177079,"current_range_meters":0,"station_id":"ce4bgup2rcd13ifvqco0","pricing_plan_id":"cebpf4jnsgd1na2vs0mg"},{"bike_id":"486e3e7f-1f0e-47d9-a13a-09b71d422e20","system_id":"levelo_inurba_marseille","lat":43.29282,"lon":5.40114,"is_reserved":false,"is_disabled":true,"rental_uris":{"android":"levelo://app?vid=486e3e7f-1f0e-47d9-a13a-09b71d422e20","ios":"levelo://app?vid=486e3e7f-1f0e-47d9-a13a-09b71d422e20"},"vehicle_type_id":"4","last_reported":1741177079,"current_range_meters":0,"station_id":"ce4bh312rcd13ifvqdk0","pricing_plan_id":"cebpf4jnsgd1na2vs0mg"},{"bike_id":"77e2384d-b561-4506-a153-6a0942910900","system_id":"levelo_inurba_marseille","lat":43.27385,"lon":5.36266,"is_reserved":false,"is_disabled":true,"rental_uris":{"android":"levelo://app?vid=77e2384d-b561-4506-a153-6a0942910900","ios":"levelo://app?vid=77e2384d-b561-4506-a153-6a0942910900"},"vehicle_type_id":"4","last_reported":1741177079,"current_range_meters":0,"station_id":"ce4bhbh2rcd13ifvqeo0","pricing_plan_id":"cebpf4jnsgd1na2vs0mg"},{"bike_id":"3b592065-43a4-406e-9fdb-ffe4c42b5c76","system_id":"levelo_inurba_marseille","lat":43.26226,"lon":5.40454,"is_reserved":false,"is_disabled":true,"rental_uris":{"android":"levelo://app?vid=3b592065-43a4-406e-9fdb-ffe4c42b5c76","ios":"levelo://app?vid=3b592065-43a4-406e-9fdb-ffe4c42b5c76"},"vehicle_type_id":"4","last_reported":1741177079,"current_range_meters":0,"station_id":"ce4bhmh2rcd13ifvqgmg","pricing_plan_id":"cebpf4jnsgd1na2vs0mg"},{"bike_id":"f87cbb3c-8851-4815-be2f-76c7bc4c1fee","system_id":"levelo_inurba_marseille","lat":43.23152,"lon":5.43708,"is_reserved":false,"is_disabled":true,"rental_uris":{"android":"levelo://app?vid=f87cbb3c-8851-4815-be2f-76c7bc4c1fee","ios":"levelo://app?vid=f87cbb3c-8851-4815-be2f-76c7bc4c1fee"},"vehicle_type_id":"4","last_reported":1741177079,"current_range_meters":0,"station_id":"ce4bhmp2rcd13ifvqgog","pricing_plan_id":"cebpf4jnsgd1na2vs0mg"},{"bike_id":"285f8fa4-10d4-4edb-a8a1-81cdc1d8f226","system_id":"levelo_inurba_marseille","lat":43.24076,"lon":5.37766,"is_reserved":false,"is_disabled":true,"rental_uris":{"android":"levelo://app?vid=285f8fa4-10d4-4edb-a8a1-81cdc1d8f226","ios":"levelo://app?vid=285f8fa4-10d4-4edb-a8a1-81cdc1d8f226"},"vehicle_type_id":"4","last_reported":1741177079,"current_range_meters":0,"station_id":"ce4bhnp2rcd13ifvqgvg","pricing_plan_id":"cebpf4jnsgd1na2vs0mg"},{"bike_id":"5887f75c-a86f-46d8-a82d-f3b33ad04cac","system_id":"levelo_inurba_marseille","lat":43.27946,"lon":5.41032,"is_reserved":false,"is_disabled":true,"rental_uris":{"android":"levelo://app?vid=5887f75c-a86f-46d8-a82d-f3b33ad04cac","ios":"levelo://app?vid=5887f75c-a86f-46d8-a82d-f3b33ad04cac"},"vehicle_type_id":"4","last_reported":1741177079,"current_range_meters":0,"station_id":"ce4bhnp2rcd13ifvqh0g","pricing_plan_id":"cebpf4jnsgd1na2vs0mg"},{"bike_id":"a84c6e4f-a9f2-4e23-b9f2-9120c82fe342","system_id":"levelo_inurba_marseille","lat":43.28715,"lon":5.39965,"is_reserved":false,"is_disabled":true,"rental_uris":{"android":"levelo://app?vid=a84c6e4f-a9f2-4e23-b9f2-9120c82fe342","ios":"levelo://app?vid=a84c6e4f-a9f2-4e23-b9f2-9120c82fe342"},"vehicle_type_id":"4","last_reported":1741177079,"current_range_meters":0,"station_id":"ce4bho92rcd13ifvqh3g","pricing_plan_id":"cebpf4jnsgd1na2vs0mg"},{"bike_id":"f60ee0f5-d02a-4c51-b242-4ba246ea5170","system_id":"levelo_inurba_marseille","lat":43.29617,"lon":5.40591,"is_reserved":false,"is_disabled":true,"rental_uris":{"android":"levelo://app?vid=f60ee0f5-d02a-4c51-b242-4ba246ea5170","ios":"levelo://app?vid=f60ee0f5-d02a-4c51-b242-4ba246ea5170"},"vehicle_type_id":"4","last_reported":1741177079,"current_range_meters":400,"station_id":"ce4bh0h2rcd13ifvqd60","pricing_plan_id":"cebpf4jnsgd1na2vs0mg"},{"bike_id":"84ff0b10-8180-4890-a5f8-d052107b9386","system_id":"levelo_inurba_marseille","lat":43.29005,"lon":5.35608,"is_reserved":false,"is_disabled":true,"rental_uris":{"android":"levelo://app?vid=84ff0b10-8180-4890-a5f8-d052107b9386","ios":"levelo://app?vid=84ff0b10-8180-4890-a5f8-d052107b9386"},"vehicle_type_id":"4","last_reported":1741177079,"current_range_meters":400,"station_id":"ce4bhb92rcd13ifvqen0","pricing_plan_id":"cebpf4jnsgd1na2vs0mg"},{"bike_id":"3f4bc711-39ec-4c31-bcfd-1fc5e606fa07","system_id":"levelo_inurba_marseille","lat":43.27915,"lon":5.39573,"is_reserved":false,"is_disabled":true,"rental_uris":{"android":"levelo://app?vid=3f4bc711-39ec-4c31-bcfd-1fc5e606fa07","ios":"levelo://app?vid=3f4bc711-39ec-4c31-bcfd-1fc5e606fa07"},"vehicle_type_id":"4","last_reported":1741177079,"current_range_meters":400,"station_id":"ce4bhf92rcd13ifvqf40","pricing_plan_id":"cebpf4jnsgd1na2vs0mg"},{"bike_id":"31cbdb39-3c88-4f18-b341-7f9839ac007f","system_id":"levelo_inurba_marseille","lat":43.2721,"lon":5.39187,"is_reserved":false,"is_disabled":true,"rental_uris":{"android":"levelo://app?vid=31cbdb39-3c88-4f18-b341-7f9839ac007f","ios":"levelo://app?vid=31cbdb39-3c88-4f18-b341-7f9839ac007f"},"vehicle_type_id":"4","last_reported":1741177079,"current_range_meters":400,"station_id":"ce4bhhp2rcd13ifvqfm0","pricing_plan_id":"cebpf4jnsgd1na2vs0mg"},{"bike_id":"c5e8cd2d-bc8c-432b-b100-b523341f5479","system_id":"levelo_inurba_marseille","lat":43.30844,"lon":5.38557,"is_reserved":false,"is_disabled":true,"rental_uris":{"android":"levelo://app?vid=c5e8cd2d-bc8c-432b-b100-b523341f5479","ios":"levelo://app?vid=c5e8cd2d-bc8c-432b-b100-b523341f5479"},"vehicle_type_id":"4","last_reported":1741177079,"current_range_meters":800,"station_id":"","pricing_plan_id":"cebpf4jnsgd1na2vs0mg"},{"bike_id":"e7ec1ac1-2323-47bd-a2b5-7cd3afb282cf","system_id":"levelo_inurba_marseille","lat":43.26955,"lon":5.36682,"is_reserved":false,"is_disabled":true,"rental_uris":{"android":"levelo://app?vid=e7ec1ac1-2323-47bd-a2b5-7cd3afb282cf","ios":"levelo://app?vid=e7ec1ac1-2323-47bd-a2b5-7cd3afb282cf"},"vehicle_type_id":"4","last_reported":1741177079,"current_range_meters":800,"station_id":"","pricing_plan_id":"cebpf4jnsgd1na2vs0mg"},{"bike_id":"18f772c8-90f0-4149-a5cd-fd4813ec3aaf","system_id":"levelo_inurba_marseille","lat":43.29814,"lon":5.38094,"is_reserved":false,"is_disabled":true,"rental_uris":{"android":"levelo://app?vid=18f772c8-90f0-4149-a5cd-fd4813ec3aaf","ios":"levelo://app?vid=18f772c8-90f0-4149-a5cd-fd4813ec3aaf"},"vehicle_type_id":"4","last_reported":1741177079,"current_range_meters":800,"station_id":"ce4bgip2rcd13ifvqbb0","pricing_plan_id":"cebpf4jnsgd1na2vs0mg"},{"bike_id":"fdc321cb-5712-4db8-a3be-bfee95518298","system_id":"levelo_inurba_marseille","lat":43.30432,"lon":5.38902,"is_reserved":false,"is_disabled":true,"rental_uris":{"android":"levelo://app?vid=fdc321cb-5712-4db8-a3be-bfee95518298","ios":"levelo://app?vid=fdc321cb-5712-4db8-a3be-bfee95518298"},"vehicle_type_id":"4","last_reported":1741177079,"current_range_meters":800,"station_id":"ce4bgk12rcd13ifvqbi0","pricing_plan_id":"cebpf4jnsgd1na2vs0mg"},{"bike_id":"e432fcbc-da49-4827-bc18-4179d60243bb","system_id":"levelo_inurba_marseille","lat":43.31234,"lon":5.36862,"is_reserved":false,"is_disabled":true,"rental_uris":{"android":"levelo://app?vid=e432fcbc-da49-4827-bc18-4179d60243bb","ios":"levelo://app?vid=e432fcbc-da49-4827-bc18-4179d60243bb"},"vehicle_type_id":"4","last_reported":1741177079,"current_range_meters":800,"station_id":"ce4bgl92rcd13ifvqbq0","pricing_plan_id":"cebpf4jnsgd1na2vs0mg"},{"bike_id":"b2f4b532-1619-4955-a107-1349a3bb354e","system_id":"levelo_inurba_marseille","lat":43.29027,"lon":5.38647,"is_reserved":false,"is_disabled":true,"rental_uris":{"android":"levelo://app?vid=b2f4b532-1619-4955-a107-1349a3bb354e","ios":"levelo://app?vid=b2f4b532-1619-4955-a107-1349a3bb354e"},"vehicle_type_id":"4","last_reported":1741177079,"current_range_meters":800,"station_id":"ce4bh4p2rcd13ifvqe0g","pricing_plan_id":"cebpf4jnsgd1na2vs0mg"},{"bike_id":"9418f574-1a10-492e-8dc7-f2ecaeb07605","system_id":"levelo_inurba_marseille","lat":43.27307,"lon":5.39091,"is_reserved":false,"is_disabled":true,"rental_uris":{"android":"levelo://app?vid=9418f574-1a10-492e-8dc7-f2ecaeb07605","ios":"levelo://app?vid=9418f574-1a10-492e-8dc7-f2ecaeb07605"},"vehicle_type_id":"4","last_reported":1741177079,"current_range_meters":800,"station_id":"ce4bhgp2rcd13ifvqfe0","pricing_plan_id":"cebpf4jnsgd1na2vs0mg"},{"bike_id":"0bc46b13-64e8-4eda-8f10-561b764ebb61","system_id":"levelo_inurba_marseille","lat":43.26679,"lon":5.38255,"is_reserved":false,"is_disabled":true,"rental_uris":{"android":"levelo://app?vid=0bc46b13-64e8-4eda-8f10-561b764ebb61","ios":"levelo://app?vid=0bc46b13-64e8-4eda-8f10-561b764ebb61"},"vehicle_type_id":"4","last_reported":1741177079,"current_range_meters":1200,"station_id":"ce4bhg92rcd13ifvqf90","pricing_plan_id":"cebpf4jnsgd1na2vs0mg"},{"bike_id":"2827c1b7-4d70-4620-8c2c-a7027487d714","system_id":"levelo_inurba_marseille","lat":43.27947,"lon":5.41036,"is_reserved":false,"is_disabled":true,"rental_uris":{"android":"levelo://app?vid=2827c1b7-4d70-4620-8c2c-a7027487d714","ios":"levelo://app?vid=2827c1b7-4d70-4620-8c2c-a7027487d714"},"vehicle_type_id":"4","last_reported":1741177079,"current_range_meters":1200,"station_id":"ce4bhnp2rcd13ifvqh0g","pricing_plan_id":"cebpf4jnsgd1na2vs0mg"},{"bike_id":"685940ce-dea6-49ac-b37c-d03a443441bd","system_id":"levelo_inurba_marseille","lat":43.29416,"lon":5.3863,"is_reserved":false,"is_disabled":true,"rental_uris":{"android":"levelo://app?vid=685940ce-dea6-49ac-b37c-d03a443441bd","ios":"levelo://app?vid=685940ce-dea6-49ac-b37c-d03a443441bd"},"vehicle_type_id":"4","last_reported":1741177079,"current_range_meters":2000,"station_id":"ce4bh2h2rcd13ifvqdh0","pricing_plan_id":"cebpf4jnsgd1na2vs0mg"},{"bike_id":"eafac906-ec1e-4d30-bea4-95f6df9dd5a9","system_id":"levelo_inurba_marseille","lat":43.28475,"lon":5.38562,"is_reserved":false,"is_disabled":true,"rental_uris":{"android":"levelo://app?vid=eafac906-ec1e-4d30-bea4-95f6df9dd5a9","ios":"levelo://app?vid=eafac906-ec1e-4d30-bea4-95f6df9dd5a9"},"vehicle_type_id":"4","last_reported":1741177079,"current_range_meters":2000,"station_id":"ce4bh8p2rcd13ifvqeb0","pricing_plan_id":"cebpf4jnsgd1na2vs0mg"},{"bike_id":"7c0eac0c-1b91-4cab-9708-3d73f681ea2b","system_id":"levelo_inurba_marseille","lat":43.259349,"lon":5.409064,"is_reserved":false,"is_disabled":true,"rental_uris":{"android":"levelo://app?vid=7c0eac0c-1b91-4cab-9708-3d73f681ea2b","ios":"levelo://app?vid=7c0eac0c-1b91-4cab-9708-3d73f681ea2b"},"vehicle_type_id":"4","last_reported":1741177079,"current_range_meters":2000,"station_id":"ce4bhah2rcd13ifvqei0","pricing_plan_id":"cebpf4jnsgd1na2vs0mg"},{"bike_id":"c471fe1f-2fd7-4b6f-a6a7-7eebc20da498","system_id":"levelo_inurba_marseille","lat":43.27214,"lon":5.39186,"is_reserved":false,"is_disabled":true,"rental_uris":{"android":"levelo://app?vid=c471fe1f-2fd7-4b6f-a6a7-7eebc20da498","ios":"levelo://app?vid=c471fe1f-2fd7-4b6f-a6a7-7eebc20da498"},"vehicle_type_id":"4","last_reported":1741177079,"current_range_meters":2000,"station_id":"ce4bhhp2rcd13ifvqfm0","pricing_plan_id":"cebpf4jnsgd1na2vs0mg"},{"bike_id":"f498309b-f40a-4def-97a8-c4d9da7682e1","system_id":"levelo_inurba_marseille","lat":43.30306,"lon":5.39198,"is_reserved":false,"is_disabled":false,"rental_uris":{"android":"levelo://app?vid=f498309b-f40a-4def-97a8-c4d9da7682e1","ios":"levelo://app?vid=f498309b-f40a-4def-97a8-c4d9da7682e1"},"vehicle_type_id":"4","last_reported":1741177079,"current_range_meters":2800,"station_id":"ce4bgkh2rcd13ifvqbk0","pricing_plan_id":"cebpf4jnsgd1na2vs0mg"},{"bike_id":"92d3eada-020e-4d78-8459-5f4cff61c78d","system_id":"levelo_inurba_marseille","lat":43.29011,"lon":5.35611,"is_reserved":false,"is_disabled":false,"rental_uris":{"android":"levelo://app?vid=92d3eada-020e-4d78-8459-5f4cff61c78d","ios":"levelo://app?vid=92d3eada-020e-4d78-8459-5f4cff61c78d"},"vehicle_type_id":"4","last_reported":1741177079,"current_range_meters":2800,"station_id":"ce4bhb92rcd13ifvqen0","pricing_plan_id":"cebpf4jnsgd1na2vs0mg"},{"bike_id":"de8d4ea0-6d36-4836-9890-57cd6c20e85e","system_id":"levelo_inurba_marseille","lat":43.25111,"lon":5.40327,"is_reserved":false,"is_disabled":false,"rental_uris":{"android":"levelo://app?vid=de8d4ea0-6d36-4836-9890-57cd6c20e85e","ios":"levelo://app?vid=de8d4ea0-6d36-4836-9890-57cd6c20e85e"},"vehicle_type_id":"4","last_reported":1741177079,"current_range_meters":2800,"station_id":"ce4bhlh2rcd13ifvqgig","pricing_plan_id":"cebpf4jnsgd1na2vs0mg"},{"bike_id":"394516f0-9c39-4ed6-bc42-527caade5f69","system_id":"levelo_inurba_marseille","lat":43.23148,"lon":5.43697,"is_reserved":false,"is_disabled":false,"rental_uris":{"android":"levelo://app?vid=394516f0-9c39-4ed6-bc42-527caade5f69","ios":"levelo://app?vid=394516f0-9c39-4ed6-bc42-527caade5f69"},"vehicle_type_id":"4","last_reported":1741177079,"current_range_meters":2800,"station_id":"ce4bhmp2rcd13ifvqgog","pricing_plan_id":"cebpf4jnsgd1na2vs0mg"},{"bike_id":"6a9889b6-704a-4ed9-ac11-3c4180785488","system_id":"levelo_inurba_marseille","lat":43.28268,"lon":5.3507,"is_reserved":false,"is_disabled":false,"rental_uris":{"android":"levelo://app?vid=6a9889b6-704a-4ed9-ac11-3c4180785488","ios":"levelo://app?vid=6a9889b6-704a-4ed9-ac11-3c4180785488"},"vehicle_type_id":"4","last_reported":1741177079,"current_range_meters":3200,"station_id":"ce4bhbp2rcd13ifvqerg","pricing_plan_id":"cebpf4jnsgd1na2vs0mg"},{"bike_id":"5259c561-fdff-45e4-b300-9239edc9950c","system_id":"levelo_inurba_marseille","lat":43.26224,"lon":5.40452,"is_reserved":false,"is_disabled":false,"rental_uris":{"android":"levelo://app?vid=5259c561-fdff-45e4-b300-9239edc9950c","ios":"levelo://app?vid=5259c561-fdff-45e4-b300-9239edc9950c"},"vehicle_type_id":"4","last_reported":1741177079,"current_range_meters":3200,"station_id":"ce4bhmh2rcd13ifvqgmg","pricing_plan_id":"cebpf4jnsgd1na2vs0mg"},{"bike_id":"3f9fae04-f1f3-4869-8154-8b5321664179","system_id":"levelo_inurba_marseille","lat":43.23059,"lon":5.3549,"is_reserved":false,"is_disabled":false,"rental_uris":{"android":"levelo://app?vid=3f9fae04-f1f3-4869-8154-8b5321664179","ios":"levelo://app?vid=3f9fae04-f1f3-4869-8154-8b5321664179"},"vehicle_type_id":"4","last_reported":1741177079,"current_range_meters":3200,"station_id":"cpo3342slgdg3j2ifvpg","pricing_plan_id":"cebpf4jnsgd1na2vs0mg"},{"bike_id":"02127be4-82df-42a9-b05d-aa5b78e8a87b","system_id":"levelo_inurba_marseille","lat":43.28259,"lon":5.35068,"is_reserved":false,"is_disabled":false,"rental_uris":{"android":"levelo://app?vid=02127be4-82df-42a9-b05d-aa5b78e8a87b","ios":"levelo://app?vid=02127be4-82df-42a9-b05d-aa5b78e8a87b"},"vehicle_type_id":"4","last_reported":1741177079,"current_range_meters":3600,"station_id":"ce4bhbp2rcd13ifvqerg","pricing_plan_id":"cebpf4jnsgd1na2vs0mg"},{"bike_id":"6c84e1f9-12fa-470f-a60a-952ad29b2d5e","system_id":"levelo_inurba_marseille","lat":43.32543,"lon":5.41463,"is_reserved":false,"is_disabled":false,"rental_uris":{"android":"levelo://app?vid=6c84e1f9-12fa-470f-a60a-952ad29b2d5e","ios":"levelo://app?vid=6c84e1f9-12fa-470f-a60a-952ad29b2d5e"},"vehicle_type_id":"4","last_reported":1741177079,"current_range_meters":3600,"station_id":"ce4bhq12rcd13ifvqhhg","pricing_plan_id":"cebpf4jnsgd1na2vs0mg"},{"bike_id":"a1d4bb09-6c50-476a-b337-1d589c5ccca9","system_id":"levelo_inurba_marseille","lat":43.26799,"lon":5.40266,"is_reserved":false,"is_disabled":false,"rental_uris":{"android":"levelo://app?vid=a1d4bb09-6c50-476a-b337-1d589c5ccca9","ios":"levelo://app?vid=a1d4bb09-6c50-476a-b337-1d589c5ccca9"},"vehicle_type_id":"4","last_reported":1741177079,"current_range_meters":3600,"station_id":"ce501612rcd8frsf0b60","pricing_plan_id":"cebpf4jnsgd1na2vs0mg"},{"bike_id":"80978f9e-13c0-4816-aa54-0f2c2674a37f","system_id":"levelo_inurba_marseille","lat":43.29007,"lon":5.3562,"is_reserved":false,"is_disabled":false,"rental_uris":{"android":"levelo://app?vid=80978f9e-13c0-4816-aa54-0f2c2674a37f","ios":"levelo://app?vid=80978f9e-13c0-4816-aa54-0f2c2674a37f"},"vehicle_type_id":"4","last_reported":1741177079,"current_range_meters":4000,"station_id":"ce4bhb92rcd13ifvqen0","pricing_plan_id":"cebpf4jnsgd1na2vs0mg"},{"bike_id":"32185713-fcf8-498a-a6a1-cb87c86e5f24","system_id":"levelo_inurba_marseille","lat":43.29222,"lon":5.36077,"is_reserved":false,"is_disabled":false,"rental_uris":{"android":"levelo://app?vid=32185713-fcf8-498a-a6a1-cb87c86e5f24","ios":"levelo://app?vid=32185713-fcf8-498a-a6a1-cb87c86e5f24"},"vehicle_type_id":"4","last_reported":1741177079,"current_range_meters":4000,"station_id":"ce4bhbh2rcd13ifvqeqg","pricing_plan_id":"cebpf4jnsgd1na2vs0mg"},{"bike_id":"9996060b-1ee5-4024-9ba2-d9738727dbfa","system_id":"levelo_inurba_marseille","lat":43.29688,"lon":5.37281,"is_reserved":false,"is_disabled":false,"rental_uris":{"android":"levelo://app?vid=9996060b-1ee5-4024-9ba2-d9738727dbfa","ios":"levelo://app?vid=9996060b-1ee5-4024-9ba2-d9738727dbfa"},"vehicle_type_id":"4","last_reported":1741177079,"current_range_meters":4400,"station_id":"ce4bgk12rcd13ifvqbj0","pricing_plan_id":"cebpf4jnsgd1na2vs0mg"},{"bike_id":"bbfbbe82-d88f-4dd1-a15b-bb77262bdfc2","system_id":"levelo_inurba_marseille","lat":43.29421,"lon":5.38616,"is_reserved":false,"is_disabled":false,"rental_uris":{"android":"levelo://app?vid=bbfbbe82-d88f-4dd1-a15b-bb77262bdfc2","ios":"levelo://app?vid=bbfbbe82-d88f-4dd1-a15b-bb77262bdfc2"},"vehicle_type_id":"4","last_reported":1741177079,"current_range_meters":4400,"station_id":"ce4bh2h2rcd13ifvqdh0","pricing_plan_id":"cebpf4jnsgd1na2vs0mg"},{"bike_id":"593dfffd-a660-49c8-8155-1222f95ebd07","system_id":"levelo_inurba_marseille","lat":43.2509,"lon":5.39525,"is_reserved":false,"is_disabled":false,"rental_uris":{"android":"levelo://app?vid=593dfffd-a660-49c8-8155-1222f95ebd07","ios":"levelo://app?vid=593dfffd-a660-49c8-8155-1222f95ebd07"},"vehicle_type_id":"4","last_reported":1741177079,"current_range_meters":4400,"station_id":"ce4bhm12rcd13ifvqgkg","pricing_plan_id":"cebpf4jnsgd1na2vs0mg"},{"bike_id":"3e1e3771-6ce0-4a4f-b89d-ddb8b4fd25d4","system_id":"levelo_inurba_marseille","lat":43.2904,"lon":5.39959,"is_reserved":false,"is_disabled":false,"rental_uris":{"android":"levelo://app?vid=3e1e3771-6ce0-4a4f-b89d-ddb8b4fd25d4","ios":"levelo://app?vid=3e1e3771-6ce0-4a4f-b89d-ddb8b4fd25d4"},"vehicle_type_id":"4","last_reported":1741177079,"current_range_meters":4800,"station_id":"ce4bh392rcd13ifvqdm0","pricing_plan_id":"cebpf4jnsgd1na2vs0mg"},{"bike_id":"7f484cef-b5b1-417a-b9da-01c8fc2dc811","system_id":"levelo_inurba_marseille","lat":43.28851,"lon":5.35841,"is_reserved":false,"is_disabled":false,"rental_uris":{"android":"levelo://app?vid=7f484cef-b5b1-417a-b9da-01c8fc2dc811","ios":"levelo://app?vid=7f484cef-b5b1-417a-b9da-01c8fc2dc811"},"vehicle_type_id":"4","last_reported":1741177079,"current_range_meters":4800,"station_id":"ce4bhb12rcd13ifvqem0","pricing_plan_id":"cebpf4jnsgd1na2vs0mg"},{"bike_id":"6e9ceb54-a468-4ac3-9110-e55969bbb4f6","system_id":"levelo_inurba_marseille","lat":43.23148,"lon":5.43725,"is_reserved":false,"is_disabled":false,"rental_uris":{"android":"levelo://app?vid=6e9ceb54-a468-4ac3-9110-e55969bbb4f6","ios":"levelo://app?vid=6e9ceb54-a468-4ac3-9110-e55969bbb4f6"},"vehicle_type_id":"4","last_reported":1741177079,"current_range_meters":4800,"station_id":"ce4bhmp2rcd13ifvqgog","pricing_plan_id":"cebpf4jnsgd1na2vs0mg"},{"bike_id":"90f02cbb-7ff2-47fc-842f-18f2ebf15ba1","system_id":"levelo_inurba_marseille","lat":43.32023,"lon":5.41569,"is_reserved":false,"is_disabled":false,"rental_uris":{"android":"levelo://app?vid=90f02cbb-7ff2-47fc-842f-18f2ebf15ba1","ios":"levelo://app?vid=90f02cbb-7ff2-47fc-842f-18f2ebf15ba1"},"vehicle_type_id":"4","last_reported":1741177079,"current_range_meters":4800,"station_id":"ce4bhq92rcd13ifvqhkg","pricing_plan_id":"cebpf4jnsgd1na2vs0mg"},{"bike_id":"30090ce1-01d2-456d-87ad-5eb71868fc78","system_id":"levelo_inurba_marseille","lat":43.32365,"lon":5.38899,"is_reserved":false,"is_disabled":false,"rental_uris":{"android":"levelo://app?vid=30090ce1-01d2-456d-87ad-5eb71868fc78","ios":"levelo://app?vid=30090ce1-01d2-456d-87ad-5eb71868fc78"},"vehicle_type_id":"4","last_reported":1741177079,"current_range_meters":5600,"station_id":"ce4bgi92rcd13ifvqb90","pricing_plan_id":"cebpf4jnsgd1na2vs0mg"},{"bike_id":"962420cd-fb2d-49ec-8d3b-2d1f6426a918","system_id":"levelo_inurba_marseille","lat":43.31485,"lon":5.37313,"is_reserved":false,"is_disabled":false,"rental_uris":{"android":"levelo://app?vid=962420cd-fb2d-49ec-8d3b-2d1f6426a918","ios":"levelo://app?vid=962420cd-fb2d-49ec-8d3b-2d1f6426a918"},"vehicle_type_id":"4","last_reported":1741177079,"current_range_meters":5600,"station_id":"ce4bgt12rcd13ifvqcd0","pricing_plan_id":"cebpf4jnsgd1na2vs0mg"},{"bike_id":"5dfb332e-c7d2-4012-aea4-4b9f561f0ee8","system_id":"levelo_inurba_marseille","lat":43.29264,"lon":5.3844,"is_reserved":false,"is_disabled":false,"rental_uris":{"android":"levelo://app?vid=5dfb332e-c7d2-4012-aea4-4b9f561f0ee8","ios":"levelo://app?vid=5dfb332e-c7d2-4012-aea4-4b9f561f0ee8"},"vehicle_type_id":"4","last_reported":1741177079,"current_range_meters":5600,"station_id":"ce4bh692rcd13ifvqea0","pricing_plan_id":"cebpf4jnsgd1na2vs0mg"},{"bike_id":"dfbdc8e1-6e54-4244-8daa-409a52444a45","system_id":"levelo_inurba_marseille","lat":43.28659,"lon":5.36353,"is_reserved":false,"is_disabled":false,"rental_uris":{"android":"levelo://app?vid=dfbdc8e1-6e54-4244-8daa-409a52444a45","ios":"levelo://app?vid=dfbdc8e1-6e54-4244-8daa-409a52444a45"},"vehicle_type_id":"4","last_reported":1741177079,"current_range_meters":5600,"station_id":"ce4bhah2rcd13ifvqej0","pricing_plan_id":"cebpf4jnsgd1na2vs0mg"},{"bike_id":"26cd7f29-99f6-46a2-a5d8-e1f367c4e1a6","system_id":"levelo_inurba_marseille","lat":43.23155,"lon":5.43713,"is_reserved":false,"is_disabled":false,"rental_uris":{"android":"levelo://app?vid=26cd7f29-99f6-46a2-a5d8-e1f367c4e1a6","ios":"levelo://app?vid=26cd7f29-99f6-46a2-a5d8-e1f367c4e1a6"},"vehicle_type_id":"4","last_reported":1741177079,"current_range_meters":5600,"station_id":"ce4bhmp2rcd13ifvqgog","pricing_plan_id":"cebpf4jnsgd1na2vs0mg"},{"bike_id":"17e03a65-655e-4a21-a3f8-4391b0b8e7bf","system_id":"levelo_inurba_marseille","lat":43.29296,"lon":5.40157,"is_reserved":false,"is_disabled":false,"rental_uris":{"android":"levelo://app?vid=17e03a65-655e-4a21-a3f8-4391b0b8e7bf","ios":"levelo://app?vid=17e03a65-655e-4a21-a3f8-4391b0b8e7bf"},"vehicle_type_id":"4","last_reported":1741177079,"current_range_meters":6000,"station_id":"","pricing_plan_id":"cebpf4jnsgd1na2vs0mg"},{"bike_id":"8a7a2607-988e-4f1a-8b1e-c47cb37473b4","system_id":"levelo_inurba_marseille","lat":43.30916,"lon":5.36852,"is_reserved":false,"is_disabled":false,"rental_uris":{"android":"levelo://app?vid=8a7a2607-988e-4f1a-8b1e-c47cb37473b4","ios":"levelo://app?vid=8a7a2607-988e-4f1a-8b1e-c47cb37473b4"},"vehicle_type_id":"4","last_reported":1741177079,"current_range_meters":6000,"station_id":"ce4bgn92rcd13ifvqbvg","pricing_plan_id":"cebpf4jnsgd1na2vs0mg"},{"bike_id":"4023a6fd-b89c-4e19-9502-1f3fc1a085d9","system_id":"levelo_inurba_marseille","lat":43.27307,"lon":5.39083,"is_reserved":false,"is_disabled":false,"rental_uris":{"android":"levelo://app?vid=4023a6fd-b89c-4e19-9502-1f3fc1a085d9","ios":"levelo://app?vid=4023a6fd-b89c-4e19-9502-1f3fc1a085d9"},"vehicle_type_id":"4","last_reported":1741177079,"current_range_meters":6000,"station_id":"ce4bhgp2rcd13ifvqfe0","pricing_plan_id":"cebpf4jnsgd1na2vs0mg"},{"bike_id":"f8a8abfe-07c6-4c27-b7c1-5ff24468fa52","system_id":"levelo_inurba_marseille","lat":43.25502,"lon":5.37654,"is_reserved":false,"is_disabled":false,"rental_uris":{"android":"levelo://app?vid=f8a8abfe-07c6-4c27-b7c1-5ff24468fa52","ios":"levelo://app?vid=f8a8abfe-07c6-4c27-b7c1-5ff24468fa52"},"vehicle_type_id":"4","last_reported":1741177079,"current_range_meters":6000,"station_id":"ce4bhh12rcd13ifvqff0","pricing_plan_id":"cebpf4jnsgd1na2vs0mg"},{"bike_id":"2d3b3c09-42a9-4d38-ad3f-30c0062d2ff1","system_id":"levelo_inurba_marseille","lat":43.25822,"lon":5.39442,"is_reserved":false,"is_disabled":false,"rental_uris":{"android":"levelo://app?vid=2d3b3c09-42a9-4d38-ad3f-30c0062d2ff1","ios":"levelo://app?vid=2d3b3c09-42a9-4d38-ad3f-30c0062d2ff1"},"vehicle_type_id":"4","last_reported":1741177079,"current_range_meters":6400,"station_id":"ce4bhip2rcd13ifvqft0","pricing_plan_id":"cebpf4jnsgd1na2vs0mg"},{"bike_id":"7f3a3487-110f-4f3d-b4bb-e43ff073c35a","system_id":"levelo_inurba_marseille","lat":43.31279,"lon":5.40172,"is_reserved":false,"is_disabled":false,"rental_uris":{"android":"levelo://app?vid=7f3a3487-110f-4f3d-b4bb-e43ff073c35a","ios":"levelo://app?vid=7f3a3487-110f-4f3d-b4bb-e43ff073c35a"},"vehicle_type_id":"4","last_reported":1741177079,"current_range_meters":6800,"station_id":"ce4bh092rcd13ifvqd30","pricing_plan_id":"cebpf4jnsgd1na2vs0mg"},{"bike_id":"19d1d857-59b2-4dfd-bfd3-47fd9d301513","system_id":"levelo_inurba_marseille","lat":43.2919,"lon":5.39331,"is_reserved":false,"is_disabled":false,"rental_uris":{"android":"levelo://app?vid=19d1d857-59b2-4dfd-bfd3-47fd9d301513","ios":"levelo://app?vid=19d1d857-59b2-4dfd-bfd3-47fd9d301513"},"vehicle_type_id":"4","last_reported":1741177079,"current_range_meters":6800,"station_id":"ce4bh192rcd13ifvqdd0","pricing_plan_id":"cebpf4jnsgd1na2vs0mg"},{"bike_id":"a2c6c6ee-6573-49c2-8de9-0b50ef603f6d","system_id":"levelo_inurba_marseille","lat":43.28455,"lon":5.35888,"is_reserved":false,"is_disabled":false,"rental_uris":{"android":"levelo://app?vid=a2c6c6ee-6573-49c2-8de9-0b50ef603f6d","ios":"levelo://app?vid=a2c6c6ee-6573-49c2-8de9-0b50ef603f6d"},"vehicle_type_id":"4","last_reported":1741177079,"current_range_meters":6800,"station_id":"ce4bhah2rcd13ifvqei0","pricing_plan_id":"cebpf4jnsgd1na2vs0mg"},{"bike_id":"8e83f4d3-dd65-4542-8785-b15b9a5e7357","system_id":"levelo_inurba_marseille","lat":43.25923,"lon":5.40894,"is_reserved":false,"is_disabled":false,"rental_uris":{"android":"levelo://app?vid=8e83f4d3-dd65-4542-8785-b15b9a5e7357","ios":"levelo://app?vid=8e83f4d3-dd65-4542-8785-b15b9a5e7357"},"vehicle_type_id":"4","last_reported":1741177079,"current_range_meters":6800,"station_id":"ce4bhm92rcd13ifvqglg","pricing_plan_id":"cebpf4jnsgd1na2vs0mg"},{"bike_id":"a88c142e-d928-4561-88fe-ca6968b4c6c1","system_id":"levelo_inurba_marseille","lat":43.26223,"lon":5.40433,"is_reserved":false,"is_disabled":false,"rental_uris":{"android":"levelo://app?vid=a88c142e-d928-4561-88fe-ca6968b4c6c1","ios":"levelo://app?vid=a88c142e-d928-4561-88fe-ca6968b4c6c1"},"vehicle_type_id":"4","last_reported":1741177079,"current_range_meters":6800,"station_id":"ce4bhmh2rcd13ifvqgmg","pricing_plan_id":"cebpf4jnsgd1na2vs0mg"},{"bike_id":"997217d4-9110-4f1d-bb92-525e0e2d4061","system_id":"levelo_inurba_marseille","lat":43.23153,"lon":5.43728,"is_reserved":false,"is_disabled":false,"rental_uris":{"android":"levelo://app?vid=997217d4-9110-4f1d-bb92-525e0e2d4061","ios":"levelo://app?vid=997217d4-9110-4f1d-bb92-525e0e2d4061"},"vehicle_type_id":"4","last_reported":1741177079,"current_range_meters":6800,"station_id":"ce4bhmp2rcd13ifvqgog","pricing_plan_id":"cebpf4jnsgd1na2vs0mg"},{"bike_id":"4d96a45d-8e1d-4f5c-846e-3a9ab83111fb","system_id":"levelo_inurba_marseille","lat":43.32365,"lon":5.36767,"is_reserved":false,"is_disabled":false,"rental_uris":{"android":"levelo://app?vid=4d96a45d-8e1d-4f5c-846e-3a9ab83111fb","ios":"levelo://app?vid=4d96a45d-8e1d-4f5c-846e-3a9ab83111fb"},"vehicle_type_id":"4","last_reported":1741177079,"current_range_meters":6800,"station_id":"ce4bhsh2rcd13ifvqi2g","pricing_plan_id":"cebpf4jnsgd1na2vs0mg"},{"bike_id":"21b19842-9ad9-4db0-bc46-3d2827c0069e","system_id":"levelo_inurba_marseille","lat":43.23212,"lon":5.35539,"is_reserved":false,"is_disabled":false,"rental_uris":{"android":"levelo://app?vid=21b19842-9ad9-4db0-bc46-3d2827c0069e","ios":"levelo://app?vid=21b19842-9ad9-4db0-bc46-3d2827c0069e"},"vehicle_type_id":"4","last_reported":1741177079,"current_range_meters":6800,"station_id":"ce4bhu92rcd13ifvqi70","pricing_plan_id":"cebpf4jnsgd1na2vs0mg"},{"bike_id":"ee1d2ad1-36ca-49dd-a328-f2a9a9994ecb","system_id":"levelo_inurba_marseille","lat":43.31066,"lon":5.3814,"is_reserved":false,"is_disabled":false,"rental_uris":{"android":"levelo://app?vid=ee1d2ad1-36ca-49dd-a328-f2a9a9994ecb","ios":"levelo://app?vid=ee1d2ad1-36ca-49dd-a328-f2a9a9994ecb"},"vehicle_type_id":"4","last_reported":1741177079,"current_range_meters":7200,"station_id":"","pricing_plan_id":"cebpf4jnsgd1na2vs0mg"},{"bike_id":"136bb51c-d012-4916-adf9-aed8533144cf","system_id":"levelo_inurba_marseille","lat":43.30498,"lon":5.36554,"is_reserved":false,"is_disabled":false,"rental_uris":{"android":"levelo://app?vid=136bb51c-d012-4916-adf9-aed8533144cf","ios":"levelo://app?vid=136bb51c-d012-4916-adf9-aed8533144cf"},"vehicle_type_id":"4","last_reported":1741177079,"current_range_meters":7200,"station_id":"","pricing_plan_id":"cebpf4jnsgd1na2vs0mg"},{"bike_id":"b9f03359-6ec4-42b8-95eb-16479754f0e1","system_id":"levelo_inurba_marseille","lat":43.30917,"lon":5.36851,"is_reserved":false,"is_disabled":false,"rental_uris":{"android":"levelo://app?vid=b9f03359-6ec4-42b8-95eb-16479754f0e1","ios":"levelo://app?vid=b9f03359-6ec4-42b8-95eb-16479754f0e1"},"vehicle_type_id":"4","last_reported":1741177079,"current_range_meters":7200,"station_id":"ce4bgn92rcd13ifvqbvg","pricing_plan_id":"cebpf4jnsgd1na2vs0mg"},{"bike_id":"0fe82091-9309-4717-912c-b7301e5536ee","system_id":"levelo_inurba_marseille","lat":43.28727,"lon":5.37935,"is_reserved":false,"is_disabled":false,"rental_uris":{"android":"levelo://app?vid=0fe82091-9309-4717-912c-b7301e5536ee","ios":"levelo://app?vid=0fe82091-9309-4717-912c-b7301e5536ee"},"vehicle_type_id":"4","last_reported":1741177079,"current_range_meters":7200,"station_id":"ce4bhb92rcd13ifvqen0","pricing_plan_id":"cebpf4jnsgd1na2vs0mg"},{"bike_id":"a9aaea27-ea24-4574-9a23-fbb93b4d05b1","system_id":"levelo_inurba_marseille","lat":43.29005,"lon":5.35609,"is_reserved":false,"is_disabled":false,"rental_uris":{"android":"levelo://app?vid=a9aaea27-ea24-4574-9a23-fbb93b4d05b1","ios":"levelo://app?vid=a9aaea27-ea24-4574-9a23-fbb93b4d05b1"},"vehicle_type_id":"4","last_reported":1741177079,"current_range_meters":7200,"station_id":"ce4bhb92rcd13ifvqen0","pricing_plan_id":"cebpf4jnsgd1na2vs0mg"},{"bike_id":"2a6f17f9-034e-48ce-9c4e-9841b317a327","system_id":"levelo_inurba_marseille","lat":43.29278,"lon":5.36848,"is_reserved":false,"is_disabled":false,"rental_uris":{"android":"levelo://app?vid=2a6f17f9-034e-48ce-9c4e-9841b317a327","ios":"levelo://app?vid=2a6f17f9-034e-48ce-9c4e-9841b317a327"},"vehicle_type_id":"4","last_reported":1741177079,"current_range_meters":7200,"station_id":"ce4bhbp2rcd13ifvqesg","pricing_plan_id":"cebpf4jnsgd1na2vs0mg"},{"bike_id":"f8ce6365-0ca5-4bb4-b8bb-09392fed751a","system_id":"levelo_inurba_marseille","lat":43.27424,"lon":5.39407,"is_reserved":false,"is_disabled":false,"rental_uris":{"android":"levelo://app?vid=f8ce6365-0ca5-4bb4-b8bb-09392fed751a","ios":"levelo://app?vid=f8ce6365-0ca5-4bb4-b8bb-09392fed751a"},"vehicle_type_id":"4","last_reported":1741177079,"current_range_meters":7200,"station_id":"ce4bhdp2rcd13ifvqf20","pricing_plan_id":"cebpf4jnsgd1na2vs0mg"},{"bike_id":"5a6f6465-c6c2-41f4-954c-6c9f3e199226","system_id":"levelo_inurba_marseille","lat":43.26557,"lon":5.37287,"is_reserved":false,"is_disabled":false,"rental_uris":{"android":"levelo://app?vid=5a6f6465-c6c2-41f4-954c-6c9f3e199226","ios":"levelo://app?vid=5a6f6465-c6c2-41f4-954c-6c9f3e199226"},"vehicle_type_id":"4","last_reported":1741177079,"current_range_meters":7200,"station_id":"ce4bhg12rcd13ifvqf70","pricing_plan_id":"cebpf4jnsgd1na2vs0mg"},{"bike_id":"f65e7252-9572-43fa-9316-815e33bd88d8","system_id":"levelo_inurba_marseille","lat":43.27306,"lon":5.390802,"is_reserved":false,"is_disabled":false,"rental_uris":{"android":"levelo://app?vid=f65e7252-9572-43fa-9316-815e33bd88d8","ios":"levelo://app?vid=f65e7252-9572-43fa-9316-815e33bd88d8"},"vehicle_type_id":"4","last_reported":1741177079,"current_range_meters":7200,"station_id":"ce4bhgp2rcd13ifvqfe0","pricing_plan_id":"cebpf4jnsgd1na2vs0mg"},{"bike_id":"64b4dda1-33e7-4de7-8c1c-fab89b33698f","system_id":"levelo_inurba_marseille","lat":43.27177,"lon":5.40993,"is_reserved":false,"is_disabled":false,"rental_uris":{"android":"levelo://app?vid=64b4dda1-33e7-4de7-8c1c-fab89b33698f","ios":"levelo://app?vid=64b4dda1-33e7-4de7-8c1c-fab89b33698f"},"vehicle_type_id":"4","last_reported":1741177079,"current_range_meters":7200,"station_id":"ce4bhl12rcd13ifvqgf0","pricing_plan_id":"cebpf4jnsgd1na2vs0mg"},{"bike_id":"c747a8f4-bff7-4bd4-bbf2-c93831c34bdf","system_id":"levelo_inurba_marseille","lat":43.24544,"lon":5.3952,"is_reserved":false,"is_disabled":false,"rental_uris":{"android":"levelo://app?vid=c747a8f4-bff7-4bd4-bbf2-c93831c34bdf","ios":"levelo://app?vid=c747a8f4-bff7-4bd4-bbf2-c93831c34bdf"},"vehicle_type_id":"4","last_reported":1741177079,"current_range_meters":7200,"station_id":"ce4bhlp2rcd13ifvqgjg","pricing_plan_id":"cebpf4jnsgd1na2vs0mg"},{"bike_id":"542e25e7-cd79-46c3-a1f5-591e5aaa553d","system_id":"levelo_inurba_marseille","lat":43.25931,"lon":5.40917,"is_reserved":false,"is_disabled":false,"rental_uris":{"android":"levelo://app?vid=542e25e7-cd79-46c3-a1f5-591e5aaa553d","ios":"levelo://app?vid=542e25e7-cd79-46c3-a1f5-591e5aaa553d"},"vehicle_type_id":"4","last_reported":1741177079,"current_range_meters":7200,"station_id":"ce4bhm92rcd13ifvqglg","pricing_plan_id":"cebpf4jnsgd1na2vs0mg"},{"bike_id":"acc909e7-3836-42b3-b51d-082940d4d9ec","system_id":"levelo_inurba_marseille","lat":43.26196,"lon":5.40482,"is_reserved":false,"is_disabled":false,"rental_uris":{"android":"levelo://app?vid=acc909e7-3836-42b3-b51d-082940d4d9ec","ios":"levelo://app?vid=acc909e7-3836-42b3-b51d-082940d4d9ec"},"vehicle_type_id":"4","last_reported":1741177079,"current_range_meters":7200,"station_id":"ce4bhmh2rcd13ifvqgmg","pricing_plan_id":"cebpf4jnsgd1na2vs0mg"},{"bike_id":"4bc22bc8-57d9-4e3e-bbf9-5bb2e57875a0","system_id":"levelo_inurba_marseille","lat":43.2782,"lon":5.4072,"is_reserved":false,"is_disabled":false,"rental_uris":{"android":"levelo://app?vid=4bc22bc8-57d9-4e3e-bbf9-5bb2e57875a0","ios":"levelo://app?vid=4bc22bc8-57d9-4e3e-bbf9-5bb2e57875a0"},"vehicle_type_id":"4","last_reported":1741177079,"current_range_meters":7200,"station_id":"ce4bhnh2rcd13ifvqgtg","pricing_plan_id":"cebpf4jnsgd1na2vs0mg"},{"bike_id":"9124f331-2087-4a7d-bf69-2302bfd29535","system_id":"levelo_inurba_marseille","lat":43.31497,"lon":5.3731,"is_reserved":false,"is_disabled":false,"rental_uris":{"android":"levelo://app?vid=9124f331-2087-4a7d-bf69-2302bfd29535","ios":"levelo://app?vid=9124f331-2087-4a7d-bf69-2302bfd29535"},"vehicle_type_id":"4","last_reported":1741177079,"current_range_meters":8000,"station_id":"ce4bgt12rcd13ifvqcd0","pricing_plan_id":"cebpf4jnsgd1na2vs0mg"},{"bike_id":"ee6214b6-f75f-45de-a5bd-adbc3541f4f5","system_id":"levelo_inurba_marseille","lat":43.28417,"lon":5.3498,"is_reserved":false,"is_disabled":false,"rental_uris":{"android":"levelo://app?vid=ee6214b6-f75f-45de-a5bd-adbc3541f4f5","ios":"levelo://app?vid=ee6214b6-f75f-45de-a5bd-adbc3541f4f5"},"vehicle_type_id":"4","last_reported":1741177079,"current_range_meters":8000,"station_id":"ce4bhbh2rcd13ifvqepg","pricing_plan_id":"cebpf4jnsgd1na2vs0mg"},{"bike_id":"6b4ccd0a-d8d4-47e8-a23e-db23c42b230c","system_id":"levelo_inurba_marseille","lat":43.250107,"lon":5.38934,"is_reserved":false,"is_disabled":false,"rental_uris":{"android":"levelo://app?vid=6b4ccd0a-d8d4-47e8-a23e-db23c42b230c","ios":"levelo://app?vid=6b4ccd0a-d8d4-47e8-a23e-db23c42b230c"},"vehicle_type_id":"4","last_reported":1741177079,"current_range_meters":8000,"station_id":"ce4bhgp2rcd13ifvqfd0","pricing_plan_id":"cebpf4jnsgd1na2vs0mg"},{"bike_id":"a9215dee-0d74-4dd7-86e8-407aa6a9a48b","system_id":"levelo_inurba_marseille","lat":43.2397,"lon":5.36643,"is_reserved":false,"is_disabled":false,"rental_uris":{"android":"levelo://app?vid=a9215dee-0d74-4dd7-86e8-407aa6a9a48b","ios":"levelo://app?vid=a9215dee-0d74-4dd7-86e8-407aa6a9a48b"},"vehicle_type_id":"4","last_reported":1741177079,"current_range_meters":8000,"station_id":"ce4bhi12rcd13ifvqfp0","pricing_plan_id":"cebpf4jnsgd1na2vs0mg"},{"bike_id":"3273935a-2cef-412c-8c86-180a2a0b5653","system_id":"levelo_inurba_marseille","lat":43.2512,"lon":5.40322,"is_reserved":false,"is_disabled":false,"rental_uris":{"android":"levelo://app?vid=3273935a-2cef-412c-8c86-180a2a0b5653","ios":"levelo://app?vid=3273935a-2cef-412c-8c86-180a2a0b5653"},"vehicle_type_id":"4","last_reported":1741177079,"current_range_meters":8000,"station_id":"ce4bhlh2rcd13ifvqgig","pricing_plan_id":"cebpf4jnsgd1na2vs0mg"},{"bike_id":"e6a4f953-5895-4fa8-ac31-a0a59838afae","system_id":"levelo_inurba_marseille","lat":43.2593,"lon":5.40895,"is_reserved":false,"is_disabled":false,"rental_uris":{"android":"levelo://app?vid=e6a4f953-5895-4fa8-ac31-a0a59838afae","ios":"levelo://app?vid=e6a4f953-5895-4fa8-ac31-a0a59838afae"},"vehicle_type_id":"4","last_reported":1741177079,"current_range_meters":8000,"station_id":"ce4bhm92rcd13ifvqglg","pricing_plan_id":"cebpf4jnsgd1na2vs0mg"},{"bike_id":"d4f45980-efd3-482d-8bab-c251301222b2","system_id":"levelo_inurba_marseille","lat":43.23152,"lon":5.437,"is_reserved":false,"is_disabled":false,"rental_uris":{"android":"levelo://app?vid=d4f45980-efd3-482d-8bab-c251301222b2","ios":"levelo://app?vid=d4f45980-efd3-482d-8bab-c251301222b2"},"vehicle_type_id":"4","last_reported":1741177079,"current_range_meters":8000,"station_id":"ce4bhmp2rcd13ifvqgog","pricing_plan_id":"cebpf4jnsgd1na2vs0mg"},{"bike_id":"de44d09a-d4db-4ce3-a2dd-62f4dc2e96ab","system_id":"levelo_inurba_marseille","lat":43.28146,"lon":5.42814,"is_reserved":false,"is_disabled":false,"rental_uris":{"android":"levelo://app?vid=de44d09a-d4db-4ce3-a2dd-62f4dc2e96ab","ios":"levelo://app?vid=de44d09a-d4db-4ce3-a2dd-62f4dc2e96ab"},"vehicle_type_id":"4","last_reported":1741177079,"current_range_meters":8400,"station_id":"","pricing_plan_id":"cebpf4jnsgd1na2vs0mg"},{"bike_id":"314f42ea-48b9-4988-91f7-bf21a093f160","system_id":"levelo_inurba_marseille","lat":43.2942,"lon":5.38624,"is_reserved":false,"is_disabled":false,"rental_uris":{"android":"levelo://app?vid=314f42ea-48b9-4988-91f7-bf21a093f160","ios":"levelo://app?vid=314f42ea-48b9-4988-91f7-bf21a093f160"},"vehicle_type_id":"4","last_reported":1741177079,"current_range_meters":8400,"station_id":"ce4bh2h2rcd13ifvqdh0","pricing_plan_id":"cebpf4jnsgd1na2vs0mg"},{"bike_id":"b28601fb-e69e-4d4f-a690-4f85c09afb2e","system_id":"levelo_inurba_marseille","lat":43.28844,"lon":5.35855,"is_reserved":false,"is_disabled":false,"rental_uris":{"android":"levelo://app?vid=b28601fb-e69e-4d4f-a690-4f85c09afb2e","ios":"levelo://app?vid=b28601fb-e69e-4d4f-a690-4f85c09afb2e"},"vehicle_type_id":"4","last_reported":1741177079,"current_range_meters":8400,"station_id":"ce4bhb12rcd13ifvqem0","pricing_plan_id":"cebpf4jnsgd1na2vs0mg"},{"bike_id":"c82f8db4-5b8c-426c-bd31-ddbf17c5a92f","system_id":"levelo_inurba_marseille","lat":43.29007,"lon":5.35599,"is_reserved":false,"is_disabled":false,"rental_uris":{"android":"levelo://app?vid=c82f8db4-5b8c-426c-bd31-ddbf17c5a92f","ios":"levelo://app?vid=c82f8db4-5b8c-426c-bd31-ddbf17c5a92f"},"vehicle_type_id":"4","last_reported":1741177079,"current_range_meters":8400,"station_id":"ce4bhb92rcd13ifvqen0","pricing_plan_id":"cebpf4jnsgd1na2vs0mg"},{"bike_id":"1251622a-c93e-431e-90d0-4106b158ac93","system_id":"levelo_inurba_marseille","lat":43.28433,"lon":5.34974,"is_reserved":false,"is_disabled":false,"rental_uris":{"android":"levelo://app?vid=1251622a-c93e-431e-90d0-4106b158ac93","ios":"levelo://app?vid=1251622a-c93e-431e-90d0-4106b158ac93"},"vehicle_type_id":"4","last_reported":1741177079,"current_range_meters":8400,"station_id":"ce4bhbh2rcd13ifvqepg","pricing_plan_id":"cebpf4jnsgd1na2vs0mg"},{"bike_id":"346c5faf-5c6d-40f5-b832-4598b852a63c","system_id":"levelo_inurba_marseille","lat":43.26561,"lon":5.37282,"is_reserved":false,"is_disabled":false,"rental_uris":{"android":"levelo://app?vid=346c5faf-5c6d-40f5-b832-4598b852a63c","ios":"levelo://app?vid=346c5faf-5c6d-40f5-b832-4598b852a63c"},"vehicle_type_id":"4","last_reported":1741177079,"current_range_meters":8400,"station_id":"ce4bhg12rcd13ifvqf70","pricing_plan_id":"cebpf4jnsgd1na2vs0mg"},{"bike_id":"41da4b56-604c-4398-a7b9-104be2ad83f3","system_id":"levelo_inurba_marseille","lat":43.23155,"lon":5.43657,"is_reserved":false,"is_disabled":false,"rental_uris":{"android":"levelo://app?vid=41da4b56-604c-4398-a7b9-104be2ad83f3","ios":"levelo://app?vid=41da4b56-604c-4398-a7b9-104be2ad83f3"},"vehicle_type_id":"4","last_reported":1741177079,"current_range_meters":8400,"station_id":"ce4bhmp2rcd13ifvqgog","pricing_plan_id":"cebpf4jnsgd1na2vs0mg"},{"bike_id":"44a7153b-0fd7-4509-836b-676bbf84fb06","system_id":"levelo_inurba_marseille","lat":43.23208,"lon":5.35542,"is_reserved":false,"is_disabled":false,"rental_uris":{"android":"levelo://app?vid=44a7153b-0fd7-4509-836b-676bbf84fb06","ios":"levelo://app?vid=44a7153b-0fd7-4509-836b-676bbf84fb06"},"vehicle_type_id":"4","last_reported":1741177079,"current_range_meters":8400,"station_id":"ce4bhu92rcd13ifvqi70","pricing_plan_id":"cebpf4jnsgd1na2vs0mg"},{"bike_id":"332abda5-2296-4955-8d29-1593f717e1c9","system_id":"levelo_inurba_marseille","lat":43.27962,"lon":5.41577,"is_reserved":false,"is_disabled":false,"rental_uris":{"android":"levelo://app?vid=332abda5-2296-4955-8d29-1593f717e1c9","ios":"levelo://app?vid=332abda5-2296-4955-8d29-1593f717e1c9"},"vehicle_type_id":"4","last_reported":1741177079,"current_range_meters":8800,"station_id":"","pricing_plan_id":"cebpf4jnsgd1na2vs0mg"},{"bike_id":"9ee1557e-12f8-4abb-8698-ed877fde5ca8","system_id":"levelo_inurba_marseille","lat":43.29257,"lon":5.37629,"is_reserved":false,"is_disabled":false,"rental_uris":{"android":"levelo://app?vid=9ee1557e-12f8-4abb-8698-ed877fde5ca8","ios":"levelo://app?vid=9ee1557e-12f8-4abb-8698-ed877fde5ca8"},"vehicle_type_id":"4","last_reported":1741177079,"current_range_meters":8800,"station_id":"ce4bgi12rcd13ifvqb80","pricing_plan_id":"cebpf4jnsgd1na2vs0mg"},{"bike_id":"68652dc6-fc96-4613-8c2b-ab793523921e","system_id":"levelo_inurba_marseille","lat":43.2952,"lon":5.39397,"is_reserved":false,"is_disabled":false,"rental_uris":{"android":"levelo://app?vid=68652dc6-fc96-4613-8c2b-ab793523921e","ios":"levelo://app?vid=68652dc6-fc96-4613-8c2b-ab793523921e"},"vehicle_type_id":"4","last_reported":1741177079,"current_range_meters":8800,"station_id":"ce4bh292rcd13ifvqdf0","pricing_plan_id":"cebpf4jnsgd1na2vs0mg"},{"bike_id":"7348fd4a-6c81-4920-9674-a54db716fb60","system_id":"levelo_inurba_marseille","lat":43.28853,"lon":5.35842,"is_reserved":false,"is_disabled":false,"rental_uris":{"android":"levelo://app?vid=7348fd4a-6c81-4920-9674-a54db716fb60","ios":"levelo://app?vid=7348fd4a-6c81-4920-9674-a54db716fb60"},"vehicle_type_id":"4","last_reported":1741177079,"current_range_meters":8800,"station_id":"ce4bhb12rcd13ifvqem0","pricing_plan_id":"cebpf4jnsgd1na2vs0mg"},{"bike_id":"e45f8d2c-06b2-4ed3-951d-fb4bbbe91c71","system_id":"levelo_inurba_marseille","lat":43.28416,"lon":5.34973,"is_reserved":false,"is_disabled":false,"rental_uris":{"android":"levelo://app?vid=e45f8d2c-06b2-4ed3-951d-fb4bbbe91c71","ios":"levelo://app?vid=e45f8d2c-06b2-4ed3-951d-fb4bbbe91c71"},"vehicle_type_id":"4","last_reported":1741177079,"current_range_meters":8800,"station_id":"ce4bhbh2rcd13ifvqepg","pricing_plan_id":"cebpf4jnsgd1na2vs0mg"},{"bike_id":"d5846449-7219-4265-90f9-a2ede6b6465f","system_id":"levelo_inurba_marseille","lat":43.24178,"lon":5.3972,"is_reserved":false,"is_disabled":false,"rental_uris":{"android":"levelo://app?vid=d5846449-7219-4265-90f9-a2ede6b6465f","ios":"levelo://app?vid=d5846449-7219-4265-90f9-a2ede6b6465f"},"vehicle_type_id":"4","last_reported":1741177079,"current_range_meters":8800,"station_id":"ce4bhn12rcd13ifvqgpg","pricing_plan_id":"cebpf4jnsgd1na2vs0mg"},{"bike_id":"875e8a70-b504-4210-b16b-025f0da5b5e7","system_id":"levelo_inurba_marseille","lat":43.27507,"lon":5.42457,"is_reserved":false,"is_disabled":false,"rental_uris":{"android":"levelo://app?vid=875e8a70-b504-4210-b16b-025f0da5b5e7","ios":"levelo://app?vid=875e8a70-b504-4210-b16b-025f0da5b5e7"},"vehicle_type_id":"4","last_reported":1741177079,"current_range_meters":8800,"station_id":"ce4bhn92rcd13ifvqgrg","pricing_plan_id":"cebpf4jnsgd1na2vs0mg"},{"bike_id":"e24b58cd-1c8e-4e08-8a60-cc65b8817bf3","system_id":"levelo_inurba_marseille","lat":43.30909,"lon":5.36853,"is_reserved":false,"is_disabled":false,"rental_uris":{"android":"levelo://app?vid=e24b58cd-1c8e-4e08-8a60-cc65b8817bf3","ios":"levelo://app?vid=e24b58cd-1c8e-4e08-8a60-cc65b8817bf3"},"vehicle_type_id":"4","last_reported":1741177079,"current_range_meters":9200,"station_id":"ce4bgn92rcd13ifvqbvg","pricing_plan_id":"cebpf4jnsgd1na2vs0mg"},{"bike_id":"96794ea4-770a-4927-923a-493e9670ecf8","system_id":"levelo_inurba_marseille","lat":43.2843,"lon":5.34985,"is_reserved":false,"is_disabled":false,"rental_uris":{"android":"levelo://app?vid=96794ea4-770a-4927-923a-493e9670ecf8","ios":"levelo://app?vid=96794ea4-770a-4927-923a-493e9670ecf8"},"vehicle_type_id":"4","last_reported":1741177079,"current_range_meters":9200,"station_id":"ce4bhbh2rcd13ifvqepg","pricing_plan_id":"cebpf4jnsgd1na2vs0mg"},{"bike_id":"017a401a-e2dd-42af-b9e1-5e499d8c4ed9","system_id":"levelo_inurba_marseille","lat":43.24175,"lon":5.39719,"is_reserved":false,"is_disabled":false,"rental_uris":{"android":"levelo://app?vid=017a401a-e2dd-42af-b9e1-5e499d8c4ed9","ios":"levelo://app?vid=017a401a-e2dd-42af-b9e1-5e499d8c4ed9"},"vehicle_type_id":"4","last_reported":1741177079,"current_range_meters":9200,"station_id":"ce4bhn12rcd13ifvqgpg","pricing_plan_id":"cebpf4jnsgd1na2vs0mg"},{"bike_id":"51f6f578-8898-487a-9da7-ff3d6d379d1b","system_id":"levelo_inurba_marseille","lat":43.32102,"lon":5.36771,"is_reserved":false,"is_disabled":false,"rental_uris":{"android":"levelo://app?vid=51f6f578-8898-487a-9da7-ff3d6d379d1b","ios":"levelo://app?vid=51f6f578-8898-487a-9da7-ff3d6d379d1b"},"vehicle_type_id":"4","last_reported":1741177079,"current_range_meters":9200,"station_id":"ce4bhrh2rcd13ifvqhug","pricing_plan_id":"cebpf4jnsgd1na2vs0mg"},{"bike_id":"4c0e314a-87e2-48f0-a7b0-ec6605046de8","system_id":"levelo_inurba_marseille","lat":43.32109,"lon":5.3677,"is_reserved":false,"is_disabled":false,"rental_uris":{"android":"levelo://app?vid=4c0e314a-87e2-48f0-a7b0-ec6605046de8","ios":"levelo://app?vid=4c0e314a-87e2-48f0-a7b0-ec6605046de8"},"vehicle_type_id":"4","last_reported":1741177079,"current_range_meters":9200,"station_id":"ce4bhrh2rcd13ifvqhug","pricing_plan_id":"cebpf4jnsgd1na2vs0mg"},{"bike_id":"da012e55-56aa-4836-97eb-401c7578f569","system_id":"levelo_inurba_marseille","lat":43.25939,"lon":5.40876,"is_reserved":false,"is_disabled":false,"rental_uris":{"android":"levelo://app?vid=da012e55-56aa-4836-97eb-401c7578f569","ios":"levelo://app?vid=da012e55-56aa-4836-97eb-401c7578f569"},"vehicle_type_id":"4","last_reported":1741177079,"current_range_meters":9600,"station_id":"ce4bhm92rcd13ifvqglg","pricing_plan_id":"cebpf4jnsgd1na2vs0mg"},{"bike_id":"732ada68-e09b-484b-9389-48a458784665","system_id":"levelo_inurba_marseille","lat":43.31998,"lon":5.41363,"is_reserved":false,"is_disabled":false,"rental_uris":{"android":"levelo://app?vid=732ada68-e09b-484b-9389-48a458784665","ios":"levelo://app?vid=732ada68-e09b-484b-9389-48a458784665"},"vehicle_type_id":"4","last_reported":1741177079,"current_range_meters":10000,"station_id":"","pricing_plan_id":"cebpf4jnsgd1na2vs0mg"},{"bike_id":"8f8dda39-9454-47be-8b5d-d5ab2618eafe","system_id":"levelo_inurba_marseille","lat":43.29875,"lon":5.38135,"is_reserved":false,"is_disabled":false,"rental_uris":{"android":"levelo://app?vid=8f8dda39-9454-47be-8b5d-d5ab2618eafe","ios":"levelo://app?vid=8f8dda39-9454-47be-8b5d-d5ab2618eafe"},"vehicle_type_id":"4","last_reported":1741177079,"current_range_meters":10000,"station_id":"ce4bgj12rcd13ifvqbc0","pricing_plan_id":"cebpf4jnsgd1na2vs0mg"},{"bike_id":"3de42499-332f-4f37-855f-942539a949a7","system_id":"levelo_inurba_marseille","lat":43.29761,"lon":5.37125,"is_reserved":false,"is_disabled":false,"rental_uris":{"android":"levelo://app?vid=3de42499-332f-4f37-855f-942539a949a7","ios":"levelo://app?vid=3de42499-332f-4f37-855f-942539a949a7"},"vehicle_type_id":"4","last_reported":1741177079,"current_range_meters":10000,"station_id":"ce4bgop2rcd13ifvqc1g","pricing_plan_id":"cebpf4jnsgd1na2vs0mg"},{"bike_id":"8d39601e-e67b-4b47-8a8d-dc4498b9435c","system_id":"levelo_inurba_marseille","lat":43.28865,"lon":5.35849,"is_reserved":false,"is_disabled":false,"rental_uris":{"android":"levelo://app?vid=8d39601e-e67b-4b47-8a8d-dc4498b9435c","ios":"levelo://app?vid=8d39601e-e67b-4b47-8a8d-dc4498b9435c"},"vehicle_type_id":"4","last_reported":1741177079,"current_range_meters":10000,"station_id":"ce4bhb12rcd13ifvqem0","pricing_plan_id":"cebpf4jnsgd1na2vs0mg"},{"bike_id":"91a1ee83-54b8-4fad-90b0-b60f1de63a24","system_id":"levelo_inurba_marseille","lat":43.28425,"lon":5.34992,"is_reserved":false,"is_disabled":false,"rental_uris":{"android":"levelo://app?vid=91a1ee83-54b8-4fad-90b0-b60f1de63a24","ios":"levelo://app?vid=91a1ee83-54b8-4fad-90b0-b60f1de63a24"},"vehicle_type_id":"4","last_reported":1741177079,"current_range_meters":10000,"station_id":"ce4bhbh2rcd13ifvqepg","pricing_plan_id":"cebpf4jnsgd1na2vs0mg"},{"bike_id":"4d216dc4-abcd-4e3a-9bd8-fb8303e1931b","system_id":"levelo_inurba_marseille","lat":43.271994,"lon":5.391767,"is_reserved":false,"is_disabled":false,"rental_uris":{"android":"levelo://app?vid=4d216dc4-abcd-4e3a-9bd8-fb8303e1931b","ios":"levelo://app?vid=4d216dc4-abcd-4e3a-9bd8-fb8303e1931b"},"vehicle_type_id":"4","last_reported":1741177079,"current_range_meters":10000,"station_id":"ce4bhn12rcd13ifvqgqg","pricing_plan_id":"cebpf4jnsgd1na2vs0mg"},{"bike_id":"d4a559e8-94a7-47e7-9fe4-a5212be6faa1","system_id":"levelo_inurba_marseille","lat":43.28444,"lon":5.39207,"is_reserved":false,"is_disabled":false,"rental_uris":{"android":"levelo://app?vid=d4a559e8-94a7-47e7-9fe4-a5212be6faa1","ios":"levelo://app?vid=d4a559e8-94a7-47e7-9fe4-a5212be6faa1"},"vehicle_type_id":"4","last_reported":1741177079,"current_range_meters":10000,"station_id":"ce4bhoh2rcd13ifvqh5g","pricing_plan_id":"cebpf4jnsgd1na2vs0mg"},{"bike_id":"c55557ad-1ed5-4997-aee7-ac92107f14b6","system_id":"levelo_inurba_marseille","lat":43.26462,"lon":5.37514,"is_reserved":false,"is_disabled":false,"rental_uris":{"android":"levelo://app?vid=c55557ad-1ed5-4997-aee7-ac92107f14b6","ios":"levelo://app?vid=c55557ad-1ed5-4997-aee7-ac92107f14b6"},"vehicle_type_id":"4","last_reported":1741177079,"current_range_meters":10800,"station_id":"","pricing_plan_id":"cebpf4jnsgd1na2vs0mg"},{"bike_id":"bcc19ea8-d841-4c77-85e5-5471979ce287","system_id":"levelo_inurba_marseille","lat":43.29258,"lon":5.37622,"is_reserved":false,"is_disabled":false,"rental_uris":{"android":"levelo://app?vid=bcc19ea8-d841-4c77-85e5-5471979ce287","ios":"levelo://app?vid=bcc19ea8-d841-4c77-85e5-5471979ce287"},"vehicle_type_id":"4","last_reported":1741177079,"current_range_meters":10800,"station_id":"ce4bgi12rcd13ifvqb80","pricing_plan_id":"cebpf4jnsgd1na2vs0mg"},{"bike_id":"05cc03a6-8813-4d75-bd9c-1c0dd70e6b7d","system_id":"levelo_inurba_marseille","lat":43.30902,"lon":5.36848,"is_reserved":false,"is_disabled":false,"rental_uris":{"android":"levelo://app?vid=05cc03a6-8813-4d75-bd9c-1c0dd70e6b7d","ios":"levelo://app?vid=05cc03a6-8813-4d75-bd9c-1c0dd70e6b7d"},"vehicle_type_id":"4","last_reported":1741177079,"current_range_meters":10800,"station_id":"ce4bgn92rcd13ifvqbvg","pricing_plan_id":"cebpf4jnsgd1na2vs0mg"},{"bike_id":"ab9780a6-35be-4b86-ba7f-5a1c87506da7","system_id":"levelo_inurba_marseille","lat":43.29881,"lon":5.38917,"is_reserved":false,"is_disabled":false,"rental_uris":{"android":"levelo://app?vid=ab9780a6-35be-4b86-ba7f-5a1c87506da7","ios":"levelo://app?vid=ab9780a6-35be-4b86-ba7f-5a1c87506da7"},"vehicle_type_id":"4","last_reported":1741177079,"current_range_meters":10800,"station_id":"ce4bh392rcd13ifvqdl0","pricing_plan_id":"cebpf4jnsgd1na2vs0mg"},{"bike_id":"a328f9e0-bb95-4f12-a6cc-938afbb430ee","system_id":"levelo_inurba_marseille","lat":43.28465,"lon":5.35863,"is_reserved":false,"is_disabled":false,"rental_uris":{"android":"levelo://app?vid=a328f9e0-bb95-4f12-a6cc-938afbb430ee","ios":"levelo://app?vid=a328f9e0-bb95-4f12-a6cc-938afbb430ee"},"vehicle_type_id":"4","last_reported":1741177079,"current_range_meters":10800,"station_id":"ce4bhah2rcd13ifvqei0","pricing_plan_id":"cebpf4jnsgd1na2vs0mg"},{"bike_id":"76ec88b9-aa6d-487b-bc20-a5bef45f473a","system_id":"levelo_inurba_marseille","lat":43.27046,"lon":5.40265,"is_reserved":false,"is_disabled":false,"rental_uris":{"android":"levelo://app?vid=76ec88b9-aa6d-487b-bc20-a5bef45f473a","ios":"levelo://app?vid=76ec88b9-aa6d-487b-bc20-a5bef45f473a"},"vehicle_type_id":"4","last_reported":1741177079,"current_range_meters":10800,"station_id":"ce4bhk92rcd13ifvqgc0","pricing_plan_id":"cebpf4jnsgd1na2vs0mg"},{"bike_id":"e3d7bc68-e1c3-463f-8323-6b168c27cfde","system_id":"levelo_inurba_marseille","lat":43.23155,"lon":5.43709,"is_reserved":false,"is_disabled":false,"rental_uris":{"android":"levelo://app?vid=e3d7bc68-e1c3-463f-8323-6b168c27cfde","ios":"levelo://app?vid=e3d7bc68-e1c3-463f-8323-6b168c27cfde"},"vehicle_type_id":"4","last_reported":1741177079,"current_range_meters":10800,"station_id":"ce4bhmp2rcd13ifvqgog","pricing_plan_id":"cebpf4jnsgd1na2vs0mg"},{"bike_id":"3b219114-afa7-412a-84e6-60bc704150c0","system_id":"levelo_inurba_marseille","lat":43.23151,"lon":5.43708,"is_reserved":false,"is_disabled":false,"rental_uris":{"android":"levelo://app?vid=3b219114-afa7-412a-84e6-60bc704150c0","ios":"levelo://app?vid=3b219114-afa7-412a-84e6-60bc704150c0"},"vehicle_type_id":"4","last_reported":1741177079,"current_range_meters":10800,"station_id":"ce4bhmp2rcd13ifvqgog","pricing_plan_id":"cebpf4jnsgd1na2vs0mg"},{"bike_id":"a78978ba-53b1-4faa-9a35-dbb67443cb73","system_id":"levelo_inurba_marseille","lat":43.23146,"lon":5.43709,"is_reserved":false,"is_disabled":false,"rental_uris":{"android":"levelo://app?vid=a78978ba-53b1-4faa-9a35-dbb67443cb73","ios":"levelo://app?vid=a78978ba-53b1-4faa-9a35-dbb67443cb73"},"vehicle_type_id":"4","last_reported":1741177079,"current_range_meters":10800,"station_id":"ce4bhmp2rcd13ifvqgog","pricing_plan_id":"cebpf4jnsgd1na2vs0mg"},{"bike_id":"3a596ab9-9103-4f48-9700-a5a62e1fc109","system_id":"levelo_inurba_marseille","lat":43.33612,"lon":5.41034,"is_reserved":false,"is_disabled":false,"rental_uris":{"android":"levelo://app?vid=3a596ab9-9103-4f48-9700-a5a62e1fc109","ios":"levelo://app?vid=3a596ab9-9103-4f48-9700-a5a62e1fc109"},"vehicle_type_id":"4","last_reported":1741177079,"current_range_meters":10800,"station_id":"ce4bhqh2rcd13ifvqhmg","pricing_plan_id":"cebpf4jnsgd1na2vs0mg"},{"bike_id":"7cd5e07c-ad2a-4af8-99d9-77c41335ce79","system_id":"levelo_inurba_marseille","lat":43.24169,"lon":5.36385,"is_reserved":false,"is_disabled":false,"rental_uris":{"android":"levelo://app?vid=7cd5e07c-ad2a-4af8-99d9-77c41335ce79","ios":"levelo://app?vid=7cd5e07c-ad2a-4af8-99d9-77c41335ce79"},"vehicle_type_id":"4","last_reported":1741177079,"current_range_meters":10800,"station_id":"cpo36qri1sfpv3e86is0","pricing_plan_id":"cebpf4jnsgd1na2vs0mg"},{"bike_id":"ce158af8-0c78-4f59-aa06-010abe515e4d","system_id":"levelo_inurba_marseille","lat":43.30146,"lon":5.37397,"is_reserved":false,"is_disabled":false,"rental_uris":{"android":"levelo://app?vid=ce158af8-0c78-4f59-aa06-010abe515e4d","ios":"levelo://app?vid=ce158af8-0c78-4f59-aa06-010abe515e4d"},"vehicle_type_id":"4","last_reported":1741177079,"current_range_meters":11200,"station_id":"ce4bgs92rcd13ifvqcc0","pricing_plan_id":"cebpf4jnsgd1na2vs0mg"},{"bike_id":"41f54179-70b6-4afd-a435-819f948db4f7","system_id":"levelo_inurba_marseille","lat":43.29195,"lon":5.39329,"is_reserved":false,"is_disabled":false,"rental_uris":{"android":"levelo://app?vid=41f54179-70b6-4afd-a435-819f948db4f7","ios":"levelo://app?vid=41f54179-70b6-4afd-a435-819f948db4f7"},"vehicle_type_id":"4","last_reported":1741177079,"current_range_meters":11200,"station_id":"ce4bh192rcd13ifvqdd0","pricing_plan_id":"cebpf4jnsgd1na2vs0mg"},{"bike_id":"ae325af8-7c29-41e8-a68a-57d7635bf44b","system_id":"levelo_inurba_marseille","lat":43.29789,"lon":5.38084,"is_reserved":false,"is_disabled":false,"rental_uris":{"android":"levelo://app?vid=ae325af8-7c29-41e8-a68a-57d7635bf44b","ios":"levelo://app?vid=ae325af8-7c29-41e8-a68a-57d7635bf44b"},"vehicle_type_id":"4","last_reported":1741177079,"current_range_meters":11200,"station_id":"ce4bhbp2rcd13ifvqerg","pricing_plan_id":"cebpf4jnsgd1na2vs0mg"},{"bike_id":"6da373c2-c393-476e-adb0-76b8a243f45c","system_id":"levelo_inurba_marseille","lat":43.25825,"lon":5.39438,"is_reserved":false,"is_disabled":false,"rental_uris":{"android":"levelo://app?vid=6da373c2-c393-476e-adb0-76b8a243f45c","ios":"levelo://app?vid=6da373c2-c393-476e-adb0-76b8a243f45c"},"vehicle_type_id":"4","last_reported":1741177079,"current_range_meters":11200,"station_id":"ce4bhip2rcd13ifvqft0","pricing_plan_id":"cebpf4jnsgd1na2vs0mg"},{"bike_id":"6efca0ee-8d3a-4fd4-a4ac-faa142031a0a","system_id":"levelo_inurba_marseille","lat":43.26214,"lon":5.37448,"is_reserved":false,"is_disabled":false,"rental_uris":{"android":"levelo://app?vid=6efca0ee-8d3a-4fd4-a4ac-faa142031a0a","ios":"levelo://app?vid=6efca0ee-8d3a-4fd4-a4ac-faa142031a0a"},"vehicle_type_id":"4","last_reported":1741177079,"current_range_meters":11600,"station_id":"ce4bhgp2rcd13ifvqfc0","pricing_plan_id":"cebpf4jnsgd1na2vs0mg"},{"bike_id":"60a7a288-ba23-41a0-a193-3bbb4ca34c97","system_id":"levelo_inurba_marseille","lat":43.2732,"lon":5.39085,"is_reserved":false,"is_disabled":false,"rental_uris":{"android":"levelo://app?vid=60a7a288-ba23-41a0-a193-3bbb4ca34c97","ios":"levelo://app?vid=60a7a288-ba23-41a0-a193-3bbb4ca34c97"},"vehicle_type_id":"4","last_reported":1741177079,"current_range_meters":11600,"station_id":"ce4bhgp2rcd13ifvqfe0","pricing_plan_id":"cebpf4jnsgd1na2vs0mg"},{"bike_id":"c99588e6-3e13-44c8-9c87-64959ec52945","system_id":"levelo_inurba_marseille","lat":43.2782,"lon":5.40711,"is_reserved":false,"is_disabled":false,"rental_uris":{"android":"levelo://app?vid=c99588e6-3e13-44c8-9c87-64959ec52945","ios":"levelo://app?vid=c99588e6-3e13-44c8-9c87-64959ec52945"},"vehicle_type_id":"4","last_reported":1741177079,"current_range_meters":11600,"station_id":"ce4bhnh2rcd13ifvqgtg","pricing_plan_id":"cebpf4jnsgd1na2vs0mg"},{"bike_id":"3673ee6d-cb86-4051-907f-ce5b0af95ae6","system_id":"levelo_inurba_marseille","lat":43.28076,"lon":5.39659,"is_reserved":false,"is_disabled":false,"rental_uris":{"android":"levelo://app?vid=3673ee6d-cb86-4051-907f-ce5b0af95ae6","ios":"levelo://app?vid=3673ee6d-cb86-4051-907f-ce5b0af95ae6"},"vehicle_type_id":"4","last_reported":1741177079,"current_range_meters":11600,"station_id":"ce4bho12rcd13ifvqh2g","pricing_plan_id":"cebpf4jnsgd1na2vs0mg"},{"bike_id":"414cacaa-b827-4748-9179-3fc1a6b854ee","system_id":"levelo_inurba_marseille","lat":43.33603,"lon":5.41016,"is_reserved":false,"is_disabled":false,"rental_uris":{"android":"levelo://app?vid=414cacaa-b827-4748-9179-3fc1a6b854ee","ios":"levelo://app?vid=414cacaa-b827-4748-9179-3fc1a6b854ee"},"vehicle_type_id":"4","last_reported":1741177079,"current_range_meters":11600,"station_id":"ce4bhqh2rcd13ifvqhmg","pricing_plan_id":"cebpf4jnsgd1na2vs0mg"},{"bike_id":"2eecf111-ddf4-4c14-8bfc-37653c96e7f9","system_id":"levelo_inurba_marseille","lat":43.29934,"lon":5.36497,"is_reserved":false,"is_disabled":false,"rental_uris":{"android":"levelo://app?vid=2eecf111-ddf4-4c14-8bfc-37653c96e7f9","ios":"levelo://app?vid=2eecf111-ddf4-4c14-8bfc-37653c96e7f9"},"vehicle_type_id":"4","last_reported":1741177079,"current_range_meters":12000,"station_id":"ce4bgm92rcd13ifvqbr0","pricing_plan_id":"cebpf4jnsgd1na2vs0mg"},{"bike_id":"ccab7ff0-6bd3-48e5-be0d-a3faf4251a7a","system_id":"levelo_inurba_marseille","lat":43.28423,"lon":5.34976,"is_reserved":false,"is_disabled":false,"rental_uris":{"android":"levelo://app?vid=ccab7ff0-6bd3-48e5-be0d-a3faf4251a7a","ios":"levelo://app?vid=ccab7ff0-6bd3-48e5-be0d-a3faf4251a7a"},"vehicle_type_id":"4","last_reported":1741177079,"current_range_meters":12000,"station_id":"ce4bhbh2rcd13ifvqepg","pricing_plan_id":"cebpf4jnsgd1na2vs0mg"},{"bike_id":"a779ad18-ca56-4d89-afc4-19b5aa3f1bbf","system_id":"levelo_inurba_marseille","lat":43.23963,"lon":5.36628,"is_reserved":false,"is_disabled":false,"rental_uris":{"android":"levelo://app?vid=a779ad18-ca56-4d89-afc4-19b5aa3f1bbf","ios":"levelo://app?vid=a779ad18-ca56-4d89-afc4-19b5aa3f1bbf"},"vehicle_type_id":"4","last_reported":1741177079,"current_range_meters":12000,"station_id":"ce4bhi12rcd13ifvqfp0","pricing_plan_id":"cebpf4jnsgd1na2vs0mg"},{"bike_id":"88a22b1d-d9d1-4f92-ba32-0732f4e154bc","system_id":"levelo_inurba_marseille","lat":43.23152,"lon":5.43703,"is_reserved":false,"is_disabled":false,"rental_uris":{"android":"levelo://app?vid=88a22b1d-d9d1-4f92-ba32-0732f4e154bc","ios":"levelo://app?vid=88a22b1d-d9d1-4f92-ba32-0732f4e154bc"},"vehicle_type_id":"4","last_reported":1741177079,"current_range_meters":12000,"station_id":"ce4bhmp2rcd13ifvqgog","pricing_plan_id":"cebpf4jnsgd1na2vs0mg"},{"bike_id":"7af97423-5e21-41b0-a144-0f91ab7787c9","system_id":"levelo_inurba_marseille","lat":43.3028,"lon":5.37696,"is_reserved":false,"is_disabled":false,"rental_uris":{"android":"levelo://app?vid=7af97423-5e21-41b0-a144-0f91ab7787c9","ios":"levelo://app?vid=7af97423-5e21-41b0-a144-0f91ab7787c9"},"vehicle_type_id":"4","last_reported":1741177079,"current_range_meters":12400,"station_id":"ce4bguh2rcd13ifvqcj0","pricing_plan_id":"cebpf4jnsgd1na2vs0mg"},{"bike_id":"b085864c-7a49-40e2-a7c7-9880dec7dbc8","system_id":"levelo_inurba_marseille","lat":43.28998,"lon":5.3562,"is_reserved":false,"is_disabled":false,"rental_uris":{"android":"levelo://app?vid=b085864c-7a49-40e2-a7c7-9880dec7dbc8","ios":"levelo://app?vid=b085864c-7a49-40e2-a7c7-9880dec7dbc8"},"vehicle_type_id":"4","last_reported":1741177079,"current_range_meters":12400,"station_id":"ce4bhb92rcd13ifvqen0","pricing_plan_id":"cebpf4jnsgd1na2vs0mg"},{"bike_id":"886521ca-8c62-4ed2-8177-6d399325e39f","system_id":"levelo_inurba_marseille","lat":43.28266,"lon":5.35064,"is_reserved":false,"is_disabled":false,"rental_uris":{"android":"levelo://app?vid=886521ca-8c62-4ed2-8177-6d399325e39f","ios":"levelo://app?vid=886521ca-8c62-4ed2-8177-6d399325e39f"},"vehicle_type_id":"4","last_reported":1741177079,"current_range_meters":12400,"station_id":"ce4bhbp2rcd13ifvqerg","pricing_plan_id":"cebpf4jnsgd1na2vs0mg"},{"bike_id":"b68f056f-2ffd-4a10-b467-0e7927db620f","system_id":"levelo_inurba_marseille","lat":43.23152,"lon":5.43725,"is_reserved":false,"is_disabled":false,"rental_uris":{"android":"levelo://app?vid=b68f056f-2ffd-4a10-b467-0e7927db620f","ios":"levelo://app?vid=b68f056f-2ffd-4a10-b467-0e7927db620f"},"vehicle_type_id":"4","last_reported":1741177079,"current_range_meters":12400,"station_id":"ce4bhmp2rcd13ifvqgog","pricing_plan_id":"cebpf4jnsgd1na2vs0mg"},{"bike_id":"d2e1b622-0795-4f97-94fa-61b467ad30a4","system_id":"levelo_inurba_marseille","lat":43.24177,"lon":5.39728,"is_reserved":false,"is_disabled":false,"rental_uris":{"android":"levelo://app?vid=d2e1b622-0795-4f97-94fa-61b467ad30a4","ios":"levelo://app?vid=d2e1b622-0795-4f97-94fa-61b467ad30a4"},"vehicle_type_id":"4","last_reported":1741177079,"current_range_meters":12400,"station_id":"ce4bhn12rcd13ifvqgpg","pricing_plan_id":"cebpf4jnsgd1na2vs0mg"},{"bike_id":"1dd34812-175c-49e5-a6fe-53c6c1b3aa04","system_id":"levelo_inurba_marseille","lat":43.28073,"lon":5.39661,"is_reserved":false,"is_disabled":false,"rental_uris":{"android":"levelo://app?vid=1dd34812-175c-49e5-a6fe-53c6c1b3aa04","ios":"levelo://app?vid=1dd34812-175c-49e5-a6fe-53c6c1b3aa04"},"vehicle_type_id":"4","last_reported":1741177079,"current_range_meters":12400,"station_id":"ce4bho12rcd13ifvqh2g","pricing_plan_id":"cebpf4jnsgd1na2vs0mg"},{"bike_id":"cba6a766-3158-4fdc-849a-5887af830bdc","system_id":"levelo_inurba_marseille","lat":43.29253,"lon":5.38222,"is_reserved":false,"is_disabled":false,"rental_uris":{"android":"levelo://app?vid=cba6a766-3158-4fdc-849a-5887af830bdc","ios":"levelo://app?vid=cba6a766-3158-4fdc-849a-5887af830bdc"},"vehicle_type_id":"4","last_reported":1741177079,"current_range_meters":12800,"station_id":"","pricing_plan_id":"cebpf4jnsgd1na2vs0mg"},{"bike_id":"31d0e2d5-7a39-4df9-aef5-ef903be5664f","system_id":"levelo_inurba_marseille","lat":43.30598,"lon":5.37227,"is_reserved":false,"is_disabled":false,"rental_uris":{"android":"levelo://app?vid=31d0e2d5-7a39-4df9-aef5-ef903be5664f","ios":"levelo://app?vid=31d0e2d5-7a39-4df9-aef5-ef903be5664f"},"vehicle_type_id":"4","last_reported":1741177079,"current_range_meters":12800,"station_id":"ce4bgqh2rcd13ifvqc4g","pricing_plan_id":"cebpf4jnsgd1na2vs0mg"},{"bike_id":"e7e29943-9ed5-4602-a1fc-6331e4fb8d82","system_id":"levelo_inurba_marseille","lat":43.26215,"lon":5.37442,"is_reserved":false,"is_disabled":false,"rental_uris":{"android":"levelo://app?vid=e7e29943-9ed5-4602-a1fc-6331e4fb8d82","ios":"levelo://app?vid=e7e29943-9ed5-4602-a1fc-6331e4fb8d82"},"vehicle_type_id":"4","last_reported":1741177079,"current_range_meters":12800,"station_id":"ce4bhgp2rcd13ifvqfc0","pricing_plan_id":"cebpf4jnsgd1na2vs0mg"},{"bike_id":"330426bc-0af9-4c3e-8e4c-6ec10833df11","system_id":"levelo_inurba_marseille","lat":43.299058,"lon":5.43672,"is_reserved":false,"is_disabled":false,"rental_uris":{"android":"levelo://app?vid=330426bc-0af9-4c3e-8e4c-6ec10833df11","ios":"levelo://app?vid=330426bc-0af9-4c3e-8e4c-6ec10833df11"},"vehicle_type_id":"4","last_reported":1741177079,"current_range_meters":12800,"station_id":"ce4bhpp2rcd13ifvqhfg","pricing_plan_id":"cebpf4jnsgd1na2vs0mg"},{"bike_id":"8e67c6c2-1f86-420e-855b-676e159ed831","system_id":"levelo_inurba_marseille","lat":43.23059,"lon":5.35494,"is_reserved":false,"is_disabled":false,"rental_uris":{"android":"levelo://app?vid=8e67c6c2-1f86-420e-855b-676e159ed831","ios":"levelo://app?vid=8e67c6c2-1f86-420e-855b-676e159ed831"},"vehicle_type_id":"4","last_reported":1741177079,"current_range_meters":12800,"station_id":"cpo3342slgdg3j2ifvpg","pricing_plan_id":"cebpf4jnsgd1na2vs0mg"},{"bike_id":"5117e644-2ab7-42d6-b684-5b568df5f040","system_id":"levelo_inurba_marseille","lat":43.31603,"lon":5.38931,"is_reserved":false,"is_disabled":false,"rental_uris":{"android":"levelo://app?vid=5117e644-2ab7-42d6-b684-5b568df5f040","ios":"levelo://app?vid=5117e644-2ab7-42d6-b684-5b568df5f040"},"vehicle_type_id":"4","last_reported":1741177079,"current_range_meters":13600,"station_id":"","pricing_plan_id":"cebpf4jnsgd1na2vs0mg"},{"bike_id":"e8fb3957-55aa-4712-b8af-a6da8b77890f","system_id":"levelo_inurba_marseille","lat":43.30158,"lon":5.38086,"is_reserved":false,"is_disabled":false,"rental_uris":{"android":"levelo://app?vid=e8fb3957-55aa-4712-b8af-a6da8b77890f","ios":"levelo://app?vid=e8fb3957-55aa-4712-b8af-a6da8b77890f"},"vehicle_type_id":"4","last_reported":1741177079,"current_range_meters":13600,"station_id":"ce4bgjp2rcd13ifvqbh0","pricing_plan_id":"cebpf4jnsgd1na2vs0mg"},{"bike_id":"7e141603-5076-446b-a90d-8e44d6246006","system_id":"levelo_inurba_marseille","lat":43.31229,"lon":5.36847,"is_reserved":false,"is_disabled":false,"rental_uris":{"android":"levelo://app?vid=7e141603-5076-446b-a90d-8e44d6246006","ios":"levelo://app?vid=7e141603-5076-446b-a90d-8e44d6246006"},"vehicle_type_id":"4","last_reported":1741177079,"current_range_meters":13600,"station_id":"ce4bgl92rcd13ifvqbq0","pricing_plan_id":"cebpf4jnsgd1na2vs0mg"},{"bike_id":"89793f9c-9010-4d75-9cdd-d3c9b0d5a4ee","system_id":"levelo_inurba_marseille","lat":43.24164,"lon":5.39716,"is_reserved":false,"is_disabled":false,"rental_uris":{"android":"levelo://app?vid=89793f9c-9010-4d75-9cdd-d3c9b0d5a4ee","ios":"levelo://app?vid=89793f9c-9010-4d75-9cdd-d3c9b0d5a4ee"},"vehicle_type_id":"4","last_reported":1741177079,"current_range_meters":13600,"station_id":"ce4bhn12rcd13ifvqgpg","pricing_plan_id":"cebpf4jnsgd1na2vs0mg"},{"bike_id":"087edd23-af95-4bf6-9ff7-01cd4f924c31","system_id":"levelo_inurba_marseille","lat":43.27939,"lon":5.41033,"is_reserved":false,"is_disabled":false,"rental_uris":{"android":"levelo://app?vid=087edd23-af95-4bf6-9ff7-01cd4f924c31","ios":"levelo://app?vid=087edd23-af95-4bf6-9ff7-01cd4f924c31"},"vehicle_type_id":"4","last_reported":1741177079,"current_range_meters":13600,"station_id":"ce4bhnp2rcd13ifvqh0g","pricing_plan_id":"cebpf4jnsgd1na2vs0mg"},{"bike_id":"c3a15966-d6db-4a67-a176-541b2fe5f082","system_id":"levelo_inurba_marseille","lat":43.32388,"lon":5.38937,"is_reserved":false,"is_disabled":false,"rental_uris":{"android":"levelo://app?vid=c3a15966-d6db-4a67-a176-541b2fe5f082","ios":"levelo://app?vid=c3a15966-d6db-4a67-a176-541b2fe5f082"},"vehicle_type_id":"4","last_reported":1741177079,"current_range_meters":13600,"station_id":"ce4bhqp2rcd13ifvqhog","pricing_plan_id":"cebpf4jnsgd1na2vs0mg"},{"bike_id":"5cccd927-e86b-4020-9894-5f1ad718832a","system_id":"levelo_inurba_marseille","lat":43.28419,"lon":5.34977,"is_reserved":false,"is_disabled":false,"rental_uris":{"android":"levelo://app?vid=5cccd927-e86b-4020-9894-5f1ad718832a","ios":"levelo://app?vid=5cccd927-e86b-4020-9894-5f1ad718832a"},"vehicle_type_id":"4","last_reported":1741177079,"current_range_meters":14000,"station_id":"ce4bhbh2rcd13ifvqepg","pricing_plan_id":"cebpf4jnsgd1na2vs0mg"},{"bike_id":"95a7f661-84a3-41c8-b322-371de73d76ec","system_id":"levelo_inurba_marseille","lat":43.25917,"lon":5.40855,"is_reserved":false,"is_disabled":false,"rental_uris":{"android":"levelo://app?vid=95a7f661-84a3-41c8-b322-371de73d76ec","ios":"levelo://app?vid=95a7f661-84a3-41c8-b322-371de73d76ec"},"vehicle_type_id":"4","last_reported":1741177079,"current_range_meters":14000,"station_id":"ce4bhm92rcd13ifvqglg","pricing_plan_id":"cebpf4jnsgd1na2vs0mg"},{"bike_id":"ee59b3a3-0f87-489f-91b5-15c91569f1b2","system_id":"levelo_inurba_marseille","lat":43.24163,"lon":5.36392,"is_reserved":false,"is_disabled":false,"rental_uris":{"android":"levelo://app?vid=ee59b3a3-0f87-489f-91b5-15c91569f1b2","ios":"levelo://app?vid=ee59b3a3-0f87-489f-91b5-15c91569f1b2"},"vehicle_type_id":"4","last_reported":1741177079,"current_range_meters":14000,"station_id":"cpo36qri1sfpv3e86is0","pricing_plan_id":"cebpf4jnsgd1na2vs0mg"},{"bike_id":"03955ea7-77b3-4637-b4f8-d834fb37b3b0","system_id":"levelo_inurba_marseille","lat":43.31173,"lon":5.38718,"is_reserved":false,"is_disabled":false,"rental_uris":{"android":"levelo://app?vid=03955ea7-77b3-4637-b4f8-d834fb37b3b0","ios":"levelo://app?vid=03955ea7-77b3-4637-b4f8-d834fb37b3b0"},"vehicle_type_id":"4","last_reported":1741177079,"current_range_meters":14400,"station_id":"ce4bgv12rcd13ifvqcp0","pricing_plan_id":"cebpf4jnsgd1na2vs0mg"},{"bike_id":"660705de-1dec-412e-a6f0-2eb1fee22e23","system_id":"levelo_inurba_marseille","lat":43.28417,"lon":5.34979,"is_reserved":false,"is_disabled":false,"rental_uris":{"android":"levelo://app?vid=660705de-1dec-412e-a6f0-2eb1fee22e23","ios":"levelo://app?vid=660705de-1dec-412e-a6f0-2eb1fee22e23"},"vehicle_type_id":"4","last_reported":1741177079,"current_range_meters":14400,"station_id":"ce4bhbh2rcd13ifvqepg","pricing_plan_id":"cebpf4jnsgd1na2vs0mg"},{"bike_id":"37899c76-96a5-493d-91c7-3e87b63b47d1","system_id":"levelo_inurba_marseille","lat":43.23152,"lon":5.43719,"is_reserved":false,"is_disabled":false,"rental_uris":{"android":"levelo://app?vid=37899c76-96a5-493d-91c7-3e87b63b47d1","ios":"levelo://app?vid=37899c76-96a5-493d-91c7-3e87b63b47d1"},"vehicle_type_id":"4","last_reported":1741177079,"current_range_meters":14400,"station_id":"ce4bhmp2rcd13ifvqgog","pricing_plan_id":"cebpf4jnsgd1na2vs0mg"},{"bike_id":"c11f530c-99ab-49c1-bdcc-785cd598698f","system_id":"levelo_inurba_marseille","lat":43.32537,"lon":5.41474,"is_reserved":false,"is_disabled":false,"rental_uris":{"android":"levelo://app?vid=c11f530c-99ab-49c1-bdcc-785cd598698f","ios":"levelo://app?vid=c11f530c-99ab-49c1-bdcc-785cd598698f"},"vehicle_type_id":"4","last_reported":1741177079,"current_range_meters":14400,"station_id":"ce4bhq12rcd13ifvqhhg","pricing_plan_id":"cebpf4jnsgd1na2vs0mg"},{"bike_id":"c3fe2794-4540-47f9-8218-c8f037b2380f","system_id":"levelo_inurba_marseille","lat":43.23196,"lon":5.35553,"is_reserved":false,"is_disabled":false,"rental_uris":{"android":"levelo://app?vid=c3fe2794-4540-47f9-8218-c8f037b2380f","ios":"levelo://app?vid=c3fe2794-4540-47f9-8218-c8f037b2380f"},"vehicle_type_id":"4","last_reported":1741177079,"current_range_meters":14400,"station_id":"ce4bhu92rcd13ifvqi70","pricing_plan_id":"cebpf4jnsgd1na2vs0mg"},{"bike_id":"de6300af-6bd5-49aa-a683-5c557b7037c4","system_id":"levelo_inurba_marseille","lat":43.28859,"lon":5.3585,"is_reserved":false,"is_disabled":false,"rental_uris":{"android":"levelo://app?vid=de6300af-6bd5-49aa-a683-5c557b7037c4","ios":"levelo://app?vid=de6300af-6bd5-49aa-a683-5c557b7037c4"},"vehicle_type_id":"4","last_reported":1741177079,"current_range_meters":14800,"station_id":"ce4bhb12rcd13ifvqem0","pricing_plan_id":"cebpf4jnsgd1na2vs0mg"},{"bike_id":"5cb3e475-d1c3-4bea-bb58-71ceaca27c06","system_id":"levelo_inurba_marseille","lat":43.28428,"lon":5.34994,"is_reserved":false,"is_disabled":false,"rental_uris":{"android":"levelo://app?vid=5cb3e475-d1c3-4bea-bb58-71ceaca27c06","ios":"levelo://app?vid=5cb3e475-d1c3-4bea-bb58-71ceaca27c06"},"vehicle_type_id":"4","last_reported":1741177079,"current_range_meters":14800,"station_id":"ce4bhbh2rcd13ifvqepg","pricing_plan_id":"cebpf4jnsgd1na2vs0mg"},{"bike_id":"ffd6717c-e93f-456c-9862-7328b80c0117","system_id":"levelo_inurba_marseille","lat":43.26675,"lon":5.38261,"is_reserved":false,"is_disabled":false,"rental_uris":{"android":"levelo://app?vid=ffd6717c-e93f-456c-9862-7328b80c0117","ios":"levelo://app?vid=ffd6717c-e93f-456c-9862-7328b80c0117"},"vehicle_type_id":"4","last_reported":1741177079,"current_range_meters":14800,"station_id":"ce4bhg92rcd13ifvqf90","pricing_plan_id":"cebpf4jnsgd1na2vs0mg"},{"bike_id":"0dbad763-3a14-4b0c-8cd0-7cb3ab196e97","system_id":"levelo_inurba_marseille","lat":43.2701,"lon":5.4009,"is_reserved":false,"is_disabled":false,"rental_uris":{"android":"levelo://app?vid=0dbad763-3a14-4b0c-8cd0-7cb3ab196e97","ios":"levelo://app?vid=0dbad763-3a14-4b0c-8cd0-7cb3ab196e97"},"vehicle_type_id":"4","last_reported":1741177079,"current_range_meters":14800,"station_id":"ce4bhk92rcd13ifvqgc0","pricing_plan_id":"cebpf4jnsgd1na2vs0mg"},{"bike_id":"ee893e7d-6e54-4e5d-8bec-c026f1d5ca8d","system_id":"levelo_inurba_marseille","lat":43.27946,"lon":5.41041,"is_reserved":false,"is_disabled":false,"rental_uris":{"android":"levelo://app?vid=ee893e7d-6e54-4e5d-8bec-c026f1d5ca8d","ios":"levelo://app?vid=ee893e7d-6e54-4e5d-8bec-c026f1d5ca8d"},"vehicle_type_id":"4","last_reported":1741177079,"current_range_meters":14800,"station_id":"ce4bhnp2rcd13ifvqh0g","pricing_plan_id":"cebpf4jnsgd1na2vs0mg"},{"bike_id":"847e7035-c466-45fb-af31-4ce8e01d0291","system_id":"levelo_inurba_marseille","lat":43.27982,"lon":5.41656,"is_reserved":false,"is_disabled":false,"rental_uris":{"android":"levelo://app?vid=847e7035-c466-45fb-af31-4ce8e01d0291","ios":"levelo://app?vid=847e7035-c466-45fb-af31-4ce8e01d0291"},"vehicle_type_id":"4","last_reported":1741177079,"current_range_meters":14800,"station_id":"ce4bho12rcd13ifvqh1g","pricing_plan_id":"cebpf4jnsgd1na2vs0mg"},{"bike_id":"e258748f-4e9d-4ed8-898b-28d0daa48613","system_id":"levelo_inurba_marseille","lat":43.30414,"lon":5.41286,"is_reserved":false,"is_disabled":false,"rental_uris":{"android":"levelo://app?vid=e258748f-4e9d-4ed8-898b-28d0daa48613","ios":"levelo://app?vid=e258748f-4e9d-4ed8-898b-28d0daa48613"},"vehicle_type_id":"4","last_reported":1741177079,"current_range_meters":14800,"station_id":"ce4bhop2rcd13ifvqh8g","pricing_plan_id":"cebpf4jnsgd1na2vs0mg"},{"bike_id":"356a1309-3319-431c-ba96-f3f6713ef3c0","system_id":"levelo_inurba_marseille","lat":43.335975,"lon":5.410344,"is_reserved":false,"is_disabled":false,"rental_uris":{"android":"levelo://app?vid=356a1309-3319-431c-ba96-f3f6713ef3c0","ios":"levelo://app?vid=356a1309-3319-431c-ba96-f3f6713ef3c0"},"vehicle_type_id":"4","last_reported":1741177079,"current_range_meters":14800,"station_id":"ce4bhqh2rcd13ifvqhmg","pricing_plan_id":"cebpf4jnsgd1na2vs0mg"},{"bike_id":"bba40334-948e-40d3-a34a-d638712325e8","system_id":"levelo_inurba_marseille","lat":43.28417,"lon":5.34974,"is_reserved":false,"is_disabled":false,"rental_uris":{"android":"levelo://app?vid=bba40334-948e-40d3-a34a-d638712325e8","ios":"levelo://app?vid=bba40334-948e-40d3-a34a-d638712325e8"},"vehicle_type_id":"4","last_reported":1741177079,"current_range_meters":15200,"station_id":"ce4bhbh2rcd13ifvqepg","pricing_plan_id":"cebpf4jnsgd1na2vs0mg"},{"bike_id":"3dbf9c3c-5c41-42be-8da6-5d5e17c0da24","system_id":"levelo_inurba_marseille","lat":43.26492,"lon":5.39529,"is_reserved":false,"is_disabled":false,"rental_uris":{"android":"levelo://app?vid=3dbf9c3c-5c41-42be-8da6-5d5e17c0da24","ios":"levelo://app?vid=3dbf9c3c-5c41-42be-8da6-5d5e17c0da24"},"vehicle_type_id":"4","last_reported":1741177079,"current_range_meters":15200,"station_id":"ce4bhi12rcd13ifvqfq0","pricing_plan_id":"cebpf4jnsgd1na2vs0mg"},{"bike_id":"8a03daa0-4701-4ec7-a326-93dc4087b519","system_id":"levelo_inurba_marseille","lat":43.25083,"lon":5.39521,"is_reserved":false,"is_disabled":false,"rental_uris":{"android":"levelo://app?vid=8a03daa0-4701-4ec7-a326-93dc4087b519","ios":"levelo://app?vid=8a03daa0-4701-4ec7-a326-93dc4087b519"},"vehicle_type_id":"4","last_reported":1741177079,"current_range_meters":15200,"station_id":"ce4bhm12rcd13ifvqgkg","pricing_plan_id":"cebpf4jnsgd1na2vs0mg"},{"bike_id":"1cfc9c5f-54af-40e6-8245-4f580f3f70f1","system_id":"levelo_inurba_marseille","lat":43.33035,"lon":5.39049,"is_reserved":false,"is_disabled":false,"rental_uris":{"android":"levelo://app?vid=1cfc9c5f-54af-40e6-8245-4f580f3f70f1","ios":"levelo://app?vid=1cfc9c5f-54af-40e6-8245-4f580f3f70f1"},"vehicle_type_id":"4","last_reported":1741177079,"current_range_meters":15200,"station_id":"ce4bhr92rcd13ifvqhrg","pricing_plan_id":"cebpf4jnsgd1na2vs0mg"},{"bike_id":"1432991e-f6de-4bbf-9114-cba9cf86fe4a","system_id":"levelo_inurba_marseille","lat":43.29791,"lon":5.38104,"is_reserved":false,"is_disabled":false,"rental_uris":{"android":"levelo://app?vid=1432991e-f6de-4bbf-9114-cba9cf86fe4a","ios":"levelo://app?vid=1432991e-f6de-4bbf-9114-cba9cf86fe4a"},"vehicle_type_id":"4","last_reported":1741177079,"current_range_meters":16000,"station_id":"ce4bgip2rcd13ifvqbb0","pricing_plan_id":"cebpf4jnsgd1na2vs0mg"},{"bike_id":"c36e600a-eef8-46f8-9321-818d0021765c","system_id":"levelo_inurba_marseille","lat":43.30918,"lon":5.36856,"is_reserved":false,"is_disabled":false,"rental_uris":{"android":"levelo://app?vid=c36e600a-eef8-46f8-9321-818d0021765c","ios":"levelo://app?vid=c36e600a-eef8-46f8-9321-818d0021765c"},"vehicle_type_id":"4","last_reported":1741177079,"current_range_meters":16000,"station_id":"ce4bgn92rcd13ifvqbvg","pricing_plan_id":"cebpf4jnsgd1na2vs0mg"},{"bike_id":"7a4a9fca-a4db-4a2f-9666-4adc7290a5c2","system_id":"levelo_inurba_marseille","lat":43.29604,"lon":5.36746,"is_reserved":false,"is_disabled":false,"rental_uris":{"android":"levelo://app?vid=7a4a9fca-a4db-4a2f-9666-4adc7290a5c2","ios":"levelo://app?vid=7a4a9fca-a4db-4a2f-9666-4adc7290a5c2"},"vehicle_type_id":"4","last_reported":1741177079,"current_range_meters":16000,"station_id":"ce4bgph2rcd13ifvqc2g","pricing_plan_id":"cebpf4jnsgd1na2vs0mg"},{"bike_id":"99eb1f66-9260-43e1-8d87-4b71df1a030d","system_id":"levelo_inurba_marseille","lat":43.299744,"lon":5.384833,"is_reserved":false,"is_disabled":false,"rental_uris":{"android":"levelo://app?vid=99eb1f66-9260-43e1-8d87-4b71df1a030d","ios":"levelo://app?vid=99eb1f66-9260-43e1-8d87-4b71df1a030d"},"vehicle_type_id":"4","last_reported":1741177079,"current_range_meters":16000,"station_id":"ce4bgv12rcd13ifvqcp0","pricing_plan_id":"cebpf4jnsgd1na2vs0mg"},{"bike_id":"61dd0b5e-50ca-4d46-827f-f735879d0166","system_id":"levelo_inurba_marseille","lat":43.29006,"lon":5.35608,"is_reserved":false,"is_disabled":false,"rental_uris":{"android":"levelo://app?vid=61dd0b5e-50ca-4d46-827f-f735879d0166","ios":"levelo://app?vid=61dd0b5e-50ca-4d46-827f-f735879d0166"},"vehicle_type_id":"4","last_reported":1741177079,"current_range_meters":16000,"station_id":"ce4bhb92rcd13ifvqen0","pricing_plan_id":"cebpf4jnsgd1na2vs0mg"},{"bike_id":"c0779466-6d8a-4b74-9888-6ca221314c9c","system_id":"levelo_inurba_marseille","lat":43.28414,"lon":5.34985,"is_reserved":false,"is_disabled":false,"rental_uris":{"android":"levelo://app?vid=c0779466-6d8a-4b74-9888-6ca221314c9c","ios":"levelo://app?vid=c0779466-6d8a-4b74-9888-6ca221314c9c"},"vehicle_type_id":"4","last_reported":1741177079,"current_range_meters":16000,"station_id":"ce4bhbh2rcd13ifvqepg","pricing_plan_id":"cebpf4jnsgd1na2vs0mg"},{"bike_id":"ba60ddd0-090a-4921-a3fa-f07dc23829f3","system_id":"levelo_inurba_marseille","lat":43.2801,"lon":5.41663,"is_reserved":false,"is_disabled":false,"rental_uris":{"android":"levelo://app?vid=ba60ddd0-090a-4921-a3fa-f07dc23829f3","ios":"levelo://app?vid=ba60ddd0-090a-4921-a3fa-f07dc23829f3"},"vehicle_type_id":"4","last_reported":1741177079,"current_range_meters":16000,"station_id":"ce4bho12rcd13ifvqh1g","pricing_plan_id":"cebpf4jnsgd1na2vs0mg"},{"bike_id":"868fa38c-8e08-4397-ae0a-fc8927045d02","system_id":"levelo_inurba_marseille","lat":43.30353,"lon":5.41873,"is_reserved":false,"is_disabled":false,"rental_uris":{"android":"levelo://app?vid=868fa38c-8e08-4397-ae0a-fc8927045d02","ios":"levelo://app?vid=868fa38c-8e08-4397-ae0a-fc8927045d02"},"vehicle_type_id":"4","last_reported":1741177079,"current_range_meters":16000,"station_id":"ce4bhop2rcd13ifvqh7g","pricing_plan_id":"cebpf4jnsgd1na2vs0mg"},{"bike_id":"7f1905bf-da4d-4f13-af14-c5d46804e585","system_id":"levelo_inurba_marseille","lat":43.23181,"lon":5.35565,"is_reserved":false,"is_disabled":false,"rental_uris":{"android":"levelo://app?vid=7f1905bf-da4d-4f13-af14-c5d46804e585","ios":"levelo://app?vid=7f1905bf-da4d-4f13-af14-c5d46804e585"},"vehicle_type_id":"4","last_reported":1741177079,"current_range_meters":16000,"station_id":"ce4bhu92rcd13ifvqi70","pricing_plan_id":"cebpf4jnsgd1na2vs0mg"},{"bike_id":"0b3cb245-c1ab-4265-9e03-36f6b9bfa685","system_id":"levelo_inurba_marseille","lat":43.2307,"lon":5.35486,"is_reserved":false,"is_disabled":false,"rental_uris":{"android":"levelo://app?vid=0b3cb245-c1ab-4265-9e03-36f6b9bfa685","ios":"levelo://app?vid=0b3cb245-c1ab-4265-9e03-36f6b9bfa685"},"vehicle_type_id":"4","last_reported":1741177079,"current_range_meters":16000,"station_id":"cpo3342slgdg3j2ifvpg","pricing_plan_id":"cebpf4jnsgd1na2vs0mg"},{"bike_id":"c4a56041-5a4d-46b4-a630-93b9f28a70ae","system_id":"levelo_inurba_marseille","lat":43.29718,"lon":5.37709,"is_reserved":false,"is_disabled":false,"rental_uris":{"android":"levelo://app?vid=c4a56041-5a4d-46b4-a630-93b9f28a70ae","ios":"levelo://app?vid=c4a56041-5a4d-46b4-a630-93b9f28a70ae"},"vehicle_type_id":"4","last_reported":1741177079,"current_range_meters":16400,"station_id":"ce4bgkh2rcd13ifvqbl0","pricing_plan_id":"cebpf4jnsgd1na2vs0mg"},{"bike_id":"ba9d4a82-0ce6-487f-bc4b-86c56883a8c8","system_id":"levelo_inurba_marseille","lat":43.31237,"lon":5.36889,"is_reserved":false,"is_disabled":false,"rental_uris":{"android":"levelo://app?vid=ba9d4a82-0ce6-487f-bc4b-86c56883a8c8","ios":"levelo://app?vid=ba9d4a82-0ce6-487f-bc4b-86c56883a8c8"},"vehicle_type_id":"4","last_reported":1741177079,"current_range_meters":16400,"station_id":"ce4bgl92rcd13ifvqbq0","pricing_plan_id":"cebpf4jnsgd1na2vs0mg"},{"bike_id":"8c3e34b4-0915-4c80-93c0-f08a7fc71339","system_id":"levelo_inurba_marseille","lat":43.29949,"lon":5.3653,"is_reserved":false,"is_disabled":false,"rental_uris":{"android":"levelo://app?vid=8c3e34b4-0915-4c80-93c0-f08a7fc71339","ios":"levelo://app?vid=8c3e34b4-0915-4c80-93c0-f08a7fc71339"},"vehicle_type_id":"4","last_reported":1741177079,"current_range_meters":16400,"station_id":"ce4bgm92rcd13ifvqbr0","pricing_plan_id":"cebpf4jnsgd1na2vs0mg"},{"bike_id":"33fec984-1b9b-4d3b-88c2-0d4f7124f3af","system_id":"levelo_inurba_marseille","lat":43.31365,"lon":5.38491,"is_reserved":false,"is_disabled":false,"rental_uris":{"android":"levelo://app?vid=33fec984-1b9b-4d3b-88c2-0d4f7124f3af","ios":"levelo://app?vid=33fec984-1b9b-4d3b-88c2-0d4f7124f3af"},"vehicle_type_id":"4","last_reported":1741177079,"current_range_meters":16400,"station_id":"ce4bgt92rcd13ifvqcf0","pricing_plan_id":"cebpf4jnsgd1na2vs0mg"},{"bike_id":"bdd314a3-c273-4ae5-9a31-dd83a4c52e0f","system_id":"levelo_inurba_marseille","lat":43.28999,"lon":5.35612,"is_reserved":false,"is_disabled":false,"rental_uris":{"android":"levelo://app?vid=bdd314a3-c273-4ae5-9a31-dd83a4c52e0f","ios":"levelo://app?vid=bdd314a3-c273-4ae5-9a31-dd83a4c52e0f"},"vehicle_type_id":"4","last_reported":1741177079,"current_range_meters":16400,"station_id":"ce4bhb92rcd13ifvqen0","pricing_plan_id":"cebpf4jnsgd1na2vs0mg"},{"bike_id":"7e47cfd0-1c16-4827-af6a-69af0c09eb6f","system_id":"levelo_inurba_marseille","lat":43.27375,"lon":5.36252,"is_reserved":false,"is_disabled":false,"rental_uris":{"android":"levelo://app?vid=7e47cfd0-1c16-4827-af6a-69af0c09eb6f","ios":"levelo://app?vid=7e47cfd0-1c16-4827-af6a-69af0c09eb6f"},"vehicle_type_id":"4","last_reported":1741177079,"current_range_meters":16400,"station_id":"ce4bhbh2rcd13ifvqeo0","pricing_plan_id":"cebpf4jnsgd1na2vs0mg"},{"bike_id":"c5e46d82-d9a0-452c-a125-bbbee3eb847e","system_id":"levelo_inurba_marseille","lat":43.28268,"lon":5.35064,"is_reserved":false,"is_disabled":false,"rental_uris":{"android":"levelo://app?vid=c5e46d82-d9a0-452c-a125-bbbee3eb847e","ios":"levelo://app?vid=c5e46d82-d9a0-452c-a125-bbbee3eb847e"},"vehicle_type_id":"4","last_reported":1741177079,"current_range_meters":16400,"station_id":"ce4bhbp2rcd13ifvqerg","pricing_plan_id":"cebpf4jnsgd1na2vs0mg"},{"bike_id":"ecd52ca5-00d0-4ce7-bcc7-3898d621c5a1","system_id":"levelo_inurba_marseille","lat":43.33601,"lon":5.40997,"is_reserved":false,"is_disabled":false,"rental_uris":{"android":"levelo://app?vid=ecd52ca5-00d0-4ce7-bcc7-3898d621c5a1","ios":"levelo://app?vid=ecd52ca5-00d0-4ce7-bcc7-3898d621c5a1"},"vehicle_type_id":"4","last_reported":1741177079,"current_range_meters":16400,"station_id":"ce4bhqh2rcd13ifvqhmg","pricing_plan_id":"cebpf4jnsgd1na2vs0mg"},{"bike_id":"3246efa6-353e-4e10-86ff-6e94e27aec7d","system_id":"levelo_inurba_marseille","lat":43.31488,"lon":5.37309,"is_reserved":false,"is_disabled":false,"rental_uris":{"android":"levelo://app?vid=3246efa6-353e-4e10-86ff-6e94e27aec7d","ios":"levelo://app?vid=3246efa6-353e-4e10-86ff-6e94e27aec7d"},"vehicle_type_id":"4","last_reported":1741177079,"current_range_meters":16800,"station_id":"ce4bgt12rcd13ifvqcd0","pricing_plan_id":"cebpf4jnsgd1na2vs0mg"},{"bike_id":"67098e44-ae1e-4a6f-b23b-a4f58cc1bdf4","system_id":"levelo_inurba_marseille","lat":43.304603,"lon":5.37896,"is_reserved":false,"is_disabled":false,"rental_uris":{"android":"levelo://app?vid=67098e44-ae1e-4a6f-b23b-a4f58cc1bdf4","ios":"levelo://app?vid=67098e44-ae1e-4a6f-b23b-a4f58cc1bdf4"},"vehicle_type_id":"4","last_reported":1741177079,"current_range_meters":16800,"station_id":"ce4bgup2rcd13ifvqcn0","pricing_plan_id":"cebpf4jnsgd1na2vs0mg"},{"bike_id":"92596042-1633-45e7-96cd-2bc4c2a52663","system_id":"levelo_inurba_marseille","lat":43.29514,"lon":5.39403,"is_reserved":false,"is_disabled":false,"rental_uris":{"android":"levelo://app?vid=92596042-1633-45e7-96cd-2bc4c2a52663","ios":"levelo://app?vid=92596042-1633-45e7-96cd-2bc4c2a52663"},"vehicle_type_id":"4","last_reported":1741177079,"current_range_meters":16800,"station_id":"ce4bh292rcd13ifvqdf0","pricing_plan_id":"cebpf4jnsgd1na2vs0mg"},{"bike_id":"a0c0e67b-8b88-4b56-b71b-44b1b2d11600","system_id":"levelo_inurba_marseille","lat":43.29446,"lon":5.39774,"is_reserved":false,"is_disabled":false,"rental_uris":{"android":"levelo://app?vid=a0c0e67b-8b88-4b56-b71b-44b1b2d11600","ios":"levelo://app?vid=a0c0e67b-8b88-4b56-b71b-44b1b2d11600"},"vehicle_type_id":"4","last_reported":1741177079,"current_range_meters":16800,"station_id":"ce4bh3h2rcd13ifvqdo0","pricing_plan_id":"cebpf4jnsgd1na2vs0mg"},{"bike_id":"48dd4a66-c4e0-4334-8dbe-e71a1ce9eb4d","system_id":"levelo_inurba_marseille","lat":43.2811,"lon":5.37788,"is_reserved":false,"is_disabled":false,"rental_uris":{"android":"levelo://app?vid=48dd4a66-c4e0-4334-8dbe-e71a1ce9eb4d","ios":"levelo://app?vid=48dd4a66-c4e0-4334-8dbe-e71a1ce9eb4d"},"vehicle_type_id":"4","last_reported":1741177079,"current_range_meters":16800,"station_id":"ce4bha12rcd13ifvqee0","pricing_plan_id":"cebpf4jnsgd1na2vs0mg"},{"bike_id":"b7d46c19-8fbd-4d11-994c-f336dd0acbae","system_id":"levelo_inurba_marseille","lat":43.24999,"lon":5.38936,"is_reserved":false,"is_disabled":false,"rental_uris":{"android":"levelo://app?vid=b7d46c19-8fbd-4d11-994c-f336dd0acbae","ios":"levelo://app?vid=b7d46c19-8fbd-4d11-994c-f336dd0acbae"},"vehicle_type_id":"4","last_reported":1741177079,"current_range_meters":16800,"station_id":"ce4bhgp2rcd13ifvqfd0","pricing_plan_id":"cebpf4jnsgd1na2vs0mg"},{"bike_id":"8d0c9612-bb01-4fab-9ef7-3d1789dc2942","system_id":"levelo_inurba_marseille","lat":43.2781,"lon":5.40708,"is_reserved":false,"is_disabled":false,"rental_uris":{"android":"levelo://app?vid=8d0c9612-bb01-4fab-9ef7-3d1789dc2942","ios":"levelo://app?vid=8d0c9612-bb01-4fab-9ef7-3d1789dc2942"},"vehicle_type_id":"4","last_reported":1741177079,"current_range_meters":16800,"station_id":"ce4bhnh2rcd13ifvqgtg","pricing_plan_id":"cebpf4jnsgd1na2vs0mg"},{"bike_id":"5981e5fd-8ca3-4e17-921d-10437ee17d35","system_id":"levelo_inurba_marseille","lat":43.24157,"lon":5.36407,"is_reserved":false,"is_disabled":false,"rental_uris":{"android":"levelo://app?vid=5981e5fd-8ca3-4e17-921d-10437ee17d35","ios":"levelo://app?vid=5981e5fd-8ca3-4e17-921d-10437ee17d35"},"vehicle_type_id":"4","last_reported":1741177079,"current_range_meters":16800,"station_id":"cpo36qri1sfpv3e86is0","pricing_plan_id":"cebpf4jnsgd1na2vs0mg"},{"bike_id":"d4f28862-1d04-4dbc-9e3d-cc6d5368eb20","system_id":"levelo_inurba_marseille","lat":43.31225,"lon":5.3686,"is_reserved":false,"is_disabled":false,"rental_uris":{"android":"levelo://app?vid=d4f28862-1d04-4dbc-9e3d-cc6d5368eb20","ios":"levelo://app?vid=d4f28862-1d04-4dbc-9e3d-cc6d5368eb20"},"vehicle_type_id":"4","last_reported":1741177079,"current_range_meters":17200,"station_id":"ce4bgl92rcd13ifvqbq0","pricing_plan_id":"cebpf4jnsgd1na2vs0mg"},{"bike_id":"75c70a97-9e7b-4c14-b612-eae6feae5bdf","system_id":"levelo_inurba_marseille","lat":43.29716,"lon":5.36609,"is_reserved":false,"is_disabled":false,"rental_uris":{"android":"levelo://app?vid=75c70a97-9e7b-4c14-b612-eae6feae5bdf","ios":"levelo://app?vid=75c70a97-9e7b-4c14-b612-eae6feae5bdf"},"vehicle_type_id":"4","last_reported":1741177079,"current_range_meters":17200,"station_id":"ce4bgn12rcd13ifvqbt0","pricing_plan_id":"cebpf4jnsgd1na2vs0mg"},{"bike_id":"4a7d6524-f4fa-4d69-a2e1-57846c17ec7a","system_id":"levelo_inurba_marseille","lat":43.30909,"lon":5.36852,"is_reserved":false,"is_disabled":false,"rental_uris":{"android":"levelo://app?vid=4a7d6524-f4fa-4d69-a2e1-57846c17ec7a","ios":"levelo://app?vid=4a7d6524-f4fa-4d69-a2e1-57846c17ec7a"},"vehicle_type_id":"4","last_reported":1741177079,"current_range_meters":17200,"station_id":"ce4bgn92rcd13ifvqbvg","pricing_plan_id":"cebpf4jnsgd1na2vs0mg"},{"bike_id":"9c7c958d-8f51-4982-a401-c8e57b355e8e","system_id":"levelo_inurba_marseille","lat":43.30894,"lon":5.37187,"is_reserved":false,"is_disabled":false,"rental_uris":{"android":"levelo://app?vid=9c7c958d-8f51-4982-a401-c8e57b355e8e","ios":"levelo://app?vid=9c7c958d-8f51-4982-a401-c8e57b355e8e"},"vehicle_type_id":"4","last_reported":1741177079,"current_range_meters":17200,"station_id":"ce4bguh2rcd13ifvqckg","pricing_plan_id":"cebpf4jnsgd1na2vs0mg"},{"bike_id":"79cbe0aa-1b10-42fa-ac9b-88b9329c5049","system_id":"levelo_inurba_marseille","lat":43.28668,"lon":5.36347,"is_reserved":false,"is_disabled":false,"rental_uris":{"android":"levelo://app?vid=79cbe0aa-1b10-42fa-ac9b-88b9329c5049","ios":"levelo://app?vid=79cbe0aa-1b10-42fa-ac9b-88b9329c5049"},"vehicle_type_id":"4","last_reported":1741177079,"current_range_meters":17200,"station_id":"ce4bhah2rcd13ifvqej0","pricing_plan_id":"cebpf4jnsgd1na2vs0mg"},{"bike_id":"4c8ed550-4a16-41eb-8341-3b81d7aabb12","system_id":"levelo_inurba_marseille","lat":43.26792,"lon":5.39418,"is_reserved":false,"is_disabled":false,"rental_uris":{"android":"levelo://app?vid=4c8ed550-4a16-41eb-8341-3b81d7aabb12","ios":"levelo://app?vid=4c8ed550-4a16-41eb-8341-3b81d7aabb12"},"vehicle_type_id":"4","last_reported":1741177079,"current_range_meters":17200,"station_id":"ce4bhh12rcd13ifvqfg0","pricing_plan_id":"cebpf4jnsgd1na2vs0mg"},{"bike_id":"ca74a1dd-29af-4782-8c43-473d0fbc7e47","system_id":"levelo_inurba_marseille","lat":43.33437,"lon":5.4005,"is_reserved":false,"is_disabled":false,"rental_uris":{"android":"levelo://app?vid=ca74a1dd-29af-4782-8c43-473d0fbc7e47","ios":"levelo://app?vid=ca74a1dd-29af-4782-8c43-473d0fbc7e47"},"vehicle_type_id":"4","last_reported":1741177079,"current_range_meters":17600,"station_id":"","pricing_plan_id":"cebpf4jnsgd1na2vs0mg"},{"bike_id":"61631f3e-8349-4ca2-9e9f-bf291304017a","system_id":"levelo_inurba_marseille","lat":43.31258,"lon":5.36904,"is_reserved":false,"is_disabled":false,"rental_uris":{"android":"levelo://app?vid=61631f3e-8349-4ca2-9e9f-bf291304017a","ios":"levelo://app?vid=61631f3e-8349-4ca2-9e9f-bf291304017a"},"vehicle_type_id":"4","last_reported":1741177079,"current_range_meters":17600,"station_id":"ce4bgl92rcd13ifvqbq0","pricing_plan_id":"cebpf4jnsgd1na2vs0mg"},{"bike_id":"b863a2f4-f641-4949-99dd-66f56827638e","system_id":"levelo_inurba_marseille","lat":43.29581,"lon":5.36741,"is_reserved":false,"is_disabled":false,"rental_uris":{"android":"levelo://app?vid=b863a2f4-f641-4949-99dd-66f56827638e","ios":"levelo://app?vid=b863a2f4-f641-4949-99dd-66f56827638e"},"vehicle_type_id":"4","last_reported":1741177079,"current_range_meters":17600,"station_id":"ce4bgph2rcd13ifvqc2g","pricing_plan_id":"cebpf4jnsgd1na2vs0mg"},{"bike_id":"19304f56-6bfc-4db5-88e8-5025acd136d0","system_id":"levelo_inurba_marseille","lat":43.310138,"lon":5.40058,"is_reserved":false,"is_disabled":false,"rental_uris":{"android":"levelo://app?vid=19304f56-6bfc-4db5-88e8-5025acd136d0","ios":"levelo://app?vid=19304f56-6bfc-4db5-88e8-5025acd136d0"},"vehicle_type_id":"4","last_reported":1741177079,"current_range_meters":17600,"station_id":"ce4bha12rcd13ifvqef0","pricing_plan_id":"cebpf4jnsgd1na2vs0mg"},{"bike_id":"e59f0a27-a36c-4e04-8fcf-5835d0e6e7cc","system_id":"levelo_inurba_marseille","lat":43.28263,"lon":5.3509,"is_reserved":false,"is_disabled":false,"rental_uris":{"android":"levelo://app?vid=e59f0a27-a36c-4e04-8fcf-5835d0e6e7cc","ios":"levelo://app?vid=e59f0a27-a36c-4e04-8fcf-5835d0e6e7cc"},"vehicle_type_id":"4","last_reported":1741177079,"current_range_meters":17600,"station_id":"ce4bhbp2rcd13ifvqerg","pricing_plan_id":"cebpf4jnsgd1na2vs0mg"},{"bike_id":"a05769e2-9fa1-4c72-b7b9-a550a1bf10e9","system_id":"levelo_inurba_marseille","lat":43.3248,"lon":5.36569,"is_reserved":false,"is_disabled":false,"rental_uris":{"android":"levelo://app?vid=a05769e2-9fa1-4c72-b7b9-a550a1bf10e9","ios":"levelo://app?vid=a05769e2-9fa1-4c72-b7b9-a550a1bf10e9"},"vehicle_type_id":"4","last_reported":1741177079,"current_range_meters":17600,"station_id":"ce4bhs12rcd13ifvqhvg","pricing_plan_id":"cebpf4jnsgd1na2vs0mg"},{"bike_id":"e07b6a40-7a9a-4502-8dd6-b0c384b406c8","system_id":"levelo_inurba_marseille","lat":43.31084,"lon":5.38357,"is_reserved":false,"is_disabled":false,"rental_uris":{"android":"levelo://app?vid=e07b6a40-7a9a-4502-8dd6-b0c384b406c8","ios":"levelo://app?vid=e07b6a40-7a9a-4502-8dd6-b0c384b406c8"},"vehicle_type_id":"4","last_reported":1741177079,"current_range_meters":18000,"station_id":"ce4bgv92rcd13ifvqcr0","pricing_plan_id":"cebpf4jnsgd1na2vs0mg"},{"bike_id":"bc5fd4cc-0d22-4945-930b-87b91f85e15e","system_id":"levelo_inurba_marseille","lat":43.2826,"lon":5.35072,"is_reserved":false,"is_disabled":false,"rental_uris":{"android":"levelo://app?vid=bc5fd4cc-0d22-4945-930b-87b91f85e15e","ios":"levelo://app?vid=bc5fd4cc-0d22-4945-930b-87b91f85e15e"},"vehicle_type_id":"4","last_reported":1741177079,"current_range_meters":18000,"station_id":"ce4bhbp2rcd13ifvqerg","pricing_plan_id":"cebpf4jnsgd1na2vs0mg"},{"bike_id":"979baa31-3103-42e2-b449-6b8ec92884f5","system_id":"levelo_inurba_marseille","lat":43.26213,"lon":5.37437,"is_reserved":false,"is_disabled":false,"rental_uris":{"android":"levelo://app?vid=979baa31-3103-42e2-b449-6b8ec92884f5","ios":"levelo://app?vid=979baa31-3103-42e2-b449-6b8ec92884f5"},"vehicle_type_id":"4","last_reported":1741177079,"current_range_meters":18000,"station_id":"ce4bhgp2rcd13ifvqfc0","pricing_plan_id":"cebpf4jnsgd1na2vs0mg"},{"bike_id":"c5d39913-040e-4674-9db5-d297aa79eb79","system_id":"levelo_inurba_marseille","lat":43.24182,"lon":5.39725,"is_reserved":false,"is_disabled":false,"rental_uris":{"android":"levelo://app?vid=c5d39913-040e-4674-9db5-d297aa79eb79","ios":"levelo://app?vid=c5d39913-040e-4674-9db5-d297aa79eb79"},"vehicle_type_id":"4","last_reported":1741177079,"current_range_meters":18000,"station_id":"ce4bhn12rcd13ifvqgpg","pricing_plan_id":"cebpf4jnsgd1na2vs0mg"},{"bike_id":"b85099f3-e3cc-4e78-9462-41b216000501","system_id":"levelo_inurba_marseille","lat":43.23195,"lon":5.3996,"is_reserved":false,"is_disabled":false,"rental_uris":{"android":"levelo://app?vid=b85099f3-e3cc-4e78-9462-41b216000501","ios":"levelo://app?vid=b85099f3-e3cc-4e78-9462-41b216000501"},"vehicle_type_id":"4","last_reported":1741177079,"current_range_meters":18000,"station_id":"ce4bhn12rcd13ifvqgqg","pricing_plan_id":"cebpf4jnsgd1na2vs0mg"},{"bike_id":"4e45e371-a278-4780-b0b3-6acbfa1ca813","system_id":"levelo_inurba_marseille","lat":43.26943,"lon":5.40245,"is_reserved":false,"is_disabled":false,"rental_uris":{"android":"levelo://app?vid=4e45e371-a278-4780-b0b3-6acbfa1ca813","ios":"levelo://app?vid=4e45e371-a278-4780-b0b3-6acbfa1ca813"},"vehicle_type_id":"4","last_reported":1741177079,"current_range_meters":18000,"station_id":"cjm6bp8fraef2m0cb0m0","pricing_plan_id":"cebpf4jnsgd1na2vs0mg"},{"bike_id":"426a53b3-54da-4596-be58-1d1b9782a1f8","system_id":"levelo_inurba_marseille","lat":43.29432,"lon":5.39738,"is_reserved":false,"is_disabled":false,"rental_uris":{"android":"levelo://app?vid=426a53b3-54da-4596-be58-1d1b9782a1f8","ios":"levelo://app?vid=426a53b3-54da-4596-be58-1d1b9782a1f8"},