{"last_updated":1751296276,"ttl":60,"version":"2.2","data":{"bikes":[{"bike_id":"3da29fb8-fc97-44c6-b9ac-31dd456b2fd4","system_id":"levelo_inurba_marseille","lat":43.33771,"lon":5.37424,"is_reserved":false,"is_disabled":true,"rental_uris":{"android":"levelo://app?vid=3da29fb8-fc97-44c6-b9ac-31dd456b2fd4","ios":"levelo://app?vid=3da29fb8-fc97-44c6-b9ac-31dd456b2fd4"},"vehicle_type_id":"4","last_reported":1751296276,"current_range_meters":0,"station_id":"","pricing_plan_id":"cebpf4jnsgd1na2vs0mg"},{"bike_id":"01861ad8-a8d7-4be6-816e-651927c87584","system_id":"levelo_inurba_marseille","lat":43.33751,"lon":5.37456,"is_reserved":false,"is_disabled":true,"rental_uris":{"android":"levelo://app?vid=01861ad8-a8d7-4be6-816e-651927c87584","ios":"levelo://app?vid=01861ad8-a8d7-4be6-816e-651927c87584"},"vehicle_type_id":"4","last_reported":1751296276,"current_range_meters":0,"station_id":"","pricing_plan_id":"cebpf4jnsgd1na2vs0mg"},{"bike_id":"f1483ff6-ae8a-4286-a635-7d40887e3e92","system_id":"levelo_inurba_marseille","lat":43.26971,"lon":5.36632,"is_reserved":false,"is_disabled":true,"rental_uris":{"android":"levelo://app?vid=f1483ff6-ae8a-4286-a635-7d40887e3e92","ios":"levelo://app?vid=f1483ff6-ae8a-4286-a635-7d40887e3e92"},"vehicle_type_id":"4","last_reported":1751296276,"current_range_meters":0,"station_id":"","pricing_plan_id":"cebpf4jnsgd1na2vs0mg"},{"bike_id":"69f3e486-7ece-4da3-bef1-7e43be44cf97","system_id":"levelo_inurba_marseille","lat":43.25613,"lon":5.41983,"is_reserved":false,"is_disabled":true,"rental_uris":{"android":"levelo://app?vid=69f3e486-7ece-4da3-bef1-7e43be44cf97","ios":"levelo://app?vid=69f3e486-7ece-4da3-bef1-7e43be44cf97"},"vehicle_type_id":"4","last_reported":1751296276,"current_range_meters":0,"station_id":"","pricing_plan_id":"cebpf4jnsgd1na2vs0mg"},{"bike_id":"8233db61-1d36-41a5-a985-c98b6a5f0fb4","system_id":"levelo_inurba_marseille","lat":43.21742,"lon":5.34604,"is_reserved":false,"is_disabled":true,"rental_uris":{"android":"levelo://app?vid=8233db61-1d36-41a5-a985-c98b6a5f0fb4","ios":"levelo://app?vid=8233db61-1d36-41a5-a985-c98b6a5f0fb4"},"vehicle_type_id":"4","last_reported":1751296276,"current_range_meters":0,"station_id":"","pricing_plan_id":"cebpf4jnsgd1na2vs0mg"},{"bike_id":"07960eb1-de65-4ab0-945c-4f9428a687b4","system_id":"levelo_inurba_marseille","lat":43.29256,"lon":5.40904,"is_reserved":false,"is_disabled":true,"rental_uris":{"android":"levelo://app?vid=07960eb1-de65-4ab0-945c-4f9428a687b4","ios":"levelo://app?vid=07960eb1-de65-4ab0-945c-4f9428a687b4"},"vehicle_type_id":"4","last_reported":1751296276,"current_range_meters":0,"station_id":"ce4bh192rcd13ifvqdc0","pricing_plan_id":"cebpf4jnsgd1na2vs0mg"},{"bike_id":"e5455321-8ce1-4a78-b63f-9b4c9d1b5d5a","system_id":"levelo_inurba_marseille","lat":43.27309,"lon":5.39102,"is_reserved":false,"is_disabled":true,"rental_uris":{"android":"levelo://app?vid=e5455321-8ce1-4a78-b63f-9b4c9d1b5d5a","ios":"levelo://app?vid=e5455321-8ce1-4a78-b63f-9b4c9d1b5d5a"},"vehicle_type_id":"4","last_reported":1751296276,"current_range_meters":0,"station_id":"ce4bhgp2rcd13ifvqfe0","pricing_plan_id":"cebpf4jnsgd1na2vs0mg"},{"bike_id":"29e697ca-26a6-4412-8107-f2c74b259edc","system_id":"levelo_inurba_marseille","lat":43.241783,"lon":5.38395,"is_reserved":false,"is_disabled":true,"rental_uris":{"android":"levelo://app?vid=29e697ca-26a6-4412-8107-f2c74b259edc","ios":"levelo://app?vid=29e697ca-26a6-4412-8107-f2c74b259edc"},"vehicle_type_id":"4","last_reported":1751296276,"current_range_meters":400,"station_id":"","pricing_plan_id":"cebpf4jnsgd1na2vs0mg"},{"bike_id":"26118b99-0893-4f25-be33-c12364247701","system_id":"levelo_inurba_marseille","lat":43.28735,"lon":5.39995,"is_reserved":false,"is_disabled":true,"rental_uris":{"android":"levelo://app?vid=26118b99-0893-4f25-be33-c12364247701","ios":"levelo://app?vid=26118b99-0893-4f25-be33-c12364247701"},"vehicle_type_id":"4","last_reported":1751296276,"current_range_meters":400,"station_id":"ce4bho92rcd13ifvqh3g","pricing_plan_id":"cebpf4jnsgd1na2vs0mg"},{"bike_id":"85eb80f1-fdf8-4910-9983-416402de22ff","system_id":"levelo_inurba_marseille","lat":43.276945,"lon":5.415461,"is_reserved":false,"is_disabled":true,"rental_uris":{"android":"levelo://app?vid=85eb80f1-fdf8-4910-9983-416402de22ff","ios":"levelo://app?vid=85eb80f1-fdf8-4910-9983-416402de22ff"},"vehicle_type_id":"4","last_reported":1751296276,"current_range_meters":800,"station_id":"","pricing_plan_id":"cebpf4jnsgd1na2vs0mg"},{"bike_id":"4bb4a733-a9bd-4772-9320-a8c7885ff73b","system_id":"levelo_inurba_marseille","lat":43.27769,"lon":5.35554,"is_reserved":false,"is_disabled":true,"rental_uris":{"android":"levelo://app?vid=4bb4a733-a9bd-4772-9320-a8c7885ff73b","ios":"levelo://app?vid=4bb4a733-a9bd-4772-9320-a8c7885ff73b"},"vehicle_type_id":"4","last_reported":1751296276,"current_range_meters":800,"station_id":"","pricing_plan_id":"cebpf4jnsgd1na2vs0mg"},{"bike_id":"a2d139dd-26ec-434a-b368-179c2c8f66ca","system_id":"levelo_inurba_marseille","lat":43.300106,"lon":5.385249,"is_reserved":false,"is_disabled":true,"rental_uris":{"android":"levelo://app?vid=a2d139dd-26ec-434a-b368-179c2c8f66ca","ios":"levelo://app?vid=a2d139dd-26ec-434a-b368-179c2c8f66ca"},"vehicle_type_id":"4","last_reported":1751296276,"current_range_meters":800,"station_id":"ce4bgop2rcd13ifvqc1g","pricing_plan_id":"cebpf4jnsgd1na2vs0mg"},{"bike_id":"668e1042-44e2-4adb-aedd-875f7ccee0bc","system_id":"levelo_inurba_marseille","lat":43.27313,"lon":5.39104,"is_reserved":false,"is_disabled":true,"rental_uris":{"android":"levelo://app?vid=668e1042-44e2-4adb-aedd-875f7ccee0bc","ios":"levelo://app?vid=668e1042-44e2-4adb-aedd-875f7ccee0bc"},"vehicle_type_id":"4","last_reported":1751296276,"current_range_meters":800,"station_id":"ce4bhgp2rcd13ifvqfe0","pricing_plan_id":"cebpf4jnsgd1na2vs0mg"},{"bike_id":"7d720375-5bbd-4d7d-bde0-0f32b8ef20c3","system_id":"levelo_inurba_marseille","lat":43.27647,"lon":5.38936,"is_reserved":false,"is_disabled":false,"rental_uris":{"android":"levelo://app?vid=7d720375-5bbd-4d7d-bde0-0f32b8ef20c3","ios":"levelo://app?vid=7d720375-5bbd-4d7d-bde0-0f32b8ef20c3"},"vehicle_type_id":"4","last_reported":1751296276,"current_range_meters":1200,"station_id":"ce4bhi12rcd13ifvqfo0","pricing_plan_id":"cebpf4jnsgd1na2vs0mg"},{"bike_id":"a37e8def-144c-4d8d-aabf-950aca51f939","system_id":"levelo_inurba_marseille","lat":43.297702,"lon":5.38121,"is_reserved":false,"is_disabled":true,"rental_uris":{"android":"levelo://app?vid=a37e8def-144c-4d8d-aabf-950aca51f939","ios":"levelo://app?vid=a37e8def-144c-4d8d-aabf-950aca51f939"},"vehicle_type_id":"4","last_reported":1751296276,"current_range_meters":1600,"station_id":"","pricing_plan_id":"cebpf4jnsgd1na2vs0mg"},{"bike_id":"9e163c86-36ef-4269-bcd8-6c9e6f4075a0","system_id":"levelo_inurba_marseille","lat":43.30298,"lon":5.37164,"is_reserved":false,"is_disabled":true,"rental_uris":{"android":"levelo://app?vid=9e163c86-36ef-4269-bcd8-6c9e6f4075a0","ios":"levelo://app?vid=9e163c86-36ef-4269-bcd8-6c9e6f4075a0"},"vehicle_type_id":"4","last_reported":1751296276,"current_range_meters":2000,"station_id":"","pricing_plan_id":"cebpf4jnsgd1na2vs0mg"},{"bike_id":"c4878d76-0537-4520-971a-f1e414cd3b98","system_id":"levelo_inurba_marseille","lat":43.2732,"lon":5.39075,"is_reserved":false,"is_disabled":false,"rental_uris":{"android":"levelo://app?vid=c4878d76-0537-4520-971a-f1e414cd3b98","ios":"levelo://app?vid=c4878d76-0537-4520-971a-f1e414cd3b98"},"vehicle_type_id":"4","last_reported":1751296276,"current_range_meters":2000,"station_id":"ce4bhgp2rcd13ifvqfe0","pricing_plan_id":"cebpf4jnsgd1na2vs0mg"},{"bike_id":"5584a1af-5563-4cb4-9459-803594490e9e","system_id":"levelo_inurba_marseille","lat":43.23968,"lon":5.36633,"is_reserved":false,"is_disabled":true,"rental_uris":{"android":"levelo://app?vid=5584a1af-5563-4cb4-9459-803594490e9e","ios":"levelo://app?vid=5584a1af-5563-4cb4-9459-803594490e9e"},"vehicle_type_id":"4","last_reported":1751296276,"current_range_meters":2000,"station_id":"ce4bhi12rcd13ifvqfp0","pricing_plan_id":"cebpf4jnsgd1na2vs0mg"},{"bike_id":"6c77e3b0-0f2e-4be2-90d2-a722a471e6ed","system_id":"levelo_inurba_marseille","lat":43.24177,"lon":5.39737,"is_reserved":false,"is_disabled":true,"rental_uris":{"android":"levelo://app?vid=6c77e3b0-0f2e-4be2-90d2-a722a471e6ed","ios":"levelo://app?vid=6c77e3b0-0f2e-4be2-90d2-a722a471e6ed"},"vehicle_type_id":"4","last_reported":1751296276,"current_range_meters":2000,"station_id":"ce4bhn12rcd13ifvqgpg","pricing_plan_id":"cebpf4jnsgd1na2vs0mg"},{"bike_id":"3532dc0d-a13c-4fb4-86a7-ff97ffcc3daf","system_id":"levelo_inurba_marseille","lat":43.31878,"lon":5.40743,"is_reserved":false,"is_disabled":true,"rental_uris":{"android":"levelo://app?vid=3532dc0d-a13c-4fb4-86a7-ff97ffcc3daf","ios":"levelo://app?vid=3532dc0d-a13c-4fb4-86a7-ff97ffcc3daf"},"vehicle_type_id":"4","last_reported":1751296276,"current_range_meters":2000,"station_id":"ce4bhq12rcd13ifvqhig","pricing_plan_id":"cebpf4jnsgd1na2vs0mg"},{"bike_id":"88d95822-7463-49eb-b3d7-3d6c1f4f28a8","system_id":"levelo_inurba_marseille","lat":43.28476,"lon":5.38413,"is_reserved":false,"is_disabled":false,"rental_uris":{"android":"levelo://app?vid=88d95822-7463-49eb-b3d7-3d6c1f4f28a8","ios":"levelo://app?vid=88d95822-7463-49eb-b3d7-3d6c1f4f28a8"},"vehicle_type_id":"4","last_reported":1751296276,"current_range_meters":2800,"station_id":"ce4bh512rcd13ifvqe3g","pricing_plan_id":"cebpf4jnsgd1na2vs0mg"},{"bike_id":"d5b5bc74-aaeb-40c0-b979-fb1a262527de","system_id":"levelo_inurba_marseille","lat":43.33258,"lon":5.35899,"is_reserved":false,"is_disabled":false,"rental_uris":{"android":"levelo://app?vid=d5b5bc74-aaeb-40c0-b979-fb1a262527de","ios":"levelo://app?vid=d5b5bc74-aaeb-40c0-b979-fb1a262527de"},"vehicle_type_id":"4","last_reported":1751296276,"current_range_meters":3200,"station_id":"","pricing_plan_id":"cebpf4jnsgd1na2vs0mg"},{"bike_id":"3db6900e-1e10-4605-bcfc-d2ee832003b9","system_id":"levelo_inurba_marseille","lat":43.286163,"lon":5.351061,"is_reserved":false,"is_disabled":false,"rental_uris":{"android":"levelo://app?vid=3db6900e-1e10-4605-bcfc-d2ee832003b9","ios":"levelo://app?vid=3db6900e-1e10-4605-bcfc-d2ee832003b9"},"vehicle_type_id":"4","last_reported":1751296276,"current_range_meters":3200,"station_id":"ce4bhch2rcd13ifvqeug","pricing_plan_id":"cebpf4jnsgd1na2vs0mg"},{"bike_id":"a2ae444d-57ad-4bf6-ac16-d0d6b464ff9a","system_id":"levelo_inurba_marseille","lat":43.27318,"lon":5.3908,"is_reserved":false,"is_disabled":false,"rental_uris":{"android":"levelo://app?vid=a2ae444d-57ad-4bf6-ac16-d0d6b464ff9a","ios":"levelo://app?vid=a2ae444d-57ad-4bf6-ac16-d0d6b464ff9a"},"vehicle_type_id":"4","last_reported":1751296276,"current_range_meters":3200,"station_id":"ce4bhgp2rcd13ifvqfe0","pricing_plan_id":"cebpf4jnsgd1na2vs0mg"},{"bike_id":"14d9fd99-9b30-4153-ba8e-87760ef8d31a","system_id":"levelo_inurba_marseille","lat":43.26997,"lon":5.387487,"is_reserved":false,"is_disabled":false,"rental_uris":{"android":"levelo://app?vid=14d9fd99-9b30-4153-ba8e-87760ef8d31a","ios":"levelo://app?vid=14d9fd99-9b30-4153-ba8e-87760ef8d31a"},"vehicle_type_id":"4","last_reported":1751296276,"current_range_meters":3600,"station_id":"","pricing_plan_id":"cebpf4jnsgd1na2vs0mg"},{"bike_id":"721165c1-ef6f-40cc-8d33-af3a7999864b","system_id":"levelo_inurba_marseille","lat":43.32594,"lon":5.378773,"is_reserved":false,"is_disabled":false,"rental_uris":{"android":"levelo://app?vid=721165c1-ef6f-40cc-8d33-af3a7999864b","ios":"levelo://app?vid=721165c1-ef6f-40cc-8d33-af3a7999864b"},"vehicle_type_id":"4","last_reported":1751296276,"current_range_meters":4000,"station_id":"","pricing_plan_id":"cebpf4jnsgd1na2vs0mg"},{"bike_id":"5874e974-79bc-4813-9bc0-6abe59a3ee91","system_id":"levelo_inurba_marseille","lat":43.29576,"lon":5.36739,"is_reserved":false,"is_disabled":false,"rental_uris":{"android":"levelo://app?vid=5874e974-79bc-4813-9bc0-6abe59a3ee91","ios":"levelo://app?vid=5874e974-79bc-4813-9bc0-6abe59a3ee91"},"vehicle_type_id":"4","last_reported":1751296276,"current_range_meters":4000,"station_id":"ce4bgph2rcd13ifvqc2g","pricing_plan_id":"cebpf4jnsgd1na2vs0mg"},{"bike_id":"97354f05-f217-4589-bfa5-436a33b37178","system_id":"levelo_inurba_marseille","lat":43.29713,"lon":5.37703,"is_reserved":false,"is_disabled":false,"rental_uris":{"android":"levelo://app?vid=97354f05-f217-4589-bfa5-436a33b37178","ios":"levelo://app?vid=97354f05-f217-4589-bfa5-436a33b37178"},"vehicle_type_id":"4","last_reported":1751296276,"current_range_meters":4400,"station_id":"ce4bgkh2rcd13ifvqbl0","pricing_plan_id":"cebpf4jnsgd1na2vs0mg"},{"bike_id":"e23f3c34-2540-41d5-8121-d71b420a74c2","system_id":"levelo_inurba_marseille","lat":43.28846,"lon":5.39309,"is_reserved":false,"is_disabled":false,"rental_uris":{"android":"levelo://app?vid=e23f3c34-2540-41d5-8121-d71b420a74c2","ios":"levelo://app?vid=e23f3c34-2540-41d5-8121-d71b420a74c2"},"vehicle_type_id":"4","last_reported":1751296276,"current_range_meters":4400,"station_id":"ce4bh2p2rcd13ifvqdi0","pricing_plan_id":"cebpf4jnsgd1na2vs0mg"},{"bike_id":"be884221-e3d3-45d0-9f4a-c3054b22ae3d","system_id":"levelo_inurba_marseille","lat":43.29256,"lon":5.38446,"is_reserved":false,"is_disabled":false,"rental_uris":{"android":"levelo://app?vid=be884221-e3d3-45d0-9f4a-c3054b22ae3d","ios":"levelo://app?vid=be884221-e3d3-45d0-9f4a-c3054b22ae3d"},"vehicle_type_id":"4","last_reported":1751296276,"current_range_meters":4400,"station_id":"ce4bh692rcd13ifvqea0","pricing_plan_id":"cebpf4jnsgd1na2vs0mg"},{"bike_id":"87985e62-2823-4157-8a35-599ee9a377ab","system_id":"levelo_inurba_marseille","lat":43.21174,"lon":5.35084,"is_reserved":false,"is_disabled":false,"rental_uris":{"android":"levelo://app?vid=87985e62-2823-4157-8a35-599ee9a377ab","ios":"levelo://app?vid=87985e62-2823-4157-8a35-599ee9a377ab"},"vehicle_type_id":"4","last_reported":1751296276,"current_range_meters":4400,"station_id":"st_cvj6sg6p6f1abm77japg","pricing_plan_id":"cebpf4jnsgd1na2vs0mg"},{"bike_id":"7009c9a0-bbcc-4390-abbd-45b98a294f16","system_id":"levelo_inurba_marseille","lat":43.29568,"lon":5.3998,"is_reserved":false,"is_disabled":false,"rental_uris":{"android":"levelo://app?vid=7009c9a0-bbcc-4390-abbd-45b98a294f16","ios":"levelo://app?vid=7009c9a0-bbcc-4390-abbd-45b98a294f16"},"vehicle_type_id":"4","last_reported":1751296276,"current_range_meters":5600,"station_id":"ce4bh312rcd13ifvqdj0","pricing_plan_id":"cebpf4jnsgd1na2vs0mg"},{"bike_id":"c78cdcf8-6734-4249-aae7-dfb0d1931878","system_id":"levelo_inurba_marseille","lat":43.3015,"lon":5.38771,"is_reserved":false,"is_disabled":false,"rental_uris":{"android":"levelo://app?vid=c78cdcf8-6734-4249-aae7-dfb0d1931878","ios":"levelo://app?vid=c78cdcf8-6734-4249-aae7-dfb0d1931878"},"vehicle_type_id":"4","last_reported":1751296276,"current_range_meters":6000,"station_id":"ce4bghh2rcd13ifvqb60","pricing_plan_id":"cebpf4jnsgd1na2vs0mg"},{"bike_id":"8e615fd3-7dc4-4a1e-92fd-e05e13004504","system_id":"levelo_inurba_marseille","lat":43.29536,"lon":5.38548,"is_reserved":false,"is_disabled":false,"rental_uris":{"android":"levelo://app?vid=8e615fd3-7dc4-4a1e-92fd-e05e13004504","ios":"levelo://app?vid=8e615fd3-7dc4-4a1e-92fd-e05e13004504"},"vehicle_type_id":"4","last_reported":1751296276,"current_range_meters":6400,"station_id":"ce4bgih2rcd13ifvqba0","pricing_plan_id":"cebpf4jnsgd1na2vs0mg"},{"bike_id":"051e44fa-1121-4176-935e-0e410adc4b1b","system_id":"levelo_inurba_marseille","lat":43.284224,"lon":5.349984,"is_reserved":false,"is_disabled":false,"rental_uris":{"android":"levelo://app?vid=051e44fa-1121-4176-935e-0e410adc4b1b","ios":"levelo://app?vid=051e44fa-1121-4176-935e-0e410adc4b1b"},"vehicle_type_id":"4","last_reported":1751296276,"current_range_meters":6400,"station_id":"ce4bhbh2rcd13ifvqepg","pricing_plan_id":"cebpf4jnsgd1na2vs0mg"},{"bike_id":"3bb584bc-1a07-4e7e-84ba-4d1ead6616a7","system_id":"levelo_inurba_marseille","lat":43.27928,"lon":5.3959,"is_reserved":false,"is_disabled":false,"rental_uris":{"android":"levelo://app?vid=3bb584bc-1a07-4e7e-84ba-4d1ead6616a7","ios":"levelo://app?vid=3bb584bc-1a07-4e7e-84ba-4d1ead6616a7"},"vehicle_type_id":"4","last_reported":1751296276,"current_range_meters":6400,"station_id":"ce4bhf92rcd13ifvqf40","pricing_plan_id":"cebpf4jnsgd1na2vs0mg"},{"bike_id":"c062939a-1b19-4c66-8063-2781c5fcb2fa","system_id":"levelo_inurba_marseille","lat":43.33021,"lon":5.39035,"is_reserved":false,"is_disabled":false,"rental_uris":{"android":"levelo://app?vid=c062939a-1b19-4c66-8063-2781c5fcb2fa","ios":"levelo://app?vid=c062939a-1b19-4c66-8063-2781c5fcb2fa"},"vehicle_type_id":"4","last_reported":1751296276,"current_range_meters":6400,"station_id":"ce4bhr92rcd13ifvqhrg","pricing_plan_id":"cebpf4jnsgd1na2vs0mg"},{"bike_id":"d49fae73-3d73-45fc-b1d2-e88b9805959e","system_id":"levelo_inurba_marseille","lat":43.28492,"lon":5.38415,"is_reserved":false,"is_disabled":false,"rental_uris":{"android":"levelo://app?vid=d49fae73-3d73-45fc-b1d2-e88b9805959e","ios":"levelo://app?vid=d49fae73-3d73-45fc-b1d2-e88b9805959e"},"vehicle_type_id":"4","last_reported":1751296276,"current_range_meters":6800,"station_id":"ce4bh512rcd13ifvqe3g","pricing_plan_id":"cebpf4jnsgd1na2vs0mg"},{"bike_id":"30f25e99-c00b-4077-a4bd-7cd82104fe98","system_id":"levelo_inurba_marseille","lat":43.29253,"lon":5.38449,"is_reserved":false,"is_disabled":false,"rental_uris":{"android":"levelo://app?vid=30f25e99-c00b-4077-a4bd-7cd82104fe98","ios":"levelo://app?vid=30f25e99-c00b-4077-a4bd-7cd82104fe98"},"vehicle_type_id":"4","last_reported":1751296276,"current_range_meters":6800,"station_id":"ce4bh692rcd13ifvqea0","pricing_plan_id":"cebpf4jnsgd1na2vs0mg"},{"bike_id":"7eb98aba-3852-459c-a072-af6c1f231a5a","system_id":"levelo_inurba_marseille","lat":43.2827,"lon":5.35078,"is_reserved":false,"is_disabled":false,"rental_uris":{"android":"levelo://app?vid=7eb98aba-3852-459c-a072-af6c1f231a5a","ios":"levelo://app?vid=7eb98aba-3852-459c-a072-af6c1f231a5a"},"vehicle_type_id":"4","last_reported":1751296276,"current_range_meters":6800,"station_id":"ce4bhbp2rcd13ifvqerg","pricing_plan_id":"cebpf4jnsgd1na2vs0mg"},{"bike_id":"94f77ca0-be44-48c0-8330-3761a0c59267","system_id":"levelo_inurba_marseille","lat":43.28611,"lon":5.35107,"is_reserved":false,"is_disabled":false,"rental_uris":{"android":"levelo://app?vid=94f77ca0-be44-48c0-8330-3761a0c59267","ios":"levelo://app?vid=94f77ca0-be44-48c0-8330-3761a0c59267"},"vehicle_type_id":"4","last_reported":1751296276,"current_range_meters":6800,"station_id":"ce4bhch2rcd13ifvqeug","pricing_plan_id":"cebpf4jnsgd1na2vs0mg"},{"bike_id":"6ba53027-0c7f-4bd7-8b48-a99aa9c30efd","system_id":"levelo_inurba_marseille","lat":43.27916,"lon":5.39577,"is_reserved":false,"is_disabled":false,"rental_uris":{"android":"levelo://app?vid=6ba53027-0c7f-4bd7-8b48-a99aa9c30efd","ios":"levelo://app?vid=6ba53027-0c7f-4bd7-8b48-a99aa9c30efd"},"vehicle_type_id":"4","last_reported":1751296276,"current_range_meters":6800,"station_id":"ce4bhf92rcd13ifvqf40","pricing_plan_id":"cebpf4jnsgd1na2vs0mg"},{"bike_id":"e51f8863-feb4-46b5-9014-efb2971f3ef5","system_id":"levelo_inurba_marseille","lat":43.23191,"lon":5.35554,"is_reserved":false,"is_disabled":false,"rental_uris":{"android":"levelo://app?vid=e51f8863-feb4-46b5-9014-efb2971f3ef5","ios":"levelo://app?vid=e51f8863-feb4-46b5-9014-efb2971f3ef5"},"vehicle_type_id":"4","last_reported":1751296276,"current_range_meters":6800,"station_id":"ce4bhu92rcd13ifvqi70","pricing_plan_id":"cebpf4jnsgd1na2vs0mg"},{"bike_id":"7b28ebac-3c6a-43aa-aca9-7bd954b07205","system_id":"levelo_inurba_marseille","lat":43.29618,"lon":5.37934,"is_reserved":false,"is_disabled":false,"rental_uris":{"android":"levelo://app?vid=7b28ebac-3c6a-43aa-aca9-7bd954b07205","ios":"levelo://app?vid=7b28ebac-3c6a-43aa-aca9-7bd954b07205"},"vehicle_type_id":"4","last_reported":1751296276,"current_range_meters":7200,"station_id":"","pricing_plan_id":"cebpf4jnsgd1na2vs0mg"},{"bike_id":"cbe8cf16-ee4d-44dc-af26-2dea0d93d494","system_id":"levelo_inurba_marseille","lat":43.337444,"lon":5.374475,"is_reserved":false,"is_disabled":false,"rental_uris":{"android":"levelo://app?vid=cbe8cf16-ee4d-44dc-af26-2dea0d93d494","ios":"levelo://app?vid=cbe8cf16-ee4d-44dc-af26-2dea0d93d494"},"vehicle_type_id":"4","last_reported":1751296276,"current_range_meters":7200,"station_id":"","pricing_plan_id":"cebpf4jnsgd1na2vs0mg"},{"bike_id":"4474167e-6e19-49e5-b3c7-ce27de35c317","system_id":"levelo_inurba_marseille","lat":43.29622,"lon":5.3773,"is_reserved":false,"is_disabled":false,"rental_uris":{"android":"levelo://app?vid=4474167e-6e19-49e5-b3c7-ce27de35c317","ios":"levelo://app?vid=4474167e-6e19-49e5-b3c7-ce27de35c317"},"vehicle_type_id":"4","last_reported":1751296276,"current_range_meters":7200,"station_id":"ce4bgi92rcd13ifvqb90","pricing_plan_id":"cebpf4jnsgd1na2vs0mg"},{"bike_id":"d308c658-b19c-49c0-8014-5506ff26f69a","system_id":"levelo_inurba_marseille","lat":43.2307,"lon":5.40495,"is_reserved":false,"is_disabled":false,"rental_uris":{"android":"levelo://app?vid=d308c658-b19c-49c0-8014-5506ff26f69a","ios":"levelo://app?vid=d308c658-b19c-49c0-8014-5506ff26f69a"},"vehicle_type_id":"4","last_reported":1751296276,"current_range_meters":8000,"station_id":"","pricing_plan_id":"cebpf4jnsgd1na2vs0mg"},{"bike_id":"78290f8e-8056-402e-86d2-6f89225524c7","system_id":"levelo_inurba_marseille","lat":43.23961,"lon":5.36632,"is_reserved":false,"is_disabled":false,"rental_uris":{"android":"levelo://app?vid=78290f8e-8056-402e-86d2-6f89225524c7","ios":"levelo://app?vid=78290f8e-8056-402e-86d2-6f89225524c7"},"vehicle_type_id":"4","last_reported":1751296276,"current_range_meters":8000,"station_id":"ce4bhi12rcd13ifvqfp0","pricing_plan_id":"cebpf4jnsgd1na2vs0mg"},{"bike_id":"e219543a-880e-4c38-aff0-63dd83878c8b","system_id":"levelo_inurba_marseille","lat":43.32134,"lon":5.36756,"is_reserved":false,"is_disabled":false,"rental_uris":{"android":"levelo://app?vid=e219543a-880e-4c38-aff0-63dd83878c8b","ios":"levelo://app?vid=e219543a-880e-4c38-aff0-63dd83878c8b"},"vehicle_type_id":"4","last_reported":1751296276,"current_range_meters":8000,"station_id":"ce4bhrh2rcd13ifvqhug","pricing_plan_id":"cebpf4jnsgd1na2vs0mg"},{"bike_id":"9fc6b39a-5532-40ac-8f58-975bced56a19","system_id":"levelo_inurba_marseille","lat":43.32597,"lon":5.40485,"is_reserved":false,"is_disabled":false,"rental_uris":{"android":"levelo://app?vid=9fc6b39a-5532-40ac-8f58-975bced56a19","ios":"levelo://app?vid=9fc6b39a-5532-40ac-8f58-975bced56a19"},"vehicle_type_id":"4","last_reported":1751296276,"current_range_meters":8400,"station_id":"","pricing_plan_id":"cebpf4jnsgd1na2vs0mg"},{"bike_id":"2630b0d7-8518-44a1-b41d-4305f5c2b588","system_id":"levelo_inurba_marseille","lat":43.288553,"lon":5.393204,"is_reserved":false,"is_disabled":false,"rental_uris":{"android":"levelo://app?vid=2630b0d7-8518-44a1-b41d-4305f5c2b588","ios":"levelo://app?vid=2630b0d7-8518-44a1-b41d-4305f5c2b588"},"vehicle_type_id":"4","last_reported":1751296276,"current_range_meters":8400,"station_id":"ce4bh492rcd13ifvqdug","pricing_plan_id":"cebpf4jnsgd1na2vs0mg"},{"bike_id":"4b153d88-a4f0-4383-8128-9811057a976d","system_id":"levelo_inurba_marseille","lat":43.287238,"lon":5.37937,"is_reserved":false,"is_disabled":false,"rental_uris":{"android":"levelo://app?vid=4b153d88-a4f0-4383-8128-9811057a976d","ios":"levelo://app?vid=4b153d88-a4f0-4383-8128-9811057a976d"},"vehicle_type_id":"4","last_reported":1751296276,"current_range_meters":8800,"station_id":"ce4bh9p2rcd13ifvqec0","pricing_plan_id":"cebpf4jnsgd1na2vs0mg"},{"bike_id":"5b67c277-1809-4b15-91d6-0c9332bb0956","system_id":"levelo_inurba_marseille","lat":43.28274,"lon":5.35059,"is_reserved":false,"is_disabled":false,"rental_uris":{"android":"levelo://app?vid=5b67c277-1809-4b15-91d6-0c9332bb0956","ios":"levelo://app?vid=5b67c277-1809-4b15-91d6-0c9332bb0956"},"vehicle_type_id":"4","last_reported":1751296276,"current_range_meters":8800,"station_id":"ce4bhbp2rcd13ifvqerg","pricing_plan_id":"cebpf4jnsgd1na2vs0mg"},{"bike_id":"69c15efa-aeb8-4947-9bef-7b2f1acff67b","system_id":"levelo_inurba_marseille","lat":43.274986,"lon":5.424614,"is_reserved":false,"is_disabled":false,"rental_uris":{"android":"levelo://app?vid=69c15efa-aeb8-4947-9bef-7b2f1acff67b","ios":"levelo://app?vid=69c15efa-aeb8-4947-9bef-7b2f1acff67b"},"vehicle_type_id":"4","last_reported":1751296276,"current_range_meters":8800,"station_id":"ce4bhn92rcd13ifvqgrg","pricing_plan_id":"cebpf4jnsgd1na2vs0mg"},{"bike_id":"84f27629-4357-4ef5-be60-379a7ce2ac53","system_id":"levelo_inurba_marseille","lat":43.33612,"lon":5.41031,"is_reserved":false,"is_disabled":false,"rental_uris":{"android":"levelo://app?vid=84f27629-4357-4ef5-be60-379a7ce2ac53","ios":"levelo://app?vid=84f27629-4357-4ef5-be60-379a7ce2ac53"},"vehicle_type_id":"4","last_reported":1751296276,"current_range_meters":8800,"station_id":"ce4bhqh2rcd13ifvqhmg","pricing_plan_id":"cebpf4jnsgd1na2vs0mg"},{"bike_id":"59a074fc-769e-4d5d-a6d4-002d8e573dd6","system_id":"levelo_inurba_marseille","lat":43.21178,"lon":5.3507,"is_reserved":false,"is_disabled":false,"rental_uris":{"android":"levelo://app?vid=59a074fc-769e-4d5d-a6d4-002d8e573dd6","ios":"levelo://app?vid=59a074fc-769e-4d5d-a6d4-002d8e573dd6"},"vehicle_type_id":"4","last_reported":1751296276,"current_range_meters":8800,"station_id":"st_cvj6sg6p6f1abm77japg","pricing_plan_id":"cebpf4jnsgd1na2vs0mg"},{"bike_id":"c595d0e1-c778-4abe-9c79-a9dd74f54e27","system_id":"levelo_inurba_marseille","lat":43.244731,"lon":5.372138,"is_reserved":false,"is_disabled":false,"rental_uris":{"android":"levelo://app?vid=c595d0e1-c778-4abe-9c79-a9dd74f54e27","ios":"levelo://app?vid=c595d0e1-c778-4abe-9c79-a9dd74f54e27"},"vehicle_type_id":"4","last_reported":1751296276,"current_range_meters":9200,"station_id":"","pricing_plan_id":"cebpf4jnsgd1na2vs0mg"},{"bike_id":"18dcceb6-6a9c-400c-a006-2ce25fcc9195","system_id":"levelo_inurba_marseille","lat":43.28613,"lon":5.35108,"is_reserved":false,"is_disabled":false,"rental_uris":{"android":"levelo://app?vid=18dcceb6-6a9c-400c-a006-2ce25fcc9195","ios":"levelo://app?vid=18dcceb6-6a9c-400c-a006-2ce25fcc9195"},"vehicle_type_id":"4","last_reported":1751296276,"current_range_meters":9200,"station_id":"ce4bhch2rcd13ifvqeug","pricing_plan_id":"cebpf4jnsgd1na2vs0mg"},{"bike_id":"7c20f540-06e0-42f4-a6cf-8357cb8cad05","system_id":"levelo_inurba_marseille","lat":43.251107,"lon":5.40321,"is_reserved":false,"is_disabled":false,"rental_uris":{"android":"levelo://app?vid=7c20f540-06e0-42f4-a6cf-8357cb8cad05","ios":"levelo://app?vid=7c20f540-06e0-42f4-a6cf-8357cb8cad05"},"vehicle_type_id":"4","last_reported":1751296276,"current_range_meters":9200,"station_id":"ce4bhlh2rcd13ifvqgig","pricing_plan_id":"cebpf4jnsgd1na2vs0mg"},{"bike_id":"b879504e-c85b-45ea-ab13-dce989cb130f","system_id":"levelo_inurba_marseille","lat":43.32361,"lon":5.36742,"is_reserved":false,"is_disabled":false,"rental_uris":{"android":"levelo://app?vid=b879504e-c85b-45ea-ab13-dce989cb130f","ios":"levelo://app?vid=b879504e-c85b-45ea-ab13-dce989cb130f"},"vehicle_type_id":"4","last_reported":1751296276,"current_range_meters":9200,"station_id":"ce4bhsh2rcd13ifvqi2g","pricing_plan_id":"cebpf4jnsgd1na2vs0mg"},{"bike_id":"120036e1-945c-4ddf-ba61-047361af53a6","system_id":"levelo_inurba_marseille","lat":43.21193,"lon":5.35072,"is_reserved":false,"is_disabled":false,"rental_uris":{"android":"levelo://app?vid=120036e1-945c-4ddf-ba61-047361af53a6","ios":"levelo://app?vid=120036e1-945c-4ddf-ba61-047361af53a6"},"vehicle_type_id":"4","last_reported":1751296276,"current_range_meters":9200,"station_id":"st_cvj6sg6p6f1abm77japg","pricing_plan_id":"cebpf4jnsgd1na2vs0mg"},{"bike_id":"05d3d448-235e-4ac7-88df-050f15d5a616","system_id":"levelo_inurba_marseille","lat":43.27972,"lon":5.42194,"is_reserved":false,"is_disabled":false,"rental_uris":{"android":"levelo://app?vid=05d3d448-235e-4ac7-88df-050f15d5a616","ios":"levelo://app?vid=05d3d448-235e-4ac7-88df-050f15d5a616"},"vehicle_type_id":"4","last_reported":1751296276,"current_range_meters":9600,"station_id":"","pricing_plan_id":"cebpf4jnsgd1na2vs0mg"},{"bike_id":"3035be0e-7c3d-4f7d-a1cb-7a1af59e497b","system_id":"levelo_inurba_marseille","lat":43.29647,"lon":5.35999,"is_reserved":false,"is_disabled":false,"rental_uris":{"android":"levelo://app?vid=3035be0e-7c3d-4f7d-a1cb-7a1af59e497b","ios":"levelo://app?vid=3035be0e-7c3d-4f7d-a1cb-7a1af59e497b"},"vehicle_type_id":"4","last_reported":1751296276,"current_range_meters":9600,"station_id":"","pricing_plan_id":"cebpf4jnsgd1na2vs0mg"},{"bike_id":"6b012006-71d0-4b83-aa8b-16f1a2d5b234","system_id":"levelo_inurba_marseille","lat":43.2587,"lon":5.39903,"is_reserved":false,"is_disabled":false,"rental_uris":{"android":"levelo://app?vid=6b012006-71d0-4b83-aa8b-16f1a2d5b234","ios":"levelo://app?vid=6b012006-71d0-4b83-aa8b-16f1a2d5b234"},"vehicle_type_id":"4","last_reported":1751296276,"current_range_meters":9600,"station_id":"ce4bhl92rcd13ifvqghg","pricing_plan_id":"cebpf4jnsgd1na2vs0mg"},{"bike_id":"32be6b32-514a-4d84-90b5-9913910bb2f1","system_id":"levelo_inurba_marseille","lat":43.32367,"lon":5.36774,"is_reserved":false,"is_disabled":false,"rental_uris":{"android":"levelo://app?vid=32be6b32-514a-4d84-90b5-9913910bb2f1","ios":"levelo://app?vid=32be6b32-514a-4d84-90b5-9913910bb2f1"},"vehicle_type_id":"4","last_reported":1751296276,"current_range_meters":10000,"station_id":"ce4bhsh2rcd13ifvqi2g","pricing_plan_id":"cebpf4jnsgd1na2vs0mg"},{"bike_id":"56acf0ce-3b58-4ad4-a976-a27f1ed72941","system_id":"levelo_inurba_marseille","lat":43.26803,"lon":5.40278,"is_reserved":false,"is_disabled":false,"rental_uris":{"android":"levelo://app?vid=56acf0ce-3b58-4ad4-a976-a27f1ed72941","ios":"levelo://app?vid=56acf0ce-3b58-4ad4-a976-a27f1ed72941"},"vehicle_type_id":"4","last_reported":1751296276,"current_range_meters":10000,"station_id":"ce501612rcd8frsf0b60","pricing_plan_id":"cebpf4jnsgd1na2vs0mg"},{"bike_id":"b05ac08d-847b-4f20-ac36-038a0d69d167","system_id":"levelo_inurba_marseille","lat":43.2814,"lon":5.35859,"is_reserved":false,"is_disabled":false,"rental_uris":{"android":"levelo://app?vid=b05ac08d-847b-4f20-ac36-038a0d69d167","ios":"levelo://app?vid=b05ac08d-847b-4f20-ac36-038a0d69d167"},"vehicle_type_id":"4","last_reported":1751296276,"current_range_meters":10800,"station_id":"","pricing_plan_id":"cebpf4jnsgd1na2vs0mg"},{"bike_id":"e8475ce8-4094-40cd-8aa1-3662316ee740","system_id":"levelo_inurba_marseille","lat":43.30429,"lon":5.39747,"is_reserved":false,"is_disabled":false,"rental_uris":{"android":"levelo://app?vid=e8475ce8-4094-40cd-8aa1-3662316ee740","ios":"levelo://app?vid=e8475ce8-4094-40cd-8aa1-3662316ee740"},"vehicle_type_id":"4","last_reported":1751296276,"current_range_meters":10800,"station_id":"ce4bh092rcd13ifvqd20","pricing_plan_id":"cebpf4jnsgd1na2vs0mg"},{"bike_id":"3a1b722b-0440-4ef6-96ee-49f29451f3e9","system_id":"levelo_inurba_marseille","lat":43.25499,"lon":5.37653,"is_reserved":false,"is_disabled":false,"rental_uris":{"android":"levelo://app?vid=3a1b722b-0440-4ef6-96ee-49f29451f3e9","ios":"levelo://app?vid=3a1b722b-0440-4ef6-96ee-49f29451f3e9"},"vehicle_type_id":"4","last_reported":1751296276,"current_range_meters":10800,"station_id":"ce4bhh12rcd13ifvqff0","pricing_plan_id":"cebpf4jnsgd1na2vs0mg"},{"bike_id":"b05733ac-e333-4bae-a385-6c30ebf06450","system_id":"levelo_inurba_marseille","lat":43.27494,"lon":5.42447,"is_reserved":false,"is_disabled":false,"rental_uris":{"android":"levelo://app?vid=b05733ac-e333-4bae-a385-6c30ebf06450","ios":"levelo://app?vid=b05733ac-e333-4bae-a385-6c30ebf06450"},"vehicle_type_id":"4","last_reported":1751296276,"current_range_meters":10800,"station_id":"ce4bhn92rcd13ifvqgrg","pricing_plan_id":"cebpf4jnsgd1na2vs0mg"},{"bike_id":"7cd73daf-6410-4b72-a872-e5224e9d29ff","system_id":"levelo_inurba_marseille","lat":43.27419,"lon":5.41151,"is_reserved":false,"is_disabled":false,"rental_uris":{"android":"levelo://app?vid=7cd73daf-6410-4b72-a872-e5224e9d29ff","ios":"levelo://app?vid=7cd73daf-6410-4b72-a872-e5224e9d29ff"},"vehicle_type_id":"4","last_reported":1751296276,"current_range_meters":11200,"station_id":"","pricing_plan_id":"cebpf4jnsgd1na2vs0mg"},{"bike_id":"f5c16f07-bc6f-4121-91a7-5ad90eec4f34","system_id":"levelo_inurba_marseille","lat":43.31237,"lon":5.37323,"is_reserved":false,"is_disabled":false,"rental_uris":{"android":"levelo://app?vid=f5c16f07-bc6f-4121-91a7-5ad90eec4f34","ios":"levelo://app?vid=f5c16f07-bc6f-4121-91a7-5ad90eec4f34"},"vehicle_type_id":"4","last_reported":1751296276,"current_range_meters":11200,"station_id":"","pricing_plan_id":"cebpf4jnsgd1na2vs0mg"},{"bike_id":"5a43fa58-a0c9-4110-89c2-86fcbb47143d","system_id":"levelo_inurba_marseille","lat":43.23154,"lon":5.43701,"is_reserved":false,"is_disabled":false,"rental_uris":{"android":"levelo://app?vid=5a43fa58-a0c9-4110-89c2-86fcbb47143d","ios":"levelo://app?vid=5a43fa58-a0c9-4110-89c2-86fcbb47143d"},"vehicle_type_id":"4","last_reported":1751296276,"current_range_meters":11200,"station_id":"ce4bhmp2rcd13ifvqgog","pricing_plan_id":"cebpf4jnsgd1na2vs0mg"},{"bike_id":"6b6a646f-e1ae-4138-9055-a2e578c870cb","system_id":"levelo_inurba_marseille","lat":43.21756,"lon":5.34605,"is_reserved":false,"is_disabled":false,"rental_uris":{"android":"levelo://app?vid=6b6a646f-e1ae-4138-9055-a2e578c870cb","ios":"levelo://app?vid=6b6a646f-e1ae-4138-9055-a2e578c870cb"},"vehicle_type_id":"4","last_reported":1751296276,"current_range_meters":11200,"station_id":"st_cvj6r9ubvosntc0bgbag","pricing_plan_id":"cebpf4jnsgd1na2vs0mg"},{"bike_id":"786f230b-598f-4e58-bbc2-1e0a419e9de2","system_id":"levelo_inurba_marseille","lat":43.26471,"lon":5.392055,"is_reserved":false,"is_disabled":false,"rental_uris":{"android":"levelo://app?vid=786f230b-598f-4e58-bbc2-1e0a419e9de2","ios":"levelo://app?vid=786f230b-598f-4e58-bbc2-1e0a419e9de2"},"vehicle_type_id":"4","last_reported":1751296276,"current_range_meters":11600,"station_id":"","pricing_plan_id":"cebpf4jnsgd1na2vs0mg"},{"bike_id":"2c941d90-e42f-422f-8651-5cc6f449d5f0","system_id":"levelo_inurba_marseille","lat":43.26221,"lon":5.37413,"is_reserved":false,"is_disabled":false,"rental_uris":{"android":"levelo://app?vid=2c941d90-e42f-422f-8651-5cc6f449d5f0","ios":"levelo://app?vid=2c941d90-e42f-422f-8651-5cc6f449d5f0"},"vehicle_type_id":"4","last_reported":1751296276,"current_range_meters":11600,"station_id":"","pricing_plan_id":"cebpf4jnsgd1na2vs0mg"},{"bike_id":"7dc148e5-fd7e-4677-bce3-55c94c6ee080","system_id":"levelo_inurba_marseille","lat":43.30663,"lon":5.40974,"is_reserved":false,"is_disabled":false,"rental_uris":{"android":"levelo://app?vid=7dc148e5-fd7e-4677-bce3-55c94c6ee080","ios":"levelo://app?vid=7dc148e5-fd7e-4677-bce3-55c94c6ee080"},"vehicle_type_id":"4","last_reported":1751296276,"current_range_meters":11600,"station_id":"","pricing_plan_id":"cebpf4jnsgd1na2vs0mg"},{"bike_id":"41aca0d7-98c0-45b4-9329-519cd20dff12","system_id":"levelo_inurba_marseille","lat":43.27376,"lon":5.36236,"is_reserved":false,"is_disabled":false,"rental_uris":{"android":"levelo://app?vid=41aca0d7-98c0-45b4-9329-519cd20dff12","ios":"levelo://app?vid=41aca0d7-98c0-45b4-9329-519cd20dff12"},"vehicle_type_id":"4","last_reported":1751296276,"current_range_meters":11600,"station_id":"ce4bhbh2rcd13ifvqeo0","pricing_plan_id":"cebpf4jnsgd1na2vs0mg"},{"bike_id":"0ea0f3f1-48ca-41c5-9c5c-084ecdcf3076","system_id":"levelo_inurba_marseille","lat":43.28265,"lon":5.35078,"is_reserved":false,"is_disabled":false,"rental_uris":{"android":"levelo://app?vid=0ea0f3f1-48ca-41c5-9c5c-084ecdcf3076","ios":"levelo://app?vid=0ea0f3f1-48ca-41c5-9c5c-084ecdcf3076"},"vehicle_type_id":"4","last_reported":1751296276,"current_range_meters":11600,"station_id":"ce4bhbp2rcd13ifvqerg","pricing_plan_id":"cebpf4jnsgd1na2vs0mg"},{"bike_id":"e245ea00-c68a-475b-a902-5a5d4d3b2940","system_id":"levelo_inurba_marseille","lat":43.211952,"lon":5.350769,"is_reserved":false,"is_disabled":false,"rental_uris":{"android":"levelo://app?vid=e245ea00-c68a-475b-a902-5a5d4d3b2940","ios":"levelo://app?vid=e245ea00-c68a-475b-a902-5a5d4d3b2940"},"vehicle_type_id":"4","last_reported":1751296276,"current_range_meters":11600,"station_id":"st_cvj6sg6p6f1abm77japg","pricing_plan_id":"cebpf4jnsgd1na2vs0mg"},{"bike_id":"6ca45d85-724d-46a1-81a2-c6ea453808e9","system_id":"levelo_inurba_marseille","lat":43.30673,"lon":5.3668,"is_reserved":false,"is_disabled":false,"rental_uris":{"android":"levelo://app?vid=6ca45d85-724d-46a1-81a2-c6ea453808e9","ios":"levelo://app?vid=6ca45d85-724d-46a1-81a2-c6ea453808e9"},"vehicle_type_id":"4","last_reported":1751296276,"current_range_meters":12000,"station_id":"","pricing_plan_id":"cebpf4jnsgd1na2vs0mg"},{"bike_id":"add8ecd9-4e33-4d6a-b174-33d35c2fe3a0","system_id":"levelo_inurba_marseille","lat":43.337444,"lon":5.374475,"is_reserved":false,"is_disabled":false,"rental_uris":{"android":"levelo://app?vid=add8ecd9-4e33-4d6a-b174-33d35c2fe3a0","ios":"levelo://app?vid=add8ecd9-4e33-4d6a-b174-33d35c2fe3a0"},"vehicle_type_id":"4","last_reported":1751296276,"current_range_meters":12000,"station_id":"","pricing_plan_id":"cebpf4jnsgd1na2vs0mg"},{"bike_id":"dca63ef5-41c6-4fb8-9764-4da1fe903413","system_id":"levelo_inurba_marseille","lat":43.29011,"lon":5.35603,"is_reserved":false,"is_disabled":false,"rental_uris":{"android":"levelo://app?vid=dca63ef5-41c6-4fb8-9764-4da1fe903413","ios":"levelo://app?vid=dca63ef5-41c6-4fb8-9764-4da1fe903413"},"vehicle_type_id":"4","last_reported":1751296276,"current_range_meters":12000,"station_id":"ce4bhb92rcd13ifvqen0","pricing_plan_id":"cebpf4jnsgd1na2vs0mg"},{"bike_id":"b06370fd-57df-4a21-8a70-e1ffee6d1c17","system_id":"levelo_inurba_marseille","lat":43.28238,"lon":5.35088,"is_reserved":false,"is_disabled":false,"rental_uris":{"android":"levelo://app?vid=b06370fd-57df-4a21-8a70-e1ffee6d1c17","ios":"levelo://app?vid=b06370fd-57df-4a21-8a70-e1ffee6d1c17"},"vehicle_type_id":"4","last_reported":1751296276,"current_range_meters":12000,"station_id":"ce4bhbp2rcd13ifvqerg","pricing_plan_id":"cebpf4jnsgd1na2vs0mg"},{"bike_id":"68e9fd07-c21b-4087-a177-deee233e9fcd","system_id":"levelo_inurba_marseille","lat":43.26781,"lon":5.39419,"is_reserved":false,"is_disabled":false,"rental_uris":{"android":"levelo://app?vid=68e9fd07-c21b-4087-a177-deee233e9fcd","ios":"levelo://app?vid=68e9fd07-c21b-4087-a177-deee233e9fcd"},"vehicle_type_id":"4","last_reported":1751296276,"current_range_meters":12000,"station_id":"ce4bhh12rcd13ifvqfg0","pricing_plan_id":"cebpf4jnsgd1na2vs0mg"},{"bike_id":"2a7d4522-b0dd-48c1-8653-7a6d0e58cc43","system_id":"levelo_inurba_marseille","lat":43.31865,"lon":5.40234,"is_reserved":false,"is_disabled":false,"rental_uris":{"android":"levelo://app?vid=2a7d4522-b0dd-48c1-8653-7a6d0e58cc43","ios":"levelo://app?vid=2a7d4522-b0dd-48c1-8653-7a6d0e58cc43"},"vehicle_type_id":"4","last_reported":1751296276,"current_range_meters":12400,"station_id":"","pricing_plan_id":"cebpf4jnsgd1na2vs0mg"},{"bike_id":"c2e134cb-ee58-410e-8443-cdf3a592d767","system_id":"levelo_inurba_marseille","lat":43.29573,"lon":5.3875,"is_reserved":false,"is_disabled":false,"rental_uris":{"android":"levelo://app?vid=c2e134cb-ee58-410e-8443-cdf3a592d767","ios":"levelo://app?vid=c2e134cb-ee58-410e-8443-cdf3a592d767"},"vehicle_type_id":"4","last_reported":1751296276,"current_range_meters":12400,"station_id":"","pricing_plan_id":"cebpf4jnsgd1na2vs0mg"},{"bike_id":"b9761043-654b-4358-8320-5fa5d2d3535a","system_id":"levelo_inurba_marseille","lat":43.28663,"lon":5.36349,"is_reserved":false,"is_disabled":false,"rental_uris":{"android":"levelo://app?vid=b9761043-654b-4358-8320-5fa5d2d3535a","ios":"levelo://app?vid=b9761043-654b-4358-8320-5fa5d2d3535a"},"vehicle_type_id":"4","last_reported":1751296276,"current_range_meters":12400,"station_id":"ce4bhah2rcd13ifvqej0","pricing_plan_id":"cebpf4jnsgd1na2vs0mg"},{"bike_id":"f422404b-3a07-4637-be3f-c781752be2a4","system_id":"levelo_inurba_marseille","lat":43.28409,"lon":5.34978,"is_reserved":false,"is_disabled":false,"rental_uris":{"android":"levelo://app?vid=f422404b-3a07-4637-be3f-c781752be2a4","ios":"levelo://app?vid=f422404b-3a07-4637-be3f-c781752be2a4"},"vehicle_type_id":"4","last_reported":1751296276,"current_range_meters":12400,"station_id":"ce4bhbh2rcd13ifvqepg","pricing_plan_id":"cebpf4jnsgd1na2vs0mg"},{"bike_id":"cb500ca7-1f8c-459d-9d0f-3400b4a234a7","system_id":"levelo_inurba_marseille","lat":43.26204,"lon":5.37449,"is_reserved":false,"is_disabled":false,"rental_uris":{"android":"levelo://app?vid=cb500ca7-1f8c-459d-9d0f-3400b4a234a7","ios":"levelo://app?vid=cb500ca7-1f8c-459d-9d0f-3400b4a234a7"},"vehicle_type_id":"4","last_reported":1751296276,"current_range_meters":12400,"station_id":"ce4bhgp2rcd13ifvqfc0","pricing_plan_id":"cebpf4jnsgd1na2vs0mg"},{"bike_id":"f52b13e0-619e-49c6-92e0-0d19abfee268","system_id":"levelo_inurba_marseille","lat":43.32289,"lon":5.38278,"is_reserved":false,"is_disabled":false,"rental_uris":{"android":"levelo://app?vid=f52b13e0-619e-49c6-92e0-0d19abfee268","ios":"levelo://app?vid=f52b13e0-619e-49c6-92e0-0d19abfee268"},"vehicle_type_id":"4","last_reported":1751296276,"current_range_meters":12400,"station_id":"ce4bhr12rcd13ifvqhqg","pricing_plan_id":"cebpf4jnsgd1na2vs0mg"},{"bike_id":"1b4f6545-8df3-4501-93c1-b998da516dd1","system_id":"levelo_inurba_marseille","lat":43.32354,"lon":5.36745,"is_reserved":false,"is_disabled":false,"rental_uris":{"android":"levelo://app?vid=1b4f6545-8df3-4501-93c1-b998da516dd1","ios":"levelo://app?vid=1b4f6545-8df3-4501-93c1-b998da516dd1"},"vehicle_type_id":"4","last_reported":1751296276,"current_range_meters":12400,"station_id":"ce4bhsh2rcd13ifvqi2g","pricing_plan_id":"cebpf4jnsgd1na2vs0mg"},{"bike_id":"d97fb146-df52-454f-9826-e3f143dab8fc","system_id":"levelo_inurba_marseille","lat":43.21194,"lon":5.35072,"is_reserved":false,"is_disabled":false,"rental_uris":{"android":"levelo://app?vid=d97fb146-df52-454f-9826-e3f143dab8fc","ios":"levelo://app?vid=d97fb146-df52-454f-9826-e3f143dab8fc"},"vehicle_type_id":"4","last_reported":1751296276,"current_range_meters":12400,"station_id":"st_cvj6sg6p6f1abm77japg","pricing_plan_id":"cebpf4jnsgd1na2vs0mg"},{"bike_id":"ceb818d5-6a0e-45de-8d40-c9c1b19d5e60","system_id":"levelo_inurba_marseille","lat":43.32302,"lon":5.36626,"is_reserved":false,"is_disabled":false,"rental_uris":{"android":"levelo://app?vid=ceb818d5-6a0e-45de-8d40-c9c1b19d5e60","ios":"levelo://app?vid=ceb818d5-6a0e-45de-8d40-c9c1b19d5e60"},"vehicle_type_id":"4","last_reported":1751296276,"current_range_meters":12800,"station_id":"","pricing_plan_id":"cebpf4jnsgd1na2vs0mg"},{"bike_id":"ea3d6cab-de34-4d69-9c23-d3e2b6233884","system_id":"levelo_inurba_marseille","lat":43.26211,"lon":5.37432,"is_reserved":false,"is_disabled":false,"rental_uris":{"android":"levelo://app?vid=ea3d6cab-de34-4d69-9c23-d3e2b6233884","ios":"levelo://app?vid=ea3d6cab-de34-4d69-9c23-d3e2b6233884"},"vehicle_type_id":"4","last_reported":1751296276,"current_range_meters":12800,"station_id":"ce4bhgp2rcd13ifvqfc0","pricing_plan_id":"cebpf4jnsgd1na2vs0mg"},{"bike_id":"30beeb03-99f8-4c21-aeda-bd83286c050c","system_id":"levelo_inurba_marseille","lat":43.29579,"lon":5.37524,"is_reserved":false,"is_disabled":false,"rental_uris":{"android":"levelo://app?vid=30beeb03-99f8-4c21-aeda-bd83286c050c","ios":"levelo://app?vid=30beeb03-99f8-4c21-aeda-bd83286c050c"},"vehicle_type_id":"4","last_reported":1751296276,"current_range_meters":13600,"station_id":"ce4bgh92rcd13ifvqb50","pricing_plan_id":"cebpf4jnsgd1na2vs0mg"},{"bike_id":"4e6959f6-04e7-41b3-a916-abe83609d3c4","system_id":"levelo_inurba_marseille","lat":43.28662,"lon":5.36349,"is_reserved":false,"is_disabled":false,"rental_uris":{"android":"levelo://app?vid=4e6959f6-04e7-41b3-a916-abe83609d3c4","ios":"levelo://app?vid=4e6959f6-04e7-41b3-a916-abe83609d3c4"},"vehicle_type_id":"4","last_reported":1751296276,"current_range_meters":13600,"station_id":"ce4bhah2rcd13ifvqej0","pricing_plan_id":"cebpf4jnsgd1na2vs0mg"},{"bike_id":"75425414-a687-49e5-938b-abbdb5d974d8","system_id":"levelo_inurba_marseille","lat":43.24646,"lon":5.38892,"is_reserved":false,"is_disabled":false,"rental_uris":{"android":"levelo://app?vid=75425414-a687-49e5-938b-abbdb5d974d8","ios":"levelo://app?vid=75425414-a687-49e5-938b-abbdb5d974d8"},"vehicle_type_id":"4","last_reported":1751296276,"current_range_meters":13600,"station_id":"ce4bhg12rcd13ifvqf60","pricing_plan_id":"cebpf4jnsgd1na2vs0mg"},{"bike_id":"1ac664aa-f2a4-4b75-879f-dcb93272d133","system_id":"levelo_inurba_marseille","lat":43.320379,"lon":5.409506,"is_reserved":false,"is_disabled":false,"rental_uris":{"android":"levelo://app?vid=1ac664aa-f2a4-4b75-879f-dcb93272d133","ios":"levelo://app?vid=1ac664aa-f2a4-4b75-879f-dcb93272d133"},"vehicle_type_id":"4","last_reported":1751296276,"current_range_meters":14000,"station_id":"","pricing_plan_id":"cebpf4jnsgd1na2vs0mg"},{"bike_id":"e3b308d1-96bf-4d37-aa7e-e01f1874e441","system_id":"levelo_inurba_marseille","lat":43.29061,"lon":5.37167,"is_reserved":false,"is_disabled":false,"rental_uris":{"android":"levelo://app?vid=e3b308d1-96bf-4d37-aa7e-e01f1874e441","ios":"levelo://app?vid=e3b308d1-96bf-4d37-aa7e-e01f1874e441"},"vehicle_type_id":"4","last_reported":1751296276,"current_range_meters":14000,"station_id":"ce4bh5p2rcd13ifvqe4g","pricing_plan_id":"cebpf4jnsgd1na2vs0mg"},{"bike_id":"561cd712-b78f-47f9-977f-b8d63063e762","system_id":"levelo_inurba_marseille","lat":43.28465,"lon":5.35888,"is_reserved":false,"is_disabled":false,"rental_uris":{"android":"levelo://app?vid=561cd712-b78f-47f9-977f-b8d63063e762","ios":"levelo://app?vid=561cd712-b78f-47f9-977f-b8d63063e762"},"vehicle_type_id":"4","last_reported":1751296276,"current_range_meters":14000,"station_id":"ce4bhah2rcd13ifvqei0","pricing_plan_id":"cebpf4jnsgd1na2vs0mg"},{"bike_id":"596fd604-7521-4a9a-91e4-779951608d0d","system_id":"levelo_inurba_marseille","lat":43.25497,"lon":5.37651,"is_reserved":false,"is_disabled":false,"rental_uris":{"android":"levelo://app?vid=596fd604-7521-4a9a-91e4-779951608d0d","ios":"levelo://app?vid=596fd604-7521-4a9a-91e4-779951608d0d"},"vehicle_type_id":"4","last_reported":1751296276,"current_range_meters":14000,"station_id":"ce4bhh12rcd13ifvqff0","pricing_plan_id":"cebpf4jnsgd1na2vs0mg"},{"bike_id":"ecda20bd-1c69-43c0-afe9-e93e538fd2c4","system_id":"levelo_inurba_marseille","lat":43.24387,"lon":5.37066,"is_reserved":false,"is_disabled":false,"rental_uris":{"android":"levelo://app?vid=ecda20bd-1c69-43c0-afe9-e93e538fd2c4","ios":"levelo://app?vid=ecda20bd-1c69-43c0-afe9-e93e538fd2c4"},"vehicle_type_id":"4","last_reported":1751296276,"current_range_meters":14000,"station_id":"ce4bhhh2rcd13ifvqfk0","pricing_plan_id":"cebpf4jnsgd1na2vs0mg"},{"bike_id":"0bbacc1b-16a4-4b0f-a6c0-a6651dd5b39c","system_id":"levelo_inurba_marseille","lat":43.24407,"lon":5.37086,"is_reserved":false,"is_disabled":false,"rental_uris":{"android":"levelo://app?vid=0bbacc1b-16a4-4b0f-a6c0-a6651dd5b39c","ios":"levelo://app?vid=0bbacc1b-16a4-4b0f-a6c0-a6651dd5b39c"},"vehicle_type_id":"4","last_reported":1751296276,"current_range_meters":14000,"station_id":"ce4bhhh2rcd13ifvqfk0","pricing_plan_id":"cebpf4jnsgd1na2vs0mg"},{"bike_id":"c13c93ac-6b62-443c-9e36-caf61b27325a","system_id":"levelo_inurba_marseille","lat":43.21196,"lon":5.35065,"is_reserved":false,"is_disabled":false,"rental_uris":{"android":"levelo://app?vid=c13c93ac-6b62-443c-9e36-caf61b27325a","ios":"levelo://app?vid=c13c93ac-6b62-443c-9e36-caf61b27325a"},"vehicle_type_id":"4","last_reported":1751296276,"current_range_meters":14000,"station_id":"st_cvj6sg6p6f1abm77japg","pricing_plan_id":"cebpf4jnsgd1na2vs0mg"},{"bike_id":"0ed13a3f-eeb6-48a6-9f85-414300bb0517","system_id":"levelo_inurba_marseille","lat":43.29302,"lon":5.37459,"is_reserved":false,"is_disabled":false,"rental_uris":{"android":"levelo://app?vid=0ed13a3f-eeb6-48a6-9f85-414300bb0517","ios":"levelo://app?vid=0ed13a3f-eeb6-48a6-9f85-414300bb0517"},"vehicle_type_id":"4","last_reported":1751296276,"current_range_meters":14400,"station_id":"ce4bgi12rcd13ifvqb70","pricing_plan_id":"cebpf4jnsgd1na2vs0mg"},{"bike_id":"96e785d3-0c2a-4bec-b011-c91b6e4e90c3","system_id":"levelo_inurba_marseille","lat":43.26205,"lon":5.37443,"is_reserved":false,"is_disabled":false,"rental_uris":{"android":"levelo://app?vid=96e785d3-0c2a-4bec-b011-c91b6e4e90c3","ios":"levelo://app?vid=96e785d3-0c2a-4bec-b011-c91b6e4e90c3"},"vehicle_type_id":"4","last_reported":1751296276,"current_range_meters":14400,"station_id":"ce4bhgp2rcd13ifvqfc0","pricing_plan_id":"cebpf4jnsgd1na2vs0mg"},{"bike_id":"6b04a8db-f012-4ea9-88f5-d59ff3f24fd9","system_id":"levelo_inurba_marseille","lat":43.29904,"lon":5.436671,"is_reserved":false,"is_disabled":false,"rental_uris":{"android":"levelo://app?vid=6b04a8db-f012-4ea9-88f5-d59ff3f24fd9","ios":"levelo://app?vid=6b04a8db-f012-4ea9-88f5-d59ff3f24fd9"},"vehicle_type_id":"4","last_reported":1751296276,"current_range_meters":14400,"station_id":"ce4bhpp2rcd13ifvqhfg","pricing_plan_id":"cebpf4jnsgd1na2vs0mg"},{"bike_id":"4e47abe4-6598-4756-807d-26ba558e3c39","system_id":"levelo_inurba_marseille","lat":43.29895,"lon":5.43666,"is_reserved":false,"is_disabled":false,"rental_uris":{"android":"levelo://app?vid=4e47abe4-6598-4756-807d-26ba558e3c39","ios":"levelo://app?vid=4e47abe4-6598-4756-807d-26ba558e3c39"},"vehicle_type_id":"4","last_reported":1751296276,"current_range_meters":14400,"station_id":"ce4bhpp2rcd13ifvqhfg","pricing_plan_id":"cebpf4jnsgd1na2vs0mg"},{"bike_id":"60b999e3-fd28-40b6-b9f1-008f7f4d0eb5","system_id":"levelo_inurba_marseille","lat":43.2929,"lon":5.37463,"is_reserved":false,"is_disabled":false,"rental_uris":{"android":"levelo://app?vid=60b999e3-fd28-40b6-b9f1-008f7f4d0eb5","ios":"levelo://app?vid=60b999e3-fd28-40b6-b9f1-008f7f4d0eb5"},"vehicle_type_id":"4","last_reported":1751296276,"current_range_meters":14800,"station_id":"ce4bgi12rcd13ifvqb70","pricing_plan_id":"cebpf4jnsgd1na2vs0mg"},{"bike_id":"71e46c16-de39-4218-ab39-33b3b8c11b00","system_id":"levelo_inurba_marseille","lat":43.240705,"lon":5.377646,"is_reserved":false,"is_disabled":false,"rental_uris":{"android":"levelo://app?vid=71e46c16-de39-4218-ab39-33b3b8c11b00","ios":"levelo://app?vid=71e46c16-de39-4218-ab39-33b3b8c11b00"},"vehicle_type_id":"4","last_reported":1751296276,"current_range_meters":14800,"station_id":"ce4bhnp2rcd13ifvqgvg","pricing_plan_id":"cebpf4jnsgd1na2vs0mg"},{"bike_id":"aad466d4-9058-4038-a189-895fae6f1c28","system_id":"levelo_inurba_marseille","lat":43.211872,"lon":5.350716,"is_reserved":false,"is_disabled":false,"rental_uris":{"android":"levelo://app?vid=aad466d4-9058-4038-a189-895fae6f1c28","ios":"levelo://app?vid=aad466d4-9058-4038-a189-895fae6f1c28"},"vehicle_type_id":"4","last_reported":1751296276,"current_range_meters":14800,"station_id":"st_cvj6sg6p6f1abm77japg","pricing_plan_id":"cebpf4jnsgd1na2vs0mg"},{"bike_id":"ab638401-d5ff-4ccb-ba32-7b62657d04fa","system_id":"levelo_inurba_marseille","lat":43.29714,"lon":5.36615,"is_reserved":false,"is_disabled":false,"rental_uris":{"android":"levelo://app?vid=ab638401-d5ff-4ccb-ba32-7b62657d04fa","ios":"levelo://app?vid=ab638401-d5ff-4ccb-ba32-7b62657d04fa"},"vehicle_type_id":"4","last_reported":1751296276,"current_range_meters":15200,"station_id":"ce4bgn12rcd13ifvqbt0","pricing_plan_id":"cebpf4jnsgd1na2vs0mg"},{"bike_id":"284ab2b7-19d7-4c33-ae70-1389ed1014d7","system_id":"levelo_inurba_marseille","lat":43.30879,"lon":5.39655,"is_reserved":false,"is_disabled":false,"rental_uris":{"android":"levelo://app?vid=284ab2b7-19d7-4c33-ae70-1389ed1014d7","ios":"levelo://app?vid=284ab2b7-19d7-4c33-ae70-1389ed1014d7"},"vehicle_type_id":"4","last_reported":1751296276,"current_range_meters":15200,"station_id":"ce4bh012rcd13ifvqcv0","pricing_plan_id":"cebpf4jnsgd1na2vs0mg"},{"bike_id":"8ceb2860-ca09-420a-8aab-fcf0c529a0d3","system_id":"levelo_inurba_marseille","lat":43.21191,"lon":5.3508,"is_reserved":false,"is_disabled":false,"rental_uris":{"android":"levelo://app?vid=8ceb2860-ca09-420a-8aab-fcf0c529a0d3","ios":"levelo://app?vid=8ceb2860-ca09-420a-8aab-fcf0c529a0d3"},"vehicle_type_id":"4","last_reported":1751296276,"current_range_meters":15200,"station_id":"st_cvj6sg6p6f1abm77japg","pricing_plan_id":"cebpf4jnsgd1na2vs0mg"},{"bike_id":"88547822-fe4a-42bb-8a70-133e1829e579","system_id":"levelo_inurba_marseille","lat":43.28412,"lon":5.349877,"is_reserved":false,"is_disabled":false,"rental_uris":{"android":"levelo://app?vid=88547822-fe4a-42bb-8a70-133e1829e579","ios":"levelo://app?vid=88547822-fe4a-42bb-8a70-133e1829e579"},"vehicle_type_id":"4","last_reported":1751296276,"current_range_meters":16000,"station_id":"ce4bhbh2rcd13ifvqepg","pricing_plan_id":"cebpf4jnsgd1na2vs0mg"},{"bike_id":"5ad89c97-d13e-490d-9775-036d6518236b","system_id":"levelo_inurba_marseille","lat":43.28264,"lon":5.35076,"is_reserved":false,"is_disabled":false,"rental_uris":{"android":"levelo://app?vid=5ad89c97-d13e-490d-9775-036d6518236b","ios":"levelo://app?vid=5ad89c97-d13e-490d-9775-036d6518236b"},"vehicle_type_id":"4","last_reported":1751296276,"current_range_meters":16000,"station_id":"ce4bhbp2rcd13ifvqerg","pricing_plan_id":"cebpf4jnsgd1na2vs0mg"},{"bike_id":"40ef80da-3fe6-4050-8909-48fa3239d987","system_id":"levelo_inurba_marseille","lat":43.234562,"lon":5.359709,"is_reserved":false,"is_disabled":false,"rental_uris":{"android":"levelo://app?vid=40ef80da-3fe6-4050-8909-48fa3239d987","ios":"levelo://app?vid=40ef80da-3fe6-4050-8909-48fa3239d987"},"vehicle_type_id":"4","last_reported":1751296276,"current_range_meters":16000,"station_id":"ce4bhi12rcd13ifvqfp0","pricing_plan_id":"cebpf4jnsgd1na2vs0mg"},{"bike_id":"87616cdc-8aff-47c9-8aa9-626e349ec4f0","system_id":"levelo_inurba_marseille","lat":43.25846,"lon":5.39902,"is_reserved":false,"is_disabled":false,"rental_uris":{"android":"levelo://app?vid=87616cdc-8aff-47c9-8aa9-626e349ec4f0","ios":"levelo://app?vid=87616cdc-8aff-47c9-8aa9-626e349ec4f0"},"vehicle_type_id":"4","last_reported":1751296276,"current_range_meters":16000,"station_id":"ce4bhl92rcd13ifvqghg","pricing_plan_id":"cebpf4jnsgd1na2vs0mg"},{"bike_id":"4f97e136-2006-43b5-84b8-8ce28f4647e9","system_id":"levelo_inurba_marseille","lat":43.21191,"lon":5.35067,"is_reserved":false,"is_disabled":false,"rental_uris":{"android":"levelo://app?vid=4f97e136-2006-43b5-84b8-8ce28f4647e9","ios":"levelo://app?vid=4f97e136-2006-43b5-84b8-8ce28f4647e9"},"vehicle_type_id":"4","last_reported":1751296276,"current_range_meters":16000,"station_id":"st_cvj6sg6p6f1abm77japg","pricing_plan_id":"cebpf4jnsgd1na2vs0mg"},{"bike_id":"9732a4ed-00d2-47fb-a9ac-91ff0c84c538","system_id":"levelo_inurba_marseille","lat":43.29616,"lon":5.37726,"is_reserved":false,"is_disabled":false,"rental_uris":{"android":"levelo://app?vid=9732a4ed-00d2-47fb-a9ac-91ff0c84c538","ios":"levelo://app?vid=9732a4ed-00d2-47fb-a9ac-91ff0c84c538"},"vehicle_type_id":"4","last_reported":1751296276,"current_range_meters":16400,"station_id":"ce4bgi92rcd13ifvqb90","pricing_plan_id":"cebpf4jnsgd1na2vs0mg"},{"bike_id":"ef56af2f-739b-4071-a865-2862ea606449","system_id":"levelo_inurba_marseille","lat":43.27387,"lon":5.36252,"is_reserved":false,"is_disabled":false,"rental_uris":{"android":"levelo://app?vid=ef56af2f-739b-4071-a865-2862ea606449","ios":"levelo://app?vid=ef56af2f-739b-4071-a865-2862ea606449"},"vehicle_type_id":"4","last_reported":1751296276,"current_range_meters":16400,"station_id":"ce4bhbh2rcd13ifvqeo0","pricing_plan_id":"cebpf4jnsgd1na2vs0mg"},{"bike_id":"50d0835d-650d-42e5-8a53-5587fc86642f","system_id":"levelo_inurba_marseille","lat":43.284103,"lon":5.349857,"is_reserved":false,"is_disabled":false,"rental_uris":{"android":"levelo://app?vid=50d0835d-650d-42e5-8a53-5587fc86642f","ios":"levelo://app?vid=50d0835d-650d-42e5-8a53-5587fc86642f"},"vehicle_type_id":"4","last_reported":1751296276,"current_range_meters":16400,"station_id":"ce4bhbh2rcd13ifvqepg","pricing_plan_id":"cebpf4jnsgd1na2vs0mg"},{"bike_id":"d8facb10-b967-4a32-9b5c-8cfed4bbd05b","system_id":"levelo_inurba_marseille","lat":43.32117,"lon":5.36761,"is_reserved":false,"is_disabled":false,"rental_uris":{"android":"levelo://app?vid=d8facb10-b967-4a32-9b5c-8cfed4bbd05b","ios":"levelo://app?vid=d8facb10-b967-4a32-9b5c-8cfed4bbd05b"},"vehicle_type_id":"4","last_reported":1751296276,"current_range_meters":16400,"station_id":"ce4bhrh2rcd13ifvqhug","pricing_plan_id":"cebpf4jnsgd1na2vs0mg"},{"bike_id":"fa16bbec-3211-49bd-a8b0-90a3ace4afe6","system_id":"levelo_inurba_marseille","lat":43.31598,"lon":5.384686,"is_reserved":false,"is_disabled":false,"rental_uris":{"android":"levelo://app?vid=fa16bbec-3211-49bd-a8b0-90a3ace4afe6","ios":"levelo://app?vid=fa16bbec-3211-49bd-a8b0-90a3ace4afe6"},"vehicle_type_id":"4","last_reported":1751296276,"current_range_meters":16800,"station_id":"","pricing_plan_id":"cebpf4jnsgd1na2vs0mg"},{"bike_id":"c126dc31-ba09-48ac-a9c1-0470843ade7d","system_id":"levelo_inurba_marseille","lat":43.27374,"lon":5.36258,"is_reserved":false,"is_disabled":false,"rental_uris":{"android":"levelo://app?vid=c126dc31-ba09-48ac-a9c1-0470843ade7d","ios":"levelo://app?vid=c126dc31-ba09-48ac-a9c1-0470843ade7d"},"vehicle_type_id":"4","last_reported":1751296276,"current_range_meters":16800,"station_id":"ce4bhbh2rcd13ifvqeo0","pricing_plan_id":"cebpf4jnsgd1na2vs0mg"},{"bike_id":"c28e39dc-72cd-4fd8-89b7-00c27c125c16","system_id":"levelo_inurba_marseille","lat":43.28404,"lon":5.3499,"is_reserved":false,"is_disabled":false,"rental_uris":{"android":"levelo://app?vid=c28e39dc-72cd-4fd8-89b7-00c27c125c16","ios":"levelo://app?vid=c28e39dc-72cd-4fd8-89b7-00c27c125c16"},"vehicle_type_id":"4","last_reported":1751296276,"current_range_meters":16800,"station_id":"ce4bhbh2rcd13ifvqepg","pricing_plan_id":"cebpf4jnsgd1na2vs0mg"},{"bike_id":"ea26da89-1c4e-4774-856f-64f4ff0845f5","system_id":"levelo_inurba_marseille","lat":43.28266,"lon":5.35071,"is_reserved":false,"is_disabled":false,"rental_uris":{"android":"levelo://app?vid=ea26da89-1c4e-4774-856f-64f4ff0845f5","ios":"levelo://app?vid=ea26da89-1c4e-4774-856f-64f4ff0845f5"},"vehicle_type_id":"4","last_reported":1751296276,"current_range_meters":16800,"station_id":"ce4bhbp2rcd13ifvqerg","pricing_plan_id":"cebpf4jnsgd1na2vs0mg"},{"bike_id":"0e1fd179-f6dc-4047-8ba7-96fc9adce901","system_id":"levelo_inurba_marseille","lat":43.28611,"lon":5.35101,"is_reserved":false,"is_disabled":false,"rental_uris":{"android":"levelo://app?vid=0e1fd179-f6dc-4047-8ba7-96fc9adce901","ios":"levelo://app?vid=0e1fd179-f6dc-4047-8ba7-96fc9adce901"},"vehicle_type_id":"4","last_reported":1751296276,"current_range_meters":16800,"station_id":"ce4bhch2rcd13ifvqeug","pricing_plan_id":"cebpf4jnsgd1na2vs0mg"},{"bike_id":"7def622c-1243-44da-af36-4c505b4f00ba","system_id":"levelo_inurba_marseille","lat":43.24186,"lon":5.39706,"is_reserved":false,"is_disabled":false,"rental_uris":{"android":"levelo://app?vid=7def622c-1243-44da-af36-4c505b4f00ba","ios":"levelo://app?vid=7def622c-1243-44da-af36-4c505b4f00ba"},"vehicle_type_id":"4","last_reported":1751296276,"current_range_meters":16800,"station_id":"ce4bhn12rcd13ifvqgpg","pricing_plan_id":"cebpf4jnsgd1na2vs0mg"},{"bike_id":"d90daeb2-baa5-4f84-8ba2-ffc1dcd4b96b","system_id":"levelo_inurba_marseille","lat":43.24171,"lon":5.36395,"is_reserved":false,"is_disabled":false,"rental_uris":{"android":"levelo://app?vid=d90daeb2-baa5-4f84-8ba2-ffc1dcd4b96b","ios":"levelo://app?vid=d90daeb2-baa5-4f84-8ba2-ffc1dcd4b96b"},"vehicle_type_id":"4","last_reported":1751296276,"current_range_meters":16800,"station_id":"cpo36qri1sfpv3e86is0","pricing_plan_id":"cebpf4jnsgd1na2vs0mg"},{"bike_id":"048ec6e9-5fd9-4256-ae6a-a72856ab2acf","system_id":"levelo_inurba_marseille","lat":43.211909,"lon":5.350763,"is_reserved":false,"is_disabled":false,"rental_uris":{"android":"levelo://app?vid=048ec6e9-5fd9-4256-ae6a-a72856ab2acf","ios":"levelo://app?vid=048ec6e9-5fd9-4256-ae6a-a72856ab2acf"},"vehicle_type_id":"4","last_reported":1751296276,"current_range_meters":16800,"station_id":"st_cvj6sg6p6f1abm77japg","pricing_plan_id":"cebpf4jnsgd1na2vs0mg"},{"bike_id":"d5da5bd9-7c2a-48e5-92aa-fa21076cad13","system_id":"levelo_inurba_marseille","lat":43.21191,"lon":5.35076,"is_reserved":false,"is_disabled":false,"rental_uris":{"android":"levelo://app?vid=d5da5bd9-7c2a-48e5-92aa-fa21076cad13","ios":"levelo://app?vid=d5da5bd9-7c2a-48e5-92aa-fa21076cad13"},"vehicle_type_id":"4","last_reported":1751296276,"current_range_meters":16800,"station_id":"st_cvj6sg6p6f1abm77japg","pricing_plan_id":"cebpf4jnsgd1na2vs0mg"},{"bike_id":"e3be0bae-c457-417e-b637-2edfbaf52fd0","system_id":"levelo_inurba_marseille","lat":43.282637,"lon":5.350627,"is_reserved":false,"is_disabled":false,"rental_uris":{"android":"levelo://app?vid=e3be0bae-c457-417e-b637-2edfbaf52fd0","ios":"levelo://app?vid=e3be0bae-c457-417e-b637-2edfbaf52fd0"},"vehicle_type_id":"4","last_reported":1751296276,"current_range_meters":17200,"station_id":"ce4bhbp2rcd13ifvqerg","pricing_plan_id":"cebpf4jnsgd1na2vs0mg"},{"bike_id":"b18a68da-aea0-456b-8b62-5fbc190fb401","system_id":"levelo_inurba_marseille","lat":43.2396,"lon":5.36626,"is_reserved":false,"is_disabled":false,"rental_uris":{"android":"levelo://app?vid=b18a68da-aea0-456b-8b62-5fbc190fb401","ios":"levelo://app?vid=b18a68da-aea0-456b-8b62-5fbc190fb401"},"vehicle_type_id":"4","last_reported":1751296276,"current_range_meters":17200,"station_id":"ce4bhi12rcd13ifvqfp0","pricing_plan_id":"cebpf4jnsgd1na2vs0mg"},{"bike_id":"e552832c-7ca2-4106-b0f9-92bbabda27d1","system_id":"levelo_inurba_marseille","lat":43.21221,"lon":5.35073,"is_reserved":false,"is_disabled":false,"rental_uris":{"android":"levelo://app?vid=e552832c-7ca2-4106-b0f9-92bbabda27d1","ios":"levelo://app?vid=e552832c-7ca2-4106-b0f9-92bbabda27d1"},"vehicle_type_id":"4","last_reported":1751296276,"current_range_meters":17200,"station_id":"st_cvj6sg6p6f1abm77japg","pricing_plan_id":"cebpf4jnsgd1na2vs0mg"},{"bike_id":"b13877a6-4825-4d82-b46b-67fa8ad66c5d","system_id":"levelo_inurba_marseille","lat":43.21204,"lon":5.35073,"is_reserved":false,"is_disabled":false,"rental_uris":{"android":"levelo://app?vid=b13877a6-4825-4d82-b46b-67fa8ad66c5d","ios":"levelo://app?vid=b13877a6-4825-4d82-b46b-67fa8ad66c5d"},"vehicle_type_id":"4","last_reported":1751296276,"current_range_meters":17200,"station_id":"st_cvj6sg6p6f1abm77japg","pricing_plan_id":"cebpf4jnsgd1na2vs0mg"},{"bike_id":"e891d413-f511-44d4-9ddd-90f57509289b","system_id":"levelo_inurba_marseille","lat":43.31714,"lon":5.36792,"is_reserved":false,"is_disabled":false,"rental_uris":{"android":"levelo://app?vid=e891d413-f511-44d4-9ddd-90f57509289b","ios":"levelo://app?vid=e891d413-f511-44d4-9ddd-90f57509289b"},"vehicle_type_id":"4","last_reported":1751296276,"current_range_meters":17600,"station_id":"","pricing_plan_id":"cebpf4jnsgd1na2vs0mg"},{"bike_id":"1c1e0436-c990-4c38-b11e-d6968f287975","system_id":"levelo_inurba_marseille","lat":43.2957,"lon":5.36733,"is_reserved":false,"is_disabled":false,"rental_uris":{"android":"levelo://app?vid=1c1e0436-c990-4c38-b11e-d6968f287975","ios":"levelo://app?vid=1c1e0436-c990-4c38-b11e-d6968f287975"},"vehicle_type_id":"4","last_reported":1751296276,"current_range_meters":17600,"station_id":"ce4bgph2rcd13ifvqc2g","pricing_plan_id":"cebpf4jnsgd1na2vs0mg"},{"bike_id":"abfebedf-c9cc-494d-a1c8-1e36d87dc0c3","system_id":"levelo_inurba_marseille","lat":43.314853,"lon":5.373112,"is_reserved":false,"is_disabled":false,"rental_uris":{"android":"levelo://app?vid=abfebedf-c9cc-494d-a1c8-1e36d87dc0c3","ios":"levelo://app?vid=abfebedf-c9cc-494d-a1c8-1e36d87dc0c3"},"vehicle_type_id":"4","last_reported":1751296276,"current_range_meters":17600,"station_id":"ce4bgt12rcd13ifvqcd0","pricing_plan_id":"cebpf4jnsgd1na2vs0mg"},{"bike_id":"c2b72fe0-bae6-4c7b-ad48-9e771b203dc8","system_id":"levelo_inurba_marseille","lat":43.31357,"lon":5.38471,"is_reserved":false,"is_disabled":false,"rental_uris":{"android":"levelo://app?vid=c2b72fe0-bae6-4c7b-ad48-9e771b203dc8","ios":"levelo://app?vid=c2b72fe0-bae6-4c7b-ad48-9e771b203dc8"},"vehicle_type_id":"4","last_reported":1751296276,"current_range_meters":17600,"station_id":"ce4bgt92rcd13ifvqcf0","pricing_plan_id":"cebpf4jnsgd1na2vs0mg"},{"bike_id":"d569da5e-1193-4667-a449-5f06da69cd3f","system_id":"levelo_inurba_marseille","lat":43.29024,"lon":5.38127,"is_reserved":false,"is_disabled":false,"rental_uris":{"android":"levelo://app?vid=d569da5e-1193-4667-a449-5f06da69cd3f","ios":"levelo://app?vid=d569da5e-1193-4667-a449-5f06da69cd3f"},"vehicle_type_id":"4","last_reported":1751296276,"current_range_meters":17600,"station_id":"ce4bh4p2rcd13ifvqe1g","pricing_plan_id":"cebpf4jnsgd1na2vs0mg"},{"bike_id":"e25ba395-2bc9-44d2-8b95-073fe9e7fe66","system_id":"levelo_inurba_marseille","lat":43.2862,"lon":5.35099,"is_reserved":false,"is_disabled":false,"rental_uris":{"android":"levelo://app?vid=e25ba395-2bc9-44d2-8b95-073fe9e7fe66","ios":"levelo://app?vid=e25ba395-2bc9-44d2-8b95-073fe9e7fe66"},"vehicle_type_id":"4","last_reported":1751296276,"current_range_meters":17600,"station_id":"ce4bhch2rcd13ifvqeug","pricing_plan_id":"cebpf4jnsgd1na2vs0mg"},{"bike_id":"714e81cc-0a88-4f76-a904-b1c3a28974fe","system_id":"levelo_inurba_marseille","lat":43.28622,"lon":5.35104,"is_reserved":false,"is_disabled":false,"rental_uris":{"android":"levelo://app?vid=714e81cc-0a88-4f76-a904-b1c3a28974fe","ios":"levelo://app?vid=714e81cc-0a88-4f76-a904-b1c3a28974fe"},"vehicle_type_id":"4","last_reported":1751296276,"current_range_meters":17600,"station_id":"ce4bhch2rcd13ifvqeug","pricing_plan_id":"cebpf4jnsgd1na2vs0mg"},{"bike_id":"e89cbba3-0082-48af-bacf-f12cb71cea08","system_id":"levelo_inurba_marseille","lat":43.24794,"lon":5.3747,"is_reserved":false,"is_disabled":false,"rental_uris":{"android":"levelo://app?vid=e89cbba3-0082-48af-bacf-f12cb71cea08","ios":"levelo://app?vid=e89cbba3-0082-48af-bacf-f12cb71cea08"},"vehicle_type_id":"4","last_reported":1751296276,"current_range_meters":17600,"station_id":"ce4bhgh2rcd13ifvqfb0","pricing_plan_id":"cebpf4jnsgd1na2vs0mg"},{"bike_id":"76a00b1d-a1fa-404d-a656-88daabd3c791","system_id":"levelo_inurba_marseille","lat":43.24688,"lon":5.38135,"is_reserved":false,"is_disabled":false,"rental_uris":{"android":"levelo://app?vid=76a00b1d-a1fa-404d-a656-88daabd3c791","ios":"levelo://app?vid=76a00b1d-a1fa-404d-a656-88daabd3c791"},"vehicle_type_id":"4","last_reported":1751296276,"current_range_meters":17600,"station_id":"ce4bhih2rcd13ifvqfr0","pricing_plan_id":"cebpf4jnsgd1na2vs0mg"},{"bike_id":"0e1947be-a168-4a7d-b759-41db26abc88e","system_id":"levelo_inurba_marseille","lat":43.26208,"lon":5.37919,"is_reserved":false,"is_disabled":false,"rental_uris":{"android":"levelo://app?vid=0e1947be-a168-4a7d-b759-41db26abc88e","ios":"levelo://app?vid=0e1947be-a168-4a7d-b759-41db26abc88e"},"vehicle_type_id":"4","last_reported":1751296276,"current_range_meters":17600,"station_id":"ce4bhjp2rcd13ifvqg90","pricing_plan_id":"cebpf4jnsgd1na2vs0mg"},{"bike_id":"9df1043e-cce0-4245-8c65-65b991948cd6","system_id":"levelo_inurba_marseille","lat":43.28078,"lon":5.39661,"is_reserved":false,"is_disabled":false,"rental_uris":{"android":"levelo://app?vid=9df1043e-cce0-4245-8c65-65b991948cd6","ios":"levelo://app?vid=9df1043e-cce0-4245-8c65-65b991948cd6"},"vehicle_type_id":"4","last_reported":1751296276,"current_range_meters":17600,"station_id":"ce4bho12rcd13ifvqh2g","pricing_plan_id":"cebpf4jnsgd1na2vs0mg"},{"bike_id":"09b1e247-e108-408f-a2ec-798661c6fb28","system_id":"levelo_inurba_marseille","lat":43.27999,"lon":5.40017,"is_reserved":false,"is_disabled":false,"rental_uris":{"android":"levelo://app?vid=09b1e247-e108-408f-a2ec-798661c6fb28","ios":"levelo://app?vid=09b1e247-e108-408f-a2ec-798661c6fb28"},"vehicle_type_id":"4","last_reported":1751296276,"current_range_meters":17600,"station_id":"ce4bho92rcd13ifvqh4g","pricing_plan_id":"cebpf4jnsgd1na2vs0mg"},{"bike_id":"04e62e8f-4107-4d43-8ea4-5d40c5fb3e83","system_id":"levelo_inurba_marseille","lat":43.32354,"lon":5.38884,"is_reserved":false,"is_disabled":false,"rental_uris":{"android":"levelo://app?vid=04e62e8f-4107-4d43-8ea4-5d40c5fb3e83","ios":"levelo://app?vid=04e62e8f-4107-4d43-8ea4-5d40c5fb3e83"},"vehicle_type_id":"4","last_reported":1751296276,"current_range_meters":17600,"station_id":"ce4bhqp2rcd13ifvqhog","pricing_plan_id":"cebpf4jnsgd1na2vs0mg"},{"bike_id":"0d839b5e-baaf-4b32-8658-bb0d20744629","system_id":"levelo_inurba_marseille","lat":43.211971,"lon":5.350689,"is_reserved":false,"is_disabled":false,"rental_uris":{"android":"levelo://app?vid=0d839b5e-baaf-4b32-8658-bb0d20744629","ios":"levelo://app?vid=0d839b5e-baaf-4b32-8658-bb0d20744629"},"vehicle_type_id":"4","last_reported":1751296276,"current_range_meters":17600,"station_id":"st_cvj6sg6p6f1abm77japg","pricing_plan_id":"cebpf4jnsgd1na2vs0mg"},{"bike_id":"658a31b4-fcdd-422d-bfeb-8500d591500f","system_id":"levelo_inurba_marseille","lat":43.3053,"lon":5.36536,"is_reserved":false,"is_disabled":false,"rental_uris":{"android":"levelo://app?vid=658a31b4-fcdd-422d-bfeb-8500d591500f","ios":"levelo://app?vid=658a31b4-fcdd-422d-bfeb-8500d591500f"},"vehicle_type_id":"4","last_reported":1751296276,"current_range_meters":18000,"station_id":"ce4bgs12rcd13ifvqcag","pricing_plan_id":"cebpf4jnsgd1na2vs0mg"},{"bike_id":"1d88a665-2fd6-455f-b99b-90304798c28d","system_id":"levelo_inurba_marseille","lat":43.287189,"lon":5.379348,"is_reserved":false,"is_disabled":false,"rental_uris":{"android":"levelo://app?vid=1d88a665-2fd6-455f-b99b-90304798c28d","ios":"levelo://app?vid=1d88a665-2fd6-455f-b99b-90304798c28d"},"vehicle_type_id":"4","last_reported":1751296276,"current_range_meters":18000,"station_id":"ce4bh9p2rcd13ifvqec0","pricing_plan_id":"cebpf4jnsgd1na2vs0mg"},{"bike_id":"12f4e51f-cdc9-4779-9d6b-bcb51afab2b2","system_id":"levelo_inurba_marseille","lat":43.284581,"lon":5.358864,"is_reserved":false,"is_disabled":false,"rental_uris":{"android":"levelo://app?vid=12f4e51f-cdc9-4779-9d6b-bcb51afab2b2","ios":"levelo://app?vid=12f4e51f-cdc9-4779-9d6b-bcb51afab2b2"},"vehicle_type_id":"4","last_reported":1751296276,"current_range_meters":18000,"station_id":"ce4bhah2rcd13ifvqei0","pricing_plan_id":"cebpf4jnsgd1na2vs0mg"},{"bike_id":"14be44c2-bbb6-43f4-b8ae-af98cee2370c","system_id":"levelo_inurba_marseille","lat":43.28655,"lon":5.36371,"is_reserved":false,"is_disabled":false,"rental_uris":{"android":"levelo://app?vid=14be44c2-bbb6-43f4-b8ae-af98cee2370c","ios":"levelo://app?vid=14be44c2-bbb6-43f4-b8ae-af98cee2370c"},"vehicle_type_id":"4","last_reported":1751296276,"current_range_meters":18000,"station_id":"ce4bhah2rcd13ifvqej0","pricing_plan_id":"cebpf4jnsgd1na2vs0mg"},{"bike_id":"88ace19f-5099-4c38-9beb-02c2db57fc8e","system_id":"levelo_inurba_marseille","lat":43.28258,"lon":5.35078,"is_reserved":false,"is_disabled":false,"rental_uris":{"android":"levelo://app?vid=88ace19f-5099-4c38-9beb-02c2db57fc8e","ios":"levelo://app?vid=88ace19f-5099-4c38-9beb-02c2db57fc8e"},"vehicle_type_id":"4","last_reported":1751296276,"current_range_meters":18000,"station_id":"ce4bhbp2rcd13ifvqerg","pricing_plan_id":"cebpf4jnsgd1na2vs0mg"},{"bike_id":"cbd65d27-088b-445e-aa09-31ae3ca5d1a7","system_id":"levelo_inurba_marseille","lat":43.28613,"lon":5.35108,"is_reserved":false,"is_disabled":false,"rental_uris":{"android":"levelo://app?vid=cbd65d27-088b-445e-aa09-31ae3ca5d1a7","ios":"levelo://app?vid=cbd65d27-088b-445e-aa09-31ae3ca5d1a7"},"vehicle_type_id":"4","last_reported":1751296276,"current_range_meters":18000,"station_id":"ce4bhch2rcd13ifvqeug","pricing_plan_id":"cebpf4jnsgd1na2vs0mg"},{"bike_id":"b7eef42e-8ee0-4bdd-be10-da5049101db5","system_id":"levelo_inurba_marseille","lat":43.26807,"lon":5.39406,"is_reserved":false,"is_disabled":false,"rental_uris":{"android":"levelo://app?vid=b7eef42e-8ee0-4bdd-be10-da5049101db5","ios":"levelo://app?vid=b7eef42e-8ee0-4bdd-be10-da5049101db5"},"vehicle_type_id":"4","last_reported":1751296276,"current_range_meters":18000,"station_id":"ce4bhh12rcd13ifvqfg0","pricing_plan_id":"cebpf4jnsgd1na2vs0mg"},{"bike_id":"8fb78d9e-06a2-4009-8b6c-48f3076c4c4d","system_id":"levelo_inurba_marseille","lat":43.241803,"lon":5.397113,"is_reserved":false,"is_disabled":false,"rental_uris":{"android":"levelo://app?vid=8fb78d9e-06a2-4009-8b6c-48f3076c4c4d","ios":"levelo://app?vid=8fb78d9e-06a2-4009-8b6c-48f3076c4c4d"},"vehicle_type_id":"4","last_reported":1751296276,"current_range_meters":18000,"station_id":"ce4bhn12rcd13ifvqgpg","pricing_plan_id":"cebpf4jnsgd1na2vs0mg"},{"bike_id":"e56fc24a-ab61-412b-a208-b20cf4c3f3e0","system_id":"levelo_inurba_marseille","lat":43.303773,"lon":5.424876,"is_reserved":false,"is_disabled":false,"rental_uris":{"android":"levelo://app?vid=e56fc24a-ab61-412b-a208-b20cf4c3f3e0","ios":"levelo://app?vid=e56fc24a-ab61-412b-a208-b20cf4c3f3e0"},"vehicle_type_id":"4","last_reported":1751296276,"current_range_meters":18000,"station_id":"ce4bhoh2rcd13ifvqh6g","pricing_plan_id":"cebpf4jnsgd1na2vs0mg"},{"bike_id":"ec59dc73-efec-49fb-a623-8c210bcd8f9c","system_id":"levelo_inurba_marseille","lat":43.21772,"lon":5.34595,"is_reserved":false,"is_disabled":false,"rental_uris":{"android":"levelo://app?vid=ec59dc73-efec-49fb-a623-8c210bcd8f9c","ios":"levelo://app?vid=ec59dc73-efec-49fb-a623-8c210bcd8f9c"},"vehicle_type_id":"4","last_reported":1751296276,"current_range_meters":18000,"station_id":"st_cvj6r9ubvosntc0bgbag","pricing_plan_id":"cebpf4jnsgd1na2vs0mg"},{"bike_id":"d57c7dc5-2344-4834-9a88-d804e9c85375","system_id":"levelo_inurba_marseille","lat":43.211892,"lon":5.350738,"is_reserved":false,"is_disabled":false,"rental_uris":{"android":"levelo://app?vid=d57c7dc5-2344-4834-9a88-d804e9c85375","ios":"levelo://app?vid=d57c7dc5-2344-4834-9a88-d804e9c85375"},"vehicle_type_id":"4","last_reported":1751296276,"current_range_meters":18000,"station_id":"st_cvj6sg6p6f1abm77japg","pricing_plan_id":"cebpf4jnsgd1na2vs0mg"},{"bike_id":"cc00e40a-c5cc-4f6a-acb6-8fdcb4bdc87a","system_id":"levelo_inurba_marseille","lat":43.21188,"lon":5.35075,"is_reserved":false,"is_disabled":false,"rental_uris":{"android":"levelo://app?vid=cc00e40a-c5cc-4f6a-acb6-8fdcb4bdc87a","ios":"levelo://app?vid=cc00e40a-c5cc-4f6a-acb6-8fdcb4bdc87a"},"vehicle_type_id":"4","last_reported":1751296276,"current_range_meters":18000,"station_id":"st_cvj6sg6p6f1abm77japg","pricing_plan_id":"cebpf4jnsgd1na2vs0mg"},{"bike_id":"f603f3aa-5bf7-4a19-a8a1-b47909f854c7","system_id":"levelo_inurba_marseille","lat":43.211901,"lon":5.350778,"is_reserved":false,"is_disabled":false,"rental_uris":{"android":"levelo://app?vid=f603f3aa-5bf7-4a19-a8a1-b47909f854c7","ios":"levelo://app?vid=f603f3aa-5bf7-4a19-a8a1-b47909f854c7"},"vehicle_type_id":"4","last_reported":1751296276,"current_range_meters":18000,"station_id":"st_cvj6sg6p6f1abm77japg","pricing_plan_id":"cebpf4jnsgd1na2vs0mg"},{"bike_id":"c0228700-5312-4a39-89af-ec53a5d729c5","system_id":"levelo_inurba_marseille","lat":43.283099,"lon":5.43242,"is_reserved":false,"is_disabled":false,"rental_uris":{"android":"levelo://app?vid=c0228700-5312-4a39-89af-ec53a5d729c5","ios":"levelo://app?vid=c0228700-5312-4a39-89af-ec53a5d729c5"},"vehicle_type_id":"4","last_reported":1751296276,"current_range_meters":18800,"station_id":"","pricing_plan_id":"cebpf4jnsgd1na2vs0mg"},{"bike_id":"0a24663d-7c62-458e-8d52-c21c6564ba2b","system_id":"levelo_inurba_marseille","lat":43.29205,"lon":5.3605,"is_reserved":false,"is_disabled":false,"rental_uris":{"android":"levelo://app?vid=0a24663d-7c62-458e-8d52-c21c6564ba2b","ios":"levelo://app?vid=0a24663d-7c62-458e-8d52-c21c6564ba2b"},"vehicle_type_id":"4","last_reported":1751296276,"current_range_meters":18800,"station_id":"ce4bhbh2rcd13ifvqeqg","pricing_plan_id":"cebpf4jnsgd1na2vs0mg"},{"bike_id":"060f6e5e-125d-4263-87f0-43900b5f1946","system_id":"levelo_inurba_marseille","lat":43.27569,"lon":5.38419,"is_reserved":false,"is_disabled":false,"rental_uris":{"android":"levelo://app?vid=060f6e5e-125d-4263-87f0-43900b5f1946","ios":"levelo://app?vid=060f6e5e-125d-4263-87f0-43900b5f1946"},"vehicle_type_id":"4","last_reported":1751296276,"current_range_meters":18800,"station_id":"ce4bhh92rcd13ifvqfi0","pricing_plan_id":"cebpf4jnsgd1na2vs0mg"},{"bike_id":"a0cef316-ad95-4855-8f78-a31341a2b90e","system_id":"levelo_inurba_marseille","lat":43.3302,"lon":5.39038,"is_reserved":false,"is_disabled":false,"rental_uris":{"android":"levelo://app?vid=a0cef316-ad95-4855-8f78-a31341a2b90e","ios":"levelo://app?vid=a0cef316-ad95-4855-8f78-a31341a2b90e"},"vehicle_type_id":"4","last_reported":1751296276,"current_range_meters":18800,"station_id":"ce4bhr92rcd13ifvqhrg","pricing_plan_id":"cebpf4jnsgd1na2vs0mg"},{"bike_id":"518354b5-8405-430c-bbfc-0e30bc76b92d","system_id":"levelo_inurba_marseille","lat":43.21755,"lon":5.34608,"is_reserved":false,"is_disabled":false,"rental_uris":{"android":"levelo://app?vid=518354b5-8405-430c-bbfc-0e30bc76b92d","ios":"levelo://app?vid=518354b5-8405-430c-bbfc-0e30bc76b92d"},"vehicle_type_id":"4","last_reported":1751296276,"current_range_meters":19200,"station_id":"","pricing_plan_id":"cebpf4jnsgd1na2vs0mg"},{"bike_id":"49875ce1-f4a0-45c0-b030-6af975ade5db","system_id":"levelo_inurba_marseille","lat":43.27615,"lon":5.36105,"is_reserved":false,"is_disabled":false,"rental_uris":{"android":"levelo://app?vid=49875ce1-f4a0-45c0-b030-6af975ade5db","ios":"levelo://app?vid=49875ce1-f4a0-45c0-b030-6af975ade5db"},"vehicle_type_id":"4","last_reported":1751296276,"current_range_meters":19200,"station_id":"ce4bgj92rcd13ifvqbe0","pricing_plan_id":"cebpf4jnsgd1na2vs0mg"},{"bike_id":"566cdaf1-8ce7-454a-aec9-c370e2c0ae71","system_id":"levelo_inurba_marseille","lat":43.290356,"lon":5.381418,"is_reserved":false,"is_disabled":false,"rental_uris":{"android":"levelo://app?vid=566cdaf1-8ce7-454a-aec9-c370e2c0ae71","ios":"levelo://app?vid=566cdaf1-8ce7-454a-aec9-c370e2c0ae71"},"vehicle_type_id":"4","last_reported":1751296276,"current_range_meters":19200,"station_id":"ce4bh4p2rcd13ifvqe1g","pricing_plan_id":"cebpf4jnsgd1na2vs0mg"},{"bike_id":"e1dcfec8-a4ff-4c86-a30b-81cdf5f41d3d","system_id":"levelo_inurba_marseille","lat":43.27326,"lon":5.39085,"is_reserved":false,"is_disabled":false,"rental_uris":{"android":"levelo://app?vid=e1dcfec8-a4ff-4c86-a30b-81cdf5f41d3d","ios":"levelo://app?vid=e1dcfec8-a4ff-4c86-a30b-81cdf5f41d3d"},"vehicle_type_id":"4","last_reported":1751296276,"current_range_meters":19200,"station_id":"ce4bhgp2rcd13ifvqfe0","pricing_plan_id":"cebpf4jnsgd1na2vs0mg"},{"bike_id":"4f0388d4-351e-471e-92a7-8045d56ffd48","system_id":"levelo_inurba_marseille","lat":43.23959,"lon":5.36645,"is_reserved":false,"is_disabled":false,"rental_uris":{"android":"levelo://app?vid=4f0388d4-351e-471e-92a7-8045d56ffd48","ios":"levelo://app?vid=4f0388d4-351e-471e-92a7-8045d56ffd48"},"vehicle_type_id":"4","last_reported":1751296276,"current_range_meters":19200,"station_id":"ce4bhi12rcd13ifvqfp0","pricing_plan_id":"cebpf4jnsgd1na2vs0mg"},{"bike_id":"8b32dbde-a1ac-4053-ae72-c15c7175bb91","system_id":"levelo_inurba_marseille","lat":43.27188,"lon":5.40984,"is_reserved":false,"is_disabled":false,"rental_uris":{"android":"levelo://app?vid=8b32dbde-a1ac-4053-ae72-c15c7175bb91","ios":"levelo://app?vid=8b32dbde-a1ac-4053-ae72-c15c7175bb91"},"vehicle_type_id":"4","last_reported":1751296276,"current_range_meters":19200,"station_id":"ce4bhl12rcd13ifvqgf0","pricing_plan_id":"cebpf4jnsgd1na2vs0mg"},{"bike_id":"62356331-a304-4ae1-ae69-10136cbd3f1d","system_id":"levelo_inurba_marseille","lat":43.32127,"lon":5.36769,"is_reserved":false,"is_disabled":false,"rental_uris":{"android":"levelo://app?vid=62356331-a304-4ae1-ae69-10136cbd3f1d","ios":"levelo://app?vid=62356331-a304-4ae1-ae69-10136cbd3f1d"},"vehicle_type_id":"4","last_reported":1751296276,"current_range_meters":19200,"station_id":"ce4bhrh2rcd13ifvqhug","pricing_plan_id":"cebpf4jnsgd1na2vs0mg"},{"bike_id":"5767b9e4-81ec-40bf-bccc-db289ba35b4e","system_id":"levelo_inurba_marseille","lat":43.27377,"lon":5.4123,"is_reserved":false,"is_disabled":false,"rental_uris":{"android":"levelo://app?vid=5767b9e4-81ec-40bf-bccc-db289ba35b4e","ios":"levelo://app?vid=5767b9e4-81ec-40bf-bccc-db289ba35b4e"},"vehicle_type_id":"4","last_reported":1751296276,"current_range_meters":19600,"station_id":"","pricing_plan_id":"cebpf4jnsgd1na2vs0mg"},{"bike_id":"e3646092-4246-4f7a-a7eb-6a9e11546b8d","system_id":"levelo_inurba_marseille","lat":43.28722,"lon":5.37932,"is_reserved":false,"is_disabled":false,"rental_uris":{"android":"levelo://app?vid=e3646092-4246-4f7a-a7eb-6a9e11546b8d","ios":"levelo://app?vid=e3646092-4246-4f7a-a7eb-6a9e11546b8d"},"vehicle_type_id":"4","last_reported":1751296276,"current_range_meters":19600,"station_id":"ce4bh9p2rcd13ifvqec0","pricing_plan_id":"cebpf4jnsgd1na2vs0mg"},{"bike_id":"b7f9fbca-fef8-4355-bd42-70cd92158416","system_id":"levelo_inurba_marseille","lat":43.28266,"lon":5.35082,"is_reserved":false,"is_disabled":false,"rental_uris":{"android":"levelo://app?vid=b7f9fbca-fef8-4355-bd42-70cd92158416","ios":"levelo://app?vid=b7f9fbca-fef8-4355-bd42-70cd92158416"},"vehicle_type_id":"4","last_reported":1751296276,"current_range_meters":19600,"station_id":"ce4bhbp2rcd13ifvqerg","pricing_plan_id":"cebpf4jnsgd1na2vs0mg"},{"bike_id":"8eb3ca37-eeff-49e8-bb56-f1711498ac9c","system_id":"levelo_inurba_marseille","lat":43.28245,"lon":5.35089,"is_reserved":false,"is_disabled":false,"rental_uris":{"android":"levelo://app?vid=8eb3ca37-eeff-49e8-bb56-f1711498ac9c","ios":"levelo://app?vid=8eb3ca37-eeff-49e8-bb56-f1711498ac9c"},"vehicle_type_id":"4","last_reported":1751296276,"current_range_meters":19600,"station_id":"ce4bhbp2rcd13ifvqerg","pricing_plan_id":"cebpf4jnsgd1na2vs0mg"},{"bike_id":"86fa6ce7-8cbe-47ff-b5d3-c2b4938fd05c","system_id":"levelo_inurba_marseille","lat":43.21187,"lon":5.35071,"is_reserved":false,"is_disabled":false,"rental_uris":{"android":"levelo://app?vid=86fa6ce7-8cbe-47ff-b5d3-c2b4938fd05c","ios":"levelo://app?vid=86fa6ce7-8cbe-47ff-b5d3-c2b4938fd05c"},"vehicle_type_id":"4","last_reported":1751296276,"current_range_meters":19600,"station_id":"st_cvj6sg6p6f1abm77japg","pricing_plan_id":"cebpf4jnsgd1na2vs0mg"},{"bike_id":"5495b367-7aa0-401a-aca5-8f827ce3a8b6","system_id":"levelo_inurba_marseille","lat":43.29932,"lon":5.36551,"is_reserved":false,"is_disabled":false,"rental_uris":{"android":"levelo://app?vid=5495b367-7aa0-401a-aca5-8f827ce3a8b6","ios":"levelo://app?vid=5495b367-7aa0-401a-aca5-8f827ce3a8b6"},"vehicle_type_id":"4","last_reported":1751296276,"current_range_meters":20000,"station_id":"ce4bgm92rcd13ifvqbr0","pricing_plan_id":"cebpf4jnsgd1na2vs0mg"},{"bike_id":"7636f69a-33de-4cca-8879-627d0c461317","system_id":"levelo_inurba_marseille","lat":43.28654,"lon":5.36354,"is_reserved":false,"is_disabled":false,"rental_uris":{"android":"levelo://app?vid=7636f69a-33de-4cca-8879-627d0c461317","ios":"levelo://app?vid=7636f69a-33de-4cca-8879-627d0c461317"},"vehicle_type_id":"4","last_reported":1751296276,"current_range_meters":20000,"station_id":"ce4bhah2rcd13ifvqej0","pricing_plan_id":"cebpf4jnsgd1na2vs0mg"},{"bike_id":"202eb4d7-4204-44d8-960c-052d9e41d531","system_id":"levelo_inurba_marseille","lat":43.28246,"lon":5.351,"is_reserved":false,"is_disabled":false,"rental_uris":{"android":"levelo://app?vid=202eb4d7-4204-44d8-960c-052d9e41d531","ios":"levelo://app?vid=202eb4d7-4204-44d8-960c-052d9e41d531"},"vehicle_type_id":"4","last_reported":1751296276,"current_range_meters":20000,"station_id":"ce4bhbp2rcd13ifvqerg","pricing_plan_id":"cebpf4jnsgd1na2vs0mg"},{"bike_id":"239e84d7-ba67-479e-87f8-8f446afe1101","system_id":"levelo_inurba_marseille","lat":43.2396,"lon":5.36636,"is_reserved":false,"is_disabled":false,"rental_uris":{"android":"levelo://app?vid=239e84d7-ba67-479e-87f8-8f446afe1101","ios":"levelo://app?vid=239e84d7-ba67-479e-87f8-8f446afe1101"},"vehicle_type_id":"4","last_reported":1751296276,"current_range_meters":20000,"station_id":"ce4bhi12rcd13ifvqfp0","pricing_plan_id":"cebpf4jnsgd1na2vs0mg"},{"bike_id":"41559934-a033-4b0d-b765-3f5f13ec35e2","system_id":"levelo_inurba_marseille","lat":43.26192,"lon":5.37926,"is_reserved":false,"is_disabled":false,"rental_uris":{"android":"levelo://app?vid=41559934-a033-4b0d-b765-3f5f13ec35e2","ios":"levelo://app?vid=41559934-a033-4b0d-b765-3f5f13ec35e2"},"vehicle_type_id":"4","last_reported":1751296276,"current_range_meters":20000,"station_id":"ce4bhjp2rcd13ifvqg90","pricing_plan_id":"cebpf4jnsgd1na2vs0mg"},{"bike_id":"d2f72e45-6b0c-4b36-9924-deef3cd98510","system_id":"levelo_inurba_marseille","lat":43.27469,"lon":5.42473,"is_reserved":false,"is_disabled":false,"rental_uris":{"android":"levelo://app?vid=d2f72e45-6b0c-4b36-9924-deef3cd98510","ios":"levelo://app?vid=d2f72e45-6b0c-4b36-9924-deef3cd98510"},"vehicle_type_id":"4","last_reported":1751296276,"current_range_meters":20000,"station_id":"ce4bhn92rcd13ifvqgrg","pricing_plan_id":"cebpf4jnsgd1na2vs0mg"},{"bike_id":"d2019eb4-f450-4e51-abec-b5191e2306d5","system_id":"levelo_inurba_marseille","lat":43.29896,"lon":5.4365,"is_reserved":false,"is_disabled":false,"rental_uris":{"android":"levelo://app?vid=d2019eb4-f450-4e51-abec-b5191e2306d5","ios":"levelo://app?vid=d2019eb4-f450-4e51-abec-b5191e2306d5"},"vehicle_type_id":"4","last_reported":1751296276,"current_range_meters":20000,"station_id":"ce4bhpp2rcd13ifvqhfg","pricing_plan_id":"cebpf4jnsgd1na2vs0mg"},{"bike_id":"569afbd4-da57-4911-aecb-840950c33922","system_id":"levelo_inurba_marseille","lat":43.2119,"lon":5.35071,"is_reserved":false,"is_disabled":false,"rental_uris":{"android":"levelo://app?vid=569afbd4-da57-4911-aecb-840950c33922","ios":"levelo://app?vid=569afbd4-da57-4911-aecb-840950c33922"},"vehicle_type_id":"4","last_reported":1751296276,"current_range_meters":20000,"station_id":"st_cvj6sg6p6f1abm77japg","pricing_plan_id":"cebpf4jnsgd1na2vs0mg"},{"bike_id":"7d3f6a21-cfaa-4f23-ae8e-609202f459fd","system_id":"levelo_inurba_marseille","lat":43.30352,"lon":5.4188,"is_reserved":false,"is_disabled":false,"rental_uris":{"android":"levelo://app?vid=7d3f6a21-cfaa-4f23-ae8e-609202f459fd","ios":"levelo://app?vid=7d3f6a21-cfaa-4f23-ae8e-609202f459fd"},"vehicle_type_id":"4","last_reported":1751296276,"current_range_meters":20400,"station_id":"ce4bhop2rcd13ifvqh7g","pricing_plan_id":"cebpf4jnsgd1na2vs0mg"},{"bike_id":"e0c4211a-662e-4f11-90b6-981ca029649d","system_id":"levelo_inurba_marseille","lat":43.22492,"lon":5.34788,"is_reserved":false,"is_disabled":false,"rental_uris":{"android":"levelo://app?vid=e0c4211a-662e-4f11-90b6-981ca029649d","ios":"levelo://app?vid=e0c4211a-662e-4f11-90b6-981ca029649d"},"vehicle_type_id":"4","last_reported":1751296276,"current_range_meters":20400,"station_id":"st_cvj5dfep6f1abm77gieg","pricing_plan_id":"cebpf4jnsgd1na2vs0mg"},{"bike_id":"d11fe4c9-c130-42ee-bb73-8c70d6efcfc0","system_id":"levelo_inurba_marseille","lat":43.28985,"lon":5.36658,"is_reserved":false,"is_disabled":false,"rental_uris":{"android":"levelo://app?vid=d11fe4c9-c130-42ee-bb73-8c70d6efcfc0","ios":"levelo://app?vid=d11fe4c9-c130-42ee-bb73-8c70d6efcfc0"},"vehicle_type_id":"4","last_reported":1751296276,"current_range_meters":20800,"station_id":"","pricing_plan_id":"cebpf4jnsgd1na2vs0mg"},{"bike_id":"ae785850-002d-4981-b366-bebbe8655db4","system_id":"levelo_inurba_marseille","lat":43.29619,"lon":5.37171,"is_reserved":false,"is_disabled":false,"rental_uris":{"android":"levelo://app?vid=ae785850-002d-4981-b366-bebbe8655db4","ios":"levelo://app?vid=ae785850-002d-4981-b366-bebbe8655db4"},"vehicle_type_id":"4","last_reported":1751296276,"current_range_meters":20800,"station_id":"ce4bgnh2rcd13ifvqc0g","pricing_plan_id":"cebpf4jnsgd1na2vs0mg"},{"bike_id":"3ed87501-3726-4fe4-b27b-ba121906b2e5","system_id":"levelo_inurba_marseille","lat":43.28485,"lon":5.38415,"is_reserved":false,"is_disabled":false,"rental_uris":{"android":"levelo://app?vid=3ed87501-3726-4fe4-b27b-ba121906b2e5","ios":"levelo://app?vid=3ed87501-3726-4fe4-b27b-ba121906b2e5"},"vehicle_type_id":"4","last_reported":1751296276,"current_range_meters":20800,"station_id":"ce4bh512rcd13ifvqe3g","pricing_plan_id":"cebpf4jnsgd1na2vs0mg"},{"bike_id":"0fccd848-719e-476d-8ad1-21378dd8bf90","system_id":"levelo_inurba_marseille","lat":43.28452,"lon":5.35894,"is_reserved":false,"is_disabled":false,"rental_uris":{"android":"levelo://app?vid=0fccd848-719e-476d-8ad1-21378dd8bf90","ios":"levelo://app?vid=0fccd848-719e-476d-8ad1-21378dd8bf90"},"vehicle_type_id":"4","last_reported":1751296276,"current_range_meters":20800,"station_id":"ce4bhah2rcd13ifvqei0","pricing_plan_id":"cebpf4jnsgd1na2vs0mg"},{"bike_id":"01bd36de-fcad-491e-a758-ffd27de4fcfc","system_id":"levelo_inurba_marseille","lat":43.28308,"lon":5.35088,"is_reserved":false,"is_disabled":false,"rental_uris":{"android":"levelo://app?vid=01bd36de-fcad-491e-a758-ffd27de4fcfc","ios":"levelo://app?vid=01bd36de-fcad-491e-a758-ffd27de4fcfc"},"vehicle_type_id":"4","last_reported":1751296276,"current_range_meters":20800,"station_id":"ce4bhbp2rcd13ifvqerg","pricing_plan_id":"cebpf4jnsgd1na2vs0mg"},{"bike_id":"d59a7afd-5f2e-430b-9f3f-4945e6ca6808","system_id":"levelo_inurba_marseille","lat":43.28613,"lon":5.37066,"is_reserved":false,"is_disabled":false,"rental_uris":{"android":"levelo://app?vid=d59a7afd-5f2e-430b-9f3f-4945e6ca6808","ios":"levelo://app?vid=d59a7afd-5f2e-430b-9f3f-4945e6ca6808"},"vehicle_type_id":"4","last_reported":1751296276,"current_range_meters":20800,"station_id":"ce4bht12rcd13ifvqi60","pricing_plan_id":"cebpf4jnsgd1na2vs0mg"},{"bike_id":"e0e94ab0-7289-4b32-81ee-f9c4490fdc4d","system_id":"levelo_inurba_marseille","lat":43.29302,"lon":5.37459,"is_reserved":false,"is_disabled":false,"rental_uris":{"android":"levelo://app?vid=e0e94ab0-7289-4b32-81ee-f9c4490fdc4d","ios":"levelo://app?vid=e0e94ab0-7289-4b32-81ee-f9c4490fdc4d"},"vehicle_type_id":"4","last_reported":1751296276,"current_range_meters":21600,"station_id":"ce4bgi12rcd13ifvqb70","pricing_plan_id":"cebpf4jnsgd1na2vs0mg"},{"bike_id":"c44d511a-570f-4ffc-8f37-8336802b8d2f","system_id":"levelo_inurba_marseille","lat":43.30552,"lon":5.36534,"is_reserved":false,"is_disabled":false,"rental_uris":{"android":"levelo://app?vid=c44d511a-570f-4ffc-8f37-8336802b8d2f","ios":"levelo://app?vid=c44d511a-570f-4ffc-8f37-8336802b8d2f"},"vehicle_type_id":"4","last_reported":1751296276,"current_range_meters":21600,"station_id":"ce4bgs12rcd13ifvqcag","pricing_plan_id":"cebpf4jnsgd1na2vs0mg"},{"bike_id":"8c1ce0f9-83a5-4898-a6e2-2e0fb53a2e7a","system_id":"levelo_inurba_marseille","lat":43.28472,"lon":5.3844,"is_reserved":false,"is_disabled":false,"rental_uris":{"android":"levelo://app?vid=8c1ce0f9-83a5-4898-a6e2-2e0fb53a2e7a","ios":"levelo://app?vid=8c1ce0f9-83a5-4898-a6e2-2e0fb53a2e7a"},"vehicle_type_id":"4","last_reported":1751296276,"current_range_meters":21600,"station_id":"ce4bh512rcd13ifvqe3g","pricing_plan_id":"cebpf4jnsgd1na2vs0mg"},{"bike_id":"09f4eeca-0b73-4a4d-b7ec-9e1647808114","system_id":"levelo_inurba_marseille","lat":43.28613,"lon":5.35103,"is_reserved":false,"is_disabled":false,"rental_uris":{"android":"levelo://app?vid=09f4eeca-0b73-4a4d-b7ec-9e1647808114","ios":"levelo://app?vid=09f4eeca-0b73-4a4d-b7ec-9e1647808114"},"vehicle_type_id":"4","last_reported":1751296276,"current_range_meters":21600,"station_id":"ce4bhch2rcd13ifvqeug","pricing_plan_id":"cebpf4jnsgd1na2vs0mg"},{"bike_id":"3a33ebd2-49a2-4e39-92d7-f09d7dd08672","system_id":"levelo_inurba_marseille","lat":43.211901,"lon":5.350751,"is_reserved":false,"is_disabled":false,"rental_uris":{"android":"levelo://app?vid=3a33ebd2-49a2-4e39-92d7-f09d7dd08672","ios":"levelo://app?vid=3a33ebd2-49a2-4e39-92d7-f09d7dd08672"},"vehicle_type_id":"4","last_reported":1751296276,"current_range_meters":21600,"station_id":"st_cvj6sg6p6f1abm77japg","pricing_plan_id":"cebpf4jnsgd1na2vs0mg"},{"bike_id":"934beea3-881e-4441-a5ff-95e7b68ba97b","system_id":"levelo_inurba_marseille","lat":43.34524,"lon":5.3594,"is_reserved":false,"is_disabled":false,"rental_uris":{"android":"levelo://app?vid=934beea3-881e-4441-a5ff-95e7b68ba97b","ios":"levelo://app?vid=934beea3-881e-4441-a5ff-95e7b68ba97b"},"vehicle_type_id":"4","last_reported":1751296276,"current_range_meters":22000,"station_id":"","pricing_plan_id":"cebpf4jnsgd1na2vs0mg"},{"bike_id":"03de4895-1d2a-4859-b1c9-44b41aa5104b","system_id":"levelo_inurba_marseille","lat":43.28353,"lon":5.38095,"is_reserved":false,"is_disabled":false,"rental_uris":{"android":"levelo://app?vid=03de4895-1d2a-4859-b1c9-44b41aa5104b","ios":"levelo://app?vid=03de4895-1d2a-4859-b1c9-44b41aa5104b"},"vehicle_type_id":"4","last_reported":1751296276,"current_range_meters":22000,"station_id":"ce4bh412rcd13ifvqdr0","pricing_plan_id":"cebpf4jnsgd1na2vs0mg"},{"bike_id":"e4d57fae-a5d0-4d39-bf73-9075947df8c2","system_id":"levelo_inurba_marseille","lat":43.28653,"lon":5.36368,"is_reserved":false,"is_disabled":false,"rental_uris":{"android":"levelo://app?vid=e4d57fae-a5d0-4d39-bf73-9075947df8c2","ios":"levelo://app?vid=e4d57fae-a5d0-4d39-bf73-9075947df8c2"},"vehicle_type_id":"4","last_reported":1751296276,"current_range_meters":22000,"station_id":"ce4bhah2rcd13ifvqej0","pricing_plan_id":"cebpf4jnsgd1na2vs0mg"},{"bike_id":"874e5190-254e-4176-a11d-a66952072c83","system_id":"levelo_inurba_marseille","lat":43.284189,"lon":5.349908,"is_reserved":false,"is_disabled":false,"rental_uris":{"android":"levelo://app?vid=874e5190-254e-4176-a11d-a66952072c83","ios":"levelo://app?vid=874e5190-254e-4176-a11d-a66952072c83"},"vehicle_type_id":"4","last_reported":1751296276,"current_range_meters":22000,"station_id":"ce4bhbh2rcd13ifvqepg","pricing_plan_id":"cebpf4jnsgd1na2vs0mg"},{"bike_id":"e9d89cc5-1d70-4dc1-85b7-965f8646b512","system_id":"levelo_inurba_marseille","lat":43.282642,"lon":5.35063,"is_reserved":false,"is_disabled":false,"rental_uris":{"android":"levelo://app?vid=e9d89cc5-1d70-4dc1-85b7-965f8646b512","ios":"levelo://app?vid=e9d89cc5-1d70-4dc1-85b7-965f8646b512"},"vehicle_type_id":"4","last_reported":1751296276,"current_range_meters":22000,"station_id":"ce4bhbp2rcd13ifvqerg","pricing_plan_id":"cebpf4jnsgd1na2vs0mg"},{"bike_id":"f49f829d-af3a-4bbe-a704-fddb0590950d","system_id":"levelo_inurba_marseille","lat":43.28615,"lon":5.35108,"is_reserved":false,"is_disabled":false,"rental_uris":{"android":"levelo://app?vid=f49f829d-af3a-4bbe-a704-fddb0590950d","ios":"levelo://app?vid=f49f829d-af3a-4bbe-a704-fddb0590950d"},"vehicle_type_id":"4","last_reported":1751296276,"current_range_meters":22000,"station_id":"ce4bhch2rcd13ifvqeug","pricing_plan_id":"cebpf4jnsgd1na2vs0mg"},{"bike_id":"c2cc3873-3136-4ba7-984d-6514f2a6bcc2","system_id":"levelo_inurba_marseille","lat":43.26692,"lon":5.3827,"is_reserved":false,"is_disabled":false,"rental_uris":{"android":"levelo://app?vid=c2cc3873-3136-4ba7-984d-6514f2a6bcc2","ios":"levelo://app?vid=c2cc3873-3136-4ba7-984d-6514f2a6bcc2"},"vehicle_type_id":"4","last_reported":1751296276,"current_range_meters":22000,"station_id":"ce4bhg92rcd13ifvqf90","pricing_plan_id":"cebpf4jnsgd1na2vs0mg"},{"bike_id":"42f651c2-0b24-4101-a7a2-95c8f46f0c88","system_id":"levelo_inurba_marseille","lat":43.25109,"lon":5.40353,"is_reserved":false,"is_disabled":false,"rental_uris":{"android":"levelo://app?vid=42f651c2-0b24-4101-a7a2-95c8f46f0c88","ios":"levelo://app?vid=42f651c2-0b24-4101-a7a2-95c8f46f0c88"},"vehicle_type_id":"4","last_reported":1751296276,"current_range_meters":22000,"station_id":"ce4bhlh2rcd13ifvqgig","pricing_plan_id":"cebpf4jnsgd1na2vs0mg"},{"bike_id":"4b5812ff-ef30-463d-9db8-9e50aae68525","system_id":"levelo_inurba_marseille","lat":43.28267,"lon":5.3506,"is_reserved":false,"is_disabled":false,"rental_uris":{"android":"levelo://app?vid=4b5812ff-ef30-463d-9db8-9e50aae68525","ios":"levelo://app?vid=4b5812ff-ef30-463d-9db8-9e50aae68525"},"vehicle_type_id":"4","last_reported":1751296276,"current_range_meters":22400,"station_id":"ce4bhbp2rcd13ifvqerg","pricing_plan_id":"cebpf4jnsgd1na2vs0mg"},{"bike_id":"eb9c0c45-05ae-4e70-97ae-4203c4e09e72","system_id":"levelo_inurba_marseille","lat":43.279987,"lon":5.40009,"is_reserved":false,"is_disabled":false,"rental_uris":{"android":"levelo://app?vid=eb9c0c45-05ae-4e70-97ae-4203c4e09e72","ios":"levelo://app?vid=eb9c0c45-05ae-4e70-97ae-4203c4e09e72"},"vehicle_type_id":"4","last_reported":1751296276,"current_range_meters":22400,"station_id":"ce4bho92rcd13ifvqh4g","pricing_plan_id":"cebpf4jnsgd1na2vs0mg"},{"bike_id":"b10bba54-7937-441d-ba56-0360d78315b0","system_id":"levelo_inurba_marseille","lat":43.33609,"lon":5.41037,"is_reserved":false,"is_disabled":false,"rental_uris":{"android":"levelo://app?vid=b10bba54-7937-441d-ba56-0360d78315b0","ios":"levelo://app?vid=b10bba54-7937-441d-ba56-0360d78315b0"},"vehicle_type_id":"4","last_reported":1751296276,"current_range_meters":22400,"station_id":"ce4bhqh2rcd13ifvqhmg","pricing_plan_id":"cebpf4jnsgd1na2vs0mg"},{"bike_id":"2561d315-fcc8-4635-a79f-e4bd78e42d68","system_id":"levelo_inurba_marseille","lat":43.321128,"lon":5.367696,"is_reserved":false,"is_disabled":false,"rental_uris":{"android":"levelo://app?vid=2561d315-fcc8-4635-a79f-e4bd78e42d68","ios":"levelo://app?vid=2561d315-fcc8-4635-a79f-e4bd78e42d68"},"vehicle_type_id":"4","last_reported":1751296276,"current_range_meters":22400,"station_id":"ce4bhrh2rcd13ifvqhug","pricing_plan_id":"cebpf4jnsgd1na2vs0mg"},{"bike_id":"610ae162-7c5e-4a18-ab18-2fa5296741bb","system_id":"levelo_inurba_marseille","lat":43.26806,"lon":5.40272,"is_reserved":false,"is_disabled":false,"rental_uris":{"android":"levelo://app?vid=610ae162-7c5e-4a18-ab18-2fa5296741bb","ios":"levelo://app?vid=610ae162-7c5e-4a18-ab18-2fa5296741bb"},"vehicle_type_id":"4","last_reported":1751296276,"current_range_meters":22400,"station_id":"ce501612rcd8frsf0b60","pricing_plan_id":"cebpf4jnsgd1na2vs0mg"},{"bike_id":"13e255f3-d662-49ca-a8bb-e9d90d228a94","system_id":"levelo_inurba_marseille","lat":43.21785,"lon":5.34591,"is_reserved":false,"is_disabled":false,"rental_uris":{"android":"levelo://app?vid=13e255f3-d662-49ca-a8bb-e9d90d228a94","ios":"levelo://app?vid=13e255f3-d662-49ca-a8bb-e9d90d228a94"},"vehicle_type_id":"4","last_reported":1751296276,"current_range_meters":22400,"station_id":"st_cvj6r9ubvosntc0bgbag","pricing_plan_id":"cebpf4jnsgd1na2vs0mg"},{"bike_id":"8a74f5cd-9efa-4362-bea7-a32db4dcc85c","system_id":"levelo_inurba_marseille","lat":43.211944,"lon":5.350755,"is_reserved":false,"is_disabled":false,"rental_uris":{"android":"levelo://app?vid=8a74f5cd-9efa-4362-bea7-a32db4dcc85c","ios":"levelo://app?vid=8a74f5cd-9efa-4362-bea7-a32db4dcc85c"},"vehicle_type_id":"4","last_reported":1751296276,"current_range_meters":22400,"station_id":"st_cvj6sg6p6f1abm77japg","pricing_plan_id":"cebpf4jnsgd1na2vs0mg"},{"bike_id":"94cff9fc-c2c1-458b-8eb9-98cb393f196c","system_id":"levelo_inurba_marseille","lat":43.297155,"lon":5.366215,"is_reserved":false,"is_disabled":false,"rental_uris":{"android":"levelo://app?vid=94cff9fc-c2c1-458b-8eb9-98cb393f196c","ios":"levelo://app?vid=94cff9fc-c2c1-458b-8eb9-98cb393f196c"},"vehicle_type_id":"4","last_reported":1751296276,"current_range_meters":22800,"station_id":"ce4bgn12rcd13ifvqbt0","pricing_plan_id":"cebpf4jnsgd1na2vs0mg"},{"bike_id":"52d5418d-0d05-4780-94eb-fb74e6c92c69","system_id":"levelo_inurba_marseille","lat":43.29521,"lon":5.39396,"is_reserved":false,"is_disabled":false,"rental_uris":{"android":"levelo://app?vid=52d5418d-0d05-4780-94eb-fb74e6c92c69","ios":"levelo://app?vid=52d5418d-0d05-4780-94eb-fb74e6c92c69"},"vehicle_type_id":"4","last_reported":1751296276,"current_range_meters":22800,"station_id":"ce4bh292rcd13ifvqdf0","pricing_plan_id":"cebpf4jnsgd1na2vs0mg"},{"bike_id":"3d02fba3-061b-4813-a154-aace0d304b07","system_id":"levelo_inurba_marseille","lat":43.29064,"lon":5.37142,"is_reserved":false,"is_disabled":false,"rental_uris":{"android":"levelo://app?vid=3d02fba3-061b-4813-a154-aace0d304b07","ios":"levelo://app?vid=3d02fba3-061b-4813-a154-aace0d304b07"},"vehicle_type_id":"4","last_reported":1751296276,"current_range_meters":22800,"station_id":"ce4bh5p2rcd13ifvqe4g","pricing_plan_id":"cebpf4jnsgd1na2vs0mg"},{"bike_id":"dd331d29-db37-4574-9ca0-0805addb2c83","system_id":"levelo_inurba_marseille","lat":43.24388,"lon":5.37061,"is_reserved":false,"is_disabled":false,"rental_uris":{"android":"levelo://app?vid=dd331d29-db37-4574-9ca0-0805addb2c83","ios":"levelo://app?vid=dd331d29-db37-4574-9ca0-0805addb2c83"},"vehicle_type_id":"4","last_reported":1751296276,"current_range_meters":22800,"station_id":"ce4bhhh2rcd13ifvqfk0","pricing_plan_id":"cebpf4jnsgd1na2vs0mg"},