{"last_updated":1702152409,"ttl":30,"version":"2.2","data":{"bikes":[{"bike_id":"838dec83-e781-466c-9fc1-7174ea18a602","system_id":"levelo_inurba_marseille","lat":43.309076,"lon":5.368465,"is_reserved":false,"is_disabled":false,"rental_uris":{"android":"levelo://app?vid=838dec83-e781-466c-9fc1-7174ea18a602","ios":"levelo://app?vid=838dec83-e781-466c-9fc1-7174ea18a602"},"vehicle_type_id":"4","last_reported":1702152409,"current_range_meters":21600,"station_id":"ce4bgn92rcd13ifvqbvg","pricing_plan_id":"free"},{"bike_id":"6ef1924a-0c86-47e2-8dcc-1134a4c96ba6","system_id":"levelo_inurba_marseille","lat":43.309076,"lon":5.368465,"is_reserved":false,"is_disabled":false,"rental_uris":{"android":"levelo://app?vid=6ef1924a-0c86-47e2-8dcc-1134a4c96ba6","ios":"levelo://app?vid=6ef1924a-0c86-47e2-8dcc-1134a4c96ba6"},"vehicle_type_id":"4","last_reported":1702152409,"current_range_meters":16000,"station_id":"ce4bgn92rcd13ifvqbvg","pricing_plan_id":"free"},{"bike_id":"9716034b-a46a-41f9-9ebe-da1337dfc33b","system_id":"levelo_inurba_marseille","lat":43.309076,"lon":5.368465,"is_reserved":false,"is_disabled":false,"rental_uris":{"android":"levelo://app?vid=9716034b-a46a-41f9-9ebe-da1337dfc33b","ios":"levelo://app?vid=9716034b-a46a-41f9-9ebe-da1337dfc33b"},"vehicle_type_id":"4","last_reported":1702152409,"current_range_meters":17600,"station_id":"ce4bgn92rcd13ifvqbvg","pricing_plan_id":"free"},{"bike_id":"8a8aaf11-4d51-442e-81a0-940f1ee0ab07","system_id":"levelo_inurba_marseille","lat":43.314811,"lon":5.373103,"is_reserved":false,"is_disabled":false,"rental_uris":{"android":"levelo://app?vid=8a8aaf11-4d51-442e-81a0-940f1ee0ab07","ios":"levelo://app?vid=8a8aaf11-4d51-442e-81a0-940f1ee0ab07"},"vehicle_type_id":"4","last_reported":1702152409,"current_range_meters":13600,"station_id":"ce4bgt12rcd13ifvqcd0","pricing_plan_id":"free"},{"bike_id":"8e9ccf71-0dff-4f64-8197-4751bfb8d94c","system_id":"levelo_inurba_marseille","lat":43.314811,"lon":5.373104,"is_reserved":false,"is_disabled":false,"rental_uris":{"android":"levelo://app?vid=8e9ccf71-0dff-4f64-8197-4751bfb8d94c","ios":"levelo://app?vid=8e9ccf71-0dff-4f64-8197-4751bfb8d94c"},"vehicle_type_id":"4","last_reported":1702152409,"current_range_meters":14800,"station_id":"ce4bgt12rcd13ifvqcd0","pricing_plan_id":"free"},{"bike_id":"5a0222ca-0749-4580-9a2c-bc77d82cde46","system_id":"levelo_inurba_marseille","lat":43.305989,"lon":5.37225,"is_reserved":false,"is_disabled":false,"rental_uris":{"android":"levelo://app?vid=5a0222ca-0749-4580-9a2c-bc77d82cde46","ios":"levelo://app?vid=5a0222ca-0749-4580-9a2c-bc77d82cde46"},"vehicle_type_id":"4","last_reported":1702152409,"current_range_meters":2400,"station_id":"ce4bgqh2rcd13ifvqc4g","pricing_plan_id":"free"},{"bike_id":"8f8ca50b-9290-4ad5-9ab3-955dfdf6edee","system_id":"levelo_inurba_marseille","lat":43.306376,"lon":5.373188,"is_reserved":false,"is_disabled":false,"rental_uris":{"android":"levelo://app?vid=8f8ca50b-9290-4ad5-9ab3-955dfdf6edee","ios":"levelo://app?vid=8f8ca50b-9290-4ad5-9ab3-955dfdf6edee"},"vehicle_type_id":"4","last_reported":1702152409,"current_range_meters":19600,"station_id":"","pricing_plan_id":"free"},{"bike_id":"753fc7fe-8604-4db6-b26e-49f4cc39c1d2","system_id":"levelo_inurba_marseille","lat":43.311125,"lon":5.377624,"is_reserved":false,"is_disabled":false,"rental_uris":{"android":"levelo://app?vid=753fc7fe-8604-4db6-b26e-49f4cc39c1d2","ios":"levelo://app?vid=753fc7fe-8604-4db6-b26e-49f4cc39c1d2"},"vehicle_type_id":"4","last_reported":1702152409,"current_range_meters":8000,"station_id":"ce4bgt92rcd13ifvqcg0","pricing_plan_id":"free"},{"bike_id":"ccbf921b-7752-4d9b-96d1-72bd08f794b8","system_id":"levelo_inurba_marseille","lat":43.307945,"lon":5.376487,"is_reserved":false,"is_disabled":false,"rental_uris":{"android":"levelo://app?vid=ccbf921b-7752-4d9b-96d1-72bd08f794b8","ios":"levelo://app?vid=ccbf921b-7752-4d9b-96d1-72bd08f794b8"},"vehicle_type_id":"4","last_reported":1702152409,"current_range_meters":17600,"station_id":"ce4bgv92rcd13ifvqcq0","pricing_plan_id":"free"},{"bike_id":"cf63ca16-724c-4922-b38a-e44c883d7d49","system_id":"levelo_inurba_marseille","lat":43.31534,"lon":5.38029,"is_reserved":false,"is_disabled":false,"rental_uris":{"android":"levelo://app?vid=cf63ca16-724c-4922-b38a-e44c883d7d49","ios":"levelo://app?vid=cf63ca16-724c-4922-b38a-e44c883d7d49"},"vehicle_type_id":"4","last_reported":1702152409,"current_range_meters":25200,"station_id":"ce4bhsp2rcd13ifvqi50","pricing_plan_id":"free"},{"bike_id":"7191bc5d-0cdc-410d-aa2b-c63903d1a1f3","system_id":"levelo_inurba_marseille","lat":43.301939,"lon":5.366286,"is_reserved":false,"is_disabled":false,"rental_uris":{"android":"levelo://app?vid=7191bc5d-0cdc-410d-aa2b-c63903d1a1f3","ios":"levelo://app?vid=7191bc5d-0cdc-410d-aa2b-c63903d1a1f3"},"vehicle_type_id":"4","last_reported":1702152409,"current_range_meters":15200,"station_id":"ce4bgrh2rcd13ifvqc8g","pricing_plan_id":"free"},{"bike_id":"3d46c0af-4576-4f2f-87b0-0abde914ad06","system_id":"levelo_inurba_marseille","lat":43.308012,"lon":5.381511,"is_reserved":false,"is_disabled":false,"rental_uris":{"android":"levelo://app?vid=3d46c0af-4576-4f2f-87b0-0abde914ad06","ios":"levelo://app?vid=3d46c0af-4576-4f2f-87b0-0abde914ad06"},"vehicle_type_id":"4","last_reported":1702152409,"current_range_meters":2800,"station_id":"ce4bgt12rcd13ifvqce0","pricing_plan_id":"free"},{"bike_id":"7d127d5c-38bc-4ef7-9497-2ddfa461ef69","system_id":"levelo_inurba_marseille","lat":43.304606,"lon":5.379026,"is_reserved":false,"is_disabled":false,"rental_uris":{"android":"levelo://app?vid=7d127d5c-38bc-4ef7-9497-2ddfa461ef69","ios":"levelo://app?vid=7d127d5c-38bc-4ef7-9497-2ddfa461ef69"},"vehicle_type_id":"4","last_reported":1702152409,"current_range_meters":4800,"station_id":"ce4bgup2rcd13ifvqcn0","pricing_plan_id":"free"},{"bike_id":"59b1982d-0c16-4fb6-a0ee-9acc09a937da","system_id":"levelo_inurba_marseille","lat":43.30154,"lon":5.37385,"is_reserved":false,"is_disabled":false,"rental_uris":{"android":"levelo://app?vid=59b1982d-0c16-4fb6-a0ee-9acc09a937da","ios":"levelo://app?vid=59b1982d-0c16-4fb6-a0ee-9acc09a937da"},"vehicle_type_id":"4","last_reported":1702152409,"current_range_meters":0,"station_id":"ce4bgs92rcd13ifvqcc0","pricing_plan_id":"free"},{"bike_id":"d8be298e-f4c0-4479-a66b-e307c680d7cc","system_id":"levelo_inurba_marseille","lat":43.31356,"lon":5.38493,"is_reserved":false,"is_disabled":false,"rental_uris":{"android":"levelo://app?vid=d8be298e-f4c0-4479-a66b-e307c680d7cc","ios":"levelo://app?vid=d8be298e-f4c0-4479-a66b-e307c680d7cc"},"vehicle_type_id":"4","last_reported":1702152409,"current_range_meters":22800,"station_id":"ce4bgt92rcd13ifvqcf0","pricing_plan_id":"free"},{"bike_id":"9b81655d-e9fd-4df6-89b3-dc88c058625e","system_id":"levelo_inurba_marseille","lat":43.29931,"lon":5.36528,"is_reserved":false,"is_disabled":false,"rental_uris":{"android":"levelo://app?vid=9b81655d-e9fd-4df6-89b3-dc88c058625e","ios":"levelo://app?vid=9b81655d-e9fd-4df6-89b3-dc88c058625e"},"vehicle_type_id":"4","last_reported":1702152409,"current_range_meters":2800,"station_id":"ce4bgm92rcd13ifvqbr0","pricing_plan_id":"free"},{"bike_id":"548973cd-31e2-464b-8888-8e528c7d375b","system_id":"levelo_inurba_marseille","lat":43.299222,"lon":5.365554,"is_reserved":false,"is_disabled":false,"rental_uris":{"android":"levelo://app?vid=548973cd-31e2-464b-8888-8e528c7d375b","ios":"levelo://app?vid=548973cd-31e2-464b-8888-8e528c7d375b"},"vehicle_type_id":"4","last_reported":1702152409,"current_range_meters":0,"station_id":"ce4bgm92rcd13ifvqbr0","pricing_plan_id":"free"},{"bike_id":"53ce7648-4052-40a1-8893-66241dff171e","system_id":"levelo_inurba_marseille","lat":43.297774,"lon":5.370875,"is_reserved":false,"is_disabled":false,"rental_uris":{"android":"levelo://app?vid=53ce7648-4052-40a1-8893-66241dff171e","ios":"levelo://app?vid=53ce7648-4052-40a1-8893-66241dff171e"},"vehicle_type_id":"4","last_reported":1702152409,"current_range_meters":6000,"station_id":"ce4bgop2rcd13ifvqc1g","pricing_plan_id":"free"},{"bike_id":"c60cbb7e-9382-450f-b819-5c2450f4f643","system_id":"levelo_inurba_marseille","lat":43.322872,"lon":5.382756,"is_reserved":false,"is_disabled":false,"rental_uris":{"android":"levelo://app?vid=c60cbb7e-9382-450f-b819-5c2450f4f643","ios":"levelo://app?vid=c60cbb7e-9382-450f-b819-5c2450f4f643"},"vehicle_type_id":"4","last_reported":1702152409,"current_range_meters":4000,"station_id":"ce4bhr12rcd13ifvqhqg","pricing_plan_id":"free"},{"bike_id":"0370f0dd-02e1-44c3-b626-7cdd11d7ffac","system_id":"levelo_inurba_marseille","lat":43.322872,"lon":5.382756,"is_reserved":false,"is_disabled":false,"rental_uris":{"android":"levelo://app?vid=0370f0dd-02e1-44c3-b626-7cdd11d7ffac","ios":"levelo://app?vid=0370f0dd-02e1-44c3-b626-7cdd11d7ffac"},"vehicle_type_id":"4","last_reported":1702152409,"current_range_meters":25600,"station_id":"ce4bhr12rcd13ifvqhqg","pricing_plan_id":"free"},{"bike_id":"6ac675f1-e0be-498c-ad2f-b742a949d4b0","system_id":"levelo_inurba_marseille","lat":43.298218,"lon":5.374416,"is_reserved":false,"is_disabled":false,"rental_uris":{"android":"levelo://app?vid=6ac675f1-e0be-498c-ad2f-b742a949d4b0","ios":"levelo://app?vid=6ac675f1-e0be-498c-ad2f-b742a949d4b0"},"vehicle_type_id":"4","last_reported":1702152409,"current_range_meters":1200,"station_id":"","pricing_plan_id":"free"},{"bike_id":"53e048d2-45f0-4abe-9ece-897fe24bf1d7","system_id":"levelo_inurba_marseille","lat":43.2968,"lon":5.37291,"is_reserved":false,"is_disabled":false,"rental_uris":{"android":"levelo://app?vid=53e048d2-45f0-4abe-9ece-897fe24bf1d7","ios":"levelo://app?vid=53e048d2-45f0-4abe-9ece-897fe24bf1d7"},"vehicle_type_id":"4","last_reported":1702152409,"current_range_meters":10800,"station_id":"ce4bgk12rcd13ifvqbj0","pricing_plan_id":"free"},{"bike_id":"92dc65d6-6823-4de3-93d4-056f738f090c","system_id":"levelo_inurba_marseille","lat":43.316538,"lon":5.38954,"is_reserved":false,"is_disabled":false,"rental_uris":{"android":"levelo://app?vid=92dc65d6-6823-4de3-93d4-056f738f090c","ios":"levelo://app?vid=92dc65d6-6823-4de3-93d4-056f738f090c"},"vehicle_type_id":"4","last_reported":1702152409,"current_range_meters":0,"station_id":"","pricing_plan_id":"free"},{"bike_id":"84f5800e-949c-472e-90a6-7359b7e59ffc","system_id":"levelo_inurba_marseille","lat":43.29618,"lon":5.37153,"is_reserved":false,"is_disabled":false,"rental_uris":{"android":"levelo://app?vid=84f5800e-949c-472e-90a6-7359b7e59ffc","ios":"levelo://app?vid=84f5800e-949c-472e-90a6-7359b7e59ffc"},"vehicle_type_id":"4","last_reported":1702152409,"current_range_meters":9200,"station_id":"ce4bgnh2rcd13ifvqc0g","pricing_plan_id":"free"},{"bike_id":"ea2d4f7c-c131-4f14-a7bc-f5c2879d4424","system_id":"levelo_inurba_marseille","lat":43.29624,"lon":5.37216,"is_reserved":false,"is_disabled":false,"rental_uris":{"android":"levelo://app?vid=ea2d4f7c-c131-4f14-a7bc-f5c2879d4424","ios":"levelo://app?vid=ea2d4f7c-c131-4f14-a7bc-f5c2879d4424"},"vehicle_type_id":"4","last_reported":1702152409,"current_range_meters":0,"station_id":"","pricing_plan_id":"free"},{"bike_id":"dda7cbd9-b6ac-493c-87e0-a1137f7f166b","system_id":"levelo_inurba_marseille","lat":43.296921,"lon":5.376579,"is_reserved":false,"is_disabled":false,"rental_uris":{"android":"levelo://app?vid=dda7cbd9-b6ac-493c-87e0-a1137f7f166b","ios":"levelo://app?vid=dda7cbd9-b6ac-493c-87e0-a1137f7f166b"},"vehicle_type_id":"4","last_reported":1702152409,"current_range_meters":20800,"station_id":"ce4bgkh2rcd13ifvqbl0","pricing_plan_id":"free"},{"bike_id":"1391f894-b835-4388-a938-963d2b7904b8","system_id":"levelo_inurba_marseille","lat":43.317557,"lon":5.390173,"is_reserved":false,"is_disabled":false,"rental_uris":{"android":"levelo://app?vid=1391f894-b835-4388-a938-963d2b7904b8","ios":"levelo://app?vid=1391f894-b835-4388-a938-963d2b7904b8"},"vehicle_type_id":"4","last_reported":1702152409,"current_range_meters":14800,"station_id":"ce4bhqp2rcd13ifvqhng","pricing_plan_id":"free"},{"bike_id":"d69f04d9-84df-4f26-bc64-9f532752e790","system_id":"levelo_inurba_marseille","lat":43.31758,"lon":5.39022,"is_reserved":false,"is_disabled":false,"rental_uris":{"android":"levelo://app?vid=d69f04d9-84df-4f26-bc64-9f532752e790","ios":"levelo://app?vid=d69f04d9-84df-4f26-bc64-9f532752e790"},"vehicle_type_id":"4","last_reported":1702152409,"current_range_meters":3200,"station_id":"ce4bhqp2rcd13ifvqhng","pricing_plan_id":"free"},{"bike_id":"f3574965-10f7-4b52-99ad-81a41ecd5015","system_id":"levelo_inurba_marseille","lat":43.304274,"lon":5.388873,"is_reserved":false,"is_disabled":false,"rental_uris":{"android":"levelo://app?vid=f3574965-10f7-4b52-99ad-81a41ecd5015","ios":"levelo://app?vid=f3574965-10f7-4b52-99ad-81a41ecd5015"},"vehicle_type_id":"4","last_reported":1702152409,"current_range_meters":6800,"station_id":"ce4bgk12rcd13ifvqbi0","pricing_plan_id":"free"},{"bike_id":"4275f9c4-c52d-47f9-a719-85f099bed500","system_id":"levelo_inurba_marseille","lat":43.29971,"lon":5.385,"is_reserved":false,"is_disabled":false,"rental_uris":{"android":"levelo://app?vid=4275f9c4-c52d-47f9-a719-85f099bed500","ios":"levelo://app?vid=4275f9c4-c52d-47f9-a719-85f099bed500"},"vehicle_type_id":"4","last_reported":1702152409,"current_range_meters":800,"station_id":"ce4bgj92rcd13ifvqbd0","pricing_plan_id":"free"},{"bike_id":"e2000dcf-4090-4be6-9756-0e131eee5f6c","system_id":"levelo_inurba_marseille","lat":43.29602,"lon":5.381084,"is_reserved":false,"is_disabled":false,"rental_uris":{"android":"levelo://app?vid=e2000dcf-4090-4be6-9756-0e131eee5f6c","ios":"levelo://app?vid=e2000dcf-4090-4be6-9756-0e131eee5f6c"},"vehicle_type_id":"4","last_reported":1702152409,"current_range_meters":0,"station_id":"ce4bgl12rcd13ifvqbo0","pricing_plan_id":"free"},{"bike_id":"ad8ad180-2d98-4911-af95-bb38c4785343","system_id":"levelo_inurba_marseille","lat":43.29601,"lon":5.381084,"is_reserved":false,"is_disabled":false,"rental_uris":{"android":"levelo://app?vid=ad8ad180-2d98-4911-af95-bb38c4785343","ios":"levelo://app?vid=ad8ad180-2d98-4911-af95-bb38c4785343"},"vehicle_type_id":"4","last_reported":1702152409,"current_range_meters":2800,"station_id":"ce4bgl12rcd13ifvqbo0","pricing_plan_id":"free"},{"bike_id":"965aa4ae-09f2-4d88-b213-751fe5ec24ad","system_id":"levelo_inurba_marseille","lat":43.305994,"lon":5.393687,"is_reserved":false,"is_disabled":false,"rental_uris":{"android":"levelo://app?vid=965aa4ae-09f2-4d88-b213-751fe5ec24ad","ios":"levelo://app?vid=965aa4ae-09f2-4d88-b213-751fe5ec24ad"},"vehicle_type_id":"4","last_reported":1702152409,"current_range_meters":1600,"station_id":"ce4bh0p2rcd13ifvqd80","pricing_plan_id":"free"},{"bike_id":"b88e37f9-7ce6-44e1-9576-0f9147a20b54","system_id":"levelo_inurba_marseille","lat":43.2936,"lon":5.37835,"is_reserved":false,"is_disabled":false,"rental_uris":{"android":"levelo://app?vid=b88e37f9-7ce6-44e1-9576-0f9147a20b54","ios":"levelo://app?vid=b88e37f9-7ce6-44e1-9576-0f9147a20b54"},"vehicle_type_id":"4","last_reported":1702152409,"current_range_meters":9200,"station_id":"ce4bgjh2rcd13ifvqbf0","pricing_plan_id":"free"},{"bike_id":"ffe8e861-9583-46be-9da3-462d5c1037ee","system_id":"levelo_inurba_marseille","lat":43.29255,"lon":5.37607,"is_reserved":false,"is_disabled":false,"rental_uris":{"android":"levelo://app?vid=ffe8e861-9583-46be-9da3-462d5c1037ee","ios":"levelo://app?vid=ffe8e861-9583-46be-9da3-462d5c1037ee"},"vehicle_type_id":"4","last_reported":1702152409,"current_range_meters":10000,"station_id":"ce4bgi12rcd13ifvqb80","pricing_plan_id":"free"},{"bike_id":"40cc3b24-905b-413d-96d7-13c5bc4b7464","system_id":"levelo_inurba_marseille","lat":43.29259,"lon":5.37624,"is_reserved":false,"is_disabled":false,"rental_uris":{"android":"levelo://app?vid=40cc3b24-905b-413d-96d7-13c5bc4b7464","ios":"levelo://app?vid=40cc3b24-905b-413d-96d7-13c5bc4b7464"},"vehicle_type_id":"4","last_reported":1702152409,"current_range_meters":12800,"station_id":"ce4bgi12rcd13ifvqb80","pricing_plan_id":"free"},{"bike_id":"761046af-7192-4f63-84e8-f6c7a00563ab","system_id":"levelo_inurba_marseille","lat":43.29252,"lon":5.37612,"is_reserved":false,"is_disabled":false,"rental_uris":{"android":"levelo://app?vid=761046af-7192-4f63-84e8-f6c7a00563ab","ios":"levelo://app?vid=761046af-7192-4f63-84e8-f6c7a00563ab"},"vehicle_type_id":"4","last_reported":1702152409,"current_range_meters":0,"station_id":"ce4bgi12rcd13ifvqb80","pricing_plan_id":"free"},{"bike_id":"5ed66215-e812-4934-8bd8-05fa06e2778c","system_id":"levelo_inurba_marseille","lat":43.332476,"lon":5.37902,"is_reserved":false,"is_disabled":false,"rental_uris":{"android":"levelo://app?vid=5ed66215-e812-4934-8bd8-05fa06e2778c","ios":"levelo://app?vid=5ed66215-e812-4934-8bd8-05fa06e2778c"},"vehicle_type_id":"4","last_reported":1702152409,"current_range_meters":27600,"station_id":"","pricing_plan_id":"free"},{"bike_id":"5c79bc93-8f13-4c40-8a8c-8f35d3902245","system_id":"levelo_inurba_marseille","lat":43.332524,"lon":5.379054,"is_reserved":false,"is_disabled":false,"rental_uris":{"android":"levelo://app?vid=5c79bc93-8f13-4c40-8a8c-8f35d3902245","ios":"levelo://app?vid=5c79bc93-8f13-4c40-8a8c-8f35d3902245"},"vehicle_type_id":"4","last_reported":1702152409,"current_range_meters":12400,"station_id":"","pricing_plan_id":"free"},{"bike_id":"98c13d56-8373-4f88-931e-35ce2bc6c9a8","system_id":"levelo_inurba_marseille","lat":43.31324,"lon":5.39691,"is_reserved":false,"is_disabled":false,"rental_uris":{"android":"levelo://app?vid=98c13d56-8373-4f88-931e-35ce2bc6c9a8","ios":"levelo://app?vid=98c13d56-8373-4f88-931e-35ce2bc6c9a8"},"vehicle_type_id":"4","last_reported":1702152409,"current_range_meters":13600,"station_id":"ce4bgvp2rcd13ifvqcu0","pricing_plan_id":"free"},{"bike_id":"33629a0f-077c-45b7-8bb1-997a7d232724","system_id":"levelo_inurba_marseille","lat":43.29187,"lon":5.35797,"is_reserved":false,"is_disabled":false,"rental_uris":{"android":"levelo://app?vid=33629a0f-077c-45b7-8bb1-997a7d232724","ios":"levelo://app?vid=33629a0f-077c-45b7-8bb1-997a7d232724"},"vehicle_type_id":"4","last_reported":1702152409,"current_range_meters":15600,"station_id":"ce4bhb12rcd13ifvqel0","pricing_plan_id":"free"},{"bike_id":"e5e1556d-54f6-4de3-a906-092c27b81b2d","system_id":"levelo_inurba_marseille","lat":43.309038,"lon":5.396546,"is_reserved":false,"is_disabled":false,"rental_uris":{"android":"levelo://app?vid=e5e1556d-54f6-4de3-a906-092c27b81b2d","ios":"levelo://app?vid=e5e1556d-54f6-4de3-a906-092c27b81b2d"},"vehicle_type_id":"4","last_reported":1702152409,"current_range_meters":6800,"station_id":"ce4bh012rcd13ifvqcv0","pricing_plan_id":"free"},{"bike_id":"9be2326f-02a0-461f-9a25-2b5517ef4249","system_id":"levelo_inurba_marseille","lat":43.290779,"lon":5.371482,"is_reserved":false,"is_disabled":false,"rental_uris":{"android":"levelo://app?vid=9be2326f-02a0-461f-9a25-2b5517ef4249","ios":"levelo://app?vid=9be2326f-02a0-461f-9a25-2b5517ef4249"},"vehicle_type_id":"4","last_reported":1702152409,"current_range_meters":30400,"station_id":"ce4bh5p2rcd13ifvqe4g","pricing_plan_id":"free"},{"bike_id":"9ca3b1ce-8cb1-468b-bbc1-07155ea078c3","system_id":"levelo_inurba_marseille","lat":43.302008,"lon":5.394694,"is_reserved":false,"is_disabled":false,"rental_uris":{"android":"levelo://app?vid=9ca3b1ce-8cb1-468b-bbc1-07155ea078c3","ios":"levelo://app?vid=9ca3b1ce-8cb1-468b-bbc1-07155ea078c3"},"vehicle_type_id":"4","last_reported":1702152409,"current_range_meters":23600,"station_id":"ce4bh0p2rcd13ifvqd70","pricing_plan_id":"free"},{"bike_id":"fe5d26a1-911f-40d6-8e67-4a1b9f3635b0","system_id":"levelo_inurba_marseille","lat":43.294153,"lon":5.386305,"is_reserved":false,"is_disabled":false,"rental_uris":{"android":"levelo://app?vid=fe5d26a1-911f-40d6-8e67-4a1b9f3635b0","ios":"levelo://app?vid=fe5d26a1-911f-40d6-8e67-4a1b9f3635b0"},"vehicle_type_id":"4","last_reported":1702152409,"current_range_meters":1600,"station_id":"ce4bh2h2rcd13ifvqdh0","pricing_plan_id":"free"},{"bike_id":"d3ad9a90-92be-48ca-8956-d0f57167a73d","system_id":"levelo_inurba_marseille","lat":43.290631,"lon":5.359244,"is_reserved":false,"is_disabled":false,"rental_uris":{"android":"levelo://app?vid=d3ad9a90-92be-48ca-8956-d0f57167a73d","ios":"levelo://app?vid=d3ad9a90-92be-48ca-8956-d0f57167a73d"},"vehicle_type_id":"4","last_reported":1702152409,"current_range_meters":5200,"station_id":"ce4bha92rcd13ifvqeg0","pricing_plan_id":"free"},{"bike_id":"46d63265-b6b7-4384-a43d-fc05280fc19f","system_id":"levelo_inurba_marseille","lat":43.294153,"lon":5.386305,"is_reserved":false,"is_disabled":false,"rental_uris":{"android":"levelo://app?vid=46d63265-b6b7-4384-a43d-fc05280fc19f","ios":"levelo://app?vid=46d63265-b6b7-4384-a43d-fc05280fc19f"},"vehicle_type_id":"4","last_reported":1702152409,"current_range_meters":8400,"station_id":"ce4bh2h2rcd13ifvqdh0","pricing_plan_id":"free"},{"bike_id":"fc1a72c7-15c5-414d-bb7b-dcd7f6262921","system_id":"levelo_inurba_marseille","lat":43.294153,"lon":5.386305,"is_reserved":false,"is_disabled":false,"rental_uris":{"android":"levelo://app?vid=fc1a72c7-15c5-414d-bb7b-dcd7f6262921","ios":"levelo://app?vid=fc1a72c7-15c5-414d-bb7b-dcd7f6262921"},"vehicle_type_id":"4","last_reported":1702152409,"current_range_meters":3200,"station_id":"ce4bh2h2rcd13ifvqdh0","pricing_plan_id":"free"},{"bike_id":"c0b66742-1783-4a05-957b-8b90298f037e","system_id":"levelo_inurba_marseille","lat":43.290327,"lon":5.375711,"is_reserved":false,"is_disabled":false,"rental_uris":{"android":"levelo://app?vid=c0b66742-1783-4a05-957b-8b90298f037e","ios":"levelo://app?vid=c0b66742-1783-4a05-957b-8b90298f037e"},"vehicle_type_id":"4","last_reported":1702152409,"current_range_meters":0,"station_id":"ce4bh692rcd13ifvqe90","pricing_plan_id":"free"},{"bike_id":"ea39043c-001b-44d9-9aaa-7d2cf0e3185d","system_id":"levelo_inurba_marseille","lat":43.2894,"lon":5.36635,"is_reserved":false,"is_disabled":false,"rental_uris":{"android":"levelo://app?vid=ea39043c-001b-44d9-9aaa-7d2cf0e3185d","ios":"levelo://app?vid=ea39043c-001b-44d9-9aaa-7d2cf0e3185d"},"vehicle_type_id":"4","last_reported":1702152409,"current_range_meters":0,"station_id":"ce4bhap2rcd13ifvqek0","pricing_plan_id":"free"},{"bike_id":"a02a1b20-1fb1-4951-988a-77389649024d","system_id":"levelo_inurba_marseille","lat":43.289259,"lon":5.366364,"is_reserved":false,"is_disabled":false,"rental_uris":{"android":"levelo://app?vid=a02a1b20-1fb1-4951-988a-77389649024d","ios":"levelo://app?vid=a02a1b20-1fb1-4951-988a-77389649024d"},"vehicle_type_id":"4","last_reported":1702152409,"current_range_meters":10800,"station_id":"","pricing_plan_id":"free"},{"bike_id":"471c5697-9f09-4705-9988-2b4989275bc7","system_id":"levelo_inurba_marseille","lat":43.292644,"lon":5.384257,"is_reserved":false,"is_disabled":false,"rental_uris":{"android":"levelo://app?vid=471c5697-9f09-4705-9988-2b4989275bc7","ios":"levelo://app?vid=471c5697-9f09-4705-9988-2b4989275bc7"},"vehicle_type_id":"4","last_reported":1702152409,"current_range_meters":23200,"station_id":"ce4bh692rcd13ifvqea0","pricing_plan_id":"free"},{"bike_id":"7c31117f-0050-492c-ab1e-3901275a96f0","system_id":"levelo_inurba_marseille","lat":43.292644,"lon":5.384257,"is_reserved":false,"is_disabled":false,"rental_uris":{"android":"levelo://app?vid=7c31117f-0050-492c-ab1e-3901275a96f0","ios":"levelo://app?vid=7c31117f-0050-492c-ab1e-3901275a96f0"},"vehicle_type_id":"4","last_reported":1702152409,"current_range_meters":19200,"station_id":"ce4bh692rcd13ifvqea0","pricing_plan_id":"free"},{"bike_id":"8ecfa69d-cfd0-4ae4-9a6c-6f434eed72f2","system_id":"levelo_inurba_marseille","lat":43.292642,"lon":5.384254,"is_reserved":false,"is_disabled":false,"rental_uris":{"android":"levelo://app?vid=8ecfa69d-cfd0-4ae4-9a6c-6f434eed72f2","ios":"levelo://app?vid=8ecfa69d-cfd0-4ae4-9a6c-6f434eed72f2"},"vehicle_type_id":"4","last_reported":1702152409,"current_range_meters":10000,"station_id":"ce4bh692rcd13ifvqea0","pricing_plan_id":"free"},{"bike_id":"4545afc4-979c-48ee-8b80-68655296d4ba","system_id":"levelo_inurba_marseille","lat":43.28991,"lon":5.35602,"is_reserved":false,"is_disabled":false,"rental_uris":{"android":"levelo://app?vid=4545afc4-979c-48ee-8b80-68655296d4ba","ios":"levelo://app?vid=4545afc4-979c-48ee-8b80-68655296d4ba"},"vehicle_type_id":"4","last_reported":1702152409,"current_range_meters":24800,"station_id":"ce4bhb92rcd13ifvqen0","pricing_plan_id":"free"},{"bike_id":"93798e4c-f42d-4295-ad4c-1190e61a6d05","system_id":"levelo_inurba_marseille","lat":43.289741,"lon":5.378306,"is_reserved":false,"is_disabled":false,"rental_uris":{"android":"levelo://app?vid=93798e4c-f42d-4295-ad4c-1190e61a6d05","ios":"levelo://app?vid=93798e4c-f42d-4295-ad4c-1190e61a6d05"},"vehicle_type_id":"4","last_reported":1702152409,"current_range_meters":14800,"station_id":"ce4bh9p2rcd13ifvqed0","pricing_plan_id":"free"},{"bike_id":"7b5f023e-77dd-475b-97a7-f9b28e278ded","system_id":"levelo_inurba_marseille","lat":43.28856,"lon":5.358371,"is_reserved":false,"is_disabled":false,"rental_uris":{"android":"levelo://app?vid=7b5f023e-77dd-475b-97a7-f9b28e278ded","ios":"levelo://app?vid=7b5f023e-77dd-475b-97a7-f9b28e278ded"},"vehicle_type_id":"4","last_reported":1702152409,"current_range_meters":0,"station_id":"ce4bhb12rcd13ifvqem0","pricing_plan_id":"free"},{"bike_id":"c147ebb3-141d-4c1a-9cd7-cd494fa1ade2","system_id":"levelo_inurba_marseille","lat":43.312609,"lon":5.401662,"is_reserved":false,"is_disabled":false,"rental_uris":{"android":"levelo://app?vid=c147ebb3-141d-4c1a-9cd7-cd494fa1ade2","ios":"levelo://app?vid=c147ebb3-141d-4c1a-9cd7-cd494fa1ade2"},"vehicle_type_id":"4","last_reported":1702152409,"current_range_meters":5600,"station_id":"ce4bh092rcd13ifvqd30","pricing_plan_id":"free"},{"bike_id":"82b248e1-4971-46bb-a291-2f8b548b8785","system_id":"levelo_inurba_marseille","lat":43.30655,"lon":5.400813,"is_reserved":false,"is_disabled":false,"rental_uris":{"android":"levelo://app?vid=82b248e1-4971-46bb-a291-2f8b548b8785","ios":"levelo://app?vid=82b248e1-4971-46bb-a291-2f8b548b8785"},"vehicle_type_id":"4","last_reported":1702152409,"current_range_meters":0,"station_id":"ce4bh112rcd13ifvqda0","pricing_plan_id":"free"},{"bike_id":"6de23ef0-5ee8-4aff-a513-ae8b22ef123a","system_id":"levelo_inurba_marseille","lat":43.301117,"lon":5.398795,"is_reserved":false,"is_disabled":false,"rental_uris":{"android":"levelo://app?vid=6de23ef0-5ee8-4aff-a513-ae8b22ef123a","ios":"levelo://app?vid=6de23ef0-5ee8-4aff-a513-ae8b22ef123a"},"vehicle_type_id":"4","last_reported":1702152409,"current_range_meters":11200,"station_id":"ce4bh0h2rcd13ifvqd40","pricing_plan_id":"free"},{"bike_id":"b44023cb-5313-44d9-91e9-8e91001f911f","system_id":"levelo_inurba_marseille","lat":43.298681,"lon":5.397225,"is_reserved":false,"is_disabled":false,"rental_uris":{"android":"levelo://app?vid=b44023cb-5313-44d9-91e9-8e91001f911f","ios":"levelo://app?vid=b44023cb-5313-44d9-91e9-8e91001f911f"},"vehicle_type_id":"4","last_reported":1702152409,"current_range_meters":800,"station_id":"ce4bh0h2rcd13ifvqd50","pricing_plan_id":"free"},{"bike_id":"bf412ebf-3b20-4693-b3ae-df8e499fd0d4","system_id":"levelo_inurba_marseille","lat":43.298681,"lon":5.397225,"is_reserved":false,"is_disabled":false,"rental_uris":{"android":"levelo://app?vid=bf412ebf-3b20-4693-b3ae-df8e499fd0d4","ios":"levelo://app?vid=bf412ebf-3b20-4693-b3ae-df8e499fd0d4"},"vehicle_type_id":"4","last_reported":1702152409,"current_range_meters":21600,"station_id":"ce4bh0h2rcd13ifvqd50","pricing_plan_id":"free"},{"bike_id":"ed701e4f-fe6e-41cf-ad82-460969329beb","system_id":"levelo_inurba_marseille","lat":43.298681,"lon":5.397225,"is_reserved":false,"is_disabled":false,"rental_uris":{"android":"levelo://app?vid=ed701e4f-fe6e-41cf-ad82-460969329beb","ios":"levelo://app?vid=ed701e4f-fe6e-41cf-ad82-460969329beb"},"vehicle_type_id":"4","last_reported":1702152409,"current_range_meters":30400,"station_id":"ce4bh0h2rcd13ifvqd50","pricing_plan_id":"free"},{"bike_id":"f5a1c063-232c-4525-8d98-f82ca30270d2","system_id":"levelo_inurba_marseille","lat":43.295196,"lon":5.39397,"is_reserved":false,"is_disabled":false,"rental_uris":{"android":"levelo://app?vid=f5a1c063-232c-4525-8d98-f82ca30270d2","ios":"levelo://app?vid=f5a1c063-232c-4525-8d98-f82ca30270d2"},"vehicle_type_id":"4","last_reported":1702152409,"current_range_meters":16400,"station_id":"ce4bh292rcd13ifvqdf0","pricing_plan_id":"free"},{"bike_id":"6cc8acc9-ea00-49db-8491-b66c14b208e6","system_id":"levelo_inurba_marseille","lat":43.286961,"lon":5.373785,"is_reserved":false,"is_disabled":false,"rental_uris":{"android":"levelo://app?vid=6cc8acc9-ea00-49db-8491-b66c14b208e6","ios":"levelo://app?vid=6cc8acc9-ea00-49db-8491-b66c14b208e6"},"vehicle_type_id":"4","last_reported":1702152409,"current_range_meters":5200,"station_id":"ce4bh3p2rcd13ifvqdq0","pricing_plan_id":"free"},{"bike_id":"3e126926-604f-41fc-83a0-ba39c998c04b","system_id":"levelo_inurba_marseille","lat":43.289307,"lon":5.38406,"is_reserved":false,"is_disabled":false,"rental_uris":{"android":"levelo://app?vid=3e126926-604f-41fc-83a0-ba39c998c04b","ios":"levelo://app?vid=3e126926-604f-41fc-83a0-ba39c998c04b"},"vehicle_type_id":"4","last_reported":1702152409,"current_range_meters":26800,"station_id":"ce4bh612rcd13ifvqe6g","pricing_plan_id":"free"},{"bike_id":"7dad8f41-5cd6-4532-ac78-4f34e73f31e6","system_id":"levelo_inurba_marseille","lat":43.28919,"lon":5.38397,"is_reserved":false,"is_disabled":false,"rental_uris":{"android":"levelo://app?vid=7dad8f41-5cd6-4532-ac78-4f34e73f31e6","ios":"levelo://app?vid=7dad8f41-5cd6-4532-ac78-4f34e73f31e6"},"vehicle_type_id":"4","last_reported":1702152409,"current_range_meters":8800,"station_id":"ce4bh612rcd13ifvqe6g","pricing_plan_id":"free"},{"bike_id":"d6c26cae-6555-405b-92c4-9a8dc6608eff","system_id":"levelo_inurba_marseille","lat":43.287185,"lon":5.379373,"is_reserved":false,"is_disabled":false,"rental_uris":{"android":"levelo://app?vid=d6c26cae-6555-405b-92c4-9a8dc6608eff","ios":"levelo://app?vid=d6c26cae-6555-405b-92c4-9a8dc6608eff"},"vehicle_type_id":"4","last_reported":1702152409,"current_range_meters":22800,"station_id":"ce4bh9p2rcd13ifvqec0","pricing_plan_id":"free"},{"bike_id":"e6934f1b-49a3-4020-888a-87666a8d5adc","system_id":"levelo_inurba_marseille","lat":43.316828,"lon":5.404723,"is_reserved":false,"is_disabled":false,"rental_uris":{"android":"levelo://app?vid=e6934f1b-49a3-4020-888a-87666a8d5adc","ios":"levelo://app?vid=e6934f1b-49a3-4020-888a-87666a8d5adc"},"vehicle_type_id":"4","last_reported":1702152409,"current_range_meters":24800,"station_id":"ce4bh012rcd13ifvqd00","pricing_plan_id":"free"},{"bike_id":"13a8d491-0d2d-4b79-aba0-944d2a4f313d","system_id":"levelo_inurba_marseille","lat":43.316928,"lon":5.404666,"is_reserved":false,"is_disabled":false,"rental_uris":{"android":"levelo://app?vid=13a8d491-0d2d-4b79-aba0-944d2a4f313d","ios":"levelo://app?vid=13a8d491-0d2d-4b79-aba0-944d2a4f313d"},"vehicle_type_id":"4","last_reported":1702152409,"current_range_meters":0,"station_id":"ce4bh012rcd13ifvqd00","pricing_plan_id":"free"},{"bike_id":"fce00258-e2d6-404d-812b-c908d68c0541","system_id":"levelo_inurba_marseille","lat":43.291994,"lon":5.392907,"is_reserved":false,"is_disabled":false,"rental_uris":{"android":"levelo://app?vid=fce00258-e2d6-404d-812b-c908d68c0541","ios":"levelo://app?vid=fce00258-e2d6-404d-812b-c908d68c0541"},"vehicle_type_id":"4","last_reported":1702152409,"current_range_meters":12800,"station_id":"ce4bh192rcd13ifvqdd0","pricing_plan_id":"free"},{"bike_id":"7ef16812-32bd-4f61-a6e6-f0fd4090995a","system_id":"levelo_inurba_marseille","lat":43.284538,"lon":5.358657,"is_reserved":false,"is_disabled":false,"rental_uris":{"android":"levelo://app?vid=7ef16812-32bd-4f61-a6e6-f0fd4090995a","ios":"levelo://app?vid=7ef16812-32bd-4f61-a6e6-f0fd4090995a"},"vehicle_type_id":"4","last_reported":1702152409,"current_range_meters":0,"station_id":"ce4bhah2rcd13ifvqei0","pricing_plan_id":"free"},{"bike_id":"908ba5c4-a8d4-49c0-99d6-cf98cadb512b","system_id":"levelo_inurba_marseille","lat":43.284538,"lon":5.358657,"is_reserved":false,"is_disabled":false,"rental_uris":{"android":"levelo://app?vid=908ba5c4-a8d4-49c0-99d6-cf98cadb512b","ios":"levelo://app?vid=908ba5c4-a8d4-49c0-99d6-cf98cadb512b"},"vehicle_type_id":"4","last_reported":1702152409,"current_range_meters":3200,"station_id":"ce4bhah2rcd13ifvqei0","pricing_plan_id":"free"},{"bike_id":"fff83e4d-f834-4f91-9ddc-072156b48a7f","system_id":"levelo_inurba_marseille","lat":43.294314,"lon":5.397498,"is_reserved":false,"is_disabled":false,"rental_uris":{"android":"levelo://app?vid=fff83e4d-f834-4f91-9ddc-072156b48a7f","ios":"levelo://app?vid=fff83e4d-f834-4f91-9ddc-072156b48a7f"},"vehicle_type_id":"4","last_reported":1702152409,"current_range_meters":25600,"station_id":"ce4bh3h2rcd13ifvqdo0","pricing_plan_id":"free"},{"bike_id":"b1bd4a11-45ff-4de1-957b-004e5c559b95","system_id":"levelo_inurba_marseille","lat":43.285856,"lon":5.350771,"is_reserved":false,"is_disabled":false,"rental_uris":{"android":"levelo://app?vid=b1bd4a11-45ff-4de1-957b-004e5c559b95","ios":"levelo://app?vid=b1bd4a11-45ff-4de1-957b-004e5c559b95"},"vehicle_type_id":"4","last_reported":1702152409,"current_range_meters":0,"station_id":"ce4bhch2rcd13ifvqeug","pricing_plan_id":"free"},{"bike_id":"afe2eefc-61ed-45fc-90c7-ead8ed20eab2","system_id":"levelo_inurba_marseille","lat":43.295713,"lon":5.399639,"is_reserved":false,"is_disabled":false,"rental_uris":{"android":"levelo://app?vid=afe2eefc-61ed-45fc-90c7-ead8ed20eab2","ios":"levelo://app?vid=afe2eefc-61ed-45fc-90c7-ead8ed20eab2"},"vehicle_type_id":"4","last_reported":1702152409,"current_range_meters":18000,"station_id":"ce4bh312rcd13ifvqdj0","pricing_plan_id":"free"},{"bike_id":"e2e924d7-26df-4736-8ede-4441bcaacb10","system_id":"levelo_inurba_marseille","lat":43.28652,"lon":5.3862,"is_reserved":false,"is_disabled":false,"rental_uris":{"android":"levelo://app?vid=e2e924d7-26df-4736-8ede-4441bcaacb10","ios":"levelo://app?vid=e2e924d7-26df-4736-8ede-4441bcaacb10"},"vehicle_type_id":"4","last_reported":1702152409,"current_range_meters":17600,"station_id":"ce4bh492rcd13ifvqdug","pricing_plan_id":"free"},{"bike_id":"e758f3b3-e8a9-4b4b-aff8-5127449caaa6","system_id":"levelo_inurba_marseille","lat":43.286595,"lon":5.386795,"is_reserved":false,"is_disabled":false,"rental_uris":{"android":"levelo://app?vid=e758f3b3-e8a9-4b4b-aff8-5127449caaa6","ios":"levelo://app?vid=e758f3b3-e8a9-4b4b-aff8-5127449caaa6"},"vehicle_type_id":"4","last_reported":1702152409,"current_range_meters":3600,"station_id":"ce4bh492rcd13ifvqdug","pricing_plan_id":"free"},{"bike_id":"06b3aba6-9d1c-4e37-9a84-95de7cc08875","system_id":"levelo_inurba_marseille","lat":43.323464,"lon":5.406297,"is_reserved":false,"is_disabled":false,"rental_uris":{"android":"levelo://app?vid=06b3aba6-9d1c-4e37-9a84-95de7cc08875","ios":"levelo://app?vid=06b3aba6-9d1c-4e37-9a84-95de7cc08875"},"vehicle_type_id":"4","last_reported":1702152409,"current_range_meters":21200,"station_id":"ce4bhq92rcd13ifvqhjg","pricing_plan_id":"free"},{"bike_id":"4da7061c-0a7d-407c-8ed7-5b8d45e64490","system_id":"levelo_inurba_marseille","lat":43.323464,"lon":5.406297,"is_reserved":false,"is_disabled":false,"rental_uris":{"android":"levelo://app?vid=4da7061c-0a7d-407c-8ed7-5b8d45e64490","ios":"levelo://app?vid=4da7061c-0a7d-407c-8ed7-5b8d45e64490"},"vehicle_type_id":"4","last_reported":1702152409,"current_range_meters":18400,"station_id":"ce4bhq92rcd13ifvqhjg","pricing_plan_id":"free"},{"bike_id":"2e3f5d1b-7227-4fd1-a3be-fcff682e2738","system_id":"levelo_inurba_marseille","lat":43.323464,"lon":5.406297,"is_reserved":false,"is_disabled":false,"rental_uris":{"android":"levelo://app?vid=2e3f5d1b-7227-4fd1-a3be-fcff682e2738","ios":"levelo://app?vid=2e3f5d1b-7227-4fd1-a3be-fcff682e2738"},"vehicle_type_id":"4","last_reported":1702152409,"current_range_meters":12800,"station_id":"ce4bhq92rcd13ifvqhjg","pricing_plan_id":"free"},{"bike_id":"30b7d8e9-5ab5-4d2d-a5d7-8456bef32343","system_id":"levelo_inurba_marseille","lat":43.288501,"lon":5.393087,"is_reserved":false,"is_disabled":false,"rental_uris":{"android":"levelo://app?vid=30b7d8e9-5ab5-4d2d-a5d7-8456bef32343","ios":"levelo://app?vid=30b7d8e9-5ab5-4d2d-a5d7-8456bef32343"},"vehicle_type_id":"4","last_reported":1702152409,"current_range_meters":18000,"station_id":"ce4bh2p2rcd13ifvqdi0","pricing_plan_id":"free"},{"bike_id":"00642d91-72bd-48e1-b129-5dcf36d33f89","system_id":"levelo_inurba_marseille","lat":43.292724,"lon":5.401131,"is_reserved":false,"is_disabled":false,"rental_uris":{"android":"levelo://app?vid=00642d91-72bd-48e1-b129-5dcf36d33f89","ios":"levelo://app?vid=00642d91-72bd-48e1-b129-5dcf36d33f89"},"vehicle_type_id":"4","last_reported":1702152409,"current_range_meters":24000,"station_id":"ce4bh312rcd13ifvqdk0","pricing_plan_id":"free"},{"bike_id":"0cf5e634-92cd-4666-a755-3ed4209b2c8f","system_id":"levelo_inurba_marseille","lat":43.280382,"lon":5.369291,"is_reserved":false,"is_disabled":false,"rental_uris":{"android":"levelo://app?vid=0cf5e634-92cd-4666-a755-3ed4209b2c8f","ios":"levelo://app?vid=0cf5e634-92cd-4666-a755-3ed4209b2c8f"},"vehicle_type_id":"4","last_reported":1702152409,"current_range_meters":15600,"station_id":"ce4bha12rcd13ifvqef0","pricing_plan_id":"free"},{"bike_id":"9fd8e679-b93e-4949-884e-2f39fba186b9","system_id":"levelo_inurba_marseille","lat":43.29041,"lon":5.39959,"is_reserved":false,"is_disabled":false,"rental_uris":{"android":"levelo://app?vid=9fd8e679-b93e-4949-884e-2f39fba186b9","ios":"levelo://app?vid=9fd8e679-b93e-4949-884e-2f39fba186b9"},"vehicle_type_id":"4","last_reported":1702152409,"current_range_meters":0,"station_id":"ce4bh392rcd13ifvqdm0","pricing_plan_id":"free"},{"bike_id":"bbbb4a29-4dac-4a28-bc20-f74ceb75c186","system_id":"levelo_inurba_marseille","lat":43.28112,"lon":5.37837,"is_reserved":false,"is_disabled":false,"rental_uris":{"android":"levelo://app?vid=bbbb4a29-4dac-4a28-bc20-f74ceb75c186","ios":"levelo://app?vid=bbbb4a29-4dac-4a28-bc20-f74ceb75c186"},"vehicle_type_id":"4","last_reported":1702152409,"current_range_meters":0,"station_id":"ce4bha12rcd13ifvqee0","pricing_plan_id":"free"},{"bike_id":"f74250ad-a656-476b-9338-f24f91bb9568","system_id":"levelo_inurba_marseille","lat":43.285742,"lon":5.395004,"is_reserved":false,"is_disabled":false,"rental_uris":{"android":"levelo://app?vid=f74250ad-a656-476b-9338-f24f91bb9568","ios":"levelo://app?vid=f74250ad-a656-476b-9338-f24f91bb9568"},"vehicle_type_id":"4","last_reported":1702152409,"current_range_meters":29200,"station_id":"ce4bh292rcd13ifvqdg0","pricing_plan_id":"free"},{"bike_id":"7dd71ff8-701b-458f-9e80-dae838364728","system_id":"levelo_inurba_marseille","lat":43.279087,"lon":5.380114,"is_reserved":false,"is_disabled":false,"rental_uris":{"android":"levelo://app?vid=7dd71ff8-701b-458f-9e80-dae838364728","ios":"levelo://app?vid=7dd71ff8-701b-458f-9e80-dae838364728"},"vehicle_type_id":"4","last_reported":1702152409,"current_range_meters":19600,"station_id":"ce4bhf92rcd13ifvqf50","pricing_plan_id":"free"},{"bike_id":"8caf3ba5-3530-4c3f-9a53-75cf0b661d61","system_id":"levelo_inurba_marseille","lat":43.287154,"lon":5.399979,"is_reserved":false,"is_disabled":false,"rental_uris":{"android":"levelo://app?vid=8caf3ba5-3530-4c3f-9a53-75cf0b661d61","ios":"levelo://app?vid=8caf3ba5-3530-4c3f-9a53-75cf0b661d61"},"vehicle_type_id":"4","last_reported":1702152409,"current_range_meters":27200,"station_id":"ce4bho92rcd13ifvqh3g","pricing_plan_id":"free"},{"bike_id":"0a1f065c-6d5b-4ce1-a550-ea7e45b2f8e8","system_id":"levelo_inurba_marseille","lat":43.287154,"lon":5.399979,"is_reserved":false,"is_disabled":false,"rental_uris":{"android":"levelo://app?vid=0a1f065c-6d5b-4ce1-a550-ea7e45b2f8e8","ios":"levelo://app?vid=0a1f065c-6d5b-4ce1-a550-ea7e45b2f8e8"},"vehicle_type_id":"4","last_reported":1702152409,"current_range_meters":0,"station_id":"ce4bho92rcd13ifvqh3g","pricing_plan_id":"free"},{"bike_id":"58f52f1b-f682-43f9-888f-474549184cf8","system_id":"levelo_inurba_marseille","lat":43.32215,"lon":5.41467,"is_reserved":false,"is_disabled":false,"rental_uris":{"android":"levelo://app?vid=58f52f1b-f682-43f9-888f-474549184cf8","ios":"levelo://app?vid=58f52f1b-f682-43f9-888f-474549184cf8"},"vehicle_type_id":"4","last_reported":1702152409,"current_range_meters":16400,"station_id":"","pricing_plan_id":"free"},{"bike_id":"bfd7b56c-a3a1-480e-81cf-a010edc11b83","system_id":"levelo_inurba_marseille","lat":43.279526,"lon":5.38707,"is_reserved":false,"is_disabled":false,"rental_uris":{"android":"levelo://app?vid=bfd7b56c-a3a1-480e-81cf-a010edc11b83","ios":"levelo://app?vid=bfd7b56c-a3a1-480e-81cf-a010edc11b83"},"vehicle_type_id":"4","last_reported":1702152409,"current_range_meters":0,"station_id":"ce4bhg12rcd13ifvqf80","pricing_plan_id":"free"},{"bike_id":"a148b3ad-4229-40c7-b578-15b32d72e96b","system_id":"levelo_inurba_marseille","lat":43.325243,"lon":5.414326,"is_reserved":false,"is_disabled":false,"rental_uris":{"android":"levelo://app?vid=a148b3ad-4229-40c7-b578-15b32d72e96b","ios":"levelo://app?vid=a148b3ad-4229-40c7-b578-15b32d72e96b"},"vehicle_type_id":"4","last_reported":1702152409,"current_range_meters":30000,"station_id":"ce4bhq12rcd13ifvqhhg","pricing_plan_id":"free"},{"bike_id":"32dd0e15-1b98-4e83-a659-43bacef86254","system_id":"levelo_inurba_marseille","lat":43.336148,"lon":5.410349,"is_reserved":false,"is_disabled":false,"rental_uris":{"android":"levelo://app?vid=32dd0e15-1b98-4e83-a659-43bacef86254","ios":"levelo://app?vid=32dd0e15-1b98-4e83-a659-43bacef86254"},"vehicle_type_id":"4","last_reported":1702152409,"current_range_meters":24800,"station_id":"ce4bhqh2rcd13ifvqhmg","pricing_plan_id":"free"},{"bike_id":"dec087dc-2f88-4bd2-9da7-57b7b745d402","system_id":"levelo_inurba_marseille","lat":43.273613,"lon":5.362705,"is_reserved":false,"is_disabled":false,"rental_uris":{"android":"levelo://app?vid=dec087dc-2f88-4bd2-9da7-57b7b745d402","ios":"levelo://app?vid=dec087dc-2f88-4bd2-9da7-57b7b745d402"},"vehicle_type_id":"4","last_reported":1702152409,"current_range_meters":26000,"station_id":"ce4bhbh2rcd13ifvqeo0","pricing_plan_id":"free"},{"bike_id":"5dcea534-78fe-476d-9642-e65eac60e17d","system_id":"levelo_inurba_marseille","lat":43.28,"lon":5.40008,"is_reserved":false,"is_disabled":false,"rental_uris":{"android":"levelo://app?vid=5dcea534-78fe-476d-9642-e65eac60e17d","ios":"levelo://app?vid=5dcea534-78fe-476d-9642-e65eac60e17d"},"vehicle_type_id":"4","last_reported":1702152409,"current_range_meters":13200,"station_id":"ce4bho92rcd13ifvqh4g","pricing_plan_id":"free"},{"bike_id":"88e59060-d458-48a8-8abe-8a1913097d92","system_id":"levelo_inurba_marseille","lat":43.31716,"lon":5.42402,"is_reserved":false,"is_disabled":false,"rental_uris":{"android":"levelo://app?vid=88e59060-d458-48a8-8abe-8a1913097d92","ios":"levelo://app?vid=88e59060-d458-48a8-8abe-8a1913097d92"},"vehicle_type_id":"4","last_reported":1702152409,"current_range_meters":23600,"station_id":"ce4bhp92rcd13ifvqhbg","pricing_plan_id":"free"},{"bike_id":"80038031-3601-4c51-b66a-c6c9131d41d1","system_id":"levelo_inurba_marseille","lat":43.310785,"lon":5.424305,"is_reserved":false,"is_disabled":false,"rental_uris":{"android":"levelo://app?vid=80038031-3601-4c51-b66a-c6c9131d41d1","ios":"levelo://app?vid=80038031-3601-4c51-b66a-c6c9131d41d1"},"vehicle_type_id":"4","last_reported":1702152409,"current_range_meters":30800,"station_id":"ce4bhp92rcd13ifvqhag","pricing_plan_id":"free"},{"bike_id":"02791883-a925-42a0-9dd3-b7193f6a574b","system_id":"levelo_inurba_marseille","lat":43.31716,"lon":5.42403,"is_reserved":false,"is_disabled":false,"rental_uris":{"android":"levelo://app?vid=02791883-a925-42a0-9dd3-b7193f6a574b","ios":"levelo://app?vid=02791883-a925-42a0-9dd3-b7193f6a574b"},"vehicle_type_id":"4","last_reported":1702152409,"current_range_meters":29600,"station_id":"ce4bhp92rcd13ifvqhbg","pricing_plan_id":"free"},{"bike_id":"e7bd1e73-4f86-473d-905c-a7b0f3d6ad8a","system_id":"levelo_inurba_marseille","lat":43.31723,"lon":5.42405,"is_reserved":false,"is_disabled":false,"rental_uris":{"android":"levelo://app?vid=e7bd1e73-4f86-473d-905c-a7b0f3d6ad8a","ios":"levelo://app?vid=e7bd1e73-4f86-473d-905c-a7b0f3d6ad8a"},"vehicle_type_id":"4","last_reported":1702152409,"current_range_meters":16000,"station_id":"ce4bhp92rcd13ifvqhbg","pricing_plan_id":"free"},{"bike_id":"48e3df08-57dc-434d-a06c-f6f751cd351f","system_id":"levelo_inurba_marseille","lat":43.310785,"lon":5.424305,"is_reserved":false,"is_disabled":false,"rental_uris":{"android":"levelo://app?vid=48e3df08-57dc-434d-a06c-f6f751cd351f","ios":"levelo://app?vid=48e3df08-57dc-434d-a06c-f6f751cd351f"},"vehicle_type_id":"4","last_reported":1702152409,"current_range_meters":19200,"station_id":"ce4bhp92rcd13ifvqhag","pricing_plan_id":"free"},{"bike_id":"1668cec2-975d-4634-a47d-2fa6448573c9","system_id":"levelo_inurba_marseille","lat":43.34131,"lon":5.409,"is_reserved":false,"is_disabled":false,"rental_uris":{"android":"levelo://app?vid=1668cec2-975d-4634-a47d-2fa6448573c9","ios":"levelo://app?vid=1668cec2-975d-4634-a47d-2fa6448573c9"},"vehicle_type_id":"4","last_reported":1702152409,"current_range_meters":20400,"station_id":"ce4bhqh2rcd13ifvqhlg","pricing_plan_id":"free"},{"bike_id":"dc011345-ff5f-480d-b6d5-f874b8d283f3","system_id":"levelo_inurba_marseille","lat":43.34135,"lon":5.40898,"is_reserved":false,"is_disabled":false,"rental_uris":{"android":"levelo://app?vid=dc011345-ff5f-480d-b6d5-f874b8d283f3","ios":"levelo://app?vid=dc011345-ff5f-480d-b6d5-f874b8d283f3"},"vehicle_type_id":"4","last_reported":1702152409,"current_range_meters":24400,"station_id":"ce4bhqh2rcd13ifvqhlg","pricing_plan_id":"free"},{"bike_id":"63133364-316e-458e-b234-bbd4926c63fc","system_id":"levelo_inurba_marseille","lat":43.27583,"lon":5.39474,"is_reserved":false,"is_disabled":false,"rental_uris":{"android":"levelo://app?vid=63133364-316e-458e-b234-bbd4926c63fc","ios":"levelo://app?vid=63133364-316e-458e-b234-bbd4926c63fc"},"vehicle_type_id":"4","last_reported":1702152409,"current_range_meters":6400,"station_id":"","pricing_plan_id":"free"},{"bike_id":"75691232-d21b-450c-832c-a836bb2e7f7f","system_id":"levelo_inurba_marseille","lat":43.30413,"lon":5.42535,"is_reserved":false,"is_disabled":false,"rental_uris":{"android":"levelo://app?vid=75691232-d21b-450c-832c-a836bb2e7f7f","ios":"levelo://app?vid=75691232-d21b-450c-832c-a836bb2e7f7f"},"vehicle_type_id":"4","last_reported":1702152409,"current_range_meters":4400,"station_id":"ce4bhoh2rcd13ifvqh6g","pricing_plan_id":"free"},{"bike_id":"8f021145-48f8-459b-aef0-f8921e18b0a0","system_id":"levelo_inurba_marseille","lat":43.27214,"lon":5.3925,"is_reserved":false,"is_disabled":false,"rental_uris":{"android":"levelo://app?vid=8f021145-48f8-459b-aef0-f8921e18b0a0","ios":"levelo://app?vid=8f021145-48f8-459b-aef0-f8921e18b0a0"},"vehicle_type_id":"4","last_reported":1702152409,"current_range_meters":400,"station_id":"","pricing_plan_id":"free"},{"bike_id":"1da5cadd-0f62-4791-baf4-9a8e21858cd6","system_id":"levelo_inurba_marseille","lat":43.278128,"lon":5.407195,"is_reserved":false,"is_disabled":false,"rental_uris":{"android":"levelo://app?vid=1da5cadd-0f62-4791-baf4-9a8e21858cd6","ios":"levelo://app?vid=1da5cadd-0f62-4791-baf4-9a8e21858cd6"},"vehicle_type_id":"4","last_reported":1702152409,"current_range_meters":25600,"station_id":"ce4bhnh2rcd13ifvqgtg","pricing_plan_id":"free"},{"bike_id":"f0ebddec-d6cc-4cea-9205-f0ce292b2962","system_id":"levelo_inurba_marseille","lat":43.278128,"lon":5.407195,"is_reserved":false,"is_disabled":false,"rental_uris":{"android":"levelo://app?vid=f0ebddec-d6cc-4cea-9205-f0ce292b2962","ios":"levelo://app?vid=f0ebddec-d6cc-4cea-9205-f0ce292b2962"},"vehicle_type_id":"4","last_reported":1702152409,"current_range_meters":8400,"station_id":"ce4bhnh2rcd13ifvqgtg","pricing_plan_id":"free"},{"bike_id":"7349fdae-43a7-4d69-b164-2d1940a828f5","system_id":"levelo_inurba_marseille","lat":43.269467,"lon":5.386439,"is_reserved":false,"is_disabled":false,"rental_uris":{"android":"levelo://app?vid=7349fdae-43a7-4d69-b164-2d1940a828f5","ios":"levelo://app?vid=7349fdae-43a7-4d69-b164-2d1940a828f5"},"vehicle_type_id":"4","last_reported":1702152409,"current_range_meters":16400,"station_id":"ce4bhh92rcd13ifvqfh0","pricing_plan_id":"free"},{"bike_id":"e8a3cb6a-c4ea-498e-aa55-3461432573f9","system_id":"levelo_inurba_marseille","lat":43.27939,"lon":5.41048,"is_reserved":false,"is_disabled":false,"rental_uris":{"android":"levelo://app?vid=e8a3cb6a-c4ea-498e-aa55-3461432573f9","ios":"levelo://app?vid=e8a3cb6a-c4ea-498e-aa55-3461432573f9"},"vehicle_type_id":"4","last_reported":1702152409,"current_range_meters":21600,"station_id":"ce4bhnp2rcd13ifvqh0g","pricing_plan_id":"free"},{"bike_id":"bb1d4f05-8677-4519-a9f1-f0c0f43c8da4","system_id":"levelo_inurba_marseille","lat":43.279465,"lon":5.410561,"is_reserved":false,"is_disabled":false,"rental_uris":{"android":"levelo://app?vid=bb1d4f05-8677-4519-a9f1-f0c0f43c8da4","ios":"levelo://app?vid=bb1d4f05-8677-4519-a9f1-f0c0f43c8da4"},"vehicle_type_id":"4","last_reported":1702152409,"current_range_meters":27200,"station_id":"ce4bhnp2rcd13ifvqh0g","pricing_plan_id":"free"},{"bike_id":"3fdc2dbf-e997-4ae9-b2c6-bdee97ec7222","system_id":"levelo_inurba_marseille","lat":43.26556,"lon":5.37281,"is_reserved":false,"is_disabled":false,"rental_uris":{"android":"levelo://app?vid=3fdc2dbf-e997-4ae9-b2c6-bdee97ec7222","ios":"levelo://app?vid=3fdc2dbf-e997-4ae9-b2c6-bdee97ec7222"},"vehicle_type_id":"4","last_reported":1702152409,"current_range_meters":20400,"station_id":"ce4bhg12rcd13ifvqf70","pricing_plan_id":"free"},{"bike_id":"3decf5d7-bca0-402b-89c8-f89fba01800f","system_id":"levelo_inurba_marseille","lat":43.265714,"lon":5.372891,"is_reserved":false,"is_disabled":false,"rental_uris":{"android":"levelo://app?vid=3decf5d7-bca0-402b-89c8-f89fba01800f","ios":"levelo://app?vid=3decf5d7-bca0-402b-89c8-f89fba01800f"},"vehicle_type_id":"4","last_reported":1702152409,"current_range_meters":18000,"station_id":"ce4bhg12rcd13ifvqf70","pricing_plan_id":"free"},{"bike_id":"be2587a0-2779-4d3e-a25c-c4da1cd846b1","system_id":"levelo_inurba_marseille","lat":43.28002,"lon":5.41661,"is_reserved":false,"is_disabled":false,"rental_uris":{"android":"levelo://app?vid=be2587a0-2779-4d3e-a25c-c4da1cd846b1","ios":"levelo://app?vid=be2587a0-2779-4d3e-a25c-c4da1cd846b1"},"vehicle_type_id":"4","last_reported":1702152409,"current_range_meters":24000,"station_id":"ce4bho12rcd13ifvqh1g","pricing_plan_id":"free"},{"bike_id":"d67c54fa-e754-430e-95f9-5b6f7ee47777","system_id":"levelo_inurba_marseille","lat":43.27992,"lon":5.4166,"is_reserved":false,"is_disabled":false,"rental_uris":{"android":"levelo://app?vid=d67c54fa-e754-430e-95f9-5b6f7ee47777","ios":"levelo://app?vid=d67c54fa-e754-430e-95f9-5b6f7ee47777"},"vehicle_type_id":"4","last_reported":1702152409,"current_range_meters":11200,"station_id":"ce4bho12rcd13ifvqh1g","pricing_plan_id":"free"},{"bike_id":"db1ac7a5-7291-43cb-a37d-23d01d2ef62d","system_id":"levelo_inurba_marseille","lat":43.27996,"lon":5.41665,"is_reserved":false,"is_disabled":false,"rental_uris":{"android":"levelo://app?vid=db1ac7a5-7291-43cb-a37d-23d01d2ef62d","ios":"levelo://app?vid=db1ac7a5-7291-43cb-a37d-23d01d2ef62d"},"vehicle_type_id":"4","last_reported":1702152409,"current_range_meters":11600,"station_id":"ce4bho12rcd13ifvqh1g","pricing_plan_id":"free"},{"bike_id":"19cc942f-ece9-40d3-8083-cccfba7fe5b1","system_id":"levelo_inurba_marseille","lat":43.279881,"lon":5.416579,"is_reserved":false,"is_disabled":false,"rental_uris":{"android":"levelo://app?vid=19cc942f-ece9-40d3-8083-cccfba7fe5b1","ios":"levelo://app?vid=19cc942f-ece9-40d3-8083-cccfba7fe5b1"},"vehicle_type_id":"4","last_reported":1702152409,"current_range_meters":2000,"station_id":"ce4bho12rcd13ifvqh1g","pricing_plan_id":"free"},{"bike_id":"d79898f5-32ec-42ea-a52c-d95c22a8ea58","system_id":"levelo_inurba_marseille","lat":43.265714,"lon":5.372891,"is_reserved":false,"is_disabled":false,"rental_uris":{"android":"levelo://app?vid=d79898f5-32ec-42ea-a52c-d95c22a8ea58","ios":"levelo://app?vid=d79898f5-32ec-42ea-a52c-d95c22a8ea58"},"vehicle_type_id":"4","last_reported":1702152409,"current_range_meters":29200,"station_id":"ce4bhg12rcd13ifvqf70","pricing_plan_id":"free"},{"bike_id":"1aa146f6-bcee-4a32-8a39-31b4e3cd2790","system_id":"levelo_inurba_marseille","lat":43.267966,"lon":5.393976,"is_reserved":false,"is_disabled":false,"rental_uris":{"android":"levelo://app?vid=1aa146f6-bcee-4a32-8a39-31b4e3cd2790","ios":"levelo://app?vid=1aa146f6-bcee-4a32-8a39-31b4e3cd2790"},"vehicle_type_id":"4","last_reported":1702152409,"current_range_meters":17200,"station_id":"ce4bhh12rcd13ifvqfg0","pricing_plan_id":"free"},{"bike_id":"559cca0d-a52e-419b-b304-97ccdf6c6c16","system_id":"levelo_inurba_marseille","lat":43.26571,"lon":5.39003,"is_reserved":false,"is_disabled":false,"rental_uris":{"android":"levelo://app?vid=559cca0d-a52e-419b-b304-97ccdf6c6c16","ios":"levelo://app?vid=559cca0d-a52e-419b-b304-97ccdf6c6c16"},"vehicle_type_id":"4","last_reported":1702152409,"current_range_meters":3200,"station_id":"ce4bhe12rcd13ifvqf30","pricing_plan_id":"free"},{"bike_id":"efce3206-6d32-4826-b5d6-39f58e58c1ba","system_id":"levelo_inurba_marseille","lat":43.26937,"lon":5.40257,"is_reserved":false,"is_disabled":false,"rental_uris":{"android":"levelo://app?vid=efce3206-6d32-4826-b5d6-39f58e58c1ba","ios":"levelo://app?vid=efce3206-6d32-4826-b5d6-39f58e58c1ba"},"vehicle_type_id":"4","last_reported":1702152409,"current_range_meters":15600,"station_id":"cjm6bp8fraef2m0cb0m0","pricing_plan_id":"free"},{"bike_id":"9b2b1b24-09ce-4a67-b955-8e8d0bf6565f","system_id":"levelo_inurba_marseille","lat":43.261782,"lon":5.374515,"is_reserved":false,"is_disabled":false,"rental_uris":{"android":"levelo://app?vid=9b2b1b24-09ce-4a67-b955-8e8d0bf6565f","ios":"levelo://app?vid=9b2b1b24-09ce-4a67-b955-8e8d0bf6565f"},"vehicle_type_id":"4","last_reported":1702152409,"current_range_meters":28000,"station_id":"ce4bhgp2rcd13ifvqfc0","pricing_plan_id":"free"},{"bike_id":"610b4c30-dfcf-4d12-b033-95787d925183","system_id":"levelo_inurba_marseille","lat":43.26184,"lon":5.37443,"is_reserved":false,"is_disabled":false,"rental_uris":{"android":"levelo://app?vid=610b4c30-dfcf-4d12-b033-95787d925183","ios":"levelo://app?vid=610b4c30-dfcf-4d12-b033-95787d925183"},"vehicle_type_id":"4","last_reported":1702152409,"current_range_meters":400,"station_id":"ce4bhgp2rcd13ifvqfc0","pricing_plan_id":"free"},{"bike_id":"dbacbb4a-9e99-4a7a-9713-43dac221ae4c","system_id":"levelo_inurba_marseille","lat":43.317104,"lon":5.436818,"is_reserved":false,"is_disabled":false,"rental_uris":{"android":"levelo://app?vid=dbacbb4a-9e99-4a7a-9713-43dac221ae4c","ios":"levelo://app?vid=dbacbb4a-9e99-4a7a-9713-43dac221ae4c"},"vehicle_type_id":"4","last_reported":1702152409,"current_range_meters":27600,"station_id":"ce4bhp92rcd13ifvqhcg","pricing_plan_id":"free"},{"bike_id":"f5b58947-511a-4bf1-bb05-e4b8764df321","system_id":"levelo_inurba_marseille","lat":43.261782,"lon":5.374515,"is_reserved":false,"is_disabled":false,"rental_uris":{"android":"levelo://app?vid=f5b58947-511a-4bf1-bb05-e4b8764df321","ios":"levelo://app?vid=f5b58947-511a-4bf1-bb05-e4b8764df321"},"vehicle_type_id":"4","last_reported":1702152409,"current_range_meters":4000,"station_id":"ce4bhgp2rcd13ifvqfc0","pricing_plan_id":"free"},{"bike_id":"e2a5fdfb-8206-4159-81d6-1ab96fe4d7e7","system_id":"levelo_inurba_marseille","lat":43.262012,"lon":5.379307,"is_reserved":false,"is_disabled":false,"rental_uris":{"android":"levelo://app?vid=e2a5fdfb-8206-4159-81d6-1ab96fe4d7e7","ios":"levelo://app?vid=e2a5fdfb-8206-4159-81d6-1ab96fe4d7e7"},"vehicle_type_id":"4","last_reported":1702152409,"current_range_meters":24400,"station_id":"ce4bhjp2rcd13ifvqg90","pricing_plan_id":"free"},{"bike_id":"d14fddf3-3638-41ff-a2e7-5c41cc7e7327","system_id":"levelo_inurba_marseille","lat":43.271368,"lon":5.40928,"is_reserved":false,"is_disabled":false,"rental_uris":{"android":"levelo://app?vid=d14fddf3-3638-41ff-a2e7-5c41cc7e7327","ios":"levelo://app?vid=d14fddf3-3638-41ff-a2e7-5c41cc7e7327"},"vehicle_type_id":"4","last_reported":1702152409,"current_range_meters":15600,"station_id":"ce4bhl12rcd13ifvqgf0","pricing_plan_id":"free"},{"bike_id":"5f2d3882-2773-4d5c-828c-4c3c96bb97f7","system_id":"levelo_inurba_marseille","lat":43.298768,"lon":5.43643,"is_reserved":false,"is_disabled":false,"rental_uris":{"android":"levelo://app?vid=5f2d3882-2773-4d5c-828c-4c3c96bb97f7","ios":"levelo://app?vid=5f2d3882-2773-4d5c-828c-4c3c96bb97f7"},"vehicle_type_id":"4","last_reported":1702152409,"current_range_meters":30400,"station_id":"ce4bhpp2rcd13ifvqhfg","pricing_plan_id":"free"},{"bike_id":"c4a32d8b-8a0b-4189-aa9f-2983a413dfe8","system_id":"levelo_inurba_marseille","lat":43.299,"lon":5.43662,"is_reserved":false,"is_disabled":false,"rental_uris":{"android":"levelo://app?vid=c4a32d8b-8a0b-4189-aa9f-2983a413dfe8","ios":"levelo://app?vid=c4a32d8b-8a0b-4189-aa9f-2983a413dfe8"},"vehicle_type_id":"4","last_reported":1702152409,"current_range_meters":29200,"station_id":"ce4bhpp2rcd13ifvqhfg","pricing_plan_id":"free"},{"bike_id":"83e2018e-7127-4415-8bbf-2e347a9c6750","system_id":"levelo_inurba_marseille","lat":43.29894,"lon":5.43662,"is_reserved":false,"is_disabled":false,"rental_uris":{"android":"levelo://app?vid=83e2018e-7127-4415-8bbf-2e347a9c6750","ios":"levelo://app?vid=83e2018e-7127-4415-8bbf-2e347a9c6750"},"vehicle_type_id":"4","last_reported":1702152409,"current_range_meters":28800,"station_id":"ce4bhpp2rcd13ifvqhfg","pricing_plan_id":"free"},{"bike_id":"4f68f183-a711-4386-a731-e8ea8e2f115e","system_id":"levelo_inurba_marseille","lat":43.298768,"lon":5.43643,"is_reserved":false,"is_disabled":false,"rental_uris":{"android":"levelo://app?vid=4f68f183-a711-4386-a731-e8ea8e2f115e","ios":"levelo://app?vid=4f68f183-a711-4386-a731-e8ea8e2f115e"},"vehicle_type_id":"4","last_reported":1702152409,"current_range_meters":25600,"station_id":"ce4bhpp2rcd13ifvqhfg","pricing_plan_id":"free"},{"bike_id":"70c52fa1-91be-4fbd-9217-7a0c668f9310","system_id":"levelo_inurba_marseille","lat":43.29899,"lon":5.43665,"is_reserved":false,"is_disabled":false,"rental_uris":{"android":"levelo://app?vid=70c52fa1-91be-4fbd-9217-7a0c668f9310","ios":"levelo://app?vid=70c52fa1-91be-4fbd-9217-7a0c668f9310"},"vehicle_type_id":"4","last_reported":1702152409,"current_range_meters":24000,"station_id":"ce4bhpp2rcd13ifvqhfg","pricing_plan_id":"free"},{"bike_id":"6b17b896-99f2-456b-929e-df3811eeb274","system_id":"levelo_inurba_marseille","lat":43.298768,"lon":5.43643,"is_reserved":false,"is_disabled":false,"rental_uris":{"android":"levelo://app?vid=6b17b896-99f2-456b-929e-df3811eeb274","ios":"levelo://app?vid=6b17b896-99f2-456b-929e-df3811eeb274"},"vehicle_type_id":"4","last_reported":1702152409,"current_range_meters":28400,"station_id":"ce4bhpp2rcd13ifvqhfg","pricing_plan_id":"free"},{"bike_id":"ae2ee4ec-e0be-4650-a25d-ad306c6973d5","system_id":"levelo_inurba_marseille","lat":43.281548,"lon":5.42643,"is_reserved":false,"is_disabled":false,"rental_uris":{"android":"levelo://app?vid=ae2ee4ec-e0be-4650-a25d-ad306c6973d5","ios":"levelo://app?vid=ae2ee4ec-e0be-4650-a25d-ad306c6973d5"},"vehicle_type_id":"4","last_reported":1702152409,"current_range_meters":16000,"station_id":"ce4bhnh2rcd13ifvqgug","pricing_plan_id":"free"},{"bike_id":"c03e7c65-94ee-4f51-bb31-7322ab7baa32","system_id":"levelo_inurba_marseille","lat":43.281548,"lon":5.42643,"is_reserved":false,"is_disabled":false,"rental_uris":{"android":"levelo://app?vid=c03e7c65-94ee-4f51-bb31-7322ab7baa32","ios":"levelo://app?vid=c03e7c65-94ee-4f51-bb31-7322ab7baa32"},"vehicle_type_id":"4","last_reported":1702152409,"current_range_meters":0,"station_id":"ce4bhnh2rcd13ifvqgug","pricing_plan_id":"free"},{"bike_id":"5525a139-c8f9-4163-ad42-51992063b245","system_id":"levelo_inurba_marseille","lat":43.281548,"lon":5.42643,"is_reserved":false,"is_disabled":false,"rental_uris":{"android":"levelo://app?vid=5525a139-c8f9-4163-ad42-51992063b245","ios":"levelo://app?vid=5525a139-c8f9-4163-ad42-51992063b245"},"vehicle_type_id":"4","last_reported":1702152409,"current_range_meters":23200,"station_id":"ce4bhnh2rcd13ifvqgug","pricing_plan_id":"free"},{"bike_id":"139a27c7-f3ae-47e4-b585-f0759b6ba5b6","system_id":"levelo_inurba_marseille","lat":43.281548,"lon":5.42643,"is_reserved":false,"is_disabled":false,"rental_uris":{"android":"levelo://app?vid=139a27c7-f3ae-47e4-b585-f0759b6ba5b6","ios":"levelo://app?vid=139a27c7-f3ae-47e4-b585-f0759b6ba5b6"},"vehicle_type_id":"4","last_reported":1702152409,"current_range_meters":22800,"station_id":"ce4bhnh2rcd13ifvqgug","pricing_plan_id":"free"},{"bike_id":"8381b6c0-a970-418d-b394-9f8eb4bf2cb5","system_id":"levelo_inurba_marseille","lat":43.281548,"lon":5.42643,"is_reserved":false,"is_disabled":false,"rental_uris":{"android":"levelo://app?vid=8381b6c0-a970-418d-b394-9f8eb4bf2cb5","ios":"levelo://app?vid=8381b6c0-a970-418d-b394-9f8eb4bf2cb5"},"vehicle_type_id":"4","last_reported":1702152409,"current_range_meters":14800,"station_id":"ce4bhnh2rcd13ifvqgug","pricing_plan_id":"free"},{"bike_id":"971d63c2-83dd-41d1-be29-18106b6fda3e","system_id":"levelo_inurba_marseille","lat":43.281548,"lon":5.42643,"is_reserved":false,"is_disabled":false,"rental_uris":{"android":"levelo://app?vid=971d63c2-83dd-41d1-be29-18106b6fda3e","ios":"levelo://app?vid=971d63c2-83dd-41d1-be29-18106b6fda3e"},"vehicle_type_id":"4","last_reported":1702152409,"current_range_meters":5600,"station_id":"ce4bhnh2rcd13ifvqgug","pricing_plan_id":"free"},{"bike_id":"b9063a33-13b5-4cca-826c-3f51be03f8ec","system_id":"levelo_inurba_marseille","lat":43.281548,"lon":5.42643,"is_reserved":false,"is_disabled":false,"rental_uris":{"android":"levelo://app?vid=b9063a33-13b5-4cca-826c-3f51be03f8ec","ios":"levelo://app?vid=b9063a33-13b5-4cca-826c-3f51be03f8ec"},"vehicle_type_id":"4","last_reported":1702152409,"current_range_meters":32000,"station_id":"ce4bhnh2rcd13ifvqgug","pricing_plan_id":"free"},{"bike_id":"4b961cec-d7ea-47bd-8b69-193b02ff897c","system_id":"levelo_inurba_marseille","lat":43.2607,"lon":5.393983,"is_reserved":false,"is_disabled":false,"rental_uris":{"android":"levelo://app?vid=4b961cec-d7ea-47bd-8b69-193b02ff897c","ios":"levelo://app?vid=4b961cec-d7ea-47bd-8b69-193b02ff897c"},"vehicle_type_id":"4","last_reported":1702152409,"current_range_meters":20400,"station_id":"ce4bhh92rcd13ifvqfj0","pricing_plan_id":"free"},{"bike_id":"6a285a92-a82b-4ae9-b162-6bd6726e1bb9","system_id":"levelo_inurba_marseille","lat":43.258224,"lon":5.394369,"is_reserved":false,"is_disabled":false,"rental_uris":{"android":"levelo://app?vid=6a285a92-a82b-4ae9-b162-6bd6726e1bb9","ios":"levelo://app?vid=6a285a92-a82b-4ae9-b162-6bd6726e1bb9"},"vehicle_type_id":"4","last_reported":1702152409,"current_range_meters":9200,"station_id":"ce4bhip2rcd13ifvqft0","pricing_plan_id":"free"},{"bike_id":"307187da-051f-477c-bd05-fea9915bf25c","system_id":"levelo_inurba_marseille","lat":43.25497,"lon":5.37652,"is_reserved":false,"is_disabled":false,"rental_uris":{"android":"levelo://app?vid=307187da-051f-477c-bd05-fea9915bf25c","ios":"levelo://app?vid=307187da-051f-477c-bd05-fea9915bf25c"},"vehicle_type_id":"4","last_reported":1702152409,"current_range_meters":6000,"station_id":"ce4bhh12rcd13ifvqff0","pricing_plan_id":"free"},{"bike_id":"528c2ac3-85f0-4e8d-a184-f9e30b0fad8c","system_id":"levelo_inurba_marseille","lat":43.270721,"lon":5.422764,"is_reserved":false,"is_disabled":false,"rental_uris":{"android":"levelo://app?vid=528c2ac3-85f0-4e8d-a184-f9e30b0fad8c","ios":"levelo://app?vid=528c2ac3-85f0-4e8d-a184-f9e30b0fad8c"},"vehicle_type_id":"4","last_reported":1702152409,"current_range_meters":16000,"station_id":"ce4bhk92rcd13ifvqgb0","pricing_plan_id":"free"},{"bike_id":"c8413a84-4734-4cf3-873e-253ec4648f7c","system_id":"levelo_inurba_marseille","lat":43.250009,"lon":5.389195,"is_reserved":false,"is_disabled":false,"rental_uris":{"android":"levelo://app?vid=c8413a84-4734-4cf3-873e-253ec4648f7c","ios":"levelo://app?vid=c8413a84-4734-4cf3-873e-253ec4648f7c"},"vehicle_type_id":"4","last_reported":1702152409,"current_range_meters":16800,"station_id":"ce4bhgp2rcd13ifvqfd0","pricing_plan_id":"free"},{"bike_id":"cd9dcc01-2d69-4d9d-9a7f-86875f3c46c0","system_id":"levelo_inurba_marseille","lat":43.2511,"lon":5.40323,"is_reserved":false,"is_disabled":false,"rental_uris":{"android":"levelo://app?vid=cd9dcc01-2d69-4d9d-9a7f-86875f3c46c0","ios":"levelo://app?vid=cd9dcc01-2d69-4d9d-9a7f-86875f3c46c0"},"vehicle_type_id":"4","last_reported":1702152409,"current_range_meters":14000,"station_id":"ce4bhlh2rcd13ifvqgig","pricing_plan_id":"free"},{"bike_id":"6ffa404c-bd43-4ef5-aa2c-7350849e4cbf","system_id":"levelo_inurba_marseille","lat":43.246467,"lon":5.388984,"is_reserved":false,"is_disabled":false,"rental_uris":{"android":"levelo://app?vid=6ffa404c-bd43-4ef5-aa2c-7350849e4cbf","ios":"levelo://app?vid=6ffa404c-bd43-4ef5-aa2c-7350849e4cbf"},"vehicle_type_id":"4","last_reported":1702152409,"current_range_meters":28800,"station_id":"ce4bhg12rcd13ifvqf60","pricing_plan_id":"free"},{"bike_id":"a4e6304e-c8df-4b34-84be-1d8c4ad9f4f7","system_id":"levelo_inurba_marseille","lat":43.240623,"lon":5.377642,"is_reserved":false,"is_disabled":false,"rental_uris":{"android":"levelo://app?vid=a4e6304e-c8df-4b34-84be-1d8c4ad9f4f7","ios":"levelo://app?vid=a4e6304e-c8df-4b34-84be-1d8c4ad9f4f7"},"vehicle_type_id":"4","last_reported":1702152409,"current_range_meters":7200,"station_id":"ce4bhnp2rcd13ifvqgvg","pricing_plan_id":"free"},{"bike_id":"ccc904d0-ec17-4c75-aba3-8acab7bda7c3","system_id":"levelo_inurba_marseille","lat":43.240623,"lon":5.377642,"is_reserved":false,"is_disabled":false,"rental_uris":{"android":"levelo://app?vid=ccc904d0-ec17-4c75-aba3-8acab7bda7c3","ios":"levelo://app?vid=ccc904d0-ec17-4c75-aba3-8acab7bda7c3"},"vehicle_type_id":"4","last_reported":1702152409,"current_range_meters":2800,"station_id":"ce4bhnp2rcd13ifvqgvg","pricing_plan_id":"free"},{"bike_id":"2580262e-1e7c-49c0-8d7a-29f401d9ac6f","system_id":"levelo_inurba_marseille","lat":43.240623,"lon":5.377642,"is_reserved":false,"is_disabled":false,"rental_uris":{"android":"levelo://app?vid=2580262e-1e7c-49c0-8d7a-29f401d9ac6f","ios":"levelo://app?vid=2580262e-1e7c-49c0-8d7a-29f401d9ac6f"},"vehicle_type_id":"4","last_reported":1702152409,"current_range_meters":22800,"station_id":"ce4bhnp2rcd13ifvqgvg","pricing_plan_id":"free"},{"bike_id":"bd83e60a-c0a9-42d0-9228-56613594b85e","system_id":"levelo_inurba_marseille","lat":43.240623,"lon":5.377642,"is_reserved":false,"is_disabled":false,"rental_uris":{"android":"levelo://app?vid=bd83e60a-c0a9-42d0-9228-56613594b85e","ios":"levelo://app?vid=bd83e60a-c0a9-42d0-9228-56613594b85e"},"vehicle_type_id":"4","last_reported":1702152409,"current_range_meters":23200,"station_id":"ce4bhnp2rcd13ifvqgvg","pricing_plan_id":"free"},{"bike_id":"6de0a663-b7a3-4deb-ae6b-36fda66a9ac4","system_id":"levelo_inurba_marseille","lat":43.240623,"lon":5.377642,"is_reserved":false,"is_disabled":false,"rental_uris":{"android":"levelo://app?vid=6de0a663-b7a3-4deb-ae6b-36fda66a9ac4","ios":"levelo://app?vid=6de0a663-b7a3-4deb-ae6b-36fda66a9ac4"},"vehicle_type_id":"4","last_reported":1702152409,"current_range_meters":18800,"station_id":"ce4bhnp2rcd13ifvqgvg","pricing_plan_id":"free"},{"bike_id":"dca6d162-e5a2-4d99-89a0-bf726dda2dbf","system_id":"levelo_inurba_marseille","lat":43.23972,"lon":5.3662,"is_reserved":false,"is_disabled":false,"rental_uris":{"android":"levelo://app?vid=dca6d162-e5a2-4d99-89a0-bf726dda2dbf","ios":"levelo://app?vid=dca6d162-e5a2-4d99-89a0-bf726dda2dbf"},"vehicle_type_id":"4","last_reported":1702152409,"current_range_meters":5200,"station_id":"ce4bhi12rcd13ifvqfp0","pricing_plan_id":"free"},{"bike_id":"6ee27b94-91ff-4319-8004-5372243ff166","system_id":"levelo_inurba_marseille","lat":43.239697,"lon":5.36628,"is_reserved":false,"is_disabled":false,"rental_uris":{"android":"levelo://app?vid=6ee27b94-91ff-4319-8004-5372243ff166","ios":"levelo://app?vid=6ee27b94-91ff-4319-8004-5372243ff166"},"vehicle_type_id":"4","last_reported":1702152409,"current_range_meters":5600,"station_id":"ce4bhi12rcd13ifvqfp0","pricing_plan_id":"free"},{"bike_id":"acd7f746-1a4c-47d2-bf3f-9de41036d325","system_id":"levelo_inurba_marseille","lat":43.23965,"lon":5.36632,"is_reserved":false,"is_disabled":false,"rental_uris":{"android":"levelo://app?vid=acd7f746-1a4c-47d2-bf3f-9de41036d325","ios":"levelo://app?vid=acd7f746-1a4c-47d2-bf3f-9de41036d325"},"vehicle_type_id":"4","last_reported":1702152409,"current_range_meters":14000,"station_id":"ce4bhi12rcd13ifvqfp0","pricing_plan_id":"free"},{"bike_id":"60852ef8-6924-4529-bd44-d2fd8ea16b18","system_id":"levelo_inurba_marseille","lat":43.241782,"lon":5.397261,"is_reserved":false,"is_disabled":false,"rental_uris":{"android":"levelo://app?vid=60852ef8-6924-4529-bd44-d2fd8ea16b18","ios":"levelo://app?vid=60852ef8-6924-4529-bd44-d2fd8ea16b18"},"vehicle_type_id":"4","last_reported":1702152409,"current_range_meters":15600,"station_id":"ce4bhn12rcd13ifvqgpg","pricing_plan_id":"free"},{"bike_id":"b17e00c2-bf59-4ac0-bf9d-4e8ada93c9ba","system_id":"levelo_inurba_marseille","lat":43.241782,"lon":5.397261,"is_reserved":false,"is_disabled":false,"rental_uris":{"android":"levelo://app?vid=b17e00c2-bf59-4ac0-bf9d-4e8ada93c9ba","ios":"levelo://app?vid=b17e00c2-bf59-4ac0-bf9d-4e8ada93c9ba"},"vehicle_type_id":"4","last_reported":1702152409,"current_range_meters":5600,"station_id":"ce4bhn12rcd13ifvqgpg","pricing_plan_id":"free"},{"bike_id":"a8c501f0-1f0c-4126-b8d3-0e787022ce6a","system_id":"levelo_inurba_marseille","lat":43.231919,"lon":5.355532,"is_reserved":false,"is_disabled":false,"rental_uris":{"android":"levelo://app?vid=a8c501f0-1f0c-4126-b8d3-0e787022ce6a","ios":"levelo://app?vid=a8c501f0-1f0c-4126-b8d3-0e787022ce6a"},"vehicle_type_id":"4","last_reported":1702152409,"current_range_meters":30000,"station_id":"ce4bhu92rcd13ifvqi70","pricing_plan_id":"free"},{"bike_id":"529449ae-9bd0-4a42-b2ad-b913b1c62c25","system_id":"levelo_inurba_marseille","lat":43.231919,"lon":5.355532,"is_reserved":false,"is_disabled":false,"rental_uris":{"android":"levelo://app?vid=529449ae-9bd0-4a42-b2ad-b913b1c62c25","ios":"levelo://app?vid=529449ae-9bd0-4a42-b2ad-b913b1c62c25"},"vehicle_type_id":"4","last_reported":1702152409,"current_range_meters":30400,"station_id":"ce4bhu92rcd13ifvqi70","pricing_plan_id":"free"},{"bike_id":"61aa0a27-01cd-4079-9d0b-d55e5cfaee7e","system_id":"levelo_inurba_marseille","lat":43.231919,"lon":5.355532,"is_reserved":false,"is_disabled":false,"rental_uris":{"android":"levelo://app?vid=61aa0a27-01cd-4079-9d0b-d55e5cfaee7e","ios":"levelo://app?vid=61aa0a27-01cd-4079-9d0b-d55e5cfaee7e"},"vehicle_type_id":"4","last_reported":1702152409,"current_range_meters":30400,"station_id":"ce4bhu92rcd13ifvqi70","pricing_plan_id":"free"},{"bike_id":"2eac3e0a-1cc3-4e75-9865-782906f9549d","system_id":"levelo_inurba_marseille","lat":43.231919,"lon":5.355532,"is_reserved":false,"is_disabled":false,"rental_uris":{"android":"levelo://app?vid=2eac3e0a-1cc3-4e75-9865-782906f9549d","ios":"levelo://app?vid=2eac3e0a-1cc3-4e75-9865-782906f9549d"},"vehicle_type_id":"4","last_reported":1702152409,"current_range_meters":29200,"station_id":"ce4bhu92rcd13ifvqi70","pricing_plan_id":"free"},{"bike_id":"db837267-81e3-439e-98cb-2684c730942d","system_id":"levelo_inurba_marseille","lat":43.23193,"lon":5.35542,"is_reserved":false,"is_disabled":false,"rental_uris":{"android":"levelo://app?vid=db837267-81e3-439e-98cb-2684c730942d","ios":"levelo://app?vid=db837267-81e3-439e-98cb-2684c730942d"},"vehicle_type_id":"4","last_reported":1702152409,"current_range_meters":19200,"station_id":"ce4bhu92rcd13ifvqi70","pricing_plan_id":"free"}]}}