{"last_updated":1722442180,"ttl":30,"version":"2.2","data":{"bikes":[{"bike_id":"0c204385-009b-48a3-99b5-0e0e0d91b30f","system_id":"levelo_inurba_marseille","lat":43.31234,"lon":5.36819,"is_reserved":false,"is_disabled":false,"rental_uris":{"android":"levelo://app?vid=0c204385-009b-48a3-99b5-0e0e0d91b30f","ios":"levelo://app?vid=0c204385-009b-48a3-99b5-0e0e0d91b30f"},"vehicle_type_id":"4","last_reported":1722442180,"current_range_meters":2400,"station_id":"ce4bgl92rcd13ifvqbq0","pricing_plan_id":"cebpf4jnsgd1na2vs0mg"},{"bike_id":"d638f64e-e667-42b1-a41b-c99b31af626c","system_id":"levelo_inurba_marseille","lat":43.312239,"lon":5.368562,"is_reserved":false,"is_disabled":false,"rental_uris":{"android":"levelo://app?vid=d638f64e-e667-42b1-a41b-c99b31af626c","ios":"levelo://app?vid=d638f64e-e667-42b1-a41b-c99b31af626c"},"vehicle_type_id":"4","last_reported":1722442180,"current_range_meters":400,"station_id":"ce4bgl92rcd13ifvqbq0","pricing_plan_id":"cebpf4jnsgd1na2vs0mg"},{"bike_id":"447621e0-c4a1-4c2a-9bf5-74c2da7e519e","system_id":"levelo_inurba_marseille","lat":43.31176,"lon":5.37229,"is_reserved":false,"is_disabled":false,"rental_uris":{"android":"levelo://app?vid=447621e0-c4a1-4c2a-9bf5-74c2da7e519e","ios":"levelo://app?vid=447621e0-c4a1-4c2a-9bf5-74c2da7e519e"},"vehicle_type_id":"4","last_reported":1722442180,"current_range_meters":0,"station_id":"","pricing_plan_id":"cebpf4jnsgd1na2vs0mg"},{"bike_id":"f885360e-cade-4ccc-876c-39eadca13e9f","system_id":"levelo_inurba_marseille","lat":43.314811,"lon":5.373103,"is_reserved":false,"is_disabled":false,"rental_uris":{"android":"levelo://app?vid=f885360e-cade-4ccc-876c-39eadca13e9f","ios":"levelo://app?vid=f885360e-cade-4ccc-876c-39eadca13e9f"},"vehicle_type_id":"4","last_reported":1722442180,"current_range_meters":9600,"station_id":"ce4bgt12rcd13ifvqcd0","pricing_plan_id":"cebpf4jnsgd1na2vs0mg"},{"bike_id":"6febe36a-a870-48b9-abaf-ebe7b49e1fa3","system_id":"levelo_inurba_marseille","lat":43.314811,"lon":5.373103,"is_reserved":false,"is_disabled":false,"rental_uris":{"android":"levelo://app?vid=6febe36a-a870-48b9-abaf-ebe7b49e1fa3","ios":"levelo://app?vid=6febe36a-a870-48b9-abaf-ebe7b49e1fa3"},"vehicle_type_id":"4","last_reported":1722442180,"current_range_meters":16400,"station_id":"ce4bgt12rcd13ifvqcd0","pricing_plan_id":"cebpf4jnsgd1na2vs0mg"},{"bike_id":"4fffc9e3-8414-4dd1-93f2-10ff70b02a37","system_id":"levelo_inurba_marseille","lat":43.31496,"lon":5.37308,"is_reserved":false,"is_disabled":false,"rental_uris":{"android":"levelo://app?vid=4fffc9e3-8414-4dd1-93f2-10ff70b02a37","ios":"levelo://app?vid=4fffc9e3-8414-4dd1-93f2-10ff70b02a37"},"vehicle_type_id":"4","last_reported":1722442180,"current_range_meters":15200,"station_id":"ce4bgt12rcd13ifvqcd0","pricing_plan_id":"cebpf4jnsgd1na2vs0mg"},{"bike_id":"4245a123-be24-4a18-9441-96656306dccb","system_id":"levelo_inurba_marseille","lat":43.31499,"lon":5.37309,"is_reserved":false,"is_disabled":false,"rental_uris":{"android":"levelo://app?vid=4245a123-be24-4a18-9441-96656306dccb","ios":"levelo://app?vid=4245a123-be24-4a18-9441-96656306dccb"},"vehicle_type_id":"4","last_reported":1722442180,"current_range_meters":23200,"station_id":"ce4bgt12rcd13ifvqcd0","pricing_plan_id":"cebpf4jnsgd1na2vs0mg"},{"bike_id":"dab82cb2-e947-44d6-9372-7d56bed2c2c0","system_id":"levelo_inurba_marseille","lat":43.309034,"lon":5.371783,"is_reserved":false,"is_disabled":false,"rental_uris":{"android":"levelo://app?vid=dab82cb2-e947-44d6-9372-7d56bed2c2c0","ios":"levelo://app?vid=dab82cb2-e947-44d6-9372-7d56bed2c2c0"},"vehicle_type_id":"4","last_reported":1722442180,"current_range_meters":21200,"station_id":"ce4bguh2rcd13ifvqckg","pricing_plan_id":"cebpf4jnsgd1na2vs0mg"},{"bike_id":"2880059d-1d92-4c73-81b8-2a26a7b3a0cc","system_id":"levelo_inurba_marseille","lat":43.305712,"lon":5.365641,"is_reserved":false,"is_disabled":false,"rental_uris":{"android":"levelo://app?vid=2880059d-1d92-4c73-81b8-2a26a7b3a0cc","ios":"levelo://app?vid=2880059d-1d92-4c73-81b8-2a26a7b3a0cc"},"vehicle_type_id":"4","last_reported":1722442180,"current_range_meters":0,"station_id":"ce4bgs12rcd13ifvqcag","pricing_plan_id":"cebpf4jnsgd1na2vs0mg"},{"bike_id":"aad88501-acd7-4412-b9ed-f2691fd05c52","system_id":"levelo_inurba_marseille","lat":43.305989,"lon":5.37225,"is_reserved":false,"is_disabled":false,"rental_uris":{"android":"levelo://app?vid=aad88501-acd7-4412-b9ed-f2691fd05c52","ios":"levelo://app?vid=aad88501-acd7-4412-b9ed-f2691fd05c52"},"vehicle_type_id":"4","last_reported":1722442180,"current_range_meters":4400,"station_id":"ce4bgqh2rcd13ifvqc4g","pricing_plan_id":"cebpf4jnsgd1na2vs0mg"},{"bike_id":"412e3afe-42fe-4bbc-b9fb-f9a1b27ab799","system_id":"levelo_inurba_marseille","lat":43.307945,"lon":5.376487,"is_reserved":false,"is_disabled":false,"rental_uris":{"android":"levelo://app?vid=412e3afe-42fe-4bbc-b9fb-f9a1b27ab799","ios":"levelo://app?vid=412e3afe-42fe-4bbc-b9fb-f9a1b27ab799"},"vehicle_type_id":"4","last_reported":1722442180,"current_range_meters":15200,"station_id":"ce4bgv92rcd13ifvqcq0","pricing_plan_id":"cebpf4jnsgd1na2vs0mg"},{"bike_id":"0c4651a2-4eaa-477b-b1aa-686c9e5483de","system_id":"levelo_inurba_marseille","lat":43.320376,"lon":5.371894,"is_reserved":false,"is_disabled":false,"rental_uris":{"android":"levelo://app?vid=0c4651a2-4eaa-477b-b1aa-686c9e5483de","ios":"levelo://app?vid=0c4651a2-4eaa-477b-b1aa-686c9e5483de"},"vehicle_type_id":"4","last_reported":1722442180,"current_range_meters":23600,"station_id":"","pricing_plan_id":"cebpf4jnsgd1na2vs0mg"},{"bike_id":"510b8928-51c1-4666-9e12-8ad79280076f","system_id":"levelo_inurba_marseille","lat":43.307945,"lon":5.376487,"is_reserved":false,"is_disabled":false,"rental_uris":{"android":"levelo://app?vid=510b8928-51c1-4666-9e12-8ad79280076f","ios":"levelo://app?vid=510b8928-51c1-4666-9e12-8ad79280076f"},"vehicle_type_id":"4","last_reported":1722442180,"current_range_meters":22000,"station_id":"ce4bgv92rcd13ifvqcq0","pricing_plan_id":"cebpf4jnsgd1na2vs0mg"},{"bike_id":"578d6841-44b0-43fc-9723-25fe5ee5ec01","system_id":"levelo_inurba_marseille","lat":43.311638,"lon":5.379102,"is_reserved":false,"is_disabled":false,"rental_uris":{"android":"levelo://app?vid=578d6841-44b0-43fc-9723-25fe5ee5ec01","ios":"levelo://app?vid=578d6841-44b0-43fc-9723-25fe5ee5ec01"},"vehicle_type_id":"4","last_reported":1722442180,"current_range_meters":2400,"station_id":"","pricing_plan_id":"cebpf4jnsgd1na2vs0mg"},{"bike_id":"8630ae75-60c8-4aa0-9238-30d4e77bb842","system_id":"levelo_inurba_marseille","lat":43.31536,"lon":5.38017,"is_reserved":false,"is_disabled":false,"rental_uris":{"android":"levelo://app?vid=8630ae75-60c8-4aa0-9238-30d4e77bb842","ios":"levelo://app?vid=8630ae75-60c8-4aa0-9238-30d4e77bb842"},"vehicle_type_id":"4","last_reported":1722442180,"current_range_meters":10800,"station_id":"ce4bhsp2rcd13ifvqi50","pricing_plan_id":"cebpf4jnsgd1na2vs0mg"},{"bike_id":"441b9ac9-4f4f-41ed-b1b5-772c6a10d6ba","system_id":"levelo_inurba_marseille","lat":43.315289,"lon":5.380349,"is_reserved":false,"is_disabled":false,"rental_uris":{"android":"levelo://app?vid=441b9ac9-4f4f-41ed-b1b5-772c6a10d6ba","ios":"levelo://app?vid=441b9ac9-4f4f-41ed-b1b5-772c6a10d6ba"},"vehicle_type_id":"4","last_reported":1722442180,"current_range_meters":26800,"station_id":"ce4bhsp2rcd13ifvqi50","pricing_plan_id":"cebpf4jnsgd1na2vs0mg"},{"bike_id":"29e4982a-5e5c-4992-bb3b-3a8c7138ddf9","system_id":"levelo_inurba_marseille","lat":43.315412,"lon":5.380248,"is_reserved":false,"is_disabled":false,"rental_uris":{"android":"levelo://app?vid=29e4982a-5e5c-4992-bb3b-3a8c7138ddf9","ios":"levelo://app?vid=29e4982a-5e5c-4992-bb3b-3a8c7138ddf9"},"vehicle_type_id":"4","last_reported":1722442180,"current_range_meters":2800,"station_id":"ce4bhsp2rcd13ifvqi50","pricing_plan_id":"cebpf4jnsgd1na2vs0mg"},{"bike_id":"d8e0e7bc-8dd3-4aa9-b473-f6f08f1655fd","system_id":"levelo_inurba_marseille","lat":43.315289,"lon":5.380349,"is_reserved":false,"is_disabled":false,"rental_uris":{"android":"levelo://app?vid=d8e0e7bc-8dd3-4aa9-b473-f6f08f1655fd","ios":"levelo://app?vid=d8e0e7bc-8dd3-4aa9-b473-f6f08f1655fd"},"vehicle_type_id":"4","last_reported":1722442180,"current_range_meters":6000,"station_id":"ce4bhsp2rcd13ifvqi50","pricing_plan_id":"cebpf4jnsgd1na2vs0mg"},{"bike_id":"fae300a4-0056-4072-873e-9030882af50d","system_id":"levelo_inurba_marseille","lat":43.31535,"lon":5.3803,"is_reserved":false,"is_disabled":false,"rental_uris":{"android":"levelo://app?vid=fae300a4-0056-4072-873e-9030882af50d","ios":"levelo://app?vid=fae300a4-0056-4072-873e-9030882af50d"},"vehicle_type_id":"4","last_reported":1722442180,"current_range_meters":30400,"station_id":"ce4bhsp2rcd13ifvqi50","pricing_plan_id":"cebpf4jnsgd1na2vs0mg"},{"bike_id":"2a120d54-3256-40c2-a610-33c13e13abc4","system_id":"levelo_inurba_marseille","lat":43.308012,"lon":5.381511,"is_reserved":false,"is_disabled":false,"rental_uris":{"android":"levelo://app?vid=2a120d54-3256-40c2-a610-33c13e13abc4","ios":"levelo://app?vid=2a120d54-3256-40c2-a610-33c13e13abc4"},"vehicle_type_id":"4","last_reported":1722442180,"current_range_meters":0,"station_id":"ce4bgt12rcd13ifvqce0","pricing_plan_id":"cebpf4jnsgd1na2vs0mg"},{"bike_id":"be5b810f-3910-4dd7-a376-1bcb00bbfe32","system_id":"levelo_inurba_marseille","lat":43.308012,"lon":5.381511,"is_reserved":false,"is_disabled":false,"rental_uris":{"android":"levelo://app?vid=be5b810f-3910-4dd7-a376-1bcb00bbfe32","ios":"levelo://app?vid=be5b810f-3910-4dd7-a376-1bcb00bbfe32"},"vehicle_type_id":"4","last_reported":1722442180,"current_range_meters":0,"station_id":"ce4bgt12rcd13ifvqce0","pricing_plan_id":"cebpf4jnsgd1na2vs0mg"},{"bike_id":"9b11830f-bcc8-4a20-85c8-ad3c9506e026","system_id":"levelo_inurba_marseille","lat":43.3248,"lon":5.36573,"is_reserved":false,"is_disabled":false,"rental_uris":{"android":"levelo://app?vid=9b11830f-bcc8-4a20-85c8-ad3c9506e026","ios":"levelo://app?vid=9b11830f-bcc8-4a20-85c8-ad3c9506e026"},"vehicle_type_id":"4","last_reported":1722442180,"current_range_meters":2800,"station_id":"ce4bhs12rcd13ifvqhvg","pricing_plan_id":"cebpf4jnsgd1na2vs0mg"},{"bike_id":"83023dab-9387-41e6-b63c-3c79d0d9af6c","system_id":"levelo_inurba_marseille","lat":43.324771,"lon":5.36557,"is_reserved":false,"is_disabled":false,"rental_uris":{"android":"levelo://app?vid=83023dab-9387-41e6-b63c-3c79d0d9af6c","ios":"levelo://app?vid=83023dab-9387-41e6-b63c-3c79d0d9af6c"},"vehicle_type_id":"4","last_reported":1722442180,"current_range_meters":31200,"station_id":"ce4bhs12rcd13ifvqhvg","pricing_plan_id":"cebpf4jnsgd1na2vs0mg"},{"bike_id":"d59dbaff-8221-4211-93a0-446e58651ce7","system_id":"levelo_inurba_marseille","lat":43.324845,"lon":5.365683,"is_reserved":false,"is_disabled":false,"rental_uris":{"android":"levelo://app?vid=d59dbaff-8221-4211-93a0-446e58651ce7","ios":"levelo://app?vid=d59dbaff-8221-4211-93a0-446e58651ce7"},"vehicle_type_id":"4","last_reported":1722442180,"current_range_meters":16000,"station_id":"ce4bhs12rcd13ifvqhvg","pricing_plan_id":"cebpf4jnsgd1na2vs0mg"},{"bike_id":"d9b3370a-78a6-47a3-9914-8c5a1379cb21","system_id":"levelo_inurba_marseille","lat":43.30143,"lon":5.37413,"is_reserved":false,"is_disabled":false,"rental_uris":{"android":"levelo://app?vid=d9b3370a-78a6-47a3-9914-8c5a1379cb21","ios":"levelo://app?vid=d9b3370a-78a6-47a3-9914-8c5a1379cb21"},"vehicle_type_id":"4","last_reported":1722442180,"current_range_meters":10800,"station_id":"ce4bgs92rcd13ifvqcc0","pricing_plan_id":"cebpf4jnsgd1na2vs0mg"},{"bike_id":"89f067c9-a3af-46a8-8e11-e236695d62b3","system_id":"levelo_inurba_marseille","lat":43.312943,"lon":5.384163,"is_reserved":false,"is_disabled":false,"rental_uris":{"android":"levelo://app?vid=89f067c9-a3af-46a8-8e11-e236695d62b3","ios":"levelo://app?vid=89f067c9-a3af-46a8-8e11-e236695d62b3"},"vehicle_type_id":"4","last_reported":1722442180,"current_range_meters":0,"station_id":"","pricing_plan_id":"cebpf4jnsgd1na2vs0mg"},{"bike_id":"1e9ed892-0078-4e5f-abd1-f9dfaccc3f8a","system_id":"levelo_inurba_marseille","lat":43.319935,"lon":5.381699,"is_reserved":false,"is_disabled":false,"rental_uris":{"android":"levelo://app?vid=1e9ed892-0078-4e5f-abd1-f9dfaccc3f8a","ios":"levelo://app?vid=1e9ed892-0078-4e5f-abd1-f9dfaccc3f8a"},"vehicle_type_id":"4","last_reported":1722442180,"current_range_meters":12000,"station_id":"ce4bhr12rcd13ifvqhpg","pricing_plan_id":"cebpf4jnsgd1na2vs0mg"},{"bike_id":"8a4ad53d-7907-42d4-a932-def2e442ce93","system_id":"levelo_inurba_marseille","lat":43.319935,"lon":5.381699,"is_reserved":false,"is_disabled":false,"rental_uris":{"android":"levelo://app?vid=8a4ad53d-7907-42d4-a932-def2e442ce93","ios":"levelo://app?vid=8a4ad53d-7907-42d4-a932-def2e442ce93"},"vehicle_type_id":"4","last_reported":1722442180,"current_range_meters":22000,"station_id":"ce4bhr12rcd13ifvqhpg","pricing_plan_id":"cebpf4jnsgd1na2vs0mg"},{"bike_id":"6b68967d-2d2d-4b75-b6db-f9ad09141639","system_id":"levelo_inurba_marseille","lat":43.319935,"lon":5.381699,"is_reserved":false,"is_disabled":false,"rental_uris":{"android":"levelo://app?vid=6b68967d-2d2d-4b75-b6db-f9ad09141639","ios":"levelo://app?vid=6b68967d-2d2d-4b75-b6db-f9ad09141639"},"vehicle_type_id":"4","last_reported":1722442180,"current_range_meters":12000,"station_id":"ce4bhr12rcd13ifvqhpg","pricing_plan_id":"cebpf4jnsgd1na2vs0mg"},{"bike_id":"715d59eb-d96b-4e79-8563-c16691e2e5f4","system_id":"levelo_inurba_marseille","lat":43.313571,"lon":5.384829,"is_reserved":false,"is_disabled":false,"rental_uris":{"android":"levelo://app?vid=715d59eb-d96b-4e79-8563-c16691e2e5f4","ios":"levelo://app?vid=715d59eb-d96b-4e79-8563-c16691e2e5f4"},"vehicle_type_id":"4","last_reported":1722442180,"current_range_meters":0,"station_id":"ce4bgt92rcd13ifvqcf0","pricing_plan_id":"cebpf4jnsgd1na2vs0mg"},{"bike_id":"f0ff2055-9c83-48b5-b2d8-0eac6b24a44b","system_id":"levelo_inurba_marseille","lat":43.299222,"lon":5.365554,"is_reserved":false,"is_disabled":false,"rental_uris":{"android":"levelo://app?vid=f0ff2055-9c83-48b5-b2d8-0eac6b24a44b","ios":"levelo://app?vid=f0ff2055-9c83-48b5-b2d8-0eac6b24a44b"},"vehicle_type_id":"4","last_reported":1722442180,"current_range_meters":0,"station_id":"ce4bgm92rcd13ifvqbr0","pricing_plan_id":"cebpf4jnsgd1na2vs0mg"},{"bike_id":"c13518c0-b897-4832-8532-272f8cb41e91","system_id":"levelo_inurba_marseille","lat":43.30493,"lon":5.38234,"is_reserved":false,"is_disabled":false,"rental_uris":{"android":"levelo://app?vid=c13518c0-b897-4832-8532-272f8cb41e91","ios":"levelo://app?vid=c13518c0-b897-4832-8532-272f8cb41e91"},"vehicle_type_id":"4","last_reported":1722442180,"current_range_meters":24800,"station_id":"","pricing_plan_id":"cebpf4jnsgd1na2vs0mg"},{"bike_id":"0a9432da-e141-4bff-8cc1-c1da187655bd","system_id":"levelo_inurba_marseille","lat":43.32291,"lon":5.38261,"is_reserved":false,"is_disabled":false,"rental_uris":{"android":"levelo://app?vid=0a9432da-e141-4bff-8cc1-c1da187655bd","ios":"levelo://app?vid=0a9432da-e141-4bff-8cc1-c1da187655bd"},"vehicle_type_id":"4","last_reported":1722442180,"current_range_meters":28400,"station_id":"ce4bhr12rcd13ifvqhqg","pricing_plan_id":"cebpf4jnsgd1na2vs0mg"},{"bike_id":"6b1836a4-bfec-4310-a3a9-45e3bfe3be77","system_id":"levelo_inurba_marseille","lat":43.29858,"lon":5.37816,"is_reserved":false,"is_disabled":false,"rental_uris":{"android":"levelo://app?vid=6b1836a4-bfec-4310-a3a9-45e3bfe3be77","ios":"levelo://app?vid=6b1836a4-bfec-4310-a3a9-45e3bfe3be77"},"vehicle_type_id":"4","last_reported":1722442180,"current_range_meters":7200,"station_id":"","pricing_plan_id":"cebpf4jnsgd1na2vs0mg"},{"bike_id":"9266143a-9546-4c26-9e06-b1ecc4abae8a","system_id":"levelo_inurba_marseille","lat":43.300265,"lon":5.382035,"is_reserved":false,"is_disabled":false,"rental_uris":{"android":"levelo://app?vid=9266143a-9546-4c26-9e06-b1ecc4abae8a","ios":"levelo://app?vid=9266143a-9546-4c26-9e06-b1ecc4abae8a"},"vehicle_type_id":"4","last_reported":1722442180,"current_range_meters":1600,"station_id":"","pricing_plan_id":"cebpf4jnsgd1na2vs0mg"},{"bike_id":"8c4ba717-4341-4fa3-92b5-c7edd0eebc52","system_id":"levelo_inurba_marseille","lat":43.29623,"lon":5.37151,"is_reserved":false,"is_disabled":false,"rental_uris":{"android":"levelo://app?vid=8c4ba717-4341-4fa3-92b5-c7edd0eebc52","ios":"levelo://app?vid=8c4ba717-4341-4fa3-92b5-c7edd0eebc52"},"vehicle_type_id":"4","last_reported":1722442180,"current_range_meters":0,"station_id":"ce4bgnh2rcd13ifvqc0g","pricing_plan_id":"cebpf4jnsgd1na2vs0mg"},{"bike_id":"7f28d780-4c71-4655-a398-7d65141b9787","system_id":"levelo_inurba_marseille","lat":43.29573,"lon":5.367355,"is_reserved":false,"is_disabled":false,"rental_uris":{"android":"levelo://app?vid=7f28d780-4c71-4655-a398-7d65141b9787","ios":"levelo://app?vid=7f28d780-4c71-4655-a398-7d65141b9787"},"vehicle_type_id":"4","last_reported":1722442180,"current_range_meters":29600,"station_id":"ce4bgph2rcd13ifvqc2g","pricing_plan_id":"cebpf4jnsgd1na2vs0mg"},{"bike_id":"c247b58a-8dc5-40b8-b277-e610eff714fb","system_id":"levelo_inurba_marseille","lat":43.29573,"lon":5.367355,"is_reserved":false,"is_disabled":false,"rental_uris":{"android":"levelo://app?vid=c247b58a-8dc5-40b8-b277-e610eff714fb","ios":"levelo://app?vid=c247b58a-8dc5-40b8-b277-e610eff714fb"},"vehicle_type_id":"4","last_reported":1722442180,"current_range_meters":30400,"station_id":"ce4bgph2rcd13ifvqc2g","pricing_plan_id":"cebpf4jnsgd1na2vs0mg"},{"bike_id":"e66aba9b-e61c-45e7-99cb-0a0e4f83605f","system_id":"levelo_inurba_marseille","lat":43.29582,"lon":5.3674,"is_reserved":false,"is_disabled":false,"rental_uris":{"android":"levelo://app?vid=e66aba9b-e61c-45e7-99cb-0a0e4f83605f","ios":"levelo://app?vid=e66aba9b-e61c-45e7-99cb-0a0e4f83605f"},"vehicle_type_id":"4","last_reported":1722442180,"current_range_meters":31200,"station_id":"ce4bgph2rcd13ifvqc2g","pricing_plan_id":"cebpf4jnsgd1na2vs0mg"},{"bike_id":"ea5258be-9337-4051-922d-20c2f4fa2f91","system_id":"levelo_inurba_marseille","lat":43.317557,"lon":5.390173,"is_reserved":false,"is_disabled":false,"rental_uris":{"android":"levelo://app?vid=ea5258be-9337-4051-922d-20c2f4fa2f91","ios":"levelo://app?vid=ea5258be-9337-4051-922d-20c2f4fa2f91"},"vehicle_type_id":"4","last_reported":1722442180,"current_range_meters":24000,"station_id":"ce4bhqp2rcd13ifvqhng","pricing_plan_id":"cebpf4jnsgd1na2vs0mg"},{"bike_id":"997c2538-cdae-42ef-b900-fe2b25e348ff","system_id":"levelo_inurba_marseille","lat":43.3043,"lon":5.38838,"is_reserved":false,"is_disabled":false,"rental_uris":{"android":"levelo://app?vid=997c2538-cdae-42ef-b900-fe2b25e348ff","ios":"levelo://app?vid=997c2538-cdae-42ef-b900-fe2b25e348ff"},"vehicle_type_id":"4","last_reported":1722442180,"current_range_meters":20000,"station_id":"ce4bgk12rcd13ifvqbi0","pricing_plan_id":"cebpf4jnsgd1na2vs0mg"},{"bike_id":"e0297355-245a-4747-be77-82aaad29e1fd","system_id":"levelo_inurba_marseille","lat":43.298097,"lon":5.381008,"is_reserved":false,"is_disabled":false,"rental_uris":{"android":"levelo://app?vid=e0297355-245a-4747-be77-82aaad29e1fd","ios":"levelo://app?vid=e0297355-245a-4747-be77-82aaad29e1fd"},"vehicle_type_id":"4","last_reported":1722442180,"current_range_meters":5600,"station_id":"ce4bhbh2rcd13ifvqepg","pricing_plan_id":"cebpf4jnsgd1na2vs0mg"},{"bike_id":"78ef9a5d-31d9-4124-8a88-b13cdb8970c8","system_id":"levelo_inurba_marseille","lat":43.298037,"lon":5.381066,"is_reserved":false,"is_disabled":false,"rental_uris":{"android":"levelo://app?vid=78ef9a5d-31d9-4124-8a88-b13cdb8970c8","ios":"levelo://app?vid=78ef9a5d-31d9-4124-8a88-b13cdb8970c8"},"vehicle_type_id":"4","last_reported":1722442180,"current_range_meters":0,"station_id":"ce4bgip2rcd13ifvqbb0","pricing_plan_id":"cebpf4jnsgd1na2vs0mg"},{"bike_id":"5e21db9f-dd45-4fa3-a089-04efdcd6e67f","system_id":"levelo_inurba_marseille","lat":43.296277,"lon":5.377108,"is_reserved":false,"is_disabled":false,"rental_uris":{"android":"levelo://app?vid=5e21db9f-dd45-4fa3-a089-04efdcd6e67f","ios":"levelo://app?vid=5e21db9f-dd45-4fa3-a089-04efdcd6e67f"},"vehicle_type_id":"4","last_reported":1722442180,"current_range_meters":20800,"station_id":"ce4bgi92rcd13ifvqb90","pricing_plan_id":"cebpf4jnsgd1na2vs0mg"},{"bike_id":"d65a2d9d-d9a7-4187-8a11-2f1d1dd11ec3","system_id":"levelo_inurba_marseille","lat":43.296277,"lon":5.377108,"is_reserved":false,"is_disabled":false,"rental_uris":{"android":"levelo://app?vid=d65a2d9d-d9a7-4187-8a11-2f1d1dd11ec3","ios":"levelo://app?vid=d65a2d9d-d9a7-4187-8a11-2f1d1dd11ec3"},"vehicle_type_id":"4","last_reported":1722442180,"current_range_meters":28400,"station_id":"ce4bgi92rcd13ifvqb90","pricing_plan_id":"cebpf4jnsgd1na2vs0mg"},{"bike_id":"c0abc3a7-31df-4613-b318-9eb0a3f0768d","system_id":"levelo_inurba_marseille","lat":43.299707,"lon":5.384859,"is_reserved":false,"is_disabled":false,"rental_uris":{"android":"levelo://app?vid=c0abc3a7-31df-4613-b318-9eb0a3f0768d","ios":"levelo://app?vid=c0abc3a7-31df-4613-b318-9eb0a3f0768d"},"vehicle_type_id":"4","last_reported":1722442180,"current_range_meters":0,"station_id":"ce4bgj92rcd13ifvqbd0","pricing_plan_id":"cebpf4jnsgd1na2vs0mg"},{"bike_id":"118ad05e-04c9-46f5-a579-d2391c8fcd87","system_id":"levelo_inurba_marseille","lat":43.30245,"lon":5.38879,"is_reserved":false,"is_disabled":false,"rental_uris":{"android":"levelo://app?vid=118ad05e-04c9-46f5-a579-d2391c8fcd87","ios":"levelo://app?vid=118ad05e-04c9-46f5-a579-d2391c8fcd87"},"vehicle_type_id":"4","last_reported":1722442180,"current_range_meters":27600,"station_id":"","pricing_plan_id":"cebpf4jnsgd1na2vs0mg"},{"bike_id":"17eb3c16-16c3-4d33-9461-bc3747a6a18a","system_id":"levelo_inurba_marseille","lat":43.301396,"lon":5.387812,"is_reserved":false,"is_disabled":false,"rental_uris":{"android":"levelo://app?vid=17eb3c16-16c3-4d33-9461-bc3747a6a18a","ios":"levelo://app?vid=17eb3c16-16c3-4d33-9461-bc3747a6a18a"},"vehicle_type_id":"4","last_reported":1722442180,"current_range_meters":20800,"station_id":"ce4bghh2rcd13ifvqb60","pricing_plan_id":"cebpf4jnsgd1na2vs0mg"},{"bike_id":"0560ad5a-2609-448e-9939-fc6ec400a95c","system_id":"levelo_inurba_marseille","lat":43.32367,"lon":5.388836,"is_reserved":false,"is_disabled":false,"rental_uris":{"android":"levelo://app?vid=0560ad5a-2609-448e-9939-fc6ec400a95c","ios":"levelo://app?vid=0560ad5a-2609-448e-9939-fc6ec400a95c"},"vehicle_type_id":"4","last_reported":1722442180,"current_range_meters":5200,"station_id":"ce4bhqp2rcd13ifvqhog","pricing_plan_id":"cebpf4jnsgd1na2vs0mg"},{"bike_id":"424fa7dd-ac8f-465b-b9d4-b9ef9ec8f7b3","system_id":"levelo_inurba_marseille","lat":43.32367,"lon":5.388836,"is_reserved":false,"is_disabled":false,"rental_uris":{"android":"levelo://app?vid=424fa7dd-ac8f-465b-b9d4-b9ef9ec8f7b3","ios":"levelo://app?vid=424fa7dd-ac8f-465b-b9d4-b9ef9ec8f7b3"},"vehicle_type_id":"4","last_reported":1722442180,"current_range_meters":15600,"station_id":"ce4bhqp2rcd13ifvqhog","pricing_plan_id":"cebpf4jnsgd1na2vs0mg"},{"bike_id":"0a85f345-216f-4704-a378-5933fa5393c1","system_id":"levelo_inurba_marseille","lat":43.323741,"lon":5.388814,"is_reserved":false,"is_disabled":false,"rental_uris":{"android":"levelo://app?vid=0a85f345-216f-4704-a378-5933fa5393c1","ios":"levelo://app?vid=0a85f345-216f-4704-a378-5933fa5393c1"},"vehicle_type_id":"4","last_reported":1722442180,"current_range_meters":3600,"station_id":"","pricing_plan_id":"cebpf4jnsgd1na2vs0mg"},{"bike_id":"5f0d951a-5389-40d2-92f2-635f99958b7d","system_id":"levelo_inurba_marseille","lat":43.29601,"lon":5.381084,"is_reserved":false,"is_disabled":false,"rental_uris":{"android":"levelo://app?vid=5f0d951a-5389-40d2-92f2-635f99958b7d","ios":"levelo://app?vid=5f0d951a-5389-40d2-92f2-635f99958b7d"},"vehicle_type_id":"4","last_reported":1722442180,"current_range_meters":0,"station_id":"ce4bgl12rcd13ifvqbo0","pricing_plan_id":"cebpf4jnsgd1na2vs0mg"},{"bike_id":"596c5545-b7f4-4d70-9060-e2d2aef15da8","system_id":"levelo_inurba_marseille","lat":43.293259,"lon":5.371586,"is_reserved":false,"is_disabled":false,"rental_uris":{"android":"levelo://app?vid=596c5545-b7f4-4d70-9060-e2d2aef15da8","ios":"levelo://app?vid=596c5545-b7f4-4d70-9060-e2d2aef15da8"},"vehicle_type_id":"4","last_reported":1722442180,"current_range_meters":1200,"station_id":"ce4bgh92rcd13ifvqb40","pricing_plan_id":"cebpf4jnsgd1na2vs0mg"},{"bike_id":"45cb6c97-8c70-41c7-9d2e-0b2ca56c7d09","system_id":"levelo_inurba_marseille","lat":43.293259,"lon":5.371586,"is_reserved":false,"is_disabled":false,"rental_uris":{"android":"levelo://app?vid=45cb6c97-8c70-41c7-9d2e-0b2ca56c7d09","ios":"levelo://app?vid=45cb6c97-8c70-41c7-9d2e-0b2ca56c7d09"},"vehicle_type_id":"4","last_reported":1722442180,"current_range_meters":14000,"station_id":"ce4bgh92rcd13ifvqb40","pricing_plan_id":"cebpf4jnsgd1na2vs0mg"},{"bike_id":"644d0d51-71b3-4c01-9032-588b552e7a8c","system_id":"levelo_inurba_marseille","lat":43.292749,"lon":5.368398,"is_reserved":false,"is_disabled":false,"rental_uris":{"android":"levelo://app?vid=644d0d51-71b3-4c01-9032-588b552e7a8c","ios":"levelo://app?vid=644d0d51-71b3-4c01-9032-588b552e7a8c"},"vehicle_type_id":"4","last_reported":1722442180,"current_range_meters":10000,"station_id":"ce4bhbp2rcd13ifvqesg","pricing_plan_id":"cebpf4jnsgd1na2vs0mg"},{"bike_id":"3b520ccc-1c0c-4dc5-905f-58982edc7e71","system_id":"levelo_inurba_marseille","lat":43.292749,"lon":5.368398,"is_reserved":false,"is_disabled":false,"rental_uris":{"android":"levelo://app?vid=3b520ccc-1c0c-4dc5-905f-58982edc7e71","ios":"levelo://app?vid=3b520ccc-1c0c-4dc5-905f-58982edc7e71"},"vehicle_type_id":"4","last_reported":1722442180,"current_range_meters":27200,"station_id":"ce4bhbp2rcd13ifvqesg","pricing_plan_id":"cebpf4jnsgd1na2vs0mg"},{"bike_id":"474477ff-6608-4528-a0f6-c3857766728c","system_id":"levelo_inurba_marseille","lat":43.292749,"lon":5.368402,"is_reserved":false,"is_disabled":false,"rental_uris":{"android":"levelo://app?vid=474477ff-6608-4528-a0f6-c3857766728c","ios":"levelo://app?vid=474477ff-6608-4528-a0f6-c3857766728c"},"vehicle_type_id":"4","last_reported":1722442180,"current_range_meters":8800,"station_id":"ce4bhbp2rcd13ifvqesg","pricing_plan_id":"cebpf4jnsgd1na2vs0mg"},{"bike_id":"a01e77f4-6a2a-4041-ad58-6d683087af5d","system_id":"levelo_inurba_marseille","lat":43.29306,"lon":5.37177,"is_reserved":false,"is_disabled":false,"rental_uris":{"android":"levelo://app?vid=a01e77f4-6a2a-4041-ad58-6d683087af5d","ios":"levelo://app?vid=a01e77f4-6a2a-4041-ad58-6d683087af5d"},"vehicle_type_id":"4","last_reported":1722442180,"current_range_meters":0,"station_id":"ce4bgh92rcd13ifvqb40","pricing_plan_id":"cebpf4jnsgd1na2vs0mg"},{"bike_id":"04ee86e9-9661-40af-a588-a1dc4c90dcf9","system_id":"levelo_inurba_marseille","lat":43.292749,"lon":5.368398,"is_reserved":false,"is_disabled":false,"rental_uris":{"android":"levelo://app?vid=04ee86e9-9661-40af-a588-a1dc4c90dcf9","ios":"levelo://app?vid=04ee86e9-9661-40af-a588-a1dc4c90dcf9"},"vehicle_type_id":"4","last_reported":1722442180,"current_range_meters":17200,"station_id":"ce4bhbp2rcd13ifvqesg","pricing_plan_id":"cebpf4jnsgd1na2vs0mg"},{"bike_id":"2b2e0607-1ba6-4f4f-ada9-f4dce096f714","system_id":"levelo_inurba_marseille","lat":43.29301,"lon":5.37451,"is_reserved":false,"is_disabled":false,"rental_uris":{"android":"levelo://app?vid=2b2e0607-1ba6-4f4f-ada9-f4dce096f714","ios":"levelo://app?vid=2b2e0607-1ba6-4f4f-ada9-f4dce096f714"},"vehicle_type_id":"4","last_reported":1722442180,"current_range_meters":0,"station_id":"ce4bgi12rcd13ifvqb70","pricing_plan_id":"cebpf4jnsgd1na2vs0mg"},{"bike_id":"a137805f-f298-4956-8f75-061615787b58","system_id":"levelo_inurba_marseille","lat":43.305994,"lon":5.393687,"is_reserved":false,"is_disabled":false,"rental_uris":{"android":"levelo://app?vid=a137805f-f298-4956-8f75-061615787b58","ios":"levelo://app?vid=a137805f-f298-4956-8f75-061615787b58"},"vehicle_type_id":"4","last_reported":1722442180,"current_range_meters":3600,"station_id":"ce4bh0p2rcd13ifvqd80","pricing_plan_id":"cebpf4jnsgd1na2vs0mg"},{"bike_id":"efcb62ba-3799-418d-95a1-d3f1867bf0a7","system_id":"levelo_inurba_marseille","lat":43.303002,"lon":5.392142,"is_reserved":false,"is_disabled":false,"rental_uris":{"android":"levelo://app?vid=efcb62ba-3799-418d-95a1-d3f1867bf0a7","ios":"levelo://app?vid=efcb62ba-3799-418d-95a1-d3f1867bf0a7"},"vehicle_type_id":"4","last_reported":1722442180,"current_range_meters":6800,"station_id":"ce4bgkh2rcd13ifvqbk0","pricing_plan_id":"cebpf4jnsgd1na2vs0mg"},{"bike_id":"6bd9d607-b15b-44a9-9f64-6b8208e36bbc","system_id":"levelo_inurba_marseille","lat":43.30085,"lon":5.390856,"is_reserved":false,"is_disabled":false,"rental_uris":{"android":"levelo://app?vid=6bd9d607-b15b-44a9-9f64-6b8208e36bbc","ios":"levelo://app?vid=6bd9d607-b15b-44a9-9f64-6b8208e36bbc"},"vehicle_type_id":"4","last_reported":1722442180,"current_range_meters":0,"station_id":"ce4bh192rcd13ifvqdb0","pricing_plan_id":"cebpf4jnsgd1na2vs0mg"},{"bike_id":"ddea8746-b009-46e5-914d-92eca391fd7b","system_id":"levelo_inurba_marseille","lat":43.293009,"lon":5.374584,"is_reserved":false,"is_disabled":false,"rental_uris":{"android":"levelo://app?vid=ddea8746-b009-46e5-914d-92eca391fd7b","ios":"levelo://app?vid=ddea8746-b009-46e5-914d-92eca391fd7b"},"vehicle_type_id":"4","last_reported":1722442180,"current_range_meters":10000,"station_id":"ce4bgi12rcd13ifvqb70","pricing_plan_id":"cebpf4jnsgd1na2vs0mg"},{"bike_id":"395eb6d5-f059-4eb7-900f-52405dc9f05b","system_id":"levelo_inurba_marseille","lat":43.292985,"lon":5.377961,"is_reserved":false,"is_disabled":false,"rental_uris":{"android":"levelo://app?vid=395eb6d5-f059-4eb7-900f-52405dc9f05b","ios":"levelo://app?vid=395eb6d5-f059-4eb7-900f-52405dc9f05b"},"vehicle_type_id":"4","last_reported":1722442180,"current_range_meters":1600,"station_id":"","pricing_plan_id":"cebpf4jnsgd1na2vs0mg"},{"bike_id":"b903df8c-5eff-49fb-a8d2-0066d3d36b7d","system_id":"levelo_inurba_marseille","lat":43.29874,"lon":5.38908,"is_reserved":false,"is_disabled":false,"rental_uris":{"android":"levelo://app?vid=b903df8c-5eff-49fb-a8d2-0066d3d36b7d","ios":"levelo://app?vid=b903df8c-5eff-49fb-a8d2-0066d3d36b7d"},"vehicle_type_id":"4","last_reported":1722442180,"current_range_meters":14800,"station_id":"ce4bh392rcd13ifvqdl0","pricing_plan_id":"cebpf4jnsgd1na2vs0mg"},{"bike_id":"8505d372-4d60-4182-982f-1392c23a7034","system_id":"levelo_inurba_marseille","lat":43.29193,"lon":5.35796,"is_reserved":false,"is_disabled":false,"rental_uris":{"android":"levelo://app?vid=8505d372-4d60-4182-982f-1392c23a7034","ios":"levelo://app?vid=8505d372-4d60-4182-982f-1392c23a7034"},"vehicle_type_id":"4","last_reported":1722442180,"current_range_meters":0,"station_id":"ce4bhb12rcd13ifvqel0","pricing_plan_id":"cebpf4jnsgd1na2vs0mg"},{"bike_id":"031dfa2d-cfcf-406c-86cc-dbb90fb7c447","system_id":"levelo_inurba_marseille","lat":43.290779,"lon":5.371482,"is_reserved":false,"is_disabled":false,"rental_uris":{"android":"levelo://app?vid=031dfa2d-cfcf-406c-86cc-dbb90fb7c447","ios":"levelo://app?vid=031dfa2d-cfcf-406c-86cc-dbb90fb7c447"},"vehicle_type_id":"4","last_reported":1722442180,"current_range_meters":0,"station_id":"ce4bh5p2rcd13ifvqe4g","pricing_plan_id":"cebpf4jnsgd1na2vs0mg"},{"bike_id":"eda1422e-49ec-401d-8673-a8963f4ebbbb","system_id":"levelo_inurba_marseille","lat":43.290779,"lon":5.371482,"is_reserved":false,"is_disabled":false,"rental_uris":{"android":"levelo://app?vid=eda1422e-49ec-401d-8673-a8963f4ebbbb","ios":"levelo://app?vid=eda1422e-49ec-401d-8673-a8963f4ebbbb"},"vehicle_type_id":"4","last_reported":1722442180,"current_range_meters":0,"station_id":"ce4bh5p2rcd13ifvqe4g","pricing_plan_id":"cebpf4jnsgd1na2vs0mg"},{"bike_id":"55e6cf5a-d716-4a82-bdf8-491238e2c75b","system_id":"levelo_inurba_marseille","lat":43.290631,"lon":5.359244,"is_reserved":false,"is_disabled":false,"rental_uris":{"android":"levelo://app?vid=55e6cf5a-d716-4a82-bdf8-491238e2c75b","ios":"levelo://app?vid=55e6cf5a-d716-4a82-bdf8-491238e2c75b"},"vehicle_type_id":"4","last_reported":1722442180,"current_range_meters":28000,"station_id":"ce4bha92rcd13ifvqeg0","pricing_plan_id":"cebpf4jnsgd1na2vs0mg"},{"bike_id":"12d00c91-4998-4062-b693-d2bbcf0768e5","system_id":"levelo_inurba_marseille","lat":43.294162,"lon":5.386292,"is_reserved":false,"is_disabled":false,"rental_uris":{"android":"levelo://app?vid=12d00c91-4998-4062-b693-d2bbcf0768e5","ios":"levelo://app?vid=12d00c91-4998-4062-b693-d2bbcf0768e5"},"vehicle_type_id":"4","last_reported":1722442180,"current_range_meters":800,"station_id":"ce4bh2h2rcd13ifvqdh0","pricing_plan_id":"cebpf4jnsgd1na2vs0mg"},{"bike_id":"36a7d7fc-f419-4d71-800b-1d2a39d83cd1","system_id":"levelo_inurba_marseille","lat":43.294153,"lon":5.386305,"is_reserved":false,"is_disabled":false,"rental_uris":{"android":"levelo://app?vid=36a7d7fc-f419-4d71-800b-1d2a39d83cd1","ios":"levelo://app?vid=36a7d7fc-f419-4d71-800b-1d2a39d83cd1"},"vehicle_type_id":"4","last_reported":1722442180,"current_range_meters":0,"station_id":"ce4bh2h2rcd13ifvqdh0","pricing_plan_id":"cebpf4jnsgd1na2vs0mg"},{"bike_id":"3a6ecb16-b5bc-4f30-879c-ee797490430d","system_id":"levelo_inurba_marseille","lat":43.29418,"lon":5.38617,"is_reserved":false,"is_disabled":false,"rental_uris":{"android":"levelo://app?vid=3a6ecb16-b5bc-4f30-879c-ee797490430d","ios":"levelo://app?vid=3a6ecb16-b5bc-4f30-879c-ee797490430d"},"vehicle_type_id":"4","last_reported":1722442180,"current_range_meters":0,"station_id":"ce4bh2h2rcd13ifvqdh0","pricing_plan_id":"cebpf4jnsgd1na2vs0mg"},{"bike_id":"3390b743-af4c-4837-bcdd-1a410fd42e1f","system_id":"levelo_inurba_marseille","lat":43.294162,"lon":5.386292,"is_reserved":false,"is_disabled":false,"rental_uris":{"android":"levelo://app?vid=3390b743-af4c-4837-bcdd-1a410fd42e1f","ios":"levelo://app?vid=3390b743-af4c-4837-bcdd-1a410fd42e1f"},"vehicle_type_id":"4","last_reported":1722442180,"current_range_meters":2000,"station_id":"ce4bh2h2rcd13ifvqdh0","pricing_plan_id":"cebpf4jnsgd1na2vs0mg"},{"bike_id":"d9e966a3-a9eb-4ac0-b4ba-44d90aaebaf4","system_id":"levelo_inurba_marseille","lat":43.294162,"lon":5.386292,"is_reserved":false,"is_disabled":false,"rental_uris":{"android":"levelo://app?vid=d9e966a3-a9eb-4ac0-b4ba-44d90aaebaf4","ios":"levelo://app?vid=d9e966a3-a9eb-4ac0-b4ba-44d90aaebaf4"},"vehicle_type_id":"4","last_reported":1722442180,"current_range_meters":0,"station_id":"ce4bh2h2rcd13ifvqdh0","pricing_plan_id":"cebpf4jnsgd1na2vs0mg"},{"bike_id":"36f0f914-9aee-4e4d-9939-2a1abd1fc542","system_id":"levelo_inurba_marseille","lat":43.289184,"lon":5.366408,"is_reserved":false,"is_disabled":false,"rental_uris":{"android":"levelo://app?vid=36f0f914-9aee-4e4d-9939-2a1abd1fc542","ios":"levelo://app?vid=36f0f914-9aee-4e4d-9939-2a1abd1fc542"},"vehicle_type_id":"4","last_reported":1722442180,"current_range_meters":0,"station_id":"ce4bhap2rcd13ifvqek0","pricing_plan_id":"cebpf4jnsgd1na2vs0mg"},{"bike_id":"7764be90-0811-4484-b2eb-b07a63f0ee49","system_id":"levelo_inurba_marseille","lat":43.289184,"lon":5.366408,"is_reserved":false,"is_disabled":false,"rental_uris":{"android":"levelo://app?vid=7764be90-0811-4484-b2eb-b07a63f0ee49","ios":"levelo://app?vid=7764be90-0811-4484-b2eb-b07a63f0ee49"},"vehicle_type_id":"4","last_reported":1722442180,"current_range_meters":0,"station_id":"ce4bhap2rcd13ifvqek0","pricing_plan_id":"cebpf4jnsgd1na2vs0mg"},{"bike_id":"063cc5a3-c7a0-4b2b-a9b2-0be7d71ce82c","system_id":"levelo_inurba_marseille","lat":43.289468,"lon":5.363719,"is_reserved":false,"is_disabled":false,"rental_uris":{"android":"levelo://app?vid=063cc5a3-c7a0-4b2b-a9b2-0be7d71ce82c","ios":"levelo://app?vid=063cc5a3-c7a0-4b2b-a9b2-0be7d71ce82c"},"vehicle_type_id":"4","last_reported":1722442180,"current_range_meters":3600,"station_id":"ce4bhc92rcd13ifvqetg","pricing_plan_id":"cebpf4jnsgd1na2vs0mg"},{"bike_id":"a3a5c03a-b8a5-4577-ac2a-7421f619eaba","system_id":"levelo_inurba_marseille","lat":43.289468,"lon":5.363719,"is_reserved":false,"is_disabled":false,"rental_uris":{"android":"levelo://app?vid=a3a5c03a-b8a5-4577-ac2a-7421f619eaba","ios":"levelo://app?vid=a3a5c03a-b8a5-4577-ac2a-7421f619eaba"},"vehicle_type_id":"4","last_reported":1722442180,"current_range_meters":14800,"station_id":"ce4bhc92rcd13ifvqetg","pricing_plan_id":"cebpf4jnsgd1na2vs0mg"},{"bike_id":"14f54a5c-56bb-461a-aa1b-6747d6a2ef37","system_id":"levelo_inurba_marseille","lat":43.289468,"lon":5.363719,"is_reserved":false,"is_disabled":false,"rental_uris":{"android":"levelo://app?vid=14f54a5c-56bb-461a-aa1b-6747d6a2ef37","ios":"levelo://app?vid=14f54a5c-56bb-461a-aa1b-6747d6a2ef37"},"vehicle_type_id":"4","last_reported":1722442180,"current_range_meters":6400,"station_id":"ce4bhc92rcd13ifvqetg","pricing_plan_id":"cebpf4jnsgd1na2vs0mg"},{"bike_id":"7713ea03-f0d2-4d76-b9fb-ce3cfb896fd9","system_id":"levelo_inurba_marseille","lat":43.304296,"lon":5.397513,"is_reserved":false,"is_disabled":false,"rental_uris":{"android":"levelo://app?vid=7713ea03-f0d2-4d76-b9fb-ce3cfb896fd9","ios":"levelo://app?vid=7713ea03-f0d2-4d76-b9fb-ce3cfb896fd9"},"vehicle_type_id":"4","last_reported":1722442180,"current_range_meters":0,"station_id":"ce4bh092rcd13ifvqd20","pricing_plan_id":"cebpf4jnsgd1na2vs0mg"},{"bike_id":"66bdb7e6-7e4c-4433-9b15-bfae9b66c800","system_id":"levelo_inurba_marseille","lat":43.29269,"lon":5.38439,"is_reserved":false,"is_disabled":false,"rental_uris":{"android":"levelo://app?vid=66bdb7e6-7e4c-4433-9b15-bfae9b66c800","ios":"levelo://app?vid=66bdb7e6-7e4c-4433-9b15-bfae9b66c800"},"vehicle_type_id":"4","last_reported":1722442180,"current_range_meters":16000,"station_id":"ce4bh692rcd13ifvqea0","pricing_plan_id":"cebpf4jnsgd1na2vs0mg"},{"bike_id":"101724f9-3c8f-4b82-9157-279e19d72690","system_id":"levelo_inurba_marseille","lat":43.292643,"lon":5.384438,"is_reserved":false,"is_disabled":false,"rental_uris":{"android":"levelo://app?vid=101724f9-3c8f-4b82-9157-279e19d72690","ios":"levelo://app?vid=101724f9-3c8f-4b82-9157-279e19d72690"},"vehicle_type_id":"4","last_reported":1722442180,"current_range_meters":0,"station_id":"ce4bh692rcd13ifvqea0","pricing_plan_id":"cebpf4jnsgd1na2vs0mg"},{"bike_id":"e27d4ad7-0eaa-4ba5-9841-28af4cbbbdb5","system_id":"levelo_inurba_marseille","lat":43.29264,"lon":5.38451,"is_reserved":false,"is_disabled":false,"rental_uris":{"android":"levelo://app?vid=e27d4ad7-0eaa-4ba5-9841-28af4cbbbdb5","ios":"levelo://app?vid=e27d4ad7-0eaa-4ba5-9841-28af4cbbbdb5"},"vehicle_type_id":"4","last_reported":1722442180,"current_range_meters":16000,"station_id":"ce4bh692rcd13ifvqea0","pricing_plan_id":"cebpf4jnsgd1na2vs0mg"},{"bike_id":"0467bea7-366b-48a2-ad04-36fe05914c9a","system_id":"levelo_inurba_marseille","lat":43.29258,"lon":5.38451,"is_reserved":false,"is_disabled":false,"rental_uris":{"android":"levelo://app?vid=0467bea7-366b-48a2-ad04-36fe05914c9a","ios":"levelo://app?vid=0467bea7-366b-48a2-ad04-36fe05914c9a"},"vehicle_type_id":"4","last_reported":1722442180,"current_range_meters":0,"station_id":"ce4bh692rcd13ifvqea0","pricing_plan_id":"cebpf4jnsgd1na2vs0mg"},{"bike_id":"c63b14a2-51ab-4776-99ae-513412d52b1f","system_id":"levelo_inurba_marseille","lat":43.290103,"lon":5.356114,"is_reserved":false,"is_disabled":false,"rental_uris":{"android":"levelo://app?vid=c63b14a2-51ab-4776-99ae-513412d52b1f","ios":"levelo://app?vid=c63b14a2-51ab-4776-99ae-513412d52b1f"},"vehicle_type_id":"4","last_reported":1722442180,"current_range_meters":0,"station_id":"ce4bhb92rcd13ifvqen0","pricing_plan_id":"cebpf4jnsgd1na2vs0mg"},{"bike_id":"bbce7a38-4ed4-46f5-a8e4-aa030e3a530d","system_id":"levelo_inurba_marseille","lat":43.29008,"lon":5.35614,"is_reserved":false,"is_disabled":false,"rental_uris":{"android":"levelo://app?vid=bbce7a38-4ed4-46f5-a8e4-aa030e3a530d","ios":"levelo://app?vid=bbce7a38-4ed4-46f5-a8e4-aa030e3a530d"},"vehicle_type_id":"4","last_reported":1722442180,"current_range_meters":0,"station_id":"ce4bhb92rcd13ifvqen0","pricing_plan_id":"cebpf4jnsgd1na2vs0mg"},{"bike_id":"c228237a-53da-46ae-87bc-546986bcbdb3","system_id":"levelo_inurba_marseille","lat":43.290104,"lon":5.356111,"is_reserved":false,"is_disabled":false,"rental_uris":{"android":"levelo://app?vid=c228237a-53da-46ae-87bc-546986bcbdb3","ios":"levelo://app?vid=c228237a-53da-46ae-87bc-546986bcbdb3"},"vehicle_type_id":"4","last_reported":1722442180,"current_range_meters":0,"station_id":"ce4bhb92rcd13ifvqen0","pricing_plan_id":"cebpf4jnsgd1na2vs0mg"},{"bike_id":"576a6820-1b5c-4e21-94e1-187e6c55d043","system_id":"levelo_inurba_marseille","lat":43.290036,"lon":5.356199,"is_reserved":false,"is_disabled":false,"rental_uris":{"android":"levelo://app?vid=576a6820-1b5c-4e21-94e1-187e6c55d043","ios":"levelo://app?vid=576a6820-1b5c-4e21-94e1-187e6c55d043"},"vehicle_type_id":"4","last_reported":1722442180,"current_range_meters":18800,"station_id":"ce4bh5p2rcd13ifvqe4g","pricing_plan_id":"cebpf4jnsgd1na2vs0mg"},{"bike_id":"f90cf64b-2f12-47ac-9c5f-f295fc6cd849","system_id":"levelo_inurba_marseille","lat":43.290033,"lon":5.356087,"is_reserved":false,"is_disabled":false,"rental_uris":{"android":"levelo://app?vid=f90cf64b-2f12-47ac-9c5f-f295fc6cd849","ios":"levelo://app?vid=f90cf64b-2f12-47ac-9c5f-f295fc6cd849"},"vehicle_type_id":"4","last_reported":1722442180,"current_range_meters":0,"station_id":"ce4bhb92rcd13ifvqen0","pricing_plan_id":"cebpf4jnsgd1na2vs0mg"},{"bike_id":"d739fd56-52a8-43b8-b762-eed8c9d8fc92","system_id":"levelo_inurba_marseille","lat":43.290084,"lon":5.355863,"is_reserved":false,"is_disabled":false,"rental_uris":{"android":"levelo://app?vid=d739fd56-52a8-43b8-b762-eed8c9d8fc92","ios":"levelo://app?vid=d739fd56-52a8-43b8-b762-eed8c9d8fc92"},"vehicle_type_id":"4","last_reported":1722442180,"current_range_meters":10400,"station_id":"","pricing_plan_id":"cebpf4jnsgd1na2vs0mg"},{"bike_id":"bb41332c-c071-403d-b956-952b627b7bb3","system_id":"levelo_inurba_marseille","lat":43.290995,"lon":5.381361,"is_reserved":false,"is_disabled":false,"rental_uris":{"android":"levelo://app?vid=bb41332c-c071-403d-b956-952b627b7bb3","ios":"levelo://app?vid=bb41332c-c071-403d-b956-952b627b7bb3"},"vehicle_type_id":"4","last_reported":1722442180,"current_range_meters":23200,"station_id":"ce4bh512rcd13ifvqe2g","pricing_plan_id":"cebpf4jnsgd1na2vs0mg"},{"bike_id":"c5a65250-1912-4fb6-9547-5adf03224a12","system_id":"levelo_inurba_marseille","lat":43.290995,"lon":5.381361,"is_reserved":false,"is_disabled":false,"rental_uris":{"android":"levelo://app?vid=c5a65250-1912-4fb6-9547-5adf03224a12","ios":"levelo://app?vid=c5a65250-1912-4fb6-9547-5adf03224a12"},"vehicle_type_id":"4","last_reported":1722442180,"current_range_meters":3600,"station_id":"ce4bh512rcd13ifvqe2g","pricing_plan_id":"cebpf4jnsgd1na2vs0mg"},{"bike_id":"3d4483cd-8d03-4260-9fee-3d79d270eea1","system_id":"levelo_inurba_marseille","lat":43.290995,"lon":5.381361,"is_reserved":false,"is_disabled":false,"rental_uris":{"android":"levelo://app?vid=3d4483cd-8d03-4260-9fee-3d79d270eea1","ios":"levelo://app?vid=3d4483cd-8d03-4260-9fee-3d79d270eea1"},"vehicle_type_id":"4","last_reported":1722442180,"current_range_meters":0,"station_id":"ce4bh512rcd13ifvqe2g","pricing_plan_id":"cebpf4jnsgd1na2vs0mg"},{"bike_id":"27a72051-3960-4f0a-9258-2fb0d9b194ea","system_id":"levelo_inurba_marseille","lat":43.286591,"lon":5.363346,"is_reserved":false,"is_disabled":false,"rental_uris":{"android":"levelo://app?vid=27a72051-3960-4f0a-9258-2fb0d9b194ea","ios":"levelo://app?vid=27a72051-3960-4f0a-9258-2fb0d9b194ea"},"vehicle_type_id":"4","last_reported":1722442180,"current_range_meters":400,"station_id":"ce4bhah2rcd13ifvqej0","pricing_plan_id":"cebpf4jnsgd1na2vs0mg"},{"bike_id":"30cf8790-cf92-4868-a5f3-deeb4ef05497","system_id":"levelo_inurba_marseille","lat":43.295169,"lon":5.390426,"is_reserved":false,"is_disabled":false,"rental_uris":{"android":"levelo://app?vid=30cf8790-cf92-4868-a5f3-deeb4ef05497","ios":"levelo://app?vid=30cf8790-cf92-4868-a5f3-deeb4ef05497"},"vehicle_type_id":"4","last_reported":1722442180,"current_range_meters":0,"station_id":"ce4bh3p2rcd13ifvqdp0","pricing_plan_id":"cebpf4jnsgd1na2vs0mg"},{"bike_id":"f0254204-437b-41d4-bcf6-9028dce79146","system_id":"levelo_inurba_marseille","lat":43.295169,"lon":5.390426,"is_reserved":false,"is_disabled":false,"rental_uris":{"android":"levelo://app?vid=f0254204-437b-41d4-bcf6-9028dce79146","ios":"levelo://app?vid=f0254204-437b-41d4-bcf6-9028dce79146"},"vehicle_type_id":"4","last_reported":1722442180,"current_range_meters":0,"station_id":"ce4bh3p2rcd13ifvqdp0","pricing_plan_id":"cebpf4jnsgd1na2vs0mg"},{"bike_id":"8d0dd534-d43e-42cd-8053-69dfa1f3f75d","system_id":"levelo_inurba_marseille","lat":43.330442,"lon":5.389148,"is_reserved":false,"is_disabled":false,"rental_uris":{"android":"levelo://app?vid=8d0dd534-d43e-42cd-8053-69dfa1f3f75d","ios":"levelo://app?vid=8d0dd534-d43e-42cd-8053-69dfa1f3f75d"},"vehicle_type_id":"4","last_reported":1722442180,"current_range_meters":28000,"station_id":"ce4bhr92rcd13ifvqhrg","pricing_plan_id":"cebpf4jnsgd1na2vs0mg"},{"bike_id":"5ad91361-d379-4f60-a7b8-52602091d978","system_id":"levelo_inurba_marseille","lat":43.330442,"lon":5.389148,"is_reserved":false,"is_disabled":false,"rental_uris":{"android":"levelo://app?vid=5ad91361-d379-4f60-a7b8-52602091d978","ios":"levelo://app?vid=5ad91361-d379-4f60-a7b8-52602091d978"},"vehicle_type_id":"4","last_reported":1722442180,"current_range_meters":0,"station_id":"ce4bhr92rcd13ifvqhrg","pricing_plan_id":"cebpf4jnsgd1na2vs0mg"},{"bike_id":"f2a42f70-8cbd-4f01-b840-940342616de7","system_id":"levelo_inurba_marseille","lat":43.29026,"lon":5.38122,"is_reserved":false,"is_disabled":false,"rental_uris":{"android":"levelo://app?vid=f2a42f70-8cbd-4f01-b840-940342616de7","ios":"levelo://app?vid=f2a42f70-8cbd-4f01-b840-940342616de7"},"vehicle_type_id":"4","last_reported":1722442180,"current_range_meters":0,"station_id":"ce4bh4p2rcd13ifvqe1g","pricing_plan_id":"cebpf4jnsgd1na2vs0mg"},{"bike_id":"f4cdf6f8-59cc-4926-bbd3-bf830cd7e7b6","system_id":"levelo_inurba_marseille","lat":43.2901,"lon":5.381269,"is_reserved":false,"is_disabled":false,"rental_uris":{"android":"levelo://app?vid=f4cdf6f8-59cc-4926-bbd3-bf830cd7e7b6","ios":"levelo://app?vid=f4cdf6f8-59cc-4926-bbd3-bf830cd7e7b6"},"vehicle_type_id":"4","last_reported":1722442180,"current_range_meters":29200,"station_id":"ce4bh4p2rcd13ifvqe1g","pricing_plan_id":"cebpf4jnsgd1na2vs0mg"},{"bike_id":"bea9c8b8-7fd1-4800-a918-aa2501ec15a2","system_id":"levelo_inurba_marseille","lat":43.2901,"lon":5.381269,"is_reserved":false,"is_disabled":false,"rental_uris":{"android":"levelo://app?vid=bea9c8b8-7fd1-4800-a918-aa2501ec15a2","ios":"levelo://app?vid=bea9c8b8-7fd1-4800-a918-aa2501ec15a2"},"vehicle_type_id":"4","last_reported":1722442180,"current_range_meters":20800,"station_id":"ce4bh4p2rcd13ifvqe1g","pricing_plan_id":"cebpf4jnsgd1na2vs0mg"},{"bike_id":"16286206-9df4-4693-8537-4583cf6496c1","system_id":"levelo_inurba_marseille","lat":43.28856,"lon":5.358371,"is_reserved":false,"is_disabled":false,"rental_uris":{"android":"levelo://app?vid=16286206-9df4-4693-8537-4583cf6496c1","ios":"levelo://app?vid=16286206-9df4-4693-8537-4583cf6496c1"},"vehicle_type_id":"4","last_reported":1722442180,"current_range_meters":30000,"station_id":"ce4bhb12rcd13ifvqem0","pricing_plan_id":"cebpf4jnsgd1na2vs0mg"},{"bike_id":"7e09ab31-9d51-45ae-9962-ec753f779d92","system_id":"levelo_inurba_marseille","lat":43.28849,"lon":5.35843,"is_reserved":false,"is_disabled":false,"rental_uris":{"android":"levelo://app?vid=7e09ab31-9d51-45ae-9962-ec753f779d92","ios":"levelo://app?vid=7e09ab31-9d51-45ae-9962-ec753f779d92"},"vehicle_type_id":"4","last_reported":1722442180,"current_range_meters":0,"station_id":"ce4bhb12rcd13ifvqem0","pricing_plan_id":"cebpf4jnsgd1na2vs0mg"},{"bike_id":"0f6976bd-8e26-4c21-ab31-b7f33eac17ee","system_id":"levelo_inurba_marseille","lat":43.337324,"lon":5.374524,"is_reserved":false,"is_disabled":false,"rental_uris":{"android":"levelo://app?vid=0f6976bd-8e26-4c21-ab31-b7f33eac17ee","ios":"levelo://app?vid=0f6976bd-8e26-4c21-ab31-b7f33eac17ee"},"vehicle_type_id":"4","last_reported":1722442180,"current_range_meters":30800,"station_id":"","pricing_plan_id":"cebpf4jnsgd1na2vs0mg"},{"bike_id":"9b17ad66-2645-4c85-8f88-7da4b78c8160","system_id":"levelo_inurba_marseille","lat":43.312609,"lon":5.401662,"is_reserved":false,"is_disabled":false,"rental_uris":{"android":"levelo://app?vid=9b17ad66-2645-4c85-8f88-7da4b78c8160","ios":"levelo://app?vid=9b17ad66-2645-4c85-8f88-7da4b78c8160"},"vehicle_type_id":"4","last_reported":1722442180,"current_range_meters":14000,"station_id":"ce4bh092rcd13ifvqd30","pricing_plan_id":"cebpf4jnsgd1na2vs0mg"},{"bike_id":"8dd11866-5e19-48f9-9fee-ebac73d75f4e","system_id":"levelo_inurba_marseille","lat":43.312609,"lon":5.401662,"is_reserved":false,"is_disabled":false,"rental_uris":{"android":"levelo://app?vid=8dd11866-5e19-48f9-9fee-ebac73d75f4e","ios":"levelo://app?vid=8dd11866-5e19-48f9-9fee-ebac73d75f4e"},"vehicle_type_id":"4","last_reported":1722442180,"current_range_meters":26800,"station_id":"ce4bh092rcd13ifvqd30","pricing_plan_id":"cebpf4jnsgd1na2vs0mg"},{"bike_id":"138878dc-c6dd-4b56-98c6-bfeadab68379","system_id":"levelo_inurba_marseille","lat":43.312609,"lon":5.401662,"is_reserved":false,"is_disabled":false,"rental_uris":{"android":"levelo://app?vid=138878dc-c6dd-4b56-98c6-bfeadab68379","ios":"levelo://app?vid=138878dc-c6dd-4b56-98c6-bfeadab68379"},"vehicle_type_id":"4","last_reported":1722442180,"current_range_meters":28000,"station_id":"ce4bh092rcd13ifvqd30","pricing_plan_id":"cebpf4jnsgd1na2vs0mg"},{"bike_id":"6f044633-3688-4e83-af67-cf3db97c1cc7","system_id":"levelo_inurba_marseille","lat":43.337444,"lon":5.374475,"is_reserved":false,"is_disabled":false,"rental_uris":{"android":"levelo://app?vid=6f044633-3688-4e83-af67-cf3db97c1cc7","ios":"levelo://app?vid=6f044633-3688-4e83-af67-cf3db97c1cc7"},"vehicle_type_id":"3","last_reported":1722442180,"current_range_meters":24800,"station_id":"","pricing_plan_id":"cebpf4jnsgd1na2vs0mg"},{"bike_id":"fd6976f5-61df-472b-b205-ecfdaea69653","system_id":"levelo_inurba_marseille","lat":43.309371,"lon":5.401449,"is_reserved":false,"is_disabled":false,"rental_uris":{"android":"levelo://app?vid=fd6976f5-61df-472b-b205-ecfdaea69653","ios":"levelo://app?vid=fd6976f5-61df-472b-b205-ecfdaea69653"},"vehicle_type_id":"4","last_reported":1722442180,"current_range_meters":11200,"station_id":"ce4bgvp2rcd13ifvqct0","pricing_plan_id":"cebpf4jnsgd1na2vs0mg"},{"bike_id":"60fa2a86-282d-415f-a914-eab6d8a61d87","system_id":"levelo_inurba_marseille","lat":43.312609,"lon":5.401662,"is_reserved":false,"is_disabled":false,"rental_uris":{"android":"levelo://app?vid=60fa2a86-282d-415f-a914-eab6d8a61d87","ios":"levelo://app?vid=60fa2a86-282d-415f-a914-eab6d8a61d87"},"vehicle_type_id":"4","last_reported":1722442180,"current_range_meters":16400,"station_id":"ce4bh092rcd13ifvqd30","pricing_plan_id":"cebpf4jnsgd1na2vs0mg"},{"bike_id":"e1397fd5-9e0e-4620-ae7e-c8bb915975dc","system_id":"levelo_inurba_marseille","lat":43.309371,"lon":5.401449,"is_reserved":false,"is_disabled":false,"rental_uris":{"android":"levelo://app?vid=e1397fd5-9e0e-4620-ae7e-c8bb915975dc","ios":"levelo://app?vid=e1397fd5-9e0e-4620-ae7e-c8bb915975dc"},"vehicle_type_id":"4","last_reported":1722442180,"current_range_meters":2400,"station_id":"ce4bgvp2rcd13ifvqct0","pricing_plan_id":"cebpf4jnsgd1na2vs0mg"},{"bike_id":"420e807a-e148-486f-9154-391d8ec7addf","system_id":"levelo_inurba_marseille","lat":43.337633,"lon":5.374711,"is_reserved":false,"is_disabled":false,"rental_uris":{"android":"levelo://app?vid=420e807a-e148-486f-9154-391d8ec7addf","ios":"levelo://app?vid=420e807a-e148-486f-9154-391d8ec7addf"},"vehicle_type_id":"4","last_reported":1722442180,"current_range_meters":28000,"station_id":"","pricing_plan_id":"cebpf4jnsgd1na2vs0mg"},{"bike_id":"6a003749-a96c-422c-9add-cb6de30370ec","system_id":"levelo_inurba_marseille","lat":43.301117,"lon":5.398795,"is_reserved":false,"is_disabled":false,"rental_uris":{"android":"levelo://app?vid=6a003749-a96c-422c-9add-cb6de30370ec","ios":"levelo://app?vid=6a003749-a96c-422c-9add-cb6de30370ec"},"vehicle_type_id":"4","last_reported":1722442180,"current_range_meters":0,"station_id":"ce4bh0h2rcd13ifvqd40","pricing_plan_id":"cebpf4jnsgd1na2vs0mg"},{"bike_id":"87e0dace-ee20-476c-bbbe-525c47ef4252","system_id":"levelo_inurba_marseille","lat":43.301394,"lon":5.398552,"is_reserved":false,"is_disabled":false,"rental_uris":{"android":"levelo://app?vid=87e0dace-ee20-476c-bbbe-525c47ef4252","ios":"levelo://app?vid=87e0dace-ee20-476c-bbbe-525c47ef4252"},"vehicle_type_id":"4","last_reported":1722442180,"current_range_meters":0,"station_id":"ce4bh0h2rcd13ifvqd40","pricing_plan_id":"cebpf4jnsgd1na2vs0mg"},{"bike_id":"156007a8-afbb-433c-81fa-1af98deaec0d","system_id":"levelo_inurba_marseille","lat":43.301117,"lon":5.398795,"is_reserved":false,"is_disabled":false,"rental_uris":{"android":"levelo://app?vid=156007a8-afbb-433c-81fa-1af98deaec0d","ios":"levelo://app?vid=156007a8-afbb-433c-81fa-1af98deaec0d"},"vehicle_type_id":"4","last_reported":1722442180,"current_range_meters":10000,"station_id":"ce4bh0h2rcd13ifvqd40","pricing_plan_id":"cebpf4jnsgd1na2vs0mg"},{"bike_id":"063e1ddb-b940-4e3b-bc1e-fe1c53c6d4cf","system_id":"levelo_inurba_marseille","lat":43.28727,"lon":5.36078,"is_reserved":false,"is_disabled":false,"rental_uris":{"android":"levelo://app?vid=063e1ddb-b940-4e3b-bc1e-fe1c53c6d4cf","ios":"levelo://app?vid=063e1ddb-b940-4e3b-bc1e-fe1c53c6d4cf"},"vehicle_type_id":"4","last_reported":1722442180,"current_range_meters":4000,"station_id":"cki0cbj6b192h4jlfktg","pricing_plan_id":"cebpf4jnsgd1na2vs0mg"},{"bike_id":"e5fbb9e7-7ffb-4707-8b29-9e072337a4d8","system_id":"levelo_inurba_marseille","lat":43.28727,"lon":5.36078,"is_reserved":false,"is_disabled":false,"rental_uris":{"android":"levelo://app?vid=e5fbb9e7-7ffb-4707-8b29-9e072337a4d8","ios":"levelo://app?vid=e5fbb9e7-7ffb-4707-8b29-9e072337a4d8"},"vehicle_type_id":"4","last_reported":1722442180,"current_range_meters":22400,"station_id":"cki0cbj6b192h4jlfktg","pricing_plan_id":"cebpf4jnsgd1na2vs0mg"},{"bike_id":"3b8aef9d-b072-4b66-8881-7e53fa8fb0a8","system_id":"levelo_inurba_marseille","lat":43.28727,"lon":5.36078,"is_reserved":false,"is_disabled":false,"rental_uris":{"android":"levelo://app?vid=3b8aef9d-b072-4b66-8881-7e53fa8fb0a8","ios":"levelo://app?vid=3b8aef9d-b072-4b66-8881-7e53fa8fb0a8"},"vehicle_type_id":"4","last_reported":1722442180,"current_range_meters":3200,"station_id":"cki0cbj6b192h4jlfktg","pricing_plan_id":"cebpf4jnsgd1na2vs0mg"},{"bike_id":"43114fc2-c0b4-45b8-afad-5a52c01de3ef","system_id":"levelo_inurba_marseille","lat":43.286591,"lon":5.363346,"is_reserved":false,"is_disabled":false,"rental_uris":{"android":"levelo://app?vid=43114fc2-c0b4-45b8-afad-5a52c01de3ef","ios":"levelo://app?vid=43114fc2-c0b4-45b8-afad-5a52c01de3ef"},"vehicle_type_id":"4","last_reported":1722442180,"current_range_meters":4400,"station_id":"ce4bhah2rcd13ifvqej0","pricing_plan_id":"cebpf4jnsgd1na2vs0mg"},{"bike_id":"232f5ae4-c404-423e-9f4c-b81f7adfa0cd","system_id":"levelo_inurba_marseille","lat":43.286591,"lon":5.363346,"is_reserved":false,"is_disabled":false,"rental_uris":{"android":"levelo://app?vid=232f5ae4-c404-423e-9f4c-b81f7adfa0cd","ios":"levelo://app?vid=232f5ae4-c404-423e-9f4c-b81f7adfa0cd"},"vehicle_type_id":"4","last_reported":1722442180,"current_range_meters":4000,"station_id":"ce4bhah2rcd13ifvqej0","pricing_plan_id":"cebpf4jnsgd1na2vs0mg"},{"bike_id":"59f2608c-adca-4c04-b2e2-66122a228b37","system_id":"levelo_inurba_marseille","lat":43.286591,"lon":5.363346,"is_reserved":false,"is_disabled":false,"rental_uris":{"android":"levelo://app?vid=59f2608c-adca-4c04-b2e2-66122a228b37","ios":"levelo://app?vid=59f2608c-adca-4c04-b2e2-66122a228b37"},"vehicle_type_id":"4","last_reported":1722442180,"current_range_meters":7600,"station_id":"ce4bhah2rcd13ifvqej0","pricing_plan_id":"cebpf4jnsgd1na2vs0mg"},{"bike_id":"d9b24f1e-6af1-490d-917c-df592174da4b","system_id":"levelo_inurba_marseille","lat":43.286591,"lon":5.363346,"is_reserved":false,"is_disabled":false,"rental_uris":{"android":"levelo://app?vid=d9b24f1e-6af1-490d-917c-df592174da4b","ios":"levelo://app?vid=d9b24f1e-6af1-490d-917c-df592174da4b"},"vehicle_type_id":"4","last_reported":1722442180,"current_range_meters":0,"station_id":"ce4bhah2rcd13ifvqej0","pricing_plan_id":"cebpf4jnsgd1na2vs0mg"},{"bike_id":"afff0cce-4589-4222-b845-e569ea1ab8d1","system_id":"levelo_inurba_marseille","lat":43.286591,"lon":5.363346,"is_reserved":false,"is_disabled":false,"rental_uris":{"android":"levelo://app?vid=afff0cce-4589-4222-b845-e569ea1ab8d1","ios":"levelo://app?vid=afff0cce-4589-4222-b845-e569ea1ab8d1"},"vehicle_type_id":"4","last_reported":1722442180,"current_range_meters":27600,"station_id":"ce4bhah2rcd13ifvqej0","pricing_plan_id":"cebpf4jnsgd1na2vs0mg"},{"bike_id":"04d20dd7-9ac3-4ea0-825e-51b2fe6b16e1","system_id":"levelo_inurba_marseille","lat":43.286591,"lon":5.363346,"is_reserved":false,"is_disabled":false,"rental_uris":{"android":"levelo://app?vid=04d20dd7-9ac3-4ea0-825e-51b2fe6b16e1","ios":"levelo://app?vid=04d20dd7-9ac3-4ea0-825e-51b2fe6b16e1"},"vehicle_type_id":"4","last_reported":1722442180,"current_range_meters":10400,"station_id":"ce4bhah2rcd13ifvqej0","pricing_plan_id":"cebpf4jnsgd1na2vs0mg"},{"bike_id":"1a31ff3d-b6f2-4b75-9f71-9c9c18202493","system_id":"levelo_inurba_marseille","lat":43.286591,"lon":5.363346,"is_reserved":false,"is_disabled":false,"rental_uris":{"android":"levelo://app?vid=1a31ff3d-b6f2-4b75-9f71-9c9c18202493","ios":"levelo://app?vid=1a31ff3d-b6f2-4b75-9f71-9c9c18202493"},"vehicle_type_id":"4","last_reported":1722442180,"current_range_meters":7200,"station_id":"ce4bhah2rcd13ifvqej0","pricing_plan_id":"cebpf4jnsgd1na2vs0mg"},{"bike_id":"23436c75-3e9d-4925-8f31-19f0f314c065","system_id":"levelo_inurba_marseille","lat":43.286593,"lon":5.363346,"is_reserved":false,"is_disabled":false,"rental_uris":{"android":"levelo://app?vid=23436c75-3e9d-4925-8f31-19f0f314c065","ios":"levelo://app?vid=23436c75-3e9d-4925-8f31-19f0f314c065"},"vehicle_type_id":"4","last_reported":1722442180,"current_range_meters":10400,"station_id":"ce4bhah2rcd13ifvqej0","pricing_plan_id":"cebpf4jnsgd1na2vs0mg"},{"bike_id":"84b72cde-337d-4be1-ba3e-379377254de3","system_id":"levelo_inurba_marseille","lat":43.286593,"lon":5.363346,"is_reserved":false,"is_disabled":false,"rental_uris":{"android":"levelo://app?vid=84b72cde-337d-4be1-ba3e-379377254de3","ios":"levelo://app?vid=84b72cde-337d-4be1-ba3e-379377254de3"},"vehicle_type_id":"4","last_reported":1722442180,"current_range_meters":19200,"station_id":"ce4bhah2rcd13ifvqej0","pricing_plan_id":"cebpf4jnsgd1na2vs0mg"},{"bike_id":"91b1c641-75f3-4813-83c5-3bd467db03f0","system_id":"levelo_inurba_marseille","lat":43.28659,"lon":5.36352,"is_reserved":false,"is_disabled":false,"rental_uris":{"android":"levelo://app?vid=91b1c641-75f3-4813-83c5-3bd467db03f0","ios":"levelo://app?vid=91b1c641-75f3-4813-83c5-3bd467db03f0"},"vehicle_type_id":"4","last_reported":1722442180,"current_range_meters":8800,"station_id":"ce4bhah2rcd13ifvqej0","pricing_plan_id":"cebpf4jnsgd1na2vs0mg"},{"bike_id":"1a91a567-c0ab-4516-b639-88192e360457","system_id":"levelo_inurba_marseille","lat":43.289307,"lon":5.38406,"is_reserved":false,"is_disabled":false,"rental_uris":{"android":"levelo://app?vid=1a91a567-c0ab-4516-b639-88192e360457","ios":"levelo://app?vid=1a91a567-c0ab-4516-b639-88192e360457"},"vehicle_type_id":"4","last_reported":1722442180,"current_range_meters":30400,"station_id":"ce4bh612rcd13ifvqe6g","pricing_plan_id":"cebpf4jnsgd1na2vs0mg"},{"bike_id":"fe277d2b-db28-4634-8eb6-ee6e0d75f6fc","system_id":"levelo_inurba_marseille","lat":43.290336,"lon":5.386425,"is_reserved":false,"is_disabled":false,"rental_uris":{"android":"levelo://app?vid=fe277d2b-db28-4634-8eb6-ee6e0d75f6fc","ios":"levelo://app?vid=fe277d2b-db28-4634-8eb6-ee6e0d75f6fc"},"vehicle_type_id":"4","last_reported":1722442180,"current_range_meters":12800,"station_id":"ce4bh4p2rcd13ifvqe0g","pricing_plan_id":"cebpf4jnsgd1na2vs0mg"},{"bike_id":"0e48be36-8147-43b6-a40d-1f9fe681831e","system_id":"levelo_inurba_marseille","lat":43.302759,"lon":5.400793,"is_reserved":false,"is_disabled":false,"rental_uris":{"android":"levelo://app?vid=0e48be36-8147-43b6-a40d-1f9fe681831e","ios":"levelo://app?vid=0e48be36-8147-43b6-a40d-1f9fe681831e"},"vehicle_type_id":"4","last_reported":1722442180,"current_range_meters":0,"station_id":"ce4bgvh2rcd13ifvqcs0","pricing_plan_id":"cebpf4jnsgd1na2vs0mg"},{"bike_id":"f5014981-7930-4f5c-b72d-04e1780a92b9","system_id":"levelo_inurba_marseille","lat":43.29027,"lon":5.38654,"is_reserved":false,"is_disabled":false,"rental_uris":{"android":"levelo://app?vid=f5014981-7930-4f5c-b72d-04e1780a92b9","ios":"levelo://app?vid=f5014981-7930-4f5c-b72d-04e1780a92b9"},"vehicle_type_id":"4","last_reported":1722442180,"current_range_meters":0,"station_id":"ce4bh4p2rcd13ifvqe0g","pricing_plan_id":"cebpf4jnsgd1na2vs0mg"},{"bike_id":"077a5cca-875f-4f4d-abc5-2b0478a724a2","system_id":"levelo_inurba_marseille","lat":43.316828,"lon":5.404723,"is_reserved":false,"is_disabled":false,"rental_uris":{"android":"levelo://app?vid=077a5cca-875f-4f4d-abc5-2b0478a724a2","ios":"levelo://app?vid=077a5cca-875f-4f4d-abc5-2b0478a724a2"},"vehicle_type_id":"4","last_reported":1722442180,"current_range_meters":0,"station_id":"ce4bh012rcd13ifvqd00","pricing_plan_id":"cebpf4jnsgd1na2vs0mg"},{"bike_id":"3a17a34b-1e45-4466-997f-d1dd5ebd94e2","system_id":"levelo_inurba_marseille","lat":43.291994,"lon":5.392907,"is_reserved":false,"is_disabled":false,"rental_uris":{"android":"levelo://app?vid=3a17a34b-1e45-4466-997f-d1dd5ebd94e2","ios":"levelo://app?vid=3a17a34b-1e45-4466-997f-d1dd5ebd94e2"},"vehicle_type_id":"4","last_reported":1722442180,"current_range_meters":400,"station_id":"ce4bh192rcd13ifvqdd0","pricing_plan_id":"cebpf4jnsgd1na2vs0mg"},{"bike_id":"f2ad4e42-8f35-4a58-aa34-d93a4ac051aa","system_id":"levelo_inurba_marseille","lat":43.291994,"lon":5.392907,"is_reserved":false,"is_disabled":false,"rental_uris":{"android":"levelo://app?vid=f2ad4e42-8f35-4a58-aa34-d93a4ac051aa","ios":"levelo://app?vid=f2ad4e42-8f35-4a58-aa34-d93a4ac051aa"},"vehicle_type_id":"4","last_reported":1722442180,"current_range_meters":11600,"station_id":"ce4bh192rcd13ifvqdd0","pricing_plan_id":"cebpf4jnsgd1na2vs0mg"},{"bike_id":"38e427f8-e2d5-4ce9-9751-57a13a9105a1","system_id":"levelo_inurba_marseille","lat":43.291994,"lon":5.392907,"is_reserved":false,"is_disabled":false,"rental_uris":{"android":"levelo://app?vid=38e427f8-e2d5-4ce9-9751-57a13a9105a1","ios":"levelo://app?vid=38e427f8-e2d5-4ce9-9751-57a13a9105a1"},"vehicle_type_id":"4","last_reported":1722442180,"current_range_meters":800,"station_id":"ce4bh192rcd13ifvqdd0","pricing_plan_id":"cebpf4jnsgd1na2vs0mg"},{"bike_id":"e5e61b8c-4993-4302-a918-77c331c0463e","system_id":"levelo_inurba_marseille","lat":43.286475,"lon":5.351452,"is_reserved":false,"is_disabled":false,"rental_uris":{"android":"levelo://app?vid=e5e61b8c-4993-4302-a918-77c331c0463e","ios":"levelo://app?vid=e5e61b8c-4993-4302-a918-77c331c0463e"},"vehicle_type_id":"4","last_reported":1722442180,"current_range_meters":15200,"station_id":"ce4bhb92rcd13ifvqen0","pricing_plan_id":"cebpf4jnsgd1na2vs0mg"},{"bike_id":"497e4b64-4805-4044-9e3d-98327d320ae8","system_id":"levelo_inurba_marseille","lat":43.28467,"lon":5.35894,"is_reserved":false,"is_disabled":false,"rental_uris":{"android":"levelo://app?vid=497e4b64-4805-4044-9e3d-98327d320ae8","ios":"levelo://app?vid=497e4b64-4805-4044-9e3d-98327d320ae8"},"vehicle_type_id":"4","last_reported":1722442180,"current_range_meters":0,"station_id":"ce4bhah2rcd13ifvqei0","pricing_plan_id":"cebpf4jnsgd1na2vs0mg"},{"bike_id":"42887ab8-11d5-482a-a513-5b04dc3d50ef","system_id":"levelo_inurba_marseille","lat":43.284534,"lon":5.358662,"is_reserved":false,"is_disabled":false,"rental_uris":{"android":"levelo://app?vid=42887ab8-11d5-482a-a513-5b04dc3d50ef","ios":"levelo://app?vid=42887ab8-11d5-482a-a513-5b04dc3d50ef"},"vehicle_type_id":"4","last_reported":1722442180,"current_range_meters":0,"station_id":"ce4bhah2rcd13ifvqei0","pricing_plan_id":"cebpf4jnsgd1na2vs0mg"},{"bike_id":"bc29de30-1305-40a7-afaa-c151a152f660","system_id":"levelo_inurba_marseille","lat":43.284538,"lon":5.358657,"is_reserved":false,"is_disabled":false,"rental_uris":{"android":"levelo://app?vid=bc29de30-1305-40a7-afaa-c151a152f660","ios":"levelo://app?vid=bc29de30-1305-40a7-afaa-c151a152f660"},"vehicle_type_id":"4","last_reported":1722442180,"current_range_meters":18400,"station_id":"ce4bhah2rcd13ifvqei0","pricing_plan_id":"cebpf4jnsgd1na2vs0mg"},{"bike_id":"de5a574f-e8a9-4e2a-b598-2fc14d13b7e8","system_id":"levelo_inurba_marseille","lat":43.286257,"lon":5.351033,"is_reserved":false,"is_disabled":false,"rental_uris":{"android":"levelo://app?vid=de5a574f-e8a9-4e2a-b598-2fc14d13b7e8","ios":"levelo://app?vid=de5a574f-e8a9-4e2a-b598-2fc14d13b7e8"},"vehicle_type_id":"4","last_reported":1722442180,"current_range_meters":13200,"station_id":"ce4bhch2rcd13ifvqeug","pricing_plan_id":"cebpf4jnsgd1na2vs0mg"},{"bike_id":"18312fbc-6cc1-4d7b-bb35-f4645815d3b3","system_id":"levelo_inurba_marseille","lat":43.28622,"lon":5.35102,"is_reserved":false,"is_disabled":false,"rental_uris":{"android":"levelo://app?vid=18312fbc-6cc1-4d7b-bb35-f4645815d3b3","ios":"levelo://app?vid=18312fbc-6cc1-4d7b-bb35-f4645815d3b3"},"vehicle_type_id":"4","last_reported":1722442180,"current_range_meters":27200,"station_id":"ce4bhch2rcd13ifvqeug","pricing_plan_id":"cebpf4jnsgd1na2vs0mg"},{"bike_id":"1ef67643-08d8-44ab-9073-554004269f75","system_id":"levelo_inurba_marseille","lat":43.2862,"lon":5.35108,"is_reserved":false,"is_disabled":false,"rental_uris":{"android":"levelo://app?vid=1ef67643-08d8-44ab-9073-554004269f75","ios":"levelo://app?vid=1ef67643-08d8-44ab-9073-554004269f75"},"vehicle_type_id":"4","last_reported":1722442180,"current_range_meters":0,"station_id":"ce4bhch2rcd13ifvqeug","pricing_plan_id":"cebpf4jnsgd1na2vs0mg"},{"bike_id":"f2549926-5729-4f63-8608-9d8bca370411","system_id":"levelo_inurba_marseille","lat":43.28621,"lon":5.35102,"is_reserved":false,"is_disabled":false,"rental_uris":{"android":"levelo://app?vid=f2549926-5729-4f63-8608-9d8bca370411","ios":"levelo://app?vid=f2549926-5729-4f63-8608-9d8bca370411"},"vehicle_type_id":"4","last_reported":1722442180,"current_range_meters":2800,"station_id":"ce4bhch2rcd13ifvqeug","pricing_plan_id":"cebpf4jnsgd1na2vs0mg"},{"bike_id":"559dcfa4-1ce8-48eb-b562-cfc0c3b59993","system_id":"levelo_inurba_marseille","lat":43.28618,"lon":5.35111,"is_reserved":false,"is_disabled":false,"rental_uris":{"android":"levelo://app?vid=559dcfa4-1ce8-48eb-b562-cfc0c3b59993","ios":"levelo://app?vid=559dcfa4-1ce8-48eb-b562-cfc0c3b59993"},"vehicle_type_id":"4","last_reported":1722442180,"current_range_meters":21600,"station_id":"ce4bhch2rcd13ifvqeug","pricing_plan_id":"cebpf4jnsgd1na2vs0mg"},{"bike_id":"4903419b-386b-4f17-8435-105f8cc5dbd7","system_id":"levelo_inurba_marseille","lat":43.28619,"lon":5.35107,"is_reserved":false,"is_disabled":false,"rental_uris":{"android":"levelo://app?vid=4903419b-386b-4f17-8435-105f8cc5dbd7","ios":"levelo://app?vid=4903419b-386b-4f17-8435-105f8cc5dbd7"},"vehicle_type_id":"4","last_reported":1722442180,"current_range_meters":21600,"station_id":"ce4bhch2rcd13ifvqeug","pricing_plan_id":"cebpf4jnsgd1na2vs0mg"},{"bike_id":"722a88fc-6d98-4c90-b963-4e85ee9002d1","system_id":"levelo_inurba_marseille","lat":43.28619,"lon":5.35104,"is_reserved":false,"is_disabled":false,"rental_uris":{"android":"levelo://app?vid=722a88fc-6d98-4c90-b963-4e85ee9002d1","ios":"levelo://app?vid=722a88fc-6d98-4c90-b963-4e85ee9002d1"},"vehicle_type_id":"4","last_reported":1722442180,"current_range_meters":27200,"station_id":"ce4bhch2rcd13ifvqeug","pricing_plan_id":"cebpf4jnsgd1na2vs0mg"},{"bike_id":"a0d1b669-67bd-4fc3-be36-c45fb8fdae00","system_id":"levelo_inurba_marseille","lat":43.28618,"lon":5.35106,"is_reserved":false,"is_disabled":false,"rental_uris":{"android":"levelo://app?vid=a0d1b669-67bd-4fc3-be36-c45fb8fdae00","ios":"levelo://app?vid=a0d1b669-67bd-4fc3-be36-c45fb8fdae00"},"vehicle_type_id":"4","last_reported":1722442180,"current_range_meters":0,"station_id":"ce4bhch2rcd13ifvqeug","pricing_plan_id":"cebpf4jnsgd1na2vs0mg"},{"bike_id":"88d2a6ce-40ca-4876-adda-788bd8bff0e4","system_id":"levelo_inurba_marseille","lat":43.28617,"lon":5.35103,"is_reserved":false,"is_disabled":false,"rental_uris":{"android":"levelo://app?vid=88d2a6ce-40ca-4876-adda-788bd8bff0e4","ios":"levelo://app?vid=88d2a6ce-40ca-4876-adda-788bd8bff0e4"},"vehicle_type_id":"4","last_reported":1722442180,"current_range_meters":4800,"station_id":"ce4bhch2rcd13ifvqeug","pricing_plan_id":"cebpf4jnsgd1na2vs0mg"},{"bike_id":"7a4e4249-13f1-449c-882b-3c2ab62ce804","system_id":"levelo_inurba_marseille","lat":43.28617,"lon":5.35103,"is_reserved":false,"is_disabled":false,"rental_uris":{"android":"levelo://app?vid=7a4e4249-13f1-449c-882b-3c2ab62ce804","ios":"levelo://app?vid=7a4e4249-13f1-449c-882b-3c2ab62ce804"},"vehicle_type_id":"4","last_reported":1722442180,"current_range_meters":27200,"station_id":"ce4bhch2rcd13ifvqeug","pricing_plan_id":"cebpf4jnsgd1na2vs0mg"},{"bike_id":"d9ed466e-9976-4b56-8de0-40cb1752601f","system_id":"levelo_inurba_marseille","lat":43.28615,"lon":5.35106,"is_reserved":false,"is_disabled":false,"rental_uris":{"android":"levelo://app?vid=d9ed466e-9976-4b56-8de0-40cb1752601f","ios":"levelo://app?vid=d9ed466e-9976-4b56-8de0-40cb1752601f"},"vehicle_type_id":"4","last_reported":1722442180,"current_range_meters":1600,"station_id":"ce4bhch2rcd13ifvqeug","pricing_plan_id":"cebpf4jnsgd1na2vs0mg"},{"bike_id":"01684394-bc40-4685-8269-c2da226bc82a","system_id":"levelo_inurba_marseille","lat":43.28616,"lon":5.35102,"is_reserved":false,"is_disabled":false,"rental_uris":{"android":"levelo://app?vid=01684394-bc40-4685-8269-c2da226bc82a","ios":"levelo://app?vid=01684394-bc40-4685-8269-c2da226bc82a"},"vehicle_type_id":"4","last_reported":1722442180,"current_range_meters":0,"station_id":"ce4bhch2rcd13ifvqeug","pricing_plan_id":"cebpf4jnsgd1na2vs0mg"},{"bike_id":"ac7fdf99-f319-45d7-a8f6-5f961165d975","system_id":"levelo_inurba_marseille","lat":43.28616,"lon":5.351,"is_reserved":false,"is_disabled":false,"rental_uris":{"android":"levelo://app?vid=ac7fdf99-f319-45d7-a8f6-5f961165d975","ios":"levelo://app?vid=ac7fdf99-f319-45d7-a8f6-5f961165d975"},"vehicle_type_id":"4","last_reported":1722442180,"current_range_meters":29200,"station_id":"ce4bhch2rcd13ifvqeug","pricing_plan_id":"cebpf4jnsgd1na2vs0mg"},{"bike_id":"b12bd5a2-db78-4ebe-8f3b-3526225cfd04","system_id":"levelo_inurba_marseille","lat":43.28614,"lon":5.35106,"is_reserved":false,"is_disabled":false,"rental_uris":{"android":"levelo://app?vid=b12bd5a2-db78-4ebe-8f3b-3526225cfd04","ios":"levelo://app?vid=b12bd5a2-db78-4ebe-8f3b-3526225cfd04"},"vehicle_type_id":"4","last_reported":1722442180,"current_range_meters":8000,"station_id":"ce4bhch2rcd13ifvqeug","pricing_plan_id":"cebpf4jnsgd1na2vs0mg"},{"bike_id":"bbc779cc-2c79-4949-a6bb-dcfffba271e9","system_id":"levelo_inurba_marseille","lat":43.28615,"lon":5.35102,"is_reserved":false,"is_disabled":false,"rental_uris":{"android":"levelo://app?vid=bbc779cc-2c79-4949-a6bb-dcfffba271e9","ios":"levelo://app?vid=bbc779cc-2c79-4949-a6bb-dcfffba271e9"},"vehicle_type_id":"4","last_reported":1722442180,"current_range_meters":13200,"station_id":"ce4bhch2rcd13ifvqeug","pricing_plan_id":"cebpf4jnsgd1na2vs0mg"},{"bike_id":"b6ff4565-86f9-4350-8251-6f9f54e07489","system_id":"levelo_inurba_marseille","lat":43.28614,"lon":5.35104,"is_reserved":false,"is_disabled":false,"rental_uris":{"android":"levelo://app?vid=b6ff4565-86f9-4350-8251-6f9f54e07489","ios":"levelo://app?vid=b6ff4565-86f9-4350-8251-6f9f54e07489"},"vehicle_type_id":"4","last_reported":1722442180,"current_range_meters":23200,"station_id":"ce4bhch2rcd13ifvqeug","pricing_plan_id":"cebpf4jnsgd1na2vs0mg"},{"bike_id":"4766f575-dbbf-4597-8594-cde312a4e996","system_id":"levelo_inurba_marseille","lat":43.285856,"lon":5.350771,"is_reserved":false,"is_disabled":false,"rental_uris":{"android":"levelo://app?vid=4766f575-dbbf-4597-8594-cde312a4e996","ios":"levelo://app?vid=4766f575-dbbf-4597-8594-cde312a4e996"},"vehicle_type_id":"4","last_reported":1722442180,"current_range_meters":7600,"station_id":"ce4bhch2rcd13ifvqeug","pricing_plan_id":"cebpf4jnsgd1na2vs0mg"},{"bike_id":"73bd37b8-c560-469d-8488-fa87ee98b200","system_id":"levelo_inurba_marseille","lat":43.28615,"lon":5.35099,"is_reserved":false,"is_disabled":false,"rental_uris":{"android":"levelo://app?vid=73bd37b8-c560-469d-8488-fa87ee98b200","ios":"levelo://app?vid=73bd37b8-c560-469d-8488-fa87ee98b200"},"vehicle_type_id":"4","last_reported":1722442180,"current_range_meters":28800,"station_id":"ce4bhch2rcd13ifvqeug","pricing_plan_id":"cebpf4jnsgd1na2vs0mg"},{"bike_id":"38ad34ad-15fe-4c94-abe8-a3d4bd74658b","system_id":"levelo_inurba_marseille","lat":43.28613,"lon":5.35102,"is_reserved":false,"is_disabled":false,"rental_uris":{"android":"levelo://app?vid=38ad34ad-15fe-4c94-abe8-a3d4bd74658b","ios":"levelo://app?vid=38ad34ad-15fe-4c94-abe8-a3d4bd74658b"},"vehicle_type_id":"4","last_reported":1722442180,"current_range_meters":4800,"station_id":"ce4bhch2rcd13ifvqeug","pricing_plan_id":"cebpf4jnsgd1na2vs0mg"},{"bike_id":"dead266a-edd6-47da-8066-6738a7056adc","system_id":"levelo_inurba_marseille","lat":43.285848,"lon":5.350787,"is_reserved":false,"is_disabled":false,"rental_uris":{"android":"levelo://app?vid=dead266a-edd6-47da-8066-6738a7056adc","ios":"levelo://app?vid=dead266a-edd6-47da-8066-6738a7056adc"},"vehicle_type_id":"4","last_reported":1722442180,"current_range_meters":10800,"station_id":"ce4bhch2rcd13ifvqeug","pricing_plan_id":"cebpf4jnsgd1na2vs0mg"},{"bike_id":"04e5e263-e997-4440-8a0b-cae2c7368d15","system_id":"levelo_inurba_marseille","lat":43.285856,"lon":5.350771,"is_reserved":false,"is_disabled":false,"rental_uris":{"android":"levelo://app?vid=04e5e263-e997-4440-8a0b-cae2c7368d15","ios":"levelo://app?vid=04e5e263-e997-4440-8a0b-cae2c7368d15"},"vehicle_type_id":"4","last_reported":1722442180,"current_range_meters":30400,"station_id":"ce4bhch2rcd13ifvqeug","pricing_plan_id":"cebpf4jnsgd1na2vs0mg"},{"bike_id":"c0903f25-98e6-43c8-902d-4b8cda39f10c","system_id":"levelo_inurba_marseille","lat":43.295713,"lon":5.399639,"is_reserved":false,"is_disabled":false,"rental_uris":{"android":"levelo://app?vid=c0903f25-98e6-43c8-902d-4b8cda39f10c","ios":"levelo://app?vid=c0903f25-98e6-43c8-902d-4b8cda39f10c"},"vehicle_type_id":"4","last_reported":1722442180,"current_range_meters":25200,"station_id":"ce4bh312rcd13ifvqdj0","pricing_plan_id":"cebpf4jnsgd1na2vs0mg"},{"bike_id":"cd6b5128-f8e8-455d-8d45-efbdfed5a797","system_id":"levelo_inurba_marseille","lat":43.295713,"lon":5.399639,"is_reserved":false,"is_disabled":false,"rental_uris":{"android":"levelo://app?vid=cd6b5128-f8e8-455d-8d45-efbdfed5a797","ios":"levelo://app?vid=cd6b5128-f8e8-455d-8d45-efbdfed5a797"},"vehicle_type_id":"4","last_reported":1722442180,"current_range_meters":800,"station_id":"ce4bh312rcd13ifvqdj0","pricing_plan_id":"cebpf4jnsgd1na2vs0mg"},{"bike_id":"1c4421c7-4a99-4a1d-ab72-bbf0e5802516","system_id":"levelo_inurba_marseille","lat":43.295713,"lon":5.399639,"is_reserved":false,"is_disabled":false,"rental_uris":{"android":"levelo://app?vid=1c4421c7-4a99-4a1d-ab72-bbf0e5802516","ios":"levelo://app?vid=1c4421c7-4a99-4a1d-ab72-bbf0e5802516"},"vehicle_type_id":"4","last_reported":1722442180,"current_range_meters":30800,"station_id":"ce4bh312rcd13ifvqdj0","pricing_plan_id":"cebpf4jnsgd1na2vs0mg"},{"bike_id":"925da816-ef3d-4f54-802b-6204d037b21b","system_id":"levelo_inurba_marseille","lat":43.28393,"lon":5.37529,"is_reserved":false,"is_disabled":false,"rental_uris":{"android":"levelo://app?vid=925da816-ef3d-4f54-802b-6204d037b21b","ios":"levelo://app?vid=925da816-ef3d-4f54-802b-6204d037b21b"},"vehicle_type_id":"4","last_reported":1722442180,"current_range_meters":1200,"station_id":"ce4bh412rcd13ifvqds0","pricing_plan_id":"cebpf4jnsgd1na2vs0mg"},{"bike_id":"099c6452-c279-48fe-90d4-b3fb6ec0cbe8","system_id":"levelo_inurba_marseille","lat":43.284214,"lon":5.349706,"is_reserved":false,"is_disabled":false,"rental_uris":{"android":"levelo://app?vid=099c6452-c279-48fe-90d4-b3fb6ec0cbe8","ios":"levelo://app?vid=099c6452-c279-48fe-90d4-b3fb6ec0cbe8"},"vehicle_type_id":"4","last_reported":1722442180,"current_range_meters":25200,"station_id":"ce4bhbh2rcd13ifvqepg","pricing_plan_id":"cebpf4jnsgd1na2vs0mg"},{"bike_id":"55f16891-fae4-45c6-bc55-6a58c991c9b7","system_id":"levelo_inurba_marseille","lat":43.33717,"lon":5.391857,"is_reserved":false,"is_disabled":false,"rental_uris":{"android":"levelo://app?vid=55f16891-fae4-45c6-bc55-6a58c991c9b7","ios":"levelo://app?vid=55f16891-fae4-45c6-bc55-6a58c991c9b7"},"vehicle_type_id":"4","last_reported":1722442180,"current_range_meters":20000,"station_id":"ce4bhr92rcd13ifvqhsg","pricing_plan_id":"cebpf4jnsgd1na2vs0mg"},{"bike_id":"1e25cbc0-b1d1-4f0a-a05d-137f4bbddfe0","system_id":"levelo_inurba_marseille","lat":43.33717,"lon":5.391857,"is_reserved":false,"is_disabled":false,"rental_uris":{"android":"levelo://app?vid=1e25cbc0-b1d1-4f0a-a05d-137f4bbddfe0","ios":"levelo://app?vid=1e25cbc0-b1d1-4f0a-a05d-137f4bbddfe0"},"vehicle_type_id":"4","last_reported":1722442180,"current_range_meters":31600,"station_id":"ce4bhr92rcd13ifvqhsg","pricing_plan_id":"cebpf4jnsgd1na2vs0mg"},{"bike_id":"cdd0e847-61c8-4b05-be98-4f9b04020e4e","system_id":"levelo_inurba_marseille","lat":43.33718,"lon":5.39182,"is_reserved":false,"is_disabled":false,"rental_uris":{"android":"levelo://app?vid=cdd0e847-61c8-4b05-be98-4f9b04020e4e","ios":"levelo://app?vid=cdd0e847-61c8-4b05-be98-4f9b04020e4e"},"vehicle_type_id":"4","last_reported":1722442180,"current_range_meters":6400,"station_id":"ce4bhr92rcd13ifvqhsg","pricing_plan_id":"cebpf4jnsgd1na2vs0mg"},{"bike_id":"4d0d74d4-a57a-4a19-84d5-33c07b0777cd","system_id":"levelo_inurba_marseille","lat":43.33725,"lon":5.391747,"is_reserved":false,"is_disabled":false,"rental_uris":{"android":"levelo://app?vid=4d0d74d4-a57a-4a19-84d5-33c07b0777cd","ios":"levelo://app?vid=4d0d74d4-a57a-4a19-84d5-33c07b0777cd"},"vehicle_type_id":"4","last_reported":1722442180,"current_range_meters":8800,"station_id":"ce4bhr92rcd13ifvqhsg","pricing_plan_id":"cebpf4jnsgd1na2vs0mg"},{"bike_id":"4e8c9a7f-1292-42f9-9e42-0cc3dac80cc3","system_id":"levelo_inurba_marseille","lat":43.33717,"lon":5.391857,"is_reserved":false,"is_disabled":false,"rental_uris":{"android":"levelo://app?vid=4e8c9a7f-1292-42f9-9e42-0cc3dac80cc3","ios":"levelo://app?vid=4e8c9a7f-1292-42f9-9e42-0cc3dac80cc3"},"vehicle_type_id":"4","last_reported":1722442180,"current_range_meters":4000,"station_id":"ce4bhr92rcd13ifvqhsg","pricing_plan_id":"cebpf4jnsgd1na2vs0mg"},{"bike_id":"0d2b2b33-4fc7-4137-830d-6f54fcce2e0f","system_id":"levelo_inurba_marseille","lat":43.33717,"lon":5.391857,"is_reserved":false,"is_disabled":false,"rental_uris":{"android":"levelo://app?vid=0d2b2b33-4fc7-4137-830d-6f54fcce2e0f","ios":"levelo://app?vid=0d2b2b33-4fc7-4137-830d-6f54fcce2e0f"},"vehicle_type_id":"4","last_reported":1722442180,"current_range_meters":23600,"station_id":"ce4bhr92rcd13ifvqhsg","pricing_plan_id":"cebpf4jnsgd1na2vs0mg"},{"bike_id":"851b6a7f-49c4-4961-beb1-2e6f4be577ca","system_id":"levelo_inurba_marseille","lat":43.337242,"lon":5.391854,"is_reserved":false,"is_disabled":false,"rental_uris":{"android":"levelo://app?vid=851b6a7f-49c4-4961-beb1-2e6f4be577ca","ios":"levelo://app?vid=851b6a7f-49c4-4961-beb1-2e6f4be577ca"},"vehicle_type_id":"4","last_reported":1722442180,"current_range_meters":0,"station_id":"ce4bhr92rcd13ifvqhsg","pricing_plan_id":"cebpf4jnsgd1na2vs0mg"},{"bike_id":"8c4277ce-c09e-4b5a-b1c7-ff5a275ea5d9","system_id":"levelo_inurba_marseille","lat":43.330442,"lon":5.389148,"is_reserved":false,"is_disabled":false,"rental_uris":{"android":"levelo://app?vid=8c4277ce-c09e-4b5a-b1c7-ff5a275ea5d9","ios":"levelo://app?vid=8c4277ce-c09e-4b5a-b1c7-ff5a275ea5d9"},"vehicle_type_id":"4","last_reported":1722442180,"current_range_meters":18400,"station_id":"ce4bhr92rcd13ifvqhrg","pricing_plan_id":"cebpf4jnsgd1na2vs0mg"},{"bike_id":"d288798b-6a40-4179-9ce2-bab6c2213572","system_id":"levelo_inurba_marseille","lat":43.284793,"lon":5.384113,"is_reserved":false,"is_disabled":false,"rental_uris":{"android":"levelo://app?vid=d288798b-6a40-4179-9ce2-bab6c2213572","ios":"levelo://app?vid=d288798b-6a40-4179-9ce2-bab6c2213572"},"vehicle_type_id":"4","last_reported":1722442180,"current_range_meters":12800,"station_id":"ce4bh512rcd13ifvqe3g","pricing_plan_id":"cebpf4jnsgd1na2vs0mg"},{"bike_id":"8dd5b7c2-c852-4bbf-8287-e54a7844657a","system_id":"levelo_inurba_marseille","lat":43.284793,"lon":5.384119,"is_reserved":false,"is_disabled":false,"rental_uris":{"android":"levelo://app?vid=8dd5b7c2-c852-4bbf-8287-e54a7844657a","ios":"levelo://app?vid=8dd5b7c2-c852-4bbf-8287-e54a7844657a"},"vehicle_type_id":"4","last_reported":1722442180,"current_range_meters":1200,"station_id":"ce4bh512rcd13ifvqe3g","pricing_plan_id":"cebpf4jnsgd1na2vs0mg"},{"bike_id":"6891d796-108d-4f7a-b75c-fe91dba22aa0","system_id":"levelo_inurba_marseille","lat":43.284787,"lon":5.384116,"is_reserved":false,"is_disabled":false,"rental_uris":{"android":"levelo://app?vid=6891d796-108d-4f7a-b75c-fe91dba22aa0","ios":"levelo://app?vid=6891d796-108d-4f7a-b75c-fe91dba22aa0"},"vehicle_type_id":"4","last_reported":1722442180,"current_range_meters":0,"station_id":"ce4bh512rcd13ifvqe3g","pricing_plan_id":"cebpf4jnsgd1na2vs0mg"},{"bike_id":"24bed528-5d30-4c46-863b-2ad844d5b626","system_id":"levelo_inurba_marseille","lat":43.284787,"lon":5.384116,"is_reserved":false,"is_disabled":false,"rental_uris":{"android":"levelo://app?vid=24bed528-5d30-4c46-863b-2ad844d5b626","ios":"levelo://app?vid=24bed528-5d30-4c46-863b-2ad844d5b626"},"vehicle_type_id":"4","last_reported":1722442180,"current_range_meters":15600,"station_id":"ce4bh512rcd13ifvqe3g","pricing_plan_id":"cebpf4jnsgd1na2vs0mg"},{"bike_id":"5fcd9048-9346-4e97-8f53-ad8cf280c01e","system_id":"levelo_inurba_marseille","lat":43.284793,"lon":5.384113,"is_reserved":false,"is_disabled":false,"rental_uris":{"android":"levelo://app?vid=5fcd9048-9346-4e97-8f53-ad8cf280c01e","ios":"levelo://app?vid=5fcd9048-9346-4e97-8f53-ad8cf280c01e"},"vehicle_type_id":"4","last_reported":1722442180,"current_range_meters":6000,"station_id":"ce4bh512rcd13ifvqe3g","pricing_plan_id":"cebpf4jnsgd1na2vs0mg"},{"bike_id":"78620959-c6f4-4623-80ac-d5916dfea123","system_id":"levelo_inurba_marseille","lat":43.284787,"lon":5.384116,"is_reserved":false,"is_disabled":false,"rental_uris":{"android":"levelo://app?vid=78620959-c6f4-4623-80ac-d5916dfea123","ios":"levelo://app?vid=78620959-c6f4-4623-80ac-d5916dfea123"},"vehicle_type_id":"4","last_reported":1722442180,"current_range_meters":17200,"station_id":"ce4bh512rcd13ifvqe3g","pricing_plan_id":"cebpf4jnsgd1na2vs0mg"},{"bike_id":"d990dc22-493a-43d0-a675-763782510786","system_id":"levelo_inurba_marseille","lat":43.322175,"lon":5.407135,"is_reserved":false,"is_disabled":false,"rental_uris":{"android":"levelo://app?vid=d990dc22-493a-43d0-a675-763782510786","ios":"levelo://app?vid=d990dc22-493a-43d0-a675-763782510786"},"vehicle_type_id":"4","last_reported":1722442180,"current_range_meters":15200,"station_id":"","pricing_plan_id":"cebpf4jnsgd1na2vs0mg"},{"bike_id":"e311b2be-8c52-413a-9fdc-783f0c6d72f9","system_id":"levelo_inurba_marseille","lat":43.288501,"lon":5.393087,"is_reserved":false,"is_disabled":false,"rental_uris":{"android":"levelo://app?vid=e311b2be-8c52-413a-9fdc-783f0c6d72f9","ios":"levelo://app?vid=e311b2be-8c52-413a-9fdc-783f0c6d72f9"},"vehicle_type_id":"4","last_reported":1722442180,"current_range_meters":1600,"station_id":"ce4bh2p2rcd13ifvqdi0","pricing_plan_id":"cebpf4jnsgd1na2vs0mg"},{"bike_id":"01cadbd4-12ee-41fd-a932-5350931e3e65","system_id":"levelo_inurba_marseille","lat":43.283498,"lon":5.380948,"is_reserved":false,"is_disabled":false,"rental_uris":{"android":"levelo://app?vid=01cadbd4-12ee-41fd-a932-5350931e3e65","ios":"levelo://app?vid=01cadbd4-12ee-41fd-a932-5350931e3e65"},"vehicle_type_id":"4","last_reported":1722442180,"current_range_meters":1600,"station_id":"ce4bh412rcd13ifvqdr0","pricing_plan_id":"cebpf4jnsgd1na2vs0mg"},{"bike_id":"a9644c8f-9612-4a01-8e85-fac31c909f50","system_id":"levelo_inurba_marseille","lat":43.283498,"lon":5.380948,"is_reserved":false,"is_disabled":false,"rental_uris":{"android":"levelo://app?vid=a9644c8f-9612-4a01-8e85-fac31c909f50","ios":"levelo://app?vid=a9644c8f-9612-4a01-8e85-fac31c909f50"},"vehicle_type_id":"4","last_reported":1722442180,"current_range_meters":0,"station_id":"ce4bh412rcd13ifvqdr0","pricing_plan_id":"cebpf4jnsgd1na2vs0mg"},{"bike_id":"938fd696-2633-45e9-9f6a-49c74330ed14","system_id":"levelo_inurba_marseille","lat":43.284261,"lon":5.349989,"is_reserved":false,"is_disabled":false,"rental_uris":{"android":"levelo://app?vid=938fd696-2633-45e9-9f6a-49c74330ed14","ios":"levelo://app?vid=938fd696-2633-45e9-9f6a-49c74330ed14"},"vehicle_type_id":"4","last_reported":1722442180,"current_range_meters":30400,"station_id":"ce4bhbh2rcd13ifvqepg","pricing_plan_id":"cebpf4jnsgd1na2vs0mg"},{"bike_id":"207d5b0f-227d-45a4-9539-32791f6dbf04","system_id":"levelo_inurba_marseille","lat":43.284239,"lon":5.349936,"is_reserved":false,"is_disabled":false,"rental_uris":{"android":"levelo://app?vid=207d5b0f-227d-45a4-9539-32791f6dbf04","ios":"levelo://app?vid=207d5b0f-227d-45a4-9539-32791f6dbf04"},"vehicle_type_id":"4","last_reported":1722442180,"current_range_meters":13200,"station_id":"ce4bhbh2rcd13ifvqepg","pricing_plan_id":"cebpf4jnsgd1na2vs0mg"},{"bike_id":"d8606a98-f192-46a2-965e-b0f6f920aa9d","system_id":"levelo_inurba_marseille","lat":43.284218,"lon":5.350001,"is_reserved":false,"is_disabled":false,"rental_uris":{"android":"levelo://app?vid=d8606a98-f192-46a2-965e-b0f6f920aa9d","ios":"levelo://app?vid=d8606a98-f192-46a2-965e-b0f6f920aa9d"},"vehicle_type_id":"4","last_reported":1722442180,"current_range_meters":22000,"station_id":"ce4bhbh2rcd13ifvqepg","pricing_plan_id":"cebpf4jnsgd1na2vs0mg"},{"bike_id":"263f2bd4-63aa-42b3-b114-5809b38ffe18","system_id":"levelo_inurba_marseille","lat":43.28426,"lon":5.34986,"is_reserved":false,"is_disabled":false,"rental_uris":{"android":"levelo://app?vid=263f2bd4-63aa-42b3-b114-5809b38ffe18","ios":"levelo://app?vid=263f2bd4-63aa-42b3-b114-5809b38ffe18"},"vehicle_type_id":"4","last_reported":1722442180,"current_range_meters":18400,"station_id":"ce4bhbh2rcd13ifvqepg","pricing_plan_id":"cebpf4jnsgd1na2vs0mg"},{"bike_id":"fec6ee34-e5f1-40d1-bc65-a1baab808b7e","system_id":"levelo_inurba_marseille","lat":43.283498,"lon":5.380948,"is_reserved":false,"is_disabled":false,"rental_uris":{"android":"levelo://app?vid=fec6ee34-e5f1-40d1-bc65-a1baab808b7e","ios":"levelo://app?vid=fec6ee34-e5f1-40d1-bc65-a1baab808b7e"},"vehicle_type_id":"4","last_reported":1722442180,"current_range_meters":0,"station_id":"ce4bh412rcd13ifvqdr0","pricing_plan_id":"cebpf4jnsgd1na2vs0mg"},{"bike_id":"d89a6733-8eee-4187-b223-49c2bb6bda6d","system_id":"levelo_inurba_marseille","lat":43.28428,"lon":5.34979,"is_reserved":false,"is_disabled":false,"rental_uris":{"android":"levelo://app?vid=d89a6733-8eee-4187-b223-49c2bb6bda6d","ios":"levelo://app?vid=d89a6733-8eee-4187-b223-49c2bb6bda6d"},"vehicle_type_id":"4","last_reported":1722442180,"current_range_meters":23600,"station_id":"ce4bhbh2rcd13ifvqepg","pricing_plan_id":"cebpf4jnsgd1na2vs0mg"},{"bike_id":"19b8586a-d37e-40d1-a258-de36dff7e51e","system_id":"levelo_inurba_marseille","lat":43.2834,"lon":5.38107,"is_reserved":false,"is_disabled":false,"rental_uris":{"android":"levelo://app?vid=19b8586a-d37e-40d1-a258-de36dff7e51e","ios":"levelo://app?vid=19b8586a-d37e-40d1-a258-de36dff7e51e"},"vehicle_type_id":"4","last_reported":1722442180,"current_range_meters":0,"station_id":"ce4bh412rcd13ifvqdr0","pricing_plan_id":"cebpf4jnsgd1na2vs0mg"},{"bike_id":"8b649e6f-e3ea-44c2-b499-24d6e4d45533","system_id":"levelo_inurba_marseille","lat":43.28423,"lon":5.34986,"is_reserved":false,"is_disabled":false,"rental_uris":{"android":"levelo://app?vid=8b649e6f-e3ea-44c2-b499-24d6e4d45533","ios":"levelo://app?vid=8b649e6f-e3ea-44c2-b499-24d6e4d45533"},"vehicle_type_id":"4","last_reported":1722442180,"current_range_meters":4400,"station_id":"ce4bhbh2rcd13ifvqepg","pricing_plan_id":"cebpf4jnsgd1na2vs0mg"},{"bike_id":"5236c9e8-8f75-437f-8e22-bb3fcee68057","system_id":"levelo_inurba_marseille","lat":43.28423,"lon":5.34985,"is_reserved":false,"is_disabled":false,"rental_uris":{"android":"levelo://app?vid=5236c9e8-8f75-437f-8e22-bb3fcee68057","ios":"levelo://app?vid=5236c9e8-8f75-437f-8e22-bb3fcee68057"},"vehicle_type_id":"4","last_reported":1722442180,"current_range_meters":29600,"station_id":"ce4bhbh2rcd13ifvqepg","pricing_plan_id":"cebpf4jnsgd1na2vs0mg"},{"bike_id":"debb5c40-7963-4c1e-8719-5f703939df3f","system_id":"levelo_inurba_marseille","lat":43.28418,"lon":5.34999,"is_reserved":false,"is_disabled":false,"rental_uris":{"android":"levelo://app?vid=debb5c40-7963-4c1e-8719-5f703939df3f","ios":"levelo://app?vid=debb5c40-7963-4c1e-8719-5f703939df3f"},"vehicle_type_id":"4","last_reported":1722442180,"current_range_meters":19200,"station_id":"ce4bhbh2rcd13ifvqepg","pricing_plan_id":"cebpf4jnsgd1na2vs0mg"},{"bike_id":"a8a95fdd-8ac7-4453-8a71-ffd4017c46de","system_id":"levelo_inurba_marseille","lat":43.284205,"lon":5.349905,"is_reserved":false,"is_disabled":false,"rental_uris":{"android":"levelo://app?vid=a8a95fdd-8ac7-4453-8a71-ffd4017c46de","ios":"levelo://app?vid=a8a95fdd-8ac7-4453-8a71-ffd4017c46de"},"vehicle_type_id":"4","last_reported":1722442180,"current_range_meters":28400,"station_id":"ce4bhbh2rcd13ifvqepg","pricing_plan_id":"cebpf4jnsgd1na2vs0mg"},{"bike_id":"3ccc7532-4b96-4c9a-b8ef-35025366c1ef","system_id":"levelo_inurba_marseille","lat":43.284204,"lon":5.349876,"is_reserved":false,"is_disabled":false,"rental_uris":{"android":"levelo://app?vid=3ccc7532-4b96-4c9a-b8ef-35025366c1ef","ios":"levelo://app?vid=3ccc7532-4b96-4c9a-b8ef-35025366c1ef"},"vehicle_type_id":"4","last_reported":1722442180,"current_range_meters":31200,"station_id":"ce4bhbh2rcd13ifvqepg","pricing_plan_id":"cebpf4jnsgd1na2vs0mg"},{"bike_id":"806369a6-8128-494e-b3dd-b1f9e9e76ce2","system_id":"levelo_inurba_marseille","lat":43.28422,"lon":5.3498,"is_reserved":false,"is_disabled":false,"rental_uris":{"android":"levelo://app?vid=806369a6-8128-494e-b3dd-b1f9e9e76ce2","ios":"levelo://app?vid=806369a6-8128-494e-b3dd-b1f9e9e76ce2"},"vehicle_type_id":"4","last_reported":1722442180,"current_range_meters":9600,"station_id":"ce4bhbh2rcd13ifvqepg","pricing_plan_id":"cebpf4jnsgd1na2vs0mg"},{"bike_id":"5019ba3f-08be-462d-8880-e1015b09e8ad","system_id":"levelo_inurba_marseille","lat":43.28417,"lon":5.34995,"is_reserved":false,"is_disabled":false,"rental_uris":{"android":"levelo://app?vid=5019ba3f-08be-462d-8880-e1015b09e8ad","ios":"levelo://app?vid=5019ba3f-08be-462d-8880-e1015b09e8ad"},"vehicle_type_id":"4","last_reported":1722442180,"current_range_meters":24000,"station_id":"ce4bhbh2rcd13ifvqepg","pricing_plan_id":"cebpf4jnsgd1na2vs0mg"},{"bike_id":"0aed9efd-a687-4540-9e08-068903d5b223","system_id":"levelo_inurba_marseille","lat":43.284201,"lon":5.34985,"is_reserved":false,"is_disabled":false,"rental_uris":{"android":"levelo://app?vid=0aed9efd-a687-4540-9e08-068903d5b223","ios":"levelo://app?vid=0aed9efd-a687-4540-9e08-068903d5b223"},"vehicle_type_id":"4","last_reported":1722442180,"current_range_meters":31200,"station_id":"ce4bhbh2rcd13ifvqepg","pricing_plan_id":"cebpf4jnsgd1na2vs0mg"},{"bike_id":"b6902a13-f2e0-44a6-9bbf-b28b1153335a","system_id":"levelo_inurba_marseille","lat":43.2842,"lon":5.34982,"is_reserved":false,"is_disabled":false,"rental_uris":{"android":"levelo://app?vid=b6902a13-f2e0-44a6-9bbf-b28b1153335a","ios":"levelo://app?vid=b6902a13-f2e0-44a6-9bbf-b28b1153335a"},"vehicle_type_id":"4","last_reported":1722442180,"current_range_meters":2000,"station_id":"ce4bhbh2rcd13ifvqepg","pricing_plan_id":"cebpf4jnsgd1na2vs0mg"},{"bike_id":"a7010d1c-0a68-45f5-9646-1150c3bd5f88","system_id":"levelo_inurba_marseille","lat":43.28418,"lon":5.34988,"is_reserved":false,"is_disabled":false,"rental_uris":{"android":"levelo://app?vid=a7010d1c-0a68-45f5-9646-1150c3bd5f88","ios":"levelo://app?vid=a7010d1c-0a68-45f5-9646-1150c3bd5f88"},"vehicle_type_id":"4","last_reported":1722442180,"current_range_meters":20800,"station_id":"ce4bhbh2rcd13ifvqepg","pricing_plan_id":"cebpf4jnsgd1na2vs0mg"},{"bike_id":"b37fd85a-10b6-4541-9571-128a56dd3f11","system_id":"levelo_inurba_marseille","lat":43.28418,"lon":5.34985,"is_reserved":false,"is_disabled":false,"rental_uris":{"android":"levelo://app?vid=b37fd85a-10b6-4541-9571-128a56dd3f11","ios":"levelo://app?vid=b37fd85a-10b6-4541-9571-128a56dd3f11"},"vehicle_type_id":"4","last_reported":1722442180,"current_range_meters":0,"station_id":"ce4bhbh2rcd13ifvqepg","pricing_plan_id":"cebpf4jnsgd1na2vs0mg"},{"bike_id":"58a81324-6822-41b0-a0b9-629210756de4","system_id":"levelo_inurba_marseille","lat":43.284214,"lon":5.349706,"is_reserved":false,"is_disabled":false,"rental_uris":{"android":"levelo://app?vid=58a81324-6822-41b0-a0b9-629210756de4","ios":"levelo://app?vid=58a81324-6822-41b0-a0b9-629210756de4"},"vehicle_type_id":"4","last_reported":1722442180,"current_range_meters":25600,"station_id":"ce4bhbh2rcd13ifvqepg","pricing_plan_id":"cebpf4jnsgd1na2vs0mg"},{"bike_id":"2001b312-2eef-4240-b2ae-def174863c7d","system_id":"levelo_inurba_marseille","lat":43.284214,"lon":5.349706,"is_reserved":false,"is_disabled":false,"rental_uris":{"android":"levelo://app?vid=2001b312-2eef-4240-b2ae-def174863c7d","ios":"levelo://app?vid=2001b312-2eef-4240-b2ae-def174863c7d"},"vehicle_type_id":"4","last_reported":1722442180,"current_range_meters":20800,"station_id":"ce4bhbh2rcd13ifvqepg","pricing_plan_id":"cebpf4jnsgd1na2vs0mg"},{"bike_id":"47ca68d4-b7a4-4784-b586-e56438b44a00","system_id":"levelo_inurba_marseille","lat":43.284214,"lon":5.349706,"is_reserved":false,"is_disabled":false,"rental_uris":{"android":"levelo://app?vid=47ca68d4-b7a4-4784-b586-e56438b44a00","ios":"levelo://app?vid=47ca68d4-b7a4-4784-b586-e56438b44a00"},"vehicle_type_id":"4","last_reported":1722442180,"current_range_meters":12400,"station_id":"ce4bhbh2rcd13ifvqepg","pricing_plan_id":"cebpf4jnsgd1na2vs0mg"},{"bike_id":"f7e5b3f9-22fa-4c9e-b2bb-5730e8d592dc","system_id":"levelo_inurba_marseille","lat":43.284139,"lon":5.349941,"is_reserved":false,"is_disabled":false,"rental_uris":{"android":"levelo://app?vid=f7e5b3f9-22fa-4c9e-b2bb-5730e8d592dc","ios":"levelo://app?vid=f7e5b3f9-22fa-4c9e-b2bb-5730e8d592dc"},"vehicle_type_id":"4","last_reported":1722442180,"current_range_meters":30400,"station_id":"ce4bhbh2rcd13ifvqepg","pricing_plan_id":"cebpf4jnsgd1na2vs0mg"},{"bike_id":"8377bcf3-4502-4e5e-9ebf-28e998174d2c","system_id":"levelo_inurba_marseille","lat":43.284214,"lon":5.349706,"is_reserved":false,"is_disabled":false,"rental_uris":{"android":"levelo://app?vid=8377bcf3-4502-4e5e-9ebf-28e998174d2c","ios":"levelo://app?vid=8377bcf3-4502-4e5e-9ebf-28e998174d2c"},"vehicle_type_id":"4","last_reported":1722442180,"current_range_meters":21200,"station_id":"ce4bhbh2rcd13ifvqepg","pricing_plan_id":"cebpf4jnsgd1na2vs0mg"},{"bike_id":"19174288-a70a-4e34-83eb-61524b00aea4","system_id":"levelo_inurba_marseille","lat":43.284214,"lon":5.349706,"is_reserved":false,"is_disabled":false,"rental_uris":{"android":"levelo://app?vid=19174288-a70a-4e34-83eb-61524b00aea4","ios":"levelo://app?vid=19174288-a70a-4e34-83eb-61524b00aea4"},"vehicle_type_id":"4","last_reported":1722442180,"current_range_meters":22400,"station_id":"ce4bhbh2rcd13ifvqepg","pricing_plan_id":"cebpf4jnsgd1na2vs0mg"},{"bike_id":"0fcad5db-0f03-4626-a6f5-df86be2dfecf","system_id":"levelo_inurba_marseille","lat":43.28418,"lon":5.34977,"is_reserved":false,"is_disabled":false,"rental_uris":{"android":"levelo://app?vid=0fcad5db-0f03-4626-a6f5-df86be2dfecf","ios":"levelo://app?vid=0fcad5db-0f03-4626-a6f5-df86be2dfecf"},"vehicle_type_id":"4","last_reported":1722442180,"current_range_meters":27200,"station_id":"ce4bhbh2rcd13ifvqepg","pricing_plan_id":"cebpf4jnsgd1na2vs0mg"},{"bike_id":"fc595050-b129-45d0-8fcd-7802e1e12000","system_id":"levelo_inurba_marseille","lat":43.28413,"lon":5.3499,"is_reserved":false,"is_disabled":false,"rental_uris":{"android":"levelo://app?vid=fc595050-b129-45d0-8fcd-7802e1e12000","ios":"levelo://app?vid=fc595050-b129-45d0-8fcd-7802e1e12000"},"vehicle_type_id":"4","last_reported":1722442180,"current_range_meters":22400,"station_id":"ce4bhbh2rcd13ifvqepg","pricing_plan_id":"cebpf4jnsgd1na2vs0mg"},{"bike_id":"75eac02a-72c1-40b9-89e3-5af3d21346b9","system_id":"levelo_inurba_marseille","lat":43.28419,"lon":5.34971,"is_reserved":false,"is_disabled":false,"rental_uris":{"android":"levelo://app?vid=75eac02a-72c1-40b9-89e3-5af3d21346b9","ios":"levelo://app?vid=75eac02a-72c1-40b9-89e3-5af3d21346b9"},"vehicle_type_id":"4","last_reported":1722442180,"current_range_meters":0,"station_id":"ce4bhbh2rcd13ifvqepg","pricing_plan_id":"cebpf4jnsgd1na2vs0mg"},{"bike_id":"3c6b6844-5d9d-4aff-a934-92b7f96c79a6","system_id":"levelo_inurba_marseille","lat":43.28418,"lon":5.34974,"is_reserved":false,"is_disabled":false,"rental_uris":{"android":"levelo://app?vid=3c6b6844-5d9d-4aff-a934-92b7f96c79a6","ios":"levelo://app?vid=3c6b6844-5d9d-4aff-a934-92b7f96c79a6"},"vehicle_type_id":"4","last_reported":1722442180,"current_range_meters":0,"station_id":"ce4bhbh2rcd13ifvqepg","pricing_plan_id":"cebpf4jnsgd1na2vs0mg"},{"bike_id":"76f1fd24-8931-4e58-bbc3-9dafc38ebc38","system_id":"levelo_inurba_marseille","lat":43.28416,"lon":5.34979,"is_reserved":false,"is_disabled":false,"rental_uris":{"android":"levelo://app?vid=76f1fd24-8931-4e58-bbc3-9dafc38ebc38","ios":"levelo://app?vid=76f1fd24-8931-4e58-bbc3-9dafc38ebc38"},"vehicle_type_id":"4","last_reported":1722442180,"current_range_meters":15200,"station_id":"ce4bhbh2rcd13ifvqepg","pricing_plan_id":"cebpf4jnsgd1na2vs0mg"},{"bike_id":"8638c447-a9a7-4f3d-acb9-7ee8e05742c2","system_id":"levelo_inurba_marseille","lat":43.28417,"lon":5.34973,"is_reserved":false,"is_disabled":false,"rental_uris":{"android":"levelo://app?vid=8638c447-a9a7-4f3d-acb9-7ee8e05742c2","ios":"levelo://app?vid=8638c447-a9a7-4f3d-acb9-7ee8e05742c2"},"vehicle_type_id":"4","last_reported":1722442180,"current_range_meters":12000,"station_id":"ce4bhbh2rcd13ifvqepg","pricing_plan_id":"cebpf4jnsgd1na2vs0mg"},{"bike_id":"d6aa78e1-503c-42ed-93c0-d8440441f221","system_id":"levelo_inurba_marseille","lat":43.28416,"lon":5.34976,"is_reserved":false,"is_disabled":false,"rental_uris":{"android":"levelo://app?vid=d6aa78e1-503c-42ed-93c0-d8440441f221","ios":"levelo://app?vid=d6aa78e1-503c-42ed-93c0-d8440441f221"},"vehicle_type_id":"4","last_reported":1722442180,"current_range_meters":19600,"station_id":"ce4bhbh2rcd13ifvqepg","pricing_plan_id":"cebpf4jnsgd1na2vs0mg"},{"bike_id":"d53ce129-f726-4514-b3b9-338884b0504e","system_id":"levelo_inurba_marseille","lat":43.28415,"lon":5.34979,"is_reserved":false,"is_disabled":false,"rental_uris":{"android":"levelo://app?vid=d53ce129-f726-4514-b3b9-338884b0504e","ios":"levelo://app?vid=d53ce129-f726-4514-b3b9-338884b0504e"},"vehicle_type_id":"4","last_reported":1722442180,"current_range_meters":7200,"station_id":"ce4bhbh2rcd13ifvqepg","pricing_plan_id":"cebpf4jnsgd1na2vs0mg"},{"bike_id":"650c918e-d0f4-42c4-a804-c2a4a6f8bbb0","system_id":"levelo_inurba_marseille","lat":43.28414,"lon":5.34981,"is_reserved":false,"is_disabled":false,"rental_uris":{"android":"levelo://app?vid=650c918e-d0f4-42c4-a804-c2a4a6f8bbb0","ios":"levelo://app?vid=650c918e-d0f4-42c4-a804-c2a4a6f8bbb0"},"vehicle_type_id":"4","last_reported":1722442180,"current_range_meters":0,"station_id":"ce4bhbh2rcd13ifvqepg","pricing_plan_id":"cebpf4jnsgd1na2vs0mg"},{"bike_id":"7a8a8272-0bc6-4185-a2d3-2147d0136ae2","system_id":"levelo_inurba_marseille","lat":43.28412,"lon":5.34986,"is_reserved":false,"is_disabled":false,"rental_uris":{"android":"levelo://app?vid=7a8a8272-0bc6-4185-a2d3-2147d0136ae2","ios":"levelo://app?vid=7a8a8272-0bc6-4185-a2d3-2147d0136ae2"},"vehicle_type_id":"4","last_reported":1722442180,"current_range_meters":31200,"station_id":"ce4bhbh2rcd13ifvqepg","pricing_plan_id":"cebpf4jnsgd1na2vs0mg"},