{"last_updated":1756400918,"ttl":60,"version":"2.2","data":{"bikes":[{"bike_id":"268f726c-a953-4ec5-9941-92614456c29d","system_id":"levelo_inurba_marseille","lat":43.26555,"lon":5.37288,"is_reserved":false,"is_disabled":false,"rental_uris":{"android":"levelo://app?vid=268f726c-a953-4ec5-9941-92614456c29d","ios":"levelo://app?vid=268f726c-a953-4ec5-9941-92614456c29d"},"vehicle_type_id":"4","last_reported":1756400918,"current_range_meters":2800,"station_id":"ce4bhg12rcd13ifvqf70","pricing_plan_id":"cebpf4jnsgd1na2vs0mg"},{"bike_id":"5b64a6b4-157b-48ac-8cac-29f37ea3aecd","system_id":"levelo_inurba_marseille","lat":43.32473,"lon":5.36594,"is_reserved":false,"is_disabled":false,"rental_uris":{"android":"levelo://app?vid=5b64a6b4-157b-48ac-8cac-29f37ea3aecd","ios":"levelo://app?vid=5b64a6b4-157b-48ac-8cac-29f37ea3aecd"},"vehicle_type_id":"4","last_reported":1756400918,"current_range_meters":2800,"station_id":"ce4bhs12rcd13ifvqhvg","pricing_plan_id":"cebpf4jnsgd1na2vs0mg"},{"bike_id":"a986bb5b-d423-45d2-a796-bf3b58d97553","system_id":"levelo_inurba_marseille","lat":43.29525,"lon":5.39052,"is_reserved":false,"is_disabled":false,"rental_uris":{"android":"levelo://app?vid=a986bb5b-d423-45d2-a796-bf3b58d97553","ios":"levelo://app?vid=a986bb5b-d423-45d2-a796-bf3b58d97553"},"vehicle_type_id":"4","last_reported":1756400918,"current_range_meters":3200,"station_id":"ce4bh3p2rcd13ifvqdp0","pricing_plan_id":"cebpf4jnsgd1na2vs0mg"},{"bike_id":"379f576c-4b58-480d-96e8-b28b24a91ecc","system_id":"levelo_inurba_marseille","lat":43.25577,"lon":5.38232,"is_reserved":false,"is_disabled":false,"rental_uris":{"android":"levelo://app?vid=379f576c-4b58-480d-96e8-b28b24a91ecc","ios":"levelo://app?vid=379f576c-4b58-480d-96e8-b28b24a91ecc"},"vehicle_type_id":"4","last_reported":1756400918,"current_range_meters":3200,"station_id":"ce4bhih2rcd13ifvqfs0","pricing_plan_id":"cebpf4jnsgd1na2vs0mg"},{"bike_id":"51842e17-ef10-4624-a23e-c8a182427991","system_id":"levelo_inurba_marseille","lat":43.31636,"lon":5.38189,"is_reserved":false,"is_disabled":false,"rental_uris":{"android":"levelo://app?vid=51842e17-ef10-4624-a23e-c8a182427991","ios":"levelo://app?vid=51842e17-ef10-4624-a23e-c8a182427991"},"vehicle_type_id":"4","last_reported":1756400918,"current_range_meters":3600,"station_id":"","pricing_plan_id":"cebpf4jnsgd1na2vs0mg"},{"bike_id":"2074dbdc-38dc-4ef2-9d21-3eb20743b43e","system_id":"levelo_inurba_marseille","lat":43.32346,"lon":5.36734,"is_reserved":false,"is_disabled":false,"rental_uris":{"android":"levelo://app?vid=2074dbdc-38dc-4ef2-9d21-3eb20743b43e","ios":"levelo://app?vid=2074dbdc-38dc-4ef2-9d21-3eb20743b43e"},"vehicle_type_id":"4","last_reported":1756400918,"current_range_meters":3600,"station_id":"ce4bhsh2rcd13ifvqi2g","pricing_plan_id":"cebpf4jnsgd1na2vs0mg"},{"bike_id":"644043d4-9096-4d71-a2d2-4f1cf2a97ece","system_id":"levelo_inurba_marseille","lat":43.29963,"lon":5.38486,"is_reserved":false,"is_disabled":false,"rental_uris":{"android":"levelo://app?vid=644043d4-9096-4d71-a2d2-4f1cf2a97ece","ios":"levelo://app?vid=644043d4-9096-4d71-a2d2-4f1cf2a97ece"},"vehicle_type_id":"4","last_reported":1756400918,"current_range_meters":3600,"station_id":"ce4bgj92rcd13ifvqbd0","pricing_plan_id":"cebpf4jnsgd1na2vs0mg"},{"bike_id":"9ebbca0f-8b0f-49e0-bbc0-5934ebb0e846","system_id":"levelo_inurba_marseille","lat":43.21167,"lon":5.35087,"is_reserved":false,"is_disabled":false,"rental_uris":{"android":"levelo://app?vid=9ebbca0f-8b0f-49e0-bbc0-5934ebb0e846","ios":"levelo://app?vid=9ebbca0f-8b0f-49e0-bbc0-5934ebb0e846"},"vehicle_type_id":"4","last_reported":1756400918,"current_range_meters":3600,"station_id":"st_cvj6sg6p6f1abm77japg","pricing_plan_id":"cebpf4jnsgd1na2vs0mg"},{"bike_id":"b7f5d4fc-8af5-442f-b471-e28f343fd67e","system_id":"levelo_inurba_marseille","lat":43.3376,"lon":5.37486,"is_reserved":false,"is_disabled":false,"rental_uris":{"android":"levelo://app?vid=b7f5d4fc-8af5-442f-b471-e28f343fd67e","ios":"levelo://app?vid=b7f5d4fc-8af5-442f-b471-e28f343fd67e"},"vehicle_type_id":"4","last_reported":1756400918,"current_range_meters":3600,"station_id":"","pricing_plan_id":"cebpf4jnsgd1na2vs0mg"},{"bike_id":"893ec097-4536-4c6c-aaa0-eff49bcf3147","system_id":"levelo_inurba_marseille","lat":43.26558,"lon":5.37267,"is_reserved":false,"is_disabled":false,"rental_uris":{"android":"levelo://app?vid=893ec097-4536-4c6c-aaa0-eff49bcf3147","ios":"levelo://app?vid=893ec097-4536-4c6c-aaa0-eff49bcf3147"},"vehicle_type_id":"4","last_reported":1756400918,"current_range_meters":4000,"station_id":"ce4bhg12rcd13ifvqf70","pricing_plan_id":"cebpf4jnsgd1na2vs0mg"},{"bike_id":"cecc62bc-2e62-4236-88b4-1b3b2c52c4a4","system_id":"levelo_inurba_marseille","lat":43.29647,"lon":5.37154,"is_reserved":false,"is_disabled":false,"rental_uris":{"android":"levelo://app?vid=cecc62bc-2e62-4236-88b4-1b3b2c52c4a4","ios":"levelo://app?vid=cecc62bc-2e62-4236-88b4-1b3b2c52c4a4"},"vehicle_type_id":"4","last_reported":1756400918,"current_range_meters":4000,"station_id":"ce4bgnh2rcd13ifvqc0g","pricing_plan_id":"cebpf4jnsgd1na2vs0mg"},{"bike_id":"b447705f-f1d5-4d5e-8eea-7195cdb56628","system_id":"levelo_inurba_marseille","lat":43.2656,"lon":5.37283,"is_reserved":false,"is_disabled":false,"rental_uris":{"android":"levelo://app?vid=b447705f-f1d5-4d5e-8eea-7195cdb56628","ios":"levelo://app?vid=b447705f-f1d5-4d5e-8eea-7195cdb56628"},"vehicle_type_id":"4","last_reported":1756400918,"current_range_meters":4000,"station_id":"ce4bhg12rcd13ifvqf70","pricing_plan_id":"cebpf4jnsgd1na2vs0mg"},{"bike_id":"69a01144-4cb0-4f43-b8a7-d8bba1210d75","system_id":"levelo_inurba_marseille","lat":43.31581,"lon":5.37434,"is_reserved":false,"is_disabled":false,"rental_uris":{"android":"levelo://app?vid=69a01144-4cb0-4f43-b8a7-d8bba1210d75","ios":"levelo://app?vid=69a01144-4cb0-4f43-b8a7-d8bba1210d75"},"vehicle_type_id":"4","last_reported":1756400918,"current_range_meters":4000,"station_id":"","pricing_plan_id":"cebpf4jnsgd1na2vs0mg"},{"bike_id":"8c39dec5-21c4-44e2-ad23-220a9c4742b0","system_id":"levelo_inurba_marseille","lat":43.30128,"lon":5.39871,"is_reserved":false,"is_disabled":false,"rental_uris":{"android":"levelo://app?vid=8c39dec5-21c4-44e2-ad23-220a9c4742b0","ios":"levelo://app?vid=8c39dec5-21c4-44e2-ad23-220a9c4742b0"},"vehicle_type_id":"4","last_reported":1756400918,"current_range_meters":4000,"station_id":"ce4bh0h2rcd13ifvqd40","pricing_plan_id":"cebpf4jnsgd1na2vs0mg"},{"bike_id":"2a57b190-4273-418c-a477-f313d71c971b","system_id":"levelo_inurba_marseille","lat":43.26558,"lon":5.37284,"is_reserved":false,"is_disabled":false,"rental_uris":{"android":"levelo://app?vid=2a57b190-4273-418c-a477-f313d71c971b","ios":"levelo://app?vid=2a57b190-4273-418c-a477-f313d71c971b"},"vehicle_type_id":"4","last_reported":1756400918,"current_range_meters":4400,"station_id":"ce4bhg12rcd13ifvqf70","pricing_plan_id":"cebpf4jnsgd1na2vs0mg"},{"bike_id":"b855db4d-55a1-4ba0-b5e3-722356b20869","system_id":"levelo_inurba_marseille","lat":43.29196,"lon":5.39322,"is_reserved":false,"is_disabled":false,"rental_uris":{"android":"levelo://app?vid=b855db4d-55a1-4ba0-b5e3-722356b20869","ios":"levelo://app?vid=b855db4d-55a1-4ba0-b5e3-722356b20869"},"vehicle_type_id":"4","last_reported":1756400918,"current_range_meters":4400,"station_id":"ce4bh192rcd13ifvqdd0","pricing_plan_id":"cebpf4jnsgd1na2vs0mg"},{"bike_id":"f6563042-7f7d-49dd-8622-8220f66cebea","system_id":"levelo_inurba_marseille","lat":43.304534,"lon":5.389234,"is_reserved":false,"is_disabled":false,"rental_uris":{"android":"levelo://app?vid=f6563042-7f7d-49dd-8622-8220f66cebea","ios":"levelo://app?vid=f6563042-7f7d-49dd-8622-8220f66cebea"},"vehicle_type_id":"4","last_reported":1756400918,"current_range_meters":4800,"station_id":"ce4bgk12rcd13ifvqbi0","pricing_plan_id":"cebpf4jnsgd1na2vs0mg"},{"bike_id":"1d58c9c0-c98f-4f79-9a01-51161492cabb","system_id":"levelo_inurba_marseille","lat":43.31075,"lon":5.38352,"is_reserved":false,"is_disabled":false,"rental_uris":{"android":"levelo://app?vid=1d58c9c0-c98f-4f79-9a01-51161492cabb","ios":"levelo://app?vid=1d58c9c0-c98f-4f79-9a01-51161492cabb"},"vehicle_type_id":"4","last_reported":1756400918,"current_range_meters":4800,"station_id":"ce4bgv92rcd13ifvqcr0","pricing_plan_id":"cebpf4jnsgd1na2vs0mg"},{"bike_id":"94886cbb-383e-454e-819a-f9934b9632c5","system_id":"levelo_inurba_marseille","lat":43.29875,"lon":5.39736,"is_reserved":false,"is_disabled":false,"rental_uris":{"android":"levelo://app?vid=94886cbb-383e-454e-819a-f9934b9632c5","ios":"levelo://app?vid=94886cbb-383e-454e-819a-f9934b9632c5"},"vehicle_type_id":"4","last_reported":1756400918,"current_range_meters":4800,"station_id":"ce4bh0h2rcd13ifvqd50","pricing_plan_id":"cebpf4jnsgd1na2vs0mg"},{"bike_id":"6829ede7-43bd-49a9-af08-dc75799a95dd","system_id":"levelo_inurba_marseille","lat":43.289297,"lon":5.366392,"is_reserved":false,"is_disabled":false,"rental_uris":{"android":"levelo://app?vid=6829ede7-43bd-49a9-af08-dc75799a95dd","ios":"levelo://app?vid=6829ede7-43bd-49a9-af08-dc75799a95dd"},"vehicle_type_id":"4","last_reported":1756400918,"current_range_meters":4800,"station_id":"ce4bhap2rcd13ifvqek0","pricing_plan_id":"cebpf4jnsgd1na2vs0mg"},{"bike_id":"c341c0d6-a03f-4be5-ad16-cb5097f725b1","system_id":"levelo_inurba_marseille","lat":43.27915,"lon":5.39575,"is_reserved":false,"is_disabled":false,"rental_uris":{"android":"levelo://app?vid=c341c0d6-a03f-4be5-ad16-cb5097f725b1","ios":"levelo://app?vid=c341c0d6-a03f-4be5-ad16-cb5097f725b1"},"vehicle_type_id":"4","last_reported":1756400918,"current_range_meters":4800,"station_id":"ce4bhf92rcd13ifvqf40","pricing_plan_id":"cebpf4jnsgd1na2vs0mg"},{"bike_id":"d9979d07-7753-485d-a1b4-c6d68391ba67","system_id":"levelo_inurba_marseille","lat":43.265625,"lon":5.372804,"is_reserved":false,"is_disabled":false,"rental_uris":{"android":"levelo://app?vid=d9979d07-7753-485d-a1b4-c6d68391ba67","ios":"levelo://app?vid=d9979d07-7753-485d-a1b4-c6d68391ba67"},"vehicle_type_id":"4","last_reported":1756400918,"current_range_meters":5600,"station_id":"ce4bhg12rcd13ifvqf70","pricing_plan_id":"cebpf4jnsgd1na2vs0mg"},{"bike_id":"ef63e662-2ae1-40fe-8b03-cd05e7e75d8b","system_id":"levelo_inurba_marseille","lat":43.28948,"lon":5.36405,"is_reserved":false,"is_disabled":false,"rental_uris":{"android":"levelo://app?vid=ef63e662-2ae1-40fe-8b03-cd05e7e75d8b","ios":"levelo://app?vid=ef63e662-2ae1-40fe-8b03-cd05e7e75d8b"},"vehicle_type_id":"4","last_reported":1756400918,"current_range_meters":5600,"station_id":"ce4bhc92rcd13ifvqetg","pricing_plan_id":"cebpf4jnsgd1na2vs0mg"},{"bike_id":"db8821de-6f25-4d7f-b0fa-598cc6b324bb","system_id":"levelo_inurba_marseille","lat":43.2656,"lon":5.38994,"is_reserved":false,"is_disabled":false,"rental_uris":{"android":"levelo://app?vid=db8821de-6f25-4d7f-b0fa-598cc6b324bb","ios":"levelo://app?vid=db8821de-6f25-4d7f-b0fa-598cc6b324bb"},"vehicle_type_id":"4","last_reported":1756400918,"current_range_meters":6000,"station_id":"ce4bhe12rcd13ifvqf30","pricing_plan_id":"cebpf4jnsgd1na2vs0mg"},{"bike_id":"1419129e-f0de-4052-abf1-7e5e3f2a2700","system_id":"levelo_inurba_marseille","lat":43.2921,"lon":5.38016,"is_reserved":false,"is_disabled":false,"rental_uris":{"android":"levelo://app?vid=1419129e-f0de-4052-abf1-7e5e3f2a2700","ios":"levelo://app?vid=1419129e-f0de-4052-abf1-7e5e3f2a2700"},"vehicle_type_id":"4","last_reported":1756400918,"current_range_meters":6000,"station_id":"","pricing_plan_id":"cebpf4jnsgd1na2vs0mg"},{"bike_id":"3e3c3d66-f9aa-47c6-8e27-832e9eb8b237","system_id":"levelo_inurba_marseille","lat":43.29221,"lon":5.36064,"is_reserved":false,"is_disabled":false,"rental_uris":{"android":"levelo://app?vid=3e3c3d66-f9aa-47c6-8e27-832e9eb8b237","ios":"levelo://app?vid=3e3c3d66-f9aa-47c6-8e27-832e9eb8b237"},"vehicle_type_id":"4","last_reported":1756400918,"current_range_meters":6000,"station_id":"ce4bhbh2rcd13ifvqeqg","pricing_plan_id":"cebpf4jnsgd1na2vs0mg"},{"bike_id":"5bce688b-fc81-4596-8277-b66f54be87c1","system_id":"levelo_inurba_marseille","lat":43.337645,"lon":5.374409,"is_reserved":false,"is_disabled":false,"rental_uris":{"android":"levelo://app?vid=5bce688b-fc81-4596-8277-b66f54be87c1","ios":"levelo://app?vid=5bce688b-fc81-4596-8277-b66f54be87c1"},"vehicle_type_id":"4","last_reported":1756400918,"current_range_meters":6400,"station_id":"","pricing_plan_id":"cebpf4jnsgd1na2vs0mg"},{"bike_id":"03643a12-2328-48d2-90de-eb602d797cc6","system_id":"levelo_inurba_marseille","lat":43.27842,"lon":5.39209,"is_reserved":false,"is_disabled":false,"rental_uris":{"android":"levelo://app?vid=03643a12-2328-48d2-90de-eb602d797cc6","ios":"levelo://app?vid=03643a12-2328-48d2-90de-eb602d797cc6"},"vehicle_type_id":"4","last_reported":1756400918,"current_range_meters":6400,"station_id":"ce4bhjp2rcd13ifvqga0","pricing_plan_id":"cebpf4jnsgd1na2vs0mg"},{"bike_id":"72e99d51-2b9f-415a-b656-34965e0c57bf","system_id":"levelo_inurba_marseille","lat":43.26573,"lon":5.39004,"is_reserved":false,"is_disabled":false,"rental_uris":{"android":"levelo://app?vid=72e99d51-2b9f-415a-b656-34965e0c57bf","ios":"levelo://app?vid=72e99d51-2b9f-415a-b656-34965e0c57bf"},"vehicle_type_id":"4","last_reported":1756400918,"current_range_meters":6400,"station_id":"ce4bhe12rcd13ifvqf30","pricing_plan_id":"cebpf4jnsgd1na2vs0mg"},{"bike_id":"24f5aa1f-2f94-4f26-8f26-0f5d3cb057f4","system_id":"levelo_inurba_marseille","lat":43.28724,"lon":5.42709,"is_reserved":false,"is_disabled":false,"rental_uris":{"android":"levelo://app?vid=24f5aa1f-2f94-4f26-8f26-0f5d3cb057f4","ios":"levelo://app?vid=24f5aa1f-2f94-4f26-8f26-0f5d3cb057f4"},"vehicle_type_id":"4","last_reported":1756400918,"current_range_meters":6400,"station_id":"","pricing_plan_id":"cebpf4jnsgd1na2vs0mg"},{"bike_id":"1e49138f-28b4-4233-8670-d457c5d72fe5","system_id":"levelo_inurba_marseille","lat":43.30881,"lon":5.39647,"is_reserved":false,"is_disabled":false,"rental_uris":{"android":"levelo://app?vid=1e49138f-28b4-4233-8670-d457c5d72fe5","ios":"levelo://app?vid=1e49138f-28b4-4233-8670-d457c5d72fe5"},"vehicle_type_id":"4","last_reported":1756400918,"current_range_meters":6800,"station_id":"ce4bh012rcd13ifvqcv0","pricing_plan_id":"cebpf4jnsgd1na2vs0mg"},{"bike_id":"e5eabf25-4e1c-476e-b130-9f83cdcfc80c","system_id":"levelo_inurba_marseille","lat":43.29812,"lon":5.41725,"is_reserved":false,"is_disabled":false,"rental_uris":{"android":"levelo://app?vid=e5eabf25-4e1c-476e-b130-9f83cdcfc80c","ios":"levelo://app?vid=e5eabf25-4e1c-476e-b130-9f83cdcfc80c"},"vehicle_type_id":"4","last_reported":1756400918,"current_range_meters":7200,"station_id":"","pricing_plan_id":"cebpf4jnsgd1na2vs0mg"},{"bike_id":"b8e6de06-1200-4c87-b827-49c15faa9943","system_id":"levelo_inurba_marseille","lat":43.28669,"lon":5.363555,"is_reserved":false,"is_disabled":false,"rental_uris":{"android":"levelo://app?vid=b8e6de06-1200-4c87-b827-49c15faa9943","ios":"levelo://app?vid=b8e6de06-1200-4c87-b827-49c15faa9943"},"vehicle_type_id":"4","last_reported":1756400918,"current_range_meters":7200,"station_id":"ce4bhah2rcd13ifvqej0","pricing_plan_id":"cebpf4jnsgd1na2vs0mg"},{"bike_id":"a6ef8657-5b8a-423b-993f-c3df43dec0a0","system_id":"levelo_inurba_marseille","lat":43.337595,"lon":5.374806,"is_reserved":false,"is_disabled":false,"rental_uris":{"android":"levelo://app?vid=a6ef8657-5b8a-423b-993f-c3df43dec0a0","ios":"levelo://app?vid=a6ef8657-5b8a-423b-993f-c3df43dec0a0"},"vehicle_type_id":"4","last_reported":1756400918,"current_range_meters":7200,"station_id":"","pricing_plan_id":"cebpf4jnsgd1na2vs0mg"},{"bike_id":"3ac33ed3-f36b-4d89-9eea-da4b28ba5cab","system_id":"levelo_inurba_marseille","lat":43.26801,"lon":5.40276,"is_reserved":false,"is_disabled":false,"rental_uris":{"android":"levelo://app?vid=3ac33ed3-f36b-4d89-9eea-da4b28ba5cab","ios":"levelo://app?vid=3ac33ed3-f36b-4d89-9eea-da4b28ba5cab"},"vehicle_type_id":"4","last_reported":1756400918,"current_range_meters":7200,"station_id":"ce501612rcd8frsf0b60","pricing_plan_id":"cebpf4jnsgd1na2vs0mg"},{"bike_id":"780abeb6-5f18-47e2-b728-9f98e79bfdee","system_id":"levelo_inurba_marseille","lat":43.216944,"lon":5.34629,"is_reserved":false,"is_disabled":false,"rental_uris":{"android":"levelo://app?vid=780abeb6-5f18-47e2-b728-9f98e79bfdee","ios":"levelo://app?vid=780abeb6-5f18-47e2-b728-9f98e79bfdee"},"vehicle_type_id":"4","last_reported":1756400918,"current_range_meters":7200,"station_id":"","pricing_plan_id":"cebpf4jnsgd1na2vs0mg"},{"bike_id":"efe0bb0f-c92c-4efb-b29f-a81448ec5eb2","system_id":"levelo_inurba_marseille","lat":43.29025,"lon":5.37544,"is_reserved":false,"is_disabled":true,"rental_uris":{"android":"levelo://app?vid=efe0bb0f-c92c-4efb-b29f-a81448ec5eb2","ios":"levelo://app?vid=efe0bb0f-c92c-4efb-b29f-a81448ec5eb2"},"vehicle_type_id":"4","last_reported":1756400918,"current_range_meters":8000,"station_id":"ce4bh692rcd13ifvqe90","pricing_plan_id":"cebpf4jnsgd1na2vs0mg"},{"bike_id":"76ef886c-3ee0-4f9c-89a8-072f56de0a65","system_id":"levelo_inurba_marseille","lat":43.26574,"lon":5.3901,"is_reserved":false,"is_disabled":false,"rental_uris":{"android":"levelo://app?vid=76ef886c-3ee0-4f9c-89a8-072f56de0a65","ios":"levelo://app?vid=76ef886c-3ee0-4f9c-89a8-072f56de0a65"},"vehicle_type_id":"4","last_reported":1756400918,"current_range_meters":8000,"station_id":"ce4bhe12rcd13ifvqf30","pricing_plan_id":"cebpf4jnsgd1na2vs0mg"},{"bike_id":"32f31bc9-b8f0-41fe-b573-eefb1116e6bb","system_id":"levelo_inurba_marseille","lat":43.25336,"lon":5.42171,"is_reserved":false,"is_disabled":false,"rental_uris":{"android":"levelo://app?vid=32f31bc9-b8f0-41fe-b573-eefb1116e6bb","ios":"levelo://app?vid=32f31bc9-b8f0-41fe-b573-eefb1116e6bb"},"vehicle_type_id":"4","last_reported":1756400918,"current_range_meters":8000,"station_id":"st_d2m65c5bi1j21697t3ng","pricing_plan_id":"cebpf4jnsgd1na2vs0mg"},{"bike_id":"9cb3eac0-b646-4177-9d90-dbf0ae2d1a05","system_id":"levelo_inurba_marseille","lat":43.29533,"lon":5.38542,"is_reserved":false,"is_disabled":false,"rental_uris":{"android":"levelo://app?vid=9cb3eac0-b646-4177-9d90-dbf0ae2d1a05","ios":"levelo://app?vid=9cb3eac0-b646-4177-9d90-dbf0ae2d1a05"},"vehicle_type_id":"4","last_reported":1756400918,"current_range_meters":8400,"station_id":"ce4bgih2rcd13ifvqba0","pricing_plan_id":"cebpf4jnsgd1na2vs0mg"},{"bike_id":"e36ab571-6b83-4012-910d-c8ac275ef467","system_id":"levelo_inurba_marseille","lat":43.294562,"lon":5.374092,"is_reserved":false,"is_disabled":false,"rental_uris":{"android":"levelo://app?vid=e36ab571-6b83-4012-910d-c8ac275ef467","ios":"levelo://app?vid=e36ab571-6b83-4012-910d-c8ac275ef467"},"vehicle_type_id":"4","last_reported":1756400918,"current_range_meters":8400,"station_id":"","pricing_plan_id":"cebpf4jnsgd1na2vs0mg"},{"bike_id":"c0a25215-1c99-4f2b-87e7-e7e1981243cc","system_id":"levelo_inurba_marseille","lat":43.28261,"lon":5.35078,"is_reserved":false,"is_disabled":false,"rental_uris":{"android":"levelo://app?vid=c0a25215-1c99-4f2b-87e7-e7e1981243cc","ios":"levelo://app?vid=c0a25215-1c99-4f2b-87e7-e7e1981243cc"},"vehicle_type_id":"4","last_reported":1756400918,"current_range_meters":8400,"station_id":"ce4bhbp2rcd13ifvqerg","pricing_plan_id":"cebpf4jnsgd1na2vs0mg"},{"bike_id":"d1519a34-899d-47cd-b130-36151142ec6a","system_id":"levelo_inurba_marseille","lat":43.30953,"lon":5.39023,"is_reserved":false,"is_disabled":false,"rental_uris":{"android":"levelo://app?vid=d1519a34-899d-47cd-b130-36151142ec6a","ios":"levelo://app?vid=d1519a34-899d-47cd-b130-36151142ec6a"},"vehicle_type_id":"4","last_reported":1756400918,"current_range_meters":8400,"station_id":"ce4bgup2rcd13ifvqco0","pricing_plan_id":"cebpf4jnsgd1na2vs0mg"},{"bike_id":"452c64c1-c18e-429f-ac02-5f3cc7af3941","system_id":"levelo_inurba_marseille","lat":43.217673,"lon":5.346022,"is_reserved":false,"is_disabled":false,"rental_uris":{"android":"levelo://app?vid=452c64c1-c18e-429f-ac02-5f3cc7af3941","ios":"levelo://app?vid=452c64c1-c18e-429f-ac02-5f3cc7af3941"},"vehicle_type_id":"4","last_reported":1756400918,"current_range_meters":8400,"station_id":"st_cvj6r9ubvosntc0bgbag","pricing_plan_id":"cebpf4jnsgd1na2vs0mg"},{"bike_id":"0a908185-cad3-4d92-8f51-67068ebb1335","system_id":"levelo_inurba_marseille","lat":43.270679,"lon":5.422736,"is_reserved":false,"is_disabled":false,"rental_uris":{"android":"levelo://app?vid=0a908185-cad3-4d92-8f51-67068ebb1335","ios":"levelo://app?vid=0a908185-cad3-4d92-8f51-67068ebb1335"},"vehicle_type_id":"4","last_reported":1756400918,"current_range_meters":8400,"station_id":"ce4bhk92rcd13ifvqgb0","pricing_plan_id":"cebpf4jnsgd1na2vs0mg"},{"bike_id":"3ebbe411-c9ad-41ae-9df5-ad5b7601336c","system_id":"levelo_inurba_marseille","lat":43.26029,"lon":5.37554,"is_reserved":false,"is_disabled":true,"rental_uris":{"android":"levelo://app?vid=3ebbe411-c9ad-41ae-9df5-ad5b7601336c","ios":"levelo://app?vid=3ebbe411-c9ad-41ae-9df5-ad5b7601336c"},"vehicle_type_id":"4","last_reported":1756400918,"current_range_meters":8800,"station_id":"ce4bhgh2rcd13ifvqfa0","pricing_plan_id":"cebpf4jnsgd1na2vs0mg"},{"bike_id":"8637e1aa-9c9a-41e1-a5d5-f0342a65118e","system_id":"levelo_inurba_marseille","lat":43.31677,"lon":5.43679,"is_reserved":false,"is_disabled":false,"rental_uris":{"android":"levelo://app?vid=8637e1aa-9c9a-41e1-a5d5-f0342a65118e","ios":"levelo://app?vid=8637e1aa-9c9a-41e1-a5d5-f0342a65118e"},"vehicle_type_id":"4","last_reported":1756400918,"current_range_meters":8800,"station_id":"ce4bhp92rcd13ifvqhcg","pricing_plan_id":"cebpf4jnsgd1na2vs0mg"},{"bike_id":"2cdfeade-d334-4099-8e5f-e7925b2b1867","system_id":"levelo_inurba_marseille","lat":43.2176,"lon":5.34606,"is_reserved":false,"is_disabled":false,"rental_uris":{"android":"levelo://app?vid=2cdfeade-d334-4099-8e5f-e7925b2b1867","ios":"levelo://app?vid=2cdfeade-d334-4099-8e5f-e7925b2b1867"},"vehicle_type_id":"4","last_reported":1756400918,"current_range_meters":9200,"station_id":"st_cvj6r9ubvosntc0bgbag","pricing_plan_id":"cebpf4jnsgd1na2vs0mg"},{"bike_id":"77156377-48e3-4434-b0ee-2f71280534b9","system_id":"levelo_inurba_marseille","lat":43.27253,"lon":5.41052,"is_reserved":false,"is_disabled":false,"rental_uris":{"android":"levelo://app?vid=77156377-48e3-4434-b0ee-2f71280534b9","ios":"levelo://app?vid=77156377-48e3-4434-b0ee-2f71280534b9"},"vehicle_type_id":"4","last_reported":1756400918,"current_range_meters":9200,"station_id":"","pricing_plan_id":"cebpf4jnsgd1na2vs0mg"},{"bike_id":"2d7e4a30-8b0f-42cf-ad2e-6c676f168cef","system_id":"levelo_inurba_marseille","lat":43.23153,"lon":5.43721,"is_reserved":false,"is_disabled":false,"rental_uris":{"android":"levelo://app?vid=2d7e4a30-8b0f-42cf-ad2e-6c676f168cef","ios":"levelo://app?vid=2d7e4a30-8b0f-42cf-ad2e-6c676f168cef"},"vehicle_type_id":"4","last_reported":1756400918,"current_range_meters":9200,"station_id":"ce4bhmp2rcd13ifvqgog","pricing_plan_id":"cebpf4jnsgd1na2vs0mg"},{"bike_id":"def09d86-cf53-4fa1-bbc6-120361c46992","system_id":"levelo_inurba_marseille","lat":43.28616,"lon":5.35104,"is_reserved":false,"is_disabled":false,"rental_uris":{"android":"levelo://app?vid=def09d86-cf53-4fa1-bbc6-120361c46992","ios":"levelo://app?vid=def09d86-cf53-4fa1-bbc6-120361c46992"},"vehicle_type_id":"4","last_reported":1756400918,"current_range_meters":9600,"station_id":"ce4bhch2rcd13ifvqeug","pricing_plan_id":"cebpf4jnsgd1na2vs0mg"},{"bike_id":"7d09ef9f-0184-45ce-803c-83307eefc5b2","system_id":"levelo_inurba_marseille","lat":43.298089,"lon":5.381118,"is_reserved":false,"is_disabled":false,"rental_uris":{"android":"levelo://app?vid=7d09ef9f-0184-45ce-803c-83307eefc5b2","ios":"levelo://app?vid=7d09ef9f-0184-45ce-803c-83307eefc5b2"},"vehicle_type_id":"4","last_reported":1756400918,"current_range_meters":9600,"station_id":"","pricing_plan_id":"cebpf4jnsgd1na2vs0mg"},{"bike_id":"a4ddb081-a1c4-4f31-a443-39419a5f1a3c","system_id":"levelo_inurba_marseille","lat":43.23152,"lon":5.43724,"is_reserved":false,"is_disabled":false,"rental_uris":{"android":"levelo://app?vid=a4ddb081-a1c4-4f31-a443-39419a5f1a3c","ios":"levelo://app?vid=a4ddb081-a1c4-4f31-a443-39419a5f1a3c"},"vehicle_type_id":"4","last_reported":1756400918,"current_range_meters":9600,"station_id":"ce4bhmp2rcd13ifvqgog","pricing_plan_id":"cebpf4jnsgd1na2vs0mg"},{"bike_id":"ed8dc2e3-981b-4b07-91ab-ca7c477c8797","system_id":"levelo_inurba_marseille","lat":43.31713,"lon":5.43708,"is_reserved":false,"is_disabled":false,"rental_uris":{"android":"levelo://app?vid=ed8dc2e3-981b-4b07-91ab-ca7c477c8797","ios":"levelo://app?vid=ed8dc2e3-981b-4b07-91ab-ca7c477c8797"},"vehicle_type_id":"4","last_reported":1756400918,"current_range_meters":10000,"station_id":"ce4bhp92rcd13ifvqhcg","pricing_plan_id":"cebpf4jnsgd1na2vs0mg"},{"bike_id":"5c26a54e-1e97-4ad3-a16d-614ad930b130","system_id":"levelo_inurba_marseille","lat":43.32104,"lon":5.36778,"is_reserved":false,"is_disabled":false,"rental_uris":{"android":"levelo://app?vid=5c26a54e-1e97-4ad3-a16d-614ad930b130","ios":"levelo://app?vid=5c26a54e-1e97-4ad3-a16d-614ad930b130"},"vehicle_type_id":"4","last_reported":1756400918,"current_range_meters":10000,"station_id":"ce4bhrh2rcd13ifvqhug","pricing_plan_id":"cebpf4jnsgd1na2vs0mg"},{"bike_id":"bdc0f3e1-e87f-4e12-9878-af6a2574b34c","system_id":"levelo_inurba_marseille","lat":43.31884,"lon":5.40735,"is_reserved":false,"is_disabled":false,"rental_uris":{"android":"levelo://app?vid=bdc0f3e1-e87f-4e12-9878-af6a2574b34c","ios":"levelo://app?vid=bdc0f3e1-e87f-4e12-9878-af6a2574b34c"},"vehicle_type_id":"4","last_reported":1756400918,"current_range_meters":10000,"station_id":"ce4bhq12rcd13ifvqhig","pricing_plan_id":"cebpf4jnsgd1na2vs0mg"},{"bike_id":"2adf3e28-9b29-4416-b351-c1a1e185f300","system_id":"levelo_inurba_marseille","lat":43.30415,"lon":5.41278,"is_reserved":false,"is_disabled":false,"rental_uris":{"android":"levelo://app?vid=2adf3e28-9b29-4416-b351-c1a1e185f300","ios":"levelo://app?vid=2adf3e28-9b29-4416-b351-c1a1e185f300"},"vehicle_type_id":"4","last_reported":1756400918,"current_range_meters":10000,"station_id":"ce4bhop2rcd13ifvqh8g","pricing_plan_id":"cebpf4jnsgd1na2vs0mg"},{"bike_id":"eab43485-32c9-46f2-945e-ada25159633d","system_id":"levelo_inurba_marseille","lat":43.26204,"lon":5.37437,"is_reserved":false,"is_disabled":false,"rental_uris":{"android":"levelo://app?vid=eab43485-32c9-46f2-945e-ada25159633d","ios":"levelo://app?vid=eab43485-32c9-46f2-945e-ada25159633d"},"vehicle_type_id":"4","last_reported":1756400918,"current_range_meters":10000,"station_id":"ce4bhgp2rcd13ifvqfc0","pricing_plan_id":"cebpf4jnsgd1na2vs0mg"},{"bike_id":"3091e42a-5528-4881-bef2-02a10038c1e8","system_id":"levelo_inurba_marseille","lat":43.27295,"lon":5.36287,"is_reserved":false,"is_disabled":false,"rental_uris":{"android":"levelo://app?vid=3091e42a-5528-4881-bef2-02a10038c1e8","ios":"levelo://app?vid=3091e42a-5528-4881-bef2-02a10038c1e8"},"vehicle_type_id":"4","last_reported":1756400918,"current_range_meters":10000,"station_id":"","pricing_plan_id":"cebpf4jnsgd1na2vs0mg"},{"bike_id":"ac0ea835-99bd-43af-8946-31e8413cf1fb","system_id":"levelo_inurba_marseille","lat":43.32483,"lon":5.36569,"is_reserved":false,"is_disabled":false,"rental_uris":{"android":"levelo://app?vid=ac0ea835-99bd-43af-8946-31e8413cf1fb","ios":"levelo://app?vid=ac0ea835-99bd-43af-8946-31e8413cf1fb"},"vehicle_type_id":"4","last_reported":1756400918,"current_range_meters":10800,"station_id":"ce4bhs12rcd13ifvqhvg","pricing_plan_id":"cebpf4jnsgd1na2vs0mg"},{"bike_id":"ab9441cc-8053-4e92-8409-e2df6cea2911","system_id":"levelo_inurba_marseille","lat":43.26193,"lon":5.37442,"is_reserved":false,"is_disabled":false,"rental_uris":{"android":"levelo://app?vid=ab9441cc-8053-4e92-8409-e2df6cea2911","ios":"levelo://app?vid=ab9441cc-8053-4e92-8409-e2df6cea2911"},"vehicle_type_id":"4","last_reported":1756400918,"current_range_meters":10800,"station_id":"ce4bhgp2rcd13ifvqfc0","pricing_plan_id":"cebpf4jnsgd1na2vs0mg"},{"bike_id":"72ad73f8-ec78-4d1c-adef-5e4bde17ed13","system_id":"levelo_inurba_marseille","lat":43.28237,"lon":5.39067,"is_reserved":false,"is_disabled":true,"rental_uris":{"android":"levelo://app?vid=72ad73f8-ec78-4d1c-adef-5e4bde17ed13","ios":"levelo://app?vid=72ad73f8-ec78-4d1c-adef-5e4bde17ed13"},"vehicle_type_id":"4","last_reported":1756400918,"current_range_meters":10800,"station_id":"","pricing_plan_id":"cebpf4jnsgd1na2vs0mg"},{"bike_id":"9582039f-0657-4717-bbea-d8181085e4eb","system_id":"levelo_inurba_marseille","lat":43.26554,"lon":5.37284,"is_reserved":false,"is_disabled":false,"rental_uris":{"android":"levelo://app?vid=9582039f-0657-4717-bbea-d8181085e4eb","ios":"levelo://app?vid=9582039f-0657-4717-bbea-d8181085e4eb"},"vehicle_type_id":"4","last_reported":1756400918,"current_range_meters":11200,"station_id":"ce4bhg12rcd13ifvqf70","pricing_plan_id":"cebpf4jnsgd1na2vs0mg"},{"bike_id":"baf23113-7082-4065-a6eb-ae0f8cc08033","system_id":"levelo_inurba_marseille","lat":43.32357,"lon":5.36751,"is_reserved":false,"is_disabled":false,"rental_uris":{"android":"levelo://app?vid=baf23113-7082-4065-a6eb-ae0f8cc08033","ios":"levelo://app?vid=baf23113-7082-4065-a6eb-ae0f8cc08033"},"vehicle_type_id":"4","last_reported":1756400918,"current_range_meters":11200,"station_id":"ce4bhsh2rcd13ifvqi2g","pricing_plan_id":"cebpf4jnsgd1na2vs0mg"},{"bike_id":"aeeca87a-f1b7-4f38-b675-5ee832927152","system_id":"levelo_inurba_marseille","lat":43.26195,"lon":5.37448,"is_reserved":false,"is_disabled":false,"rental_uris":{"android":"levelo://app?vid=aeeca87a-f1b7-4f38-b675-5ee832927152","ios":"levelo://app?vid=aeeca87a-f1b7-4f38-b675-5ee832927152"},"vehicle_type_id":"4","last_reported":1756400918,"current_range_meters":11600,"station_id":"ce4bhgp2rcd13ifvqfc0","pricing_plan_id":"cebpf4jnsgd1na2vs0mg"},{"bike_id":"f7077769-a727-4099-9d60-fa6aef1c151a","system_id":"levelo_inurba_marseille","lat":43.31711,"lon":5.43705,"is_reserved":false,"is_disabled":false,"rental_uris":{"android":"levelo://app?vid=f7077769-a727-4099-9d60-fa6aef1c151a","ios":"levelo://app?vid=f7077769-a727-4099-9d60-fa6aef1c151a"},"vehicle_type_id":"4","last_reported":1756400918,"current_range_meters":11600,"station_id":"ce4bhp92rcd13ifvqhcg","pricing_plan_id":"cebpf4jnsgd1na2vs0mg"},{"bike_id":"73f741aa-46e5-4918-b753-bee9db7a0564","system_id":"levelo_inurba_marseille","lat":43.27572,"lon":5.38412,"is_reserved":false,"is_disabled":false,"rental_uris":{"android":"levelo://app?vid=73f741aa-46e5-4918-b753-bee9db7a0564","ios":"levelo://app?vid=73f741aa-46e5-4918-b753-bee9db7a0564"},"vehicle_type_id":"4","last_reported":1756400918,"current_range_meters":11600,"station_id":"ce4bhh92rcd13ifvqfi0","pricing_plan_id":"cebpf4jnsgd1na2vs0mg"},{"bike_id":"825f99ee-02a3-46e4-8dd8-870f14d345a8","system_id":"levelo_inurba_marseille","lat":43.22516,"lon":5.34755,"is_reserved":false,"is_disabled":true,"rental_uris":{"android":"levelo://app?vid=825f99ee-02a3-46e4-8dd8-870f14d345a8","ios":"levelo://app?vid=825f99ee-02a3-46e4-8dd8-870f14d345a8"},"vehicle_type_id":"4","last_reported":1756400918,"current_range_meters":11600,"station_id":"","pricing_plan_id":"cebpf4jnsgd1na2vs0mg"},{"bike_id":"58b0f458-6d83-41ca-9901-eee7b5b8a27a","system_id":"levelo_inurba_marseille","lat":43.26192,"lon":5.37455,"is_reserved":false,"is_disabled":false,"rental_uris":{"android":"levelo://app?vid=58b0f458-6d83-41ca-9901-eee7b5b8a27a","ios":"levelo://app?vid=58b0f458-6d83-41ca-9901-eee7b5b8a27a"},"vehicle_type_id":"4","last_reported":1756400918,"current_range_meters":11600,"station_id":"ce4bhgp2rcd13ifvqfc0","pricing_plan_id":"cebpf4jnsgd1na2vs0mg"},{"bike_id":"23ae6fed-deff-411b-8b6e-f95e32ccd4d0","system_id":"levelo_inurba_marseille","lat":43.321324,"lon":5.367664,"is_reserved":false,"is_disabled":false,"rental_uris":{"android":"levelo://app?vid=23ae6fed-deff-411b-8b6e-f95e32ccd4d0","ios":"levelo://app?vid=23ae6fed-deff-411b-8b6e-f95e32ccd4d0"},"vehicle_type_id":"4","last_reported":1756400918,"current_range_meters":11600,"station_id":"ce4bhrh2rcd13ifvqhug","pricing_plan_id":"cebpf4jnsgd1na2vs0mg"},{"bike_id":"d810acf0-5bd2-4bf1-848d-31cd30d105e6","system_id":"levelo_inurba_marseille","lat":43.269831,"lon":5.392782,"is_reserved":false,"is_disabled":false,"rental_uris":{"android":"levelo://app?vid=d810acf0-5bd2-4bf1-848d-31cd30d105e6","ios":"levelo://app?vid=d810acf0-5bd2-4bf1-848d-31cd30d105e6"},"vehicle_type_id":"4","last_reported":1756400918,"current_range_meters":11600,"station_id":"","pricing_plan_id":"cebpf4jnsgd1na2vs0mg"},{"bike_id":"e273d1a3-8ea7-4a0f-b072-8fb7a60e2fea","system_id":"levelo_inurba_marseille","lat":43.26031,"lon":5.37548,"is_reserved":false,"is_disabled":false,"rental_uris":{"android":"levelo://app?vid=e273d1a3-8ea7-4a0f-b072-8fb7a60e2fea","ios":"levelo://app?vid=e273d1a3-8ea7-4a0f-b072-8fb7a60e2fea"},"vehicle_type_id":"4","last_reported":1756400918,"current_range_meters":11600,"station_id":"ce4bhgh2rcd13ifvqfa0","pricing_plan_id":"cebpf4jnsgd1na2vs0mg"},{"bike_id":"dbf01e55-6836-414c-afc7-cc038f061efd","system_id":"levelo_inurba_marseille","lat":43.28463,"lon":5.35881,"is_reserved":false,"is_disabled":false,"rental_uris":{"android":"levelo://app?vid=dbf01e55-6836-414c-afc7-cc038f061efd","ios":"levelo://app?vid=dbf01e55-6836-414c-afc7-cc038f061efd"},"vehicle_type_id":"4","last_reported":1756400918,"current_range_meters":11200,"station_id":"ce4bhah2rcd13ifvqei0","pricing_plan_id":"cebpf4jnsgd1na2vs0mg"},{"bike_id":"be8aa754-85f9-40a1-9e90-c9882863c890","system_id":"levelo_inurba_marseille","lat":43.260259,"lon":5.375524,"is_reserved":false,"is_disabled":false,"rental_uris":{"android":"levelo://app?vid=be8aa754-85f9-40a1-9e90-c9882863c890","ios":"levelo://app?vid=be8aa754-85f9-40a1-9e90-c9882863c890"},"vehicle_type_id":"4","last_reported":1756400918,"current_range_meters":11600,"station_id":"ce4bhgh2rcd13ifvqfa0","pricing_plan_id":"cebpf4jnsgd1na2vs0mg"},{"bike_id":"8f5e3bc3-43d5-42f8-8589-218ddb9a74b0","system_id":"levelo_inurba_marseille","lat":43.29805,"lon":5.38097,"is_reserved":false,"is_disabled":false,"rental_uris":{"android":"levelo://app?vid=8f5e3bc3-43d5-42f8-8589-218ddb9a74b0","ios":"levelo://app?vid=8f5e3bc3-43d5-42f8-8589-218ddb9a74b0"},"vehicle_type_id":"4","last_reported":1756400918,"current_range_meters":11600,"station_id":"ce4bgip2rcd13ifvqbb0","pricing_plan_id":"cebpf4jnsgd1na2vs0mg"},{"bike_id":"614d961d-149b-4f71-81e8-def5ddc72ba4","system_id":"levelo_inurba_marseille","lat":43.26572,"lon":5.37253,"is_reserved":false,"is_disabled":false,"rental_uris":{"android":"levelo://app?vid=614d961d-149b-4f71-81e8-def5ddc72ba4","ios":"levelo://app?vid=614d961d-149b-4f71-81e8-def5ddc72ba4"},"vehicle_type_id":"4","last_reported":1756400918,"current_range_meters":11600,"station_id":"ce4bhg12rcd13ifvqf70","pricing_plan_id":"cebpf4jnsgd1na2vs0mg"},{"bike_id":"b8df9f83-db4c-4d07-ab72-0da748a1f42b","system_id":"levelo_inurba_marseille","lat":43.25002,"lon":5.38927,"is_reserved":false,"is_disabled":false,"rental_uris":{"android":"levelo://app?vid=b8df9f83-db4c-4d07-ab72-0da748a1f42b","ios":"levelo://app?vid=b8df9f83-db4c-4d07-ab72-0da748a1f42b"},"vehicle_type_id":"4","last_reported":1756400918,"current_range_meters":11600,"station_id":"ce4bhgp2rcd13ifvqfd0","pricing_plan_id":"cebpf4jnsgd1na2vs0mg"},{"bike_id":"24edefd1-49b7-4118-ac5f-3e104a2c77a7","system_id":"levelo_inurba_marseille","lat":43.265816,"lon":5.372854,"is_reserved":false,"is_disabled":false,"rental_uris":{"android":"levelo://app?vid=24edefd1-49b7-4118-ac5f-3e104a2c77a7","ios":"levelo://app?vid=24edefd1-49b7-4118-ac5f-3e104a2c77a7"},"vehicle_type_id":"4","last_reported":1756400918,"current_range_meters":11600,"station_id":"ce4bhg12rcd13ifvqf70","pricing_plan_id":"cebpf4jnsgd1na2vs0mg"},{"bike_id":"d3463736-6f79-49f4-bb94-b7d077f27a86","system_id":"levelo_inurba_marseille","lat":43.2655,"lon":5.37292,"is_reserved":false,"is_disabled":false,"rental_uris":{"android":"levelo://app?vid=d3463736-6f79-49f4-bb94-b7d077f27a86","ios":"levelo://app?vid=d3463736-6f79-49f4-bb94-b7d077f27a86"},"vehicle_type_id":"4","last_reported":1756400918,"current_range_meters":12000,"station_id":"ce4bhg12rcd13ifvqf70","pricing_plan_id":"cebpf4jnsgd1na2vs0mg"},{"bike_id":"ac5e42a4-62ee-4683-8548-7effcae66a42","system_id":"levelo_inurba_marseille","lat":43.29286,"lon":5.37443,"is_reserved":false,"is_disabled":false,"rental_uris":{"android":"levelo://app?vid=ac5e42a4-62ee-4683-8548-7effcae66a42","ios":"levelo://app?vid=ac5e42a4-62ee-4683-8548-7effcae66a42"},"vehicle_type_id":"4","last_reported":1756400918,"current_range_meters":12000,"station_id":"ce4bgi12rcd13ifvqb70","pricing_plan_id":"cebpf4jnsgd1na2vs0mg"},{"bike_id":"84239937-6126-4402-8397-ac364b20f6e5","system_id":"levelo_inurba_marseille","lat":43.26023,"lon":5.37539,"is_reserved":false,"is_disabled":false,"rental_uris":{"android":"levelo://app?vid=84239937-6126-4402-8397-ac364b20f6e5","ios":"levelo://app?vid=84239937-6126-4402-8397-ac364b20f6e5"},"vehicle_type_id":"4","last_reported":1756400918,"current_range_meters":12000,"station_id":"ce4bhgh2rcd13ifvqfa0","pricing_plan_id":"cebpf4jnsgd1na2vs0mg"},{"bike_id":"6613ae7f-0b4b-4b2d-9232-d22ea5581a26","system_id":"levelo_inurba_marseille","lat":43.28409,"lon":5.37523,"is_reserved":false,"is_disabled":false,"rental_uris":{"android":"levelo://app?vid=6613ae7f-0b4b-4b2d-9232-d22ea5581a26","ios":"levelo://app?vid=6613ae7f-0b4b-4b2d-9232-d22ea5581a26"},"vehicle_type_id":"4","last_reported":1756400918,"current_range_meters":12000,"station_id":"ce4bh412rcd13ifvqds0","pricing_plan_id":"cebpf4jnsgd1na2vs0mg"},{"bike_id":"1c54a688-23d5-4fd2-be85-1bd85ac1631b","system_id":"levelo_inurba_marseille","lat":43.26036,"lon":5.3755,"is_reserved":false,"is_disabled":false,"rental_uris":{"android":"levelo://app?vid=1c54a688-23d5-4fd2-be85-1bd85ac1631b","ios":"levelo://app?vid=1c54a688-23d5-4fd2-be85-1bd85ac1631b"},"vehicle_type_id":"4","last_reported":1756400918,"current_range_meters":12400,"station_id":"ce4bhgh2rcd13ifvqfa0","pricing_plan_id":"cebpf4jnsgd1na2vs0mg"},{"bike_id":"1091f287-02ee-4a66-888b-59c35fd65791","system_id":"levelo_inurba_marseille","lat":43.231938,"lon":5.355455,"is_reserved":false,"is_disabled":false,"rental_uris":{"android":"levelo://app?vid=1091f287-02ee-4a66-888b-59c35fd65791","ios":"levelo://app?vid=1091f287-02ee-4a66-888b-59c35fd65791"},"vehicle_type_id":"4","last_reported":1756400918,"current_range_meters":12400,"station_id":"ce4bhu92rcd13ifvqi70","pricing_plan_id":"cebpf4jnsgd1na2vs0mg"},{"bike_id":"b86f7949-3d4e-4974-af4d-46e2e30dd793","system_id":"levelo_inurba_marseille","lat":43.25005,"lon":5.38935,"is_reserved":false,"is_disabled":false,"rental_uris":{"android":"levelo://app?vid=b86f7949-3d4e-4974-af4d-46e2e30dd793","ios":"levelo://app?vid=b86f7949-3d4e-4974-af4d-46e2e30dd793"},"vehicle_type_id":"4","last_reported":1756400918,"current_range_meters":12400,"station_id":"ce4bhgp2rcd13ifvqfd0","pricing_plan_id":"cebpf4jnsgd1na2vs0mg"},{"bike_id":"e2157c09-f51d-4d60-9654-c3b735f52046","system_id":"levelo_inurba_marseille","lat":43.26173,"lon":5.37461,"is_reserved":false,"is_disabled":false,"rental_uris":{"android":"levelo://app?vid=e2157c09-f51d-4d60-9654-c3b735f52046","ios":"levelo://app?vid=e2157c09-f51d-4d60-9654-c3b735f52046"},"vehicle_type_id":"4","last_reported":1756400918,"current_range_meters":12400,"station_id":"ce4bhgp2rcd13ifvqfc0","pricing_plan_id":"cebpf4jnsgd1na2vs0mg"},{"bike_id":"b5ca091e-e5b0-4555-a454-4ed6404d2c0c","system_id":"levelo_inurba_marseille","lat":43.28039,"lon":5.36943,"is_reserved":false,"is_disabled":false,"rental_uris":{"android":"levelo://app?vid=b5ca091e-e5b0-4555-a454-4ed6404d2c0c","ios":"levelo://app?vid=b5ca091e-e5b0-4555-a454-4ed6404d2c0c"},"vehicle_type_id":"4","last_reported":1756400918,"current_range_meters":12400,"station_id":"ce4bha12rcd13ifvqef0","pricing_plan_id":"cebpf4jnsgd1na2vs0mg"},{"bike_id":"ffeb5e56-4655-4746-a2a6-8fd18785a813","system_id":"levelo_inurba_marseille","lat":43.28424,"lon":5.34974,"is_reserved":false,"is_disabled":false,"rental_uris":{"android":"levelo://app?vid=ffeb5e56-4655-4746-a2a6-8fd18785a813","ios":"levelo://app?vid=ffeb5e56-4655-4746-a2a6-8fd18785a813"},"vehicle_type_id":"4","last_reported":1756400918,"current_range_meters":12400,"station_id":"ce4bhbh2rcd13ifvqepg","pricing_plan_id":"cebpf4jnsgd1na2vs0mg"},{"bike_id":"381ee211-9cbc-4e3b-a668-6f098f82d140","system_id":"levelo_inurba_marseille","lat":43.25521,"lon":5.37662,"is_reserved":false,"is_disabled":false,"rental_uris":{"android":"levelo://app?vid=381ee211-9cbc-4e3b-a668-6f098f82d140","ios":"levelo://app?vid=381ee211-9cbc-4e3b-a668-6f098f82d140"},"vehicle_type_id":"4","last_reported":1756400918,"current_range_meters":12400,"station_id":"ce4bhh12rcd13ifvqff0","pricing_plan_id":"cebpf4jnsgd1na2vs0mg"},{"bike_id":"f5246ef5-6fc5-4aed-aebb-3e7e0df87780","system_id":"levelo_inurba_marseille","lat":43.262086,"lon":5.374412,"is_reserved":false,"is_disabled":false,"rental_uris":{"android":"levelo://app?vid=f5246ef5-6fc5-4aed-aebb-3e7e0df87780","ios":"levelo://app?vid=f5246ef5-6fc5-4aed-aebb-3e7e0df87780"},"vehicle_type_id":"4","last_reported":1756400918,"current_range_meters":12800,"station_id":"ce4bhgp2rcd13ifvqfc0","pricing_plan_id":"cebpf4jnsgd1na2vs0mg"},{"bike_id":"a5c913a9-8444-4f45-9f9e-1bc06a802d9b","system_id":"levelo_inurba_marseille","lat":43.27961,"lon":5.41669,"is_reserved":false,"is_disabled":false,"rental_uris":{"android":"levelo://app?vid=a5c913a9-8444-4f45-9f9e-1bc06a802d9b","ios":"levelo://app?vid=a5c913a9-8444-4f45-9f9e-1bc06a802d9b"},"vehicle_type_id":"4","last_reported":1756400918,"current_range_meters":12800,"station_id":"ce4bho12rcd13ifvqh1g","pricing_plan_id":"cebpf4jnsgd1na2vs0mg"},{"bike_id":"57bb0382-6c93-4539-971c-86046b9ae3e9","system_id":"levelo_inurba_marseille","lat":43.26213,"lon":5.37925,"is_reserved":false,"is_disabled":false,"rental_uris":{"android":"levelo://app?vid=57bb0382-6c93-4539-971c-86046b9ae3e9","ios":"levelo://app?vid=57bb0382-6c93-4539-971c-86046b9ae3e9"},"vehicle_type_id":"4","last_reported":1756400918,"current_range_meters":13600,"station_id":"ce4bhjp2rcd13ifvqg90","pricing_plan_id":"cebpf4jnsgd1na2vs0mg"},{"bike_id":"c98ffdfa-cced-412e-a329-0c8ffc935e06","system_id":"levelo_inurba_marseille","lat":43.27176,"lon":5.40997,"is_reserved":false,"is_disabled":false,"rental_uris":{"android":"levelo://app?vid=c98ffdfa-cced-412e-a329-0c8ffc935e06","ios":"levelo://app?vid=c98ffdfa-cced-412e-a329-0c8ffc935e06"},"vehicle_type_id":"4","last_reported":1756400918,"current_range_meters":13600,"station_id":"ce4bhl12rcd13ifvqgf0","pricing_plan_id":"cebpf4jnsgd1na2vs0mg"},{"bike_id":"2b98d344-34da-4ebb-9a57-27808fda04f1","system_id":"levelo_inurba_marseille","lat":43.27563,"lon":5.38422,"is_reserved":false,"is_disabled":false,"rental_uris":{"android":"levelo://app?vid=2b98d344-34da-4ebb-9a57-27808fda04f1","ios":"levelo://app?vid=2b98d344-34da-4ebb-9a57-27808fda04f1"},"vehicle_type_id":"4","last_reported":1756400918,"current_range_meters":13600,"station_id":"ce4bhh92rcd13ifvqfi0","pricing_plan_id":"cebpf4jnsgd1na2vs0mg"},{"bike_id":"b9a2bbbb-69ac-40be-bf46-27119ee9c404","system_id":"levelo_inurba_marseille","lat":43.25315,"lon":5.42185,"is_reserved":false,"is_disabled":false,"rental_uris":{"android":"levelo://app?vid=b9a2bbbb-69ac-40be-bf46-27119ee9c404","ios":"levelo://app?vid=b9a2bbbb-69ac-40be-bf46-27119ee9c404"},"vehicle_type_id":"4","last_reported":1756400918,"current_range_meters":13600,"station_id":"st_d2m65c5bi1j21697t3ng","pricing_plan_id":"cebpf4jnsgd1na2vs0mg"},{"bike_id":"25da2e20-347d-401c-830f-c4396ad77b2d","system_id":"levelo_inurba_marseille","lat":43.261819,"lon":5.379047,"is_reserved":false,"is_disabled":false,"rental_uris":{"android":"levelo://app?vid=25da2e20-347d-401c-830f-c4396ad77b2d","ios":"levelo://app?vid=25da2e20-347d-401c-830f-c4396ad77b2d"},"vehicle_type_id":"4","last_reported":1756400918,"current_range_meters":13600,"station_id":"ce4bhih2rcd13ifvqfs0","pricing_plan_id":"cebpf4jnsgd1na2vs0mg"},{"bike_id":"5abadfda-9b0d-4a2b-b1d6-6f8b58a11589","system_id":"levelo_inurba_marseille","lat":43.26024,"lon":5.37553,"is_reserved":false,"is_disabled":false,"rental_uris":{"android":"levelo://app?vid=5abadfda-9b0d-4a2b-b1d6-6f8b58a11589","ios":"levelo://app?vid=5abadfda-9b0d-4a2b-b1d6-6f8b58a11589"},"vehicle_type_id":"4","last_reported":1756400918,"current_range_meters":13600,"station_id":"ce4bhgh2rcd13ifvqfa0","pricing_plan_id":"cebpf4jnsgd1na2vs0mg"},{"bike_id":"8b8094a4-3c1a-4128-af67-1462f88377a7","system_id":"levelo_inurba_marseille","lat":43.26543,"lon":5.3729,"is_reserved":false,"is_disabled":false,"rental_uris":{"android":"levelo://app?vid=8b8094a4-3c1a-4128-af67-1462f88377a7","ios":"levelo://app?vid=8b8094a4-3c1a-4128-af67-1462f88377a7"},"vehicle_type_id":"4","last_reported":1756400918,"current_range_meters":13600,"station_id":"ce4bhg12rcd13ifvqf70","pricing_plan_id":"cebpf4jnsgd1na2vs0mg"},{"bike_id":"34027ce4-7327-43da-9f66-bdc765f954e3","system_id":"levelo_inurba_marseille","lat":43.295294,"lon":5.375061,"is_reserved":false,"is_disabled":false,"rental_uris":{"android":"levelo://app?vid=34027ce4-7327-43da-9f66-bdc765f954e3","ios":"levelo://app?vid=34027ce4-7327-43da-9f66-bdc765f954e3"},"vehicle_type_id":"4","last_reported":1756400918,"current_range_meters":14000,"station_id":"","pricing_plan_id":"cebpf4jnsgd1na2vs0mg"},{"bike_id":"615f9cb4-bc08-43f1-87ef-884359fe2e39","system_id":"levelo_inurba_marseille","lat":43.323732,"lon":5.367655,"is_reserved":false,"is_disabled":false,"rental_uris":{"android":"levelo://app?vid=615f9cb4-bc08-43f1-87ef-884359fe2e39","ios":"levelo://app?vid=615f9cb4-bc08-43f1-87ef-884359fe2e39"},"vehicle_type_id":"4","last_reported":1756400918,"current_range_meters":14000,"station_id":"ce4bhsh2rcd13ifvqi2g","pricing_plan_id":"cebpf4jnsgd1na2vs0mg"},{"bike_id":"3df5d7ba-61aa-4584-9a4e-9ba0b61ed706","system_id":"levelo_inurba_marseille","lat":43.2407,"lon":5.37762,"is_reserved":false,"is_disabled":false,"rental_uris":{"android":"levelo://app?vid=3df5d7ba-61aa-4584-9a4e-9ba0b61ed706","ios":"levelo://app?vid=3df5d7ba-61aa-4584-9a4e-9ba0b61ed706"},"vehicle_type_id":"4","last_reported":1756400918,"current_range_meters":14000,"station_id":"ce4bhnp2rcd13ifvqgvg","pricing_plan_id":"cebpf4jnsgd1na2vs0mg"},{"bike_id":"0a2b53ef-8783-4b60-bd0c-8c0ab63ccee1","system_id":"levelo_inurba_marseille","lat":43.26033,"lon":5.37529,"is_reserved":false,"is_disabled":false,"rental_uris":{"android":"levelo://app?vid=0a2b53ef-8783-4b60-bd0c-8c0ab63ccee1","ios":"levelo://app?vid=0a2b53ef-8783-4b60-bd0c-8c0ab63ccee1"},"vehicle_type_id":"4","last_reported":1756400918,"current_range_meters":14000,"station_id":"ce4bhgh2rcd13ifvqfa0","pricing_plan_id":"cebpf4jnsgd1na2vs0mg"},{"bike_id":"731ff345-1377-45e9-acf9-0825f15b172a","system_id":"levelo_inurba_marseille","lat":43.229272,"lon":5.353835,"is_reserved":false,"is_disabled":false,"rental_uris":{"android":"levelo://app?vid=731ff345-1377-45e9-acf9-0825f15b172a","ios":"levelo://app?vid=731ff345-1377-45e9-acf9-0825f15b172a"},"vehicle_type_id":"4","last_reported":1756400918,"current_range_meters":14000,"station_id":"cpo3532slgdg3j2ikp40","pricing_plan_id":"cebpf4jnsgd1na2vs0mg"},{"bike_id":"551aa5e4-53bb-4034-8d1c-0f68d879aaa8","system_id":"levelo_inurba_marseille","lat":43.32108,"lon":5.36761,"is_reserved":false,"is_disabled":false,"rental_uris":{"android":"levelo://app?vid=551aa5e4-53bb-4034-8d1c-0f68d879aaa8","ios":"levelo://app?vid=551aa5e4-53bb-4034-8d1c-0f68d879aaa8"},"vehicle_type_id":"4","last_reported":1756400918,"current_range_meters":14000,"station_id":"ce4bhrh2rcd13ifvqhug","pricing_plan_id":"cebpf4jnsgd1na2vs0mg"},{"bike_id":"e51281d9-5de9-4d13-bf78-2e7372b5b0a6","system_id":"levelo_inurba_marseille","lat":43.32478,"lon":5.36568,"is_reserved":false,"is_disabled":false,"rental_uris":{"android":"levelo://app?vid=e51281d9-5de9-4d13-bf78-2e7372b5b0a6","ios":"levelo://app?vid=e51281d9-5de9-4d13-bf78-2e7372b5b0a6"},"vehicle_type_id":"4","last_reported":1756400918,"current_range_meters":14000,"station_id":"ce4bhs12rcd13ifvqhvg","pricing_plan_id":"cebpf4jnsgd1na2vs0mg"},{"bike_id":"71c2a989-19e6-48f3-b09c-bd31973cb016","system_id":"levelo_inurba_marseille","lat":43.26023,"lon":5.37554,"is_reserved":false,"is_disabled":false,"rental_uris":{"android":"levelo://app?vid=71c2a989-19e6-48f3-b09c-bd31973cb016","ios":"levelo://app?vid=71c2a989-19e6-48f3-b09c-bd31973cb016"},"vehicle_type_id":"4","last_reported":1756400918,"current_range_meters":14000,"station_id":"ce4bhgh2rcd13ifvqfa0","pricing_plan_id":"cebpf4jnsgd1na2vs0mg"},{"bike_id":"ec0f9f0d-0796-42ac-9cf5-bb8596cdf342","system_id":"levelo_inurba_marseille","lat":43.21178,"lon":5.35093,"is_reserved":false,"is_disabled":false,"rental_uris":{"android":"levelo://app?vid=ec0f9f0d-0796-42ac-9cf5-bb8596cdf342","ios":"levelo://app?vid=ec0f9f0d-0796-42ac-9cf5-bb8596cdf342"},"vehicle_type_id":"4","last_reported":1756400918,"current_range_meters":14000,"station_id":"","pricing_plan_id":"cebpf4jnsgd1na2vs0mg"},{"bike_id":"a7bad49e-0f5a-4b60-9c7b-7102b6f37dda","system_id":"levelo_inurba_marseille","lat":43.290284,"lon":5.386452,"is_reserved":false,"is_disabled":false,"rental_uris":{"android":"levelo://app?vid=a7bad49e-0f5a-4b60-9c7b-7102b6f37dda","ios":"levelo://app?vid=a7bad49e-0f5a-4b60-9c7b-7102b6f37dda"},"vehicle_type_id":"4","last_reported":1756400918,"current_range_meters":14000,"station_id":"ce4bh4p2rcd13ifvqe0g","pricing_plan_id":"cebpf4jnsgd1na2vs0mg"},{"bike_id":"0da39ec0-0a18-4909-b73d-960ca43b955e","system_id":"levelo_inurba_marseille","lat":43.28279,"lon":5.35064,"is_reserved":false,"is_disabled":false,"rental_uris":{"android":"levelo://app?vid=0da39ec0-0a18-4909-b73d-960ca43b955e","ios":"levelo://app?vid=0da39ec0-0a18-4909-b73d-960ca43b955e"},"vehicle_type_id":"4","last_reported":1756400918,"current_range_meters":14000,"station_id":"ce4bhbp2rcd13ifvqerg","pricing_plan_id":"cebpf4jnsgd1na2vs0mg"},{"bike_id":"e497be94-f703-4480-87d5-b733dda41e28","system_id":"levelo_inurba_marseille","lat":43.26564,"lon":5.39006,"is_reserved":false,"is_disabled":false,"rental_uris":{"android":"levelo://app?vid=e497be94-f703-4480-87d5-b733dda41e28","ios":"levelo://app?vid=e497be94-f703-4480-87d5-b733dda41e28"},"vehicle_type_id":"4","last_reported":1756400918,"current_range_meters":14000,"station_id":"ce4bhe12rcd13ifvqf30","pricing_plan_id":"cebpf4jnsgd1na2vs0mg"},{"bike_id":"86b5b9d0-a2b5-443d-9aff-bad57bb591a6","system_id":"levelo_inurba_marseille","lat":43.30442,"lon":5.38897,"is_reserved":false,"is_disabled":false,"rental_uris":{"android":"levelo://app?vid=86b5b9d0-a2b5-443d-9aff-bad57bb591a6","ios":"levelo://app?vid=86b5b9d0-a2b5-443d-9aff-bad57bb591a6"},"vehicle_type_id":"4","last_reported":1756400918,"current_range_meters":14000,"station_id":"ce4bgk12rcd13ifvqbi0","pricing_plan_id":"cebpf4jnsgd1na2vs0mg"},{"bike_id":"d4411ce1-1269-4134-adda-1eb61c16980f","system_id":"levelo_inurba_marseille","lat":43.28102,"lon":5.3785,"is_reserved":false,"is_disabled":false,"rental_uris":{"android":"levelo://app?vid=d4411ce1-1269-4134-adda-1eb61c16980f","ios":"levelo://app?vid=d4411ce1-1269-4134-adda-1eb61c16980f"},"vehicle_type_id":"4","last_reported":1756400918,"current_range_meters":14400,"station_id":"ce4bha12rcd13ifvqee0","pricing_plan_id":"cebpf4jnsgd1na2vs0mg"},{"bike_id":"e784cad3-9b1b-4171-926b-1b8b9dcecc9a","system_id":"levelo_inurba_marseille","lat":43.246582,"lon":5.38164,"is_reserved":false,"is_disabled":false,"rental_uris":{"android":"levelo://app?vid=e784cad3-9b1b-4171-926b-1b8b9dcecc9a","ios":"levelo://app?vid=e784cad3-9b1b-4171-926b-1b8b9dcecc9a"},"vehicle_type_id":"4","last_reported":1756400918,"current_range_meters":14400,"station_id":"ce4bhih2rcd13ifvqfr0","pricing_plan_id":"cebpf4jnsgd1na2vs0mg"},{"bike_id":"d1a4ea35-b6c5-4a45-b35b-a4b06696c8cb","system_id":"levelo_inurba_marseille","lat":43.25476,"lon":5.3767,"is_reserved":false,"is_disabled":false,"rental_uris":{"android":"levelo://app?vid=d1a4ea35-b6c5-4a45-b35b-a4b06696c8cb","ios":"levelo://app?vid=d1a4ea35-b6c5-4a45-b35b-a4b06696c8cb"},"vehicle_type_id":"4","last_reported":1756400918,"current_range_meters":14400,"station_id":"ce4bhh12rcd13ifvqff0","pricing_plan_id":"cebpf4jnsgd1na2vs0mg"},{"bike_id":"5dde89c4-8ab2-4d7d-98c9-0d3b2a8d9fd6","system_id":"levelo_inurba_marseille","lat":43.25006,"lon":5.38946,"is_reserved":false,"is_disabled":false,"rental_uris":{"android":"levelo://app?vid=5dde89c4-8ab2-4d7d-98c9-0d3b2a8d9fd6","ios":"levelo://app?vid=5dde89c4-8ab2-4d7d-98c9-0d3b2a8d9fd6"},"vehicle_type_id":"4","last_reported":1756400918,"current_range_meters":14400,"station_id":"ce4bhgp2rcd13ifvqfd0","pricing_plan_id":"cebpf4jnsgd1na2vs0mg"},{"bike_id":"3a2f5063-0ed3-4139-b50b-cacffd5db734","system_id":"levelo_inurba_marseille","lat":43.32358,"lon":5.3675,"is_reserved":false,"is_disabled":false,"rental_uris":{"android":"levelo://app?vid=3a2f5063-0ed3-4139-b50b-cacffd5db734","ios":"levelo://app?vid=3a2f5063-0ed3-4139-b50b-cacffd5db734"},"vehicle_type_id":"4","last_reported":1756400918,"current_range_meters":14400,"station_id":"ce4bhsh2rcd13ifvqi2g","pricing_plan_id":"cebpf4jnsgd1na2vs0mg"},{"bike_id":"d0a92e61-7122-4ad6-a0d1-9d37d94ce062","system_id":"levelo_inurba_marseille","lat":43.29725,"lon":5.39044,"is_reserved":false,"is_disabled":false,"rental_uris":{"android":"levelo://app?vid=d0a92e61-7122-4ad6-a0d1-9d37d94ce062","ios":"levelo://app?vid=d0a92e61-7122-4ad6-a0d1-9d37d94ce062"},"vehicle_type_id":"4","last_reported":1756400918,"current_range_meters":14400,"station_id":"","pricing_plan_id":"cebpf4jnsgd1na2vs0mg"},{"bike_id":"a8e91362-fc50-4070-b075-03b09f0ded71","system_id":"levelo_inurba_marseille","lat":43.26568,"lon":5.39,"is_reserved":false,"is_disabled":false,"rental_uris":{"android":"levelo://app?vid=a8e91362-fc50-4070-b075-03b09f0ded71","ios":"levelo://app?vid=a8e91362-fc50-4070-b075-03b09f0ded71"},"vehicle_type_id":"4","last_reported":1756400918,"current_range_meters":14800,"station_id":"","pricing_plan_id":"cebpf4jnsgd1na2vs0mg"},{"bike_id":"dee4462b-2fda-4454-90e6-cd671a52515c","system_id":"levelo_inurba_marseille","lat":43.25478,"lon":5.37656,"is_reserved":false,"is_disabled":false,"rental_uris":{"android":"levelo://app?vid=dee4462b-2fda-4454-90e6-cd671a52515c","ios":"levelo://app?vid=dee4462b-2fda-4454-90e6-cd671a52515c"},"vehicle_type_id":"4","last_reported":1756400918,"current_range_meters":14800,"station_id":"ce4bhh12rcd13ifvqff0","pricing_plan_id":"cebpf4jnsgd1na2vs0mg"},{"bike_id":"d005b541-909d-4c5d-bde1-94285008f478","system_id":"levelo_inurba_marseille","lat":43.323589,"lon":5.367529,"is_reserved":false,"is_disabled":false,"rental_uris":{"android":"levelo://app?vid=d005b541-909d-4c5d-bde1-94285008f478","ios":"levelo://app?vid=d005b541-909d-4c5d-bde1-94285008f478"},"vehicle_type_id":"4","last_reported":1756400918,"current_range_meters":14800,"station_id":"ce4bhsh2rcd13ifvqi2g","pricing_plan_id":"cebpf4jnsgd1na2vs0mg"},{"bike_id":"00865bff-72de-47be-acda-9cf6ec16a836","system_id":"levelo_inurba_marseille","lat":43.320996,"lon":5.367744,"is_reserved":false,"is_disabled":false,"rental_uris":{"android":"levelo://app?vid=00865bff-72de-47be-acda-9cf6ec16a836","ios":"levelo://app?vid=00865bff-72de-47be-acda-9cf6ec16a836"},"vehicle_type_id":"4","last_reported":1756400918,"current_range_meters":14800,"station_id":"ce4bhrh2rcd13ifvqhug","pricing_plan_id":"cebpf4jnsgd1na2vs0mg"},{"bike_id":"aba408de-f921-4633-8496-98ebb8befe83","system_id":"levelo_inurba_marseille","lat":43.26025,"lon":5.37547,"is_reserved":false,"is_disabled":false,"rental_uris":{"android":"levelo://app?vid=aba408de-f921-4633-8496-98ebb8befe83","ios":"levelo://app?vid=aba408de-f921-4633-8496-98ebb8befe83"},"vehicle_type_id":"4","last_reported":1756400918,"current_range_meters":14800,"station_id":"ce4bhgh2rcd13ifvqfa0","pricing_plan_id":"cebpf4jnsgd1na2vs0mg"},{"bike_id":"8eece06c-1375-46ef-a493-ad81a979139e","system_id":"levelo_inurba_marseille","lat":43.26024,"lon":5.37545,"is_reserved":false,"is_disabled":false,"rental_uris":{"android":"levelo://app?vid=8eece06c-1375-46ef-a493-ad81a979139e","ios":"levelo://app?vid=8eece06c-1375-46ef-a493-ad81a979139e"},"vehicle_type_id":"4","last_reported":1756400918,"current_range_meters":14800,"station_id":"ce4bhgh2rcd13ifvqfa0","pricing_plan_id":"cebpf4jnsgd1na2vs0mg"},{"bike_id":"4ab154ac-2d0f-46ae-975d-8bd9df53d02b","system_id":"levelo_inurba_marseille","lat":43.29199,"lon":5.39316,"is_reserved":false,"is_disabled":false,"rental_uris":{"android":"levelo://app?vid=4ab154ac-2d0f-46ae-975d-8bd9df53d02b","ios":"levelo://app?vid=4ab154ac-2d0f-46ae-975d-8bd9df53d02b"},"vehicle_type_id":"4","last_reported":1756400918,"current_range_meters":14800,"station_id":"ce4bh192rcd13ifvqdd0","pricing_plan_id":"cebpf4jnsgd1na2vs0mg"},{"bike_id":"560d8bd7-d4c5-4b2b-b882-80f5f549f921","system_id":"levelo_inurba_marseille","lat":43.25001,"lon":5.38931,"is_reserved":false,"is_disabled":false,"rental_uris":{"android":"levelo://app?vid=560d8bd7-d4c5-4b2b-b882-80f5f549f921","ios":"levelo://app?vid=560d8bd7-d4c5-4b2b-b882-80f5f549f921"},"vehicle_type_id":"4","last_reported":1756400918,"current_range_meters":15200,"station_id":"ce4bhgp2rcd13ifvqfd0","pricing_plan_id":"cebpf4jnsgd1na2vs0mg"},{"bike_id":"bbd8a0c6-ba7c-40ed-83c2-3047015378d7","system_id":"levelo_inurba_marseille","lat":43.25497,"lon":5.37648,"is_reserved":false,"is_disabled":false,"rental_uris":{"android":"levelo://app?vid=bbd8a0c6-ba7c-40ed-83c2-3047015378d7","ios":"levelo://app?vid=bbd8a0c6-ba7c-40ed-83c2-3047015378d7"},"vehicle_type_id":"4","last_reported":1756400918,"current_range_meters":15200,"station_id":"ce4bhh12rcd13ifvqff0","pricing_plan_id":"cebpf4jnsgd1na2vs0mg"},{"bike_id":"95ec2107-2cee-4733-8387-b877131e4250","system_id":"levelo_inurba_marseille","lat":43.29801,"lon":5.38099,"is_reserved":false,"is_disabled":false,"rental_uris":{"android":"levelo://app?vid=95ec2107-2cee-4733-8387-b877131e4250","ios":"levelo://app?vid=95ec2107-2cee-4733-8387-b877131e4250"},"vehicle_type_id":"4","last_reported":1756400918,"current_range_meters":15200,"station_id":"ce4bgip2rcd13ifvqbb0","pricing_plan_id":"cebpf4jnsgd1na2vs0mg"},{"bike_id":"49e3e0dc-7bc3-4c21-b5e7-64678061068b","system_id":"levelo_inurba_marseille","lat":43.24177,"lon":5.39661,"is_reserved":false,"is_disabled":false,"rental_uris":{"android":"levelo://app?vid=49e3e0dc-7bc3-4c21-b5e7-64678061068b","ios":"levelo://app?vid=49e3e0dc-7bc3-4c21-b5e7-64678061068b"},"vehicle_type_id":"4","last_reported":1756400918,"current_range_meters":15200,"station_id":"ce4bhn12rcd13ifvqgpg","pricing_plan_id":"cebpf4jnsgd1na2vs0mg"},{"bike_id":"6c7f3651-ed5f-48fa-b822-8ab591887d36","system_id":"levelo_inurba_marseille","lat":43.29534,"lon":5.3855,"is_reserved":false,"is_disabled":false,"rental_uris":{"android":"levelo://app?vid=6c7f3651-ed5f-48fa-b822-8ab591887d36","ios":"levelo://app?vid=6c7f3651-ed5f-48fa-b822-8ab591887d36"},"vehicle_type_id":"4","last_reported":1756400918,"current_range_meters":15200,"station_id":"ce4bgih2rcd13ifvqba0","pricing_plan_id":"cebpf4jnsgd1na2vs0mg"},{"bike_id":"6a01872c-8159-45b5-a11a-70b63a7a584d","system_id":"levelo_inurba_marseille","lat":43.33025,"lon":5.39046,"is_reserved":false,"is_disabled":false,"rental_uris":{"android":"levelo://app?vid=6a01872c-8159-45b5-a11a-70b63a7a584d","ios":"levelo://app?vid=6a01872c-8159-45b5-a11a-70b63a7a584d"},"vehicle_type_id":"4","last_reported":1756400918,"current_range_meters":15200,"station_id":"ce4bhr92rcd13ifvqhrg","pricing_plan_id":"cebpf4jnsgd1na2vs0mg"},{"bike_id":"011fcc1a-b0cb-4b39-9065-3cab290ee4c4","system_id":"levelo_inurba_marseille","lat":43.28272,"lon":5.35067,"is_reserved":false,"is_disabled":false,"rental_uris":{"android":"levelo://app?vid=011fcc1a-b0cb-4b39-9065-3cab290ee4c4","ios":"levelo://app?vid=011fcc1a-b0cb-4b39-9065-3cab290ee4c4"},"vehicle_type_id":"4","last_reported":1756400918,"current_range_meters":15200,"station_id":"ce4bhbp2rcd13ifvqerg","pricing_plan_id":"cebpf4jnsgd1na2vs0mg"},{"bike_id":"2fa1fc55-67e6-4dbd-904e-b637927e9143","system_id":"levelo_inurba_marseille","lat":43.27365,"lon":5.36271,"is_reserved":false,"is_disabled":false,"rental_uris":{"android":"levelo://app?vid=2fa1fc55-67e6-4dbd-904e-b637927e9143","ios":"levelo://app?vid=2fa1fc55-67e6-4dbd-904e-b637927e9143"},"vehicle_type_id":"4","last_reported":1756400918,"current_range_meters":15200,"station_id":"ce4bhbh2rcd13ifvqeo0","pricing_plan_id":"cebpf4jnsgd1na2vs0mg"},{"bike_id":"1cd342bc-1a02-4635-9e53-8dad7afefeda","system_id":"levelo_inurba_marseille","lat":43.265503,"lon":5.372955,"is_reserved":false,"is_disabled":false,"rental_uris":{"android":"levelo://app?vid=1cd342bc-1a02-4635-9e53-8dad7afefeda","ios":"levelo://app?vid=1cd342bc-1a02-4635-9e53-8dad7afefeda"},"vehicle_type_id":"4","last_reported":1756400918,"current_range_meters":16000,"station_id":"","pricing_plan_id":"cebpf4jnsgd1na2vs0mg"},{"bike_id":"76853953-4750-4c5e-a02d-c060c687f7f4","system_id":"levelo_inurba_marseille","lat":43.26545,"lon":5.37296,"is_reserved":false,"is_disabled":false,"rental_uris":{"android":"levelo://app?vid=76853953-4750-4c5e-a02d-c060c687f7f4","ios":"levelo://app?vid=76853953-4750-4c5e-a02d-c060c687f7f4"},"vehicle_type_id":"4","last_reported":1756400918,"current_range_meters":16000,"station_id":"ce4bhg12rcd13ifvqf70","pricing_plan_id":"cebpf4jnsgd1na2vs0mg"},{"bike_id":"862df775-33ce-45f8-bd46-9e82060a9420","system_id":"levelo_inurba_marseille","lat":43.27805,"lon":5.40718,"is_reserved":false,"is_disabled":false,"rental_uris":{"android":"levelo://app?vid=862df775-33ce-45f8-bd46-9e82060a9420","ios":"levelo://app?vid=862df775-33ce-45f8-bd46-9e82060a9420"},"vehicle_type_id":"4","last_reported":1756400918,"current_range_meters":16000,"station_id":"ce4bhnh2rcd13ifvqgtg","pricing_plan_id":"cebpf4jnsgd1na2vs0mg"},{"bike_id":"1d6d2e3d-e6be-45f3-9550-08daca30c94e","system_id":"levelo_inurba_marseille","lat":43.2315,"lon":5.43714,"is_reserved":false,"is_disabled":false,"rental_uris":{"android":"levelo://app?vid=1d6d2e3d-e6be-45f3-9550-08daca30c94e","ios":"levelo://app?vid=1d6d2e3d-e6be-45f3-9550-08daca30c94e"},"vehicle_type_id":"4","last_reported":1756400918,"current_range_meters":16000,"station_id":"ce4bhmp2rcd13ifvqgog","pricing_plan_id":"cebpf4jnsgd1na2vs0mg"},{"bike_id":"8a3d08a4-6e22-43fc-a3af-efea32020201","system_id":"levelo_inurba_marseille","lat":43.323609,"lon":5.367541,"is_reserved":false,"is_disabled":false,"rental_uris":{"android":"levelo://app?vid=8a3d08a4-6e22-43fc-a3af-efea32020201","ios":"levelo://app?vid=8a3d08a4-6e22-43fc-a3af-efea32020201"},"vehicle_type_id":"4","last_reported":1756400918,"current_range_meters":16000,"station_id":"ce4bhsh2rcd13ifvqi2g","pricing_plan_id":"cebpf4jnsgd1na2vs0mg"},{"bike_id":"0918ae56-ef2f-4ba4-9c39-9ea1cd122d52","system_id":"levelo_inurba_marseille","lat":43.29224,"lon":5.36063,"is_reserved":false,"is_disabled":false,"rental_uris":{"android":"levelo://app?vid=0918ae56-ef2f-4ba4-9c39-9ea1cd122d52","ios":"levelo://app?vid=0918ae56-ef2f-4ba4-9c39-9ea1cd122d52"},"vehicle_type_id":"4","last_reported":1756400918,"current_range_meters":16000,"station_id":"ce4bhbh2rcd13ifvqeqg","pricing_plan_id":"cebpf4jnsgd1na2vs0mg"},{"bike_id":"dbc0c1d4-4749-471e-88c9-38295354cd52","system_id":"levelo_inurba_marseille","lat":43.23187,"lon":5.399903,"is_reserved":false,"is_disabled":false,"rental_uris":{"android":"levelo://app?vid=dbc0c1d4-4749-471e-88c9-38295354cd52","ios":"levelo://app?vid=dbc0c1d4-4749-471e-88c9-38295354cd52"},"vehicle_type_id":"4","last_reported":1756400918,"current_range_meters":16000,"station_id":"ce4bhn12rcd13ifvqgqg","pricing_plan_id":"cebpf4jnsgd1na2vs0mg"},{"bike_id":"e9fc8b6e-9de1-4885-8ffc-e26149c08de1","system_id":"levelo_inurba_marseille","lat":43.2602,"lon":5.37561,"is_reserved":false,"is_disabled":false,"rental_uris":{"android":"levelo://app?vid=e9fc8b6e-9de1-4885-8ffc-e26149c08de1","ios":"levelo://app?vid=e9fc8b6e-9de1-4885-8ffc-e26149c08de1"},"vehicle_type_id":"4","last_reported":1756400918,"current_range_meters":16000,"station_id":"ce4bhgh2rcd13ifvqfa0","pricing_plan_id":"cebpf4jnsgd1na2vs0mg"},{"bike_id":"123cd15d-1056-4aa8-a0b4-832f0ff9c2a1","system_id":"levelo_inurba_marseille","lat":43.29191,"lon":5.35801,"is_reserved":false,"is_disabled":false,"rental_uris":{"android":"levelo://app?vid=123cd15d-1056-4aa8-a0b4-832f0ff9c2a1","ios":"levelo://app?vid=123cd15d-1056-4aa8-a0b4-832f0ff9c2a1"},"vehicle_type_id":"4","last_reported":1756400918,"current_range_meters":16000,"station_id":"ce4bhb12rcd13ifvqel0","pricing_plan_id":"cebpf4jnsgd1na2vs0mg"},{"bike_id":"a2484b6c-3b1b-48f9-a294-42eec4d8f7c6","system_id":"levelo_inurba_marseille","lat":43.2678,"lon":5.39416,"is_reserved":false,"is_disabled":false,"rental_uris":{"android":"levelo://app?vid=a2484b6c-3b1b-48f9-a294-42eec4d8f7c6","ios":"levelo://app?vid=a2484b6c-3b1b-48f9-a294-42eec4d8f7c6"},"vehicle_type_id":"4","last_reported":1756400918,"current_range_meters":16000,"station_id":"ce4bhh12rcd13ifvqfg0","pricing_plan_id":"cebpf4jnsgd1na2vs0mg"},{"bike_id":"9b676191-4d84-4c91-82e0-bdbb6ce59576","system_id":"levelo_inurba_marseille","lat":43.29927,"lon":5.37477,"is_reserved":false,"is_disabled":false,"rental_uris":{"android":"levelo://app?vid=9b676191-4d84-4c91-82e0-bdbb6ce59576","ios":"levelo://app?vid=9b676191-4d84-4c91-82e0-bdbb6ce59576"},"vehicle_type_id":"4","last_reported":1756400918,"current_range_meters":16400,"station_id":"ce4bgjh2rcd13ifvqbg0","pricing_plan_id":"cebpf4jnsgd1na2vs0mg"},{"bike_id":"eebfbe73-f440-4706-b477-601b1f8fe6e6","system_id":"levelo_inurba_marseille","lat":43.248036,"lon":5.374587,"is_reserved":false,"is_disabled":false,"rental_uris":{"android":"levelo://app?vid=eebfbe73-f440-4706-b477-601b1f8fe6e6","ios":"levelo://app?vid=eebfbe73-f440-4706-b477-601b1f8fe6e6"},"vehicle_type_id":"4","last_reported":1756400918,"current_range_meters":16400,"station_id":"ce4bhgh2rcd13ifvqfb0","pricing_plan_id":"cebpf4jnsgd1na2vs0mg"},{"bike_id":"5acb70fa-2b83-4af9-9431-e0e9de0fbb5e","system_id":"levelo_inurba_marseille","lat":43.291929,"lon":5.35797,"is_reserved":false,"is_disabled":false,"rental_uris":{"android":"levelo://app?vid=5acb70fa-2b83-4af9-9431-e0e9de0fbb5e","ios":"levelo://app?vid=5acb70fa-2b83-4af9-9431-e0e9de0fbb5e"},"vehicle_type_id":"4","last_reported":1756400918,"current_range_meters":16400,"station_id":"ce4bhb12rcd13ifvqel0","pricing_plan_id":"cebpf4jnsgd1na2vs0mg"},{"bike_id":"355c24bc-e04c-4ce9-945e-3e5c20601566","system_id":"levelo_inurba_marseille","lat":43.2848,"lon":5.3856,"is_reserved":false,"is_disabled":false,"rental_uris":{"android":"levelo://app?vid=355c24bc-e04c-4ce9-945e-3e5c20601566","ios":"levelo://app?vid=355c24bc-e04c-4ce9-945e-3e5c20601566"},"vehicle_type_id":"4","last_reported":1756400918,"current_range_meters":16400,"station_id":"ce4bh8p2rcd13ifvqeb0","pricing_plan_id":"cebpf4jnsgd1na2vs0mg"},{"bike_id":"3d6fc511-e419-41c7-9a3c-b78a5b14af25","system_id":"levelo_inurba_marseille","lat":43.29265,"lon":5.38451,"is_reserved":false,"is_disabled":false,"rental_uris":{"android":"levelo://app?vid=3d6fc511-e419-41c7-9a3c-b78a5b14af25","ios":"levelo://app?vid=3d6fc511-e419-41c7-9a3c-b78a5b14af25"},"vehicle_type_id":"4","last_reported":1756400918,"current_range_meters":16400,"station_id":"ce4bh692rcd13ifvqea0","pricing_plan_id":"cebpf4jnsgd1na2vs0mg"},{"bike_id":"9607d0c8-21f4-495b-b908-f10db7d2efc8","system_id":"levelo_inurba_marseille","lat":43.31493,"lon":5.38614,"is_reserved":false,"is_disabled":false,"rental_uris":{"android":"levelo://app?vid=9607d0c8-21f4-495b-b908-f10db7d2efc8","ios":"levelo://app?vid=9607d0c8-21f4-495b-b908-f10db7d2efc8"},"vehicle_type_id":"4","last_reported":1756400918,"current_range_meters":16400,"station_id":"","pricing_plan_id":"cebpf4jnsgd1na2vs0mg"},{"bike_id":"06669016-cd47-459f-9dbc-b8f7fe75d379","system_id":"levelo_inurba_marseille","lat":43.322711,"lon":5.382912,"is_reserved":false,"is_disabled":false,"rental_uris":{"android":"levelo://app?vid=06669016-cd47-459f-9dbc-b8f7fe75d379","ios":"levelo://app?vid=06669016-cd47-459f-9dbc-b8f7fe75d379"},"vehicle_type_id":"4","last_reported":1756400918,"current_range_meters":16400,"station_id":"ce4bhr12rcd13ifvqhqg","pricing_plan_id":"cebpf4jnsgd1na2vs0mg"},{"bike_id":"9c2ea7af-e1f0-49ae-bea1-fdef9d504587","system_id":"levelo_inurba_marseille","lat":43.2602,"lon":5.37543,"is_reserved":false,"is_disabled":false,"rental_uris":{"android":"levelo://app?vid=9c2ea7af-e1f0-49ae-bea1-fdef9d504587","ios":"levelo://app?vid=9c2ea7af-e1f0-49ae-bea1-fdef9d504587"},"vehicle_type_id":"4","last_reported":1756400918,"current_range_meters":16400,"station_id":"ce4bhgh2rcd13ifvqfa0","pricing_plan_id":"cebpf4jnsgd1na2vs0mg"},{"bike_id":"c8ed8afa-4750-4d5e-b29e-7da3cd8f4dc7","system_id":"levelo_inurba_marseille","lat":43.32362,"lon":5.36763,"is_reserved":false,"is_disabled":false,"rental_uris":{"android":"levelo://app?vid=c8ed8afa-4750-4d5e-b29e-7da3cd8f4dc7","ios":"levelo://app?vid=c8ed8afa-4750-4d5e-b29e-7da3cd8f4dc7"},"vehicle_type_id":"4","last_reported":1756400918,"current_range_meters":16400,"station_id":"ce4bhsh2rcd13ifvqi2g","pricing_plan_id":"cebpf4jnsgd1na2vs0mg"},{"bike_id":"e88813c3-e63a-4665-b0f4-72e6c6c89a00","system_id":"levelo_inurba_marseille","lat":43.21176,"lon":5.35088,"is_reserved":false,"is_disabled":false,"rental_uris":{"android":"levelo://app?vid=e88813c3-e63a-4665-b0f4-72e6c6c89a00","ios":"levelo://app?vid=e88813c3-e63a-4665-b0f4-72e6c6c89a00"},"vehicle_type_id":"4","last_reported":1756400918,"current_range_meters":16400,"station_id":"st_cvj6sg6p6f1abm77japg","pricing_plan_id":"cebpf4jnsgd1na2vs0mg"},{"bike_id":"e68ad225-85c0-4ec9-a2c0-7cb7765f5195","system_id":"levelo_inurba_marseille","lat":43.24067,"lon":5.37761,"is_reserved":false,"is_disabled":false,"rental_uris":{"android":"levelo://app?vid=e68ad225-85c0-4ec9-a2c0-7cb7765f5195","ios":"levelo://app?vid=e68ad225-85c0-4ec9-a2c0-7cb7765f5195"},"vehicle_type_id":"4","last_reported":1756400918,"current_range_meters":16800,"station_id":"ce4bhnp2rcd13ifvqgvg","pricing_plan_id":"cebpf4jnsgd1na2vs0mg"},{"bike_id":"b8c0df91-e06a-4bb3-8618-c43f4cdf7fba","system_id":"levelo_inurba_marseille","lat":43.24546,"lon":5.39518,"is_reserved":false,"is_disabled":false,"rental_uris":{"android":"levelo://app?vid=b8c0df91-e06a-4bb3-8618-c43f4cdf7fba","ios":"levelo://app?vid=b8c0df91-e06a-4bb3-8618-c43f4cdf7fba"},"vehicle_type_id":"4","last_reported":1756400918,"current_range_meters":16800,"station_id":"ce4bhlp2rcd13ifvqgjg","pricing_plan_id":"cebpf4jnsgd1na2vs0mg"},{"bike_id":"95af2caa-b70b-4a86-8630-00887e8029e1","system_id":"levelo_inurba_marseille","lat":43.27202,"lon":5.39191,"is_reserved":false,"is_disabled":false,"rental_uris":{"android":"levelo://app?vid=95af2caa-b70b-4a86-8630-00887e8029e1","ios":"levelo://app?vid=95af2caa-b70b-4a86-8630-00887e8029e1"},"vehicle_type_id":"4","last_reported":1756400918,"current_range_meters":16800,"station_id":"ce4bhhp2rcd13ifvqfm0","pricing_plan_id":"cebpf4jnsgd1na2vs0mg"},{"bike_id":"42515969-df58-4bc3-81b4-d2c5b3092781","system_id":"levelo_inurba_marseille","lat":43.27714,"lon":5.41999,"is_reserved":false,"is_disabled":false,"rental_uris":{"android":"levelo://app?vid=42515969-df58-4bc3-81b4-d2c5b3092781","ios":"levelo://app?vid=42515969-df58-4bc3-81b4-d2c5b3092781"},"vehicle_type_id":"4","last_reported":1756400918,"current_range_meters":16800,"station_id":"","pricing_plan_id":"cebpf4jnsgd1na2vs0mg"},{"bike_id":"6ae14167-040f-483b-b606-bd3d86422839","system_id":"levelo_inurba_marseille","lat":43.24678,"lon":5.38153,"is_reserved":false,"is_disabled":false,"rental_uris":{"android":"levelo://app?vid=6ae14167-040f-483b-b606-bd3d86422839","ios":"levelo://app?vid=6ae14167-040f-483b-b606-bd3d86422839"},"vehicle_type_id":"4","last_reported":1756400918,"current_range_meters":16800,"station_id":"ce4bhih2rcd13ifvqfr0","pricing_plan_id":"cebpf4jnsgd1na2vs0mg"},{"bike_id":"f0e1e4a3-1fe8-4a58-b582-c0b4188393d1","system_id":"levelo_inurba_marseille","lat":43.29257,"lon":5.38453,"is_reserved":false,"is_disabled":true,"rental_uris":{"android":"levelo://app?vid=f0e1e4a3-1fe8-4a58-b582-c0b4188393d1","ios":"levelo://app?vid=f0e1e4a3-1fe8-4a58-b582-c0b4188393d1"},"vehicle_type_id":"4","last_reported":1756400918,"current_range_meters":16800,"station_id":"ce4bh692rcd13ifvqea0","pricing_plan_id":"cebpf4jnsgd1na2vs0mg"},{"bike_id":"a12f6910-157b-4110-8b52-15bcb60f48b4","system_id":"levelo_inurba_marseille","lat":43.26202,"lon":5.37452,"is_reserved":false,"is_disabled":false,"rental_uris":{"android":"levelo://app?vid=a12f6910-157b-4110-8b52-15bcb60f48b4","ios":"levelo://app?vid=a12f6910-157b-4110-8b52-15bcb60f48b4"},"vehicle_type_id":"4","last_reported":1756400918,"current_range_meters":16800,"station_id":"ce4bhgp2rcd13ifvqfc0","pricing_plan_id":"cebpf4jnsgd1na2vs0mg"},{"bike_id":"c9937043-7acb-49b8-a713-cfe2949599a9","system_id":"levelo_inurba_marseille","lat":43.27377,"lon":5.36254,"is_reserved":false,"is_disabled":false,"rental_uris":{"android":"levelo://app?vid=c9937043-7acb-49b8-a713-cfe2949599a9","ios":"levelo://app?vid=c9937043-7acb-49b8-a713-cfe2949599a9"},"vehicle_type_id":"4","last_reported":1756400918,"current_range_meters":16800,"station_id":"ce4bhbh2rcd13ifvqeo0","pricing_plan_id":"cebpf4jnsgd1na2vs0mg"},{"bike_id":"86527146-1968-41ce-bcab-cc18bcb2df50","system_id":"levelo_inurba_marseille","lat":43.31695,"lon":5.40464,"is_reserved":false,"is_disabled":false,"rental_uris":{"android":"levelo://app?vid=86527146-1968-41ce-bcab-cc18bcb2df50","ios":"levelo://app?vid=86527146-1968-41ce-bcab-cc18bcb2df50"},"vehicle_type_id":"4","last_reported":1756400918,"current_range_meters":16800,"station_id":"ce4bh012rcd13ifvqd00","pricing_plan_id":"cebpf4jnsgd1na2vs0mg"},{"bike_id":"955f36df-72b1-4121-b1d7-4caa154c43fc","system_id":"levelo_inurba_marseille","lat":43.29278,"lon":5.36839,"is_reserved":false,"is_disabled":false,"rental_uris":{"android":"levelo://app?vid=955f36df-72b1-4121-b1d7-4caa154c43fc","ios":"levelo://app?vid=955f36df-72b1-4121-b1d7-4caa154c43fc"},"vehicle_type_id":"4","last_reported":1756400918,"current_range_meters":16800,"station_id":"ce4bhbp2rcd13ifvqesg","pricing_plan_id":"cebpf4jnsgd1na2vs0mg"},{"bike_id":"ca808d34-9391-4691-b4c5-e9180d9c16d9","system_id":"levelo_inurba_marseille","lat":43.25333,"lon":5.4218,"is_reserved":false,"is_disabled":false,"rental_uris":{"android":"levelo://app?vid=ca808d34-9391-4691-b4c5-e9180d9c16d9","ios":"levelo://app?vid=ca808d34-9391-4691-b4c5-e9180d9c16d9"},"vehicle_type_id":"4","last_reported":1756400918,"current_range_meters":16800,"station_id":"st_d2m65c5bi1j21697t3ng","pricing_plan_id":"cebpf4jnsgd1na2vs0mg"},{"bike_id":"a3e4ee41-5175-47da-ad6e-4c5ae3eb42d9","system_id":"levelo_inurba_marseille","lat":43.212026,"lon":5.350766,"is_reserved":false,"is_disabled":false,"rental_uris":{"android":"levelo://app?vid=a3e4ee41-5175-47da-ad6e-4c5ae3eb42d9","ios":"levelo://app?vid=a3e4ee41-5175-47da-ad6e-4c5ae3eb42d9"},"vehicle_type_id":"4","last_reported":1756400918,"current_range_meters":16800,"station_id":"st_cvj6sg6p6f1abm77japg","pricing_plan_id":"cebpf4jnsgd1na2vs0mg"},{"bike_id":"21facb37-f2df-4979-a525-418747dd4e09","system_id":"levelo_inurba_marseille","lat":43.284094,"lon":5.349663,"is_reserved":false,"is_disabled":false,"rental_uris":{"android":"levelo://app?vid=21facb37-f2df-4979-a525-418747dd4e09","ios":"levelo://app?vid=21facb37-f2df-4979-a525-418747dd4e09"},"vehicle_type_id":"4","last_reported":1756400918,"current_range_meters":17200,"station_id":"ce4bhbh2rcd13ifvqepg","pricing_plan_id":"cebpf4jnsgd1na2vs0mg"},{"bike_id":"d89da60a-37c8-40d5-a76b-d918b98cb76d","system_id":"levelo_inurba_marseille","lat":43.28677,"lon":5.38656,"is_reserved":false,"is_disabled":false,"rental_uris":{"android":"levelo://app?vid=d89da60a-37c8-40d5-a76b-d918b98cb76d","ios":"levelo://app?vid=d89da60a-37c8-40d5-a76b-d918b98cb76d"},"vehicle_type_id":"4","last_reported":1756400918,"current_range_meters":16800,"station_id":"ce4bh492rcd13ifvqdug","pricing_plan_id":"cebpf4jnsgd1na2vs0mg"},{"bike_id":"82a81161-4ed2-4967-b9f8-401ff2e801cd","system_id":"levelo_inurba_marseille","lat":43.29195,"lon":5.35798,"is_reserved":false,"is_disabled":false,"rental_uris":{"android":"levelo://app?vid=82a81161-4ed2-4967-b9f8-401ff2e801cd","ios":"levelo://app?vid=82a81161-4ed2-4967-b9f8-401ff2e801cd"},"vehicle_type_id":"4","last_reported":1756400918,"current_range_meters":17200,"station_id":"ce4bhb12rcd13ifvqel0","pricing_plan_id":"cebpf4jnsgd1na2vs0mg"},{"bike_id":"b75646ea-35cd-437e-8dff-87b89f63075a","system_id":"levelo_inurba_marseille","lat":43.299311,"lon":5.374731,"is_reserved":false,"is_disabled":false,"rental_uris":{"android":"levelo://app?vid=b75646ea-35cd-437e-8dff-87b89f63075a","ios":"levelo://app?vid=b75646ea-35cd-437e-8dff-87b89f63075a"},"vehicle_type_id":"4","last_reported":1756400918,"current_range_meters":17200,"station_id":"ce4bgjh2rcd13ifvqbg0","pricing_plan_id":"cebpf4jnsgd1na2vs0mg"},{"bike_id":"26508366-ee27-4458-9397-efbea58eb818","system_id":"levelo_inurba_marseille","lat":43.25492,"lon":5.37648,"is_reserved":false,"is_disabled":false,"rental_uris":{"android":"levelo://app?vid=26508366-ee27-4458-9397-efbea58eb818","ios":"levelo://app?vid=26508366-ee27-4458-9397-efbea58eb818"},"vehicle_type_id":"4","last_reported":1756400918,"current_range_meters":17200,"station_id":"ce4bhh12rcd13ifvqff0","pricing_plan_id":"cebpf4jnsgd1na2vs0mg"},{"bike_id":"8b31e0fe-b43a-4732-a9f3-1447152f0d7b","system_id":"levelo_inurba_marseille","lat":43.26028,"lon":5.37546,"is_reserved":false,"is_disabled":false,"rental_uris":{"android":"levelo://app?vid=8b31e0fe-b43a-4732-a9f3-1447152f0d7b","ios":"levelo://app?vid=8b31e0fe-b43a-4732-a9f3-1447152f0d7b"},"vehicle_type_id":"4","last_reported":1756400918,"current_range_meters":17200,"station_id":"ce4bhgh2rcd13ifvqfa0","pricing_plan_id":"cebpf4jnsgd1na2vs0mg"},{"bike_id":"f42d5370-e3ad-4fdd-a63d-ca59d475d1ad","system_id":"levelo_inurba_marseille","lat":43.30955,"lon":5.39027,"is_reserved":false,"is_disabled":false,"rental_uris":{"android":"levelo://app?vid=f42d5370-e3ad-4fdd-a63d-ca59d475d1ad","ios":"levelo://app?vid=f42d5370-e3ad-4fdd-a63d-ca59d475d1ad"},"vehicle_type_id":"4","last_reported":1756400918,"current_range_meters":17200,"station_id":"ce4bgup2rcd13ifvqco0","pricing_plan_id":"cebpf4jnsgd1na2vs0mg"},{"bike_id":"ab7c0377-9067-4f33-b6fd-8c2b4cb14a20","system_id":"levelo_inurba_marseille","lat":43.30684,"lon":5.36645,"is_reserved":false,"is_disabled":false,"rental_uris":{"android":"levelo://app?vid=ab7c0377-9067-4f33-b6fd-8c2b4cb14a20","ios":"levelo://app?vid=ab7c0377-9067-4f33-b6fd-8c2b4cb14a20"},"vehicle_type_id":"4","last_reported":1756400918,"current_range_meters":17200,"station_id":"","pricing_plan_id":"cebpf4jnsgd1na2vs0mg"},{"bike_id":"f06e5c0e-5a76-4705-aa22-932f62009ec5","system_id":"levelo_inurba_marseille","lat":43.27562,"lon":5.38415,"is_reserved":false,"is_disabled":false,"rental_uris":{"android":"levelo://app?vid=f06e5c0e-5a76-4705-aa22-932f62009ec5","ios":"levelo://app?vid=f06e5c0e-5a76-4705-aa22-932f62009ec5"},"vehicle_type_id":"4","last_reported":1756400918,"current_range_meters":17600,"station_id":"ce4bhh92rcd13ifvqfi0","pricing_plan_id":"cebpf4jnsgd1na2vs0mg"},{"bike_id":"af0e337f-d4cf-4e28-9020-c2f2b620012b","system_id":"levelo_inurba_marseille","lat":43.22924,"lon":5.35383,"is_reserved":false,"is_disabled":false,"rental_uris":{"android":"levelo://app?vid=af0e337f-d4cf-4e28-9020-c2f2b620012b","ios":"levelo://app?vid=af0e337f-d4cf-4e28-9020-c2f2b620012b"},"vehicle_type_id":"4","last_reported":1756400918,"current_range_meters":17600,"station_id":"cpo3532slgdg3j2ikp40","pricing_plan_id":"cebpf4jnsgd1na2vs0mg"},{"bike_id":"9ef53989-d5ff-4693-92d3-e0730266edce","system_id":"levelo_inurba_marseille","lat":43.29267,"lon":5.38433,"is_reserved":false,"is_disabled":false,"rental_uris":{"android":"levelo://app?vid=9ef53989-d5ff-4693-92d3-e0730266edce","ios":"levelo://app?vid=9ef53989-d5ff-4693-92d3-e0730266edce"},"vehicle_type_id":"4","last_reported":1756400918,"current_range_meters":17600,"station_id":"ce4bh692rcd13ifvqea0","pricing_plan_id":"cebpf4jnsgd1na2vs0mg"},{"bike_id":"53482a20-bd82-47e7-85d6-718b5a06855b","system_id":"levelo_inurba_marseille","lat":43.286178,"lon":5.351126,"is_reserved":false,"is_disabled":false,"rental_uris":{"android":"levelo://app?vid=53482a20-bd82-47e7-85d6-718b5a06855b","ios":"levelo://app?vid=53482a20-bd82-47e7-85d6-718b5a06855b"},"vehicle_type_id":"4","last_reported":1756400918,"current_range_meters":17600,"station_id":"ce4bhch2rcd13ifvqeug","pricing_plan_id":"cebpf4jnsgd1na2vs0mg"},{"bike_id":"5a4ed5bf-12c1-43ea-a93a-096a6d89ffd1","system_id":"levelo_inurba_marseille","lat":43.29016,"lon":5.38623,"is_reserved":false,"is_disabled":false,"rental_uris":{"android":"levelo://app?vid=5a4ed5bf-12c1-43ea-a93a-096a6d89ffd1","ios":"levelo://app?vid=5a4ed5bf-12c1-43ea-a93a-096a6d89ffd1"},"vehicle_type_id":"4","last_reported":1756400918,"current_range_meters":17600,"station_id":"ce4bh4p2rcd13ifvqe0g","pricing_plan_id":"cebpf4jnsgd1na2vs0mg"},{"bike_id":"d44d15b9-2fb5-46e0-acb8-8b8b91797dc2","system_id":"levelo_inurba_marseille","lat":43.26016,"lon":5.37539,"is_reserved":false,"is_disabled":false,"rental_uris":{"android":"levelo://app?vid=d44d15b9-2fb5-46e0-acb8-8b8b91797dc2","ios":"levelo://app?vid=d44d15b9-2fb5-46e0-acb8-8b8b91797dc2"},"vehicle_type_id":"4","last_reported":1756400918,"current_range_meters":17600,"station_id":"","pricing_plan_id":"cebpf4jnsgd1na2vs0mg"},{"bike_id":"45126756-0d86-455a-813e-8d6622cad90a","system_id":"levelo_inurba_marseille","lat":43.28421,"lon":5.349757,"is_reserved":false,"is_disabled":false,"rental_uris":{"android":"levelo://app?vid=45126756-0d86-455a-813e-8d6622cad90a","ios":"levelo://app?vid=45126756-0d86-455a-813e-8d6622cad90a"},"vehicle_type_id":"4","last_reported":1756400918,"current_range_meters":17600,"station_id":"ce4bhbh2rcd13ifvqepg","pricing_plan_id":"cebpf4jnsgd1na2vs0mg"},{"bike_id":"679dd2c2-03ba-464f-b4ca-d253d6e39f03","system_id":"levelo_inurba_marseille","lat":43.28426,"lon":5.34982,"is_reserved":false,"is_disabled":false,"rental_uris":{"android":"levelo://app?vid=679dd2c2-03ba-464f-b4ca-d253d6e39f03","ios":"levelo://app?vid=679dd2c2-03ba-464f-b4ca-d253d6e39f03"},"vehicle_type_id":"4","last_reported":1756400918,"current_range_meters":17600,"station_id":"ce4bhbh2rcd13ifvqepg","pricing_plan_id":"cebpf4jnsgd1na2vs0mg"},{"bike_id":"159e778a-d20c-42da-86c4-bf4c3d4998a3","system_id":"levelo_inurba_marseille","lat":43.262139,"lon":5.374411,"is_reserved":false,"is_disabled":false,"rental_uris":{"android":"levelo://app?vid=159e778a-d20c-42da-86c4-bf4c3d4998a3","ios":"levelo://app?vid=159e778a-d20c-42da-86c4-bf4c3d4998a3"},"vehicle_type_id":"4","last_reported":1756400918,"current_range_meters":17600,"station_id":"ce4bhgp2rcd13ifvqfc0","pricing_plan_id":"cebpf4jnsgd1na2vs0mg"},{"bike_id":"33822fca-9dfa-4053-876d-480ced1ce966","system_id":"levelo_inurba_marseille","lat":43.278845,"lon":5.363215,"is_reserved":false,"is_disabled":false,"rental_uris":{"android":"levelo://app?vid=33822fca-9dfa-4053-876d-480ced1ce966","ios":"levelo://app?vid=33822fca-9dfa-4053-876d-480ced1ce966"},"vehicle_type_id":"4","last_reported":1756400918,"current_range_meters":17600,"station_id":"ce4bgj92rcd13ifvqbe0","pricing_plan_id":"cebpf4jnsgd1na2vs0mg"},{"bike_id":"6e9c6dff-ccd4-4b81-bd64-f234331b29e3","system_id":"levelo_inurba_marseille","lat":43.24807,"lon":5.37454,"is_reserved":false,"is_disabled":false,"rental_uris":{"android":"levelo://app?vid=6e9c6dff-ccd4-4b81-bd64-f234331b29e3","ios":"levelo://app?vid=6e9c6dff-ccd4-4b81-bd64-f234331b29e3"},"vehicle_type_id":"4","last_reported":1756400918,"current_range_meters":17600,"station_id":"ce4bhgh2rcd13ifvqfb0","pricing_plan_id":"cebpf4jnsgd1na2vs0mg"},{"bike_id":"470e3b4a-071e-4e4d-ba95-8099080d874f","system_id":"levelo_inurba_marseille","lat":43.24964,"lon":5.38984,"is_reserved":false,"is_disabled":false,"rental_uris":{"android":"levelo://app?vid=470e3b4a-071e-4e4d-ba95-8099080d874f","ios":"levelo://app?vid=470e3b4a-071e-4e4d-ba95-8099080d874f"},"vehicle_type_id":"4","last_reported":1756400918,"current_range_meters":17600,"station_id":"","pricing_plan_id":"cebpf4jnsgd1na2vs0mg"},{"bike_id":"6c3f9606-3f72-4507-bdb0-acc139c19e6d","system_id":"levelo_inurba_marseille","lat":43.26545,"lon":5.3729,"is_reserved":false,"is_disabled":false,"rental_uris":{"android":"levelo://app?vid=6c3f9606-3f72-4507-bdb0-acc139c19e6d","ios":"levelo://app?vid=6c3f9606-3f72-4507-bdb0-acc139c19e6d"},"vehicle_type_id":"4","last_reported":1756400918,"current_range_meters":17600,"station_id":"ce4bhg12rcd13ifvqf70","pricing_plan_id":"cebpf4jnsgd1na2vs0mg"},{"bike_id":"6dd0abf3-b4b3-4f6d-8320-aeaf8346e3b9","system_id":"levelo_inurba_marseille","lat":43.23144,"lon":5.43735,"is_reserved":false,"is_disabled":false,"rental_uris":{"android":"levelo://app?vid=6dd0abf3-b4b3-4f6d-8320-aeaf8346e3b9","ios":"levelo://app?vid=6dd0abf3-b4b3-4f6d-8320-aeaf8346e3b9"},"vehicle_type_id":"4","last_reported":1756400918,"current_range_meters":18000,"station_id":"ce4bhmp2rcd13ifvqgog","pricing_plan_id":"cebpf4jnsgd1na2vs0mg"},{"bike_id":"ab2b2968-2afc-4029-82d1-f9d7f0e7846c","system_id":"levelo_inurba_marseille","lat":43.292618,"lon":5.376212,"is_reserved":false,"is_disabled":false,"rental_uris":{"android":"levelo://app?vid=ab2b2968-2afc-4029-82d1-f9d7f0e7846c","ios":"levelo://app?vid=ab2b2968-2afc-4029-82d1-f9d7f0e7846c"},"vehicle_type_id":"4","last_reported":1756400918,"current_range_meters":18000,"station_id":"ce4bgi12rcd13ifvqb80","pricing_plan_id":"cebpf4jnsgd1na2vs0mg"},{"bike_id":"dee5fc92-9d8d-42ec-97e1-996d8f5266a8","system_id":"levelo_inurba_marseille","lat":43.229283,"lon":5.353844,"is_reserved":false,"is_disabled":false,"rental_uris":{"android":"levelo://app?vid=dee5fc92-9d8d-42ec-97e1-996d8f5266a8","ios":"levelo://app?vid=dee5fc92-9d8d-42ec-97e1-996d8f5266a8"},"vehicle_type_id":"4","last_reported":1756400918,"current_range_meters":18000,"station_id":"cpo3532slgdg3j2ikp40","pricing_plan_id":"cebpf4jnsgd1na2vs0mg"},{"bike_id":"083b0e7f-357f-4afd-b79e-219efec9656b","system_id":"levelo_inurba_marseille","lat":43.28424,"lon":5.34991,"is_reserved":false,"is_disabled":false,"rental_uris":{"android":"levelo://app?vid=083b0e7f-357f-4afd-b79e-219efec9656b","ios":"levelo://app?vid=083b0e7f-357f-4afd-b79e-219efec9656b"},"vehicle_type_id":"4","last_reported":1756400918,"current_range_meters":18000,"station_id":"ce4bhbh2rcd13ifvqepg","pricing_plan_id":"cebpf4jnsgd1na2vs0mg"},{"bike_id":"60863403-b289-4c9c-b2d0-3d448abf417f","system_id":"levelo_inurba_marseille","lat":43.28252,"lon":5.35079,"is_reserved":false,"is_disabled":true,"rental_uris":{"android":"levelo://app?vid=60863403-b289-4c9c-b2d0-3d448abf417f","ios":"levelo://app?vid=60863403-b289-4c9c-b2d0-3d448abf417f"},"vehicle_type_id":"4","last_reported":1756400918,"current_range_meters":18000,"station_id":"ce4bhbp2rcd13ifvqerg","pricing_plan_id":"cebpf4jnsgd1na2vs0mg"},{"bike_id":"45b9f18d-bbe8-4bb0-9dfe-c0a0473b48ba","system_id":"levelo_inurba_marseille","lat":43.24801,"lon":5.37457,"is_reserved":false,"is_disabled":false,"rental_uris":{"android":"levelo://app?vid=45b9f18d-bbe8-4bb0-9dfe-c0a0473b48ba","ios":"levelo://app?vid=45b9f18d-bbe8-4bb0-9dfe-c0a0473b48ba"},"vehicle_type_id":"4","last_reported":1756400918,"current_range_meters":18000,"station_id":"ce4bhgh2rcd13ifvqfb0","pricing_plan_id":"cebpf4jnsgd1na2vs0mg"},{"bike_id":"07761c7f-90f3-44f4-a950-f91cbca976d7","system_id":"levelo_inurba_marseille","lat":43.26192,"lon":5.37429,"is_reserved":false,"is_disabled":false,"rental_uris":{"android":"levelo://app?vid=07761c7f-90f3-44f4-a950-f91cbca976d7","ios":"levelo://app?vid=07761c7f-90f3-44f4-a950-f91cbca976d7"},"vehicle_type_id":"4","last_reported":1756400918,"current_range_meters":18000,"station_id":"ce4bhgp2rcd13ifvqfc0","pricing_plan_id":"cebpf4jnsgd1na2vs0mg"},{"bike_id":"7d08465d-23bb-49ba-a0a1-d361939ed807","system_id":"levelo_inurba_marseille","lat":43.32024,"lon":5.41567,"is_reserved":false,"is_disabled":false,"rental_uris":{"android":"levelo://app?vid=7d08465d-23bb-49ba-a0a1-d361939ed807","ios":"levelo://app?vid=7d08465d-23bb-49ba-a0a1-d361939ed807"},"vehicle_type_id":"4","last_reported":1756400918,"current_range_meters":18000,"station_id":"ce4bhq92rcd13ifvqhkg","pricing_plan_id":"cebpf4jnsgd1na2vs0mg"},{"bike_id":"49774fcc-922a-499c-b7d4-86afe0396868","system_id":"levelo_inurba_marseille","lat":43.25486,"lon":5.37667,"is_reserved":false,"is_disabled":true,"rental_uris":{"android":"levelo://app?vid=49774fcc-922a-499c-b7d4-86afe0396868","ios":"levelo://app?vid=49774fcc-922a-499c-b7d4-86afe0396868"},"vehicle_type_id":"4","last_reported":1756400918,"current_range_meters":18000,"station_id":"ce4bhh12rcd13ifvqff0","pricing_plan_id":"cebpf4jnsgd1na2vs0mg"},{"bike_id":"196169a4-3222-419a-be3c-e08cc270c692","system_id":"levelo_inurba_marseille","lat":43.2933,"lon":5.37319,"is_reserved":false,"is_disabled":false,"rental_uris":{"android":"levelo://app?vid=196169a4-3222-419a-be3c-e08cc270c692","ios":"levelo://app?vid=196169a4-3222-419a-be3c-e08cc270c692"},"vehicle_type_id":"4","last_reported":1756400918,"current_range_meters":18000,"station_id":"","pricing_plan_id":"cebpf4jnsgd1na2vs0mg"},{"bike_id":"07a9f935-3a72-4775-8683-191c76ba93e6","system_id":"levelo_inurba_marseille","lat":43.299627,"lon":5.384835,"is_reserved":false,"is_disabled":false,"rental_uris":{"android":"levelo://app?vid=07a9f935-3a72-4775-8683-191c76ba93e6","ios":"levelo://app?vid=07a9f935-3a72-4775-8683-191c76ba93e6"},"vehicle_type_id":"4","last_reported":1756400918,"current_range_meters":18000,"station_id":"ce4bgj92rcd13ifvqbd0","pricing_plan_id":"cebpf4jnsgd1na2vs0mg"},{"bike_id":"d1012ec4-1fc3-4e5f-a82c-9d7d73d65c20","system_id":"levelo_inurba_marseille","lat":43.260344,"lon":5.417345,"is_reserved":false,"is_disabled":false,"rental_uris":{"android":"levelo://app?vid=d1012ec4-1fc3-4e5f-a82c-9d7d73d65c20","ios":"levelo://app?vid=d1012ec4-1fc3-4e5f-a82c-9d7d73d65c20"},"vehicle_type_id":"4","last_reported":1756400918,"current_range_meters":18000,"station_id":"","pricing_plan_id":"cebpf4jnsgd1na2vs0mg"},{"bike_id":"72adf8d3-000d-462a-9b10-b49b61130129","system_id":"levelo_inurba_marseille","lat":43.28413,"lon":5.34971,"is_reserved":false,"is_disabled":false,"rental_uris":{"android":"levelo://app?vid=72adf8d3-000d-462a-9b10-b49b61130129","ios":"levelo://app?vid=72adf8d3-000d-462a-9b10-b49b61130129"},"vehicle_type_id":"4","last_reported":1756400918,"current_range_meters":18800,"station_id":"ce4bhbh2rcd13ifvqepg","pricing_plan_id":"cebpf4jnsgd1na2vs0mg"},{"bike_id":"cc7424a2-63e2-49b7-9026-ff6c693453c2","system_id":"levelo_inurba_marseille","lat":43.24668,"lon":5.38135,"is_reserved":false,"is_disabled":false,"rental_uris":{"android":"levelo://app?vid=cc7424a2-63e2-49b7-9026-ff6c693453c2","ios":"levelo://app?vid=cc7424a2-63e2-49b7-9026-ff6c693453c2"},"vehicle_type_id":"4","last_reported":1756400918,"current_range_meters":18800,"station_id":"ce4bhih2rcd13ifvqfr0","pricing_plan_id":"cebpf4jnsgd1na2vs0mg"},{"bike_id":"e206e81c-ee6e-4e3b-9ddd-0df77b3be407","system_id":"levelo_inurba_marseille","lat":43.28706,"lon":5.37393,"is_reserved":false,"is_disabled":false,"rental_uris":{"android":"levelo://app?vid=e206e81c-ee6e-4e3b-9ddd-0df77b3be407","ios":"levelo://app?vid=e206e81c-ee6e-4e3b-9ddd-0df77b3be407"},"vehicle_type_id":"4","last_reported":1756400918,"current_range_meters":18800,"station_id":"ce4bh3p2rcd13ifvqdq0","pricing_plan_id":"cebpf4jnsgd1na2vs0mg"},{"bike_id":"58b40781-6f1a-4364-b6d4-ea0cfa246e10","system_id":"levelo_inurba_marseille","lat":43.24811,"lon":5.37457,"is_reserved":false,"is_disabled":false,"rental_uris":{"android":"levelo://app?vid=58b40781-6f1a-4364-b6d4-ea0cfa246e10","ios":"levelo://app?vid=58b40781-6f1a-4364-b6d4-ea0cfa246e10"},"vehicle_type_id":"4","last_reported":1756400918,"current_range_meters":18800,"station_id":"ce4bhgh2rcd13ifvqfb0","pricing_plan_id":"cebpf4jnsgd1na2vs0mg"},{"bike_id":"ab5c6e24-62b9-4c01-ac48-014653bc0d44","system_id":"levelo_inurba_marseille","lat":43.29529,"lon":5.38552,"is_reserved":false,"is_disabled":false,"rental_uris":{"android":"levelo://app?vid=ab5c6e24-62b9-4c01-ac48-014653bc0d44","ios":"levelo://app?vid=ab5c6e24-62b9-4c01-ac48-014653bc0d44"},"vehicle_type_id":"4","last_reported":1756400918,"current_range_meters":18800,"station_id":"ce4bgih2rcd13ifvqba0","pricing_plan_id":"cebpf4jnsgd1na2vs0mg"},{"bike_id":"fc45f822-2f36-44a0-9d07-61b6bb954d98","system_id":"levelo_inurba_marseille","lat":43.2176,"lon":5.34641,"is_reserved":false,"is_disabled":false,"rental_uris":{"android":"levelo://app?vid=fc45f822-2f36-44a0-9d07-61b6bb954d98","ios":"levelo://app?vid=fc45f822-2f36-44a0-9d07-61b6bb954d98"},"vehicle_type_id":"4","last_reported":1756400918,"current_range_meters":18800,"station_id":"st_cvj6r9ubvosntc0bgbag","pricing_plan_id":"cebpf4jnsgd1na2vs0mg"},{"bike_id":"c4a01156-9fb8-4cac-961f-56d0ad4ae926","system_id":"levelo_inurba_marseille","lat":43.28425,"lon":5.34992,"is_reserved":false,"is_disabled":false,"rental_uris":{"android":"levelo://app?vid=c4a01156-9fb8-4cac-961f-56d0ad4ae926","ios":"levelo://app?vid=c4a01156-9fb8-4cac-961f-56d0ad4ae926"},"vehicle_type_id":"4","last_reported":1756400918,"current_range_meters":18800,"station_id":"ce4bhbh2rcd13ifvqepg","pricing_plan_id":"cebpf4jnsgd1na2vs0mg"},{"bike_id":"35783749-1eed-4846-be86-30e5db16776a","system_id":"levelo_inurba_marseille","lat":43.28605,"lon":5.3706,"is_reserved":false,"is_disabled":false,"rental_uris":{"android":"levelo://app?vid=35783749-1eed-4846-be86-30e5db16776a","ios":"levelo://app?vid=35783749-1eed-4846-be86-30e5db16776a"},"vehicle_type_id":"4","last_reported":1756400918,"current_range_meters":18800,"station_id":"ce4bht12rcd13ifvqi60","pricing_plan_id":"cebpf4jnsgd1na2vs0mg"},{"bike_id":"ba44d544-e98c-4fda-9251-f70fb07cc2b2","system_id":"levelo_inurba_marseille","lat":43.265477,"lon":5.372818,"is_reserved":false,"is_disabled":false,"rental_uris":{"android":"levelo://app?vid=ba44d544-e98c-4fda-9251-f70fb07cc2b2","ios":"levelo://app?vid=ba44d544-e98c-4fda-9251-f70fb07cc2b2"},"vehicle_type_id":"4","last_reported":1756400918,"current_range_meters":18800,"station_id":"ce4bhg12rcd13ifvqf70","pricing_plan_id":"cebpf4jnsgd1na2vs0mg"},{"bike_id":"3dd23926-ae78-488e-8f33-e0fe0712154d","system_id":"levelo_inurba_marseille","lat":43.312139,"lon":5.377836,"is_reserved":false,"is_disabled":false,"rental_uris":{"android":"levelo://app?vid=3dd23926-ae78-488e-8f33-e0fe0712154d","ios":"levelo://app?vid=3dd23926-ae78-488e-8f33-e0fe0712154d"},"vehicle_type_id":"4","last_reported":1756400918,"current_range_meters":18800,"station_id":"","pricing_plan_id":"cebpf4jnsgd1na2vs0mg"},{"bike_id":"b226851c-b8c6-4341-8132-38af96c34122","system_id":"levelo_inurba_marseille","lat":43.26022,"lon":5.37556,"is_reserved":false,"is_disabled":false,"rental_uris":{"android":"levelo://app?vid=b226851c-b8c6-4341-8132-38af96c34122","ios":"levelo://app?vid=b226851c-b8c6-4341-8132-38af96c34122"},"vehicle_type_id":"4","last_reported":1756400918,"current_range_meters":18800,"station_id":"ce4bhgh2rcd13ifvqfa0","pricing_plan_id":"cebpf4jnsgd1na2vs0mg"},{"bike_id":"e6a93fb5-0898-42b5-a0f1-0058cce3ed8f","system_id":"levelo_inurba_marseille","lat":43.25495,"lon":5.37651,"is_reserved":false,"is_disabled":false,"rental_uris":{"android":"levelo://app?vid=e6a93fb5-0898-42b5-a0f1-0058cce3ed8f","ios":"levelo://app?vid=e6a93fb5-0898-42b5-a0f1-0058cce3ed8f"},"vehicle_type_id":"4","last_reported":1756400918,"current_range_meters":18800,"station_id":"ce4bhh12rcd13ifvqff0","pricing_plan_id":"cebpf4jnsgd1na2vs0mg"},{"bike_id":"76b197af-de92-4ba5-bb4c-c9db5a96eb3b","system_id":"levelo_inurba_marseille","lat":43.2175,"lon":5.34598,"is_reserved":false,"is_disabled":false,"rental_uris":{"android":"levelo://app?vid=76b197af-de92-4ba5-bb4c-c9db5a96eb3b","ios":"levelo://app?vid=76b197af-de92-4ba5-bb4c-c9db5a96eb3b"},"vehicle_type_id":"4","last_reported":1756400918,"current_range_meters":18800,"station_id":"st_cvj6r9ubvosntc0bgbag","pricing_plan_id":"cebpf4jnsgd1na2vs0mg"},{"bike_id":"fdfe6fd8-fb0e-4713-8ecb-26f32dc5718e","system_id":"levelo_inurba_marseille","lat":43.26022,"lon":5.37554,"is_reserved":false,"is_disabled":false,"rental_uris":{"android":"levelo://app?vid=fdfe6fd8-fb0e-4713-8ecb-26f32dc5718e","ios":"levelo://app?vid=fdfe6fd8-fb0e-4713-8ecb-26f32dc5718e"},"vehicle_type_id":"4","last_reported":1756400918,"current_range_meters":18800,"station_id":"ce4bhgh2rcd13ifvqfa0","pricing_plan_id":"cebpf4jnsgd1na2vs0mg"},{"bike_id":"a6106d71-8d2e-4dc4-b530-1cd5fc2ce573","system_id":"levelo_inurba_marseille","lat":43.25586,"lon":5.38228,"is_reserved":false,"is_disabled":false,"rental_uris":{"android":"levelo://app?vid=a6106d71-8d2e-4dc4-b530-1cd5fc2ce573","ios":"levelo://app?vid=a6106d71-8d2e-4dc4-b530-1cd5fc2ce573"},"vehicle_type_id":"4","last_reported":1756400918,"current_range_meters":19200,"station_id":"ce4bhih2rcd13ifvqfs0","pricing_plan_id":"cebpf4jnsgd1na2vs0mg"},{"bike_id":"1d3ad676-0115-4bbe-973e-c2594b30f614","system_id":"levelo_inurba_marseille","lat":43.26562,"lon":5.37285,"is_reserved":false,"is_disabled":false,"rental_uris":{"android":"levelo://app?vid=1d3ad676-0115-4bbe-973e-c2594b30f614","ios":"levelo://app?vid=1d3ad676-0115-4bbe-973e-c2594b30f614"},"vehicle_type_id":"4","last_reported":1756400918,"current_range_meters":19200,"station_id":"ce4bhg12rcd13ifvqf70","pricing_plan_id":"cebpf4jnsgd1na2vs0mg"},{"bike_id":"2afdee26-baf6-435e-888f-9ff3d3d01578","system_id":"levelo_inurba_marseille","lat":43.25083,"lon":5.39526,"is_reserved":false,"is_disabled":false,"rental_uris":{"android":"levelo://app?vid=2afdee26-baf6-435e-888f-9ff3d3d01578","ios":"levelo://app?vid=2afdee26-baf6-435e-888f-9ff3d3d01578"},"vehicle_type_id":"4","last_reported":1756400918,"current_range_meters":19200,"station_id":"ce4bhm12rcd13ifvqgkg","pricing_plan_id":"cebpf4jnsgd1na2vs0mg"},{"bike_id":"c2739fd4-c7e2-4bf0-8b2f-b1853857895d","system_id":"levelo_inurba_marseille","lat":43.24804,"lon":5.37449,"is_reserved":false,"is_disabled":false,"rental_uris":{"android":"levelo://app?vid=c2739fd4-c7e2-4bf0-8b2f-b1853857895d","ios":"levelo://app?vid=c2739fd4-c7e2-4bf0-8b2f-b1853857895d"},"vehicle_type_id":"4","last_reported":1756400918,"current_range_meters":19200,"station_id":"ce4bhgh2rcd13ifvqfb0","pricing_plan_id":"cebpf4jnsgd1na2vs0mg"},{"bike_id":"857718d2-0f9e-48c7-b667-29b3cd0d942f","system_id":"levelo_inurba_marseille","lat":43.21749,"lon":5.34601,"is_reserved":false,"is_disabled":false,"rental_uris":{"android":"levelo://app?vid=857718d2-0f9e-48c7-b667-29b3cd0d942f","ios":"levelo://app?vid=857718d2-0f9e-48c7-b667-29b3cd0d942f"},"vehicle_type_id":"4","last_reported":1756400918,"current_range_meters":19200,"station_id":"st_cvj6r9ubvosntc0bgbag","pricing_plan_id":"cebpf4jnsgd1na2vs0mg"},{"bike_id":"f7c72213-bc1f-4dc8-9236-f4004cdae7b1","system_id":"levelo_inurba_marseille","lat":43.21744,"lon":5.34609,"is_reserved":false,"is_disabled":false,"rental_uris":{"android":"levelo://app?vid=f7c72213-bc1f-4dc8-9236-f4004cdae7b1","ios":"levelo://app?vid=f7c72213-bc1f-4dc8-9236-f4004cdae7b1"},"vehicle_type_id":"4","last_reported":1756400918,"current_range_meters":19200,"station_id":"st_cvj6r9ubvosntc0bgbag","pricing_plan_id":"cebpf4jnsgd1na2vs0mg"},{"bike_id":"e9e97295-74ef-4484-8872-f65adb9d48bc","system_id":"levelo_inurba_marseille","lat":43.28412,"lon":5.3498,"is_reserved":false,"is_disabled":false,"rental_uris":{"android":"levelo://app?vid=e9e97295-74ef-4484-8872-f65adb9d48bc","ios":"levelo://app?vid=e9e97295-74ef-4484-8872-f65adb9d48bc"},"vehicle_type_id":"4","last_reported":1756400918,"current_range_meters":19200,"station_id":"ce4bhbh2rcd13ifvqepg","pricing_plan_id":"cebpf4jnsgd1na2vs0mg"},{"bike_id":"458bd84b-e6ad-441c-b102-d78a6d008b91","system_id":"levelo_inurba_marseille","lat":43.261917,"lon":5.374517,"is_reserved":false,"is_disabled":false,"rental_uris":{"android":"levelo://app?vid=458bd84b-e6ad-441c-b102-d78a6d008b91","ios":"levelo://app?vid=458bd84b-e6ad-441c-b102-d78a6d008b91"},"vehicle_type_id":"4","last_reported":1756400918,"current_range_meters":19200,"station_id":"ce4bhgp2rcd13ifvqfc0","pricing_plan_id":"cebpf4jnsgd1na2vs0mg"},{"bike_id":"0e6c1433-fb73-412b-8201-e50d3c4f4bae","system_id":"levelo_inurba_marseille","lat":43.29868,"lon":5.39736,"is_reserved":false,"is_disabled":false,"rental_uris":{"android":"levelo://app?vid=0e6c1433-fb73-412b-8201-e50d3c4f4bae","ios":"levelo://app?vid=0e6c1433-fb73-412b-8201-e50d3c4f4bae"},