{"last_updated":1736856988,"ttl":60,"version":"2.2","data":{"bikes":[{"bike_id":"9b01f819-b8ae-4fd1-8d09-40d7cec187d8","system_id":"levelo_inurba_marseille","lat":43.29901,"lon":5.38891,"is_reserved":false,"is_disabled":false,"rental_uris":{"android":"levelo://app?vid=9b01f819-b8ae-4fd1-8d09-40d7cec187d8","ios":"levelo://app?vid=9b01f819-b8ae-4fd1-8d09-40d7cec187d8"},"vehicle_type_id":"4","last_reported":1736856988,"current_range_meters":16000,"station_id":"ce4bh392rcd13ifvqdl0","pricing_plan_id":"cebpf4jnsgd1na2vs0mg"},{"bike_id":"8b877a16-2c6f-4913-a8ea-b53aacb81218","system_id":"levelo_inurba_marseille","lat":43.28061,"lon":5.39644,"is_reserved":false,"is_disabled":false,"rental_uris":{"android":"levelo://app?vid=8b877a16-2c6f-4913-a8ea-b53aacb81218","ios":"levelo://app?vid=8b877a16-2c6f-4913-a8ea-b53aacb81218"},"vehicle_type_id":"4","last_reported":1736856988,"current_range_meters":38000,"station_id":"ce4bho12rcd13ifvqh2g","pricing_plan_id":"cebpf4jnsgd1na2vs0mg"},{"bike_id":"094f2b9d-982b-42a3-8932-981369abda5b","system_id":"levelo_inurba_marseille","lat":43.26936,"lon":5.4026,"is_reserved":false,"is_disabled":false,"rental_uris":{"android":"levelo://app?vid=094f2b9d-982b-42a3-8932-981369abda5b","ios":"levelo://app?vid=094f2b9d-982b-42a3-8932-981369abda5b"},"vehicle_type_id":"4","last_reported":1736856988,"current_range_meters":30800,"station_id":"cjm6bp8fraef2m0cb0m0","pricing_plan_id":"cebpf4jnsgd1na2vs0mg"},{"bike_id":"37f8db72-a4e7-4338-ad2c-dc7e3ca11652","system_id":"levelo_inurba_marseille","lat":43.337645,"lon":5.374583,"is_reserved":false,"is_disabled":false,"rental_uris":{"android":"levelo://app?vid=37f8db72-a4e7-4338-ad2c-dc7e3ca11652","ios":"levelo://app?vid=37f8db72-a4e7-4338-ad2c-dc7e3ca11652"},"vehicle_type_id":"4","last_reported":1736856988,"current_range_meters":38800,"station_id":"","pricing_plan_id":"cebpf4jnsgd1na2vs0mg"},{"bike_id":"656789fa-ef87-4784-8ff7-52c565b76b9d","system_id":"levelo_inurba_marseille","lat":43.3031,"lon":5.3689,"is_reserved":false,"is_disabled":false,"rental_uris":{"android":"levelo://app?vid=656789fa-ef87-4784-8ff7-52c565b76b9d","ios":"levelo://app?vid=656789fa-ef87-4784-8ff7-52c565b76b9d"},"vehicle_type_id":"4","last_reported":1736856988,"current_range_meters":34800,"station_id":"ce4bgqh2rcd13ifvqc5g","pricing_plan_id":"cebpf4jnsgd1na2vs0mg"},{"bike_id":"c3922933-e4cf-46e9-a5e3-10a1ae3354dd","system_id":"levelo_inurba_marseille","lat":43.30602,"lon":5.39369,"is_reserved":false,"is_disabled":false,"rental_uris":{"android":"levelo://app?vid=c3922933-e4cf-46e9-a5e3-10a1ae3354dd","ios":"levelo://app?vid=c3922933-e4cf-46e9-a5e3-10a1ae3354dd"},"vehicle_type_id":"4","last_reported":1736856988,"current_range_meters":36800,"station_id":"ce4bh0p2rcd13ifvqd80","pricing_plan_id":"cebpf4jnsgd1na2vs0mg"},{"bike_id":"c7effa02-2a4d-4c80-b715-e13a742e7121","system_id":"levelo_inurba_marseille","lat":43.28685,"lon":5.38675,"is_reserved":false,"is_disabled":false,"rental_uris":{"android":"levelo://app?vid=c7effa02-2a4d-4c80-b715-e13a742e7121","ios":"levelo://app?vid=c7effa02-2a4d-4c80-b715-e13a742e7121"},"vehicle_type_id":"4","last_reported":1736856988,"current_range_meters":17200,"station_id":"ce4bh492rcd13ifvqdug","pricing_plan_id":"cebpf4jnsgd1na2vs0mg"},{"bike_id":"a9caf45c-9b62-4fad-bb25-cf9cfd1dff86","system_id":"levelo_inurba_marseille","lat":43.33732,"lon":5.39243,"is_reserved":false,"is_disabled":false,"rental_uris":{"android":"levelo://app?vid=a9caf45c-9b62-4fad-bb25-cf9cfd1dff86","ios":"levelo://app?vid=a9caf45c-9b62-4fad-bb25-cf9cfd1dff86"},"vehicle_type_id":"4","last_reported":1736856988,"current_range_meters":38800,"station_id":"ce4bhr92rcd13ifvqhsg","pricing_plan_id":"cebpf4jnsgd1na2vs0mg"},{"bike_id":"83c05730-c74e-4333-98de-3397043b2b60","system_id":"levelo_inurba_marseille","lat":43.27623,"lon":5.36108,"is_reserved":false,"is_disabled":false,"rental_uris":{"android":"levelo://app?vid=83c05730-c74e-4333-98de-3397043b2b60","ios":"levelo://app?vid=83c05730-c74e-4333-98de-3397043b2b60"},"vehicle_type_id":"4","last_reported":1736856988,"current_range_meters":20000,"station_id":"ce4bgj92rcd13ifvqbe0","pricing_plan_id":"cebpf4jnsgd1na2vs0mg"},{"bike_id":"5e0b46d4-53a6-4a9b-81ed-42b3629948b7","system_id":"levelo_inurba_marseille","lat":43.321091,"lon":5.36773,"is_reserved":false,"is_disabled":false,"rental_uris":{"android":"levelo://app?vid=5e0b46d4-53a6-4a9b-81ed-42b3629948b7","ios":"levelo://app?vid=5e0b46d4-53a6-4a9b-81ed-42b3629948b7"},"vehicle_type_id":"4","last_reported":1736856988,"current_range_meters":38000,"station_id":"ce4bhrh2rcd13ifvqhug","pricing_plan_id":"cebpf4jnsgd1na2vs0mg"},{"bike_id":"b8313cbd-b94d-4d90-8b43-1d519860592b","system_id":"levelo_inurba_marseille","lat":43.30797,"lon":5.38159,"is_reserved":false,"is_disabled":false,"rental_uris":{"android":"levelo://app?vid=b8313cbd-b94d-4d90-8b43-1d519860592b","ios":"levelo://app?vid=b8313cbd-b94d-4d90-8b43-1d519860592b"},"vehicle_type_id":"4","last_reported":1736856988,"current_range_meters":10000,"station_id":"ce4bgt12rcd13ifvqce0","pricing_plan_id":"cebpf4jnsgd1na2vs0mg"},{"bike_id":"5bb5758f-37be-496e-ac0a-3712e6b43125","system_id":"levelo_inurba_marseille","lat":43.26205,"lon":5.3794,"is_reserved":false,"is_disabled":false,"rental_uris":{"android":"levelo://app?vid=5bb5758f-37be-496e-ac0a-3712e6b43125","ios":"levelo://app?vid=5bb5758f-37be-496e-ac0a-3712e6b43125"},"vehicle_type_id":"4","last_reported":1736856988,"current_range_meters":38800,"station_id":"ce4bhjp2rcd13ifvqg90","pricing_plan_id":"cebpf4jnsgd1na2vs0mg"},{"bike_id":"3e771fbc-c78c-4c28-8047-7394bb35adfb","system_id":"levelo_inurba_marseille","lat":43.27965,"lon":5.38697,"is_reserved":false,"is_disabled":false,"rental_uris":{"android":"levelo://app?vid=3e771fbc-c78c-4c28-8047-7394bb35adfb","ios":"levelo://app?vid=3e771fbc-c78c-4c28-8047-7394bb35adfb"},"vehicle_type_id":"4","last_reported":1736856988,"current_range_meters":16400,"station_id":"ce4bhg12rcd13ifvqf80","pricing_plan_id":"cebpf4jnsgd1na2vs0mg"},{"bike_id":"962cc5cc-fec7-46f8-84df-102fbfaf51f6","system_id":"levelo_inurba_marseille","lat":43.25931,"lon":5.40919,"is_reserved":false,"is_disabled":false,"rental_uris":{"android":"levelo://app?vid=962cc5cc-fec7-46f8-84df-102fbfaf51f6","ios":"levelo://app?vid=962cc5cc-fec7-46f8-84df-102fbfaf51f6"},"vehicle_type_id":"4","last_reported":1736856988,"current_range_meters":38000,"station_id":"ce4bhm92rcd13ifvqglg","pricing_plan_id":"cebpf4jnsgd1na2vs0mg"},{"bike_id":"25053a9c-8f7f-437e-ac75-c115f6267568","system_id":"levelo_inurba_marseille","lat":43.31686,"lon":5.40468,"is_reserved":false,"is_disabled":false,"rental_uris":{"android":"levelo://app?vid=25053a9c-8f7f-437e-ac75-c115f6267568","ios":"levelo://app?vid=25053a9c-8f7f-437e-ac75-c115f6267568"},"vehicle_type_id":"4","last_reported":1736856988,"current_range_meters":37600,"station_id":"ce4bh012rcd13ifvqd00","pricing_plan_id":"cebpf4jnsgd1na2vs0mg"},{"bike_id":"e0ca69a2-8f04-4664-9d47-26dea82cc9f8","system_id":"levelo_inurba_marseille","lat":43.29979,"lon":5.38502,"is_reserved":false,"is_disabled":true,"rental_uris":{"android":"levelo://app?vid=e0ca69a2-8f04-4664-9d47-26dea82cc9f8","ios":"levelo://app?vid=e0ca69a2-8f04-4664-9d47-26dea82cc9f8"},"vehicle_type_id":"4","last_reported":1736856988,"current_range_meters":38800,"station_id":"ce4bgj92rcd13ifvqbd0","pricing_plan_id":"cebpf4jnsgd1na2vs0mg"},{"bike_id":"94440fca-9d66-4315-a057-b48311229f6d","system_id":"levelo_inurba_marseille","lat":43.3362,"lon":5.40983,"is_reserved":false,"is_disabled":false,"rental_uris":{"android":"levelo://app?vid=94440fca-9d66-4315-a057-b48311229f6d","ios":"levelo://app?vid=94440fca-9d66-4315-a057-b48311229f6d"},"vehicle_type_id":"4","last_reported":1736856988,"current_range_meters":34000,"station_id":"ce4bhqh2rcd13ifvqhmg","pricing_plan_id":"cebpf4jnsgd1na2vs0mg"},{"bike_id":"aaf843c2-f7bb-448d-b355-223d249b89b1","system_id":"levelo_inurba_marseille","lat":43.31084,"lon":5.42431,"is_reserved":false,"is_disabled":false,"rental_uris":{"android":"levelo://app?vid=aaf843c2-f7bb-448d-b355-223d249b89b1","ios":"levelo://app?vid=aaf843c2-f7bb-448d-b355-223d249b89b1"},"vehicle_type_id":"4","last_reported":1736856988,"current_range_meters":28000,"station_id":"ce4bhp92rcd13ifvqhag","pricing_plan_id":"cebpf4jnsgd1na2vs0mg"},{"bike_id":"571caa5a-a983-48f8-8c22-8b979894359c","system_id":"levelo_inurba_marseille","lat":43.29891,"lon":5.38909,"is_reserved":false,"is_disabled":true,"rental_uris":{"android":"levelo://app?vid=571caa5a-a983-48f8-8c22-8b979894359c","ios":"levelo://app?vid=571caa5a-a983-48f8-8c22-8b979894359c"},"vehicle_type_id":"4","last_reported":1736856988,"current_range_meters":38000,"station_id":"ce4bh392rcd13ifvqdl0","pricing_plan_id":"cebpf4jnsgd1na2vs0mg"},{"bike_id":"1ca9fc25-ccc8-4a68-82aa-93e184d4ffee","system_id":"levelo_inurba_marseille","lat":43.30961,"lon":5.39032,"is_reserved":false,"is_disabled":true,"rental_uris":{"android":"levelo://app?vid=1ca9fc25-ccc8-4a68-82aa-93e184d4ffee","ios":"levelo://app?vid=1ca9fc25-ccc8-4a68-82aa-93e184d4ffee"},"vehicle_type_id":"4","last_reported":1736856988,"current_range_meters":0,"station_id":"ce4bgup2rcd13ifvqco0","pricing_plan_id":"cebpf4jnsgd1na2vs0mg"},{"bike_id":"bdab11e4-0b4c-4df8-8ae1-6fa926fce99e","system_id":"levelo_inurba_marseille","lat":43.2795,"lon":5.4104,"is_reserved":false,"is_disabled":false,"rental_uris":{"android":"levelo://app?vid=bdab11e4-0b4c-4df8-8ae1-6fa926fce99e","ios":"levelo://app?vid=bdab11e4-0b4c-4df8-8ae1-6fa926fce99e"},"vehicle_type_id":"4","last_reported":1736856988,"current_range_meters":38800,"station_id":"ce4bhnp2rcd13ifvqh0g","pricing_plan_id":"cebpf4jnsgd1na2vs0mg"},{"bike_id":"511c89f8-e7ae-4a2c-9b00-f9c7a496eb24","system_id":"levelo_inurba_marseille","lat":43.2863,"lon":5.35132,"is_reserved":false,"is_disabled":false,"rental_uris":{"android":"levelo://app?vid=511c89f8-e7ae-4a2c-9b00-f9c7a496eb24","ios":"levelo://app?vid=511c89f8-e7ae-4a2c-9b00-f9c7a496eb24"},"vehicle_type_id":"4","last_reported":1736856988,"current_range_meters":32800,"station_id":"ce4bhch2rcd13ifvqeug","pricing_plan_id":"cebpf4jnsgd1na2vs0mg"},{"bike_id":"29a5cbd9-65c4-419c-9a97-09f4fd054b93","system_id":"levelo_inurba_marseille","lat":43.30565,"lon":5.36541,"is_reserved":false,"is_disabled":false,"rental_uris":{"android":"levelo://app?vid=29a5cbd9-65c4-419c-9a97-09f4fd054b93","ios":"levelo://app?vid=29a5cbd9-65c4-419c-9a97-09f4fd054b93"},"vehicle_type_id":"4","last_reported":1736856988,"current_range_meters":24000,"station_id":"ce4bgs12rcd13ifvqcag","pricing_plan_id":"cebpf4jnsgd1na2vs0mg"},{"bike_id":"1d796cee-7c75-4072-8f7a-6db57e5091d1","system_id":"levelo_inurba_marseille","lat":43.29764,"lon":5.37678,"is_reserved":false,"is_disabled":false,"rental_uris":{"android":"levelo://app?vid=1d796cee-7c75-4072-8f7a-6db57e5091d1","ios":"levelo://app?vid=1d796cee-7c75-4072-8f7a-6db57e5091d1"},"vehicle_type_id":"4","last_reported":1736856988,"current_range_meters":25200,"station_id":"ce4bgkh2rcd13ifvqbl0","pricing_plan_id":"cebpf4jnsgd1na2vs0mg"},{"bike_id":"46884546-5849-49c1-8129-a7978a36c969","system_id":"levelo_inurba_marseille","lat":43.25944,"lon":5.40893,"is_reserved":false,"is_disabled":false,"rental_uris":{"android":"levelo://app?vid=46884546-5849-49c1-8129-a7978a36c969","ios":"levelo://app?vid=46884546-5849-49c1-8129-a7978a36c969"},"vehicle_type_id":"4","last_reported":1736856988,"current_range_meters":12400,"station_id":"ce4bhm92rcd13ifvqglg","pricing_plan_id":"cebpf4jnsgd1na2vs0mg"},{"bike_id":"9cdf6327-80de-441e-a654-7d7139542b44","system_id":"levelo_inurba_marseille","lat":43.29207,"lon":5.39319,"is_reserved":false,"is_disabled":false,"rental_uris":{"android":"levelo://app?vid=9cdf6327-80de-441e-a654-7d7139542b44","ios":"levelo://app?vid=9cdf6327-80de-441e-a654-7d7139542b44"},"vehicle_type_id":"4","last_reported":1736856988,"current_range_meters":38800,"station_id":"ce4bh192rcd13ifvqdd0","pricing_plan_id":"cebpf4jnsgd1na2vs0mg"},{"bike_id":"d3487a93-59ce-4940-bc78-9d16667595fe","system_id":"levelo_inurba_marseille","lat":43.29798,"lon":5.38104,"is_reserved":false,"is_disabled":false,"rental_uris":{"android":"levelo://app?vid=d3487a93-59ce-4940-bc78-9d16667595fe","ios":"levelo://app?vid=d3487a93-59ce-4940-bc78-9d16667595fe"},"vehicle_type_id":"4","last_reported":1736856988,"current_range_meters":38400,"station_id":"ce4bgip2rcd13ifvqbb0","pricing_plan_id":"cebpf4jnsgd1na2vs0mg"},{"bike_id":"a402044d-1041-4786-a63f-9d18af3bc82f","system_id":"levelo_inurba_marseille","lat":43.24183,"lon":5.36408,"is_reserved":false,"is_disabled":false,"rental_uris":{"android":"levelo://app?vid=a402044d-1041-4786-a63f-9d18af3bc82f","ios":"levelo://app?vid=a402044d-1041-4786-a63f-9d18af3bc82f"},"vehicle_type_id":"4","last_reported":1736856988,"current_range_meters":38800,"station_id":"cpo36qri1sfpv3e86is0","pricing_plan_id":"cebpf4jnsgd1na2vs0mg"},{"bike_id":"7884539f-cce7-41a0-9eb5-657df86ab844","system_id":"levelo_inurba_marseille","lat":43.29018,"lon":5.35615,"is_reserved":false,"is_disabled":false,"rental_uris":{"android":"levelo://app?vid=7884539f-cce7-41a0-9eb5-657df86ab844","ios":"levelo://app?vid=7884539f-cce7-41a0-9eb5-657df86ab844"},"vehicle_type_id":"4","last_reported":1736856988,"current_range_meters":38400,"station_id":"ce4bhb92rcd13ifvqen0","pricing_plan_id":"cebpf4jnsgd1na2vs0mg"},{"bike_id":"6b93b291-0b00-4b9e-bfd0-9bfc27cb6c48","system_id":"levelo_inurba_marseille","lat":43.26197,"lon":5.37451,"is_reserved":false,"is_disabled":false,"rental_uris":{"android":"levelo://app?vid=6b93b291-0b00-4b9e-bfd0-9bfc27cb6c48","ios":"levelo://app?vid=6b93b291-0b00-4b9e-bfd0-9bfc27cb6c48"},"vehicle_type_id":"4","last_reported":1736856988,"current_range_meters":32400,"station_id":"ce4bhgp2rcd13ifvqfc0","pricing_plan_id":"cebpf4jnsgd1na2vs0mg"},{"bike_id":"cdb77309-ec50-4bf6-b47c-c0d6a7c459f3","system_id":"levelo_inurba_marseille","lat":43.26951,"lon":5.38627,"is_reserved":false,"is_disabled":false,"rental_uris":{"android":"levelo://app?vid=cdb77309-ec50-4bf6-b47c-c0d6a7c459f3","ios":"levelo://app?vid=cdb77309-ec50-4bf6-b47c-c0d6a7c459f3"},"vehicle_type_id":"4","last_reported":1736856988,"current_range_meters":6400,"station_id":"ce4bhh92rcd13ifvqfh0","pricing_plan_id":"cebpf4jnsgd1na2vs0mg"},{"bike_id":"aac8885d-98ab-44b5-a5e4-7f098cde586b","system_id":"levelo_inurba_marseille","lat":43.27181,"lon":5.40973,"is_reserved":false,"is_disabled":false,"rental_uris":{"android":"levelo://app?vid=aac8885d-98ab-44b5-a5e4-7f098cde586b","ios":"levelo://app?vid=aac8885d-98ab-44b5-a5e4-7f098cde586b"},"vehicle_type_id":"4","last_reported":1736856988,"current_range_meters":28000,"station_id":"ce4bhl12rcd13ifvqgf0","pricing_plan_id":"cebpf4jnsgd1na2vs0mg"},{"bike_id":"c8e997c0-8580-4d0f-8d9f-0766596381e1","system_id":"levelo_inurba_marseille","lat":43.33944,"lon":5.37555,"is_reserved":false,"is_disabled":true,"rental_uris":{"android":"levelo://app?vid=c8e997c0-8580-4d0f-8d9f-0766596381e1","ios":"levelo://app?vid=c8e997c0-8580-4d0f-8d9f-0766596381e1"},"vehicle_type_id":"4","last_reported":1736856988,"current_range_meters":0,"station_id":"","pricing_plan_id":"cebpf4jnsgd1na2vs0mg"},{"bike_id":"74126fec-dae1-4ee9-84d1-a94c78c517b3","system_id":"levelo_inurba_marseille","lat":43.25116,"lon":5.40365,"is_reserved":false,"is_disabled":false,"rental_uris":{"android":"levelo://app?vid=74126fec-dae1-4ee9-84d1-a94c78c517b3","ios":"levelo://app?vid=74126fec-dae1-4ee9-84d1-a94c78c517b3"},"vehicle_type_id":"4","last_reported":1736856988,"current_range_meters":38800,"station_id":"ce4bhlh2rcd13ifvqgig","pricing_plan_id":"cebpf4jnsgd1na2vs0mg"},{"bike_id":"ba5df164-d25c-4a1c-8679-1bd1a1db0642","system_id":"levelo_inurba_marseille","lat":43.33735,"lon":5.39207,"is_reserved":false,"is_disabled":false,"rental_uris":{"android":"levelo://app?vid=ba5df164-d25c-4a1c-8679-1bd1a1db0642","ios":"levelo://app?vid=ba5df164-d25c-4a1c-8679-1bd1a1db0642"},"vehicle_type_id":"4","last_reported":1736856988,"current_range_meters":36400,"station_id":"ce4bhr92rcd13ifvqhsg","pricing_plan_id":"cebpf4jnsgd1na2vs0mg"},{"bike_id":"ee3a8e62-9612-4383-a90d-e2bce1f472cd","system_id":"levelo_inurba_marseille","lat":43.26033,"lon":5.37549,"is_reserved":false,"is_disabled":false,"rental_uris":{"android":"levelo://app?vid=ee3a8e62-9612-4383-a90d-e2bce1f472cd","ios":"levelo://app?vid=ee3a8e62-9612-4383-a90d-e2bce1f472cd"},"vehicle_type_id":"4","last_reported":1736856988,"current_range_meters":17600,"station_id":"ce4bhgh2rcd13ifvqfa0","pricing_plan_id":"cebpf4jnsgd1na2vs0mg"},{"bike_id":"f5c5cdb3-c9ae-4a9e-97b8-f05013a2b65d","system_id":"levelo_inurba_marseille","lat":43.28108,"lon":5.37843,"is_reserved":false,"is_disabled":true,"rental_uris":{"android":"levelo://app?vid=f5c5cdb3-c9ae-4a9e-97b8-f05013a2b65d","ios":"levelo://app?vid=f5c5cdb3-c9ae-4a9e-97b8-f05013a2b65d"},"vehicle_type_id":"4","last_reported":1736856988,"current_range_meters":800,"station_id":"ce4bha12rcd13ifvqee0","pricing_plan_id":"cebpf4jnsgd1na2vs0mg"},{"bike_id":"ddb41cf1-08d5-4912-801d-fd0c3b376b8a","system_id":"levelo_inurba_marseille","lat":43.30008,"lon":5.37174,"is_reserved":false,"is_disabled":false,"rental_uris":{"android":"levelo://app?vid=ddb41cf1-08d5-4912-801d-fd0c3b376b8a","ios":"levelo://app?vid=ddb41cf1-08d5-4912-801d-fd0c3b376b8a"},"vehicle_type_id":"4","last_reported":1736856988,"current_range_meters":35200,"station_id":"ce4bgr92rcd13ifvqc7g","pricing_plan_id":"cebpf4jnsgd1na2vs0mg"},{"bike_id":"ce1c61a7-de64-4e0b-95fd-e7a7008291bb","system_id":"levelo_inurba_marseille","lat":43.29169,"lon":5.37157,"is_reserved":false,"is_disabled":false,"rental_uris":{"android":"levelo://app?vid=ce1c61a7-de64-4e0b-95fd-e7a7008291bb","ios":"levelo://app?vid=ce1c61a7-de64-4e0b-95fd-e7a7008291bb"},"vehicle_type_id":"4","last_reported":1736856988,"current_range_meters":38800,"station_id":"ce4bha92rcd13ifvqeh0","pricing_plan_id":"cebpf4jnsgd1na2vs0mg"},{"bike_id":"20bf502b-4f79-4dbc-b023-02337320b2e9","system_id":"levelo_inurba_marseille","lat":43.30147,"lon":5.37397,"is_reserved":false,"is_disabled":false,"rental_uris":{"android":"levelo://app?vid=20bf502b-4f79-4dbc-b023-02337320b2e9","ios":"levelo://app?vid=20bf502b-4f79-4dbc-b023-02337320b2e9"},"vehicle_type_id":"4","last_reported":1736856988,"current_range_meters":35200,"station_id":"ce4bgs92rcd13ifvqcc0","pricing_plan_id":"cebpf4jnsgd1na2vs0mg"},{"bike_id":"501536ef-e27d-4da8-bf0c-09d6aba62099","system_id":"levelo_inurba_marseille","lat":43.29097,"lon":5.38128,"is_reserved":false,"is_disabled":false,"rental_uris":{"android":"levelo://app?vid=501536ef-e27d-4da8-bf0c-09d6aba62099","ios":"levelo://app?vid=501536ef-e27d-4da8-bf0c-09d6aba62099"},"vehicle_type_id":"4","last_reported":1736856988,"current_range_meters":14400,"station_id":"ce4bh512rcd13ifvqe2g","pricing_plan_id":"cebpf4jnsgd1na2vs0mg"},{"bike_id":"69497381-a59a-4af0-ab71-2965592f61da","system_id":"levelo_inurba_marseille","lat":43.26193,"lon":5.37457,"is_reserved":false,"is_disabled":false,"rental_uris":{"android":"levelo://app?vid=69497381-a59a-4af0-ab71-2965592f61da","ios":"levelo://app?vid=69497381-a59a-4af0-ab71-2965592f61da"},"vehicle_type_id":"4","last_reported":1736856988,"current_range_meters":24800,"station_id":"ce4bhgp2rcd13ifvqfc0","pricing_plan_id":"cebpf4jnsgd1na2vs0mg"},{"bike_id":"4d8f2bd3-28e6-4a6b-bf9a-7e46e3c91edf","system_id":"levelo_inurba_marseille","lat":43.30187,"lon":5.3743,"is_reserved":false,"is_disabled":false,"rental_uris":{"android":"levelo://app?vid=4d8f2bd3-28e6-4a6b-bf9a-7e46e3c91edf","ios":"levelo://app?vid=4d8f2bd3-28e6-4a6b-bf9a-7e46e3c91edf"},"vehicle_type_id":"4","last_reported":1736856988,"current_range_meters":38800,"station_id":"ce4bgs92rcd13ifvqcc0","pricing_plan_id":"cebpf4jnsgd1na2vs0mg"},{"bike_id":"42cfeef1-ded8-43ac-8888-284da4376b57","system_id":"levelo_inurba_marseille","lat":43.32486,"lon":5.3655,"is_reserved":false,"is_disabled":false,"rental_uris":{"android":"levelo://app?vid=42cfeef1-ded8-43ac-8888-284da4376b57","ios":"levelo://app?vid=42cfeef1-ded8-43ac-8888-284da4376b57"},"vehicle_type_id":"4","last_reported":1736856988,"current_range_meters":28400,"station_id":"ce4bhs12rcd13ifvqhvg","pricing_plan_id":"cebpf4jnsgd1na2vs0mg"},{"bike_id":"4c97236a-c75c-4110-ad92-8bd9b832d8f4","system_id":"levelo_inurba_marseille","lat":43.29795,"lon":5.40397,"is_reserved":false,"is_disabled":false,"rental_uris":{"android":"levelo://app?vid=4c97236a-c75c-4110-ad92-8bd9b832d8f4","ios":"levelo://app?vid=4c97236a-c75c-4110-ad92-8bd9b832d8f4"},"vehicle_type_id":"4","last_reported":1736856988,"current_range_meters":12800,"station_id":"ce4bh112rcd13ifvqd90","pricing_plan_id":"cebpf4jnsgd1na2vs0mg"},{"bike_id":"ffa01f30-4b8e-45c2-a0a4-b906f924e6f3","system_id":"levelo_inurba_marseille","lat":43.30893,"lon":5.372,"is_reserved":false,"is_disabled":false,"rental_uris":{"android":"levelo://app?vid=ffa01f30-4b8e-45c2-a0a4-b906f924e6f3","ios":"levelo://app?vid=ffa01f30-4b8e-45c2-a0a4-b906f924e6f3"},"vehicle_type_id":"4","last_reported":1736856988,"current_range_meters":38800,"station_id":"ce4bguh2rcd13ifvqckg","pricing_plan_id":"cebpf4jnsgd1na2vs0mg"},{"bike_id":"59d914a9-7941-4d0c-ad3f-66ae0befc663","system_id":"levelo_inurba_marseille","lat":43.2803,"lon":5.36962,"is_reserved":false,"is_disabled":false,"rental_uris":{"android":"levelo://app?vid=59d914a9-7941-4d0c-ad3f-66ae0befc663","ios":"levelo://app?vid=59d914a9-7941-4d0c-ad3f-66ae0befc663"},"vehicle_type_id":"4","last_reported":1736856988,"current_range_meters":8000,"station_id":"ce4bha12rcd13ifvqef0","pricing_plan_id":"cebpf4jnsgd1na2vs0mg"},{"bike_id":"e9ddb0fd-25b5-4380-b7cd-6db0463f30c2","system_id":"levelo_inurba_marseille","lat":43.25583,"lon":5.38231,"is_reserved":false,"is_disabled":false,"rental_uris":{"android":"levelo://app?vid=e9ddb0fd-25b5-4380-b7cd-6db0463f30c2","ios":"levelo://app?vid=e9ddb0fd-25b5-4380-b7cd-6db0463f30c2"},"vehicle_type_id":"4","last_reported":1736856988,"current_range_meters":12000,"station_id":"ce4bhih2rcd13ifvqfs0","pricing_plan_id":"cebpf4jnsgd1na2vs0mg"},{"bike_id":"426ee80e-06b0-4d0f-86a5-ea8ad64aaa11","system_id":"levelo_inurba_marseille","lat":43.28924,"lon":5.43812,"is_reserved":false,"is_disabled":false,"rental_uris":{"android":"levelo://app?vid=426ee80e-06b0-4d0f-86a5-ea8ad64aaa11","ios":"levelo://app?vid=426ee80e-06b0-4d0f-86a5-ea8ad64aaa11"},"vehicle_type_id":"4","last_reported":1736856988,"current_range_meters":6000,"station_id":"","pricing_plan_id":"cebpf4jnsgd1na2vs0mg"},{"bike_id":"24128752-966f-46f0-bcaa-fe72ab84876b","system_id":"levelo_inurba_marseille","lat":43.32665,"lon":5.40997,"is_reserved":false,"is_disabled":false,"rental_uris":{"android":"levelo://app?vid=24128752-966f-46f0-bcaa-fe72ab84876b","ios":"levelo://app?vid=24128752-966f-46f0-bcaa-fe72ab84876b"},"vehicle_type_id":"4","last_reported":1736856988,"current_range_meters":16800,"station_id":"ce4bhpp2rcd13ifvqhgg","pricing_plan_id":"cebpf4jnsgd1na2vs0mg"},{"bike_id":"192943ff-6579-4067-8b54-834fbf6d8760","system_id":"levelo_inurba_marseille","lat":43.27639,"lon":5.3612,"is_reserved":false,"is_disabled":false,"rental_uris":{"android":"levelo://app?vid=192943ff-6579-4067-8b54-834fbf6d8760","ios":"levelo://app?vid=192943ff-6579-4067-8b54-834fbf6d8760"},"vehicle_type_id":"4","last_reported":1736856988,"current_range_meters":38800,"station_id":"ce4bgj92rcd13ifvqbe0","pricing_plan_id":"cebpf4jnsgd1na2vs0mg"},{"bike_id":"fea1b24d-bbfb-474a-b028-8645483cd7e6","system_id":"levelo_inurba_marseille","lat":43.27381,"lon":5.36255,"is_reserved":false,"is_disabled":false,"rental_uris":{"android":"levelo://app?vid=fea1b24d-bbfb-474a-b028-8645483cd7e6","ios":"levelo://app?vid=fea1b24d-bbfb-474a-b028-8645483cd7e6"},"vehicle_type_id":"4","last_reported":1736856988,"current_range_meters":30400,"station_id":"ce4bhbh2rcd13ifvqeo0","pricing_plan_id":"cebpf4jnsgd1na2vs0mg"},{"bike_id":"1a0edb26-6918-425b-8387-f290be87a2c0","system_id":"levelo_inurba_marseille","lat":43.33117,"lon":5.38241,"is_reserved":false,"is_disabled":false,"rental_uris":{"android":"levelo://app?vid=1a0edb26-6918-425b-8387-f290be87a2c0","ios":"levelo://app?vid=1a0edb26-6918-425b-8387-f290be87a2c0"},"vehicle_type_id":"4","last_reported":1736856988,"current_range_meters":36400,"station_id":"","pricing_plan_id":"cebpf4jnsgd1na2vs0mg"},{"bike_id":"09c279d2-13c4-409c-b79a-30b27c3b5b74","system_id":"levelo_inurba_marseille","lat":43.31879,"lon":5.40743,"is_reserved":false,"is_disabled":false,"rental_uris":{"android":"levelo://app?vid=09c279d2-13c4-409c-b79a-30b27c3b5b74","ios":"levelo://app?vid=09c279d2-13c4-409c-b79a-30b27c3b5b74"},"vehicle_type_id":"4","last_reported":1736856988,"current_range_meters":36000,"station_id":"ce4bhq12rcd13ifvqhig","pricing_plan_id":"cebpf4jnsgd1na2vs0mg"},{"bike_id":"2f55ebf7-524b-4457-853d-5144ef92bc50","system_id":"levelo_inurba_marseille","lat":43.31119,"lon":5.37773,"is_reserved":false,"is_disabled":false,"rental_uris":{"android":"levelo://app?vid=2f55ebf7-524b-4457-853d-5144ef92bc50","ios":"levelo://app?vid=2f55ebf7-524b-4457-853d-5144ef92bc50"},"vehicle_type_id":"4","last_reported":1736856988,"current_range_meters":21600,"station_id":"ce4bgt92rcd13ifvqcg0","pricing_plan_id":"cebpf4jnsgd1na2vs0mg"},{"bike_id":"ab10846d-13f2-4f21-8075-25b6583e29b0","system_id":"levelo_inurba_marseille","lat":43.25942,"lon":5.40911,"is_reserved":false,"is_disabled":false,"rental_uris":{"android":"levelo://app?vid=ab10846d-13f2-4f21-8075-25b6583e29b0","ios":"levelo://app?vid=ab10846d-13f2-4f21-8075-25b6583e29b0"},"vehicle_type_id":"4","last_reported":1736856988,"current_range_meters":18800,"station_id":"ce4bhm92rcd13ifvqglg","pricing_plan_id":"cebpf4jnsgd1na2vs0mg"},{"bike_id":"f4dbc556-58b0-4dfd-be99-18a51c032520","system_id":"levelo_inurba_marseille","lat":43.24182,"lon":5.39745,"is_reserved":false,"is_disabled":false,"rental_uris":{"android":"levelo://app?vid=f4dbc556-58b0-4dfd-be99-18a51c032520","ios":"levelo://app?vid=f4dbc556-58b0-4dfd-be99-18a51c032520"},"vehicle_type_id":"4","last_reported":1736856988,"current_range_meters":27600,"station_id":"ce4bhn12rcd13ifvqgpg","pricing_plan_id":"cebpf4jnsgd1na2vs0mg"},{"bike_id":"d2789608-35f0-440d-af42-781c646a86e6","system_id":"levelo_inurba_marseille","lat":43.28692,"lon":5.3739,"is_reserved":false,"is_disabled":false,"rental_uris":{"android":"levelo://app?vid=d2789608-35f0-440d-af42-781c646a86e6","ios":"levelo://app?vid=d2789608-35f0-440d-af42-781c646a86e6"},"vehicle_type_id":"4","last_reported":1736856988,"current_range_meters":22800,"station_id":"ce4bh3p2rcd13ifvqdq0","pricing_plan_id":"cebpf4jnsgd1na2vs0mg"},{"bike_id":"2c706f5e-b3a2-4f62-b5b0-817900f3e0ad","system_id":"levelo_inurba_marseille","lat":43.30542,"lon":5.36736,"is_reserved":false,"is_disabled":false,"rental_uris":{"android":"levelo://app?vid=2c706f5e-b3a2-4f62-b5b0-817900f3e0ad","ios":"levelo://app?vid=2c706f5e-b3a2-4f62-b5b0-817900f3e0ad"},"vehicle_type_id":"4","last_reported":1736856988,"current_range_meters":38800,"station_id":"ce4bgrp2rcd13ifvqc9g","pricing_plan_id":"cebpf4jnsgd1na2vs0mg"},{"bike_id":"c9df1259-2c1d-401c-8893-231c34632154","system_id":"levelo_inurba_marseille","lat":43.29775,"lon":5.370822,"is_reserved":false,"is_disabled":false,"rental_uris":{"android":"levelo://app?vid=c9df1259-2c1d-401c-8893-231c34632154","ios":"levelo://app?vid=c9df1259-2c1d-401c-8893-231c34632154"},"vehicle_type_id":"4","last_reported":1736856988,"current_range_meters":36800,"station_id":"ce4bgop2rcd13ifvqc1g","pricing_plan_id":"cebpf4jnsgd1na2vs0mg"},{"bike_id":"9f6f071c-7c59-4d08-9963-df26a1256e44","system_id":"levelo_inurba_marseille","lat":43.24641,"lon":5.38935,"is_reserved":false,"is_disabled":false,"rental_uris":{"android":"levelo://app?vid=9f6f071c-7c59-4d08-9963-df26a1256e44","ios":"levelo://app?vid=9f6f071c-7c59-4d08-9963-df26a1256e44"},"vehicle_type_id":"4","last_reported":1736856988,"current_range_meters":39200,"station_id":"ce4bhg12rcd13ifvqf60","pricing_plan_id":"cebpf4jnsgd1na2vs0mg"},{"bike_id":"460a6ffa-ebf4-42f2-992a-b021ae41d037","system_id":"levelo_inurba_marseille","lat":43.30132,"lon":5.3986,"is_reserved":false,"is_disabled":false,"rental_uris":{"android":"levelo://app?vid=460a6ffa-ebf4-42f2-992a-b021ae41d037","ios":"levelo://app?vid=460a6ffa-ebf4-42f2-992a-b021ae41d037"},"vehicle_type_id":"4","last_reported":1736856988,"current_range_meters":28000,"station_id":"ce4bh0h2rcd13ifvqd40","pricing_plan_id":"cebpf4jnsgd1na2vs0mg"},{"bike_id":"ade1ffd7-379f-44ee-93e1-8c261178e187","system_id":"levelo_inurba_marseille","lat":43.248059,"lon":5.374557,"is_reserved":false,"is_disabled":false,"rental_uris":{"android":"levelo://app?vid=ade1ffd7-379f-44ee-93e1-8c261178e187","ios":"levelo://app?vid=ade1ffd7-379f-44ee-93e1-8c261178e187"},"vehicle_type_id":"4","last_reported":1736856988,"current_range_meters":20400,"station_id":"ce4bhgh2rcd13ifvqfb0","pricing_plan_id":"cebpf4jnsgd1na2vs0mg"},{"bike_id":"922577b3-3ab8-4e4d-b4f0-8d7fca71fe67","system_id":"levelo_inurba_marseille","lat":43.2756,"lon":5.384274,"is_reserved":false,"is_disabled":false,"rental_uris":{"android":"levelo://app?vid=922577b3-3ab8-4e4d-b4f0-8d7fca71fe67","ios":"levelo://app?vid=922577b3-3ab8-4e4d-b4f0-8d7fca71fe67"},"vehicle_type_id":"4","last_reported":1736856988,"current_range_meters":38000,"station_id":"ce4bhh92rcd13ifvqfi0","pricing_plan_id":"cebpf4jnsgd1na2vs0mg"},{"bike_id":"a6b41d9b-30b4-4751-bb0d-5847615d5ca5","system_id":"levelo_inurba_marseille","lat":43.29037,"lon":5.38639,"is_reserved":false,"is_disabled":false,"rental_uris":{"android":"levelo://app?vid=a6b41d9b-30b4-4751-bb0d-5847615d5ca5","ios":"levelo://app?vid=a6b41d9b-30b4-4751-bb0d-5847615d5ca5"},"vehicle_type_id":"4","last_reported":1736856988,"current_range_meters":24000,"station_id":"ce4bh4p2rcd13ifvqe0g","pricing_plan_id":"cebpf4jnsgd1na2vs0mg"},{"bike_id":"755e5c0a-8de7-4ee5-9d4e-5ec609711170","system_id":"levelo_inurba_marseille","lat":43.29608,"lon":5.38121,"is_reserved":false,"is_disabled":true,"rental_uris":{"android":"levelo://app?vid=755e5c0a-8de7-4ee5-9d4e-5ec609711170","ios":"levelo://app?vid=755e5c0a-8de7-4ee5-9d4e-5ec609711170"},"vehicle_type_id":"4","last_reported":1736856988,"current_range_meters":30800,"station_id":"ce4bgl12rcd13ifvqbo0","pricing_plan_id":"cebpf4jnsgd1na2vs0mg"},{"bike_id":"89096f8f-b31f-4f84-85ad-b01b669e00f2","system_id":"levelo_inurba_marseille","lat":43.29707,"lon":5.37701,"is_reserved":false,"is_disabled":true,"rental_uris":{"android":"levelo://app?vid=89096f8f-b31f-4f84-85ad-b01b669e00f2","ios":"levelo://app?vid=89096f8f-b31f-4f84-85ad-b01b669e00f2"},"vehicle_type_id":"4","last_reported":1736856988,"current_range_meters":25200,"station_id":"ce4bgkh2rcd13ifvqbl0","pricing_plan_id":"cebpf4jnsgd1na2vs0mg"},{"bike_id":"7a1457f0-7f09-4eea-b1f3-2e9174a14fd4","system_id":"levelo_inurba_marseille","lat":43.28429,"lon":5.37522,"is_reserved":false,"is_disabled":true,"rental_uris":{"android":"levelo://app?vid=7a1457f0-7f09-4eea-b1f3-2e9174a14fd4","ios":"levelo://app?vid=7a1457f0-7f09-4eea-b1f3-2e9174a14fd4"},"vehicle_type_id":"4","last_reported":1736856988,"current_range_meters":1600,"station_id":"ce4bh412rcd13ifvqds0","pricing_plan_id":"cebpf4jnsgd1na2vs0mg"},{"bike_id":"cc9cf4e4-bd05-4828-9c34-27bb5e5951f4","system_id":"levelo_inurba_marseille","lat":43.25947,"lon":5.40991,"is_reserved":false,"is_disabled":false,"rental_uris":{"android":"levelo://app?vid=cc9cf4e4-bd05-4828-9c34-27bb5e5951f4","ios":"levelo://app?vid=cc9cf4e4-bd05-4828-9c34-27bb5e5951f4"},"vehicle_type_id":"4","last_reported":1736856988,"current_range_meters":4400,"station_id":"","pricing_plan_id":"cebpf4jnsgd1na2vs0mg"},{"bike_id":"161f6aba-0ab1-4c74-aeaf-84427d080146","system_id":"levelo_inurba_marseille","lat":43.30604,"lon":5.39348,"is_reserved":false,"is_disabled":false,"rental_uris":{"android":"levelo://app?vid=161f6aba-0ab1-4c74-aeaf-84427d080146","ios":"levelo://app?vid=161f6aba-0ab1-4c74-aeaf-84427d080146"},"vehicle_type_id":"4","last_reported":1736856988,"current_range_meters":38800,"station_id":"ce4bh0p2rcd13ifvqd80","pricing_plan_id":"cebpf4jnsgd1na2vs0mg"},{"bike_id":"a15980ac-c225-4e68-8982-6cc8c4cbfd79","system_id":"levelo_inurba_marseille","lat":43.23194,"lon":5.35562,"is_reserved":false,"is_disabled":false,"rental_uris":{"android":"levelo://app?vid=a15980ac-c225-4e68-8982-6cc8c4cbfd79","ios":"levelo://app?vid=a15980ac-c225-4e68-8982-6cc8c4cbfd79"},"vehicle_type_id":"4","last_reported":1736856988,"current_range_meters":6800,"station_id":"ce4bhu92rcd13ifvqi70","pricing_plan_id":"cebpf4jnsgd1na2vs0mg"},{"bike_id":"1056406c-eb91-424d-9648-f48a4472d149","system_id":"levelo_inurba_marseille","lat":43.28471,"lon":5.35887,"is_reserved":false,"is_disabled":false,"rental_uris":{"android":"levelo://app?vid=1056406c-eb91-424d-9648-f48a4472d149","ios":"levelo://app?vid=1056406c-eb91-424d-9648-f48a4472d149"},"vehicle_type_id":"4","last_reported":1736856988,"current_range_meters":5600,"station_id":"ce4bhah2rcd13ifvqei0","pricing_plan_id":"cebpf4jnsgd1na2vs0mg"},{"bike_id":"0e6835a9-131e-44ff-86d6-fbb85f37f193","system_id":"levelo_inurba_marseille","lat":43.31229,"lon":5.36871,"is_reserved":false,"is_disabled":false,"rental_uris":{"android":"levelo://app?vid=0e6835a9-131e-44ff-86d6-fbb85f37f193","ios":"levelo://app?vid=0e6835a9-131e-44ff-86d6-fbb85f37f193"},"vehicle_type_id":"4","last_reported":1736856988,"current_range_meters":36400,"station_id":"ce4bgl92rcd13ifvqbq0","pricing_plan_id":"cebpf4jnsgd1na2vs0mg"},{"bike_id":"1879820e-e577-423d-b923-52d2d03325bd","system_id":"levelo_inurba_marseille","lat":43.29805,"lon":5.38105,"is_reserved":false,"is_disabled":false,"rental_uris":{"android":"levelo://app?vid=1879820e-e577-423d-b923-52d2d03325bd","ios":"levelo://app?vid=1879820e-e577-423d-b923-52d2d03325bd"},"vehicle_type_id":"4","last_reported":1736856988,"current_range_meters":10800,"station_id":"ce4bgip2rcd13ifvqbb0","pricing_plan_id":"cebpf4jnsgd1na2vs0mg"},{"bike_id":"3b74a056-c0cf-4f44-8772-22ed33115fcd","system_id":"levelo_inurba_marseille","lat":43.23186,"lon":5.39984,"is_reserved":false,"is_disabled":false,"rental_uris":{"android":"levelo://app?vid=3b74a056-c0cf-4f44-8772-22ed33115fcd","ios":"levelo://app?vid=3b74a056-c0cf-4f44-8772-22ed33115fcd"},"vehicle_type_id":"4","last_reported":1736856988,"current_range_meters":38800,"station_id":"ce4bhn12rcd13ifvqgqg","pricing_plan_id":"cebpf4jnsgd1na2vs0mg"},{"bike_id":"3f404148-f2c7-44b8-a466-977741fe2f8d","system_id":"levelo_inurba_marseille","lat":43.2793,"lon":5.39574,"is_reserved":false,"is_disabled":false,"rental_uris":{"android":"levelo://app?vid=3f404148-f2c7-44b8-a466-977741fe2f8d","ios":"levelo://app?vid=3f404148-f2c7-44b8-a466-977741fe2f8d"},"vehicle_type_id":"4","last_reported":1736856988,"current_range_meters":28800,"station_id":"ce4bhf92rcd13ifvqf40","pricing_plan_id":"cebpf4jnsgd1na2vs0mg"},{"bike_id":"9616601e-4bf2-40cf-b683-7530143e1fa7","system_id":"levelo_inurba_marseille","lat":43.26943,"lon":5.38671,"is_reserved":false,"is_disabled":false,"rental_uris":{"android":"levelo://app?vid=9616601e-4bf2-40cf-b683-7530143e1fa7","ios":"levelo://app?vid=9616601e-4bf2-40cf-b683-7530143e1fa7"},"vehicle_type_id":"4","last_reported":1736856988,"current_range_meters":28000,"station_id":"ce4bhh92rcd13ifvqfh0","pricing_plan_id":"cebpf4jnsgd1na2vs0mg"},{"bike_id":"8bbee6d9-283a-4e88-8290-c90cf2dc52eb","system_id":"levelo_inurba_marseille","lat":43.2841,"lon":5.37506,"is_reserved":false,"is_disabled":false,"rental_uris":{"android":"levelo://app?vid=8bbee6d9-283a-4e88-8290-c90cf2dc52eb","ios":"levelo://app?vid=8bbee6d9-283a-4e88-8290-c90cf2dc52eb"},"vehicle_type_id":"4","last_reported":1736856988,"current_range_meters":24800,"station_id":"ce4bh412rcd13ifvqds0","pricing_plan_id":"cebpf4jnsgd1na2vs0mg"},{"bike_id":"e37b8d0a-fb99-491e-adfa-c0a2653cd732","system_id":"levelo_inurba_marseille","lat":43.27573,"lon":5.38415,"is_reserved":false,"is_disabled":false,"rental_uris":{"android":"levelo://app?vid=e37b8d0a-fb99-491e-adfa-c0a2653cd732","ios":"levelo://app?vid=e37b8d0a-fb99-491e-adfa-c0a2653cd732"},"vehicle_type_id":"4","last_reported":1736856988,"current_range_meters":35200,"station_id":"ce4bhh92rcd13ifvqfi0","pricing_plan_id":"cebpf4jnsgd1na2vs0mg"},{"bike_id":"51bb6953-dea8-4e82-96bf-52696267905f","system_id":"levelo_inurba_marseille","lat":43.230598,"lon":5.354959,"is_reserved":false,"is_disabled":false,"rental_uris":{"android":"levelo://app?vid=51bb6953-dea8-4e82-96bf-52696267905f","ios":"levelo://app?vid=51bb6953-dea8-4e82-96bf-52696267905f"},"vehicle_type_id":"4","last_reported":1736856988,"current_range_meters":8800,"station_id":"cpo3342slgdg3j2ifvpg","pricing_plan_id":"cebpf4jnsgd1na2vs0mg"},{"bike_id":"b4d2fb64-79fe-432f-80df-64b6718d9f84","system_id":"levelo_inurba_marseille","lat":43.24644,"lon":5.38895,"is_reserved":false,"is_disabled":false,"rental_uris":{"android":"levelo://app?vid=b4d2fb64-79fe-432f-80df-64b6718d9f84","ios":"levelo://app?vid=b4d2fb64-79fe-432f-80df-64b6718d9f84"},"vehicle_type_id":"4","last_reported":1736856988,"current_range_meters":3200,"station_id":"ce4bhg12rcd13ifvqf60","pricing_plan_id":"cebpf4jnsgd1na2vs0mg"},{"bike_id":"0734ba73-738f-4d34-9431-95e7cce00a42","system_id":"levelo_inurba_marseille","lat":43.29939,"lon":5.37491,"is_reserved":false,"is_disabled":false,"rental_uris":{"android":"levelo://app?vid=0734ba73-738f-4d34-9431-95e7cce00a42","ios":"levelo://app?vid=0734ba73-738f-4d34-9431-95e7cce00a42"},"vehicle_type_id":"4","last_reported":1736856988,"current_range_meters":38800,"station_id":"ce4bgjh2rcd13ifvqbg0","pricing_plan_id":"cebpf4jnsgd1na2vs0mg"},{"bike_id":"207ab073-df26-4b08-9454-53c2fca0ada9","system_id":"levelo_inurba_marseille","lat":43.2721,"lon":5.39182,"is_reserved":false,"is_disabled":false,"rental_uris":{"android":"levelo://app?vid=207ab073-df26-4b08-9454-53c2fca0ada9","ios":"levelo://app?vid=207ab073-df26-4b08-9454-53c2fca0ada9"},"vehicle_type_id":"4","last_reported":1736856988,"current_range_meters":32000,"station_id":"ce4bhhp2rcd13ifvqfm0","pricing_plan_id":"cebpf4jnsgd1na2vs0mg"},{"bike_id":"2ac2878f-2b37-42c9-931a-7624beb3e6fe","system_id":"levelo_inurba_marseille","lat":43.2923,"lon":5.36112,"is_reserved":false,"is_disabled":false,"rental_uris":{"android":"levelo://app?vid=2ac2878f-2b37-42c9-931a-7624beb3e6fe","ios":"levelo://app?vid=2ac2878f-2b37-42c9-931a-7624beb3e6fe"},"vehicle_type_id":"4","last_reported":1736856988,"current_range_meters":18000,"station_id":"ce4bhbh2rcd13ifvqeqg","pricing_plan_id":"cebpf4jnsgd1na2vs0mg"},{"bike_id":"019d1fbb-8a8e-4ba7-9ec6-e337725c2891","system_id":"levelo_inurba_marseille","lat":43.28412,"lon":5.37514,"is_reserved":false,"is_disabled":false,"rental_uris":{"android":"levelo://app?vid=019d1fbb-8a8e-4ba7-9ec6-e337725c2891","ios":"levelo://app?vid=019d1fbb-8a8e-4ba7-9ec6-e337725c2891"},"vehicle_type_id":"4","last_reported":1736856988,"current_range_meters":38800,"station_id":"ce4bh412rcd13ifvqds0","pricing_plan_id":"cebpf4jnsgd1na2vs0mg"},{"bike_id":"a4e288a5-ac6a-42fd-81ad-5d913c49f177","system_id":"levelo_inurba_marseille","lat":43.27647,"lon":5.36126,"is_reserved":false,"is_disabled":false,"rental_uris":{"android":"levelo://app?vid=a4e288a5-ac6a-42fd-81ad-5d913c49f177","ios":"levelo://app?vid=a4e288a5-ac6a-42fd-81ad-5d913c49f177"},"vehicle_type_id":"4","last_reported":1736856988,"current_range_meters":38400,"station_id":"ce4bgj92rcd13ifvqbe0","pricing_plan_id":"cebpf4jnsgd1na2vs0mg"},{"bike_id":"43f0aab3-581c-4ae5-a07f-bffcc27a96c2","system_id":"levelo_inurba_marseille","lat":43.29578,"lon":5.375,"is_reserved":false,"is_disabled":true,"rental_uris":{"android":"levelo://app?vid=43f0aab3-581c-4ae5-a07f-bffcc27a96c2","ios":"levelo://app?vid=43f0aab3-581c-4ae5-a07f-bffcc27a96c2"},"vehicle_type_id":"4","last_reported":1736856988,"current_range_meters":38800,"station_id":"ce4bgh92rcd13ifvqb50","pricing_plan_id":"cebpf4jnsgd1na2vs0mg"},{"bike_id":"63449ce9-ccd1-40d3-a71a-2bf0cfc5bac0","system_id":"levelo_inurba_marseille","lat":43.27211,"lon":5.39188,"is_reserved":false,"is_disabled":false,"rental_uris":{"android":"levelo://app?vid=63449ce9-ccd1-40d3-a71a-2bf0cfc5bac0","ios":"levelo://app?vid=63449ce9-ccd1-40d3-a71a-2bf0cfc5bac0"},"vehicle_type_id":"4","last_reported":1736856988,"current_range_meters":35200,"station_id":"ce4bhhp2rcd13ifvqfm0","pricing_plan_id":"cebpf4jnsgd1na2vs0mg"},{"bike_id":"5990c77e-0c3e-49e6-8740-517768f80344","system_id":"levelo_inurba_marseille","lat":43.241814,"lon":5.397367,"is_reserved":false,"is_disabled":false,"rental_uris":{"android":"levelo://app?vid=5990c77e-0c3e-49e6-8740-517768f80344","ios":"levelo://app?vid=5990c77e-0c3e-49e6-8740-517768f80344"},"vehicle_type_id":"4","last_reported":1736856988,"current_range_meters":38800,"station_id":"ce4bhn12rcd13ifvqgpg","pricing_plan_id":"cebpf4jnsgd1na2vs0mg"},{"bike_id":"56a37990-c381-414a-8c27-59f20eae88ce","system_id":"levelo_inurba_marseille","lat":43.25009,"lon":5.38941,"is_reserved":false,"is_disabled":false,"rental_uris":{"android":"levelo://app?vid=56a37990-c381-414a-8c27-59f20eae88ce","ios":"levelo://app?vid=56a37990-c381-414a-8c27-59f20eae88ce"},"vehicle_type_id":"4","last_reported":1736856988,"current_range_meters":24400,"station_id":"ce4bhgp2rcd13ifvqfd0","pricing_plan_id":"cebpf4jnsgd1na2vs0mg"},{"bike_id":"b328758c-1306-4f48-9fa3-7f9b48fccfe1","system_id":"levelo_inurba_marseille","lat":43.2319,"lon":5.39997,"is_reserved":false,"is_disabled":false,"rental_uris":{"android":"levelo://app?vid=b328758c-1306-4f48-9fa3-7f9b48fccfe1","ios":"levelo://app?vid=b328758c-1306-4f48-9fa3-7f9b48fccfe1"},"vehicle_type_id":"4","last_reported":1736856988,"current_range_meters":18800,"station_id":"ce4bhn12rcd13ifvqgqg","pricing_plan_id":"cebpf4jnsgd1na2vs0mg"},{"bike_id":"a56bdef2-14b8-4e02-b3bc-538917283971","system_id":"levelo_inurba_marseille","lat":43.25093,"lon":5.39519,"is_reserved":false,"is_disabled":false,"rental_uris":{"android":"levelo://app?vid=a56bdef2-14b8-4e02-b3bc-538917283971","ios":"levelo://app?vid=a56bdef2-14b8-4e02-b3bc-538917283971"},"vehicle_type_id":"4","last_reported":1736856988,"current_range_meters":32000,"station_id":"ce4bhm12rcd13ifvqgkg","pricing_plan_id":"cebpf4jnsgd1na2vs0mg"},{"bike_id":"2777903e-7ad3-4c14-a9e0-1ee6a4afad4e","system_id":"levelo_inurba_marseille","lat":43.25105,"lon":5.40323,"is_reserved":false,"is_disabled":false,"rental_uris":{"android":"levelo://app?vid=2777903e-7ad3-4c14-a9e0-1ee6a4afad4e","ios":"levelo://app?vid=2777903e-7ad3-4c14-a9e0-1ee6a4afad4e"},"vehicle_type_id":"4","last_reported":1736856988,"current_range_meters":8400,"station_id":"ce4bhlh2rcd13ifvqgig","pricing_plan_id":"cebpf4jnsgd1na2vs0mg"},{"bike_id":"2d075b8c-703c-4d20-a4d9-5522114a8601","system_id":"levelo_inurba_marseille","lat":43.24808,"lon":5.374557,"is_reserved":false,"is_disabled":false,"rental_uris":{"android":"levelo://app?vid=2d075b8c-703c-4d20-a4d9-5522114a8601","ios":"levelo://app?vid=2d075b8c-703c-4d20-a4d9-5522114a8601"},"vehicle_type_id":"4","last_reported":1736856988,"current_range_meters":24000,"station_id":"ce4bhgh2rcd13ifvqfb0","pricing_plan_id":"cebpf4jnsgd1na2vs0mg"},{"bike_id":"97074487-ff52-4540-9973-450053117464","system_id":"levelo_inurba_marseille","lat":43.28945,"lon":5.36623,"is_reserved":false,"is_disabled":false,"rental_uris":{"android":"levelo://app?vid=97074487-ff52-4540-9973-450053117464","ios":"levelo://app?vid=97074487-ff52-4540-9973-450053117464"},"vehicle_type_id":"4","last_reported":1736856988,"current_range_meters":36000,"station_id":"ce4bhap2rcd13ifvqek0","pricing_plan_id":"cebpf4jnsgd1na2vs0mg"},{"bike_id":"835aabc0-9c98-4d76-bb79-380bc69b249f","system_id":"levelo_inurba_marseille","lat":43.29896,"lon":5.43667,"is_reserved":false,"is_disabled":false,"rental_uris":{"android":"levelo://app?vid=835aabc0-9c98-4d76-bb79-380bc69b249f","ios":"levelo://app?vid=835aabc0-9c98-4d76-bb79-380bc69b249f"},"vehicle_type_id":"4","last_reported":1736856988,"current_range_meters":24000,"station_id":"ce4bhpp2rcd13ifvqhfg","pricing_plan_id":"cebpf4jnsgd1na2vs0mg"},{"bike_id":"b51b8509-c21e-40ac-802b-edd56e55cdd0","system_id":"levelo_inurba_marseille","lat":43.30365,"lon":5.41894,"is_reserved":false,"is_disabled":true,"rental_uris":{"android":"levelo://app?vid=b51b8509-c21e-40ac-802b-edd56e55cdd0","ios":"levelo://app?vid=b51b8509-c21e-40ac-802b-edd56e55cdd0"},"vehicle_type_id":"4","last_reported":1736856988,"current_range_meters":20400,"station_id":"ce4bhop2rcd13ifvqh7g","pricing_plan_id":"cebpf4jnsgd1na2vs0mg"},{"bike_id":"78fc2529-851e-44ea-9e17-e5a76c9197b1","system_id":"levelo_inurba_marseille","lat":43.29755,"lon":5.37674,"is_reserved":false,"is_disabled":true,"rental_uris":{"android":"levelo://app?vid=78fc2529-851e-44ea-9e17-e5a76c9197b1","ios":"levelo://app?vid=78fc2529-851e-44ea-9e17-e5a76c9197b1"},"vehicle_type_id":"4","last_reported":1736856988,"current_range_meters":34800,"station_id":"ce4bgkh2rcd13ifvqbl0","pricing_plan_id":"cebpf4jnsgd1na2vs0mg"},{"bike_id":"d0b15177-d7b4-453e-a9c1-56fe6fa87241","system_id":"levelo_inurba_marseille","lat":43.29509,"lon":5.39049,"is_reserved":false,"is_disabled":false,"rental_uris":{"android":"levelo://app?vid=d0b15177-d7b4-453e-a9c1-56fe6fa87241","ios":"levelo://app?vid=d0b15177-d7b4-453e-a9c1-56fe6fa87241"},"vehicle_type_id":"4","last_reported":1736856988,"current_range_meters":38800,"station_id":"ce4bh3p2rcd13ifvqdp0","pricing_plan_id":"cebpf4jnsgd1na2vs0mg"},{"bike_id":"23e3dc7e-8426-4547-ad72-0a247a82c950","system_id":"levelo_inurba_marseille","lat":43.298562,"lon":5.36275,"is_reserved":false,"is_disabled":true,"rental_uris":{"android":"levelo://app?vid=23e3dc7e-8426-4547-ad72-0a247a82c950","ios":"levelo://app?vid=23e3dc7e-8426-4547-ad72-0a247a82c950"},"vehicle_type_id":"4","last_reported":1736856988,"current_range_meters":38800,"station_id":"ce4bgpp2rcd13ifvqc3g","pricing_plan_id":"cebpf4jnsgd1na2vs0mg"},{"bike_id":"f120ace2-5cd0-4047-b26e-673976094f0e","system_id":"levelo_inurba_marseille","lat":43.28855,"lon":5.39323,"is_reserved":false,"is_disabled":false,"rental_uris":{"android":"levelo://app?vid=f120ace2-5cd0-4047-b26e-673976094f0e","ios":"levelo://app?vid=f120ace2-5cd0-4047-b26e-673976094f0e"},"vehicle_type_id":"4","last_reported":1736856988,"current_range_meters":38800,"station_id":"ce4bh2p2rcd13ifvqdi0","pricing_plan_id":"cebpf4jnsgd1na2vs0mg"},{"bike_id":"9679fb69-98c5-4b1c-9f57-4dfe59cc31a4","system_id":"levelo_inurba_marseille","lat":43.26963,"lon":5.38644,"is_reserved":false,"is_disabled":false,"rental_uris":{"android":"levelo://app?vid=9679fb69-98c5-4b1c-9f57-4dfe59cc31a4","ios":"levelo://app?vid=9679fb69-98c5-4b1c-9f57-4dfe59cc31a4"},"vehicle_type_id":"4","last_reported":1736856988,"current_range_meters":28400,"station_id":"ce4bhh92rcd13ifvqfh0","pricing_plan_id":"cebpf4jnsgd1na2vs0mg"},{"bike_id":"9b2dcada-c637-4b38-876c-b5a12218f8d4","system_id":"levelo_inurba_marseille","lat":43.28268,"lon":5.35068,"is_reserved":false,"is_disabled":false,"rental_uris":{"android":"levelo://app?vid=9b2dcada-c637-4b38-876c-b5a12218f8d4","ios":"levelo://app?vid=9b2dcada-c637-4b38-876c-b5a12218f8d4"},"vehicle_type_id":"4","last_reported":1736856988,"current_range_meters":36800,"station_id":"ce4bhbp2rcd13ifvqerg","pricing_plan_id":"cebpf4jnsgd1na2vs0mg"},{"bike_id":"18c607d8-c120-4d00-901f-975c4c522b7a","system_id":"levelo_inurba_marseille","lat":43.27305,"lon":5.39098,"is_reserved":false,"is_disabled":false,"rental_uris":{"android":"levelo://app?vid=18c607d8-c120-4d00-901f-975c4c522b7a","ios":"levelo://app?vid=18c607d8-c120-4d00-901f-975c4c522b7a"},"vehicle_type_id":"4","last_reported":1736856988,"current_range_meters":7200,"station_id":"ce4bhgp2rcd13ifvqfe0","pricing_plan_id":"cebpf4jnsgd1na2vs0mg"},{"bike_id":"24017be9-d1a6-4333-9509-641e776c3c03","system_id":"levelo_inurba_marseille","lat":43.2465,"lon":5.38913,"is_reserved":false,"is_disabled":false,"rental_uris":{"android":"levelo://app?vid=24017be9-d1a6-4333-9509-641e776c3c03","ios":"levelo://app?vid=24017be9-d1a6-4333-9509-641e776c3c03"},"vehicle_type_id":"4","last_reported":1736856988,"current_range_meters":38800,"station_id":"ce4bhg12rcd13ifvqf60","pricing_plan_id":"cebpf4jnsgd1na2vs0mg"},{"bike_id":"9684ffc1-6103-46e9-84e5-28fbefb9518a","system_id":"levelo_inurba_marseille","lat":43.27996,"lon":5.41661,"is_reserved":false,"is_disabled":false,"rental_uris":{"android":"levelo://app?vid=9684ffc1-6103-46e9-84e5-28fbefb9518a","ios":"levelo://app?vid=9684ffc1-6103-46e9-84e5-28fbefb9518a"},"vehicle_type_id":"4","last_reported":1736856988,"current_range_meters":22000,"station_id":"ce4bho12rcd13ifvqh1g","pricing_plan_id":"cebpf4jnsgd1na2vs0mg"},{"bike_id":"bd01f10b-dc0e-420f-bd5c-058aa6946842","system_id":"levelo_inurba_marseille","lat":43.27233,"lon":5.39177,"is_reserved":false,"is_disabled":false,"rental_uris":{"android":"levelo://app?vid=bd01f10b-dc0e-420f-bd5c-058aa6946842","ios":"levelo://app?vid=bd01f10b-dc0e-420f-bd5c-058aa6946842"},"vehicle_type_id":"4","last_reported":1736856988,"current_range_meters":18000,"station_id":"ce4bhhp2rcd13ifvqfm0","pricing_plan_id":"cebpf4jnsgd1na2vs0mg"},{"bike_id":"45324790-abcf-4a91-8b9e-6b7c17eae013","system_id":"levelo_inurba_marseille","lat":43.27382,"lon":5.36262,"is_reserved":false,"is_disabled":false,"rental_uris":{"android":"levelo://app?vid=45324790-abcf-4a91-8b9e-6b7c17eae013","ios":"levelo://app?vid=45324790-abcf-4a91-8b9e-6b7c17eae013"},"vehicle_type_id":"4","last_reported":1736856988,"current_range_meters":5600,"station_id":"ce4bhbh2rcd13ifvqeo0","pricing_plan_id":"cebpf4jnsgd1na2vs0mg"},{"bike_id":"978e04a1-8cc7-466e-97a8-c2a1544e50fd","system_id":"levelo_inurba_marseille","lat":43.29374,"lon":5.37841,"is_reserved":false,"is_disabled":false,"rental_uris":{"android":"levelo://app?vid=978e04a1-8cc7-466e-97a8-c2a1544e50fd","ios":"levelo://app?vid=978e04a1-8cc7-466e-97a8-c2a1544e50fd"},"vehicle_type_id":"4","last_reported":1736856988,"current_range_meters":8000,"station_id":"ce4bgjh2rcd13ifvqbf0","pricing_plan_id":"cebpf4jnsgd1na2vs0mg"},{"bike_id":"49f57622-1491-4014-945d-18b8103ce1c4","system_id":"levelo_inurba_marseille","lat":43.24389,"lon":5.37076,"is_reserved":false,"is_disabled":false,"rental_uris":{"android":"levelo://app?vid=49f57622-1491-4014-945d-18b8103ce1c4","ios":"levelo://app?vid=49f57622-1491-4014-945d-18b8103ce1c4"},"vehicle_type_id":"4","last_reported":1736856988,"current_range_meters":38800,"station_id":"ce4bhhh2rcd13ifvqfk0","pricing_plan_id":"cebpf4jnsgd1na2vs0mg"},{"bike_id":"d24d9040-6ad2-4db2-8347-cd569298245a","system_id":"levelo_inurba_marseille","lat":43.27207,"lon":5.39174,"is_reserved":false,"is_disabled":false,"rental_uris":{"android":"levelo://app?vid=d24d9040-6ad2-4db2-8347-cd569298245a","ios":"levelo://app?vid=d24d9040-6ad2-4db2-8347-cd569298245a"},"vehicle_type_id":"4","last_reported":1736856988,"current_range_meters":33600,"station_id":"ce4bhhp2rcd13ifvqfm0","pricing_plan_id":"cebpf4jnsgd1na2vs0mg"},{"bike_id":"a86fe1f4-7545-4b33-8097-0e91725c0bb3","system_id":"levelo_inurba_marseille","lat":43.32499,"lon":5.36598,"is_reserved":false,"is_disabled":true,"rental_uris":{"android":"levelo://app?vid=a86fe1f4-7545-4b33-8097-0e91725c0bb3","ios":"levelo://app?vid=a86fe1f4-7545-4b33-8097-0e91725c0bb3"},"vehicle_type_id":"4","last_reported":1736856988,"current_range_meters":0,"station_id":"ce4bhs12rcd13ifvqhvg","pricing_plan_id":"cebpf4jnsgd1na2vs0mg"},{"bike_id":"96288e4c-2217-4363-a43b-27b3c199235a","system_id":"levelo_inurba_marseille","lat":43.28442,"lon":5.39189,"is_reserved":false,"is_disabled":true,"rental_uris":{"android":"levelo://app?vid=96288e4c-2217-4363-a43b-27b3c199235a","ios":"levelo://app?vid=96288e4c-2217-4363-a43b-27b3c199235a"},"vehicle_type_id":"4","last_reported":1736856988,"current_range_meters":2000,"station_id":"ce4bhoh2rcd13ifvqh5g","pricing_plan_id":"cebpf4jnsgd1na2vs0mg"},{"bike_id":"321a1127-d864-44e1-88ee-18a86707c918","system_id":"levelo_inurba_marseille","lat":43.245445,"lon":5.395389,"is_reserved":false,"is_disabled":false,"rental_uris":{"android":"levelo://app?vid=321a1127-d864-44e1-88ee-18a86707c918","ios":"levelo://app?vid=321a1127-d864-44e1-88ee-18a86707c918"},"vehicle_type_id":"4","last_reported":1736856988,"current_range_meters":22800,"station_id":"ce4bhlp2rcd13ifvqgjg","pricing_plan_id":"cebpf4jnsgd1na2vs0mg"},{"bike_id":"978fb29c-98ff-4562-ab1f-5fae6d5333de","system_id":"levelo_inurba_marseille","lat":43.26957,"lon":5.38634,"is_reserved":false,"is_disabled":false,"rental_uris":{"android":"levelo://app?vid=978fb29c-98ff-4562-ab1f-5fae6d5333de","ios":"levelo://app?vid=978fb29c-98ff-4562-ab1f-5fae6d5333de"},"vehicle_type_id":"4","last_reported":1736856988,"current_range_meters":32400,"station_id":"ce4bhh92rcd13ifvqfh0","pricing_plan_id":"cebpf4jnsgd1na2vs0mg"},{"bike_id":"c43815d3-4f9e-4fbb-a00a-ff6f383b06d7","system_id":"levelo_inurba_marseille","lat":43.29917,"lon":5.37468,"is_reserved":false,"is_disabled":false,"rental_uris":{"android":"levelo://app?vid=c43815d3-4f9e-4fbb-a00a-ff6f383b06d7","ios":"levelo://app?vid=c43815d3-4f9e-4fbb-a00a-ff6f383b06d7"},"vehicle_type_id":"4","last_reported":1736856988,"current_range_meters":29600,"station_id":"ce4bgjh2rcd13ifvqbg0","pricing_plan_id":"cebpf4jnsgd1na2vs0mg"},{"bike_id":"10229a08-e72a-46d2-955f-1f2d4ac65458","system_id":"levelo_inurba_marseille","lat":43.29009,"lon":5.35613,"is_reserved":false,"is_disabled":false,"rental_uris":{"android":"levelo://app?vid=10229a08-e72a-46d2-955f-1f2d4ac65458","ios":"levelo://app?vid=10229a08-e72a-46d2-955f-1f2d4ac65458"},"vehicle_type_id":"4","last_reported":1736856988,"current_range_meters":30000,"station_id":"ce4bhb92rcd13ifvqen0","pricing_plan_id":"cebpf4jnsgd1na2vs0mg"},{"bike_id":"a4c108d4-411d-4a66-ac0a-33ca30029180","system_id":"levelo_inurba_marseille","lat":43.23971,"lon":5.36637,"is_reserved":false,"is_disabled":false,"rental_uris":{"android":"levelo://app?vid=a4c108d4-411d-4a66-ac0a-33ca30029180","ios":"levelo://app?vid=a4c108d4-411d-4a66-ac0a-33ca30029180"},"vehicle_type_id":"4","last_reported":1736856988,"current_range_meters":38800,"station_id":"ce4bhi12rcd13ifvqfp0","pricing_plan_id":"cebpf4jnsgd1na2vs0mg"},{"bike_id":"3f1871b0-62e6-472a-a371-7699a3389f00","system_id":"levelo_inurba_marseille","lat":43.25828,"lon":5.39431,"is_reserved":false,"is_disabled":false,"rental_uris":{"android":"levelo://app?vid=3f1871b0-62e6-472a-a371-7699a3389f00","ios":"levelo://app?vid=3f1871b0-62e6-472a-a371-7699a3389f00"},"vehicle_type_id":"4","last_reported":1736856988,"current_range_meters":38800,"station_id":"ce4bhip2rcd13ifvqft0","pricing_plan_id":"cebpf4jnsgd1na2vs0mg"},{"bike_id":"1299e77e-6da9-45c1-9a42-231380813012","system_id":"levelo_inurba_marseille","lat":43.283433,"lon":5.381144,"is_reserved":false,"is_disabled":true,"rental_uris":{"android":"levelo://app?vid=1299e77e-6da9-45c1-9a42-231380813012","ios":"levelo://app?vid=1299e77e-6da9-45c1-9a42-231380813012"},"vehicle_type_id":"4","last_reported":1736856988,"current_range_meters":24000,"station_id":"","pricing_plan_id":"cebpf4jnsgd1na2vs0mg"},{"bike_id":"4073b90d-34a2-479c-bed0-50c22094e783","system_id":"levelo_inurba_marseille","lat":43.28254,"lon":5.35085,"is_reserved":false,"is_disabled":false,"rental_uris":{"android":"levelo://app?vid=4073b90d-34a2-479c-bed0-50c22094e783","ios":"levelo://app?vid=4073b90d-34a2-479c-bed0-50c22094e783"},"vehicle_type_id":"4","last_reported":1736856988,"current_range_meters":36400,"station_id":"ce4bhbp2rcd13ifvqerg","pricing_plan_id":"cebpf4jnsgd1na2vs0mg"},{"bike_id":"ea4865b0-5a2b-4430-ad56-d310db0f18f8","system_id":"levelo_inurba_marseille","lat":43.28987,"lon":5.37844,"is_reserved":false,"is_disabled":false,"rental_uris":{"android":"levelo://app?vid=ea4865b0-5a2b-4430-ad56-d310db0f18f8","ios":"levelo://app?vid=ea4865b0-5a2b-4430-ad56-d310db0f18f8"},"vehicle_type_id":"4","last_reported":1736856988,"current_range_meters":28400,"station_id":"ce4bh9p2rcd13ifvqed0","pricing_plan_id":"cebpf4jnsgd1na2vs0mg"},{"bike_id":"624fd665-76a1-4073-91c0-a4db8dfd6228","system_id":"levelo_inurba_marseille","lat":43.31307,"lon":5.36825,"is_reserved":false,"is_disabled":false,"rental_uris":{"android":"levelo://app?vid=624fd665-76a1-4073-91c0-a4db8dfd6228","ios":"levelo://app?vid=624fd665-76a1-4073-91c0-a4db8dfd6228"},"vehicle_type_id":"4","last_reported":1736856988,"current_range_meters":29600,"station_id":"","pricing_plan_id":"cebpf4jnsgd1na2vs0mg"},{"bike_id":"7b4d1b47-5678-441b-99e6-d51f2a1e45e8","system_id":"levelo_inurba_marseille","lat":43.24186,"lon":5.39732,"is_reserved":false,"is_disabled":false,"rental_uris":{"android":"levelo://app?vid=7b4d1b47-5678-441b-99e6-d51f2a1e45e8","ios":"levelo://app?vid=7b4d1b47-5678-441b-99e6-d51f2a1e45e8"},"vehicle_type_id":"4","last_reported":1736856988,"current_range_meters":39200,"station_id":"ce4bhn12rcd13ifvqgpg","pricing_plan_id":"cebpf4jnsgd1na2vs0mg"},{"bike_id":"acb789d3-c42d-465c-982b-20d6256e9026","system_id":"levelo_inurba_marseille","lat":43.24387,"lon":5.37074,"is_reserved":false,"is_disabled":false,"rental_uris":{"android":"levelo://app?vid=acb789d3-c42d-465c-982b-20d6256e9026","ios":"levelo://app?vid=acb789d3-c42d-465c-982b-20d6256e9026"},"vehicle_type_id":"4","last_reported":1736856988,"current_range_meters":36800,"station_id":"ce4bhhh2rcd13ifvqfk0","pricing_plan_id":"cebpf4jnsgd1na2vs0mg"},{"bike_id":"9599b621-939d-48b7-b481-39cc3922fe6d","system_id":"levelo_inurba_marseille","lat":43.25116,"lon":5.40342,"is_reserved":false,"is_disabled":false,"rental_uris":{"android":"levelo://app?vid=9599b621-939d-48b7-b481-39cc3922fe6d","ios":"levelo://app?vid=9599b621-939d-48b7-b481-39cc3922fe6d"},"vehicle_type_id":"4","last_reported":1736856988,"current_range_meters":32400,"station_id":"ce4bhlh2rcd13ifvqgig","pricing_plan_id":"cebpf4jnsgd1na2vs0mg"},{"bike_id":"37bc9147-a569-4c73-b0e2-4161dcff9274","system_id":"levelo_inurba_marseille","lat":43.27184,"lon":5.40991,"is_reserved":false,"is_disabled":false,"rental_uris":{"android":"levelo://app?vid=37bc9147-a569-4c73-b0e2-4161dcff9274","ios":"levelo://app?vid=37bc9147-a569-4c73-b0e2-4161dcff9274"},"vehicle_type_id":"4","last_reported":1736856988,"current_range_meters":38800,"station_id":"ce4bhl12rcd13ifvqgf0","pricing_plan_id":"cebpf4jnsgd1na2vs0mg"},{"bike_id":"2d0273d2-ef3b-437a-aea9-9e57e1c068aa","system_id":"levelo_inurba_marseille","lat":43.29799,"lon":5.40397,"is_reserved":false,"is_disabled":false,"rental_uris":{"android":"levelo://app?vid=2d0273d2-ef3b-437a-aea9-9e57e1c068aa","ios":"levelo://app?vid=2d0273d2-ef3b-437a-aea9-9e57e1c068aa"},"vehicle_type_id":"4","last_reported":1736856988,"current_range_meters":34800,"station_id":"ce4bh112rcd13ifvqd90","pricing_plan_id":"cebpf4jnsgd1na2vs0mg"},{"bike_id":"2cf85a70-b6bf-48de-83de-04510c401ba3","system_id":"levelo_inurba_marseille","lat":43.23193,"lon":5.35551,"is_reserved":false,"is_disabled":false,"rental_uris":{"android":"levelo://app?vid=2cf85a70-b6bf-48de-83de-04510c401ba3","ios":"levelo://app?vid=2cf85a70-b6bf-48de-83de-04510c401ba3"},"vehicle_type_id":"4","last_reported":1736856988,"current_range_meters":6000,"station_id":"ce4bhu92rcd13ifvqi70","pricing_plan_id":"cebpf4jnsgd1na2vs0mg"},{"bike_id":"58217570-e527-4d8d-a75d-710bdcf25ead","system_id":"levelo_inurba_marseille","lat":43.29022,"lon":5.38128,"is_reserved":false,"is_disabled":false,"rental_uris":{"android":"levelo://app?vid=58217570-e527-4d8d-a75d-710bdcf25ead","ios":"levelo://app?vid=58217570-e527-4d8d-a75d-710bdcf25ead"},"vehicle_type_id":"4","last_reported":1736856988,"current_range_meters":22400,"station_id":"ce4bh4p2rcd13ifvqe1g","pricing_plan_id":"cebpf4jnsgd1na2vs0mg"},{"bike_id":"31ca8b0e-c72e-47d4-a59b-a2766db72931","system_id":"levelo_inurba_marseille","lat":43.28421,"lon":5.40932,"is_reserved":false,"is_disabled":true,"rental_uris":{"android":"levelo://app?vid=31ca8b0e-c72e-47d4-a59b-a2766db72931","ios":"levelo://app?vid=31ca8b0e-c72e-47d4-a59b-a2766db72931"},"vehicle_type_id":"4","last_reported":1736856988,"current_range_meters":35600,"station_id":"","pricing_plan_id":"cebpf4jnsgd1na2vs0mg"},{"bike_id":"3cc4f8d9-abe9-44eb-b280-5b30a4d3b388","system_id":"levelo_inurba_marseille","lat":43.262218,"lon":5.374398,"is_reserved":false,"is_disabled":false,"rental_uris":{"android":"levelo://app?vid=3cc4f8d9-abe9-44eb-b280-5b30a4d3b388","ios":"levelo://app?vid=3cc4f8d9-abe9-44eb-b280-5b30a4d3b388"},"vehicle_type_id":"4","last_reported":1736856988,"current_range_meters":38400,"station_id":"ce4bhgp2rcd13ifvqfc0","pricing_plan_id":"cebpf4jnsgd1na2vs0mg"},{"bike_id":"60c48e84-151f-4edd-83cd-789ff87c7f63","system_id":"levelo_inurba_marseille","lat":43.28709,"lon":5.3741,"is_reserved":false,"is_disabled":true,"rental_uris":{"android":"levelo://app?vid=60c48e84-151f-4edd-83cd-789ff87c7f63","ios":"levelo://app?vid=60c48e84-151f-4edd-83cd-789ff87c7f63"},"vehicle_type_id":"4","last_reported":1736856988,"current_range_meters":33600,"station_id":"ce4bh3p2rcd13ifvqdq0","pricing_plan_id":"cebpf4jnsgd1na2vs0mg"},{"bike_id":"be6b3f5e-afcd-4b8c-9aa4-e97dc1204c98","system_id":"levelo_inurba_marseille","lat":43.33005,"lon":5.39047,"is_reserved":false,"is_disabled":false,"rental_uris":{"android":"levelo://app?vid=be6b3f5e-afcd-4b8c-9aa4-e97dc1204c98","ios":"levelo://app?vid=be6b3f5e-afcd-4b8c-9aa4-e97dc1204c98"},"vehicle_type_id":"4","last_reported":1736856988,"current_range_meters":38800,"station_id":"ce4bhr92rcd13ifvqhrg","pricing_plan_id":"cebpf4jnsgd1na2vs0mg"},{"bike_id":"47fc70b5-2875-48b7-9956-4fcd919d4df1","system_id":"levelo_inurba_marseille","lat":43.30586,"lon":5.39355,"is_reserved":false,"is_disabled":false,"rental_uris":{"android":"levelo://app?vid=47fc70b5-2875-48b7-9956-4fcd919d4df1","ios":"levelo://app?vid=47fc70b5-2875-48b7-9956-4fcd919d4df1"},"vehicle_type_id":"4","last_reported":1736856988,"current_range_meters":33600,"station_id":"ce4bh0p2rcd13ifvqd80","pricing_plan_id":"cebpf4jnsgd1na2vs0mg"},{"bike_id":"de05f028-7450-4792-8d5b-e268410faa9d","system_id":"levelo_inurba_marseille","lat":43.32112,"lon":5.36786,"is_reserved":false,"is_disabled":false,"rental_uris":{"android":"levelo://app?vid=de05f028-7450-4792-8d5b-e268410faa9d","ios":"levelo://app?vid=de05f028-7450-4792-8d5b-e268410faa9d"},"vehicle_type_id":"4","last_reported":1736856988,"current_range_meters":28800,"station_id":"ce4bhrh2rcd13ifvqhug","pricing_plan_id":"cebpf4jnsgd1na2vs0mg"},{"bike_id":"7da6a008-4cbc-4f9c-9853-b9dfe2c124f1","system_id":"levelo_inurba_marseille","lat":43.2721,"lon":5.3918,"is_reserved":false,"is_disabled":false,"rental_uris":{"android":"levelo://app?vid=7da6a008-4cbc-4f9c-9853-b9dfe2c124f1","ios":"levelo://app?vid=7da6a008-4cbc-4f9c-9853-b9dfe2c124f1"},"vehicle_type_id":"4","last_reported":1736856988,"current_range_meters":36800,"station_id":"ce4bhhp2rcd13ifvqfm0","pricing_plan_id":"cebpf4jnsgd1na2vs0mg"},{"bike_id":"4218abb1-97a1-4e69-a779-b2859c95cf9a","system_id":"levelo_inurba_marseille","lat":43.23959,"lon":5.3663,"is_reserved":false,"is_disabled":false,"rental_uris":{"android":"levelo://app?vid=4218abb1-97a1-4e69-a779-b2859c95cf9a","ios":"levelo://app?vid=4218abb1-97a1-4e69-a779-b2859c95cf9a"},"vehicle_type_id":"4","last_reported":1736856988,"current_range_meters":14800,"station_id":"ce4bhi12rcd13ifvqfp0","pricing_plan_id":"cebpf4jnsgd1na2vs0mg"},{"bike_id":"645142ff-aed8-4d15-9b5e-904f264f9569","system_id":"levelo_inurba_marseille","lat":43.27801,"lon":5.40711,"is_reserved":false,"is_disabled":false,"rental_uris":{"android":"levelo://app?vid=645142ff-aed8-4d15-9b5e-904f264f9569","ios":"levelo://app?vid=645142ff-aed8-4d15-9b5e-904f264f9569"},"vehicle_type_id":"4","last_reported":1736856988,"current_range_meters":22800,"station_id":"ce4bhnh2rcd13ifvqgtg","pricing_plan_id":"cebpf4jnsgd1na2vs0mg"},{"bike_id":"697e6ace-d673-4abf-ab6d-187906fe3096","system_id":"levelo_inurba_marseille","lat":43.29994,"lon":5.37184,"is_reserved":false,"is_disabled":false,"rental_uris":{"android":"levelo://app?vid=697e6ace-d673-4abf-ab6d-187906fe3096","ios":"levelo://app?vid=697e6ace-d673-4abf-ab6d-187906fe3096"},"vehicle_type_id":"4","last_reported":1736856988,"current_range_meters":22800,"station_id":"ce4bgr92rcd13ifvqc7g","pricing_plan_id":"cebpf4jnsgd1na2vs0mg"},{"bike_id":"d85168cd-cda5-48df-a191-5048004ec8d2","system_id":"levelo_inurba_marseille","lat":43.25094,"lon":5.39501,"is_reserved":false,"is_disabled":false,"rental_uris":{"android":"levelo://app?vid=d85168cd-cda5-48df-a191-5048004ec8d2","ios":"levelo://app?vid=d85168cd-cda5-48df-a191-5048004ec8d2"},"vehicle_type_id":"4","last_reported":1736856988,"current_range_meters":3600,"station_id":"ce4bhm12rcd13ifvqgkg","pricing_plan_id":"cebpf4jnsgd1na2vs0mg"},{"bike_id":"969807cf-216d-4cee-82aa-f5f2990bf61a","system_id":"levelo_inurba_marseille","lat":43.240723,"lon":5.377605,"is_reserved":false,"is_disabled":true,"rental_uris":{"android":"levelo://app?vid=969807cf-216d-4cee-82aa-f5f2990bf61a","ios":"levelo://app?vid=969807cf-216d-4cee-82aa-f5f2990bf61a"},"vehicle_type_id":"4","last_reported":1736856988,"current_range_meters":800,"station_id":"ce4bhnp2rcd13ifvqgvg","pricing_plan_id":"cebpf4jnsgd1na2vs0mg"},{"bike_id":"34d1187a-0d2f-42da-8bcd-6376169d385a","system_id":"levelo_inurba_marseille","lat":43.2593,"lon":5.40892,"is_reserved":false,"is_disabled":false,"rental_uris":{"android":"levelo://app?vid=34d1187a-0d2f-42da-8bcd-6376169d385a","ios":"levelo://app?vid=34d1187a-0d2f-42da-8bcd-6376169d385a"},"vehicle_type_id":"4","last_reported":1736856988,"current_range_meters":37600,"station_id":"ce4bhm92rcd13ifvqglg","pricing_plan_id":"cebpf4jnsgd1na2vs0mg"},{"bike_id":"8f3d19ca-6788-4fa8-a3b9-31a1f06d17f5","system_id":"levelo_inurba_marseille","lat":43.28047,"lon":5.3695,"is_reserved":false,"is_disabled":true,"rental_uris":{"android":"levelo://app?vid=8f3d19ca-6788-4fa8-a3b9-31a1f06d17f5","ios":"levelo://app?vid=8f3d19ca-6788-4fa8-a3b9-31a1f06d17f5"},"vehicle_type_id":"4","last_reported":1736856988,"current_range_meters":400,"station_id":"ce4bha12rcd13ifvqef0","pricing_plan_id":"cebpf4jnsgd1na2vs0mg"},{"bike_id":"f4bab7d4-e348-4939-8044-be07598fb200","system_id":"levelo_inurba_marseille","lat":43.2994,"lon":5.37152,"is_reserved":false,"is_disabled":false,"rental_uris":{"android":"levelo://app?vid=f4bab7d4-e348-4939-8044-be07598fb200","ios":"levelo://app?vid=f4bab7d4-e348-4939-8044-be07598fb200"},"vehicle_type_id":"4","last_reported":1736856988,"current_range_meters":36800,"station_id":"ce4bgr92rcd13ifvqc7g","pricing_plan_id":"cebpf4jnsgd1na2vs0mg"},{"bike_id":"0ec91d96-bfaa-4681-aa0c-4da5df265c9a","system_id":"levelo_inurba_marseille","lat":43.29581,"lon":5.37517,"is_reserved":false,"is_disabled":false,"rental_uris":{"android":"levelo://app?vid=0ec91d96-bfaa-4681-aa0c-4da5df265c9a","ios":"levelo://app?vid=0ec91d96-bfaa-4681-aa0c-4da5df265c9a"},"vehicle_type_id":"4","last_reported":1736856988,"current_range_meters":6400,"station_id":"ce4bgh92rcd13ifvqb50","pricing_plan_id":"cebpf4jnsgd1na2vs0mg"},{"bike_id":"6280e12b-8c99-470a-acaf-04cfe5b073d5","system_id":"levelo_inurba_marseille","lat":43.27206,"lon":5.41004,"is_reserved":false,"is_disabled":false,"rental_uris":{"android":"levelo://app?vid=6280e12b-8c99-470a-acaf-04cfe5b073d5","ios":"levelo://app?vid=6280e12b-8c99-470a-acaf-04cfe5b073d5"},"vehicle_type_id":"4","last_reported":1736856988,"current_range_meters":38800,"station_id":"ce4bhl12rcd13ifvqgf0","pricing_plan_id":"cebpf4jnsgd1na2vs0mg"},{"bike_id":"f62a7ed4-7c80-4ed8-9568-a4dea62069d1","system_id":"levelo_inurba_marseille","lat":43.28072,"lon":5.39668,"is_reserved":false,"is_disabled":false,"rental_uris":{"android":"levelo://app?vid=f62a7ed4-7c80-4ed8-9568-a4dea62069d1","ios":"levelo://app?vid=f62a7ed4-7c80-4ed8-9568-a4dea62069d1"},"vehicle_type_id":"4","last_reported":1736856988,"current_range_meters":25200,"station_id":"ce4bho12rcd13ifvqh2g","pricing_plan_id":"cebpf4jnsgd1na2vs0mg"},{"bike_id":"0992952c-048b-47b4-af5a-c29e17abc31e","system_id":"levelo_inurba_marseille","lat":43.29013,"lon":5.35611,"is_reserved":false,"is_disabled":false,"rental_uris":{"android":"levelo://app?vid=0992952c-048b-47b4-af5a-c29e17abc31e","ios":"levelo://app?vid=0992952c-048b-47b4-af5a-c29e17abc31e"},"vehicle_type_id":"4","last_reported":1736856988,"current_range_meters":38800,"station_id":"ce4bhb92rcd13ifvqen0","pricing_plan_id":"cebpf4jnsgd1na2vs0mg"},{"bike_id":"18a0f2cd-0f3b-4c0b-9ebe-07031d755999","system_id":"levelo_inurba_marseille","lat":43.2894,"lon":5.39634,"is_reserved":false,"is_disabled":false,"rental_uris":{"android":"levelo://app?vid=18a0f2cd-0f3b-4c0b-9ebe-07031d755999","ios":"levelo://app?vid=18a0f2cd-0f3b-4c0b-9ebe-07031d755999"},"vehicle_type_id":"4","last_reported":1736856988,"current_range_meters":23200,"station_id":"ce4bh3h2rcd13ifvqdn0","pricing_plan_id":"cebpf4jnsgd1na2vs0mg"},{"bike_id":"ed31229b-2ef0-40b3-8472-895c235b572d","system_id":"levelo_inurba_marseille","lat":43.30939,"lon":5.40145,"is_reserved":false,"is_disabled":false,"rental_uris":{"android":"levelo://app?vid=ed31229b-2ef0-40b3-8472-895c235b572d","ios":"levelo://app?vid=ed31229b-2ef0-40b3-8472-895c235b572d"},"vehicle_type_id":"4","last_reported":1736856988,"current_range_meters":20000,"station_id":"ce4bgvp2rcd13ifvqct0","pricing_plan_id":"cebpf4jnsgd1na2vs0mg"},{"bike_id":"eec8949e-7437-4435-9bff-e7a8382d1592","system_id":"levelo_inurba_marseille","lat":43.27431,"lon":5.39428,"is_reserved":false,"is_disabled":false,"rental_uris":{"android":"levelo://app?vid=eec8949e-7437-4435-9bff-e7a8382d1592","ios":"levelo://app?vid=eec8949e-7437-4435-9bff-e7a8382d1592"},"vehicle_type_id":"4","last_reported":1736856988,"current_range_meters":11600,"station_id":"ce4bhdp2rcd13ifvqf20","pricing_plan_id":"cebpf4jnsgd1na2vs0mg"},{"bike_id":"b4e5ed95-6b29-4994-abad-d6290fbfdc4a","system_id":"levelo_inurba_marseille","lat":43.29231,"lon":5.36074,"is_reserved":false,"is_disabled":false,"rental_uris":{"android":"levelo://app?vid=b4e5ed95-6b29-4994-abad-d6290fbfdc4a","ios":"levelo://app?vid=b4e5ed95-6b29-4994-abad-d6290fbfdc4a"},"vehicle_type_id":"4","last_reported":1736856988,"current_range_meters":38800,"station_id":"ce4bhbh2rcd13ifvqeqg","pricing_plan_id":"cebpf4jnsgd1na2vs0mg"},{"bike_id":"c57da018-bfbb-4cbc-9a23-aaed6c1fa365","system_id":"levelo_inurba_marseille","lat":43.27618,"lon":5.36128,"is_reserved":false,"is_disabled":false,"rental_uris":{"android":"levelo://app?vid=c57da018-bfbb-4cbc-9a23-aaed6c1fa365","ios":"levelo://app?vid=c57da018-bfbb-4cbc-9a23-aaed6c1fa365"},"vehicle_type_id":"4","last_reported":1736856988,"current_range_meters":32800,"station_id":"ce4bgj92rcd13ifvqbe0","pricing_plan_id":"cebpf4jnsgd1na2vs0mg"},{"bike_id":"f303aaf1-3b66-4ee3-a33a-015133748360","system_id":"levelo_inurba_marseille","lat":43.29226,"lon":5.37389,"is_reserved":false,"is_disabled":false,"rental_uris":{"android":"levelo://app?vid=f303aaf1-3b66-4ee3-a33a-015133748360","ios":"levelo://app?vid=f303aaf1-3b66-4ee3-a33a-015133748360"},"vehicle_type_id":"4","last_reported":1736856988,"current_range_meters":11200,"station_id":"","pricing_plan_id":"cebpf4jnsgd1na2vs0mg"},{"bike_id":"04c4acfe-460f-4fee-a445-0befff4463d3","system_id":"levelo_inurba_marseille","lat":43.27194,"lon":5.39195,"is_reserved":false,"is_disabled":false,"rental_uris":{"android":"levelo://app?vid=04c4acfe-460f-4fee-a445-0befff4463d3","ios":"levelo://app?vid=04c4acfe-460f-4fee-a445-0befff4463d3"},"vehicle_type_id":"4","last_reported":1736856988,"current_range_meters":37600,"station_id":"ce4bhhp2rcd13ifvqfm0","pricing_plan_id":"cebpf4jnsgd1na2vs0mg"},{"bike_id":"e18ca637-0940-4ac9-84c4-c3ecffd5e4c4","system_id":"levelo_inurba_marseille","lat":43.26047,"lon":5.37555,"is_reserved":false,"is_disabled":false,"rental_uris":{"android":"levelo://app?vid=e18ca637-0940-4ac9-84c4-c3ecffd5e4c4","ios":"levelo://app?vid=e18ca637-0940-4ac9-84c4-c3ecffd5e4c4"},"vehicle_type_id":"4","last_reported":1736856988,"current_range_meters":12400,"station_id":"ce4bhgh2rcd13ifvqfa0","pricing_plan_id":"cebpf4jnsgd1na2vs0mg"},{"bike_id":"c9fd064c-a8cf-449b-9f0f-7e2bd4c738bd","system_id":"levelo_inurba_marseille","lat":43.25505,"lon":5.37647,"is_reserved":false,"is_disabled":false,"rental_uris":{"android":"levelo://app?vid=c9fd064c-a8cf-449b-9f0f-7e2bd4c738bd","ios":"levelo://app?vid=c9fd064c-a8cf-449b-9f0f-7e2bd4c738bd"},"vehicle_type_id":"4","last_reported":1736856988,"current_range_meters":38800,"station_id":"ce4bhh12rcd13ifvqff0","pricing_plan_id":"cebpf4jnsgd1na2vs0mg"},{"bike_id":"656938f6-29e6-4592-aec9-6c0b4897db53","system_id":"levelo_inurba_marseille","lat":43.27217,"lon":5.39179,"is_reserved":false,"is_disabled":false,"rental_uris":{"android":"levelo://app?vid=656938f6-29e6-4592-aec9-6c0b4897db53","ios":"levelo://app?vid=656938f6-29e6-4592-aec9-6c0b4897db53"},"vehicle_type_id":"4","last_reported":1736856988,"current_range_meters":38800,"station_id":"ce4bhhp2rcd13ifvqfm0","pricing_plan_id":"cebpf4jnsgd1na2vs0mg"},{"bike_id":"cdc749ba-95a1-4490-96d7-5eeb4d46962a","system_id":"levelo_inurba_marseille","lat":43.30298,"lon":5.3922,"is_reserved":false,"is_disabled":false,"rental_uris":{"android":"levelo://app?vid=cdc749ba-95a1-4490-96d7-5eeb4d46962a","ios":"levelo://app?vid=cdc749ba-95a1-4490-96d7-5eeb4d46962a"},"vehicle_type_id":"4","last_reported":1736856988,"current_range_meters":26000,"station_id":"ce4bgkh2rcd13ifvqbk0","pricing_plan_id":"cebpf4jnsgd1na2vs0mg"},{"bike_id":"a836bbf6-cc30-4238-a0af-12e1dba6445b","system_id":"levelo_inurba_marseille","lat":43.23154,"lon":5.43715,"is_reserved":false,"is_disabled":false,"rental_uris":{"android":"levelo://app?vid=a836bbf6-cc30-4238-a0af-12e1dba6445b","ios":"levelo://app?vid=a836bbf6-cc30-4238-a0af-12e1dba6445b"},"vehicle_type_id":"4","last_reported":1736856988,"current_range_meters":24800,"station_id":"ce4bhmp2rcd13ifvqgog","pricing_plan_id":"cebpf4jnsgd1na2vs0mg"},{"bike_id":"01e8c37a-485a-4689-82d6-32555e2cc552","system_id":"levelo_inurba_marseille","lat":43.305406,"lon":5.365283,"is_reserved":false,"is_disabled":false,"rental_uris":{"android":"levelo://app?vid=01e8c37a-485a-4689-82d6-32555e2cc552","ios":"levelo://app?vid=01e8c37a-485a-4689-82d6-32555e2cc552"},"vehicle_type_id":"4","last_reported":1736856988,"current_range_meters":38800,"station_id":"ce4bgs12rcd13ifvqcag","pricing_plan_id":"cebpf4jnsgd1na2vs0mg"},{"bike_id":"314c972a-56e4-4228-af9f-a3ba3e9ea78a","system_id":"levelo_inurba_marseille","lat":43.28556,"lon":5.39463,"is_reserved":false,"is_disabled":false,"rental_uris":{"android":"levelo://app?vid=314c972a-56e4-4228-af9f-a3ba3e9ea78a","ios":"levelo://app?vid=314c972a-56e4-4228-af9f-a3ba3e9ea78a"},"vehicle_type_id":"4","last_reported":1736856988,"current_range_meters":32000,"station_id":"ce4bh292rcd13ifvqdg0","pricing_plan_id":"cebpf4jnsgd1na2vs0mg"},{"bike_id":"dfc263e9-73cb-4c04-9dad-efb60bf63e66","system_id":"levelo_inurba_marseille","lat":43.29915,"lon":5.38148,"is_reserved":false,"is_disabled":false,"rental_uris":{"android":"levelo://app?vid=dfc263e9-73cb-4c04-9dad-efb60bf63e66","ios":"levelo://app?vid=dfc263e9-73cb-4c04-9dad-efb60bf63e66"},"vehicle_type_id":"4","last_reported":1736856988,"current_range_meters":34800,"station_id":"ce4bgj12rcd13ifvqbc0","pricing_plan_id":"cebpf4jnsgd1na2vs0mg"},{"bike_id":"d12d0d4b-6c32-4fac-8f18-2af46f7242dc","system_id":"levelo_inurba_marseille","lat":43.30971,"lon":5.39036,"is_reserved":false,"is_disabled":false,"rental_uris":{"android":"levelo://app?vid=d12d0d4b-6c32-4fac-8f18-2af46f7242dc","ios":"levelo://app?vid=d12d0d4b-6c32-4fac-8f18-2af46f7242dc"},"vehicle_type_id":"4","last_reported":1736856988,"current_range_meters":35600,"station_id":"ce4bgup2rcd13ifvqco0","pricing_plan_id":"cebpf4jnsgd1na2vs0mg"},{"bike_id":"41922604-c7b8-4e93-9da5-3903771d7233","system_id":"levelo_inurba_marseille","lat":43.24817,"lon":5.37465,"is_reserved":false,"is_disabled":false,"rental_uris":{"android":"levelo://app?vid=41922604-c7b8-4e93-9da5-3903771d7233","ios":"levelo://app?vid=41922604-c7b8-4e93-9da5-3903771d7233"},"vehicle_type_id":"4","last_reported":1736856988,"current_range_meters":22800,"station_id":"ce4bhgh2rcd13ifvqfb0","pricing_plan_id":"cebpf4jnsgd1na2vs0mg"},{"bike_id":"f9a0b159-d4ef-4cf7-8bab-32add2463118","system_id":"levelo_inurba_marseille","lat":43.26942,"lon":5.38928,"is_reserved":false,"is_disabled":false,"rental_uris":{"android":"levelo://app?vid=f9a0b159-d4ef-4cf7-8bab-32add2463118","ios":"levelo://app?vid=f9a0b159-d4ef-4cf7-8bab-32add2463118"},"vehicle_type_id":"4","last_reported":1736856988,"current_range_meters":31200,"station_id":"ce4bhhh2rcd13ifvqfl0","pricing_plan_id":"cebpf4jnsgd1na2vs0mg"},{"bike_id":"306db636-fa13-4023-a4f6-43177835b6db","system_id":"levelo_inurba_marseille","lat":43.25944,"lon":5.40973,"is_reserved":false,"is_disabled":false,"rental_uris":{"android":"levelo://app?vid=306db636-fa13-4023-a4f6-43177835b6db","ios":"levelo://app?vid=306db636-fa13-4023-a4f6-43177835b6db"},"vehicle_type_id":"4","last_reported":1736856988,"current_range_meters":29600,"station_id":"","pricing_plan_id":"cebpf4jnsgd1na2vs0mg"},{"bike_id":"4fea1704-a67b-459a-bd07-9064b68b842b","system_id":"levelo_inurba_marseille","lat":43.33609,"lon":5.41031,"is_reserved":false,"is_disabled":false,"rental_uris":{"android":"levelo://app?vid=4fea1704-a67b-459a-bd07-9064b68b842b","ios":"levelo://app?vid=4fea1704-a67b-459a-bd07-9064b68b842b"},"vehicle_type_id":"4","last_reported":1736856988,"current_range_meters":24800,"station_id":"ce4bhqh2rcd13ifvqhmg","pricing_plan_id":"cebpf4jnsgd1na2vs0mg"},{"bike_id":"425cfe18-0310-4ffd-ac5c-f5702c649b3b","system_id":"levelo_inurba_marseille","lat":43.28081,"lon":5.39659,"is_reserved":false,"is_disabled":false,"rental_uris":{"android":"levelo://app?vid=425cfe18-0310-4ffd-ac5c-f5702c649b3b","ios":"levelo://app?vid=425cfe18-0310-4ffd-ac5c-f5702c649b3b"},"vehicle_type_id":"4","last_reported":1736856988,"current_range_meters":38800,"station_id":"ce4bho12rcd13ifvqh2g","pricing_plan_id":"cebpf4jnsgd1na2vs0mg"},{"bike_id":"6f015975-4893-4fc8-a038-545c49a9ebda","system_id":"levelo_inurba_marseille","lat":43.29589,"lon":5.37506,"is_reserved":false,"is_disabled":false,"rental_uris":{"android":"levelo://app?vid=6f015975-4893-4fc8-a038-545c49a9ebda","ios":"levelo://app?vid=6f015975-4893-4fc8-a038-545c49a9ebda"},"vehicle_type_id":"4","last_reported":1736856988,"current_range_meters":28000,"station_id":"ce4bgh92rcd13ifvqb50","pricing_plan_id":"cebpf4jnsgd1na2vs0mg"},{"bike_id":"8832f1d0-2427-493b-8456-cac2b4047c3a","system_id":"levelo_inurba_marseille","lat":43.24547,"lon":5.39523,"is_reserved":false,"is_disabled":false,"rental_uris":{"android":"levelo://app?vid=8832f1d0-2427-493b-8456-cac2b4047c3a","ios":"levelo://app?vid=8832f1d0-2427-493b-8456-cac2b4047c3a"},"vehicle_type_id":"4","last_reported":1736856988,"current_range_meters":8800,"station_id":"ce4bhlp2rcd13ifvqgjg","pricing_plan_id":"cebpf4jnsgd1na2vs0mg"},{"bike_id":"70a4d228-2c41-4af9-a3eb-23abb00e4e21","system_id":"levelo_inurba_marseille","lat":43.26061,"lon":5.39398,"is_reserved":false,"is_disabled":false,"rental_uris":{"android":"levelo://app?vid=70a4d228-2c41-4af9-a3eb-23abb00e4e21","ios":"levelo://app?vid=70a4d228-2c41-4af9-a3eb-23abb00e4e21"},"vehicle_type_id":"4","last_reported":1736856988,"current_range_meters":14000,"station_id":"ce4bhh92rcd13ifvqfj0","pricing_plan_id":"cebpf4jnsgd1na2vs0mg"},{"bike_id":"2ef5df04-cc6e-4014-88b2-a60bbd864900","system_id":"levelo_inurba_marseille","lat":43.30877,"lon":5.37204,"is_reserved":false,"is_disabled":false,"rental_uris":{"android":"levelo://app?vid=2ef5df04-cc6e-4014-88b2-a60bbd864900","ios":"levelo://app?vid=2ef5df04-cc6e-4014-88b2-a60bbd864900"},"vehicle_type_id":"4","last_reported":1736856988,"current_range_meters":37600,"station_id":"ce4bguh2rcd13ifvqckg","pricing_plan_id":"cebpf4jnsgd1na2vs0mg"},{"bike_id":"a5792b4f-7028-47ff-bd59-27e420e7d8d2","system_id":"levelo_inurba_marseille","lat":43.28937,"lon":5.36663,"is_reserved":false,"is_disabled":false,"rental_uris":{"android":"levelo://app?vid=a5792b4f-7028-47ff-bd59-27e420e7d8d2","ios":"levelo://app?vid=a5792b4f-7028-47ff-bd59-27e420e7d8d2"},"vehicle_type_id":"4","last_reported":1736856988,"current_range_meters":29600,"station_id":"ce4bhap2rcd13ifvqek0","pricing_plan_id":"cebpf4jnsgd1na2vs0mg"},{"bike_id":"4ca4be0a-6368-47fa-871a-914312f9653e","system_id":"levelo_inurba_marseille","lat":43.2455,"lon":5.39529,"is_reserved":false,"is_disabled":false,"rental_uris":{"android":"levelo://app?vid=4ca4be0a-6368-47fa-871a-914312f9653e","ios":"levelo://app?vid=4ca4be0a-6368-47fa-871a-914312f9653e"},"vehicle_type_id":"4","last_reported":1736856988,"current_range_meters":25200,"station_id":"ce4bhlp2rcd13ifvqgjg","pricing_plan_id":"cebpf4jnsgd1na2vs0mg"},{"bike_id":"231f1dd8-6336-4c22-9dd1-c1357dbe6eef","system_id":"levelo_inurba_marseille","lat":43.29735,"lon":5.37705,"is_reserved":false,"is_disabled":true,"rental_uris":{"android":"levelo://app?vid=231f1dd8-6336-4c22-9dd1-c1357dbe6eef","ios":"levelo://app?vid=231f1dd8-6336-4c22-9dd1-c1357dbe6eef"},"vehicle_type_id":"4","last_reported":1736856988,"current_range_meters":22000,"station_id":"ce4bgkh2rcd13ifvqbl0","pricing_plan_id":"cebpf4jnsgd1na2vs0mg"},{"bike_id":"cd3f8370-2641-46f1-8263-38bf6705e152","system_id":"levelo_inurba_marseille","lat":43.30596,"lon":5.39363,"is_reserved":false,"is_disabled":false,"rental_uris":{"android":"levelo://app?vid=cd3f8370-2641-46f1-8263-38bf6705e152","ios":"levelo://app?vid=cd3f8370-2641-46f1-8263-38bf6705e152"},"vehicle_type_id":"4","last_reported":1736856988,"current_range_meters":38400,"station_id":"ce4bh0p2rcd13ifvqd80","pricing_plan_id":"cebpf4jnsgd1na2vs0mg"},{"bike_id":"a520c696-e2ec-4231-81c1-756d41d5f0fd","system_id":"levelo_inurba_marseille","lat":43.231943,"lon":5.355497,"is_reserved":false,"is_disabled":false,"rental_uris":{"android":"levelo://app?vid=a520c696-e2ec-4231-81c1-756d41d5f0fd","ios":"levelo://app?vid=a520c696-e2ec-4231-81c1-756d41d5f0fd"},"vehicle_type_id":"4","last_reported":1736856988,"current_range_meters":8800,"station_id":"ce4bhu92rcd13ifvqi70","pricing_plan_id":"cebpf4jnsgd1na2vs0mg"},{"bike_id":"ef3a1383-6b67-4eb1-b00a-d710cdfae89a","system_id":"levelo_inurba_marseille","lat":43.32352,"lon":5.40621,"is_reserved":false,"is_disabled":true,"rental_uris":{"android":"levelo://app?vid=ef3a1383-6b67-4eb1-b00a-d710cdfae89a","ios":"levelo://app?vid=ef3a1383-6b67-4eb1-b00a-d710cdfae89a"},"vehicle_type_id":"4","last_reported":1736856988,"current_range_meters":400,"station_id":"ce4bhq92rcd13ifvqhjg","pricing_plan_id":"cebpf4jnsgd1na2vs0mg"},{"bike_id":"8e08d8b2-dc52-4ae3-8540-73c9b21cfffe","system_id":"levelo_inurba_marseille","lat":43.25005,"lon":5.38931,"is_reserved":false,"is_disabled":false,"rental_uris":{"android":"levelo://app?vid=8e08d8b2-dc52-4ae3-8540-73c9b21cfffe","ios":"levelo://app?vid=8e08d8b2-dc52-4ae3-8540-73c9b21cfffe"},"vehicle_type_id":"4","last_reported":1736856988,"current_range_meters":27600,"station_id":"ce4bhgp2rcd13ifvqfd0","pricing_plan_id":"cebpf4jnsgd1na2vs0mg"},{"bike_id":"87339157-d961-4cf9-9dd5-00fb3246061f","system_id":"levelo_inurba_marseille","lat":43.25923,"lon":5.4092,"is_reserved":false,"is_disabled":false,"rental_uris":{"android":"levelo://app?vid=87339157-d961-4cf9-9dd5-00fb3246061f","ios":"levelo://app?vid=87339157-d961-4cf9-9dd5-00fb3246061f"},"vehicle_type_id":"4","last_reported":1736856988,"current_range_meters":28000,"station_id":"ce4bhm92rcd13ifvqglg","pricing_plan_id":"cebpf4jnsgd1na2vs0mg"},{"bike_id":"36ad50bc-d9bb-4836-81ae-1fb5f3c17c9e","system_id":"levelo_inurba_marseille","lat":43.28378,"lon":5.38646,"is_reserved":false,"is_disabled":true,"rental_uris":{"android":"levelo://app?vid=36ad50bc-d9bb-4836-81ae-1fb5f3c17c9e","ios":"levelo://app?vid=36ad50bc-d9bb-4836-81ae-1fb5f3c17c9e"},"vehicle_type_id":"4","last_reported":1736856988,"current_range_meters":0,"station_id":"ce4bh492rcd13ifvqdvg","pricing_plan_id":"cebpf4jnsgd1na2vs0mg"},{"bike_id":"1dc64d76-fff0-460c-af84-eaea7614f529","system_id":"levelo_inurba_marseille","lat":43.26952,"lon":5.40277,"is_reserved":false,"is_disabled":false,"rental_uris":{"android":"levelo://app?vid=1dc64d76-fff0-460c-af84-eaea7614f529","ios":"levelo://app?vid=1dc64d76-fff0-460c-af84-eaea7614f529"},"vehicle_type_id":"4","last_reported":1736856988,"current_range_meters":38800,"station_id":"cjm6bp8fraef2m0cb0m0","pricing_plan_id":"cebpf4jnsgd1na2vs0mg"},{"bike_id":"1824ca5a-45ef-4ec3-a81c-50db720391d4","system_id":"levelo_inurba_marseille","lat":43.29364,"lon":5.37863,"is_reserved":false,"is_disabled":false,"rental_uris":{"android":"levelo://app?vid=1824ca5a-45ef-4ec3-a81c-50db720391d4","ios":"levelo://app?vid=1824ca5a-45ef-4ec3-a81c-50db720391d4"},"vehicle_type_id":"4","last_reported":1736856988,"current_range_meters":38800,"station_id":"ce4bgjh2rcd13ifvqbf0","pricing_plan_id":"cebpf4jnsgd1na2vs0mg"},{"bike_id":"ab9a6cda-be57-4cb7-bbda-7ad9028dd8a6","system_id":"levelo_inurba_marseille","lat":43.27938,"lon":5.41053,"is_reserved":false,"is_disabled":false,"rental_uris":{"android":"levelo://app?vid=ab9a6cda-be57-4cb7-bbda-7ad9028dd8a6","ios":"levelo://app?vid=ab9a6cda-be57-4cb7-bbda-7ad9028dd8a6"},"vehicle_type_id":"4","last_reported":1736856988,"current_range_meters":36800,"station_id":"ce4bhnp2rcd13ifvqh0g","pricing_plan_id":"cebpf4jnsgd1na2vs0mg"},{"bike_id":"df28f796-5a0c-416c-8088-630e87a8cc6b","system_id":"levelo_inurba_marseille","lat":43.30327,"lon":5.36884,"is_reserved":false,"is_disabled":false,"rental_uris":{"android":"levelo://app?vid=df28f796-5a0c-416c-8088-630e87a8cc6b","ios":"levelo://app?vid=df28f796-5a0c-416c-8088-630e87a8cc6b"},"vehicle_type_id":"4","last_reported":1736856988,"current_range_meters":36800,"station_id":"ce4bgqh2rcd13ifvqc5g","pricing_plan_id":"cebpf4jnsgd1na2vs0mg"},{"bike_id":"c0fd2063-31ae-4171-af17-771dbb4fa212","system_id":"levelo_inurba_marseille","lat":43.22942,"lon":5.35396,"is_reserved":false,"is_disabled":false,"rental_uris":{"android":"levelo://app?vid=c0fd2063-31ae-4171-af17-771dbb4fa212","ios":"levelo://app?vid=c0fd2063-31ae-4171-af17-771dbb4fa212"},"vehicle_type_id":"4","last_reported":1736856988,"current_range_meters":38800,"station_id":"cpo3532slgdg3j2ikp40","pricing_plan_id":"cebpf4jnsgd1na2vs0mg"},{"bike_id":"efa9c5ba-fda4-465d-b180-6aa1acc3e184","system_id":"levelo_inurba_marseille","lat":43.30602,"lon":5.39368,"is_reserved":false,"is_disabled":false,"rental_uris":{"android":"levelo://app?vid=efa9c5ba-fda4-465d-b180-6aa1acc3e184","ios":"levelo://app?vid=efa9c5ba-fda4-465d-b180-6aa1acc3e184"},"vehicle_type_id":"4","last_reported":1736856988,"current_range_meters":38800,"station_id":"ce4bh0p2rcd13ifvqd80","pricing_plan_id":"cebpf4jnsgd1na2vs0mg"},{"bike_id":"f48415c3-6dea-4d9f-b682-074689fd450f","system_id":"levelo_inurba_marseille","lat":43.23155,"lon":5.43716,"is_reserved":false,"is_disabled":false,"rental_uris":{"android":"levelo://app?vid=f48415c3-6dea-4d9f-b682-074689fd450f","ios":"levelo://app?vid=f48415c3-6dea-4d9f-b682-074689fd450f"},"vehicle_type_id":"4","last_reported":1736856988,"current_range_meters":13600,"station_id":"ce4bhmp2rcd13ifvqgog","pricing_plan_id":"cebpf4jnsgd1na2vs0mg"},{"bike_id":"40b5e95f-a6c4-4dac-8441-a127130de112","system_id":"levelo_inurba_marseille","lat":43.29908,"lon":5.37466,"is_reserved":false,"is_disabled":false,"rental_uris":{"android":"levelo://app?vid=40b5e95f-a6c4-4dac-8441-a127130de112","ios":"levelo://app?vid=40b5e95f-a6c4-4dac-8441-a127130de112"},"vehicle_type_id":"4","last_reported":1736856988,"current_range_meters":36000,"station_id":"ce4bgjh2rcd13ifvqbg0","pricing_plan_id":"cebpf4jnsgd1na2vs0mg"},{"bike_id":"15472379-2f9f-47ee-bef3-7b013bc1c065","system_id":"levelo_inurba_marseille","lat":43.28615,"lon":5.351,"is_reserved":false,"is_disabled":false,"rental_uris":{"android":"levelo://app?vid=15472379-2f9f-47ee-bef3-7b013bc1c065","ios":"levelo://app?vid=15472379-2f9f-47ee-bef3-7b013bc1c065"},"vehicle_type_id":"4","last_reported":1736856988,"current_range_meters":23200,"station_id":"ce4bhch2rcd13ifvqeug","pricing_plan_id":"cebpf4jnsgd1na2vs0mg"},{"bike_id":"709e819c-4a69-435c-b2fe-747425105209","system_id":"levelo_inurba_marseille","lat":43.30463,"lon":5.37903,"is_reserved":false,"is_disabled":true,"rental_uris":{"android":"levelo://app?vid=709e819c-4a69-435c-b2fe-747425105209","ios":"levelo://app?vid=709e819c-4a69-435c-b2fe-747425105209"},"vehicle_type_id":"4","last_reported":1736856988,"current_range_meters":400,"station_id":"ce4bgup2rcd13ifvqcn0","pricing_plan_id":"cebpf4jnsgd1na2vs0mg"},{"bike_id":"c70d34d8-aed3-473e-977b-5539a95134f6","system_id":"levelo_inurba_marseille","lat":43.2989,"lon":5.38139,"is_reserved":false,"is_disabled":true,"rental_uris":{"android":"levelo://app?vid=c70d34d8-aed3-473e-977b-5539a95134f6","ios":"levelo://app?vid=c70d34d8-aed3-473e-977b-5539a95134f6"},"vehicle_type_id":"4","last_reported":1736856988,"current_range_meters":36800,"station_id":"ce4bgj12rcd13ifvqbc0","pricing_plan_id":"cebpf4jnsgd1na2vs0mg"},{"bike_id":"6812e771-5189-43c3-9fdf-98a4dee361a2","system_id":"levelo_inurba_marseille","lat":43.29874,"lon":5.36328,"is_reserved":false,"is_disabled":false,"rental_uris":{"android":"levelo://app?vid=6812e771-5189-43c3-9fdf-98a4dee361a2","ios":"levelo://app?vid=6812e771-5189-43c3-9fdf-98a4dee361a2"},"vehicle_type_id":"4","last_reported":1736856988,"current_range_meters":37600,"station_id":"ce4bgpp2rcd13ifvqc3g","pricing_plan_id":"cebpf4jnsgd1na2vs0mg"},{"bike_id":"8e1700e2-2825-47f3-9373-6fc227095b7d","system_id":"levelo_inurba_marseille","lat":43.24171,"lon":5.36406,"is_reserved":false,"is_disabled":false,"rental_uris":{"android":"levelo://app?vid=8e1700e2-2825-47f3-9373-6fc227095b7d","ios":"levelo://app?vid=8e1700e2-2825-47f3-9373-6fc227095b7d"},"vehicle_type_id":"4","last_reported":1736856988,"current_range_meters":38800,"station_id":"cpo36qri1sfpv3e86is0","pricing_plan_id":"cebpf4jnsgd1na2vs0mg"},{"bike_id":"e5573715-09fa-4dab-b1d8-e7410696aa39","system_id":"levelo_inurba_marseille","lat":43.32395,"lon":5.36796,"is_reserved":false,"is_disabled":false,"rental_uris":{"android":"levelo://app?vid=e5573715-09fa-4dab-b1d8-e7410696aa39","ios":"levelo://app?vid=e5573715-09fa-4dab-b1d8-e7410696aa39"},"vehicle_type_id":"4","last_reported":1736856988,"current_range_meters":24400,"station_id":"ce4bhsh2rcd13ifvqi2g","pricing_plan_id":"cebpf4jnsgd1na2vs0mg"},{"bike_id":"99905b1b-569d-40b5-87e0-3dcb49031da2","system_id":"levelo_inurba_marseille","lat":43.3014,"lon":5.37411,"is_reserved":false,"is_disabled":false,"rental_uris":{"android":"levelo://app?vid=99905b1b-569d-40b5-87e0-3dcb49031da2","ios":"levelo://app?vid=99905b1b-569d-40b5-87e0-3dcb49031da2"},"vehicle_type_id":"4","last_reported":1736856988,"current_range_meters":36800,"station_id":"ce4bgs92rcd13ifvqcc0","pricing_plan_id":"cebpf4jnsgd1na2vs0mg"},{"bike_id":"065e4cd0-50f7-4aa9-ae84-4166193516a6","system_id":"levelo_inurba_marseille","lat":43.23212,"lon":5.35569,"is_reserved":false,"is_disabled":false,"rental_uris":{"android":"levelo://app?vid=065e4cd0-50f7-4aa9-ae84-4166193516a6","ios":"levelo://app?vid=065e4cd0-50f7-4aa9-ae84-4166193516a6"},"vehicle_type_id":"4","last_reported":1736856988,"current_range_meters":30000,"station_id":"ce4bhu92rcd13ifvqi70","pricing_plan_id":"cebpf4jnsgd1na2vs0mg"},{"bike_id":"581f5c75-b8fe-47a2-a813-eecd7249b60d","system_id":"levelo_inurba_marseille","lat":43.27213,"lon":5.39186,"is_reserved":false,"is_disabled":false,"rental_uris":{"android":"levelo://app?vid=581f5c75-b8fe-47a2-a813-eecd7249b60d","ios":"levelo://app?vid=581f5c75-b8fe-47a2-a813-eecd7249b60d"},"vehicle_type_id":"4","last_reported":1736856988,"current_range_meters":37600,"station_id":"ce4bhhp2rcd13ifvqfm0","pricing_plan_id":"cebpf4jnsgd1na2vs0mg"},{"bike_id":"4a4d296c-e71a-4d73-8515-0b49a9079d8d","system_id":"levelo_inurba_marseille","lat":43.23192,"lon":5.39989,"is_reserved":false,"is_disabled":false,"rental_uris":{"android":"levelo://app?vid=4a4d296c-e71a-4d73-8515-0b49a9079d8d","ios":"levelo://app?vid=4a4d296c-e71a-4d73-8515-0b49a9079d8d"},"vehicle_type_id":"4","last_reported":1736856988,"current_range_meters":29600,"station_id":"ce4bhn12rcd13ifvqgqg","pricing_plan_id":"cebpf4jnsgd1na2vs0mg"},{"bike_id":"d367fa75-75e7-4f89-a9c1-e384f5ffb7e9","system_id":"levelo_inurba_marseille","lat":43.29597,"lon":5.37722,"is_reserved":false,"is_disabled":true,"rental_uris":{"android":"levelo://app?vid=d367fa75-75e7-4f89-a9c1-e384f5ffb7e9","ios":"levelo://app?vid=d367fa75-75e7-4f89-a9c1-e384f5ffb7e9"},"vehicle_type_id":"4","last_reported":1736856988,"current_range_meters":33600,"station_id":"ce4bgi92rcd13ifvqb90","pricing_plan_id":"cebpf4jnsgd1na2vs0mg"},{"bike_id":"e6b34210-7978-4137-b534-a3b03a983e63","system_id":"levelo_inurba_marseille","lat":43.29526,"lon":5.37512,"is_reserved":false,"is_disabled":true,"rental_uris":{"android":"levelo://app?vid=e6b34210-7978-4137-b534-a3b03a983e63","ios":"levelo://app?vid=e6b34210-7978-4137-b534-a3b03a983e63"},"vehicle_type_id":"4","last_reported":1736856988,"current_range_meters":33200,"station_id":"ce4bgkp2rcd13ifvqbmg","pricing_plan_id":"cebpf4jnsgd1na2vs0mg"},{"bike_id":"d28c64db-672d-4dc2-9aa8-36d7327fadae","system_id":"levelo_inurba_marseille","lat":43.31435,"lon":5.37394,"is_reserved":false,"is_disabled":false,"rental_uris":{"android":"levelo://app?vid=d28c64db-672d-4dc2-9aa8-36d7327fadae","ios":"levelo://app?vid=d28c64db-672d-4dc2-9aa8-36d7327fadae"},"vehicle_type_id":"4","last_reported":1736856988,"current_range_meters":11600,"station_id":"","pricing_plan_id":"cebpf4jnsgd1na2vs0mg"},{"bike_id":"12a77688-55d2-40a5-9210-63376f169f15","system_id":"levelo_inurba_marseille","lat":43.249959,"lon":5.38955,"is_reserved":false,"is_disabled":false,"rental_uris":{"android":"levelo://app?vid=12a77688-55d2-40a5-9210-63376f169f15","ios":"levelo://app?vid=12a77688-55d2-40a5-9210-63376f169f15"},"vehicle_type_id":"4","last_reported":1736856988,"current_range_meters":17200,"station_id":"ce4bhgp2rcd13ifvqfd0","pricing_plan_id":"cebpf4jnsgd1na2vs0mg"},{"bike_id":"044c7368-d383-4001-921a-b790fb7e704f","system_id":"levelo_inurba_marseille","lat":43.31739,"lon":5.37782,"is_reserved":false,"is_disabled":false,"rental_uris":{"android":"levelo://app?vid=044c7368-d383-4001-921a-b790fb7e704f","ios":"levelo://app?vid=044c7368-d383-4001-921a-b790fb7e704f"},"vehicle_type_id":"4","last_reported":1736856988,"current_range_meters":38800,"station_id":"ce4bgth2rcd13ifvqch0","pricing_plan_id":"cebpf4jnsgd1na2vs0mg"},{"bike_id":"899f1ec4-8cb9-4bae-96ba-9b1408d80c6d","system_id":"levelo_inurba_marseille","lat":43.25508,"lon":5.3767,"is_reserved":false,"is_disabled":false,"rental_uris":{"android":"levelo://app?vid=899f1ec4-8cb9-4bae-96ba-9b1408d80c6d","ios":"levelo://app?vid=899f1ec4-8cb9-4bae-96ba-9b1408d80c6d"},"vehicle_type_id":"4","last_reported":1736856988,"current_range_meters":38800,"station_id":"ce4bhh12rcd13ifvqff0","pricing_plan_id":"cebpf4jnsgd1na2vs0mg"},{"bike_id":"4725ae05-b600-47b7-ba70-7352c8181ea5","system_id":"levelo_inurba_marseille","lat":43.27407,"lon":5.39033,"is_reserved":false,"is_disabled":true,"rental_uris":{"android":"levelo://app?vid=4725ae05-b600-47b7-ba70-7352c8181ea5","ios":"levelo://app?vid=4725ae05-b600-47b7-ba70-7352c8181ea5"},"vehicle_type_id":"4","last_reported":1736856988,"current_range_meters":0,"station_id":"","pricing_plan_id":"cebpf4jnsgd1na2vs0mg"},{"bike_id":"d3cfaa79-40a7-4a8d-bae9-19635ba392b8","system_id":"levelo_inurba_marseille","lat":43.30475,"lon":5.37913,"is_reserved":false,"is_disabled":false,"rental_uris":{"android":"levelo://app?vid=d3cfaa79-40a7-4a8d-bae9-19635ba392b8","ios":"levelo://app?vid=d3cfaa79-40a7-4a8d-bae9-19635ba392b8"},"vehicle_type_id":"4","last_reported":1736856988,"current_range_meters":35600,"station_id":"ce4bgup2rcd13ifvqcn0","pricing_plan_id":"cebpf4jnsgd1na2vs0mg"},{"bike_id":"3be862ce-61fb-4849-bc4b-757391c1a634","system_id":"levelo_inurba_marseille","lat":43.28425,"lon":5.34995,"is_reserved":false,"is_disabled":false,"rental_uris":{"android":"levelo://app?vid=3be862ce-61fb-4849-bc4b-757391c1a634","ios":"levelo://app?vid=3be862ce-61fb-4849-bc4b-757391c1a634"},"vehicle_type_id":"4","last_reported":1736856988,"current_range_meters":25200,"station_id":"ce4bhbh2rcd13ifvqepg","pricing_plan_id":"cebpf4jnsgd1na2vs0mg"},{"bike_id":"d25d76f0-51db-4aa1-b57a-fb0e99fdc2aa","system_id":"levelo_inurba_marseille","lat":43.30612,"lon":5.39356,"is_reserved":false,"is_disabled":false,"rental_uris":{"android":"levelo://app?vid=d25d76f0-51db-4aa1-b57a-fb0e99fdc2aa","ios":"levelo://app?vid=d25d76f0-51db-4aa1-b57a-fb0e99fdc2aa"},"vehicle_type_id":"4","last_reported":1736856988,"current_range_meters":32400,"station_id":"ce4bh0p2rcd13ifvqd80","pricing_plan_id":"cebpf4jnsgd1na2vs0mg"},{"bike_id":"894c368b-2326-43de-a63b-a257f6b6c57e","system_id":"levelo_inurba_marseille","lat":43.31761,"lon":5.39016,"is_reserved":false,"is_disabled":false,"rental_uris":{"android":"levelo://app?vid=894c368b-2326-43de-a63b-a257f6b6c57e","ios":"levelo://app?vid=894c368b-2326-43de-a63b-a257f6b6c57e"},"vehicle_type_id":"4","last_reported":1736856988,"current_range_meters":30800,"station_id":"ce4bhqp2rcd13ifvqhng","pricing_plan_id":"cebpf4jnsgd1na2vs0mg"},{"bike_id":"d18a1bc5-9fd8-44f1-a18d-00fec931fd37","system_id":"levelo_inurba_marseille","lat":43.31466,"lon":5.37282,"is_reserved":false,"is_disabled":false,"rental_uris":{"android":"levelo://app?vid=d18a1bc5-9fd8-44f1-a18d-00fec931fd37","ios":"levelo://app?vid=d18a1bc5-9fd8-44f1-a18d-00fec931fd37"},"vehicle_type_id":"4","last_reported":1736856988,"current_range_meters":37600,"station_id":"ce4bgt12rcd13ifvqcd0","pricing_plan_id":"cebpf4jnsgd1na2vs0mg"},{"bike_id":"50290f7c-b5b5-41fa-afd3-a1dfce2b5a01","system_id":"levelo_inurba_marseille","lat":43.28262,"lon":5.35071,"is_reserved":false,"is_disabled":false,"rental_uris":{"android":"levelo://app?vid=50290f7c-b5b5-41fa-afd3-a1dfce2b5a01","ios":"levelo://app?vid=50290f7c-b5b5-41fa-afd3-a1dfce2b5a01"},"vehicle_type_id":"4","last_reported":1736856988,"current_range_meters":28400,"station_id":"ce4bhbp2rcd13ifvqerg","pricing_plan_id":"cebpf4jnsgd1na2vs0mg"},{"bike_id":"85f1eae6-af84-4f37-b9fb-68d67d5b14d7","system_id":"levelo_inurba_marseille","lat":43.25108,"lon":5.403248,"is_reserved":false,"is_disabled":false,"rental_uris":{"android":"levelo://app?vid=85f1eae6-af84-4f37-b9fb-68d67d5b14d7","ios":"levelo://app?vid=85f1eae6-af84-4f37-b9fb-68d67d5b14d7"},"vehicle_type_id":"4","last_reported":1736856988,"current_range_meters":33600,"station_id":"ce4bhlh2rcd13ifvqgig","pricing_plan_id":"cebpf4jnsgd1na2vs0mg"},{"bike_id":"e0c1ee42-3f25-47cb-92aa-bc33b4566bcf","system_id":"levelo_inurba_marseille","lat":43.31363,"lon":5.36719,"is_reserved":false,"is_disabled":false,"rental_uris":{"android":"levelo://app?vid=e0c1ee42-3f25-47cb-92aa-bc33b4566bcf","ios":"levelo://app?vid=e0c1ee42-3f25-47cb-92aa-bc33b4566bcf"},"vehicle_type_id":"4","last_reported":1736856988,"current_range_meters":38800,"station_id":"ce4bgr92rcd13ifvqc6g","pricing_plan_id":"cebpf4jnsgd1na2vs0mg"},{"bike_id":"36348e1a-1dc7-4683-96e2-31f0b7986ae7","system_id":"levelo_inurba_marseille","lat":43.25587,"lon":5.38253,"is_reserved":false,"is_disabled":false,"rental_uris":{"android":"levelo://app?vid=36348e1a-1dc7-4683-96e2-31f0b7986ae7","ios":"levelo://app?vid=36348e1a-1dc7-4683-96e2-31f0b7986ae7"},"vehicle_type_id":"4","last_reported":1736856988,"current_range_meters":34800,"station_id":"ce4bhih2rcd13ifvqfs0","pricing_plan_id":"cebpf4jnsgd1na2vs0mg"},{"bike_id":"3436c689-3408-4332-81b0-a2ad61949f47","system_id":"levelo_inurba_marseille","lat":43.29982,"lon":5.37196,"is_reserved":false,"is_disabled":false,"rental_uris":{"android":"levelo://app?vid=3436c689-3408-4332-81b0-a2ad61949f47","ios":"levelo://app?vid=3436c689-3408-4332-81b0-a2ad61949f47"},"vehicle_type_id":"4","last_reported":1736856988,"current_range_meters":38000,"station_id":"ce4bgr92rcd13ifvqc7g","pricing_plan_id":"cebpf4jnsgd1na2vs0mg"},{"bike_id":"0df7ec32-d176-4bdd-9549-f03a018636e8","system_id":"levelo_inurba_marseille","lat":43.2468,"lon":5.38162,"is_reserved":false,"is_disabled":false,"rental_uris":{"android":"levelo://app?vid=0df7ec32-d176-4bdd-9549-f03a018636e8","ios":"levelo://app?vid=0df7ec32-d176-4bdd-9549-f03a018636e8"},"vehicle_type_id":"4","last_reported":1736856988,"current_range_meters":34800,"station_id":"ce4bhih2rcd13ifvqfr0","pricing_plan_id":"cebpf4jnsgd1na2vs0mg"},