{"last_updated":1737299320,"ttl":60,"version":"2.2","data":{"bikes":[{"bike_id":"d308b950-e54c-4c74-a64a-f02ab5201725","system_id":"levelo_inurba_marseille","lat":43.28466,"lon":5.38394,"is_reserved":false,"is_disabled":true,"rental_uris":{"android":"levelo://app?vid=d308b950-e54c-4c74-a64a-f02ab5201725","ios":"levelo://app?vid=d308b950-e54c-4c74-a64a-f02ab5201725"},"vehicle_type_id":"4","last_reported":1737299320,"current_range_meters":1200,"station_id":"ce4bh512rcd13ifvqe3g","pricing_plan_id":"cebpf4jnsgd1na2vs0mg"},{"bike_id":"77ea1d95-29ee-4526-ac3e-b63ea46df160","system_id":"levelo_inurba_marseille","lat":43.23062,"lon":5.35487,"is_reserved":false,"is_disabled":true,"rental_uris":{"android":"levelo://app?vid=77ea1d95-29ee-4526-ac3e-b63ea46df160","ios":"levelo://app?vid=77ea1d95-29ee-4526-ac3e-b63ea46df160"},"vehicle_type_id":"4","last_reported":1737299320,"current_range_meters":0,"station_id":"cpo3342slgdg3j2ifvpg","pricing_plan_id":"cebpf4jnsgd1na2vs0mg"},{"bike_id":"d383b76c-b1c5-4112-bf95-e420a42ff72e","system_id":"levelo_inurba_marseille","lat":43.24825,"lon":5.37451,"is_reserved":false,"is_disabled":false,"rental_uris":{"android":"levelo://app?vid=d383b76c-b1c5-4112-bf95-e420a42ff72e","ios":"levelo://app?vid=d383b76c-b1c5-4112-bf95-e420a42ff72e"},"vehicle_type_id":"4","last_reported":1737299320,"current_range_meters":36800,"station_id":"ce4bhgh2rcd13ifvqfb0","pricing_plan_id":"cebpf4jnsgd1na2vs0mg"},{"bike_id":"34a12503-feeb-4967-b9f3-328fb3423fc8","system_id":"levelo_inurba_marseille","lat":43.29614,"lon":5.37713,"is_reserved":false,"is_disabled":false,"rental_uris":{"android":"levelo://app?vid=34a12503-feeb-4967-b9f3-328fb3423fc8","ios":"levelo://app?vid=34a12503-feeb-4967-b9f3-328fb3423fc8"},"vehicle_type_id":"4","last_reported":1737299320,"current_range_meters":38800,"station_id":"ce4bgi92rcd13ifvqb90","pricing_plan_id":"cebpf4jnsgd1na2vs0mg"},{"bike_id":"682538c4-1fdf-4a44-bda6-28115dbcf953","system_id":"levelo_inurba_marseille","lat":43.23064,"lon":5.35495,"is_reserved":false,"is_disabled":false,"rental_uris":{"android":"levelo://app?vid=682538c4-1fdf-4a44-bda6-28115dbcf953","ios":"levelo://app?vid=682538c4-1fdf-4a44-bda6-28115dbcf953"},"vehicle_type_id":"4","last_reported":1737299320,"current_range_meters":24400,"station_id":"cpo3342slgdg3j2ifvpg","pricing_plan_id":"cebpf4jnsgd1na2vs0mg"},{"bike_id":"753e632a-5031-4e6c-96d1-f3cb623f8582","system_id":"levelo_inurba_marseille","lat":43.30138,"lon":5.37424,"is_reserved":false,"is_disabled":false,"rental_uris":{"android":"levelo://app?vid=753e632a-5031-4e6c-96d1-f3cb623f8582","ios":"levelo://app?vid=753e632a-5031-4e6c-96d1-f3cb623f8582"},"vehicle_type_id":"4","last_reported":1737299320,"current_range_meters":27600,"station_id":"ce4bgs92rcd13ifvqcc0","pricing_plan_id":"cebpf4jnsgd1na2vs0mg"},{"bike_id":"a5cfd84d-4cae-4412-b199-dcb982d64799","system_id":"levelo_inurba_marseille","lat":43.2843,"lon":5.39168,"is_reserved":false,"is_disabled":true,"rental_uris":{"android":"levelo://app?vid=a5cfd84d-4cae-4412-b199-dcb982d64799","ios":"levelo://app?vid=a5cfd84d-4cae-4412-b199-dcb982d64799"},"vehicle_type_id":"4","last_reported":1737299320,"current_range_meters":0,"station_id":"ce4bhoh2rcd13ifvqh5g","pricing_plan_id":"cebpf4jnsgd1na2vs0mg"},{"bike_id":"f9ba6911-1d74-4e31-be86-e083ccd6eee1","system_id":"levelo_inurba_marseille","lat":43.28757,"lon":5.37693,"is_reserved":false,"is_disabled":false,"rental_uris":{"android":"levelo://app?vid=f9ba6911-1d74-4e31-be86-e083ccd6eee1","ios":"levelo://app?vid=f9ba6911-1d74-4e31-be86-e083ccd6eee1"},"vehicle_type_id":"4","last_reported":1737299320,"current_range_meters":22400,"station_id":"ce4bhh12rcd13ifvqfg0","pricing_plan_id":"cebpf4jnsgd1na2vs0mg"},{"bike_id":"1d5b1914-3c15-49a8-809b-d6978832adb7","system_id":"levelo_inurba_marseille","lat":43.2919,"lon":5.35796,"is_reserved":false,"is_disabled":false,"rental_uris":{"android":"levelo://app?vid=1d5b1914-3c15-49a8-809b-d6978832adb7","ios":"levelo://app?vid=1d5b1914-3c15-49a8-809b-d6978832adb7"},"vehicle_type_id":"4","last_reported":1737299320,"current_range_meters":10800,"station_id":"ce4bhb12rcd13ifvqel0","pricing_plan_id":"cebpf4jnsgd1na2vs0mg"},{"bike_id":"c4c1bbbe-fb86-44e1-9c71-7acc36f8b24a","system_id":"levelo_inurba_marseille","lat":43.32492,"lon":5.36559,"is_reserved":false,"is_disabled":false,"rental_uris":{"android":"levelo://app?vid=c4c1bbbe-fb86-44e1-9c71-7acc36f8b24a","ios":"levelo://app?vid=c4c1bbbe-fb86-44e1-9c71-7acc36f8b24a"},"vehicle_type_id":"4","last_reported":1737299320,"current_range_meters":38800,"station_id":"ce4bhs12rcd13ifvqhvg","pricing_plan_id":"cebpf4jnsgd1na2vs0mg"},{"bike_id":"40073b67-8b50-4bee-bf68-29f1391dc642","system_id":"levelo_inurba_marseille","lat":43.26558,"lon":5.42302,"is_reserved":false,"is_disabled":false,"rental_uris":{"android":"levelo://app?vid=40073b67-8b50-4bee-bf68-29f1391dc642","ios":"levelo://app?vid=40073b67-8b50-4bee-bf68-29f1391dc642"},"vehicle_type_id":"4","last_reported":1737299320,"current_range_meters":26000,"station_id":"","pricing_plan_id":"cebpf4jnsgd1na2vs0mg"},{"bike_id":"90c165c3-eff9-4a4a-8f28-cfa68619e419","system_id":"levelo_inurba_marseille","lat":43.28725,"lon":5.39988,"is_reserved":false,"is_disabled":true,"rental_uris":{"android":"levelo://app?vid=90c165c3-eff9-4a4a-8f28-cfa68619e419","ios":"levelo://app?vid=90c165c3-eff9-4a4a-8f28-cfa68619e419"},"vehicle_type_id":"4","last_reported":1737299320,"current_range_meters":28400,"station_id":"ce4bho92rcd13ifvqh3g","pricing_plan_id":"cebpf4jnsgd1na2vs0mg"},{"bike_id":"4975d3c5-1381-4300-914e-0a110da6ae0f","system_id":"levelo_inurba_marseille","lat":43.24075,"lon":5.37729,"is_reserved":false,"is_disabled":false,"rental_uris":{"android":"levelo://app?vid=4975d3c5-1381-4300-914e-0a110da6ae0f","ios":"levelo://app?vid=4975d3c5-1381-4300-914e-0a110da6ae0f"},"vehicle_type_id":"4","last_reported":1737299320,"current_range_meters":38800,"station_id":"ce4bhnp2rcd13ifvqgvg","pricing_plan_id":"cebpf4jnsgd1na2vs0mg"},{"bike_id":"a52cea13-71a0-4661-9fa9-a7b142a6c91d","system_id":"levelo_inurba_marseille","lat":43.30369,"lon":5.41883,"is_reserved":false,"is_disabled":false,"rental_uris":{"android":"levelo://app?vid=a52cea13-71a0-4661-9fa9-a7b142a6c91d","ios":"levelo://app?vid=a52cea13-71a0-4661-9fa9-a7b142a6c91d"},"vehicle_type_id":"4","last_reported":1737299320,"current_range_meters":38800,"station_id":"ce4bhop2rcd13ifvqh7g","pricing_plan_id":"cebpf4jnsgd1na2vs0mg"},{"bike_id":"bac37974-6947-4535-972a-6727a75cbdc0","system_id":"levelo_inurba_marseille","lat":43.30584,"lon":5.39354,"is_reserved":false,"is_disabled":false,"rental_uris":{"android":"levelo://app?vid=bac37974-6947-4535-972a-6727a75cbdc0","ios":"levelo://app?vid=bac37974-6947-4535-972a-6727a75cbdc0"},"vehicle_type_id":"4","last_reported":1737299320,"current_range_meters":38000,"station_id":"ce4bh0p2rcd13ifvqd80","pricing_plan_id":"cebpf4jnsgd1na2vs0mg"},{"bike_id":"46efa326-c02d-4314-a6fe-f05976f22b94","system_id":"levelo_inurba_marseille","lat":43.28026,"lon":5.3697,"is_reserved":false,"is_disabled":false,"rental_uris":{"android":"levelo://app?vid=46efa326-c02d-4314-a6fe-f05976f22b94","ios":"levelo://app?vid=46efa326-c02d-4314-a6fe-f05976f22b94"},"vehicle_type_id":"4","last_reported":1737299320,"current_range_meters":12400,"station_id":"ce4bha12rcd13ifvqef0","pricing_plan_id":"cebpf4jnsgd1na2vs0mg"},{"bike_id":"763ed4fc-16fd-47a0-aedf-62c028daa66f","system_id":"levelo_inurba_marseille","lat":43.36391,"lon":5.35596,"is_reserved":false,"is_disabled":false,"rental_uris":{"android":"levelo://app?vid=763ed4fc-16fd-47a0-aedf-62c028daa66f","ios":"levelo://app?vid=763ed4fc-16fd-47a0-aedf-62c028daa66f"},"vehicle_type_id":"4","last_reported":1737299320,"current_range_meters":12800,"station_id":"","pricing_plan_id":"cebpf4jnsgd1na2vs0mg"},{"bike_id":"1c6ee759-074d-405a-9375-3e98239f747a","system_id":"levelo_inurba_marseille","lat":43.286638,"lon":5.363621,"is_reserved":false,"is_disabled":false,"rental_uris":{"android":"levelo://app?vid=1c6ee759-074d-405a-9375-3e98239f747a","ios":"levelo://app?vid=1c6ee759-074d-405a-9375-3e98239f747a"},"vehicle_type_id":"4","last_reported":1737299320,"current_range_meters":20800,"station_id":"","pricing_plan_id":"cebpf4jnsgd1na2vs0mg"},{"bike_id":"56855a2d-6aa0-43be-9bd4-39897b793621","system_id":"levelo_inurba_marseille","lat":43.23192,"lon":5.35552,"is_reserved":false,"is_disabled":false,"rental_uris":{"android":"levelo://app?vid=56855a2d-6aa0-43be-9bd4-39897b793621","ios":"levelo://app?vid=56855a2d-6aa0-43be-9bd4-39897b793621"},"vehicle_type_id":"4","last_reported":1737299320,"current_range_meters":8000,"station_id":"ce4bhu92rcd13ifvqi70","pricing_plan_id":"cebpf4jnsgd1na2vs0mg"},{"bike_id":"0c5f73cf-e0e8-4f65-bd3a-b767c1efa8ac","system_id":"levelo_inurba_marseille","lat":43.30543,"lon":5.36538,"is_reserved":false,"is_disabled":false,"rental_uris":{"android":"levelo://app?vid=0c5f73cf-e0e8-4f65-bd3a-b767c1efa8ac","ios":"levelo://app?vid=0c5f73cf-e0e8-4f65-bd3a-b767c1efa8ac"},"vehicle_type_id":"4","last_reported":1737299320,"current_range_meters":31200,"station_id":"ce4bgs12rcd13ifvqcag","pricing_plan_id":"cebpf4jnsgd1na2vs0mg"},{"bike_id":"6fb53fbf-37b5-4d29-8892-c5872afeb694","system_id":"levelo_inurba_marseille","lat":43.2573,"lon":5.41112,"is_reserved":false,"is_disabled":false,"rental_uris":{"android":"levelo://app?vid=6fb53fbf-37b5-4d29-8892-c5872afeb694","ios":"levelo://app?vid=6fb53fbf-37b5-4d29-8892-c5872afeb694"},"vehicle_type_id":"4","last_reported":1737299320,"current_range_meters":22800,"station_id":"ce4bhkp2rcd13ifvqgd0","pricing_plan_id":"cebpf4jnsgd1na2vs0mg"},{"bike_id":"f3c94274-f861-4c89-8bb1-1ebe1a531935","system_id":"levelo_inurba_marseille","lat":43.25057,"lon":5.38924,"is_reserved":false,"is_disabled":false,"rental_uris":{"android":"levelo://app?vid=f3c94274-f861-4c89-8bb1-1ebe1a531935","ios":"levelo://app?vid=f3c94274-f861-4c89-8bb1-1ebe1a531935"},"vehicle_type_id":"4","last_reported":1737299320,"current_range_meters":37600,"station_id":"ce4bhgp2rcd13ifvqfd0","pricing_plan_id":"cebpf4jnsgd1na2vs0mg"},{"bike_id":"ea820ade-d81d-428e-82b9-7f165f7e8e75","system_id":"levelo_inurba_marseille","lat":43.3237,"lon":5.36757,"is_reserved":false,"is_disabled":false,"rental_uris":{"android":"levelo://app?vid=ea820ade-d81d-428e-82b9-7f165f7e8e75","ios":"levelo://app?vid=ea820ade-d81d-428e-82b9-7f165f7e8e75"},"vehicle_type_id":"4","last_reported":1737299320,"current_range_meters":16400,"station_id":"ce4bhsh2rcd13ifvqi2g","pricing_plan_id":"cebpf4jnsgd1na2vs0mg"},{"bike_id":"c29020e0-83ef-4b06-ac4f-c4422257f84a","system_id":"levelo_inurba_marseille","lat":43.36396,"lon":5.35604,"is_reserved":false,"is_disabled":false,"rental_uris":{"android":"levelo://app?vid=c29020e0-83ef-4b06-ac4f-c4422257f84a","ios":"levelo://app?vid=c29020e0-83ef-4b06-ac4f-c4422257f84a"},"vehicle_type_id":"4","last_reported":1737299320,"current_range_meters":18000,"station_id":"","pricing_plan_id":"cebpf4jnsgd1na2vs0mg"},{"bike_id":"4ff08913-7c01-487b-a58b-f06f3ad0548b","system_id":"levelo_inurba_marseille","lat":43.24178,"lon":5.39733,"is_reserved":false,"is_disabled":false,"rental_uris":{"android":"levelo://app?vid=4ff08913-7c01-487b-a58b-f06f3ad0548b","ios":"levelo://app?vid=4ff08913-7c01-487b-a58b-f06f3ad0548b"},"vehicle_type_id":"4","last_reported":1737299320,"current_range_meters":33200,"station_id":"ce4bhn12rcd13ifvqgpg","pricing_plan_id":"cebpf4jnsgd1na2vs0mg"},{"bike_id":"b3e99c66-a21e-460a-b145-0c8505a43dc4","system_id":"levelo_inurba_marseille","lat":43.28038,"lon":5.36947,"is_reserved":false,"is_disabled":false,"rental_uris":{"android":"levelo://app?vid=b3e99c66-a21e-460a-b145-0c8505a43dc4","ios":"levelo://app?vid=b3e99c66-a21e-460a-b145-0c8505a43dc4"},"vehicle_type_id":"4","last_reported":1737299320,"current_range_meters":20800,"station_id":"ce4bha12rcd13ifvqef0","pricing_plan_id":"cebpf4jnsgd1na2vs0mg"},{"bike_id":"03130477-5de0-4f40-b2f5-8e95486c51e6","system_id":"levelo_inurba_marseille","lat":43.26814,"lon":5.40249,"is_reserved":false,"is_disabled":false,"rental_uris":{"android":"levelo://app?vid=03130477-5de0-4f40-b2f5-8e95486c51e6","ios":"levelo://app?vid=03130477-5de0-4f40-b2f5-8e95486c51e6"},"vehicle_type_id":"4","last_reported":1737299320,"current_range_meters":39200,"station_id":"ce501612rcd8frsf0b60","pricing_plan_id":"cebpf4jnsgd1na2vs0mg"},{"bike_id":"b672b566-ae6e-4181-a2cb-0155be334a04","system_id":"levelo_inurba_marseille","lat":43.28968,"lon":5.36616,"is_reserved":false,"is_disabled":true,"rental_uris":{"android":"levelo://app?vid=b672b566-ae6e-4181-a2cb-0155be334a04","ios":"levelo://app?vid=b672b566-ae6e-4181-a2cb-0155be334a04"},"vehicle_type_id":"4","last_reported":1737299320,"current_range_meters":32800,"station_id":"ce4bhap2rcd13ifvqek0","pricing_plan_id":"cebpf4jnsgd1na2vs0mg"},{"bike_id":"fbc32e2e-190b-425c-97b3-753887d46687","system_id":"levelo_inurba_marseille","lat":43.29969,"lon":5.38474,"is_reserved":false,"is_disabled":false,"rental_uris":{"android":"levelo://app?vid=fbc32e2e-190b-425c-97b3-753887d46687","ios":"levelo://app?vid=fbc32e2e-190b-425c-97b3-753887d46687"},"vehicle_type_id":"4","last_reported":1737299320,"current_range_meters":28400,"station_id":"ce4bgj92rcd13ifvqbd0","pricing_plan_id":"cebpf4jnsgd1na2vs0mg"},{"bike_id":"04e7f6b2-1170-476d-8eb7-54bc6ab7d23c","system_id":"levelo_inurba_marseille","lat":43.24392,"lon":5.370558,"is_reserved":false,"is_disabled":false,"rental_uris":{"android":"levelo://app?vid=04e7f6b2-1170-476d-8eb7-54bc6ab7d23c","ios":"levelo://app?vid=04e7f6b2-1170-476d-8eb7-54bc6ab7d23c"},"vehicle_type_id":"4","last_reported":1737299320,"current_range_meters":37600,"station_id":"ce4bhhh2rcd13ifvqfk0","pricing_plan_id":"cebpf4jnsgd1na2vs0mg"},{"bike_id":"04798d03-1de2-48e5-997f-ed132b17485c","system_id":"levelo_inurba_marseille","lat":43.27373,"lon":5.36266,"is_reserved":false,"is_disabled":false,"rental_uris":{"android":"levelo://app?vid=04798d03-1de2-48e5-997f-ed132b17485c","ios":"levelo://app?vid=04798d03-1de2-48e5-997f-ed132b17485c"},"vehicle_type_id":"4","last_reported":1737299320,"current_range_meters":8800,"station_id":"ce4bhbh2rcd13ifvqeo0","pricing_plan_id":"cebpf4jnsgd1na2vs0mg"},{"bike_id":"ab4a8442-669d-46df-99f3-3fa9b912e652","system_id":"levelo_inurba_marseille","lat":43.29594,"lon":5.36746,"is_reserved":false,"is_disabled":false,"rental_uris":{"android":"levelo://app?vid=ab4a8442-669d-46df-99f3-3fa9b912e652","ios":"levelo://app?vid=ab4a8442-669d-46df-99f3-3fa9b912e652"},"vehicle_type_id":"4","last_reported":1737299320,"current_range_meters":19200,"station_id":"ce4bgph2rcd13ifvqc2g","pricing_plan_id":"cebpf4jnsgd1na2vs0mg"},{"bike_id":"a1268425-e1b2-45b1-8fbc-9391b8140126","system_id":"levelo_inurba_marseille","lat":43.24384,"lon":5.37058,"is_reserved":false,"is_disabled":false,"rental_uris":{"android":"levelo://app?vid=a1268425-e1b2-45b1-8fbc-9391b8140126","ios":"levelo://app?vid=a1268425-e1b2-45b1-8fbc-9391b8140126"},"vehicle_type_id":"4","last_reported":1737299320,"current_range_meters":28800,"station_id":"ce4bhhh2rcd13ifvqfk0","pricing_plan_id":"cebpf4jnsgd1na2vs0mg"},{"bike_id":"501ab4fd-c09d-4978-b056-79da026409be","system_id":"levelo_inurba_marseille","lat":43.26223,"lon":5.40457,"is_reserved":false,"is_disabled":false,"rental_uris":{"android":"levelo://app?vid=501ab4fd-c09d-4978-b056-79da026409be","ios":"levelo://app?vid=501ab4fd-c09d-4978-b056-79da026409be"},"vehicle_type_id":"4","last_reported":1737299320,"current_range_meters":35600,"station_id":"","pricing_plan_id":"cebpf4jnsgd1na2vs0mg"},{"bike_id":"fd696ea5-d4a5-4e3e-a979-e5953f474b0d","system_id":"levelo_inurba_marseille","lat":43.29894,"lon":5.43625,"is_reserved":false,"is_disabled":false,"rental_uris":{"android":"levelo://app?vid=fd696ea5-d4a5-4e3e-a979-e5953f474b0d","ios":"levelo://app?vid=fd696ea5-d4a5-4e3e-a979-e5953f474b0d"},"vehicle_type_id":"4","last_reported":1737299320,"current_range_meters":32400,"station_id":"ce4bhpp2rcd13ifvqhfg","pricing_plan_id":"cebpf4jnsgd1na2vs0mg"},{"bike_id":"9f727623-715b-44ed-92ef-7abd701a5763","system_id":"levelo_inurba_marseille","lat":43.31075,"lon":5.38354,"is_reserved":false,"is_disabled":false,"rental_uris":{"android":"levelo://app?vid=9f727623-715b-44ed-92ef-7abd701a5763","ios":"levelo://app?vid=9f727623-715b-44ed-92ef-7abd701a5763"},"vehicle_type_id":"4","last_reported":1737299320,"current_range_meters":17600,"station_id":"ce4bgv92rcd13ifvqcr0","pricing_plan_id":"cebpf4jnsgd1na2vs0mg"},{"bike_id":"9fcdcecc-76e2-46b4-a90c-33e1fb97c45c","system_id":"levelo_inurba_marseille","lat":43.28037,"lon":5.36941,"is_reserved":false,"is_disabled":false,"rental_uris":{"android":"levelo://app?vid=9fcdcecc-76e2-46b4-a90c-33e1fb97c45c","ios":"levelo://app?vid=9fcdcecc-76e2-46b4-a90c-33e1fb97c45c"},"vehicle_type_id":"4","last_reported":1737299320,"current_range_meters":24800,"station_id":"ce4bha12rcd13ifvqef0","pricing_plan_id":"cebpf4jnsgd1na2vs0mg"},{"bike_id":"086ad4fb-b13c-46de-8f3d-4e38f7d002e1","system_id":"levelo_inurba_marseille","lat":43.29629,"lon":5.37154,"is_reserved":false,"is_disabled":false,"rental_uris":{"android":"levelo://app?vid=086ad4fb-b13c-46de-8f3d-4e38f7d002e1","ios":"levelo://app?vid=086ad4fb-b13c-46de-8f3d-4e38f7d002e1"},"vehicle_type_id":"4","last_reported":1737299320,"current_range_meters":38800,"station_id":"ce4bgnh2rcd13ifvqc0g","pricing_plan_id":"cebpf4jnsgd1na2vs0mg"},{"bike_id":"11a07483-ac44-4656-9163-136ce72ccf2e","system_id":"levelo_inurba_marseille","lat":43.30555,"lon":5.36529,"is_reserved":false,"is_disabled":false,"rental_uris":{"android":"levelo://app?vid=11a07483-ac44-4656-9163-136ce72ccf2e","ios":"levelo://app?vid=11a07483-ac44-4656-9163-136ce72ccf2e"},"vehicle_type_id":"4","last_reported":1737299320,"current_range_meters":38800,"station_id":"ce4bgs12rcd13ifvqcag","pricing_plan_id":"cebpf4jnsgd1na2vs0mg"},{"bike_id":"3a731730-e771-49da-936d-6c5bde95e753","system_id":"levelo_inurba_marseille","lat":43.24406,"lon":5.37057,"is_reserved":false,"is_disabled":false,"rental_uris":{"android":"levelo://app?vid=3a731730-e771-49da-936d-6c5bde95e753","ios":"levelo://app?vid=3a731730-e771-49da-936d-6c5bde95e753"},"vehicle_type_id":"4","last_reported":1737299320,"current_range_meters":10000,"station_id":"ce4bhhh2rcd13ifvqfk0","pricing_plan_id":"cebpf4jnsgd1na2vs0mg"},{"bike_id":"cd25f333-fd4e-4c60-8178-f47ff2a33434","system_id":"levelo_inurba_marseille","lat":43.244,"lon":5.3704,"is_reserved":false,"is_disabled":false,"rental_uris":{"android":"levelo://app?vid=cd25f333-fd4e-4c60-8178-f47ff2a33434","ios":"levelo://app?vid=cd25f333-fd4e-4c60-8178-f47ff2a33434"},"vehicle_type_id":"4","last_reported":1737299320,"current_range_meters":24800,"station_id":"ce4bhhh2rcd13ifvqfk0","pricing_plan_id":"cebpf4jnsgd1na2vs0mg"},{"bike_id":"7b5cc4cc-e608-454c-95d4-00c7b5c48c31","system_id":"levelo_inurba_marseille","lat":43.25919,"lon":5.40878,"is_reserved":false,"is_disabled":false,"rental_uris":{"android":"levelo://app?vid=7b5cc4cc-e608-454c-95d4-00c7b5c48c31","ios":"levelo://app?vid=7b5cc4cc-e608-454c-95d4-00c7b5c48c31"},"vehicle_type_id":"4","last_reported":1737299320,"current_range_meters":6800,"station_id":"ce4bhm92rcd13ifvqglg","pricing_plan_id":"cebpf4jnsgd1na2vs0mg"},{"bike_id":"644b6a66-e713-4aa9-bb95-30a64653cec0","system_id":"levelo_inurba_marseille","lat":43.27504,"lon":5.42458,"is_reserved":false,"is_disabled":false,"rental_uris":{"android":"levelo://app?vid=644b6a66-e713-4aa9-bb95-30a64653cec0","ios":"levelo://app?vid=644b6a66-e713-4aa9-bb95-30a64653cec0"},"vehicle_type_id":"4","last_reported":1737299320,"current_range_meters":16000,"station_id":"ce4bhn92rcd13ifvqgrg","pricing_plan_id":"cebpf4jnsgd1na2vs0mg"},{"bike_id":"ae38ec3d-afde-4eeb-a761-25157030eba5","system_id":"levelo_inurba_marseille","lat":43.30377,"lon":5.41858,"is_reserved":false,"is_disabled":false,"rental_uris":{"android":"levelo://app?vid=ae38ec3d-afde-4eeb-a761-25157030eba5","ios":"levelo://app?vid=ae38ec3d-afde-4eeb-a761-25157030eba5"},"vehicle_type_id":"4","last_reported":1737299320,"current_range_meters":25600,"station_id":"ce4bhop2rcd13ifvqh7g","pricing_plan_id":"cebpf4jnsgd1na2vs0mg"},{"bike_id":"3ecdec19-2f05-4bf8-ad28-7255cb5f1d67","system_id":"levelo_inurba_marseille","lat":43.28266,"lon":5.35065,"is_reserved":false,"is_disabled":false,"rental_uris":{"android":"levelo://app?vid=3ecdec19-2f05-4bf8-ad28-7255cb5f1d67","ios":"levelo://app?vid=3ecdec19-2f05-4bf8-ad28-7255cb5f1d67"},"vehicle_type_id":"4","last_reported":1737299320,"current_range_meters":5600,"station_id":"ce4bhbp2rcd13ifvqerg","pricing_plan_id":"cebpf4jnsgd1na2vs0mg"},{"bike_id":"d5d0e588-11b1-480d-a34c-0fc015ee8abb","system_id":"levelo_inurba_marseille","lat":43.28492,"lon":5.42262,"is_reserved":false,"is_disabled":false,"rental_uris":{"android":"levelo://app?vid=d5d0e588-11b1-480d-a34c-0fc015ee8abb","ios":"levelo://app?vid=d5d0e588-11b1-480d-a34c-0fc015ee8abb"},"vehicle_type_id":"4","last_reported":1737299320,"current_range_meters":26000,"station_id":"","pricing_plan_id":"cebpf4jnsgd1na2vs0mg"},{"bike_id":"91f298c4-b90a-4423-a3f0-1a186b4e8157","system_id":"levelo_inurba_marseille","lat":43.30762,"lon":5.37686,"is_reserved":false,"is_disabled":false,"rental_uris":{"android":"levelo://app?vid=91f298c4-b90a-4423-a3f0-1a186b4e8157","ios":"levelo://app?vid=91f298c4-b90a-4423-a3f0-1a186b4e8157"},"vehicle_type_id":"4","last_reported":1737299320,"current_range_meters":32800,"station_id":"ce4bgv92rcd13ifvqcq0","pricing_plan_id":"cebpf4jnsgd1na2vs0mg"},{"bike_id":"21df575c-ea55-4f18-a1bf-0a488aaf328e","system_id":"levelo_inurba_marseille","lat":43.24066,"lon":5.37743,"is_reserved":false,"is_disabled":false,"rental_uris":{"android":"levelo://app?vid=21df575c-ea55-4f18-a1bf-0a488aaf328e","ios":"levelo://app?vid=21df575c-ea55-4f18-a1bf-0a488aaf328e"},"vehicle_type_id":"4","last_reported":1737299320,"current_range_meters":38000,"station_id":"ce4bhnp2rcd13ifvqgvg","pricing_plan_id":"cebpf4jnsgd1na2vs0mg"},{"bike_id":"10b8da58-1f12-44b0-8c4c-eff01d48a146","system_id":"levelo_inurba_marseille","lat":43.30672,"lon":5.4009,"is_reserved":false,"is_disabled":true,"rental_uris":{"android":"levelo://app?vid=10b8da58-1f12-44b0-8c4c-eff01d48a146","ios":"levelo://app?vid=10b8da58-1f12-44b0-8c4c-eff01d48a146"},"vehicle_type_id":"4","last_reported":1737299320,"current_range_meters":27600,"station_id":"ce4bh112rcd13ifvqda0","pricing_plan_id":"cebpf4jnsgd1na2vs0mg"},{"bike_id":"883b4300-eabf-4773-a36b-6713c5944dc6","system_id":"levelo_inurba_marseille","lat":43.28457,"lon":5.35882,"is_reserved":false,"is_disabled":true,"rental_uris":{"android":"levelo://app?vid=883b4300-eabf-4773-a36b-6713c5944dc6","ios":"levelo://app?vid=883b4300-eabf-4773-a36b-6713c5944dc6"},"vehicle_type_id":"4","last_reported":1737299320,"current_range_meters":0,"station_id":"ce4bhah2rcd13ifvqei0","pricing_plan_id":"cebpf4jnsgd1na2vs0mg"},{"bike_id":"ca8aa51d-4833-4c77-8009-59b7c07323a3","system_id":"levelo_inurba_marseille","lat":43.32363,"lon":5.36616,"is_reserved":false,"is_disabled":false,"rental_uris":{"android":"levelo://app?vid=ca8aa51d-4833-4c77-8009-59b7c07323a3","ios":"levelo://app?vid=ca8aa51d-4833-4c77-8009-59b7c07323a3"},"vehicle_type_id":"4","last_reported":1737299320,"current_range_meters":36000,"station_id":"","pricing_plan_id":"cebpf4jnsgd1na2vs0mg"},{"bike_id":"7cf8d362-e03a-4ace-8ca7-3b3ee6ae7f49","system_id":"levelo_inurba_marseille","lat":43.28621,"lon":5.35104,"is_reserved":false,"is_disabled":false,"rental_uris":{"android":"levelo://app?vid=7cf8d362-e03a-4ace-8ca7-3b3ee6ae7f49","ios":"levelo://app?vid=7cf8d362-e03a-4ace-8ca7-3b3ee6ae7f49"},"vehicle_type_id":"4","last_reported":1737299320,"current_range_meters":25200,"station_id":"ce4bhch2rcd13ifvqeug","pricing_plan_id":"cebpf4jnsgd1na2vs0mg"},{"bike_id":"9dc49063-283d-43eb-bbfe-31fee7e70777","system_id":"levelo_inurba_marseille","lat":43.31166,"lon":5.36759,"is_reserved":false,"is_disabled":false,"rental_uris":{"android":"levelo://app?vid=9dc49063-283d-43eb-bbfe-31fee7e70777","ios":"levelo://app?vid=9dc49063-283d-43eb-bbfe-31fee7e70777"},"vehicle_type_id":"4","last_reported":1737299320,"current_range_meters":8400,"station_id":"ce4bgl92rcd13ifvqbq0","pricing_plan_id":"cebpf4jnsgd1na2vs0mg"},{"bike_id":"ce0ee56d-180c-40a7-8ee4-1ff6fa737784","system_id":"levelo_inurba_marseille","lat":43.29889,"lon":5.43619,"is_reserved":false,"is_disabled":false,"rental_uris":{"android":"levelo://app?vid=ce0ee56d-180c-40a7-8ee4-1ff6fa737784","ios":"levelo://app?vid=ce0ee56d-180c-40a7-8ee4-1ff6fa737784"},"vehicle_type_id":"4","last_reported":1737299320,"current_range_meters":38800,"station_id":"ce4bhpp2rcd13ifvqhfg","pricing_plan_id":"cebpf4jnsgd1na2vs0mg"},{"bike_id":"31594448-3991-4da2-ae77-d07fb1dfd979","system_id":"levelo_inurba_marseille","lat":43.271833,"lon":5.39142,"is_reserved":false,"is_disabled":false,"rental_uris":{"android":"levelo://app?vid=31594448-3991-4da2-ae77-d07fb1dfd979","ios":"levelo://app?vid=31594448-3991-4da2-ae77-d07fb1dfd979"},"vehicle_type_id":"4","last_reported":1737299320,"current_range_meters":8800,"station_id":"ce4bhhp2rcd13ifvqfm0","pricing_plan_id":"cebpf4jnsgd1na2vs0mg"},{"bike_id":"57d9fa47-e597-4ea4-913f-9b45079bd718","system_id":"levelo_inurba_marseille","lat":43.32998,"lon":5.3903,"is_reserved":false,"is_disabled":false,"rental_uris":{"android":"levelo://app?vid=57d9fa47-e597-4ea4-913f-9b45079bd718","ios":"levelo://app?vid=57d9fa47-e597-4ea4-913f-9b45079bd718"},"vehicle_type_id":"4","last_reported":1737299320,"current_range_meters":12800,"station_id":"ce4bhr92rcd13ifvqhrg","pricing_plan_id":"cebpf4jnsgd1na2vs0mg"},{"bike_id":"0db2f510-58a2-41b8-aa33-eb423aa60ca6","system_id":"levelo_inurba_marseille","lat":43.27319,"lon":5.39085,"is_reserved":false,"is_disabled":true,"rental_uris":{"android":"levelo://app?vid=0db2f510-58a2-41b8-aa33-eb423aa60ca6","ios":"levelo://app?vid=0db2f510-58a2-41b8-aa33-eb423aa60ca6"},"vehicle_type_id":"4","last_reported":1737299320,"current_range_meters":1200,"station_id":"ce4bhgp2rcd13ifvqfe0","pricing_plan_id":"cebpf4jnsgd1na2vs0mg"},{"bike_id":"4ec76aa8-1e80-4051-b2ea-1baaf50a61e8","system_id":"levelo_inurba_marseille","lat":43.24133,"lon":5.38107,"is_reserved":false,"is_disabled":false,"rental_uris":{"android":"levelo://app?vid=4ec76aa8-1e80-4051-b2ea-1baaf50a61e8","ios":"levelo://app?vid=4ec76aa8-1e80-4051-b2ea-1baaf50a61e8"},"vehicle_type_id":"4","last_reported":1737299320,"current_range_meters":17200,"station_id":"","pricing_plan_id":"cebpf4jnsgd1na2vs0mg"},{"bike_id":"4ec9fdc2-5627-42c9-a6b3-dc33226c076b","system_id":"levelo_inurba_marseille","lat":43.26222,"lon":5.37452,"is_reserved":false,"is_disabled":true,"rental_uris":{"android":"levelo://app?vid=4ec9fdc2-5627-42c9-a6b3-dc33226c076b","ios":"levelo://app?vid=4ec9fdc2-5627-42c9-a6b3-dc33226c076b"},"vehicle_type_id":"4","last_reported":1737299320,"current_range_meters":400,"station_id":"ce4bhgp2rcd13ifvqfc0","pricing_plan_id":"cebpf4jnsgd1na2vs0mg"},{"bike_id":"bd00f222-ce0c-4f81-a68c-0edabc3e5f6b","system_id":"levelo_inurba_marseille","lat":43.25099,"lon":5.39505,"is_reserved":false,"is_disabled":false,"rental_uris":{"android":"levelo://app?vid=bd00f222-ce0c-4f81-a68c-0edabc3e5f6b","ios":"levelo://app?vid=bd00f222-ce0c-4f81-a68c-0edabc3e5f6b"},"vehicle_type_id":"4","last_reported":1737299320,"current_range_meters":36800,"station_id":"ce4bhm12rcd13ifvqgkg","pricing_plan_id":"cebpf4jnsgd1na2vs0mg"},{"bike_id":"504e7a73-a8fc-4188-a6b2-d41c3f38478c","system_id":"levelo_inurba_marseille","lat":43.30549,"lon":5.36526,"is_reserved":false,"is_disabled":false,"rental_uris":{"android":"levelo://app?vid=504e7a73-a8fc-4188-a6b2-d41c3f38478c","ios":"levelo://app?vid=504e7a73-a8fc-4188-a6b2-d41c3f38478c"},"vehicle_type_id":"4","last_reported":1737299320,"current_range_meters":36000,"station_id":"ce4bgs12rcd13ifvqcag","pricing_plan_id":"cebpf4jnsgd1na2vs0mg"},{"bike_id":"d400821d-12fc-4b92-a929-07e330bc24b2","system_id":"levelo_inurba_marseille","lat":43.2292,"lon":5.35283,"is_reserved":false,"is_disabled":false,"rental_uris":{"android":"levelo://app?vid=d400821d-12fc-4b92-a929-07e330bc24b2","ios":"levelo://app?vid=d400821d-12fc-4b92-a929-07e330bc24b2"},"vehicle_type_id":"4","last_reported":1737299320,"current_range_meters":38800,"station_id":"cpo3532slgdg3j2ikp40","pricing_plan_id":"cebpf4jnsgd1na2vs0mg"},{"bike_id":"b14c698e-ccbd-4931-a1a4-89ecd1354a05","system_id":"levelo_inurba_marseille","lat":43.27432,"lon":5.3942,"is_reserved":false,"is_disabled":true,"rental_uris":{"android":"levelo://app?vid=b14c698e-ccbd-4931-a1a4-89ecd1354a05","ios":"levelo://app?vid=b14c698e-ccbd-4931-a1a4-89ecd1354a05"},"vehicle_type_id":"4","last_reported":1737299320,"current_range_meters":2000,"station_id":"ce4bhdp2rcd13ifvqf20","pricing_plan_id":"cebpf4jnsgd1na2vs0mg"},{"bike_id":"4104cbba-088f-4383-b2a0-261d17699731","system_id":"levelo_inurba_marseille","lat":43.23964,"lon":5.36638,"is_reserved":false,"is_disabled":false,"rental_uris":{"android":"levelo://app?vid=4104cbba-088f-4383-b2a0-261d17699731","ios":"levelo://app?vid=4104cbba-088f-4383-b2a0-261d17699731"},"vehicle_type_id":"4","last_reported":1737299320,"current_range_meters":36400,"station_id":"ce4bhi12rcd13ifvqfp0","pricing_plan_id":"cebpf4jnsgd1na2vs0mg"},{"bike_id":"85a0fe70-a6ed-43c2-bc01-d0ee99bbe486","system_id":"levelo_inurba_marseille","lat":43.31323,"lon":5.36841,"is_reserved":false,"is_disabled":false,"rental_uris":{"android":"levelo://app?vid=85a0fe70-a6ed-43c2-bc01-d0ee99bbe486","ios":"levelo://app?vid=85a0fe70-a6ed-43c2-bc01-d0ee99bbe486"},"vehicle_type_id":"4","last_reported":1737299320,"current_range_meters":19200,"station_id":"ce4bgl92rcd13ifvqbq0","pricing_plan_id":"cebpf4jnsgd1na2vs0mg"},{"bike_id":"fa3ae047-f405-4f0c-8e0e-dbbd46305ff7","system_id":"levelo_inurba_marseille","lat":43.27572,"lon":5.38416,"is_reserved":false,"is_disabled":false,"rental_uris":{"android":"levelo://app?vid=fa3ae047-f405-4f0c-8e0e-dbbd46305ff7","ios":"levelo://app?vid=fa3ae047-f405-4f0c-8e0e-dbbd46305ff7"},"vehicle_type_id":"4","last_reported":1737299320,"current_range_meters":30400,"station_id":"ce4bhh92rcd13ifvqfi0","pricing_plan_id":"cebpf4jnsgd1na2vs0mg"},{"bike_id":"13dbe4ba-4eb4-40c6-b0ae-3a56cf4ba7eb","system_id":"levelo_inurba_marseille","lat":43.31157,"lon":5.37682,"is_reserved":false,"is_disabled":true,"rental_uris":{"android":"levelo://app?vid=13dbe4ba-4eb4-40c6-b0ae-3a56cf4ba7eb","ios":"levelo://app?vid=13dbe4ba-4eb4-40c6-b0ae-3a56cf4ba7eb"},"vehicle_type_id":"4","last_reported":1737299320,"current_range_meters":1200,"station_id":"","pricing_plan_id":"cebpf4jnsgd1na2vs0mg"},{"bike_id":"4eab8b95-e725-4774-9c70-d2be6401d290","system_id":"levelo_inurba_marseille","lat":43.32486,"lon":5.36557,"is_reserved":false,"is_disabled":false,"rental_uris":{"android":"levelo://app?vid=4eab8b95-e725-4774-9c70-d2be6401d290","ios":"levelo://app?vid=4eab8b95-e725-4774-9c70-d2be6401d290"},"vehicle_type_id":"4","last_reported":1737299320,"current_range_meters":36800,"station_id":"ce4bhs12rcd13ifvqhvg","pricing_plan_id":"cebpf4jnsgd1na2vs0mg"},{"bike_id":"28ef1c1e-dd89-43e8-817b-9b489831397b","system_id":"levelo_inurba_marseille","lat":43.27096,"lon":5.39622,"is_reserved":false,"is_disabled":true,"rental_uris":{"android":"levelo://app?vid=28ef1c1e-dd89-43e8-817b-9b489831397b","ios":"levelo://app?vid=28ef1c1e-dd89-43e8-817b-9b489831397b"},"vehicle_type_id":"4","last_reported":1737299320,"current_range_meters":0,"station_id":"","pricing_plan_id":"cebpf4jnsgd1na2vs0mg"},{"bike_id":"a090d58d-a1fb-4921-bd15-f1d1e2db9ea4","system_id":"levelo_inurba_marseille","lat":43.2417,"lon":5.39735,"is_reserved":false,"is_disabled":false,"rental_uris":{"android":"levelo://app?vid=a090d58d-a1fb-4921-bd15-f1d1e2db9ea4","ios":"levelo://app?vid=a090d58d-a1fb-4921-bd15-f1d1e2db9ea4"},"vehicle_type_id":"4","last_reported":1737299320,"current_range_meters":30000,"station_id":"ce4bhn12rcd13ifvqgpg","pricing_plan_id":"cebpf4jnsgd1na2vs0mg"},{"bike_id":"476f3ebf-f569-4f5f-b112-18e7ef0d56ed","system_id":"levelo_inurba_marseille","lat":43.23968,"lon":5.36636,"is_reserved":false,"is_disabled":false,"rental_uris":{"android":"levelo://app?vid=476f3ebf-f569-4f5f-b112-18e7ef0d56ed","ios":"levelo://app?vid=476f3ebf-f569-4f5f-b112-18e7ef0d56ed"},"vehicle_type_id":"4","last_reported":1737299320,"current_range_meters":3600,"station_id":"ce4bhi12rcd13ifvqfp0","pricing_plan_id":"cebpf4jnsgd1na2vs0mg"},{"bike_id":"e6e65651-1612-4602-903b-5c8adb1b9fff","system_id":"levelo_inurba_marseille","lat":43.29291,"lon":5.37464,"is_reserved":false,"is_disabled":false,"rental_uris":{"android":"levelo://app?vid=e6e65651-1612-4602-903b-5c8adb1b9fff","ios":"levelo://app?vid=e6e65651-1612-4602-903b-5c8adb1b9fff"},"vehicle_type_id":"4","last_reported":1737299320,"current_range_meters":17200,"station_id":"ce4bgi12rcd13ifvqb70","pricing_plan_id":"cebpf4jnsgd1na2vs0mg"},{"bike_id":"c77de84a-305d-47e5-b81a-44313d3b8aa9","system_id":"levelo_inurba_marseille","lat":43.25872,"lon":5.39901,"is_reserved":false,"is_disabled":false,"rental_uris":{"android":"levelo://app?vid=c77de84a-305d-47e5-b81a-44313d3b8aa9","ios":"levelo://app?vid=c77de84a-305d-47e5-b81a-44313d3b8aa9"},"vehicle_type_id":"4","last_reported":1737299320,"current_range_meters":36400,"station_id":"ce4bhl92rcd13ifvqghg","pricing_plan_id":"cebpf4jnsgd1na2vs0mg"},{"bike_id":"357eaeda-fef2-41f2-9ad0-621ae2cc5c09","system_id":"levelo_inurba_marseille","lat":43.33753,"lon":5.37518,"is_reserved":false,"is_disabled":false,"rental_uris":{"android":"levelo://app?vid=357eaeda-fef2-41f2-9ad0-621ae2cc5c09","ios":"levelo://app?vid=357eaeda-fef2-41f2-9ad0-621ae2cc5c09"},"vehicle_type_id":"4","last_reported":1737299320,"current_range_meters":32400,"station_id":"","pricing_plan_id":"cebpf4jnsgd1na2vs0mg"},{"bike_id":"4e12690a-afcc-42a3-add2-5edb16920b78","system_id":"levelo_inurba_marseille","lat":43.25579,"lon":5.38225,"is_reserved":false,"is_disabled":false,"rental_uris":{"android":"levelo://app?vid=4e12690a-afcc-42a3-add2-5edb16920b78","ios":"levelo://app?vid=4e12690a-afcc-42a3-add2-5edb16920b78"},"vehicle_type_id":"4","last_reported":1737299320,"current_range_meters":8000,"station_id":"ce4bhih2rcd13ifvqfs0","pricing_plan_id":"cebpf4jnsgd1na2vs0mg"},{"bike_id":"1170cea2-ca98-4a5c-bb9f-0a426e3cf9c9","system_id":"levelo_inurba_marseille","lat":43.28641,"lon":5.35102,"is_reserved":false,"is_disabled":false,"rental_uris":{"android":"levelo://app?vid=1170cea2-ca98-4a5c-bb9f-0a426e3cf9c9","ios":"levelo://app?vid=1170cea2-ca98-4a5c-bb9f-0a426e3cf9c9"},"vehicle_type_id":"4","last_reported":1737299320,"current_range_meters":35200,"station_id":"ce4bhch2rcd13ifvqeug","pricing_plan_id":"cebpf4jnsgd1na2vs0mg"},{"bike_id":"1344dc22-483e-4ca0-ab0d-d28ae3a04538","system_id":"levelo_inurba_marseille","lat":43.24663,"lon":5.3816,"is_reserved":false,"is_disabled":false,"rental_uris":{"android":"levelo://app?vid=1344dc22-483e-4ca0-ab0d-d28ae3a04538","ios":"levelo://app?vid=1344dc22-483e-4ca0-ab0d-d28ae3a04538"},"vehicle_type_id":"4","last_reported":1737299320,"current_range_meters":25600,"station_id":"ce4bhih2rcd13ifvqfr0","pricing_plan_id":"cebpf4jnsgd1na2vs0mg"},{"bike_id":"5ebc0e23-f2f4-4cc0-bd89-a31a0285ee53","system_id":"levelo_inurba_marseille","lat":43.317086,"lon":5.437021,"is_reserved":false,"is_disabled":false,"rental_uris":{"android":"levelo://app?vid=5ebc0e23-f2f4-4cc0-bd89-a31a0285ee53","ios":"levelo://app?vid=5ebc0e23-f2f4-4cc0-bd89-a31a0285ee53"},"vehicle_type_id":"4","last_reported":1737299320,"current_range_meters":38800,"station_id":"ce4bhp92rcd13ifvqhcg","pricing_plan_id":"cebpf4jnsgd1na2vs0mg"},{"bike_id":"e2481d2d-ec3c-436f-9eeb-094327789afd","system_id":"levelo_inurba_marseille","lat":43.29708,"lon":5.42342,"is_reserved":false,"is_disabled":false,"rental_uris":{"android":"levelo://app?vid=e2481d2d-ec3c-436f-9eeb-094327789afd","ios":"levelo://app?vid=e2481d2d-ec3c-436f-9eeb-094327789afd"},"vehicle_type_id":"4","last_reported":1737299320,"current_range_meters":8800,"station_id":"","pricing_plan_id":"cebpf4jnsgd1na2vs0mg"},{"bike_id":"406cf7e1-dd3a-472a-896f-d09b14680f3c","system_id":"levelo_inurba_marseille","lat":43.26066,"lon":5.3941,"is_reserved":false,"is_disabled":false,"rental_uris":{"android":"levelo://app?vid=406cf7e1-dd3a-472a-896f-d09b14680f3c","ios":"levelo://app?vid=406cf7e1-dd3a-472a-896f-d09b14680f3c"},"vehicle_type_id":"4","last_reported":1737299320,"current_range_meters":25600,"station_id":"ce4bhh92rcd13ifvqfj0","pricing_plan_id":"cebpf4jnsgd1na2vs0mg"},{"bike_id":"01a07bd9-36a1-4c19-a88b-7c9e3a6ee490","system_id":"levelo_inurba_marseille","lat":43.25086,"lon":5.3951,"is_reserved":false,"is_disabled":false,"rental_uris":{"android":"levelo://app?vid=01a07bd9-36a1-4c19-a88b-7c9e3a6ee490","ios":"levelo://app?vid=01a07bd9-36a1-4c19-a88b-7c9e3a6ee490"},"vehicle_type_id":"4","last_reported":1737299320,"current_range_meters":32800,"station_id":"ce4bhm12rcd13ifvqgkg","pricing_plan_id":"cebpf4jnsgd1na2vs0mg"},{"bike_id":"d69035b1-a171-4084-bf57-048f664a2d05","system_id":"levelo_inurba_marseille","lat":43.26026,"lon":5.37561,"is_reserved":false,"is_disabled":false,"rental_uris":{"android":"levelo://app?vid=d69035b1-a171-4084-bf57-048f664a2d05","ios":"levelo://app?vid=d69035b1-a171-4084-bf57-048f664a2d05"},"vehicle_type_id":"4","last_reported":1737299320,"current_range_meters":38800,"station_id":"ce4bhgh2rcd13ifvqfa0","pricing_plan_id":"cebpf4jnsgd1na2vs0mg"},{"bike_id":"d751e749-afcd-4240-9c1e-54752c62ac8f","system_id":"levelo_inurba_marseille","lat":43.27489,"lon":5.42454,"is_reserved":false,"is_disabled":true,"rental_uris":{"android":"levelo://app?vid=d751e749-afcd-4240-9c1e-54752c62ac8f","ios":"levelo://app?vid=d751e749-afcd-4240-9c1e-54752c62ac8f"},"vehicle_type_id":"4","last_reported":1737299320,"current_range_meters":38800,"station_id":"ce4bhn92rcd13ifvqgrg","pricing_plan_id":"cebpf4jnsgd1na2vs0mg"},{"bike_id":"3ef515de-7597-4522-bc38-820c674df87d","system_id":"levelo_inurba_marseille","lat":43.26558,"lon":5.37291,"is_reserved":false,"is_disabled":false,"rental_uris":{"android":"levelo://app?vid=3ef515de-7597-4522-bc38-820c674df87d","ios":"levelo://app?vid=3ef515de-7597-4522-bc38-820c674df87d"},"vehicle_type_id":"4","last_reported":1737299320,"current_range_meters":14800,"station_id":"ce4bhg12rcd13ifvqf70","pricing_plan_id":"cebpf4jnsgd1na2vs0mg"},{"bike_id":"da3d9eff-47bd-483c-b02e-dba6542f0787","system_id":"levelo_inurba_marseille","lat":43.28488,"lon":5.38417,"is_reserved":false,"is_disabled":false,"rental_uris":{"android":"levelo://app?vid=da3d9eff-47bd-483c-b02e-dba6542f0787","ios":"levelo://app?vid=da3d9eff-47bd-483c-b02e-dba6542f0787"},"vehicle_type_id":"4","last_reported":1737299320,"current_range_meters":25600,"station_id":"ce4bh512rcd13ifvqe3g","pricing_plan_id":"cebpf4jnsgd1na2vs0mg"},{"bike_id":"524072f1-ace1-43cc-8007-f91dc732b1f7","system_id":"levelo_inurba_marseille","lat":43.25084,"lon":5.39513,"is_reserved":false,"is_disabled":false,"rental_uris":{"android":"levelo://app?vid=524072f1-ace1-43cc-8007-f91dc732b1f7","ios":"levelo://app?vid=524072f1-ace1-43cc-8007-f91dc732b1f7"},"vehicle_type_id":"4","last_reported":1737299320,"current_range_meters":30800,"station_id":"ce4bhm12rcd13ifvqgkg","pricing_plan_id":"cebpf4jnsgd1na2vs0mg"},{"bike_id":"c42268c0-a5e0-42b8-b874-93ef21576df8","system_id":"levelo_inurba_marseille","lat":43.28156,"lon":5.42649,"is_reserved":false,"is_disabled":false,"rental_uris":{"android":"levelo://app?vid=c42268c0-a5e0-42b8-b874-93ef21576df8","ios":"levelo://app?vid=c42268c0-a5e0-42b8-b874-93ef21576df8"},"vehicle_type_id":"4","last_reported":1737299320,"current_range_meters":27600,"station_id":"ce4bhnh2rcd13ifvqgug","pricing_plan_id":"cebpf4jnsgd1na2vs0mg"},{"bike_id":"953004a1-b0e2-484c-b132-73d0e0c8adc6","system_id":"levelo_inurba_marseille","lat":43.24657,"lon":5.38167,"is_reserved":false,"is_disabled":false,"rental_uris":{"android":"levelo://app?vid=953004a1-b0e2-484c-b132-73d0e0c8adc6","ios":"levelo://app?vid=953004a1-b0e2-484c-b132-73d0e0c8adc6"},"vehicle_type_id":"4","last_reported":1737299320,"current_range_meters":35200,"station_id":"ce4bhih2rcd13ifvqfr0","pricing_plan_id":"cebpf4jnsgd1na2vs0mg"},{"bike_id":"67921f34-cd4c-473d-8ab6-dce80fb487d5","system_id":"levelo_inurba_marseille","lat":43.24075,"lon":5.37759,"is_reserved":false,"is_disabled":false,"rental_uris":{"android":"levelo://app?vid=67921f34-cd4c-473d-8ab6-dce80fb487d5","ios":"levelo://app?vid=67921f34-cd4c-473d-8ab6-dce80fb487d5"},"vehicle_type_id":"4","last_reported":1737299320,"current_range_meters":19600,"station_id":"ce4bhnp2rcd13ifvqgvg","pricing_plan_id":"cebpf4jnsgd1na2vs0mg"},{"bike_id":"392d5c13-52e3-4447-bb35-77b670143dc4","system_id":"levelo_inurba_marseille","lat":43.2396,"lon":5.36624,"is_reserved":false,"is_disabled":false,"rental_uris":{"android":"levelo://app?vid=392d5c13-52e3-4447-bb35-77b670143dc4","ios":"levelo://app?vid=392d5c13-52e3-4447-bb35-77b670143dc4"},"vehicle_type_id":"4","last_reported":1737299320,"current_range_meters":32800,"station_id":"ce4bhi12rcd13ifvqfp0","pricing_plan_id":"cebpf4jnsgd1na2vs0mg"},{"bike_id":"b2cda95e-1da3-4888-9bcc-3320c5872924","system_id":"levelo_inurba_marseille","lat":43.29245,"lon":5.40898,"is_reserved":false,"is_disabled":false,"rental_uris":{"android":"levelo://app?vid=b2cda95e-1da3-4888-9bcc-3320c5872924","ios":"levelo://app?vid=b2cda95e-1da3-4888-9bcc-3320c5872924"},"vehicle_type_id":"4","last_reported":1737299320,"current_range_meters":38400,"station_id":"ce4bh192rcd13ifvqdc0","pricing_plan_id":"cebpf4jnsgd1na2vs0mg"},{"bike_id":"4291632b-b89c-4c47-8e03-1ac2c74e4815","system_id":"levelo_inurba_marseille","lat":43.24188,"lon":5.39703,"is_reserved":false,"is_disabled":false,"rental_uris":{"android":"levelo://app?vid=4291632b-b89c-4c47-8e03-1ac2c74e4815","ios":"levelo://app?vid=4291632b-b89c-4c47-8e03-1ac2c74e4815"},"vehicle_type_id":"4","last_reported":1737299320,"current_range_meters":37600,"station_id":"ce4bhn12rcd13ifvqgpg","pricing_plan_id":"cebpf4jnsgd1na2vs0mg"},{"bike_id":"afb9f5f2-aac5-43f9-a0fc-ac20cc9ed17f","system_id":"levelo_inurba_marseille","lat":43.26211,"lon":5.37453,"is_reserved":false,"is_disabled":true,"rental_uris":{"android":"levelo://app?vid=afb9f5f2-aac5-43f9-a0fc-ac20cc9ed17f","ios":"levelo://app?vid=afb9f5f2-aac5-43f9-a0fc-ac20cc9ed17f"},"vehicle_type_id":"4","last_reported":1737299320,"current_range_meters":1600,"station_id":"ce4bhgp2rcd13ifvqfc0","pricing_plan_id":"cebpf4jnsgd1na2vs0mg"},{"bike_id":"cb023393-3cf4-4a90-91bf-27968d7b6e27","system_id":"levelo_inurba_marseille","lat":43.2481,"lon":5.37453,"is_reserved":false,"is_disabled":true,"rental_uris":{"android":"levelo://app?vid=cb023393-3cf4-4a90-91bf-27968d7b6e27","ios":"levelo://app?vid=cb023393-3cf4-4a90-91bf-27968d7b6e27"},"vehicle_type_id":"4","last_reported":1737299320,"current_range_meters":0,"station_id":"ce4bhgh2rcd13ifvqfb0","pricing_plan_id":"cebpf4jnsgd1na2vs0mg"},{"bike_id":"8e7b76ca-5077-464a-84f9-764ce4ba6856","system_id":"levelo_inurba_marseille","lat":43.29624,"lon":5.37156,"is_reserved":false,"is_disabled":false,"rental_uris":{"android":"levelo://app?vid=8e7b76ca-5077-464a-84f9-764ce4ba6856","ios":"levelo://app?vid=8e7b76ca-5077-464a-84f9-764ce4ba6856"},"vehicle_type_id":"4","last_reported":1737299320,"current_range_meters":28000,"station_id":"ce4bgnh2rcd13ifvqc0g","pricing_plan_id":"cebpf4jnsgd1na2vs0mg"},{"bike_id":"1e0d1457-bf03-47d3-b226-8b5c7421ade9","system_id":"levelo_inurba_marseille","lat":43.28646,"lon":5.351,"is_reserved":false,"is_disabled":false,"rental_uris":{"android":"levelo://app?vid=1e0d1457-bf03-47d3-b226-8b5c7421ade9","ios":"levelo://app?vid=1e0d1457-bf03-47d3-b226-8b5c7421ade9"},"vehicle_type_id":"4","last_reported":1737299320,"current_range_meters":16800,"station_id":"ce4bhch2rcd13ifvqeug","pricing_plan_id":"cebpf4jnsgd1na2vs0mg"},{"bike_id":"13d3fd97-e21c-4164-8b58-6e6c0cfe1ec1","system_id":"levelo_inurba_marseille","lat":43.28033,"lon":5.36935,"is_reserved":false,"is_disabled":false,"rental_uris":{"android":"levelo://app?vid=13d3fd97-e21c-4164-8b58-6e6c0cfe1ec1","ios":"levelo://app?vid=13d3fd97-e21c-4164-8b58-6e6c0cfe1ec1"},"vehicle_type_id":"4","last_reported":1737299320,"current_range_meters":38800,"station_id":"ce4bha12rcd13ifvqef0","pricing_plan_id":"cebpf4jnsgd1na2vs0mg"},{"bike_id":"9f0f5b74-d025-4783-ac4b-b3badfd4a2e8","system_id":"levelo_inurba_marseille","lat":43.25831,"lon":5.39412,"is_reserved":false,"is_disabled":false,"rental_uris":{"android":"levelo://app?vid=9f0f5b74-d025-4783-ac4b-b3badfd4a2e8","ios":"levelo://app?vid=9f0f5b74-d025-4783-ac4b-b3badfd4a2e8"},"vehicle_type_id":"4","last_reported":1737299320,"current_range_meters":28000,"station_id":"ce4bhip2rcd13ifvqft0","pricing_plan_id":"cebpf4jnsgd1na2vs0mg"},{"bike_id":"fde07481-a822-434d-bf40-4bac389dbab8","system_id":"levelo_inurba_marseille","lat":43.31718,"lon":5.42392,"is_reserved":false,"is_disabled":false,"rental_uris":{"android":"levelo://app?vid=fde07481-a822-434d-bf40-4bac389dbab8","ios":"levelo://app?vid=fde07481-a822-434d-bf40-4bac389dbab8"},"vehicle_type_id":"4","last_reported":1737299320,"current_range_meters":6400,"station_id":"ce4bhp92rcd13ifvqhbg","pricing_plan_id":"cebpf4jnsgd1na2vs0mg"},{"bike_id":"f4a4a406-b0a5-42fc-9236-32e93ac6f6b2","system_id":"levelo_inurba_marseille","lat":43.23153,"lon":5.43684,"is_reserved":false,"is_disabled":true,"rental_uris":{"android":"levelo://app?vid=f4a4a406-b0a5-42fc-9236-32e93ac6f6b2","ios":"levelo://app?vid=f4a4a406-b0a5-42fc-9236-32e93ac6f6b2"},"vehicle_type_id":"4","last_reported":1737299320,"current_range_meters":25600,"station_id":"ce4bhmp2rcd13ifvqgog","pricing_plan_id":"cebpf4jnsgd1na2vs0mg"},{"bike_id":"210ffe2d-27bf-471a-a897-ba0eb55d9e2b","system_id":"levelo_inurba_marseille","lat":43.27064,"lon":5.42279,"is_reserved":false,"is_disabled":false,"rental_uris":{"android":"levelo://app?vid=210ffe2d-27bf-471a-a897-ba0eb55d9e2b","ios":"levelo://app?vid=210ffe2d-27bf-471a-a897-ba0eb55d9e2b"},"vehicle_type_id":"4","last_reported":1737299320,"current_range_meters":34800,"station_id":"ce4bhk92rcd13ifvqgb0","pricing_plan_id":"cebpf4jnsgd1na2vs0mg"},{"bike_id":"77afa3e5-07c1-426e-a737-14cdd18f786e","system_id":"levelo_inurba_marseille","lat":43.27972,"lon":5.38724,"is_reserved":false,"is_disabled":false,"rental_uris":{"android":"levelo://app?vid=77afa3e5-07c1-426e-a737-14cdd18f786e","ios":"levelo://app?vid=77afa3e5-07c1-426e-a737-14cdd18f786e"},"vehicle_type_id":"4","last_reported":1737299320,"current_range_meters":24800,"station_id":"ce4bhg12rcd13ifvqf80","pricing_plan_id":"cebpf4jnsgd1na2vs0mg"},{"bike_id":"e16bfad3-6e5c-42b6-90cd-e77c51d0ba6a","system_id":"levelo_inurba_marseille","lat":43.29917,"lon":5.38142,"is_reserved":false,"is_disabled":true,"rental_uris":{"android":"levelo://app?vid=e16bfad3-6e5c-42b6-90cd-e77c51d0ba6a","ios":"levelo://app?vid=e16bfad3-6e5c-42b6-90cd-e77c51d0ba6a"},"vehicle_type_id":"4","last_reported":1737299320,"current_range_meters":19200,"station_id":"ce4bgj12rcd13ifvqbc0","pricing_plan_id":"cebpf4jnsgd1na2vs0mg"},{"bike_id":"229371dd-a578-49ee-b773-95b0e91a0bdc","system_id":"levelo_inurba_marseille","lat":43.29783,"lon":5.3935,"is_reserved":false,"is_disabled":true,"rental_uris":{"android":"levelo://app?vid=229371dd-a578-49ee-b773-95b0e91a0bdc","ios":"levelo://app?vid=229371dd-a578-49ee-b773-95b0e91a0bdc"},"vehicle_type_id":"4","last_reported":1737299320,"current_range_meters":800,"station_id":"ce4bgop2rcd13ifvqc1g","pricing_plan_id":"cebpf4jnsgd1na2vs0mg"},{"bike_id":"437717c2-d3d4-444c-a98b-13cb78c76396","system_id":"levelo_inurba_marseille","lat":43.29835,"lon":5.36268,"is_reserved":false,"is_disabled":false,"rental_uris":{"android":"levelo://app?vid=437717c2-d3d4-444c-a98b-13cb78c76396","ios":"levelo://app?vid=437717c2-d3d4-444c-a98b-13cb78c76396"},"vehicle_type_id":"4","last_reported":1737299320,"current_range_meters":27600,"station_id":"ce4bgpp2rcd13ifvqc3g","pricing_plan_id":"cebpf4jnsgd1na2vs0mg"},{"bike_id":"fef06379-4dc4-4e96-8ff4-7c502d8e9f90","system_id":"levelo_inurba_marseille","lat":43.31723,"lon":5.42379,"is_reserved":false,"is_disabled":false,"rental_uris":{"android":"levelo://app?vid=fef06379-4dc4-4e96-8ff4-7c502d8e9f90","ios":"levelo://app?vid=fef06379-4dc4-4e96-8ff4-7c502d8e9f90"},"vehicle_type_id":"4","last_reported":1737299320,"current_range_meters":38000,"station_id":"ce4bhp92rcd13ifvqhbg","pricing_plan_id":"cebpf4jnsgd1na2vs0mg"},{"bike_id":"89a37bbc-77d1-46b4-ba4b-e8cf974d2b9f","system_id":"levelo_inurba_marseille","lat":43.32655,"lon":5.40993,"is_reserved":false,"is_disabled":false,"rental_uris":{"android":"levelo://app?vid=89a37bbc-77d1-46b4-ba4b-e8cf974d2b9f","ios":"levelo://app?vid=89a37bbc-77d1-46b4-ba4b-e8cf974d2b9f"},"vehicle_type_id":"4","last_reported":1737299320,"current_range_meters":30000,"station_id":"ce4bhpp2rcd13ifvqhgg","pricing_plan_id":"cebpf4jnsgd1na2vs0mg"},{"bike_id":"9b50c1a2-2f42-4212-88ca-8b130858955c","system_id":"levelo_inurba_marseille","lat":43.3054,"lon":5.36556,"is_reserved":false,"is_disabled":false,"rental_uris":{"android":"levelo://app?vid=9b50c1a2-2f42-4212-88ca-8b130858955c","ios":"levelo://app?vid=9b50c1a2-2f42-4212-88ca-8b130858955c"},"vehicle_type_id":"4","last_reported":1737299320,"current_range_meters":38800,"station_id":"ce4bgs12rcd13ifvqcag","pricing_plan_id":"cebpf4jnsgd1na2vs0mg"},{"bike_id":"d824fba2-5352-44fe-9a69-1e84a3f873a5","system_id":"levelo_inurba_marseille","lat":43.30549,"lon":5.36557,"is_reserved":false,"is_disabled":false,"rental_uris":{"android":"levelo://app?vid=d824fba2-5352-44fe-9a69-1e84a3f873a5","ios":"levelo://app?vid=d824fba2-5352-44fe-9a69-1e84a3f873a5"},"vehicle_type_id":"4","last_reported":1737299320,"current_range_meters":28000,"station_id":"ce4bgs12rcd13ifvqcag","pricing_plan_id":"cebpf4jnsgd1na2vs0mg"},{"bike_id":"83d34eec-88aa-49dd-90e3-ef18df846e25","system_id":"levelo_inurba_marseille","lat":43.26493,"lon":5.39536,"is_reserved":false,"is_disabled":false,"rental_uris":{"android":"levelo://app?vid=83d34eec-88aa-49dd-90e3-ef18df846e25","ios":"levelo://app?vid=83d34eec-88aa-49dd-90e3-ef18df846e25"},"vehicle_type_id":"4","last_reported":1737299320,"current_range_meters":14800,"station_id":"ce4bhi12rcd13ifvqfq0","pricing_plan_id":"cebpf4jnsgd1na2vs0mg"},{"bike_id":"10726754-67ea-4903-b79d-4e99d42279b1","system_id":"levelo_inurba_marseille","lat":43.26056,"lon":5.39396,"is_reserved":false,"is_disabled":false,"rental_uris":{"android":"levelo://app?vid=10726754-67ea-4903-b79d-4e99d42279b1","ios":"levelo://app?vid=10726754-67ea-4903-b79d-4e99d42279b1"},"vehicle_type_id":"4","last_reported":1737299320,"current_range_meters":16000,"station_id":"ce4bhh92rcd13ifvqfj0","pricing_plan_id":"cebpf4jnsgd1na2vs0mg"},{"bike_id":"234d1550-b7dd-465b-9578-32049a642f2b","system_id":"levelo_inurba_marseille","lat":43.2996,"lon":5.4135,"is_reserved":false,"is_disabled":false,"rental_uris":{"android":"levelo://app?vid=234d1550-b7dd-465b-9578-32049a642f2b","ios":"levelo://app?vid=234d1550-b7dd-465b-9578-32049a642f2b"},"vehicle_type_id":"4","last_reported":1737299320,"current_range_meters":35200,"station_id":"ce4bhp12rcd13ifvqh9g","pricing_plan_id":"cebpf4jnsgd1na2vs0mg"},{"bike_id":"e7f99d6c-f903-46b1-a712-b41efbe19fab","system_id":"levelo_inurba_marseille","lat":43.30561,"lon":5.36511,"is_reserved":false,"is_disabled":false,"rental_uris":{"android":"levelo://app?vid=e7f99d6c-f903-46b1-a712-b41efbe19fab","ios":"levelo://app?vid=e7f99d6c-f903-46b1-a712-b41efbe19fab"},"vehicle_type_id":"4","last_reported":1737299320,"current_range_meters":38800,"station_id":"ce4bgs12rcd13ifvqcag","pricing_plan_id":"cebpf4jnsgd1na2vs0mg"},{"bike_id":"72729c7c-484f-41b0-8926-1dfd8ab8e79e","system_id":"levelo_inurba_marseille","lat":43.28032,"lon":5.36937,"is_reserved":false,"is_disabled":false,"rental_uris":{"android":"levelo://app?vid=72729c7c-484f-41b0-8926-1dfd8ab8e79e","ios":"levelo://app?vid=72729c7c-484f-41b0-8926-1dfd8ab8e79e"},"vehicle_type_id":"4","last_reported":1737299320,"current_range_meters":38800,"station_id":"ce4bha12rcd13ifvqef0","pricing_plan_id":"cebpf4jnsgd1na2vs0mg"},{"bike_id":"8e61aa00-c95c-498a-a2b3-d2ae8bdd9531","system_id":"levelo_inurba_marseille","lat":43.28617,"lon":5.35101,"is_reserved":false,"is_disabled":false,"rental_uris":{"android":"levelo://app?vid=8e61aa00-c95c-498a-a2b3-d2ae8bdd9531","ios":"levelo://app?vid=8e61aa00-c95c-498a-a2b3-d2ae8bdd9531"},"vehicle_type_id":"4","last_reported":1737299320,"current_range_meters":38800,"station_id":"ce4bhch2rcd13ifvqeug","pricing_plan_id":"cebpf4jnsgd1na2vs0mg"},{"bike_id":"211d4214-766b-435b-8e63-06014855af64","system_id":"levelo_inurba_marseille","lat":43.29564,"lon":5.42264,"is_reserved":false,"is_disabled":false,"rental_uris":{"android":"levelo://app?vid=211d4214-766b-435b-8e63-06014855af64","ios":"levelo://app?vid=211d4214-766b-435b-8e63-06014855af64"},"vehicle_type_id":"4","last_reported":1737299320,"current_range_meters":28000,"station_id":"ce4bhph2rcd13ifvqhdg","pricing_plan_id":"cebpf4jnsgd1na2vs0mg"},{"bike_id":"8d29c7a0-7075-4190-9261-5ec39729a285","system_id":"levelo_inurba_marseille","lat":43.29597,"lon":5.38098,"is_reserved":false,"is_disabled":false,"rental_uris":{"android":"levelo://app?vid=8d29c7a0-7075-4190-9261-5ec39729a285","ios":"levelo://app?vid=8d29c7a0-7075-4190-9261-5ec39729a285"},"vehicle_type_id":"4","last_reported":1737299320,"current_range_meters":32800,"station_id":"ce4bgl12rcd13ifvqbo0","pricing_plan_id":"cebpf4jnsgd1na2vs0mg"},{"bike_id":"529dc2a7-7a3f-459d-9839-46273633cc3a","system_id":"levelo_inurba_marseille","lat":43.27498,"lon":5.42464,"is_reserved":false,"is_disabled":false,"rental_uris":{"android":"levelo://app?vid=529dc2a7-7a3f-459d-9839-46273633cc3a","ios":"levelo://app?vid=529dc2a7-7a3f-459d-9839-46273633cc3a"},"vehicle_type_id":"4","last_reported":1737299320,"current_range_meters":24400,"station_id":"ce4bhn92rcd13ifvqgrg","pricing_plan_id":"cebpf4jnsgd1na2vs0mg"},{"bike_id":"a2e709f9-6f94-4c83-b323-d7d411dcacbe","system_id":"levelo_inurba_marseille","lat":43.26797,"lon":5.39401,"is_reserved":false,"is_disabled":true,"rental_uris":{"android":"levelo://app?vid=a2e709f9-6f94-4c83-b323-d7d411dcacbe","ios":"levelo://app?vid=a2e709f9-6f94-4c83-b323-d7d411dcacbe"},"vehicle_type_id":"4","last_reported":1737299320,"current_range_meters":1600,"station_id":"ce4bhh12rcd13ifvqfg0","pricing_plan_id":"cebpf4jnsgd1na2vs0mg"},{"bike_id":"56b8e9bc-f750-4815-bc98-9098414d16db","system_id":"levelo_inurba_marseille","lat":43.23199,"lon":5.35546,"is_reserved":false,"is_disabled":true,"rental_uris":{"android":"levelo://app?vid=56b8e9bc-f750-4815-bc98-9098414d16db","ios":"levelo://app?vid=56b8e9bc-f750-4815-bc98-9098414d16db"},"vehicle_type_id":"4","last_reported":1737299320,"current_range_meters":0,"station_id":"ce4bhu92rcd13ifvqi70","pricing_plan_id":"cebpf4jnsgd1na2vs0mg"},{"bike_id":"0e91b70c-1e42-4d65-a90a-72cbd40954b0","system_id":"levelo_inurba_marseille","lat":43.323628,"lon":5.367553,"is_reserved":false,"is_disabled":false,"rental_uris":{"android":"levelo://app?vid=0e91b70c-1e42-4d65-a90a-72cbd40954b0","ios":"levelo://app?vid=0e91b70c-1e42-4d65-a90a-72cbd40954b0"},"vehicle_type_id":"4","last_reported":1737299320,"current_range_meters":8000,"station_id":"ce4bhsh2rcd13ifvqi2g","pricing_plan_id":"cebpf4jnsgd1na2vs0mg"},{"bike_id":"b712d4de-7831-4ea1-8005-7685eb694f77","system_id":"levelo_inurba_marseille","lat":43.28635,"lon":5.35091,"is_reserved":false,"is_disabled":false,"rental_uris":{"android":"levelo://app?vid=b712d4de-7831-4ea1-8005-7685eb694f77","ios":"levelo://app?vid=b712d4de-7831-4ea1-8005-7685eb694f77"},"vehicle_type_id":"4","last_reported":1737299320,"current_range_meters":24400,"station_id":"ce4bhch2rcd13ifvqeug","pricing_plan_id":"cebpf4jnsgd1na2vs0mg"},{"bike_id":"fcff8b6e-6484-4e4c-8d98-9ab325ed2e27","system_id":"levelo_inurba_marseille","lat":43.32467,"lon":5.3667,"is_reserved":false,"is_disabled":false,"rental_uris":{"android":"levelo://app?vid=fcff8b6e-6484-4e4c-8d98-9ab325ed2e27","ios":"levelo://app?vid=fcff8b6e-6484-4e4c-8d98-9ab325ed2e27"},"vehicle_type_id":"4","last_reported":1737299320,"current_range_meters":38400,"station_id":"","pricing_plan_id":"cebpf4jnsgd1na2vs0mg"},{"bike_id":"7f6908f7-cfcb-4080-a4c3-d5b221bf885b","system_id":"levelo_inurba_marseille","lat":43.3205,"lon":5.41577,"is_reserved":false,"is_disabled":true,"rental_uris":{"android":"levelo://app?vid=7f6908f7-cfcb-4080-a4c3-d5b221bf885b","ios":"levelo://app?vid=7f6908f7-cfcb-4080-a4c3-d5b221bf885b"},"vehicle_type_id":"4","last_reported":1737299320,"current_range_meters":2000,"station_id":"ce4bhq92rcd13ifvqhkg","pricing_plan_id":"cebpf4jnsgd1na2vs0mg"},{"bike_id":"cbccb98d-efc5-4f47-8dc8-3af1da113619","system_id":"levelo_inurba_marseille","lat":43.3172,"lon":5.42401,"is_reserved":false,"is_disabled":false,"rental_uris":{"android":"levelo://app?vid=cbccb98d-efc5-4f47-8dc8-3af1da113619","ios":"levelo://app?vid=cbccb98d-efc5-4f47-8dc8-3af1da113619"},"vehicle_type_id":"4","last_reported":1737299320,"current_range_meters":38800,"station_id":"ce4bhp92rcd13ifvqhbg","pricing_plan_id":"cebpf4jnsgd1na2vs0mg"},{"bike_id":"2d51ed35-cd4a-4798-ae66-82a7306e8efd","system_id":"levelo_inurba_marseille","lat":43.31898,"lon":5.40735,"is_reserved":false,"is_disabled":false,"rental_uris":{"android":"levelo://app?vid=2d51ed35-cd4a-4798-ae66-82a7306e8efd","ios":"levelo://app?vid=2d51ed35-cd4a-4798-ae66-82a7306e8efd"},"vehicle_type_id":"4","last_reported":1737299320,"current_range_meters":12400,"station_id":"ce4bhq12rcd13ifvqhig","pricing_plan_id":"cebpf4jnsgd1na2vs0mg"},{"bike_id":"0966a8a8-2d5b-449d-8d62-52bfeeb2bcde","system_id":"levelo_inurba_marseille","lat":43.29736,"lon":5.37661,"is_reserved":false,"is_disabled":true,"rental_uris":{"android":"levelo://app?vid=0966a8a8-2d5b-449d-8d62-52bfeeb2bcde","ios":"levelo://app?vid=0966a8a8-2d5b-449d-8d62-52bfeeb2bcde"},"vehicle_type_id":"4","last_reported":1737299320,"current_range_meters":37600,"station_id":"ce4bgkh2rcd13ifvqbl0","pricing_plan_id":"cebpf4jnsgd1na2vs0mg"},{"bike_id":"22465212-93af-4e0b-b803-6ee82bba56d5","system_id":"levelo_inurba_marseille","lat":43.33759,"lon":5.3748,"is_reserved":false,"is_disabled":false,"rental_uris":{"android":"levelo://app?vid=22465212-93af-4e0b-b803-6ee82bba56d5","ios":"levelo://app?vid=22465212-93af-4e0b-b803-6ee82bba56d5"},"vehicle_type_id":"4","last_reported":1737299320,"current_range_meters":28000,"station_id":"","pricing_plan_id":"cebpf4jnsgd1na2vs0mg"},{"bike_id":"2f432890-56c2-4d7d-857e-3739fc917744","system_id":"levelo_inurba_marseille","lat":43.2815,"lon":5.42647,"is_reserved":false,"is_disabled":false,"rental_uris":{"android":"levelo://app?vid=2f432890-56c2-4d7d-857e-3739fc917744","ios":"levelo://app?vid=2f432890-56c2-4d7d-857e-3739fc917744"},"vehicle_type_id":"4","last_reported":1737299320,"current_range_meters":22000,"station_id":"ce4bhnh2rcd13ifvqgug","pricing_plan_id":"cebpf4jnsgd1na2vs0mg"},{"bike_id":"6fcc1961-440d-4919-9386-5b9e4ce036ce","system_id":"levelo_inurba_marseille","lat":43.24387,"lon":5.37058,"is_reserved":false,"is_disabled":false,"rental_uris":{"android":"levelo://app?vid=6fcc1961-440d-4919-9386-5b9e4ce036ce","ios":"levelo://app?vid=6fcc1961-440d-4919-9386-5b9e4ce036ce"},"vehicle_type_id":"4","last_reported":1737299320,"current_range_meters":32400,"station_id":"ce4bhhh2rcd13ifvqfk0","pricing_plan_id":"cebpf4jnsgd1na2vs0mg"},{"bike_id":"19fb1931-f075-402c-a076-088e72accb76","system_id":"levelo_inurba_marseille","lat":43.24827,"lon":5.37449,"is_reserved":false,"is_disabled":false,"rental_uris":{"android":"levelo://app?vid=19fb1931-f075-402c-a076-088e72accb76","ios":"levelo://app?vid=19fb1931-f075-402c-a076-088e72accb76"},"vehicle_type_id":"4","last_reported":1737299320,"current_range_meters":10000,"station_id":"ce4bhgh2rcd13ifvqfb0","pricing_plan_id":"cebpf4jnsgd1na2vs0mg"},{"bike_id":"0d0a9787-dc25-4549-b9d1-4116921e2b21","system_id":"levelo_inurba_marseille","lat":43.31761,"lon":5.38994,"is_reserved":false,"is_disabled":false,"rental_uris":{"android":"levelo://app?vid=0d0a9787-dc25-4549-b9d1-4116921e2b21","ios":"levelo://app?vid=0d0a9787-dc25-4549-b9d1-4116921e2b21"},"vehicle_type_id":"4","last_reported":1737299320,"current_range_meters":38800,"station_id":"ce4bhqp2rcd13ifvqhng","pricing_plan_id":"cebpf4jnsgd1na2vs0mg"},{"bike_id":"de9cba7b-af48-44df-9a8e-e53010730adf","system_id":"levelo_inurba_marseille","lat":43.26944,"lon":5.40248,"is_reserved":false,"is_disabled":false,"rental_uris":{"android":"levelo://app?vid=de9cba7b-af48-44df-9a8e-e53010730adf","ios":"levelo://app?vid=de9cba7b-af48-44df-9a8e-e53010730adf"},"vehicle_type_id":"4","last_reported":1737299320,"current_range_meters":35200,"station_id":"cjm6bp8fraef2m0cb0m0","pricing_plan_id":"cebpf4jnsgd1na2vs0mg"},{"bike_id":"fc19965f-3fa6-41c3-9533-f05d5be5e656","system_id":"levelo_inurba_marseille","lat":43.28618,"lon":5.35111,"is_reserved":false,"is_disabled":false,"rental_uris":{"android":"levelo://app?vid=fc19965f-3fa6-41c3-9533-f05d5be5e656","ios":"levelo://app?vid=fc19965f-3fa6-41c3-9533-f05d5be5e656"},"vehicle_type_id":"4","last_reported":1737299320,"current_range_meters":36800,"station_id":"ce4bhch2rcd13ifvqeug","pricing_plan_id":"cebpf4jnsgd1na2vs0mg"},{"bike_id":"b354305c-87fe-4829-83b0-a05bbd1327e7","system_id":"levelo_inurba_marseille","lat":43.22934,"lon":5.3538,"is_reserved":false,"is_disabled":false,"rental_uris":{"android":"levelo://app?vid=b354305c-87fe-4829-83b0-a05bbd1327e7","ios":"levelo://app?vid=b354305c-87fe-4829-83b0-a05bbd1327e7"},"vehicle_type_id":"4","last_reported":1737299320,"current_range_meters":38400,"station_id":"cpo3532slgdg3j2ikp40","pricing_plan_id":"cebpf4jnsgd1na2vs0mg"},{"bike_id":"e77e709f-a3d5-445e-88d5-7caf12591840","system_id":"levelo_inurba_marseille","lat":43.23061,"lon":5.35489,"is_reserved":false,"is_disabled":true,"rental_uris":{"android":"levelo://app?vid=e77e709f-a3d5-445e-88d5-7caf12591840","ios":"levelo://app?vid=e77e709f-a3d5-445e-88d5-7caf12591840"},"vehicle_type_id":"4","last_reported":1737299320,"current_range_meters":0,"station_id":"cpo3342slgdg3j2ifvpg","pricing_plan_id":"cebpf4jnsgd1na2vs0mg"},{"bike_id":"c6f874ed-7baa-4ffa-b8dc-93b47368c64c","system_id":"levelo_inurba_marseille","lat":43.2738,"lon":5.36246,"is_reserved":false,"is_disabled":false,"rental_uris":{"android":"levelo://app?vid=c6f874ed-7baa-4ffa-b8dc-93b47368c64c","ios":"levelo://app?vid=c6f874ed-7baa-4ffa-b8dc-93b47368c64c"},"vehicle_type_id":"4","last_reported":1737299320,"current_range_meters":28400,"station_id":"ce4bhbh2rcd13ifvqeo0","pricing_plan_id":"cebpf4jnsgd1na2vs0mg"},{"bike_id":"82eafdac-bd81-479d-a7b0-05db8ca76c26","system_id":"levelo_inurba_marseille","lat":43.25829,"lon":5.39418,"is_reserved":false,"is_disabled":true,"rental_uris":{"android":"levelo://app?vid=82eafdac-bd81-479d-a7b0-05db8ca76c26","ios":"levelo://app?vid=82eafdac-bd81-479d-a7b0-05db8ca76c26"},"vehicle_type_id":"4","last_reported":1737299320,"current_range_meters":39200,"station_id":"ce4bhip2rcd13ifvqft0","pricing_plan_id":"cebpf4jnsgd1na2vs0mg"},{"bike_id":"41225a3d-75a7-4def-b8c4-e62a94cf70b0","system_id":"levelo_inurba_marseille","lat":43.269364,"lon":5.402554,"is_reserved":false,"is_disabled":false,"rental_uris":{"android":"levelo://app?vid=41225a3d-75a7-4def-b8c4-e62a94cf70b0","ios":"levelo://app?vid=41225a3d-75a7-4def-b8c4-e62a94cf70b0"},"vehicle_type_id":"4","last_reported":1737299320,"current_range_meters":33600,"station_id":"cjm6bp8fraef2m0cb0m0","pricing_plan_id":"cebpf4jnsgd1na2vs0mg"},{"bike_id":"66dc1418-1651-477f-b76d-fad61f5cf84c","system_id":"levelo_inurba_marseille","lat":43.29799,"lon":5.38218,"is_reserved":false,"is_disabled":false,"rental_uris":{"android":"levelo://app?vid=66dc1418-1651-477f-b76d-fad61f5cf84c","ios":"levelo://app?vid=66dc1418-1651-477f-b76d-fad61f5cf84c"},"vehicle_type_id":"4","last_reported":1737299320,"current_range_meters":28000,"station_id":"","pricing_plan_id":"cebpf4jnsgd1na2vs0mg"},{"bike_id":"7a214395-f9e6-49d1-ac27-650b72d950ac","system_id":"levelo_inurba_marseille","lat":43.30206,"lon":5.36612,"is_reserved":false,"is_disabled":false,"rental_uris":{"android":"levelo://app?vid=7a214395-f9e6-49d1-ac27-650b72d950ac","ios":"levelo://app?vid=7a214395-f9e6-49d1-ac27-650b72d950ac"},"vehicle_type_id":"4","last_reported":1737299320,"current_range_meters":38800,"station_id":"ce4bgrh2rcd13ifvqc8g","pricing_plan_id":"cebpf4jnsgd1na2vs0mg"},{"bike_id":"ecd66cee-6a52-492c-b3ee-5a4b294451a1","system_id":"levelo_inurba_marseille","lat":43.29578,"lon":5.36739,"is_reserved":false,"is_disabled":false,"rental_uris":{"android":"levelo://app?vid=ecd66cee-6a52-492c-b3ee-5a4b294451a1","ios":"levelo://app?vid=ecd66cee-6a52-492c-b3ee-5a4b294451a1"},"vehicle_type_id":"4","last_reported":1737299320,"current_range_meters":20400,"station_id":"ce4bgph2rcd13ifvqc2g","pricing_plan_id":"cebpf4jnsgd1na2vs0mg"},{"bike_id":"f2390374-e060-4fe1-bcfa-cb2711193e58","system_id":"levelo_inurba_marseille","lat":43.25089,"lon":5.39512,"is_reserved":false,"is_disabled":false,"rental_uris":{"android":"levelo://app?vid=f2390374-e060-4fe1-bcfa-cb2711193e58","ios":"levelo://app?vid=f2390374-e060-4fe1-bcfa-cb2711193e58"},"vehicle_type_id":"4","last_reported":1737299320,"current_range_meters":38400,"station_id":"ce4bhm12rcd13ifvqgkg","pricing_plan_id":"cebpf4jnsgd1na2vs0mg"},{"bike_id":"43f0d5c7-d978-4a2a-827a-99392528505f","system_id":"levelo_inurba_marseille","lat":43.27621,"lon":5.36114,"is_reserved":false,"is_disabled":false,"rental_uris":{"android":"levelo://app?vid=43f0d5c7-d978-4a2a-827a-99392528505f","ios":"levelo://app?vid=43f0d5c7-d978-4a2a-827a-99392528505f"},"vehicle_type_id":"4","last_reported":1737299320,"current_range_meters":30800,"station_id":"ce4bgj92rcd13ifvqbe0","pricing_plan_id":"cebpf4jnsgd1na2vs0mg"},{"bike_id":"591b3bd2-5685-4ec2-843e-e45d69c9aabd","system_id":"levelo_inurba_marseille","lat":43.2606,"lon":5.39354,"is_reserved":false,"is_disabled":false,"rental_uris":{"android":"levelo://app?vid=591b3bd2-5685-4ec2-843e-e45d69c9aabd","ios":"levelo://app?vid=591b3bd2-5685-4ec2-843e-e45d69c9aabd"},"vehicle_type_id":"4","last_reported":1737299320,"current_range_meters":38800,"station_id":"ce4bhh92rcd13ifvqfj0","pricing_plan_id":"cebpf4jnsgd1na2vs0mg"},{"bike_id":"1b920dba-6e7f-470d-bccb-d5c1dfae071d","system_id":"levelo_inurba_marseille","lat":43.2621,"lon":5.37446,"is_reserved":false,"is_disabled":true,"rental_uris":{"android":"levelo://app?vid=1b920dba-6e7f-470d-bccb-d5c1dfae071d","ios":"levelo://app?vid=1b920dba-6e7f-470d-bccb-d5c1dfae071d"},"vehicle_type_id":"4","last_reported":1737299320,"current_range_meters":0,"station_id":"ce4bhgp2rcd13ifvqfc0","pricing_plan_id":"cebpf4jnsgd1na2vs0mg"},{"bike_id":"09942812-2280-4ba2-9f9b-5024001b3213","system_id":"levelo_inurba_marseille","lat":43.27374,"lon":5.36251,"is_reserved":false,"is_disabled":false,"rental_uris":{"android":"levelo://app?vid=09942812-2280-4ba2-9f9b-5024001b3213","ios":"levelo://app?vid=09942812-2280-4ba2-9f9b-5024001b3213"},"vehicle_type_id":"4","last_reported":1737299320,"current_range_meters":38800,"station_id":"ce4bhbh2rcd13ifvqeo0","pricing_plan_id":"cebpf4jnsgd1na2vs0mg"},{"bike_id":"7ae89db8-2444-4bdb-a820-7f511ebe7be4","system_id":"levelo_inurba_marseille","lat":43.23064,"lon":5.35493,"is_reserved":false,"is_disabled":false,"rental_uris":{"android":"levelo://app?vid=7ae89db8-2444-4bdb-a820-7f511ebe7be4","ios":"levelo://app?vid=7ae89db8-2444-4bdb-a820-7f511ebe7be4"},"vehicle_type_id":"4","last_reported":1737299320,"current_range_meters":22800,"station_id":"cpo3342slgdg3j2ifvpg","pricing_plan_id":"cebpf4jnsgd1na2vs0mg"},{"bike_id":"d468c43b-79f9-4a69-9334-f2e452c76c01","system_id":"levelo_inurba_marseille","lat":43.31306,"lon":5.36847,"is_reserved":false,"is_disabled":false,"rental_uris":{"android":"levelo://app?vid=d468c43b-79f9-4a69-9334-f2e452c76c01","ios":"levelo://app?vid=d468c43b-79f9-4a69-9334-f2e452c76c01"},"vehicle_type_id":"4","last_reported":1737299320,"current_range_meters":33200,"station_id":"ce4bgl92rcd13ifvqbq0","pricing_plan_id":"cebpf4jnsgd1na2vs0mg"},{"bike_id":"a95248e8-7ba2-479e-9b5c-9fb4d8e98c2b","system_id":"levelo_inurba_marseille","lat":43.28094,"lon":5.42192,"is_reserved":false,"is_disabled":true,"rental_uris":{"android":"levelo://app?vid=a95248e8-7ba2-479e-9b5c-9fb4d8e98c2b","ios":"levelo://app?vid=a95248e8-7ba2-479e-9b5c-9fb4d8e98c2b"},"vehicle_type_id":"4","last_reported":1737299320,"current_range_meters":0,"station_id":"","pricing_plan_id":"cebpf4jnsgd1na2vs0mg"},{"bike_id":"246f2aa1-d855-40ee-b8e2-0e541013d632","system_id":"levelo_inurba_marseille","lat":43.27847,"lon":5.40736,"is_reserved":false,"is_disabled":true,"rental_uris":{"android":"levelo://app?vid=246f2aa1-d855-40ee-b8e2-0e541013d632","ios":"levelo://app?vid=246f2aa1-d855-40ee-b8e2-0e541013d632"},"vehicle_type_id":"4","last_reported":1737299320,"current_range_meters":0,"station_id":"ce4bhnh2rcd13ifvqgtg","pricing_plan_id":"cebpf4jnsgd1na2vs0mg"},{"bike_id":"87cefc3a-e36a-4030-9c3f-9fc87455f3e3","system_id":"levelo_inurba_marseille","lat":43.27376,"lon":5.3625,"is_reserved":false,"is_disabled":false,"rental_uris":{"android":"levelo://app?vid=87cefc3a-e36a-4030-9c3f-9fc87455f3e3","ios":"levelo://app?vid=87cefc3a-e36a-4030-9c3f-9fc87455f3e3"},"vehicle_type_id":"4","last_reported":1737299320,"current_range_meters":37600,"station_id":"ce4bhbh2rcd13ifvqeo0","pricing_plan_id":"cebpf4jnsgd1na2vs0mg"},{"bike_id":"1f9c06e7-2f75-45b2-bd3a-0c4d30b72737","system_id":"levelo_inurba_marseille","lat":43.24408,"lon":5.37038,"is_reserved":false,"is_disabled":false,"rental_uris":{"android":"levelo://app?vid=1f9c06e7-2f75-45b2-bd3a-0c4d30b72737","ios":"levelo://app?vid=1f9c06e7-2f75-45b2-bd3a-0c4d30b72737"},"vehicle_type_id":"4","last_reported":1737299320,"current_range_meters":17600,"station_id":"ce4bhhh2rcd13ifvqfk0","pricing_plan_id":"cebpf4jnsgd1na2vs0mg"},{"bike_id":"86fa407e-8cba-48a0-8dc7-4dc4a472cf02","system_id":"levelo_inurba_marseille","lat":43.30555,"lon":5.36542,"is_reserved":false,"is_disabled":false,"rental_uris":{"android":"levelo://app?vid=86fa407e-8cba-48a0-8dc7-4dc4a472cf02","ios":"levelo://app?vid=86fa407e-8cba-48a0-8dc7-4dc4a472cf02"},"vehicle_type_id":"4","last_reported":1737299320,"current_range_meters":9200,"station_id":"ce4bgs12rcd13ifvqcag","pricing_plan_id":"cebpf4jnsgd1na2vs0mg"},{"bike_id":"f9931a98-8e3f-4079-975f-2847623e6a40","system_id":"levelo_inurba_marseille","lat":43.28945,"lon":5.3639,"is_reserved":false,"is_disabled":false,"rental_uris":{"android":"levelo://app?vid=f9931a98-8e3f-4079-975f-2847623e6a40","ios":"levelo://app?vid=f9931a98-8e3f-4079-975f-2847623e6a40"},"vehicle_type_id":"4","last_reported":1737299320,"current_range_meters":25600,"station_id":"ce4bhc92rcd13ifvqetg","pricing_plan_id":"cebpf4jnsgd1na2vs0mg"},{"bike_id":"700bba7f-f624-4ddd-bc5d-c7e3f82eb119","system_id":"levelo_inurba_marseille","lat":43.30821,"lon":5.38134,"is_reserved":false,"is_disabled":false,"rental_uris":{"android":"levelo://app?vid=700bba7f-f624-4ddd-bc5d-c7e3f82eb119","ios":"levelo://app?vid=700bba7f-f624-4ddd-bc5d-c7e3f82eb119"},"vehicle_type_id":"4","last_reported":1737299320,"current_range_meters":38800,"station_id":"ce4bgt12rcd13ifvqce0","pricing_plan_id":"cebpf4jnsgd1na2vs0mg"},{"bike_id":"c0943972-b0b0-4123-8a79-be8a92f5a1d0","system_id":"levelo_inurba_marseille","lat":43.26054,"lon":5.39386,"is_reserved":false,"is_disabled":false,"rental_uris":{"android":"levelo://app?vid=c0943972-b0b0-4123-8a79-be8a92f5a1d0","ios":"levelo://app?vid=c0943972-b0b0-4123-8a79-be8a92f5a1d0"},"vehicle_type_id":"4","last_reported":1737299320,"current_range_meters":19200,"station_id":"ce4bhh92rcd13ifvqfj0","pricing_plan_id":"cebpf4jnsgd1na2vs0mg"},{"bike_id":"1e81dad0-c75a-42f3-98b0-b7b54f50dd46","system_id":"levelo_inurba_marseille","lat":43.26595,"lon":5.37294,"is_reserved":false,"is_disabled":false,"rental_uris":{"android":"levelo://app?vid=1e81dad0-c75a-42f3-98b0-b7b54f50dd46","ios":"levelo://app?vid=1e81dad0-c75a-42f3-98b0-b7b54f50dd46"},"vehicle_type_id":"4","last_reported":1737299320,"current_range_meters":36400,"station_id":"ce4bhg12rcd13ifvqf70","pricing_plan_id":"cebpf4jnsgd1na2vs0mg"},{"bike_id":"2189f33e-4cfd-4f76-9d91-913095d551c4","system_id":"levelo_inurba_marseille","lat":43.30351,"lon":5.39101,"is_reserved":false,"is_disabled":true,"rental_uris":{"android":"levelo://app?vid=2189f33e-4cfd-4f76-9d91-913095d551c4","ios":"levelo://app?vid=2189f33e-4cfd-4f76-9d91-913095d551c4"},"vehicle_type_id":"4","last_reported":1737299320,"current_range_meters":0,"station_id":"","pricing_plan_id":"cebpf4jnsgd1na2vs0mg"},{"bike_id":"11eec9cd-354f-417d-831d-b52f13ecf21d","system_id":"levelo_inurba_marseille","lat":43.27068,"lon":5.42276,"is_reserved":false,"is_disabled":false,"rental_uris":{"android":"levelo://app?vid=11eec9cd-354f-417d-831d-b52f13ecf21d","ios":"levelo://app?vid=11eec9cd-354f-417d-831d-b52f13ecf21d"},"vehicle_type_id":"4","last_reported":1737299320,"current_range_meters":30000,"station_id":"ce4bhk92rcd13ifvqgb0","pricing_plan_id":"cebpf4jnsgd1na2vs0mg"},{"bike_id":"668f9767-c78d-438a-96bb-c0760f782967","system_id":"levelo_inurba_marseille","lat":43.26205,"lon":5.3792,"is_reserved":false,"is_disabled":false,"rental_uris":{"android":"levelo://app?vid=668f9767-c78d-438a-96bb-c0760f782967","ios":"levelo://app?vid=668f9767-c78d-438a-96bb-c0760f782967"},"vehicle_type_id":"4","last_reported":1737299320,"current_range_meters":36400,"station_id":"ce4bhjp2rcd13ifvqg90","pricing_plan_id":"cebpf4jnsgd1na2vs0mg"},{"bike_id":"5ea02164-82c9-48a0-b934-560bff5cce5b","system_id":"levelo_inurba_marseille","lat":43.30601,"lon":5.37239,"is_reserved":false,"is_disabled":false,"rental_uris":{"android":"levelo://app?vid=5ea02164-82c9-48a0-b934-560bff5cce5b","ios":"levelo://app?vid=5ea02164-82c9-48a0-b934-560bff5cce5b"},"vehicle_type_id":"4","last_reported":1737299320,"current_range_meters":11200,"station_id":"ce4bgqh2rcd13ifvqc4g","pricing_plan_id":"cebpf4jnsgd1na2vs0mg"},{"bike_id":"a1fba84e-be91-49dd-a8fa-c8ea4db9c7b0","system_id":"levelo_inurba_marseille","lat":43.2897,"lon":5.3784,"is_reserved":false,"is_disabled":false,"rental_uris":{"android":"levelo://app?vid=a1fba84e-be91-49dd-a8fa-c8ea4db9c7b0","ios":"levelo://app?vid=a1fba84e-be91-49dd-a8fa-c8ea4db9c7b0"},"vehicle_type_id":"4","last_reported":1737299320,"current_range_meters":27600,"station_id":"ce4bh9p2rcd13ifvqed0","pricing_plan_id":"cebpf4jnsgd1na2vs0mg"},{"bike_id":"5078a417-6351-4b12-b181-b6e94be431f4","system_id":"levelo_inurba_marseille","lat":43.23058,"lon":5.35487,"is_reserved":false,"is_disabled":false,"rental_uris":{"android":"levelo://app?vid=5078a417-6351-4b12-b181-b6e94be431f4","ios":"levelo://app?vid=5078a417-6351-4b12-b181-b6e94be431f4"},"vehicle_type_id":"4","last_reported":1737299320,"current_range_meters":24000,"station_id":"cpo3342slgdg3j2ifvpg","pricing_plan_id":"cebpf4jnsgd1na2vs0mg"},{"bike_id":"0d5bf58b-8962-4322-87c4-754920ec04ac","system_id":"levelo_inurba_marseille","lat":43.31197,"lon":5.38708,"is_reserved":false,"is_disabled":true,"rental_uris":{"android":"levelo://app?vid=0d5bf58b-8962-4322-87c4-754920ec04ac","ios":"levelo://app?vid=0d5bf58b-8962-4322-87c4-754920ec04ac"},"vehicle_type_id":"4","last_reported":1737299320,"current_range_meters":30800,"station_id":"ce4bgv12rcd13ifvqcp0","pricing_plan_id":"cebpf4jnsgd1na2vs0mg"},{"bike_id":"c92cbb9f-5a8c-4f30-b00a-221ba31b944d","system_id":"levelo_inurba_marseille","lat":43.28437,"lon":5.34987,"is_reserved":false,"is_disabled":true,"rental_uris":{"android":"levelo://app?vid=c92cbb9f-5a8c-4f30-b00a-221ba31b944d","ios":"levelo://app?vid=c92cbb9f-5a8c-4f30-b00a-221ba31b944d"},"vehicle_type_id":"4","last_reported":1737299320,"current_range_meters":30800,"station_id":"ce4bhbh2rcd13ifvqepg","pricing_plan_id":"cebpf4jnsgd1na2vs0mg"},{"bike_id":"41902fd9-fa18-46a4-b43c-51a2cb10a6db","system_id":"levelo_inurba_marseille","lat":43.30363,"lon":5.41882,"is_reserved":false,"is_disabled":false,"rental_uris":{"android":"levelo://app?vid=41902fd9-fa18-46a4-b43c-51a2cb10a6db","ios":"levelo://app?vid=41902fd9-fa18-46a4-b43c-51a2cb10a6db"},"vehicle_type_id":"4","last_reported":1737299320,"current_range_meters":38000,"station_id":"ce4bhop2rcd13ifvqh7g","pricing_plan_id":"cebpf4jnsgd1na2vs0mg"},{"bike_id":"3f005f08-3e9b-4343-8fad-23d51437c36c","system_id":"levelo_inurba_marseille","lat":43.29543,"lon":5.37511,"is_reserved":false,"is_disabled":false,"rental_uris":{"android":"levelo://app?vid=3f005f08-3e9b-4343-8fad-23d51437c36c","ios":"levelo://app?vid=3f005f08-3e9b-4343-8fad-23d51437c36c"},"vehicle_type_id":"4","last_reported":1737299320,"current_range_meters":27200,"station_id":"ce4bgkp2rcd13ifvqbmg","pricing_plan_id":"cebpf4jnsgd1na2vs0mg"},{"bike_id":"fe90f7a6-3920-456a-9451-50d213b7000f","system_id":"levelo_inurba_marseille","lat":43.28474,"lon":5.38418,"is_reserved":false,"is_disabled":true,"rental_uris":{"android":"levelo://app?vid=fe90f7a6-3920-456a-9451-50d213b7000f","ios":"levelo://app?vid=fe90f7a6-3920-456a-9451-50d213b7000f"},"vehicle_type_id":"4","last_reported":1737299320,"current_range_meters":31200,"station_id":"ce4bh512rcd13ifvqe3g","pricing_plan_id":"cebpf4jnsgd1na2vs0mg"},{"bike_id":"67fe5a2e-d8fb-4c79-a771-ee3875d3a660","system_id":"levelo_inurba_marseille","lat":43.33704,"lon":5.39183,"is_reserved":false,"is_disabled":false,"rental_uris":{"android":"levelo://app?vid=67fe5a2e-d8fb-4c79-a771-ee3875d3a660","ios":"levelo://app?vid=67fe5a2e-d8fb-4c79-a771-ee3875d3a660"},"vehicle_type_id":"4","last_reported":1737299320,"current_range_meters":39200,"station_id":"ce4bhr92rcd13ifvqhsg","pricing_plan_id":"cebpf4jnsgd1na2vs0mg"},{"bike_id":"68834284-6388-4157-bc9a-17ab1f8714d6","system_id":"levelo_inurba_marseille","lat":43.27639,"lon":5.36115,"is_reserved":false,"is_disabled":false,"rental_uris":{"android":"levelo://app?vid=68834284-6388-4157-bc9a-17ab1f8714d6","ios":"levelo://app?vid=68834284-6388-4157-bc9a-17ab1f8714d6"},"vehicle_type_id":"4","last_reported":1737299320,"current_range_meters":27200,"station_id":"ce4bgj92rcd13ifvqbe0","pricing_plan_id":"cebpf4jnsgd1na2vs0mg"},{"bike_id":"aeeb7245-8a7c-4b79-b9ac-efca69f7818a","system_id":"levelo_inurba_marseille","lat":43.32119,"lon":5.36762,"is_reserved":false,"is_disabled":false,"rental_uris":{"android":"levelo://app?vid=aeeb7245-8a7c-4b79-b9ac-efca69f7818a","ios":"levelo://app?vid=aeeb7245-8a7c-4b79-b9ac-efca69f7818a"},"vehicle_type_id":"4","last_reported":1737299320,"current_range_meters":20400,"station_id":"ce4bhrh2rcd13ifvqhug","pricing_plan_id":"cebpf4jnsgd1na2vs0mg"},{"bike_id":"9f2925b7-b122-4801-ac97-79bd2701c6f3","system_id":"levelo_inurba_marseille","lat":43.24068,"lon":5.3776,"is_reserved":false,"is_disabled":false,"rental_uris":{"android":"levelo://app?vid=9f2925b7-b122-4801-ac97-79bd2701c6f3","ios":"levelo://app?vid=9f2925b7-b122-4801-ac97-79bd2701c6f3"},"vehicle_type_id":"4","last_reported":1737299320,"current_range_meters":36800,"station_id":"ce4bhnp2rcd13ifvqgvg","pricing_plan_id":"cebpf4jnsgd1na2vs0mg"},{"bike_id":"19b9f5ab-cf25-45f8-9948-45cc5e11c5f9","system_id":"levelo_inurba_marseille","lat":43.32041,"lon":5.41558,"is_reserved":false,"is_disabled":false,"rental_uris":{"android":"levelo://app?vid=19b9f5ab-cf25-45f8-9948-45cc5e11c5f9","ios":"levelo://app?vid=19b9f5ab-cf25-45f8-9948-45cc5e11c5f9"},"vehicle_type_id":"4","last_reported":1737299320,"current_range_meters":38000,"station_id":"ce4bhq92rcd13ifvqhkg","pricing_plan_id":"cebpf4jnsgd1na2vs0mg"},{"bike_id":"7b52e969-7498-42fb-aafb-034e09ca2f2a","system_id":"levelo_inurba_marseille","lat":43.30806,"lon":5.43552,"is_reserved":false,"is_disabled":false,"rental_uris":{"android":"levelo://app?vid=7b52e969-7498-42fb-aafb-034e09ca2f2a","ios":"levelo://app?vid=7b52e969-7498-42fb-aafb-034e09ca2f2a"},"vehicle_type_id":"4","last_reported":1737299320,"current_range_meters":29600,"station_id":"ce4bhph2rcd13ifvqheg","pricing_plan_id":"cebpf4jnsgd1na2vs0mg"},{"bike_id":"bd6bdf38-4e62-424f-ae55-44f90e620ec6","system_id":"levelo_inurba_marseille","lat":43.26549,"lon":5.37309,"is_reserved":false,"is_disabled":false,"rental_uris":{"android":"levelo://app?vid=bd6bdf38-4e62-424f-ae55-44f90e620ec6","ios":"levelo://app?vid=bd6bdf38-4e62-424f-ae55-44f90e620ec6"},"vehicle_type_id":"4","last_reported":1737299320,"current_range_meters":38800,"station_id":"ce4bhg12rcd13ifvqf70","pricing_plan_id":"cebpf4jnsgd1na2vs0mg"},{"bike_id":"9eb335b9-be9e-4d87-ab11-b7aad1d486a4","system_id":"levelo_inurba_marseille","lat":43.23153,"lon":5.43712,"is_reserved":false,"is_disabled":true,"rental_uris":{"android":"levelo://app?vid=9eb335b9-be9e-4d87-ab11-b7aad1d486a4","ios":"levelo://app?vid=9eb335b9-be9e-4d87-ab11-b7aad1d486a4"},"vehicle_type_id":"4","last_reported":1737299320,"current_range_meters":0,"station_id":"ce4bhmp2rcd13ifvqgog","pricing_plan_id":"cebpf4jnsgd1na2vs0mg"},{"bike_id":"472c53f3-ad31-4b0d-a711-2bb1f6ecf1ea","system_id":"levelo_inurba_marseille","lat":43.24872,"lon":5.37447,"is_reserved":false,"is_disabled":false,"rental_uris":{"android":"levelo://app?vid=472c53f3-ad31-4b0d-a711-2bb1f6ecf1ea","ios":"levelo://app?vid=472c53f3-ad31-4b0d-a711-2bb1f6ecf1ea"},"vehicle_type_id":"4","last_reported":1737299320,"current_range_meters":8400,"station_id":"","pricing_plan_id":"cebpf4jnsgd1na2vs0mg"},{"bike_id":"5136cca2-dc79-42d5-a096-5120a2626c68","system_id":"levelo_inurba_marseille","lat":43.309296,"lon":5.401518,"is_reserved":false,"is_disabled":false,"rental_uris":{"android":"levelo://app?vid=5136cca2-dc79-42d5-a096-5120a2626c68","ios":"levelo://app?vid=5136cca2-dc79-42d5-a096-5120a2626c68"},"vehicle_type_id":"4","last_reported":1737299320,"current_range_meters":38000,"station_id":"ce4bgvp2rcd13ifvqct0","pricing_plan_id":"cebpf4jnsgd1na2vs0mg"},{"bike_id":"95f066b0-a843-4331-8aa3-e1baa501636d","system_id":"levelo_inurba_marseille","lat":43.29844,"lon":5.36289,"is_reserved":false,"is_disabled":false,"rental_uris":{"android":"levelo://app?vid=95f066b0-a843-4331-8aa3-e1baa501636d","ios":"levelo://app?vid=95f066b0-a843-4331-8aa3-e1baa501636d"},"vehicle_type_id":"4","last_reported":1737299320,"current_range_meters":14000,"station_id":"ce4bgpp2rcd13ifvqc3g","pricing_plan_id":"cebpf4jnsgd1na2vs0mg"},{"bike_id":"63a0c470-0e3d-4f46-a361-302d7a67e5d2","system_id":"levelo_inurba_marseille","lat":43.24819,"lon":5.37453,"is_reserved":false,"is_disabled":true,"rental_uris":{"android":"levelo://app?vid=63a0c470-0e3d-4f46-a361-302d7a67e5d2","ios":"levelo://app?vid=63a0c470-0e3d-4f46-a361-302d7a67e5d2"},"vehicle_type_id":"4","last_reported":1737299320,"current_range_meters":38000,"station_id":"ce4bhgh2rcd13ifvqfb0","pricing_plan_id":"cebpf4jnsgd1na2vs0mg"},{"bike_id":"d5a4b84a-471f-4edb-a016-4dd0af7e2137","system_id":"levelo_inurba_marseille","lat":43.25873,"lon":5.39913,"is_reserved":false,"is_disabled":false,"rental_uris":{"android":"levelo://app?vid=d5a4b84a-471f-4edb-a016-4dd0af7e2137","ios":"levelo://app?vid=d5a4b84a-471f-4edb-a016-4dd0af7e2137"},"vehicle_type_id":"4","last_reported":1737299320,"current_range_meters":38400,"station_id":"ce4bhl92rcd13ifvqghg","pricing_plan_id":"cebpf4jnsgd1na2vs0mg"},{"bike_id":"b7dc3381-1423-4762-9f64-0e56cafbb066","system_id":"levelo_inurba_marseille","lat":43.30964,"lon":5.39049,"is_reserved":false,"is_disabled":false,"rental_uris":{"android":"levelo://app?vid=b7dc3381-1423-4762-9f64-0e56cafbb066","ios":"levelo://app?vid=b7dc3381-1423-4762-9f64-0e56cafbb066"},"vehicle_type_id":"4","last_reported":1737299320,"current_range_meters":34800,"station_id":"ce4bgup2rcd13ifvqco0","pricing_plan_id":"cebpf4jnsgd1na2vs0mg"},{"bike_id":"ba1a1e92-cfb2-4551-9668-22071098ff4b","system_id":"levelo_inurba_marseille","lat":43.25327,"lon":5.37587,"is_reserved":false,"is_disabled":false,"rental_uris":{"android":"levelo://app?vid=ba1a1e92-cfb2-4551-9668-22071098ff4b","ios":"levelo://app?vid=ba1a1e92-cfb2-4551-9668-22071098ff4b"},"vehicle_type_id":"4","last_reported":1737299320,"current_range_meters":11600,"station_id":"","pricing_plan_id":"cebpf4jnsgd1na2vs0mg"},{"bike_id":"63c59ea0-85ce-44b6-a970-20f3027ecae3","system_id":"levelo_inurba_marseille","lat":43.29374,"lon":5.37847,"is_reserved":false,"is_disabled":false,"rental_uris":{"android":"levelo://app?vid=63c59ea0-85ce-44b6-a970-20f3027ecae3","ios":"levelo://app?vid=63c59ea0-85ce-44b6-a970-20f3027ecae3"},"vehicle_type_id":"4","last_reported":1737299320,"current_range_meters":8800,"station_id":"ce4bgjh2rcd13ifvqbf0","pricing_plan_id":"cebpf4jnsgd1na2vs0mg"},{"bike_id":"50267a36-8428-4ee1-ac27-ac6a771a71af","system_id":"levelo_inurba_marseille","lat":43.33714,"lon":5.35647,"is_reserved":false,"is_disabled":false,"rental_uris":{"android":"levelo://app?vid=50267a36-8428-4ee1-ac27-ac6a771a71af","ios":"levelo://app?vid=50267a36-8428-4ee1-ac27-ac6a771a71af"},"vehicle_type_id":"4","last_reported":1737299320,"current_range_meters":6400,"station_id":"","pricing_plan_id":"cebpf4jnsgd1na2vs0mg"},{"bike_id":"aac3bbdf-8f92-4f44-b3a9-1f0a9b29966a","system_id":"levelo_inurba_marseille","lat":43.29423,"lon":5.38626,"is_reserved":false,"is_disabled":false,"rental_uris":{"android":"levelo://app?vid=aac3bbdf-8f92-4f44-b3a9-1f0a9b29966a","ios":"levelo://app?vid=aac3bbdf-8f92-4f44-b3a9-1f0a9b29966a"},"vehicle_type_id":"4","last_reported":1737299320,"current_range_meters":25200,"station_id":"ce4bh2h2rcd13ifvqdh0","pricing_plan_id":"cebpf4jnsgd1na2vs0mg"},{"bike_id":"f5863b18-13a1-4c6e-92de-5668ea912ad3","system_id":"levelo_inurba_marseille","lat":43.26234,"lon":5.40439,"is_reserved":false,"is_disabled":true,"rental_uris":{"android":"levelo://app?vid=f5863b18-13a1-4c6e-92de-5668ea912ad3","ios":"levelo://app?vid=f5863b18-13a1-4c6e-92de-5668ea912ad3"},"vehicle_type_id":"4","last_reported":1737299320,"current_range_meters":0,"station_id":"","pricing_plan_id":"cebpf4jnsgd1na2vs0mg"},{"bike_id":"43e368e2-a238-45e0-b5a7-e3892a1212a1","system_id":"levelo_inurba_marseille","lat":43.276237,"lon":5.36105,"is_reserved":false,"is_disabled":false,"rental_uris":{"android":"levelo://app?vid=43e368e2-a238-45e0-b5a7-e3892a1212a1","ios":"levelo://app?vid=43e368e2-a238-45e0-b5a7-e3892a1212a1"},"vehicle_type_id":"4","last_reported":1737299320,"current_range_meters":23200,"station_id":"ce4bgj92rcd13ifvqbe0","pricing_plan_id":"cebpf4jnsgd1na2vs0mg"},{"bike_id":"f508a21d-b248-4aec-b651-f5fadd9eae66","system_id":"levelo_inurba_marseille","lat":43.23962,"lon":5.36623,"is_reserved":false,"is_disabled":false,"rental_uris":{"android":"levelo://app?vid=f508a21d-b248-4aec-b651-f5fadd9eae66","ios":"levelo://app?vid=f508a21d-b248-4aec-b651-f5fadd9eae66"},"vehicle_type_id":"4","last_reported":1737299320,"current_range_meters":32400,"station_id":"ce4bhi12rcd13ifvqfp0","pricing_plan_id":"cebpf4jnsgd1na2vs0mg"},{"bike_id":"46686b70-f375-4947-b209-2f4548c2edcf","system_id":"levelo_inurba_marseille","lat":43.289,"lon":5.39432,"is_reserved":false,"is_disabled":true,"rental_uris":{"android":"levelo://app?vid=46686b70-f375-4947-b209-2f4548c2edcf","ios":"levelo://app?vid=46686b70-f375-4947-b209-2f4548c2edcf"},"vehicle_type_id":"4","last_reported":1737299320,"current_range_meters":0,"station_id":"","pricing_plan_id":"cebpf4jnsgd1na2vs0mg"},{"bike_id":"62e704a0-dffd-45d5-83c7-9a7e14534940","system_id":"levelo_inurba_marseille","lat":43.28636,"lon":5.35097,"is_reserved":false,"is_disabled":false,"rental_uris":{"android":"levelo://app?vid=62e704a0-dffd-45d5-83c7-9a7e14534940","ios":"levelo://app?vid=62e704a0-dffd-45d5-83c7-9a7e14534940"},"vehicle_type_id":"4","last_reported":1737299320,"current_range_meters":32000,"station_id":"ce4bhch2rcd13ifvqeug","pricing_plan_id":"cebpf4jnsgd1na2vs0mg"},{"bike_id":"6e42a6c7-87c2-403e-84fd-d739a3d405a6","system_id":"levelo_inurba_marseille","lat":43.24613,"lon":5.42034,"is_reserved":false,"is_disabled":true,"rental_uris":{"android":"levelo://app?vid=6e42a6c7-87c2-403e-84fd-d739a3d405a6","ios":"levelo://app?vid=6e42a6c7-87c2-403e-84fd-d739a3d405a6"},"vehicle_type_id":"4","last_reported":1737299320,"current_range_meters":0,"station_id":"","pricing_plan_id":"cebpf4jnsgd1na2vs0mg"},{"bike_id":"da9df60e-dcd4-4aa1-b440-b9cf366436c2","system_id":"levelo_inurba_marseille","lat":43.24816,"lon":5.37466,"is_reserved":false,"is_disabled":false,"rental_uris":{"android":"levelo://app?vid=da9df60e-dcd4-4aa1-b440-b9cf366436c2","ios":"levelo://app?vid=da9df60e-dcd4-4aa1-b440-b9cf366436c2"},"vehicle_type_id":"4","last_reported":1737299320,"current_range_meters":30000,"station_id":"ce4bhgh2rcd13ifvqfb0","pricing_plan_id":"cebpf4jnsgd1na2vs0mg"},{"bike_id":"6ecd6173-42ec-49fa-8634-dc35bf5f690d","system_id":"levelo_inurba_marseille","lat":43.26494,"lon":5.39545,"is_reserved":false,"is_disabled":false,"rental_uris":{"android":"levelo://app?vid=6ecd6173-42ec-49fa-8634-dc35bf5f690d","ios":"levelo://app?vid=6ecd6173-42ec-49fa-8634-dc35bf5f690d"},"vehicle_type_id":"4","last_reported":1737299320,"current_range_meters":34800,"station_id":"ce4bhi12rcd13ifvqfq0","pricing_plan_id":"cebpf4jnsgd1na2vs0mg"},{"bike_id":"4fe58642-8ec3-4f25-a4fc-eb5dc3dc47a8","system_id":"levelo_inurba_marseille","lat":43.335444,"lon":5.361449,"is_reserved":false,"is_disabled":false,"rental_uris":{"android":"levelo://app?vid=4fe58642-8ec3-4f25-a4fc-eb5dc3dc47a8","ios":"levelo://app?vid=4fe58642-8ec3-4f25-a4fc-eb5dc3dc47a8"},"vehicle_type_id":"4","last_reported":1737299320,"current_range_meters":28800,"station_id":"","pricing_plan_id":"cebpf4jnsgd1na2vs0mg"},{"bike_id":"fc21beed-45dd-4850-b81d-09023555628a","system_id":"levelo_inurba_marseille","lat":43.26506,"lon":5.3954,"is_reserved":false,"is_disabled":false,"rental_uris":{"android":"levelo://app?vid=fc21beed-45dd-4850-b81d-09023555628a","ios":"levelo://app?vid=fc21beed-45dd-4850-b81d-09023555628a"},"vehicle_type_id":"4","last_reported":1737299320,"current_range_meters":36800,"station_id":"ce4bhi12rcd13ifvqfq0","pricing_plan_id":"cebpf4jnsgd1na2vs0mg"},{"bike_id":"effcc3ee-00b3-4884-befa-629e6fb2c35f","system_id":"levelo_inurba_marseille","lat":43.24655,"lon":5.38894,"is_reserved":false,"is_disabled":false,"rental_uris":{"android":"levelo://app?vid=effcc3ee-00b3-4884-befa-629e6fb2c35f","ios":"levelo://app?vid=effcc3ee-00b3-4884-befa-629e6fb2c35f"},"vehicle_type_id":"4","last_reported":1737299320,"current_range_meters":20800,"station_id":"ce4bhg12rcd13ifvqf60","pricing_plan_id":"cebpf4jnsgd1na2vs0mg"},{"bike_id":"24434903-0872-4907-b47a-eaf673f74027","system_id":"levelo_inurba_marseille","lat":43.29225,"lon":5.36065,"is_reserved":false,"is_disabled":false,"rental_uris":{"android":"levelo://app?vid=24434903-0872-4907-b47a-eaf673f74027","ios":"levelo://app?vid=24434903-0872-4907-b47a-eaf673f74027"},"vehicle_type_id":"4","last_reported":1737299320,"current_range_meters":14800,"station_id":"ce4bhbh2rcd13ifvqeqg","pricing_plan_id":"cebpf4jnsgd1na2vs0mg"},{"bike_id":"6870a9e0-7988-452a-a0a6-84e136278682","system_id":"levelo_inurba_marseille","lat":43.26552,"lon":5.37259,"is_reserved":false,"is_disabled":false,"rental_uris":{"android":"levelo://app?vid=6870a9e0-7988-452a-a0a6-84e136278682","ios":"levelo://app?vid=6870a9e0-7988-452a-a0a6-84e136278682"},"vehicle_type_id":"4","last_reported":1737299320,"current_range_meters":32400,"station_id":"ce4bhg12rcd13ifvqf70","pricing_plan_id":"cebpf4jnsgd1na2vs0mg"},{"bike_id":"c6a90646-f951-4e94-979f-752526b0ef96","system_id":"levelo_inurba_marseille","lat":43.31503,"lon":5.37322,"is_reserved":false,"is_disabled":false,"rental_uris":{"android":"levelo://app?vid=c6a90646-f951-4e94-979f-752526b0ef96","ios":"levelo://app?vid=c6a90646-f951-4e94-979f-752526b0ef96"},"vehicle_type_id":"4","last_reported":1737299320,"current_range_meters":37600,"station_id":"ce4bgt12rcd13ifvqcd0","pricing_plan_id":"cebpf4jnsgd1na2vs0mg"},{"bike_id":"b578f60f-8b33-4a75-a75b-5eee7eff1f80","system_id":"levelo_inurba_marseille","lat":43.29577,"lon":5.37494,"is_reserved":false,"is_disabled":false,"rental_uris":{"android":"levelo://app?vid=b578f60f-8b33-4a75-a75b-5eee7eff1f80","ios":"levelo://app?vid=b578f60f-8b33-4a75-a75b-5eee7eff1f80"},"vehicle_type_id":"4","last_reported":1737299320,"current_range_meters":36800,"station_id":"ce4bgh92rcd13ifvqb50","pricing_plan_id":"cebpf4jnsgd1na2vs0mg"},{"bike_id":"60b7d049-237a-4dbd-ad0c-436ecde1802f","system_id":"levelo_inurba_marseille","lat":43.23189,"lon":5.35536,"is_reserved":false,"is_disabled":false,"rental_uris":{"android":"levelo://app?vid=60b7d049-237a-4dbd-ad0c-436ecde1802f","ios":"levelo://app?vid=60b7d049-237a-4dbd-ad0c-436ecde1802f"},"vehicle_type_id":"4","last_reported":1737299320,"current_range_meters":26800,"station_id":"ce4bhu92rcd13ifvqi70","pricing_plan_id":"cebpf4jnsgd1na2vs0mg"},{"bike_id":"b72d9725-83f4-4834-95fd-cdb738bcd4d7","system_id":"levelo_inurba_marseille","lat":43.28634,"lon":5.3511,"is_reserved":false,"is_disabled":false,"rental_uris":{"android":"levelo://app?vid=b72d9725-83f4-4834-95fd-cdb738bcd4d7","ios":"levelo://app?vid=b72d9725-83f4-4834-95fd-cdb738bcd4d7"},"vehicle_type_id":"4","last_reported":1737299320,"current_range_meters":32000,"station_id":"ce4bhch2rcd13ifvqeug","pricing_plan_id":"cebpf4jnsgd1na2vs0mg"},{"bike_id":"a8701af7-deca-400c-9cb2-c845062564a7","system_id":"levelo_inurba_marseille","lat":43.314377,"lon":5.387715,"is_reserved":false,"is_disabled":false,"rental_uris":{"android":"levelo://app?vid=a8701af7-deca-400c-9cb2-c845062564a7","ios":"levelo://app?vid=a8701af7-deca-400c-9cb2-c845062564a7"},"vehicle_type_id":"4","last_reported":1737299320,"current_range_meters":11600,"station_id":"","pricing_plan_id":"cebpf4jnsgd1na2vs0mg"},{"bike_id":"ab5c884d-2614-4fb1-b342-6ef49bec86bb","system_id":"levelo_inurba_marseille","lat":43.268,"lon":5.39424,"is_reserved":false,"is_disabled":false,"rental_uris":{"android":"levelo://app?vid=ab5c884d-2614-4fb1-b342-6ef49bec86bb","ios":"levelo://app?vid=ab5c884d-2614-4fb1-b342-6ef49bec86bb"},"vehicle_type_id":"4","last_reported":1737299320,"current_range_meters":19200,"station_id":"ce4bhh12rcd13ifvqfg0","pricing_plan_id":"cebpf4jnsgd1na2vs0mg"},{"bike_id":"bf25d0d3-c313-4bd1-80a8-5eebfd5decfd","system_id":"levelo_inurba_marseille","lat":43.24821,"lon":5.37454,"is_reserved":false,"is_disabled":false,"rental_uris":{"android":"levelo://app?vid=bf25d0d3-c313-4bd1-80a8-5eebfd5decfd","ios":"levelo://app?vid=bf25d0d3-c313-4bd1-80a8-5eebfd5decfd"},"vehicle_type_id":"4","last_reported":1737299320,"current_range_meters":30000,"station_id":"ce4bhgh2rcd13ifvqfb0","pricing_plan_id":"cebpf4jnsgd1na2vs0mg"},{"bike_id":"ee76e385-dc29-4ac5-8128-a5afbe69cc79","system_id":"levelo_inurba_marseille","lat":43.25085,"lon":5.39522,"is_reserved":false,"is_disabled":false,"rental_uris":{"android":"levelo://app?vid=ee76e385-dc29-4ac5-8128-a5afbe69cc79","ios":"levelo://app?vid=ee76e385-dc29-4ac5-8128-a5afbe69cc79"},"vehicle_type_id":"4","last_reported":1737299320,"current_range_meters":38000,"station_id":"ce4bhm12rcd13ifvqgkg","pricing_plan_id":"cebpf4jnsgd1na2vs0mg"},{"bike_id":"7eb88245-4d28-47ad-9039-235539f87dff","system_id":"levelo_inurba_marseille","lat":43.28635,"lon":5.35084,"is_reserved":false,"is_disabled":false,"rental_uris":{"android":"levelo://app?vid=7eb88245-4d28-47ad-9039-235539f87dff","ios":"levelo://app?vid=7eb88245-4d28-47ad-9039-235539f87dff"},"vehicle_type_id":"4","last_reported":1737299320,"current_range_meters":20800,"station_id":"ce4bhch2rcd13ifvqeug","pricing_plan_id":"cebpf4jnsgd1na2vs0mg"},{"bike_id":"c73224c5-8662-473f-8844-f010af6d2952","system_id":"levelo_inurba_marseille","lat":43.27198,"lon":5.40995,"is_reserved":false,"is_disabled":true,"rental_uris":{"android":"levelo://app?vid=c73224c5-8662-473f-8844-f010af6d2952","ios":"levelo://app?vid=c73224c5-8662-473f-8844-f010af6d2952"},"vehicle_type_id":"4","last_reported":1737299320,"current_range_meters":18000,"station_id":"ce4bhl12rcd13ifvqgf0","pricing_plan_id":"cebpf4jnsgd1na2vs0mg"},{"bike_id":"31fb05bf-16ef-448c-8b74-a1c12aa40358","system_id":"levelo_inurba_marseille","lat":43.32309,"lon":5.38273,"is_reserved":false,"is_disabled":false,"rental_uris":{"android":"levelo://app?vid=31fb05bf-16ef-448c-8b74-a1c12aa40358","ios":"levelo://app?vid=31fb05bf-16ef-448c-8b74-a1c12aa40358"},"vehicle_type_id":"4","last_reported":1737299320,"current_range_meters":9200,"station_id":"ce4bhr12rcd13ifvqhqg","pricing_plan_id":"cebpf4jnsgd1na2vs0mg"},{"bike_id":"95b517d0-9dcf-47f9-8053-773bec6e6a69","system_id":"levelo_inurba_marseille","lat":43.26686,"lon":5.39526,"is_reserved":false,"is_disabled":false,"rental_uris":{"android":"levelo://app?vid=95b517d0-9dcf-47f9-8053-773bec6e6a69","ios":"levelo://app?vid=95b517d0-9dcf-47f9-8053-773bec6e6a69"},"vehicle_type_id":"4","last_reported":1737299320,"current_range_meters":11600,"station_id":"","pricing_plan_id":"cebpf4jnsgd1na2vs0mg"},{"bike_id":"4747b3bf-efd2-4bb3-991d-86b0e6b671bc","system_id":"levelo_inurba_marseille","lat":43.30536,"lon":5.36535,"is_reserved":false,"is_disabled":false,"rental_uris":{"android":"levelo://app?vid=4747b3bf-efd2-4bb3-991d-86b0e6b671bc","ios":"levelo://app?vid=4747b3bf-efd2-4bb3-991d-86b0e6b671bc"},"vehicle_type_id":"4","last_reported":1737299320,"current_range_meters":38800,"station_id":"ce4bgs12rcd13ifvqcag","pricing_plan_id":"cebpf4jnsgd1na2vs0mg"},{"bike_id":"47e6ff8c-d52f-4b81-b3e9-cabc802a56e8","system_id":"levelo_inurba_marseille","lat":43.30535,"lon":5.36541,"is_reserved":false,"is_disabled":false,"rental_uris":{"android":"levelo://app?vid=47e6ff8c-d52f-4b81-b3e9-cabc802a56e8","ios":"levelo://app?vid=47e6ff8c-d52f-4b81-b3e9-cabc802a56e8"},"vehicle_type_id":"4","last_reported":1737299320,"current_range_meters":12000,"station_id":"ce4bgs12rcd13ifvqcag","pricing_plan_id":"cebpf4jnsgd1na2vs0mg"},{"bike_id":"a5995809-fdb3-48b2-801e-0592b2467bc1","system_id":"levelo_inurba_marseille","lat":43.28633,"lon":5.35111,"is_reserved":false,"is_disabled":false,"rental_uris":{"android":"levelo://app?vid=a5995809-fdb3-48b2-801e-0592b2467bc1","ios":"levelo://app?vid=a5995809-fdb3-48b2-801e-0592b2467bc1"},"vehicle_type_id":"4","last_reported":1737299320,"current_range_meters":38800,"station_id":"ce4bhch2rcd13ifvqeug","pricing_plan_id":"cebpf4jnsgd1na2vs0mg"},{"bike_id":"a1919386-043a-4944-9303-bc94459bda57","system_id":"levelo_inurba_marseille","lat":43.30561,"lon":5.36531,"is_reserved":false,"is_disabled":false,"rental_uris":{"android":"levelo://app?vid=a1919386-043a-4944-9303-bc94459bda57","ios":"levelo://app?vid=a1919386-043a-4944-9303-bc94459bda57"},"vehicle_type_id":"4","last_reported":1737299320,"current_range_meters":25200,"station_id":"ce4bgs12rcd13ifvqcag","pricing_plan_id":"cebpf4jnsgd1na2vs0mg"},{"bike_id":"3ce94aaa-d557-46fd-ab05-69533a03f745","system_id":"levelo_inurba_marseille","lat":43.27615,"lon":5.36108,"is_reserved":false,"is_disabled":false,"rental_uris":{"android":"levelo://app?vid=3ce94aaa-d557-46fd-ab05-69533a03f745","ios":"levelo://app?vid=3ce94aaa-d557-46fd-ab05-69533a03f745"},"vehicle_type_id":"4","last_reported":1737299320,"current_range_meters":24800,"station_id":"ce4bgj92rcd13ifvqbe0","pricing_plan_id":"cebpf4jnsgd1na2vs0mg"},{"bike_id":"bd514784-ffeb-4839-82af-d7fbe42874ac","system_id":"levelo_inurba_marseille","lat":43.26486,"lon":5.39547,"is_reserved":false,"is_disabled":false,"rental_uris":{"android":"levelo://app?vid=bd514784-ffeb-4839-82af-d7fbe42874ac","ios":"levelo://app?vid=bd514784-ffeb-4839-82af-d7fbe42874ac"},"vehicle_type_id":"4","last_reported":1737299320,"current_range_meters":39200,"station_id":"ce4bhi12rcd13ifvqfq0","pricing_plan_id":"cebpf4jnsgd1na2vs0mg"},{"bike_id":"6e052ebc-d377-4ae3-b784-be00f9441245","system_id":"levelo_inurba_marseille","lat":43.27623,"lon":5.36102,"is_reserved":false,"is_disabled":false,"rental_uris":{"android":"levelo://app?vid=6e052ebc-d377-4ae3-b784-be00f9441245","ios":"levelo://app?vid=6e052ebc-d377-4ae3-b784-be00f9441245"},"vehicle_type_id":"4","last_reported":1737299320,"current_range_meters":12800,"station_id":"ce4bgj92rcd13ifvqbe0","pricing_plan_id":"cebpf4jnsgd1na2vs0mg"},{"bike_id":"51f0124d-977b-452d-b54a-013a945870ad","system_id":"levelo_inurba_marseille","lat":43.29355,"lon":5.42789,"is_reserved":false,"is_disabled":false,"rental_uris":{"android":"levelo://app?vid=51f0124d-977b-452d-b54a-013a945870ad","ios":"levelo://app?vid=51f0124d-977b-452d-b54a-013a945870ad"},"vehicle_type_id":"4","last_reported":1737299320,"current_range_meters":9200,"station_id":"","pricing_plan_id":"cebpf4jnsgd1na2vs0mg"},